{"last_updated":1692734805,"ttl":30,"version":"2.2","data":{"bikes":[{"bike_id":"f22ca441-4e4e-4660-b824-b2f46943e54d","system_id":"levelo_inurba_marseille","lat":43.312239,"lon":5.368562,"is_reserved":false,"is_disabled":false,"rental_uris":{"android":"levelo://app?vid=f22ca441-4e4e-4660-b824-b2f46943e54d","ios":"levelo://app?vid=f22ca441-4e4e-4660-b824-b2f46943e54d"},"vehicle_type_id":"4","last_reported":1692734805,"current_range_meters":31200,"station_id":"ce4bgl92rcd13ifvqbq0","pricing_plan_id":"free"},{"bike_id":"0c105f08-84cd-41da-abfa-c3df23d24521","system_id":"levelo_inurba_marseille","lat":43.312239,"lon":5.368562,"is_reserved":false,"is_disabled":false,"rental_uris":{"android":"levelo://app?vid=0c105f08-84cd-41da-abfa-c3df23d24521","ios":"levelo://app?vid=0c105f08-84cd-41da-abfa-c3df23d24521"},"vehicle_type_id":"4","last_reported":1692734805,"current_range_meters":8000,"station_id":"ce4bgl92rcd13ifvqbq0","pricing_plan_id":"free"},{"bike_id":"1059be4c-939e-4938-9221-f057139bc3a5","system_id":"levelo_inurba_marseille","lat":43.312239,"lon":5.368562,"is_reserved":false,"is_disabled":false,"rental_uris":{"android":"levelo://app?vid=1059be4c-939e-4938-9221-f057139bc3a5","ios":"levelo://app?vid=1059be4c-939e-4938-9221-f057139bc3a5"},"vehicle_type_id":"4","last_reported":1692734805,"current_range_meters":6800,"station_id":"ce4bgl92rcd13ifvqbq0","pricing_plan_id":"free"},{"bike_id":"ee1092ba-589d-4bb4-909a-1e43baa2f1cf","system_id":"levelo_inurba_marseille","lat":43.309076,"lon":5.368465,"is_reserved":false,"is_disabled":false,"rental_uris":{"android":"levelo://app?vid=ee1092ba-589d-4bb4-909a-1e43baa2f1cf","ios":"levelo://app?vid=ee1092ba-589d-4bb4-909a-1e43baa2f1cf"},"vehicle_type_id":"4","last_reported":1692734805,"current_range_meters":16000,"station_id":"ce4bgn92rcd13ifvqbvg","pricing_plan_id":"free"},{"bike_id":"499335b6-e9d4-41be-97ca-0faa24199d47","system_id":"levelo_inurba_marseille","lat":43.309076,"lon":5.368465,"is_reserved":false,"is_disabled":false,"rental_uris":{"android":"levelo://app?vid=499335b6-e9d4-41be-97ca-0faa24199d47","ios":"levelo://app?vid=499335b6-e9d4-41be-97ca-0faa24199d47"},"vehicle_type_id":"4","last_reported":1692734805,"current_range_meters":2000,"station_id":"ce4bgn92rcd13ifvqbvg","pricing_plan_id":"free"},{"bike_id":"a3b72f26-ea2b-4b90-a05a-86092c507609","system_id":"levelo_inurba_marseille","lat":43.314811,"lon":5.373103,"is_reserved":false,"is_disabled":false,"rental_uris":{"android":"levelo://app?vid=a3b72f26-ea2b-4b90-a05a-86092c507609","ios":"levelo://app?vid=a3b72f26-ea2b-4b90-a05a-86092c507609"},"vehicle_type_id":"4","last_reported":1692734805,"current_range_meters":6000,"station_id":"ce4bgt12rcd13ifvqcd0","pricing_plan_id":"free"},{"bike_id":"d2be997d-44d2-40a5-bb20-02aeaaf65fa5","system_id":"levelo_inurba_marseille","lat":43.314811,"lon":5.373103,"is_reserved":false,"is_disabled":false,"rental_uris":{"android":"levelo://app?vid=d2be997d-44d2-40a5-bb20-02aeaaf65fa5","ios":"levelo://app?vid=d2be997d-44d2-40a5-bb20-02aeaaf65fa5"},"vehicle_type_id":"4","last_reported":1692734805,"current_range_meters":31600,"station_id":"ce4bgt12rcd13ifvqcd0","pricing_plan_id":"free"},{"bike_id":"c76651ef-0095-4b37-8d71-e415cd36efca","system_id":"levelo_inurba_marseille","lat":43.314811,"lon":5.373103,"is_reserved":false,"is_disabled":false,"rental_uris":{"android":"levelo://app?vid=c76651ef-0095-4b37-8d71-e415cd36efca","ios":"levelo://app?vid=c76651ef-0095-4b37-8d71-e415cd36efca"},"vehicle_type_id":"4","last_reported":1692734805,"current_range_meters":400,"station_id":"ce4bgt12rcd13ifvqcd0","pricing_plan_id":"free"},{"bike_id":"f1e14983-31e5-4f49-8294-c5c82ccff8ca","system_id":"levelo_inurba_marseille","lat":43.314811,"lon":5.373103,"is_reserved":false,"is_disabled":false,"rental_uris":{"android":"levelo://app?vid=f1e14983-31e5-4f49-8294-c5c82ccff8ca","ios":"levelo://app?vid=f1e14983-31e5-4f49-8294-c5c82ccff8ca"},"vehicle_type_id":"4","last_reported":1692734805,"current_range_meters":25600,"station_id":"ce4bgt12rcd13ifvqcd0","pricing_plan_id":"free"},{"bike_id":"420c50b2-c08e-460e-a37e-37b76e12a09f","system_id":"levelo_inurba_marseille","lat":43.314811,"lon":5.373103,"is_reserved":false,"is_disabled":false,"rental_uris":{"android":"levelo://app?vid=420c50b2-c08e-460e-a37e-37b76e12a09f","ios":"levelo://app?vid=420c50b2-c08e-460e-a37e-37b76e12a09f"},"vehicle_type_id":"4","last_reported":1692734805,"current_range_meters":7600,"station_id":"ce4bgt12rcd13ifvqcd0","pricing_plan_id":"free"},{"bike_id":"6d89fd4a-50d6-4e19-9117-7673e6cce0bf","system_id":"levelo_inurba_marseille","lat":43.309039,"lon":5.371797,"is_reserved":false,"is_disabled":false,"rental_uris":{"android":"levelo://app?vid=6d89fd4a-50d6-4e19-9117-7673e6cce0bf","ios":"levelo://app?vid=6d89fd4a-50d6-4e19-9117-7673e6cce0bf"},"vehicle_type_id":"4","last_reported":1692734805,"current_range_meters":16400,"station_id":"ce4bguh2rcd13ifvqckg","pricing_plan_id":"free"},{"bike_id":"bfb89dac-01ae-48bf-b3e8-5e07b67c91f0","system_id":"levelo_inurba_marseille","lat":43.31266,"lon":5.37597,"is_reserved":false,"is_disabled":false,"rental_uris":{"android":"levelo://app?vid=bfb89dac-01ae-48bf-b3e8-5e07b67c91f0","ios":"levelo://app?vid=bfb89dac-01ae-48bf-b3e8-5e07b67c91f0"},"vehicle_type_id":"4","last_reported":1692734805,"current_range_meters":30000,"station_id":"","pricing_plan_id":"free"},{"bike_id":"90e068d0-604a-4aaf-baca-512c969ade84","system_id":"levelo_inurba_marseille","lat":43.31255,"lon":5.37606,"is_reserved":false,"is_disabled":false,"rental_uris":{"android":"levelo://app?vid=90e068d0-604a-4aaf-baca-512c969ade84","ios":"levelo://app?vid=90e068d0-604a-4aaf-baca-512c969ade84"},"vehicle_type_id":"4","last_reported":1692734805,"current_range_meters":28800,"station_id":"","pricing_plan_id":"free"},{"bike_id":"e35f9786-99c7-46a5-8e3a-afab00636205","system_id":"levelo_inurba_marseille","lat":43.31248,"lon":5.37619,"is_reserved":false,"is_disabled":false,"rental_uris":{"android":"levelo://app?vid=e35f9786-99c7-46a5-8e3a-afab00636205","ios":"levelo://app?vid=e35f9786-99c7-46a5-8e3a-afab00636205"},"vehicle_type_id":"4","last_reported":1692734805,"current_range_meters":29200,"station_id":"","pricing_plan_id":"free"},{"bike_id":"ed31cafb-a710-4c92-a3d3-0793f96db9c5","system_id":"levelo_inurba_marseille","lat":43.30545,"lon":5.3655,"is_reserved":false,"is_disabled":false,"rental_uris":{"android":"levelo://app?vid=ed31cafb-a710-4c92-a3d3-0793f96db9c5","ios":"levelo://app?vid=ed31cafb-a710-4c92-a3d3-0793f96db9c5"},"vehicle_type_id":"4","last_reported":1692734805,"current_range_meters":3600,"station_id":"ce4bgs12rcd13ifvqcag","pricing_plan_id":"free"},{"bike_id":"9fbe6e18-d192-44c2-98b5-cafb68b41aa4","system_id":"levelo_inurba_marseille","lat":43.30538,"lon":5.36535,"is_reserved":false,"is_disabled":false,"rental_uris":{"android":"levelo://app?vid=9fbe6e18-d192-44c2-98b5-cafb68b41aa4","ios":"levelo://app?vid=9fbe6e18-d192-44c2-98b5-cafb68b41aa4"},"vehicle_type_id":"4","last_reported":1692734805,"current_range_meters":26000,"station_id":"ce4bgs12rcd13ifvqcag","pricing_plan_id":"free"},{"bike_id":"35b0396d-cfed-4fa8-a477-d7c9acfb10f6","system_id":"levelo_inurba_marseille","lat":43.305989,"lon":5.37225,"is_reserved":false,"is_disabled":false,"rental_uris":{"android":"levelo://app?vid=35b0396d-cfed-4fa8-a477-d7c9acfb10f6","ios":"levelo://app?vid=35b0396d-cfed-4fa8-a477-d7c9acfb10f6"},"vehicle_type_id":"4","last_reported":1692734805,"current_range_meters":6800,"station_id":"ce4bgqh2rcd13ifvqc4g","pricing_plan_id":"free"},{"bike_id":"62616b70-9ff6-4e70-8ec8-040e738862e3","system_id":"levelo_inurba_marseille","lat":43.305989,"lon":5.37225,"is_reserved":false,"is_disabled":false,"rental_uris":{"android":"levelo://app?vid=62616b70-9ff6-4e70-8ec8-040e738862e3","ios":"levelo://app?vid=62616b70-9ff6-4e70-8ec8-040e738862e3"},"vehicle_type_id":"4","last_reported":1692734805,"current_range_meters":14400,"station_id":"ce4bgqh2rcd13ifvqc4g","pricing_plan_id":"free"},{"bike_id":"4084b96f-2523-4923-bf8b-24f25009d853","system_id":"levelo_inurba_marseille","lat":43.305989,"lon":5.37225,"is_reserved":false,"is_disabled":false,"rental_uris":{"android":"levelo://app?vid=4084b96f-2523-4923-bf8b-24f25009d853","ios":"levelo://app?vid=4084b96f-2523-4923-bf8b-24f25009d853"},"vehicle_type_id":"4","last_reported":1692734805,"current_range_meters":4000,"station_id":"ce4bgqh2rcd13ifvqc4g","pricing_plan_id":"free"},{"bike_id":"99db7df2-0851-4e49-8382-4b67b8ce437f","system_id":"levelo_inurba_marseille","lat":43.305989,"lon":5.37225,"is_reserved":false,"is_disabled":false,"rental_uris":{"android":"levelo://app?vid=99db7df2-0851-4e49-8382-4b67b8ce437f","ios":"levelo://app?vid=99db7df2-0851-4e49-8382-4b67b8ce437f"},"vehicle_type_id":"4","last_reported":1692734805,"current_range_meters":24000,"station_id":"ce4bgqh2rcd13ifvqc4g","pricing_plan_id":"free"},{"bike_id":"2c6b53cd-ac9f-47fb-9d71-d569c56b7fc7","system_id":"levelo_inurba_marseille","lat":43.305989,"lon":5.37225,"is_reserved":false,"is_disabled":false,"rental_uris":{"android":"levelo://app?vid=2c6b53cd-ac9f-47fb-9d71-d569c56b7fc7","ios":"levelo://app?vid=2c6b53cd-ac9f-47fb-9d71-d569c56b7fc7"},"vehicle_type_id":"4","last_reported":1692734805,"current_range_meters":9200,"station_id":"ce4bgqh2rcd13ifvqc4g","pricing_plan_id":"free"},{"bike_id":"fee46877-5f58-4220-b46a-d9c7069c0763","system_id":"levelo_inurba_marseille","lat":43.305989,"lon":5.37225,"is_reserved":false,"is_disabled":false,"rental_uris":{"android":"levelo://app?vid=fee46877-5f58-4220-b46a-d9c7069c0763","ios":"levelo://app?vid=fee46877-5f58-4220-b46a-d9c7069c0763"},"vehicle_type_id":"4","last_reported":1692734805,"current_range_meters":29200,"station_id":"ce4bgqh2rcd13ifvqc4g","pricing_plan_id":"free"},{"bike_id":"874e34a8-80c1-4d79-8e18-aa1bd38adad4","system_id":"levelo_inurba_marseille","lat":43.317065,"lon":5.377313,"is_reserved":false,"is_disabled":false,"rental_uris":{"android":"levelo://app?vid=874e34a8-80c1-4d79-8e18-aa1bd38adad4","ios":"levelo://app?vid=874e34a8-80c1-4d79-8e18-aa1bd38adad4"},"vehicle_type_id":"4","last_reported":1692734805,"current_range_meters":0,"station_id":"ce4bgth2rcd13ifvqch0","pricing_plan_id":"free"},{"bike_id":"9423ef59-be86-46c3-a5b3-04293ba7e827","system_id":"levelo_inurba_marseille","lat":43.30301,"lon":5.36907,"is_reserved":false,"is_disabled":false,"rental_uris":{"android":"levelo://app?vid=9423ef59-be86-46c3-a5b3-04293ba7e827","ios":"levelo://app?vid=9423ef59-be86-46c3-a5b3-04293ba7e827"},"vehicle_type_id":"4","last_reported":1692734805,"current_range_meters":0,"station_id":"ce4bgqh2rcd13ifvqc5g","pricing_plan_id":"free"},{"bike_id":"8c1589ba-b171-4f9b-9199-86b2eb1deeb8","system_id":"levelo_inurba_marseille","lat":43.315289,"lon":5.380349,"is_reserved":false,"is_disabled":false,"rental_uris":{"android":"levelo://app?vid=8c1589ba-b171-4f9b-9199-86b2eb1deeb8","ios":"levelo://app?vid=8c1589ba-b171-4f9b-9199-86b2eb1deeb8"},"vehicle_type_id":"4","last_reported":1692734805,"current_range_meters":10400,"station_id":"ce4bhsp2rcd13ifvqi50","pricing_plan_id":"free"},{"bike_id":"2a3d5432-0108-4eb9-882d-694bea8753ec","system_id":"levelo_inurba_marseille","lat":43.315289,"lon":5.380349,"is_reserved":false,"is_disabled":false,"rental_uris":{"android":"levelo://app?vid=2a3d5432-0108-4eb9-882d-694bea8753ec","ios":"levelo://app?vid=2a3d5432-0108-4eb9-882d-694bea8753ec"},"vehicle_type_id":"4","last_reported":1692734805,"current_range_meters":4400,"station_id":"ce4bhsp2rcd13ifvqi50","pricing_plan_id":"free"},{"bike_id":"f3b585f5-2b8e-44b6-90d3-9d24b9e119bc","system_id":"levelo_inurba_marseille","lat":43.31522,"lon":5.38039,"is_reserved":false,"is_disabled":false,"rental_uris":{"android":"levelo://app?vid=f3b585f5-2b8e-44b6-90d3-9d24b9e119bc","ios":"levelo://app?vid=f3b585f5-2b8e-44b6-90d3-9d24b9e119bc"},"vehicle_type_id":"4","last_reported":1692734805,"current_range_meters":23600,"station_id":"ce4bhsp2rcd13ifvqi50","pricing_plan_id":"free"},{"bike_id":"8328324e-d24b-4254-9096-278bf2afe6b7","system_id":"levelo_inurba_marseille","lat":43.31526,"lon":5.38038,"is_reserved":false,"is_disabled":false,"rental_uris":{"android":"levelo://app?vid=8328324e-d24b-4254-9096-278bf2afe6b7","ios":"levelo://app?vid=8328324e-d24b-4254-9096-278bf2afe6b7"},"vehicle_type_id":"4","last_reported":1692734805,"current_range_meters":12800,"station_id":"ce4bhsp2rcd13ifvqi50","pricing_plan_id":"free"},{"bike_id":"262cf2e4-0208-49ff-ad2f-f349dc86c092","system_id":"levelo_inurba_marseille","lat":43.308012,"lon":5.381511,"is_reserved":false,"is_disabled":false,"rental_uris":{"android":"levelo://app?vid=262cf2e4-0208-49ff-ad2f-f349dc86c092","ios":"levelo://app?vid=262cf2e4-0208-49ff-ad2f-f349dc86c092"},"vehicle_type_id":"4","last_reported":1692734805,"current_range_meters":28400,"station_id":"ce4bgt12rcd13ifvqce0","pricing_plan_id":"free"},{"bike_id":"af1c76a9-3481-4a0d-b8cd-f482e54db046","system_id":"levelo_inurba_marseille","lat":43.308012,"lon":5.381511,"is_reserved":false,"is_disabled":false,"rental_uris":{"android":"levelo://app?vid=af1c76a9-3481-4a0d-b8cd-f482e54db046","ios":"levelo://app?vid=af1c76a9-3481-4a0d-b8cd-f482e54db046"},"vehicle_type_id":"4","last_reported":1692734805,"current_range_meters":26800,"station_id":"ce4bgt12rcd13ifvqce0","pricing_plan_id":"free"},{"bike_id":"237c1187-0b1e-4a6a-83f3-89fcb0ea5cea","system_id":"levelo_inurba_marseille","lat":43.307898,"lon":5.381549,"is_reserved":false,"is_disabled":false,"rental_uris":{"android":"levelo://app?vid=237c1187-0b1e-4a6a-83f3-89fcb0ea5cea","ios":"levelo://app?vid=237c1187-0b1e-4a6a-83f3-89fcb0ea5cea"},"vehicle_type_id":"4","last_reported":1692734805,"current_range_meters":0,"station_id":"ce4bgt92rcd13ifvqcg0","pricing_plan_id":"free"},{"bike_id":"5a761657-73e6-461e-9ed8-3a86f94fa5c4","system_id":"levelo_inurba_marseille","lat":43.308012,"lon":5.381511,"is_reserved":false,"is_disabled":false,"rental_uris":{"android":"levelo://app?vid=5a761657-73e6-461e-9ed8-3a86f94fa5c4","ios":"levelo://app?vid=5a761657-73e6-461e-9ed8-3a86f94fa5c4"},"vehicle_type_id":"4","last_reported":1692734805,"current_range_meters":8000,"station_id":"ce4bgt12rcd13ifvqce0","pricing_plan_id":"free"},{"bike_id":"d33e896d-bcd7-4f4c-9452-de5ba9448601","system_id":"levelo_inurba_marseille","lat":43.304606,"lon":5.379026,"is_reserved":false,"is_disabled":false,"rental_uris":{"android":"levelo://app?vid=d33e896d-bcd7-4f4c-9452-de5ba9448601","ios":"levelo://app?vid=d33e896d-bcd7-4f4c-9452-de5ba9448601"},"vehicle_type_id":"4","last_reported":1692734805,"current_range_meters":0,"station_id":"ce4bgup2rcd13ifvqcn0","pricing_plan_id":"free"},{"bike_id":"ea18d479-0b70-46ae-b13e-811a355c6abe","system_id":"levelo_inurba_marseille","lat":43.304606,"lon":5.379026,"is_reserved":false,"is_disabled":false,"rental_uris":{"android":"levelo://app?vid=ea18d479-0b70-46ae-b13e-811a355c6abe","ios":"levelo://app?vid=ea18d479-0b70-46ae-b13e-811a355c6abe"},"vehicle_type_id":"4","last_reported":1692734805,"current_range_meters":0,"station_id":"ce4bgup2rcd13ifvqcn0","pricing_plan_id":"free"},{"bike_id":"af970a6f-a0eb-46ae-af0e-a890ba80d546","system_id":"levelo_inurba_marseille","lat":43.302784,"lon":5.377158,"is_reserved":false,"is_disabled":false,"rental_uris":{"android":"levelo://app?vid=af970a6f-a0eb-46ae-af0e-a890ba80d546","ios":"levelo://app?vid=af970a6f-a0eb-46ae-af0e-a890ba80d546"},"vehicle_type_id":"4","last_reported":1692734805,"current_range_meters":800,"station_id":"ce4bguh2rcd13ifvqcj0","pricing_plan_id":"free"},{"bike_id":"d86d50f3-96d0-4f82-b515-e64529fd9838","system_id":"levelo_inurba_marseille","lat":43.320035,"lon":5.381676,"is_reserved":false,"is_disabled":false,"rental_uris":{"android":"levelo://app?vid=d86d50f3-96d0-4f82-b515-e64529fd9838","ios":"levelo://app?vid=d86d50f3-96d0-4f82-b515-e64529fd9838"},"vehicle_type_id":"4","last_reported":1692734805,"current_range_meters":19200,"station_id":"","pricing_plan_id":"free"},{"bike_id":"a40e6b9a-8975-4e19-8c57-5af8ebf81879","system_id":"levelo_inurba_marseille","lat":43.313571,"lon":5.384829,"is_reserved":false,"is_disabled":false,"rental_uris":{"android":"levelo://app?vid=a40e6b9a-8975-4e19-8c57-5af8ebf81879","ios":"levelo://app?vid=a40e6b9a-8975-4e19-8c57-5af8ebf81879"},"vehicle_type_id":"4","last_reported":1692734805,"current_range_meters":30000,"station_id":"ce4bgt92rcd13ifvqcf0","pricing_plan_id":"free"},{"bike_id":"3affcefe-f6d6-4b7a-bcde-3a1600c064ff","system_id":"levelo_inurba_marseille","lat":43.313571,"lon":5.384829,"is_reserved":false,"is_disabled":false,"rental_uris":{"android":"levelo://app?vid=3affcefe-f6d6-4b7a-bcde-3a1600c064ff","ios":"levelo://app?vid=3affcefe-f6d6-4b7a-bcde-3a1600c064ff"},"vehicle_type_id":"4","last_reported":1692734805,"current_range_meters":23600,"station_id":"ce4bgt92rcd13ifvqcf0","pricing_plan_id":"free"},{"bike_id":"74d35b56-2bb8-41b4-88d8-7d49f9206e02","system_id":"levelo_inurba_marseille","lat":43.299724,"lon":5.371829,"is_reserved":false,"is_disabled":false,"rental_uris":{"android":"levelo://app?vid=74d35b56-2bb8-41b4-88d8-7d49f9206e02","ios":"levelo://app?vid=74d35b56-2bb8-41b4-88d8-7d49f9206e02"},"vehicle_type_id":"4","last_reported":1692734805,"current_range_meters":9200,"station_id":"ce4bgr92rcd13ifvqc7g","pricing_plan_id":"free"},{"bike_id":"7f7701b5-fba8-4919-9fab-69d42309a268","system_id":"levelo_inurba_marseille","lat":43.299222,"lon":5.365554,"is_reserved":false,"is_disabled":false,"rental_uris":{"android":"levelo://app?vid=7f7701b5-fba8-4919-9fab-69d42309a268","ios":"levelo://app?vid=7f7701b5-fba8-4919-9fab-69d42309a268"},"vehicle_type_id":"4","last_reported":1692734805,"current_range_meters":0,"station_id":"ce4bgm92rcd13ifvqbr0","pricing_plan_id":"free"},{"bike_id":"61fa92fa-cf22-4b23-a7f9-06103aad9eb0","system_id":"levelo_inurba_marseille","lat":43.299724,"lon":5.371829,"is_reserved":false,"is_disabled":false,"rental_uris":{"android":"levelo://app?vid=61fa92fa-cf22-4b23-a7f9-06103aad9eb0","ios":"levelo://app?vid=61fa92fa-cf22-4b23-a7f9-06103aad9eb0"},"vehicle_type_id":"4","last_reported":1692734805,"current_range_meters":30000,"station_id":"ce4bgr92rcd13ifvqc7g","pricing_plan_id":"free"},{"bike_id":"95dc9ecf-047e-4c3a-bb12-a5676cb36ad4","system_id":"levelo_inurba_marseille","lat":43.3216,"lon":5.38166,"is_reserved":false,"is_disabled":false,"rental_uris":{"android":"levelo://app?vid=95dc9ecf-047e-4c3a-bb12-a5676cb36ad4","ios":"levelo://app?vid=95dc9ecf-047e-4c3a-bb12-a5676cb36ad4"},"vehicle_type_id":"4","last_reported":1692734805,"current_range_meters":6000,"station_id":"","pricing_plan_id":"free"},{"bike_id":"31cd58a0-046a-428f-ac3e-3629efb51bc7","system_id":"levelo_inurba_marseille","lat":43.30542,"lon":5.38428,"is_reserved":false,"is_disabled":false,"rental_uris":{"android":"levelo://app?vid=31cd58a0-046a-428f-ac3e-3629efb51bc7","ios":"levelo://app?vid=31cd58a0-046a-428f-ac3e-3629efb51bc7"},"vehicle_type_id":"4","last_reported":1692734805,"current_range_meters":10800,"station_id":"ce4bgg92rcd13ifvqb30","pricing_plan_id":"free"},{"bike_id":"df9ebd05-6bb8-47f4-9ca0-ff5848919d08","system_id":"levelo_inurba_marseille","lat":43.298433,"lon":5.362774,"is_reserved":false,"is_disabled":false,"rental_uris":{"android":"levelo://app?vid=df9ebd05-6bb8-47f4-9ca0-ff5848919d08","ios":"levelo://app?vid=df9ebd05-6bb8-47f4-9ca0-ff5848919d08"},"vehicle_type_id":"4","last_reported":1692734805,"current_range_meters":18400,"station_id":"ce4bgpp2rcd13ifvqc3g","pricing_plan_id":"free"},{"bike_id":"6672f5d2-c435-4743-b098-f7c92b60e622","system_id":"levelo_inurba_marseille","lat":43.3054,"lon":5.38433,"is_reserved":false,"is_disabled":false,"rental_uris":{"android":"levelo://app?vid=6672f5d2-c435-4743-b098-f7c92b60e622","ios":"levelo://app?vid=6672f5d2-c435-4743-b098-f7c92b60e622"},"vehicle_type_id":"4","last_reported":1692734805,"current_range_meters":15200,"station_id":"ce4bgg92rcd13ifvqb30","pricing_plan_id":"free"},{"bike_id":"161b8672-36f4-4f36-904c-f0a074a7c924","system_id":"levelo_inurba_marseille","lat":43.30545,"lon":5.38438,"is_reserved":false,"is_disabled":false,"rental_uris":{"android":"levelo://app?vid=161b8672-36f4-4f36-904c-f0a074a7c924","ios":"levelo://app?vid=161b8672-36f4-4f36-904c-f0a074a7c924"},"vehicle_type_id":"4","last_reported":1692734805,"current_range_meters":6800,"station_id":"ce4bgg92rcd13ifvqb30","pricing_plan_id":"free"},{"bike_id":"880013ef-d632-48d3-bd34-d88fabbd8ee0","system_id":"levelo_inurba_marseille","lat":43.299243,"lon":5.374807,"is_reserved":false,"is_disabled":false,"rental_uris":{"android":"levelo://app?vid=880013ef-d632-48d3-bd34-d88fabbd8ee0","ios":"levelo://app?vid=880013ef-d632-48d3-bd34-d88fabbd8ee0"},"vehicle_type_id":"4","last_reported":1692734805,"current_range_meters":13200,"station_id":"ce4bgjh2rcd13ifvqbg0","pricing_plan_id":"free"},{"bike_id":"361cbc18-8fa1-4703-bee9-11cb00caab3b","system_id":"levelo_inurba_marseille","lat":43.299243,"lon":5.374807,"is_reserved":false,"is_disabled":false,"rental_uris":{"android":"levelo://app?vid=361cbc18-8fa1-4703-bee9-11cb00caab3b","ios":"levelo://app?vid=361cbc18-8fa1-4703-bee9-11cb00caab3b"},"vehicle_type_id":"4","last_reported":1692734805,"current_range_meters":13200,"station_id":"ce4bgjh2rcd13ifvqbg0","pricing_plan_id":"free"},{"bike_id":"d6db2143-bba2-46f5-812a-756e8cf6db81","system_id":"levelo_inurba_marseille","lat":43.29919,"lon":5.37477,"is_reserved":false,"is_disabled":false,"rental_uris":{"android":"levelo://app?vid=d6db2143-bba2-46f5-812a-756e8cf6db81","ios":"levelo://app?vid=d6db2143-bba2-46f5-812a-756e8cf6db81"},"vehicle_type_id":"4","last_reported":1692734805,"current_range_meters":2400,"station_id":"ce4bgjh2rcd13ifvqbg0","pricing_plan_id":"free"},{"bike_id":"2f9e2def-2173-4eb4-a460-9a385f59debe","system_id":"levelo_inurba_marseille","lat":43.299243,"lon":5.374807,"is_reserved":false,"is_disabled":false,"rental_uris":{"android":"levelo://app?vid=2f9e2def-2173-4eb4-a460-9a385f59debe","ios":"levelo://app?vid=2f9e2def-2173-4eb4-a460-9a385f59debe"},"vehicle_type_id":"4","last_reported":1692734805,"current_range_meters":31200,"station_id":"ce4bgjh2rcd13ifvqbg0","pricing_plan_id":"free"},{"bike_id":"a6132b86-fad1-4f2e-a2ec-74475bf52a61","system_id":"levelo_inurba_marseille","lat":43.311722,"lon":5.387247,"is_reserved":false,"is_disabled":false,"rental_uris":{"android":"levelo://app?vid=a6132b86-fad1-4f2e-a2ec-74475bf52a61","ios":"levelo://app?vid=a6132b86-fad1-4f2e-a2ec-74475bf52a61"},"vehicle_type_id":"4","last_reported":1692734805,"current_range_meters":9200,"station_id":"ce4bgv12rcd13ifvqcp0","pricing_plan_id":"free"},{"bike_id":"8dc74b15-16e8-458d-b318-829df7df5e5e","system_id":"levelo_inurba_marseille","lat":43.311722,"lon":5.387247,"is_reserved":false,"is_disabled":false,"rental_uris":{"android":"levelo://app?vid=8dc74b15-16e8-458d-b318-829df7df5e5e","ios":"levelo://app?vid=8dc74b15-16e8-458d-b318-829df7df5e5e"},"vehicle_type_id":"4","last_reported":1692734805,"current_range_meters":30400,"station_id":"ce4bgv12rcd13ifvqcp0","pricing_plan_id":"free"},{"bike_id":"b885f463-e8c5-42cc-902f-7152167ce1c7","system_id":"levelo_inurba_marseille","lat":43.29909,"lon":5.37483,"is_reserved":false,"is_disabled":false,"rental_uris":{"android":"levelo://app?vid=b885f463-e8c5-42cc-902f-7152167ce1c7","ios":"levelo://app?vid=b885f463-e8c5-42cc-902f-7152167ce1c7"},"vehicle_type_id":"4","last_reported":1692734805,"current_range_meters":31200,"station_id":"ce4bgjh2rcd13ifvqbg0","pricing_plan_id":"free"},{"bike_id":"adbfe53e-8de1-4d10-b219-7f6fe970daf3","system_id":"levelo_inurba_marseille","lat":43.311722,"lon":5.387247,"is_reserved":false,"is_disabled":false,"rental_uris":{"android":"levelo://app?vid=adbfe53e-8de1-4d10-b219-7f6fe970daf3","ios":"levelo://app?vid=adbfe53e-8de1-4d10-b219-7f6fe970daf3"},"vehicle_type_id":"4","last_reported":1692734805,"current_range_meters":30800,"station_id":"ce4bgv12rcd13ifvqcp0","pricing_plan_id":"free"},{"bike_id":"b219b8e7-d72e-4f05-ba49-e70e137dcc62","system_id":"levelo_inurba_marseille","lat":43.311722,"lon":5.387247,"is_reserved":false,"is_disabled":false,"rental_uris":{"android":"levelo://app?vid=b219b8e7-d72e-4f05-ba49-e70e137dcc62","ios":"levelo://app?vid=b219b8e7-d72e-4f05-ba49-e70e137dcc62"},"vehicle_type_id":"4","last_reported":1692734805,"current_range_meters":9200,"station_id":"ce4bgv12rcd13ifvqcp0","pricing_plan_id":"free"},{"bike_id":"48773837-8a01-4137-95bb-600dc54ff51e","system_id":"levelo_inurba_marseille","lat":43.32298,"lon":5.38255,"is_reserved":false,"is_disabled":false,"rental_uris":{"android":"levelo://app?vid=48773837-8a01-4137-95bb-600dc54ff51e","ios":"levelo://app?vid=48773837-8a01-4137-95bb-600dc54ff51e"},"vehicle_type_id":"4","last_reported":1692734805,"current_range_meters":27200,"station_id":"ce4bhr12rcd13ifvqhqg","pricing_plan_id":"free"},{"bike_id":"dd789220-e7b5-42c1-b9dc-dc4243148021","system_id":"levelo_inurba_marseille","lat":43.297163,"lon":5.365866,"is_reserved":false,"is_disabled":false,"rental_uris":{"android":"levelo://app?vid=dd789220-e7b5-42c1-b9dc-dc4243148021","ios":"levelo://app?vid=dd789220-e7b5-42c1-b9dc-dc4243148021"},"vehicle_type_id":"4","last_reported":1692734805,"current_range_meters":31200,"station_id":"ce4bgn12rcd13ifvqbt0","pricing_plan_id":"free"},{"bike_id":"a520c0e4-9a3e-4c8b-a582-27a7a0b5eb34","system_id":"levelo_inurba_marseille","lat":43.32845,"lon":5.36679,"is_reserved":false,"is_disabled":false,"rental_uris":{"android":"levelo://app?vid=a520c0e4-9a3e-4c8b-a582-27a7a0b5eb34","ios":"levelo://app?vid=a520c0e4-9a3e-4c8b-a582-27a7a0b5eb34"},"vehicle_type_id":"4","last_reported":1692734805,"current_range_meters":16000,"station_id":"ce4bhs92rcd13ifvqi0g","pricing_plan_id":"free"},{"bike_id":"d8519647-19ce-4c78-b0d1-6a2314908389","system_id":"levelo_inurba_marseille","lat":43.31553,"lon":5.38835,"is_reserved":false,"is_disabled":false,"rental_uris":{"android":"levelo://app?vid=d8519647-19ce-4c78-b0d1-6a2314908389","ios":"levelo://app?vid=d8519647-19ce-4c78-b0d1-6a2314908389"},"vehicle_type_id":"4","last_reported":1692734805,"current_range_meters":25600,"station_id":"","pricing_plan_id":"free"},{"bike_id":"96718fe1-b88d-43e4-8717-1fa9cfbfeea2","system_id":"levelo_inurba_marseille","lat":43.299028,"lon":5.381509,"is_reserved":false,"is_disabled":false,"rental_uris":{"android":"levelo://app?vid=96718fe1-b88d-43e4-8717-1fa9cfbfeea2","ios":"levelo://app?vid=96718fe1-b88d-43e4-8717-1fa9cfbfeea2"},"vehicle_type_id":"4","last_reported":1692734805,"current_range_meters":0,"station_id":"ce4bgj12rcd13ifvqbc0","pricing_plan_id":"free"},{"bike_id":"e6376228-ac3e-49ca-b3bb-57d6af5a03b2","system_id":"levelo_inurba_marseille","lat":43.296129,"lon":5.370777,"is_reserved":false,"is_disabled":false,"rental_uris":{"android":"levelo://app?vid=e6376228-ac3e-49ca-b3bb-57d6af5a03b2","ios":"levelo://app?vid=e6376228-ac3e-49ca-b3bb-57d6af5a03b2"},"vehicle_type_id":"4","last_reported":1692734805,"current_range_meters":0,"station_id":"ce4bgnh2rcd13ifvqc0g","pricing_plan_id":"free"},{"bike_id":"d3139180-8ba9-4c91-b6e4-8baae3c22113","system_id":"levelo_inurba_marseille","lat":43.296131,"lon":5.370791,"is_reserved":false,"is_disabled":false,"rental_uris":{"android":"levelo://app?vid=d3139180-8ba9-4c91-b6e4-8baae3c22113","ios":"levelo://app?vid=d3139180-8ba9-4c91-b6e4-8baae3c22113"},"vehicle_type_id":"4","last_reported":1692734805,"current_range_meters":29600,"station_id":"ce4bgnh2rcd13ifvqc0g","pricing_plan_id":"free"},{"bike_id":"bb155e93-116e-494a-9911-2df351c7dae8","system_id":"levelo_inurba_marseille","lat":43.29616,"lon":5.37169,"is_reserved":false,"is_disabled":false,"rental_uris":{"android":"levelo://app?vid=bb155e93-116e-494a-9911-2df351c7dae8","ios":"levelo://app?vid=bb155e93-116e-494a-9911-2df351c7dae8"},"vehicle_type_id":"4","last_reported":1692734805,"current_range_meters":28000,"station_id":"","pricing_plan_id":"free"},{"bike_id":"4afd5222-7057-4a3b-a47e-7b17e09c68cc","system_id":"levelo_inurba_marseille","lat":43.29573,"lon":5.367355,"is_reserved":false,"is_disabled":false,"rental_uris":{"android":"levelo://app?vid=4afd5222-7057-4a3b-a47e-7b17e09c68cc","ios":"levelo://app?vid=4afd5222-7057-4a3b-a47e-7b17e09c68cc"},"vehicle_type_id":"4","last_reported":1692734805,"current_range_meters":3600,"station_id":"ce4bgph2rcd13ifvqc2g","pricing_plan_id":"free"},{"bike_id":"97e48ffe-654a-4b35-9e5c-596d47d9d116","system_id":"levelo_inurba_marseille","lat":43.3095,"lon":5.39011,"is_reserved":false,"is_disabled":false,"rental_uris":{"android":"levelo://app?vid=97e48ffe-654a-4b35-9e5c-596d47d9d116","ios":"levelo://app?vid=97e48ffe-654a-4b35-9e5c-596d47d9d116"},"vehicle_type_id":"4","last_reported":1692734805,"current_range_meters":3600,"station_id":"ce4bgup2rcd13ifvqco0","pricing_plan_id":"free"},{"bike_id":"a66b3372-b0ed-41a0-bf31-94530a18370f","system_id":"levelo_inurba_marseille","lat":43.309516,"lon":5.390214,"is_reserved":false,"is_disabled":false,"rental_uris":{"android":"levelo://app?vid=a66b3372-b0ed-41a0-bf31-94530a18370f","ios":"levelo://app?vid=a66b3372-b0ed-41a0-bf31-94530a18370f"},"vehicle_type_id":"4","last_reported":1692734805,"current_range_meters":20000,"station_id":"ce4bgup2rcd13ifvqco0","pricing_plan_id":"free"},{"bike_id":"a1ab4304-1c26-4c4a-b06b-62e5aacf5a17","system_id":"levelo_inurba_marseille","lat":43.299028,"lon":5.381509,"is_reserved":false,"is_disabled":false,"rental_uris":{"android":"levelo://app?vid=a1ab4304-1c26-4c4a-b06b-62e5aacf5a17","ios":"levelo://app?vid=a1ab4304-1c26-4c4a-b06b-62e5aacf5a17"},"vehicle_type_id":"4","last_reported":1692734805,"current_range_meters":13600,"station_id":"ce4bgj12rcd13ifvqbc0","pricing_plan_id":"free"},{"bike_id":"10d49767-eeb5-4e3d-998d-c554e6e933ef","system_id":"levelo_inurba_marseille","lat":43.31757,"lon":5.3902,"is_reserved":false,"is_disabled":false,"rental_uris":{"android":"levelo://app?vid=10d49767-eeb5-4e3d-998d-c554e6e933ef","ios":"levelo://app?vid=10d49767-eeb5-4e3d-998d-c554e6e933ef"},"vehicle_type_id":"4","last_reported":1692734805,"current_range_meters":22400,"station_id":"ce4bhqp2rcd13ifvqhng","pricing_plan_id":"free"},{"bike_id":"2c93ce6f-c5e1-4ec9-9941-ebb7469bb8f2","system_id":"levelo_inurba_marseille","lat":43.31728,"lon":5.39033,"is_reserved":false,"is_disabled":false,"rental_uris":{"android":"levelo://app?vid=2c93ce6f-c5e1-4ec9-9941-ebb7469bb8f2","ios":"levelo://app?vid=2c93ce6f-c5e1-4ec9-9941-ebb7469bb8f2"},"vehicle_type_id":"4","last_reported":1692734805,"current_range_meters":26000,"station_id":"ce4bhqp2rcd13ifvqhng","pricing_plan_id":"free"},{"bike_id":"952a19e7-6602-41c3-942f-79cfb514366f","system_id":"levelo_inurba_marseille","lat":43.2981,"lon":5.3808,"is_reserved":false,"is_disabled":false,"rental_uris":{"android":"levelo://app?vid=952a19e7-6602-41c3-942f-79cfb514366f","ios":"levelo://app?vid=952a19e7-6602-41c3-942f-79cfb514366f"},"vehicle_type_id":"4","last_reported":1692734805,"current_range_meters":30000,"station_id":"ce4bgip2rcd13ifvqbb0","pricing_plan_id":"free"},{"bike_id":"a4df99ce-0488-49dd-a888-94686f562e88","system_id":"levelo_inurba_marseille","lat":43.295748,"lon":5.37522,"is_reserved":false,"is_disabled":false,"rental_uris":{"android":"levelo://app?vid=a4df99ce-0488-49dd-a888-94686f562e88","ios":"levelo://app?vid=a4df99ce-0488-49dd-a888-94686f562e88"},"vehicle_type_id":"4","last_reported":1692734805,"current_range_meters":30000,"station_id":"ce4bgh92rcd13ifvqb50","pricing_plan_id":"free"},{"bike_id":"6a3895e6-ce42-4854-9973-870504e71356","system_id":"levelo_inurba_marseille","lat":43.299707,"lon":5.384859,"is_reserved":false,"is_disabled":false,"rental_uris":{"android":"levelo://app?vid=6a3895e6-ce42-4854-9973-870504e71356","ios":"levelo://app?vid=6a3895e6-ce42-4854-9973-870504e71356"},"vehicle_type_id":"4","last_reported":1692734805,"current_range_meters":8000,"station_id":"ce4bgj92rcd13ifvqbd0","pricing_plan_id":"free"},{"bike_id":"ed79e4ee-7e06-4b9d-9988-20b57d61add9","system_id":"levelo_inurba_marseille","lat":43.299717,"lon":5.384845,"is_reserved":false,"is_disabled":false,"rental_uris":{"android":"levelo://app?vid=ed79e4ee-7e06-4b9d-9988-20b57d61add9","ios":"levelo://app?vid=ed79e4ee-7e06-4b9d-9988-20b57d61add9"},"vehicle_type_id":"4","last_reported":1692734805,"current_range_meters":22000,"station_id":"ce4bgj92rcd13ifvqbd0","pricing_plan_id":"free"},{"bike_id":"5584a1df-0ab2-42e4-8010-40fc844ae307","system_id":"levelo_inurba_marseille","lat":43.295279,"lon":5.375048,"is_reserved":false,"is_disabled":false,"rental_uris":{"android":"levelo://app?vid=5584a1df-0ab2-42e4-8010-40fc844ae307","ios":"levelo://app?vid=5584a1df-0ab2-42e4-8010-40fc844ae307"},"vehicle_type_id":"4","last_reported":1692734805,"current_range_meters":400,"station_id":"ce4bgkp2rcd13ifvqbmg","pricing_plan_id":"free"},{"bike_id":"def7da8b-1757-45a3-8dea-cb955d378ab0","system_id":"levelo_inurba_marseille","lat":43.30106,"lon":5.38751,"is_reserved":false,"is_disabled":false,"rental_uris":{"android":"levelo://app?vid=def7da8b-1757-45a3-8dea-cb955d378ab0","ios":"levelo://app?vid=def7da8b-1757-45a3-8dea-cb955d378ab0"},"vehicle_type_id":"4","last_reported":1692734805,"current_range_meters":12400,"station_id":"","pricing_plan_id":"free"},{"bike_id":"5b3fcd30-fde1-4d3f-b3ac-fe2432b64388","system_id":"levelo_inurba_marseille","lat":43.29636,"lon":5.38061,"is_reserved":false,"is_disabled":false,"rental_uris":{"android":"levelo://app?vid=5b3fcd30-fde1-4d3f-b3ac-fe2432b64388","ios":"levelo://app?vid=5b3fcd30-fde1-4d3f-b3ac-fe2432b64388"},"vehicle_type_id":"4","last_reported":1692734805,"current_range_meters":4400,"station_id":"","pricing_plan_id":"free"},{"bike_id":"00883cd9-a56a-4720-bb55-237d0136a4a1","system_id":"levelo_inurba_marseille","lat":43.3236,"lon":5.38884,"is_reserved":false,"is_disabled":false,"rental_uris":{"android":"levelo://app?vid=00883cd9-a56a-4720-bb55-237d0136a4a1","ios":"levelo://app?vid=00883cd9-a56a-4720-bb55-237d0136a4a1"},"vehicle_type_id":"4","last_reported":1692734805,"current_range_meters":12000,"station_id":"ce4bhqp2rcd13ifvqhog","pricing_plan_id":"free"},{"bike_id":"3ee6736d-0a2a-429b-8608-53e06375372f","system_id":"levelo_inurba_marseille","lat":43.32365,"lon":5.38887,"is_reserved":false,"is_disabled":false,"rental_uris":{"android":"levelo://app?vid=3ee6736d-0a2a-429b-8608-53e06375372f","ios":"levelo://app?vid=3ee6736d-0a2a-429b-8608-53e06375372f"},"vehicle_type_id":"4","last_reported":1692734805,"current_range_meters":6400,"station_id":"ce4bhqp2rcd13ifvqhog","pricing_plan_id":"free"},{"bike_id":"7d8c3923-f0a3-4e44-8291-49f4210a308a","system_id":"levelo_inurba_marseille","lat":43.32367,"lon":5.38886,"is_reserved":false,"is_disabled":false,"rental_uris":{"android":"levelo://app?vid=7d8c3923-f0a3-4e44-8291-49f4210a308a","ios":"levelo://app?vid=7d8c3923-f0a3-4e44-8291-49f4210a308a"},"vehicle_type_id":"4","last_reported":1692734805,"current_range_meters":8000,"station_id":"ce4bhqp2rcd13ifvqhog","pricing_plan_id":"free"},{"bike_id":"2e5adb83-f920-49b6-a088-6b57db8d76f3","system_id":"levelo_inurba_marseille","lat":43.29601,"lon":5.381084,"is_reserved":false,"is_disabled":false,"rental_uris":{"android":"levelo://app?vid=2e5adb83-f920-49b6-a088-6b57db8d76f3","ios":"levelo://app?vid=2e5adb83-f920-49b6-a088-6b57db8d76f3"},"vehicle_type_id":"4","last_reported":1692734805,"current_range_meters":29600,"station_id":"ce4bgl12rcd13ifvqbo0","pricing_plan_id":"free"},{"bike_id":"c9ae1af7-4cca-4ac6-b602-25d626cedcc0","system_id":"levelo_inurba_marseille","lat":43.29601,"lon":5.381084,"is_reserved":false,"is_disabled":false,"rental_uris":{"android":"levelo://app?vid=c9ae1af7-4cca-4ac6-b602-25d626cedcc0","ios":"levelo://app?vid=c9ae1af7-4cca-4ac6-b602-25d626cedcc0"},"vehicle_type_id":"4","last_reported":1692734805,"current_range_meters":27600,"station_id":"ce4bgl12rcd13ifvqbo0","pricing_plan_id":"free"},{"bike_id":"c31e9666-b494-485b-8d5a-30dfc977a991","system_id":"levelo_inurba_marseille","lat":43.29601,"lon":5.381084,"is_reserved":false,"is_disabled":false,"rental_uris":{"android":"levelo://app?vid=c31e9666-b494-485b-8d5a-30dfc977a991","ios":"levelo://app?vid=c31e9666-b494-485b-8d5a-30dfc977a991"},"vehicle_type_id":"4","last_reported":1692734805,"current_range_meters":15600,"station_id":"ce4bgl12rcd13ifvqbo0","pricing_plan_id":"free"},{"bike_id":"5eeadd51-0aee-4f97-b0ab-56f40fd8882c","system_id":"levelo_inurba_marseille","lat":43.29602,"lon":5.381084,"is_reserved":false,"is_disabled":false,"rental_uris":{"android":"levelo://app?vid=5eeadd51-0aee-4f97-b0ab-56f40fd8882c","ios":"levelo://app?vid=5eeadd51-0aee-4f97-b0ab-56f40fd8882c"},"vehicle_type_id":"4","last_reported":1692734805,"current_range_meters":20400,"station_id":"ce4bgl12rcd13ifvqbo0","pricing_plan_id":"free"},{"bike_id":"b76cef07-3952-457c-afba-b8f6145fe4ad","system_id":"levelo_inurba_marseille","lat":43.29602,"lon":5.381084,"is_reserved":false,"is_disabled":false,"rental_uris":{"android":"levelo://app?vid=b76cef07-3952-457c-afba-b8f6145fe4ad","ios":"levelo://app?vid=b76cef07-3952-457c-afba-b8f6145fe4ad"},"vehicle_type_id":"4","last_reported":1692734805,"current_range_meters":12400,"station_id":"ce4bgl12rcd13ifvqbo0","pricing_plan_id":"free"},{"bike_id":"6fcdd630-f81d-4b2c-bba3-4e8a0a857c3d","system_id":"levelo_inurba_marseille","lat":43.29601,"lon":5.381084,"is_reserved":false,"is_disabled":false,"rental_uris":{"android":"levelo://app?vid=6fcdd630-f81d-4b2c-bba3-4e8a0a857c3d","ios":"levelo://app?vid=6fcdd630-f81d-4b2c-bba3-4e8a0a857c3d"},"vehicle_type_id":"4","last_reported":1692734805,"current_range_meters":6400,"station_id":"ce4bgl12rcd13ifvqbo0","pricing_plan_id":"free"},{"bike_id":"b66945e3-8526-4d59-b246-e48354e52de8","system_id":"levelo_inurba_marseille","lat":43.29601,"lon":5.381084,"is_reserved":false,"is_disabled":false,"rental_uris":{"android":"levelo://app?vid=b66945e3-8526-4d59-b246-e48354e52de8","ios":"levelo://app?vid=b66945e3-8526-4d59-b246-e48354e52de8"},"vehicle_type_id":"4","last_reported":1692734805,"current_range_meters":3200,"station_id":"ce4bgl12rcd13ifvqbo0","pricing_plan_id":"free"},{"bike_id":"92ddc616-8c8f-4fab-a940-ed796d002d4e","system_id":"levelo_inurba_marseille","lat":43.29601,"lon":5.381084,"is_reserved":false,"is_disabled":false,"rental_uris":{"android":"levelo://app?vid=92ddc616-8c8f-4fab-a940-ed796d002d4e","ios":"levelo://app?vid=92ddc616-8c8f-4fab-a940-ed796d002d4e"},"vehicle_type_id":"4","last_reported":1692734805,"current_range_meters":24000,"station_id":"ce4bgl12rcd13ifvqbo0","pricing_plan_id":"free"},{"bike_id":"d135718e-147e-44de-a051-b77408cfbafe","system_id":"levelo_inurba_marseille","lat":43.29602,"lon":5.381084,"is_reserved":false,"is_disabled":false,"rental_uris":{"android":"levelo://app?vid=d135718e-147e-44de-a051-b77408cfbafe","ios":"levelo://app?vid=d135718e-147e-44de-a051-b77408cfbafe"},"vehicle_type_id":"4","last_reported":1692734805,"current_range_meters":18000,"station_id":"ce4bgl12rcd13ifvqbo0","pricing_plan_id":"free"},{"bike_id":"6a7dc047-d97d-44de-a22c-0d14df1c9981","system_id":"levelo_inurba_marseille","lat":43.29602,"lon":5.381084,"is_reserved":false,"is_disabled":false,"rental_uris":{"android":"levelo://app?vid=6a7dc047-d97d-44de-a22c-0d14df1c9981","ios":"levelo://app?vid=6a7dc047-d97d-44de-a22c-0d14df1c9981"},"vehicle_type_id":"4","last_reported":1692734805,"current_range_meters":31200,"station_id":"ce4bgl12rcd13ifvqbo0","pricing_plan_id":"free"},{"bike_id":"d9afac09-6076-4450-af91-d1ddfb055a2f","system_id":"levelo_inurba_marseille","lat":43.29299,"lon":5.37174,"is_reserved":false,"is_disabled":false,"rental_uris":{"android":"levelo://app?vid=d9afac09-6076-4450-af91-d1ddfb055a2f","ios":"levelo://app?vid=d9afac09-6076-4450-af91-d1ddfb055a2f"},"vehicle_type_id":"4","last_reported":1692734805,"current_range_meters":15600,"station_id":"ce4bgh92rcd13ifvqb40","pricing_plan_id":"free"},{"bike_id":"4ba49f4a-9136-494d-906a-4c7deac20f4a","system_id":"levelo_inurba_marseille","lat":43.29241,"lon":5.36468,"is_reserved":false,"is_disabled":false,"rental_uris":{"android":"levelo://app?vid=4ba49f4a-9136-494d-906a-4c7deac20f4a","ios":"levelo://app?vid=4ba49f4a-9136-494d-906a-4c7deac20f4a"},"vehicle_type_id":"4","last_reported":1692734805,"current_range_meters":800,"station_id":"","pricing_plan_id":"free"},{"bike_id":"03940da6-33e5-469b-8b00-291e3b4a0bab","system_id":"levelo_inurba_marseille","lat":43.293009,"lon":5.374584,"is_reserved":false,"is_disabled":false,"rental_uris":{"android":"levelo://app?vid=03940da6-33e5-469b-8b00-291e3b4a0bab","ios":"levelo://app?vid=03940da6-33e5-469b-8b00-291e3b4a0bab"},"vehicle_type_id":"4","last_reported":1692734805,"current_range_meters":4400,"station_id":"ce4bgi12rcd13ifvqb70","pricing_plan_id":"free"},{"bike_id":"11d06247-87fa-4c3a-88a8-53e89777ad4e","system_id":"levelo_inurba_marseille","lat":43.305994,"lon":5.393687,"is_reserved":false,"is_disabled":false,"rental_uris":{"android":"levelo://app?vid=11d06247-87fa-4c3a-88a8-53e89777ad4e","ios":"levelo://app?vid=11d06247-87fa-4c3a-88a8-53e89777ad4e"},"vehicle_type_id":"4","last_reported":1692734805,"current_range_meters":14000,"station_id":"ce4bh0p2rcd13ifvqd80","pricing_plan_id":"free"},{"bike_id":"f756e92a-aa45-4f29-a75f-dc607a9e32f3","system_id":"levelo_inurba_marseille","lat":43.293009,"lon":5.374584,"is_reserved":false,"is_disabled":false,"rental_uris":{"android":"levelo://app?vid=f756e92a-aa45-4f29-a75f-dc607a9e32f3","ios":"levelo://app?vid=f756e92a-aa45-4f29-a75f-dc607a9e32f3"},"vehicle_type_id":"4","last_reported":1692734805,"current_range_meters":30400,"station_id":"ce4bgi12rcd13ifvqb70","pricing_plan_id":"free"},{"bike_id":"61875794-9d5d-447c-a6a8-319b7e14b400","system_id":"levelo_inurba_marseille","lat":43.30589,"lon":5.39358,"is_reserved":false,"is_disabled":false,"rental_uris":{"android":"levelo://app?vid=61875794-9d5d-447c-a6a8-319b7e14b400","ios":"levelo://app?vid=61875794-9d5d-447c-a6a8-319b7e14b400"},"vehicle_type_id":"4","last_reported":1692734805,"current_range_meters":1200,"station_id":"ce4bh0p2rcd13ifvqd80","pricing_plan_id":"free"},{"bike_id":"11f162e0-1884-45e2-b243-3e3564bfcd39","system_id":"levelo_inurba_marseille","lat":43.305994,"lon":5.393687,"is_reserved":false,"is_disabled":false,"rental_uris":{"android":"levelo://app?vid=11f162e0-1884-45e2-b243-3e3564bfcd39","ios":"levelo://app?vid=11f162e0-1884-45e2-b243-3e3564bfcd39"},"vehicle_type_id":"4","last_reported":1692734805,"current_range_meters":5200,"station_id":"ce4bh0p2rcd13ifvqd80","pricing_plan_id":"free"},{"bike_id":"581e312e-fe10-462a-bce4-2828b1e2fdc8","system_id":"levelo_inurba_marseille","lat":43.30593,"lon":5.39362,"is_reserved":false,"is_disabled":false,"rental_uris":{"android":"levelo://app?vid=581e312e-fe10-462a-bce4-2828b1e2fdc8","ios":"levelo://app?vid=581e312e-fe10-462a-bce4-2828b1e2fdc8"},"vehicle_type_id":"4","last_reported":1692734805,"current_range_meters":800,"station_id":"ce4bh0p2rcd13ifvqd80","pricing_plan_id":"free"},{"bike_id":"aaa8c77d-9d61-447f-bfa9-5b7e2b05835e","system_id":"levelo_inurba_marseille","lat":43.305994,"lon":5.393687,"is_reserved":false,"is_disabled":false,"rental_uris":{"android":"levelo://app?vid=aaa8c77d-9d61-447f-bfa9-5b7e2b05835e","ios":"levelo://app?vid=aaa8c77d-9d61-447f-bfa9-5b7e2b05835e"},"vehicle_type_id":"4","last_reported":1692734805,"current_range_meters":11200,"station_id":"ce4bh0p2rcd13ifvqd80","pricing_plan_id":"free"},{"bike_id":"9ad614f3-ed10-4863-a4fd-05e1167da560","system_id":"levelo_inurba_marseille","lat":43.305994,"lon":5.393687,"is_reserved":false,"is_disabled":false,"rental_uris":{"android":"levelo://app?vid=9ad614f3-ed10-4863-a4fd-05e1167da560","ios":"levelo://app?vid=9ad614f3-ed10-4863-a4fd-05e1167da560"},"vehicle_type_id":"4","last_reported":1692734805,"current_range_meters":28000,"station_id":"ce4bh0p2rcd13ifvqd80","pricing_plan_id":"free"},{"bike_id":"38fef587-7cc5-4800-b069-87b8f296a10a","system_id":"levelo_inurba_marseille","lat":43.29288,"lon":5.37478,"is_reserved":false,"is_disabled":false,"rental_uris":{"android":"levelo://app?vid=38fef587-7cc5-4800-b069-87b8f296a10a","ios":"levelo://app?vid=38fef587-7cc5-4800-b069-87b8f296a10a"},"vehicle_type_id":"4","last_reported":1692734805,"current_range_meters":31200,"station_id":"ce4bgi12rcd13ifvqb70","pricing_plan_id":"free"},{"bike_id":"97d20cb6-5bb3-4f46-891e-e532b4742baf","system_id":"levelo_inurba_marseille","lat":43.2936,"lon":5.37835,"is_reserved":false,"is_disabled":false,"rental_uris":{"android":"levelo://app?vid=97d20cb6-5bb3-4f46-891e-e532b4742baf","ios":"levelo://app?vid=97d20cb6-5bb3-4f46-891e-e532b4742baf"},"vehicle_type_id":"4","last_reported":1692734805,"current_range_meters":0,"station_id":"ce4bgjh2rcd13ifvqbf0","pricing_plan_id":"free"},{"bike_id":"0724f352-a262-45b7-9b71-9a09ff17d945","system_id":"levelo_inurba_marseille","lat":43.302992,"lon":5.392136,"is_reserved":false,"is_disabled":false,"rental_uris":{"android":"levelo://app?vid=0724f352-a262-45b7-9b71-9a09ff17d945","ios":"levelo://app?vid=0724f352-a262-45b7-9b71-9a09ff17d945"},"vehicle_type_id":"4","last_reported":1692734805,"current_range_meters":30400,"station_id":"ce4bgkh2rcd13ifvqbk0","pricing_plan_id":"free"},{"bike_id":"e6745eb0-fd8c-4546-a88a-b29e893189db","system_id":"levelo_inurba_marseille","lat":43.29254,"lon":5.3763,"is_reserved":false,"is_disabled":false,"rental_uris":{"android":"levelo://app?vid=e6745eb0-fd8c-4546-a88a-b29e893189db","ios":"levelo://app?vid=e6745eb0-fd8c-4546-a88a-b29e893189db"},"vehicle_type_id":"4","last_reported":1692734805,"current_range_meters":22400,"station_id":"ce4bgi12rcd13ifvqb80","pricing_plan_id":"free"},{"bike_id":"9b272ad2-aeaa-4131-b7cd-3ded0ecced89","system_id":"levelo_inurba_marseille","lat":43.29252,"lon":5.37624,"is_reserved":false,"is_disabled":false,"rental_uris":{"android":"levelo://app?vid=9b272ad2-aeaa-4131-b7cd-3ded0ecced89","ios":"levelo://app?vid=9b272ad2-aeaa-4131-b7cd-3ded0ecced89"},"vehicle_type_id":"4","last_reported":1692734805,"current_range_meters":8000,"station_id":"ce4bgi12rcd13ifvqb80","pricing_plan_id":"free"},{"bike_id":"2e24f4b1-92c7-475d-bb35-dbfe1df8e2e1","system_id":"levelo_inurba_marseille","lat":43.2916,"lon":5.37151,"is_reserved":false,"is_disabled":false,"rental_uris":{"android":"levelo://app?vid=2e24f4b1-92c7-475d-bb35-dbfe1df8e2e1","ios":"levelo://app?vid=2e24f4b1-92c7-475d-bb35-dbfe1df8e2e1"},"vehicle_type_id":"4","last_reported":1692734805,"current_range_meters":11600,"station_id":"ce4bha92rcd13ifvqeh0","pricing_plan_id":"free"},{"bike_id":"5a18fc4e-88bd-456e-baaa-1af99480fc15","system_id":"levelo_inurba_marseille","lat":43.29191,"lon":5.35799,"is_reserved":false,"is_disabled":false,"rental_uris":{"android":"levelo://app?vid=5a18fc4e-88bd-456e-baaa-1af99480fc15","ios":"levelo://app?vid=5a18fc4e-88bd-456e-baaa-1af99480fc15"},"vehicle_type_id":"4","last_reported":1692734805,"current_range_meters":0,"station_id":"ce4bhb12rcd13ifvqel0","pricing_plan_id":"free"},{"bike_id":"7f8a7b06-bdf3-42b6-8651-29d38a3e8fba","system_id":"levelo_inurba_marseille","lat":43.31328,"lon":5.39692,"is_reserved":false,"is_disabled":false,"rental_uris":{"android":"levelo://app?vid=7f8a7b06-bdf3-42b6-8651-29d38a3e8fba","ios":"levelo://app?vid=7f8a7b06-bdf3-42b6-8651-29d38a3e8fba"},"vehicle_type_id":"4","last_reported":1692734805,"current_range_meters":10400,"station_id":"ce4bgvp2rcd13ifvqcu0","pricing_plan_id":"free"},{"bike_id":"434bee9e-c108-4596-a17f-ad037823859a","system_id":"levelo_inurba_marseille","lat":43.31328,"lon":5.39693,"is_reserved":false,"is_disabled":false,"rental_uris":{"android":"levelo://app?vid=434bee9e-c108-4596-a17f-ad037823859a","ios":"levelo://app?vid=434bee9e-c108-4596-a17f-ad037823859a"},"vehicle_type_id":"4","last_reported":1692734805,"current_range_meters":0,"station_id":"ce4bgvp2rcd13ifvqcu0","pricing_plan_id":"free"},{"bike_id":"26197f13-1062-4671-977a-e975873a031a","system_id":"levelo_inurba_marseille","lat":43.30881,"lon":5.39657,"is_reserved":false,"is_disabled":false,"rental_uris":{"android":"levelo://app?vid=26197f13-1062-4671-977a-e975873a031a","ios":"levelo://app?vid=26197f13-1062-4671-977a-e975873a031a"},"vehicle_type_id":"4","last_reported":1692734805,"current_range_meters":7200,"station_id":"ce4bh012rcd13ifvqcv0","pricing_plan_id":"free"},{"bike_id":"f45ab98f-8a47-4787-a8b2-a40b8611b07b","system_id":"levelo_inurba_marseille","lat":43.308848,"lon":5.396663,"is_reserved":false,"is_disabled":false,"rental_uris":{"android":"levelo://app?vid=f45ab98f-8a47-4787-a8b2-a40b8611b07b","ios":"levelo://app?vid=f45ab98f-8a47-4787-a8b2-a40b8611b07b"},"vehicle_type_id":"4","last_reported":1692734805,"current_range_meters":14000,"station_id":"","pricing_plan_id":"free"},{"bike_id":"923971e2-948b-4383-9fd9-b99c0202375b","system_id":"levelo_inurba_marseille","lat":43.29529,"lon":5.385581,"is_reserved":false,"is_disabled":false,"rental_uris":{"android":"levelo://app?vid=923971e2-948b-4383-9fd9-b99c0202375b","ios":"levelo://app?vid=923971e2-948b-4383-9fd9-b99c0202375b"},"vehicle_type_id":"4","last_reported":1692734805,"current_range_meters":23200,"station_id":"ce4bgih2rcd13ifvqba0","pricing_plan_id":"free"},{"bike_id":"df514ea9-9c0d-4c24-a3ad-2db0247e120c","system_id":"levelo_inurba_marseille","lat":43.295348,"lon":5.385471,"is_reserved":false,"is_disabled":false,"rental_uris":{"android":"levelo://app?vid=df514ea9-9c0d-4c24-a3ad-2db0247e120c","ios":"levelo://app?vid=df514ea9-9c0d-4c24-a3ad-2db0247e120c"},"vehicle_type_id":"4","last_reported":1692734805,"current_range_meters":18000,"station_id":"ce4bgih2rcd13ifvqba0","pricing_plan_id":"free"},{"bike_id":"bac3a101-c108-4a58-b038-6ec4d97ffb54","system_id":"levelo_inurba_marseille","lat":43.308948,"lon":5.396731,"is_reserved":false,"is_disabled":false,"rental_uris":{"android":"levelo://app?vid=bac3a101-c108-4a58-b038-6ec4d97ffb54","ios":"levelo://app?vid=bac3a101-c108-4a58-b038-6ec4d97ffb54"},"vehicle_type_id":"4","last_reported":1692734805,"current_range_meters":27200,"station_id":"ce4bh012rcd13ifvqcv0","pricing_plan_id":"free"},{"bike_id":"5100eef7-4a09-4006-abb5-cde67eacae5f","system_id":"levelo_inurba_marseille","lat":43.29529,"lon":5.385581,"is_reserved":false,"is_disabled":false,"rental_uris":{"android":"levelo://app?vid=5100eef7-4a09-4006-abb5-cde67eacae5f","ios":"levelo://app?vid=5100eef7-4a09-4006-abb5-cde67eacae5f"},"vehicle_type_id":"4","last_reported":1692734805,"current_range_meters":19200,"station_id":"ce4bgih2rcd13ifvqba0","pricing_plan_id":"free"},{"bike_id":"3fafc205-03a9-4991-ad42-2ebe16297a6e","system_id":"levelo_inurba_marseille","lat":43.29529,"lon":5.385581,"is_reserved":false,"is_disabled":false,"rental_uris":{"android":"levelo://app?vid=3fafc205-03a9-4991-ad42-2ebe16297a6e","ios":"levelo://app?vid=3fafc205-03a9-4991-ad42-2ebe16297a6e"},"vehicle_type_id":"4","last_reported":1692734805,"current_range_meters":23600,"station_id":"ce4bgih2rcd13ifvqba0","pricing_plan_id":"free"},{"bike_id":"637f1d0b-7d22-452f-b31c-2ae320b69447","system_id":"levelo_inurba_marseille","lat":43.309038,"lon":5.396546,"is_reserved":false,"is_disabled":false,"rental_uris":{"android":"levelo://app?vid=637f1d0b-7d22-452f-b31c-2ae320b69447","ios":"levelo://app?vid=637f1d0b-7d22-452f-b31c-2ae320b69447"},"vehicle_type_id":"4","last_reported":1692734805,"current_range_meters":10000,"station_id":"ce4bh012rcd13ifvqcv0","pricing_plan_id":"free"},{"bike_id":"7321c7af-246e-4d03-a522-60349e11a32d","system_id":"levelo_inurba_marseille","lat":43.29529,"lon":5.38547,"is_reserved":false,"is_disabled":false,"rental_uris":{"android":"levelo://app?vid=7321c7af-246e-4d03-a522-60349e11a32d","ios":"levelo://app?vid=7321c7af-246e-4d03-a522-60349e11a32d"},"vehicle_type_id":"4","last_reported":1692734805,"current_range_meters":8400,"station_id":"ce4bgih2rcd13ifvqba0","pricing_plan_id":"free"},{"bike_id":"2cc91d8b-3968-4ec8-bacd-25efc1813388","system_id":"levelo_inurba_marseille","lat":43.29529,"lon":5.385581,"is_reserved":false,"is_disabled":false,"rental_uris":{"android":"levelo://app?vid=2cc91d8b-3968-4ec8-bacd-25efc1813388","ios":"levelo://app?vid=2cc91d8b-3968-4ec8-bacd-25efc1813388"},"vehicle_type_id":"4","last_reported":1692734805,"current_range_meters":31600,"station_id":"ce4bgih2rcd13ifvqba0","pricing_plan_id":"free"},{"bike_id":"894c96a3-c65b-4206-a347-51ae1822e707","system_id":"levelo_inurba_marseille","lat":43.29529,"lon":5.385581,"is_reserved":false,"is_disabled":false,"rental_uris":{"android":"levelo://app?vid=894c96a3-c65b-4206-a347-51ae1822e707","ios":"levelo://app?vid=894c96a3-c65b-4206-a347-51ae1822e707"},"vehicle_type_id":"4","last_reported":1692734805,"current_range_meters":0,"station_id":"ce4bgih2rcd13ifvqba0","pricing_plan_id":"free"},{"bike_id":"fa5a6f78-397b-4ab2-baa0-8ad60b5654ad","system_id":"levelo_inurba_marseille","lat":43.29528,"lon":5.38556,"is_reserved":false,"is_disabled":false,"rental_uris":{"android":"levelo://app?vid=fa5a6f78-397b-4ab2-baa0-8ad60b5654ad","ios":"levelo://app?vid=fa5a6f78-397b-4ab2-baa0-8ad60b5654ad"},"vehicle_type_id":"4","last_reported":1692734805,"current_range_meters":12000,"station_id":"ce4bgih2rcd13ifvqba0","pricing_plan_id":"free"},{"bike_id":"a92b85cb-ecdd-4e90-9701-fce587da1fb5","system_id":"levelo_inurba_marseille","lat":43.29528,"lon":5.38558,"is_reserved":false,"is_disabled":false,"rental_uris":{"android":"levelo://app?vid=a92b85cb-ecdd-4e90-9701-fce587da1fb5","ios":"levelo://app?vid=a92b85cb-ecdd-4e90-9701-fce587da1fb5"},"vehicle_type_id":"4","last_reported":1692734805,"current_range_meters":0,"station_id":"ce4bgih2rcd13ifvqba0","pricing_plan_id":"free"},{"bike_id":"63986cd9-08aa-4efa-ab3a-a33456737e6e","system_id":"levelo_inurba_marseille","lat":43.302008,"lon":5.394694,"is_reserved":false,"is_disabled":false,"rental_uris":{"android":"levelo://app?vid=63986cd9-08aa-4efa-ab3a-a33456737e6e","ios":"levelo://app?vid=63986cd9-08aa-4efa-ab3a-a33456737e6e"},"vehicle_type_id":"4","last_reported":1692734805,"current_range_meters":26000,"station_id":"ce4bh0p2rcd13ifvqd70","pricing_plan_id":"free"},{"bike_id":"39b5b5cf-86ef-48ea-a176-58e554756417","system_id":"levelo_inurba_marseille","lat":43.302008,"lon":5.394694,"is_reserved":false,"is_disabled":false,"rental_uris":{"android":"levelo://app?vid=39b5b5cf-86ef-48ea-a176-58e554756417","ios":"levelo://app?vid=39b5b5cf-86ef-48ea-a176-58e554756417"},"vehicle_type_id":"4","last_reported":1692734805,"current_range_meters":31200,"station_id":"ce4bh0p2rcd13ifvqd70","pricing_plan_id":"free"},{"bike_id":"2523673b-9296-4bff-a7b6-236c9d8a43b9","system_id":"levelo_inurba_marseille","lat":43.294153,"lon":5.386305,"is_reserved":false,"is_disabled":false,"rental_uris":{"android":"levelo://app?vid=2523673b-9296-4bff-a7b6-236c9d8a43b9","ios":"levelo://app?vid=2523673b-9296-4bff-a7b6-236c9d8a43b9"},"vehicle_type_id":"4","last_reported":1692734805,"current_range_meters":3200,"station_id":"ce4bh2h2rcd13ifvqdh0","pricing_plan_id":"free"},{"bike_id":"9cad6ac5-073a-4f7c-80ef-8c1aa835e9ce","system_id":"levelo_inurba_marseille","lat":43.29419,"lon":5.38624,"is_reserved":false,"is_disabled":false,"rental_uris":{"android":"levelo://app?vid=9cad6ac5-073a-4f7c-80ef-8c1aa835e9ce","ios":"levelo://app?vid=9cad6ac5-073a-4f7c-80ef-8c1aa835e9ce"},"vehicle_type_id":"4","last_reported":1692734805,"current_range_meters":400,"station_id":"ce4bh2h2rcd13ifvqdh0","pricing_plan_id":"free"},{"bike_id":"2ad69db7-8fd4-4c87-bae2-ac5200c1f70e","system_id":"levelo_inurba_marseille","lat":43.29419,"lon":5.38626,"is_reserved":false,"is_disabled":false,"rental_uris":{"android":"levelo://app?vid=2ad69db7-8fd4-4c87-bae2-ac5200c1f70e","ios":"levelo://app?vid=2ad69db7-8fd4-4c87-bae2-ac5200c1f70e"},"vehicle_type_id":"4","last_reported":1692734805,"current_range_meters":20800,"station_id":"ce4bh2h2rcd13ifvqdh0","pricing_plan_id":"free"},{"bike_id":"2478f7f2-f50f-4c8e-97b4-2eddd2d913f3","system_id":"levelo_inurba_marseille","lat":43.29419,"lon":5.38628,"is_reserved":false,"is_disabled":false,"rental_uris":{"android":"levelo://app?vid=2478f7f2-f50f-4c8e-97b4-2eddd2d913f3","ios":"levelo://app?vid=2478f7f2-f50f-4c8e-97b4-2eddd2d913f3"},"vehicle_type_id":"4","last_reported":1692734805,"current_range_meters":11200,"station_id":"ce4bh2h2rcd13ifvqdh0","pricing_plan_id":"free"},{"bike_id":"3aaac9f1-a6fb-45f3-a22c-a88d25f2454a","system_id":"levelo_inurba_marseille","lat":43.2942,"lon":5.38631,"is_reserved":false,"is_disabled":false,"rental_uris":{"android":"levelo://app?vid=3aaac9f1-a6fb-45f3-a22c-a88d25f2454a","ios":"levelo://app?vid=3aaac9f1-a6fb-45f3-a22c-a88d25f2454a"},"vehicle_type_id":"4","last_reported":1692734805,"current_range_meters":18800,"station_id":"ce4bh2h2rcd13ifvqdh0","pricing_plan_id":"free"},{"bike_id":"a4f8fac5-c337-49d0-bab3-8a525e39720f","system_id":"levelo_inurba_marseille","lat":43.29415,"lon":5.38625,"is_reserved":false,"is_disabled":false,"rental_uris":{"android":"levelo://app?vid=a4f8fac5-c337-49d0-bab3-8a525e39720f","ios":"levelo://app?vid=a4f8fac5-c337-49d0-bab3-8a525e39720f"},"vehicle_type_id":"4","last_reported":1692734805,"current_range_meters":19200,"station_id":"ce4bh2h2rcd13ifvqdh0","pricing_plan_id":"free"},{"bike_id":"678f582d-f744-4305-891b-74fc9dfe6d83","system_id":"levelo_inurba_marseille","lat":43.29415,"lon":5.38626,"is_reserved":false,"is_disabled":false,"rental_uris":{"android":"levelo://app?vid=678f582d-f744-4305-891b-74fc9dfe6d83","ios":"levelo://app?vid=678f582d-f744-4305-891b-74fc9dfe6d83"},"vehicle_type_id":"4","last_reported":1692734805,"current_range_meters":9200,"station_id":"ce4bh2h2rcd13ifvqdh0","pricing_plan_id":"free"},{"bike_id":"c702a175-aa0b-40eb-8e16-20958543d61f","system_id":"levelo_inurba_marseille","lat":43.29031,"lon":5.37567,"is_reserved":false,"is_disabled":false,"rental_uris":{"android":"levelo://app?vid=c702a175-aa0b-40eb-8e16-20958543d61f","ios":"levelo://app?vid=c702a175-aa0b-40eb-8e16-20958543d61f"},"vehicle_type_id":"4","last_reported":1692734805,"current_range_meters":2800,"station_id":"ce4bh692rcd13ifvqe90","pricing_plan_id":"free"},{"bike_id":"1367ae2d-6756-43bf-997c-ace901ca0ffc","system_id":"levelo_inurba_marseille","lat":43.294153,"lon":5.386305,"is_reserved":false,"is_disabled":false,"rental_uris":{"android":"levelo://app?vid=1367ae2d-6756-43bf-997c-ace901ca0ffc","ios":"levelo://app?vid=1367ae2d-6756-43bf-997c-ace901ca0ffc"},"vehicle_type_id":"4","last_reported":1692734805,"current_range_meters":6800,"station_id":"ce4bh2h2rcd13ifvqdh0","pricing_plan_id":"free"},{"bike_id":"9f29a106-0a23-41f3-92b0-f14d0623d1fb","system_id":"levelo_inurba_marseille","lat":43.294153,"lon":5.386305,"is_reserved":false,"is_disabled":false,"rental_uris":{"android":"levelo://app?vid=9f29a106-0a23-41f3-92b0-f14d0623d1fb","ios":"levelo://app?vid=9f29a106-0a23-41f3-92b0-f14d0623d1fb"},"vehicle_type_id":"4","last_reported":1692734805,"current_range_meters":23600,"station_id":"ce4bh2h2rcd13ifvqdh0","pricing_plan_id":"free"},{"bike_id":"088acf37-e0f1-434c-897e-b0f4f39286c7","system_id":"levelo_inurba_marseille","lat":43.2894,"lon":5.36632,"is_reserved":false,"is_disabled":false,"rental_uris":{"android":"levelo://app?vid=088acf37-e0f1-434c-897e-b0f4f39286c7","ios":"levelo://app?vid=088acf37-e0f1-434c-897e-b0f4f39286c7"},"vehicle_type_id":"4","last_reported":1692734805,"current_range_meters":31200,"station_id":"ce4bhap2rcd13ifvqek0","pricing_plan_id":"free"},{"bike_id":"77004dd4-4d4d-47e3-a9dc-39f414fc98e6","system_id":"levelo_inurba_marseille","lat":43.294153,"lon":5.386305,"is_reserved":false,"is_disabled":false,"rental_uris":{"android":"levelo://app?vid=77004dd4-4d4d-47e3-a9dc-39f414fc98e6","ios":"levelo://app?vid=77004dd4-4d4d-47e3-a9dc-39f414fc98e6"},"vehicle_type_id":"4","last_reported":1692734805,"current_range_meters":10800,"station_id":"ce4bh2h2rcd13ifvqdh0","pricing_plan_id":"free"},{"bike_id":"63128ee7-7c6c-4439-9083-496ce0b6d69f","system_id":"levelo_inurba_marseille","lat":43.29409,"lon":5.3863,"is_reserved":false,"is_disabled":false,"rental_uris":{"android":"levelo://app?vid=63128ee7-7c6c-4439-9083-496ce0b6d69f","ios":"levelo://app?vid=63128ee7-7c6c-4439-9083-496ce0b6d69f"},"vehicle_type_id":"4","last_reported":1692734805,"current_range_meters":10800,"station_id":"ce4bh2h2rcd13ifvqdh0","pricing_plan_id":"free"},{"bike_id":"c19c1d74-b65e-4124-ab59-e819f5d9e446","system_id":"levelo_inurba_marseille","lat":43.29405,"lon":5.38625,"is_reserved":false,"is_disabled":false,"rental_uris":{"android":"levelo://app?vid=c19c1d74-b65e-4124-ab59-e819f5d9e446","ios":"levelo://app?vid=c19c1d74-b65e-4124-ab59-e819f5d9e446"},"vehicle_type_id":"4","last_reported":1692734805,"current_range_meters":0,"station_id":"ce4bh2h2rcd13ifvqdh0","pricing_plan_id":"free"},{"bike_id":"52c0c6ce-0f87-4e50-9033-6f4ddb250a47","system_id":"levelo_inurba_marseille","lat":43.292644,"lon":5.384257,"is_reserved":false,"is_disabled":false,"rental_uris":{"android":"levelo://app?vid=52c0c6ce-0f87-4e50-9033-6f4ddb250a47","ios":"levelo://app?vid=52c0c6ce-0f87-4e50-9033-6f4ddb250a47"},"vehicle_type_id":"4","last_reported":1692734805,"current_range_meters":10400,"station_id":"ce4bh692rcd13ifvqea0","pricing_plan_id":"free"},{"bike_id":"3ab58716-4680-4b40-aed2-c92048ab2a2a","system_id":"levelo_inurba_marseille","lat":43.304274,"lon":5.397513,"is_reserved":false,"is_disabled":false,"rental_uris":{"android":"levelo://app?vid=3ab58716-4680-4b40-aed2-c92048ab2a2a","ios":"levelo://app?vid=3ab58716-4680-4b40-aed2-c92048ab2a2a"},"vehicle_type_id":"4","last_reported":1692734805,"current_range_meters":9200,"station_id":"ce4bh092rcd13ifvqd20","pricing_plan_id":"free"},{"bike_id":"810ca40e-2beb-4d7b-a76c-d4fd63e0faff","system_id":"levelo_inurba_marseille","lat":43.292642,"lon":5.384254,"is_reserved":false,"is_disabled":false,"rental_uris":{"android":"levelo://app?vid=810ca40e-2beb-4d7b-a76c-d4fd63e0faff","ios":"levelo://app?vid=810ca40e-2beb-4d7b-a76c-d4fd63e0faff"},"vehicle_type_id":"4","last_reported":1692734805,"current_range_meters":12400,"station_id":"ce4bh692rcd13ifvqea0","pricing_plan_id":"free"},{"bike_id":"1ab5569a-a71c-4fa9-9195-aa546915cd1c","system_id":"levelo_inurba_marseille","lat":43.292644,"lon":5.384257,"is_reserved":false,"is_disabled":false,"rental_uris":{"android":"levelo://app?vid=1ab5569a-a71c-4fa9-9195-aa546915cd1c","ios":"levelo://app?vid=1ab5569a-a71c-4fa9-9195-aa546915cd1c"},"vehicle_type_id":"4","last_reported":1692734805,"current_range_meters":24800,"station_id":"ce4bh692rcd13ifvqea0","pricing_plan_id":"free"},{"bike_id":"7f5e1fcb-c292-4279-b103-0b6275777e4d","system_id":"levelo_inurba_marseille","lat":43.292644,"lon":5.384257,"is_reserved":false,"is_disabled":false,"rental_uris":{"android":"levelo://app?vid=7f5e1fcb-c292-4279-b103-0b6275777e4d","ios":"levelo://app?vid=7f5e1fcb-c292-4279-b103-0b6275777e4d"},"vehicle_type_id":"4","last_reported":1692734805,"current_range_meters":7600,"station_id":"ce4bh692rcd13ifvqea0","pricing_plan_id":"free"},{"bike_id":"6de74f0a-67c9-41a0-beae-9bff7bc86602","system_id":"levelo_inurba_marseille","lat":43.292644,"lon":5.384257,"is_reserved":false,"is_disabled":false,"rental_uris":{"android":"levelo://app?vid=6de74f0a-67c9-41a0-beae-9bff7bc86602","ios":"levelo://app?vid=6de74f0a-67c9-41a0-beae-9bff7bc86602"},"vehicle_type_id":"4","last_reported":1692734805,"current_range_meters":25600,"station_id":"ce4bh692rcd13ifvqea0","pricing_plan_id":"free"},{"bike_id":"0d97f343-9af3-4d45-99ad-4afc07538e53","system_id":"levelo_inurba_marseille","lat":43.292642,"lon":5.384254,"is_reserved":false,"is_disabled":false,"rental_uris":{"android":"levelo://app?vid=0d97f343-9af3-4d45-99ad-4afc07538e53","ios":"levelo://app?vid=0d97f343-9af3-4d45-99ad-4afc07538e53"},"vehicle_type_id":"4","last_reported":1692734805,"current_range_meters":8000,"station_id":"ce4bh692rcd13ifvqea0","pricing_plan_id":"free"},{"bike_id":"0830f8b4-1bef-4495-86a5-fc803618804a","system_id":"levelo_inurba_marseille","lat":43.292644,"lon":5.384257,"is_reserved":false,"is_disabled":false,"rental_uris":{"android":"levelo://app?vid=0830f8b4-1bef-4495-86a5-fc803618804a","ios":"levelo://app?vid=0830f8b4-1bef-4495-86a5-fc803618804a"},"vehicle_type_id":"4","last_reported":1692734805,"current_range_meters":13200,"station_id":"ce4bh692rcd13ifvqea0","pricing_plan_id":"free"},{"bike_id":"59e9bb2b-25a5-4767-8b22-6fc84dcfba63","system_id":"levelo_inurba_marseille","lat":43.292644,"lon":5.384257,"is_reserved":false,"is_disabled":false,"rental_uris":{"android":"levelo://app?vid=59e9bb2b-25a5-4767-8b22-6fc84dcfba63","ios":"levelo://app?vid=59e9bb2b-25a5-4767-8b22-6fc84dcfba63"},"vehicle_type_id":"4","last_reported":1692734805,"current_range_meters":16400,"station_id":"ce4bh692rcd13ifvqea0","pricing_plan_id":"free"},{"bike_id":"62037bc5-10fa-4b66-aca1-005bf3589049","system_id":"levelo_inurba_marseille","lat":43.292642,"lon":5.384254,"is_reserved":false,"is_disabled":false,"rental_uris":{"android":"levelo://app?vid=62037bc5-10fa-4b66-aca1-005bf3589049","ios":"levelo://app?vid=62037bc5-10fa-4b66-aca1-005bf3589049"},"vehicle_type_id":"4","last_reported":1692734805,"current_range_meters":25200,"station_id":"ce4bh692rcd13ifvqea0","pricing_plan_id":"free"},{"bike_id":"047877bd-432f-4276-8480-eaef74045d49","system_id":"levelo_inurba_marseille","lat":43.292644,"lon":5.384257,"is_reserved":false,"is_disabled":false,"rental_uris":{"android":"levelo://app?vid=047877bd-432f-4276-8480-eaef74045d49","ios":"levelo://app?vid=047877bd-432f-4276-8480-eaef74045d49"},"vehicle_type_id":"4","last_reported":1692734805,"current_range_meters":26000,"station_id":"ce4bh692rcd13ifvqea0","pricing_plan_id":"free"},{"bike_id":"b574eb39-b46c-4ef4-b93c-d45f975f1b1f","system_id":"levelo_inurba_marseille","lat":43.292644,"lon":5.384257,"is_reserved":false,"is_disabled":false,"rental_uris":{"android":"levelo://app?vid=b574eb39-b46c-4ef4-b93c-d45f975f1b1f","ios":"levelo://app?vid=b574eb39-b46c-4ef4-b93c-d45f975f1b1f"},"vehicle_type_id":"4","last_reported":1692734805,"current_range_meters":22400,"station_id":"ce4bh692rcd13ifvqea0","pricing_plan_id":"free"},{"bike_id":"7e400323-01f3-4358-a248-dcf3a9105f86","system_id":"levelo_inurba_marseille","lat":43.292644,"lon":5.384257,"is_reserved":false,"is_disabled":false,"rental_uris":{"android":"levelo://app?vid=7e400323-01f3-4358-a248-dcf3a9105f86","ios":"levelo://app?vid=7e400323-01f3-4358-a248-dcf3a9105f86"},"vehicle_type_id":"4","last_reported":1692734805,"current_range_meters":0,"station_id":"ce4bh692rcd13ifvqea0","pricing_plan_id":"free"},{"bike_id":"5adee765-1726-4635-8986-b7c843a0ad86","system_id":"levelo_inurba_marseille","lat":43.292644,"lon":5.384257,"is_reserved":false,"is_disabled":false,"rental_uris":{"android":"levelo://app?vid=5adee765-1726-4635-8986-b7c843a0ad86","ios":"levelo://app?vid=5adee765-1726-4635-8986-b7c843a0ad86"},"vehicle_type_id":"4","last_reported":1692734805,"current_range_meters":23200,"station_id":"ce4bh692rcd13ifvqea0","pricing_plan_id":"free"},{"bike_id":"49d7ef32-c213-4cac-bfb9-e76f9c88a881","system_id":"levelo_inurba_marseille","lat":43.304274,"lon":5.397513,"is_reserved":false,"is_disabled":false,"rental_uris":{"android":"levelo://app?vid=49d7ef32-c213-4cac-bfb9-e76f9c88a881","ios":"levelo://app?vid=49d7ef32-c213-4cac-bfb9-e76f9c88a881"},"vehicle_type_id":"4","last_reported":1692734805,"current_range_meters":24800,"station_id":"ce4bh092rcd13ifvqd20","pricing_plan_id":"free"},{"bike_id":"e42ef7a4-060f-42e5-9585-8714f341edb8","system_id":"levelo_inurba_marseille","lat":43.292642,"lon":5.384254,"is_reserved":false,"is_disabled":false,"rental_uris":{"android":"levelo://app?vid=e42ef7a4-060f-42e5-9585-8714f341edb8","ios":"levelo://app?vid=e42ef7a4-060f-42e5-9585-8714f341edb8"},"vehicle_type_id":"4","last_reported":1692734805,"current_range_meters":12400,"station_id":"ce4bh692rcd13ifvqea0","pricing_plan_id":"free"},{"bike_id":"191d2edf-7363-4aed-8947-ed7244740843","system_id":"levelo_inurba_marseille","lat":43.292644,"lon":5.384257,"is_reserved":false,"is_disabled":false,"rental_uris":{"android":"levelo://app?vid=191d2edf-7363-4aed-8947-ed7244740843","ios":"levelo://app?vid=191d2edf-7363-4aed-8947-ed7244740843"},"vehicle_type_id":"4","last_reported":1692734805,"current_range_meters":16400,"station_id":"ce4bh692rcd13ifvqea0","pricing_plan_id":"free"},{"bike_id":"66442408-4808-4484-97b4-f9d3fd546b4d","system_id":"levelo_inurba_marseille","lat":43.29115,"lon":5.38103,"is_reserved":false,"is_disabled":false,"rental_uris":{"android":"levelo://app?vid=66442408-4808-4484-97b4-f9d3fd546b4d","ios":"levelo://app?vid=66442408-4808-4484-97b4-f9d3fd546b4d"},"vehicle_type_id":"4","last_reported":1692734805,"current_range_meters":4000,"station_id":"","pricing_plan_id":"free"},{"bike_id":"c50fbe86-cbfa-42d4-b5b3-628f7928dab3","system_id":"levelo_inurba_marseille","lat":43.292642,"lon":5.384254,"is_reserved":false,"is_disabled":false,"rental_uris":{"android":"levelo://app?vid=c50fbe86-cbfa-42d4-b5b3-628f7928dab3","ios":"levelo://app?vid=c50fbe86-cbfa-42d4-b5b3-628f7928dab3"},"vehicle_type_id":"4","last_reported":1692734805,"current_range_meters":18400,"station_id":"ce4bh692rcd13ifvqea0","pricing_plan_id":"free"},{"bike_id":"622d1ac4-c0c2-460b-915b-fcde873bcb95","system_id":"levelo_inurba_marseille","lat":43.292642,"lon":5.384254,"is_reserved":false,"is_disabled":false,"rental_uris":{"android":"levelo://app?vid=622d1ac4-c0c2-460b-915b-fcde873bcb95","ios":"levelo://app?vid=622d1ac4-c0c2-460b-915b-fcde873bcb95"},"vehicle_type_id":"4","last_reported":1692734805,"current_range_meters":29600,"station_id":"ce4bh692rcd13ifvqea0","pricing_plan_id":"free"},{"bike_id":"0f060318-14ff-4bbb-b1bd-d3bad0d20b4a","system_id":"levelo_inurba_marseille","lat":43.33039,"lon":5.3892,"is_reserved":false,"is_disabled":false,"rental_uris":{"android":"levelo://app?vid=0f060318-14ff-4bbb-b1bd-d3bad0d20b4a","ios":"levelo://app?vid=0f060318-14ff-4bbb-b1bd-d3bad0d20b4a"},"vehicle_type_id":"4","last_reported":1692734805,"current_range_meters":14000,"station_id":"ce4bhr92rcd13ifvqhrg","pricing_plan_id":"free"},{"bike_id":"3edec34c-b5e0-4c51-b916-cb7b6255aa81","system_id":"levelo_inurba_marseille","lat":43.3304,"lon":5.38921,"is_reserved":false,"is_disabled":false,"rental_uris":{"android":"levelo://app?vid=3edec34c-b5e0-4c51-b916-cb7b6255aa81","ios":"levelo://app?vid=3edec34c-b5e0-4c51-b916-cb7b6255aa81"},"vehicle_type_id":"4","last_reported":1692734805,"current_range_meters":12400,"station_id":"ce4bhr92rcd13ifvqhrg","pricing_plan_id":"free"},{"bike_id":"7691d65d-d321-467f-86e8-b26ac6013c5b","system_id":"levelo_inurba_marseille","lat":43.33043,"lon":5.38917,"is_reserved":false,"is_disabled":false,"rental_uris":{"android":"levelo://app?vid=7691d65d-d321-467f-86e8-b26ac6013c5b","ios":"levelo://app?vid=7691d65d-d321-467f-86e8-b26ac6013c5b"},"vehicle_type_id":"4","last_reported":1692734805,"current_range_meters":27600,"station_id":"ce4bhr92rcd13ifvqhrg","pricing_plan_id":"free"},{"bike_id":"ea2c072a-c599-4cb1-a67c-c82011d9d932","system_id":"levelo_inurba_marseille","lat":43.33044,"lon":5.38919,"is_reserved":false,"is_disabled":false,"rental_uris":{"android":"levelo://app?vid=ea2c072a-c599-4cb1-a67c-c82011d9d932","ios":"levelo://app?vid=ea2c072a-c599-4cb1-a67c-c82011d9d932"},"vehicle_type_id":"4","last_reported":1692734805,"current_range_meters":1200,"station_id":"ce4bhr92rcd13ifvqhrg","pricing_plan_id":"free"},{"bike_id":"416832a5-c1d4-423b-90c0-e0470dfb3aa6","system_id":"levelo_inurba_marseille","lat":43.33041,"lon":5.38924,"is_reserved":false,"is_disabled":false,"rental_uris":{"android":"levelo://app?vid=416832a5-c1d4-423b-90c0-e0470dfb3aa6","ios":"levelo://app?vid=416832a5-c1d4-423b-90c0-e0470dfb3aa6"},"vehicle_type_id":"4","last_reported":1692734805,"current_range_meters":23200,"station_id":"ce4bhr92rcd13ifvqhrg","pricing_plan_id":"free"},{"bike_id":"8e068da8-76ec-4d39-b464-53cd8cb57017","system_id":"levelo_inurba_marseille","lat":43.330433,"lon":5.389208,"is_reserved":false,"is_disabled":false,"rental_uris":{"android":"levelo://app?vid=8e068da8-76ec-4d39-b464-53cd8cb57017","ios":"levelo://app?vid=8e068da8-76ec-4d39-b464-53cd8cb57017"},"vehicle_type_id":"4","last_reported":1692734805,"current_range_meters":21200,"station_id":"ce4bhr92rcd13ifvqhrg","pricing_plan_id":"free"},{"bike_id":"4bef911f-f277-4de3-86d5-0f9c7aaa1d5e","system_id":"levelo_inurba_marseille","lat":43.33044,"lon":5.38923,"is_reserved":false,"is_disabled":false,"rental_uris":{"android":"levelo://app?vid=4bef911f-f277-4de3-86d5-0f9c7aaa1d5e","ios":"levelo://app?vid=4bef911f-f277-4de3-86d5-0f9c7aaa1d5e"},"vehicle_type_id":"4","last_reported":1692734805,"current_range_meters":14800,"station_id":"ce4bhr92rcd13ifvqhrg","pricing_plan_id":"free"},{"bike_id":"939e495d-8ab6-45d4-94dc-19783f5dc1af","system_id":"levelo_inurba_marseille","lat":43.294153,"lon":5.386305,"is_reserved":false,"is_disabled":false,"rental_uris":{"android":"levelo://app?vid=939e495d-8ab6-45d4-94dc-19783f5dc1af","ios":"levelo://app?vid=939e495d-8ab6-45d4-94dc-19783f5dc1af"},"vehicle_type_id":"4","last_reported":1692734805,"current_range_meters":30000,"station_id":"ce4bh2h2rcd13ifvqdh0","pricing_plan_id":"free"},{"bike_id":"b6dc6287-5943-42a5-a58d-caf7c370c79e","system_id":"levelo_inurba_marseille","lat":43.290103,"lon":5.356114,"is_reserved":false,"is_disabled":false,"rental_uris":{"android":"levelo://app?vid=b6dc6287-5943-42a5-a58d-caf7c370c79e","ios":"levelo://app?vid=b6dc6287-5943-42a5-a58d-caf7c370c79e"},"vehicle_type_id":"4","last_reported":1692734805,"current_range_meters":0,"station_id":"ce4bhb92rcd13ifvqen0","pricing_plan_id":"free"},{"bike_id":"b23dfbd4-5e35-48e7-a613-1121d518386a","system_id":"levelo_inurba_marseille","lat":43.297815,"lon":5.393548,"is_reserved":false,"is_disabled":false,"rental_uris":{"android":"levelo://app?vid=b23dfbd4-5e35-48e7-a613-1121d518386a","ios":"levelo://app?vid=b23dfbd4-5e35-48e7-a613-1121d518386a"},"vehicle_type_id":"4","last_reported":1692734805,"current_range_meters":8000,"station_id":"chh1huq6cuj3fo74tm60","pricing_plan_id":"free"},{"bike_id":"cfe4221a-ad28-4dcc-92a9-c22e391dda01","system_id":"levelo_inurba_marseille","lat":43.295169,"lon":5.390426,"is_reserved":false,"is_disabled":false,"rental_uris":{"android":"levelo://app?vid=cfe4221a-ad28-4dcc-92a9-c22e391dda01","ios":"levelo://app?vid=cfe4221a-ad28-4dcc-92a9-c22e391dda01"},"vehicle_type_id":"4","last_reported":1692734805,"current_range_meters":23200,"station_id":"ce4bh3p2rcd13ifvqdp0","pricing_plan_id":"free"},{"bike_id":"3e636f57-93b8-4ed8-9edf-949c6a0a4c3c","system_id":"levelo_inurba_marseille","lat":43.295169,"lon":5.390426,"is_reserved":false,"is_disabled":false,"rental_uris":{"android":"levelo://app?vid=3e636f57-93b8-4ed8-9edf-949c6a0a4c3c","ios":"levelo://app?vid=3e636f57-93b8-4ed8-9edf-949c6a0a4c3c"},"vehicle_type_id":"4","last_reported":1692734805,"current_range_meters":11600,"station_id":"ce4bh3p2rcd13ifvqdp0","pricing_plan_id":"free"},{"bike_id":"25208009-0d30-4d45-a77f-7ef4c7868ab8","system_id":"levelo_inurba_marseille","lat":43.290995,"lon":5.381361,"is_reserved":false,"is_disabled":false,"rental_uris":{"android":"levelo://app?vid=25208009-0d30-4d45-a77f-7ef4c7868ab8","ios":"levelo://app?vid=25208009-0d30-4d45-a77f-7ef4c7868ab8"},"vehicle_type_id":"4","last_reported":1692734805,"current_range_meters":24400,"station_id":"ce4bh512rcd13ifvqe2g","pricing_plan_id":"free"},{"bike_id":"deea1a59-ca2b-44d8-8c2d-2a67830b1040","system_id":"levelo_inurba_marseille","lat":43.295169,"lon":5.390426,"is_reserved":false,"is_disabled":false,"rental_uris":{"android":"levelo://app?vid=deea1a59-ca2b-44d8-8c2d-2a67830b1040","ios":"levelo://app?vid=deea1a59-ca2b-44d8-8c2d-2a67830b1040"},"vehicle_type_id":"4","last_reported":1692734805,"current_range_meters":11600,"station_id":"ce4bh3p2rcd13ifvqdp0","pricing_plan_id":"free"},{"bike_id":"16d2f6f3-f9b4-4fb5-8222-7a3b5517f1b7","system_id":"levelo_inurba_marseille","lat":43.295169,"lon":5.390426,"is_reserved":false,"is_disabled":false,"rental_uris":{"android":"levelo://app?vid=16d2f6f3-f9b4-4fb5-8222-7a3b5517f1b7","ios":"levelo://app?vid=16d2f6f3-f9b4-4fb5-8222-7a3b5517f1b7"},"vehicle_type_id":"4","last_reported":1692734805,"current_range_meters":27600,"station_id":"ce4bh3p2rcd13ifvqdp0","pricing_plan_id":"free"},{"bike_id":"6f654504-5530-4de1-9a23-0e9acb05a84f","system_id":"levelo_inurba_marseille","lat":43.295169,"lon":5.390426,"is_reserved":false,"is_disabled":false,"rental_uris":{"android":"levelo://app?vid=6f654504-5530-4de1-9a23-0e9acb05a84f","ios":"levelo://app?vid=6f654504-5530-4de1-9a23-0e9acb05a84f"},"vehicle_type_id":"4","last_reported":1692734805,"current_range_meters":6000,"station_id":"ce4bh3p2rcd13ifvqdp0","pricing_plan_id":"free"},{"bike_id":"570d583c-49c8-4c1a-8d00-66f7e9f498b0","system_id":"levelo_inurba_marseille","lat":43.29031,"lon":5.38134,"is_reserved":false,"is_disabled":false,"rental_uris":{"android":"levelo://app?vid=570d583c-49c8-4c1a-8d00-66f7e9f498b0","ios":"levelo://app?vid=570d583c-49c8-4c1a-8d00-66f7e9f498b0"},"vehicle_type_id":"4","last_reported":1692734805,"current_range_meters":22000,"station_id":"ce4bh4p2rcd13ifvqe1g","pricing_plan_id":"free"},{"bike_id":"0cc46b44-0cef-43f5-9f0d-0afe5e687f9a","system_id":"levelo_inurba_marseille","lat":43.28856,"lon":5.358371,"is_reserved":false,"is_disabled":false,"rental_uris":{"android":"levelo://app?vid=0cc46b44-0cef-43f5-9f0d-0afe5e687f9a","ios":"levelo://app?vid=0cc46b44-0cef-43f5-9f0d-0afe5e687f9a"},"vehicle_type_id":"4","last_reported":1692734805,"current_range_meters":27600,"station_id":"ce4bhb12rcd13ifvqem0","pricing_plan_id":"free"},{"bike_id":"3a17a5ec-bbc1-46aa-b32d-2e7fc8716ecc","system_id":"levelo_inurba_marseille","lat":43.30926,"lon":5.4014,"is_reserved":false,"is_disabled":false,"rental_uris":{"android":"levelo://app?vid=3a17a5ec-bbc1-46aa-b32d-2e7fc8716ecc","ios":"levelo://app?vid=3a17a5ec-bbc1-46aa-b32d-2e7fc8716ecc"},"vehicle_type_id":"4","last_reported":1692734805,"current_range_meters":16000,"station_id":"ce4bgvp2rcd13ifvqct0","pricing_plan_id":"free"},{"bike_id":"516038a3-dcd2-4e17-90c4-89bfdf8116bd","system_id":"levelo_inurba_marseille","lat":43.30906,"lon":5.40143,"is_reserved":false,"is_disabled":false,"rental_uris":{"android":"levelo://app?vid=516038a3-dcd2-4e17-90c4-89bfdf8116bd","ios":"levelo://app?vid=516038a3-dcd2-4e17-90c4-89bfdf8116bd"},"vehicle_type_id":"4","last_reported":1692734805,"current_range_meters":6400,"station_id":"ce4bgvp2rcd13ifvqct0","pricing_plan_id":"free"},{"bike_id":"14d5f894-7012-426d-87ae-91e86a17f6a2","system_id":"levelo_inurba_marseille","lat":43.309228,"lon":5.401503,"is_reserved":false,"is_disabled":false,"rental_uris":{"android":"levelo://app?vid=14d5f894-7012-426d-87ae-91e86a17f6a2","ios":"levelo://app?vid=14d5f894-7012-426d-87ae-91e86a17f6a2"},"vehicle_type_id":"4","last_reported":1692734805,"current_range_meters":12800,"station_id":"ce4bgvp2rcd13ifvqct0","pricing_plan_id":"free"},{"bike_id":"d138efda-142a-4714-a99a-a4561d0c6678","system_id":"levelo_inurba_marseille","lat":43.30642,"lon":5.401031,"is_reserved":false,"is_disabled":false,"rental_uris":{"android":"levelo://app?vid=d138efda-142a-4714-a99a-a4561d0c6678","ios":"levelo://app?vid=d138efda-142a-4714-a99a-a4561d0c6678"},"vehicle_type_id":"4","last_reported":1692734805,"current_range_meters":30800,"station_id":"ce4bh112rcd13ifvqda0","pricing_plan_id":"free"},{"bike_id":"833b1ec9-9981-4b58-9c59-386c3849cd4a","system_id":"levelo_inurba_marseille","lat":43.301117,"lon":5.398795,"is_reserved":false,"is_disabled":false,"rental_uris":{"android":"levelo://app?vid=833b1ec9-9981-4b58-9c59-386c3849cd4a","ios":"levelo://app?vid=833b1ec9-9981-4b58-9c59-386c3849cd4a"},"vehicle_type_id":"4","last_reported":1692734805,"current_range_meters":4800,"station_id":"ce4bh0h2rcd13ifvqd40","pricing_plan_id":"free"},{"bike_id":"4318bba2-f5db-420f-bf88-e58b5fda1b77","system_id":"levelo_inurba_marseille","lat":43.301117,"lon":5.398795,"is_reserved":false,"is_disabled":false,"rental_uris":{"android":"levelo://app?vid=4318bba2-f5db-420f-bf88-e58b5fda1b77","ios":"levelo://app?vid=4318bba2-f5db-420f-bf88-e58b5fda1b77"},"vehicle_type_id":"4","last_reported":1692734805,"current_range_meters":24000,"station_id":"ce4bh0h2rcd13ifvqd40","pricing_plan_id":"free"},{"bike_id":"7ae05c74-b55a-4627-a532-dc2e399876ea","system_id":"levelo_inurba_marseille","lat":43.301117,"lon":5.398795,"is_reserved":false,"is_disabled":false,"rental_uris":{"android":"levelo://app?vid=7ae05c74-b55a-4627-a532-dc2e399876ea","ios":"levelo://app?vid=7ae05c74-b55a-4627-a532-dc2e399876ea"},"vehicle_type_id":"4","last_reported":1692734805,"current_range_meters":6400,"station_id":"ce4bh0h2rcd13ifvqd40","pricing_plan_id":"free"},{"bike_id":"7d59e6c4-d6a9-4092-98ae-1c5107709156","system_id":"levelo_inurba_marseille","lat":43.286961,"lon":5.373785,"is_reserved":false,"is_disabled":false,"rental_uris":{"android":"levelo://app?vid=7d59e6c4-d6a9-4092-98ae-1c5107709156","ios":"levelo://app?vid=7d59e6c4-d6a9-4092-98ae-1c5107709156"},"vehicle_type_id":"4","last_reported":1692734805,"current_range_meters":28000,"station_id":"ce4bh3p2rcd13ifvqdq0","pricing_plan_id":"free"},{"bike_id":"05bc30d4-2a2b-43c5-8b46-98ca90fc775b","system_id":"levelo_inurba_marseille","lat":43.286961,"lon":5.373785,"is_reserved":false,"is_disabled":false,"rental_uris":{"android":"levelo://app?vid=05bc30d4-2a2b-43c5-8b46-98ca90fc775b","ios":"levelo://app?vid=05bc30d4-2a2b-43c5-8b46-98ca90fc775b"},"vehicle_type_id":"4","last_reported":1692734805,"current_range_meters":16000,"station_id":"ce4bh3p2rcd13ifvqdq0","pricing_plan_id":"free"},{"bike_id":"4ad60e11-7b6a-4a3b-a20f-096241780652","system_id":"levelo_inurba_marseille","lat":43.287089,"lon":5.37326,"is_reserved":false,"is_disabled":false,"rental_uris":{"android":"levelo://app?vid=4ad60e11-7b6a-4a3b-a20f-096241780652","ios":"levelo://app?vid=4ad60e11-7b6a-4a3b-a20f-096241780652"},"vehicle_type_id":"4","last_reported":1692734805,"current_range_meters":19600,"station_id":"","pricing_plan_id":"free"},{"bike_id":"c75d85fe-d68a-452d-bd82-127de08d9463","system_id":"levelo_inurba_marseille","lat":43.286961,"lon":5.373785,"is_reserved":false,"is_disabled":false,"rental_uris":{"android":"levelo://app?vid=c75d85fe-d68a-452d-bd82-127de08d9463","ios":"levelo://app?vid=c75d85fe-d68a-452d-bd82-127de08d9463"},"vehicle_type_id":"4","last_reported":1692734805,"current_range_meters":31200,"station_id":"ce4bh3p2rcd13ifvqdq0","pricing_plan_id":"free"},{"bike_id":"52a0d2dd-6ad3-4421-b684-3e504a3ea0be","system_id":"levelo_inurba_marseille","lat":43.286961,"lon":5.373785,"is_reserved":false,"is_disabled":false,"rental_uris":{"android":"levelo://app?vid=52a0d2dd-6ad3-4421-b684-3e504a3ea0be","ios":"levelo://app?vid=52a0d2dd-6ad3-4421-b684-3e504a3ea0be"},"vehicle_type_id":"4","last_reported":1692734805,"current_range_meters":11200,"station_id":"ce4bh3p2rcd13ifvqdq0","pricing_plan_id":"free"},{"bike_id":"91f3a0d1-a009-40f5-bfcd-792a4f1a73ca","system_id":"levelo_inurba_marseille","lat":43.298681,"lon":5.397225,"is_reserved":false,"is_disabled":false,"rental_uris":{"android":"levelo://app?vid=91f3a0d1-a009-40f5-bfcd-792a4f1a73ca","ios":"levelo://app?vid=91f3a0d1-a009-40f5-bfcd-792a4f1a73ca"},"vehicle_type_id":"4","last_reported":1692734805,"current_range_meters":18000,"station_id":"ce4bh0h2rcd13ifvqd50","pricing_plan_id":"free"},{"bike_id":"ee0a193b-c91c-4ee1-ab16-2325221e2857","system_id":"levelo_inurba_marseille","lat":43.298681,"lon":5.397225,"is_reserved":false,"is_disabled":false,"rental_uris":{"android":"levelo://app?vid=ee0a193b-c91c-4ee1-ab16-2325221e2857","ios":"levelo://app?vid=ee0a193b-c91c-4ee1-ab16-2325221e2857"},"vehicle_type_id":"4","last_reported":1692734805,"current_range_meters":27600,"station_id":"ce4bh0h2rcd13ifvqd50","pricing_plan_id":"free"},{"bike_id":"c72d34b8-409e-4b6a-b4ef-74cd86d0c1b0","system_id":"levelo_inurba_marseille","lat":43.286961,"lon":5.373785,"is_reserved":false,"is_disabled":false,"rental_uris":{"android":"levelo://app?vid=c72d34b8-409e-4b6a-b4ef-74cd86d0c1b0","ios":"levelo://app?vid=c72d34b8-409e-4b6a-b4ef-74cd86d0c1b0"},"vehicle_type_id":"4","last_reported":1692734805,"current_range_meters":16000,"station_id":"ce4bh3p2rcd13ifvqdq0","pricing_plan_id":"free"},{"bike_id":"019c15c6-0437-4c1a-a6d6-022556fa0ead","system_id":"levelo_inurba_marseille","lat":43.286961,"lon":5.373785,"is_reserved":false,"is_disabled":false,"rental_uris":{"android":"levelo://app?vid=019c15c6-0437-4c1a-a6d6-022556fa0ead","ios":"levelo://app?vid=019c15c6-0437-4c1a-a6d6-022556fa0ead"},"vehicle_type_id":"4","last_reported":1692734805,"current_range_meters":20800,"station_id":"ce4bh3p2rcd13ifvqdq0","pricing_plan_id":"free"},{"bike_id":"309d57f9-9606-48e9-a108-ecb6e87e42b7","system_id":"levelo_inurba_marseille","lat":43.286961,"lon":5.373785,"is_reserved":false,"is_disabled":false,"rental_uris":{"android":"levelo://app?vid=309d57f9-9606-48e9-a108-ecb6e87e42b7","ios":"levelo://app?vid=309d57f9-9606-48e9-a108-ecb6e87e42b7"},"vehicle_type_id":"4","last_reported":1692734805,"current_range_meters":12000,"station_id":"ce4bh3p2rcd13ifvqdq0","pricing_plan_id":"free"},{"bike_id":"75199276-b705-4ad7-b6a9-49aeaa84628a","system_id":"levelo_inurba_marseille","lat":43.286591,"lon":5.363346,"is_reserved":false,"is_disabled":false,"rental_uris":{"android":"levelo://app?vid=75199276-b705-4ad7-b6a9-49aeaa84628a","ios":"levelo://app?vid=75199276-b705-4ad7-b6a9-49aeaa84628a"},"vehicle_type_id":"4","last_reported":1692734805,"current_range_meters":30800,"station_id":"ce4bhah2rcd13ifvqej0","pricing_plan_id":"free"},{"bike_id":"edb0f287-9980-48ec-ac49-f3acb03484f8","system_id":"levelo_inurba_marseille","lat":43.286961,"lon":5.373785,"is_reserved":false,"is_disabled":false,"rental_uris":{"android":"levelo://app?vid=edb0f287-9980-48ec-ac49-f3acb03484f8","ios":"levelo://app?vid=edb0f287-9980-48ec-ac49-f3acb03484f8"},"vehicle_type_id":"4","last_reported":1692734805,"current_range_meters":31200,"station_id":"ce4bh3p2rcd13ifvqdq0","pricing_plan_id":"free"},{"bike_id":"9b87d1f6-eb71-4022-a7ef-1487e2123167","system_id":"levelo_inurba_marseille","lat":43.286928,"lon":5.373727,"is_reserved":false,"is_disabled":false,"rental_uris":{"android":"levelo://app?vid=9b87d1f6-eb71-4022-a7ef-1487e2123167","ios":"levelo://app?vid=9b87d1f6-eb71-4022-a7ef-1487e2123167"},"vehicle_type_id":"4","last_reported":1692734805,"current_range_meters":20400,"station_id":"ce4bh3p2rcd13ifvqdq0","pricing_plan_id":"free"},{"bike_id":"350be7fb-9313-4f11-911f-4f38ed1ee082","system_id":"levelo_inurba_marseille","lat":43.28655,"lon":5.36371,"is_reserved":false,"is_disabled":false,"rental_uris":{"android":"levelo://app?vid=350be7fb-9313-4f11-911f-4f38ed1ee082","ios":"levelo://app?vid=350be7fb-9313-4f11-911f-4f38ed1ee082"},"vehicle_type_id":"4","last_reported":1692734805,"current_range_meters":0,"station_id":"ce4bhah2rcd13ifvqej0","pricing_plan_id":"free"},{"bike_id":"6018dcaa-0e79-448d-9196-60581b6d9e55","system_id":"levelo_inurba_marseille","lat":43.286961,"lon":5.373785,"is_reserved":false,"is_disabled":false,"rental_uris":{"android":"levelo://app?vid=6018dcaa-0e79-448d-9196-60581b6d9e55","ios":"levelo://app?vid=6018dcaa-0e79-448d-9196-60581b6d9e55"},"vehicle_type_id":"4","last_reported":1692734805,"current_range_meters":18000,"station_id":"ce4bh3p2rcd13ifvqdq0","pricing_plan_id":"free"},{"bike_id":"7e818f41-4bed-4dea-858b-fca722223a64","system_id":"levelo_inurba_marseille","lat":43.290345,"lon":5.38646,"is_reserved":false,"is_disabled":false,"rental_uris":{"android":"levelo://app?vid=7e818f41-4bed-4dea-858b-fca722223a64","ios":"levelo://app?vid=7e818f41-4bed-4dea-858b-fca722223a64"},"vehicle_type_id":"4","last_reported":1692734805,"current_range_meters":29200,"station_id":"ce4bh4p2rcd13ifvqe0g","pricing_plan_id":"free"},{"bike_id":"08ab0857-9c87-444d-9c2b-bb8ef82642b6","system_id":"levelo_inurba_marseille","lat":43.290345,"lon":5.38646,"is_reserved":false,"is_disabled":false,"rental_uris":{"android":"levelo://app?vid=08ab0857-9c87-444d-9c2b-bb8ef82642b6","ios":"levelo://app?vid=08ab0857-9c87-444d-9c2b-bb8ef82642b6"},"vehicle_type_id":"4","last_reported":1692734805,"current_range_meters":5600,"station_id":"ce4bh4p2rcd13ifvqe0g","pricing_plan_id":"free"},{"bike_id":"e63bc095-6ea9-44ad-a3de-9fc65c7ca86c","system_id":"levelo_inurba_marseille","lat":43.290345,"lon":5.38646,"is_reserved":false,"is_disabled":false,"rental_uris":{"android":"levelo://app?vid=e63bc095-6ea9-44ad-a3de-9fc65c7ca86c","ios":"levelo://app?vid=e63bc095-6ea9-44ad-a3de-9fc65c7ca86c"},"vehicle_type_id":"4","last_reported":1692734805,"current_range_meters":8800,"station_id":"ce4bh4p2rcd13ifvqe0g","pricing_plan_id":"free"},{"bike_id":"d88c224d-c39e-48df-a08d-02ef4947c91a","system_id":"levelo_inurba_marseille","lat":43.290345,"lon":5.38646,"is_reserved":false,"is_disabled":false,"rental_uris":{"android":"levelo://app?vid=d88c224d-c39e-48df-a08d-02ef4947c91a","ios":"levelo://app?vid=d88c224d-c39e-48df-a08d-02ef4947c91a"},"vehicle_type_id":"4","last_reported":1692734805,"current_range_meters":10400,"station_id":"ce4bh4p2rcd13ifvqe0g","pricing_plan_id":"free"},{"bike_id":"3cc9890d-d888-4eea-bf01-49a5c0bf7e08","system_id":"levelo_inurba_marseille","lat":43.290345,"lon":5.38646,"is_reserved":false,"is_disabled":false,"rental_uris":{"android":"levelo://app?vid=3cc9890d-d888-4eea-bf01-49a5c0bf7e08","ios":"levelo://app?vid=3cc9890d-d888-4eea-bf01-49a5c0bf7e08"},"vehicle_type_id":"4","last_reported":1692734805,"current_range_meters":800,"station_id":"ce4bh4p2rcd13ifvqe0g","pricing_plan_id":"free"},{"bike_id":"8b995348-62af-4838-a10e-80261a542929","system_id":"levelo_inurba_marseille","lat":43.290336,"lon":5.386425,"is_reserved":false,"is_disabled":false,"rental_uris":{"android":"levelo://app?vid=8b995348-62af-4838-a10e-80261a542929","ios":"levelo://app?vid=8b995348-62af-4838-a10e-80261a542929"},"vehicle_type_id":"4","last_reported":1692734805,"current_range_meters":4400,"station_id":"ce4bh4p2rcd13ifvqe0g","pricing_plan_id":"free"},{"bike_id":"25c9ce24-efb1-417d-a1b5-689d677f046d","system_id":"levelo_inurba_marseille","lat":43.290336,"lon":5.386425,"is_reserved":false,"is_disabled":false,"rental_uris":{"android":"levelo://app?vid=25c9ce24-efb1-417d-a1b5-689d677f046d","ios":"levelo://app?vid=25c9ce24-efb1-417d-a1b5-689d677f046d"},"vehicle_type_id":"4","last_reported":1692734805,"current_range_meters":26800,"station_id":"ce4bh4p2rcd13ifvqe0g","pricing_plan_id":"free"},{"bike_id":"1cb2d737-f342-4023-8f90-faecd2941fdc","system_id":"levelo_inurba_marseille","lat":43.290336,"lon":5.386425,"is_reserved":false,"is_disabled":false,"rental_uris":{"android":"levelo://app?vid=1cb2d737-f342-4023-8f90-faecd2941fdc","ios":"levelo://app?vid=1cb2d737-f342-4023-8f90-faecd2941fdc"},"vehicle_type_id":"4","last_reported":1692734805,"current_range_meters":22000,"station_id":"ce4bh4p2rcd13ifvqe0g","pricing_plan_id":"free"},{"bike_id":"3ed1a9d4-c4c1-40b6-b52e-58b5e53751bd","system_id":"levelo_inurba_marseille","lat":43.286039,"lon":5.370679,"is_reserved":false,"is_disabled":false,"rental_uris":{"android":"levelo://app?vid=3ed1a9d4-c4c1-40b6-b52e-58b5e53751bd","ios":"levelo://app?vid=3ed1a9d4-c4c1-40b6-b52e-58b5e53751bd"},"vehicle_type_id":"4","last_reported":1692734805,"current_range_meters":22800,"station_id":"ce4bht12rcd13ifvqi60","pricing_plan_id":"free"},{"bike_id":"39ae46e5-e6cb-4e93-b881-a6d0461d2571","system_id":"levelo_inurba_marseille","lat":43.28613,"lon":5.37064,"is_reserved":false,"is_disabled":false,"rental_uris":{"android":"levelo://app?vid=39ae46e5-e6cb-4e93-b881-a6d0461d2571","ios":"levelo://app?vid=39ae46e5-e6cb-4e93-b881-a6d0461d2571"},"vehicle_type_id":"4","last_reported":1692734805,"current_range_meters":14800,"station_id":"ce4bht12rcd13ifvqi60","pricing_plan_id":"free"},{"bike_id":"2750cec8-fdb7-42f2-a3c0-cf398fbb804e","system_id":"levelo_inurba_marseille","lat":43.286039,"lon":5.370679,"is_reserved":false,"is_disabled":false,"rental_uris":{"android":"levelo://app?vid=2750cec8-fdb7-42f2-a3c0-cf398fbb804e","ios":"levelo://app?vid=2750cec8-fdb7-42f2-a3c0-cf398fbb804e"},"vehicle_type_id":"4","last_reported":1692734805,"current_range_meters":11200,"station_id":"ce4bht12rcd13ifvqi60","pricing_plan_id":"free"},{"bike_id":"dc943fd9-f33f-4407-b080-c09d834b17ad","system_id":"levelo_inurba_marseille","lat":43.286039,"lon":5.370681,"is_reserved":false,"is_disabled":false,"rental_uris":{"android":"levelo://app?vid=dc943fd9-f33f-4407-b080-c09d834b17ad","ios":"levelo://app?vid=dc943fd9-f33f-4407-b080-c09d834b17ad"},"vehicle_type_id":"4","last_reported":1692734805,"current_range_meters":20800,"station_id":"ce4bht12rcd13ifvqi60","pricing_plan_id":"free"},{"bike_id":"acc046bf-9b5a-48c4-9742-7c69554eb8f4","system_id":"levelo_inurba_marseille","lat":43.28601,"lon":5.37068,"is_reserved":false,"is_disabled":false,"rental_uris":{"android":"levelo://app?vid=acc046bf-9b5a-48c4-9742-7c69554eb8f4","ios":"levelo://app?vid=acc046bf-9b5a-48c4-9742-7c69554eb8f4"},"vehicle_type_id":"4","last_reported":1692734805,"current_range_meters":0,"station_id":"ce4bht12rcd13ifvqi60","pricing_plan_id":"free"},{"bike_id":"72496f71-bc0b-410a-b340-17e4a472719d","system_id":"levelo_inurba_marseille","lat":43.287184,"lon":5.37937,"is_reserved":false,"is_disabled":false,"rental_uris":{"android":"levelo://app?vid=72496f71-bc0b-410a-b340-17e4a472719d","ios":"levelo://app?vid=72496f71-bc0b-410a-b340-17e4a472719d"},"vehicle_type_id":"4","last_reported":1692734805,"current_range_meters":7600,"station_id":"ce4bh9p2rcd13ifvqec0","pricing_plan_id":"free"},{"bike_id":"099883d4-8345-480c-96bf-5e28e919ce78","system_id":"levelo_inurba_marseille","lat":43.28598,"lon":5.36043,"is_reserved":false,"is_disabled":false,"rental_uris":{"android":"levelo://app?vid=099883d4-8345-480c-96bf-5e28e919ce78","ios":"levelo://app?vid=099883d4-8345-480c-96bf-5e28e919ce78"},"vehicle_type_id":"4","last_reported":1692734805,"current_range_meters":27600,"station_id":"","pricing_plan_id":"free"},{"bike_id":"7da9e437-1e79-4b5f-9ab0-65254ac17dd7","system_id":"levelo_inurba_marseille","lat":43.31637,"lon":5.40433,"is_reserved":false,"is_disabled":false,"rental_uris":{"android":"levelo://app?vid=7da9e437-1e79-4b5f-9ab0-65254ac17dd7","ios":"levelo://app?vid=7da9e437-1e79-4b5f-9ab0-65254ac17dd7"},"vehicle_type_id":"4","last_reported":1692734805,"current_range_meters":30800,"station_id":"ce4bh012rcd13ifvqd00","pricing_plan_id":"free"},{"bike_id":"04f08e7f-701a-4ed4-8e5a-16e3dea32bb9","system_id":"levelo_inurba_marseille","lat":43.32833,"lon":5.39828,"is_reserved":false,"is_disabled":false,"rental_uris":{"android":"levelo://app?vid=04f08e7f-701a-4ed4-8e5a-16e3dea32bb9","ios":"levelo://app?vid=04f08e7f-701a-4ed4-8e5a-16e3dea32bb9"},"vehicle_type_id":"4","last_reported":1692734805,"current_range_meters":11200,"station_id":"","pricing_plan_id":"free"},{"bike_id":"2ce61423-843c-4143-93bc-d1f620c49c82","system_id":"levelo_inurba_marseille","lat":43.284661,"lon":5.358873,"is_reserved":false,"is_disabled":false,"rental_uris":{"android":"levelo://app?vid=2ce61423-843c-4143-93bc-d1f620c49c82","ios":"levelo://app?vid=2ce61423-843c-4143-93bc-d1f620c49c82"},"vehicle_type_id":"4","last_reported":1692734805,"current_range_meters":0,"station_id":"","pricing_plan_id":"free"},{"bike_id":"32972163-9558-4e5e-b014-a0e16883d8f7","system_id":"levelo_inurba_marseille","lat":43.28453,"lon":5.359,"is_reserved":false,"is_disabled":false,"rental_uris":{"android":"levelo://app?vid=32972163-9558-4e5e-b014-a0e16883d8f7","ios":"levelo://app?vid=32972163-9558-4e5e-b014-a0e16883d8f7"},"vehicle_type_id":"4","last_reported":1692734805,"current_range_meters":29600,"station_id":"ce4bhah2rcd13ifvqei0","pricing_plan_id":"free"},{"bike_id":"b4e0111e-24d1-4acb-aa02-40827d05ae3e","system_id":"levelo_inurba_marseille","lat":43.28494,"lon":5.37799,"is_reserved":false,"is_disabled":false,"rental_uris":{"android":"levelo://app?vid=b4e0111e-24d1-4acb-aa02-40827d05ae3e","ios":"levelo://app?vid=b4e0111e-24d1-4acb-aa02-40827d05ae3e"},"vehicle_type_id":"4","last_reported":1692734805,"current_range_meters":1200,"station_id":"","pricing_plan_id":"free"},{"bike_id":"35eec3a1-aa54-4990-8eb4-78e6c0dd24d0","system_id":"levelo_inurba_marseille","lat":43.285856,"lon":5.350771,"is_reserved":false,"is_disabled":false,"rental_uris":{"android":"levelo://app?vid=35eec3a1-aa54-4990-8eb4-78e6c0dd24d0","ios":"levelo://app?vid=35eec3a1-aa54-4990-8eb4-78e6c0dd24d0"},"vehicle_type_id":"4","last_reported":1692734805,"current_range_meters":17600,"station_id":"ce4bhch2rcd13ifvqeug","pricing_plan_id":"free"},{"bike_id":"2363d3b5-6c15-401a-a59c-ee80bd4af927","system_id":"levelo_inurba_marseille","lat":43.28415,"lon":5.37522,"is_reserved":false,"is_disabled":false,"rental_uris":{"android":"levelo://app?vid=2363d3b5-6c15-401a-a59c-ee80bd4af927","ios":"levelo://app?vid=2363d3b5-6c15-401a-a59c-ee80bd4af927"},"vehicle_type_id":"4","last_reported":1692734805,"current_range_meters":8000,"station_id":"ce4bh412rcd13ifvqds0","pricing_plan_id":"free"},{"bike_id":"171a9be1-d705-4331-bca7-479aa14b26e8","system_id":"levelo_inurba_marseille","lat":43.284079,"lon":5.374984,"is_reserved":false,"is_disabled":false,"rental_uris":{"android":"levelo://app?vid=171a9be1-d705-4331-bca7-479aa14b26e8","ios":"levelo://app?vid=171a9be1-d705-4331-bca7-479aa14b26e8"},"vehicle_type_id":"4","last_reported":1692734805,"current_range_meters":31200,"station_id":"ce4bh412rcd13ifvqds0","pricing_plan_id":"free"},{"bike_id":"4b5f6add-3906-416f-bf9d-ba476d2a5920","system_id":"levelo_inurba_marseille","lat":43.28405,"lon":5.374944,"is_reserved":false,"is_disabled":false,"rental_uris":{"android":"levelo://app?vid=4b5f6add-3906-416f-bf9d-ba476d2a5920","ios":"levelo://app?vid=4b5f6add-3906-416f-bf9d-ba476d2a5920"},"vehicle_type_id":"4","last_reported":1692734805,"current_range_meters":31200,"station_id":"ce4bh412rcd13ifvqds0","pricing_plan_id":"free"},{"bike_id":"6ee4cde0-1c43-4705-a414-d5ae35ae0d03","system_id":"levelo_inurba_marseille","lat":43.295713,"lon":5.399639,"is_reserved":false,"is_disabled":false,"rental_uris":{"android":"levelo://app?vid=6ee4cde0-1c43-4705-a414-d5ae35ae0d03","ios":"levelo://app?vid=6ee4cde0-1c43-4705-a414-d5ae35ae0d03"},"vehicle_type_id":"4","last_reported":1692734805,"current_range_meters":14400,"station_id":"ce4bh312rcd13ifvqdj0","pricing_plan_id":"free"},{"bike_id":"b885d241-e8eb-4e32-9d06-ee6c0f5aaa91","system_id":"levelo_inurba_marseille","lat":43.295713,"lon":5.399639,"is_reserved":false,"is_disabled":false,"rental_uris":{"android":"levelo://app?vid=b885d241-e8eb-4e32-9d06-ee6c0f5aaa91","ios":"levelo://app?vid=b885d241-e8eb-4e32-9d06-ee6c0f5aaa91"},"vehicle_type_id":"4","last_reported":1692734805,"current_range_meters":5600,"station_id":"ce4bh312rcd13ifvqdj0","pricing_plan_id":"free"},{"bike_id":"c376e4b0-d820-45b8-b644-00f3790113d7","system_id":"levelo_inurba_marseille","lat":43.286595,"lon":5.386795,"is_reserved":false,"is_disabled":false,"rental_uris":{"android":"levelo://app?vid=c376e4b0-d820-45b8-b644-00f3790113d7","ios":"levelo://app?vid=c376e4b0-d820-45b8-b644-00f3790113d7"},"vehicle_type_id":"4","last_reported":1692734805,"current_range_meters":9600,"station_id":"ce4bh492rcd13ifvqdug","pricing_plan_id":"free"},{"bike_id":"05eaf7ee-77a7-4f8e-85ea-a2d2702d4552","system_id":"levelo_inurba_marseille","lat":43.286595,"lon":5.386795,"is_reserved":false,"is_disabled":false,"rental_uris":{"android":"levelo://app?vid=05eaf7ee-77a7-4f8e-85ea-a2d2702d4552","ios":"levelo://app?vid=05eaf7ee-77a7-4f8e-85ea-a2d2702d4552"},"vehicle_type_id":"4","last_reported":1692734805,"current_range_meters":0,"station_id":"ce4bh492rcd13ifvqdug","pricing_plan_id":"free"},{"bike_id":"29395005-b1f7-42f7-bcf4-5ace1dd5c2d4","system_id":"levelo_inurba_marseille","lat":43.31884,"lon":5.40746,"is_reserved":false,"is_disabled":false,"rental_uris":{"android":"levelo://app?vid=29395005-b1f7-42f7-bcf4-5ace1dd5c2d4","ios":"levelo://app?vid=29395005-b1f7-42f7-bcf4-5ace1dd5c2d4"},"vehicle_type_id":"4","last_reported":1692734805,"current_range_meters":3600,"station_id":"ce4bhq12rcd13ifvqhig","pricing_plan_id":"free"},{"bike_id":"318aaf62-e0de-4490-83e3-d1252a51f7f3","system_id":"levelo_inurba_marseille","lat":43.33717,"lon":5.391857,"is_reserved":false,"is_disabled":false,"rental_uris":{"android":"levelo://app?vid=318aaf62-e0de-4490-83e3-d1252a51f7f3","ios":"levelo://app?vid=318aaf62-e0de-4490-83e3-d1252a51f7f3"},"vehicle_type_id":"4","last_reported":1692734805,"current_range_meters":0,"station_id":"ce4bhr92rcd13ifvqhsg","pricing_plan_id":"free"},