{"last_updated":1718554125,"ttl":30,"version":"2.2","data":{"bikes":[{"bike_id":"07dc9437-6ac5-4fbd-999e-9fbeec912a5e","system_id":"levelo_inurba_marseille","lat":43.312239,"lon":5.368562,"is_reserved":false,"is_disabled":false,"rental_uris":{"android":"levelo://app?vid=07dc9437-6ac5-4fbd-999e-9fbeec912a5e","ios":"levelo://app?vid=07dc9437-6ac5-4fbd-999e-9fbeec912a5e"},"vehicle_type_id":"4","last_reported":1718554125,"current_range_meters":7200,"station_id":"ce4bgl92rcd13ifvqbq0","pricing_plan_id":"cebpf4jnsgd1na2vs0mg"},{"bike_id":"3133c7e3-f647-4a83-acce-e0c04737e0cb","system_id":"levelo_inurba_marseille","lat":43.31516,"lon":5.37131,"is_reserved":false,"is_disabled":false,"rental_uris":{"android":"levelo://app?vid=3133c7e3-f647-4a83-acce-e0c04737e0cb","ios":"levelo://app?vid=3133c7e3-f647-4a83-acce-e0c04737e0cb"},"vehicle_type_id":"4","last_reported":1718554125,"current_range_meters":27600,"station_id":"","pricing_plan_id":"cebpf4jnsgd1na2vs0mg"},{"bike_id":"c67c2131-3e63-480d-a187-5f075c220427","system_id":"levelo_inurba_marseille","lat":43.315187,"lon":5.371283,"is_reserved":false,"is_disabled":false,"rental_uris":{"android":"levelo://app?vid=c67c2131-3e63-480d-a187-5f075c220427","ios":"levelo://app?vid=c67c2131-3e63-480d-a187-5f075c220427"},"vehicle_type_id":"4","last_reported":1718554125,"current_range_meters":28000,"station_id":"","pricing_plan_id":"cebpf4jnsgd1na2vs0mg"},{"bike_id":"cdd725a9-627c-4251-b569-2159c9d01c85","system_id":"levelo_inurba_marseille","lat":43.309039,"lon":5.371797,"is_reserved":false,"is_disabled":false,"rental_uris":{"android":"levelo://app?vid=cdd725a9-627c-4251-b569-2159c9d01c85","ios":"levelo://app?vid=cdd725a9-627c-4251-b569-2159c9d01c85"},"vehicle_type_id":"4","last_reported":1718554125,"current_range_meters":400,"station_id":"ce4bguh2rcd13ifvqckg","pricing_plan_id":"cebpf4jnsgd1na2vs0mg"},{"bike_id":"91e65379-4f29-418a-9716-66ddce7b432c","system_id":"levelo_inurba_marseille","lat":43.31438,"lon":5.37375,"is_reserved":false,"is_disabled":false,"rental_uris":{"android":"levelo://app?vid=91e65379-4f29-418a-9716-66ddce7b432c","ios":"levelo://app?vid=91e65379-4f29-418a-9716-66ddce7b432c"},"vehicle_type_id":"4","last_reported":1718554125,"current_range_meters":0,"station_id":"","pricing_plan_id":"cebpf4jnsgd1na2vs0mg"},{"bike_id":"19fbc8e3-e4c5-46ce-8ac7-41d0314da69e","system_id":"levelo_inurba_marseille","lat":43.31448,"lon":5.37381,"is_reserved":false,"is_disabled":false,"rental_uris":{"android":"levelo://app?vid=19fbc8e3-e4c5-46ce-8ac7-41d0314da69e","ios":"levelo://app?vid=19fbc8e3-e4c5-46ce-8ac7-41d0314da69e"},"vehicle_type_id":"4","last_reported":1718554125,"current_range_meters":30000,"station_id":"","pricing_plan_id":"cebpf4jnsgd1na2vs0mg"},{"bike_id":"270143d2-5b46-4379-861d-fec58bb798db","system_id":"levelo_inurba_marseille","lat":43.31455,"lon":5.37378,"is_reserved":false,"is_disabled":false,"rental_uris":{"android":"levelo://app?vid=270143d2-5b46-4379-861d-fec58bb798db","ios":"levelo://app?vid=270143d2-5b46-4379-861d-fec58bb798db"},"vehicle_type_id":"4","last_reported":1718554125,"current_range_meters":26800,"station_id":"","pricing_plan_id":"cebpf4jnsgd1na2vs0mg"},{"bike_id":"c9cb2d2a-3801-406b-931d-8e5f89e33bcf","system_id":"levelo_inurba_marseille","lat":43.309034,"lon":5.371783,"is_reserved":false,"is_disabled":false,"rental_uris":{"android":"levelo://app?vid=c9cb2d2a-3801-406b-931d-8e5f89e33bcf","ios":"levelo://app?vid=c9cb2d2a-3801-406b-931d-8e5f89e33bcf"},"vehicle_type_id":"4","last_reported":1718554125,"current_range_meters":22400,"station_id":"ce4bguh2rcd13ifvqckg","pricing_plan_id":"cebpf4jnsgd1na2vs0mg"},{"bike_id":"4c021b8b-358e-4397-841e-6a1fd7522822","system_id":"levelo_inurba_marseille","lat":43.30885,"lon":5.37201,"is_reserved":false,"is_disabled":false,"rental_uris":{"android":"levelo://app?vid=4c021b8b-358e-4397-841e-6a1fd7522822","ios":"levelo://app?vid=4c021b8b-358e-4397-841e-6a1fd7522822"},"vehicle_type_id":"4","last_reported":1718554125,"current_range_meters":400,"station_id":"ce4bguh2rcd13ifvqckg","pricing_plan_id":"cebpf4jnsgd1na2vs0mg"},{"bike_id":"520d52fe-4406-4f7a-b40f-5ba025e63f4a","system_id":"levelo_inurba_marseille","lat":43.3154,"lon":5.37453,"is_reserved":false,"is_disabled":false,"rental_uris":{"android":"levelo://app?vid=520d52fe-4406-4f7a-b40f-5ba025e63f4a","ios":"levelo://app?vid=520d52fe-4406-4f7a-b40f-5ba025e63f4a"},"vehicle_type_id":"4","last_reported":1718554125,"current_range_meters":4800,"station_id":"","pricing_plan_id":"cebpf4jnsgd1na2vs0mg"},{"bike_id":"c29ff2b2-520c-4f6f-b5ad-76b265d47031","system_id":"levelo_inurba_marseille","lat":43.30554,"lon":5.36722,"is_reserved":false,"is_disabled":false,"rental_uris":{"android":"levelo://app?vid=c29ff2b2-520c-4f6f-b5ad-76b265d47031","ios":"levelo://app?vid=c29ff2b2-520c-4f6f-b5ad-76b265d47031"},"vehicle_type_id":"4","last_reported":1718554125,"current_range_meters":26400,"station_id":"ce4bgrp2rcd13ifvqc9g","pricing_plan_id":"cebpf4jnsgd1na2vs0mg"},{"bike_id":"cbaf9dae-1656-4fec-944e-d54bf491b6cf","system_id":"levelo_inurba_marseille","lat":43.31802,"lon":5.373703,"is_reserved":false,"is_disabled":false,"rental_uris":{"android":"levelo://app?vid=cbaf9dae-1656-4fec-944e-d54bf491b6cf","ios":"levelo://app?vid=cbaf9dae-1656-4fec-944e-d54bf491b6cf"},"vehicle_type_id":"4","last_reported":1718554125,"current_range_meters":30000,"station_id":"","pricing_plan_id":"cebpf4jnsgd1na2vs0mg"},{"bike_id":"96b0c934-c439-4c09-8178-fd8e3aac253c","system_id":"levelo_inurba_marseille","lat":43.30542,"lon":5.36571,"is_reserved":false,"is_disabled":false,"rental_uris":{"android":"levelo://app?vid=96b0c934-c439-4c09-8178-fd8e3aac253c","ios":"levelo://app?vid=96b0c934-c439-4c09-8178-fd8e3aac253c"},"vehicle_type_id":"4","last_reported":1718554125,"current_range_meters":0,"station_id":"ce4bgs12rcd13ifvqcag","pricing_plan_id":"cebpf4jnsgd1na2vs0mg"},{"bike_id":"cc887a9b-b291-417d-a7d3-b025579a2215","system_id":"levelo_inurba_marseille","lat":43.30535,"lon":5.36715,"is_reserved":false,"is_disabled":false,"rental_uris":{"android":"levelo://app?vid=cc887a9b-b291-417d-a7d3-b025579a2215","ios":"levelo://app?vid=cc887a9b-b291-417d-a7d3-b025579a2215"},"vehicle_type_id":"4","last_reported":1718554125,"current_range_meters":16400,"station_id":"ce4bgrp2rcd13ifvqc9g","pricing_plan_id":"cebpf4jnsgd1na2vs0mg"},{"bike_id":"5078a83d-e745-4ed3-84f2-70831b04a80d","system_id":"levelo_inurba_marseille","lat":43.319483,"lon":5.37122,"is_reserved":false,"is_disabled":false,"rental_uris":{"android":"levelo://app?vid=5078a83d-e745-4ed3-84f2-70831b04a80d","ios":"levelo://app?vid=5078a83d-e745-4ed3-84f2-70831b04a80d"},"vehicle_type_id":"4","last_reported":1718554125,"current_range_meters":24000,"station_id":"","pricing_plan_id":"cebpf4jnsgd1na2vs0mg"},{"bike_id":"aef03593-ac67-4d80-ad87-f9566d830836","system_id":"levelo_inurba_marseille","lat":43.305706,"lon":5.365654,"is_reserved":false,"is_disabled":false,"rental_uris":{"android":"levelo://app?vid=aef03593-ac67-4d80-ad87-f9566d830836","ios":"levelo://app?vid=aef03593-ac67-4d80-ad87-f9566d830836"},"vehicle_type_id":"4","last_reported":1718554125,"current_range_meters":23600,"station_id":"ce4bgs12rcd13ifvqcag","pricing_plan_id":"cebpf4jnsgd1na2vs0mg"},{"bike_id":"5f5301a9-afeb-4e98-80ce-d59af93cfd18","system_id":"levelo_inurba_marseille","lat":43.305368,"lon":5.367343,"is_reserved":false,"is_disabled":false,"rental_uris":{"android":"levelo://app?vid=5f5301a9-afeb-4e98-80ce-d59af93cfd18","ios":"levelo://app?vid=5f5301a9-afeb-4e98-80ce-d59af93cfd18"},"vehicle_type_id":"4","last_reported":1718554125,"current_range_meters":28800,"station_id":"ce4bgrp2rcd13ifvqc9g","pricing_plan_id":"cebpf4jnsgd1na2vs0mg"},{"bike_id":"636aa572-381b-4dfb-87be-e4a39c1fa615","system_id":"levelo_inurba_marseille","lat":43.317075,"lon":5.377367,"is_reserved":false,"is_disabled":false,"rental_uris":{"android":"levelo://app?vid=636aa572-381b-4dfb-87be-e4a39c1fa615","ios":"levelo://app?vid=636aa572-381b-4dfb-87be-e4a39c1fa615"},"vehicle_type_id":"4","last_reported":1718554125,"current_range_meters":20000,"station_id":"ce4bgth2rcd13ifvqch0","pricing_plan_id":"cebpf4jnsgd1na2vs0mg"},{"bike_id":"ffe64d96-557d-4b21-a469-0559e6dee766","system_id":"levelo_inurba_marseille","lat":43.31217,"lon":5.37954,"is_reserved":false,"is_disabled":false,"rental_uris":{"android":"levelo://app?vid=ffe64d96-557d-4b21-a469-0559e6dee766","ios":"levelo://app?vid=ffe64d96-557d-4b21-a469-0559e6dee766"},"vehicle_type_id":"4","last_reported":1718554125,"current_range_meters":3600,"station_id":"","pricing_plan_id":"cebpf4jnsgd1na2vs0mg"},{"bike_id":"419a87ae-8fb7-4403-a73a-63e840a91a2f","system_id":"levelo_inurba_marseille","lat":43.30304,"lon":5.368987,"is_reserved":false,"is_disabled":false,"rental_uris":{"android":"levelo://app?vid=419a87ae-8fb7-4403-a73a-63e840a91a2f","ios":"levelo://app?vid=419a87ae-8fb7-4403-a73a-63e840a91a2f"},"vehicle_type_id":"4","last_reported":1718554125,"current_range_meters":30000,"station_id":"ce4bgqh2rcd13ifvqc5g","pricing_plan_id":"cebpf4jnsgd1na2vs0mg"},{"bike_id":"7e391f6d-054b-4dd4-b71e-da8f130a0581","system_id":"levelo_inurba_marseille","lat":43.305095,"lon":5.375786,"is_reserved":false,"is_disabled":false,"rental_uris":{"android":"levelo://app?vid=7e391f6d-054b-4dd4-b71e-da8f130a0581","ios":"levelo://app?vid=7e391f6d-054b-4dd4-b71e-da8f130a0581"},"vehicle_type_id":"4","last_reported":1718554125,"current_range_meters":2800,"station_id":"","pricing_plan_id":"cebpf4jnsgd1na2vs0mg"},{"bike_id":"ce27cfca-795c-4135-8f1c-48e33d6f16e7","system_id":"levelo_inurba_marseille","lat":43.31532,"lon":5.38034,"is_reserved":false,"is_disabled":false,"rental_uris":{"android":"levelo://app?vid=ce27cfca-795c-4135-8f1c-48e33d6f16e7","ios":"levelo://app?vid=ce27cfca-795c-4135-8f1c-48e33d6f16e7"},"vehicle_type_id":"4","last_reported":1718554125,"current_range_meters":0,"station_id":"ce4bhsp2rcd13ifvqi50","pricing_plan_id":"cebpf4jnsgd1na2vs0mg"},{"bike_id":"54b30f3e-fdcc-4b3b-8f45-896ce7a8145b","system_id":"levelo_inurba_marseille","lat":43.301939,"lon":5.366286,"is_reserved":false,"is_disabled":false,"rental_uris":{"android":"levelo://app?vid=54b30f3e-fdcc-4b3b-8f45-896ce7a8145b","ios":"levelo://app?vid=54b30f3e-fdcc-4b3b-8f45-896ce7a8145b"},"vehicle_type_id":"4","last_reported":1718554125,"current_range_meters":12000,"station_id":"ce4bgrh2rcd13ifvqc8g","pricing_plan_id":"cebpf4jnsgd1na2vs0mg"},{"bike_id":"09aaf496-3d6d-4040-a013-c8b90e6c3ec0","system_id":"levelo_inurba_marseille","lat":43.304606,"lon":5.379026,"is_reserved":false,"is_disabled":false,"rental_uris":{"android":"levelo://app?vid=09aaf496-3d6d-4040-a013-c8b90e6c3ec0","ios":"levelo://app?vid=09aaf496-3d6d-4040-a013-c8b90e6c3ec0"},"vehicle_type_id":"4","last_reported":1718554125,"current_range_meters":23200,"station_id":"ce4bgup2rcd13ifvqcn0","pricing_plan_id":"cebpf4jnsgd1na2vs0mg"},{"bike_id":"9021df2c-0910-4030-8985-f64806ad10b4","system_id":"levelo_inurba_marseille","lat":43.304606,"lon":5.379026,"is_reserved":false,"is_disabled":false,"rental_uris":{"android":"levelo://app?vid=9021df2c-0910-4030-8985-f64806ad10b4","ios":"levelo://app?vid=9021df2c-0910-4030-8985-f64806ad10b4"},"vehicle_type_id":"4","last_reported":1718554125,"current_range_meters":1600,"station_id":"ce4bgup2rcd13ifvqcn0","pricing_plan_id":"cebpf4jnsgd1na2vs0mg"},{"bike_id":"47e25c90-8cff-42c9-92ba-eca2ad0eb67d","system_id":"levelo_inurba_marseille","lat":43.304606,"lon":5.379026,"is_reserved":false,"is_disabled":false,"rental_uris":{"android":"levelo://app?vid=47e25c90-8cff-42c9-92ba-eca2ad0eb67d","ios":"levelo://app?vid=47e25c90-8cff-42c9-92ba-eca2ad0eb67d"},"vehicle_type_id":"4","last_reported":1718554125,"current_range_meters":11600,"station_id":"ce4bgup2rcd13ifvqcn0","pricing_plan_id":"cebpf4jnsgd1na2vs0mg"},{"bike_id":"be620971-f7f5-4f54-a8cb-329f28ee6e7d","system_id":"levelo_inurba_marseille","lat":43.32477,"lon":5.36568,"is_reserved":false,"is_disabled":false,"rental_uris":{"android":"levelo://app?vid=be620971-f7f5-4f54-a8cb-329f28ee6e7d","ios":"levelo://app?vid=be620971-f7f5-4f54-a8cb-329f28ee6e7d"},"vehicle_type_id":"4","last_reported":1718554125,"current_range_meters":11600,"station_id":"ce4bhs12rcd13ifvqhvg","pricing_plan_id":"cebpf4jnsgd1na2vs0mg"},{"bike_id":"68882944-ca60-488e-ae84-c55cde9449b7","system_id":"levelo_inurba_marseille","lat":43.324846,"lon":5.365788,"is_reserved":false,"is_disabled":false,"rental_uris":{"android":"levelo://app?vid=68882944-ca60-488e-ae84-c55cde9449b7","ios":"levelo://app?vid=68882944-ca60-488e-ae84-c55cde9449b7"},"vehicle_type_id":"4","last_reported":1718554125,"current_range_meters":6000,"station_id":"ce4bhs12rcd13ifvqhvg","pricing_plan_id":"cebpf4jnsgd1na2vs0mg"},{"bike_id":"0ca1af92-a836-4852-86e1-108b91a3cd26","system_id":"levelo_inurba_marseille","lat":43.32485,"lon":5.36561,"is_reserved":false,"is_disabled":false,"rental_uris":{"android":"levelo://app?vid=0ca1af92-a836-4852-86e1-108b91a3cd26","ios":"levelo://app?vid=0ca1af92-a836-4852-86e1-108b91a3cd26"},"vehicle_type_id":"4","last_reported":1718554125,"current_range_meters":17200,"station_id":"ce4bhs12rcd13ifvqhvg","pricing_plan_id":"cebpf4jnsgd1na2vs0mg"},{"bike_id":"e508590f-f04c-449d-af0d-15938f4c45ae","system_id":"levelo_inurba_marseille","lat":43.32487,"lon":5.36557,"is_reserved":false,"is_disabled":false,"rental_uris":{"android":"levelo://app?vid=e508590f-f04c-449d-af0d-15938f4c45ae","ios":"levelo://app?vid=e508590f-f04c-449d-af0d-15938f4c45ae"},"vehicle_type_id":"4","last_reported":1718554125,"current_range_meters":1200,"station_id":"ce4bhs12rcd13ifvqhvg","pricing_plan_id":"cebpf4jnsgd1na2vs0mg"},{"bike_id":"56e211c4-13a9-4a5f-b445-484f35053533","system_id":"levelo_inurba_marseille","lat":43.30276,"lon":5.37703,"is_reserved":false,"is_disabled":false,"rental_uris":{"android":"levelo://app?vid=56e211c4-13a9-4a5f-b445-484f35053533","ios":"levelo://app?vid=56e211c4-13a9-4a5f-b445-484f35053533"},"vehicle_type_id":"4","last_reported":1718554125,"current_range_meters":0,"station_id":"ce4bguh2rcd13ifvqcj0","pricing_plan_id":"cebpf4jnsgd1na2vs0mg"},{"bike_id":"25d0aeaf-819f-40ea-a86a-4404252768df","system_id":"levelo_inurba_marseille","lat":43.319935,"lon":5.381699,"is_reserved":false,"is_disabled":false,"rental_uris":{"android":"levelo://app?vid=25d0aeaf-819f-40ea-a86a-4404252768df","ios":"levelo://app?vid=25d0aeaf-819f-40ea-a86a-4404252768df"},"vehicle_type_id":"4","last_reported":1718554125,"current_range_meters":0,"station_id":"ce4bhr12rcd13ifvqhpg","pricing_plan_id":"cebpf4jnsgd1na2vs0mg"},{"bike_id":"e1ca6295-0b40-43fb-8469-4b88e4689812","system_id":"levelo_inurba_marseille","lat":43.313571,"lon":5.384829,"is_reserved":false,"is_disabled":false,"rental_uris":{"android":"levelo://app?vid=e1ca6295-0b40-43fb-8469-4b88e4689812","ios":"levelo://app?vid=e1ca6295-0b40-43fb-8469-4b88e4689812"},"vehicle_type_id":"4","last_reported":1718554125,"current_range_meters":6000,"station_id":"ce4bgt92rcd13ifvqcf0","pricing_plan_id":"cebpf4jnsgd1na2vs0mg"},{"bike_id":"a34fd85a-5689-47cc-b143-03024ed37a3e","system_id":"levelo_inurba_marseille","lat":43.299724,"lon":5.371829,"is_reserved":false,"is_disabled":false,"rental_uris":{"android":"levelo://app?vid=a34fd85a-5689-47cc-b143-03024ed37a3e","ios":"levelo://app?vid=a34fd85a-5689-47cc-b143-03024ed37a3e"},"vehicle_type_id":"4","last_reported":1718554125,"current_range_meters":20400,"station_id":"ce4bgr92rcd13ifvqc7g","pricing_plan_id":"cebpf4jnsgd1na2vs0mg"},{"bike_id":"3330e4ff-2121-4fef-9775-8fff661f6ac6","system_id":"levelo_inurba_marseille","lat":43.29882,"lon":5.36322,"is_reserved":false,"is_disabled":false,"rental_uris":{"android":"levelo://app?vid=3330e4ff-2121-4fef-9775-8fff661f6ac6","ios":"levelo://app?vid=3330e4ff-2121-4fef-9775-8fff661f6ac6"},"vehicle_type_id":"4","last_reported":1718554125,"current_range_meters":12800,"station_id":"","pricing_plan_id":"cebpf4jnsgd1na2vs0mg"},{"bike_id":"49e32c55-54fc-4d65-afbc-3083103f4cbf","system_id":"levelo_inurba_marseille","lat":43.29983,"lon":5.37611,"is_reserved":false,"is_disabled":false,"rental_uris":{"android":"levelo://app?vid=49e32c55-54fc-4d65-afbc-3083103f4cbf","ios":"levelo://app?vid=49e32c55-54fc-4d65-afbc-3083103f4cbf"},"vehicle_type_id":"4","last_reported":1718554125,"current_range_meters":1200,"station_id":"","pricing_plan_id":"cebpf4jnsgd1na2vs0mg"},{"bike_id":"5b956bc8-c697-458c-bfbf-5f320bd6895c","system_id":"levelo_inurba_marseille","lat":43.298433,"lon":5.362774,"is_reserved":false,"is_disabled":false,"rental_uris":{"android":"levelo://app?vid=5b956bc8-c697-458c-bfbf-5f320bd6895c","ios":"levelo://app?vid=5b956bc8-c697-458c-bfbf-5f320bd6895c"},"vehicle_type_id":"4","last_reported":1718554125,"current_range_meters":1200,"station_id":"ce4bgpp2rcd13ifvqc3g","pricing_plan_id":"cebpf4jnsgd1na2vs0mg"},{"bike_id":"d6ce57c1-9507-4548-808e-89e803e4a5d0","system_id":"levelo_inurba_marseille","lat":43.299243,"lon":5.374807,"is_reserved":false,"is_disabled":false,"rental_uris":{"android":"levelo://app?vid=d6ce57c1-9507-4548-808e-89e803e4a5d0","ios":"levelo://app?vid=d6ce57c1-9507-4548-808e-89e803e4a5d0"},"vehicle_type_id":"4","last_reported":1718554125,"current_range_meters":18000,"station_id":"ce4bgjh2rcd13ifvqbg0","pricing_plan_id":"cebpf4jnsgd1na2vs0mg"},{"bike_id":"8d9b2762-75af-4e9f-907c-3e26adc5c49c","system_id":"levelo_inurba_marseille","lat":43.298433,"lon":5.362774,"is_reserved":false,"is_disabled":false,"rental_uris":{"android":"levelo://app?vid=8d9b2762-75af-4e9f-907c-3e26adc5c49c","ios":"levelo://app?vid=8d9b2762-75af-4e9f-907c-3e26adc5c49c"},"vehicle_type_id":"4","last_reported":1718554125,"current_range_meters":21600,"station_id":"ce4bgpp2rcd13ifvqc3g","pricing_plan_id":"cebpf4jnsgd1na2vs0mg"},{"bike_id":"a81520cf-435d-494c-89fc-0790a19f6952","system_id":"levelo_inurba_marseille","lat":43.299243,"lon":5.37481,"is_reserved":false,"is_disabled":false,"rental_uris":{"android":"levelo://app?vid=a81520cf-435d-494c-89fc-0790a19f6952","ios":"levelo://app?vid=a81520cf-435d-494c-89fc-0790a19f6952"},"vehicle_type_id":"4","last_reported":1718554125,"current_range_meters":5200,"station_id":"ce4bgjh2rcd13ifvqbg0","pricing_plan_id":"cebpf4jnsgd1na2vs0mg"},{"bike_id":"6757af60-2188-472c-b3ad-158cb36904fe","system_id":"levelo_inurba_marseille","lat":43.29914,"lon":5.37466,"is_reserved":false,"is_disabled":false,"rental_uris":{"android":"levelo://app?vid=6757af60-2188-472c-b3ad-158cb36904fe","ios":"levelo://app?vid=6757af60-2188-472c-b3ad-158cb36904fe"},"vehicle_type_id":"4","last_reported":1718554125,"current_range_meters":0,"station_id":"ce4bgjh2rcd13ifvqbg0","pricing_plan_id":"cebpf4jnsgd1na2vs0mg"},{"bike_id":"2d43798a-e8be-4726-9262-0539a4e4e1f1","system_id":"levelo_inurba_marseille","lat":43.31168,"lon":5.38716,"is_reserved":false,"is_disabled":false,"rental_uris":{"android":"levelo://app?vid=2d43798a-e8be-4726-9262-0539a4e4e1f1","ios":"levelo://app?vid=2d43798a-e8be-4726-9262-0539a4e4e1f1"},"vehicle_type_id":"4","last_reported":1718554125,"current_range_meters":9600,"station_id":"ce4bgv12rcd13ifvqcp0","pricing_plan_id":"cebpf4jnsgd1na2vs0mg"},{"bike_id":"3996ce3e-8cd4-4634-bd8e-0d7e2464bf65","system_id":"levelo_inurba_marseille","lat":43.31169,"lon":5.38719,"is_reserved":false,"is_disabled":false,"rental_uris":{"android":"levelo://app?vid=3996ce3e-8cd4-4634-bd8e-0d7e2464bf65","ios":"levelo://app?vid=3996ce3e-8cd4-4634-bd8e-0d7e2464bf65"},"vehicle_type_id":"4","last_reported":1718554125,"current_range_meters":17200,"station_id":"ce4bgv12rcd13ifvqcp0","pricing_plan_id":"cebpf4jnsgd1na2vs0mg"},{"bike_id":"0c93ea09-296a-4639-aeee-8aa96d46441f","system_id":"levelo_inurba_marseille","lat":43.31183,"lon":5.38722,"is_reserved":false,"is_disabled":false,"rental_uris":{"android":"levelo://app?vid=0c93ea09-296a-4639-aeee-8aa96d46441f","ios":"levelo://app?vid=0c93ea09-296a-4639-aeee-8aa96d46441f"},"vehicle_type_id":"4","last_reported":1718554125,"current_range_meters":0,"station_id":"ce4bgv12rcd13ifvqcp0","pricing_plan_id":"cebpf4jnsgd1na2vs0mg"},{"bike_id":"a3da0961-05cf-41f7-acb2-8daed7e2f1ec","system_id":"levelo_inurba_marseille","lat":43.297794,"lon":5.370888,"is_reserved":false,"is_disabled":false,"rental_uris":{"android":"levelo://app?vid=a3da0961-05cf-41f7-acb2-8daed7e2f1ec","ios":"levelo://app?vid=a3da0961-05cf-41f7-acb2-8daed7e2f1ec"},"vehicle_type_id":"4","last_reported":1718554125,"current_range_meters":0,"station_id":"ce4bgop2rcd13ifvqc1g","pricing_plan_id":"cebpf4jnsgd1na2vs0mg"},{"bike_id":"2a85bf5a-e70f-4665-91c2-a76127ef9a47","system_id":"levelo_inurba_marseille","lat":43.322872,"lon":5.382756,"is_reserved":false,"is_disabled":false,"rental_uris":{"android":"levelo://app?vid=2a85bf5a-e70f-4665-91c2-a76127ef9a47","ios":"levelo://app?vid=2a85bf5a-e70f-4665-91c2-a76127ef9a47"},"vehicle_type_id":"4","last_reported":1718554125,"current_range_meters":1200,"station_id":"ce4bhr12rcd13ifvqhqg","pricing_plan_id":"cebpf4jnsgd1na2vs0mg"},{"bike_id":"5b58ed64-54e1-4855-9381-a0d8a9e661e4","system_id":"levelo_inurba_marseille","lat":43.297794,"lon":5.370888,"is_reserved":false,"is_disabled":false,"rental_uris":{"android":"levelo://app?vid=5b58ed64-54e1-4855-9381-a0d8a9e661e4","ios":"levelo://app?vid=5b58ed64-54e1-4855-9381-a0d8a9e661e4"},"vehicle_type_id":"4","last_reported":1718554125,"current_range_meters":28400,"station_id":"ce4bgop2rcd13ifvqc1g","pricing_plan_id":"cebpf4jnsgd1na2vs0mg"},{"bike_id":"dc1555f2-05f9-4199-9c6b-205c8cf0689a","system_id":"levelo_inurba_marseille","lat":43.322872,"lon":5.382756,"is_reserved":false,"is_disabled":false,"rental_uris":{"android":"levelo://app?vid=dc1555f2-05f9-4199-9c6b-205c8cf0689a","ios":"levelo://app?vid=dc1555f2-05f9-4199-9c6b-205c8cf0689a"},"vehicle_type_id":"4","last_reported":1718554125,"current_range_meters":29200,"station_id":"ce4bhr12rcd13ifvqhqg","pricing_plan_id":"cebpf4jnsgd1na2vs0mg"},{"bike_id":"cd3c1a0e-1548-434d-a3fe-0240b9d87282","system_id":"levelo_inurba_marseille","lat":43.322872,"lon":5.382756,"is_reserved":false,"is_disabled":false,"rental_uris":{"android":"levelo://app?vid=cd3c1a0e-1548-434d-a3fe-0240b9d87282","ios":"levelo://app?vid=cd3c1a0e-1548-434d-a3fe-0240b9d87282"},"vehicle_type_id":"4","last_reported":1718554125,"current_range_meters":30400,"station_id":"ce4bhr12rcd13ifvqhqg","pricing_plan_id":"cebpf4jnsgd1na2vs0mg"},{"bike_id":"58618799-c274-4dfe-a18c-2b61a64cb424","system_id":"levelo_inurba_marseille","lat":43.297163,"lon":5.365866,"is_reserved":false,"is_disabled":false,"rental_uris":{"android":"levelo://app?vid=58618799-c274-4dfe-a18c-2b61a64cb424","ios":"levelo://app?vid=58618799-c274-4dfe-a18c-2b61a64cb424"},"vehicle_type_id":"4","last_reported":1718554125,"current_range_meters":8800,"station_id":"ce4bgn12rcd13ifvqbt0","pricing_plan_id":"cebpf4jnsgd1na2vs0mg"},{"bike_id":"9321bf9f-837f-453d-925b-899b41a969fe","system_id":"levelo_inurba_marseille","lat":43.297163,"lon":5.365866,"is_reserved":false,"is_disabled":false,"rental_uris":{"android":"levelo://app?vid=9321bf9f-837f-453d-925b-899b41a969fe","ios":"levelo://app?vid=9321bf9f-837f-453d-925b-899b41a969fe"},"vehicle_type_id":"4","last_reported":1718554125,"current_range_meters":0,"station_id":"ce4bgn12rcd13ifvqbt0","pricing_plan_id":"cebpf4jnsgd1na2vs0mg"},{"bike_id":"ed4548c5-2552-4bff-9564-2391e879fc4c","system_id":"levelo_inurba_marseille","lat":43.297163,"lon":5.365866,"is_reserved":false,"is_disabled":false,"rental_uris":{"android":"levelo://app?vid=ed4548c5-2552-4bff-9564-2391e879fc4c","ios":"levelo://app?vid=ed4548c5-2552-4bff-9564-2391e879fc4c"},"vehicle_type_id":"4","last_reported":1718554125,"current_range_meters":17600,"station_id":"ce4bgn12rcd13ifvqbt0","pricing_plan_id":"cebpf4jnsgd1na2vs0mg"},{"bike_id":"475c5571-9a02-4102-aed8-0aeba4ccfd40","system_id":"levelo_inurba_marseille","lat":43.316232,"lon":5.389136,"is_reserved":false,"is_disabled":false,"rental_uris":{"android":"levelo://app?vid=475c5571-9a02-4102-aed8-0aeba4ccfd40","ios":"levelo://app?vid=475c5571-9a02-4102-aed8-0aeba4ccfd40"},"vehicle_type_id":"4","last_reported":1718554125,"current_range_meters":19200,"station_id":"","pricing_plan_id":"cebpf4jnsgd1na2vs0mg"},{"bike_id":"98f9d4bc-416a-4800-b066-926f65c62875","system_id":"levelo_inurba_marseille","lat":43.29573,"lon":5.367355,"is_reserved":false,"is_disabled":false,"rental_uris":{"android":"levelo://app?vid=98f9d4bc-416a-4800-b066-926f65c62875","ios":"levelo://app?vid=98f9d4bc-416a-4800-b066-926f65c62875"},"vehicle_type_id":"4","last_reported":1718554125,"current_range_meters":30800,"station_id":"ce4bgph2rcd13ifvqc2g","pricing_plan_id":"cebpf4jnsgd1na2vs0mg"},{"bike_id":"3e863e67-d0f8-4196-beab-36a3720a6ec7","system_id":"levelo_inurba_marseille","lat":43.29573,"lon":5.367355,"is_reserved":false,"is_disabled":false,"rental_uris":{"android":"levelo://app?vid=3e863e67-d0f8-4196-beab-36a3720a6ec7","ios":"levelo://app?vid=3e863e67-d0f8-4196-beab-36a3720a6ec7"},"vehicle_type_id":"4","last_reported":1718554125,"current_range_meters":18000,"station_id":"ce4bgph2rcd13ifvqc2g","pricing_plan_id":"cebpf4jnsgd1na2vs0mg"},{"bike_id":"62115784-f19f-4080-a972-1eba64e409c6","system_id":"levelo_inurba_marseille","lat":43.296935,"lon":5.376544,"is_reserved":false,"is_disabled":false,"rental_uris":{"android":"levelo://app?vid=62115784-f19f-4080-a972-1eba64e409c6","ios":"levelo://app?vid=62115784-f19f-4080-a972-1eba64e409c6"},"vehicle_type_id":"4","last_reported":1718554125,"current_range_meters":18400,"station_id":"ce4bgkh2rcd13ifvqbl0","pricing_plan_id":"cebpf4jnsgd1na2vs0mg"},{"bike_id":"b86160c1-92d9-4069-b6a6-8853ea1ad702","system_id":"levelo_inurba_marseille","lat":43.299028,"lon":5.381509,"is_reserved":false,"is_disabled":false,"rental_uris":{"android":"levelo://app?vid=b86160c1-92d9-4069-b6a6-8853ea1ad702","ios":"levelo://app?vid=b86160c1-92d9-4069-b6a6-8853ea1ad702"},"vehicle_type_id":"4","last_reported":1718554125,"current_range_meters":12000,"station_id":"ce4bgj12rcd13ifvqbc0","pricing_plan_id":"cebpf4jnsgd1na2vs0mg"},{"bike_id":"1f3981fd-7e0d-49ed-ad8e-5223191a2204","system_id":"levelo_inurba_marseille","lat":43.309589,"lon":5.390258,"is_reserved":false,"is_disabled":false,"rental_uris":{"android":"levelo://app?vid=1f3981fd-7e0d-49ed-ad8e-5223191a2204","ios":"levelo://app?vid=1f3981fd-7e0d-49ed-ad8e-5223191a2204"},"vehicle_type_id":"4","last_reported":1718554125,"current_range_meters":18000,"station_id":"ce4bgup2rcd13ifvqco0","pricing_plan_id":"cebpf4jnsgd1na2vs0mg"},{"bike_id":"304fa702-5a06-4160-929e-5a539f69ccaf","system_id":"levelo_inurba_marseille","lat":43.317557,"lon":5.390173,"is_reserved":false,"is_disabled":false,"rental_uris":{"android":"levelo://app?vid=304fa702-5a06-4160-929e-5a539f69ccaf","ios":"levelo://app?vid=304fa702-5a06-4160-929e-5a539f69ccaf"},"vehicle_type_id":"4","last_reported":1718554125,"current_range_meters":12000,"station_id":"ce4bhqp2rcd13ifvqhng","pricing_plan_id":"cebpf4jnsgd1na2vs0mg"},{"bike_id":"ae8fb672-c46e-4873-9ca1-162943af93d6","system_id":"levelo_inurba_marseille","lat":43.317557,"lon":5.390173,"is_reserved":false,"is_disabled":false,"rental_uris":{"android":"levelo://app?vid=ae8fb672-c46e-4873-9ca1-162943af93d6","ios":"levelo://app?vid=ae8fb672-c46e-4873-9ca1-162943af93d6"},"vehicle_type_id":"4","last_reported":1718554125,"current_range_meters":0,"station_id":"ce4bhqp2rcd13ifvqhng","pricing_plan_id":"cebpf4jnsgd1na2vs0mg"},{"bike_id":"aae7ad10-05c1-4821-a180-e1f90ac965c4","system_id":"levelo_inurba_marseille","lat":43.317524,"lon":5.390184,"is_reserved":false,"is_disabled":false,"rental_uris":{"android":"levelo://app?vid=aae7ad10-05c1-4821-a180-e1f90ac965c4","ios":"levelo://app?vid=aae7ad10-05c1-4821-a180-e1f90ac965c4"},"vehicle_type_id":"4","last_reported":1718554125,"current_range_meters":0,"station_id":"ce4bhqp2rcd13ifvqhng","pricing_plan_id":"cebpf4jnsgd1na2vs0mg"},{"bike_id":"78f76f2c-7644-42c4-a376-4b53d89c5caa","system_id":"levelo_inurba_marseille","lat":43.30431,"lon":5.38896,"is_reserved":false,"is_disabled":false,"rental_uris":{"android":"levelo://app?vid=78f76f2c-7644-42c4-a376-4b53d89c5caa","ios":"levelo://app?vid=78f76f2c-7644-42c4-a376-4b53d89c5caa"},"vehicle_type_id":"4","last_reported":1718554125,"current_range_meters":2000,"station_id":"ce4bgk12rcd13ifvqbi0","pricing_plan_id":"cebpf4jnsgd1na2vs0mg"},{"bike_id":"6569771f-1ce1-47cc-8176-b6fee1994e2c","system_id":"levelo_inurba_marseille","lat":43.30424,"lon":5.38891,"is_reserved":false,"is_disabled":false,"rental_uris":{"android":"levelo://app?vid=6569771f-1ce1-47cc-8176-b6fee1994e2c","ios":"levelo://app?vid=6569771f-1ce1-47cc-8176-b6fee1994e2c"},"vehicle_type_id":"4","last_reported":1718554125,"current_range_meters":0,"station_id":"ce4bgk12rcd13ifvqbi0","pricing_plan_id":"cebpf4jnsgd1na2vs0mg"},{"bike_id":"5cdff40b-f861-442b-b55c-71676f841649","system_id":"levelo_inurba_marseille","lat":43.296277,"lon":5.377108,"is_reserved":false,"is_disabled":false,"rental_uris":{"android":"levelo://app?vid=5cdff40b-f861-442b-b55c-71676f841649","ios":"levelo://app?vid=5cdff40b-f861-442b-b55c-71676f841649"},"vehicle_type_id":"4","last_reported":1718554125,"current_range_meters":30400,"station_id":"ce4bgi92rcd13ifvqb90","pricing_plan_id":"cebpf4jnsgd1na2vs0mg"},{"bike_id":"e373d8b9-7dff-44dd-84e5-b8932a3305df","system_id":"levelo_inurba_marseille","lat":43.296277,"lon":5.377108,"is_reserved":false,"is_disabled":false,"rental_uris":{"android":"levelo://app?vid=e373d8b9-7dff-44dd-84e5-b8932a3305df","ios":"levelo://app?vid=e373d8b9-7dff-44dd-84e5-b8932a3305df"},"vehicle_type_id":"4","last_reported":1718554125,"current_range_meters":24000,"station_id":"ce4bgi92rcd13ifvqb90","pricing_plan_id":"cebpf4jnsgd1na2vs0mg"},{"bike_id":"cc42114e-c371-4641-b40f-ecde44b4e426","system_id":"levelo_inurba_marseille","lat":43.296,"lon":5.37727,"is_reserved":false,"is_disabled":false,"rental_uris":{"android":"levelo://app?vid=cc42114e-c371-4641-b40f-ecde44b4e426","ios":"levelo://app?vid=cc42114e-c371-4641-b40f-ecde44b4e426"},"vehicle_type_id":"4","last_reported":1718554125,"current_range_meters":19200,"station_id":"ce4bgi92rcd13ifvqb90","pricing_plan_id":"cebpf4jnsgd1na2vs0mg"},{"bike_id":"02bf68c7-c7a1-4f08-afa1-2e56620bbba9","system_id":"levelo_inurba_marseille","lat":43.299724,"lon":5.384848,"is_reserved":false,"is_disabled":false,"rental_uris":{"android":"levelo://app?vid=02bf68c7-c7a1-4f08-afa1-2e56620bbba9","ios":"levelo://app?vid=02bf68c7-c7a1-4f08-afa1-2e56620bbba9"},"vehicle_type_id":"4","last_reported":1718554125,"current_range_meters":6400,"station_id":"ce4bgj92rcd13ifvqbd0","pricing_plan_id":"cebpf4jnsgd1na2vs0mg"},{"bike_id":"030853d1-88bd-4c5b-b02b-faba6e610ad1","system_id":"levelo_inurba_marseille","lat":43.295279,"lon":5.375048,"is_reserved":false,"is_disabled":false,"rental_uris":{"android":"levelo://app?vid=030853d1-88bd-4c5b-b02b-faba6e610ad1","ios":"levelo://app?vid=030853d1-88bd-4c5b-b02b-faba6e610ad1"},"vehicle_type_id":"4","last_reported":1718554125,"current_range_meters":4000,"station_id":"ce4bgkp2rcd13ifvqbmg","pricing_plan_id":"cebpf4jnsgd1na2vs0mg"},{"bike_id":"53235515-fc61-4980-8a58-6587603faa04","system_id":"levelo_inurba_marseille","lat":43.295279,"lon":5.375048,"is_reserved":false,"is_disabled":false,"rental_uris":{"android":"levelo://app?vid=53235515-fc61-4980-8a58-6587603faa04","ios":"levelo://app?vid=53235515-fc61-4980-8a58-6587603faa04"},"vehicle_type_id":"4","last_reported":1718554125,"current_range_meters":400,"station_id":"ce4bgkp2rcd13ifvqbmg","pricing_plan_id":"cebpf4jnsgd1na2vs0mg"},{"bike_id":"9534b2e8-3c6a-40a5-9eb8-9f6a1fa7c1ee","system_id":"levelo_inurba_marseille","lat":43.29975,"lon":5.384965,"is_reserved":false,"is_disabled":false,"rental_uris":{"android":"levelo://app?vid=9534b2e8-3c6a-40a5-9eb8-9f6a1fa7c1ee","ios":"levelo://app?vid=9534b2e8-3c6a-40a5-9eb8-9f6a1fa7c1ee"},"vehicle_type_id":"4","last_reported":1718554125,"current_range_meters":29600,"station_id":"ce4bgj92rcd13ifvqbd0","pricing_plan_id":"cebpf4jnsgd1na2vs0mg"},{"bike_id":"99b96cf4-2215-46ae-a727-1b95693e4bc6","system_id":"levelo_inurba_marseille","lat":43.295279,"lon":5.375048,"is_reserved":false,"is_disabled":false,"rental_uris":{"android":"levelo://app?vid=99b96cf4-2215-46ae-a727-1b95693e4bc6","ios":"levelo://app?vid=99b96cf4-2215-46ae-a727-1b95693e4bc6"},"vehicle_type_id":"4","last_reported":1718554125,"current_range_meters":11600,"station_id":"ce4bgkp2rcd13ifvqbmg","pricing_plan_id":"cebpf4jnsgd1na2vs0mg"},{"bike_id":"e2338d2f-477e-442c-86c1-813731e02424","system_id":"levelo_inurba_marseille","lat":43.299222,"lon":5.365554,"is_reserved":false,"is_disabled":false,"rental_uris":{"android":"levelo://app?vid=e2338d2f-477e-442c-86c1-813731e02424","ios":"levelo://app?vid=e2338d2f-477e-442c-86c1-813731e02424"},"vehicle_type_id":"4","last_reported":1718554125,"current_range_meters":9200,"station_id":"ce4bgm92rcd13ifvqbr0","pricing_plan_id":"cebpf4jnsgd1na2vs0mg"},{"bike_id":"2ec993dd-7675-4416-b6b7-604cae225031","system_id":"levelo_inurba_marseille","lat":43.32369,"lon":5.38881,"is_reserved":false,"is_disabled":false,"rental_uris":{"android":"levelo://app?vid=2ec993dd-7675-4416-b6b7-604cae225031","ios":"levelo://app?vid=2ec993dd-7675-4416-b6b7-604cae225031"},"vehicle_type_id":"4","last_reported":1718554125,"current_range_meters":0,"station_id":"ce4bhqp2rcd13ifvqhog","pricing_plan_id":"cebpf4jnsgd1na2vs0mg"},{"bike_id":"27ebb08e-4d3f-4025-96a3-24c51caa1b1c","system_id":"levelo_inurba_marseille","lat":43.32367,"lon":5.388836,"is_reserved":false,"is_disabled":false,"rental_uris":{"android":"levelo://app?vid=27ebb08e-4d3f-4025-96a3-24c51caa1b1c","ios":"levelo://app?vid=27ebb08e-4d3f-4025-96a3-24c51caa1b1c"},"vehicle_type_id":"4","last_reported":1718554125,"current_range_meters":19200,"station_id":"ce4bhqp2rcd13ifvqhog","pricing_plan_id":"cebpf4jnsgd1na2vs0mg"},{"bike_id":"c8eab83f-c50d-4693-ab13-2e688ab132a3","system_id":"levelo_inurba_marseille","lat":43.32367,"lon":5.388836,"is_reserved":false,"is_disabled":false,"rental_uris":{"android":"levelo://app?vid=c8eab83f-c50d-4693-ab13-2e688ab132a3","ios":"levelo://app?vid=c8eab83f-c50d-4693-ab13-2e688ab132a3"},"vehicle_type_id":"4","last_reported":1718554125,"current_range_meters":8800,"station_id":"ce4bhqp2rcd13ifvqhog","pricing_plan_id":"cebpf4jnsgd1na2vs0mg"},{"bike_id":"a237583f-f595-4bd0-a444-6ceb6b26a080","system_id":"levelo_inurba_marseille","lat":43.29311,"lon":5.37186,"is_reserved":false,"is_disabled":false,"rental_uris":{"android":"levelo://app?vid=a237583f-f595-4bd0-a444-6ceb6b26a080","ios":"levelo://app?vid=a237583f-f595-4bd0-a444-6ceb6b26a080"},"vehicle_type_id":"4","last_reported":1718554125,"current_range_meters":26800,"station_id":"ce4bgh92rcd13ifvqb40","pricing_plan_id":"cebpf4jnsgd1na2vs0mg"},{"bike_id":"ff359843-1562-4607-968b-1f2bac398a4e","system_id":"levelo_inurba_marseille","lat":43.293259,"lon":5.371586,"is_reserved":false,"is_disabled":false,"rental_uris":{"android":"levelo://app?vid=ff359843-1562-4607-968b-1f2bac398a4e","ios":"levelo://app?vid=ff359843-1562-4607-968b-1f2bac398a4e"},"vehicle_type_id":"4","last_reported":1718554125,"current_range_meters":13600,"station_id":"ce4bgh92rcd13ifvqb40","pricing_plan_id":"cebpf4jnsgd1na2vs0mg"},{"bike_id":"2e707538-0d2c-4c5d-9aed-c1804bead502","system_id":"levelo_inurba_marseille","lat":43.29273,"lon":5.36844,"is_reserved":false,"is_disabled":false,"rental_uris":{"android":"levelo://app?vid=2e707538-0d2c-4c5d-9aed-c1804bead502","ios":"levelo://app?vid=2e707538-0d2c-4c5d-9aed-c1804bead502"},"vehicle_type_id":"4","last_reported":1718554125,"current_range_meters":20400,"station_id":"ce4bhbp2rcd13ifvqesg","pricing_plan_id":"cebpf4jnsgd1na2vs0mg"},{"bike_id":"6ad4a3ad-7fca-4ef8-8e42-3c98d4f1423b","system_id":"levelo_inurba_marseille","lat":43.292749,"lon":5.368402,"is_reserved":false,"is_disabled":false,"rental_uris":{"android":"levelo://app?vid=6ad4a3ad-7fca-4ef8-8e42-3c98d4f1423b","ios":"levelo://app?vid=6ad4a3ad-7fca-4ef8-8e42-3c98d4f1423b"},"vehicle_type_id":"4","last_reported":1718554125,"current_range_meters":30000,"station_id":"ce4bhbp2rcd13ifvqesg","pricing_plan_id":"cebpf4jnsgd1na2vs0mg"},{"bike_id":"2fa38daf-8599-4791-94f0-70a999222575","system_id":"levelo_inurba_marseille","lat":43.305994,"lon":5.393687,"is_reserved":false,"is_disabled":false,"rental_uris":{"android":"levelo://app?vid=2fa38daf-8599-4791-94f0-70a999222575","ios":"levelo://app?vid=2fa38daf-8599-4791-94f0-70a999222575"},"vehicle_type_id":"4","last_reported":1718554125,"current_range_meters":8000,"station_id":"ce4bh0p2rcd13ifvqd80","pricing_plan_id":"cebpf4jnsgd1na2vs0mg"},{"bike_id":"b5315be4-b31d-49a2-962e-34115e4269ba","system_id":"levelo_inurba_marseille","lat":43.305994,"lon":5.393687,"is_reserved":false,"is_disabled":false,"rental_uris":{"android":"levelo://app?vid=b5315be4-b31d-49a2-962e-34115e4269ba","ios":"levelo://app?vid=b5315be4-b31d-49a2-962e-34115e4269ba"},"vehicle_type_id":"4","last_reported":1718554125,"current_range_meters":26400,"station_id":"ce4bh0p2rcd13ifvqd80","pricing_plan_id":"cebpf4jnsgd1na2vs0mg"},{"bike_id":"3084d006-c479-405b-bd6b-0f96c3e93dce","system_id":"levelo_inurba_marseille","lat":43.302992,"lon":5.392136,"is_reserved":false,"is_disabled":false,"rental_uris":{"android":"levelo://app?vid=3084d006-c479-405b-bd6b-0f96c3e93dce","ios":"levelo://app?vid=3084d006-c479-405b-bd6b-0f96c3e93dce"},"vehicle_type_id":"4","last_reported":1718554125,"current_range_meters":2400,"station_id":"ce4bgkh2rcd13ifvqbk0","pricing_plan_id":"cebpf4jnsgd1na2vs0mg"},{"bike_id":"64520e2b-d0c7-4f1b-a557-18053cbaabc8","system_id":"levelo_inurba_marseille","lat":43.2936,"lon":5.37835,"is_reserved":false,"is_disabled":false,"rental_uris":{"android":"levelo://app?vid=64520e2b-d0c7-4f1b-a557-18053cbaabc8","ios":"levelo://app?vid=64520e2b-d0c7-4f1b-a557-18053cbaabc8"},"vehicle_type_id":"4","last_reported":1718554125,"current_range_meters":11600,"station_id":"ce4bgjh2rcd13ifvqbf0","pricing_plan_id":"cebpf4jnsgd1na2vs0mg"},{"bike_id":"c9666b32-b816-463b-a839-ce2bdff56472","system_id":"levelo_inurba_marseille","lat":43.292311,"lon":5.360731,"is_reserved":false,"is_disabled":false,"rental_uris":{"android":"levelo://app?vid=c9666b32-b816-463b-a839-ce2bdff56472","ios":"levelo://app?vid=c9666b32-b816-463b-a839-ce2bdff56472"},"vehicle_type_id":"4","last_reported":1718554125,"current_range_meters":0,"station_id":"ce4bhbh2rcd13ifvqeqg","pricing_plan_id":"cebpf4jnsgd1na2vs0mg"},{"bike_id":"b026515c-f446-47af-809f-2ec2767b08f9","system_id":"levelo_inurba_marseille","lat":43.292311,"lon":5.360731,"is_reserved":false,"is_disabled":false,"rental_uris":{"android":"levelo://app?vid=b026515c-f446-47af-809f-2ec2767b08f9","ios":"levelo://app?vid=b026515c-f446-47af-809f-2ec2767b08f9"},"vehicle_type_id":"4","last_reported":1718554125,"current_range_meters":5200,"station_id":"ce4bhbh2rcd13ifvqeqg","pricing_plan_id":"cebpf4jnsgd1na2vs0mg"},{"bike_id":"fcde97f3-8ab6-40f0-9958-1fd60408a19e","system_id":"levelo_inurba_marseille","lat":43.30085,"lon":5.390856,"is_reserved":false,"is_disabled":false,"rental_uris":{"android":"levelo://app?vid=fcde97f3-8ab6-40f0-9958-1fd60408a19e","ios":"levelo://app?vid=fcde97f3-8ab6-40f0-9958-1fd60408a19e"},"vehicle_type_id":"4","last_reported":1718554125,"current_range_meters":14000,"station_id":"ce4bh192rcd13ifvqdb0","pricing_plan_id":"cebpf4jnsgd1na2vs0mg"},{"bike_id":"eddc2785-16bc-4553-9a0a-d913f3325c1f","system_id":"levelo_inurba_marseille","lat":43.30085,"lon":5.390856,"is_reserved":false,"is_disabled":false,"rental_uris":{"android":"levelo://app?vid=eddc2785-16bc-4553-9a0a-d913f3325c1f","ios":"levelo://app?vid=eddc2785-16bc-4553-9a0a-d913f3325c1f"},"vehicle_type_id":"4","last_reported":1718554125,"current_range_meters":9600,"station_id":"ce4bh192rcd13ifvqdb0","pricing_plan_id":"cebpf4jnsgd1na2vs0mg"},{"bike_id":"022bc0cb-f592-4a4a-8a4c-98ef3eb999c8","system_id":"levelo_inurba_marseille","lat":43.292154,"lon":5.360524,"is_reserved":false,"is_disabled":false,"rental_uris":{"android":"levelo://app?vid=022bc0cb-f592-4a4a-8a4c-98ef3eb999c8","ios":"levelo://app?vid=022bc0cb-f592-4a4a-8a4c-98ef3eb999c8"},"vehicle_type_id":"4","last_reported":1718554125,"current_range_meters":0,"station_id":"ce4bhbh2rcd13ifvqeqg","pricing_plan_id":"cebpf4jnsgd1na2vs0mg"},{"bike_id":"b78ef023-731e-4b05-ab21-004b4280b03c","system_id":"levelo_inurba_marseille","lat":43.292311,"lon":5.360731,"is_reserved":false,"is_disabled":false,"rental_uris":{"android":"levelo://app?vid=b78ef023-731e-4b05-ab21-004b4280b03c","ios":"levelo://app?vid=b78ef023-731e-4b05-ab21-004b4280b03c"},"vehicle_type_id":"4","last_reported":1718554125,"current_range_meters":24800,"station_id":"ce4bhbh2rcd13ifvqeqg","pricing_plan_id":"cebpf4jnsgd1na2vs0mg"},{"bike_id":"6ae593f4-ec69-459a-bb02-6a9a748f6026","system_id":"levelo_inurba_marseille","lat":43.33352,"lon":5.36164,"is_reserved":false,"is_disabled":false,"rental_uris":{"android":"levelo://app?vid=6ae593f4-ec69-459a-bb02-6a9a748f6026","ios":"levelo://app?vid=6ae593f4-ec69-459a-bb02-6a9a748f6026"},"vehicle_type_id":"4","last_reported":1718554125,"current_range_meters":12000,"station_id":"","pricing_plan_id":"cebpf4jnsgd1na2vs0mg"},{"bike_id":"cfcedb3b-bb09-43f5-b4ce-6296020a3735","system_id":"levelo_inurba_marseille","lat":43.29175,"lon":5.3715,"is_reserved":false,"is_disabled":false,"rental_uris":{"android":"levelo://app?vid=cfcedb3b-bb09-43f5-b4ce-6296020a3735","ios":"levelo://app?vid=cfcedb3b-bb09-43f5-b4ce-6296020a3735"},"vehicle_type_id":"4","last_reported":1718554125,"current_range_meters":29200,"station_id":"ce4bha92rcd13ifvqeh0","pricing_plan_id":"cebpf4jnsgd1na2vs0mg"},{"bike_id":"6774804d-f6b6-4d20-8f94-b51d4e576305","system_id":"levelo_inurba_marseille","lat":43.29174,"lon":5.37147,"is_reserved":false,"is_disabled":false,"rental_uris":{"android":"levelo://app?vid=6774804d-f6b6-4d20-8f94-b51d4e576305","ios":"levelo://app?vid=6774804d-f6b6-4d20-8f94-b51d4e576305"},"vehicle_type_id":"4","last_reported":1718554125,"current_range_meters":3600,"station_id":"ce4bha92rcd13ifvqeh0","pricing_plan_id":"cebpf4jnsgd1na2vs0mg"},{"bike_id":"70c3bfbb-1bf0-4d4f-83cb-4e2cf69e3e44","system_id":"levelo_inurba_marseille","lat":43.298764,"lon":5.388973,"is_reserved":false,"is_disabled":false,"rental_uris":{"android":"levelo://app?vid=70c3bfbb-1bf0-4d4f-83cb-4e2cf69e3e44","ios":"levelo://app?vid=70c3bfbb-1bf0-4d4f-83cb-4e2cf69e3e44"},"vehicle_type_id":"4","last_reported":1718554125,"current_range_meters":28800,"station_id":"ce4bh392rcd13ifvqdl0","pricing_plan_id":"cebpf4jnsgd1na2vs0mg"},{"bike_id":"a6e052ec-55d2-4bea-98a8-3c7a2998c3d0","system_id":"levelo_inurba_marseille","lat":43.29162,"lon":5.3716,"is_reserved":false,"is_disabled":false,"rental_uris":{"android":"levelo://app?vid=a6e052ec-55d2-4bea-98a8-3c7a2998c3d0","ios":"levelo://app?vid=a6e052ec-55d2-4bea-98a8-3c7a2998c3d0"},"vehicle_type_id":"4","last_reported":1718554125,"current_range_meters":18800,"station_id":"ce4bha92rcd13ifvqeh0","pricing_plan_id":"cebpf4jnsgd1na2vs0mg"},{"bike_id":"1e209fbf-1e73-4eb9-9ae4-bba1ea53fa95","system_id":"levelo_inurba_marseille","lat":43.291994,"lon":5.357886,"is_reserved":false,"is_disabled":false,"rental_uris":{"android":"levelo://app?vid=1e209fbf-1e73-4eb9-9ae4-bba1ea53fa95","ios":"levelo://app?vid=1e209fbf-1e73-4eb9-9ae4-bba1ea53fa95"},"vehicle_type_id":"4","last_reported":1718554125,"current_range_meters":1200,"station_id":"ce4bhb12rcd13ifvqel0","pricing_plan_id":"cebpf4jnsgd1na2vs0mg"},{"bike_id":"24f779cf-81f1-4571-9435-5b4dd1d8c5bd","system_id":"levelo_inurba_marseille","lat":43.32399,"lon":5.39334,"is_reserved":false,"is_disabled":false,"rental_uris":{"android":"levelo://app?vid=24f779cf-81f1-4571-9435-5b4dd1d8c5bd","ios":"levelo://app?vid=24f779cf-81f1-4571-9435-5b4dd1d8c5bd"},"vehicle_type_id":"4","last_reported":1718554125,"current_range_meters":12800,"station_id":"","pricing_plan_id":"cebpf4jnsgd1na2vs0mg"},{"bike_id":"e2390187-f4ce-4e3b-8c97-7b4451f0577e","system_id":"levelo_inurba_marseille","lat":43.290327,"lon":5.375711,"is_reserved":false,"is_disabled":false,"rental_uris":{"android":"levelo://app?vid=e2390187-f4ce-4e3b-8c97-7b4451f0577e","ios":"levelo://app?vid=e2390187-f4ce-4e3b-8c97-7b4451f0577e"},"vehicle_type_id":"4","last_reported":1718554125,"current_range_meters":0,"station_id":"ce4bh692rcd13ifvqe90","pricing_plan_id":"cebpf4jnsgd1na2vs0mg"},{"bike_id":"83cda897-1024-4c0c-b9bb-e344a9f3001b","system_id":"levelo_inurba_marseille","lat":43.289184,"lon":5.366408,"is_reserved":false,"is_disabled":false,"rental_uris":{"android":"levelo://app?vid=83cda897-1024-4c0c-b9bb-e344a9f3001b","ios":"levelo://app?vid=83cda897-1024-4c0c-b9bb-e344a9f3001b"},"vehicle_type_id":"4","last_reported":1718554125,"current_range_meters":17200,"station_id":"ce4bhap2rcd13ifvqek0","pricing_plan_id":"cebpf4jnsgd1na2vs0mg"},{"bike_id":"562184bd-daf6-4739-a2d9-133e20961ed2","system_id":"levelo_inurba_marseille","lat":43.292644,"lon":5.384257,"is_reserved":false,"is_disabled":false,"rental_uris":{"android":"levelo://app?vid=562184bd-daf6-4739-a2d9-133e20961ed2","ios":"levelo://app?vid=562184bd-daf6-4739-a2d9-133e20961ed2"},"vehicle_type_id":"4","last_reported":1718554125,"current_range_meters":10400,"station_id":"ce4bh692rcd13ifvqea0","pricing_plan_id":"cebpf4jnsgd1na2vs0mg"},{"bike_id":"0404d6b1-aa77-4538-9f67-047ffad2ca8c","system_id":"levelo_inurba_marseille","lat":43.292642,"lon":5.384254,"is_reserved":false,"is_disabled":false,"rental_uris":{"android":"levelo://app?vid=0404d6b1-aa77-4538-9f67-047ffad2ca8c","ios":"levelo://app?vid=0404d6b1-aa77-4538-9f67-047ffad2ca8c"},"vehicle_type_id":"4","last_reported":1718554125,"current_range_meters":8800,"station_id":"ce4bh692rcd13ifvqea0","pricing_plan_id":"cebpf4jnsgd1na2vs0mg"},{"bike_id":"abccb38b-1dcb-4b40-92eb-898dca4dd0c1","system_id":"levelo_inurba_marseille","lat":43.28926,"lon":5.36173,"is_reserved":false,"is_disabled":false,"rental_uris":{"android":"levelo://app?vid=abccb38b-1dcb-4b40-92eb-898dca4dd0c1","ios":"levelo://app?vid=abccb38b-1dcb-4b40-92eb-898dca4dd0c1"},"vehicle_type_id":"4","last_reported":1718554125,"current_range_meters":17600,"station_id":"","pricing_plan_id":"cebpf4jnsgd1na2vs0mg"},{"bike_id":"bffc1a42-ca28-422e-93a5-5b8d3926d160","system_id":"levelo_inurba_marseille","lat":43.290104,"lon":5.356111,"is_reserved":false,"is_disabled":false,"rental_uris":{"android":"levelo://app?vid=bffc1a42-ca28-422e-93a5-5b8d3926d160","ios":"levelo://app?vid=bffc1a42-ca28-422e-93a5-5b8d3926d160"},"vehicle_type_id":"4","last_reported":1718554125,"current_range_meters":10400,"station_id":"ce4bhb92rcd13ifvqen0","pricing_plan_id":"cebpf4jnsgd1na2vs0mg"},{"bike_id":"f2300680-30fd-44d2-b59b-db25968abc8e","system_id":"levelo_inurba_marseille","lat":43.29006,"lon":5.3561,"is_reserved":false,"is_disabled":false,"rental_uris":{"android":"levelo://app?vid=f2300680-30fd-44d2-b59b-db25968abc8e","ios":"levelo://app?vid=f2300680-30fd-44d2-b59b-db25968abc8e"},"vehicle_type_id":"4","last_reported":1718554125,"current_range_meters":21200,"station_id":"ce4bhb92rcd13ifvqen0","pricing_plan_id":"cebpf4jnsgd1na2vs0mg"},{"bike_id":"6d1b401f-f78b-4417-a9b3-8e928abb1f1b","system_id":"levelo_inurba_marseille","lat":43.29004,"lon":5.35615,"is_reserved":false,"is_disabled":false,"rental_uris":{"android":"levelo://app?vid=6d1b401f-f78b-4417-a9b3-8e928abb1f1b","ios":"levelo://app?vid=6d1b401f-f78b-4417-a9b3-8e928abb1f1b"},"vehicle_type_id":"4","last_reported":1718554125,"current_range_meters":1600,"station_id":"ce4bhb92rcd13ifvqen0","pricing_plan_id":"cebpf4jnsgd1na2vs0mg"},{"bike_id":"a9b38055-7b1a-490d-bc89-2e08ccbf471a","system_id":"levelo_inurba_marseille","lat":43.290188,"lon":5.355467,"is_reserved":false,"is_disabled":false,"rental_uris":{"android":"levelo://app?vid=a9b38055-7b1a-490d-bc89-2e08ccbf471a","ios":"levelo://app?vid=a9b38055-7b1a-490d-bc89-2e08ccbf471a"},"vehicle_type_id":"4","last_reported":1718554125,"current_range_meters":5200,"station_id":"ce4bhb92rcd13ifvqen0","pricing_plan_id":"cebpf4jnsgd1na2vs0mg"},{"bike_id":"47a26570-4924-4e42-9426-d39b1cc8d314","system_id":"levelo_inurba_marseille","lat":43.290103,"lon":5.356114,"is_reserved":false,"is_disabled":false,"rental_uris":{"android":"levelo://app?vid=47a26570-4924-4e42-9426-d39b1cc8d314","ios":"levelo://app?vid=47a26570-4924-4e42-9426-d39b1cc8d314"},"vehicle_type_id":"4","last_reported":1718554125,"current_range_meters":18000,"station_id":"ce4bhb92rcd13ifvqen0","pricing_plan_id":"cebpf4jnsgd1na2vs0mg"},{"bike_id":"f4626f57-6b2d-4cbc-9dba-550d1b80d225","system_id":"levelo_inurba_marseille","lat":43.290104,"lon":5.356111,"is_reserved":false,"is_disabled":false,"rental_uris":{"android":"levelo://app?vid=f4626f57-6b2d-4cbc-9dba-550d1b80d225","ios":"levelo://app?vid=f4626f57-6b2d-4cbc-9dba-550d1b80d225"},"vehicle_type_id":"4","last_reported":1718554125,"current_range_meters":30800,"station_id":"ce4bhb92rcd13ifvqen0","pricing_plan_id":"cebpf4jnsgd1na2vs0mg"},{"bike_id":"1945d21f-2b44-426f-b2a7-1b371c007ddf","system_id":"levelo_inurba_marseille","lat":43.29102,"lon":5.38126,"is_reserved":false,"is_disabled":false,"rental_uris":{"android":"levelo://app?vid=1945d21f-2b44-426f-b2a7-1b371c007ddf","ios":"levelo://app?vid=1945d21f-2b44-426f-b2a7-1b371c007ddf"},"vehicle_type_id":"4","last_reported":1718554125,"current_range_meters":0,"station_id":"ce4bh512rcd13ifvqe2g","pricing_plan_id":"cebpf4jnsgd1na2vs0mg"},{"bike_id":"9987d3ad-66ac-43e8-bd3a-165c52ebb8a2","system_id":"levelo_inurba_marseille","lat":43.2979,"lon":5.39343,"is_reserved":false,"is_disabled":false,"rental_uris":{"android":"levelo://app?vid=9987d3ad-66ac-43e8-bd3a-165c52ebb8a2","ios":"levelo://app?vid=9987d3ad-66ac-43e8-bd3a-165c52ebb8a2"},"vehicle_type_id":"4","last_reported":1718554125,"current_range_meters":0,"station_id":"chh1huq6cuj3fo74tm60","pricing_plan_id":"cebpf4jnsgd1na2vs0mg"},{"bike_id":"c0543668-578c-4940-8ca4-624726314b7c","system_id":"levelo_inurba_marseille","lat":43.29783,"lon":5.39336,"is_reserved":false,"is_disabled":false,"rental_uris":{"android":"levelo://app?vid=c0543668-578c-4940-8ca4-624726314b7c","ios":"levelo://app?vid=c0543668-578c-4940-8ca4-624726314b7c"},"vehicle_type_id":"4","last_reported":1718554125,"current_range_meters":0,"station_id":"chh1huq6cuj3fo74tm60","pricing_plan_id":"cebpf4jnsgd1na2vs0mg"},{"bike_id":"36581c3d-0475-4345-8cb6-39aa320efaeb","system_id":"levelo_inurba_marseille","lat":43.330442,"lon":5.389148,"is_reserved":false,"is_disabled":false,"rental_uris":{"android":"levelo://app?vid=36581c3d-0475-4345-8cb6-39aa320efaeb","ios":"levelo://app?vid=36581c3d-0475-4345-8cb6-39aa320efaeb"},"vehicle_type_id":"4","last_reported":1718554125,"current_range_meters":0,"station_id":"ce4bhr92rcd13ifvqhrg","pricing_plan_id":"cebpf4jnsgd1na2vs0mg"},{"bike_id":"acdf4986-2b9e-45b3-9b2c-57287f8a43af","system_id":"levelo_inurba_marseille","lat":43.28856,"lon":5.358371,"is_reserved":false,"is_disabled":false,"rental_uris":{"android":"levelo://app?vid=acdf4986-2b9e-45b3-9b2c-57287f8a43af","ios":"levelo://app?vid=acdf4986-2b9e-45b3-9b2c-57287f8a43af"},"vehicle_type_id":"4","last_reported":1718554125,"current_range_meters":5200,"station_id":"ce4bhb12rcd13ifvqem0","pricing_plan_id":"cebpf4jnsgd1na2vs0mg"},{"bike_id":"a98c1c85-e143-4c59-ba6b-924efbd4c9c2","system_id":"levelo_inurba_marseille","lat":43.31266,"lon":5.40174,"is_reserved":false,"is_disabled":false,"rental_uris":{"android":"levelo://app?vid=a98c1c85-e143-4c59-ba6b-924efbd4c9c2","ios":"levelo://app?vid=a98c1c85-e143-4c59-ba6b-924efbd4c9c2"},"vehicle_type_id":"4","last_reported":1718554125,"current_range_meters":0,"station_id":"ce4bh092rcd13ifvqd30","pricing_plan_id":"cebpf4jnsgd1na2vs0mg"},{"bike_id":"b0edc25e-7d22-4bd2-92f3-f598ffa1cfbf","system_id":"levelo_inurba_marseille","lat":43.301117,"lon":5.398795,"is_reserved":false,"is_disabled":false,"rental_uris":{"android":"levelo://app?vid=b0edc25e-7d22-4bd2-92f3-f598ffa1cfbf","ios":"levelo://app?vid=b0edc25e-7d22-4bd2-92f3-f598ffa1cfbf"},"vehicle_type_id":"4","last_reported":1718554125,"current_range_meters":800,"station_id":"ce4bh0h2rcd13ifvqd40","pricing_plan_id":"cebpf4jnsgd1na2vs0mg"},{"bike_id":"e1512863-0927-4702-b249-40d36e19f2c0","system_id":"levelo_inurba_marseille","lat":43.337623,"lon":5.374858,"is_reserved":false,"is_disabled":false,"rental_uris":{"android":"levelo://app?vid=e1512863-0927-4702-b249-40d36e19f2c0","ios":"levelo://app?vid=e1512863-0927-4702-b249-40d36e19f2c0"},"vehicle_type_id":"4","last_reported":1718554125,"current_range_meters":21200,"station_id":"","pricing_plan_id":"cebpf4jnsgd1na2vs0mg"},{"bike_id":"6e626287-7893-49f4-980b-b065c9af98bd","system_id":"levelo_inurba_marseille","lat":43.301117,"lon":5.398795,"is_reserved":false,"is_disabled":false,"rental_uris":{"android":"levelo://app?vid=6e626287-7893-49f4-980b-b065c9af98bd","ios":"levelo://app?vid=6e626287-7893-49f4-980b-b065c9af98bd"},"vehicle_type_id":"4","last_reported":1718554125,"current_range_meters":5200,"station_id":"ce4bh0h2rcd13ifvqd40","pricing_plan_id":"cebpf4jnsgd1na2vs0mg"},{"bike_id":"27e6264d-1578-411a-9eb2-f9df65063032","system_id":"levelo_inurba_marseille","lat":43.3014,"lon":5.39869,"is_reserved":false,"is_disabled":false,"rental_uris":{"android":"levelo://app?vid=27e6264d-1578-411a-9eb2-f9df65063032","ios":"levelo://app?vid=27e6264d-1578-411a-9eb2-f9df65063032"},"vehicle_type_id":"4","last_reported":1718554125,"current_range_meters":0,"station_id":"ce4bh0h2rcd13ifvqd40","pricing_plan_id":"cebpf4jnsgd1na2vs0mg"},{"bike_id":"65b8d56e-8158-43f1-bd37-04f98f17b237","system_id":"levelo_inurba_marseille","lat":43.295196,"lon":5.39397,"is_reserved":false,"is_disabled":false,"rental_uris":{"android":"levelo://app?vid=65b8d56e-8158-43f1-bd37-04f98f17b237","ios":"levelo://app?vid=65b8d56e-8158-43f1-bd37-04f98f17b237"},"vehicle_type_id":"4","last_reported":1718554125,"current_range_meters":0,"station_id":"ce4bh292rcd13ifvqdf0","pricing_plan_id":"cebpf4jnsgd1na2vs0mg"},{"bike_id":"85eee67f-4b76-4f62-96aa-330646ac8932","system_id":"levelo_inurba_marseille","lat":43.289307,"lon":5.38406,"is_reserved":false,"is_disabled":false,"rental_uris":{"android":"levelo://app?vid=85eee67f-4b76-4f62-96aa-330646ac8932","ios":"levelo://app?vid=85eee67f-4b76-4f62-96aa-330646ac8932"},"vehicle_type_id":"4","last_reported":1718554125,"current_range_meters":4400,"station_id":"ce4bh612rcd13ifvqe6g","pricing_plan_id":"cebpf4jnsgd1na2vs0mg"},{"bike_id":"cb7d3be4-8531-4cc0-b5dc-c05354b8078a","system_id":"levelo_inurba_marseille","lat":43.290336,"lon":5.386425,"is_reserved":false,"is_disabled":false,"rental_uris":{"android":"levelo://app?vid=cb7d3be4-8531-4cc0-b5dc-c05354b8078a","ios":"levelo://app?vid=cb7d3be4-8531-4cc0-b5dc-c05354b8078a"},"vehicle_type_id":"4","last_reported":1718554125,"current_range_meters":0,"station_id":"ce4bh4p2rcd13ifvqe0g","pricing_plan_id":"cebpf4jnsgd1na2vs0mg"},{"bike_id":"8d6f840f-88cf-4156-86ac-ea939e4956a3","system_id":"levelo_inurba_marseille","lat":43.302759,"lon":5.400793,"is_reserved":false,"is_disabled":false,"rental_uris":{"android":"levelo://app?vid=8d6f840f-88cf-4156-86ac-ea939e4956a3","ios":"levelo://app?vid=8d6f840f-88cf-4156-86ac-ea939e4956a3"},"vehicle_type_id":"4","last_reported":1718554125,"current_range_meters":18800,"station_id":"ce4bgvh2rcd13ifvqcs0","pricing_plan_id":"cebpf4jnsgd1na2vs0mg"},{"bike_id":"1b5bb293-84da-4dc9-8342-32b596a90713","system_id":"levelo_inurba_marseille","lat":43.286039,"lon":5.370681,"is_reserved":false,"is_disabled":false,"rental_uris":{"android":"levelo://app?vid=1b5bb293-84da-4dc9-8342-32b596a90713","ios":"levelo://app?vid=1b5bb293-84da-4dc9-8342-32b596a90713"},"vehicle_type_id":"4","last_reported":1718554125,"current_range_meters":20000,"station_id":"ce4bht12rcd13ifvqi60","pricing_plan_id":"cebpf4jnsgd1na2vs0mg"},{"bike_id":"09431ad5-0387-492f-a940-c7b5873ee450","system_id":"levelo_inurba_marseille","lat":43.286039,"lon":5.370681,"is_reserved":false,"is_disabled":false,"rental_uris":{"android":"levelo://app?vid=09431ad5-0387-492f-a940-c7b5873ee450","ios":"levelo://app?vid=09431ad5-0387-492f-a940-c7b5873ee450"},"vehicle_type_id":"4","last_reported":1718554125,"current_range_meters":20400,"station_id":"ce4bht12rcd13ifvqi60","pricing_plan_id":"cebpf4jnsgd1na2vs0mg"},{"bike_id":"190c9b12-6a70-43ab-a647-fca1ac2c15b2","system_id":"levelo_inurba_marseille","lat":43.287184,"lon":5.37937,"is_reserved":false,"is_disabled":false,"rental_uris":{"android":"levelo://app?vid=190c9b12-6a70-43ab-a647-fca1ac2c15b2","ios":"levelo://app?vid=190c9b12-6a70-43ab-a647-fca1ac2c15b2"},"vehicle_type_id":"4","last_reported":1718554125,"current_range_meters":27600,"station_id":"ce4bh9p2rcd13ifvqec0","pricing_plan_id":"cebpf4jnsgd1na2vs0mg"},{"bike_id":"8fb4271c-dfee-4e6c-8b2c-247a91ed3d21","system_id":"levelo_inurba_marseille","lat":43.316828,"lon":5.404723,"is_reserved":false,"is_disabled":false,"rental_uris":{"android":"levelo://app?vid=8fb4271c-dfee-4e6c-8b2c-247a91ed3d21","ios":"levelo://app?vid=8fb4271c-dfee-4e6c-8b2c-247a91ed3d21"},"vehicle_type_id":"4","last_reported":1718554125,"current_range_meters":0,"station_id":"ce4bh012rcd13ifvqd00","pricing_plan_id":"cebpf4jnsgd1na2vs0mg"},{"bike_id":"3503bac9-d2a9-4b8f-9865-2da29f5322c4","system_id":"levelo_inurba_marseille","lat":43.284534,"lon":5.358662,"is_reserved":false,"is_disabled":false,"rental_uris":{"android":"levelo://app?vid=3503bac9-d2a9-4b8f-9865-2da29f5322c4","ios":"levelo://app?vid=3503bac9-d2a9-4b8f-9865-2da29f5322c4"},"vehicle_type_id":"4","last_reported":1718554125,"current_range_meters":1200,"station_id":"ce4bhah2rcd13ifvqei0","pricing_plan_id":"cebpf4jnsgd1na2vs0mg"},{"bike_id":"d46707b9-40eb-4093-b210-6c99ae8f885b","system_id":"levelo_inurba_marseille","lat":43.285856,"lon":5.350771,"is_reserved":false,"is_disabled":false,"rental_uris":{"android":"levelo://app?vid=d46707b9-40eb-4093-b210-6c99ae8f885b","ios":"levelo://app?vid=d46707b9-40eb-4093-b210-6c99ae8f885b"},"vehicle_type_id":"4","last_reported":1718554125,"current_range_meters":20400,"station_id":"ce4bhch2rcd13ifvqeug","pricing_plan_id":"cebpf4jnsgd1na2vs0mg"},{"bike_id":"8ae94ff4-1c88-4729-9c23-2f81c8c5ea62","system_id":"levelo_inurba_marseille","lat":43.28614,"lon":5.351055,"is_reserved":false,"is_disabled":false,"rental_uris":{"android":"levelo://app?vid=8ae94ff4-1c88-4729-9c23-2f81c8c5ea62","ios":"levelo://app?vid=8ae94ff4-1c88-4729-9c23-2f81c8c5ea62"},"vehicle_type_id":"4","last_reported":1718554125,"current_range_meters":0,"station_id":"ce4bhch2rcd13ifvqeug","pricing_plan_id":"cebpf4jnsgd1na2vs0mg"},{"bike_id":"ea25e512-6352-48ea-9b8c-1b3e9f8b188e","system_id":"levelo_inurba_marseille","lat":43.285856,"lon":5.350771,"is_reserved":false,"is_disabled":false,"rental_uris":{"android":"levelo://app?vid=ea25e512-6352-48ea-9b8c-1b3e9f8b188e","ios":"levelo://app?vid=ea25e512-6352-48ea-9b8c-1b3e9f8b188e"},"vehicle_type_id":"4","last_reported":1718554125,"current_range_meters":26800,"station_id":"ce4bhch2rcd13ifvqeug","pricing_plan_id":"cebpf4jnsgd1na2vs0mg"},{"bike_id":"324d6a65-ebad-4991-b2fc-6b032a05ec3c","system_id":"levelo_inurba_marseille","lat":43.285856,"lon":5.350771,"is_reserved":false,"is_disabled":false,"rental_uris":{"android":"levelo://app?vid=324d6a65-ebad-4991-b2fc-6b032a05ec3c","ios":"levelo://app?vid=324d6a65-ebad-4991-b2fc-6b032a05ec3c"},"vehicle_type_id":"4","last_reported":1718554125,"current_range_meters":0,"station_id":"ce4bhch2rcd13ifvqeug","pricing_plan_id":"cebpf4jnsgd1na2vs0mg"},{"bike_id":"f3ff8bf7-e71e-4b3e-a347-5fcb35545118","system_id":"levelo_inurba_marseille","lat":43.285856,"lon":5.350771,"is_reserved":false,"is_disabled":false,"rental_uris":{"android":"levelo://app?vid=f3ff8bf7-e71e-4b3e-a347-5fcb35545118","ios":"levelo://app?vid=f3ff8bf7-e71e-4b3e-a347-5fcb35545118"},"vehicle_type_id":"4","last_reported":1718554125,"current_range_meters":20400,"station_id":"ce4bhch2rcd13ifvqeug","pricing_plan_id":"cebpf4jnsgd1na2vs0mg"},{"bike_id":"0072e4e9-b61c-4a73-8b1d-3cf92bd3deee","system_id":"levelo_inurba_marseille","lat":43.285856,"lon":5.350771,"is_reserved":false,"is_disabled":false,"rental_uris":{"android":"levelo://app?vid=0072e4e9-b61c-4a73-8b1d-3cf92bd3deee","ios":"levelo://app?vid=0072e4e9-b61c-4a73-8b1d-3cf92bd3deee"},"vehicle_type_id":"4","last_reported":1718554125,"current_range_meters":22000,"station_id":"ce4bhch2rcd13ifvqeug","pricing_plan_id":"cebpf4jnsgd1na2vs0mg"},{"bike_id":"b0cdf845-b3bd-47aa-a25a-717bf5f5c6b0","system_id":"levelo_inurba_marseille","lat":43.297946,"lon":5.404063,"is_reserved":false,"is_disabled":false,"rental_uris":{"android":"levelo://app?vid=b0cdf845-b3bd-47aa-a25a-717bf5f5c6b0","ios":"levelo://app?vid=b0cdf845-b3bd-47aa-a25a-717bf5f5c6b0"},"vehicle_type_id":"4","last_reported":1718554125,"current_range_meters":18400,"station_id":"ce4bh112rcd13ifvqd90","pricing_plan_id":"cebpf4jnsgd1na2vs0mg"},{"bike_id":"1e6be80b-89d1-4ce5-983e-c37eaf97b147","system_id":"levelo_inurba_marseille","lat":43.283494,"lon":5.380945,"is_reserved":false,"is_disabled":false,"rental_uris":{"android":"levelo://app?vid=1e6be80b-89d1-4ce5-983e-c37eaf97b147","ios":"levelo://app?vid=1e6be80b-89d1-4ce5-983e-c37eaf97b147"},"vehicle_type_id":"4","last_reported":1718554125,"current_range_meters":16000,"station_id":"ce4bh412rcd13ifvqdr0","pricing_plan_id":"cebpf4jnsgd1na2vs0mg"},{"bike_id":"2f4cd5af-236e-46b5-918e-5c864b99960c","system_id":"levelo_inurba_marseille","lat":43.283498,"lon":5.380948,"is_reserved":false,"is_disabled":false,"rental_uris":{"android":"levelo://app?vid=2f4cd5af-236e-46b5-918e-5c864b99960c","ios":"levelo://app?vid=2f4cd5af-236e-46b5-918e-5c864b99960c"},"vehicle_type_id":"4","last_reported":1718554125,"current_range_meters":15200,"station_id":"ce4bh412rcd13ifvqdr0","pricing_plan_id":"cebpf4jnsgd1na2vs0mg"},{"bike_id":"58548c5d-9f16-431b-9333-77d23a5ebb0f","system_id":"levelo_inurba_marseille","lat":43.289363,"lon":5.396322,"is_reserved":false,"is_disabled":false,"rental_uris":{"android":"levelo://app?vid=58548c5d-9f16-431b-9333-77d23a5ebb0f","ios":"levelo://app?vid=58548c5d-9f16-431b-9333-77d23a5ebb0f"},"vehicle_type_id":"4","last_reported":1718554125,"current_range_meters":8800,"station_id":"ce4bh3h2rcd13ifvqdn0","pricing_plan_id":"cebpf4jnsgd1na2vs0mg"},{"bike_id":"05491650-1305-490b-bdaa-8632cd5ae858","system_id":"levelo_inurba_marseille","lat":43.292724,"lon":5.401131,"is_reserved":false,"is_disabled":false,"rental_uris":{"android":"levelo://app?vid=05491650-1305-490b-bdaa-8632cd5ae858","ios":"levelo://app?vid=05491650-1305-490b-bdaa-8632cd5ae858"},"vehicle_type_id":"4","last_reported":1718554125,"current_range_meters":7200,"station_id":"ce4bh312rcd13ifvqdk0","pricing_plan_id":"cebpf4jnsgd1na2vs0mg"},{"bike_id":"7c2e410e-7e0e-4095-82c6-140002fd8e3a","system_id":"levelo_inurba_marseille","lat":43.28273,"lon":5.35065,"is_reserved":false,"is_disabled":false,"rental_uris":{"android":"levelo://app?vid=7c2e410e-7e0e-4095-82c6-140002fd8e3a","ios":"levelo://app?vid=7c2e410e-7e0e-4095-82c6-140002fd8e3a"},"vehicle_type_id":"4","last_reported":1718554125,"current_range_meters":0,"station_id":"ce4bhbp2rcd13ifvqerg","pricing_plan_id":"cebpf4jnsgd1na2vs0mg"},{"bike_id":"974073d4-4750-452c-a653-c7f9c229291d","system_id":"levelo_inurba_marseille","lat":43.282754,"lon":5.350519,"is_reserved":false,"is_disabled":false,"rental_uris":{"android":"levelo://app?vid=974073d4-4750-452c-a653-c7f9c229291d","ios":"levelo://app?vid=974073d4-4750-452c-a653-c7f9c229291d"},"vehicle_type_id":"4","last_reported":1718554125,"current_range_meters":0,"station_id":"ce4bhbp2rcd13ifvqerg","pricing_plan_id":"cebpf4jnsgd1na2vs0mg"},{"bike_id":"73d09ec4-f52a-4dd4-ba19-0781382e0866","system_id":"levelo_inurba_marseille","lat":43.282653,"lon":5.3507,"is_reserved":false,"is_disabled":false,"rental_uris":{"android":"levelo://app?vid=73d09ec4-f52a-4dd4-ba19-0781382e0866","ios":"levelo://app?vid=73d09ec4-f52a-4dd4-ba19-0781382e0866"},"vehicle_type_id":"4","last_reported":1718554125,"current_range_meters":0,"station_id":"ce4bhbp2rcd13ifvqerg","pricing_plan_id":"cebpf4jnsgd1na2vs0mg"},{"bike_id":"6a7dcd89-de63-4b85-a819-a44dc2aff34e","system_id":"levelo_inurba_marseille","lat":43.28039,"lon":5.369297,"is_reserved":false,"is_disabled":false,"rental_uris":{"android":"levelo://app?vid=6a7dcd89-de63-4b85-a819-a44dc2aff34e","ios":"levelo://app?vid=6a7dcd89-de63-4b85-a819-a44dc2aff34e"},"vehicle_type_id":"4","last_reported":1718554125,"current_range_meters":20400,"station_id":"ce4bha12rcd13ifvqef0","pricing_plan_id":"cebpf4jnsgd1na2vs0mg"},{"bike_id":"2bbff173-cff3-46e3-88b9-71aa5d953e72","system_id":"levelo_inurba_marseille","lat":43.29042,"lon":5.3996,"is_reserved":false,"is_disabled":false,"rental_uris":{"android":"levelo://app?vid=2bbff173-cff3-46e3-88b9-71aa5d953e72","ios":"levelo://app?vid=2bbff173-cff3-46e3-88b9-71aa5d953e72"},"vehicle_type_id":"4","last_reported":1718554125,"current_range_meters":0,"station_id":"ce4bh392rcd13ifvqdm0","pricing_plan_id":"cebpf4jnsgd1na2vs0mg"},{"bike_id":"62ab1b9f-9b66-43b1-821d-939ed379c405","system_id":"levelo_inurba_marseille","lat":43.281044,"lon":5.378308,"is_reserved":false,"is_disabled":false,"rental_uris":{"android":"levelo://app?vid=62ab1b9f-9b66-43b1-821d-939ed379c405","ios":"levelo://app?vid=62ab1b9f-9b66-43b1-821d-939ed379c405"},"vehicle_type_id":"4","last_reported":1718554125,"current_range_meters":13200,"station_id":"ce4bha12rcd13ifvqee0","pricing_plan_id":"cebpf4jnsgd1na2vs0mg"},{"bike_id":"1aea0c80-ae55-4e5c-9b5a-abc9c7611ec7","system_id":"levelo_inurba_marseille","lat":43.281044,"lon":5.378308,"is_reserved":false,"is_disabled":false,"rental_uris":{"android":"levelo://app?vid=1aea0c80-ae55-4e5c-9b5a-abc9c7611ec7","ios":"levelo://app?vid=1aea0c80-ae55-4e5c-9b5a-abc9c7611ec7"},"vehicle_type_id":"4","last_reported":1718554125,"current_range_meters":14800,"station_id":"ce4bha12rcd13ifvqee0","pricing_plan_id":"cebpf4jnsgd1na2vs0mg"},{"bike_id":"7cff686f-ce02-460d-800a-a8e0715935e0","system_id":"levelo_inurba_marseille","lat":43.29631,"lon":5.406,"is_reserved":false,"is_disabled":false,"rental_uris":{"android":"levelo://app?vid=7cff686f-ce02-460d-800a-a8e0715935e0","ios":"levelo://app?vid=7cff686f-ce02-460d-800a-a8e0715935e0"},"vehicle_type_id":"4","last_reported":1718554125,"current_range_meters":0,"station_id":"ce4bh0h2rcd13ifvqd60","pricing_plan_id":"cebpf4jnsgd1na2vs0mg"},{"bike_id":"873ab8d0-296a-48d5-ba78-3fe50b5a62a8","system_id":"levelo_inurba_marseille","lat":43.284462,"lon":5.392121,"is_reserved":false,"is_disabled":false,"rental_uris":{"android":"levelo://app?vid=873ab8d0-296a-48d5-ba78-3fe50b5a62a8","ios":"levelo://app?vid=873ab8d0-296a-48d5-ba78-3fe50b5a62a8"},"vehicle_type_id":"4","last_reported":1718554125,"current_range_meters":15600,"station_id":"ce4bhoh2rcd13ifvqh5g","pricing_plan_id":"cebpf4jnsgd1na2vs0mg"},{"bike_id":"96d4bb67-5d1a-43e7-bc7e-7733f888431e","system_id":"levelo_inurba_marseille","lat":43.284462,"lon":5.392121,"is_reserved":false,"is_disabled":false,"rental_uris":{"android":"levelo://app?vid=96d4bb67-5d1a-43e7-bc7e-7733f888431e","ios":"levelo://app?vid=96d4bb67-5d1a-43e7-bc7e-7733f888431e"},"vehicle_type_id":"4","last_reported":1718554125,"current_range_meters":10800,"station_id":"ce4bhoh2rcd13ifvqh5g","pricing_plan_id":"cebpf4jnsgd1na2vs0mg"},{"bike_id":"07a65c8d-7bbb-44f7-802a-1a975a2286c7","system_id":"levelo_inurba_marseille","lat":43.285742,"lon":5.395004,"is_reserved":false,"is_disabled":false,"rental_uris":{"android":"levelo://app?vid=07a65c8d-7bbb-44f7-802a-1a975a2286c7","ios":"levelo://app?vid=07a65c8d-7bbb-44f7-802a-1a975a2286c7"},"vehicle_type_id":"4","last_reported":1718554125,"current_range_meters":18400,"station_id":"ce4bh292rcd13ifvqdg0","pricing_plan_id":"cebpf4jnsgd1na2vs0mg"},{"bike_id":"492ff590-590f-48b0-bedd-1cb0994c0dbc","system_id":"levelo_inurba_marseille","lat":43.279976,"lon":5.37912,"is_reserved":false,"is_disabled":false,"rental_uris":{"android":"levelo://app?vid=492ff590-590f-48b0-bedd-1cb0994c0dbc","ios":"levelo://app?vid=492ff590-590f-48b0-bedd-1cb0994c0dbc"},"vehicle_type_id":"4","last_reported":1718554125,"current_range_meters":28800,"station_id":"","pricing_plan_id":"cebpf4jnsgd1na2vs0mg"},{"bike_id":"d587f8e2-6e49-4137-9ae3-ac5ffee17587","system_id":"levelo_inurba_marseille","lat":43.326605,"lon":5.409903,"is_reserved":false,"is_disabled":false,"rental_uris":{"android":"levelo://app?vid=d587f8e2-6e49-4137-9ae3-ac5ffee17587","ios":"levelo://app?vid=d587f8e2-6e49-4137-9ae3-ac5ffee17587"},"vehicle_type_id":"4","last_reported":1718554125,"current_range_meters":28800,"station_id":"ce4bhpp2rcd13ifvqhgg","pricing_plan_id":"cebpf4jnsgd1na2vs0mg"},{"bike_id":"d07e7fcb-a1cb-4aed-97d5-ad900fe57a1f","system_id":"levelo_inurba_marseille","lat":43.326605,"lon":5.409903,"is_reserved":false,"is_disabled":false,"rental_uris":{"android":"levelo://app?vid=d07e7fcb-a1cb-4aed-97d5-ad900fe57a1f","ios":"levelo://app?vid=d07e7fcb-a1cb-4aed-97d5-ad900fe57a1f"},"vehicle_type_id":"4","last_reported":1718554125,"current_range_meters":9200,"station_id":"ce4bhpp2rcd13ifvqhgg","pricing_plan_id":"cebpf4jnsgd1na2vs0mg"},{"bike_id":"c1e6639a-7514-4ecb-a132-7ac941021f8f","system_id":"levelo_inurba_marseille","lat":43.326605,"lon":5.409903,"is_reserved":false,"is_disabled":false,"rental_uris":{"android":"levelo://app?vid=c1e6639a-7514-4ecb-a132-7ac941021f8f","ios":"levelo://app?vid=c1e6639a-7514-4ecb-a132-7ac941021f8f"},"vehicle_type_id":"4","last_reported":1718554125,"current_range_meters":25600,"station_id":"ce4bhpp2rcd13ifvqhgg","pricing_plan_id":"cebpf4jnsgd1na2vs0mg"},{"bike_id":"3256bcd8-8dd8-41bd-863e-f082eea436bb","system_id":"levelo_inurba_marseille","lat":43.32661,"lon":5.40994,"is_reserved":false,"is_disabled":false,"rental_uris":{"android":"levelo://app?vid=3256bcd8-8dd8-41bd-863e-f082eea436bb","ios":"levelo://app?vid=3256bcd8-8dd8-41bd-863e-f082eea436bb"},"vehicle_type_id":"4","last_reported":1718554125,"current_range_meters":9200,"station_id":"ce4bhpp2rcd13ifvqhgg","pricing_plan_id":"cebpf4jnsgd1na2vs0mg"},{"bike_id":"1335bc31-6847-4f52-9757-d28d021659c1","system_id":"levelo_inurba_marseille","lat":43.3266,"lon":5.40995,"is_reserved":false,"is_disabled":false,"rental_uris":{"android":"levelo://app?vid=1335bc31-6847-4f52-9757-d28d021659c1","ios":"levelo://app?vid=1335bc31-6847-4f52-9757-d28d021659c1"},"vehicle_type_id":"4","last_reported":1718554125,"current_range_meters":5200,"station_id":"ce4bhpp2rcd13ifvqhgg","pricing_plan_id":"cebpf4jnsgd1na2vs0mg"},{"bike_id":"8b62d8ef-28d5-47d7-9705-4b01c5f4a785","system_id":"levelo_inurba_marseille","lat":43.326605,"lon":5.409903,"is_reserved":false,"is_disabled":false,"rental_uris":{"android":"levelo://app?vid=8b62d8ef-28d5-47d7-9705-4b01c5f4a785","ios":"levelo://app?vid=8b62d8ef-28d5-47d7-9705-4b01c5f4a785"},"vehicle_type_id":"4","last_reported":1718554125,"current_range_meters":22400,"station_id":"ce4bhpp2rcd13ifvqhgg","pricing_plan_id":"cebpf4jnsgd1na2vs0mg"},{"bike_id":"acd7c556-caee-4db0-9854-e59c0d4ff53c","system_id":"levelo_inurba_marseille","lat":43.326605,"lon":5.409903,"is_reserved":false,"is_disabled":false,"rental_uris":{"android":"levelo://app?vid=acd7c556-caee-4db0-9854-e59c0d4ff53c","ios":"levelo://app?vid=acd7c556-caee-4db0-9854-e59c0d4ff53c"},"vehicle_type_id":"4","last_reported":1718554125,"current_range_meters":21600,"station_id":"ce4bhpp2rcd13ifvqhgg","pricing_plan_id":"cebpf4jnsgd1na2vs0mg"},{"bike_id":"e09d9a57-5659-49ea-9ec8-6213d9214dd9","system_id":"levelo_inurba_marseille","lat":43.326605,"lon":5.409903,"is_reserved":false,"is_disabled":false,"rental_uris":{"android":"levelo://app?vid=e09d9a57-5659-49ea-9ec8-6213d9214dd9","ios":"levelo://app?vid=e09d9a57-5659-49ea-9ec8-6213d9214dd9"},"vehicle_type_id":"4","last_reported":1718554125,"current_range_meters":8800,"station_id":"ce4bhpp2rcd13ifvqhgg","pricing_plan_id":"cebpf4jnsgd1na2vs0mg"},{"bike_id":"9e164a6a-7e04-47af-bdc5-7778fe0f38a6","system_id":"levelo_inurba_marseille","lat":43.326605,"lon":5.409903,"is_reserved":false,"is_disabled":false,"rental_uris":{"android":"levelo://app?vid=9e164a6a-7e04-47af-bdc5-7778fe0f38a6","ios":"levelo://app?vid=9e164a6a-7e04-47af-bdc5-7778fe0f38a6"},"vehicle_type_id":"4","last_reported":1718554125,"current_range_meters":0,"station_id":"ce4bhpp2rcd13ifvqhgg","pricing_plan_id":"cebpf4jnsgd1na2vs0mg"},{"bike_id":"56729bf5-c3d6-4cfe-b4ea-49281483b4b6","system_id":"levelo_inurba_marseille","lat":43.279087,"lon":5.380114,"is_reserved":false,"is_disabled":false,"rental_uris":{"android":"levelo://app?vid=56729bf5-c3d6-4cfe-b4ea-49281483b4b6","ios":"levelo://app?vid=56729bf5-c3d6-4cfe-b4ea-49281483b4b6"},"vehicle_type_id":"4","last_reported":1718554125,"current_range_meters":17200,"station_id":"ce4bhf92rcd13ifvqf50","pricing_plan_id":"cebpf4jnsgd1na2vs0mg"},{"bike_id":"f009662a-7ad6-42b2-b118-757cc251d105","system_id":"levelo_inurba_marseille","lat":43.292571,"lon":5.409107,"is_reserved":false,"is_disabled":false,"rental_uris":{"android":"levelo://app?vid=f009662a-7ad6-42b2-b118-757cc251d105","ios":"levelo://app?vid=f009662a-7ad6-42b2-b118-757cc251d105"},"vehicle_type_id":"4","last_reported":1718554125,"current_range_meters":26000,"station_id":"ce4bh192rcd13ifvqdc0","pricing_plan_id":"cebpf4jnsgd1na2vs0mg"},{"bike_id":"c21d440e-e704-4fce-9ee9-b1008f5e3319","system_id":"levelo_inurba_marseille","lat":43.29265,"lon":5.40904,"is_reserved":false,"is_disabled":false,"rental_uris":{"android":"levelo://app?vid=c21d440e-e704-4fce-9ee9-b1008f5e3319","ios":"levelo://app?vid=c21d440e-e704-4fce-9ee9-b1008f5e3319"},"vehicle_type_id":"4","last_reported":1718554125,"current_range_meters":0,"station_id":"ce4bh192rcd13ifvqdc0","pricing_plan_id":"cebpf4jnsgd1na2vs0mg"},{"bike_id":"c7be91ec-637d-4c1b-b2a2-b96eb93c9bf4","system_id":"levelo_inurba_marseille","lat":43.325243,"lon":5.414326,"is_reserved":false,"is_disabled":false,"rental_uris":{"android":"levelo://app?vid=c7be91ec-637d-4c1b-b2a2-b96eb93c9bf4","ios":"levelo://app?vid=c7be91ec-637d-4c1b-b2a2-b96eb93c9bf4"},"vehicle_type_id":"4","last_reported":1718554125,"current_range_meters":10000,"station_id":"ce4bhq12rcd13ifvqhhg","pricing_plan_id":"cebpf4jnsgd1na2vs0mg"},{"bike_id":"a246b305-3475-4e0f-a8de-d4a6bba99caf","system_id":"levelo_inurba_marseille","lat":43.28039,"lon":5.369297,"is_reserved":false,"is_disabled":false,"rental_uris":{"android":"levelo://app?vid=a246b305-3475-4e0f-a8de-d4a6bba99caf","ios":"levelo://app?vid=a246b305-3475-4e0f-a8de-d4a6bba99caf"},"vehicle_type_id":"4","last_reported":1718554125,"current_range_meters":27600,"station_id":"ce4bha12rcd13ifvqef0","pricing_plan_id":"cebpf4jnsgd1na2vs0mg"},{"bike_id":"b1fecb7f-8cfe-4040-97ab-a61b01da617a","system_id":"levelo_inurba_marseille","lat":43.280784,"lon":5.396622,"is_reserved":false,"is_disabled":false,"rental_uris":{"android":"levelo://app?vid=b1fecb7f-8cfe-4040-97ab-a61b01da617a","ios":"levelo://app?vid=b1fecb7f-8cfe-4040-97ab-a61b01da617a"},"vehicle_type_id":"4","last_reported":1718554125,"current_range_meters":30000,"station_id":"ce4bho12rcd13ifvqh2g","pricing_plan_id":"cebpf4jnsgd1na2vs0mg"},{"bike_id":"09e2cd2c-a9a2-44f1-9bcb-1d1fed11526b","system_id":"levelo_inurba_marseille","lat":43.286001,"lon":5.405546,"is_reserved":false,"is_disabled":false,"rental_uris":{"android":"levelo://app?vid=09e2cd2c-a9a2-44f1-9bcb-1d1fed11526b","ios":"levelo://app?vid=09e2cd2c-a9a2-44f1-9bcb-1d1fed11526b"},"vehicle_type_id":"4","last_reported":1718554125,"current_range_meters":0,"station_id":"","pricing_plan_id":"cebpf4jnsgd1na2vs0mg"},{"bike_id":"9bc710ad-bceb-498c-a060-034a0772a332","system_id":"levelo_inurba_marseille","lat":43.27376,"lon":5.36259,"is_reserved":false,"is_disabled":false,"rental_uris":{"android":"levelo://app?vid=9bc710ad-bceb-498c-a060-034a0772a332","ios":"levelo://app?vid=9bc710ad-bceb-498c-a060-034a0772a332"},"vehicle_type_id":"4","last_reported":1718554125,"current_range_meters":31200,"station_id":"ce4bhbh2rcd13ifvqeo0","pricing_plan_id":"cebpf4jnsgd1na2vs0mg"},{"bike_id":"7ea41df7-36d0-425b-ae7d-d492c187be77","system_id":"levelo_inurba_marseille","lat":43.27372,"lon":5.36259,"is_reserved":false,"is_disabled":false,"rental_uris":{"android":"levelo://app?vid=7ea41df7-36d0-425b-ae7d-d492c187be77","ios":"levelo://app?vid=7ea41df7-36d0-425b-ae7d-d492c187be77"},"vehicle_type_id":"4","last_reported":1718554125,"current_range_meters":0,"station_id":"ce4bhbh2rcd13ifvqeo0","pricing_plan_id":"cebpf4jnsgd1na2vs0mg"},{"bike_id":"783acb89-9163-4577-8c46-573ffd9ec019","system_id":"levelo_inurba_marseille","lat":43.273609,"lon":5.362708,"is_reserved":false,"is_disabled":false,"rental_uris":{"android":"levelo://app?vid=783acb89-9163-4577-8c46-573ffd9ec019","ios":"levelo://app?vid=783acb89-9163-4577-8c46-573ffd9ec019"},"vehicle_type_id":"4","last_reported":1718554125,"current_range_meters":0,"station_id":"ce4bhbh2rcd13ifvqeo0","pricing_plan_id":"cebpf4jnsgd1na2vs0mg"},{"bike_id":"729c3121-74d8-4e0d-b449-df1561f195c1","system_id":"levelo_inurba_marseille","lat":43.33612,"lon":5.410321,"is_reserved":false,"is_disabled":false,"rental_uris":{"android":"levelo://app?vid=729c3121-74d8-4e0d-b449-df1561f195c1","ios":"levelo://app?vid=729c3121-74d8-4e0d-b449-df1561f195c1"},"vehicle_type_id":"4","last_reported":1718554125,"current_range_meters":18400,"station_id":"ce4bhqh2rcd13ifvqhmg","pricing_plan_id":"cebpf4jnsgd1na2vs0mg"},{"bike_id":"a13df5fe-87fc-48e9-9b44-9372a4183750","system_id":"levelo_inurba_marseille","lat":43.33603,"lon":5.4103,"is_reserved":false,"is_disabled":false,"rental_uris":{"android":"levelo://app?vid=a13df5fe-87fc-48e9-9b44-9372a4183750","ios":"levelo://app?vid=a13df5fe-87fc-48e9-9b44-9372a4183750"},"vehicle_type_id":"4","last_reported":1718554125,"current_range_meters":10400,"station_id":"","pricing_plan_id":"cebpf4jnsgd1na2vs0mg"},{"bike_id":"248fe9a6-ba4f-46b6-874a-c67268b4c594","system_id":"levelo_inurba_marseille","lat":43.336148,"lon":5.410349,"is_reserved":false,"is_disabled":false,"rental_uris":{"android":"levelo://app?vid=248fe9a6-ba4f-46b6-874a-c67268b4c594","ios":"levelo://app?vid=248fe9a6-ba4f-46b6-874a-c67268b4c594"},"vehicle_type_id":"4","last_reported":1718554125,"current_range_meters":5600,"station_id":"ce4bhqh2rcd13ifvqhmg","pricing_plan_id":"cebpf4jnsgd1na2vs0mg"},{"bike_id":"28ffcc89-b614-4722-bfc9-f80ba8f68628","system_id":"levelo_inurba_marseille","lat":43.336148,"lon":5.410349,"is_reserved":false,"is_disabled":false,"rental_uris":{"android":"levelo://app?vid=28ffcc89-b614-4722-bfc9-f80ba8f68628","ios":"levelo://app?vid=28ffcc89-b614-4722-bfc9-f80ba8f68628"},"vehicle_type_id":"4","last_reported":1718554125,"current_range_meters":23600,"station_id":"ce4bhqh2rcd13ifvqhmg","pricing_plan_id":"cebpf4jnsgd1na2vs0mg"},{"bike_id":"7d7953b6-faae-4220-8c24-fa873f875192","system_id":"levelo_inurba_marseille","lat":43.279975,"lon":5.40009,"is_reserved":false,"is_disabled":false,"rental_uris":{"android":"levelo://app?vid=7d7953b6-faae-4220-8c24-fa873f875192","ios":"levelo://app?vid=7d7953b6-faae-4220-8c24-fa873f875192"},"vehicle_type_id":"4","last_reported":1718554125,"current_range_meters":23200,"station_id":"ce4bho92rcd13ifvqh4g","pricing_plan_id":"cebpf4jnsgd1na2vs0mg"},{"bike_id":"58189d9b-9801-47af-9a29-86c0dba07054","system_id":"levelo_inurba_marseille","lat":43.317121,"lon":5.423936,"is_reserved":false,"is_disabled":false,"rental_uris":{"android":"levelo://app?vid=58189d9b-9801-47af-9a29-86c0dba07054","ios":"levelo://app?vid=58189d9b-9801-47af-9a29-86c0dba07054"},"vehicle_type_id":"4","last_reported":1718554125,"current_range_meters":24400,"station_id":"ce4bhp92rcd13ifvqhbg","pricing_plan_id":"cebpf4jnsgd1na2vs0mg"},{"bike_id":"909f9574-b6b9-43c1-b6f7-025fe149b65b","system_id":"levelo_inurba_marseille","lat":43.27471,"lon":5.39487,"is_reserved":false,"is_disabled":false,"rental_uris":{"android":"levelo://app?vid=909f9574-b6b9-43c1-b6f7-025fe149b65b","ios":"levelo://app?vid=909f9574-b6b9-43c1-b6f7-025fe149b65b"},"vehicle_type_id":"4","last_reported":1718554125,"current_range_meters":25600,"station_id":"","pricing_plan_id":"cebpf4jnsgd1na2vs0mg"},{"bike_id":"83166b2b-c767-415e-bf17-c7b0dca1f810","system_id":"levelo_inurba_marseille","lat":43.273125,"lon":5.390731,"is_reserved":false,"is_disabled":false,"rental_uris":{"android":"levelo://app?vid=83166b2b-c767-415e-bf17-c7b0dca1f810","ios":"levelo://app?vid=83166b2b-c767-415e-bf17-c7b0dca1f810"},"vehicle_type_id":"4","last_reported":1718554125,"current_range_meters":2000,"station_id":"ce4bhgp2rcd13ifvqfe0","pricing_plan_id":"cebpf4jnsgd1na2vs0mg"},{"bike_id":"cd2e9971-dafa-4209-81d8-848d4a02af8e","system_id":"levelo_inurba_marseille","lat":43.27208,"lon":5.39189,"is_reserved":false,"is_disabled":false,"rental_uris":{"android":"levelo://app?vid=cd2e9971-dafa-4209-81d8-848d4a02af8e","ios":"levelo://app?vid=cd2e9971-dafa-4209-81d8-848d4a02af8e"},"vehicle_type_id":"4","last_reported":1718554125,"current_range_meters":16800,"station_id":"ce4bhhp2rcd13ifvqfm0","pricing_plan_id":"cebpf4jnsgd1na2vs0mg"},{"bike_id":"d64bcfc9-02f9-4f84-9a81-198e32d1865b","system_id":"levelo_inurba_marseille","lat":43.2742,"lon":5.39761,"is_reserved":false,"is_disabled":false,"rental_uris":{"android":"levelo://app?vid=d64bcfc9-02f9-4f84-9a81-198e32d1865b","ios":"levelo://app?vid=d64bcfc9-02f9-4f84-9a81-198e32d1865b"},"vehicle_type_id":"4","last_reported":1718554125,"current_range_meters":17200,"station_id":"","pricing_plan_id":"cebpf4jnsgd1na2vs0mg"},{"bike_id":"792d639b-6033-49ad-aa3a-b3b37bd38bda","system_id":"levelo_inurba_marseille","lat":43.272116,"lon":5.391763,"is_reserved":false,"is_disabled":false,"rental_uris":{"android":"levelo://app?vid=792d639b-6033-49ad-aa3a-b3b37bd38bda","ios":"levelo://app?vid=792d639b-6033-49ad-aa3a-b3b37bd38bda"},"vehicle_type_id":"4","last_reported":1718554125,"current_range_meters":6400,"station_id":"ce4bhhp2rcd13ifvqfm0","pricing_plan_id":"cebpf4jnsgd1na2vs0mg"},{"bike_id":"fbb39424-54dc-4a72-ae12-6d03a53ee243","system_id":"levelo_inurba_marseille","lat":43.272124,"lon":5.391768,"is_reserved":false,"is_disabled":false,"rental_uris":{"android":"levelo://app?vid=fbb39424-54dc-4a72-ae12-6d03a53ee243","ios":"levelo://app?vid=fbb39424-54dc-4a72-ae12-6d03a53ee243"},"vehicle_type_id":"4","last_reported":1718554125,"current_range_meters":4400,"station_id":"ce4bhhp2rcd13ifvqfm0","pricing_plan_id":"cebpf4jnsgd1na2vs0mg"},{"bike_id":"75e259d3-4e88-4b16-b2bb-7a1cbd3888a1","system_id":"levelo_inurba_marseille","lat":43.269467,"lon":5.386439,"is_reserved":false,"is_disabled":false,"rental_uris":{"android":"levelo://app?vid=75e259d3-4e88-4b16-b2bb-7a1cbd3888a1","ios":"levelo://app?vid=75e259d3-4e88-4b16-b2bb-7a1cbd3888a1"},"vehicle_type_id":"4","last_reported":1718554125,"current_range_meters":20800,"station_id":"ce4bhh92rcd13ifvqfh0","pricing_plan_id":"cebpf4jnsgd1na2vs0mg"},{"bike_id":"1e092f7f-ee23-48c6-a1e8-0236ac74c2e2","system_id":"levelo_inurba_marseille","lat":43.269467,"lon":5.386439,"is_reserved":false,"is_disabled":false,"rental_uris":{"android":"levelo://app?vid=1e092f7f-ee23-48c6-a1e8-0236ac74c2e2","ios":"levelo://app?vid=1e092f7f-ee23-48c6-a1e8-0236ac74c2e2"},"vehicle_type_id":"4","last_reported":1718554125,"current_range_meters":400,"station_id":"ce4bhh92rcd13ifvqfh0","pricing_plan_id":"cebpf4jnsgd1na2vs0mg"},{"bike_id":"12b8cb7c-f9f8-43e3-a2b2-a2d6d1600921","system_id":"levelo_inurba_marseille","lat":43.269467,"lon":5.386439,"is_reserved":false,"is_disabled":false,"rental_uris":{"android":"levelo://app?vid=12b8cb7c-f9f8-43e3-a2b2-a2d6d1600921","ios":"levelo://app?vid=12b8cb7c-f9f8-43e3-a2b2-a2d6d1600921"},"vehicle_type_id":"4","last_reported":1718554125,"current_range_meters":0,"station_id":"ce4bhh92rcd13ifvqfh0","pricing_plan_id":"cebpf4jnsgd1na2vs0mg"},{"bike_id":"3f3679dd-2b7f-415d-99e5-63747d8fff35","system_id":"levelo_inurba_marseille","lat":43.269467,"lon":5.386439,"is_reserved":false,"is_disabled":false,"rental_uris":{"android":"levelo://app?vid=3f3679dd-2b7f-415d-99e5-63747d8fff35","ios":"levelo://app?vid=3f3679dd-2b7f-415d-99e5-63747d8fff35"},"vehicle_type_id":"4","last_reported":1718554125,"current_range_meters":3600,"station_id":"ce4bhh92rcd13ifvqfh0","pricing_plan_id":"cebpf4jnsgd1na2vs0mg"},{"bike_id":"6fe8ed48-8657-4ff8-a6fc-78974804189c","system_id":"levelo_inurba_marseille","lat":43.26949,"lon":5.3863,"is_reserved":false,"is_disabled":false,"rental_uris":{"android":"levelo://app?vid=6fe8ed48-8657-4ff8-a6fc-78974804189c","ios":"levelo://app?vid=6fe8ed48-8657-4ff8-a6fc-78974804189c"},"vehicle_type_id":"4","last_reported":1718554125,"current_range_meters":0,"station_id":"ce4bhh92rcd13ifvqfh0","pricing_plan_id":"cebpf4jnsgd1na2vs0mg"},{"bike_id":"93ff8ee4-65a8-459c-b7e1-19b0575c782a","system_id":"levelo_inurba_marseille","lat":43.26947,"lon":5.38626,"is_reserved":false,"is_disabled":false,"rental_uris":{"android":"levelo://app?vid=93ff8ee4-65a8-459c-b7e1-19b0575c782a","ios":"levelo://app?vid=93ff8ee4-65a8-459c-b7e1-19b0575c782a"},"vehicle_type_id":"4","last_reported":1718554125,"current_range_meters":0,"station_id":"ce4bhh92rcd13ifvqfh0","pricing_plan_id":"cebpf4jnsgd1na2vs0mg"},{"bike_id":"7adea0ef-6168-49cd-a952-5f368ff0a3cf","system_id":"levelo_inurba_marseille","lat":43.279465,"lon":5.410561,"is_reserved":false,"is_disabled":false,"rental_uris":{"android":"levelo://app?vid=7adea0ef-6168-49cd-a952-5f368ff0a3cf","ios":"levelo://app?vid=7adea0ef-6168-49cd-a952-5f368ff0a3cf"},"vehicle_type_id":"4","last_reported":1718554125,"current_range_meters":0,"station_id":"ce4bhnp2rcd13ifvqh0g","pricing_plan_id":"cebpf4jnsgd1na2vs0mg"},{"bike_id":"e4ef35ac-d97f-4261-a880-22b679cfee75","system_id":"levelo_inurba_marseille","lat":43.279465,"lon":5.410561,"is_reserved":false,"is_disabled":false,"rental_uris":{"android":"levelo://app?vid=e4ef35ac-d97f-4261-a880-22b679cfee75","ios":"levelo://app?vid=e4ef35ac-d97f-4261-a880-22b679cfee75"},"vehicle_type_id":"4","last_reported":1718554125,"current_range_meters":1200,"station_id":"ce4bhnp2rcd13ifvqh0g","pricing_plan_id":"cebpf4jnsgd1na2vs0mg"},{"bike_id":"90838863-32e2-4094-b3ff-af3687713d9a","system_id":"levelo_inurba_marseille","lat":43.279465,"lon":5.410561,"is_reserved":false,"is_disabled":false,"rental_uris":{"android":"levelo://app?vid=90838863-32e2-4094-b3ff-af3687713d9a","ios":"levelo://app?vid=90838863-32e2-4094-b3ff-af3687713d9a"},"vehicle_type_id":"4","last_reported":1718554125,"current_range_meters":0,"station_id":"ce4bhnp2rcd13ifvqh0g","pricing_plan_id":"cebpf4jnsgd1na2vs0mg"},{"bike_id":"7da4a85f-6185-4734-aef8-473ea4ff4e79","system_id":"levelo_inurba_marseille","lat":43.26681,"lon":5.382694,"is_reserved":false,"is_disabled":false,"rental_uris":{"android":"levelo://app?vid=7da4a85f-6185-4734-aef8-473ea4ff4e79","ios":"levelo://app?vid=7da4a85f-6185-4734-aef8-473ea4ff4e79"},"vehicle_type_id":"4","last_reported":1718554125,"current_range_meters":28800,"station_id":"ce4bhg92rcd13ifvqf90","pricing_plan_id":"cebpf4jnsgd1na2vs0mg"},{"bike_id":"3b4b4ff1-21ce-4ff8-ae5d-7e0ae7bb2dea","system_id":"levelo_inurba_marseille","lat":43.26681,"lon":5.382694,"is_reserved":false,"is_disabled":false,"rental_uris":{"android":"levelo://app?vid=3b4b4ff1-21ce-4ff8-ae5d-7e0ae7bb2dea","ios":"levelo://app?vid=3b4b4ff1-21ce-4ff8-ae5d-7e0ae7bb2dea"},"vehicle_type_id":"4","last_reported":1718554125,"current_range_meters":28000,"station_id":"ce4bhg92rcd13ifvqf90","pricing_plan_id":"cebpf4jnsgd1na2vs0mg"},{"bike_id":"6ed903d9-ae28-4379-8656-8eedc0d94797","system_id":"levelo_inurba_marseille","lat":43.26681,"lon":5.382694,"is_reserved":false,"is_disabled":false,"rental_uris":{"android":"levelo://app?vid=6ed903d9-ae28-4379-8656-8eedc0d94797","ios":"levelo://app?vid=6ed903d9-ae28-4379-8656-8eedc0d94797"},"vehicle_type_id":"4","last_reported":1718554125,"current_range_meters":800,"station_id":"ce4bhg92rcd13ifvqf90","pricing_plan_id":"cebpf4jnsgd1na2vs0mg"},{"bike_id":"c7a0ac6a-3eeb-436c-b3f8-f55bb1b84102","system_id":"levelo_inurba_marseille","lat":43.26681,"lon":5.382694,"is_reserved":false,"is_disabled":false,"rental_uris":{"android":"levelo://app?vid=c7a0ac6a-3eeb-436c-b3f8-f55bb1b84102","ios":"levelo://app?vid=c7a0ac6a-3eeb-436c-b3f8-f55bb1b84102"},"vehicle_type_id":"4","last_reported":1718554125,"current_range_meters":7200,"station_id":"ce4bhg92rcd13ifvqf90","pricing_plan_id":"cebpf4jnsgd1na2vs0mg"},{"bike_id":"11ee0f0b-8843-4c7f-ba6d-eba711589bfc","system_id":"levelo_inurba_marseille","lat":43.27996,"lon":5.416624,"is_reserved":false,"is_disabled":false,"rental_uris":{"android":"levelo://app?vid=11ee0f0b-8843-4c7f-ba6d-eba711589bfc","ios":"levelo://app?vid=11ee0f0b-8843-4c7f-ba6d-eba711589bfc"},"vehicle_type_id":"4","last_reported":1718554125,"current_range_meters":31200,"station_id":"ce4bho12rcd13ifvqh1g","pricing_plan_id":"cebpf4jnsgd1na2vs0mg"},{"bike_id":"c57723e5-bfe4-4476-8e5c-6872a03d9e7a","system_id":"levelo_inurba_marseille","lat":43.293472,"lon":5.428421,"is_reserved":false,"is_disabled":false,"rental_uris":{"android":"levelo://app?vid=c57723e5-bfe4-4476-8e5c-6872a03d9e7a","ios":"levelo://app?vid=c57723e5-bfe4-4476-8e5c-6872a03d9e7a"},"vehicle_type_id":"4","last_reported":1718554125,"current_range_meters":12000,"station_id":"","pricing_plan_id":"cebpf4jnsgd1na2vs0mg"},{"bike_id":"87ff6d1c-9ceb-40c3-b120-015b75bd0c00","system_id":"levelo_inurba_marseille","lat":43.27996,"lon":5.416624,"is_reserved":false,"is_disabled":false,"rental_uris":{"android":"levelo://app?vid=87ff6d1c-9ceb-40c3-b120-015b75bd0c00","ios":"levelo://app?vid=87ff6d1c-9ceb-40c3-b120-015b75bd0c00"},"vehicle_type_id":"4","last_reported":1718554125,"current_range_meters":4400,"station_id":"ce4bho12rcd13ifvqh1g","pricing_plan_id":"cebpf4jnsgd1na2vs0mg"},{"bike_id":"34d59256-1263-400c-8f9d-d12476ca0381","system_id":"levelo_inurba_marseille","lat":43.27996,"lon":5.416624,"is_reserved":false,"is_disabled":false,"rental_uris":{"android":"levelo://app?vid=34d59256-1263-400c-8f9d-d12476ca0381","ios":"levelo://app?vid=34d59256-1263-400c-8f9d-d12476ca0381"},"vehicle_type_id":"4","last_reported":1718554125,"current_range_meters":800,"station_id":"ce4bho12rcd13ifvqh1g","pricing_plan_id":"cebpf4jnsgd1na2vs0mg"},{"bike_id":"f764b874-5114-4f10-a34c-675a5cf0a527","system_id":"levelo_inurba_marseille","lat":43.27996,"lon":5.416624,"is_reserved":false,"is_disabled":false,"rental_uris":{"android":"levelo://app?vid=f764b874-5114-4f10-a34c-675a5cf0a527","ios":"levelo://app?vid=f764b874-5114-4f10-a34c-675a5cf0a527"},"vehicle_type_id":"4","last_reported":1718554125,"current_range_meters":23200,"station_id":"ce4bho12rcd13ifvqh1g","pricing_plan_id":"cebpf4jnsgd1na2vs0mg"},{"bike_id":"5a959848-6f47-401e-9f92-1cc1925c24fb","system_id":"levelo_inurba_marseille","lat":43.27996,"lon":5.416624,"is_reserved":false,"is_disabled":false,"rental_uris":{"android":"levelo://app?vid=5a959848-6f47-401e-9f92-1cc1925c24fb","ios":"levelo://app?vid=5a959848-6f47-401e-9f92-1cc1925c24fb"},"vehicle_type_id":"4","last_reported":1718554125,"current_range_meters":16800,"station_id":"ce4bho12rcd13ifvqh1g","pricing_plan_id":"cebpf4jnsgd1na2vs0mg"},{"bike_id":"c568abbf-0197-49e2-9d82-e8e2f32bff6d","system_id":"levelo_inurba_marseille","lat":43.279762,"lon":5.416703,"is_reserved":false,"is_disabled":false,"rental_uris":{"android":"levelo://app?vid=c568abbf-0197-49e2-9d82-e8e2f32bff6d","ios":"levelo://app?vid=c568abbf-0197-49e2-9d82-e8e2f32bff6d"},"vehicle_type_id":"4","last_reported":1718554125,"current_range_meters":6000,"station_id":"ce4bhnp2rcd13ifvqh0g","pricing_plan_id":"cebpf4jnsgd1na2vs0mg"},{"bike_id":"f11bd7ec-8825-400a-9f15-f6b36c71b789","system_id":"levelo_inurba_marseille","lat":43.267966,"lon":5.393976,"is_reserved":false,"is_disabled":false,"rental_uris":{"android":"levelo://app?vid=f11bd7ec-8825-400a-9f15-f6b36c71b789","ios":"levelo://app?vid=f11bd7ec-8825-400a-9f15-f6b36c71b789"},"vehicle_type_id":"4","last_reported":1718554125,"current_range_meters":6400,"station_id":"ce4bhh12rcd13ifvqfg0","pricing_plan_id":"cebpf4jnsgd1na2vs0mg"},{"bike_id":"b8566239-5b92-49af-8156-f173f938afe8","system_id":"levelo_inurba_marseille","lat":43.267966,"lon":5.393976,"is_reserved":false,"is_disabled":false,"rental_uris":{"android":"levelo://app?vid=b8566239-5b92-49af-8156-f173f938afe8","ios":"levelo://app?vid=b8566239-5b92-49af-8156-f173f938afe8"},"vehicle_type_id":"4","last_reported":1718554125,"current_range_meters":19200,"station_id":"ce4bhh12rcd13ifvqfg0","pricing_plan_id":"cebpf4jnsgd1na2vs0mg"},{"bike_id":"69d5e583-bb8e-4e38-a5e7-2ebf9ec62120","system_id":"levelo_inurba_marseille","lat":43.26365,"lon":5.37801,"is_reserved":false,"is_disabled":false,"rental_uris":{"android":"levelo://app?vid=69d5e583-bb8e-4e38-a5e7-2ebf9ec62120","ios":"levelo://app?vid=69d5e583-bb8e-4e38-a5e7-2ebf9ec62120"},"vehicle_type_id":"4","last_reported":1718554125,"current_range_meters":23200,"station_id":"cplgtobi1sfpv39f0c9g","pricing_plan_id":"cebpf4jnsgd1na2vs0mg"},{"bike_id":"68d62cf8-c370-4d21-8430-b82be14c0dda","system_id":"levelo_inurba_marseille","lat":43.26365,"lon":5.37801,"is_reserved":false,"is_disabled":false,"rental_uris":{"android":"levelo://app?vid=68d62cf8-c370-4d21-8430-b82be14c0dda","ios":"levelo://app?vid=68d62cf8-c370-4d21-8430-b82be14c0dda"},"vehicle_type_id":"4","last_reported":1718554125,"current_range_meters":25600,"station_id":"cplgtobi1sfpv39f0c9g","pricing_plan_id":"cebpf4jnsgd1na2vs0mg"},{"bike_id":"cb34033c-846e-40f0-81de-0409d1fcd70f","system_id":"levelo_inurba_marseille","lat":43.26365,"lon":5.37801,"is_reserved":false,"is_disabled":false,"rental_uris":{"android":"levelo://app?vid=cb34033c-846e-40f0-81de-0409d1fcd70f","ios":"levelo://app?vid=cb34033c-846e-40f0-81de-0409d1fcd70f"},"vehicle_type_id":"4","last_reported":1718554125,"current_range_meters":20400,"station_id":"cplgtobi1sfpv39f0c9g","pricing_plan_id":"cebpf4jnsgd1na2vs0mg"},{"bike_id":"685cfd9c-1b76-4d1b-a1f7-0c32fe852079","system_id":"levelo_inurba_marseille","lat":43.26365,"lon":5.37801,"is_reserved":false,"is_disabled":false,"rental_uris":{"android":"levelo://app?vid=685cfd9c-1b76-4d1b-a1f7-0c32fe852079","ios":"levelo://app?vid=685cfd9c-1b76-4d1b-a1f7-0c32fe852079"},"vehicle_type_id":"4","last_reported":1718554125,"current_range_meters":31200,"station_id":"cplgtobi1sfpv39f0c9g","pricing_plan_id":"cebpf4jnsgd1na2vs0mg"},{"bike_id":"d3f4379a-eddc-4b6f-bd83-36a531b00ec0","system_id":"levelo_inurba_marseille","lat":43.26365,"lon":5.37801,"is_reserved":false,"is_disabled":false,"rental_uris":{"android":"levelo://app?vid=d3f4379a-eddc-4b6f-bd83-36a531b00ec0","ios":"levelo://app?vid=d3f4379a-eddc-4b6f-bd83-36a531b00ec0"},"vehicle_type_id":"4","last_reported":1718554125,"current_range_meters":31200,"station_id":"cplgtobi1sfpv39f0c9g","pricing_plan_id":"cebpf4jnsgd1na2vs0mg"},{"bike_id":"13f89849-43ad-4299-86c4-20392c904f1e","system_id":"levelo_inurba_marseille","lat":43.26365,"lon":5.37801,"is_reserved":false,"is_disabled":false,"rental_uris":{"android":"levelo://app?vid=13f89849-43ad-4299-86c4-20392c904f1e","ios":"levelo://app?vid=13f89849-43ad-4299-86c4-20392c904f1e"},"vehicle_type_id":"4","last_reported":1718554125,"current_range_meters":12800,"station_id":"cplgtobi1sfpv39f0c9g","pricing_plan_id":"cebpf4jnsgd1na2vs0mg"},{"bike_id":"a181fbeb-15ed-4639-b165-1839540c2b2d","system_id":"levelo_inurba_marseille","lat":43.26365,"lon":5.37801,"is_reserved":false,"is_disabled":false,"rental_uris":{"android":"levelo://app?vid=a181fbeb-15ed-4639-b165-1839540c2b2d","ios":"levelo://app?vid=a181fbeb-15ed-4639-b165-1839540c2b2d"},"vehicle_type_id":"4","last_reported":1718554125,"current_range_meters":31200,"station_id":"cplgtobi1sfpv39f0c9g","pricing_plan_id":"cebpf4jnsgd1na2vs0mg"},{"bike_id":"e61983d7-b4a3-4969-8d39-4404b09c6460","system_id":"levelo_inurba_marseille","lat":43.26365,"lon":5.37801,"is_reserved":false,"is_disabled":false,"rental_uris":{"android":"levelo://app?vid=e61983d7-b4a3-4969-8d39-4404b09c6460","ios":"levelo://app?vid=e61983d7-b4a3-4969-8d39-4404b09c6460"},"vehicle_type_id":"4","last_reported":1718554125,"current_range_meters":31200,"station_id":"cplgtobi1sfpv39f0c9g","pricing_plan_id":"cebpf4jnsgd1na2vs0mg"},{"bike_id":"7e19d607-fda5-4d7d-867e-1e652b1b301a","system_id":"levelo_inurba_marseille","lat":43.26355,"lon":5.37821,"is_reserved":false,"is_disabled":false,"rental_uris":{"android":"levelo://app?vid=7e19d607-fda5-4d7d-867e-1e652b1b301a","ios":"levelo://app?vid=7e19d607-fda5-4d7d-867e-1e652b1b301a"},"vehicle_type_id":"4","last_reported":1718554125,"current_range_meters":2400,"station_id":"","pricing_plan_id":"cebpf4jnsgd1na2vs0mg"},{"bike_id":"69654814-baaf-4241-ac24-a59d27dc087f","system_id":"levelo_inurba_marseille","lat":43.26365,"lon":5.37801,"is_reserved":false,"is_disabled":false,"rental_uris":{"android":"levelo://app?vid=69654814-baaf-4241-ac24-a59d27dc087f","ios":"levelo://app?vid=69654814-baaf-4241-ac24-a59d27dc087f"},"vehicle_type_id":"4","last_reported":1718554125,"current_range_meters":30400,"station_id":"cplgtobi1sfpv39f0c9g","pricing_plan_id":"cebpf4jnsgd1na2vs0mg"},{"bike_id":"4a41b591-ae6b-4528-83a5-ce751ec7cde6","system_id":"levelo_inurba_marseille","lat":43.26365,"lon":5.37801,"is_reserved":false,"is_disabled":false,"rental_uris":{"android":"levelo://app?vid=4a41b591-ae6b-4528-83a5-ce751ec7cde6","ios":"levelo://app?vid=4a41b591-ae6b-4528-83a5-ce751ec7cde6"},"vehicle_type_id":"4","last_reported":1718554125,"current_range_meters":7600,"station_id":"cplgtobi1sfpv39f0c9g","pricing_plan_id":"cebpf4jnsgd1na2vs0mg"},{"bike_id":"a5483a9a-2f70-4e83-9476-347de5c271e4","system_id":"levelo_inurba_marseille","lat":43.26365,"lon":5.37801,"is_reserved":false,"is_disabled":false,"rental_uris":{"android":"levelo://app?vid=a5483a9a-2f70-4e83-9476-347de5c271e4","ios":"levelo://app?vid=a5483a9a-2f70-4e83-9476-347de5c271e4"},"vehicle_type_id":"4","last_reported":1718554125,"current_range_meters":3200,"station_id":"cplgtobi1sfpv39f0c9g","pricing_plan_id":"cebpf4jnsgd1na2vs0mg"},{"bike_id":"7bae75b8-2c40-470f-b76d-de0f602e8503","system_id":"levelo_inurba_marseille","lat":43.26365,"lon":5.37801,"is_reserved":false,"is_disabled":false,"rental_uris":{"android":"levelo://app?vid=7bae75b8-2c40-470f-b76d-de0f602e8503","ios":"levelo://app?vid=7bae75b8-2c40-470f-b76d-de0f602e8503"},"vehicle_type_id":"4","last_reported":1718554125,"current_range_meters":23600,"station_id":"cplgtobi1sfpv39f0c9g","pricing_plan_id":"cebpf4jnsgd1na2vs0mg"},{"bike_id":"460ae10d-ecae-4a7c-aa2a-ce37ffc9a7b7","system_id":"levelo_inurba_marseille","lat":43.26365,"lon":5.37801,"is_reserved":false,"is_disabled":false,"rental_uris":{"android":"levelo://app?vid=460ae10d-ecae-4a7c-aa2a-ce37ffc9a7b7","ios":"levelo://app?vid=460ae10d-ecae-4a7c-aa2a-ce37ffc9a7b7"},"vehicle_type_id":"4","last_reported":1718554125,"current_range_meters":4400,"station_id":"cplgtobi1sfpv39f0c9g","pricing_plan_id":"cebpf4jnsgd1na2vs0mg"},{"bike_id":"fa6de84b-b730-40d0-a97e-18a11c2c328d","system_id":"levelo_inurba_marseille","lat":43.26365,"lon":5.37801,"is_reserved":false,"is_disabled":false,"rental_uris":{"android":"levelo://app?vid=fa6de84b-b730-40d0-a97e-18a11c2c328d","ios":"levelo://app?vid=fa6de84b-b730-40d0-a97e-18a11c2c328d"},"vehicle_type_id":"4","last_reported":1718554125,"current_range_meters":12800,"station_id":"cplgtobi1sfpv39f0c9g","pricing_plan_id":"cebpf4jnsgd1na2vs0mg"},{"bike_id":"441c31f9-6296-4ba4-b197-030d16ea0b82","system_id":"levelo_inurba_marseille","lat":43.26365,"lon":5.37801,"is_reserved":false,"is_disabled":false,"rental_uris":{"android":"levelo://app?vid=441c31f9-6296-4ba4-b197-030d16ea0b82","ios":"levelo://app?vid=441c31f9-6296-4ba4-b197-030d16ea0b82"},"vehicle_type_id":"4","last_reported":1718554125,"current_range_meters":16400,"station_id":"cplgtobi1sfpv39f0c9g","pricing_plan_id":"cebpf4jnsgd1na2vs0mg"},{"bike_id":"d2a0bb4d-147e-4aaa-bdb4-9230371f66b2","system_id":"levelo_inurba_marseille","lat":43.26365,"lon":5.37801,"is_reserved":false,"is_disabled":false,"rental_uris":{"android":"levelo://app?vid=d2a0bb4d-147e-4aaa-bdb4-9230371f66b2","ios":"levelo://app?vid=d2a0bb4d-147e-4aaa-bdb4-9230371f66b2"},"vehicle_type_id":"4","last_reported":1718554125,"current_range_meters":31200,"station_id":"cplgtobi1sfpv39f0c9g","pricing_plan_id":"cebpf4jnsgd1na2vs0mg"},{"bike_id":"a9fde442-9b7a-44f5-a950-013eed3054ca","system_id":"levelo_inurba_marseille","lat":43.26365,"lon":5.37801,"is_reserved":false,"is_disabled":false,"rental_uris":{"android":"levelo://app?vid=a9fde442-9b7a-44f5-a950-013eed3054ca","ios":"levelo://app?vid=a9fde442-9b7a-44f5-a950-013eed3054ca"},