{"last_updated":1759216307,"ttl":60,"version":"2.2","data":{"bikes":[{"bike_id":"d8c2c2c0-4619-4a5a-9c31-b9f4ec5c9486","system_id":"levelo_inurba_marseille","lat":43.30906,"lon":5.36846,"is_reserved":false,"is_disabled":false,"rental_uris":{"android":"levelo://app?vid=d8c2c2c0-4619-4a5a-9c31-b9f4ec5c9486","ios":"levelo://app?vid=d8c2c2c0-4619-4a5a-9c31-b9f4ec5c9486"},"vehicle_type_id":"4","last_reported":1759216307,"current_range_meters":2800,"station_id":"ce4bgn92rcd13ifvqbvg","pricing_plan_id":"cebpf4jnsgd1na2vs0mg"},{"bike_id":"008f00ef-5d91-4678-8543-b2d7f596f40f","system_id":"levelo_inurba_marseille","lat":43.31196,"lon":5.36878,"is_reserved":false,"is_disabled":false,"rental_uris":{"android":"levelo://app?vid=008f00ef-5d91-4678-8543-b2d7f596f40f","ios":"levelo://app?vid=008f00ef-5d91-4678-8543-b2d7f596f40f"},"vehicle_type_id":"4","last_reported":1759216307,"current_range_meters":2800,"station_id":"ce4bgl92rcd13ifvqbq0","pricing_plan_id":"cebpf4jnsgd1na2vs0mg"},{"bike_id":"ba1cfbb3-555c-4e6c-85db-b50e9395062e","system_id":"levelo_inurba_marseille","lat":43.23872,"lon":5.36546,"is_reserved":false,"is_disabled":false,"rental_uris":{"android":"levelo://app?vid=ba1cfbb3-555c-4e6c-85db-b50e9395062e","ios":"levelo://app?vid=ba1cfbb3-555c-4e6c-85db-b50e9395062e"},"vehicle_type_id":"4","last_reported":1759216307,"current_range_meters":3200,"station_id":"","pricing_plan_id":"cebpf4jnsgd1na2vs0mg"},{"bike_id":"b13dab3a-7f01-486d-b199-38223c9554f3","system_id":"levelo_inurba_marseille","lat":43.271202,"lon":5.403063,"is_reserved":false,"is_disabled":false,"rental_uris":{"android":"levelo://app?vid=b13dab3a-7f01-486d-b199-38223c9554f3","ios":"levelo://app?vid=b13dab3a-7f01-486d-b199-38223c9554f3"},"vehicle_type_id":"4","last_reported":1759216307,"current_range_meters":3200,"station_id":"ce4bhk92rcd13ifvqgc0","pricing_plan_id":"cebpf4jnsgd1na2vs0mg"},{"bike_id":"60ea49ef-1778-4e14-92a6-fcec8012a936","system_id":"levelo_inurba_marseille","lat":43.31224,"lon":5.3684,"is_reserved":false,"is_disabled":false,"rental_uris":{"android":"levelo://app?vid=60ea49ef-1778-4e14-92a6-fcec8012a936","ios":"levelo://app?vid=60ea49ef-1778-4e14-92a6-fcec8012a936"},"vehicle_type_id":"4","last_reported":1759216307,"current_range_meters":3600,"station_id":"ce4bgl92rcd13ifvqbq0","pricing_plan_id":"cebpf4jnsgd1na2vs0mg"},{"bike_id":"95f02cd1-b0cf-4e3d-8708-b9107583e9a0","system_id":"levelo_inurba_marseille","lat":43.274899,"lon":5.424563,"is_reserved":false,"is_disabled":true,"rental_uris":{"android":"levelo://app?vid=95f02cd1-b0cf-4e3d-8708-b9107583e9a0","ios":"levelo://app?vid=95f02cd1-b0cf-4e3d-8708-b9107583e9a0"},"vehicle_type_id":"4","last_reported":1759216307,"current_range_meters":3600,"station_id":"ce4bhn92rcd13ifvqgrg","pricing_plan_id":"cebpf4jnsgd1na2vs0mg"},{"bike_id":"e1ff9719-ef53-4798-8aa0-99c17685103f","system_id":"levelo_inurba_marseille","lat":43.25938,"lon":5.40906,"is_reserved":false,"is_disabled":false,"rental_uris":{"android":"levelo://app?vid=e1ff9719-ef53-4798-8aa0-99c17685103f","ios":"levelo://app?vid=e1ff9719-ef53-4798-8aa0-99c17685103f"},"vehicle_type_id":"4","last_reported":1759216307,"current_range_meters":3600,"station_id":"ce4bhm92rcd13ifvqglg","pricing_plan_id":"cebpf4jnsgd1na2vs0mg"},{"bike_id":"304b0ecb-feb6-48e6-8053-d1de429244ac","system_id":"levelo_inurba_marseille","lat":43.27315,"lon":5.39076,"is_reserved":false,"is_disabled":false,"rental_uris":{"android":"levelo://app?vid=304b0ecb-feb6-48e6-8053-d1de429244ac","ios":"levelo://app?vid=304b0ecb-feb6-48e6-8053-d1de429244ac"},"vehicle_type_id":"4","last_reported":1759216307,"current_range_meters":3600,"station_id":"ce4bhgp2rcd13ifvqfe0","pricing_plan_id":"cebpf4jnsgd1na2vs0mg"},{"bike_id":"162d906b-0c6f-42a6-bfd2-c77d506c417a","system_id":"levelo_inurba_marseille","lat":43.24088,"lon":5.37756,"is_reserved":false,"is_disabled":false,"rental_uris":{"android":"levelo://app?vid=162d906b-0c6f-42a6-bfd2-c77d506c417a","ios":"levelo://app?vid=162d906b-0c6f-42a6-bfd2-c77d506c417a"},"vehicle_type_id":"4","last_reported":1759216307,"current_range_meters":3600,"station_id":"ce4bhnp2rcd13ifvqgvg","pricing_plan_id":"cebpf4jnsgd1na2vs0mg"},{"bike_id":"be7dae0d-94d7-4a0d-89d8-07c528e32b57","system_id":"levelo_inurba_marseille","lat":43.32591,"lon":5.39068,"is_reserved":false,"is_disabled":false,"rental_uris":{"android":"levelo://app?vid=be7dae0d-94d7-4a0d-89d8-07c528e32b57","ios":"levelo://app?vid=be7dae0d-94d7-4a0d-89d8-07c528e32b57"},"vehicle_type_id":"4","last_reported":1759216307,"current_range_meters":3600,"station_id":"","pricing_plan_id":"cebpf4jnsgd1na2vs0mg"},{"bike_id":"2662ede6-d16a-46cd-bcd9-36fbc909ccdd","system_id":"levelo_inurba_marseille","lat":43.27056,"lon":5.42285,"is_reserved":false,"is_disabled":false,"rental_uris":{"android":"levelo://app?vid=2662ede6-d16a-46cd-bcd9-36fbc909ccdd","ios":"levelo://app?vid=2662ede6-d16a-46cd-bcd9-36fbc909ccdd"},"vehicle_type_id":"4","last_reported":1759216307,"current_range_meters":3600,"station_id":"ce4bhk92rcd13ifvqgb0","pricing_plan_id":"cebpf4jnsgd1na2vs0mg"},{"bike_id":"5ed2843f-8a8e-455a-9733-feafd2652673","system_id":"levelo_inurba_marseille","lat":43.3169,"lon":5.40478,"is_reserved":false,"is_disabled":false,"rental_uris":{"android":"levelo://app?vid=5ed2843f-8a8e-455a-9733-feafd2652673","ios":"levelo://app?vid=5ed2843f-8a8e-455a-9733-feafd2652673"},"vehicle_type_id":"4","last_reported":1759216307,"current_range_meters":3600,"station_id":"ce4bh012rcd13ifvqd00","pricing_plan_id":"cebpf4jnsgd1na2vs0mg"},{"bike_id":"8a4a8404-2223-404b-b9d6-fda388efd3eb","system_id":"levelo_inurba_marseille","lat":43.225399,"lon":5.348524,"is_reserved":false,"is_disabled":false,"rental_uris":{"android":"levelo://app?vid=8a4a8404-2223-404b-b9d6-fda388efd3eb","ios":"levelo://app?vid=8a4a8404-2223-404b-b9d6-fda388efd3eb"},"vehicle_type_id":"4","last_reported":1759216307,"current_range_meters":4400,"station_id":"","pricing_plan_id":"cebpf4jnsgd1na2vs0mg"},{"bike_id":"258ab053-1083-4ca9-a32a-1e85f085fc22","system_id":"levelo_inurba_marseille","lat":43.337444,"lon":5.374475,"is_reserved":false,"is_disabled":false,"rental_uris":{"android":"levelo://app?vid=258ab053-1083-4ca9-a32a-1e85f085fc22","ios":"levelo://app?vid=258ab053-1083-4ca9-a32a-1e85f085fc22"},"vehicle_type_id":"4","last_reported":1759216307,"current_range_meters":4400,"station_id":"","pricing_plan_id":"cebpf4jnsgd1na2vs0mg"},{"bike_id":"8eba698c-1343-4776-a7ef-1194c9c853da","system_id":"levelo_inurba_marseille","lat":43.266,"lon":5.39346,"is_reserved":false,"is_disabled":false,"rental_uris":{"android":"levelo://app?vid=8eba698c-1343-4776-a7ef-1194c9c853da","ios":"levelo://app?vid=8eba698c-1343-4776-a7ef-1194c9c853da"},"vehicle_type_id":"4","last_reported":1759216307,"current_range_meters":4800,"station_id":"","pricing_plan_id":"cebpf4jnsgd1na2vs0mg"},{"bike_id":"3996ecbc-663e-462c-aad8-dba27101e7f0","system_id":"levelo_inurba_marseille","lat":43.26496,"lon":5.39537,"is_reserved":false,"is_disabled":false,"rental_uris":{"android":"levelo://app?vid=3996ecbc-663e-462c-aad8-dba27101e7f0","ios":"levelo://app?vid=3996ecbc-663e-462c-aad8-dba27101e7f0"},"vehicle_type_id":"4","last_reported":1759216307,"current_range_meters":4800,"station_id":"ce4bhi12rcd13ifvqfq0","pricing_plan_id":"cebpf4jnsgd1na2vs0mg"},{"bike_id":"8712bbeb-ff58-44fe-b970-636b94bafb9d","system_id":"levelo_inurba_marseille","lat":43.25736,"lon":5.41105,"is_reserved":false,"is_disabled":false,"rental_uris":{"android":"levelo://app?vid=8712bbeb-ff58-44fe-b970-636b94bafb9d","ios":"levelo://app?vid=8712bbeb-ff58-44fe-b970-636b94bafb9d"},"vehicle_type_id":"4","last_reported":1759216307,"current_range_meters":4800,"station_id":"ce4bhkp2rcd13ifvqgd0","pricing_plan_id":"cebpf4jnsgd1na2vs0mg"},{"bike_id":"542eada5-ccbc-4249-a1f4-5ded8636339e","system_id":"levelo_inurba_marseille","lat":43.26566,"lon":5.39017,"is_reserved":false,"is_disabled":false,"rental_uris":{"android":"levelo://app?vid=542eada5-ccbc-4249-a1f4-5ded8636339e","ios":"levelo://app?vid=542eada5-ccbc-4249-a1f4-5ded8636339e"},"vehicle_type_id":"4","last_reported":1759216307,"current_range_meters":4800,"station_id":"ce4bhe12rcd13ifvqf30","pricing_plan_id":"cebpf4jnsgd1na2vs0mg"},{"bike_id":"0a8d7ec1-5dfa-4aa8-9248-76e03b5232aa","system_id":"levelo_inurba_marseille","lat":43.258815,"lon":5.394544,"is_reserved":false,"is_disabled":false,"rental_uris":{"android":"levelo://app?vid=0a8d7ec1-5dfa-4aa8-9248-76e03b5232aa","ios":"levelo://app?vid=0a8d7ec1-5dfa-4aa8-9248-76e03b5232aa"},"vehicle_type_id":"4","last_reported":1759216307,"current_range_meters":4800,"station_id":"ce4bhip2rcd13ifvqft0","pricing_plan_id":"cebpf4jnsgd1na2vs0mg"},{"bike_id":"84d72c12-0911-45ac-ac58-d5b6077e7836","system_id":"levelo_inurba_marseille","lat":43.290318,"lon":5.386574,"is_reserved":false,"is_disabled":false,"rental_uris":{"android":"levelo://app?vid=84d72c12-0911-45ac-ac58-d5b6077e7836","ios":"levelo://app?vid=84d72c12-0911-45ac-ac58-d5b6077e7836"},"vehicle_type_id":"4","last_reported":1759216307,"current_range_meters":5600,"station_id":"ce4bh2p2rcd13ifvqdi0","pricing_plan_id":"cebpf4jnsgd1na2vs0mg"},{"bike_id":"e8259618-1203-4603-a0be-18aab8914e35","system_id":"levelo_inurba_marseille","lat":43.31222,"lon":5.36886,"is_reserved":false,"is_disabled":false,"rental_uris":{"android":"levelo://app?vid=e8259618-1203-4603-a0be-18aab8914e35","ios":"levelo://app?vid=e8259618-1203-4603-a0be-18aab8914e35"},"vehicle_type_id":"4","last_reported":1759216307,"current_range_meters":4800,"station_id":"ce4bgl92rcd13ifvqbq0","pricing_plan_id":"cebpf4jnsgd1na2vs0mg"},{"bike_id":"8b353c9e-13c5-42ee-a76f-ccbd6269a3dc","system_id":"levelo_inurba_marseille","lat":43.30444,"lon":5.36689,"is_reserved":false,"is_disabled":false,"rental_uris":{"android":"levelo://app?vid=8b353c9e-13c5-42ee-a76f-ccbd6269a3dc","ios":"levelo://app?vid=8b353c9e-13c5-42ee-a76f-ccbd6269a3dc"},"vehicle_type_id":"4","last_reported":1759216307,"current_range_meters":5600,"station_id":"","pricing_plan_id":"cebpf4jnsgd1na2vs0mg"},{"bike_id":"2c6518be-b3f0-42d2-93c9-c1de9e54885f","system_id":"levelo_inurba_marseille","lat":43.29227,"lon":5.38219,"is_reserved":false,"is_disabled":false,"rental_uris":{"android":"levelo://app?vid=2c6518be-b3f0-42d2-93c9-c1de9e54885f","ios":"levelo://app?vid=2c6518be-b3f0-42d2-93c9-c1de9e54885f"},"vehicle_type_id":"4","last_reported":1759216307,"current_range_meters":5600,"station_id":"","pricing_plan_id":"cebpf4jnsgd1na2vs0mg"},{"bike_id":"ba04909b-0d7c-4892-b859-e0ca7e0fbb9f","system_id":"levelo_inurba_marseille","lat":43.27358,"lon":5.42395,"is_reserved":false,"is_disabled":false,"rental_uris":{"android":"levelo://app?vid=ba04909b-0d7c-4892-b859-e0ca7e0fbb9f","ios":"levelo://app?vid=ba04909b-0d7c-4892-b859-e0ca7e0fbb9f"},"vehicle_type_id":"4","last_reported":1759216307,"current_range_meters":5600,"station_id":"","pricing_plan_id":"cebpf4jnsgd1na2vs0mg"},{"bike_id":"1dad2113-89e2-44fc-a0b6-ddd6a09baff1","system_id":"levelo_inurba_marseille","lat":43.337444,"lon":5.374475,"is_reserved":false,"is_disabled":false,"rental_uris":{"android":"levelo://app?vid=1dad2113-89e2-44fc-a0b6-ddd6a09baff1","ios":"levelo://app?vid=1dad2113-89e2-44fc-a0b6-ddd6a09baff1"},"vehicle_type_id":"4","last_reported":1759216307,"current_range_meters":5600,"station_id":"","pricing_plan_id":"cebpf4jnsgd1na2vs0mg"},{"bike_id":"20c97ce0-7e3e-46a1-849b-43d5d5a0a0f6","system_id":"levelo_inurba_marseille","lat":43.25004,"lon":5.38934,"is_reserved":false,"is_disabled":false,"rental_uris":{"android":"levelo://app?vid=20c97ce0-7e3e-46a1-849b-43d5d5a0a0f6","ios":"levelo://app?vid=20c97ce0-7e3e-46a1-849b-43d5d5a0a0f6"},"vehicle_type_id":"4","last_reported":1759216307,"current_range_meters":6000,"station_id":"ce4bhgp2rcd13ifvqfd0","pricing_plan_id":"cebpf4jnsgd1na2vs0mg"},{"bike_id":"da0f26e9-0bdb-4063-b9f5-dcfb6728a88e","system_id":"levelo_inurba_marseille","lat":43.22935,"lon":5.35408,"is_reserved":false,"is_disabled":false,"rental_uris":{"android":"levelo://app?vid=da0f26e9-0bdb-4063-b9f5-dcfb6728a88e","ios":"levelo://app?vid=da0f26e9-0bdb-4063-b9f5-dcfb6728a88e"},"vehicle_type_id":"4","last_reported":1759216307,"current_range_meters":6000,"station_id":"cpo3532slgdg3j2ikp40","pricing_plan_id":"cebpf4jnsgd1na2vs0mg"},{"bike_id":"f0c40e5f-3384-41f3-8cc9-5de6548adce7","system_id":"levelo_inurba_marseille","lat":43.25944,"lon":5.40949,"is_reserved":false,"is_disabled":false,"rental_uris":{"android":"levelo://app?vid=f0c40e5f-3384-41f3-8cc9-5de6548adce7","ios":"levelo://app?vid=f0c40e5f-3384-41f3-8cc9-5de6548adce7"},"vehicle_type_id":"4","last_reported":1759216307,"current_range_meters":6000,"station_id":"ce4bhm92rcd13ifvqglg","pricing_plan_id":"cebpf4jnsgd1na2vs0mg"},{"bike_id":"511cc80f-04a6-4a9f-afdd-004129d93b1f","system_id":"levelo_inurba_marseille","lat":43.2662,"lon":5.39383,"is_reserved":false,"is_disabled":false,"rental_uris":{"android":"levelo://app?vid=511cc80f-04a6-4a9f-afdd-004129d93b1f","ios":"levelo://app?vid=511cc80f-04a6-4a9f-afdd-004129d93b1f"},"vehicle_type_id":"4","last_reported":1759216307,"current_range_meters":6400,"station_id":"","pricing_plan_id":"cebpf4jnsgd1na2vs0mg"},{"bike_id":"a3d9178f-11e9-459b-8824-e5c615f912af","system_id":"levelo_inurba_marseille","lat":43.24643,"lon":5.38918,"is_reserved":false,"is_disabled":false,"rental_uris":{"android":"levelo://app?vid=a3d9178f-11e9-459b-8824-e5c615f912af","ios":"levelo://app?vid=a3d9178f-11e9-459b-8824-e5c615f912af"},"vehicle_type_id":"4","last_reported":1759216307,"current_range_meters":6400,"station_id":"ce4bhg12rcd13ifvqf60","pricing_plan_id":"cebpf4jnsgd1na2vs0mg"},{"bike_id":"4622bdc5-838e-4119-abbc-fc79b55821ec","system_id":"levelo_inurba_marseille","lat":43.27206,"lon":5.39189,"is_reserved":false,"is_disabled":false,"rental_uris":{"android":"levelo://app?vid=4622bdc5-838e-4119-abbc-fc79b55821ec","ios":"levelo://app?vid=4622bdc5-838e-4119-abbc-fc79b55821ec"},"vehicle_type_id":"4","last_reported":1759216307,"current_range_meters":6400,"station_id":"ce4bhhp2rcd13ifvqfm0","pricing_plan_id":"cebpf4jnsgd1na2vs0mg"},{"bike_id":"3bcb0cc7-32f1-459a-a1c2-e68a9326c0e3","system_id":"levelo_inurba_marseille","lat":43.30195,"lon":5.36621,"is_reserved":false,"is_disabled":false,"rental_uris":{"android":"levelo://app?vid=3bcb0cc7-32f1-459a-a1c2-e68a9326c0e3","ios":"levelo://app?vid=3bcb0cc7-32f1-459a-a1c2-e68a9326c0e3"},"vehicle_type_id":"4","last_reported":1759216307,"current_range_meters":6400,"station_id":"ce4bgrh2rcd13ifvqc8g","pricing_plan_id":"cebpf4jnsgd1na2vs0mg"},{"bike_id":"ca660db5-13a2-4b17-89f6-c4a43f402701","system_id":"levelo_inurba_marseille","lat":43.31863,"lon":5.37059,"is_reserved":false,"is_disabled":false,"rental_uris":{"android":"levelo://app?vid=ca660db5-13a2-4b17-89f6-c4a43f402701","ios":"levelo://app?vid=ca660db5-13a2-4b17-89f6-c4a43f402701"},"vehicle_type_id":"4","last_reported":1759216307,"current_range_meters":6800,"station_id":"","pricing_plan_id":"cebpf4jnsgd1na2vs0mg"},{"bike_id":"cf9fc5a0-1669-43c7-bec9-a76178daa208","system_id":"levelo_inurba_marseille","lat":43.29988,"lon":5.37188,"is_reserved":false,"is_disabled":false,"rental_uris":{"android":"levelo://app?vid=cf9fc5a0-1669-43c7-bec9-a76178daa208","ios":"levelo://app?vid=cf9fc5a0-1669-43c7-bec9-a76178daa208"},"vehicle_type_id":"4","last_reported":1759216307,"current_range_meters":6400,"station_id":"ce4bgr92rcd13ifvqc7g","pricing_plan_id":"cebpf4jnsgd1na2vs0mg"},{"bike_id":"35e8f722-b82a-4247-beb8-7e2827829ce6","system_id":"levelo_inurba_marseille","lat":43.32405,"lon":5.3911,"is_reserved":false,"is_disabled":false,"rental_uris":{"android":"levelo://app?vid=35e8f722-b82a-4247-beb8-7e2827829ce6","ios":"levelo://app?vid=35e8f722-b82a-4247-beb8-7e2827829ce6"},"vehicle_type_id":"4","last_reported":1759216307,"current_range_meters":6800,"station_id":"","pricing_plan_id":"cebpf4jnsgd1na2vs0mg"},{"bike_id":"e5378695-fba9-432a-9cfb-3b5b05e40fec","system_id":"levelo_inurba_marseille","lat":43.337986,"lon":5.374304,"is_reserved":false,"is_disabled":false,"rental_uris":{"android":"levelo://app?vid=e5378695-fba9-432a-9cfb-3b5b05e40fec","ios":"levelo://app?vid=e5378695-fba9-432a-9cfb-3b5b05e40fec"},"vehicle_type_id":"4","last_reported":1759216307,"current_range_meters":6800,"station_id":"","pricing_plan_id":"cebpf4jnsgd1na2vs0mg"},{"bike_id":"06a715f3-591e-403a-a057-4211700307e5","system_id":"levelo_inurba_marseille","lat":43.290814,"lon":5.371658,"is_reserved":false,"is_disabled":false,"rental_uris":{"android":"levelo://app?vid=06a715f3-591e-403a-a057-4211700307e5","ios":"levelo://app?vid=06a715f3-591e-403a-a057-4211700307e5"},"vehicle_type_id":"4","last_reported":1759216307,"current_range_meters":7200,"station_id":"ce4bh5p2rcd13ifvqe4g","pricing_plan_id":"cebpf4jnsgd1na2vs0mg"},{"bike_id":"d7e262e0-3ac1-485f-a684-482aea8bd2a0","system_id":"levelo_inurba_marseille","lat":43.290348,"lon":5.386473,"is_reserved":false,"is_disabled":false,"rental_uris":{"android":"levelo://app?vid=d7e262e0-3ac1-485f-a684-482aea8bd2a0","ios":"levelo://app?vid=d7e262e0-3ac1-485f-a684-482aea8bd2a0"},"vehicle_type_id":"4","last_reported":1759216307,"current_range_meters":4800,"station_id":"ce4bh4p2rcd13ifvqe0g","pricing_plan_id":"cebpf4jnsgd1na2vs0mg"},{"bike_id":"f5e2288f-3e9a-45b2-9cd8-3842a1745526","system_id":"levelo_inurba_marseille","lat":43.27317,"lon":5.39088,"is_reserved":false,"is_disabled":false,"rental_uris":{"android":"levelo://app?vid=f5e2288f-3e9a-45b2-9cd8-3842a1745526","ios":"levelo://app?vid=f5e2288f-3e9a-45b2-9cd8-3842a1745526"},"vehicle_type_id":"4","last_reported":1759216307,"current_range_meters":7200,"station_id":"ce4bhgp2rcd13ifvqfe0","pricing_plan_id":"cebpf4jnsgd1na2vs0mg"},{"bike_id":"2e5ad7ea-87a2-47da-88db-d8ccbba661ea","system_id":"levelo_inurba_marseille","lat":43.26495,"lon":5.39537,"is_reserved":false,"is_disabled":false,"rental_uris":{"android":"levelo://app?vid=2e5ad7ea-87a2-47da-88db-d8ccbba661ea","ios":"levelo://app?vid=2e5ad7ea-87a2-47da-88db-d8ccbba661ea"},"vehicle_type_id":"4","last_reported":1759216307,"current_range_meters":8000,"station_id":"ce4bhi12rcd13ifvqfq0","pricing_plan_id":"cebpf4jnsgd1na2vs0mg"},{"bike_id":"b17feaf8-f1f6-4569-a6fc-fc60277ff4ff","system_id":"levelo_inurba_marseille","lat":43.32372,"lon":5.36767,"is_reserved":false,"is_disabled":true,"rental_uris":{"android":"levelo://app?vid=b17feaf8-f1f6-4569-a6fc-fc60277ff4ff","ios":"levelo://app?vid=b17feaf8-f1f6-4569-a6fc-fc60277ff4ff"},"vehicle_type_id":"4","last_reported":1759216307,"current_range_meters":8000,"station_id":"ce4bhsh2rcd13ifvqi2g","pricing_plan_id":"cebpf4jnsgd1na2vs0mg"},{"bike_id":"80b98ce0-3233-47ce-84db-722943723d1e","system_id":"levelo_inurba_marseille","lat":43.269329,"lon":5.38928,"is_reserved":false,"is_disabled":false,"rental_uris":{"android":"levelo://app?vid=80b98ce0-3233-47ce-84db-722943723d1e","ios":"levelo://app?vid=80b98ce0-3233-47ce-84db-722943723d1e"},"vehicle_type_id":"4","last_reported":1759216307,"current_range_meters":8000,"station_id":"","pricing_plan_id":"cebpf4jnsgd1na2vs0mg"},{"bike_id":"03350417-1098-4d6c-b8fe-9e64358744bf","system_id":"levelo_inurba_marseille","lat":43.31134,"lon":5.37592,"is_reserved":false,"is_disabled":true,"rental_uris":{"android":"levelo://app?vid=03350417-1098-4d6c-b8fe-9e64358744bf","ios":"levelo://app?vid=03350417-1098-4d6c-b8fe-9e64358744bf"},"vehicle_type_id":"4","last_reported":1759216307,"current_range_meters":8000,"station_id":"","pricing_plan_id":"cebpf4jnsgd1na2vs0mg"},{"bike_id":"47ca4c0b-cb09-4bd8-a8a9-60129c4caf1e","system_id":"levelo_inurba_marseille","lat":43.34149,"lon":5.40902,"is_reserved":false,"is_disabled":false,"rental_uris":{"android":"levelo://app?vid=47ca4c0b-cb09-4bd8-a8a9-60129c4caf1e","ios":"levelo://app?vid=47ca4c0b-cb09-4bd8-a8a9-60129c4caf1e"},"vehicle_type_id":"4","last_reported":1759216307,"current_range_meters":8400,"station_id":"ce4bhqh2rcd13ifvqhlg","pricing_plan_id":"cebpf4jnsgd1na2vs0mg"},{"bike_id":"29fb0313-96d0-4699-a2b9-d9bfae768dba","system_id":"levelo_inurba_marseille","lat":43.28146,"lon":5.42645,"is_reserved":false,"is_disabled":true,"rental_uris":{"android":"levelo://app?vid=29fb0313-96d0-4699-a2b9-d9bfae768dba","ios":"levelo://app?vid=29fb0313-96d0-4699-a2b9-d9bfae768dba"},"vehicle_type_id":"4","last_reported":1759216307,"current_range_meters":8400,"station_id":"ce4bhnh2rcd13ifvqgug","pricing_plan_id":"cebpf4jnsgd1na2vs0mg"},{"bike_id":"59847cea-0943-4731-8ec7-bb04c2d80f25","system_id":"levelo_inurba_marseille","lat":43.29079,"lon":5.37167,"is_reserved":false,"is_disabled":false,"rental_uris":{"android":"levelo://app?vid=59847cea-0943-4731-8ec7-bb04c2d80f25","ios":"levelo://app?vid=59847cea-0943-4731-8ec7-bb04c2d80f25"},"vehicle_type_id":"4","last_reported":1759216307,"current_range_meters":8400,"station_id":"ce4bh5p2rcd13ifvqe4g","pricing_plan_id":"cebpf4jnsgd1na2vs0mg"},{"bike_id":"ea59b303-6900-42ad-9e79-5b0f95bedd6c","system_id":"levelo_inurba_marseille","lat":43.30436,"lon":5.3687,"is_reserved":false,"is_disabled":false,"rental_uris":{"android":"levelo://app?vid=ea59b303-6900-42ad-9e79-5b0f95bedd6c","ios":"levelo://app?vid=ea59b303-6900-42ad-9e79-5b0f95bedd6c"},"vehicle_type_id":"4","last_reported":1759216307,"current_range_meters":8400,"station_id":"","pricing_plan_id":"cebpf4jnsgd1na2vs0mg"},{"bike_id":"b10e61b7-aef6-4b5c-a8bb-6ea75dcb2a7e","system_id":"levelo_inurba_marseille","lat":43.26954,"lon":5.38638,"is_reserved":false,"is_disabled":false,"rental_uris":{"android":"levelo://app?vid=b10e61b7-aef6-4b5c-a8bb-6ea75dcb2a7e","ios":"levelo://app?vid=b10e61b7-aef6-4b5c-a8bb-6ea75dcb2a7e"},"vehicle_type_id":"4","last_reported":1759216307,"current_range_meters":8400,"station_id":"ce4bhh92rcd13ifvqfh0","pricing_plan_id":"cebpf4jnsgd1na2vs0mg"},{"bike_id":"4d768ad8-37fe-4441-aa43-a9b8121f3aee","system_id":"levelo_inurba_marseille","lat":43.30307,"lon":5.369014,"is_reserved":false,"is_disabled":false,"rental_uris":{"android":"levelo://app?vid=4d768ad8-37fe-4441-aa43-a9b8121f3aee","ios":"levelo://app?vid=4d768ad8-37fe-4441-aa43-a9b8121f3aee"},"vehicle_type_id":"4","last_reported":1759216307,"current_range_meters":8400,"station_id":"ce4bgqh2rcd13ifvqc5g","pricing_plan_id":"cebpf4jnsgd1na2vs0mg"},{"bike_id":"ee96a502-9b76-492e-840a-498b02aefe72","system_id":"levelo_inurba_marseille","lat":43.32358,"lon":5.39224,"is_reserved":false,"is_disabled":false,"rental_uris":{"android":"levelo://app?vid=ee96a502-9b76-492e-840a-498b02aefe72","ios":"levelo://app?vid=ee96a502-9b76-492e-840a-498b02aefe72"},"vehicle_type_id":"4","last_reported":1759216307,"current_range_meters":8800,"station_id":"","pricing_plan_id":"cebpf4jnsgd1na2vs0mg"},{"bike_id":"9c4235da-d3d0-4056-aa6b-c6aa6e8e7367","system_id":"levelo_inurba_marseille","lat":43.30686,"lon":5.37493,"is_reserved":false,"is_disabled":false,"rental_uris":{"android":"levelo://app?vid=9c4235da-d3d0-4056-aa6b-c6aa6e8e7367","ios":"levelo://app?vid=9c4235da-d3d0-4056-aa6b-c6aa6e8e7367"},"vehicle_type_id":"4","last_reported":1759216307,"current_range_meters":8800,"station_id":"","pricing_plan_id":"cebpf4jnsgd1na2vs0mg"},{"bike_id":"5901a4c6-8531-46a9-95c5-8d9acf0e1be4","system_id":"levelo_inurba_marseille","lat":43.30889,"lon":5.37201,"is_reserved":false,"is_disabled":false,"rental_uris":{"android":"levelo://app?vid=5901a4c6-8531-46a9-95c5-8d9acf0e1be4","ios":"levelo://app?vid=5901a4c6-8531-46a9-95c5-8d9acf0e1be4"},"vehicle_type_id":"4","last_reported":1759216307,"current_range_meters":8800,"station_id":"ce4bguh2rcd13ifvqckg","pricing_plan_id":"cebpf4jnsgd1na2vs0mg"},{"bike_id":"ce5e157e-4ef2-4c41-9b3b-54d3eecbfa45","system_id":"levelo_inurba_marseille","lat":43.22542,"lon":5.34835,"is_reserved":false,"is_disabled":false,"rental_uris":{"android":"levelo://app?vid=ce5e157e-4ef2-4c41-9b3b-54d3eecbfa45","ios":"levelo://app?vid=ce5e157e-4ef2-4c41-9b3b-54d3eecbfa45"},"vehicle_type_id":"4","last_reported":1759216307,"current_range_meters":8800,"station_id":"","pricing_plan_id":"cebpf4jnsgd1na2vs0mg"},{"bike_id":"6537c04b-d3d7-49e0-be47-85f19d8f44cb","system_id":"levelo_inurba_marseille","lat":43.30145,"lon":5.37417,"is_reserved":false,"is_disabled":false,"rental_uris":{"android":"levelo://app?vid=6537c04b-d3d7-49e0-be47-85f19d8f44cb","ios":"levelo://app?vid=6537c04b-d3d7-49e0-be47-85f19d8f44cb"},"vehicle_type_id":"4","last_reported":1759216307,"current_range_meters":9200,"station_id":"ce4bgs92rcd13ifvqcc0","pricing_plan_id":"cebpf4jnsgd1na2vs0mg"},{"bike_id":"a2411a4b-e5ef-475f-b05a-622f2fcb8ba4","system_id":"levelo_inurba_marseille","lat":43.31492,"lon":5.37278,"is_reserved":false,"is_disabled":false,"rental_uris":{"android":"levelo://app?vid=a2411a4b-e5ef-475f-b05a-622f2fcb8ba4","ios":"levelo://app?vid=a2411a4b-e5ef-475f-b05a-622f2fcb8ba4"},"vehicle_type_id":"4","last_reported":1759216307,"current_range_meters":9200,"station_id":"ce4bgt12rcd13ifvqcd0","pricing_plan_id":"cebpf4jnsgd1na2vs0mg"},{"bike_id":"831e6a54-bde0-4f77-80bc-8857d66d3744","system_id":"levelo_inurba_marseille","lat":43.27957,"lon":5.41061,"is_reserved":false,"is_disabled":true,"rental_uris":{"android":"levelo://app?vid=831e6a54-bde0-4f77-80bc-8857d66d3744","ios":"levelo://app?vid=831e6a54-bde0-4f77-80bc-8857d66d3744"},"vehicle_type_id":"4","last_reported":1759216307,"current_range_meters":9200,"station_id":"ce4bhnp2rcd13ifvqh0g","pricing_plan_id":"cebpf4jnsgd1na2vs0mg"},{"bike_id":"10176dad-e77f-4f18-8cea-556decfc72aa","system_id":"levelo_inurba_marseille","lat":43.21761,"lon":5.34622,"is_reserved":false,"is_disabled":true,"rental_uris":{"android":"levelo://app?vid=10176dad-e77f-4f18-8cea-556decfc72aa","ios":"levelo://app?vid=10176dad-e77f-4f18-8cea-556decfc72aa"},"vehicle_type_id":"4","last_reported":1759216307,"current_range_meters":9200,"station_id":"st_cvj6r9ubvosntc0bgbag","pricing_plan_id":"cebpf4jnsgd1na2vs0mg"},{"bike_id":"67092e2c-52cc-4249-a43a-c4912dce65dc","system_id":"levelo_inurba_marseille","lat":43.26787,"lon":5.3943,"is_reserved":false,"is_disabled":false,"rental_uris":{"android":"levelo://app?vid=67092e2c-52cc-4249-a43a-c4912dce65dc","ios":"levelo://app?vid=67092e2c-52cc-4249-a43a-c4912dce65dc"},"vehicle_type_id":"4","last_reported":1759216307,"current_range_meters":9200,"station_id":"ce4bhh12rcd13ifvqfg0","pricing_plan_id":"cebpf4jnsgd1na2vs0mg"},{"bike_id":"7952d0c5-c3b4-4c29-bacd-f59ef155894d","system_id":"levelo_inurba_marseille","lat":43.309025,"lon":5.381673,"is_reserved":false,"is_disabled":false,"rental_uris":{"android":"levelo://app?vid=7952d0c5-c3b4-4c29-bacd-f59ef155894d","ios":"levelo://app?vid=7952d0c5-c3b4-4c29-bacd-f59ef155894d"},"vehicle_type_id":"4","last_reported":1759216307,"current_range_meters":9200,"station_id":"","pricing_plan_id":"cebpf4jnsgd1na2vs0mg"},{"bike_id":"3d96bc35-d2e8-4a5c-8ce3-7c235a24c51a","system_id":"levelo_inurba_marseille","lat":43.24083,"lon":5.37749,"is_reserved":false,"is_disabled":false,"rental_uris":{"android":"levelo://app?vid=3d96bc35-d2e8-4a5c-8ce3-7c235a24c51a","ios":"levelo://app?vid=3d96bc35-d2e8-4a5c-8ce3-7c235a24c51a"},"vehicle_type_id":"4","last_reported":1759216307,"current_range_meters":9200,"station_id":"ce4bhnp2rcd13ifvqgvg","pricing_plan_id":"cebpf4jnsgd1na2vs0mg"},{"bike_id":"c47f5c3e-1ff3-43b7-b740-1c081ef57305","system_id":"levelo_inurba_marseille","lat":43.29675,"lon":5.37648,"is_reserved":false,"is_disabled":false,"rental_uris":{"android":"levelo://app?vid=c47f5c3e-1ff3-43b7-b740-1c081ef57305","ios":"levelo://app?vid=c47f5c3e-1ff3-43b7-b740-1c081ef57305"},"vehicle_type_id":"4","last_reported":1759216307,"current_range_meters":9600,"station_id":"ce4bgkh2rcd13ifvqbl0","pricing_plan_id":"cebpf4jnsgd1na2vs0mg"},{"bike_id":"f6f72442-aa34-436b-80bd-197e016cb4b8","system_id":"levelo_inurba_marseille","lat":43.29273,"lon":5.37635,"is_reserved":false,"is_disabled":false,"rental_uris":{"android":"levelo://app?vid=f6f72442-aa34-436b-80bd-197e016cb4b8","ios":"levelo://app?vid=f6f72442-aa34-436b-80bd-197e016cb4b8"},"vehicle_type_id":"4","last_reported":1759216307,"current_range_meters":9600,"station_id":"ce4bgi12rcd13ifvqb80","pricing_plan_id":"cebpf4jnsgd1na2vs0mg"},{"bike_id":"0030cf69-75f8-4719-a372-efc52bdb748a","system_id":"levelo_inurba_marseille","lat":43.32927,"lon":5.45443,"is_reserved":false,"is_disabled":true,"rental_uris":{"android":"levelo://app?vid=0030cf69-75f8-4719-a372-efc52bdb748a","ios":"levelo://app?vid=0030cf69-75f8-4719-a372-efc52bdb748a"},"vehicle_type_id":"4","last_reported":1759216307,"current_range_meters":9600,"station_id":"","pricing_plan_id":"cebpf4jnsgd1na2vs0mg"},{"bike_id":"7dc10ae7-7366-4aef-afb3-946c513f88ef","system_id":"levelo_inurba_marseille","lat":43.28011,"lon":5.36405,"is_reserved":false,"is_disabled":false,"rental_uris":{"android":"levelo://app?vid=7dc10ae7-7366-4aef-afb3-946c513f88ef","ios":"levelo://app?vid=7dc10ae7-7366-4aef-afb3-946c513f88ef"},"vehicle_type_id":"4","last_reported":1759216307,"current_range_meters":9600,"station_id":"ce4bha12rcd13ifvqef0","pricing_plan_id":"cebpf4jnsgd1na2vs0mg"},{"bike_id":"c627b34a-8e81-4438-af3b-4fd0aab1c160","system_id":"levelo_inurba_marseille","lat":43.29663,"lon":5.3601,"is_reserved":false,"is_disabled":false,"rental_uris":{"android":"levelo://app?vid=c627b34a-8e81-4438-af3b-4fd0aab1c160","ios":"levelo://app?vid=c627b34a-8e81-4438-af3b-4fd0aab1c160"},"vehicle_type_id":"4","last_reported":1759216307,"current_range_meters":9600,"station_id":"","pricing_plan_id":"cebpf4jnsgd1na2vs0mg"},{"bike_id":"0eda2527-f3ce-4552-96df-04220f592c11","system_id":"levelo_inurba_marseille","lat":43.2119,"lon":5.35072,"is_reserved":false,"is_disabled":false,"rental_uris":{"android":"levelo://app?vid=0eda2527-f3ce-4552-96df-04220f592c11","ios":"levelo://app?vid=0eda2527-f3ce-4552-96df-04220f592c11"},"vehicle_type_id":"4","last_reported":1759216307,"current_range_meters":9600,"station_id":"st_cvj6sg6p6f1abm77japg","pricing_plan_id":"cebpf4jnsgd1na2vs0mg"},{"bike_id":"a07a513e-e5a9-4481-8592-d991379bc662","system_id":"levelo_inurba_marseille","lat":43.33735,"lon":5.37481,"is_reserved":false,"is_disabled":false,"rental_uris":{"android":"levelo://app?vid=a07a513e-e5a9-4481-8592-d991379bc662","ios":"levelo://app?vid=a07a513e-e5a9-4481-8592-d991379bc662"},"vehicle_type_id":"4","last_reported":1759216307,"current_range_meters":9600,"station_id":"","pricing_plan_id":"cebpf4jnsgd1na2vs0mg"},{"bike_id":"385fa573-6758-43e7-a2f4-f27be30ea572","system_id":"levelo_inurba_marseille","lat":43.32092,"lon":5.36776,"is_reserved":false,"is_disabled":false,"rental_uris":{"android":"levelo://app?vid=385fa573-6758-43e7-a2f4-f27be30ea572","ios":"levelo://app?vid=385fa573-6758-43e7-a2f4-f27be30ea572"},"vehicle_type_id":"4","last_reported":1759216307,"current_range_meters":10000,"station_id":"ce4bhrh2rcd13ifvqhug","pricing_plan_id":"cebpf4jnsgd1na2vs0mg"},{"bike_id":"d349fb08-7cb1-4196-8d05-a7f856b77b49","system_id":"levelo_inurba_marseille","lat":43.24997,"lon":5.38949,"is_reserved":false,"is_disabled":false,"rental_uris":{"android":"levelo://app?vid=d349fb08-7cb1-4196-8d05-a7f856b77b49","ios":"levelo://app?vid=d349fb08-7cb1-4196-8d05-a7f856b77b49"},"vehicle_type_id":"4","last_reported":1759216307,"current_range_meters":10000,"station_id":"ce4bhgp2rcd13ifvqfd0","pricing_plan_id":"cebpf4jnsgd1na2vs0mg"},{"bike_id":"3cb33bb3-a99b-4c27-84f9-510941a45f04","system_id":"levelo_inurba_marseille","lat":43.29844,"lon":5.36276,"is_reserved":false,"is_disabled":false,"rental_uris":{"android":"levelo://app?vid=3cb33bb3-a99b-4c27-84f9-510941a45f04","ios":"levelo://app?vid=3cb33bb3-a99b-4c27-84f9-510941a45f04"},"vehicle_type_id":"4","last_reported":1759216307,"current_range_meters":10000,"station_id":"ce4bgpp2rcd13ifvqc3g","pricing_plan_id":"cebpf4jnsgd1na2vs0mg"},{"bike_id":"a710eb27-f43d-434d-b850-f9305cf3e1b4","system_id":"levelo_inurba_marseille","lat":43.31222,"lon":5.36862,"is_reserved":false,"is_disabled":false,"rental_uris":{"android":"levelo://app?vid=a710eb27-f43d-434d-b850-f9305cf3e1b4","ios":"levelo://app?vid=a710eb27-f43d-434d-b850-f9305cf3e1b4"},"vehicle_type_id":"4","last_reported":1759216307,"current_range_meters":10800,"station_id":"ce4bgl92rcd13ifvqbq0","pricing_plan_id":"cebpf4jnsgd1na2vs0mg"},{"bike_id":"a9640cf2-0cdb-4806-92f8-6ad4732806f1","system_id":"levelo_inurba_marseille","lat":43.295248,"lon":5.37505,"is_reserved":false,"is_disabled":false,"rental_uris":{"android":"levelo://app?vid=a9640cf2-0cdb-4806-92f8-6ad4732806f1","ios":"levelo://app?vid=a9640cf2-0cdb-4806-92f8-6ad4732806f1"},"vehicle_type_id":"4","last_reported":1759216307,"current_range_meters":10800,"station_id":"","pricing_plan_id":"cebpf4jnsgd1na2vs0mg"},{"bike_id":"768e4cda-3f27-431e-b03f-1cdd1bdadbaf","system_id":"levelo_inurba_marseille","lat":43.2481,"lon":5.37461,"is_reserved":false,"is_disabled":false,"rental_uris":{"android":"levelo://app?vid=768e4cda-3f27-431e-b03f-1cdd1bdadbaf","ios":"levelo://app?vid=768e4cda-3f27-431e-b03f-1cdd1bdadbaf"},"vehicle_type_id":"4","last_reported":1759216307,"current_range_meters":10800,"station_id":"ce4bhgh2rcd13ifvqfb0","pricing_plan_id":"cebpf4jnsgd1na2vs0mg"},{"bike_id":"189b53e1-836b-4793-84f2-afedb12e9774","system_id":"levelo_inurba_marseille","lat":43.30903,"lon":5.36845,"is_reserved":false,"is_disabled":false,"rental_uris":{"android":"levelo://app?vid=189b53e1-836b-4793-84f2-afedb12e9774","ios":"levelo://app?vid=189b53e1-836b-4793-84f2-afedb12e9774"},"vehicle_type_id":"4","last_reported":1759216307,"current_range_meters":10800,"station_id":"ce4bgn92rcd13ifvqbvg","pricing_plan_id":"cebpf4jnsgd1na2vs0mg"},{"bike_id":"209c5003-4ecd-4c76-8775-f5c95681af76","system_id":"levelo_inurba_marseille","lat":43.32043,"lon":5.41551,"is_reserved":false,"is_disabled":false,"rental_uris":{"android":"levelo://app?vid=209c5003-4ecd-4c76-8775-f5c95681af76","ios":"levelo://app?vid=209c5003-4ecd-4c76-8775-f5c95681af76"},"vehicle_type_id":"4","last_reported":1759216307,"current_range_meters":10000,"station_id":"ce4bhq92rcd13ifvqhkg","pricing_plan_id":"cebpf4jnsgd1na2vs0mg"},{"bike_id":"498de633-1978-409b-aa35-b617d56ba506","system_id":"levelo_inurba_marseille","lat":43.289401,"lon":5.366452,"is_reserved":false,"is_disabled":false,"rental_uris":{"android":"levelo://app?vid=498de633-1978-409b-aa35-b617d56ba506","ios":"levelo://app?vid=498de633-1978-409b-aa35-b617d56ba506"},"vehicle_type_id":"4","last_reported":1759216307,"current_range_meters":10800,"station_id":"ce4bhap2rcd13ifvqek0","pricing_plan_id":"cebpf4jnsgd1na2vs0mg"},{"bike_id":"78edd212-3bd8-4a45-bced-089e3907902a","system_id":"levelo_inurba_marseille","lat":43.32735,"lon":5.42368,"is_reserved":false,"is_disabled":true,"rental_uris":{"android":"levelo://app?vid=78edd212-3bd8-4a45-bced-089e3907902a","ios":"levelo://app?vid=78edd212-3bd8-4a45-bced-089e3907902a"},"vehicle_type_id":"4","last_reported":1759216307,"current_range_meters":11200,"station_id":"","pricing_plan_id":"cebpf4jnsgd1na2vs0mg"},{"bike_id":"3db05f14-0c46-46d7-a37a-56f2ebb5ba9a","system_id":"levelo_inurba_marseille","lat":43.33603,"lon":5.410412,"is_reserved":false,"is_disabled":false,"rental_uris":{"android":"levelo://app?vid=3db05f14-0c46-46d7-a37a-56f2ebb5ba9a","ios":"levelo://app?vid=3db05f14-0c46-46d7-a37a-56f2ebb5ba9a"},"vehicle_type_id":"4","last_reported":1759216307,"current_range_meters":11200,"station_id":"ce4bhqh2rcd13ifvqhmg","pricing_plan_id":"cebpf4jnsgd1na2vs0mg"},{"bike_id":"aa123961-c527-4db0-9350-7d548f67905a","system_id":"levelo_inurba_marseille","lat":43.27946,"lon":5.38753,"is_reserved":false,"is_disabled":false,"rental_uris":{"android":"levelo://app?vid=aa123961-c527-4db0-9350-7d548f67905a","ios":"levelo://app?vid=aa123961-c527-4db0-9350-7d548f67905a"},"vehicle_type_id":"4","last_reported":1759216307,"current_range_meters":11200,"station_id":"ce4bh492rcd13ifvqdvg","pricing_plan_id":"cebpf4jnsgd1na2vs0mg"},{"bike_id":"292111fa-96f2-478c-ae52-ad9dd3404896","system_id":"levelo_inurba_marseille","lat":43.29907,"lon":5.38148,"is_reserved":false,"is_disabled":false,"rental_uris":{"android":"levelo://app?vid=292111fa-96f2-478c-ae52-ad9dd3404896","ios":"levelo://app?vid=292111fa-96f2-478c-ae52-ad9dd3404896"},"vehicle_type_id":"4","last_reported":1759216307,"current_range_meters":10800,"station_id":"ce4bgj12rcd13ifvqbc0","pricing_plan_id":"cebpf4jnsgd1na2vs0mg"},{"bike_id":"b61270eb-2033-46b6-86be-e9ada013eaa0","system_id":"levelo_inurba_marseille","lat":43.29622,"lon":5.37174,"is_reserved":false,"is_disabled":false,"rental_uris":{"android":"levelo://app?vid=b61270eb-2033-46b6-86be-e9ada013eaa0","ios":"levelo://app?vid=b61270eb-2033-46b6-86be-e9ada013eaa0"},"vehicle_type_id":"4","last_reported":1759216307,"current_range_meters":10800,"station_id":"ce4bgnh2rcd13ifvqc0g","pricing_plan_id":"cebpf4jnsgd1na2vs0mg"},{"bike_id":"8757dd6f-abcc-4c4e-8084-37e29828ba88","system_id":"levelo_inurba_marseille","lat":43.27059,"lon":5.40271,"is_reserved":false,"is_disabled":true,"rental_uris":{"android":"levelo://app?vid=8757dd6f-abcc-4c4e-8084-37e29828ba88","ios":"levelo://app?vid=8757dd6f-abcc-4c4e-8084-37e29828ba88"},"vehicle_type_id":"4","last_reported":1759216307,"current_range_meters":11200,"station_id":"ce4bhk92rcd13ifvqgc0","pricing_plan_id":"cebpf4jnsgd1na2vs0mg"},{"bike_id":"211afd9f-58b0-436e-9b6b-1acbadc34392","system_id":"levelo_inurba_marseille","lat":43.32352,"lon":5.3675,"is_reserved":false,"is_disabled":false,"rental_uris":{"android":"levelo://app?vid=211afd9f-58b0-436e-9b6b-1acbadc34392","ios":"levelo://app?vid=211afd9f-58b0-436e-9b6b-1acbadc34392"},"vehicle_type_id":"4","last_reported":1759216307,"current_range_meters":11200,"station_id":"ce4bhsh2rcd13ifvqi2g","pricing_plan_id":"cebpf4jnsgd1na2vs0mg"},{"bike_id":"aebf0e68-ba27-412a-9ce2-11cc42127dee","system_id":"levelo_inurba_marseille","lat":43.337444,"lon":5.374475,"is_reserved":false,"is_disabled":false,"rental_uris":{"android":"levelo://app?vid=aebf0e68-ba27-412a-9ce2-11cc42127dee","ios":"levelo://app?vid=aebf0e68-ba27-412a-9ce2-11cc42127dee"},"vehicle_type_id":"4","last_reported":1759216307,"current_range_meters":11200,"station_id":"","pricing_plan_id":"cebpf4jnsgd1na2vs0mg"},{"bike_id":"3d325c0a-452a-40b6-b976-7af3843b4d54","system_id":"levelo_inurba_marseille","lat":43.21745,"lon":5.34608,"is_reserved":false,"is_disabled":false,"rental_uris":{"android":"levelo://app?vid=3d325c0a-452a-40b6-b976-7af3843b4d54","ios":"levelo://app?vid=3d325c0a-452a-40b6-b976-7af3843b4d54"},"vehicle_type_id":"4","last_reported":1759216307,"current_range_meters":11600,"station_id":"","pricing_plan_id":"cebpf4jnsgd1na2vs0mg"},{"bike_id":"e17857ef-9057-4d30-b1e9-4ab6ead4c304","system_id":"levelo_inurba_marseille","lat":43.24647,"lon":5.38921,"is_reserved":false,"is_disabled":true,"rental_uris":{"android":"levelo://app?vid=e17857ef-9057-4d30-b1e9-4ab6ead4c304","ios":"levelo://app?vid=e17857ef-9057-4d30-b1e9-4ab6ead4c304"},"vehicle_type_id":"4","last_reported":1759216307,"current_range_meters":11600,"station_id":"ce4bhg12rcd13ifvqf60","pricing_plan_id":"cebpf4jnsgd1na2vs0mg"},{"bike_id":"8cbcf5e7-b804-4925-bbed-5f57e8580ccf","system_id":"levelo_inurba_marseille","lat":43.31519,"lon":5.36803,"is_reserved":false,"is_disabled":false,"rental_uris":{"android":"levelo://app?vid=8cbcf5e7-b804-4925-bbed-5f57e8580ccf","ios":"levelo://app?vid=8cbcf5e7-b804-4925-bbed-5f57e8580ccf"},"vehicle_type_id":"4","last_reported":1759216307,"current_range_meters":11600,"station_id":"","pricing_plan_id":"cebpf4jnsgd1na2vs0mg"},{"bike_id":"4fcb0f1d-01f2-4136-94b8-b45efaa34c30","system_id":"levelo_inurba_marseille","lat":43.2463,"lon":5.43162,"is_reserved":false,"is_disabled":false,"rental_uris":{"android":"levelo://app?vid=4fcb0f1d-01f2-4136-94b8-b45efaa34c30","ios":"levelo://app?vid=4fcb0f1d-01f2-4136-94b8-b45efaa34c30"},"vehicle_type_id":"4","last_reported":1759216307,"current_range_meters":11600,"station_id":"st_d2m6c4gdas8pm72e190g","pricing_plan_id":"cebpf4jnsgd1na2vs0mg"},{"bike_id":"56d6a008-a903-4bd5-8ee3-1cec5d05c634","system_id":"levelo_inurba_marseille","lat":43.31749,"lon":5.39024,"is_reserved":false,"is_disabled":false,"rental_uris":{"android":"levelo://app?vid=56d6a008-a903-4bd5-8ee3-1cec5d05c634","ios":"levelo://app?vid=56d6a008-a903-4bd5-8ee3-1cec5d05c634"},"vehicle_type_id":"4","last_reported":1759216307,"current_range_meters":11600,"station_id":"ce4bhqp2rcd13ifvqhng","pricing_plan_id":"cebpf4jnsgd1na2vs0mg"},{"bike_id":"0042a9eb-6bbe-470c-ba48-7bc27d276882","system_id":"levelo_inurba_marseille","lat":43.29167,"lon":5.37145,"is_reserved":false,"is_disabled":false,"rental_uris":{"android":"levelo://app?vid=0042a9eb-6bbe-470c-ba48-7bc27d276882","ios":"levelo://app?vid=0042a9eb-6bbe-470c-ba48-7bc27d276882"},"vehicle_type_id":"4","last_reported":1759216307,"current_range_meters":11600,"station_id":"","pricing_plan_id":"cebpf4jnsgd1na2vs0mg"},{"bike_id":"2b993201-32c3-415f-a73f-a532aaf741f7","system_id":"levelo_inurba_marseille","lat":43.298222,"lon":5.362498,"is_reserved":false,"is_disabled":false,"rental_uris":{"android":"levelo://app?vid=2b993201-32c3-415f-a73f-a532aaf741f7","ios":"levelo://app?vid=2b993201-32c3-415f-a73f-a532aaf741f7"},"vehicle_type_id":"4","last_reported":1759216307,"current_range_meters":11200,"station_id":"ce4bgpp2rcd13ifvqc3g","pricing_plan_id":"cebpf4jnsgd1na2vs0mg"},{"bike_id":"0cb5a26c-ec81-46f9-ae17-8905d266f400","system_id":"levelo_inurba_marseille","lat":43.257271,"lon":5.411004,"is_reserved":false,"is_disabled":false,"rental_uris":{"android":"levelo://app?vid=0cb5a26c-ec81-46f9-ae17-8905d266f400","ios":"levelo://app?vid=0cb5a26c-ec81-46f9-ae17-8905d266f400"},"vehicle_type_id":"4","last_reported":1759216307,"current_range_meters":11600,"station_id":"ce4bhkp2rcd13ifvqgd0","pricing_plan_id":"cebpf4jnsgd1na2vs0mg"},{"bike_id":"2eee1887-ae27-43ab-8438-ead571655b92","system_id":"levelo_inurba_marseille","lat":43.325413,"lon":5.41425,"is_reserved":false,"is_disabled":false,"rental_uris":{"android":"levelo://app?vid=2eee1887-ae27-43ab-8438-ead571655b92","ios":"levelo://app?vid=2eee1887-ae27-43ab-8438-ead571655b92"},"vehicle_type_id":"4","last_reported":1759216307,"current_range_meters":12000,"station_id":"ce4bhq12rcd13ifvqhhg","pricing_plan_id":"cebpf4jnsgd1na2vs0mg"},{"bike_id":"96520869-d013-4e0c-a355-f7bbd728ba84","system_id":"levelo_inurba_marseille","lat":43.32362,"lon":5.36743,"is_reserved":false,"is_disabled":false,"rental_uris":{"android":"levelo://app?vid=96520869-d013-4e0c-a355-f7bbd728ba84","ios":"levelo://app?vid=96520869-d013-4e0c-a355-f7bbd728ba84"},"vehicle_type_id":"4","last_reported":1759216307,"current_range_meters":12000,"station_id":"ce4bhsh2rcd13ifvqi2g","pricing_plan_id":"cebpf4jnsgd1na2vs0mg"},{"bike_id":"6c9a4d2c-915d-4d15-a3b6-c2ccb2328a04","system_id":"levelo_inurba_marseille","lat":43.29554,"lon":5.42293,"is_reserved":false,"is_disabled":false,"rental_uris":{"android":"levelo://app?vid=6c9a4d2c-915d-4d15-a3b6-c2ccb2328a04","ios":"levelo://app?vid=6c9a4d2c-915d-4d15-a3b6-c2ccb2328a04"},"vehicle_type_id":"4","last_reported":1759216307,"current_range_meters":11600,"station_id":"ce4bhph2rcd13ifvqhdg","pricing_plan_id":"cebpf4jnsgd1na2vs0mg"},{"bike_id":"7141d5c0-e60c-44f1-bfa8-47000c17aa41","system_id":"levelo_inurba_marseille","lat":43.32047,"lon":5.38117,"is_reserved":false,"is_disabled":false,"rental_uris":{"android":"levelo://app?vid=7141d5c0-e60c-44f1-bfa8-47000c17aa41","ios":"levelo://app?vid=7141d5c0-e60c-44f1-bfa8-47000c17aa41"},"vehicle_type_id":"4","last_reported":1759216307,"current_range_meters":12000,"station_id":"","pricing_plan_id":"cebpf4jnsgd1na2vs0mg"},{"bike_id":"99ce2063-5dfb-4ed3-a4a6-8fc3a54c4890","system_id":"levelo_inurba_marseille","lat":43.337444,"lon":5.374475,"is_reserved":false,"is_disabled":false,"rental_uris":{"android":"levelo://app?vid=99ce2063-5dfb-4ed3-a4a6-8fc3a54c4890","ios":"levelo://app?vid=99ce2063-5dfb-4ed3-a4a6-8fc3a54c4890"},"vehicle_type_id":"4","last_reported":1759216307,"current_range_meters":12000,"station_id":"","pricing_plan_id":"cebpf4jnsgd1na2vs0mg"},{"bike_id":"716ec372-1e32-4564-8f0e-da5da7c66c4a","system_id":"levelo_inurba_marseille","lat":43.257196,"lon":5.411064,"is_reserved":false,"is_disabled":false,"rental_uris":{"android":"levelo://app?vid=716ec372-1e32-4564-8f0e-da5da7c66c4a","ios":"levelo://app?vid=716ec372-1e32-4564-8f0e-da5da7c66c4a"},"vehicle_type_id":"4","last_reported":1759216307,"current_range_meters":12400,"station_id":"ce4bhkp2rcd13ifvqgd0","pricing_plan_id":"cebpf4jnsgd1na2vs0mg"},{"bike_id":"738a51a6-02d0-4def-8f3f-9c82f6a6dd05","system_id":"levelo_inurba_marseille","lat":43.32339,"lon":5.367,"is_reserved":false,"is_disabled":false,"rental_uris":{"android":"levelo://app?vid=738a51a6-02d0-4def-8f3f-9c82f6a6dd05","ios":"levelo://app?vid=738a51a6-02d0-4def-8f3f-9c82f6a6dd05"},"vehicle_type_id":"4","last_reported":1759216307,"current_range_meters":12400,"station_id":"","pricing_plan_id":"cebpf4jnsgd1na2vs0mg"},{"bike_id":"6342acd9-df84-4d84-a47e-b36df5d7d6cb","system_id":"levelo_inurba_marseille","lat":43.309015,"lon":5.371866,"is_reserved":false,"is_disabled":false,"rental_uris":{"android":"levelo://app?vid=6342acd9-df84-4d84-a47e-b36df5d7d6cb","ios":"levelo://app?vid=6342acd9-df84-4d84-a47e-b36df5d7d6cb"},"vehicle_type_id":"4","last_reported":1759216307,"current_range_meters":12400,"station_id":"ce4bguh2rcd13ifvqckg","pricing_plan_id":"cebpf4jnsgd1na2vs0mg"},{"bike_id":"92662833-c6ac-4b02-b7df-1638b54b1972","system_id":"levelo_inurba_marseille","lat":43.33742,"lon":5.37449,"is_reserved":false,"is_disabled":false,"rental_uris":{"android":"levelo://app?vid=92662833-c6ac-4b02-b7df-1638b54b1972","ios":"levelo://app?vid=92662833-c6ac-4b02-b7df-1638b54b1972"},"vehicle_type_id":"4","last_reported":1759216307,"current_range_meters":12400,"station_id":"","pricing_plan_id":"cebpf4jnsgd1na2vs0mg"},{"bike_id":"f8d78e5f-60e1-4623-939f-49e76ff16505","system_id":"levelo_inurba_marseille","lat":43.33742,"lon":5.37448,"is_reserved":false,"is_disabled":false,"rental_uris":{"android":"levelo://app?vid=f8d78e5f-60e1-4623-939f-49e76ff16505","ios":"levelo://app?vid=f8d78e5f-60e1-4623-939f-49e76ff16505"},"vehicle_type_id":"4","last_reported":1759216307,"current_range_meters":12400,"station_id":"","pricing_plan_id":"cebpf4jnsgd1na2vs0mg"},{"bike_id":"17f6ea02-4f88-4e92-a094-db7e52403b32","system_id":"levelo_inurba_marseille","lat":43.3414,"lon":5.40903,"is_reserved":false,"is_disabled":false,"rental_uris":{"android":"levelo://app?vid=17f6ea02-4f88-4e92-a094-db7e52403b32","ios":"levelo://app?vid=17f6ea02-4f88-4e92-a094-db7e52403b32"},"vehicle_type_id":"4","last_reported":1759216307,"current_range_meters":12800,"station_id":"ce4bhqh2rcd13ifvqhlg","pricing_plan_id":"cebpf4jnsgd1na2vs0mg"},{"bike_id":"2d7e6056-2204-40fe-8ca4-fb704ec8e47b","system_id":"levelo_inurba_marseille","lat":43.29851,"lon":5.36288,"is_reserved":false,"is_disabled":false,"rental_uris":{"android":"levelo://app?vid=2d7e6056-2204-40fe-8ca4-fb704ec8e47b","ios":"levelo://app?vid=2d7e6056-2204-40fe-8ca4-fb704ec8e47b"},"vehicle_type_id":"4","last_reported":1759216307,"current_range_meters":12800,"station_id":"ce4bgpp2rcd13ifvqc3g","pricing_plan_id":"cebpf4jnsgd1na2vs0mg"},{"bike_id":"66e01978-b2f5-4c79-9860-c3c2f6c9416f","system_id":"levelo_inurba_marseille","lat":43.3123,"lon":5.3688,"is_reserved":false,"is_disabled":false,"rental_uris":{"android":"levelo://app?vid=66e01978-b2f5-4c79-9860-c3c2f6c9416f","ios":"levelo://app?vid=66e01978-b2f5-4c79-9860-c3c2f6c9416f"},"vehicle_type_id":"4","last_reported":1759216307,"current_range_meters":12800,"station_id":"ce4bgl92rcd13ifvqbq0","pricing_plan_id":"cebpf4jnsgd1na2vs0mg"},{"bike_id":"f44df0c8-3c0a-4103-982e-900169d96e81","system_id":"levelo_inurba_marseille","lat":43.32103,"lon":5.3679,"is_reserved":false,"is_disabled":false,"rental_uris":{"android":"levelo://app?vid=f44df0c8-3c0a-4103-982e-900169d96e81","ios":"levelo://app?vid=f44df0c8-3c0a-4103-982e-900169d96e81"},"vehicle_type_id":"4","last_reported":1759216307,"current_range_meters":12800,"station_id":"ce4bhrh2rcd13ifvqhug","pricing_plan_id":"cebpf4jnsgd1na2vs0mg"},{"bike_id":"13604148-437a-4148-9ed9-019ca4e03ec3","system_id":"levelo_inurba_marseille","lat":43.246361,"lon":5.431458,"is_reserved":false,"is_disabled":false,"rental_uris":{"android":"levelo://app?vid=13604148-437a-4148-9ed9-019ca4e03ec3","ios":"levelo://app?vid=13604148-437a-4148-9ed9-019ca4e03ec3"},"vehicle_type_id":"4","last_reported":1759216307,"current_range_meters":12800,"station_id":"st_d2m6c4gdas8pm72e190g","pricing_plan_id":"cebpf4jnsgd1na2vs0mg"},{"bike_id":"ab6dd3e4-a3ee-4b70-b553-35f57dd019f5","system_id":"levelo_inurba_marseille","lat":43.26687,"lon":5.38273,"is_reserved":false,"is_disabled":false,"rental_uris":{"android":"levelo://app?vid=ab6dd3e4-a3ee-4b70-b553-35f57dd019f5","ios":"levelo://app?vid=ab6dd3e4-a3ee-4b70-b553-35f57dd019f5"},"vehicle_type_id":"4","last_reported":1759216307,"current_range_meters":12800,"station_id":"ce4bhg92rcd13ifvqf90","pricing_plan_id":"cebpf4jnsgd1na2vs0mg"},{"bike_id":"56ca0258-bee9-4eb2-b3c5-63b5cd0b9e67","system_id":"levelo_inurba_marseille","lat":43.33737,"lon":5.37445,"is_reserved":false,"is_disabled":false,"rental_uris":{"android":"levelo://app?vid=56ca0258-bee9-4eb2-b3c5-63b5cd0b9e67","ios":"levelo://app?vid=56ca0258-bee9-4eb2-b3c5-63b5cd0b9e67"},"vehicle_type_id":"4","last_reported":1759216307,"current_range_meters":12800,"station_id":"","pricing_plan_id":"cebpf4jnsgd1na2vs0mg"},{"bike_id":"1fe9f341-3892-4b86-b7cc-35780bf305e0","system_id":"levelo_inurba_marseille","lat":43.24078,"lon":5.37754,"is_reserved":false,"is_disabled":false,"rental_uris":{"android":"levelo://app?vid=1fe9f341-3892-4b86-b7cc-35780bf305e0","ios":"levelo://app?vid=1fe9f341-3892-4b86-b7cc-35780bf305e0"},"vehicle_type_id":"4","last_reported":1759216307,"current_range_meters":13600,"station_id":"","pricing_plan_id":"cebpf4jnsgd1na2vs0mg"},{"bike_id":"cb8737f5-9915-4005-98ee-fd2aa1c38d9f","system_id":"levelo_inurba_marseille","lat":43.28409,"lon":5.34995,"is_reserved":false,"is_disabled":false,"rental_uris":{"android":"levelo://app?vid=cb8737f5-9915-4005-98ee-fd2aa1c38d9f","ios":"levelo://app?vid=cb8737f5-9915-4005-98ee-fd2aa1c38d9f"},"vehicle_type_id":"4","last_reported":1759216307,"current_range_meters":13600,"station_id":"ce4bhbh2rcd13ifvqepg","pricing_plan_id":"cebpf4jnsgd1na2vs0mg"},{"bike_id":"3eda7b7d-d1d4-4544-ac74-4e2dbf47acf1","system_id":"levelo_inurba_marseille","lat":43.30146,"lon":5.37422,"is_reserved":false,"is_disabled":false,"rental_uris":{"android":"levelo://app?vid=3eda7b7d-d1d4-4544-ac74-4e2dbf47acf1","ios":"levelo://app?vid=3eda7b7d-d1d4-4544-ac74-4e2dbf47acf1"},"vehicle_type_id":"4","last_reported":1759216307,"current_range_meters":13600,"station_id":"ce4bgs92rcd13ifvqcc0","pricing_plan_id":"cebpf4jnsgd1na2vs0mg"},{"bike_id":"0aba4fe3-5dca-4d79-8b9d-2fc77d6e7d70","system_id":"levelo_inurba_marseille","lat":43.28418,"lon":5.349815,"is_reserved":false,"is_disabled":false,"rental_uris":{"android":"levelo://app?vid=0aba4fe3-5dca-4d79-8b9d-2fc77d6e7d70","ios":"levelo://app?vid=0aba4fe3-5dca-4d79-8b9d-2fc77d6e7d70"},"vehicle_type_id":"4","last_reported":1759216307,"current_range_meters":14000,"station_id":"","pricing_plan_id":"cebpf4jnsgd1na2vs0mg"},{"bike_id":"1071dd6a-06a0-4cc8-ad2d-fc5e97b5f1aa","system_id":"levelo_inurba_marseille","lat":43.24391,"lon":5.37076,"is_reserved":false,"is_disabled":false,"rental_uris":{"android":"levelo://app?vid=1071dd6a-06a0-4cc8-ad2d-fc5e97b5f1aa","ios":"levelo://app?vid=1071dd6a-06a0-4cc8-ad2d-fc5e97b5f1aa"},"vehicle_type_id":"4","last_reported":1759216307,"current_range_meters":13600,"station_id":"ce4bhhh2rcd13ifvqfk0","pricing_plan_id":"cebpf4jnsgd1na2vs0mg"},{"bike_id":"8c889c5e-dbff-42f9-9e9a-56a3d0500fe9","system_id":"levelo_inurba_marseille","lat":43.30283,"lon":5.36995,"is_reserved":false,"is_disabled":false,"rental_uris":{"android":"levelo://app?vid=8c889c5e-dbff-42f9-9e9a-56a3d0500fe9","ios":"levelo://app?vid=8c889c5e-dbff-42f9-9e9a-56a3d0500fe9"},"vehicle_type_id":"4","last_reported":1759216307,"current_range_meters":14000,"station_id":"","pricing_plan_id":"cebpf4jnsgd1na2vs0mg"},{"bike_id":"e78e4d53-2f71-418f-8819-2a6ac6d2a939","system_id":"levelo_inurba_marseille","lat":43.302131,"lon":5.39469,"is_reserved":false,"is_disabled":false,"rental_uris":{"android":"levelo://app?vid=e78e4d53-2f71-418f-8819-2a6ac6d2a939","ios":"levelo://app?vid=e78e4d53-2f71-418f-8819-2a6ac6d2a939"},"vehicle_type_id":"4","last_reported":1759216307,"current_range_meters":14000,"station_id":"ce4bh0p2rcd13ifvqd70","pricing_plan_id":"cebpf4jnsgd1na2vs0mg"},{"bike_id":"4ea62f28-6ea5-4f7e-bfe9-1baf2ab66f2a","system_id":"levelo_inurba_marseille","lat":43.2668,"lon":5.38272,"is_reserved":false,"is_disabled":false,"rental_uris":{"android":"levelo://app?vid=4ea62f28-6ea5-4f7e-bfe9-1baf2ab66f2a","ios":"levelo://app?vid=4ea62f28-6ea5-4f7e-bfe9-1baf2ab66f2a"},"vehicle_type_id":"4","last_reported":1759216307,"current_range_meters":14000,"station_id":"ce4bhg92rcd13ifvqf90","pricing_plan_id":"cebpf4jnsgd1na2vs0mg"},{"bike_id":"ad149952-0d69-4900-ab2b-b2a373d4e592","system_id":"levelo_inurba_marseille","lat":43.29541,"lon":5.37512,"is_reserved":false,"is_disabled":false,"rental_uris":{"android":"levelo://app?vid=ad149952-0d69-4900-ab2b-b2a373d4e592","ios":"levelo://app?vid=ad149952-0d69-4900-ab2b-b2a373d4e592"},"vehicle_type_id":"4","last_reported":1759216307,"current_range_meters":14000,"station_id":"ce4bgkp2rcd13ifvqbmg","pricing_plan_id":"cebpf4jnsgd1na2vs0mg"},{"bike_id":"0c4e3ab4-375f-452b-85ea-25e37b0e5f09","system_id":"levelo_inurba_marseille","lat":43.23154,"lon":5.43701,"is_reserved":false,"is_disabled":false,"rental_uris":{"android":"levelo://app?vid=0c4e3ab4-375f-452b-85ea-25e37b0e5f09","ios":"levelo://app?vid=0c4e3ab4-375f-452b-85ea-25e37b0e5f09"},"vehicle_type_id":"4","last_reported":1759216307,"current_range_meters":14000,"station_id":"ce4bhmp2rcd13ifvqgog","pricing_plan_id":"cebpf4jnsgd1na2vs0mg"},{"bike_id":"c55252ec-7f47-4422-a863-351e2af0586d","system_id":"levelo_inurba_marseille","lat":43.24071,"lon":5.37759,"is_reserved":false,"is_disabled":false,"rental_uris":{"android":"levelo://app?vid=c55252ec-7f47-4422-a863-351e2af0586d","ios":"levelo://app?vid=c55252ec-7f47-4422-a863-351e2af0586d"},"vehicle_type_id":"4","last_reported":1759216307,"current_range_meters":14400,"station_id":"ce4bhnp2rcd13ifvqgvg","pricing_plan_id":"cebpf4jnsgd1na2vs0mg"},{"bike_id":"2ab535df-4c2c-40d8-af4f-189047a67c11","system_id":"levelo_inurba_marseille","lat":43.2464,"lon":5.43162,"is_reserved":false,"is_disabled":false,"rental_uris":{"android":"levelo://app?vid=2ab535df-4c2c-40d8-af4f-189047a67c11","ios":"levelo://app?vid=2ab535df-4c2c-40d8-af4f-189047a67c11"},"vehicle_type_id":"4","last_reported":1759216307,"current_range_meters":14400,"station_id":"st_d2m6c4gdas8pm72e190g","pricing_plan_id":"cebpf4jnsgd1na2vs0mg"},{"bike_id":"bcc46be9-7d63-4081-81f4-b4b273f5d5b3","system_id":"levelo_inurba_marseille","lat":43.2988,"lon":5.389,"is_reserved":false,"is_disabled":false,"rental_uris":{"android":"levelo://app?vid=bcc46be9-7d63-4081-81f4-b4b273f5d5b3","ios":"levelo://app?vid=bcc46be9-7d63-4081-81f4-b4b273f5d5b3"},"vehicle_type_id":"4","last_reported":1759216307,"current_range_meters":14400,"station_id":"ce4bh392rcd13ifvqdl0","pricing_plan_id":"cebpf4jnsgd1na2vs0mg"},{"bike_id":"d2f46c9e-a53c-42a7-ad54-fd7c896f4565","system_id":"levelo_inurba_marseille","lat":43.33797,"lon":5.37428,"is_reserved":false,"is_disabled":false,"rental_uris":{"android":"levelo://app?vid=d2f46c9e-a53c-42a7-ad54-fd7c896f4565","ios":"levelo://app?vid=d2f46c9e-a53c-42a7-ad54-fd7c896f4565"},"vehicle_type_id":"4","last_reported":1759216307,"current_range_meters":14400,"station_id":"","pricing_plan_id":"cebpf4jnsgd1na2vs0mg"},{"bike_id":"895e055b-7477-4cdc-b7ab-a76cd1615f80","system_id":"levelo_inurba_marseille","lat":43.24995,"lon":5.38935,"is_reserved":false,"is_disabled":false,"rental_uris":{"android":"levelo://app?vid=895e055b-7477-4cdc-b7ab-a76cd1615f80","ios":"levelo://app?vid=895e055b-7477-4cdc-b7ab-a76cd1615f80"},"vehicle_type_id":"4","last_reported":1759216307,"current_range_meters":14800,"station_id":"ce4bhgp2rcd13ifvqfd0","pricing_plan_id":"cebpf4jnsgd1na2vs0mg"},{"bike_id":"694a3a5f-723f-47f1-a73b-869220cc5d4c","system_id":"levelo_inurba_marseille","lat":43.27069,"lon":5.42272,"is_reserved":false,"is_disabled":false,"rental_uris":{"android":"levelo://app?vid=694a3a5f-723f-47f1-a73b-869220cc5d4c","ios":"levelo://app?vid=694a3a5f-723f-47f1-a73b-869220cc5d4c"},"vehicle_type_id":"4","last_reported":1759216307,"current_range_meters":14800,"station_id":"ce4bhk92rcd13ifvqgb0","pricing_plan_id":"cebpf4jnsgd1na2vs0mg"},{"bike_id":"76c8ca32-94fb-4666-ac3c-b567aef2c353","system_id":"levelo_inurba_marseille","lat":43.31997,"lon":5.38165,"is_reserved":false,"is_disabled":false,"rental_uris":{"android":"levelo://app?vid=76c8ca32-94fb-4666-ac3c-b567aef2c353","ios":"levelo://app?vid=76c8ca32-94fb-4666-ac3c-b567aef2c353"},"vehicle_type_id":"4","last_reported":1759216307,"current_range_meters":14800,"station_id":"ce4bhr12rcd13ifvqhpg","pricing_plan_id":"cebpf4jnsgd1na2vs0mg"},{"bike_id":"31992d2f-1727-439b-80e9-8432d52166cc","system_id":"levelo_inurba_marseille","lat":43.29978,"lon":5.37181,"is_reserved":false,"is_disabled":false,"rental_uris":{"android":"levelo://app?vid=31992d2f-1727-439b-80e9-8432d52166cc","ios":"levelo://app?vid=31992d2f-1727-439b-80e9-8432d52166cc"},"vehicle_type_id":"4","last_reported":1759216307,"current_range_meters":14800,"station_id":"ce4bgr92rcd13ifvqc7g","pricing_plan_id":"cebpf4jnsgd1na2vs0mg"},{"bike_id":"c4eb1c89-dc1f-4ae4-b68c-0a9f98b1b4b3","system_id":"levelo_inurba_marseille","lat":43.24643,"lon":5.43168,"is_reserved":false,"is_disabled":false,"rental_uris":{"android":"levelo://app?vid=c4eb1c89-dc1f-4ae4-b68c-0a9f98b1b4b3","ios":"levelo://app?vid=c4eb1c89-dc1f-4ae4-b68c-0a9f98b1b4b3"},"vehicle_type_id":"4","last_reported":1759216307,"current_range_meters":14800,"station_id":"st_d2m6c4gdas8pm72e190g","pricing_plan_id":"cebpf4jnsgd1na2vs0mg"},{"bike_id":"d39a461f-161d-4d40-bbed-21c739bdeb9e","system_id":"levelo_inurba_marseille","lat":43.2594,"lon":5.40906,"is_reserved":false,"is_disabled":false,"rental_uris":{"android":"levelo://app?vid=d39a461f-161d-4d40-bbed-21c739bdeb9e","ios":"levelo://app?vid=d39a461f-161d-4d40-bbed-21c739bdeb9e"},"vehicle_type_id":"4","last_reported":1759216307,"current_range_meters":14800,"station_id":"ce4bhm92rcd13ifvqglg","pricing_plan_id":"cebpf4jnsgd1na2vs0mg"},{"bike_id":"d114139c-60d0-4459-ba3b-cac62be00268","system_id":"levelo_inurba_marseille","lat":43.30147,"lon":5.37388,"is_reserved":false,"is_disabled":true,"rental_uris":{"android":"levelo://app?vid=d114139c-60d0-4459-ba3b-cac62be00268","ios":"levelo://app?vid=d114139c-60d0-4459-ba3b-cac62be00268"},"vehicle_type_id":"4","last_reported":1759216307,"current_range_meters":14800,"station_id":"ce4bgs92rcd13ifvqcc0","pricing_plan_id":"cebpf4jnsgd1na2vs0mg"},{"bike_id":"a8205022-661b-4b9f-b567-3fd2d923e9c8","system_id":"levelo_inurba_marseille","lat":43.32287,"lon":5.38275,"is_reserved":false,"is_disabled":false,"rental_uris":{"android":"levelo://app?vid=a8205022-661b-4b9f-b567-3fd2d923e9c8","ios":"levelo://app?vid=a8205022-661b-4b9f-b567-3fd2d923e9c8"},"vehicle_type_id":"4","last_reported":1759216307,"current_range_meters":14800,"station_id":"ce4bhr12rcd13ifvqhqg","pricing_plan_id":"cebpf4jnsgd1na2vs0mg"},{"bike_id":"55697761-03e8-483b-8fcb-698812b7b2a8","system_id":"levelo_inurba_marseille","lat":43.2319,"lon":5.35557,"is_reserved":false,"is_disabled":false,"rental_uris":{"android":"levelo://app?vid=55697761-03e8-483b-8fcb-698812b7b2a8","ios":"levelo://app?vid=55697761-03e8-483b-8fcb-698812b7b2a8"},"vehicle_type_id":"4","last_reported":1759216307,"current_range_meters":15200,"station_id":"ce4bhu92rcd13ifvqi70","pricing_plan_id":"cebpf4jnsgd1na2vs0mg"},{"bike_id":"adfbe18b-7ca7-424a-9090-23d85cce22c6","system_id":"levelo_inurba_marseille","lat":43.30043,"lon":5.40929,"is_reserved":false,"is_disabled":false,"rental_uris":{"android":"levelo://app?vid=adfbe18b-7ca7-424a-9090-23d85cce22c6","ios":"levelo://app?vid=adfbe18b-7ca7-424a-9090-23d85cce22c6"},"vehicle_type_id":"4","last_reported":1759216307,"current_range_meters":15200,"station_id":"","pricing_plan_id":"cebpf4jnsgd1na2vs0mg"},{"bike_id":"b9aa0d48-8360-459e-805d-9210b9807576","system_id":"levelo_inurba_marseille","lat":43.24077,"lon":5.37759,"is_reserved":false,"is_disabled":false,"rental_uris":{"android":"levelo://app?vid=b9aa0d48-8360-459e-805d-9210b9807576","ios":"levelo://app?vid=b9aa0d48-8360-459e-805d-9210b9807576"},"vehicle_type_id":"4","last_reported":1759216307,"current_range_meters":15200,"station_id":"ce4bhnp2rcd13ifvqgvg","pricing_plan_id":"cebpf4jnsgd1na2vs0mg"},{"bike_id":"5f8245c1-d6d3-4e20-af8e-6d792fdc04ce","system_id":"levelo_inurba_marseille","lat":43.29856,"lon":5.45616,"is_reserved":false,"is_disabled":false,"rental_uris":{"android":"levelo://app?vid=5f8245c1-d6d3-4e20-af8e-6d792fdc04ce","ios":"levelo://app?vid=5f8245c1-d6d3-4e20-af8e-6d792fdc04ce"},"vehicle_type_id":"4","last_reported":1759216307,"current_range_meters":15200,"station_id":"","pricing_plan_id":"cebpf4jnsgd1na2vs0mg"},{"bike_id":"a29bee59-ea4f-424e-b048-900473be4ae3","system_id":"levelo_inurba_marseille","lat":43.284546,"lon":5.358773,"is_reserved":false,"is_disabled":false,"rental_uris":{"android":"levelo://app?vid=a29bee59-ea4f-424e-b048-900473be4ae3","ios":"levelo://app?vid=a29bee59-ea4f-424e-b048-900473be4ae3"},"vehicle_type_id":"4","last_reported":1759216307,"current_range_meters":15200,"station_id":"","pricing_plan_id":"cebpf4jnsgd1na2vs0mg"},{"bike_id":"9995c4b9-f187-4594-b064-caa0aa3cca34","system_id":"levelo_inurba_marseille","lat":43.2594,"lon":5.409046,"is_reserved":false,"is_disabled":false,"rental_uris":{"android":"levelo://app?vid=9995c4b9-f187-4594-b064-caa0aa3cca34","ios":"levelo://app?vid=9995c4b9-f187-4594-b064-caa0aa3cca34"},"vehicle_type_id":"4","last_reported":1759216307,"current_range_meters":15200,"station_id":"","pricing_plan_id":"cebpf4jnsgd1na2vs0mg"},{"bike_id":"e08d4931-2230-4f2a-bb18-502cdb8b49ad","system_id":"levelo_inurba_marseille","lat":43.29568,"lon":5.37531,"is_reserved":false,"is_disabled":false,"rental_uris":{"android":"levelo://app?vid=e08d4931-2230-4f2a-bb18-502cdb8b49ad","ios":"levelo://app?vid=e08d4931-2230-4f2a-bb18-502cdb8b49ad"},"vehicle_type_id":"4","last_reported":1759216307,"current_range_meters":15200,"station_id":"ce4bgh92rcd13ifvqb50","pricing_plan_id":"cebpf4jnsgd1na2vs0mg"},{"bike_id":"1d77b7d7-6c50-47ce-a252-2a4011bccda7","system_id":"levelo_inurba_marseille","lat":43.25958,"lon":5.41386,"is_reserved":false,"is_disabled":false,"rental_uris":{"android":"levelo://app?vid=1d77b7d7-6c50-47ce-a252-2a4011bccda7","ios":"levelo://app?vid=1d77b7d7-6c50-47ce-a252-2a4011bccda7"},"vehicle_type_id":"4","last_reported":1759216307,"current_range_meters":15200,"station_id":"","pricing_plan_id":"cebpf4jnsgd1na2vs0mg"},{"bike_id":"f6e3da73-c632-453c-b9a7-d01c04f51177","system_id":"levelo_inurba_marseille","lat":43.31497,"lon":5.37266,"is_reserved":false,"is_disabled":false,"rental_uris":{"android":"levelo://app?vid=f6e3da73-c632-453c-b9a7-d01c04f51177","ios":"levelo://app?vid=f6e3da73-c632-453c-b9a7-d01c04f51177"},"vehicle_type_id":"4","last_reported":1759216307,"current_range_meters":15200,"station_id":"ce4bgt12rcd13ifvqcd0","pricing_plan_id":"cebpf4jnsgd1na2vs0mg"},{"bike_id":"41954c74-08a1-46af-b291-94f2ab665ff2","system_id":"levelo_inurba_marseille","lat":43.32485,"lon":5.36567,"is_reserved":false,"is_disabled":false,"rental_uris":{"android":"levelo://app?vid=41954c74-08a1-46af-b291-94f2ab665ff2","ios":"levelo://app?vid=41954c74-08a1-46af-b291-94f2ab665ff2"},"vehicle_type_id":"4","last_reported":1759216307,"current_range_meters":15200,"station_id":"ce4bhs12rcd13ifvqhvg","pricing_plan_id":"cebpf4jnsgd1na2vs0mg"},{"bike_id":"44631c7d-87d1-44be-96c2-2a43e54fa7d0","system_id":"levelo_inurba_marseille","lat":43.26196,"lon":5.37451,"is_reserved":false,"is_disabled":false,"rental_uris":{"android":"levelo://app?vid=44631c7d-87d1-44be-96c2-2a43e54fa7d0","ios":"levelo://app?vid=44631c7d-87d1-44be-96c2-2a43e54fa7d0"},"vehicle_type_id":"4","last_reported":1759216307,"current_range_meters":15200,"station_id":"ce4bhgp2rcd13ifvqfc0","pricing_plan_id":"cebpf4jnsgd1na2vs0mg"},{"bike_id":"d3b797e7-a17b-466b-a424-ea780d063fb8","system_id":"levelo_inurba_marseille","lat":43.287959,"lon":5.388476,"is_reserved":false,"is_disabled":false,"rental_uris":{"android":"levelo://app?vid=d3b797e7-a17b-466b-a424-ea780d063fb8","ios":"levelo://app?vid=d3b797e7-a17b-466b-a424-ea780d063fb8"},"vehicle_type_id":"4","last_reported":1759216307,"current_range_meters":14800,"station_id":"ce4bh4p2rcd13ifvqe0g","pricing_plan_id":"cebpf4jnsgd1na2vs0mg"},{"bike_id":"3b514c54-f3ca-4a97-bbde-4c56631f4c40","system_id":"levelo_inurba_marseille","lat":43.30217,"lon":5.39466,"is_reserved":false,"is_disabled":false,"rental_uris":{"android":"levelo://app?vid=3b514c54-f3ca-4a97-bbde-4c56631f4c40","ios":"levelo://app?vid=3b514c54-f3ca-4a97-bbde-4c56631f4c40"},"vehicle_type_id":"4","last_reported":1759216307,"current_range_meters":15200,"station_id":"ce4bh0p2rcd13ifvqd70","pricing_plan_id":"cebpf4jnsgd1na2vs0mg"},{"bike_id":"fe43a8ca-007b-457b-b44d-a3b8f09d2313","system_id":"levelo_inurba_marseille","lat":43.34147,"lon":5.40909,"is_reserved":false,"is_disabled":false,"rental_uris":{"android":"levelo://app?vid=fe43a8ca-007b-457b-b44d-a3b8f09d2313","ios":"levelo://app?vid=fe43a8ca-007b-457b-b44d-a3b8f09d2313"},"vehicle_type_id":"4","last_reported":1759216307,"current_range_meters":15200,"station_id":"ce4bhqh2rcd13ifvqhlg","pricing_plan_id":"cebpf4jnsgd1na2vs0mg"},{"bike_id":"63aa2455-2da3-4e9c-9e4e-54ed059c09ac","system_id":"levelo_inurba_marseille","lat":43.31651,"lon":5.38991,"is_reserved":false,"is_disabled":false,"rental_uris":{"android":"levelo://app?vid=63aa2455-2da3-4e9c-9e4e-54ed059c09ac","ios":"levelo://app?vid=63aa2455-2da3-4e9c-9e4e-54ed059c09ac"},"vehicle_type_id":"4","last_reported":1759216307,"current_range_meters":15200,"station_id":"","pricing_plan_id":"cebpf4jnsgd1na2vs0mg"},{"bike_id":"d3626de2-8599-4d6e-9423-051de6f3e78a","system_id":"levelo_inurba_marseille","lat":43.29534,"lon":5.38548,"is_reserved":false,"is_disabled":true,"rental_uris":{"android":"levelo://app?vid=d3626de2-8599-4d6e-9423-051de6f3e78a","ios":"levelo://app?vid=d3626de2-8599-4d6e-9423-051de6f3e78a"},"vehicle_type_id":"4","last_reported":1759216307,"current_range_meters":16000,"station_id":"ce4bgih2rcd13ifvqba0","pricing_plan_id":"cebpf4jnsgd1na2vs0mg"},{"bike_id":"d8859e0c-0cb2-4f64-936e-23f7db00456f","system_id":"levelo_inurba_marseille","lat":43.30948,"lon":5.39028,"is_reserved":false,"is_disabled":false,"rental_uris":{"android":"levelo://app?vid=d8859e0c-0cb2-4f64-936e-23f7db00456f","ios":"levelo://app?vid=d8859e0c-0cb2-4f64-936e-23f7db00456f"},"vehicle_type_id":"4","last_reported":1759216307,"current_range_meters":16000,"station_id":"ce4bgup2rcd13ifvqco0","pricing_plan_id":"cebpf4jnsgd1na2vs0mg"},{"bike_id":"e017f517-d993-455a-a61d-b5c537d657a6","system_id":"levelo_inurba_marseille","lat":43.30554,"lon":5.36562,"is_reserved":false,"is_disabled":false,"rental_uris":{"android":"levelo://app?vid=e017f517-d993-455a-a61d-b5c537d657a6","ios":"levelo://app?vid=e017f517-d993-455a-a61d-b5c537d657a6"},"vehicle_type_id":"4","last_reported":1759216307,"current_range_meters":18000,"station_id":"ce4bgs12rcd13ifvqcag","pricing_plan_id":"cebpf4jnsgd1na2vs0mg"},{"bike_id":"84b9ae95-f527-4dea-851a-c53cf2802aac","system_id":"levelo_inurba_marseille","lat":43.2408,"lon":5.37755,"is_reserved":false,"is_disabled":false,"rental_uris":{"android":"levelo://app?vid=84b9ae95-f527-4dea-851a-c53cf2802aac","ios":"levelo://app?vid=84b9ae95-f527-4dea-851a-c53cf2802aac"},"vehicle_type_id":"4","last_reported":1759216307,"current_range_meters":16000,"station_id":"ce4bhnp2rcd13ifvqgvg","pricing_plan_id":"cebpf4jnsgd1na2vs0mg"},{"bike_id":"f752559e-e357-41d0-b0e1-06afd32411be","system_id":"levelo_inurba_marseille","lat":43.27479,"lon":5.40801,"is_reserved":false,"is_disabled":false,"rental_uris":{"android":"levelo://app?vid=f752559e-e357-41d0-b0e1-06afd32411be","ios":"levelo://app?vid=f752559e-e357-41d0-b0e1-06afd32411be"},"vehicle_type_id":"4","last_reported":1759216307,"current_range_meters":16400,"station_id":"","pricing_plan_id":"cebpf4jnsgd1na2vs0mg"},{"bike_id":"9559e7fe-91a1-4ac0-a7d8-40fd3c5db739","system_id":"levelo_inurba_marseille","lat":43.3377,"lon":5.37422,"is_reserved":false,"is_disabled":false,"rental_uris":{"android":"levelo://app?vid=9559e7fe-91a1-4ac0-a7d8-40fd3c5db739","ios":"levelo://app?vid=9559e7fe-91a1-4ac0-a7d8-40fd3c5db739"},"vehicle_type_id":"4","last_reported":1759216307,"current_range_meters":16400,"station_id":"","pricing_plan_id":"cebpf4jnsgd1na2vs0mg"},{"bike_id":"30cbf9c0-d8c9-49e3-afe2-ea0d70b63a10","system_id":"levelo_inurba_marseille","lat":43.28384,"lon":5.38655,"is_reserved":false,"is_disabled":true,"rental_uris":{"android":"levelo://app?vid=30cbf9c0-d8c9-49e3-afe2-ea0d70b63a10","ios":"levelo://app?vid=30cbf9c0-d8c9-49e3-afe2-ea0d70b63a10"},"vehicle_type_id":"4","last_reported":1759216307,"current_range_meters":16400,"station_id":"ce4bh492rcd13ifvqdvg","pricing_plan_id":"cebpf4jnsgd1na2vs0mg"},{"bike_id":"cd05d3c7-6dce-4ce9-975e-77f0e397a2d0","system_id":"levelo_inurba_marseille","lat":43.23158,"lon":5.43721,"is_reserved":false,"is_disabled":false,"rental_uris":{"android":"levelo://app?vid=cd05d3c7-6dce-4ce9-975e-77f0e397a2d0","ios":"levelo://app?vid=cd05d3c7-6dce-4ce9-975e-77f0e397a2d0"},"vehicle_type_id":"4","last_reported":1759216307,"current_range_meters":16400,"station_id":"ce4bhmp2rcd13ifvqgog","pricing_plan_id":"cebpf4jnsgd1na2vs0mg"},{"bike_id":"84f305ce-7cfe-45d4-9172-1384fd3180f3","system_id":"levelo_inurba_marseille","lat":43.22926,"lon":5.3539,"is_reserved":false,"is_disabled":false,"rental_uris":{"android":"levelo://app?vid=84f305ce-7cfe-45d4-9172-1384fd3180f3","ios":"levelo://app?vid=84f305ce-7cfe-45d4-9172-1384fd3180f3"},"vehicle_type_id":"4","last_reported":1759216307,"current_range_meters":16400,"station_id":"cpo3532slgdg3j2ikp40","pricing_plan_id":"cebpf4jnsgd1na2vs0mg"},{"bike_id":"2cc56bfc-d8fb-4d4b-941e-55bb6df09452","system_id":"levelo_inurba_marseille","lat":43.24183,"lon":5.3973,"is_reserved":false,"is_disabled":false,"rental_uris":{"android":"levelo://app?vid=2cc56bfc-d8fb-4d4b-941e-55bb6df09452","ios":"levelo://app?vid=2cc56bfc-d8fb-4d4b-941e-55bb6df09452"},"vehicle_type_id":"4","last_reported":1759216307,"current_range_meters":16400,"station_id":"ce4bhn12rcd13ifvqgpg","pricing_plan_id":"cebpf4jnsgd1na2vs0mg"},{"bike_id":"d119d65d-795f-45bf-bd8e-3830d3e90497","system_id":"levelo_inurba_marseille","lat":43.30899,"lon":5.36863,"is_reserved":false,"is_disabled":false,"rental_uris":{"android":"levelo://app?vid=d119d65d-795f-45bf-bd8e-3830d3e90497","ios":"levelo://app?vid=d119d65d-795f-45bf-bd8e-3830d3e90497"},"vehicle_type_id":"4","last_reported":1759216307,"current_range_meters":16800,"station_id":"ce4bgn92rcd13ifvqbvg","pricing_plan_id":"cebpf4jnsgd1na2vs0mg"},{"bike_id":"a850760d-f890-4818-860e-321d70e97b11","system_id":"levelo_inurba_marseille","lat":43.32368,"lon":5.36771,"is_reserved":false,"is_disabled":false,"rental_uris":{"android":"levelo://app?vid=a850760d-f890-4818-860e-321d70e97b11","ios":"levelo://app?vid=a850760d-f890-4818-860e-321d70e97b11"},"vehicle_type_id":"4","last_reported":1759216307,"current_range_meters":16800,"station_id":"ce4bhsh2rcd13ifvqi2g","pricing_plan_id":"cebpf4jnsgd1na2vs0mg"},{"bike_id":"6523f72e-1462-440e-bc86-c0c457314b50","system_id":"levelo_inurba_marseille","lat":43.336086,"lon":5.410392,"is_reserved":false,"is_disabled":false,"rental_uris":{"android":"levelo://app?vid=6523f72e-1462-440e-bc86-c0c457314b50","ios":"levelo://app?vid=6523f72e-1462-440e-bc86-c0c457314b50"},"vehicle_type_id":"4","last_reported":1759216307,"current_range_meters":16800,"station_id":"ce4bhqh2rcd13ifvqhmg","pricing_plan_id":"cebpf4jnsgd1na2vs0mg"},{"bike_id":"30c6a142-84d7-4430-9dd8-5b1d2794f82e","system_id":"levelo_inurba_marseille","lat":43.3414,"lon":5.40907,"is_reserved":false,"is_disabled":true,"rental_uris":{"android":"levelo://app?vid=30c6a142-84d7-4430-9dd8-5b1d2794f82e","ios":"levelo://app?vid=30c6a142-84d7-4430-9dd8-5b1d2794f82e"},"vehicle_type_id":"4","last_reported":1759216307,"current_range_meters":16800,"station_id":"ce4bhqh2rcd13ifvqhlg","pricing_plan_id":"cebpf4jnsgd1na2vs0mg"},{"bike_id":"4d4b834b-c56b-4462-ab15-77d1aaad4377","system_id":"levelo_inurba_marseille","lat":43.29037,"lon":5.39962,"is_reserved":false,"is_disabled":false,"rental_uris":{"android":"levelo://app?vid=4d4b834b-c56b-4462-ab15-77d1aaad4377","ios":"levelo://app?vid=4d4b834b-c56b-4462-ab15-77d1aaad4377"},"vehicle_type_id":"4","last_reported":1759216307,"current_range_meters":16800,"station_id":"ce4bh392rcd13ifvqdm0","pricing_plan_id":"cebpf4jnsgd1na2vs0mg"},{"bike_id":"7cd433e0-4dc5-4dcb-a5c6-f17936bd4cb6","system_id":"levelo_inurba_marseille","lat":43.31563,"lon":5.40346,"is_reserved":false,"is_disabled":false,"rental_uris":{"android":"levelo://app?vid=7cd433e0-4dc5-4dcb-a5c6-f17936bd4cb6","ios":"levelo://app?vid=7cd433e0-4dc5-4dcb-a5c6-f17936bd4cb6"},"vehicle_type_id":"4","last_reported":1759216307,"current_range_meters":16800,"station_id":"","pricing_plan_id":"cebpf4jnsgd1na2vs0mg"},{"bike_id":"a6ebbdef-1936-4a9e-8823-b4569c4d3494","system_id":"levelo_inurba_marseille","lat":43.24182,"lon":5.39726,"is_reserved":false,"is_disabled":false,"rental_uris":{"android":"levelo://app?vid=a6ebbdef-1936-4a9e-8823-b4569c4d3494","ios":"levelo://app?vid=a6ebbdef-1936-4a9e-8823-b4569c4d3494"},"vehicle_type_id":"4","last_reported":1759216307,"current_range_meters":16800,"station_id":"ce4bhn12rcd13ifvqgpg","pricing_plan_id":"cebpf4jnsgd1na2vs0mg"},{"bike_id":"627f0009-c086-4f8a-8406-c08f3975bb85","system_id":"levelo_inurba_marseille","lat":43.337914,"lon":5.374267,"is_reserved":false,"is_disabled":false,"rental_uris":{"android":"levelo://app?vid=627f0009-c086-4f8a-8406-c08f3975bb85","ios":"levelo://app?vid=627f0009-c086-4f8a-8406-c08f3975bb85"},"vehicle_type_id":"4","last_reported":1759216307,"current_range_meters":16800,"station_id":"","pricing_plan_id":"cebpf4jnsgd1na2vs0mg"},{"bike_id":"f9123536-66b6-4d6e-a473-094539ffdf2f","system_id":"levelo_inurba_marseille","lat":43.31222,"lon":5.36843,"is_reserved":false,"is_disabled":false,"rental_uris":{"android":"levelo://app?vid=f9123536-66b6-4d6e-a473-094539ffdf2f","ios":"levelo://app?vid=f9123536-66b6-4d6e-a473-094539ffdf2f"},"vehicle_type_id":"4","last_reported":1759216307,"current_range_meters":17200,"station_id":"ce4bgl92rcd13ifvqbq0","pricing_plan_id":"cebpf4jnsgd1na2vs0mg"},{"bike_id":"9df5e0b2-5b55-4f60-9ca0-91de9e8862da","system_id":"levelo_inurba_marseille","lat":43.301359,"lon":5.381188,"is_reserved":false,"is_disabled":false,"rental_uris":{"android":"levelo://app?vid=9df5e0b2-5b55-4f60-9ca0-91de9e8862da","ios":"levelo://app?vid=9df5e0b2-5b55-4f60-9ca0-91de9e8862da"},"vehicle_type_id":"4","last_reported":1759216307,"current_range_meters":17200,"station_id":"ce4bgjp2rcd13ifvqbh0","pricing_plan_id":"cebpf4jnsgd1na2vs0mg"},{"bike_id":"cfb1ef01-ed0e-413c-bb09-20e6d021e251","system_id":"levelo_inurba_marseille","lat":43.3253,"lon":5.41461,"is_reserved":false,"is_disabled":false,"rental_uris":{"android":"levelo://app?vid=cfb1ef01-ed0e-413c-bb09-20e6d021e251","ios":"levelo://app?vid=cfb1ef01-ed0e-413c-bb09-20e6d021e251"},"vehicle_type_id":"4","last_reported":1759216307,"current_range_meters":17200,"station_id":"ce4bhq12rcd13ifvqhhg","pricing_plan_id":"cebpf4jnsgd1na2vs0mg"},{"bike_id":"6f1c1183-05e2-4736-99d6-95025ee866f0","system_id":"levelo_inurba_marseille","lat":43.33603,"lon":5.41034,"is_reserved":false,"is_disabled":false,"rental_uris":{"android":"levelo://app?vid=6f1c1183-05e2-4736-99d6-95025ee866f0","ios":"levelo://app?vid=6f1c1183-05e2-4736-99d6-95025ee866f0"},"vehicle_type_id":"4","last_reported":1759216307,"current_range_meters":17200,"station_id":"ce4bhqh2rcd13ifvqhmg","pricing_plan_id":"cebpf4jnsgd1na2vs0mg"},{"bike_id":"9259d079-29af-4c38-99e0-f25e4d514b98","system_id":"levelo_inurba_marseille","lat":43.25941,"lon":5.40906,"is_reserved":false,"is_disabled":false,"rental_uris":{"android":"levelo://app?vid=9259d079-29af-4c38-99e0-f25e4d514b98","ios":"levelo://app?vid=9259d079-29af-4c38-99e0-f25e4d514b98"},"vehicle_type_id":"4","last_reported":1759216307,"current_range_meters":14800,"station_id":"ce4bhm92rcd13ifvqglg","pricing_plan_id":"cebpf4jnsgd1na2vs0mg"},{"bike_id":"fc96277e-6453-4bb0-af0e-c53026f29778","system_id":"levelo_inurba_marseille","lat":43.28547,"lon":5.38431,"is_reserved":false,"is_disabled":false,"rental_uris":{"android":"levelo://app?vid=fc96277e-6453-4bb0-af0e-c53026f29778","ios":"levelo://app?vid=fc96277e-6453-4bb0-af0e-c53026f29778"},"vehicle_type_id":"4","last_reported":1759216307,"current_range_meters":17200,"station_id":"","pricing_plan_id":"cebpf4jnsgd1na2vs0mg"},{"bike_id":"c11d433c-682c-4b66-8bf6-cb02b58590e4","system_id":"levelo_inurba_marseille","lat":43.30882,"lon":5.37201,"is_reserved":false,"is_disabled":false,"rental_uris":{"android":"levelo://app?vid=c11d433c-682c-4b66-8bf6-cb02b58590e4","ios":"levelo://app?vid=c11d433c-682c-4b66-8bf6-cb02b58590e4"},"vehicle_type_id":"4","last_reported":1759216307,"current_range_meters":17200,"station_id":"ce4bguh2rcd13ifvqckg","pricing_plan_id":"cebpf4jnsgd1na2vs0mg"},{"bike_id":"daa47724-0bc3-499e-971d-3ffa8820cb5d","system_id":"levelo_inurba_marseille","lat":43.30586,"lon":5.37203,"is_reserved":false,"is_disabled":false,"rental_uris":{"android":"levelo://app?vid=daa47724-0bc3-499e-971d-3ffa8820cb5d","ios":"levelo://app?vid=daa47724-0bc3-499e-971d-3ffa8820cb5d"},"vehicle_type_id":"4","last_reported":1759216307,"current_range_meters":17200,"station_id":"ce4bgqh2rcd13ifvqc4g","pricing_plan_id":"cebpf4jnsgd1na2vs0mg"},{"bike_id":"617dca4b-4508-4d52-9e62-d583d919ac44","system_id":"levelo_inurba_marseille","lat":43.29748,"lon":5.37129,"is_reserved":false,"is_disabled":false,"rental_uris":{"android":"levelo://app?vid=617dca4b-4508-4d52-9e62-d583d919ac44","ios":"levelo://app?vid=617dca4b-4508-4d52-9e62-d583d919ac44"},"vehicle_type_id":"4","last_reported":1759216307,"current_range_meters":17200,"station_id":"ce4bgop2rcd13ifvqc1g","pricing_plan_id":"cebpf4jnsgd1na2vs0mg"},{"bike_id":"8529f32e-2b7c-4b03-9b67-3802b1b158ab","system_id":"levelo_inurba_marseille","lat":43.31349,"lon":5.36714,"is_reserved":false,"is_disabled":false,"rental_uris":{"android":"levelo://app?vid=8529f32e-2b7c-4b03-9b67-3802b1b158ab","ios":"levelo://app?vid=8529f32e-2b7c-4b03-9b67-3802b1b158ab"},"vehicle_type_id":"4","last_reported":1759216307,"current_range_meters":17200,"station_id":"ce4bgr92rcd13ifvqc6g","pricing_plan_id":"cebpf4jnsgd1na2vs0mg"},{"bike_id":"d88e0d03-a71d-4d69-bfe0-f7906e10eef6","system_id":"levelo_inurba_marseille","lat":43.22935,"lon":5.35391,"is_reserved":false,"is_disabled":false,"rental_uris":{"android":"levelo://app?vid=d88e0d03-a71d-4d69-bfe0-f7906e10eef6","ios":"levelo://app?vid=d88e0d03-a71d-4d69-bfe0-f7906e10eef6"},"vehicle_type_id":"4","last_reported":1759216307,"current_range_meters":17200,"station_id":"cpo3532slgdg3j2ikp40","pricing_plan_id":"cebpf4jnsgd1na2vs0mg"},{"bike_id":"de465f74-b2e1-47fa-8954-0564a43f223d","system_id":"levelo_inurba_marseille","lat":43.32548,"lon":5.41462,"is_reserved":false,"is_disabled":false,"rental_uris":{"android":"levelo://app?vid=de465f74-b2e1-47fa-8954-0564a43f223d","ios":"levelo://app?vid=de465f74-b2e1-47fa-8954-0564a43f223d"},"vehicle_type_id":"4","last_reported":1759216307,"current_range_meters":17600,"station_id":"ce4bhq12rcd13ifvqhhg","pricing_plan_id":"cebpf4jnsgd1na2vs0mg"},{"bike_id":"a58a4c94-7754-46be-b35a-a0b84fc468a5","system_id":"levelo_inurba_marseille","lat":43.29994,"lon":5.37342,"is_reserved":false,"is_disabled":false,"rental_uris":{"android":"levelo://app?vid=a58a4c94-7754-46be-b35a-a0b84fc468a5","ios":"levelo://app?vid=a58a4c94-7754-46be-b35a-a0b84fc468a5"},"vehicle_type_id":"4","last_reported":1759216307,"current_range_meters":17600,"station_id":"","pricing_plan_id":"cebpf4jnsgd1na2vs0mg"},{"bike_id":"6c2e96f0-0d94-4ada-b75d-f16e4d9045a7","system_id":"levelo_inurba_marseille","lat":43.23974,"lon":5.36632,"is_reserved":false,"is_disabled":false,"rental_uris":{"android":"levelo://app?vid=6c2e96f0-0d94-4ada-b75d-f16e4d9045a7","ios":"levelo://app?vid=6c2e96f0-0d94-4ada-b75d-f16e4d9045a7"},"vehicle_type_id":"4","last_reported":1759216307,"current_range_meters":17600,"station_id":"ce4bhi12rcd13ifvqfp0","pricing_plan_id":"cebpf4jnsgd1na2vs0mg"},{"bike_id":"b69f459f-9325-4d3a-bdcc-5f63cb1c049b","system_id":"levelo_inurba_marseille","lat":43.2558,"lon":5.38228,"is_reserved":false,"is_disabled":false,"rental_uris":{"android":"levelo://app?vid=b69f459f-9325-4d3a-bdcc-5f63cb1c049b","ios":"levelo://app?vid=b69f459f-9325-4d3a-bdcc-5f63cb1c049b"},"vehicle_type_id":"4","last_reported":1759216307,"current_range_meters":17600,"station_id":"ce4bhih2rcd13ifvqfs0","pricing_plan_id":"cebpf4jnsgd1na2vs0mg"},{"bike_id":"2bb97340-afe3-4878-aa10-d08408093c8a","system_id":"levelo_inurba_marseille","lat":43.28697,"lon":5.39981,"is_reserved":false,"is_disabled":false,"rental_uris":{"android":"levelo://app?vid=2bb97340-afe3-4878-aa10-d08408093c8a","ios":"levelo://app?vid=2bb97340-afe3-4878-aa10-d08408093c8a"},"vehicle_type_id":"4","last_reported":1759216307,"current_range_meters":17600,"station_id":"ce4bho92rcd13ifvqh3g","pricing_plan_id":"cebpf4jnsgd1na2vs0mg"},{"bike_id":"a9f05152-e55f-436d-b3d3-ffe2c2f0b84e","system_id":"levelo_inurba_marseille","lat":43.23143,"lon":5.43715,"is_reserved":false,"is_disabled":false,"rental_uris":{"android":"levelo://app?vid=a9f05152-e55f-436d-b3d3-ffe2c2f0b84e","ios":"levelo://app?vid=a9f05152-e55f-436d-b3d3-ffe2c2f0b84e"},"vehicle_type_id":"4","last_reported":1759216307,"current_range_meters":17600,"station_id":"ce4bhmp2rcd13ifvqgog","pricing_plan_id":"cebpf4jnsgd1na2vs0mg"},{"bike_id":"8e3fabd6-bd55-4d9e-9a40-3e4a28f8829d","system_id":"levelo_inurba_marseille","lat":43.30141,"lon":5.37423,"is_reserved":false,"is_disabled":false,"rental_uris":{"android":"levelo://app?vid=8e3fabd6-bd55-4d9e-9a40-3e4a28f8829d","ios":"levelo://app?vid=8e3fabd6-bd55-4d9e-9a40-3e4a28f8829d"},"vehicle_type_id":"4","last_reported":1759216307,"current_range_meters":17600,"station_id":"ce4bgs92rcd13ifvqcc0","pricing_plan_id":"cebpf4jnsgd1na2vs0mg"},{"bike_id":"ac29d873-6915-4631-9ed0-ba140b5afa92","system_id":"levelo_inurba_marseille","lat":43.25728,"lon":5.41106,"is_reserved":false,"is_disabled":false,"rental_uris":{"android":"levelo://app?vid=ac29d873-6915-4631-9ed0-ba140b5afa92","ios":"levelo://app?vid=ac29d873-6915-4631-9ed0-ba140b5afa92"},"vehicle_type_id":"4","last_reported":1759216307,"current_range_meters":17600,"station_id":"ce4bhkp2rcd13ifvqgd0","pricing_plan_id":"cebpf4jnsgd1na2vs0mg"},{"bike_id":"8754b302-5b77-4938-9da4-4ac157c17715","system_id":"levelo_inurba_marseille","lat":43.2679,"lon":5.39426,"is_reserved":false,"is_disabled":false,"rental_uris":{"android":"levelo://app?vid=8754b302-5b77-4938-9da4-4ac157c17715","ios":"levelo://app?vid=8754b302-5b77-4938-9da4-4ac157c17715"},"vehicle_type_id":"4","last_reported":1759216307,"current_range_meters":17600,"station_id":"ce4bhh12rcd13ifvqfg0","pricing_plan_id":"cebpf4jnsgd1na2vs0mg"},{"bike_id":"1adf72d4-f2e2-443a-bd81-e3e77d2b1f3e","system_id":"levelo_inurba_marseille","lat":43.26673,"lon":5.40238,"is_reserved":false,"is_disabled":false,"rental_uris":{"android":"levelo://app?vid=1adf72d4-f2e2-443a-bd81-e3e77d2b1f3e","ios":"levelo://app?vid=1adf72d4-f2e2-443a-bd81-e3e77d2b1f3e"},"vehicle_type_id":"4","last_reported":1759216307,"current_range_meters":17600,"station_id":"","pricing_plan_id":"cebpf4jnsgd1na2vs0mg"},{"bike_id":"00014611-59a6-4e24-b1d5-3ef0a2b6a909","system_id":"levelo_inurba_marseille","lat":43.2417,"lon":5.36406,"is_reserved":false,"is_disabled":false,"rental_uris":{"android":"levelo://app?vid=00014611-59a6-4e24-b1d5-3ef0a2b6a909","ios":"levelo://app?vid=00014611-59a6-4e24-b1d5-3ef0a2b6a909"},"vehicle_type_id":"4","last_reported":1759216307,"current_range_meters":17600,"station_id":"cpo36qri1sfpv3e86is0","pricing_plan_id":"cebpf4jnsgd1na2vs0mg"},{"bike_id":"50a6d9be-879d-4d99-9855-abb98fbce5b8","system_id":"levelo_inurba_marseille","lat":43.337851,"lon":5.374298,"is_reserved":false,"is_disabled":false,"rental_uris":{"android":"levelo://app?vid=50a6d9be-879d-4d99-9855-abb98fbce5b8","ios":"levelo://app?vid=50a6d9be-879d-4d99-9855-abb98fbce5b8"},"vehicle_type_id":"4","last_reported":1759216307,"current_range_meters":17600,"station_id":"","pricing_plan_id":"cebpf4jnsgd1na2vs0mg"},{"bike_id":"d525dfd6-a91e-4d84-bd81-696b3ed5c29e","system_id":"levelo_inurba_marseille","lat":43.302189,"lon":5.394733,"is_reserved":false,"is_disabled":false,"rental_uris":{"android":"levelo://app?vid=d525dfd6-a91e-4d84-bd81-696b3ed5c29e","ios":"levelo://app?vid=d525dfd6-a91e-4d84-bd81-696b3ed5c29e"},"vehicle_type_id":"4","last_reported":1759216307,"current_range_meters":17600,"station_id":"ce4bh0p2rcd13ifvqd70","pricing_plan_id":"cebpf4jnsgd1na2vs0mg"},{"bike_id":"6e35eb3a-244d-446e-ba2c-c58465f51251","system_id":"levelo_inurba_marseille","lat":43.32103,"lon":5.36772,"is_reserved":false,"is_disabled":false,"rental_uris":{"android":"levelo://app?vid=6e35eb3a-244d-446e-ba2c-c58465f51251","ios":"levelo://app?vid=6e35eb3a-244d-446e-ba2c-c58465f51251"},"vehicle_type_id":"4","last_reported":1759216307,"current_range_meters":18000,"station_id":"ce4bhrh2rcd13ifvqhug","pricing_plan_id":"cebpf4jnsgd1na2vs0mg"},{"bike_id":"4207f1f3-0af2-4204-b162-c37415aa190e","system_id":"levelo_inurba_marseille","lat":43.30605,"lon":5.37225,"is_reserved":false,"is_disabled":false,"rental_uris":{"android":"levelo://app?vid=4207f1f3-0af2-4204-b162-c37415aa190e","ios":"levelo://app?vid=4207f1f3-0af2-4204-b162-c37415aa190e"},"vehicle_type_id":"4","last_reported":1759216307,"current_range_meters":17600,"station_id":"ce4bgqh2rcd13ifvqc4g","pricing_plan_id":"cebpf4jnsgd1na2vs0mg"},{"bike_id":"10ed3188-5a4f-49ff-8679-9c660e862779","system_id":"levelo_inurba_marseille","lat":43.29044,"lon":5.35928,"is_reserved":false,"is_disabled":false,"rental_uris":{"android":"levelo://app?vid=10ed3188-5a4f-49ff-8679-9c660e862779","ios":"levelo://app?vid=10ed3188-5a4f-49ff-8679-9c660e862779"},"vehicle_type_id":"4","last_reported":1759216307,"current_range_meters":18000,"station_id":"ce4bha92rcd13ifvqeg0","pricing_plan_id":"cebpf4jnsgd1na2vs0mg"},{"bike_id":"2410b542-4dbb-4ba2-8de7-3b722fc9a69f","system_id":"levelo_inurba_marseille","lat":43.28458,"lon":5.35896,"is_reserved":false,"is_disabled":true,"rental_uris":{"android":"levelo://app?vid=2410b542-4dbb-4ba2-8de7-3b722fc9a69f","ios":"levelo://app?vid=2410b542-4dbb-4ba2-8de7-3b722fc9a69f"},"vehicle_type_id":"4","last_reported":1759216307,"current_range_meters":18000,"station_id":"ce4bhah2rcd13ifvqei0","pricing_plan_id":"cebpf4jnsgd1na2vs0mg"},{"bike_id":"b238c20a-7af2-4fc3-99c4-258657f1fe33","system_id":"levelo_inurba_marseille","lat":43.29868,"lon":5.39742,"is_reserved":false,"is_disabled":false,"rental_uris":{"android":"levelo://app?vid=b238c20a-7af2-4fc3-99c4-258657f1fe33","ios":"levelo://app?vid=b238c20a-7af2-4fc3-99c4-258657f1fe33"},"vehicle_type_id":"4","last_reported":1759216307,"current_range_meters":18000,"station_id":"ce4bh0h2rcd13ifvqd50","pricing_plan_id":"cebpf4jnsgd1na2vs0mg"},{"bike_id":"43a4fa48-f63c-4f7a-8488-e7fe2d02ced9","system_id":"levelo_inurba_marseille","lat":43.28039,"lon":5.36952,"is_reserved":false,"is_disabled":false,"rental_uris":{"android":"levelo://app?vid=43a4fa48-f63c-4f7a-8488-e7fe2d02ced9","ios":"levelo://app?vid=43a4fa48-f63c-4f7a-8488-e7fe2d02ced9"},"vehicle_type_id":"4","last_reported":1759216307,"current_range_meters":18000,"station_id":"ce4bha12rcd13ifvqef0","pricing_plan_id":"cebpf4jnsgd1na2vs0mg"},{"bike_id":"0a93e32c-58e9-4e8d-b8bd-c8697cf93704","system_id":"levelo_inurba_marseille","lat":43.2594,"lon":5.40887,"is_reserved":false,"is_disabled":false,"rental_uris":{"android":"levelo://app?vid=0a93e32c-58e9-4e8d-b8bd-c8697cf93704","ios":"levelo://app?vid=0a93e32c-58e9-4e8d-b8bd-c8697cf93704"},"vehicle_type_id":"4","last_reported":1759216307,"current_range_meters":18000,"station_id":"ce4bhm92rcd13ifvqglg","pricing_plan_id":"cebpf4jnsgd1na2vs0mg"},{"bike_id":"dd01cc88-b00e-4503-b7f6-35a9f933c0fe","system_id":"levelo_inurba_marseille","lat":43.25929,"lon":5.40891,"is_reserved":false,"is_disabled":false,"rental_uris":{"android":"levelo://app?vid=dd01cc88-b00e-4503-b7f6-35a9f933c0fe","ios":"levelo://app?vid=dd01cc88-b00e-4503-b7f6-35a9f933c0fe"},"vehicle_type_id":"4","last_reported":1759216307,"current_range_meters":18000,"station_id":"ce4bhm92rcd13ifvqglg","pricing_plan_id":"cebpf4jnsgd1na2vs0mg"},{"bike_id":"3b857ea9-4c8b-46f4-8d3b-7945956cc14c","system_id":"levelo_inurba_marseille","lat":43.30217,"lon":5.3947,"is_reserved":false,"is_disabled":false,"rental_uris":{"android":"levelo://app?vid=3b857ea9-4c8b-46f4-8d3b-7945956cc14c","ios":"levelo://app?vid=3b857ea9-4c8b-46f4-8d3b-7945956cc14c"},"vehicle_type_id":"4","last_reported":1759216307,"current_range_meters":18000,"station_id":"ce4bh0p2rcd13ifvqd70","pricing_plan_id":"cebpf4jnsgd1na2vs0mg"},{"bike_id":"3f8a7425-65dd-467a-bda8-36ede2e6a269","system_id":"levelo_inurba_marseille","lat":43.26913,"lon":5.41019,"is_reserved":false,"is_disabled":false,"rental_uris":{"android":"levelo://app?vid=3f8a7425-65dd-467a-bda8-36ede2e6a269","ios":"levelo://app?vid=3f8a7425-65dd-467a-bda8-36ede2e6a269"},"vehicle_type_id":"4","last_reported":1759216307,"current_range_meters":18800,"station_id":"","pricing_plan_id":"cebpf4jnsgd1na2vs0mg"},{"bike_id":"480a4830-78ac-42ad-9691-5a181be8fe49","system_id":"levelo_inurba_marseille","lat":43.27997,"lon":5.416681,"is_reserved":false,"is_disabled":false,"rental_uris":{"android":"levelo://app?vid=480a4830-78ac-42ad-9691-5a181be8fe49","ios":"levelo://app?vid=480a4830-78ac-42ad-9691-5a181be8fe49"},"vehicle_type_id":"4","last_reported":1759216307,"current_range_meters":18800,"station_id":"ce4bho12rcd13ifvqh1g","pricing_plan_id":"cebpf4jnsgd1na2vs0mg"},{"bike_id":"798edebd-592b-4b4d-b29e-eb433556261e","system_id":"levelo_inurba_marseille","lat":43.22935,"lon":5.35382,"is_reserved":false,"is_disabled":false,"rental_uris":{"android":"levelo://app?vid=798edebd-592b-4b4d-b29e-eb433556261e","ios":"levelo://app?vid=798edebd-592b-4b4d-b29e-eb433556261e"},"vehicle_type_id":"4","last_reported":1759216307,"current_range_meters":18800,"station_id":"cpo3532slgdg3j2ikp40","pricing_plan_id":"cebpf4jnsgd1na2vs0mg"},{"bike_id":"b77331d9-22e0-4637-941e-e2301337dca0","system_id":"levelo_inurba_marseille","lat":43.287021,"lon":5.373864,"is_reserved":false,"is_disabled":false,"rental_uris":{"android":"levelo://app?vid=b77331d9-22e0-4637-941e-e2301337dca0","ios":"levelo://app?vid=b77331d9-22e0-4637-941e-e2301337dca0"},"vehicle_type_id":"4","last_reported":1759216307,"current_range_meters":18800,"station_id":"ce4bh3p2rcd13ifvqdq0","pricing_plan_id":"cebpf4jnsgd1na2vs0mg"},{"bike_id":"db3a202b-6514-4a53-892d-e953fc1e9d26","system_id":"levelo_inurba_marseille","lat":43.225369,"lon":5.348573,"is_reserved":false,"is_disabled":false,"rental_uris":{"android":"levelo://app?vid=db3a202b-6514-4a53-892d-e953fc1e9d26","ios":"levelo://app?vid=db3a202b-6514-4a53-892d-e953fc1e9d26"},"vehicle_type_id":"4","last_reported":1759216307,"current_range_meters":18800,"station_id":"","pricing_plan_id":"cebpf4jnsgd1na2vs0mg"},{"bike_id":"700e2971-7ce2-46cc-996b-6959d72691c7","system_id":"levelo_inurba_marseille","lat":43.22578,"lon":5.41631,"is_reserved":false,"is_disabled":false,"rental_uris":{"android":"levelo://app?vid=700e2971-7ce2-46cc-996b-6959d72691c7","ios":"levelo://app?vid=700e2971-7ce2-46cc-996b-6959d72691c7"},"vehicle_type_id":"4","last_reported":1759216307,"current_range_meters":18800,"station_id":"st_d2o4gvlbi1j2169b742g","pricing_plan_id":"cebpf4jnsgd1na2vs0mg"},{"bike_id":"f8bbd58f-9863-4694-99e5-971673ef7f47","system_id":"levelo_inurba_marseille","lat":43.29779,"lon":5.37109,"is_reserved":false,"is_disabled":false,"rental_uris":{"android":"levelo://app?vid=f8bbd58f-9863-4694-99e5-971673ef7f47","ios":"levelo://app?vid=f8bbd58f-9863-4694-99e5-971673ef7f47"},"vehicle_type_id":"4","last_reported":1759216307,"current_range_meters":18800,"station_id":"ce4bgop2rcd13ifvqc1g","pricing_plan_id":"cebpf4jnsgd1na2vs0mg"},{"bike_id":"123e055a-692b-459b-9c4f-970a83ad75be","system_id":"levelo_inurba_marseille","lat":43.32374,"lon":5.36753,"is_reserved":false,"is_disabled":false,"rental_uris":{"android":"levelo://app?vid=123e055a-692b-459b-9c4f-970a83ad75be","ios":"levelo://app?vid=123e055a-692b-459b-9c4f-970a83ad75be"},"vehicle_type_id":"4","last_reported":1759216307,"current_range_meters":18800,"station_id":"ce4bhsh2rcd13ifvqi2g","pricing_plan_id":"cebpf4jnsgd1na2vs0mg"},{"bike_id":"61f8f33f-d2c4-4100-9b91-c107e79201ea","system_id":"levelo_inurba_marseille","lat":43.254618,"lon":5.384122,"is_reserved":false,"is_disabled":false,"rental_uris":{"android":"levelo://app?vid=61f8f33f-d2c4-4100-9b91-c107e79201ea","ios":"levelo://app?vid=61f8f33f-d2c4-4100-9b91-c107e79201ea"},"vehicle_type_id":"4","last_reported":1759216307,"current_range_meters":18800,"station_id":"ce4bhih2rcd13ifvqfs0","pricing_plan_id":"cebpf4jnsgd1na2vs0mg"},{"bike_id":"bc8262df-64cd-49b7-a937-705cac4cc04e","system_id":"levelo_inurba_marseille","lat":43.33613,"lon":5.41038,"is_reserved":false,"is_disabled":false,"rental_uris":{"android":"levelo://app?vid=bc8262df-64cd-49b7-a937-705cac4cc04e","ios":"levelo://app?vid=bc8262df-64cd-49b7-a937-705cac4cc04e"},"vehicle_type_id":"4","last_reported":1759216307,"current_range_meters":18800,"station_id":"ce4bhqh2rcd13ifvqhmg","pricing_plan_id":"cebpf4jnsgd1na2vs0mg"},{"bike_id":"79d9db95-e4ae-45dd-890b-5b897c500874","system_id":"levelo_inurba_marseille","lat":43.30946,"lon":5.39078,"is_reserved":false,"is_disabled":false,"rental_uris":{"android":"levelo://app?vid=79d9db95-e4ae-45dd-890b-5b897c500874","ios":"levelo://app?vid=79d9db95-e4ae-45dd-890b-5b897c500874"},"vehicle_type_id":"4","last_reported":1759216307,"current_range_meters":18800,"station_id":"ce4bgup2rcd13ifvqco0","pricing_plan_id":"cebpf4jnsgd1na2vs0mg"},{"bike_id":"dd96ad11-bc9a-4236-a467-dab6a7e0617d","system_id":"levelo_inurba_marseille","lat":43.25352,"lon":5.42207,"is_reserved":false,"is_disabled":false,"rental_uris":{"android":"levelo://app?vid=dd96ad11-bc9a-4236-a467-dab6a7e0617d","ios":"levelo://app?vid=dd96ad11-bc9a-4236-a467-dab6a7e0617d"},"vehicle_type_id":"4","last_reported":1759216307,"current_range_meters":19200,"station_id":"st_d2m65c5bi1j21697t3ng","pricing_plan_id":"cebpf4jnsgd1na2vs0mg"},{"bike_id":"850d8032-ed68-48c3-93bd-7452e833188c","system_id":"levelo_inurba_marseille","lat":43.2926,"lon":5.409096,"is_reserved":false,"is_disabled":false,"rental_uris":{"android":"levelo://app?vid=850d8032-ed68-48c3-93bd-7452e833188c","ios":"levelo://app?vid=850d8032-ed68-48c3-93bd-7452e833188c"},"vehicle_type_id":"4","last_reported":1759216307,"current_range_meters":19200,"station_id":"","pricing_plan_id":"cebpf4jnsgd1na2vs0mg"},{"bike_id":"73e22ed6-f150-4bd5-a7c9-af939e7a8ce9","system_id":"levelo_inurba_marseille","lat":43.290507,"lon":5.419421,"is_reserved":false,"is_disabled":false,"rental_uris":{"android":"levelo://app?vid=73e22ed6-f150-4bd5-a7c9-af939e7a8ce9","ios":"levelo://app?vid=73e22ed6-f150-4bd5-a7c9-af939e7a8ce9"},"vehicle_type_id":"4","last_reported":1759216307,"current_range_meters":19200,"station_id":"","pricing_plan_id":"cebpf4jnsgd1na2vs0mg"},{"bike_id":"e8a6d609-d965-4c72-b22f-83ffb60a3d29","system_id":"levelo_inurba_marseille","lat":43.25942,"lon":5.40903,"is_reserved":false,"is_disabled":false,"rental_uris":{"android":"levelo://app?vid=e8a6d609-d965-4c72-b22f-83ffb60a3d29","ios":"levelo://app?vid=e8a6d609-d965-4c72-b22f-83ffb60a3d29"},"vehicle_type_id":"4","last_reported":1759216307,"current_range_meters":19200,"station_id":"ce4bhm92rcd13ifvqglg","pricing_plan_id":"cebpf4jnsgd1na2vs0mg"},{"bike_id":"b5d58d2d-4f1c-4a47-a1a8-948d3786c63a","system_id":"levelo_inurba_marseille","lat":43.26789,"lon":5.3941,"is_reserved":false,"is_disabled":false,"rental_uris":{"android":"levelo://app?vid=b5d58d2d-4f1c-4a47-a1a8-948d3786c63a","ios":"levelo://app?vid=b5d58d2d-4f1c-4a47-a1a8-948d3786c63a"},"vehicle_type_id":"4","last_reported":1759216307,"current_range_meters":18800,"station_id":"ce4bhh12rcd13ifvqfg0","pricing_plan_id":"cebpf4jnsgd1na2vs0mg"},{"bike_id":"dec5a099-8626-4f6c-954c-cdebdec909cd","system_id":"levelo_inurba_marseille","lat":43.30469,"lon":5.37908,"is_reserved":false,"is_disabled":false,"rental_uris":{"android":"levelo://app?vid=dec5a099-8626-4f6c-954c-cdebdec909cd","ios":"levelo://app?vid=dec5a099-8626-4f6c-954c-cdebdec909cd"},"vehicle_type_id":"4","last_reported":1759216307,"current_range_meters":19200,"station_id":"ce4bgup2rcd13ifvqcn0","pricing_plan_id":"cebpf4jnsgd1na2vs0mg"},{"bike_id":"57e89a10-ea50-4cc0-86fd-493b6cefbc5b","system_id":"levelo_inurba_marseille","lat":43.297777,"lon":5.370901,"is_reserved":false,"is_disabled":false,"rental_uris":{"android":"levelo://app?vid=57e89a10-ea50-4cc0-86fd-493b6cefbc5b","ios":"levelo://app?vid=57e89a10-ea50-4cc0-86fd-493b6cefbc5b"},"vehicle_type_id":"4","last_reported":1759216307,"current_range_meters":19200,"station_id":"ce4bgop2rcd13ifvqc1g","pricing_plan_id":"cebpf4jnsgd1na2vs0mg"},{"bike_id":"d81e7086-a597-422a-8b7f-f9a7c928d9cf","system_id":"levelo_inurba_marseille","lat":43.29759,"lon":5.38905,"is_reserved":false,"is_disabled":false,"rental_uris":{"android":"levelo://app?vid=d81e7086-a597-422a-8b7f-f9a7c928d9cf","ios":"levelo://app?vid=d81e7086-a597-422a-8b7f-f9a7c928d9cf"},"vehicle_type_id":"4","last_reported":1759216307,"current_range_meters":19200,"station_id":"","pricing_plan_id":"cebpf4jnsgd1na2vs0mg"},{"bike_id":"a7d7834a-6060-4214-a66f-8338e20b7942","system_id":"levelo_inurba_marseille","lat":43.29091,"lon":5.3713,"is_reserved":false,"is_disabled":false,"rental_uris":{"android":"levelo://app?vid=a7d7834a-6060-4214-a66f-8338e20b7942","ios":"levelo://app?vid=a7d7834a-6060-4214-a66f-8338e20b7942"},"vehicle_type_id":"4","last_reported":1759216307,"current_range_meters":19200,"station_id":"","pricing_plan_id":"cebpf4jnsgd1na2vs0mg"},{"bike_id":"7d1df799-fe2b-4bd1-a346-6d07b55bef0f","system_id":"levelo_inurba_marseille","lat":43.26679,"lon":5.38266,"is_reserved":false,"is_disabled":false,"rental_uris":{"android":"levelo://app?vid=7d1df799-fe2b-4bd1-a346-6d07b55bef0f","ios":"levelo://app?vid=7d1df799-fe2b-4bd1-a346-6d07b55bef0f"},"vehicle_type_id":"4","last_reported":1759216307,"current_range_meters":18800,"station_id":"ce4bhg92rcd13ifvqf90","pricing_plan_id":"cebpf4jnsgd1na2vs0mg"},{"bike_id":"606f665f-1aed-4bfd-9b33-226cd955c1ba","system_id":"levelo_inurba_marseille","lat":43.25926,"lon":5.4088,"is_reserved":false,"is_disabled":false,"rental_uris":{"android":"levelo://app?vid=606f665f-1aed-4bfd-9b33-226cd955c1ba","ios":"levelo://app?vid=606f665f-1aed-4bfd-9b33-226cd955c1ba"},"vehicle_type_id":"4","last_reported":1759216307,"current_range_meters":19200,"station_id":"ce4bhm92rcd13ifvqglg","pricing_plan_id":"cebpf4jnsgd1na2vs0mg"},{"bike_id":"bb80e5da-8df2-462f-8828-7587302fcb86","system_id":"levelo_inurba_marseille","lat":43.29784,"lon":5.37666,"is_reserved":false,"is_disabled":false,"rental_uris":{"android":"levelo://app?vid=bb80e5da-8df2-462f-8828-7587302fcb86","ios":"levelo://app?vid=bb80e5da-8df2-462f-8828-7587302fcb86"},"vehicle_type_id":"4","last_reported":1759216307,"current_range_meters":19200,"station_id":"","pricing_plan_id":"cebpf4jnsgd1na2vs0mg"},{"bike_id":"b3f77c1f-cca2-487b-9edf-acd8259cecc3","system_id":"levelo_inurba_marseille","lat":43.26199,"lon":5.37936,"is_reserved":false,"is_disabled":false,"rental_uris":{"android":"levelo://app?vid=b3f77c1f-cca2-487b-9edf-acd8259cecc3","ios":"levelo://app?vid=b3f77c1f-cca2-487b-9edf-acd8259cecc3"},"vehicle_type_id":"4","last_reported":1759216307,"current_range_meters":18800,"station_id":"ce4bhjp2rcd13ifvqg90","pricing_plan_id":"cebpf4jnsgd1na2vs0mg"},