{"last_updated":1734538319,"ttl":60,"version":"2.2","data":{"bikes":[{"bike_id":"e6104320-5417-49d8-9b38-1c75866a7d01","system_id":"levelo_inurba_marseille","lat":43.29856,"lon":5.36272,"is_reserved":false,"is_disabled":false,"rental_uris":{"android":"levelo://app?vid=e6104320-5417-49d8-9b38-1c75866a7d01","ios":"levelo://app?vid=e6104320-5417-49d8-9b38-1c75866a7d01"},"vehicle_type_id":"4","last_reported":1734538319,"current_range_meters":36800,"station_id":"ce4bgpp2rcd13ifvqc3g","pricing_plan_id":"cebpf4jnsgd1na2vs0mg"},{"bike_id":"9e3aeb8f-72bf-4133-86f8-eb3c3c0e4766","system_id":"levelo_inurba_marseille","lat":43.27368,"lon":5.36238,"is_reserved":false,"is_disabled":false,"rental_uris":{"android":"levelo://app?vid=9e3aeb8f-72bf-4133-86f8-eb3c3c0e4766","ios":"levelo://app?vid=9e3aeb8f-72bf-4133-86f8-eb3c3c0e4766"},"vehicle_type_id":"4","last_reported":1734538319,"current_range_meters":39200,"station_id":"ce4bhbh2rcd13ifvqeo0","pricing_plan_id":"cebpf4jnsgd1na2vs0mg"},{"bike_id":"68ae3e89-ff54-490d-ad4d-2a307476a24a","system_id":"levelo_inurba_marseille","lat":43.27684,"lon":5.38887,"is_reserved":false,"is_disabled":false,"rental_uris":{"android":"levelo://app?vid=68ae3e89-ff54-490d-ad4d-2a307476a24a","ios":"levelo://app?vid=68ae3e89-ff54-490d-ad4d-2a307476a24a"},"vehicle_type_id":"4","last_reported":1734538319,"current_range_meters":36800,"station_id":"ce4bhi12rcd13ifvqfo0","pricing_plan_id":"cebpf4jnsgd1na2vs0mg"},{"bike_id":"138dc06d-e129-4f74-9b31-d9492da7f837","system_id":"levelo_inurba_marseille","lat":43.24166,"lon":5.36387,"is_reserved":false,"is_disabled":false,"rental_uris":{"android":"levelo://app?vid=138dc06d-e129-4f74-9b31-d9492da7f837","ios":"levelo://app?vid=138dc06d-e129-4f74-9b31-d9492da7f837"},"vehicle_type_id":"4","last_reported":1734538319,"current_range_meters":38800,"station_id":"cpo36qri1sfpv3e86is0","pricing_plan_id":"cebpf4jnsgd1na2vs0mg"},{"bike_id":"ed47d069-7f8e-44e1-b993-32ab0d130fe6","system_id":"levelo_inurba_marseille","lat":43.25589,"lon":5.38247,"is_reserved":false,"is_disabled":false,"rental_uris":{"android":"levelo://app?vid=ed47d069-7f8e-44e1-b993-32ab0d130fe6","ios":"levelo://app?vid=ed47d069-7f8e-44e1-b993-32ab0d130fe6"},"vehicle_type_id":"4","last_reported":1734538319,"current_range_meters":15200,"station_id":"ce4bhih2rcd13ifvqfs0","pricing_plan_id":"cebpf4jnsgd1na2vs0mg"},{"bike_id":"9f9ec091-7ab2-456b-b3aa-5bbd85336f8f","system_id":"levelo_inurba_marseille","lat":43.28183,"lon":5.38623,"is_reserved":false,"is_disabled":false,"rental_uris":{"android":"levelo://app?vid=9f9ec091-7ab2-456b-b3aa-5bbd85336f8f","ios":"levelo://app?vid=9f9ec091-7ab2-456b-b3aa-5bbd85336f8f"},"vehicle_type_id":"4","last_reported":1734538319,"current_range_meters":24000,"station_id":"","pricing_plan_id":"cebpf4jnsgd1na2vs0mg"},{"bike_id":"15471623-bfa4-45cf-9697-6d7817925794","system_id":"levelo_inurba_marseille","lat":43.30207,"lon":5.39464,"is_reserved":false,"is_disabled":false,"rental_uris":{"android":"levelo://app?vid=15471623-bfa4-45cf-9697-6d7817925794","ios":"levelo://app?vid=15471623-bfa4-45cf-9697-6d7817925794"},"vehicle_type_id":"4","last_reported":1734538319,"current_range_meters":30000,"station_id":"ce4bh0p2rcd13ifvqd70","pricing_plan_id":"cebpf4jnsgd1na2vs0mg"},{"bike_id":"81d3e597-3bce-470f-a24f-c70eb8e49aa7","system_id":"levelo_inurba_marseille","lat":43.28269,"lon":5.35077,"is_reserved":false,"is_disabled":false,"rental_uris":{"android":"levelo://app?vid=81d3e597-3bce-470f-a24f-c70eb8e49aa7","ios":"levelo://app?vid=81d3e597-3bce-470f-a24f-c70eb8e49aa7"},"vehicle_type_id":"4","last_reported":1734538319,"current_range_meters":12400,"station_id":"ce4bhbp2rcd13ifvqerg","pricing_plan_id":"cebpf4jnsgd1na2vs0mg"},{"bike_id":"b1b1f756-c1a0-4e66-8530-9c85602c1813","system_id":"levelo_inurba_marseille","lat":43.32375,"lon":5.36763,"is_reserved":false,"is_disabled":false,"rental_uris":{"android":"levelo://app?vid=b1b1f756-c1a0-4e66-8530-9c85602c1813","ios":"levelo://app?vid=b1b1f756-c1a0-4e66-8530-9c85602c1813"},"vehicle_type_id":"4","last_reported":1734538319,"current_range_meters":17600,"station_id":"ce4bhsh2rcd13ifvqi2g","pricing_plan_id":"cebpf4jnsgd1na2vs0mg"},{"bike_id":"bca2340a-8004-4c0f-8043-686a667e19f3","system_id":"levelo_inurba_marseille","lat":43.26558,"lon":5.3728,"is_reserved":false,"is_disabled":false,"rental_uris":{"android":"levelo://app?vid=bca2340a-8004-4c0f-8043-686a667e19f3","ios":"levelo://app?vid=bca2340a-8004-4c0f-8043-686a667e19f3"},"vehicle_type_id":"4","last_reported":1734538319,"current_range_meters":30400,"station_id":"ce4bhg12rcd13ifvqf70","pricing_plan_id":"cebpf4jnsgd1na2vs0mg"},{"bike_id":"4b1915a1-a90f-4040-aad5-e3878452fd68","system_id":"levelo_inurba_marseille","lat":43.330078,"lon":5.389946,"is_reserved":false,"is_disabled":false,"rental_uris":{"android":"levelo://app?vid=4b1915a1-a90f-4040-aad5-e3878452fd68","ios":"levelo://app?vid=4b1915a1-a90f-4040-aad5-e3878452fd68"},"vehicle_type_id":"4","last_reported":1734538319,"current_range_meters":38800,"station_id":"ce4bhr92rcd13ifvqhrg","pricing_plan_id":"cebpf4jnsgd1na2vs0mg"},{"bike_id":"f8f4644b-b4b3-4afc-8ea8-5e29fd28e6bb","system_id":"levelo_inurba_marseille","lat":43.2826,"lon":5.35083,"is_reserved":false,"is_disabled":false,"rental_uris":{"android":"levelo://app?vid=f8f4644b-b4b3-4afc-8ea8-5e29fd28e6bb","ios":"levelo://app?vid=f8f4644b-b4b3-4afc-8ea8-5e29fd28e6bb"},"vehicle_type_id":"4","last_reported":1734538319,"current_range_meters":4000,"station_id":"ce4bhbp2rcd13ifvqerg","pricing_plan_id":"cebpf4jnsgd1na2vs0mg"},{"bike_id":"4d2b778a-07de-4b20-a929-eabd85476bc3","system_id":"levelo_inurba_marseille","lat":43.29574,"lon":5.37514,"is_reserved":false,"is_disabled":false,"rental_uris":{"android":"levelo://app?vid=4d2b778a-07de-4b20-a929-eabd85476bc3","ios":"levelo://app?vid=4d2b778a-07de-4b20-a929-eabd85476bc3"},"vehicle_type_id":"4","last_reported":1734538319,"current_range_meters":34000,"station_id":"ce4bgh92rcd13ifvqb50","pricing_plan_id":"cebpf4jnsgd1na2vs0mg"},{"bike_id":"be8472ad-936b-4492-b7c3-2951c6a8a5ae","system_id":"levelo_inurba_marseille","lat":43.295224,"lon":5.375081,"is_reserved":false,"is_disabled":false,"rental_uris":{"android":"levelo://app?vid=be8472ad-936b-4492-b7c3-2951c6a8a5ae","ios":"levelo://app?vid=be8472ad-936b-4492-b7c3-2951c6a8a5ae"},"vehicle_type_id":"4","last_reported":1734538319,"current_range_meters":32000,"station_id":"ce4bgkp2rcd13ifvqbmg","pricing_plan_id":"cebpf4jnsgd1na2vs0mg"},{"bike_id":"a5bab296-af15-45a1-81e9-5b6f00bc7788","system_id":"levelo_inurba_marseille","lat":43.26934,"lon":5.4026,"is_reserved":false,"is_disabled":false,"rental_uris":{"android":"levelo://app?vid=a5bab296-af15-45a1-81e9-5b6f00bc7788","ios":"levelo://app?vid=a5bab296-af15-45a1-81e9-5b6f00bc7788"},"vehicle_type_id":"4","last_reported":1734538319,"current_range_meters":34800,"station_id":"cjm6bp8fraef2m0cb0m0","pricing_plan_id":"cebpf4jnsgd1na2vs0mg"},{"bike_id":"61efb575-0e46-4d31-b446-9e16c9f727fb","system_id":"levelo_inurba_marseille","lat":43.28425,"lon":5.34989,"is_reserved":false,"is_disabled":false,"rental_uris":{"android":"levelo://app?vid=61efb575-0e46-4d31-b446-9e16c9f727fb","ios":"levelo://app?vid=61efb575-0e46-4d31-b446-9e16c9f727fb"},"vehicle_type_id":"4","last_reported":1734538319,"current_range_meters":17200,"station_id":"ce4bhbh2rcd13ifvqepg","pricing_plan_id":"cebpf4jnsgd1na2vs0mg"},{"bike_id":"58be73d0-d5d6-49d5-a5d7-8c143188158e","system_id":"levelo_inurba_marseille","lat":43.29879,"lon":5.36316,"is_reserved":false,"is_disabled":false,"rental_uris":{"android":"levelo://app?vid=58be73d0-d5d6-49d5-a5d7-8c143188158e","ios":"levelo://app?vid=58be73d0-d5d6-49d5-a5d7-8c143188158e"},"vehicle_type_id":"4","last_reported":1734538319,"current_range_meters":32400,"station_id":"","pricing_plan_id":"cebpf4jnsgd1na2vs0mg"},{"bike_id":"c9649ab2-957d-4b2b-abbc-393bb27ac84e","system_id":"levelo_inurba_marseille","lat":43.26195,"lon":5.3746,"is_reserved":false,"is_disabled":false,"rental_uris":{"android":"levelo://app?vid=c9649ab2-957d-4b2b-abbc-393bb27ac84e","ios":"levelo://app?vid=c9649ab2-957d-4b2b-abbc-393bb27ac84e"},"vehicle_type_id":"4","last_reported":1734538319,"current_range_meters":38800,"station_id":"ce4bhgp2rcd13ifvqfc0","pricing_plan_id":"cebpf4jnsgd1na2vs0mg"},{"bike_id":"49f4746d-16ec-475b-b448-531fdde2fe60","system_id":"levelo_inurba_marseille","lat":43.30607,"lon":5.37224,"is_reserved":false,"is_disabled":false,"rental_uris":{"android":"levelo://app?vid=49f4746d-16ec-475b-b448-531fdde2fe60","ios":"levelo://app?vid=49f4746d-16ec-475b-b448-531fdde2fe60"},"vehicle_type_id":"4","last_reported":1734538319,"current_range_meters":34800,"station_id":"ce4bgqh2rcd13ifvqc4g","pricing_plan_id":"cebpf4jnsgd1na2vs0mg"},{"bike_id":"b10b6b55-969a-4399-9cae-6e80d1ecd5a5","system_id":"levelo_inurba_marseille","lat":43.29024,"lon":5.38642,"is_reserved":false,"is_disabled":false,"rental_uris":{"android":"levelo://app?vid=b10b6b55-969a-4399-9cae-6e80d1ecd5a5","ios":"levelo://app?vid=b10b6b55-969a-4399-9cae-6e80d1ecd5a5"},"vehicle_type_id":"4","last_reported":1734538319,"current_range_meters":32400,"station_id":"ce4bh4p2rcd13ifvqe0g","pricing_plan_id":"cebpf4jnsgd1na2vs0mg"},{"bike_id":"097bb26f-6403-4805-9010-f4df4f41f5e9","system_id":"levelo_inurba_marseille","lat":43.29521,"lon":5.38546,"is_reserved":false,"is_disabled":false,"rental_uris":{"android":"levelo://app?vid=097bb26f-6403-4805-9010-f4df4f41f5e9","ios":"levelo://app?vid=097bb26f-6403-4805-9010-f4df4f41f5e9"},"vehicle_type_id":"4","last_reported":1734538319,"current_range_meters":22400,"station_id":"ce4bgih2rcd13ifvqba0","pricing_plan_id":"cebpf4jnsgd1na2vs0mg"},{"bike_id":"9498eaaa-937b-4b55-9ad6-062218625b07","system_id":"levelo_inurba_marseille","lat":43.22927,"lon":5.35375,"is_reserved":false,"is_disabled":false,"rental_uris":{"android":"levelo://app?vid=9498eaaa-937b-4b55-9ad6-062218625b07","ios":"levelo://app?vid=9498eaaa-937b-4b55-9ad6-062218625b07"},"vehicle_type_id":"4","last_reported":1734538319,"current_range_meters":32400,"station_id":"cpo3532slgdg3j2ikp40","pricing_plan_id":"cebpf4jnsgd1na2vs0mg"},{"bike_id":"1f834613-72c8-4bef-a54d-6ea138016033","system_id":"levelo_inurba_marseille","lat":43.23193,"lon":5.35545,"is_reserved":false,"is_disabled":false,"rental_uris":{"android":"levelo://app?vid=1f834613-72c8-4bef-a54d-6ea138016033","ios":"levelo://app?vid=1f834613-72c8-4bef-a54d-6ea138016033"},"vehicle_type_id":"4","last_reported":1734538319,"current_range_meters":38800,"station_id":"ce4bhu92rcd13ifvqi70","pricing_plan_id":"cebpf4jnsgd1na2vs0mg"},{"bike_id":"508923c2-a2fc-4d45-a4a2-a58390266a19","system_id":"levelo_inurba_marseille","lat":43.29711,"lon":5.377,"is_reserved":false,"is_disabled":false,"rental_uris":{"android":"levelo://app?vid=508923c2-a2fc-4d45-a4a2-a58390266a19","ios":"levelo://app?vid=508923c2-a2fc-4d45-a4a2-a58390266a19"},"vehicle_type_id":"4","last_reported":1734538319,"current_range_meters":18800,"station_id":"ce4bgkh2rcd13ifvqbl0","pricing_plan_id":"cebpf4jnsgd1na2vs0mg"},{"bike_id":"124e6c05-4926-4207-84f5-da69a7334d60","system_id":"levelo_inurba_marseille","lat":43.29043,"lon":5.38156,"is_reserved":false,"is_disabled":true,"rental_uris":{"android":"levelo://app?vid=124e6c05-4926-4207-84f5-da69a7334d60","ios":"levelo://app?vid=124e6c05-4926-4207-84f5-da69a7334d60"},"vehicle_type_id":"4","last_reported":1734538319,"current_range_meters":33600,"station_id":"ce4bh4p2rcd13ifvqe1g","pricing_plan_id":"cebpf4jnsgd1na2vs0mg"},{"bike_id":"e997f56f-26a9-4ad1-9feb-f0c0c9894c03","system_id":"levelo_inurba_marseille","lat":43.30548,"lon":5.36688,"is_reserved":false,"is_disabled":false,"rental_uris":{"android":"levelo://app?vid=e997f56f-26a9-4ad1-9feb-f0c0c9894c03","ios":"levelo://app?vid=e997f56f-26a9-4ad1-9feb-f0c0c9894c03"},"vehicle_type_id":"4","last_reported":1734538319,"current_range_meters":10000,"station_id":"ce4bgrp2rcd13ifvqc9g","pricing_plan_id":"cebpf4jnsgd1na2vs0mg"},{"bike_id":"a222fcd0-faf5-4071-b364-2ebc6877bdcc","system_id":"levelo_inurba_marseille","lat":43.24076,"lon":5.3776,"is_reserved":false,"is_disabled":false,"rental_uris":{"android":"levelo://app?vid=a222fcd0-faf5-4071-b364-2ebc6877bdcc","ios":"levelo://app?vid=a222fcd0-faf5-4071-b364-2ebc6877bdcc"},"vehicle_type_id":"4","last_reported":1734538319,"current_range_meters":8800,"station_id":"ce4bhnp2rcd13ifvqgvg","pricing_plan_id":"cebpf4jnsgd1na2vs0mg"},{"bike_id":"9432a679-477a-4a35-8836-4463a61bb607","system_id":"levelo_inurba_marseille","lat":43.27378,"lon":5.36241,"is_reserved":false,"is_disabled":false,"rental_uris":{"android":"levelo://app?vid=9432a679-477a-4a35-8836-4463a61bb607","ios":"levelo://app?vid=9432a679-477a-4a35-8836-4463a61bb607"},"vehicle_type_id":"4","last_reported":1734538319,"current_range_meters":38800,"station_id":"ce4bhbh2rcd13ifvqeo0","pricing_plan_id":"cebpf4jnsgd1na2vs0mg"},{"bike_id":"5f7f6698-63a4-40fe-b45a-d6591044b7f6","system_id":"levelo_inurba_marseille","lat":43.24392,"lon":5.3706,"is_reserved":false,"is_disabled":false,"rental_uris":{"android":"levelo://app?vid=5f7f6698-63a4-40fe-b45a-d6591044b7f6","ios":"levelo://app?vid=5f7f6698-63a4-40fe-b45a-d6591044b7f6"},"vehicle_type_id":"4","last_reported":1734538319,"current_range_meters":36400,"station_id":"ce4bhhh2rcd13ifvqfk0","pricing_plan_id":"cebpf4jnsgd1na2vs0mg"},{"bike_id":"2491c714-f3f7-493b-9790-9992e16c8fb6","system_id":"levelo_inurba_marseille","lat":43.34145,"lon":5.40903,"is_reserved":false,"is_disabled":true,"rental_uris":{"android":"levelo://app?vid=2491c714-f3f7-493b-9790-9992e16c8fb6","ios":"levelo://app?vid=2491c714-f3f7-493b-9790-9992e16c8fb6"},"vehicle_type_id":"4","last_reported":1734538319,"current_range_meters":38800,"station_id":"ce4bhqh2rcd13ifvqhlg","pricing_plan_id":"cebpf4jnsgd1na2vs0mg"},{"bike_id":"ea1ee0a0-f240-4d25-84d9-e6fb6fc7a18c","system_id":"levelo_inurba_marseille","lat":43.33805,"lon":5.42104,"is_reserved":false,"is_disabled":true,"rental_uris":{"android":"levelo://app?vid=ea1ee0a0-f240-4d25-84d9-e6fb6fc7a18c","ios":"levelo://app?vid=ea1ee0a0-f240-4d25-84d9-e6fb6fc7a18c"},"vehicle_type_id":"4","last_reported":1734538319,"current_range_meters":0,"station_id":"","pricing_plan_id":"cebpf4jnsgd1na2vs0mg"},{"bike_id":"f500c588-6feb-4b09-aaa0-56bd71506c9c","system_id":"levelo_inurba_marseille","lat":43.3012,"lon":5.37348,"is_reserved":false,"is_disabled":false,"rental_uris":{"android":"levelo://app?vid=f500c588-6feb-4b09-aaa0-56bd71506c9c","ios":"levelo://app?vid=f500c588-6feb-4b09-aaa0-56bd71506c9c"},"vehicle_type_id":"4","last_reported":1734538319,"current_range_meters":38800,"station_id":"ce4bgs92rcd13ifvqcc0","pricing_plan_id":"cebpf4jnsgd1na2vs0mg"},{"bike_id":"eb21f47c-d289-41c3-86de-0f80617dce77","system_id":"levelo_inurba_marseille","lat":43.30643,"lon":5.40086,"is_reserved":false,"is_disabled":false,"rental_uris":{"android":"levelo://app?vid=eb21f47c-d289-41c3-86de-0f80617dce77","ios":"levelo://app?vid=eb21f47c-d289-41c3-86de-0f80617dce77"},"vehicle_type_id":"4","last_reported":1734538319,"current_range_meters":6800,"station_id":"ce4bh112rcd13ifvqda0","pricing_plan_id":"cebpf4jnsgd1na2vs0mg"},{"bike_id":"bc84c838-198d-40a0-a261-a1e23761d14f","system_id":"levelo_inurba_marseille","lat":43.2694,"lon":5.40249,"is_reserved":false,"is_disabled":false,"rental_uris":{"android":"levelo://app?vid=bc84c838-198d-40a0-a261-a1e23761d14f","ios":"levelo://app?vid=bc84c838-198d-40a0-a261-a1e23761d14f"},"vehicle_type_id":"4","last_reported":1734538319,"current_range_meters":16800,"station_id":"cjm6bp8fraef2m0cb0m0","pricing_plan_id":"cebpf4jnsgd1na2vs0mg"},{"bike_id":"cd4c0e20-bd10-4987-a3d7-c71ad6d59fdb","system_id":"levelo_inurba_marseille","lat":43.29153,"lon":5.37159,"is_reserved":false,"is_disabled":false,"rental_uris":{"android":"levelo://app?vid=cd4c0e20-bd10-4987-a3d7-c71ad6d59fdb","ios":"levelo://app?vid=cd4c0e20-bd10-4987-a3d7-c71ad6d59fdb"},"vehicle_type_id":"4","last_reported":1734538319,"current_range_meters":28400,"station_id":"ce4bha92rcd13ifvqeh0","pricing_plan_id":"cebpf4jnsgd1na2vs0mg"},{"bike_id":"8bfac80e-1fb6-4c29-8a7a-e5d1d210dc81","system_id":"levelo_inurba_marseille","lat":43.31011,"lon":5.38063,"is_reserved":false,"is_disabled":false,"rental_uris":{"android":"levelo://app?vid=8bfac80e-1fb6-4c29-8a7a-e5d1d210dc81","ios":"levelo://app?vid=8bfac80e-1fb6-4c29-8a7a-e5d1d210dc81"},"vehicle_type_id":"4","last_reported":1734538319,"current_range_meters":23200,"station_id":"","pricing_plan_id":"cebpf4jnsgd1na2vs0mg"},{"bike_id":"4f2b2e7b-acb7-48ac-9678-c8c97e08f2e4","system_id":"levelo_inurba_marseille","lat":43.27846,"lon":5.40744,"is_reserved":false,"is_disabled":false,"rental_uris":{"android":"levelo://app?vid=4f2b2e7b-acb7-48ac-9678-c8c97e08f2e4","ios":"levelo://app?vid=4f2b2e7b-acb7-48ac-9678-c8c97e08f2e4"},"vehicle_type_id":"4","last_reported":1734538319,"current_range_meters":28000,"station_id":"ce4bhnh2rcd13ifvqgtg","pricing_plan_id":"cebpf4jnsgd1na2vs0mg"},{"bike_id":"717b808b-eaaf-43be-9456-34f8c352dd94","system_id":"levelo_inurba_marseille","lat":43.28454,"lon":5.35895,"is_reserved":false,"is_disabled":false,"rental_uris":{"android":"levelo://app?vid=717b808b-eaaf-43be-9456-34f8c352dd94","ios":"levelo://app?vid=717b808b-eaaf-43be-9456-34f8c352dd94"},"vehicle_type_id":"4","last_reported":1734538319,"current_range_meters":12000,"station_id":"ce4bhah2rcd13ifvqei0","pricing_plan_id":"cebpf4jnsgd1na2vs0mg"},{"bike_id":"d95550e9-7388-4315-9e27-934b58e4f59a","system_id":"levelo_inurba_marseille","lat":43.29712,"lon":5.37689,"is_reserved":false,"is_disabled":false,"rental_uris":{"android":"levelo://app?vid=d95550e9-7388-4315-9e27-934b58e4f59a","ios":"levelo://app?vid=d95550e9-7388-4315-9e27-934b58e4f59a"},"vehicle_type_id":"4","last_reported":1734538319,"current_range_meters":37600,"station_id":"ce4bgkh2rcd13ifvqbl0","pricing_plan_id":"cebpf4jnsgd1na2vs0mg"},{"bike_id":"8cbf25f9-19b7-40d0-8de1-27154ee27561","system_id":"levelo_inurba_marseille","lat":43.25581,"lon":5.3823,"is_reserved":false,"is_disabled":false,"rental_uris":{"android":"levelo://app?vid=8cbf25f9-19b7-40d0-8de1-27154ee27561","ios":"levelo://app?vid=8cbf25f9-19b7-40d0-8de1-27154ee27561"},"vehicle_type_id":"4","last_reported":1734538319,"current_range_meters":16400,"station_id":"ce4bhih2rcd13ifvqfs0","pricing_plan_id":"cebpf4jnsgd1na2vs0mg"},{"bike_id":"4cd8f22a-82ae-4985-b778-378a4fb404d0","system_id":"levelo_inurba_marseille","lat":43.29849,"lon":5.36287,"is_reserved":false,"is_disabled":false,"rental_uris":{"android":"levelo://app?vid=4cd8f22a-82ae-4985-b778-378a4fb404d0","ios":"levelo://app?vid=4cd8f22a-82ae-4985-b778-378a4fb404d0"},"vehicle_type_id":"4","last_reported":1734538319,"current_range_meters":9600,"station_id":"ce4bgpp2rcd13ifvqc3g","pricing_plan_id":"cebpf4jnsgd1na2vs0mg"},{"bike_id":"c03961b6-6ad8-4d98-9935-78f54f665053","system_id":"levelo_inurba_marseille","lat":43.29035,"lon":5.38627,"is_reserved":false,"is_disabled":false,"rental_uris":{"android":"levelo://app?vid=c03961b6-6ad8-4d98-9935-78f54f665053","ios":"levelo://app?vid=c03961b6-6ad8-4d98-9935-78f54f665053"},"vehicle_type_id":"4","last_reported":1734538319,"current_range_meters":28000,"station_id":"ce4bh4p2rcd13ifvqe0g","pricing_plan_id":"cebpf4jnsgd1na2vs0mg"},{"bike_id":"36c59b95-bbba-48dc-995e-a16e6e926b5c","system_id":"levelo_inurba_marseille","lat":43.2952,"lon":5.37488,"is_reserved":false,"is_disabled":false,"rental_uris":{"android":"levelo://app?vid=36c59b95-bbba-48dc-995e-a16e6e926b5c","ios":"levelo://app?vid=36c59b95-bbba-48dc-995e-a16e6e926b5c"},"vehicle_type_id":"4","last_reported":1734538319,"current_range_meters":14400,"station_id":"ce4bgkp2rcd13ifvqbmg","pricing_plan_id":"cebpf4jnsgd1na2vs0mg"},{"bike_id":"86c83bcb-399d-43cb-a4b5-54e53dfd94eb","system_id":"levelo_inurba_marseille","lat":43.305364,"lon":5.367055,"is_reserved":false,"is_disabled":false,"rental_uris":{"android":"levelo://app?vid=86c83bcb-399d-43cb-a4b5-54e53dfd94eb","ios":"levelo://app?vid=86c83bcb-399d-43cb-a4b5-54e53dfd94eb"},"vehicle_type_id":"4","last_reported":1734538319,"current_range_meters":39200,"station_id":"ce4bgrp2rcd13ifvqc9g","pricing_plan_id":"cebpf4jnsgd1na2vs0mg"},{"bike_id":"fdf534d6-f92e-4f96-b167-3f8b9722e00b","system_id":"levelo_inurba_marseille","lat":43.30812,"lon":5.38145,"is_reserved":false,"is_disabled":false,"rental_uris":{"android":"levelo://app?vid=fdf534d6-f92e-4f96-b167-3f8b9722e00b","ios":"levelo://app?vid=fdf534d6-f92e-4f96-b167-3f8b9722e00b"},"vehicle_type_id":"4","last_reported":1734538319,"current_range_meters":17200,"station_id":"ce4bgt12rcd13ifvqce0","pricing_plan_id":"cebpf4jnsgd1na2vs0mg"},{"bike_id":"4faf809e-0e77-4c67-be57-8eaad2818bed","system_id":"levelo_inurba_marseille","lat":43.31096,"lon":5.37764,"is_reserved":false,"is_disabled":false,"rental_uris":{"android":"levelo://app?vid=4faf809e-0e77-4c67-be57-8eaad2818bed","ios":"levelo://app?vid=4faf809e-0e77-4c67-be57-8eaad2818bed"},"vehicle_type_id":"4","last_reported":1734538319,"current_range_meters":18800,"station_id":"ce4bgt92rcd13ifvqcg0","pricing_plan_id":"cebpf4jnsgd1na2vs0mg"},{"bike_id":"44ae0a96-3f61-461e-adfa-b38ee7ff38d2","system_id":"levelo_inurba_marseille","lat":43.30289,"lon":5.36897,"is_reserved":false,"is_disabled":false,"rental_uris":{"android":"levelo://app?vid=44ae0a96-3f61-461e-adfa-b38ee7ff38d2","ios":"levelo://app?vid=44ae0a96-3f61-461e-adfa-b38ee7ff38d2"},"vehicle_type_id":"4","last_reported":1734538319,"current_range_meters":9200,"station_id":"ce4bgqh2rcd13ifvqc5g","pricing_plan_id":"cebpf4jnsgd1na2vs0mg"},{"bike_id":"43da0757-9d0c-402c-965f-7d9c93d7e818","system_id":"levelo_inurba_marseille","lat":43.25581,"lon":5.38239,"is_reserved":false,"is_disabled":true,"rental_uris":{"android":"levelo://app?vid=43da0757-9d0c-402c-965f-7d9c93d7e818","ios":"levelo://app?vid=43da0757-9d0c-402c-965f-7d9c93d7e818"},"vehicle_type_id":"4","last_reported":1734538319,"current_range_meters":1600,"station_id":"ce4bhih2rcd13ifvqfs0","pricing_plan_id":"cebpf4jnsgd1na2vs0mg"},{"bike_id":"acf24705-1a06-409e-a223-5c65a7c12dc9","system_id":"levelo_inurba_marseille","lat":43.23155,"lon":5.43721,"is_reserved":false,"is_disabled":false,"rental_uris":{"android":"levelo://app?vid=acf24705-1a06-409e-a223-5c65a7c12dc9","ios":"levelo://app?vid=acf24705-1a06-409e-a223-5c65a7c12dc9"},"vehicle_type_id":"4","last_reported":1734538319,"current_range_meters":6800,"station_id":"ce4bhmp2rcd13ifvqgog","pricing_plan_id":"cebpf4jnsgd1na2vs0mg"},{"bike_id":"687f1e26-cc4d-4b74-8b48-251389d539fa","system_id":"levelo_inurba_marseille","lat":43.28694,"lon":5.37391,"is_reserved":false,"is_disabled":false,"rental_uris":{"android":"levelo://app?vid=687f1e26-cc4d-4b74-8b48-251389d539fa","ios":"levelo://app?vid=687f1e26-cc4d-4b74-8b48-251389d539fa"},"vehicle_type_id":"4","last_reported":1734538319,"current_range_meters":22800,"station_id":"ce4bh3p2rcd13ifvqdq0","pricing_plan_id":"cebpf4jnsgd1na2vs0mg"},{"bike_id":"72492ff3-d3e5-4b81-822b-1d3357339451","system_id":"levelo_inurba_marseille","lat":43.29103,"lon":5.3993,"is_reserved":false,"is_disabled":true,"rental_uris":{"android":"levelo://app?vid=72492ff3-d3e5-4b81-822b-1d3357339451","ios":"levelo://app?vid=72492ff3-d3e5-4b81-822b-1d3357339451"},"vehicle_type_id":"4","last_reported":1734538319,"current_range_meters":38400,"station_id":"","pricing_plan_id":"cebpf4jnsgd1na2vs0mg"},{"bike_id":"c9aecb48-1552-47ad-af23-8b6bab0d2fdf","system_id":"levelo_inurba_marseille","lat":43.25069,"lon":5.39527,"is_reserved":false,"is_disabled":true,"rental_uris":{"android":"levelo://app?vid=c9aecb48-1552-47ad-af23-8b6bab0d2fdf","ios":"levelo://app?vid=c9aecb48-1552-47ad-af23-8b6bab0d2fdf"},"vehicle_type_id":"4","last_reported":1734538319,"current_range_meters":0,"station_id":"ce4bhm12rcd13ifvqgkg","pricing_plan_id":"cebpf4jnsgd1na2vs0mg"},{"bike_id":"921bbff8-28d4-4d0d-80af-4b13aeca41c1","system_id":"levelo_inurba_marseille","lat":43.26928,"lon":5.40855,"is_reserved":false,"is_disabled":false,"rental_uris":{"android":"levelo://app?vid=921bbff8-28d4-4d0d-80af-4b13aeca41c1","ios":"levelo://app?vid=921bbff8-28d4-4d0d-80af-4b13aeca41c1"},"vehicle_type_id":"4","last_reported":1734538319,"current_range_meters":27600,"station_id":"","pricing_plan_id":"cebpf4jnsgd1na2vs0mg"},{"bike_id":"b28f9753-28e1-431d-914b-59d1f0cf26b3","system_id":"levelo_inurba_marseille","lat":43.26562,"lon":5.3728,"is_reserved":false,"is_disabled":false,"rental_uris":{"android":"levelo://app?vid=b28f9753-28e1-431d-914b-59d1f0cf26b3","ios":"levelo://app?vid=b28f9753-28e1-431d-914b-59d1f0cf26b3"},"vehicle_type_id":"4","last_reported":1734538319,"current_range_meters":11200,"station_id":"ce4bhg12rcd13ifvqf70","pricing_plan_id":"cebpf4jnsgd1na2vs0mg"},{"bike_id":"584f89a6-c5d5-4d78-8788-ed4b47f03700","system_id":"levelo_inurba_marseille","lat":43.29007,"lon":5.35613,"is_reserved":false,"is_disabled":false,"rental_uris":{"android":"levelo://app?vid=584f89a6-c5d5-4d78-8788-ed4b47f03700","ios":"levelo://app?vid=584f89a6-c5d5-4d78-8788-ed4b47f03700"},"vehicle_type_id":"4","last_reported":1734538319,"current_range_meters":18000,"station_id":"ce4bhb92rcd13ifvqen0","pricing_plan_id":"cebpf4jnsgd1na2vs0mg"},{"bike_id":"cc083c1a-2160-49c9-9dd9-8b6fa4397542","system_id":"levelo_inurba_marseille","lat":43.30283,"lon":5.37706,"is_reserved":false,"is_disabled":false,"rental_uris":{"android":"levelo://app?vid=cc083c1a-2160-49c9-9dd9-8b6fa4397542","ios":"levelo://app?vid=cc083c1a-2160-49c9-9dd9-8b6fa4397542"},"vehicle_type_id":"4","last_reported":1734538319,"current_range_meters":33600,"station_id":"ce4bguh2rcd13ifvqcj0","pricing_plan_id":"cebpf4jnsgd1na2vs0mg"},{"bike_id":"8b451fa0-a6ab-441c-a5ff-7a30f67fda95","system_id":"levelo_inurba_marseille","lat":43.26777,"lon":5.39412,"is_reserved":false,"is_disabled":false,"rental_uris":{"android":"levelo://app?vid=8b451fa0-a6ab-441c-a5ff-7a30f67fda95","ios":"levelo://app?vid=8b451fa0-a6ab-441c-a5ff-7a30f67fda95"},"vehicle_type_id":"4","last_reported":1734538319,"current_range_meters":4800,"station_id":"ce4bhh12rcd13ifvqfg0","pricing_plan_id":"cebpf4jnsgd1na2vs0mg"},{"bike_id":"1a555ecc-0ae6-4369-8d9b-1a6b17cff17d","system_id":"levelo_inurba_marseille","lat":43.26928,"lon":5.3891,"is_reserved":false,"is_disabled":false,"rental_uris":{"android":"levelo://app?vid=1a555ecc-0ae6-4369-8d9b-1a6b17cff17d","ios":"levelo://app?vid=1a555ecc-0ae6-4369-8d9b-1a6b17cff17d"},"vehicle_type_id":"4","last_reported":1734538319,"current_range_meters":15200,"station_id":"ce4bhhh2rcd13ifvqfl0","pricing_plan_id":"cebpf4jnsgd1na2vs0mg"},{"bike_id":"034f777d-ce25-490a-957d-c76bc02a5153","system_id":"levelo_inurba_marseille","lat":43.29927,"lon":5.37892,"is_reserved":false,"is_disabled":false,"rental_uris":{"android":"levelo://app?vid=034f777d-ce25-490a-957d-c76bc02a5153","ios":"levelo://app?vid=034f777d-ce25-490a-957d-c76bc02a5153"},"vehicle_type_id":"4","last_reported":1734538319,"current_range_meters":12400,"station_id":"ce4bgj12rcd13ifvqbc0","pricing_plan_id":"cebpf4jnsgd1na2vs0mg"},{"bike_id":"990b10d5-dc20-4d68-9abd-b7eaf39a4263","system_id":"levelo_inurba_marseille","lat":43.29062,"lon":5.38141,"is_reserved":false,"is_disabled":false,"rental_uris":{"android":"levelo://app?vid=990b10d5-dc20-4d68-9abd-b7eaf39a4263","ios":"levelo://app?vid=990b10d5-dc20-4d68-9abd-b7eaf39a4263"},"vehicle_type_id":"4","last_reported":1734538319,"current_range_meters":38000,"station_id":"ce4bh512rcd13ifvqe2g","pricing_plan_id":"cebpf4jnsgd1na2vs0mg"},{"bike_id":"782bcbf2-b7de-4b04-bebc-aaa0329dd90c","system_id":"levelo_inurba_marseille","lat":43.23195,"lon":5.35559,"is_reserved":false,"is_disabled":false,"rental_uris":{"android":"levelo://app?vid=782bcbf2-b7de-4b04-bebc-aaa0329dd90c","ios":"levelo://app?vid=782bcbf2-b7de-4b04-bebc-aaa0329dd90c"},"vehicle_type_id":"4","last_reported":1734538319,"current_range_meters":38800,"station_id":"ce4bhu92rcd13ifvqi70","pricing_plan_id":"cebpf4jnsgd1na2vs0mg"},{"bike_id":"7892cf92-f9da-4bd4-8b29-38ea5cd3f240","system_id":"levelo_inurba_marseille","lat":43.2558,"lon":5.38242,"is_reserved":false,"is_disabled":false,"rental_uris":{"android":"levelo://app?vid=7892cf92-f9da-4bd4-8b29-38ea5cd3f240","ios":"levelo://app?vid=7892cf92-f9da-4bd4-8b29-38ea5cd3f240"},"vehicle_type_id":"4","last_reported":1734538319,"current_range_meters":6800,"station_id":"ce4bhih2rcd13ifvqfs0","pricing_plan_id":"cebpf4jnsgd1na2vs0mg"},{"bike_id":"96ff88dc-8cf7-4b0f-a345-fa00220da932","system_id":"levelo_inurba_marseille","lat":43.27414,"lon":5.42395,"is_reserved":false,"is_disabled":true,"rental_uris":{"android":"levelo://app?vid=96ff88dc-8cf7-4b0f-a345-fa00220da932","ios":"levelo://app?vid=96ff88dc-8cf7-4b0f-a345-fa00220da932"},"vehicle_type_id":"4","last_reported":1734538319,"current_range_meters":0,"station_id":"","pricing_plan_id":"cebpf4jnsgd1na2vs0mg"},{"bike_id":"48e505c5-451e-4cbe-9e9c-b70a9066904a","system_id":"levelo_inurba_marseille","lat":43.24392,"lon":5.37064,"is_reserved":false,"is_disabled":false,"rental_uris":{"android":"levelo://app?vid=48e505c5-451e-4cbe-9e9c-b70a9066904a","ios":"levelo://app?vid=48e505c5-451e-4cbe-9e9c-b70a9066904a"},"vehicle_type_id":"4","last_reported":1734538319,"current_range_meters":18800,"station_id":"ce4bhhh2rcd13ifvqfk0","pricing_plan_id":"cebpf4jnsgd1na2vs0mg"},{"bike_id":"e448c12f-279d-437e-a8b6-ee0bb0d7fe3d","system_id":"levelo_inurba_marseille","lat":43.30884,"lon":5.39635,"is_reserved":false,"is_disabled":false,"rental_uris":{"android":"levelo://app?vid=e448c12f-279d-437e-a8b6-ee0bb0d7fe3d","ios":"levelo://app?vid=e448c12f-279d-437e-a8b6-ee0bb0d7fe3d"},"vehicle_type_id":"4","last_reported":1734538319,"current_range_meters":19600,"station_id":"ce4bh012rcd13ifvqcv0","pricing_plan_id":"cebpf4jnsgd1na2vs0mg"},{"bike_id":"822408b5-93b6-4b7e-a2e4-a91cfb6d79ad","system_id":"levelo_inurba_marseille","lat":43.2418,"lon":5.39721,"is_reserved":false,"is_disabled":false,"rental_uris":{"android":"levelo://app?vid=822408b5-93b6-4b7e-a2e4-a91cfb6d79ad","ios":"levelo://app?vid=822408b5-93b6-4b7e-a2e4-a91cfb6d79ad"},"vehicle_type_id":"4","last_reported":1734538319,"current_range_meters":38400,"station_id":"ce4bhn12rcd13ifvqgpg","pricing_plan_id":"cebpf4jnsgd1na2vs0mg"},{"bike_id":"d07b3fbf-6257-416a-88e2-2b204ee24314","system_id":"levelo_inurba_marseille","lat":43.31681,"lon":5.40468,"is_reserved":false,"is_disabled":false,"rental_uris":{"android":"levelo://app?vid=d07b3fbf-6257-416a-88e2-2b204ee24314","ios":"levelo://app?vid=d07b3fbf-6257-416a-88e2-2b204ee24314"},"vehicle_type_id":"4","last_reported":1734538319,"current_range_meters":9200,"station_id":"ce4bh012rcd13ifvqd00","pricing_plan_id":"cebpf4jnsgd1na2vs0mg"},{"bike_id":"721d44a6-f88e-459f-b4bb-a8f7669f3eff","system_id":"levelo_inurba_marseille","lat":43.30537,"lon":5.36533,"is_reserved":false,"is_disabled":false,"rental_uris":{"android":"levelo://app?vid=721d44a6-f88e-459f-b4bb-a8f7669f3eff","ios":"levelo://app?vid=721d44a6-f88e-459f-b4bb-a8f7669f3eff"},"vehicle_type_id":"4","last_reported":1734538319,"current_range_meters":6400,"station_id":"ce4bgs12rcd13ifvqcag","pricing_plan_id":"cebpf4jnsgd1na2vs0mg"},{"bike_id":"bedf4b55-1d74-4707-a6b7-02e9163bfed2","system_id":"levelo_inurba_marseille","lat":43.26479,"lon":5.39547,"is_reserved":false,"is_disabled":false,"rental_uris":{"android":"levelo://app?vid=bedf4b55-1d74-4707-a6b7-02e9163bfed2","ios":"levelo://app?vid=bedf4b55-1d74-4707-a6b7-02e9163bfed2"},"vehicle_type_id":"4","last_reported":1734538319,"current_range_meters":18000,"station_id":"ce4bhi12rcd13ifvqfq0","pricing_plan_id":"cebpf4jnsgd1na2vs0mg"},{"bike_id":"37a3e5bf-6f53-427b-9a89-d96d119f0635","system_id":"levelo_inurba_marseille","lat":43.28426,"lon":5.34981,"is_reserved":false,"is_disabled":false,"rental_uris":{"android":"levelo://app?vid=37a3e5bf-6f53-427b-9a89-d96d119f0635","ios":"levelo://app?vid=37a3e5bf-6f53-427b-9a89-d96d119f0635"},"vehicle_type_id":"4","last_reported":1734538319,"current_range_meters":5600,"station_id":"ce4bhbh2rcd13ifvqepg","pricing_plan_id":"cebpf4jnsgd1na2vs0mg"},{"bike_id":"2ac0e10e-0de3-4079-b426-24ce9322c9f5","system_id":"levelo_inurba_marseille","lat":43.32368,"lon":5.38888,"is_reserved":false,"is_disabled":false,"rental_uris":{"android":"levelo://app?vid=2ac0e10e-0de3-4079-b426-24ce9322c9f5","ios":"levelo://app?vid=2ac0e10e-0de3-4079-b426-24ce9322c9f5"},"vehicle_type_id":"4","last_reported":1734538319,"current_range_meters":30800,"station_id":"ce4bhqp2rcd13ifvqhog","pricing_plan_id":"cebpf4jnsgd1na2vs0mg"},{"bike_id":"a69ee064-478b-4db8-93f6-861d7300236c","system_id":"levelo_inurba_marseille","lat":43.26954,"lon":5.3864,"is_reserved":false,"is_disabled":false,"rental_uris":{"android":"levelo://app?vid=a69ee064-478b-4db8-93f6-861d7300236c","ios":"levelo://app?vid=a69ee064-478b-4db8-93f6-861d7300236c"},"vehicle_type_id":"4","last_reported":1734538319,"current_range_meters":19200,"station_id":"ce4bhh92rcd13ifvqfh0","pricing_plan_id":"cebpf4jnsgd1na2vs0mg"},{"bike_id":"88510cc1-d9fe-438a-a531-0fa1e89c9e0b","system_id":"levelo_inurba_marseille","lat":43.23181,"lon":5.39989,"is_reserved":false,"is_disabled":false,"rental_uris":{"android":"levelo://app?vid=88510cc1-d9fe-438a-a531-0fa1e89c9e0b","ios":"levelo://app?vid=88510cc1-d9fe-438a-a531-0fa1e89c9e0b"},"vehicle_type_id":"4","last_reported":1734538319,"current_range_meters":24000,"station_id":"ce4bhn12rcd13ifvqgqg","pricing_plan_id":"cebpf4jnsgd1na2vs0mg"},{"bike_id":"97fa7a5d-a7ef-4e16-876a-146c6b539c7c","system_id":"levelo_inurba_marseille","lat":43.2765,"lon":5.38885,"is_reserved":false,"is_disabled":true,"rental_uris":{"android":"levelo://app?vid=97fa7a5d-a7ef-4e16-876a-146c6b539c7c","ios":"levelo://app?vid=97fa7a5d-a7ef-4e16-876a-146c6b539c7c"},"vehicle_type_id":"4","last_reported":1734538319,"current_range_meters":0,"station_id":"ce4bhi12rcd13ifvqfo0","pricing_plan_id":"cebpf4jnsgd1na2vs0mg"},{"bike_id":"125d7d37-ea99-4b91-81f6-725053754df9","system_id":"levelo_inurba_marseille","lat":43.29096,"lon":5.38151,"is_reserved":false,"is_disabled":false,"rental_uris":{"android":"levelo://app?vid=125d7d37-ea99-4b91-81f6-725053754df9","ios":"levelo://app?vid=125d7d37-ea99-4b91-81f6-725053754df9"},"vehicle_type_id":"4","last_reported":1734538319,"current_range_meters":25600,"station_id":"ce4bh512rcd13ifvqe2g","pricing_plan_id":"cebpf4jnsgd1na2vs0mg"},{"bike_id":"333aa382-91bd-401e-8a2d-c42eb56f0e06","system_id":"levelo_inurba_marseille","lat":43.27818,"lon":5.40702,"is_reserved":false,"is_disabled":false,"rental_uris":{"android":"levelo://app?vid=333aa382-91bd-401e-8a2d-c42eb56f0e06","ios":"levelo://app?vid=333aa382-91bd-401e-8a2d-c42eb56f0e06"},"vehicle_type_id":"4","last_reported":1734538319,"current_range_meters":38800,"station_id":"ce4bhnh2rcd13ifvqgtg","pricing_plan_id":"cebpf4jnsgd1na2vs0mg"},{"bike_id":"c7b69568-7a78-440f-b70f-d8bf1dc5a75e","system_id":"levelo_inurba_marseille","lat":43.29848,"lon":5.36253,"is_reserved":false,"is_disabled":false,"rental_uris":{"android":"levelo://app?vid=c7b69568-7a78-440f-b70f-d8bf1dc5a75e","ios":"levelo://app?vid=c7b69568-7a78-440f-b70f-d8bf1dc5a75e"},"vehicle_type_id":"4","last_reported":1734538319,"current_range_meters":38800,"station_id":"ce4bgpp2rcd13ifvqc3g","pricing_plan_id":"cebpf4jnsgd1na2vs0mg"},{"bike_id":"32fcc87b-cee7-43cb-8b3f-6a64a6cec28b","system_id":"levelo_inurba_marseille","lat":43.30352,"lon":5.4187,"is_reserved":false,"is_disabled":false,"rental_uris":{"android":"levelo://app?vid=32fcc87b-cee7-43cb-8b3f-6a64a6cec28b","ios":"levelo://app?vid=32fcc87b-cee7-43cb-8b3f-6a64a6cec28b"},"vehicle_type_id":"4","last_reported":1734538319,"current_range_meters":24400,"station_id":"ce4bhop2rcd13ifvqh7g","pricing_plan_id":"cebpf4jnsgd1na2vs0mg"},{"bike_id":"ba60245e-88fd-4aa5-9df5-baee3ef1d4e4","system_id":"levelo_inurba_marseille","lat":43.28714,"lon":5.37944,"is_reserved":false,"is_disabled":true,"rental_uris":{"android":"levelo://app?vid=ba60245e-88fd-4aa5-9df5-baee3ef1d4e4","ios":"levelo://app?vid=ba60245e-88fd-4aa5-9df5-baee3ef1d4e4"},"vehicle_type_id":"4","last_reported":1734538319,"current_range_meters":26800,"station_id":"ce4bh9p2rcd13ifvqec0","pricing_plan_id":"cebpf4jnsgd1na2vs0mg"},{"bike_id":"2706d02d-aaff-40a5-9926-c7426882c786","system_id":"levelo_inurba_marseille","lat":43.308,"lon":5.43523,"is_reserved":false,"is_disabled":false,"rental_uris":{"android":"levelo://app?vid=2706d02d-aaff-40a5-9926-c7426882c786","ios":"levelo://app?vid=2706d02d-aaff-40a5-9926-c7426882c786"},"vehicle_type_id":"4","last_reported":1734538319,"current_range_meters":12000,"station_id":"ce4bhph2rcd13ifvqheg","pricing_plan_id":"cebpf4jnsgd1na2vs0mg"},{"bike_id":"a1bf85ee-28ab-457e-9f31-7e005c55e570","system_id":"levelo_inurba_marseille","lat":43.27628,"lon":5.36104,"is_reserved":false,"is_disabled":false,"rental_uris":{"android":"levelo://app?vid=a1bf85ee-28ab-457e-9f31-7e005c55e570","ios":"levelo://app?vid=a1bf85ee-28ab-457e-9f31-7e005c55e570"},"vehicle_type_id":"4","last_reported":1734538319,"current_range_meters":36400,"station_id":"ce4bgj92rcd13ifvqbe0","pricing_plan_id":"cebpf4jnsgd1na2vs0mg"},{"bike_id":"4c8b14c1-a279-4e3d-b684-d6545dbf4d61","system_id":"levelo_inurba_marseille","lat":43.31063,"lon":5.37563,"is_reserved":false,"is_disabled":false,"rental_uris":{"android":"levelo://app?vid=4c8b14c1-a279-4e3d-b684-d6545dbf4d61","ios":"levelo://app?vid=4c8b14c1-a279-4e3d-b684-d6545dbf4d61"},"vehicle_type_id":"4","last_reported":1734538319,"current_range_meters":33200,"station_id":"","pricing_plan_id":"cebpf4jnsgd1na2vs0mg"},{"bike_id":"e0c2eddf-4ba9-4754-b0b5-efd80badee74","system_id":"levelo_inurba_marseille","lat":43.25822,"lon":5.39424,"is_reserved":false,"is_disabled":true,"rental_uris":{"android":"levelo://app?vid=e0c2eddf-4ba9-4754-b0b5-efd80badee74","ios":"levelo://app?vid=e0c2eddf-4ba9-4754-b0b5-efd80badee74"},"vehicle_type_id":"4","last_reported":1734538319,"current_range_meters":0,"station_id":"ce4bhip2rcd13ifvqft0","pricing_plan_id":"cebpf4jnsgd1na2vs0mg"},{"bike_id":"6fba652d-bb2f-49a5-ad12-9fac40010fef","system_id":"levelo_inurba_marseille","lat":43.29591,"lon":5.38104,"is_reserved":false,"is_disabled":false,"rental_uris":{"android":"levelo://app?vid=6fba652d-bb2f-49a5-ad12-9fac40010fef","ios":"levelo://app?vid=6fba652d-bb2f-49a5-ad12-9fac40010fef"},"vehicle_type_id":"4","last_reported":1734538319,"current_range_meters":28000,"station_id":"ce4bgl12rcd13ifvqbo0","pricing_plan_id":"cebpf4jnsgd1na2vs0mg"},{"bike_id":"ff6c6cb2-193d-4cda-989d-8ff0aca58427","system_id":"levelo_inurba_marseille","lat":43.30618,"lon":5.37158,"is_reserved":false,"is_disabled":true,"rental_uris":{"android":"levelo://app?vid=ff6c6cb2-193d-4cda-989d-8ff0aca58427","ios":"levelo://app?vid=ff6c6cb2-193d-4cda-989d-8ff0aca58427"},"vehicle_type_id":"4","last_reported":1734538319,"current_range_meters":0,"station_id":"","pricing_plan_id":"cebpf4jnsgd1na2vs0mg"},{"bike_id":"68907ca0-038a-4705-886b-af6c122ac485","system_id":"levelo_inurba_marseille","lat":43.23181,"lon":5.39991,"is_reserved":false,"is_disabled":false,"rental_uris":{"android":"levelo://app?vid=68907ca0-038a-4705-886b-af6c122ac485","ios":"levelo://app?vid=68907ca0-038a-4705-886b-af6c122ac485"},"vehicle_type_id":"4","last_reported":1734538319,"current_range_meters":39200,"station_id":"ce4bhn12rcd13ifvqgqg","pricing_plan_id":"cebpf4jnsgd1na2vs0mg"},{"bike_id":"8d281b26-49d6-4e97-87a7-faeb4607c880","system_id":"levelo_inurba_marseille","lat":43.25709,"lon":5.41089,"is_reserved":false,"is_disabled":false,"rental_uris":{"android":"levelo://app?vid=8d281b26-49d6-4e97-87a7-faeb4607c880","ios":"levelo://app?vid=8d281b26-49d6-4e97-87a7-faeb4607c880"},"vehicle_type_id":"4","last_reported":1734538319,"current_range_meters":27200,"station_id":"ce4bhkp2rcd13ifvqgd0","pricing_plan_id":"cebpf4jnsgd1na2vs0mg"},{"bike_id":"1bf57af1-9063-447f-acc4-5858f918b514","system_id":"levelo_inurba_marseille","lat":43.31757,"lon":5.39015,"is_reserved":false,"is_disabled":false,"rental_uris":{"android":"levelo://app?vid=1bf57af1-9063-447f-acc4-5858f918b514","ios":"levelo://app?vid=1bf57af1-9063-447f-acc4-5858f918b514"},"vehicle_type_id":"4","last_reported":1734538319,"current_range_meters":35200,"station_id":"ce4bhqp2rcd13ifvqhng","pricing_plan_id":"cebpf4jnsgd1na2vs0mg"},{"bike_id":"946b1af4-7187-4fdf-ae7e-7ccfb2dd5cbf","system_id":"levelo_inurba_marseille","lat":43.28233,"lon":5.37913,"is_reserved":false,"is_disabled":false,"rental_uris":{"android":"levelo://app?vid=946b1af4-7187-4fdf-ae7e-7ccfb2dd5cbf","ios":"levelo://app?vid=946b1af4-7187-4fdf-ae7e-7ccfb2dd5cbf"},"vehicle_type_id":"4","last_reported":1734538319,"current_range_meters":8000,"station_id":"ce4bha12rcd13ifvqee0","pricing_plan_id":"cebpf4jnsgd1na2vs0mg"},{"bike_id":"5d5d6398-1536-408f-a77e-f95a6f0f09ea","system_id":"levelo_inurba_marseille","lat":43.30413,"lon":5.41277,"is_reserved":false,"is_disabled":false,"rental_uris":{"android":"levelo://app?vid=5d5d6398-1536-408f-a77e-f95a6f0f09ea","ios":"levelo://app?vid=5d5d6398-1536-408f-a77e-f95a6f0f09ea"},"vehicle_type_id":"4","last_reported":1734538319,"current_range_meters":38800,"station_id":"ce4bhop2rcd13ifvqh8g","pricing_plan_id":"cebpf4jnsgd1na2vs0mg"},{"bike_id":"bb337245-7c41-4671-900b-a4d92ae562c6","system_id":"levelo_inurba_marseille","lat":43.29518,"lon":5.39034,"is_reserved":false,"is_disabled":true,"rental_uris":{"android":"levelo://app?vid=bb337245-7c41-4671-900b-a4d92ae562c6","ios":"levelo://app?vid=bb337245-7c41-4671-900b-a4d92ae562c6"},"vehicle_type_id":"4","last_reported":1734538319,"current_range_meters":0,"station_id":"ce4bh3p2rcd13ifvqdp0","pricing_plan_id":"cebpf4jnsgd1na2vs0mg"},{"bike_id":"05ef0996-3e66-4f93-bbcb-955fade85a81","system_id":"levelo_inurba_marseille","lat":43.2988,"lon":5.39759,"is_reserved":false,"is_disabled":false,"rental_uris":{"android":"levelo://app?vid=05ef0996-3e66-4f93-bbcb-955fade85a81","ios":"levelo://app?vid=05ef0996-3e66-4f93-bbcb-955fade85a81"},"vehicle_type_id":"4","last_reported":1734538319,"current_range_meters":38800,"station_id":"ce4bh0h2rcd13ifvqd50","pricing_plan_id":"cebpf4jnsgd1na2vs0mg"},{"bike_id":"ac86af18-ecc8-477e-a5b7-a72fd8c8d5b7","system_id":"levelo_inurba_marseille","lat":43.306,"lon":5.37221,"is_reserved":false,"is_disabled":false,"rental_uris":{"android":"levelo://app?vid=ac86af18-ecc8-477e-a5b7-a72fd8c8d5b7","ios":"levelo://app?vid=ac86af18-ecc8-477e-a5b7-a72fd8c8d5b7"},"vehicle_type_id":"4","last_reported":1734538319,"current_range_meters":25200,"station_id":"ce4bgqh2rcd13ifvqc4g","pricing_plan_id":"cebpf4jnsgd1na2vs0mg"},{"bike_id":"c5bd26fa-32ee-49d7-8f2e-aae30ab2547f","system_id":"levelo_inurba_marseille","lat":43.29225,"lon":5.3607,"is_reserved":false,"is_disabled":false,"rental_uris":{"android":"levelo://app?vid=c5bd26fa-32ee-49d7-8f2e-aae30ab2547f","ios":"levelo://app?vid=c5bd26fa-32ee-49d7-8f2e-aae30ab2547f"},"vehicle_type_id":"4","last_reported":1734538319,"current_range_meters":34800,"station_id":"ce4bhbh2rcd13ifvqeqg","pricing_plan_id":"cebpf4jnsgd1na2vs0mg"},{"bike_id":"bb98288d-21d7-4500-955b-4e19e621c288","system_id":"levelo_inurba_marseille","lat":43.3043,"lon":5.38887,"is_reserved":false,"is_disabled":true,"rental_uris":{"android":"levelo://app?vid=bb98288d-21d7-4500-955b-4e19e621c288","ios":"levelo://app?vid=bb98288d-21d7-4500-955b-4e19e621c288"},"vehicle_type_id":"4","last_reported":1734538319,"current_range_meters":800,"station_id":"ce4bgk12rcd13ifvqbi0","pricing_plan_id":"cebpf4jnsgd1na2vs0mg"},{"bike_id":"222f2010-e1f4-46f6-a092-3cde05cef084","system_id":"levelo_inurba_marseille","lat":43.286777,"lon":5.363426,"is_reserved":false,"is_disabled":false,"rental_uris":{"android":"levelo://app?vid=222f2010-e1f4-46f6-a092-3cde05cef084","ios":"levelo://app?vid=222f2010-e1f4-46f6-a092-3cde05cef084"},"vehicle_type_id":"4","last_reported":1734538319,"current_range_meters":31200,"station_id":"ce4bhah2rcd13ifvqej0","pricing_plan_id":"cebpf4jnsgd1na2vs0mg"},{"bike_id":"5ffd54f9-9bbe-42da-942e-32e062cf9910","system_id":"levelo_inurba_marseille","lat":43.29784,"lon":5.380966,"is_reserved":false,"is_disabled":false,"rental_uris":{"android":"levelo://app?vid=5ffd54f9-9bbe-42da-942e-32e062cf9910","ios":"levelo://app?vid=5ffd54f9-9bbe-42da-942e-32e062cf9910"},"vehicle_type_id":"4","last_reported":1734538319,"current_range_meters":37600,"station_id":"ce4bgip2rcd13ifvqbb0","pricing_plan_id":"cebpf4jnsgd1na2vs0mg"},{"bike_id":"3bec605b-2ea4-40c6-8567-2dcb62a17266","system_id":"levelo_inurba_marseille","lat":43.29277,"lon":5.3684,"is_reserved":false,"is_disabled":true,"rental_uris":{"android":"levelo://app?vid=3bec605b-2ea4-40c6-8567-2dcb62a17266","ios":"levelo://app?vid=3bec605b-2ea4-40c6-8567-2dcb62a17266"},"vehicle_type_id":"4","last_reported":1734538319,"current_range_meters":35600,"station_id":"ce4bhbp2rcd13ifvqesg","pricing_plan_id":"cebpf4jnsgd1na2vs0mg"},{"bike_id":"c322e508-8fd6-46a8-b80e-f6f1a2ae74ec","system_id":"levelo_inurba_marseille","lat":43.31534,"lon":5.38027,"is_reserved":false,"is_disabled":false,"rental_uris":{"android":"levelo://app?vid=c322e508-8fd6-46a8-b80e-f6f1a2ae74ec","ios":"levelo://app?vid=c322e508-8fd6-46a8-b80e-f6f1a2ae74ec"},"vehicle_type_id":"4","last_reported":1734538319,"current_range_meters":32800,"station_id":"ce4bhsp2rcd13ifvqi50","pricing_plan_id":"cebpf4jnsgd1na2vs0mg"},{"bike_id":"17b2d2b0-9855-46b4-a478-0bd9c7277056","system_id":"levelo_inurba_marseille","lat":43.30909,"lon":5.37868,"is_reserved":false,"is_disabled":true,"rental_uris":{"android":"levelo://app?vid=17b2d2b0-9855-46b4-a478-0bd9c7277056","ios":"levelo://app?vid=17b2d2b0-9855-46b4-a478-0bd9c7277056"},"vehicle_type_id":"4","last_reported":1734538319,"current_range_meters":0,"station_id":"","pricing_plan_id":"cebpf4jnsgd1na2vs0mg"},{"bike_id":"9f97f512-1b19-443a-b67f-86de027e5577","system_id":"levelo_inurba_marseille","lat":43.34549,"lon":5.37605,"is_reserved":false,"is_disabled":false,"rental_uris":{"android":"levelo://app?vid=9f97f512-1b19-443a-b67f-86de027e5577","ios":"levelo://app?vid=9f97f512-1b19-443a-b67f-86de027e5577"},"vehicle_type_id":"4","last_reported":1734538319,"current_range_meters":26800,"station_id":"","pricing_plan_id":"cebpf4jnsgd1na2vs0mg"},{"bike_id":"4b1287ea-b137-4649-aa07-b6ececfe9347","system_id":"levelo_inurba_marseille","lat":43.2655,"lon":5.37288,"is_reserved":false,"is_disabled":false,"rental_uris":{"android":"levelo://app?vid=4b1287ea-b137-4649-aa07-b6ececfe9347","ios":"levelo://app?vid=4b1287ea-b137-4649-aa07-b6ececfe9347"},"vehicle_type_id":"4","last_reported":1734538319,"current_range_meters":38400,"station_id":"ce4bhg12rcd13ifvqf70","pricing_plan_id":"cebpf4jnsgd1na2vs0mg"},{"bike_id":"27fb8d27-d207-4944-922f-ef21125b4454","system_id":"levelo_inurba_marseille","lat":43.26818,"lon":5.40244,"is_reserved":false,"is_disabled":false,"rental_uris":{"android":"levelo://app?vid=27fb8d27-d207-4944-922f-ef21125b4454","ios":"levelo://app?vid=27fb8d27-d207-4944-922f-ef21125b4454"},"vehicle_type_id":"4","last_reported":1734538319,"current_range_meters":38800,"station_id":"ce501612rcd8frsf0b60","pricing_plan_id":"cebpf4jnsgd1na2vs0mg"},{"bike_id":"e76713dd-0332-4434-8c79-2688e85d546a","system_id":"levelo_inurba_marseille","lat":43.30548,"lon":5.36522,"is_reserved":false,"is_disabled":false,"rental_uris":{"android":"levelo://app?vid=e76713dd-0332-4434-8c79-2688e85d546a","ios":"levelo://app?vid=e76713dd-0332-4434-8c79-2688e85d546a"},"vehicle_type_id":"4","last_reported":1734538319,"current_range_meters":22000,"station_id":"ce4bgs12rcd13ifvqcag","pricing_plan_id":"cebpf4jnsgd1na2vs0mg"},{"bike_id":"8b889e4b-22db-4012-aaf8-d6adcef3746c","system_id":"levelo_inurba_marseille","lat":43.30189,"lon":5.36622,"is_reserved":false,"is_disabled":false,"rental_uris":{"android":"levelo://app?vid=8b889e4b-22db-4012-aaf8-d6adcef3746c","ios":"levelo://app?vid=8b889e4b-22db-4012-aaf8-d6adcef3746c"},"vehicle_type_id":"4","last_reported":1734538319,"current_range_meters":22400,"station_id":"ce4bgrh2rcd13ifvqc8g","pricing_plan_id":"cebpf4jnsgd1na2vs0mg"},{"bike_id":"3f684ade-8ff8-412b-8c78-ba957e925730","system_id":"levelo_inurba_marseille","lat":43.305412,"lon":5.367052,"is_reserved":false,"is_disabled":false,"rental_uris":{"android":"levelo://app?vid=3f684ade-8ff8-412b-8c78-ba957e925730","ios":"levelo://app?vid=3f684ade-8ff8-412b-8c78-ba957e925730"},"vehicle_type_id":"4","last_reported":1734538319,"current_range_meters":28000,"station_id":"ce4bgrp2rcd13ifvqc9g","pricing_plan_id":"cebpf4jnsgd1na2vs0mg"},{"bike_id":"1c50754a-b301-46b3-bb46-221b69c1982f","system_id":"levelo_inurba_marseille","lat":43.26558,"lon":5.37289,"is_reserved":false,"is_disabled":false,"rental_uris":{"android":"levelo://app?vid=1c50754a-b301-46b3-bb46-221b69c1982f","ios":"levelo://app?vid=1c50754a-b301-46b3-bb46-221b69c1982f"},"vehicle_type_id":"4","last_reported":1734538319,"current_range_meters":28400,"station_id":"ce4bhg12rcd13ifvqf70","pricing_plan_id":"cebpf4jnsgd1na2vs0mg"},{"bike_id":"da545959-8341-4bfc-ae05-5b3b43d589bb","system_id":"levelo_inurba_marseille","lat":43.32031,"lon":5.40743,"is_reserved":false,"is_disabled":false,"rental_uris":{"android":"levelo://app?vid=da545959-8341-4bfc-ae05-5b3b43d589bb","ios":"levelo://app?vid=da545959-8341-4bfc-ae05-5b3b43d589bb"},"vehicle_type_id":"4","last_reported":1734538319,"current_range_meters":8000,"station_id":"","pricing_plan_id":"cebpf4jnsgd1na2vs0mg"},{"bike_id":"6932c265-c4b5-4f96-98a0-c6cd0a0417be","system_id":"levelo_inurba_marseille","lat":43.2556,"lon":5.38216,"is_reserved":false,"is_disabled":false,"rental_uris":{"android":"levelo://app?vid=6932c265-c4b5-4f96-98a0-c6cd0a0417be","ios":"levelo://app?vid=6932c265-c4b5-4f96-98a0-c6cd0a0417be"},"vehicle_type_id":"4","last_reported":1734538319,"current_range_meters":10800,"station_id":"ce4bhih2rcd13ifvqfs0","pricing_plan_id":"cebpf4jnsgd1na2vs0mg"},{"bike_id":"69c27f27-764f-46a1-a147-7d1fb2d204e6","system_id":"levelo_inurba_marseille","lat":43.26159,"lon":5.42073,"is_reserved":false,"is_disabled":false,"rental_uris":{"android":"levelo://app?vid=69c27f27-764f-46a1-a147-7d1fb2d204e6","ios":"levelo://app?vid=69c27f27-764f-46a1-a147-7d1fb2d204e6"},"vehicle_type_id":"4","last_reported":1734538319,"current_range_meters":14400,"station_id":"","pricing_plan_id":"cebpf4jnsgd1na2vs0mg"},{"bike_id":"63ac9ec0-94d0-4b1e-8838-1ee7b4295fda","system_id":"levelo_inurba_marseille","lat":43.32102,"lon":5.36794,"is_reserved":false,"is_disabled":true,"rental_uris":{"android":"levelo://app?vid=63ac9ec0-94d0-4b1e-8838-1ee7b4295fda","ios":"levelo://app?vid=63ac9ec0-94d0-4b1e-8838-1ee7b4295fda"},"vehicle_type_id":"4","last_reported":1734538319,"current_range_meters":0,"station_id":"ce4bhrh2rcd13ifvqhug","pricing_plan_id":"cebpf4jnsgd1na2vs0mg"},{"bike_id":"dfee1d39-d359-4050-9bb0-f405ffb98e9c","system_id":"levelo_inurba_marseille","lat":43.30537,"lon":5.36546,"is_reserved":false,"is_disabled":false,"rental_uris":{"android":"levelo://app?vid=dfee1d39-d359-4050-9bb0-f405ffb98e9c","ios":"levelo://app?vid=dfee1d39-d359-4050-9bb0-f405ffb98e9c"},"vehicle_type_id":"4","last_reported":1734538319,"current_range_meters":31200,"station_id":"ce4bgs12rcd13ifvqcag","pricing_plan_id":"cebpf4jnsgd1na2vs0mg"},{"bike_id":"e49249f7-67ae-4467-9089-d0be452ea2b0","system_id":"levelo_inurba_marseille","lat":43.27168,"lon":5.41006,"is_reserved":false,"is_disabled":false,"rental_uris":{"android":"levelo://app?vid=e49249f7-67ae-4467-9089-d0be452ea2b0","ios":"levelo://app?vid=e49249f7-67ae-4467-9089-d0be452ea2b0"},"vehicle_type_id":"4","last_reported":1734538319,"current_range_meters":38400,"station_id":"ce4bhl12rcd13ifvqgf0","pricing_plan_id":"cebpf4jnsgd1na2vs0mg"},{"bike_id":"7f66eedd-9dc4-429e-b6f1-39ff4050e39b","system_id":"levelo_inurba_marseille","lat":43.29604,"lon":5.38109,"is_reserved":false,"is_disabled":false,"rental_uris":{"android":"levelo://app?vid=7f66eedd-9dc4-429e-b6f1-39ff4050e39b","ios":"levelo://app?vid=7f66eedd-9dc4-429e-b6f1-39ff4050e39b"},"vehicle_type_id":"4","last_reported":1734538319,"current_range_meters":30400,"station_id":"ce4bgl12rcd13ifvqbo0","pricing_plan_id":"cebpf4jnsgd1na2vs0mg"},{"bike_id":"882de910-9b3d-43e3-b04c-ac39dcd38f96","system_id":"levelo_inurba_marseille","lat":43.30552,"lon":5.36699,"is_reserved":false,"is_disabled":false,"rental_uris":{"android":"levelo://app?vid=882de910-9b3d-43e3-b04c-ac39dcd38f96","ios":"levelo://app?vid=882de910-9b3d-43e3-b04c-ac39dcd38f96"},"vehicle_type_id":"4","last_reported":1734538319,"current_range_meters":38400,"station_id":"ce4bgrp2rcd13ifvqc9g","pricing_plan_id":"cebpf4jnsgd1na2vs0mg"},{"bike_id":"7e876e85-730f-4bb1-8e78-bc65c4d6fe75","system_id":"levelo_inurba_marseille","lat":43.29049,"lon":5.35912,"is_reserved":false,"is_disabled":false,"rental_uris":{"android":"levelo://app?vid=7e876e85-730f-4bb1-8e78-bc65c4d6fe75","ios":"levelo://app?vid=7e876e85-730f-4bb1-8e78-bc65c4d6fe75"},"vehicle_type_id":"4","last_reported":1734538319,"current_range_meters":26000,"station_id":"ce4bha92rcd13ifvqeg0","pricing_plan_id":"cebpf4jnsgd1na2vs0mg"},{"bike_id":"740d66e7-2dcf-4d56-b49a-a9b4c431e170","system_id":"levelo_inurba_marseille","lat":43.29712,"lon":5.36601,"is_reserved":false,"is_disabled":false,"rental_uris":{"android":"levelo://app?vid=740d66e7-2dcf-4d56-b49a-a9b4c431e170","ios":"levelo://app?vid=740d66e7-2dcf-4d56-b49a-a9b4c431e170"},"vehicle_type_id":"4","last_reported":1734538319,"current_range_meters":10800,"station_id":"ce4bgn12rcd13ifvqbt0","pricing_plan_id":"cebpf4jnsgd1na2vs0mg"},{"bike_id":"afb2ecfa-d579-449d-a550-2869aa9ae800","system_id":"levelo_inurba_marseille","lat":43.26517,"lon":5.39551,"is_reserved":false,"is_disabled":false,"rental_uris":{"android":"levelo://app?vid=afb2ecfa-d579-449d-a550-2869aa9ae800","ios":"levelo://app?vid=afb2ecfa-d579-449d-a550-2869aa9ae800"},"vehicle_type_id":"4","last_reported":1734538319,"current_range_meters":39200,"station_id":"ce4bhi12rcd13ifvqfq0","pricing_plan_id":"cebpf4jnsgd1na2vs0mg"},{"bike_id":"97f1d201-f690-496d-a32f-8bfd46f004c8","system_id":"levelo_inurba_marseille","lat":43.27913,"lon":5.37997,"is_reserved":false,"is_disabled":false,"rental_uris":{"android":"levelo://app?vid=97f1d201-f690-496d-a32f-8bfd46f004c8","ios":"levelo://app?vid=97f1d201-f690-496d-a32f-8bfd46f004c8"},"vehicle_type_id":"4","last_reported":1734538319,"current_range_meters":38800,"station_id":"ce4bhf92rcd13ifvqf50","pricing_plan_id":"cebpf4jnsgd1na2vs0mg"},{"bike_id":"f891ee78-f48c-464e-9251-8e110e7f930a","system_id":"levelo_inurba_marseille","lat":43.29704,"lon":5.377,"is_reserved":false,"is_disabled":false,"rental_uris":{"android":"levelo://app?vid=f891ee78-f48c-464e-9251-8e110e7f930a","ios":"levelo://app?vid=f891ee78-f48c-464e-9251-8e110e7f930a"},"vehicle_type_id":"4","last_reported":1734538319,"current_range_meters":24400,"station_id":"ce4bgkh2rcd13ifvqbl0","pricing_plan_id":"cebpf4jnsgd1na2vs0mg"},{"bike_id":"f4317395-b9fe-4557-8a55-86fc788e3303","system_id":"levelo_inurba_marseille","lat":43.29003,"lon":5.35613,"is_reserved":false,"is_disabled":false,"rental_uris":{"android":"levelo://app?vid=f4317395-b9fe-4557-8a55-86fc788e3303","ios":"levelo://app?vid=f4317395-b9fe-4557-8a55-86fc788e3303"},"vehicle_type_id":"4","last_reported":1734538319,"current_range_meters":33200,"station_id":"ce4bhb92rcd13ifvqen0","pricing_plan_id":"cebpf4jnsgd1na2vs0mg"},{"bike_id":"7b7890fe-68c9-4b12-8753-a89c6192e9f1","system_id":"levelo_inurba_marseille","lat":43.31494,"lon":5.37298,"is_reserved":false,"is_disabled":false,"rental_uris":{"android":"levelo://app?vid=7b7890fe-68c9-4b12-8753-a89c6192e9f1","ios":"levelo://app?vid=7b7890fe-68c9-4b12-8753-a89c6192e9f1"},"vehicle_type_id":"4","last_reported":1734538319,"current_range_meters":3600,"station_id":"ce4bgt12rcd13ifvqcd0","pricing_plan_id":"cebpf4jnsgd1na2vs0mg"},{"bike_id":"1c060c1f-a688-4b8a-a888-67e5049570f3","system_id":"levelo_inurba_marseille","lat":43.26195,"lon":5.37449,"is_reserved":false,"is_disabled":false,"rental_uris":{"android":"levelo://app?vid=1c060c1f-a688-4b8a-a888-67e5049570f3","ios":"levelo://app?vid=1c060c1f-a688-4b8a-a888-67e5049570f3"},"vehicle_type_id":"4","last_reported":1734538319,"current_range_meters":21600,"station_id":"ce4bhgp2rcd13ifvqfc0","pricing_plan_id":"cebpf4jnsgd1na2vs0mg"},{"bike_id":"72ab65b8-b83b-4c3a-a9c5-b48fab8eaa94","system_id":"levelo_inurba_marseille","lat":43.31326,"lon":5.39699,"is_reserved":false,"is_disabled":true,"rental_uris":{"android":"levelo://app?vid=72ab65b8-b83b-4c3a-a9c5-b48fab8eaa94","ios":"levelo://app?vid=72ab65b8-b83b-4c3a-a9c5-b48fab8eaa94"},"vehicle_type_id":"4","last_reported":1734538319,"current_range_meters":1200,"station_id":"ce4bgvp2rcd13ifvqcu0","pricing_plan_id":"cebpf4jnsgd1na2vs0mg"},{"bike_id":"8b21dd7d-3e2f-4cbd-9749-7f883f4710f1","system_id":"levelo_inurba_marseille","lat":43.31227,"lon":5.36837,"is_reserved":false,"is_disabled":false,"rental_uris":{"android":"levelo://app?vid=8b21dd7d-3e2f-4cbd-9749-7f883f4710f1","ios":"levelo://app?vid=8b21dd7d-3e2f-4cbd-9749-7f883f4710f1"},"vehicle_type_id":"4","last_reported":1734538319,"current_range_meters":27200,"station_id":"ce4bgl92rcd13ifvqbq0","pricing_plan_id":"cebpf4jnsgd1na2vs0mg"},{"bike_id":"78f5dcee-b6ca-4cfa-ae6f-ebcf64be1236","system_id":"levelo_inurba_marseille","lat":43.323507,"lon":5.406234,"is_reserved":false,"is_disabled":false,"rental_uris":{"android":"levelo://app?vid=78f5dcee-b6ca-4cfa-ae6f-ebcf64be1236","ios":"levelo://app?vid=78f5dcee-b6ca-4cfa-ae6f-ebcf64be1236"},"vehicle_type_id":"4","last_reported":1734538319,"current_range_meters":38800,"station_id":"ce4bhq92rcd13ifvqhjg","pricing_plan_id":"cebpf4jnsgd1na2vs0mg"},{"bike_id":"dd8c5b4c-64c3-4fbb-8df7-3b1a11a1b585","system_id":"levelo_inurba_marseille","lat":43.27616,"lon":5.36105,"is_reserved":false,"is_disabled":false,"rental_uris":{"android":"levelo://app?vid=dd8c5b4c-64c3-4fbb-8df7-3b1a11a1b585","ios":"levelo://app?vid=dd8c5b4c-64c3-4fbb-8df7-3b1a11a1b585"},"vehicle_type_id":"4","last_reported":1734538319,"current_range_meters":4800,"station_id":"ce4bgj92rcd13ifvqbe0","pricing_plan_id":"cebpf4jnsgd1na2vs0mg"},{"bike_id":"80b05b51-71c4-43eb-ae94-7b6820fddb65","system_id":"levelo_inurba_marseille","lat":43.28258,"lon":5.35081,"is_reserved":false,"is_disabled":false,"rental_uris":{"android":"levelo://app?vid=80b05b51-71c4-43eb-ae94-7b6820fddb65","ios":"levelo://app?vid=80b05b51-71c4-43eb-ae94-7b6820fddb65"},"vehicle_type_id":"4","last_reported":1734538319,"current_range_meters":25600,"station_id":"ce4bhbp2rcd13ifvqerg","pricing_plan_id":"cebpf4jnsgd1na2vs0mg"},{"bike_id":"824f57b8-099a-4b41-a598-e48609a33960","system_id":"levelo_inurba_marseille","lat":43.28108,"lon":5.37862,"is_reserved":false,"is_disabled":false,"rental_uris":{"android":"levelo://app?vid=824f57b8-099a-4b41-a598-e48609a33960","ios":"levelo://app?vid=824f57b8-099a-4b41-a598-e48609a33960"},"vehicle_type_id":"4","last_reported":1734538319,"current_range_meters":38800,"station_id":"ce4bha12rcd13ifvqee0","pricing_plan_id":"cebpf4jnsgd1na2vs0mg"},{"bike_id":"a099259c-9868-4d9f-aa4f-4056a17206e1","system_id":"levelo_inurba_marseille","lat":43.26996,"lon":5.3984,"is_reserved":false,"is_disabled":false,"rental_uris":{"android":"levelo://app?vid=a099259c-9868-4d9f-aa4f-4056a17206e1","ios":"levelo://app?vid=a099259c-9868-4d9f-aa4f-4056a17206e1"},"vehicle_type_id":"4","last_reported":1734538319,"current_range_meters":14000,"station_id":"","pricing_plan_id":"cebpf4jnsgd1na2vs0mg"},{"bike_id":"99fa7549-0423-4343-a313-5c3ab34a3924","system_id":"levelo_inurba_marseille","lat":43.28078,"lon":5.39662,"is_reserved":false,"is_disabled":false,"rental_uris":{"android":"levelo://app?vid=99fa7549-0423-4343-a313-5c3ab34a3924","ios":"levelo://app?vid=99fa7549-0423-4343-a313-5c3ab34a3924"},"vehicle_type_id":"4","last_reported":1734538319,"current_range_meters":22000,"station_id":"ce4bho12rcd13ifvqh2g","pricing_plan_id":"cebpf4jnsgd1na2vs0mg"},{"bike_id":"9a9ca54f-8f83-4db0-b780-a7eb0fa7f88d","system_id":"levelo_inurba_marseille","lat":43.26006,"lon":5.37567,"is_reserved":false,"is_disabled":false,"rental_uris":{"android":"levelo://app?vid=9a9ca54f-8f83-4db0-b780-a7eb0fa7f88d","ios":"levelo://app?vid=9a9ca54f-8f83-4db0-b780-a7eb0fa7f88d"},"vehicle_type_id":"4","last_reported":1734538319,"current_range_meters":33200,"station_id":"ce4bhgh2rcd13ifvqfa0","pricing_plan_id":"cebpf4jnsgd1na2vs0mg"},{"bike_id":"a3232108-6d4d-45f4-ac66-cd85d6391bc7","system_id":"levelo_inurba_marseille","lat":43.23063,"lon":5.35496,"is_reserved":false,"is_disabled":false,"rental_uris":{"android":"levelo://app?vid=a3232108-6d4d-45f4-ac66-cd85d6391bc7","ios":"levelo://app?vid=a3232108-6d4d-45f4-ac66-cd85d6391bc7"},"vehicle_type_id":"4","last_reported":1734538319,"current_range_meters":37600,"station_id":"cpo3342slgdg3j2ifvpg","pricing_plan_id":"cebpf4jnsgd1na2vs0mg"},{"bike_id":"f9bd643c-59af-42ac-9746-fdfc90743924","system_id":"levelo_inurba_marseille","lat":43.29842,"lon":5.36273,"is_reserved":false,"is_disabled":false,"rental_uris":{"android":"levelo://app?vid=f9bd643c-59af-42ac-9746-fdfc90743924","ios":"levelo://app?vid=f9bd643c-59af-42ac-9746-fdfc90743924"},"vehicle_type_id":"4","last_reported":1734538319,"current_range_meters":39200,"station_id":"ce4bgpp2rcd13ifvqc3g","pricing_plan_id":"cebpf4jnsgd1na2vs0mg"},{"bike_id":"5f268945-074c-44ed-9099-05e8aa15f651","system_id":"levelo_inurba_marseille","lat":43.26063,"lon":5.39394,"is_reserved":false,"is_disabled":false,"rental_uris":{"android":"levelo://app?vid=5f268945-074c-44ed-9099-05e8aa15f651","ios":"levelo://app?vid=5f268945-074c-44ed-9099-05e8aa15f651"},"vehicle_type_id":"4","last_reported":1734538319,"current_range_meters":36800,"station_id":"ce4bhh92rcd13ifvqfj0","pricing_plan_id":"cebpf4jnsgd1na2vs0mg"},{"bike_id":"1f85f844-031e-4abc-a842-f34e73f3cb0b","system_id":"levelo_inurba_marseille","lat":43.28107,"lon":5.37842,"is_reserved":false,"is_disabled":false,"rental_uris":{"android":"levelo://app?vid=1f85f844-031e-4abc-a842-f34e73f3cb0b","ios":"levelo://app?vid=1f85f844-031e-4abc-a842-f34e73f3cb0b"},"vehicle_type_id":"4","last_reported":1734538319,"current_range_meters":24000,"station_id":"ce4bha12rcd13ifvqee0","pricing_plan_id":"cebpf4jnsgd1na2vs0mg"},{"bike_id":"36bdf915-8b4b-40b9-875b-7ee4225a8b65","system_id":"levelo_inurba_marseille","lat":43.26058,"lon":5.39392,"is_reserved":false,"is_disabled":false,"rental_uris":{"android":"levelo://app?vid=36bdf915-8b4b-40b9-875b-7ee4225a8b65","ios":"levelo://app?vid=36bdf915-8b4b-40b9-875b-7ee4225a8b65"},"vehicle_type_id":"4","last_reported":1734538319,"current_range_meters":38800,"station_id":"ce4bhh92rcd13ifvqfj0","pricing_plan_id":"cebpf4jnsgd1na2vs0mg"},{"bike_id":"1c1b9a2f-18b1-4194-8e05-858e5866a3a6","system_id":"levelo_inurba_marseille","lat":43.298521,"lon":5.36271,"is_reserved":false,"is_disabled":false,"rental_uris":{"android":"levelo://app?vid=1c1b9a2f-18b1-4194-8e05-858e5866a3a6","ios":"levelo://app?vid=1c1b9a2f-18b1-4194-8e05-858e5866a3a6"},"vehicle_type_id":"4","last_reported":1734538319,"current_range_meters":7200,"station_id":"ce4bgpp2rcd13ifvqc3g","pricing_plan_id":"cebpf4jnsgd1na2vs0mg"},{"bike_id":"0a6f5f08-41c9-4678-9651-20756a706073","system_id":"levelo_inurba_marseille","lat":43.27968,"lon":5.38736,"is_reserved":false,"is_disabled":false,"rental_uris":{"android":"levelo://app?vid=0a6f5f08-41c9-4678-9651-20756a706073","ios":"levelo://app?vid=0a6f5f08-41c9-4678-9651-20756a706073"},"vehicle_type_id":"4","last_reported":1734538319,"current_range_meters":6800,"station_id":"ce4bhg12rcd13ifvqf80","pricing_plan_id":"cebpf4jnsgd1na2vs0mg"},{"bike_id":"aa5e4976-e524-4319-a5de-ada507e429b1","system_id":"levelo_inurba_marseille","lat":43.29161,"lon":5.37164,"is_reserved":false,"is_disabled":false,"rental_uris":{"android":"levelo://app?vid=aa5e4976-e524-4319-a5de-ada507e429b1","ios":"levelo://app?vid=aa5e4976-e524-4319-a5de-ada507e429b1"},"vehicle_type_id":"4","last_reported":1734538319,"current_range_meters":6000,"station_id":"ce4bha92rcd13ifvqeh0","pricing_plan_id":"cebpf4jnsgd1na2vs0mg"},{"bike_id":"8ec182be-0f97-4b96-9664-a1baa30f6a95","system_id":"levelo_inurba_marseille","lat":43.2784,"lon":5.392154,"is_reserved":false,"is_disabled":false,"rental_uris":{"android":"levelo://app?vid=8ec182be-0f97-4b96-9664-a1baa30f6a95","ios":"levelo://app?vid=8ec182be-0f97-4b96-9664-a1baa30f6a95"},"vehicle_type_id":"4","last_reported":1734538319,"current_range_meters":18800,"station_id":"ce4bhjp2rcd13ifvqga0","pricing_plan_id":"cebpf4jnsgd1na2vs0mg"},{"bike_id":"c76cbf8a-8f16-429a-9413-bfb595fe5ba9","system_id":"levelo_inurba_marseille","lat":43.28107,"lon":5.37841,"is_reserved":false,"is_disabled":false,"rental_uris":{"android":"levelo://app?vid=c76cbf8a-8f16-429a-9413-bfb595fe5ba9","ios":"levelo://app?vid=c76cbf8a-8f16-429a-9413-bfb595fe5ba9"},"vehicle_type_id":"4","last_reported":1734538319,"current_range_meters":38800,"station_id":"ce4bha12rcd13ifvqee0","pricing_plan_id":"cebpf4jnsgd1na2vs0mg"},{"bike_id":"1f755a75-a51a-47ab-8fe5-948c5d6456a0","system_id":"levelo_inurba_marseille","lat":43.2961,"lon":5.37726,"is_reserved":false,"is_disabled":false,"rental_uris":{"android":"levelo://app?vid=1f755a75-a51a-47ab-8fe5-948c5d6456a0","ios":"levelo://app?vid=1f755a75-a51a-47ab-8fe5-948c5d6456a0"},"vehicle_type_id":"4","last_reported":1734538319,"current_range_meters":9200,"station_id":"ce4bgi92rcd13ifvqb90","pricing_plan_id":"cebpf4jnsgd1na2vs0mg"},{"bike_id":"9f1acecd-e1a9-4505-b5e1-0a376087edf1","system_id":"levelo_inurba_marseille","lat":43.30178,"lon":5.38057,"is_reserved":false,"is_disabled":false,"rental_uris":{"android":"levelo://app?vid=9f1acecd-e1a9-4505-b5e1-0a376087edf1","ios":"levelo://app?vid=9f1acecd-e1a9-4505-b5e1-0a376087edf1"},"vehicle_type_id":"4","last_reported":1734538319,"current_range_meters":4800,"station_id":"ce4bgjp2rcd13ifvqbh0","pricing_plan_id":"cebpf4jnsgd1na2vs0mg"},{"bike_id":"c8399855-72d4-4f25-aa5a-52a18924a7b8","system_id":"levelo_inurba_marseille","lat":43.24146,"lon":5.3641,"is_reserved":false,"is_disabled":false,"rental_uris":{"android":"levelo://app?vid=c8399855-72d4-4f25-aa5a-52a18924a7b8","ios":"levelo://app?vid=c8399855-72d4-4f25-aa5a-52a18924a7b8"},"vehicle_type_id":"4","last_reported":1734538319,"current_range_meters":38800,"station_id":"cpo36qri1sfpv3e86is0","pricing_plan_id":"cebpf4jnsgd1na2vs0mg"},{"bike_id":"f8b9f595-57de-4f40-884a-1ccbe4ed31e9","system_id":"levelo_inurba_marseille","lat":43.31694,"lon":5.40449,"is_reserved":false,"is_disabled":false,"rental_uris":{"android":"levelo://app?vid=f8b9f595-57de-4f40-884a-1ccbe4ed31e9","ios":"levelo://app?vid=f8b9f595-57de-4f40-884a-1ccbe4ed31e9"},"vehicle_type_id":"4","last_reported":1734538319,"current_range_meters":38800,"station_id":"ce4bh012rcd13ifvqd00","pricing_plan_id":"cebpf4jnsgd1na2vs0mg"},{"bike_id":"4445b7b8-a637-4564-9692-76939df6a3f4","system_id":"levelo_inurba_marseille","lat":43.27061,"lon":5.40257,"is_reserved":false,"is_disabled":false,"rental_uris":{"android":"levelo://app?vid=4445b7b8-a637-4564-9692-76939df6a3f4","ios":"levelo://app?vid=4445b7b8-a637-4564-9692-76939df6a3f4"},"vehicle_type_id":"4","last_reported":1734538319,"current_range_meters":30800,"station_id":"ce4bhk92rcd13ifvqgc0","pricing_plan_id":"cebpf4jnsgd1na2vs0mg"},{"bike_id":"39aefd94-9691-404d-a48f-b18a1286fb89","system_id":"levelo_inurba_marseille","lat":43.29895,"lon":5.38152,"is_reserved":false,"is_disabled":false,"rental_uris":{"android":"levelo://app?vid=39aefd94-9691-404d-a48f-b18a1286fb89","ios":"levelo://app?vid=39aefd94-9691-404d-a48f-b18a1286fb89"},"vehicle_type_id":"4","last_reported":1734538319,"current_range_meters":38800,"station_id":"ce4bgj12rcd13ifvqbc0","pricing_plan_id":"cebpf4jnsgd1na2vs0mg"},{"bike_id":"149f6e59-92f2-4391-ad8d-a3c211e76bb2","system_id":"levelo_inurba_marseille","lat":43.23195,"lon":5.35556,"is_reserved":false,"is_disabled":false,"rental_uris":{"android":"levelo://app?vid=149f6e59-92f2-4391-ad8d-a3c211e76bb2","ios":"levelo://app?vid=149f6e59-92f2-4391-ad8d-a3c211e76bb2"},"vehicle_type_id":"4","last_reported":1734538319,"current_range_meters":38800,"station_id":"ce4bhu92rcd13ifvqi70","pricing_plan_id":"cebpf4jnsgd1na2vs0mg"},{"bike_id":"99416e65-ba10-4602-8241-1ae118b04c5b","system_id":"levelo_inurba_marseille","lat":43.28609,"lon":5.35101,"is_reserved":false,"is_disabled":false,"rental_uris":{"android":"levelo://app?vid=99416e65-ba10-4602-8241-1ae118b04c5b","ios":"levelo://app?vid=99416e65-ba10-4602-8241-1ae118b04c5b"},"vehicle_type_id":"4","last_reported":1734538319,"current_range_meters":8400,"station_id":"ce4bhch2rcd13ifvqeug","pricing_plan_id":"cebpf4jnsgd1na2vs0mg"},{"bike_id":"79d6f4a4-9ba9-4063-a9e4-2e1621e1b6da","system_id":"levelo_inurba_marseille","lat":43.30326,"lon":5.40438,"is_reserved":false,"is_disabled":false,"rental_uris":{"android":"levelo://app?vid=79d6f4a4-9ba9-4063-a9e4-2e1621e1b6da","ios":"levelo://app?vid=79d6f4a4-9ba9-4063-a9e4-2e1621e1b6da"},"vehicle_type_id":"4","last_reported":1734538319,"current_range_meters":28400,"station_id":"ce4bh012rcd13ifvqd10","pricing_plan_id":"cebpf4jnsgd1na2vs0mg"},{"bike_id":"0964a333-009c-43df-a369-e7b7f1f82c22","system_id":"levelo_inurba_marseille","lat":43.30543,"lon":5.36696,"is_reserved":false,"is_disabled":true,"rental_uris":{"android":"levelo://app?vid=0964a333-009c-43df-a369-e7b7f1f82c22","ios":"levelo://app?vid=0964a333-009c-43df-a369-e7b7f1f82c22"},"vehicle_type_id":"4","last_reported":1734538319,"current_range_meters":28000,"station_id":"","pricing_plan_id":"cebpf4jnsgd1na2vs0mg"},{"bike_id":"8c9ae3c4-991b-4fb3-afc5-2c0005716e98","system_id":"levelo_inurba_marseille","lat":43.31361,"lon":5.38485,"is_reserved":false,"is_disabled":false,"rental_uris":{"android":"levelo://app?vid=8c9ae3c4-991b-4fb3-afc5-2c0005716e98","ios":"levelo://app?vid=8c9ae3c4-991b-4fb3-afc5-2c0005716e98"},"vehicle_type_id":"4","last_reported":1734538319,"current_range_meters":6000,"station_id":"ce4bgt92rcd13ifvqcf0","pricing_plan_id":"cebpf4jnsgd1na2vs0mg"},{"bike_id":"7b6d0356-ea4b-4b37-a2cb-cbf8c7b40b38","system_id":"levelo_inurba_marseille","lat":43.29061,"lon":5.37169,"is_reserved":false,"is_disabled":false,"rental_uris":{"android":"levelo://app?vid=7b6d0356-ea4b-4b37-a2cb-cbf8c7b40b38","ios":"levelo://app?vid=7b6d0356-ea4b-4b37-a2cb-cbf8c7b40b38"},"vehicle_type_id":"4","last_reported":1734538319,"current_range_meters":38000,"station_id":"ce4bh5p2rcd13ifvqe4g","pricing_plan_id":"cebpf4jnsgd1na2vs0mg"},{"bike_id":"9d2aefec-f4a3-4a23-a13a-c09b46ffe2e4","system_id":"levelo_inurba_marseille","lat":43.31167,"lon":5.36716,"is_reserved":false,"is_disabled":false,"rental_uris":{"android":"levelo://app?vid=9d2aefec-f4a3-4a23-a13a-c09b46ffe2e4","ios":"levelo://app?vid=9d2aefec-f4a3-4a23-a13a-c09b46ffe2e4"},"vehicle_type_id":"4","last_reported":1734538319,"current_range_meters":36800,"station_id":"","pricing_plan_id":"cebpf4jnsgd1na2vs0mg"},{"bike_id":"8d2ea22d-735a-47ce-8a9d-f2ab0e5097ba","system_id":"levelo_inurba_marseille","lat":43.29424,"lon":5.3862,"is_reserved":false,"is_disabled":false,"rental_uris":{"android":"levelo://app?vid=8d2ea22d-735a-47ce-8a9d-f2ab0e5097ba","ios":"levelo://app?vid=8d2ea22d-735a-47ce-8a9d-f2ab0e5097ba"},"vehicle_type_id":"4","last_reported":1734538319,"current_range_meters":38800,"station_id":"ce4bh2h2rcd13ifvqdh0","pricing_plan_id":"cebpf4jnsgd1na2vs0mg"},{"bike_id":"53f4ad25-935a-4c4a-a538-7283e0f43637","system_id":"levelo_inurba_marseille","lat":43.29564,"lon":5.36752,"is_reserved":false,"is_disabled":false,"rental_uris":{"android":"levelo://app?vid=53f4ad25-935a-4c4a-a538-7283e0f43637","ios":"levelo://app?vid=53f4ad25-935a-4c4a-a538-7283e0f43637"},"vehicle_type_id":"4","last_reported":1734538319,"current_range_meters":38800,"station_id":"ce4bgph2rcd13ifvqc2g","pricing_plan_id":"cebpf4jnsgd1na2vs0mg"},{"bike_id":"6e0890da-d710-4739-ac7b-ca68b75143dd","system_id":"levelo_inurba_marseille","lat":43.28666,"lon":5.36347,"is_reserved":false,"is_disabled":false,"rental_uris":{"android":"levelo://app?vid=6e0890da-d710-4739-ac7b-ca68b75143dd","ios":"levelo://app?vid=6e0890da-d710-4739-ac7b-ca68b75143dd"},"vehicle_type_id":"4","last_reported":1734538319,"current_range_meters":28800,"station_id":"ce4bhah2rcd13ifvqej0","pricing_plan_id":"cebpf4jnsgd1na2vs0mg"},{"bike_id":"d6515d9c-0a0c-4b2a-8dd5-10aa2045ad3c","system_id":"levelo_inurba_marseille","lat":43.27379,"lon":5.36255,"is_reserved":false,"is_disabled":false,"rental_uris":{"android":"levelo://app?vid=d6515d9c-0a0c-4b2a-8dd5-10aa2045ad3c","ios":"levelo://app?vid=d6515d9c-0a0c-4b2a-8dd5-10aa2045ad3c"},"vehicle_type_id":"4","last_reported":1734538319,"current_range_meters":38800,"station_id":"ce4bhbh2rcd13ifvqeo0","pricing_plan_id":"cebpf4jnsgd1na2vs0mg"},{"bike_id":"0207f8a4-516c-46ff-9895-b226d519d4c1","system_id":"levelo_inurba_marseille","lat":43.23191,"lon":5.35545,"is_reserved":false,"is_disabled":false,"rental_uris":{"android":"levelo://app?vid=0207f8a4-516c-46ff-9895-b226d519d4c1","ios":"levelo://app?vid=0207f8a4-516c-46ff-9895-b226d519d4c1"},"vehicle_type_id":"4","last_reported":1734538319,"current_range_meters":36400,"station_id":"ce4bhu92rcd13ifvqi70","pricing_plan_id":"cebpf4jnsgd1na2vs0mg"},{"bike_id":"82f7f145-591c-4ce0-8f76-660882a2845e","system_id":"levelo_inurba_marseille","lat":43.33638,"lon":5.40999,"is_reserved":false,"is_disabled":true,"rental_uris":{"android":"levelo://app?vid=82f7f145-591c-4ce0-8f76-660882a2845e","ios":"levelo://app?vid=82f7f145-591c-4ce0-8f76-660882a2845e"},"vehicle_type_id":"4","last_reported":1734538319,"current_range_meters":28800,"station_id":"ce4bhqh2rcd13ifvqhmg","pricing_plan_id":"cebpf4jnsgd1na2vs0mg"},{"bike_id":"c43144b8-701d-4fef-8260-134b7f7dba42","system_id":"levelo_inurba_marseille","lat":43.262,"lon":5.37932,"is_reserved":false,"is_disabled":true,"rental_uris":{"android":"levelo://app?vid=c43144b8-701d-4fef-8260-134b7f7dba42","ios":"levelo://app?vid=c43144b8-701d-4fef-8260-134b7f7dba42"},"vehicle_type_id":"4","last_reported":1734538319,"current_range_meters":800,"station_id":"ce4bhjp2rcd13ifvqg90","pricing_plan_id":"cebpf4jnsgd1na2vs0mg"},{"bike_id":"7959cbf1-e71d-44ac-a529-9f08e939d8fd","system_id":"levelo_inurba_marseille","lat":43.32339,"lon":5.40623,"is_reserved":false,"is_disabled":false,"rental_uris":{"android":"levelo://app?vid=7959cbf1-e71d-44ac-a529-9f08e939d8fd","ios":"levelo://app?vid=7959cbf1-e71d-44ac-a529-9f08e939d8fd"},"vehicle_type_id":"4","last_reported":1734538319,"current_range_meters":33200,"station_id":"ce4bhq92rcd13ifvqhjg","pricing_plan_id":"cebpf4jnsgd1na2vs0mg"},{"bike_id":"ac7c5f56-daad-496c-965f-9103737000e8","system_id":"levelo_inurba_marseille","lat":43.23967,"lon":5.36661,"is_reserved":false,"is_disabled":false,"rental_uris":{"android":"levelo://app?vid=ac7c5f56-daad-496c-965f-9103737000e8","ios":"levelo://app?vid=ac7c5f56-daad-496c-965f-9103737000e8"},"vehicle_type_id":"4","last_reported":1734538319,"current_range_meters":38000,"station_id":"ce4bhi12rcd13ifvqfp0","pricing_plan_id":"cebpf4jnsgd1na2vs0mg"},{"bike_id":"55eb3b8d-2227-470b-b9a8-f7520629c64b","system_id":"levelo_inurba_marseille","lat":43.30548,"lon":5.36531,"is_reserved":false,"is_disabled":false,"rental_uris":{"android":"levelo://app?vid=55eb3b8d-2227-470b-b9a8-f7520629c64b","ios":"levelo://app?vid=55eb3b8d-2227-470b-b9a8-f7520629c64b"},"vehicle_type_id":"4","last_reported":1734538319,"current_range_meters":17200,"station_id":"ce4bgs12rcd13ifvqcag","pricing_plan_id":"cebpf4jnsgd1na2vs0mg"},{"bike_id":"19d07322-c64a-461f-acf5-9f589c5bfb4f","system_id":"levelo_inurba_marseille","lat":43.3111,"lon":5.37776,"is_reserved":false,"is_disabled":true,"rental_uris":{"android":"levelo://app?vid=19d07322-c64a-461f-acf5-9f589c5bfb4f","ios":"levelo://app?vid=19d07322-c64a-461f-acf5-9f589c5bfb4f"},"vehicle_type_id":"4","last_reported":1734538319,"current_range_meters":1200,"station_id":"ce4bgt92rcd13ifvqcg0","pricing_plan_id":"cebpf4jnsgd1na2vs0mg"},{"bike_id":"c573e8c0-4326-474f-99df-316d45fdfe60","system_id":"levelo_inurba_marseille","lat":43.2705,"lon":5.40271,"is_reserved":false,"is_disabled":false,"rental_uris":{"android":"levelo://app?vid=c573e8c0-4326-474f-99df-316d45fdfe60","ios":"levelo://app?vid=c573e8c0-4326-474f-99df-316d45fdfe60"},"vehicle_type_id":"4","last_reported":1734538319,"current_range_meters":28400,"station_id":"ce4bhk92rcd13ifvqgc0","pricing_plan_id":"cebpf4jnsgd1na2vs0mg"},{"bike_id":"6b7795db-36bf-4605-adc1-ccb67d6a5a8b","system_id":"levelo_inurba_marseille","lat":43.27375,"lon":5.36253,"is_reserved":false,"is_disabled":false,"rental_uris":{"android":"levelo://app?vid=6b7795db-36bf-4605-adc1-ccb67d6a5a8b","ios":"levelo://app?vid=6b7795db-36bf-4605-adc1-ccb67d6a5a8b"},"vehicle_type_id":"4","last_reported":1734538319,"current_range_meters":39200,"station_id":"ce4bhbh2rcd13ifvqeo0","pricing_plan_id":"cebpf4jnsgd1na2vs0mg"},{"bike_id":"4eecb5ec-2d76-4b39-8933-f508f31b0d76","system_id":"levelo_inurba_marseille","lat":43.28966,"lon":5.37832,"is_reserved":false,"is_disabled":false,"rental_uris":{"android":"levelo://app?vid=4eecb5ec-2d76-4b39-8933-f508f31b0d76","ios":"levelo://app?vid=4eecb5ec-2d76-4b39-8933-f508f31b0d76"},"vehicle_type_id":"4","last_reported":1734538319,"current_range_meters":28800,"station_id":"ce4bh9p2rcd13ifvqed0","pricing_plan_id":"cebpf4jnsgd1na2vs0mg"},{"bike_id":"be561738-cfba-4432-8b9a-965011325c67","system_id":"levelo_inurba_marseille","lat":43.30925,"lon":5.40152,"is_reserved":false,"is_disabled":false,"rental_uris":{"android":"levelo://app?vid=be561738-cfba-4432-8b9a-965011325c67","ios":"levelo://app?vid=be561738-cfba-4432-8b9a-965011325c67"},"vehicle_type_id":"4","last_reported":1734538319,"current_range_meters":38800,"station_id":"ce4bgvp2rcd13ifvqct0","pricing_plan_id":"cebpf4jnsgd1na2vs0mg"},{"bike_id":"94dbe6ce-ba1d-41dd-b0cf-1f05a50be5b3","system_id":"levelo_inurba_marseille","lat":43.23201,"lon":5.35555,"is_reserved":false,"is_disabled":false,"rental_uris":{"android":"levelo://app?vid=94dbe6ce-ba1d-41dd-b0cf-1f05a50be5b3","ios":"levelo://app?vid=94dbe6ce-ba1d-41dd-b0cf-1f05a50be5b3"},"vehicle_type_id":"4","last_reported":1734538319,"current_range_meters":30000,"station_id":"ce4bhu92rcd13ifvqi70","pricing_plan_id":"cebpf4jnsgd1na2vs0mg"},{"bike_id":"7b305c6f-361b-46c6-bcc8-6b2d9fd084fa","system_id":"levelo_inurba_marseille","lat":43.28119,"lon":5.4422,"is_reserved":false,"is_disabled":true,"rental_uris":{"android":"levelo://app?vid=7b305c6f-361b-46c6-bcc8-6b2d9fd084fa","ios":"levelo://app?vid=7b305c6f-361b-46c6-bcc8-6b2d9fd084fa"},"vehicle_type_id":"4","last_reported":1734538319,"current_range_meters":0,"station_id":"","pricing_plan_id":"cebpf4jnsgd1na2vs0mg"},{"bike_id":"096a7850-aaf4-4da2-8608-845011c432b5","system_id":"levelo_inurba_marseille","lat":43.33733,"lon":5.39204,"is_reserved":false,"is_disabled":false,"rental_uris":{"android":"levelo://app?vid=096a7850-aaf4-4da2-8608-845011c432b5","ios":"levelo://app?vid=096a7850-aaf4-4da2-8608-845011c432b5"},"vehicle_type_id":"4","last_reported":1734538319,"current_range_meters":38800,"station_id":"ce4bhr92rcd13ifvqhsg","pricing_plan_id":"cebpf4jnsgd1na2vs0mg"},{"bike_id":"5e006376-15e6-4397-98fe-7fc27eb12234","system_id":"levelo_inurba_marseille","lat":43.28009,"lon":5.40012,"is_reserved":false,"is_disabled":false,"rental_uris":{"android":"levelo://app?vid=5e006376-15e6-4397-98fe-7fc27eb12234","ios":"levelo://app?vid=5e006376-15e6-4397-98fe-7fc27eb12234"},"vehicle_type_id":"4","last_reported":1734538319,"current_range_meters":21600,"station_id":"ce4bho92rcd13ifvqh4g","pricing_plan_id":"cebpf4jnsgd1na2vs0mg"},{"bike_id":"c81d12c0-b3b4-4b91-a004-bb72046d4aaa","system_id":"levelo_inurba_marseille","lat":43.29932,"lon":5.37504,"is_reserved":false,"is_disabled":false,"rental_uris":{"android":"levelo://app?vid=c81d12c0-b3b4-4b91-a004-bb72046d4aaa","ios":"levelo://app?vid=c81d12c0-b3b4-4b91-a004-bb72046d4aaa"},"vehicle_type_id":"4","last_reported":1734538319,"current_range_meters":28400,"station_id":"ce4bgjh2rcd13ifvqbg0","pricing_plan_id":"cebpf4jnsgd1na2vs0mg"},{"bike_id":"8d1c4201-2a72-4c4e-a53e-78bc816e5adf","system_id":"levelo_inurba_marseille","lat":43.26689,"lon":5.38276,"is_reserved":false,"is_disabled":false,"rental_uris":{"android":"levelo://app?vid=8d1c4201-2a72-4c4e-a53e-78bc816e5adf","ios":"levelo://app?vid=8d1c4201-2a72-4c4e-a53e-78bc816e5adf"},"vehicle_type_id":"4","last_reported":1734538319,"current_range_meters":35600,"station_id":"ce4bhg92rcd13ifvqf90","pricing_plan_id":"cebpf4jnsgd1na2vs0mg"},{"bike_id":"7c526c24-739a-4f6d-8459-32fd9e8caa79","system_id":"levelo_inurba_marseille","lat":43.28108,"lon":5.37834,"is_reserved":false,"is_disabled":false,"rental_uris":{"android":"levelo://app?vid=7c526c24-739a-4f6d-8459-32fd9e8caa79","ios":"levelo://app?vid=7c526c24-739a-4f6d-8459-32fd9e8caa79"},"vehicle_type_id":"4","last_reported":1734538319,"current_range_meters":30000,"station_id":"ce4bha12rcd13ifvqee0","pricing_plan_id":"cebpf4jnsgd1na2vs0mg"},{"bike_id":"ee01a507-8893-4440-bbe0-75da356e3a4f","system_id":"levelo_inurba_marseille","lat":43.299,"lon":5.38142,"is_reserved":false,"is_disabled":true,"rental_uris":{"android":"levelo://app?vid=ee01a507-8893-4440-bbe0-75da356e3a4f","ios":"levelo://app?vid=ee01a507-8893-4440-bbe0-75da356e3a4f"},"vehicle_type_id":"4","last_reported":1734538319,"current_range_meters":0,"station_id":"ce4bgj12rcd13ifvqbc0","pricing_plan_id":"cebpf4jnsgd1na2vs0mg"},{"bike_id":"f1f29481-7759-4cf3-8f3a-48946689e9b4","system_id":"levelo_inurba_marseille","lat":43.27363,"lon":5.36266,"is_reserved":false,"is_disabled":false,"rental_uris":{"android":"levelo://app?vid=f1f29481-7759-4cf3-8f3a-48946689e9b4","ios":"levelo://app?vid=f1f29481-7759-4cf3-8f3a-48946689e9b4"},"vehicle_type_id":"4","last_reported":1734538319,"current_range_meters":38400,"station_id":"ce4bhbh2rcd13ifvqeo0","pricing_plan_id":"cebpf4jnsgd1na2vs0mg"},{"bike_id":"db096120-123f-4da5-ad64-583f4719ba51","system_id":"levelo_inurba_marseille","lat":43.311,"lon":5.37788,"is_reserved":false,"is_disabled":true,"rental_uris":{"android":"levelo://app?vid=db096120-123f-4da5-ad64-583f4719ba51","ios":"levelo://app?vid=db096120-123f-4da5-ad64-583f4719ba51"},"vehicle_type_id":"4","last_reported":1734538319,"current_range_meters":0,"station_id":"ce4bgt92rcd13ifvqcg0","pricing_plan_id":"cebpf4jnsgd1na2vs0mg"},{"bike_id":"97fc9906-819c-4734-9fad-fe6c5d16b738","system_id":"levelo_inurba_marseille","lat":43.2769,"lon":5.38959,"is_reserved":false,"is_disabled":false,"rental_uris":{"android":"levelo://app?vid=97fc9906-819c-4734-9fad-fe6c5d16b738","ios":"levelo://app?vid=97fc9906-819c-4734-9fad-fe6c5d16b738"},"vehicle_type_id":"4","last_reported":1734538319,"current_range_meters":36400,"station_id":"","pricing_plan_id":"cebpf4jnsgd1na2vs0mg"},{"bike_id":"0202ef24-b792-4759-baea-d0a792040129","system_id":"levelo_inurba_marseille","lat":43.25823,"lon":5.39426,"is_reserved":false,"is_disabled":false,"rental_uris":{"android":"levelo://app?vid=0202ef24-b792-4759-baea-d0a792040129","ios":"levelo://app?vid=0202ef24-b792-4759-baea-d0a792040129"},"vehicle_type_id":"4","last_reported":1734538319,"current_range_meters":38800,"station_id":"ce4bhip2rcd13ifvqft0","pricing_plan_id":"cebpf4jnsgd1na2vs0mg"},{"bike_id":"4636b7f9-78e2-4774-a215-d669cbb32a23","system_id":"levelo_inurba_marseille","lat":43.29603,"lon":5.377237,"is_reserved":false,"is_disabled":false,"rental_uris":{"android":"levelo://app?vid=4636b7f9-78e2-4774-a215-d669cbb32a23","ios":"levelo://app?vid=4636b7f9-78e2-4774-a215-d669cbb32a23"},"vehicle_type_id":"4","last_reported":1734538319,"current_range_meters":31200,"station_id":"ce4bgi92rcd13ifvqb90","pricing_plan_id":"cebpf4jnsgd1na2vs0mg"},{"bike_id":"15b06ab3-5941-43b5-a9a5-ceb90aabbb54","system_id":"levelo_inurba_marseille","lat":43.2294,"lon":5.35369,"is_reserved":false,"is_disabled":false,"rental_uris":{"android":"levelo://app?vid=15b06ab3-5941-43b5-a9a5-ceb90aabbb54","ios":"levelo://app?vid=15b06ab3-5941-43b5-a9a5-ceb90aabbb54"},"vehicle_type_id":"4","last_reported":1734538319,"current_range_meters":38800,"station_id":"cpo3532slgdg3j2ikp40","pricing_plan_id":"cebpf4jnsgd1na2vs0mg"},{"bike_id":"d85a8ef0-3e26-4457-943a-90f55e137bf2","system_id":"levelo_inurba_marseille","lat":43.30585,"lon":5.37207,"is_reserved":false,"is_disabled":false,"rental_uris":{"android":"levelo://app?vid=d85a8ef0-3e26-4457-943a-90f55e137bf2","ios":"levelo://app?vid=d85a8ef0-3e26-4457-943a-90f55e137bf2"},"vehicle_type_id":"4","last_reported":1734538319,"current_range_meters":38800,"station_id":"ce4bgqh2rcd13ifvqc4g","pricing_plan_id":"cebpf4jnsgd1na2vs0mg"},{"bike_id":"0b9e8076-f50c-4fe1-9b87-b49229d18421","system_id":"levelo_inurba_marseille","lat":43.2439,"lon":5.37057,"is_reserved":false,"is_disabled":false,"rental_uris":{"android":"levelo://app?vid=0b9e8076-f50c-4fe1-9b87-b49229d18421","ios":"levelo://app?vid=0b9e8076-f50c-4fe1-9b87-b49229d18421"},"vehicle_type_id":"4","last_reported":1734538319,"current_range_meters":38800,"station_id":"ce4bhhh2rcd13ifvqfk0","pricing_plan_id":"cebpf4jnsgd1na2vs0mg"},{"bike_id":"6a0ae4c9-6ed4-4a44-b5f0-9a425887e29c","system_id":"levelo_inurba_marseille","lat":43.303563,"lon":5.418831,"is_reserved":false,"is_disabled":false,"rental_uris":{"android":"levelo://app?vid=6a0ae4c9-6ed4-4a44-b5f0-9a425887e29c","ios":"levelo://app?vid=6a0ae4c9-6ed4-4a44-b5f0-9a425887e29c"},"vehicle_type_id":"4","last_reported":1734538319,"current_range_meters":38800,"station_id":"ce4bhop2rcd13ifvqh7g","pricing_plan_id":"cebpf4jnsgd1na2vs0mg"},{"bike_id":"d8cba63a-8ea7-4d26-af12-e298e24ded11","system_id":"levelo_inurba_marseille","lat":43.25494,"lon":5.37648,"is_reserved":false,"is_disabled":false,"rental_uris":{"android":"levelo://app?vid=d8cba63a-8ea7-4d26-af12-e298e24ded11","ios":"levelo://app?vid=d8cba63a-8ea7-4d26-af12-e298e24ded11"},"vehicle_type_id":"4","last_reported":1734538319,"current_range_meters":38800,"station_id":"ce4bhh12rcd13ifvqff0","pricing_plan_id":"cebpf4jnsgd1na2vs0mg"},{"bike_id":"e3423766-ff70-4b7b-a941-b3f451968318","system_id":"levelo_inurba_marseille","lat":43.29551,"lon":5.42284,"is_reserved":false,"is_disabled":true,"rental_uris":{"android":"levelo://app?vid=e3423766-ff70-4b7b-a941-b3f451968318","ios":"levelo://app?vid=e3423766-ff70-4b7b-a941-b3f451968318"},"vehicle_type_id":"4","last_reported":1734538319,"current_range_meters":38800,"station_id":"ce4bhph2rcd13ifvqhdg","pricing_plan_id":"cebpf4jnsgd1na2vs0mg"},{"bike_id":"ed9211a5-8a9b-4791-9676-40d5da4ce6f1","system_id":"levelo_inurba_marseille","lat":43.31716,"lon":5.43692,"is_reserved":false,"is_disabled":false,"rental_uris":{"android":"levelo://app?vid=ed9211a5-8a9b-4791-9676-40d5da4ce6f1","ios":"levelo://app?vid=ed9211a5-8a9b-4791-9676-40d5da4ce6f1"},"vehicle_type_id":"4","last_reported":1734538319,"current_range_meters":38800,"station_id":"ce4bhp92rcd13ifvqhcg","pricing_plan_id":"cebpf4jnsgd1na2vs0mg"},{"bike_id":"d857bd8a-f230-4617-921f-d286cd0dab67","system_id":"levelo_inurba_marseille","lat":43.25498,"lon":5.37649,"is_reserved":false,"is_disabled":false,"rental_uris":{"android":"levelo://app?vid=d857bd8a-f230-4617-921f-d286cd0dab67","ios":"levelo://app?vid=d857bd8a-f230-4617-921f-d286cd0dab67"},"vehicle_type_id":"4","last_reported":1734538319,"current_range_meters":39200,"station_id":"ce4bhh12rcd13ifvqff0","pricing_plan_id":"cebpf4jnsgd1na2vs0mg"},{"bike_id":"dda38de9-f2fc-4b22-ab17-c69940e2958f","system_id":"levelo_inurba_marseille","lat":43.23196,"lon":5.35555,"is_reserved":false,"is_disabled":false,"rental_uris":{"android":"levelo://app?vid=dda38de9-f2fc-4b22-ab17-c69940e2958f","ios":"levelo://app?vid=dda38de9-f2fc-4b22-ab17-c69940e2958f"},"vehicle_type_id":"4","last_reported":1734538319,"current_range_meters":24000,"station_id":"ce4bhu92rcd13ifvqi70","pricing_plan_id":"cebpf4jnsgd1na2vs0mg"},{"bike_id":"628af2bc-9a49-4c49-8b5c-f98f68da30a9","system_id":"levelo_inurba_marseille","lat":43.28617,"lon":5.35102,"is_reserved":false,"is_disabled":false,"rental_uris":{"android":"levelo://app?vid=628af2bc-9a49-4c49-8b5c-f98f68da30a9","ios":"levelo://app?vid=628af2bc-9a49-4c49-8b5c-f98f68da30a9"},"vehicle_type_id":"4","last_reported":1734538319,"current_range_meters":19200,"station_id":"ce4bhch2rcd13ifvqeug","pricing_plan_id":"cebpf4jnsgd1na2vs0mg"},{"bike_id":"3c444741-cea4-409d-b5b6-2377c2a5898b","system_id":"levelo_inurba_marseille","lat":43.27063,"lon":5.40261,"is_reserved":false,"is_disabled":false,"rental_uris":{"android":"levelo://app?vid=3c444741-cea4-409d-b5b6-2377c2a5898b","ios":"levelo://app?vid=3c444741-cea4-409d-b5b6-2377c2a5898b"},"vehicle_type_id":"4","last_reported":1734538319,"current_range_meters":8000,"station_id":"ce4bhk92rcd13ifvqgc0","pricing_plan_id":"cebpf4jnsgd1na2vs0mg"},{"bike_id":"5edff508-c673-4823-b64e-f467d84e1735","system_id":"levelo_inurba_marseille","lat":43.29585,"lon":5.36739,"is_reserved":false,"is_disabled":false,"rental_uris":{"android":"levelo://app?vid=5edff508-c673-4823-b64e-f467d84e1735","ios":"levelo://app?vid=5edff508-c673-4823-b64e-f467d84e1735"},"vehicle_type_id":"4","last_reported":1734538319,"current_range_meters":12400,"station_id":"ce4bgph2rcd13ifvqc2g","pricing_plan_id":"cebpf4jnsgd1na2vs0mg"},{"bike_id":"a4eb1442-f48e-414c-9161-5ca64584f15e","system_id":"levelo_inurba_marseille","lat":43.31682,"lon":5.40476,"is_reserved":false,"is_disabled":false,"rental_uris":{"android":"levelo://app?vid=a4eb1442-f48e-414c-9161-5ca64584f15e","ios":"levelo://app?vid=a4eb1442-f48e-414c-9161-5ca64584f15e"},"vehicle_type_id":"4","last_reported":1734538319,"current_range_meters":32000,"station_id":"","pricing_plan_id":"cebpf4jnsgd1na2vs0mg"},{"bike_id":"104a0529-c991-4a35-b60f-a187666692b8","system_id":"levelo_inurba_marseille","lat":43.29188,"lon":5.35803,"is_reserved":false,"is_disabled":false,"rental_uris":{"android":"levelo://app?vid=104a0529-c991-4a35-b60f-a187666692b8","ios":"levelo://app?vid=104a0529-c991-4a35-b60f-a187666692b8"},"vehicle_type_id":"4","last_reported":1734538319,"current_range_meters":12000,"station_id":"ce4bhb12rcd13ifvqel0","pricing_plan_id":"cebpf4jnsgd1na2vs0mg"},{"bike_id":"1c4127b9-486f-41b4-8296-37dda68e98bf","system_id":"levelo_inurba_marseille","lat":43.23189,"lon":5.35576,"is_reserved":false,"is_disabled":false,"rental_uris":{"android":"levelo://app?vid=1c4127b9-486f-41b4-8296-37dda68e98bf","ios":"levelo://app?vid=1c4127b9-486f-41b4-8296-37dda68e98bf"},"vehicle_type_id":"4","last_reported":1734538319,"current_range_meters":36000,"station_id":"ce4bhu92rcd13ifvqi70","pricing_plan_id":"cebpf4jnsgd1na2vs0mg"},{"bike_id":"47c8d280-a3ee-43ef-8691-72d298c93f9e","system_id":"levelo_inurba_marseille","lat":43.30543,"lon":5.36705,"is_reserved":false,"is_disabled":false,"rental_uris":{"android":"levelo://app?vid=47c8d280-a3ee-43ef-8691-72d298c93f9e","ios":"levelo://app?vid=47c8d280-a3ee-43ef-8691-72d298c93f9e"},"vehicle_type_id":"4","last_reported":1734538319,"current_range_meters":39200,"station_id":"ce4bgrp2rcd13ifvqc9g","pricing_plan_id":"cebpf4jnsgd1na2vs0mg"},{"bike_id":"cc4181b2-c377-4976-9a1e-825d1a2b4dbd","system_id":"levelo_inurba_marseille","lat":43.27049,"lon":5.4026,"is_reserved":false,"is_disabled":false,"rental_uris":{"android":"levelo://app?vid=cc4181b2-c377-4976-9a1e-825d1a2b4dbd","ios":"levelo://app?vid=cc4181b2-c377-4976-9a1e-825d1a2b4dbd"},"vehicle_type_id":"4","last_reported":1734538319,"current_range_meters":20400,"station_id":"ce4bhk92rcd13ifvqgc0","pricing_plan_id":"cebpf4jnsgd1na2vs0mg"},{"bike_id":"5f45dd8a-4072-49d6-af7f-e10061df7f9d","system_id":"levelo_inurba_marseille","lat":43.28568,"lon":5.39496,"is_reserved":false,"is_disabled":false,"rental_uris":{"android":"levelo://app?vid=5f45dd8a-4072-49d6-af7f-e10061df7f9d","ios":"levelo://app?vid=5f45dd8a-4072-49d6-af7f-e10061df7f9d"},"vehicle_type_id":"4","last_reported":1734538319,"current_range_meters":37600,"station_id":"ce4bh292rcd13ifvqdg0","pricing_plan_id":"cebpf4jnsgd1na2vs0mg"},{"bike_id":"ccf777db-a227-4326-ae8a-2531025c4fe8","system_id":"levelo_inurba_marseille","lat":43.30942,"lon":5.36897,"is_reserved":false,"is_disabled":false,"rental_uris":{"android":"levelo://app?vid=ccf777db-a227-4326-ae8a-2531025c4fe8","ios":"levelo://app?vid=ccf777db-a227-4326-ae8a-2531025c4fe8"},"vehicle_type_id":"4","last_reported":1734538319,"current_range_meters":38000,"station_id":"ce4bgn92rcd13ifvqbvg","pricing_plan_id":"cebpf4jnsgd1na2vs0mg"},{"bike_id":"7d746325-aaaf-4062-8c7f-296dea3d5f1d","system_id":"levelo_inurba_marseille","lat":43.26027,"lon":5.37551,"is_reserved":false,"is_disabled":false,"rental_uris":{"android":"levelo://app?vid=7d746325-aaaf-4062-8c7f-296dea3d5f1d","ios":"levelo://app?vid=7d746325-aaaf-4062-8c7f-296dea3d5f1d"},"vehicle_type_id":"4","last_reported":1734538319,"current_range_meters":4000,"station_id":"ce4bhgh2rcd13ifvqfa0","pricing_plan_id":"cebpf4jnsgd1na2vs0mg"},{"bike_id":"40186e8e-82c9-4fc4-89d1-a9e8db7ce226","system_id":"levelo_inurba_marseille","lat":43.30287,"lon":5.37704,"is_reserved":false,"is_disabled":false,"rental_uris":{"android":"levelo://app?vid=40186e8e-82c9-4fc4-89d1-a9e8db7ce226","ios":"levelo://app?vid=40186e8e-82c9-4fc4-89d1-a9e8db7ce226"},"vehicle_type_id":"4","last_reported":1734538319,"current_range_meters":36800,"station_id":"ce4bguh2rcd13ifvqcj0","pricing_plan_id":"cebpf4jnsgd1na2vs0mg"},{"bike_id":"8ba59c62-b3b4-4392-b804-17dd66cafde2","system_id":"levelo_inurba_marseille","lat":43.29433,"lon":5.39757,"is_reserved":false,"is_disabled":false,"rental_uris":{"android":"levelo://app?vid=8ba59c62-b3b4-4392-b804-17dd66cafde2","ios":"levelo://app?vid=8ba59c62-b3b4-4392-b804-17dd66cafde2"},"vehicle_type_id":"4","last_reported":1734538319,"current_range_meters":34000,"station_id":"ce4bh3h2rcd13ifvqdo0","pricing_plan_id":"cebpf4jnsgd1na2vs0mg"},{"bike_id":"6f83a1f1-9fe9-425b-9468-460c831986e1","system_id":"levelo_inurba_marseille","lat":43.24393,"lon":5.37059,"is_reserved":false,"is_disabled":false,"rental_uris":{"android":"levelo://app?vid=6f83a1f1-9fe9-425b-9468-460c831986e1","ios":"levelo://app?vid=6f83a1f1-9fe9-425b-9468-460c831986e1"},"vehicle_type_id":"4","last_reported":1734538319,"current_range_meters":12400,"station_id":"ce4bhhh2rcd13ifvqfk0","pricing_plan_id":"cebpf4jnsgd1na2vs0mg"},{"bike_id":"bb8b3d2a-67f2-4df9-8ec2-f4d27a96656a","system_id":"levelo_inurba_marseille","lat":43.29766,"lon":5.37689,"is_reserved":false,"is_disabled":false,"rental_uris":{"android":"levelo://app?vid=bb8b3d2a-67f2-4df9-8ec2-f4d27a96656a","ios":"levelo://app?vid=bb8b3d2a-67f2-4df9-8ec2-f4d27a96656a"},"vehicle_type_id":"4","last_reported":1734538319,"current_range_meters":34000,"station_id":"","pricing_plan_id":"cebpf4jnsgd1na2vs0mg"},{"bike_id":"9a56c358-7424-4a2d-9779-1aef9062a836","system_id":"levelo_inurba_marseille","lat":43.30911,"lon":5.36856,"is_reserved":false,"is_disabled":false,"rental_uris":{"android":"levelo://app?vid=9a56c358-7424-4a2d-9779-1aef9062a836","ios":"levelo://app?vid=9a56c358-7424-4a2d-9779-1aef9062a836"},"vehicle_type_id":"4","last_reported":1734538319,"current_range_meters":38800,"station_id":"ce4bgn92rcd13ifvqbvg","pricing_plan_id":"cebpf4jnsgd1na2vs0mg"},{"bike_id":"df14045e-8e73-442d-8baf-7ce7c5ec81fd","system_id":"levelo_inurba_marseille","lat":43.24166,"lon":5.36397,"is_reserved":false,"is_disabled":false,"rental_uris":{"android":"levelo://app?vid=df14045e-8e73-442d-8baf-7ce7c5ec81fd","ios":"levelo://app?vid=df14045e-8e73-442d-8baf-7ce7c5ec81fd"},"vehicle_type_id":"4","last_reported":1734538319,"current_range_meters":38800,"station_id":"cpo36qri1sfpv3e86is0","pricing_plan_id":"cebpf4jnsgd1na2vs0mg"},{"bike_id":"18980bd8-e644-4304-9929-7462c6c998ea","system_id":"levelo_inurba_marseille","lat":43.29523,"lon":5.37495,"is_reserved":false,"is_disabled":true,"rental_uris":{"android":"levelo://app?vid=18980bd8-e644-4304-9929-7462c6c998ea","ios":"levelo://app?vid=18980bd8-e644-4304-9929-7462c6c998ea"},"vehicle_type_id":"4","last_reported":1734538319,"current_range_meters":30800,"station_id":"ce4bgkp2rcd13ifvqbmg","pricing_plan_id":"cebpf4jnsgd1na2vs0mg"},{"bike_id":"a88f3235-a987-466d-b526-377a2eae491e","system_id":"levelo_inurba_marseille","lat":43.29518,"lon":5.39034,"is_reserved":false,"is_disabled":false,"rental_uris":{"android":"levelo://app?vid=a88f3235-a987-466d-b526-377a2eae491e","ios":"levelo://app?vid=a88f3235-a987-466d-b526-377a2eae491e"},"vehicle_type_id":"4","last_reported":1734538319,"current_range_meters":25600,"station_id":"ce4bh3p2rcd13ifvqdp0","pricing_plan_id":"cebpf4jnsgd1na2vs0mg"},{"bike_id":"606fccef-83d2-4924-bb4a-30d56e9f775f","system_id":"levelo_inurba_marseille","lat":43.30548,"lon":5.3671,"is_reserved":false,"is_disabled":false,"rental_uris":{"android":"levelo://app?vid=606fccef-83d2-4924-bb4a-30d56e9f775f","ios":"levelo://app?vid=606fccef-83d2-4924-bb4a-30d56e9f775f"},"vehicle_type_id":"4","last_reported":1734538319,"current_range_meters":18800,"station_id":"ce4bgrp2rcd13ifvqc9g","pricing_plan_id":"cebpf4jnsgd1na2vs0mg"},{"bike_id":"05222d1d-b119-4808-92e2-1a8199a31368","system_id":"levelo_inurba_marseille","lat":43.30913,"lon":5.36853,"is_reserved":false,"is_disabled":false,"rental_uris":{"android":"levelo://app?vid=05222d1d-b119-4808-92e2-1a8199a31368","ios":"levelo://app?vid=05222d1d-b119-4808-92e2-1a8199a31368"},"vehicle_type_id":"4","last_reported":1734538319,"current_range_meters":38400,"station_id":"ce4bgn92rcd13ifvqbvg","pricing_plan_id":"cebpf4jnsgd1na2vs0mg"},{"bike_id":"c1890551-6fbc-46c5-98e2-ebdde4a2eb4a","system_id":"levelo_inurba_marseille","lat":43.25095,"lon":5.3951,"is_reserved":false,"is_disabled":true,"rental_uris":{"android":"levelo://app?vid=c1890551-6fbc-46c5-98e2-ebdde4a2eb4a","ios":"levelo://app?vid=c1890551-6fbc-46c5-98e2-ebdde4a2eb4a"},"vehicle_type_id":"4","last_reported":1734538319,"current_range_meters":1200,"station_id":"ce4bhm12rcd13ifvqgkg","pricing_plan_id":"cebpf4jnsgd1na2vs0mg"},{"bike_id":"c2100899-5854-45d5-93ef-7bb5db253e91","system_id":"levelo_inurba_marseille","lat":43.23413,"lon":5.35934,"is_reserved":false,"is_disabled":false,"rental_uris":{"android":"levelo://app?vid=c2100899-5854-45d5-93ef-7bb5db253e91","ios":"levelo://app?vid=c2100899-5854-45d5-93ef-7bb5db253e91"},"vehicle_type_id":"4","last_reported":1734538319,"current_range_meters":21600,"station_id":"","pricing_plan_id":"cebpf4jnsgd1na2vs0mg"},{"bike_id":"e0b2aca7-c6a3-4a45-acef-b71094abc689","system_id":"levelo_inurba_marseille","lat":43.303125,"lon":5.369094,"is_reserved":false,"is_disabled":true,"rental_uris":{"android":"levelo://app?vid=e0b2aca7-c6a3-4a45-acef-b71094abc689","ios":"levelo://app?vid=e0b2aca7-c6a3-4a45-acef-b71094abc689"},"vehicle_type_id":"4","last_reported":1734538319,"current_range_meters":0,"station_id":"","pricing_plan_id":"cebpf4jnsgd1na2vs0mg"},{"bike_id":"0b21b101-f6d2-4183-8fd5-0506c4f37acd","system_id":"levelo_inurba_marseille","lat":43.27497,"lon":5.4246,"is_reserved":false,"is_disabled":true,"rental_uris":{"android":"levelo://app?vid=0b21b101-f6d2-4183-8fd5-0506c4f37acd","ios":"levelo://app?vid=0b21b101-f6d2-4183-8fd5-0506c4f37acd"},"vehicle_type_id":"4","last_reported":1734538319,"current_range_meters":0,"station_id":"ce4bhn92rcd13ifvqgrg","pricing_plan_id":"cebpf4jnsgd1na2vs0mg"},{"bike_id":"32a0e856-dd1c-41fa-a5a7-6034a409d043","system_id":"levelo_inurba_marseille","lat":43.29186,"lon":5.35799,"is_reserved":false,"is_disabled":false,"rental_uris":{"android":"levelo://app?vid=32a0e856-dd1c-41fa-a5a7-6034a409d043","ios":"levelo://app?vid=32a0e856-dd1c-41fa-a5a7-6034a409d043"},"vehicle_type_id":"4","last_reported":1734538319,"current_range_meters":30000,"station_id":"ce4bhb12rcd13ifvqel0","pricing_plan_id":"cebpf4jnsgd1na2vs0mg"},{"bike_id":"c99d81b1-805d-40c3-99e7-258684996560","system_id":"levelo_inurba_marseille","lat":43.31175,"lon":5.38715,"is_reserved":false,"is_disabled":false,"rental_uris":{"android":"levelo://app?vid=c99d81b1-805d-40c3-99e7-258684996560","ios":"levelo://app?vid=c99d81b1-805d-40c3-99e7-258684996560"},"vehicle_type_id":"4","last_reported":1734538319,"current_range_meters":25600,"station_id":"ce4bgv12rcd13ifvqcp0","pricing_plan_id":"cebpf4jnsgd1na2vs0mg"},{"bike_id":"acf7b6dc-03aa-488e-a8ad-fe4efd1f0c32","system_id":"levelo_inurba_marseille","lat":43.29043,"lon":5.38632,"is_reserved":false,"is_disabled":false,"rental_uris":{"android":"levelo://app?vid=acf7b6dc-03aa-488e-a8ad-fe4efd1f0c32","ios":"levelo://app?vid=acf7b6dc-03aa-488e-a8ad-fe4efd1f0c32"},