{"last_updated":1757917036,"ttl":60,"version":"2.2","data":{"bikes":[{"bike_id":"775af279-8ac9-4585-9121-809be9b13265","system_id":"levelo_inurba_marseille","lat":43.337775,"lon":5.374412,"is_reserved":false,"is_disabled":false,"rental_uris":{"android":"levelo://app?vid=775af279-8ac9-4585-9121-809be9b13265","ios":"levelo://app?vid=775af279-8ac9-4585-9121-809be9b13265"},"vehicle_type_id":"4","last_reported":1757917037,"current_range_meters":2800,"station_id":"","pricing_plan_id":"cebpf4jnsgd1na2vs0mg"},{"bike_id":"3157fc2e-9a89-4dd0-8480-d02d8bbd7d1d","system_id":"levelo_inurba_marseille","lat":43.30209,"lon":5.39472,"is_reserved":false,"is_disabled":false,"rental_uris":{"android":"levelo://app?vid=3157fc2e-9a89-4dd0-8480-d02d8bbd7d1d","ios":"levelo://app?vid=3157fc2e-9a89-4dd0-8480-d02d8bbd7d1d"},"vehicle_type_id":"4","last_reported":1757917037,"current_range_meters":2800,"station_id":"ce4bh0p2rcd13ifvqd70","pricing_plan_id":"cebpf4jnsgd1na2vs0mg"},{"bike_id":"7e3756ee-2b5c-4885-ada3-e438824aa5a9","system_id":"levelo_inurba_marseille","lat":43.29878,"lon":5.42064,"is_reserved":false,"is_disabled":false,"rental_uris":{"android":"levelo://app?vid=7e3756ee-2b5c-4885-ada3-e438824aa5a9","ios":"levelo://app?vid=7e3756ee-2b5c-4885-ada3-e438824aa5a9"},"vehicle_type_id":"4","last_reported":1757917037,"current_range_meters":2800,"station_id":"","pricing_plan_id":"cebpf4jnsgd1na2vs0mg"},{"bike_id":"0a655baf-5e90-4987-aa6a-afddc3033401","system_id":"levelo_inurba_marseille","lat":43.23156,"lon":5.43701,"is_reserved":false,"is_disabled":false,"rental_uris":{"android":"levelo://app?vid=0a655baf-5e90-4987-aa6a-afddc3033401","ios":"levelo://app?vid=0a655baf-5e90-4987-aa6a-afddc3033401"},"vehicle_type_id":"4","last_reported":1757917037,"current_range_meters":2000,"station_id":"ce4bhmp2rcd13ifvqgog","pricing_plan_id":"cebpf4jnsgd1na2vs0mg"},{"bike_id":"4139ccef-c91b-4cf8-9bc3-346a6d084323","system_id":"levelo_inurba_marseille","lat":43.30459,"lon":5.37894,"is_reserved":false,"is_disabled":false,"rental_uris":{"android":"levelo://app?vid=4139ccef-c91b-4cf8-9bc3-346a6d084323","ios":"levelo://app?vid=4139ccef-c91b-4cf8-9bc3-346a6d084323"},"vehicle_type_id":"4","last_reported":1757917037,"current_range_meters":3200,"station_id":"ce4bgup2rcd13ifvqcn0","pricing_plan_id":"cebpf4jnsgd1na2vs0mg"},{"bike_id":"0eac0c05-dbf1-4c0b-af6d-53c5df91e290","system_id":"levelo_inurba_marseille","lat":43.29668,"lon":5.37144,"is_reserved":false,"is_disabled":false,"rental_uris":{"android":"levelo://app?vid=0eac0c05-dbf1-4c0b-af6d-53c5df91e290","ios":"levelo://app?vid=0eac0c05-dbf1-4c0b-af6d-53c5df91e290"},"vehicle_type_id":"4","last_reported":1757917037,"current_range_meters":3200,"station_id":"","pricing_plan_id":"cebpf4jnsgd1na2vs0mg"},{"bike_id":"9cfc7336-b5d4-4ea5-aab9-d1feb3c8b867","system_id":"levelo_inurba_marseille","lat":43.29605,"lon":5.38101,"is_reserved":false,"is_disabled":false,"rental_uris":{"android":"levelo://app?vid=9cfc7336-b5d4-4ea5-aab9-d1feb3c8b867","ios":"levelo://app?vid=9cfc7336-b5d4-4ea5-aab9-d1feb3c8b867"},"vehicle_type_id":"4","last_reported":1757917037,"current_range_meters":3600,"station_id":"ce4bgl12rcd13ifvqbo0","pricing_plan_id":"cebpf4jnsgd1na2vs0mg"},{"bike_id":"e1d2e4b0-dcc3-4ec6-8f60-71a0707cd0fe","system_id":"levelo_inurba_marseille","lat":43.21747,"lon":5.34631,"is_reserved":false,"is_disabled":true,"rental_uris":{"android":"levelo://app?vid=e1d2e4b0-dcc3-4ec6-8f60-71a0707cd0fe","ios":"levelo://app?vid=e1d2e4b0-dcc3-4ec6-8f60-71a0707cd0fe"},"vehicle_type_id":"4","last_reported":1757917037,"current_range_meters":3600,"station_id":"st_cvj6r9ubvosntc0bgbag","pricing_plan_id":"cebpf4jnsgd1na2vs0mg"},{"bike_id":"a24c4696-920b-4645-847f-87e0b46915a6","system_id":"levelo_inurba_marseille","lat":43.32415,"lon":5.42514,"is_reserved":false,"is_disabled":false,"rental_uris":{"android":"levelo://app?vid=a24c4696-920b-4645-847f-87e0b46915a6","ios":"levelo://app?vid=a24c4696-920b-4645-847f-87e0b46915a6"},"vehicle_type_id":"4","last_reported":1757917037,"current_range_meters":4000,"station_id":"","pricing_plan_id":"cebpf4jnsgd1na2vs0mg"},{"bike_id":"cbd6e891-6ea4-484c-b167-fec7ec71ecdc","system_id":"levelo_inurba_marseille","lat":43.27186,"lon":5.41022,"is_reserved":false,"is_disabled":false,"rental_uris":{"android":"levelo://app?vid=cbd6e891-6ea4-484c-b167-fec7ec71ecdc","ios":"levelo://app?vid=cbd6e891-6ea4-484c-b167-fec7ec71ecdc"},"vehicle_type_id":"4","last_reported":1757917037,"current_range_meters":4000,"station_id":"ce4bhl12rcd13ifvqgf0","pricing_plan_id":"cebpf4jnsgd1na2vs0mg"},{"bike_id":"e75c3ca3-c2c5-4d63-9159-bdf8c4086066","system_id":"levelo_inurba_marseille","lat":43.307947,"lon":5.376457,"is_reserved":false,"is_disabled":false,"rental_uris":{"android":"levelo://app?vid=e75c3ca3-c2c5-4d63-9159-bdf8c4086066","ios":"levelo://app?vid=e75c3ca3-c2c5-4d63-9159-bdf8c4086066"},"vehicle_type_id":"4","last_reported":1757917037,"current_range_meters":4000,"station_id":"ce4bgv92rcd13ifvqcq0","pricing_plan_id":"cebpf4jnsgd1na2vs0mg"},{"bike_id":"ae2200e0-55fa-4d16-87bf-72ca65d67371","system_id":"levelo_inurba_marseille","lat":43.28386,"lon":5.38478,"is_reserved":false,"is_disabled":false,"rental_uris":{"android":"levelo://app?vid=ae2200e0-55fa-4d16-87bf-72ca65d67371","ios":"levelo://app?vid=ae2200e0-55fa-4d16-87bf-72ca65d67371"},"vehicle_type_id":"4","last_reported":1757917037,"current_range_meters":4400,"station_id":"","pricing_plan_id":"cebpf4jnsgd1na2vs0mg"},{"bike_id":"e03bd15c-c472-4f08-bc2f-c1b8a57b70fb","system_id":"levelo_inurba_marseille","lat":43.31085,"lon":5.40105,"is_reserved":false,"is_disabled":true,"rental_uris":{"android":"levelo://app?vid=e03bd15c-c472-4f08-bc2f-c1b8a57b70fb","ios":"levelo://app?vid=e03bd15c-c472-4f08-bc2f-c1b8a57b70fb"},"vehicle_type_id":"4","last_reported":1757917037,"current_range_meters":4400,"station_id":"","pricing_plan_id":"cebpf4jnsgd1na2vs0mg"},{"bike_id":"8a1c985d-8abf-4ba0-95d4-d11dd91d05c0","system_id":"levelo_inurba_marseille","lat":43.29578,"lon":5.375254,"is_reserved":false,"is_disabled":false,"rental_uris":{"android":"levelo://app?vid=8a1c985d-8abf-4ba0-95d4-d11dd91d05c0","ios":"levelo://app?vid=8a1c985d-8abf-4ba0-95d4-d11dd91d05c0"},"vehicle_type_id":"4","last_reported":1757917037,"current_range_meters":4400,"station_id":"","pricing_plan_id":"cebpf4jnsgd1na2vs0mg"},{"bike_id":"165d69ad-40cd-4179-921d-b011165661a2","system_id":"levelo_inurba_marseille","lat":43.24952,"lon":5.40487,"is_reserved":false,"is_disabled":false,"rental_uris":{"android":"levelo://app?vid=165d69ad-40cd-4179-921d-b011165661a2","ios":"levelo://app?vid=165d69ad-40cd-4179-921d-b011165661a2"},"vehicle_type_id":"4","last_reported":1757917037,"current_range_meters":4400,"station_id":"st_d2ngiaodas8pm72gd1h0","pricing_plan_id":"cebpf4jnsgd1na2vs0mg"},{"bike_id":"90b6c2c8-4803-4cbe-ac55-7b11770052b2","system_id":"levelo_inurba_marseille","lat":43.302619,"lon":5.377184,"is_reserved":false,"is_disabled":false,"rental_uris":{"android":"levelo://app?vid=90b6c2c8-4803-4cbe-ac55-7b11770052b2","ios":"levelo://app?vid=90b6c2c8-4803-4cbe-ac55-7b11770052b2"},"vehicle_type_id":"4","last_reported":1757917037,"current_range_meters":4800,"station_id":"ce4bguh2rcd13ifvqcj0","pricing_plan_id":"cebpf4jnsgd1na2vs0mg"},{"bike_id":"46a43285-54f7-409e-9964-ef28ae262381","system_id":"levelo_inurba_marseille","lat":43.29282,"lon":5.40119,"is_reserved":false,"is_disabled":false,"rental_uris":{"android":"levelo://app?vid=46a43285-54f7-409e-9964-ef28ae262381","ios":"levelo://app?vid=46a43285-54f7-409e-9964-ef28ae262381"},"vehicle_type_id":"4","last_reported":1757917037,"current_range_meters":1200,"station_id":"ce4bh312rcd13ifvqdk0","pricing_plan_id":"cebpf4jnsgd1na2vs0mg"},{"bike_id":"200b3310-1877-4240-b619-9e0bf1930c51","system_id":"levelo_inurba_marseille","lat":43.26229,"lon":5.40442,"is_reserved":false,"is_disabled":false,"rental_uris":{"android":"levelo://app?vid=200b3310-1877-4240-b619-9e0bf1930c51","ios":"levelo://app?vid=200b3310-1877-4240-b619-9e0bf1930c51"},"vehicle_type_id":"4","last_reported":1757917037,"current_range_meters":4800,"station_id":"ce4bhmh2rcd13ifvqgmg","pricing_plan_id":"cebpf4jnsgd1na2vs0mg"},{"bike_id":"463345a6-2d4f-4448-8488-9cab1efda713","system_id":"levelo_inurba_marseille","lat":43.25445,"lon":5.40151,"is_reserved":false,"is_disabled":false,"rental_uris":{"android":"levelo://app?vid=463345a6-2d4f-4448-8488-9cab1efda713","ios":"levelo://app?vid=463345a6-2d4f-4448-8488-9cab1efda713"},"vehicle_type_id":"4","last_reported":1757917037,"current_range_meters":4800,"station_id":"","pricing_plan_id":"cebpf4jnsgd1na2vs0mg"},{"bike_id":"40767ddf-a878-4cfe-9727-70d37347ceab","system_id":"levelo_inurba_marseille","lat":43.308822,"lon":5.371906,"is_reserved":false,"is_disabled":false,"rental_uris":{"android":"levelo://app?vid=40767ddf-a878-4cfe-9727-70d37347ceab","ios":"levelo://app?vid=40767ddf-a878-4cfe-9727-70d37347ceab"},"vehicle_type_id":"4","last_reported":1757917037,"current_range_meters":5600,"station_id":"ce4bguh2rcd13ifvqckg","pricing_plan_id":"cebpf4jnsgd1na2vs0mg"},{"bike_id":"4891d751-b66c-4a3d-89d5-78926b795844","system_id":"levelo_inurba_marseille","lat":43.30255,"lon":5.44827,"is_reserved":false,"is_disabled":false,"rental_uris":{"android":"levelo://app?vid=4891d751-b66c-4a3d-89d5-78926b795844","ios":"levelo://app?vid=4891d751-b66c-4a3d-89d5-78926b795844"},"vehicle_type_id":"4","last_reported":1757917037,"current_range_meters":5600,"station_id":"","pricing_plan_id":"cebpf4jnsgd1na2vs0mg"},{"bike_id":"9a45254c-c77a-469d-8fa3-a3fa05a580ba","system_id":"levelo_inurba_marseille","lat":43.27167,"lon":5.38686,"is_reserved":false,"is_disabled":false,"rental_uris":{"android":"levelo://app?vid=9a45254c-c77a-469d-8fa3-a3fa05a580ba","ios":"levelo://app?vid=9a45254c-c77a-469d-8fa3-a3fa05a580ba"},"vehicle_type_id":"4","last_reported":1757917037,"current_range_meters":5600,"station_id":"","pricing_plan_id":"cebpf4jnsgd1na2vs0mg"},{"bike_id":"84be000e-b186-4e60-8aaa-b7a0f42a7175","system_id":"levelo_inurba_marseille","lat":43.337616,"lon":5.374353,"is_reserved":false,"is_disabled":false,"rental_uris":{"android":"levelo://app?vid=84be000e-b186-4e60-8aaa-b7a0f42a7175","ios":"levelo://app?vid=84be000e-b186-4e60-8aaa-b7a0f42a7175"},"vehicle_type_id":"4","last_reported":1757917037,"current_range_meters":5600,"station_id":"","pricing_plan_id":"cebpf4jnsgd1na2vs0mg"},{"bike_id":"46abccb2-8643-462f-83c6-11d19b9f7030","system_id":"levelo_inurba_marseille","lat":43.28069,"lon":5.38866,"is_reserved":false,"is_disabled":true,"rental_uris":{"android":"levelo://app?vid=46abccb2-8643-462f-83c6-11d19b9f7030","ios":"levelo://app?vid=46abccb2-8643-462f-83c6-11d19b9f7030"},"vehicle_type_id":"4","last_reported":1757917037,"current_range_meters":5600,"station_id":"","pricing_plan_id":"cebpf4jnsgd1na2vs0mg"},{"bike_id":"024115cc-511a-44a5-82ac-41fc828f96a7","system_id":"levelo_inurba_marseille","lat":43.301364,"lon":5.387675,"is_reserved":false,"is_disabled":false,"rental_uris":{"android":"levelo://app?vid=024115cc-511a-44a5-82ac-41fc828f96a7","ios":"levelo://app?vid=024115cc-511a-44a5-82ac-41fc828f96a7"},"vehicle_type_id":"4","last_reported":1757917037,"current_range_meters":6000,"station_id":"","pricing_plan_id":"cebpf4jnsgd1na2vs0mg"},{"bike_id":"02dbb44c-70e3-4a7a-b86e-6159cc35ba47","system_id":"levelo_inurba_marseille","lat":43.29587,"lon":5.38689,"is_reserved":false,"is_disabled":false,"rental_uris":{"android":"levelo://app?vid=02dbb44c-70e3-4a7a-b86e-6159cc35ba47","ios":"levelo://app?vid=02dbb44c-70e3-4a7a-b86e-6159cc35ba47"},"vehicle_type_id":"4","last_reported":1757917037,"current_range_meters":6000,"station_id":"ce4bgih2rcd13ifvqba0","pricing_plan_id":"cebpf4jnsgd1na2vs0mg"},{"bike_id":"d224ab29-3000-4bbf-8c7a-2737b8f93d8e","system_id":"levelo_inurba_marseille","lat":43.248177,"lon":5.374827,"is_reserved":false,"is_disabled":false,"rental_uris":{"android":"levelo://app?vid=d224ab29-3000-4bbf-8c7a-2737b8f93d8e","ios":"levelo://app?vid=d224ab29-3000-4bbf-8c7a-2737b8f93d8e"},"vehicle_type_id":"4","last_reported":1757917037,"current_range_meters":6000,"station_id":"ce4bhgh2rcd13ifvqfb0","pricing_plan_id":"cebpf4jnsgd1na2vs0mg"},{"bike_id":"55d59e02-f5a5-4e1a-9360-556e842fa2a4","system_id":"levelo_inurba_marseille","lat":43.33764,"lon":5.37496,"is_reserved":false,"is_disabled":false,"rental_uris":{"android":"levelo://app?vid=55d59e02-f5a5-4e1a-9360-556e842fa2a4","ios":"levelo://app?vid=55d59e02-f5a5-4e1a-9360-556e842fa2a4"},"vehicle_type_id":"4","last_reported":1757917037,"current_range_meters":6400,"station_id":"","pricing_plan_id":"cebpf4jnsgd1na2vs0mg"},{"bike_id":"78f84639-56f9-4c15-8768-49ed5cee722d","system_id":"levelo_inurba_marseille","lat":43.260234,"lon":5.375574,"is_reserved":false,"is_disabled":true,"rental_uris":{"android":"levelo://app?vid=78f84639-56f9-4c15-8768-49ed5cee722d","ios":"levelo://app?vid=78f84639-56f9-4c15-8768-49ed5cee722d"},"vehicle_type_id":"4","last_reported":1757917037,"current_range_meters":6400,"station_id":"ce4bhgh2rcd13ifvqfa0","pricing_plan_id":"cebpf4jnsgd1na2vs0mg"},{"bike_id":"96d5c9a2-465f-4b52-8fdf-b39e9f94d5c6","system_id":"levelo_inurba_marseille","lat":43.296,"lon":5.38103,"is_reserved":false,"is_disabled":false,"rental_uris":{"android":"levelo://app?vid=96d5c9a2-465f-4b52-8fdf-b39e9f94d5c6","ios":"levelo://app?vid=96d5c9a2-465f-4b52-8fdf-b39e9f94d5c6"},"vehicle_type_id":"4","last_reported":1757917037,"current_range_meters":6400,"station_id":"ce4bgl12rcd13ifvqbo0","pricing_plan_id":"cebpf4jnsgd1na2vs0mg"},{"bike_id":"312d1202-5943-43b9-a805-a645ad324f51","system_id":"levelo_inurba_marseille","lat":43.292467,"lon":5.40228,"is_reserved":false,"is_disabled":false,"rental_uris":{"android":"levelo://app?vid=312d1202-5943-43b9-a805-a645ad324f51","ios":"levelo://app?vid=312d1202-5943-43b9-a805-a645ad324f51"},"vehicle_type_id":"4","last_reported":1757917037,"current_range_meters":6800,"station_id":"ce4bh312rcd13ifvqdk0","pricing_plan_id":"cebpf4jnsgd1na2vs0mg"},{"bike_id":"182289c1-d8ed-492c-a287-70c8f4e5e1b2","system_id":"levelo_inurba_marseille","lat":43.32402,"lon":5.38931,"is_reserved":false,"is_disabled":false,"rental_uris":{"android":"levelo://app?vid=182289c1-d8ed-492c-a287-70c8f4e5e1b2","ios":"levelo://app?vid=182289c1-d8ed-492c-a287-70c8f4e5e1b2"},"vehicle_type_id":"4","last_reported":1757917037,"current_range_meters":6800,"station_id":"","pricing_plan_id":"cebpf4jnsgd1na2vs0mg"},{"bike_id":"64fd3338-9664-4eab-9d69-526a809f8c3c","system_id":"levelo_inurba_marseille","lat":43.33814,"lon":5.36714,"is_reserved":false,"is_disabled":false,"rental_uris":{"android":"levelo://app?vid=64fd3338-9664-4eab-9d69-526a809f8c3c","ios":"levelo://app?vid=64fd3338-9664-4eab-9d69-526a809f8c3c"},"vehicle_type_id":"4","last_reported":1757917037,"current_range_meters":6800,"station_id":"","pricing_plan_id":"cebpf4jnsgd1na2vs0mg"},{"bike_id":"d5c98035-fc72-4062-a3ec-13203f68e8ed","system_id":"levelo_inurba_marseille","lat":43.28871,"lon":5.42505,"is_reserved":false,"is_disabled":false,"rental_uris":{"android":"levelo://app?vid=d5c98035-fc72-4062-a3ec-13203f68e8ed","ios":"levelo://app?vid=d5c98035-fc72-4062-a3ec-13203f68e8ed"},"vehicle_type_id":"4","last_reported":1757917037,"current_range_meters":6800,"station_id":"","pricing_plan_id":"cebpf4jnsgd1na2vs0mg"},{"bike_id":"09f5a0cc-feab-4b4a-bb80-df36ef7a8940","system_id":"levelo_inurba_marseille","lat":43.29946,"lon":5.36547,"is_reserved":false,"is_disabled":false,"rental_uris":{"android":"levelo://app?vid=09f5a0cc-feab-4b4a-bb80-df36ef7a8940","ios":"levelo://app?vid=09f5a0cc-feab-4b4a-bb80-df36ef7a8940"},"vehicle_type_id":"4","last_reported":1757917037,"current_range_meters":7200,"station_id":"ce4bgm92rcd13ifvqbr0","pricing_plan_id":"cebpf4jnsgd1na2vs0mg"},{"bike_id":"af855c88-100f-429f-ba0c-3dad51b30928","system_id":"levelo_inurba_marseille","lat":43.21185,"lon":5.35095,"is_reserved":false,"is_disabled":true,"rental_uris":{"android":"levelo://app?vid=af855c88-100f-429f-ba0c-3dad51b30928","ios":"levelo://app?vid=af855c88-100f-429f-ba0c-3dad51b30928"},"vehicle_type_id":"4","last_reported":1757917037,"current_range_meters":7200,"station_id":"st_cvj6sg6p6f1abm77japg","pricing_plan_id":"cebpf4jnsgd1na2vs0mg"},{"bike_id":"8dff5744-2569-43df-97d2-5155e2599b7a","system_id":"levelo_inurba_marseille","lat":43.27494,"lon":5.4245,"is_reserved":false,"is_disabled":false,"rental_uris":{"android":"levelo://app?vid=8dff5744-2569-43df-97d2-5155e2599b7a","ios":"levelo://app?vid=8dff5744-2569-43df-97d2-5155e2599b7a"},"vehicle_type_id":"4","last_reported":1757917037,"current_range_meters":7200,"station_id":"ce4bhn92rcd13ifvqgrg","pricing_plan_id":"cebpf4jnsgd1na2vs0mg"},{"bike_id":"272db0f3-275f-4899-a058-7eb9272c8c7d","system_id":"levelo_inurba_marseille","lat":43.261977,"lon":5.374481,"is_reserved":false,"is_disabled":false,"rental_uris":{"android":"levelo://app?vid=272db0f3-275f-4899-a058-7eb9272c8c7d","ios":"levelo://app?vid=272db0f3-275f-4899-a058-7eb9272c8c7d"},"vehicle_type_id":"4","last_reported":1757917037,"current_range_meters":7200,"station_id":"ce4bhg92rcd13ifvqf90","pricing_plan_id":"cebpf4jnsgd1na2vs0mg"},{"bike_id":"e1793f05-8c52-491f-9044-6e72dba3e849","system_id":"levelo_inurba_marseille","lat":43.29267,"lon":5.3843,"is_reserved":false,"is_disabled":false,"rental_uris":{"android":"levelo://app?vid=e1793f05-8c52-491f-9044-6e72dba3e849","ios":"levelo://app?vid=e1793f05-8c52-491f-9044-6e72dba3e849"},"vehicle_type_id":"4","last_reported":1757917037,"current_range_meters":7200,"station_id":"ce4bh692rcd13ifvqea0","pricing_plan_id":"cebpf4jnsgd1na2vs0mg"},{"bike_id":"14c30bc2-b96f-4150-a178-4021e05ede8d","system_id":"levelo_inurba_marseille","lat":43.24096,"lon":5.37758,"is_reserved":false,"is_disabled":false,"rental_uris":{"android":"levelo://app?vid=14c30bc2-b96f-4150-a178-4021e05ede8d","ios":"levelo://app?vid=14c30bc2-b96f-4150-a178-4021e05ede8d"},"vehicle_type_id":"4","last_reported":1757917037,"current_range_meters":7200,"station_id":"ce4bhnp2rcd13ifvqgvg","pricing_plan_id":"cebpf4jnsgd1na2vs0mg"},{"bike_id":"406f6607-363d-4cf0-95ae-26829ed0307c","system_id":"levelo_inurba_marseille","lat":43.26218,"lon":5.40444,"is_reserved":false,"is_disabled":true,"rental_uris":{"android":"levelo://app?vid=406f6607-363d-4cf0-95ae-26829ed0307c","ios":"levelo://app?vid=406f6607-363d-4cf0-95ae-26829ed0307c"},"vehicle_type_id":"4","last_reported":1757917037,"current_range_meters":7200,"station_id":"ce4bhmh2rcd13ifvqgmg","pricing_plan_id":"cebpf4jnsgd1na2vs0mg"},{"bike_id":"9f2a46f0-1c52-4277-978f-c70949f50ff9","system_id":"levelo_inurba_marseille","lat":43.240732,"lon":5.377649,"is_reserved":false,"is_disabled":false,"rental_uris":{"android":"levelo://app?vid=9f2a46f0-1c52-4277-978f-c70949f50ff9","ios":"levelo://app?vid=9f2a46f0-1c52-4277-978f-c70949f50ff9"},"vehicle_type_id":"4","last_reported":1757917037,"current_range_meters":8000,"station_id":"ce4bhnp2rcd13ifvqgvg","pricing_plan_id":"cebpf4jnsgd1na2vs0mg"},{"bike_id":"d0a1739a-c22f-4203-9f71-a089f4b367e4","system_id":"levelo_inurba_marseille","lat":43.32004,"lon":5.38167,"is_reserved":false,"is_disabled":true,"rental_uris":{"android":"levelo://app?vid=d0a1739a-c22f-4203-9f71-a089f4b367e4","ios":"levelo://app?vid=d0a1739a-c22f-4203-9f71-a089f4b367e4"},"vehicle_type_id":"4","last_reported":1757917037,"current_range_meters":8000,"station_id":"ce4bhr12rcd13ifvqhpg","pricing_plan_id":"cebpf4jnsgd1na2vs0mg"},{"bike_id":"58e4d2c3-ca5a-414f-acc3-c631f749869c","system_id":"levelo_inurba_marseille","lat":43.31361,"lon":5.38507,"is_reserved":false,"is_disabled":true,"rental_uris":{"android":"levelo://app?vid=58e4d2c3-ca5a-414f-acc3-c631f749869c","ios":"levelo://app?vid=58e4d2c3-ca5a-414f-acc3-c631f749869c"},"vehicle_type_id":"4","last_reported":1757917037,"current_range_meters":8000,"station_id":"ce4bgt92rcd13ifvqcf0","pricing_plan_id":"cebpf4jnsgd1na2vs0mg"},{"bike_id":"d9c11a94-d122-4240-b95b-24fdee8810ac","system_id":"levelo_inurba_marseille","lat":43.28261,"lon":5.39934,"is_reserved":false,"is_disabled":false,"rental_uris":{"android":"levelo://app?vid=d9c11a94-d122-4240-b95b-24fdee8810ac","ios":"levelo://app?vid=d9c11a94-d122-4240-b95b-24fdee8810ac"},"vehicle_type_id":"4","last_reported":1757917037,"current_range_meters":8000,"station_id":"","pricing_plan_id":"cebpf4jnsgd1na2vs0mg"},{"bike_id":"c5cba6d7-e282-4417-a818-5fc0802dcb08","system_id":"levelo_inurba_marseille","lat":43.33761,"lon":5.3745,"is_reserved":false,"is_disabled":false,"rental_uris":{"android":"levelo://app?vid=c5cba6d7-e282-4417-a818-5fc0802dcb08","ios":"levelo://app?vid=c5cba6d7-e282-4417-a818-5fc0802dcb08"},"vehicle_type_id":"4","last_reported":1757917037,"current_range_meters":8000,"station_id":"","pricing_plan_id":"cebpf4jnsgd1na2vs0mg"},{"bike_id":"14cab8a8-6f8d-4d7e-bca5-17ce0a81dcab","system_id":"levelo_inurba_marseille","lat":43.28718,"lon":5.37933,"is_reserved":false,"is_disabled":false,"rental_uris":{"android":"levelo://app?vid=14cab8a8-6f8d-4d7e-bca5-17ce0a81dcab","ios":"levelo://app?vid=14cab8a8-6f8d-4d7e-bca5-17ce0a81dcab"},"vehicle_type_id":"4","last_reported":1757917037,"current_range_meters":8000,"station_id":"ce4bh9p2rcd13ifvqec0","pricing_plan_id":"cebpf4jnsgd1na2vs0mg"},{"bike_id":"344760c4-ce4b-4c26-bc1f-c4ac3f6de2b2","system_id":"levelo_inurba_marseille","lat":43.341402,"lon":5.4091,"is_reserved":false,"is_disabled":false,"rental_uris":{"android":"levelo://app?vid=344760c4-ce4b-4c26-bc1f-c4ac3f6de2b2","ios":"levelo://app?vid=344760c4-ce4b-4c26-bc1f-c4ac3f6de2b2"},"vehicle_type_id":"4","last_reported":1757917037,"current_range_meters":8000,"station_id":"ce4bhqh2rcd13ifvqhlg","pricing_plan_id":"cebpf4jnsgd1na2vs0mg"},{"bike_id":"31f4578e-18c6-48fb-9fec-123fce0578f9","system_id":"levelo_inurba_marseille","lat":43.337804,"lon":5.374149,"is_reserved":false,"is_disabled":false,"rental_uris":{"android":"levelo://app?vid=31f4578e-18c6-48fb-9fec-123fce0578f9","ios":"levelo://app?vid=31f4578e-18c6-48fb-9fec-123fce0578f9"},"vehicle_type_id":"4","last_reported":1757917037,"current_range_meters":8000,"station_id":"","pricing_plan_id":"cebpf4jnsgd1na2vs0mg"},{"bike_id":"f912c3a3-819e-4d36-9b92-6bc421757e98","system_id":"levelo_inurba_marseille","lat":43.283401,"lon":5.381113,"is_reserved":false,"is_disabled":false,"rental_uris":{"android":"levelo://app?vid=f912c3a3-819e-4d36-9b92-6bc421757e98","ios":"levelo://app?vid=f912c3a3-819e-4d36-9b92-6bc421757e98"},"vehicle_type_id":"4","last_reported":1757917037,"current_range_meters":8000,"station_id":"ce4bh412rcd13ifvqdr0","pricing_plan_id":"cebpf4jnsgd1na2vs0mg"},{"bike_id":"cd104b68-7370-4e88-ba9c-1edeee0f6c77","system_id":"levelo_inurba_marseille","lat":43.24998,"lon":5.42397,"is_reserved":false,"is_disabled":true,"rental_uris":{"android":"levelo://app?vid=cd104b68-7370-4e88-ba9c-1edeee0f6c77","ios":"levelo://app?vid=cd104b68-7370-4e88-ba9c-1edeee0f6c77"},"vehicle_type_id":"4","last_reported":1757917037,"current_range_meters":8400,"station_id":"","pricing_plan_id":"cebpf4jnsgd1na2vs0mg"},{"bike_id":"fd9f8fa4-e178-4bd6-a9c3-1e71a91661b0","system_id":"levelo_inurba_marseille","lat":43.30327,"lon":5.36892,"is_reserved":false,"is_disabled":false,"rental_uris":{"android":"levelo://app?vid=fd9f8fa4-e178-4bd6-a9c3-1e71a91661b0","ios":"levelo://app?vid=fd9f8fa4-e178-4bd6-a9c3-1e71a91661b0"},"vehicle_type_id":"4","last_reported":1757917037,"current_range_meters":8400,"station_id":"ce4bgqh2rcd13ifvqc5g","pricing_plan_id":"cebpf4jnsgd1na2vs0mg"},{"bike_id":"9b9a6aca-d8ba-4892-a70c-a46cb142c2a2","system_id":"levelo_inurba_marseille","lat":43.313632,"lon":5.367276,"is_reserved":false,"is_disabled":false,"rental_uris":{"android":"levelo://app?vid=9b9a6aca-d8ba-4892-a70c-a46cb142c2a2","ios":"levelo://app?vid=9b9a6aca-d8ba-4892-a70c-a46cb142c2a2"},"vehicle_type_id":"4","last_reported":1757917037,"current_range_meters":8400,"station_id":"ce4bgr92rcd13ifvqc6g","pricing_plan_id":"cebpf4jnsgd1na2vs0mg"},{"bike_id":"92328f20-9c61-4621-aefd-c280af7d31a0","system_id":"levelo_inurba_marseille","lat":43.28875,"lon":5.42523,"is_reserved":false,"is_disabled":false,"rental_uris":{"android":"levelo://app?vid=92328f20-9c61-4621-aefd-c280af7d31a0","ios":"levelo://app?vid=92328f20-9c61-4621-aefd-c280af7d31a0"},"vehicle_type_id":"4","last_reported":1757917037,"current_range_meters":8400,"station_id":"","pricing_plan_id":"cebpf4jnsgd1na2vs0mg"},{"bike_id":"30e85da9-4a4e-420a-bc64-cfe1eeea89eb","system_id":"levelo_inurba_marseille","lat":43.28354,"lon":5.3764,"is_reserved":false,"is_disabled":false,"rental_uris":{"android":"levelo://app?vid=30e85da9-4a4e-420a-bc64-cfe1eeea89eb","ios":"levelo://app?vid=30e85da9-4a4e-420a-bc64-cfe1eeea89eb"},"vehicle_type_id":"4","last_reported":1757917037,"current_range_meters":8400,"station_id":"","pricing_plan_id":"cebpf4jnsgd1na2vs0mg"},{"bike_id":"54756892-40fc-40da-862a-36f475f86070","system_id":"levelo_inurba_marseille","lat":43.29679,"lon":5.37147,"is_reserved":false,"is_disabled":false,"rental_uris":{"android":"levelo://app?vid=54756892-40fc-40da-862a-36f475f86070","ios":"levelo://app?vid=54756892-40fc-40da-862a-36f475f86070"},"vehicle_type_id":"4","last_reported":1757917037,"current_range_meters":8400,"station_id":"","pricing_plan_id":"cebpf4jnsgd1na2vs0mg"},{"bike_id":"974e0192-4f9e-4803-b6bc-e5f6e12940e1","system_id":"levelo_inurba_marseille","lat":43.31068,"lon":5.40093,"is_reserved":false,"is_disabled":false,"rental_uris":{"android":"levelo://app?vid=974e0192-4f9e-4803-b6bc-e5f6e12940e1","ios":"levelo://app?vid=974e0192-4f9e-4803-b6bc-e5f6e12940e1"},"vehicle_type_id":"4","last_reported":1757917037,"current_range_meters":8800,"station_id":"","pricing_plan_id":"cebpf4jnsgd1na2vs0mg"},{"bike_id":"8b50b6ca-96e7-4008-8623-e9806c787b50","system_id":"levelo_inurba_marseille","lat":43.24962,"lon":5.40507,"is_reserved":false,"is_disabled":false,"rental_uris":{"android":"levelo://app?vid=8b50b6ca-96e7-4008-8623-e9806c787b50","ios":"levelo://app?vid=8b50b6ca-96e7-4008-8623-e9806c787b50"},"vehicle_type_id":"4","last_reported":1757917037,"current_range_meters":8800,"station_id":"st_d2ngiaodas8pm72gd1h0","pricing_plan_id":"cebpf4jnsgd1na2vs0mg"},{"bike_id":"5c1e55d9-decd-426f-89d8-b98a558f3809","system_id":"levelo_inurba_marseille","lat":43.317052,"lon":5.40466,"is_reserved":false,"is_disabled":true,"rental_uris":{"android":"levelo://app?vid=5c1e55d9-decd-426f-89d8-b98a558f3809","ios":"levelo://app?vid=5c1e55d9-decd-426f-89d8-b98a558f3809"},"vehicle_type_id":"4","last_reported":1757917037,"current_range_meters":8800,"station_id":"ce4bh012rcd13ifvqd00","pricing_plan_id":"cebpf4jnsgd1na2vs0mg"},{"bike_id":"046ba709-b940-4fa3-9690-1d81db536e4b","system_id":"levelo_inurba_marseille","lat":43.22568,"lon":5.41619,"is_reserved":false,"is_disabled":false,"rental_uris":{"android":"levelo://app?vid=046ba709-b940-4fa3-9690-1d81db536e4b","ios":"levelo://app?vid=046ba709-b940-4fa3-9690-1d81db536e4b"},"vehicle_type_id":"4","last_reported":1757917037,"current_range_meters":9200,"station_id":"st_d2o4gvlbi1j2169b742g","pricing_plan_id":"cebpf4jnsgd1na2vs0mg"},{"bike_id":"90b99ccf-2b3c-4d75-9e45-7dd3a550aac1","system_id":"levelo_inurba_marseille","lat":43.23569,"lon":5.39891,"is_reserved":false,"is_disabled":false,"rental_uris":{"android":"levelo://app?vid=90b99ccf-2b3c-4d75-9e45-7dd3a550aac1","ios":"levelo://app?vid=90b99ccf-2b3c-4d75-9e45-7dd3a550aac1"},"vehicle_type_id":"4","last_reported":1757917037,"current_range_meters":9200,"station_id":"","pricing_plan_id":"cebpf4jnsgd1na2vs0mg"},{"bike_id":"ba5ec91e-17a3-49a5-b2ec-7f19e0ddb3fd","system_id":"levelo_inurba_marseille","lat":43.315081,"lon":5.373049,"is_reserved":false,"is_disabled":true,"rental_uris":{"android":"levelo://app?vid=ba5ec91e-17a3-49a5-b2ec-7f19e0ddb3fd","ios":"levelo://app?vid=ba5ec91e-17a3-49a5-b2ec-7f19e0ddb3fd"},"vehicle_type_id":"4","last_reported":1757917037,"current_range_meters":9200,"station_id":"ce4bgt12rcd13ifvqcd0","pricing_plan_id":"cebpf4jnsgd1na2vs0mg"},{"bike_id":"de24ce5e-c9de-4cfc-a66a-83ecb9cfee6c","system_id":"levelo_inurba_marseille","lat":43.259316,"lon":5.408996,"is_reserved":false,"is_disabled":false,"rental_uris":{"android":"levelo://app?vid=de24ce5e-c9de-4cfc-a66a-83ecb9cfee6c","ios":"levelo://app?vid=de24ce5e-c9de-4cfc-a66a-83ecb9cfee6c"},"vehicle_type_id":"4","last_reported":1757917037,"current_range_meters":9200,"station_id":"ce4bhm92rcd13ifvqglg","pricing_plan_id":"cebpf4jnsgd1na2vs0mg"},{"bike_id":"e455e8a4-7696-453c-96ed-f600bf8f1a54","system_id":"levelo_inurba_marseille","lat":43.33605,"lon":5.41032,"is_reserved":false,"is_disabled":false,"rental_uris":{"android":"levelo://app?vid=e455e8a4-7696-453c-96ed-f600bf8f1a54","ios":"levelo://app?vid=e455e8a4-7696-453c-96ed-f600bf8f1a54"},"vehicle_type_id":"4","last_reported":1757917037,"current_range_meters":9600,"station_id":"ce4bhqh2rcd13ifvqhmg","pricing_plan_id":"cebpf4jnsgd1na2vs0mg"},{"bike_id":"2c5ee020-2461-471c-8a4c-6cab1ddb486f","system_id":"levelo_inurba_marseille","lat":43.25584,"lon":5.38245,"is_reserved":false,"is_disabled":false,"rental_uris":{"android":"levelo://app?vid=2c5ee020-2461-471c-8a4c-6cab1ddb486f","ios":"levelo://app?vid=2c5ee020-2461-471c-8a4c-6cab1ddb486f"},"vehicle_type_id":"4","last_reported":1757917037,"current_range_meters":9600,"station_id":"ce4bhih2rcd13ifvqfs0","pricing_plan_id":"cebpf4jnsgd1na2vs0mg"},{"bike_id":"a0d705d0-6074-481d-9ac9-1991d7f24d8d","system_id":"levelo_inurba_marseille","lat":43.31506,"lon":5.37313,"is_reserved":false,"is_disabled":true,"rental_uris":{"android":"levelo://app?vid=a0d705d0-6074-481d-9ac9-1991d7f24d8d","ios":"levelo://app?vid=a0d705d0-6074-481d-9ac9-1991d7f24d8d"},"vehicle_type_id":"4","last_reported":1757917037,"current_range_meters":9600,"station_id":"ce4bgt12rcd13ifvqcd0","pricing_plan_id":"cebpf4jnsgd1na2vs0mg"},{"bike_id":"8e3a9e83-812e-4b5d-8c7b-5119699e81be","system_id":"levelo_inurba_marseille","lat":43.31585,"lon":5.40582,"is_reserved":false,"is_disabled":false,"rental_uris":{"android":"levelo://app?vid=8e3a9e83-812e-4b5d-8c7b-5119699e81be","ios":"levelo://app?vid=8e3a9e83-812e-4b5d-8c7b-5119699e81be"},"vehicle_type_id":"4","last_reported":1757917037,"current_range_meters":9600,"station_id":"","pricing_plan_id":"cebpf4jnsgd1na2vs0mg"},{"bike_id":"659539a8-eb42-48ea-a537-fa177c3435d1","system_id":"levelo_inurba_marseille","lat":43.29941,"lon":5.36557,"is_reserved":false,"is_disabled":false,"rental_uris":{"android":"levelo://app?vid=659539a8-eb42-48ea-a537-fa177c3435d1","ios":"levelo://app?vid=659539a8-eb42-48ea-a537-fa177c3435d1"},"vehicle_type_id":"4","last_reported":1757917037,"current_range_meters":9600,"station_id":"ce4bgm92rcd13ifvqbr0","pricing_plan_id":"cebpf4jnsgd1na2vs0mg"},{"bike_id":"99a205b3-3fdf-41a9-915c-e6863a0d0347","system_id":"levelo_inurba_marseille","lat":43.24154,"lon":5.39765,"is_reserved":false,"is_disabled":false,"rental_uris":{"android":"levelo://app?vid=99a205b3-3fdf-41a9-915c-e6863a0d0347","ios":"levelo://app?vid=99a205b3-3fdf-41a9-915c-e6863a0d0347"},"vehicle_type_id":"4","last_reported":1757917037,"current_range_meters":9600,"station_id":"ce4bhn12rcd13ifvqgpg","pricing_plan_id":"cebpf4jnsgd1na2vs0mg"},{"bike_id":"a7534d5d-6817-4ac8-94e0-ddeeaf54f20b","system_id":"levelo_inurba_marseille","lat":43.2531,"lon":5.42141,"is_reserved":false,"is_disabled":true,"rental_uris":{"android":"levelo://app?vid=a7534d5d-6817-4ac8-94e0-ddeeaf54f20b","ios":"levelo://app?vid=a7534d5d-6817-4ac8-94e0-ddeeaf54f20b"},"vehicle_type_id":"4","last_reported":1757917037,"current_range_meters":9600,"station_id":"st_d2m65c5bi1j21697t3ng","pricing_plan_id":"cebpf4jnsgd1na2vs0mg"},{"bike_id":"a1036324-bea1-4eed-9138-670e506b2a9e","system_id":"levelo_inurba_marseille","lat":43.3047,"lon":5.37909,"is_reserved":false,"is_disabled":false,"rental_uris":{"android":"levelo://app?vid=a1036324-bea1-4eed-9138-670e506b2a9e","ios":"levelo://app?vid=a1036324-bea1-4eed-9138-670e506b2a9e"},"vehicle_type_id":"4","last_reported":1757917037,"current_range_meters":10000,"station_id":"ce4bgup2rcd13ifvqcn0","pricing_plan_id":"cebpf4jnsgd1na2vs0mg"},{"bike_id":"867a06c4-c507-468c-a42b-66dfa736196d","system_id":"levelo_inurba_marseille","lat":43.2841,"lon":5.34976,"is_reserved":false,"is_disabled":false,"rental_uris":{"android":"levelo://app?vid=867a06c4-c507-468c-a42b-66dfa736196d","ios":"levelo://app?vid=867a06c4-c507-468c-a42b-66dfa736196d"},"vehicle_type_id":"4","last_reported":1757917037,"current_range_meters":10000,"station_id":"ce4bhbh2rcd13ifvqepg","pricing_plan_id":"cebpf4jnsgd1na2vs0mg"},{"bike_id":"288c50e8-67f2-4b91-bb21-3c8c4bc2f3ec","system_id":"levelo_inurba_marseille","lat":43.23968,"lon":5.36628,"is_reserved":false,"is_disabled":false,"rental_uris":{"android":"levelo://app?vid=288c50e8-67f2-4b91-bb21-3c8c4bc2f3ec","ios":"levelo://app?vid=288c50e8-67f2-4b91-bb21-3c8c4bc2f3ec"},"vehicle_type_id":"4","last_reported":1757917037,"current_range_meters":10000,"station_id":"ce4bhi12rcd13ifvqfp0","pricing_plan_id":"cebpf4jnsgd1na2vs0mg"},{"bike_id":"355b8e10-b237-41ad-b7fa-fb12a92a0eda","system_id":"levelo_inurba_marseille","lat":43.29604,"lon":5.38094,"is_reserved":false,"is_disabled":false,"rental_uris":{"android":"levelo://app?vid=355b8e10-b237-41ad-b7fa-fb12a92a0eda","ios":"levelo://app?vid=355b8e10-b237-41ad-b7fa-fb12a92a0eda"},"vehicle_type_id":"4","last_reported":1757917037,"current_range_meters":10000,"station_id":"ce4bgl12rcd13ifvqbo0","pricing_plan_id":"cebpf4jnsgd1na2vs0mg"},{"bike_id":"85db8ab9-6b24-4c23-8762-109e948df9cd","system_id":"levelo_inurba_marseille","lat":43.30392,"lon":5.40333,"is_reserved":false,"is_disabled":false,"rental_uris":{"android":"levelo://app?vid=85db8ab9-6b24-4c23-8762-109e948df9cd","ios":"levelo://app?vid=85db8ab9-6b24-4c23-8762-109e948df9cd"},"vehicle_type_id":"4","last_reported":1757917037,"current_range_meters":10000,"station_id":"","pricing_plan_id":"cebpf4jnsgd1na2vs0mg"},{"bike_id":"ee42c31a-b74b-4b2d-917a-cd50dc10c6ce","system_id":"levelo_inurba_marseille","lat":43.310611,"lon":5.400964,"is_reserved":false,"is_disabled":false,"rental_uris":{"android":"levelo://app?vid=ee42c31a-b74b-4b2d-917a-cd50dc10c6ce","ios":"levelo://app?vid=ee42c31a-b74b-4b2d-917a-cd50dc10c6ce"},"vehicle_type_id":"4","last_reported":1757917037,"current_range_meters":10000,"station_id":"","pricing_plan_id":"cebpf4jnsgd1na2vs0mg"},{"bike_id":"fbd0328c-4ce4-4080-b126-d2d47d815fa6","system_id":"levelo_inurba_marseille","lat":43.217445,"lon":5.346093,"is_reserved":false,"is_disabled":true,"rental_uris":{"android":"levelo://app?vid=fbd0328c-4ce4-4080-b126-d2d47d815fa6","ios":"levelo://app?vid=fbd0328c-4ce4-4080-b126-d2d47d815fa6"},"vehicle_type_id":"4","last_reported":1757917037,"current_range_meters":10000,"station_id":"st_cvj6r9ubvosntc0bgbag","pricing_plan_id":"cebpf4jnsgd1na2vs0mg"},{"bike_id":"4fa32fc6-4b31-40eb-a03f-aff5cbd63440","system_id":"levelo_inurba_marseille","lat":43.3047,"lon":5.37908,"is_reserved":false,"is_disabled":false,"rental_uris":{"android":"levelo://app?vid=4fa32fc6-4b31-40eb-a03f-aff5cbd63440","ios":"levelo://app?vid=4fa32fc6-4b31-40eb-a03f-aff5cbd63440"},"vehicle_type_id":"4","last_reported":1757917037,"current_range_meters":10800,"station_id":"ce4bgup2rcd13ifvqcn0","pricing_plan_id":"cebpf4jnsgd1na2vs0mg"},{"bike_id":"3fc2e45f-8c1a-439b-864b-dfc4a829958f","system_id":"levelo_inurba_marseille","lat":43.27987,"lon":5.41669,"is_reserved":false,"is_disabled":false,"rental_uris":{"android":"levelo://app?vid=3fc2e45f-8c1a-439b-864b-dfc4a829958f","ios":"levelo://app?vid=3fc2e45f-8c1a-439b-864b-dfc4a829958f"},"vehicle_type_id":"4","last_reported":1757917037,"current_range_meters":10800,"station_id":"ce4bho12rcd13ifvqh1g","pricing_plan_id":"cebpf4jnsgd1na2vs0mg"},{"bike_id":"e8930cfa-2c36-4dbf-ab3e-6afdedf38824","system_id":"levelo_inurba_marseille","lat":43.22567,"lon":5.41635,"is_reserved":false,"is_disabled":false,"rental_uris":{"android":"levelo://app?vid=e8930cfa-2c36-4dbf-ab3e-6afdedf38824","ios":"levelo://app?vid=e8930cfa-2c36-4dbf-ab3e-6afdedf38824"},"vehicle_type_id":"4","last_reported":1757917037,"current_range_meters":10800,"station_id":"st_d2o4gvlbi1j2169b742g","pricing_plan_id":"cebpf4jnsgd1na2vs0mg"},{"bike_id":"8dd48ce2-f5f1-4ab3-9e3c-e447b9e4fccd","system_id":"levelo_inurba_marseille","lat":43.28616,"lon":5.35121,"is_reserved":false,"is_disabled":false,"rental_uris":{"android":"levelo://app?vid=8dd48ce2-f5f1-4ab3-9e3c-e447b9e4fccd","ios":"levelo://app?vid=8dd48ce2-f5f1-4ab3-9e3c-e447b9e4fccd"},"vehicle_type_id":"4","last_reported":1757917037,"current_range_meters":10800,"station_id":"ce4bhch2rcd13ifvqeug","pricing_plan_id":"cebpf4jnsgd1na2vs0mg"},{"bike_id":"e06d2e94-3ae2-4b4b-9d7e-05d3f806365a","system_id":"levelo_inurba_marseille","lat":43.25839,"lon":5.39459,"is_reserved":false,"is_disabled":false,"rental_uris":{"android":"levelo://app?vid=e06d2e94-3ae2-4b4b-9d7e-05d3f806365a","ios":"levelo://app?vid=e06d2e94-3ae2-4b4b-9d7e-05d3f806365a"},"vehicle_type_id":"4","last_reported":1757917037,"current_range_meters":10800,"station_id":"ce4bhip2rcd13ifvqft0","pricing_plan_id":"cebpf4jnsgd1na2vs0mg"},{"bike_id":"3cd4c0ce-f69a-4ba9-8ba0-8eee8774eaf0","system_id":"levelo_inurba_marseille","lat":43.26791,"lon":5.39411,"is_reserved":false,"is_disabled":false,"rental_uris":{"android":"levelo://app?vid=3cd4c0ce-f69a-4ba9-8ba0-8eee8774eaf0","ios":"levelo://app?vid=3cd4c0ce-f69a-4ba9-8ba0-8eee8774eaf0"},"vehicle_type_id":"4","last_reported":1757917037,"current_range_meters":10000,"station_id":"ce4bhh12rcd13ifvqfg0","pricing_plan_id":"cebpf4jnsgd1na2vs0mg"},{"bike_id":"4963cfce-a868-4267-932a-9f9286935fc6","system_id":"levelo_inurba_marseille","lat":43.24553,"lon":5.39532,"is_reserved":false,"is_disabled":true,"rental_uris":{"android":"levelo://app?vid=4963cfce-a868-4267-932a-9f9286935fc6","ios":"levelo://app?vid=4963cfce-a868-4267-932a-9f9286935fc6"},"vehicle_type_id":"4","last_reported":1757917037,"current_range_meters":10800,"station_id":"ce4bhlp2rcd13ifvqgjg","pricing_plan_id":"cebpf4jnsgd1na2vs0mg"},{"bike_id":"05e3320f-36a7-4f88-8346-2754b84ec6da","system_id":"levelo_inurba_marseille","lat":43.24076,"lon":5.37756,"is_reserved":false,"is_disabled":false,"rental_uris":{"android":"levelo://app?vid=05e3320f-36a7-4f88-8346-2754b84ec6da","ios":"levelo://app?vid=05e3320f-36a7-4f88-8346-2754b84ec6da"},"vehicle_type_id":"4","last_reported":1757917037,"current_range_meters":10800,"station_id":"ce4bhnp2rcd13ifvqgvg","pricing_plan_id":"cebpf4jnsgd1na2vs0mg"},{"bike_id":"67d84140-1d9e-4a4c-a131-5ede4430f2b8","system_id":"levelo_inurba_marseille","lat":43.2594,"lon":5.40913,"is_reserved":false,"is_disabled":false,"rental_uris":{"android":"levelo://app?vid=67d84140-1d9e-4a4c-a131-5ede4430f2b8","ios":"levelo://app?vid=67d84140-1d9e-4a4c-a131-5ede4430f2b8"},"vehicle_type_id":"4","last_reported":1757917037,"current_range_meters":10800,"station_id":"ce4bhm92rcd13ifvqglg","pricing_plan_id":"cebpf4jnsgd1na2vs0mg"},{"bike_id":"c7ab1c64-b46c-40d1-9358-4b28ab296fab","system_id":"levelo_inurba_marseille","lat":43.290344,"lon":5.399649,"is_reserved":false,"is_disabled":false,"rental_uris":{"android":"levelo://app?vid=c7ab1c64-b46c-40d1-9358-4b28ab296fab","ios":"levelo://app?vid=c7ab1c64-b46c-40d1-9358-4b28ab296fab"},"vehicle_type_id":"4","last_reported":1757917037,"current_range_meters":11200,"station_id":"ce4bh392rcd13ifvqdm0","pricing_plan_id":"cebpf4jnsgd1na2vs0mg"},{"bike_id":"d9c4202c-de13-4428-8c40-40d90faf1618","system_id":"levelo_inurba_marseille","lat":43.31356,"lon":5.3707,"is_reserved":false,"is_disabled":false,"rental_uris":{"android":"levelo://app?vid=d9c4202c-de13-4428-8c40-40d90faf1618","ios":"levelo://app?vid=d9c4202c-de13-4428-8c40-40d90faf1618"},"vehicle_type_id":"4","last_reported":1757917037,"current_range_meters":11200,"station_id":"","pricing_plan_id":"cebpf4jnsgd1na2vs0mg"},{"bike_id":"f75319f4-d3a6-440f-9c89-5af7f4acd041","system_id":"levelo_inurba_marseille","lat":43.22566,"lon":5.41652,"is_reserved":false,"is_disabled":false,"rental_uris":{"android":"levelo://app?vid=f75319f4-d3a6-440f-9c89-5af7f4acd041","ios":"levelo://app?vid=f75319f4-d3a6-440f-9c89-5af7f4acd041"},"vehicle_type_id":"4","last_reported":1757917037,"current_range_meters":11200,"station_id":"st_d2o4gvlbi1j2169b742g","pricing_plan_id":"cebpf4jnsgd1na2vs0mg"},{"bike_id":"01fd85c2-5e53-4a4d-9c3b-416c59308b0a","system_id":"levelo_inurba_marseille","lat":43.31502,"lon":5.37317,"is_reserved":false,"is_disabled":false,"rental_uris":{"android":"levelo://app?vid=01fd85c2-5e53-4a4d-9c3b-416c59308b0a","ios":"levelo://app?vid=01fd85c2-5e53-4a4d-9c3b-416c59308b0a"},"vehicle_type_id":"4","last_reported":1757917037,"current_range_meters":11200,"station_id":"ce4bgt12rcd13ifvqcd0","pricing_plan_id":"cebpf4jnsgd1na2vs0mg"},{"bike_id":"4b89ad18-a85a-4cf5-a107-a46d8823374f","system_id":"levelo_inurba_marseille","lat":43.225616,"lon":5.416256,"is_reserved":false,"is_disabled":false,"rental_uris":{"android":"levelo://app?vid=4b89ad18-a85a-4cf5-a107-a46d8823374f","ios":"levelo://app?vid=4b89ad18-a85a-4cf5-a107-a46d8823374f"},"vehicle_type_id":"4","last_reported":1757917037,"current_range_meters":11200,"station_id":"st_d2o4gvlbi1j2169b742g","pricing_plan_id":"cebpf4jnsgd1na2vs0mg"},{"bike_id":"4d6e6605-7f16-44fa-a19a-c138ee7cb360","system_id":"levelo_inurba_marseille","lat":43.33799,"lon":5.37446,"is_reserved":false,"is_disabled":false,"rental_uris":{"android":"levelo://app?vid=4d6e6605-7f16-44fa-a19a-c138ee7cb360","ios":"levelo://app?vid=4d6e6605-7f16-44fa-a19a-c138ee7cb360"},"vehicle_type_id":"4","last_reported":1757917037,"current_range_meters":11600,"station_id":"","pricing_plan_id":"cebpf4jnsgd1na2vs0mg"},{"bike_id":"58d8cd95-917c-438e-864b-c167ff63eb01","system_id":"levelo_inurba_marseille","lat":43.28699,"lon":5.37387,"is_reserved":false,"is_disabled":false,"rental_uris":{"android":"levelo://app?vid=58d8cd95-917c-438e-864b-c167ff63eb01","ios":"levelo://app?vid=58d8cd95-917c-438e-864b-c167ff63eb01"},"vehicle_type_id":"4","last_reported":1757917037,"current_range_meters":11600,"station_id":"ce4bh3p2rcd13ifvqdq0","pricing_plan_id":"cebpf4jnsgd1na2vs0mg"},{"bike_id":"63006979-9e47-4b27-affd-9b3daf7cc75a","system_id":"levelo_inurba_marseille","lat":43.25853,"lon":5.39909,"is_reserved":false,"is_disabled":false,"rental_uris":{"android":"levelo://app?vid=63006979-9e47-4b27-affd-9b3daf7cc75a","ios":"levelo://app?vid=63006979-9e47-4b27-affd-9b3daf7cc75a"},"vehicle_type_id":"4","last_reported":1757917037,"current_range_meters":11600,"station_id":"ce4bhl92rcd13ifvqghg","pricing_plan_id":"cebpf4jnsgd1na2vs0mg"},{"bike_id":"b002a392-08fa-4b2e-b212-3e002cd96c5d","system_id":"levelo_inurba_marseille","lat":43.23958,"lon":5.36633,"is_reserved":false,"is_disabled":false,"rental_uris":{"android":"levelo://app?vid=b002a392-08fa-4b2e-b212-3e002cd96c5d","ios":"levelo://app?vid=b002a392-08fa-4b2e-b212-3e002cd96c5d"},"vehicle_type_id":"4","last_reported":1757917037,"current_range_meters":12000,"station_id":"ce4bhi12rcd13ifvqfp0","pricing_plan_id":"cebpf4jnsgd1na2vs0mg"},{"bike_id":"a6527fa8-005c-48a8-a1b1-56de29840724","system_id":"levelo_inurba_marseille","lat":43.2872,"lon":5.3794,"is_reserved":false,"is_disabled":false,"rental_uris":{"android":"levelo://app?vid=a6527fa8-005c-48a8-a1b1-56de29840724","ios":"levelo://app?vid=a6527fa8-005c-48a8-a1b1-56de29840724"},"vehicle_type_id":"4","last_reported":1757917037,"current_range_meters":12000,"station_id":"ce4bh9p2rcd13ifvqec0","pricing_plan_id":"cebpf4jnsgd1na2vs0mg"},{"bike_id":"10522125-87e4-4788-85f1-26ef167866cb","system_id":"levelo_inurba_marseille","lat":43.28481,"lon":5.38408,"is_reserved":false,"is_disabled":false,"rental_uris":{"android":"levelo://app?vid=10522125-87e4-4788-85f1-26ef167866cb","ios":"levelo://app?vid=10522125-87e4-4788-85f1-26ef167866cb"},"vehicle_type_id":"4","last_reported":1757917037,"current_range_meters":12000,"station_id":"ce4bh512rcd13ifvqe3g","pricing_plan_id":"cebpf4jnsgd1na2vs0mg"},{"bike_id":"9b915558-9747-443e-bb3f-8575f31c1a44","system_id":"levelo_inurba_marseille","lat":43.296018,"lon":5.380969,"is_reserved":false,"is_disabled":false,"rental_uris":{"android":"levelo://app?vid=9b915558-9747-443e-bb3f-8575f31c1a44","ios":"levelo://app?vid=9b915558-9747-443e-bb3f-8575f31c1a44"},"vehicle_type_id":"4","last_reported":1757917037,"current_range_meters":12000,"station_id":"ce4bgl12rcd13ifvqbo0","pricing_plan_id":"cebpf4jnsgd1na2vs0mg"},{"bike_id":"32c39586-6031-48a3-b915-b8489d7a317b","system_id":"levelo_inurba_marseille","lat":43.23153,"lon":5.43718,"is_reserved":false,"is_disabled":false,"rental_uris":{"android":"levelo://app?vid=32c39586-6031-48a3-b915-b8489d7a317b","ios":"levelo://app?vid=32c39586-6031-48a3-b915-b8489d7a317b"},"vehicle_type_id":"4","last_reported":1757917037,"current_range_meters":12000,"station_id":"ce4bhmp2rcd13ifvqgog","pricing_plan_id":"cebpf4jnsgd1na2vs0mg"},{"bike_id":"746f8f66-7f46-4e2a-8f64-942936320bf9","system_id":"levelo_inurba_marseille","lat":43.239595,"lon":5.366176,"is_reserved":false,"is_disabled":true,"rental_uris":{"android":"levelo://app?vid=746f8f66-7f46-4e2a-8f64-942936320bf9","ios":"levelo://app?vid=746f8f66-7f46-4e2a-8f64-942936320bf9"},"vehicle_type_id":"4","last_reported":1757917037,"current_range_meters":12000,"station_id":"ce4bhi12rcd13ifvqfp0","pricing_plan_id":"cebpf4jnsgd1na2vs0mg"},{"bike_id":"e05eea5e-3ede-4b75-8a49-e9854c3d159d","system_id":"levelo_inurba_marseille","lat":43.28627,"lon":5.35109,"is_reserved":false,"is_disabled":true,"rental_uris":{"android":"levelo://app?vid=e05eea5e-3ede-4b75-8a49-e9854c3d159d","ios":"levelo://app?vid=e05eea5e-3ede-4b75-8a49-e9854c3d159d"},"vehicle_type_id":"4","last_reported":1757917037,"current_range_meters":12400,"station_id":"ce4bhch2rcd13ifvqeug","pricing_plan_id":"cebpf4jnsgd1na2vs0mg"},{"bike_id":"15c12f1b-150c-43be-9134-ac05fb9a1bef","system_id":"levelo_inurba_marseille","lat":43.29055,"lon":5.37135,"is_reserved":false,"is_disabled":true,"rental_uris":{"android":"levelo://app?vid=15c12f1b-150c-43be-9134-ac05fb9a1bef","ios":"levelo://app?vid=15c12f1b-150c-43be-9134-ac05fb9a1bef"},"vehicle_type_id":"4","last_reported":1757917037,"current_range_meters":12400,"station_id":"ce4bh5p2rcd13ifvqe4g","pricing_plan_id":"cebpf4jnsgd1na2vs0mg"},{"bike_id":"aed94804-5250-41d7-949a-c0183f18f35b","system_id":"levelo_inurba_marseille","lat":43.28406,"lon":5.37522,"is_reserved":false,"is_disabled":false,"rental_uris":{"android":"levelo://app?vid=aed94804-5250-41d7-949a-c0183f18f35b","ios":"levelo://app?vid=aed94804-5250-41d7-949a-c0183f18f35b"},"vehicle_type_id":"4","last_reported":1757917037,"current_range_meters":12400,"station_id":"ce4bh412rcd13ifvqds0","pricing_plan_id":"cebpf4jnsgd1na2vs0mg"},{"bike_id":"6c54d954-dfe9-4d39-b096-0b00749019bc","system_id":"levelo_inurba_marseille","lat":43.28011,"lon":5.41698,"is_reserved":false,"is_disabled":false,"rental_uris":{"android":"levelo://app?vid=6c54d954-dfe9-4d39-b096-0b00749019bc","ios":"levelo://app?vid=6c54d954-dfe9-4d39-b096-0b00749019bc"},"vehicle_type_id":"4","last_reported":1757917037,"current_range_meters":12400,"station_id":"ce4bho12rcd13ifvqh1g","pricing_plan_id":"cebpf4jnsgd1na2vs0mg"},{"bike_id":"716d2079-a044-477c-8c97-f2128fe0c0f7","system_id":"levelo_inurba_marseille","lat":43.286062,"lon":5.39898,"is_reserved":false,"is_disabled":false,"rental_uris":{"android":"levelo://app?vid=716d2079-a044-477c-8c97-f2128fe0c0f7","ios":"levelo://app?vid=716d2079-a044-477c-8c97-f2128fe0c0f7"},"vehicle_type_id":"4","last_reported":1757917037,"current_range_meters":12400,"station_id":"ce4bho92rcd13ifvqh3g","pricing_plan_id":"cebpf4jnsgd1na2vs0mg"},{"bike_id":"b6d6f1e2-48c4-4558-b02a-207c838be43f","system_id":"levelo_inurba_marseille","lat":43.28613,"lon":5.37064,"is_reserved":false,"is_disabled":false,"rental_uris":{"android":"levelo://app?vid=b6d6f1e2-48c4-4558-b02a-207c838be43f","ios":"levelo://app?vid=b6d6f1e2-48c4-4558-b02a-207c838be43f"},"vehicle_type_id":"4","last_reported":1757917037,"current_range_meters":12400,"station_id":"ce4bht12rcd13ifvqi60","pricing_plan_id":"cebpf4jnsgd1na2vs0mg"},{"bike_id":"950a5f0c-6122-4d8d-a42b-4763023d14f2","system_id":"levelo_inurba_marseille","lat":43.254894,"lon":5.376477,"is_reserved":false,"is_disabled":true,"rental_uris":{"android":"levelo://app?vid=950a5f0c-6122-4d8d-a42b-4763023d14f2","ios":"levelo://app?vid=950a5f0c-6122-4d8d-a42b-4763023d14f2"},"vehicle_type_id":"4","last_reported":1757917037,"current_range_meters":12800,"station_id":"ce4bhh12rcd13ifvqff0","pricing_plan_id":"cebpf4jnsgd1na2vs0mg"},{"bike_id":"b2fba456-5a3b-40c6-8765-ad84661db187","system_id":"levelo_inurba_marseille","lat":43.257205,"lon":5.411136,"is_reserved":false,"is_disabled":false,"rental_uris":{"android":"levelo://app?vid=b2fba456-5a3b-40c6-8765-ad84661db187","ios":"levelo://app?vid=b2fba456-5a3b-40c6-8765-ad84661db187"},"vehicle_type_id":"4","last_reported":1757917037,"current_range_meters":12800,"station_id":"ce4bhkp2rcd13ifvqgd0","pricing_plan_id":"cebpf4jnsgd1na2vs0mg"},{"bike_id":"38534668-016e-4cb8-9d21-a111d0920386","system_id":"levelo_inurba_marseille","lat":43.31757,"lon":5.39056,"is_reserved":false,"is_disabled":false,"rental_uris":{"android":"levelo://app?vid=38534668-016e-4cb8-9d21-a111d0920386","ios":"levelo://app?vid=38534668-016e-4cb8-9d21-a111d0920386"},"vehicle_type_id":"4","last_reported":1757917037,"current_range_meters":12800,"station_id":"ce4bhqp2rcd13ifvqhng","pricing_plan_id":"cebpf4jnsgd1na2vs0mg"},{"bike_id":"62231e69-a801-4ee0-90ab-61763461e6f0","system_id":"levelo_inurba_marseille","lat":43.26505,"lon":5.39532,"is_reserved":false,"is_disabled":false,"rental_uris":{"android":"levelo://app?vid=62231e69-a801-4ee0-90ab-61763461e6f0","ios":"levelo://app?vid=62231e69-a801-4ee0-90ab-61763461e6f0"},"vehicle_type_id":"4","last_reported":1757917037,"current_range_meters":12800,"station_id":"ce4bhi12rcd13ifvqfq0","pricing_plan_id":"cebpf4jnsgd1na2vs0mg"},{"bike_id":"3fe444ee-ee08-420b-ad9e-7f03855712c3","system_id":"levelo_inurba_marseille","lat":43.28442,"lon":5.37528,"is_reserved":false,"is_disabled":false,"rental_uris":{"android":"levelo://app?vid=3fe444ee-ee08-420b-ad9e-7f03855712c3","ios":"levelo://app?vid=3fe444ee-ee08-420b-ad9e-7f03855712c3"},"vehicle_type_id":"4","last_reported":1757917037,"current_range_meters":12800,"station_id":"","pricing_plan_id":"cebpf4jnsgd1na2vs0mg"},{"bike_id":"795543a3-4d40-47a2-ba91-0c0d7988d4cf","system_id":"levelo_inurba_marseille","lat":43.27365,"lon":5.362295,"is_reserved":false,"is_disabled":true,"rental_uris":{"android":"levelo://app?vid=795543a3-4d40-47a2-ba91-0c0d7988d4cf","ios":"levelo://app?vid=795543a3-4d40-47a2-ba91-0c0d7988d4cf"},"vehicle_type_id":"4","last_reported":1757917037,"current_range_meters":13600,"station_id":"ce4bhbh2rcd13ifvqeo0","pricing_plan_id":"cebpf4jnsgd1na2vs0mg"},{"bike_id":"c0f32586-9d54-43f2-a7a5-dcfdc97599ee","system_id":"levelo_inurba_marseille","lat":43.299745,"lon":5.371875,"is_reserved":false,"is_disabled":false,"rental_uris":{"android":"levelo://app?vid=c0f32586-9d54-43f2-a7a5-dcfdc97599ee","ios":"levelo://app?vid=c0f32586-9d54-43f2-a7a5-dcfdc97599ee"},"vehicle_type_id":"4","last_reported":1757917037,"current_range_meters":13600,"station_id":"ce4bgr92rcd13ifvqc7g","pricing_plan_id":"cebpf4jnsgd1na2vs0mg"},{"bike_id":"acb5a5da-d819-40d5-9fb0-bc6f9fc7cc23","system_id":"levelo_inurba_marseille","lat":43.25832,"lon":5.39978,"is_reserved":false,"is_disabled":false,"rental_uris":{"android":"levelo://app?vid=acb5a5da-d819-40d5-9fb0-bc6f9fc7cc23","ios":"levelo://app?vid=acb5a5da-d819-40d5-9fb0-bc6f9fc7cc23"},"vehicle_type_id":"4","last_reported":1757917037,"current_range_meters":13600,"station_id":"","pricing_plan_id":"cebpf4jnsgd1na2vs0mg"},{"bike_id":"e7a329bd-ed66-4ac7-aaba-63f2810ddd86","system_id":"levelo_inurba_marseille","lat":43.31859,"lon":5.37206,"is_reserved":false,"is_disabled":false,"rental_uris":{"android":"levelo://app?vid=e7a329bd-ed66-4ac7-aaba-63f2810ddd86","ios":"levelo://app?vid=e7a329bd-ed66-4ac7-aaba-63f2810ddd86"},"vehicle_type_id":"4","last_reported":1757917037,"current_range_meters":13600,"station_id":"","pricing_plan_id":"cebpf4jnsgd1na2vs0mg"},{"bike_id":"22365fcd-7340-4794-84f9-b8479cfa99ac","system_id":"levelo_inurba_marseille","lat":43.27214,"lon":5.39178,"is_reserved":false,"is_disabled":false,"rental_uris":{"android":"levelo://app?vid=22365fcd-7340-4794-84f9-b8479cfa99ac","ios":"levelo://app?vid=22365fcd-7340-4794-84f9-b8479cfa99ac"},"vehicle_type_id":"4","last_reported":1757917037,"current_range_meters":12800,"station_id":"ce4bhhp2rcd13ifvqfm0","pricing_plan_id":"cebpf4jnsgd1na2vs0mg"},{"bike_id":"cc3620c4-1547-426d-9e2c-2e627da38da1","system_id":"levelo_inurba_marseille","lat":43.27497,"lon":5.42453,"is_reserved":false,"is_disabled":false,"rental_uris":{"android":"levelo://app?vid=cc3620c4-1547-426d-9e2c-2e627da38da1","ios":"levelo://app?vid=cc3620c4-1547-426d-9e2c-2e627da38da1"},"vehicle_type_id":"4","last_reported":1757917037,"current_range_meters":13600,"station_id":"ce4bhn92rcd13ifvqgrg","pricing_plan_id":"cebpf4jnsgd1na2vs0mg"},{"bike_id":"36010e39-bf73-4523-876f-8443c255c356","system_id":"levelo_inurba_marseille","lat":43.24171,"lon":5.36392,"is_reserved":false,"is_disabled":false,"rental_uris":{"android":"levelo://app?vid=36010e39-bf73-4523-876f-8443c255c356","ios":"levelo://app?vid=36010e39-bf73-4523-876f-8443c255c356"},"vehicle_type_id":"4","last_reported":1757917037,"current_range_meters":13600,"station_id":"cpo36qri1sfpv3e86is0","pricing_plan_id":"cebpf4jnsgd1na2vs0mg"},{"bike_id":"73a663d3-b16d-4de3-b2a5-ef65e30c0533","system_id":"levelo_inurba_marseille","lat":43.31146,"lon":5.37985,"is_reserved":false,"is_disabled":false,"rental_uris":{"android":"levelo://app?vid=73a663d3-b16d-4de3-b2a5-ef65e30c0533","ios":"levelo://app?vid=73a663d3-b16d-4de3-b2a5-ef65e30c0533"},"vehicle_type_id":"4","last_reported":1757917037,"current_range_meters":14000,"station_id":"","pricing_plan_id":"cebpf4jnsgd1na2vs0mg"},{"bike_id":"61ead066-3191-48f3-bccf-4d377df32a71","system_id":"levelo_inurba_marseille","lat":43.257231,"lon":5.411176,"is_reserved":false,"is_disabled":false,"rental_uris":{"android":"levelo://app?vid=61ead066-3191-48f3-bccf-4d377df32a71","ios":"levelo://app?vid=61ead066-3191-48f3-bccf-4d377df32a71"},"vehicle_type_id":"4","last_reported":1757917037,"current_range_meters":14000,"station_id":"ce4bhkp2rcd13ifvqgd0","pricing_plan_id":"cebpf4jnsgd1na2vs0mg"},{"bike_id":"7f1a719d-cc18-4eab-8b3c-b8f5acdf4fcd","system_id":"levelo_inurba_marseille","lat":43.273205,"lon":5.392367,"is_reserved":false,"is_disabled":false,"rental_uris":{"android":"levelo://app?vid=7f1a719d-cc18-4eab-8b3c-b8f5acdf4fcd","ios":"levelo://app?vid=7f1a719d-cc18-4eab-8b3c-b8f5acdf4fcd"},"vehicle_type_id":"4","last_reported":1757917037,"current_range_meters":14000,"station_id":"ce4bhhp2rcd13ifvqfm0","pricing_plan_id":"cebpf4jnsgd1na2vs0mg"},{"bike_id":"578e544b-91e0-4007-a18e-9e46cc7bf5ff","system_id":"levelo_inurba_marseille","lat":43.29672,"lon":5.40524,"is_reserved":false,"is_disabled":false,"rental_uris":{"android":"levelo://app?vid=578e544b-91e0-4007-a18e-9e46cc7bf5ff","ios":"levelo://app?vid=578e544b-91e0-4007-a18e-9e46cc7bf5ff"},"vehicle_type_id":"4","last_reported":1757917037,"current_range_meters":14000,"station_id":"","pricing_plan_id":"cebpf4jnsgd1na2vs0mg"},{"bike_id":"ad63778a-4fbe-4846-9db4-c91f5d909fa2","system_id":"levelo_inurba_marseille","lat":43.2496,"lon":5.40495,"is_reserved":false,"is_disabled":false,"rental_uris":{"android":"levelo://app?vid=ad63778a-4fbe-4846-9db4-c91f5d909fa2","ios":"levelo://app?vid=ad63778a-4fbe-4846-9db4-c91f5d909fa2"},"vehicle_type_id":"4","last_reported":1757917037,"current_range_meters":14000,"station_id":"st_d2ngiaodas8pm72gd1h0","pricing_plan_id":"cebpf4jnsgd1na2vs0mg"},{"bike_id":"60df5be0-868d-496d-a7cc-2e097de1a47a","system_id":"levelo_inurba_marseille","lat":43.22562,"lon":5.41635,"is_reserved":false,"is_disabled":false,"rental_uris":{"android":"levelo://app?vid=60df5be0-868d-496d-a7cc-2e097de1a47a","ios":"levelo://app?vid=60df5be0-868d-496d-a7cc-2e097de1a47a"},"vehicle_type_id":"4","last_reported":1757917037,"current_range_meters":14000,"station_id":"st_d2o4gvlbi1j2169b742g","pricing_plan_id":"cebpf4jnsgd1na2vs0mg"},{"bike_id":"8f04fe6a-b496-4a33-88d0-7a57c81f211d","system_id":"levelo_inurba_marseille","lat":43.24408,"lon":5.37076,"is_reserved":false,"is_disabled":true,"rental_uris":{"android":"levelo://app?vid=8f04fe6a-b496-4a33-88d0-7a57c81f211d","ios":"levelo://app?vid=8f04fe6a-b496-4a33-88d0-7a57c81f211d"},"vehicle_type_id":"4","last_reported":1757917037,"current_range_meters":14000,"station_id":"ce4bhhh2rcd13ifvqfk0","pricing_plan_id":"cebpf4jnsgd1na2vs0mg"},{"bike_id":"cf1b37c7-40bd-477f-bfcf-78a982823fd3","system_id":"levelo_inurba_marseille","lat":43.29405,"lon":5.38331,"is_reserved":false,"is_disabled":false,"rental_uris":{"android":"levelo://app?vid=cf1b37c7-40bd-477f-bfcf-78a982823fd3","ios":"levelo://app?vid=cf1b37c7-40bd-477f-bfcf-78a982823fd3"},"vehicle_type_id":"4","last_reported":1757917037,"current_range_meters":14000,"station_id":"","pricing_plan_id":"cebpf4jnsgd1na2vs0mg"},{"bike_id":"849f5c84-522f-45fe-bd78-493d766f0569","system_id":"levelo_inurba_marseille","lat":43.30908,"lon":5.3685,"is_reserved":false,"is_disabled":false,"rental_uris":{"android":"levelo://app?vid=849f5c84-522f-45fe-bd78-493d766f0569","ios":"levelo://app?vid=849f5c84-522f-45fe-bd78-493d766f0569"},"vehicle_type_id":"4","last_reported":1757917037,"current_range_meters":14400,"station_id":"ce4bgn92rcd13ifvqbvg","pricing_plan_id":"cebpf4jnsgd1na2vs0mg"},{"bike_id":"a66e9b8a-6a8d-4046-a804-deb84a637856","system_id":"levelo_inurba_marseille","lat":43.23184,"lon":5.39983,"is_reserved":false,"is_disabled":false,"rental_uris":{"android":"levelo://app?vid=a66e9b8a-6a8d-4046-a804-deb84a637856","ios":"levelo://app?vid=a66e9b8a-6a8d-4046-a804-deb84a637856"},"vehicle_type_id":"4","last_reported":1757917037,"current_range_meters":14000,"station_id":"ce4bhn12rcd13ifvqgqg","pricing_plan_id":"cebpf4jnsgd1na2vs0mg"},{"bike_id":"0c6fe877-1024-4901-84e8-0fbaefe45584","system_id":"levelo_inurba_marseille","lat":43.33394,"lon":5.40073,"is_reserved":false,"is_disabled":false,"rental_uris":{"android":"levelo://app?vid=0c6fe877-1024-4901-84e8-0fbaefe45584","ios":"levelo://app?vid=0c6fe877-1024-4901-84e8-0fbaefe45584"},"vehicle_type_id":"4","last_reported":1757917037,"current_range_meters":14400,"station_id":"","pricing_plan_id":"cebpf4jnsgd1na2vs0mg"},{"bike_id":"ebc28d3f-48e0-4c19-84dd-0c3a04a1ca62","system_id":"levelo_inurba_marseille","lat":43.25865,"lon":5.39901,"is_reserved":false,"is_disabled":true,"rental_uris":{"android":"levelo://app?vid=ebc28d3f-48e0-4c19-84dd-0c3a04a1ca62","ios":"levelo://app?vid=ebc28d3f-48e0-4c19-84dd-0c3a04a1ca62"},"vehicle_type_id":"4","last_reported":1757917037,"current_range_meters":14400,"station_id":"ce4bhl92rcd13ifvqghg","pricing_plan_id":"cebpf4jnsgd1na2vs0mg"},{"bike_id":"322c1f5a-85db-4ef6-bcd4-1b5c417c8ee0","system_id":"levelo_inurba_marseille","lat":43.3377,"lon":5.37488,"is_reserved":false,"is_disabled":false,"rental_uris":{"android":"levelo://app?vid=322c1f5a-85db-4ef6-bcd4-1b5c417c8ee0","ios":"levelo://app?vid=322c1f5a-85db-4ef6-bcd4-1b5c417c8ee0"},"vehicle_type_id":"4","last_reported":1757917037,"current_range_meters":14400,"station_id":"","pricing_plan_id":"cebpf4jnsgd1na2vs0mg"},{"bike_id":"86521c0e-e488-4079-b3e4-dc4e3b244f8b","system_id":"levelo_inurba_marseille","lat":43.24666,"lon":5.3817,"is_reserved":false,"is_disabled":false,"rental_uris":{"android":"levelo://app?vid=86521c0e-e488-4079-b3e4-dc4e3b244f8b","ios":"levelo://app?vid=86521c0e-e488-4079-b3e4-dc4e3b244f8b"},"vehicle_type_id":"4","last_reported":1757917037,"current_range_meters":14400,"station_id":"ce4bhih2rcd13ifvqfr0","pricing_plan_id":"cebpf4jnsgd1na2vs0mg"},{"bike_id":"85b65d61-b12c-41a6-bc60-d66abae1207c","system_id":"levelo_inurba_marseille","lat":43.30474,"lon":5.37909,"is_reserved":false,"is_disabled":false,"rental_uris":{"android":"levelo://app?vid=85b65d61-b12c-41a6-bc60-d66abae1207c","ios":"levelo://app?vid=85b65d61-b12c-41a6-bc60-d66abae1207c"},"vehicle_type_id":"4","last_reported":1757917037,"current_range_meters":14400,"station_id":"ce4bgup2rcd13ifvqcn0","pricing_plan_id":"cebpf4jnsgd1na2vs0mg"},{"bike_id":"61242a27-0db1-42cc-9fb5-dd86bf5c6a93","system_id":"levelo_inurba_marseille","lat":43.24653,"lon":5.38891,"is_reserved":false,"is_disabled":false,"rental_uris":{"android":"levelo://app?vid=61242a27-0db1-42cc-9fb5-dd86bf5c6a93","ios":"levelo://app?vid=61242a27-0db1-42cc-9fb5-dd86bf5c6a93"},"vehicle_type_id":"4","last_reported":1757917037,"current_range_meters":14400,"station_id":"ce4bhg12rcd13ifvqf60","pricing_plan_id":"cebpf4jnsgd1na2vs0mg"},{"bike_id":"3137af61-56d0-45d5-96aa-49a4a0bc14c1","system_id":"levelo_inurba_marseille","lat":43.32359,"lon":5.3889,"is_reserved":false,"is_disabled":false,"rental_uris":{"android":"levelo://app?vid=3137af61-56d0-45d5-96aa-49a4a0bc14c1","ios":"levelo://app?vid=3137af61-56d0-45d5-96aa-49a4a0bc14c1"},"vehicle_type_id":"4","last_reported":1757917037,"current_range_meters":14800,"station_id":"ce4bhqp2rcd13ifvqhog","pricing_plan_id":"cebpf4jnsgd1na2vs0mg"},{"bike_id":"ea4693de-86b3-41b2-926a-c1ac20480be1","system_id":"levelo_inurba_marseille","lat":43.31342,"lon":5.36724,"is_reserved":false,"is_disabled":false,"rental_uris":{"android":"levelo://app?vid=ea4693de-86b3-41b2-926a-c1ac20480be1","ios":"levelo://app?vid=ea4693de-86b3-41b2-926a-c1ac20480be1"},"vehicle_type_id":"4","last_reported":1757917037,"current_range_meters":14800,"station_id":"ce4bgr92rcd13ifvqc6g","pricing_plan_id":"cebpf4jnsgd1na2vs0mg"},{"bike_id":"95251c11-6699-4aa0-8909-a444151e2dc9","system_id":"levelo_inurba_marseille","lat":43.24087,"lon":5.37742,"is_reserved":false,"is_disabled":false,"rental_uris":{"android":"levelo://app?vid=95251c11-6699-4aa0-8909-a444151e2dc9","ios":"levelo://app?vid=95251c11-6699-4aa0-8909-a444151e2dc9"},"vehicle_type_id":"4","last_reported":1757917037,"current_range_meters":14800,"station_id":"ce4bhnp2rcd13ifvqgvg","pricing_plan_id":"cebpf4jnsgd1na2vs0mg"},{"bike_id":"d829d41d-7814-48de-beb8-f74954919845","system_id":"levelo_inurba_marseille","lat":43.25019,"lon":5.388907,"is_reserved":false,"is_disabled":false,"rental_uris":{"android":"levelo://app?vid=d829d41d-7814-48de-beb8-f74954919845","ios":"levelo://app?vid=d829d41d-7814-48de-beb8-f74954919845"},"vehicle_type_id":"4","last_reported":1757917037,"current_range_meters":14800,"station_id":"ce4bhgp2rcd13ifvqfd0","pricing_plan_id":"cebpf4jnsgd1na2vs0mg"},{"bike_id":"44e3c24a-16b1-4deb-a5bc-9902dcb1cf85","system_id":"levelo_inurba_marseille","lat":43.23156,"lon":5.43719,"is_reserved":false,"is_disabled":false,"rental_uris":{"android":"levelo://app?vid=44e3c24a-16b1-4deb-a5bc-9902dcb1cf85","ios":"levelo://app?vid=44e3c24a-16b1-4deb-a5bc-9902dcb1cf85"},"vehicle_type_id":"4","last_reported":1757917037,"current_range_meters":14800,"station_id":"ce4bhmp2rcd13ifvqgog","pricing_plan_id":"cebpf4jnsgd1na2vs0mg"},{"bike_id":"ff8533df-42c8-4917-aaa3-25f6d4d2f3d8","system_id":"levelo_inurba_marseille","lat":43.26682,"lon":5.38273,"is_reserved":false,"is_disabled":false,"rental_uris":{"android":"levelo://app?vid=ff8533df-42c8-4917-aaa3-25f6d4d2f3d8","ios":"levelo://app?vid=ff8533df-42c8-4917-aaa3-25f6d4d2f3d8"},"vehicle_type_id":"4","last_reported":1757917037,"current_range_meters":15200,"station_id":"ce4bhg92rcd13ifvqf90","pricing_plan_id":"cebpf4jnsgd1na2vs0mg"},{"bike_id":"512d6552-2c9e-4c40-b1ca-537e9b0175b2","system_id":"levelo_inurba_marseille","lat":43.27981,"lon":5.41677,"is_reserved":false,"is_disabled":false,"rental_uris":{"android":"levelo://app?vid=512d6552-2c9e-4c40-b1ca-537e9b0175b2","ios":"levelo://app?vid=512d6552-2c9e-4c40-b1ca-537e9b0175b2"},"vehicle_type_id":"4","last_reported":1757917037,"current_range_meters":15200,"station_id":"ce4bho12rcd13ifvqh1g","pricing_plan_id":"cebpf4jnsgd1na2vs0mg"},{"bike_id":"efd0ae8a-4913-47a8-85c7-1acb414835c4","system_id":"levelo_inurba_marseille","lat":43.29044,"lon":5.39973,"is_reserved":false,"is_disabled":false,"rental_uris":{"android":"levelo://app?vid=efd0ae8a-4913-47a8-85c7-1acb414835c4","ios":"levelo://app?vid=efd0ae8a-4913-47a8-85c7-1acb414835c4"},"vehicle_type_id":"4","last_reported":1757917037,"current_range_meters":15200,"station_id":"ce4bh392rcd13ifvqdm0","pricing_plan_id":"cebpf4jnsgd1na2vs0mg"},{"bike_id":"a720241e-ddd1-4ea8-bf13-6e33e5f48606","system_id":"levelo_inurba_marseille","lat":43.2961,"lon":5.38114,"is_reserved":false,"is_disabled":false,"rental_uris":{"android":"levelo://app?vid=a720241e-ddd1-4ea8-bf13-6e33e5f48606","ios":"levelo://app?vid=a720241e-ddd1-4ea8-bf13-6e33e5f48606"},"vehicle_type_id":"4","last_reported":1757917037,"current_range_meters":15200,"station_id":"ce4bgl12rcd13ifvqbo0","pricing_plan_id":"cebpf4jnsgd1na2vs0mg"},{"bike_id":"b9735cd4-cb23-4122-ae9b-3e99cb525b36","system_id":"levelo_inurba_marseille","lat":43.30533,"lon":5.36709,"is_reserved":false,"is_disabled":false,"rental_uris":{"android":"levelo://app?vid=b9735cd4-cb23-4122-ae9b-3e99cb525b36","ios":"levelo://app?vid=b9735cd4-cb23-4122-ae9b-3e99cb525b36"},"vehicle_type_id":"4","last_reported":1757917037,"current_range_meters":15200,"station_id":"ce4bgrp2rcd13ifvqc9g","pricing_plan_id":"cebpf4jnsgd1na2vs0mg"},{"bike_id":"d27a3574-c668-415b-ad3b-c0a1e10e6cf4","system_id":"levelo_inurba_marseille","lat":43.337444,"lon":5.374475,"is_reserved":false,"is_disabled":false,"rental_uris":{"android":"levelo://app?vid=d27a3574-c668-415b-ad3b-c0a1e10e6cf4","ios":"levelo://app?vid=d27a3574-c668-415b-ad3b-c0a1e10e6cf4"},"vehicle_type_id":"4","last_reported":1757917037,"current_range_meters":15200,"station_id":"","pricing_plan_id":"cebpf4jnsgd1na2vs0mg"},{"bike_id":"d531214e-047d-429d-8f91-624c82c910b6","system_id":"levelo_inurba_marseille","lat":43.2928,"lon":5.40122,"is_reserved":false,"is_disabled":false,"rental_uris":{"android":"levelo://app?vid=d531214e-047d-429d-8f91-624c82c910b6","ios":"levelo://app?vid=d531214e-047d-429d-8f91-624c82c910b6"},"vehicle_type_id":"4","last_reported":1757917037,"current_range_meters":16000,"station_id":"ce4bh312rcd13ifvqdk0","pricing_plan_id":"cebpf4jnsgd1na2vs0mg"},{"bike_id":"5b5379f2-6b26-4741-a1b0-feb22b61a585","system_id":"levelo_inurba_marseille","lat":43.21197,"lon":5.35072,"is_reserved":false,"is_disabled":true,"rental_uris":{"android":"levelo://app?vid=5b5379f2-6b26-4741-a1b0-feb22b61a585","ios":"levelo://app?vid=5b5379f2-6b26-4741-a1b0-feb22b61a585"},"vehicle_type_id":"4","last_reported":1757917037,"current_range_meters":16000,"station_id":"st_cvj6sg6p6f1abm77japg","pricing_plan_id":"cebpf4jnsgd1na2vs0mg"},{"bike_id":"1ebb1ad1-55dd-457f-8c00-d14b6509395a","system_id":"levelo_inurba_marseille","lat":43.21757,"lon":5.34607,"is_reserved":false,"is_disabled":false,"rental_uris":{"android":"levelo://app?vid=1ebb1ad1-55dd-457f-8c00-d14b6509395a","ios":"levelo://app?vid=1ebb1ad1-55dd-457f-8c00-d14b6509395a"},"vehicle_type_id":"4","last_reported":1757917037,"current_range_meters":16000,"station_id":"","pricing_plan_id":"cebpf4jnsgd1na2vs0mg"},{"bike_id":"a155e67d-bec0-4326-ae57-c035ef5e1c81","system_id":"levelo_inurba_marseille","lat":43.29907,"lon":5.43676,"is_reserved":false,"is_disabled":false,"rental_uris":{"android":"levelo://app?vid=a155e67d-bec0-4326-ae57-c035ef5e1c81","ios":"levelo://app?vid=a155e67d-bec0-4326-ae57-c035ef5e1c81"},"vehicle_type_id":"4","last_reported":1757917037,"current_range_meters":16000,"station_id":"ce4bhpp2rcd13ifvqhfg","pricing_plan_id":"cebpf4jnsgd1na2vs0mg"},{"bike_id":"b4714de6-5121-4f11-950a-3ec23d39b959","system_id":"levelo_inurba_marseille","lat":43.24082,"lon":5.37753,"is_reserved":false,"is_disabled":false,"rental_uris":{"android":"levelo://app?vid=b4714de6-5121-4f11-950a-3ec23d39b959","ios":"levelo://app?vid=b4714de6-5121-4f11-950a-3ec23d39b959"},"vehicle_type_id":"4","last_reported":1757917037,"current_range_meters":16000,"station_id":"ce4bhnp2rcd13ifvqgvg","pricing_plan_id":"cebpf4jnsgd1na2vs0mg"},{"bike_id":"f349a26b-1b9e-47af-a73e-c05f32ec3a06","system_id":"levelo_inurba_marseille","lat":43.31241,"lon":5.36855,"is_reserved":false,"is_disabled":false,"rental_uris":{"android":"levelo://app?vid=f349a26b-1b9e-47af-a73e-c05f32ec3a06","ios":"levelo://app?vid=f349a26b-1b9e-47af-a73e-c05f32ec3a06"},"vehicle_type_id":"4","last_reported":1757917037,"current_range_meters":16000,"station_id":"ce4bgl92rcd13ifvqbq0","pricing_plan_id":"cebpf4jnsgd1na2vs0mg"},{"bike_id":"41de12a2-5382-4da2-9751-1300a8df4dc1","system_id":"levelo_inurba_marseille","lat":43.22556,"lon":5.41635,"is_reserved":false,"is_disabled":false,"rental_uris":{"android":"levelo://app?vid=41de12a2-5382-4da2-9751-1300a8df4dc1","ios":"levelo://app?vid=41de12a2-5382-4da2-9751-1300a8df4dc1"},"vehicle_type_id":"4","last_reported":1757917037,"current_range_meters":16000,"station_id":"st_d2o4gvlbi1j2169b742g","pricing_plan_id":"cebpf4jnsgd1na2vs0mg"},{"bike_id":"0f164135-28bf-4311-b653-1c6ae5f28cd0","system_id":"levelo_inurba_marseille","lat":43.24076,"lon":5.37753,"is_reserved":false,"is_disabled":false,"rental_uris":{"android":"levelo://app?vid=0f164135-28bf-4311-b653-1c6ae5f28cd0","ios":"levelo://app?vid=0f164135-28bf-4311-b653-1c6ae5f28cd0"},"vehicle_type_id":"4","last_reported":1757917037,"current_range_meters":16000,"station_id":"ce4bhnp2rcd13ifvqgvg","pricing_plan_id":"cebpf4jnsgd1na2vs0mg"},{"bike_id":"d433f65c-48c2-4aa1-b7a0-61a992e3054a","system_id":"levelo_inurba_marseille","lat":43.29189,"lon":5.39324,"is_reserved":false,"is_disabled":true,"rental_uris":{"android":"levelo://app?vid=d433f65c-48c2-4aa1-b7a0-61a992e3054a","ios":"levelo://app?vid=d433f65c-48c2-4aa1-b7a0-61a992e3054a"},"vehicle_type_id":"4","last_reported":1757917037,"current_range_meters":16400,"station_id":"ce4bh192rcd13ifvqdd0","pricing_plan_id":"cebpf4jnsgd1na2vs0mg"},{"bike_id":"8ab15787-3395-4ffa-83f3-2623bbda4178","system_id":"levelo_inurba_marseille","lat":43.27375,"lon":5.36259,"is_reserved":false,"is_disabled":false,"rental_uris":{"android":"levelo://app?vid=8ab15787-3395-4ffa-83f3-2623bbda4178","ios":"levelo://app?vid=8ab15787-3395-4ffa-83f3-2623bbda4178"},"vehicle_type_id":"4","last_reported":1757917037,"current_range_meters":16400,"station_id":"ce4bhbh2rcd13ifvqeo0","pricing_plan_id":"cebpf4jnsgd1na2vs0mg"},{"bike_id":"8e170f66-2b1a-4a5b-8568-a742133e6deb","system_id":"levelo_inurba_marseille","lat":43.30659,"lon":5.40061,"is_reserved":false,"is_disabled":false,"rental_uris":{"android":"levelo://app?vid=8e170f66-2b1a-4a5b-8568-a742133e6deb","ios":"levelo://app?vid=8e170f66-2b1a-4a5b-8568-a742133e6deb"},"vehicle_type_id":"4","last_reported":1757917037,"current_range_meters":16800,"station_id":"ce4bh112rcd13ifvqda0","pricing_plan_id":"cebpf4jnsgd1na2vs0mg"},{"bike_id":"2d6aad19-6aca-4a34-bbb2-22f8c64b6a1e","system_id":"levelo_inurba_marseille","lat":43.31913,"lon":5.40697,"is_reserved":false,"is_disabled":false,"rental_uris":{"android":"levelo://app?vid=2d6aad19-6aca-4a34-bbb2-22f8c64b6a1e","ios":"levelo://app?vid=2d6aad19-6aca-4a34-bbb2-22f8c64b6a1e"},"vehicle_type_id":"4","last_reported":1757917037,"current_range_meters":16800,"station_id":"","pricing_plan_id":"cebpf4jnsgd1na2vs0mg"},{"bike_id":"df2c3561-0320-461a-ab60-d323f15432cd","system_id":"levelo_inurba_marseille","lat":43.289464,"lon":5.39637,"is_reserved":false,"is_disabled":false,"rental_uris":{"android":"levelo://app?vid=df2c3561-0320-461a-ab60-d323f15432cd","ios":"levelo://app?vid=df2c3561-0320-461a-ab60-d323f15432cd"},"vehicle_type_id":"4","last_reported":1757917037,"current_range_meters":16800,"station_id":"ce4bh3h2rcd13ifvqdn0","pricing_plan_id":"cebpf4jnsgd1na2vs0mg"},{"bike_id":"d73ebff0-d957-41dc-a638-29b88edc4926","system_id":"levelo_inurba_marseille","lat":43.22557,"lon":5.41619,"is_reserved":false,"is_disabled":false,"rental_uris":{"android":"levelo://app?vid=d73ebff0-d957-41dc-a638-29b88edc4926","ios":"levelo://app?vid=d73ebff0-d957-41dc-a638-29b88edc4926"},"vehicle_type_id":"4","last_reported":1757917037,"current_range_meters":16800,"station_id":"st_d2o4gvlbi1j2169b742g","pricing_plan_id":"cebpf4jnsgd1na2vs0mg"},{"bike_id":"d846a7e0-b3e0-4cef-8a84-a978e4170be2","system_id":"levelo_inurba_marseille","lat":43.29289,"lon":5.40113,"is_reserved":false,"is_disabled":false,"rental_uris":{"android":"levelo://app?vid=d846a7e0-b3e0-4cef-8a84-a978e4170be2","ios":"levelo://app?vid=d846a7e0-b3e0-4cef-8a84-a978e4170be2"},"vehicle_type_id":"4","last_reported":1757917037,"current_range_meters":16800,"station_id":"ce4bh312rcd13ifvqdk0","pricing_plan_id":"cebpf4jnsgd1na2vs0mg"},{"bike_id":"8ef8bf7d-8a91-4724-8c2e-ddeef723e28a","system_id":"levelo_inurba_marseille","lat":43.27021,"lon":5.37923,"is_reserved":false,"is_disabled":false,"rental_uris":{"android":"levelo://app?vid=8ef8bf7d-8a91-4724-8c2e-ddeef723e28a","ios":"levelo://app?vid=8ef8bf7d-8a91-4724-8c2e-ddeef723e28a"},"vehicle_type_id":"4","last_reported":1757917037,"current_range_meters":16800,"station_id":"","pricing_plan_id":"cebpf4jnsgd1na2vs0mg"},{"bike_id":"e5ef8f91-7514-474c-90f4-bbda80e8d6f8","system_id":"levelo_inurba_marseille","lat":43.312187,"lon":5.368164,"is_reserved":false,"is_disabled":false,"rental_uris":{"android":"levelo://app?vid=e5ef8f91-7514-474c-90f4-bbda80e8d6f8","ios":"levelo://app?vid=e5ef8f91-7514-474c-90f4-bbda80e8d6f8"},"vehicle_type_id":"4","last_reported":1757917037,"current_range_meters":16800,"station_id":"ce4bgl92rcd13ifvqbq0","pricing_plan_id":"cebpf4jnsgd1na2vs0mg"},{"bike_id":"5d5b51f8-15be-4825-804c-c2485c6a00ac","system_id":"levelo_inurba_marseille","lat":43.2594,"lon":5.40908,"is_reserved":false,"is_disabled":false,"rental_uris":{"android":"levelo://app?vid=5d5b51f8-15be-4825-804c-c2485c6a00ac","ios":"levelo://app?vid=5d5b51f8-15be-4825-804c-c2485c6a00ac"},"vehicle_type_id":"4","last_reported":1757917037,"current_range_meters":16800,"station_id":"ce4bhm92rcd13ifvqglg","pricing_plan_id":"cebpf4jnsgd1na2vs0mg"},{"bike_id":"c56c819d-3dfa-412f-8e2d-3daff15dbec6","system_id":"levelo_inurba_marseille","lat":43.29529,"lon":5.37501,"is_reserved":false,"is_disabled":true,"rental_uris":{"android":"levelo://app?vid=c56c819d-3dfa-412f-8e2d-3daff15dbec6","ios":"levelo://app?vid=c56c819d-3dfa-412f-8e2d-3daff15dbec6"},"vehicle_type_id":"4","last_reported":1757917037,"current_range_meters":16800,"station_id":"ce4bgkp2rcd13ifvqbmg","pricing_plan_id":"cebpf4jnsgd1na2vs0mg"},{"bike_id":"68978d87-182f-4fd9-a457-23c13afc8b0e","system_id":"levelo_inurba_marseille","lat":43.290175,"lon":5.378282,"is_reserved":false,"is_disabled":false,"rental_uris":{"android":"levelo://app?vid=68978d87-182f-4fd9-a457-23c13afc8b0e","ios":"levelo://app?vid=68978d87-182f-4fd9-a457-23c13afc8b0e"},"vehicle_type_id":"4","last_reported":1757917037,"current_range_meters":16800,"station_id":"ce4bh9p2rcd13ifvqed0","pricing_plan_id":"cebpf4jnsgd1na2vs0mg"},{"bike_id":"d20b75b4-d76e-4692-b05c-3173e3d6164a","system_id":"levelo_inurba_marseille","lat":43.24074,"lon":5.3776,"is_reserved":false,"is_disabled":false,"rental_uris":{"android":"levelo://app?vid=d20b75b4-d76e-4692-b05c-3173e3d6164a","ios":"levelo://app?vid=d20b75b4-d76e-4692-b05c-3173e3d6164a"},"vehicle_type_id":"4","last_reported":1757917037,"current_range_meters":16800,"station_id":"ce4bhnp2rcd13ifvqgvg","pricing_plan_id":"cebpf4jnsgd1na2vs0mg"},{"bike_id":"ac350329-b4f2-4050-b52e-81c19918120f","system_id":"levelo_inurba_marseille","lat":43.24961,"lon":5.40504,"is_reserved":false,"is_disabled":false,"rental_uris":{"android":"levelo://app?vid=ac350329-b4f2-4050-b52e-81c19918120f","ios":"levelo://app?vid=ac350329-b4f2-4050-b52e-81c19918120f"},"vehicle_type_id":"4","last_reported":1757917037,"current_range_meters":17200,"station_id":"st_d2ngiaodas8pm72gd1h0","pricing_plan_id":"cebpf4jnsgd1na2vs0mg"},{"bike_id":"c0e656b8-c7c1-4c02-9b4b-cfa4eb6bd121","system_id":"levelo_inurba_marseille","lat":43.23969,"lon":5.36633,"is_reserved":false,"is_disabled":false,"rental_uris":{"android":"levelo://app?vid=c0e656b8-c7c1-4c02-9b4b-cfa4eb6bd121","ios":"levelo://app?vid=c0e656b8-c7c1-4c02-9b4b-cfa4eb6bd121"},"vehicle_type_id":"4","last_reported":1757917037,"current_range_meters":17200,"station_id":"ce4bhi12rcd13ifvqfp0","pricing_plan_id":"cebpf4jnsgd1na2vs0mg"},{"bike_id":"27fbfeae-e6b7-4fdd-accb-fff8b7bc8745","system_id":"levelo_inurba_marseille","lat":43.28192,"lon":5.42632,"is_reserved":false,"is_disabled":false,"rental_uris":{"android":"levelo://app?vid=27fbfeae-e6b7-4fdd-accb-fff8b7bc8745","ios":"levelo://app?vid=27fbfeae-e6b7-4fdd-accb-fff8b7bc8745"},"vehicle_type_id":"4","last_reported":1757917037,"current_range_meters":17200,"station_id":"ce4bhnh2rcd13ifvqgug","pricing_plan_id":"cebpf4jnsgd1na2vs0mg"},{"bike_id":"e5be66cf-ce1c-4085-8a73-87a9d6bdb552","system_id":"levelo_inurba_marseille","lat":43.27498,"lon":5.42447,"is_reserved":false,"is_disabled":false,"rental_uris":{"android":"levelo://app?vid=e5be66cf-ce1c-4085-8a73-87a9d6bdb552","ios":"levelo://app?vid=e5be66cf-ce1c-4085-8a73-87a9d6bdb552"},"vehicle_type_id":"4","last_reported":1757917037,"current_range_meters":17200,"station_id":"ce4bhn92rcd13ifvqgrg","pricing_plan_id":"cebpf4jnsgd1na2vs0mg"},{"bike_id":"778f8d27-6a87-4359-966c-ec7a6e4dfbdb","system_id":"levelo_inurba_marseille","lat":43.29925,"lon":5.38155,"is_reserved":false,"is_disabled":false,"rental_uris":{"android":"levelo://app?vid=778f8d27-6a87-4359-966c-ec7a6e4dfbdb","ios":"levelo://app?vid=778f8d27-6a87-4359-966c-ec7a6e4dfbdb"},"vehicle_type_id":"4","last_reported":1757917037,"current_range_meters":17200,"station_id":"ce4bgj12rcd13ifvqbc0","pricing_plan_id":"cebpf4jnsgd1na2vs0mg"},{"bike_id":"a5aa7ed1-3ddd-4ef9-92b6-adcfff9878c2","system_id":"levelo_inurba_marseille","lat":43.29797,"lon":5.38115,"is_reserved":false,"is_disabled":true,"rental_uris":{"android":"levelo://app?vid=a5aa7ed1-3ddd-4ef9-92b6-adcfff9878c2","ios":"levelo://app?vid=a5aa7ed1-3ddd-4ef9-92b6-adcfff9878c2"},"vehicle_type_id":"4","last_reported":1757917037,"current_range_meters":17200,"station_id":"ce4bgip2rcd13ifvqbb0","pricing_plan_id":"cebpf4jnsgd1na2vs0mg"},{"bike_id":"c8609389-e27f-4b74-b3b9-453a381bc52f","system_id":"levelo_inurba_marseille","lat":43.29569,"lon":5.39992,"is_reserved":false,"is_disabled":false,"rental_uris":{"android":"levelo://app?vid=c8609389-e27f-4b74-b3b9-453a381bc52f","ios":"levelo://app?vid=c8609389-e27f-4b74-b3b9-453a381bc52f"},"vehicle_type_id":"4","last_reported":1757917037,"current_range_meters":17200,"station_id":"ce4bh312rcd13ifvqdj0","pricing_plan_id":"cebpf4jnsgd1na2vs0mg"},{"bike_id":"39b5ad1c-ff07-4e68-bf87-9b4216ebf90d","system_id":"levelo_inurba_marseille","lat":43.28865,"lon":5.42522,"is_reserved":false,"is_disabled":false,"rental_uris":{"android":"levelo://app?vid=39b5ad1c-ff07-4e68-bf87-9b4216ebf90d","ios":"levelo://app?vid=39b5ad1c-ff07-4e68-bf87-9b4216ebf90d"},"vehicle_type_id":"4","last_reported":1757917037,"current_range_meters":17200,"station_id":"","pricing_plan_id":"cebpf4jnsgd1na2vs0mg"},{"bike_id":"f2fa18e7-cea6-416b-a447-0338af61bb4d","system_id":"levelo_inurba_marseille","lat":43.30479,"lon":5.37923,"is_reserved":false,"is_disabled":false,"rental_uris":{"android":"levelo://app?vid=f2fa18e7-cea6-416b-a447-0338af61bb4d","ios":"levelo://app?vid=f2fa18e7-cea6-416b-a447-0338af61bb4d"},"vehicle_type_id":"4","last_reported":1757917037,"current_range_meters":17200,"station_id":"ce4bgup2rcd13ifvqcn0","pricing_plan_id":"cebpf4jnsgd1na2vs0mg"},{"bike_id":"a333d9ec-a9a7-4617-ac2f-4224c0d88af6","system_id":"levelo_inurba_marseille","lat":43.275,"lon":5.42448,"is_reserved":false,"is_disabled":false,"rental_uris":{"android":"levelo://app?vid=a333d9ec-a9a7-4617-ac2f-4224c0d88af6","ios":"levelo://app?vid=a333d9ec-a9a7-4617-ac2f-4224c0d88af6"},"vehicle_type_id":"4","last_reported":1757917037,"current_range_meters":17200,"station_id":"ce4bhn92rcd13ifvqgrg","pricing_plan_id":"cebpf4jnsgd1na2vs0mg"},{"bike_id":"881a1668-45ff-4216-ae21-5417f88aa929","system_id":"levelo_inurba_marseille","lat":43.30153,"lon":5.38092,"is_reserved":false,"is_disabled":false,"rental_uris":{"android":"levelo://app?vid=881a1668-45ff-4216-ae21-5417f88aa929","ios":"levelo://app?vid=881a1668-45ff-4216-ae21-5417f88aa929"},"vehicle_type_id":"4","last_reported":1757917037,"current_range_meters":17200,"station_id":"ce4bgjp2rcd13ifvqbh0","pricing_plan_id":"cebpf4jnsgd1na2vs0mg"},{"bike_id":"c8cf71ab-2cba-487d-b0aa-fba68c18bfaa","system_id":"levelo_inurba_marseille","lat":43.27493,"lon":5.42462,"is_reserved":false,"is_disabled":false,"rental_uris":{"android":"levelo://app?vid=c8cf71ab-2cba-487d-b0aa-fba68c18bfaa","ios":"levelo://app?vid=c8cf71ab-2cba-487d-b0aa-fba68c18bfaa"},"vehicle_type_id":"4","last_reported":1757917037,"current_range_meters":17600,"station_id":"ce4bhn92rcd13ifvqgrg","pricing_plan_id":"cebpf4jnsgd1na2vs0mg"},{"bike_id":"58e1ab8c-b015-4c43-b2d3-86f2f108f023","system_id":"levelo_inurba_marseille","lat":43.31154,"lon":5.39509,"is_reserved":false,"is_disabled":false,"rental_uris":{"android":"levelo://app?vid=58e1ab8c-b015-4c43-b2d3-86f2f108f023","ios":"levelo://app?vid=58e1ab8c-b015-4c43-b2d3-86f2f108f023"},"vehicle_type_id":"4","last_reported":1757917037,"current_range_meters":17600,"station_id":"","pricing_plan_id":"cebpf4jnsgd1na2vs0mg"},{"bike_id":"9282246d-7694-46bd-8ac9-8ab4b9d11879","system_id":"levelo_inurba_marseille","lat":43.24075,"lon":5.37759,"is_reserved":false,"is_disabled":false,"rental_uris":{"android":"levelo://app?vid=9282246d-7694-46bd-8ac9-8ab4b9d11879","ios":"levelo://app?vid=9282246d-7694-46bd-8ac9-8ab4b9d11879"},"vehicle_type_id":"4","last_reported":1757917037,"current_range_meters":17600,"station_id":"ce4bhnp2rcd13ifvqgvg","pricing_plan_id":"cebpf4jnsgd1na2vs0mg"},{"bike_id":"47bbfecc-2dac-438f-9a1d-9b4ffed834df","system_id":"levelo_inurba_marseille","lat":43.24075,"lon":5.37774,"is_reserved":false,"is_disabled":false,"rental_uris":{"android":"levelo://app?vid=47bbfecc-2dac-438f-9a1d-9b4ffed834df","ios":"levelo://app?vid=47bbfecc-2dac-438f-9a1d-9b4ffed834df"},"vehicle_type_id":"4","last_reported":1757917037,"current_range_meters":17600,"station_id":"ce4bhnp2rcd13ifvqgvg","pricing_plan_id":"cebpf4jnsgd1na2vs0mg"},{"bike_id":"b575a595-f932-4230-9ca7-6937f4a43d90","system_id":"levelo_inurba_marseille","lat":43.217441,"lon":5.346047,"is_reserved":false,"is_disabled":false,"rental_uris":{"android":"levelo://app?vid=b575a595-f932-4230-9ca7-6937f4a43d90","ios":"levelo://app?vid=b575a595-f932-4230-9ca7-6937f4a43d90"},"vehicle_type_id":"4","last_reported":1757917037,"current_range_meters":17600,"station_id":"st_cvj6r9ubvosntc0bgbag","pricing_plan_id":"cebpf4jnsgd1na2vs0mg"},{"bike_id":"26040cf4-db99-40c7-8ef4-d12596dc20aa","system_id":"levelo_inurba_marseille","lat":43.27649,"lon":5.38914,"is_reserved":false,"is_disabled":true,"rental_uris":{"android":"levelo://app?vid=26040cf4-db99-40c7-8ef4-d12596dc20aa","ios":"levelo://app?vid=26040cf4-db99-40c7-8ef4-d12596dc20aa"},"vehicle_type_id":"4","last_reported":1757917037,"current_range_meters":17600,"station_id":"ce4bhi12rcd13ifvqfo0","pricing_plan_id":"cebpf4jnsgd1na2vs0mg"},{"bike_id":"85261355-710e-4ba5-8cf0-34940871774f","system_id":"levelo_inurba_marseille","lat":43.32361,"lon":5.3889,"is_reserved":false,"is_disabled":false,"rental_uris":{"android":"levelo://app?vid=85261355-710e-4ba5-8cf0-34940871774f","ios":"levelo://app?vid=85261355-710e-4ba5-8cf0-34940871774f"},"vehicle_type_id":"4","last_reported":1757917037,"current_range_meters":17600,"station_id":"ce4bhqp2rcd13ifvqhog","pricing_plan_id":"cebpf4jnsgd1na2vs0mg"},{"bike_id":"1886d11a-c28b-4738-acf9-6fba78a545be","system_id":"levelo_inurba_marseille","lat":43.28941,"lon":5.36638,"is_reserved":false,"is_disabled":false,"rental_uris":{"android":"levelo://app?vid=1886d11a-c28b-4738-acf9-6fba78a545be","ios":"levelo://app?vid=1886d11a-c28b-4738-acf9-6fba78a545be"},"vehicle_type_id":"4","last_reported":1757917037,"current_range_meters":17600,"station_id":"ce4bhap2rcd13ifvqek0","pricing_plan_id":"cebpf4jnsgd1na2vs0mg"},{"bike_id":"908d4a1e-8ec5-4f79-a487-484937b2c68f","system_id":"levelo_inurba_marseille","lat":43.30137,"lon":5.38095,"is_reserved":false,"is_disabled":false,"rental_uris":{"android":"levelo://app?vid=908d4a1e-8ec5-4f79-a487-484937b2c68f","ios":"levelo://app?vid=908d4a1e-8ec5-4f79-a487-484937b2c68f"},"vehicle_type_id":"4","last_reported":1757917037,"current_range_meters":17600,"station_id":"ce4bgjp2rcd13ifvqbh0","pricing_plan_id":"cebpf4jnsgd1na2vs0mg"},{"bike_id":"351e2576-636b-4636-8314-cc54d67005ff","system_id":"levelo_inurba_marseille","lat":43.25831,"lon":5.39432,"is_reserved":false,"is_disabled":false,"rental_uris":{"android":"levelo://app?vid=351e2576-636b-4636-8314-cc54d67005ff","ios":"levelo://app?vid=351e2576-636b-4636-8314-cc54d67005ff"},"vehicle_type_id":"4","last_reported":1757917037,"current_range_meters":18000,"station_id":"ce4bhip2rcd13ifvqft0","pricing_plan_id":"cebpf4jnsgd1na2vs0mg"},{"bike_id":"31a1c14d-3694-463b-8ebc-21d04af297fd","system_id":"levelo_inurba_marseille","lat":43.2408,"lon":5.37745,"is_reserved":false,"is_disabled":false,"rental_uris":{"android":"levelo://app?vid=31a1c14d-3694-463b-8ebc-21d04af297fd","ios":"levelo://app?vid=31a1c14d-3694-463b-8ebc-21d04af297fd"},"vehicle_type_id":"4","last_reported":1757917037,"current_range_meters":18000,"station_id":"ce4bhnp2rcd13ifvqgvg","pricing_plan_id":"cebpf4jnsgd1na2vs0mg"},{"bike_id":"a33cf4c6-054f-4a1b-8f82-8fc5a7d7e84b","system_id":"levelo_inurba_marseille","lat":43.29042,"lon":5.39977,"is_reserved":false,"is_disabled":false,"rental_uris":{"android":"levelo://app?vid=a33cf4c6-054f-4a1b-8f82-8fc5a7d7e84b","ios":"levelo://app?vid=a33cf4c6-054f-4a1b-8f82-8fc5a7d7e84b"},"vehicle_type_id":"4","last_reported":1757917037,"current_range_meters":18000,"station_id":"ce4bh392rcd13ifvqdm0","pricing_plan_id":"cebpf4jnsgd1na2vs0mg"},{"bike_id":"5aca074f-2e5b-40e8-a6ad-d2d31ffd9126","system_id":"levelo_inurba_marseille","lat":43.2494,"lon":5.40489,"is_reserved":false,"is_disabled":false,"rental_uris":{"android":"levelo://app?vid=5aca074f-2e5b-40e8-a6ad-d2d31ffd9126","ios":"levelo://app?vid=5aca074f-2e5b-40e8-a6ad-d2d31ffd9126"},"vehicle_type_id":"4","last_reported":1757917037,"current_range_meters":18000,"station_id":"st_d2ngiaodas8pm72gd1h0","pricing_plan_id":"cebpf4jnsgd1na2vs0mg"},{"bike_id":"835dbb8f-4d38-4f52-89b0-919a18c896cb","system_id":"levelo_inurba_marseille","lat":43.278224,"lon":5.407177,"is_reserved":false,"is_disabled":false,"rental_uris":{"android":"levelo://app?vid=835dbb8f-4d38-4f52-89b0-919a18c896cb","ios":"levelo://app?vid=835dbb8f-4d38-4f52-89b0-919a18c896cb"},"vehicle_type_id":"4","last_reported":1757917037,"current_range_meters":18000,"station_id":"ce4bhnh2rcd13ifvqgtg","pricing_plan_id":"cebpf4jnsgd1na2vs0mg"},{"bike_id":"baf45901-5a4f-40a7-b5b8-eeff639292e9","system_id":"levelo_inurba_marseille","lat":43.28392,"lon":5.37548,"is_reserved":false,"is_disabled":false,"rental_uris":{"android":"levelo://app?vid=baf45901-5a4f-40a7-b5b8-eeff639292e9","ios":"levelo://app?vid=baf45901-5a4f-40a7-b5b8-eeff639292e9"},"vehicle_type_id":"4","last_reported":1757917037,"current_range_meters":18000,"station_id":"ce4bh412rcd13ifvqds0","pricing_plan_id":"cebpf4jnsgd1na2vs0mg"},{"bike_id":"14f45893-fc75-454f-9431-d1fe4a0c7563","system_id":"levelo_inurba_marseille","lat":43.25857,"lon":5.39936,"is_reserved":false,"is_disabled":false,"rental_uris":{"android":"levelo://app?vid=14f45893-fc75-454f-9431-d1fe4a0c7563","ios":"levelo://app?vid=14f45893-fc75-454f-9431-d1fe4a0c7563"},"vehicle_type_id":"4","last_reported":1757917037,"current_range_meters":18000,"station_id":"ce4bhl92rcd13ifvqghg","pricing_plan_id":"cebpf4jnsgd1na2vs0mg"},{"bike_id":"12db6b29-1796-490e-af4f-badb1dcb7a74","system_id":"levelo_inurba_marseille","lat":43.30226,"lon":5.39494,"is_reserved":false,"is_disabled":false,"rental_uris":{"android":"levelo://app?vid=12db6b29-1796-490e-af4f-badb1dcb7a74","ios":"levelo://app?vid=12db6b29-1796-490e-af4f-badb1dcb7a74"},"vehicle_type_id":"4","last_reported":1757917037,"current_range_meters":18000,"station_id":"ce4bh0p2rcd13ifvqd70","pricing_plan_id":"cebpf4jnsgd1na2vs0mg"},{"bike_id":"9b5b67f8-d116-4fe3-9642-019ff1e8548f","system_id":"levelo_inurba_marseille","lat":43.28154,"lon":5.42644,"is_reserved":false,"is_disabled":false,"rental_uris":{"android":"levelo://app?vid=9b5b67f8-d116-4fe3-9642-019ff1e8548f","ios":"levelo://app?vid=9b5b67f8-d116-4fe3-9642-019ff1e8548f"},"vehicle_type_id":"4","last_reported":1757917037,"current_range_meters":18000,"station_id":"ce4bhnh2rcd13ifvqgug","pricing_plan_id":"cebpf4jnsgd1na2vs0mg"},{"bike_id":"f10a4125-ea58-4e63-b38e-ac18ed551e3a","system_id":"levelo_inurba_marseille","lat":43.31044,"lon":5.40036,"is_reserved":false,"is_disabled":true,"rental_uris":{"android":"levelo://app?vid=f10a4125-ea58-4e63-b38e-ac18ed551e3a","ios":"levelo://app?vid=f10a4125-ea58-4e63-b38e-ac18ed551e3a"},"vehicle_type_id":"4","last_reported":1757917037,"current_range_meters":18800,"station_id":"","pricing_plan_id":"cebpf4jnsgd1na2vs0mg"},{"bike_id":"63584e28-b3a5-4c16-b833-94772c5e6d88","system_id":"levelo_inurba_marseille","lat":43.24075,"lon":5.37764,"is_reserved":false,"is_disabled":false,"rental_uris":{"android":"levelo://app?vid=63584e28-b3a5-4c16-b833-94772c5e6d88","ios":"levelo://app?vid=63584e28-b3a5-4c16-b833-94772c5e6d88"},"vehicle_type_id":"4","last_reported":1757917037,"current_range_meters":18800,"station_id":"ce4bhnp2rcd13ifvqgvg","pricing_plan_id":"cebpf4jnsgd1na2vs0mg"},{"bike_id":"63029f11-375d-4d68-901b-d47425656a1c","system_id":"levelo_inurba_marseille","lat":43.31084,"lon":5.42424,"is_reserved":false,"is_disabled":false,"rental_uris":{"android":"levelo://app?vid=63029f11-375d-4d68-901b-d47425656a1c","ios":"levelo://app?vid=63029f11-375d-4d68-901b-d47425656a1c"},"vehicle_type_id":"4","last_reported":1757917037,"current_range_meters":18800,"station_id":"ce4bhp92rcd13ifvqhag","pricing_plan_id":"cebpf4jnsgd1na2vs0mg"},{"bike_id":"96ee9b57-cff5-4252-a08f-6a37cf344cd3","system_id":"levelo_inurba_marseille","lat":43.2707,"lon":5.42285,"is_reserved":false,"is_disabled":false,"rental_uris":{"android":"levelo://app?vid=96ee9b57-cff5-4252-a08f-6a37cf344cd3","ios":"levelo://app?vid=96ee9b57-cff5-4252-a08f-6a37cf344cd3"},"vehicle_type_id":"4","last_reported":1757917037,"current_range_meters":18800,"station_id":"ce4bhk92rcd13ifvqgb0","pricing_plan_id":"cebpf4jnsgd1na2vs0mg"},{"bike_id":"223f56a2-a417-4446-ad31-9a4ed45de01c","system_id":"levelo_inurba_marseille","lat":43.2408,"lon":5.37767,"is_reserved":false,"is_disabled":false,"rental_uris":{"android":"levelo://app?vid=223f56a2-a417-4446-ad31-9a4ed45de01c","ios":"levelo://app?vid=223f56a2-a417-4446-ad31-9a4ed45de01c"},"vehicle_type_id":"4","last_reported":1757917037,"current_range_meters":18800,"station_id":"ce4bhnp2rcd13ifvqgvg","pricing_plan_id":"cebpf4jnsgd1na2vs0mg"},{"bike_id":"3382229d-00c9-4f32-914e-37271c34598d","system_id":"levelo_inurba_marseille","lat":43.28052,"lon":5.39669,"is_reserved":false,"is_disabled":true,"rental_uris":{"android":"levelo://app?vid=3382229d-00c9-4f32-914e-37271c34598d","ios":"levelo://app?vid=3382229d-00c9-4f32-914e-37271c34598d"},"vehicle_type_id":"4","last_reported":1757917037,"current_range_meters":18800,"station_id":"ce4bho12rcd13ifvqh2g","pricing_plan_id":"cebpf4jnsgd1na2vs0mg"},{"bike_id":"e5578828-2e56-4d4b-a948-97d6aa0533bb","system_id":"levelo_inurba_marseille","lat":43.27496,"lon":5.4245,"is_reserved":false,"is_disabled":false,"rental_uris":{"android":"levelo://app?vid=e5578828-2e56-4d4b-a948-97d6aa0533bb","ios":"levelo://app?vid=e5578828-2e56-4d4b-a948-97d6aa0533bb"},"vehicle_type_id":"4","last_reported":1757917037,"current_range_meters":18800,"station_id":"ce4bhn92rcd13ifvqgrg","pricing_plan_id":"cebpf4jnsgd1na2vs0mg"},{"bike_id":"03338e2c-be5d-4d95-8ac0-fa37a8666c4e","system_id":"levelo_inurba_marseille","lat":43.24962,"lon":5.40491,"is_reserved":false,"is_disabled":false,"rental_uris":{"android":"levelo://app?vid=03338e2c-be5d-4d95-8ac0-fa37a8666c4e","ios":"levelo://app?vid=03338e2c-be5d-4d95-8ac0-fa37a8666c4e"},"vehicle_type_id":"4","last_reported":1757917037,"current_range_meters":18800,"station_id":"st_d2ngiaodas8pm72gd1h0","pricing_plan_id":"cebpf4jnsgd1na2vs0mg"},{"bike_id":"d076778c-1c4b-4d1d-a7f9-3fd721dc9e6d","system_id":"levelo_inurba_marseille","lat":43.27494,"lon":5.42454,"is_reserved":false,"is_disabled":false,"rental_uris":{"android":"levelo://app?vid=d076778c-1c4b-4d1d-a7f9-3fd721dc9e6d","ios":"levelo://app?vid=d076778c-1c4b-4d1d-a7f9-3fd721dc9e6d"},"vehicle_type_id":"4","last_reported":1757917037,"current_range_meters":19200,"station_id":"ce4bhn92rcd13ifvqgrg","pricing_plan_id":"cebpf4jnsgd1na2vs0mg"},{"bike_id":"e13e62e8-3a7e-466e-8046-cf1228c671f6","system_id":"levelo_inurba_marseille","lat":43.30455,"lon":5.3791,"is_reserved":false,"is_disabled":false,"rental_uris":{"android":"levelo://app?vid=e13e62e8-3a7e-466e-8046-cf1228c671f6","ios":"levelo://app?vid=e13e62e8-3a7e-466e-8046-cf1228c671f6"},"vehicle_type_id":"4","last_reported":1757917037,"current_range_meters":19200,"station_id":"ce4bgup2rcd13ifvqcn0","pricing_plan_id":"cebpf4jnsgd1na2vs0mg"},{"bike_id":"91cbc8ec-2e20-4c19-a9fe-601e83363aa2","system_id":"levelo_inurba_marseille","lat":43.2894,"lon":5.36643,"is_reserved":false,"is_disabled":false,"rental_uris":{"android":"levelo://app?vid=91cbc8ec-2e20-4c19-a9fe-601e83363aa2","ios":"levelo://app?vid=91cbc8ec-2e20-4c19-a9fe-601e83363aa2"},"vehicle_type_id":"4","last_reported":1757917037,"current_range_meters":19200,"station_id":"ce4bhap2rcd13ifvqek0","pricing_plan_id":"cebpf4jnsgd1na2vs0mg"},{"bike_id":"700701dd-7035-4990-b824-ef6060427efb","system_id":"levelo_inurba_marseille","lat":43.2961,"lon":5.38092,"is_reserved":false,"is_disabled":false,"rental_uris":{"android":"levelo://app?vid=700701dd-7035-4990-b824-ef6060427efb","ios":"levelo://app?vid=700701dd-7035-4990-b824-ef6060427efb"},"vehicle_type_id":"4","last_reported":1757917037,"current_range_meters":19200,"station_id":"ce4bgl12rcd13ifvqbo0","pricing_plan_id":"cebpf4jnsgd1na2vs0mg"},{"bike_id":"e73470b2-f46f-4f87-989f-53f8372e4317","system_id":"levelo_inurba_marseille","lat":43.338962,"lon":5.391734,"is_reserved":false,"is_disabled":false,"rental_uris":{"android":"levelo://app?vid=e73470b2-f46f-4f87-989f-53f8372e4317","ios":"levelo://app?vid=e73470b2-f46f-4f87-989f-53f8372e4317"},"vehicle_type_id":"4","last_reported":1757917037,"current_range_meters":19200,"station_id":"","pricing_plan_id":"cebpf4jnsgd1na2vs0mg"},{"bike_id":"5edcf14d-f18f-420c-a088-16abf1347efe","system_id":"levelo_inurba_marseille","lat":43.27499,"lon":5.42449,"is_reserved":false,"is_disabled":false,"rental_uris":{"android":"levelo://app?vid=5edcf14d-f18f-420c-a088-16abf1347efe","ios":"levelo://app?vid=5edcf14d-f18f-420c-a088-16abf1347efe"},"vehicle_type_id":"4","last_reported":1757917037,"current_range_meters":19200,"station_id":"ce4bhn92rcd13ifvqgrg","pricing_plan_id":"cebpf4jnsgd1na2vs0mg"},{"bike_id":"b6cd4e13-873f-4280-a440-453934a825d2","system_id":"levelo_inurba_marseille","lat":43.24082,"lon":5.37753,"is_reserved":false,"is_disabled":false,"rental_uris":{"android":"levelo://app?vid=b6cd4e13-873f-4280-a440-453934a825d2","ios":"levelo://app?vid=b6cd4e13-873f-4280-a440-453934a825d2"},"vehicle_type_id":"4","last_reported":1757917037,"current_range_meters":19600,"station_id":"ce4bhnp2rcd13ifvqgvg","pricing_plan_id":"cebpf4jnsgd1na2vs0mg"},{"bike_id":"1469b147-3fb1-45b5-b6c4-6c96ab8bb677","system_id":"levelo_inurba_marseille","lat":43.31516,"lon":5.37328,"is_reserved":false,"is_disabled":false,"rental_uris":{"android":"levelo://app?vid=1469b147-3fb1-45b5-b6c4-6c96ab8bb677","ios":"levelo://app?vid=1469b147-3fb1-45b5-b6c4-6c96ab8bb677"},"vehicle_type_id":"4","last_reported":1757917037,"current_range_meters":19600,"station_id":"ce4bgt12rcd13ifvqcd0","pricing_plan_id":"cebpf4jnsgd1na2vs0mg"},{"bike_id":"4fd1c216-e4cd-40d4-bac5-bd7a225b3c2e","system_id":"levelo_inurba_marseille","lat":43.29097,"lon":5.38323,"is_reserved":false,"is_disabled":false,"rental_uris":{"android":"levelo://app?vid=4fd1c216-e4cd-40d4-bac5-bd7a225b3c2e","ios":"levelo://app?vid=4fd1c216-e4cd-40d4-bac5-bd7a225b3c2e"},"vehicle_type_id":"4","last_reported":1757917037,"current_range_meters":19600,"station_id":"","pricing_plan_id":"cebpf4jnsgd1na2vs0mg"},{"bike_id":"bb33f6b0-57b6-4188-b675-42518d372c3b","system_id":"levelo_inurba_marseille","lat":43.30513,"lon":5.36536,"is_reserved":false,"is_disabled":false,"rental_uris":{"android":"levelo://app?vid=bb33f6b0-57b6-4188-b675-42518d372c3b","ios":"levelo://app?vid=bb33f6b0-57b6-4188-b675-42518d372c3b"},"vehicle_type_id":"4","last_reported":1757917037,"current_range_meters":19200,"station_id":"ce4bgs12rcd13ifvqcag","pricing_plan_id":"cebpf4jnsgd1na2vs0mg"},{"bike_id":"a2207526-f478-4f65-85e4-9a97cdcd57f3","system_id":"levelo_inurba_marseille","lat":43.27501,"lon":5.42446,"is_reserved":false,"is_disabled":false,"rental_uris":{"android":"levelo://app?vid=a2207526-f478-4f65-85e4-9a97cdcd57f3","ios":"levelo://app?vid=a2207526-f478-4f65-85e4-9a97cdcd57f3"},"vehicle_type_id":"4","last_reported":1757917037,"current_range_meters":19600,"station_id":"ce4bhn92rcd13ifvqgrg","pricing_plan_id":"cebpf4jnsgd1na2vs0mg"},{"bike_id":"79bdd8e5-49c4-4a23-9c8b-d2d9152ad244","system_id":"levelo_inurba_marseille","lat":43.31304,"lon":5.38165,"is_reserved":false,"is_disabled":false,"rental_uris":{"android":"levelo://app?vid=79bdd8e5-49c4-4a23-9c8b-d2d9152ad244","ios":"levelo://app?vid=79bdd8e5-49c4-4a23-9c8b-d2d9152ad244"},"vehicle_type_id":"4","last_reported":1757917037,"current_range_meters":19600,"station_id":"","pricing_plan_id":"cebpf4jnsgd1na2vs0mg"},{"bike_id":"a99076be-7bb8-4e0f-a330-e47b32cc797a","system_id":"levelo_inurba_marseille","lat":43.2922,"lon":5.36075,"is_reserved":false,"is_disabled":true,"rental_uris":{"android":"levelo://app?vid=a99076be-7bb8-4e0f-a330-e47b32cc797a","ios":"levelo://app?vid=a99076be-7bb8-4e0f-a330-e47b32cc797a"},"vehicle_type_id":"4","last_reported":1757917037,"current_range_meters":19600,"station_id":"ce4bhbh2rcd13ifvqeqg","pricing_plan_id":"cebpf4jnsgd1na2vs0mg"},{"bike_id":"c808c90a-3500-424d-b528-6fd7c8c5380c","system_id":"levelo_inurba_marseille","lat":43.28674,"lon":5.3866,"is_reserved":false,"is_disabled":true,"rental_uris":{"android":"levelo://app?vid=c808c90a-3500-424d-b528-6fd7c8c5380c","ios":"levelo://app?vid=c808c90a-3500-424d-b528-6fd7c8c5380c"},"vehicle_type_id":"4","last_reported":1757917037,"current_range_meters":19600,"station_id":"ce4bh492rcd13ifvqdug","pricing_plan_id":"cebpf4jnsgd1na2vs0mg"},{"bike_id":"6f42539a-96af-4075-90a6-b34c7d3fb443","system_id":"levelo_inurba_marseille","lat":43.246452,"lon":5.388908,"is_reserved":false,"is_disabled":false,"rental_uris":{"android":"levelo://app?vid=6f42539a-96af-4075-90a6-b34c7d3fb443","ios":"levelo://app?vid=6f42539a-96af-4075-90a6-b34c7d3fb443"},"vehicle_type_id":"4","last_reported":1757917037,"current_range_meters":19600,"station_id":"ce4bhg12rcd13ifvqf60","pricing_plan_id":"cebpf4jnsgd1na2vs0mg"},{"bike_id":"869a8bf4-e0da-49a7-86f5-f87b65352187","system_id":"levelo_inurba_marseille","lat":43.28935,"lon":5.36641,"is_reserved":false,"is_disabled":false,"rental_uris":{"android":"levelo://app?vid=869a8bf4-e0da-49a7-86f5-f87b65352187","ios":"levelo://app?vid=869a8bf4-e0da-49a7-86f5-f87b65352187"},"vehicle_type_id":"4","last_reported":1757917037,"current_range_meters":19600,"station_id":"ce4bhap2rcd13ifvqek0","pricing_plan_id":"cebpf4jnsgd1na2vs0mg"},{"bike_id":"7401f904-c7a5-4420-9a38-b32c76084c39","system_id":"levelo_inurba_marseille","lat":43.28268,"lon":5.35079,"is_reserved":false,"is_disabled":true,"rental_uris":{"android":"levelo://app?vid=7401f904-c7a5-4420-9a38-b32c76084c39","ios":"levelo://app?vid=7401f904-c7a5-4420-9a38-b32c76084c39"},"vehicle_type_id":"4","last_reported":1757917037,"current_range_meters":19600,"station_id":"ce4bhbp2rcd13ifvqerg","pricing_plan_id":"cebpf4jnsgd1na2vs0mg"},{"bike_id":"3b26aa0d-3679-4b4c-9b55-1096f6d08a9d","system_id":"levelo_inurba_marseille","lat":43.313,"lon":5.39377,"is_reserved":false,"is_disabled":false,"rental_uris":{"android":"levelo://app?vid=3b26aa0d-3679-4b4c-9b55-1096f6d08a9d","ios":"levelo://app?vid=3b26aa0d-3679-4b4c-9b55-1096f6d08a9d"},