{"last_updated":1748473824,"ttl":60,"version":"2.2","data":{"bikes":[{"bike_id":"55d42eeb-6b71-4987-a0f2-3d758b10d43e","system_id":"levelo_inurba_marseille","lat":43.33771,"lon":5.37424,"is_reserved":false,"is_disabled":true,"rental_uris":{"android":"levelo://app?vid=55d42eeb-6b71-4987-a0f2-3d758b10d43e","ios":"levelo://app?vid=55d42eeb-6b71-4987-a0f2-3d758b10d43e"},"vehicle_type_id":"4","last_reported":1748473824,"current_range_meters":0,"station_id":"","pricing_plan_id":"cebpf4jnsgd1na2vs0mg"},{"bike_id":"7f4b6069-304f-4d75-a8b9-d3db83a055ca","system_id":"levelo_inurba_marseille","lat":43.2175,"lon":5.34603,"is_reserved":false,"is_disabled":true,"rental_uris":{"android":"levelo://app?vid=7f4b6069-304f-4d75-a8b9-d3db83a055ca","ios":"levelo://app?vid=7f4b6069-304f-4d75-a8b9-d3db83a055ca"},"vehicle_type_id":"4","last_reported":1748473824,"current_range_meters":0,"station_id":"","pricing_plan_id":"cebpf4jnsgd1na2vs0mg"},{"bike_id":"b7fe4621-b706-42f0-9085-4811142f84e8","system_id":"levelo_inurba_marseille","lat":43.337499,"lon":5.374469,"is_reserved":false,"is_disabled":true,"rental_uris":{"android":"levelo://app?vid=b7fe4621-b706-42f0-9085-4811142f84e8","ios":"levelo://app?vid=b7fe4621-b706-42f0-9085-4811142f84e8"},"vehicle_type_id":"4","last_reported":1748473824,"current_range_meters":0,"station_id":"","pricing_plan_id":"cebpf4jnsgd1na2vs0mg"},{"bike_id":"ad402f0f-3192-410c-afac-8cf064a40c6d","system_id":"levelo_inurba_marseille","lat":43.337444,"lon":5.374475,"is_reserved":false,"is_disabled":true,"rental_uris":{"android":"levelo://app?vid=ad402f0f-3192-410c-afac-8cf064a40c6d","ios":"levelo://app?vid=ad402f0f-3192-410c-afac-8cf064a40c6d"},"vehicle_type_id":"4","last_reported":1748473824,"current_range_meters":0,"station_id":"","pricing_plan_id":"cebpf4jnsgd1na2vs0mg"},{"bike_id":"80dc1064-d63f-4a22-ad21-d8abd70986c0","system_id":"levelo_inurba_marseille","lat":43.33769,"lon":5.374719,"is_reserved":false,"is_disabled":true,"rental_uris":{"android":"levelo://app?vid=80dc1064-d63f-4a22-ad21-d8abd70986c0","ios":"levelo://app?vid=80dc1064-d63f-4a22-ad21-d8abd70986c0"},"vehicle_type_id":"4","last_reported":1748473824,"current_range_meters":0,"station_id":"","pricing_plan_id":"cebpf4jnsgd1na2vs0mg"},{"bike_id":"2fd7e160-685c-4858-b57b-dcaef27a8e94","system_id":"levelo_inurba_marseille","lat":43.230331,"lon":5.401847,"is_reserved":false,"is_disabled":true,"rental_uris":{"android":"levelo://app?vid=2fd7e160-685c-4858-b57b-dcaef27a8e94","ios":"levelo://app?vid=2fd7e160-685c-4858-b57b-dcaef27a8e94"},"vehicle_type_id":"4","last_reported":1748473824,"current_range_meters":0,"station_id":"","pricing_plan_id":"cebpf4jnsgd1na2vs0mg"},{"bike_id":"27b96979-03e5-473a-be2c-8db95383c387","system_id":"levelo_inurba_marseille","lat":43.27374,"lon":5.36252,"is_reserved":false,"is_disabled":true,"rental_uris":{"android":"levelo://app?vid=27b96979-03e5-473a-be2c-8db95383c387","ios":"levelo://app?vid=27b96979-03e5-473a-be2c-8db95383c387"},"vehicle_type_id":"4","last_reported":1748473824,"current_range_meters":0,"station_id":"ce4bhbh2rcd13ifvqeo0","pricing_plan_id":"cebpf4jnsgd1na2vs0mg"},{"bike_id":"09e5fca8-749e-4e37-86fe-12b1a295b5fa","system_id":"levelo_inurba_marseille","lat":43.27372,"lon":5.36255,"is_reserved":false,"is_disabled":true,"rental_uris":{"android":"levelo://app?vid=09e5fca8-749e-4e37-86fe-12b1a295b5fa","ios":"levelo://app?vid=09e5fca8-749e-4e37-86fe-12b1a295b5fa"},"vehicle_type_id":"4","last_reported":1748473824,"current_range_meters":0,"station_id":"ce4bhbh2rcd13ifvqeo0","pricing_plan_id":"cebpf4jnsgd1na2vs0mg"},{"bike_id":"e73357c5-67ed-4075-84be-4246c5fbde4a","system_id":"levelo_inurba_marseille","lat":43.23077,"lon":5.4372,"is_reserved":false,"is_disabled":true,"rental_uris":{"android":"levelo://app?vid=e73357c5-67ed-4075-84be-4246c5fbde4a","ios":"levelo://app?vid=e73357c5-67ed-4075-84be-4246c5fbde4a"},"vehicle_type_id":"4","last_reported":1748473824,"current_range_meters":0,"station_id":"ce4bhmp2rcd13ifvqgog","pricing_plan_id":"cebpf4jnsgd1na2vs0mg"},{"bike_id":"8a08e02a-b4ba-4d84-af0c-9b3d06cae183","system_id":"levelo_inurba_marseille","lat":43.27819,"lon":5.39198,"is_reserved":false,"is_disabled":true,"rental_uris":{"android":"levelo://app?vid=8a08e02a-b4ba-4d84-af0c-9b3d06cae183","ios":"levelo://app?vid=8a08e02a-b4ba-4d84-af0c-9b3d06cae183"},"vehicle_type_id":"4","last_reported":1748473824,"current_range_meters":400,"station_id":"ce4bhjp2rcd13ifvqga0","pricing_plan_id":"cebpf4jnsgd1na2vs0mg"},{"bike_id":"5aefb386-e416-4906-998c-ff23207edc6c","system_id":"levelo_inurba_marseille","lat":43.21738,"lon":5.34611,"is_reserved":false,"is_disabled":true,"rental_uris":{"android":"levelo://app?vid=5aefb386-e416-4906-998c-ff23207edc6c","ios":"levelo://app?vid=5aefb386-e416-4906-998c-ff23207edc6c"},"vehicle_type_id":"4","last_reported":1748473824,"current_range_meters":400,"station_id":"st_cvj6r9ubvosntc0bgbag","pricing_plan_id":"cebpf4jnsgd1na2vs0mg"},{"bike_id":"d3bf3c55-5769-4b15-9eb1-28f17ada09fd","system_id":"levelo_inurba_marseille","lat":43.32134,"lon":5.38764,"is_reserved":false,"is_disabled":true,"rental_uris":{"android":"levelo://app?vid=d3bf3c55-5769-4b15-9eb1-28f17ada09fd","ios":"levelo://app?vid=d3bf3c55-5769-4b15-9eb1-28f17ada09fd"},"vehicle_type_id":"4","last_reported":1748473824,"current_range_meters":800,"station_id":"","pricing_plan_id":"cebpf4jnsgd1na2vs0mg"},{"bike_id":"2be24aa1-6951-46cb-af14-12526f40824a","system_id":"levelo_inurba_marseille","lat":43.2737,"lon":5.36253,"is_reserved":false,"is_disabled":true,"rental_uris":{"android":"levelo://app?vid=2be24aa1-6951-46cb-af14-12526f40824a","ios":"levelo://app?vid=2be24aa1-6951-46cb-af14-12526f40824a"},"vehicle_type_id":"4","last_reported":1748473824,"current_range_meters":800,"station_id":"ce4bhbh2rcd13ifvqeo0","pricing_plan_id":"cebpf4jnsgd1na2vs0mg"},{"bike_id":"1be25f1a-182d-41f2-8d4f-cf02fa7aa93b","system_id":"levelo_inurba_marseille","lat":43.28135,"lon":5.42644,"is_reserved":false,"is_disabled":true,"rental_uris":{"android":"levelo://app?vid=1be25f1a-182d-41f2-8d4f-cf02fa7aa93b","ios":"levelo://app?vid=1be25f1a-182d-41f2-8d4f-cf02fa7aa93b"},"vehicle_type_id":"4","last_reported":1748473824,"current_range_meters":800,"station_id":"ce4bhnh2rcd13ifvqgug","pricing_plan_id":"cebpf4jnsgd1na2vs0mg"},{"bike_id":"6a96fe31-1583-4b2f-bfe4-01b095d63149","system_id":"levelo_inurba_marseille","lat":43.29412,"lon":5.38638,"is_reserved":false,"is_disabled":true,"rental_uris":{"android":"levelo://app?vid=6a96fe31-1583-4b2f-bfe4-01b095d63149","ios":"levelo://app?vid=6a96fe31-1583-4b2f-bfe4-01b095d63149"},"vehicle_type_id":"4","last_reported":1748473824,"current_range_meters":1200,"station_id":"ce4bh2h2rcd13ifvqdh0","pricing_plan_id":"cebpf4jnsgd1na2vs0mg"},{"bike_id":"8d52bfdd-c454-47de-ae68-b66ef1923712","system_id":"levelo_inurba_marseille","lat":43.28073,"lon":5.39656,"is_reserved":false,"is_disabled":true,"rental_uris":{"android":"levelo://app?vid=8d52bfdd-c454-47de-ae68-b66ef1923712","ios":"levelo://app?vid=8d52bfdd-c454-47de-ae68-b66ef1923712"},"vehicle_type_id":"4","last_reported":1748473824,"current_range_meters":1200,"station_id":"ce4bho12rcd13ifvqh2g","pricing_plan_id":"cebpf4jnsgd1na2vs0mg"},{"bike_id":"443004d0-5e76-4011-aa1d-e28b9d37d601","system_id":"levelo_inurba_marseille","lat":43.315918,"lon":5.369053,"is_reserved":false,"is_disabled":true,"rental_uris":{"android":"levelo://app?vid=443004d0-5e76-4011-aa1d-e28b9d37d601","ios":"levelo://app?vid=443004d0-5e76-4011-aa1d-e28b9d37d601"},"vehicle_type_id":"4","last_reported":1748473824,"current_range_meters":1600,"station_id":"","pricing_plan_id":"cebpf4jnsgd1na2vs0mg"},{"bike_id":"aa5a116c-20ee-49d1-bdab-563e368f7b99","system_id":"levelo_inurba_marseille","lat":43.29968,"lon":5.41329,"is_reserved":false,"is_disabled":true,"rental_uris":{"android":"levelo://app?vid=aa5a116c-20ee-49d1-bdab-563e368f7b99","ios":"levelo://app?vid=aa5a116c-20ee-49d1-bdab-563e368f7b99"},"vehicle_type_id":"4","last_reported":1748473824,"current_range_meters":1600,"station_id":"ce4bhp12rcd13ifvqh9g","pricing_plan_id":"cebpf4jnsgd1na2vs0mg"},{"bike_id":"f4c45e95-54cf-46e5-83c5-d89c27c9a69c","system_id":"levelo_inurba_marseille","lat":43.27306,"lon":5.41576,"is_reserved":false,"is_disabled":true,"rental_uris":{"android":"levelo://app?vid=f4c45e95-54cf-46e5-83c5-d89c27c9a69c","ios":"levelo://app?vid=f4c45e95-54cf-46e5-83c5-d89c27c9a69c"},"vehicle_type_id":"4","last_reported":1748473824,"current_range_meters":2000,"station_id":"","pricing_plan_id":"cebpf4jnsgd1na2vs0mg"},{"bike_id":"28ff8119-567a-44cd-af99-45734fe24e76","system_id":"levelo_inurba_marseille","lat":43.29038,"lon":5.39958,"is_reserved":false,"is_disabled":true,"rental_uris":{"android":"levelo://app?vid=28ff8119-567a-44cd-af99-45734fe24e76","ios":"levelo://app?vid=28ff8119-567a-44cd-af99-45734fe24e76"},"vehicle_type_id":"4","last_reported":1748473824,"current_range_meters":2000,"station_id":"ce4bh392rcd13ifvqdm0","pricing_plan_id":"cebpf4jnsgd1na2vs0mg"},{"bike_id":"7f13d61d-3487-4707-9892-0bf6a0918e7f","system_id":"levelo_inurba_marseille","lat":43.288405,"lon":5.393195,"is_reserved":false,"is_disabled":false,"rental_uris":{"android":"levelo://app?vid=7f13d61d-3487-4707-9892-0bf6a0918e7f","ios":"levelo://app?vid=7f13d61d-3487-4707-9892-0bf6a0918e7f"},"vehicle_type_id":"4","last_reported":1748473824,"current_range_meters":2800,"station_id":"ce4bh2p2rcd13ifvqdi0","pricing_plan_id":"cebpf4jnsgd1na2vs0mg"},{"bike_id":"4be37669-ff83-4c05-94a7-d4c25f138dbd","system_id":"levelo_inurba_marseille","lat":43.295247,"lon":5.39042,"is_reserved":false,"is_disabled":false,"rental_uris":{"android":"levelo://app?vid=4be37669-ff83-4c05-94a7-d4c25f138dbd","ios":"levelo://app?vid=4be37669-ff83-4c05-94a7-d4c25f138dbd"},"vehicle_type_id":"4","last_reported":1748473824,"current_range_meters":2800,"station_id":"ce4bh3p2rcd13ifvqdp0","pricing_plan_id":"cebpf4jnsgd1na2vs0mg"},{"bike_id":"3619bc50-34e1-46a8-bfd9-5bc3ccdb8275","system_id":"levelo_inurba_marseille","lat":43.30594,"lon":5.37215,"is_reserved":false,"is_disabled":false,"rental_uris":{"android":"levelo://app?vid=3619bc50-34e1-46a8-bfd9-5bc3ccdb8275","ios":"levelo://app?vid=3619bc50-34e1-46a8-bfd9-5bc3ccdb8275"},"vehicle_type_id":"4","last_reported":1748473824,"current_range_meters":3600,"station_id":"ce4bgqh2rcd13ifvqc4g","pricing_plan_id":"cebpf4jnsgd1na2vs0mg"},{"bike_id":"558d9206-c126-4f26-9716-f74f7712df7b","system_id":"levelo_inurba_marseille","lat":43.30209,"lon":5.39464,"is_reserved":false,"is_disabled":false,"rental_uris":{"android":"levelo://app?vid=558d9206-c126-4f26-9716-f74f7712df7b","ios":"levelo://app?vid=558d9206-c126-4f26-9716-f74f7712df7b"},"vehicle_type_id":"4","last_reported":1748473824,"current_range_meters":3600,"station_id":"ce4bh0p2rcd13ifvqd70","pricing_plan_id":"cebpf4jnsgd1na2vs0mg"},{"bike_id":"831ca35f-e4b8-48b9-9590-7a5af245ba54","system_id":"levelo_inurba_marseille","lat":43.27914,"lon":5.39576,"is_reserved":false,"is_disabled":false,"rental_uris":{"android":"levelo://app?vid=831ca35f-e4b8-48b9-9590-7a5af245ba54","ios":"levelo://app?vid=831ca35f-e4b8-48b9-9590-7a5af245ba54"},"vehicle_type_id":"4","last_reported":1748473824,"current_range_meters":3600,"station_id":"ce4bhf92rcd13ifvqf40","pricing_plan_id":"cebpf4jnsgd1na2vs0mg"},{"bike_id":"1d3ea032-e25d-4521-bb08-01e5a1cd90ae","system_id":"levelo_inurba_marseille","lat":43.27069,"lon":5.42277,"is_reserved":false,"is_disabled":false,"rental_uris":{"android":"levelo://app?vid=1d3ea032-e25d-4521-bb08-01e5a1cd90ae","ios":"levelo://app?vid=1d3ea032-e25d-4521-bb08-01e5a1cd90ae"},"vehicle_type_id":"4","last_reported":1748473824,"current_range_meters":3600,"station_id":"ce4bhk92rcd13ifvqgb0","pricing_plan_id":"cebpf4jnsgd1na2vs0mg"},{"bike_id":"677239f9-f924-46d2-84f6-5f061d6df066","system_id":"levelo_inurba_marseille","lat":43.30578,"lon":5.37461,"is_reserved":false,"is_disabled":false,"rental_uris":{"android":"levelo://app?vid=677239f9-f924-46d2-84f6-5f061d6df066","ios":"levelo://app?vid=677239f9-f924-46d2-84f6-5f061d6df066"},"vehicle_type_id":"4","last_reported":1748473824,"current_range_meters":4400,"station_id":"","pricing_plan_id":"cebpf4jnsgd1na2vs0mg"},{"bike_id":"eefbf0be-aede-4ce4-8e0c-8d5278212334","system_id":"levelo_inurba_marseille","lat":43.25113,"lon":5.40323,"is_reserved":false,"is_disabled":false,"rental_uris":{"android":"levelo://app?vid=eefbf0be-aede-4ce4-8e0c-8d5278212334","ios":"levelo://app?vid=eefbf0be-aede-4ce4-8e0c-8d5278212334"},"vehicle_type_id":"4","last_reported":1748473824,"current_range_meters":4400,"station_id":"ce4bhlh2rcd13ifvqgig","pricing_plan_id":"cebpf4jnsgd1na2vs0mg"},{"bike_id":"b0c02a6e-300b-4785-b325-3ab2af7e6e05","system_id":"levelo_inurba_marseille","lat":43.299697,"lon":5.371811,"is_reserved":false,"is_disabled":false,"rental_uris":{"android":"levelo://app?vid=b0c02a6e-300b-4785-b325-3ab2af7e6e05","ios":"levelo://app?vid=b0c02a6e-300b-4785-b325-3ab2af7e6e05"},"vehicle_type_id":"4","last_reported":1748473824,"current_range_meters":4800,"station_id":"ce4bgr92rcd13ifvqc7g","pricing_plan_id":"cebpf4jnsgd1na2vs0mg"},{"bike_id":"a5f90b1e-a09e-40ad-8d54-7442721c8689","system_id":"levelo_inurba_marseille","lat":43.24602,"lon":5.392348,"is_reserved":false,"is_disabled":false,"rental_uris":{"android":"levelo://app?vid=a5f90b1e-a09e-40ad-8d54-7442721c8689","ios":"levelo://app?vid=a5f90b1e-a09e-40ad-8d54-7442721c8689"},"vehicle_type_id":"4","last_reported":1748473824,"current_range_meters":5600,"station_id":"","pricing_plan_id":"cebpf4jnsgd1na2vs0mg"},{"bike_id":"85ab9e49-2de9-4c78-9df8-e03a0245b0f2","system_id":"levelo_inurba_marseille","lat":43.25355,"lon":5.39507,"is_reserved":false,"is_disabled":false,"rental_uris":{"android":"levelo://app?vid=85ab9e49-2de9-4c78-9df8-e03a0245b0f2","ios":"levelo://app?vid=85ab9e49-2de9-4c78-9df8-e03a0245b0f2"},"vehicle_type_id":"4","last_reported":1748473824,"current_range_meters":5600,"station_id":"","pricing_plan_id":"cebpf4jnsgd1na2vs0mg"},{"bike_id":"f08ad698-d33a-402b-b0cc-a6e3d0d8f118","system_id":"levelo_inurba_marseille","lat":43.3064,"lon":5.40067,"is_reserved":false,"is_disabled":false,"rental_uris":{"android":"levelo://app?vid=f08ad698-d33a-402b-b0cc-a6e3d0d8f118","ios":"levelo://app?vid=f08ad698-d33a-402b-b0cc-a6e3d0d8f118"},"vehicle_type_id":"4","last_reported":1748473824,"current_range_meters":5600,"station_id":"ce4bh112rcd13ifvqda0","pricing_plan_id":"cebpf4jnsgd1na2vs0mg"},{"bike_id":"40534855-b614-44f3-ad48-a461d75afc35","system_id":"levelo_inurba_marseille","lat":43.29275,"lon":5.40117,"is_reserved":false,"is_disabled":false,"rental_uris":{"android":"levelo://app?vid=40534855-b614-44f3-ad48-a461d75afc35","ios":"levelo://app?vid=40534855-b614-44f3-ad48-a461d75afc35"},"vehicle_type_id":"4","last_reported":1748473824,"current_range_meters":5600,"station_id":"ce4bh312rcd13ifvqdk0","pricing_plan_id":"cebpf4jnsgd1na2vs0mg"},{"bike_id":"ae26cb89-80d8-43a8-94bb-929d63f82635","system_id":"levelo_inurba_marseille","lat":43.268067,"lon":5.402635,"is_reserved":false,"is_disabled":false,"rental_uris":{"android":"levelo://app?vid=ae26cb89-80d8-43a8-94bb-929d63f82635","ios":"levelo://app?vid=ae26cb89-80d8-43a8-94bb-929d63f82635"},"vehicle_type_id":"4","last_reported":1748473824,"current_range_meters":5600,"station_id":"ce501612rcd8frsf0b60","pricing_plan_id":"cebpf4jnsgd1na2vs0mg"},{"bike_id":"6d2f49d4-4079-41f0-a189-90db2e417369","system_id":"levelo_inurba_marseille","lat":43.333438,"lon":5.400338,"is_reserved":false,"is_disabled":false,"rental_uris":{"android":"levelo://app?vid=6d2f49d4-4079-41f0-a189-90db2e417369","ios":"levelo://app?vid=6d2f49d4-4079-41f0-a189-90db2e417369"},"vehicle_type_id":"4","last_reported":1748473824,"current_range_meters":6000,"station_id":"","pricing_plan_id":"cebpf4jnsgd1na2vs0mg"},{"bike_id":"07865302-afc7-4623-acee-3c07d6ad7ea5","system_id":"levelo_inurba_marseille","lat":43.29572,"lon":5.39975,"is_reserved":false,"is_disabled":false,"rental_uris":{"android":"levelo://app?vid=07865302-afc7-4623-acee-3c07d6ad7ea5","ios":"levelo://app?vid=07865302-afc7-4623-acee-3c07d6ad7ea5"},"vehicle_type_id":"4","last_reported":1748473824,"current_range_meters":6000,"station_id":"ce4bh312rcd13ifvqdj0","pricing_plan_id":"cebpf4jnsgd1na2vs0mg"},{"bike_id":"0e298602-0967-4a15-8f4b-da3075b94a79","system_id":"levelo_inurba_marseille","lat":43.24756,"lon":5.37439,"is_reserved":false,"is_disabled":false,"rental_uris":{"android":"levelo://app?vid=0e298602-0967-4a15-8f4b-da3075b94a79","ios":"levelo://app?vid=0e298602-0967-4a15-8f4b-da3075b94a79"},"vehicle_type_id":"4","last_reported":1748473824,"current_range_meters":6000,"station_id":"ce4bhgh2rcd13ifvqfb0","pricing_plan_id":"cebpf4jnsgd1na2vs0mg"},{"bike_id":"e662cfdf-7308-445f-8e14-4d33034d33f2","system_id":"levelo_inurba_marseille","lat":43.2511,"lon":5.40322,"is_reserved":false,"is_disabled":false,"rental_uris":{"android":"levelo://app?vid=e662cfdf-7308-445f-8e14-4d33034d33f2","ios":"levelo://app?vid=e662cfdf-7308-445f-8e14-4d33034d33f2"},"vehicle_type_id":"4","last_reported":1748473824,"current_range_meters":6000,"station_id":"ce4bhlh2rcd13ifvqgig","pricing_plan_id":"cebpf4jnsgd1na2vs0mg"},{"bike_id":"87b395fb-0dfd-464d-b68d-3afc622e0d48","system_id":"levelo_inurba_marseille","lat":43.295514,"lon":5.394668,"is_reserved":false,"is_disabled":false,"rental_uris":{"android":"levelo://app?vid=87b395fb-0dfd-464d-b68d-3afc622e0d48","ios":"levelo://app?vid=87b395fb-0dfd-464d-b68d-3afc622e0d48"},"vehicle_type_id":"4","last_reported":1748473824,"current_range_meters":6400,"station_id":"","pricing_plan_id":"cebpf4jnsgd1na2vs0mg"},{"bike_id":"1a9deaa6-5b0b-41ea-a3a0-9c49f0de8473","system_id":"levelo_inurba_marseille","lat":43.29319,"lon":5.41151,"is_reserved":false,"is_disabled":false,"rental_uris":{"android":"levelo://app?vid=1a9deaa6-5b0b-41ea-a3a0-9c49f0de8473","ios":"levelo://app?vid=1a9deaa6-5b0b-41ea-a3a0-9c49f0de8473"},"vehicle_type_id":"4","last_reported":1748473824,"current_range_meters":6400,"station_id":"","pricing_plan_id":"cebpf4jnsgd1na2vs0mg"},{"bike_id":"6595edd8-f6c5-43de-9b73-30ef41d96c74","system_id":"levelo_inurba_marseille","lat":43.23187,"lon":5.39993,"is_reserved":false,"is_disabled":false,"rental_uris":{"android":"levelo://app?vid=6595edd8-f6c5-43de-9b73-30ef41d96c74","ios":"levelo://app?vid=6595edd8-f6c5-43de-9b73-30ef41d96c74"},"vehicle_type_id":"4","last_reported":1748473824,"current_range_meters":6400,"station_id":"ce4bhn12rcd13ifvqgqg","pricing_plan_id":"cebpf4jnsgd1na2vs0mg"},{"bike_id":"697f1bc0-ae34-4ad9-8ede-6a27c99a6ea7","system_id":"levelo_inurba_marseille","lat":43.279959,"lon":5.416616,"is_reserved":false,"is_disabled":false,"rental_uris":{"android":"levelo://app?vid=697f1bc0-ae34-4ad9-8ede-6a27c99a6ea7","ios":"levelo://app?vid=697f1bc0-ae34-4ad9-8ede-6a27c99a6ea7"},"vehicle_type_id":"4","last_reported":1748473824,"current_range_meters":6400,"station_id":"ce4bho12rcd13ifvqh1g","pricing_plan_id":"cebpf4jnsgd1na2vs0mg"},{"bike_id":"a1fceda1-6a20-4827-86ff-ec6827f8c44f","system_id":"levelo_inurba_marseille","lat":43.28708,"lon":5.39988,"is_reserved":false,"is_disabled":false,"rental_uris":{"android":"levelo://app?vid=a1fceda1-6a20-4827-86ff-ec6827f8c44f","ios":"levelo://app?vid=a1fceda1-6a20-4827-86ff-ec6827f8c44f"},"vehicle_type_id":"4","last_reported":1748473824,"current_range_meters":6400,"station_id":"ce4bho92rcd13ifvqh3g","pricing_plan_id":"cebpf4jnsgd1na2vs0mg"},{"bike_id":"e54bd26f-59eb-4390-9c7d-790fcb4b9e6f","system_id":"levelo_inurba_marseille","lat":43.29527,"lon":5.394,"is_reserved":false,"is_disabled":false,"rental_uris":{"android":"levelo://app?vid=e54bd26f-59eb-4390-9c7d-790fcb4b9e6f","ios":"levelo://app?vid=e54bd26f-59eb-4390-9c7d-790fcb4b9e6f"},"vehicle_type_id":"4","last_reported":1748473824,"current_range_meters":6800,"station_id":"ce4bh292rcd13ifvqdf0","pricing_plan_id":"cebpf4jnsgd1na2vs0mg"},{"bike_id":"e1364e17-964d-4c3a-a68e-ace0c23aee68","system_id":"levelo_inurba_marseille","lat":43.288423,"lon":5.393003,"is_reserved":false,"is_disabled":false,"rental_uris":{"android":"levelo://app?vid=e1364e17-964d-4c3a-a68e-ace0c23aee68","ios":"levelo://app?vid=e1364e17-964d-4c3a-a68e-ace0c23aee68"},"vehicle_type_id":"4","last_reported":1748473824,"current_range_meters":6800,"station_id":"ce4bh2p2rcd13ifvqdi0","pricing_plan_id":"cebpf4jnsgd1na2vs0mg"},{"bike_id":"81ecac95-17ad-42fd-9057-c4f75a384ddd","system_id":"levelo_inurba_marseille","lat":43.28616,"lon":5.351,"is_reserved":false,"is_disabled":false,"rental_uris":{"android":"levelo://app?vid=81ecac95-17ad-42fd-9057-c4f75a384ddd","ios":"levelo://app?vid=81ecac95-17ad-42fd-9057-c4f75a384ddd"},"vehicle_type_id":"4","last_reported":1748473824,"current_range_meters":6800,"station_id":"ce4bhch2rcd13ifvqeug","pricing_plan_id":"cebpf4jnsgd1na2vs0mg"},{"bike_id":"d440bf96-43ec-45b0-b01f-1c5328ca29b2","system_id":"levelo_inurba_marseille","lat":43.279623,"lon":5.387227,"is_reserved":false,"is_disabled":false,"rental_uris":{"android":"levelo://app?vid=d440bf96-43ec-45b0-b01f-1c5328ca29b2","ios":"levelo://app?vid=d440bf96-43ec-45b0-b01f-1c5328ca29b2"},"vehicle_type_id":"4","last_reported":1748473824,"current_range_meters":6800,"station_id":"ce4bhg12rcd13ifvqf80","pricing_plan_id":"cebpf4jnsgd1na2vs0mg"},{"bike_id":"7dde676c-38c9-4b2b-8b31-2e8abd3218c3","system_id":"levelo_inurba_marseille","lat":43.28156,"lon":5.426401,"is_reserved":false,"is_disabled":false,"rental_uris":{"android":"levelo://app?vid=7dde676c-38c9-4b2b-8b31-2e8abd3218c3","ios":"levelo://app?vid=7dde676c-38c9-4b2b-8b31-2e8abd3218c3"},"vehicle_type_id":"4","last_reported":1748473824,"current_range_meters":6800,"station_id":"ce4bhnh2rcd13ifvqgug","pricing_plan_id":"cebpf4jnsgd1na2vs0mg"},{"bike_id":"7911cebf-5c32-4409-bd84-2cbae9e6ba97","system_id":"levelo_inurba_marseille","lat":43.3233,"lon":5.40623,"is_reserved":false,"is_disabled":false,"rental_uris":{"android":"levelo://app?vid=7911cebf-5c32-4409-bd84-2cbae9e6ba97","ios":"levelo://app?vid=7911cebf-5c32-4409-bd84-2cbae9e6ba97"},"vehicle_type_id":"4","last_reported":1748473824,"current_range_meters":6800,"station_id":"ce4bhq92rcd13ifvqhjg","pricing_plan_id":"cebpf4jnsgd1na2vs0mg"},{"bike_id":"98234324-f3a3-438f-801c-39490a7c5660","system_id":"levelo_inurba_marseille","lat":43.33732,"lon":5.39182,"is_reserved":false,"is_disabled":false,"rental_uris":{"android":"levelo://app?vid=98234324-f3a3-438f-801c-39490a7c5660","ios":"levelo://app?vid=98234324-f3a3-438f-801c-39490a7c5660"},"vehicle_type_id":"4","last_reported":1748473824,"current_range_meters":6800,"station_id":"ce4bhr92rcd13ifvqhsg","pricing_plan_id":"cebpf4jnsgd1na2vs0mg"},{"bike_id":"ce7b18e4-7948-40ae-b647-c69f45870dbb","system_id":"levelo_inurba_marseille","lat":43.30942,"lon":5.40184,"is_reserved":false,"is_disabled":false,"rental_uris":{"android":"levelo://app?vid=ce7b18e4-7948-40ae-b647-c69f45870dbb","ios":"levelo://app?vid=ce7b18e4-7948-40ae-b647-c69f45870dbb"},"vehicle_type_id":"4","last_reported":1748473824,"current_range_meters":7200,"station_id":"ce4bgvp2rcd13ifvqct0","pricing_plan_id":"cebpf4jnsgd1na2vs0mg"},{"bike_id":"b80ee325-09b2-4724-993d-4f8d3707c41c","system_id":"levelo_inurba_marseille","lat":43.25862,"lon":5.39902,"is_reserved":false,"is_disabled":false,"rental_uris":{"android":"levelo://app?vid=b80ee325-09b2-4724-993d-4f8d3707c41c","ios":"levelo://app?vid=b80ee325-09b2-4724-993d-4f8d3707c41c"},"vehicle_type_id":"4","last_reported":1748473824,"current_range_meters":7200,"station_id":"ce4bhl92rcd13ifvqghg","pricing_plan_id":"cebpf4jnsgd1na2vs0mg"},{"bike_id":"e79ef05e-bb28-4c4b-a45f-1945f54353c7","system_id":"levelo_inurba_marseille","lat":43.240644,"lon":5.37754,"is_reserved":false,"is_disabled":false,"rental_uris":{"android":"levelo://app?vid=e79ef05e-bb28-4c4b-a45f-1945f54353c7","ios":"levelo://app?vid=e79ef05e-bb28-4c4b-a45f-1945f54353c7"},"vehicle_type_id":"4","last_reported":1748473824,"current_range_meters":7200,"station_id":"ce4bhnp2rcd13ifvqgvg","pricing_plan_id":"cebpf4jnsgd1na2vs0mg"},{"bike_id":"e81c314f-503d-4896-a793-3e0edb6bdb80","system_id":"levelo_inurba_marseille","lat":43.32266,"lon":5.38285,"is_reserved":false,"is_disabled":false,"rental_uris":{"android":"levelo://app?vid=e81c314f-503d-4896-a793-3e0edb6bdb80","ios":"levelo://app?vid=e81c314f-503d-4896-a793-3e0edb6bdb80"},"vehicle_type_id":"4","last_reported":1748473824,"current_range_meters":7200,"station_id":"ce4bhr12rcd13ifvqhqg","pricing_plan_id":"cebpf4jnsgd1na2vs0mg"},{"bike_id":"5de66581-83bd-42c3-b240-865b6741d0cc","system_id":"levelo_inurba_marseille","lat":43.28718,"lon":5.3609,"is_reserved":false,"is_disabled":false,"rental_uris":{"android":"levelo://app?vid=5de66581-83bd-42c3-b240-865b6741d0cc","ios":"levelo://app?vid=5de66581-83bd-42c3-b240-865b6741d0cc"},"vehicle_type_id":"4","last_reported":1748473824,"current_range_meters":7200,"station_id":"cki0cbj6b192h4jlfktg","pricing_plan_id":"cebpf4jnsgd1na2vs0mg"},{"bike_id":"c3a0bd73-5813-47f0-a5c8-27701041c8ba","system_id":"levelo_inurba_marseille","lat":43.27254,"lon":5.42402,"is_reserved":false,"is_disabled":false,"rental_uris":{"android":"levelo://app?vid=c3a0bd73-5813-47f0-a5c8-27701041c8ba","ios":"levelo://app?vid=c3a0bd73-5813-47f0-a5c8-27701041c8ba"},"vehicle_type_id":"4","last_reported":1748473824,"current_range_meters":8000,"station_id":"","pricing_plan_id":"cebpf4jnsgd1na2vs0mg"},{"bike_id":"e7c8a9b9-0f7e-4f93-8f26-86f0646a609e","system_id":"levelo_inurba_marseille","lat":43.33074,"lon":5.38574,"is_reserved":false,"is_disabled":false,"rental_uris":{"android":"levelo://app?vid=e7c8a9b9-0f7e-4f93-8f26-86f0646a609e","ios":"levelo://app?vid=e7c8a9b9-0f7e-4f93-8f26-86f0646a609e"},"vehicle_type_id":"4","last_reported":1748473824,"current_range_meters":8000,"station_id":"","pricing_plan_id":"cebpf4jnsgd1na2vs0mg"},{"bike_id":"f0e44009-6064-4d67-80b4-0bb60ffccf01","system_id":"levelo_inurba_marseille","lat":43.285579,"lon":5.366519,"is_reserved":false,"is_disabled":false,"rental_uris":{"android":"levelo://app?vid=f0e44009-6064-4d67-80b4-0bb60ffccf01","ios":"levelo://app?vid=f0e44009-6064-4d67-80b4-0bb60ffccf01"},"vehicle_type_id":"4","last_reported":1748473824,"current_range_meters":8000,"station_id":"","pricing_plan_id":"cebpf4jnsgd1na2vs0mg"},{"bike_id":"5cc874f1-fcba-418a-95cb-eb3493ff9f0b","system_id":"levelo_inurba_marseille","lat":43.31718,"lon":5.40519,"is_reserved":false,"is_disabled":false,"rental_uris":{"android":"levelo://app?vid=5cc874f1-fcba-418a-95cb-eb3493ff9f0b","ios":"levelo://app?vid=5cc874f1-fcba-418a-95cb-eb3493ff9f0b"},"vehicle_type_id":"4","last_reported":1748473824,"current_range_meters":8000,"station_id":"","pricing_plan_id":"cebpf4jnsgd1na2vs0mg"},{"bike_id":"cf7d1ab2-b1ff-4cfb-aa20-126f4837d69e","system_id":"levelo_inurba_marseille","lat":43.29798,"lon":5.38079,"is_reserved":false,"is_disabled":false,"rental_uris":{"android":"levelo://app?vid=cf7d1ab2-b1ff-4cfb-aa20-126f4837d69e","ios":"levelo://app?vid=cf7d1ab2-b1ff-4cfb-aa20-126f4837d69e"},"vehicle_type_id":"4","last_reported":1748473824,"current_range_meters":8000,"station_id":"ce4bgip2rcd13ifvqbb0","pricing_plan_id":"cebpf4jnsgd1na2vs0mg"},{"bike_id":"9139eb8a-873e-4aa8-836a-e86282d655a7","system_id":"levelo_inurba_marseille","lat":43.27616,"lon":5.36108,"is_reserved":false,"is_disabled":false,"rental_uris":{"android":"levelo://app?vid=9139eb8a-873e-4aa8-836a-e86282d655a7","ios":"levelo://app?vid=9139eb8a-873e-4aa8-836a-e86282d655a7"},"vehicle_type_id":"4","last_reported":1748473824,"current_range_meters":8000,"station_id":"ce4bgj92rcd13ifvqbe0","pricing_plan_id":"cebpf4jnsgd1na2vs0mg"},{"bike_id":"b0699ab7-0cef-41f6-879c-b66ce18aff02","system_id":"levelo_inurba_marseille","lat":43.27619,"lon":5.36111,"is_reserved":false,"is_disabled":false,"rental_uris":{"android":"levelo://app?vid=b0699ab7-0cef-41f6-879c-b66ce18aff02","ios":"levelo://app?vid=b0699ab7-0cef-41f6-879c-b66ce18aff02"},"vehicle_type_id":"4","last_reported":1748473824,"current_range_meters":8000,"station_id":"ce4bgj92rcd13ifvqbe0","pricing_plan_id":"cebpf4jnsgd1na2vs0mg"},{"bike_id":"f1c0856d-c004-4277-8135-ded506025a30","system_id":"levelo_inurba_marseille","lat":43.29265,"lon":5.38437,"is_reserved":false,"is_disabled":false,"rental_uris":{"android":"levelo://app?vid=f1c0856d-c004-4277-8135-ded506025a30","ios":"levelo://app?vid=f1c0856d-c004-4277-8135-ded506025a30"},"vehicle_type_id":"4","last_reported":1748473824,"current_range_meters":8000,"station_id":"ce4bh692rcd13ifvqea0","pricing_plan_id":"cebpf4jnsgd1na2vs0mg"},{"bike_id":"594fa21a-e4ec-4adb-b66e-58ef99b2c5c6","system_id":"levelo_inurba_marseille","lat":43.24805,"lon":5.37452,"is_reserved":false,"is_disabled":false,"rental_uris":{"android":"levelo://app?vid=594fa21a-e4ec-4adb-b66e-58ef99b2c5c6","ios":"levelo://app?vid=594fa21a-e4ec-4adb-b66e-58ef99b2c5c6"},"vehicle_type_id":"4","last_reported":1748473824,"current_range_meters":8000,"station_id":"ce4bhgh2rcd13ifvqfb0","pricing_plan_id":"cebpf4jnsgd1na2vs0mg"},{"bike_id":"69764f42-9c92-445f-936a-157bbf235d43","system_id":"levelo_inurba_marseille","lat":43.2757,"lon":5.384115,"is_reserved":false,"is_disabled":false,"rental_uris":{"android":"levelo://app?vid=69764f42-9c92-445f-936a-157bbf235d43","ios":"levelo://app?vid=69764f42-9c92-445f-936a-157bbf235d43"},"vehicle_type_id":"4","last_reported":1748473824,"current_range_meters":8000,"station_id":"ce4bhh92rcd13ifvqfi0","pricing_plan_id":"cebpf4jnsgd1na2vs0mg"},{"bike_id":"f26f5d47-4fae-49a4-9c3d-9f0d7c1a44bb","system_id":"levelo_inurba_marseille","lat":43.2582,"lon":5.39438,"is_reserved":false,"is_disabled":false,"rental_uris":{"android":"levelo://app?vid=f26f5d47-4fae-49a4-9c3d-9f0d7c1a44bb","ios":"levelo://app?vid=f26f5d47-4fae-49a4-9c3d-9f0d7c1a44bb"},"vehicle_type_id":"4","last_reported":1748473824,"current_range_meters":8000,"station_id":"ce4bhip2rcd13ifvqft0","pricing_plan_id":"cebpf4jnsgd1na2vs0mg"},{"bike_id":"98d347c6-14e6-4d92-b31c-7483df770580","system_id":"levelo_inurba_marseille","lat":43.2623,"lon":5.40451,"is_reserved":false,"is_disabled":false,"rental_uris":{"android":"levelo://app?vid=98d347c6-14e6-4d92-b31c-7483df770580","ios":"levelo://app?vid=98d347c6-14e6-4d92-b31c-7483df770580"},"vehicle_type_id":"4","last_reported":1748473824,"current_range_meters":8000,"station_id":"ce4bhmh2rcd13ifvqgmg","pricing_plan_id":"cebpf4jnsgd1na2vs0mg"},{"bike_id":"9167ea6a-ce66-49ff-859f-3ca7c151003d","system_id":"levelo_inurba_marseille","lat":43.241782,"lon":5.397289,"is_reserved":false,"is_disabled":false,"rental_uris":{"android":"levelo://app?vid=9167ea6a-ce66-49ff-859f-3ca7c151003d","ios":"levelo://app?vid=9167ea6a-ce66-49ff-859f-3ca7c151003d"},"vehicle_type_id":"4","last_reported":1748473824,"current_range_meters":8000,"station_id":"ce4bhn12rcd13ifvqgpg","pricing_plan_id":"cebpf4jnsgd1na2vs0mg"},{"bike_id":"44a04aac-0228-4a88-b1c4-62daa67746f4","system_id":"levelo_inurba_marseille","lat":43.30353,"lon":5.42506,"is_reserved":false,"is_disabled":false,"rental_uris":{"android":"levelo://app?vid=44a04aac-0228-4a88-b1c4-62daa67746f4","ios":"levelo://app?vid=44a04aac-0228-4a88-b1c4-62daa67746f4"},"vehicle_type_id":"4","last_reported":1748473824,"current_range_meters":8000,"station_id":"ce4bhoh2rcd13ifvqh6g","pricing_plan_id":"cebpf4jnsgd1na2vs0mg"},{"bike_id":"6d7cfdcd-f061-4eee-b4e5-78d9b6729328","system_id":"levelo_inurba_marseille","lat":43.329984,"lon":5.438558,"is_reserved":false,"is_disabled":false,"rental_uris":{"android":"levelo://app?vid=6d7cfdcd-f061-4eee-b4e5-78d9b6729328","ios":"levelo://app?vid=6d7cfdcd-f061-4eee-b4e5-78d9b6729328"},"vehicle_type_id":"4","last_reported":1748473824,"current_range_meters":8400,"station_id":"","pricing_plan_id":"cebpf4jnsgd1na2vs0mg"},{"bike_id":"b7a33bbb-6066-48e1-b85c-2222ee8ba61d","system_id":"levelo_inurba_marseille","lat":43.29723,"lon":5.37705,"is_reserved":false,"is_disabled":false,"rental_uris":{"android":"levelo://app?vid=b7a33bbb-6066-48e1-b85c-2222ee8ba61d","ios":"levelo://app?vid=b7a33bbb-6066-48e1-b85c-2222ee8ba61d"},"vehicle_type_id":"4","last_reported":1748473824,"current_range_meters":8400,"station_id":"ce4bgkh2rcd13ifvqbl0","pricing_plan_id":"cebpf4jnsgd1na2vs0mg"},{"bike_id":"aeb94751-36eb-4d35-b5b3-2fa799561193","system_id":"levelo_inurba_marseille","lat":43.30775,"lon":5.37657,"is_reserved":false,"is_disabled":false,"rental_uris":{"android":"levelo://app?vid=aeb94751-36eb-4d35-b5b3-2fa799561193","ios":"levelo://app?vid=aeb94751-36eb-4d35-b5b3-2fa799561193"},"vehicle_type_id":"4","last_reported":1748473824,"current_range_meters":8400,"station_id":"ce4bgv92rcd13ifvqcq0","pricing_plan_id":"cebpf4jnsgd1na2vs0mg"},{"bike_id":"5ae6a790-62ab-42ea-baed-eafc474ab230","system_id":"levelo_inurba_marseille","lat":43.28426,"lon":5.37496,"is_reserved":false,"is_disabled":false,"rental_uris":{"android":"levelo://app?vid=5ae6a790-62ab-42ea-baed-eafc474ab230","ios":"levelo://app?vid=5ae6a790-62ab-42ea-baed-eafc474ab230"},"vehicle_type_id":"4","last_reported":1748473824,"current_range_meters":8400,"station_id":"ce4bh412rcd13ifvqds0","pricing_plan_id":"cebpf4jnsgd1na2vs0mg"},{"bike_id":"74249071-63db-4f03-b5e8-a7c6d462fbc3","system_id":"levelo_inurba_marseille","lat":43.29032,"lon":5.38648,"is_reserved":false,"is_disabled":false,"rental_uris":{"android":"levelo://app?vid=74249071-63db-4f03-b5e8-a7c6d462fbc3","ios":"levelo://app?vid=74249071-63db-4f03-b5e8-a7c6d462fbc3"},"vehicle_type_id":"4","last_reported":1748473824,"current_range_meters":8400,"station_id":"ce4bh4p2rcd13ifvqe0g","pricing_plan_id":"cebpf4jnsgd1na2vs0mg"},{"bike_id":"deeabfb3-f2a1-4dea-8a93-e9a060871ccd","system_id":"levelo_inurba_marseille","lat":43.28929,"lon":5.36399,"is_reserved":false,"is_disabled":false,"rental_uris":{"android":"levelo://app?vid=deeabfb3-f2a1-4dea-8a93-e9a060871ccd","ios":"levelo://app?vid=deeabfb3-f2a1-4dea-8a93-e9a060871ccd"},"vehicle_type_id":"4","last_reported":1748473824,"current_range_meters":8400,"station_id":"ce4bhc92rcd13ifvqetg","pricing_plan_id":"cebpf4jnsgd1na2vs0mg"},{"bike_id":"8f873e24-264b-446b-82f7-9634ff6df46c","system_id":"levelo_inurba_marseille","lat":43.275684,"lon":5.384052,"is_reserved":false,"is_disabled":false,"rental_uris":{"android":"levelo://app?vid=8f873e24-264b-446b-82f7-9634ff6df46c","ios":"levelo://app?vid=8f873e24-264b-446b-82f7-9634ff6df46c"},"vehicle_type_id":"4","last_reported":1748473824,"current_range_meters":8400,"station_id":"ce4bhh92rcd13ifvqfi0","pricing_plan_id":"cebpf4jnsgd1na2vs0mg"},{"bike_id":"29399905-8efd-47f7-bdd9-fb9e1b85256f","system_id":"levelo_inurba_marseille","lat":43.278353,"lon":5.39211,"is_reserved":false,"is_disabled":false,"rental_uris":{"android":"levelo://app?vid=29399905-8efd-47f7-bdd9-fb9e1b85256f","ios":"levelo://app?vid=29399905-8efd-47f7-bdd9-fb9e1b85256f"},"vehicle_type_id":"4","last_reported":1748473824,"current_range_meters":8400,"station_id":"ce4bhjp2rcd13ifvqga0","pricing_plan_id":"cebpf4jnsgd1na2vs0mg"},{"bike_id":"d7f0491a-6c5a-4872-bfb0-1e6a5e34ed7a","system_id":"levelo_inurba_marseille","lat":43.27846,"lon":5.39213,"is_reserved":false,"is_disabled":false,"rental_uris":{"android":"levelo://app?vid=d7f0491a-6c5a-4872-bfb0-1e6a5e34ed7a","ios":"levelo://app?vid=d7f0491a-6c5a-4872-bfb0-1e6a5e34ed7a"},"vehicle_type_id":"4","last_reported":1748473824,"current_range_meters":8400,"station_id":"ce4bhjp2rcd13ifvqga0","pricing_plan_id":"cebpf4jnsgd1na2vs0mg"},{"bike_id":"c2695326-f3eb-4763-9eb1-bd6f2d75705f","system_id":"levelo_inurba_marseille","lat":43.25118,"lon":5.40318,"is_reserved":false,"is_disabled":false,"rental_uris":{"android":"levelo://app?vid=c2695326-f3eb-4763-9eb1-bd6f2d75705f","ios":"levelo://app?vid=c2695326-f3eb-4763-9eb1-bd6f2d75705f"},"vehicle_type_id":"4","last_reported":1748473824,"current_range_meters":8400,"station_id":"ce4bhlh2rcd13ifvqgig","pricing_plan_id":"cebpf4jnsgd1na2vs0mg"},{"bike_id":"67c9b68e-319d-4ccd-aaba-2964530fb29f","system_id":"levelo_inurba_marseille","lat":43.25087,"lon":5.39521,"is_reserved":false,"is_disabled":false,"rental_uris":{"android":"levelo://app?vid=67c9b68e-319d-4ccd-aaba-2964530fb29f","ios":"levelo://app?vid=67c9b68e-319d-4ccd-aaba-2964530fb29f"},"vehicle_type_id":"4","last_reported":1748473824,"current_range_meters":8400,"station_id":"ce4bhm12rcd13ifvqgkg","pricing_plan_id":"cebpf4jnsgd1na2vs0mg"},{"bike_id":"81639e7a-f501-4c86-bebf-cc90b07367c3","system_id":"levelo_inurba_marseille","lat":43.28076,"lon":5.39659,"is_reserved":false,"is_disabled":false,"rental_uris":{"android":"levelo://app?vid=81639e7a-f501-4c86-bebf-cc90b07367c3","ios":"levelo://app?vid=81639e7a-f501-4c86-bebf-cc90b07367c3"},"vehicle_type_id":"4","last_reported":1748473824,"current_range_meters":8400,"station_id":"ce4bho12rcd13ifvqh2g","pricing_plan_id":"cebpf4jnsgd1na2vs0mg"},{"bike_id":"b6194222-a80b-43bc-b765-fba2143e9c5c","system_id":"levelo_inurba_marseille","lat":43.23186,"lon":5.35555,"is_reserved":false,"is_disabled":false,"rental_uris":{"android":"levelo://app?vid=b6194222-a80b-43bc-b765-fba2143e9c5c","ios":"levelo://app?vid=b6194222-a80b-43bc-b765-fba2143e9c5c"},"vehicle_type_id":"4","last_reported":1748473824,"current_range_meters":8400,"station_id":"ce4bhu92rcd13ifvqi70","pricing_plan_id":"cebpf4jnsgd1na2vs0mg"},{"bike_id":"dd76a748-a912-4b75-a3be-d00c0bd60016","system_id":"levelo_inurba_marseille","lat":43.29528,"lon":5.39039,"is_reserved":false,"is_disabled":false,"rental_uris":{"android":"levelo://app?vid=dd76a748-a912-4b75-a3be-d00c0bd60016","ios":"levelo://app?vid=dd76a748-a912-4b75-a3be-d00c0bd60016"},"vehicle_type_id":"4","last_reported":1748473824,"current_range_meters":8800,"station_id":"ce4bh3p2rcd13ifvqdp0","pricing_plan_id":"cebpf4jnsgd1na2vs0mg"},{"bike_id":"918ee6f8-22dd-45ae-8e3c-10c37acfd16a","system_id":"levelo_inurba_marseille","lat":43.29019,"lon":5.38621,"is_reserved":false,"is_disabled":false,"rental_uris":{"android":"levelo://app?vid=918ee6f8-22dd-45ae-8e3c-10c37acfd16a","ios":"levelo://app?vid=918ee6f8-22dd-45ae-8e3c-10c37acfd16a"},"vehicle_type_id":"4","last_reported":1748473824,"current_range_meters":8800,"station_id":"ce4bh4p2rcd13ifvqe0g","pricing_plan_id":"cebpf4jnsgd1na2vs0mg"},{"bike_id":"51136395-37d5-466a-97a7-ca61939c67e7","system_id":"levelo_inurba_marseille","lat":43.24374,"lon":5.3707,"is_reserved":false,"is_disabled":false,"rental_uris":{"android":"levelo://app?vid=51136395-37d5-466a-97a7-ca61939c67e7","ios":"levelo://app?vid=51136395-37d5-466a-97a7-ca61939c67e7"},"vehicle_type_id":"4","last_reported":1748473824,"current_range_meters":8800,"station_id":"ce4bhhh2rcd13ifvqfk0","pricing_plan_id":"cebpf4jnsgd1na2vs0mg"},{"bike_id":"39237a4d-1869-4c40-896a-ab5c39731355","system_id":"levelo_inurba_marseille","lat":43.280833,"lon":5.39657,"is_reserved":false,"is_disabled":false,"rental_uris":{"android":"levelo://app?vid=39237a4d-1869-4c40-896a-ab5c39731355","ios":"levelo://app?vid=39237a4d-1869-4c40-896a-ab5c39731355"},"vehicle_type_id":"4","last_reported":1748473824,"current_range_meters":8800,"station_id":"ce4bho12rcd13ifvqh2g","pricing_plan_id":"cebpf4jnsgd1na2vs0mg"},{"bike_id":"be4b293e-8744-4637-8ca2-a3e9032e9cec","system_id":"levelo_inurba_marseille","lat":43.229222,"lon":5.353761,"is_reserved":false,"is_disabled":false,"rental_uris":{"android":"levelo://app?vid=be4b293e-8744-4637-8ca2-a3e9032e9cec","ios":"levelo://app?vid=be4b293e-8744-4637-8ca2-a3e9032e9cec"},"vehicle_type_id":"4","last_reported":1748473824,"current_range_meters":8800,"station_id":"cpo3532slgdg3j2ikp40","pricing_plan_id":"cebpf4jnsgd1na2vs0mg"},{"bike_id":"4e9c0d33-96b9-4025-b4e5-c57900c7a815","system_id":"levelo_inurba_marseille","lat":43.282172,"lon":5.390528,"is_reserved":false,"is_disabled":false,"rental_uris":{"android":"levelo://app?vid=4e9c0d33-96b9-4025-b4e5-c57900c7a815","ios":"levelo://app?vid=4e9c0d33-96b9-4025-b4e5-c57900c7a815"},"vehicle_type_id":"4","last_reported":1748473824,"current_range_meters":9200,"station_id":"","pricing_plan_id":"cebpf4jnsgd1na2vs0mg"},{"bike_id":"16578a9c-c460-4d38-be25-a20250881a73","system_id":"levelo_inurba_marseille","lat":43.32179,"lon":5.3841,"is_reserved":false,"is_disabled":false,"rental_uris":{"android":"levelo://app?vid=16578a9c-c460-4d38-be25-a20250881a73","ios":"levelo://app?vid=16578a9c-c460-4d38-be25-a20250881a73"},"vehicle_type_id":"4","last_reported":1748473824,"current_range_meters":9200,"station_id":"","pricing_plan_id":"cebpf4jnsgd1na2vs0mg"},{"bike_id":"3c68f385-ffba-4d15-b971-4641effeeac9","system_id":"levelo_inurba_marseille","lat":43.282283,"lon":5.390772,"is_reserved":false,"is_disabled":false,"rental_uris":{"android":"levelo://app?vid=3c68f385-ffba-4d15-b971-4641effeeac9","ios":"levelo://app?vid=3c68f385-ffba-4d15-b971-4641effeeac9"},"vehicle_type_id":"4","last_reported":1748473824,"current_range_meters":9200,"station_id":"","pricing_plan_id":"cebpf4jnsgd1na2vs0mg"},{"bike_id":"30c624de-a5e5-4c9c-8b95-e6369377f406","system_id":"levelo_inurba_marseille","lat":43.310772,"lon":5.383561,"is_reserved":false,"is_disabled":false,"rental_uris":{"android":"levelo://app?vid=30c624de-a5e5-4c9c-8b95-e6369377f406","ios":"levelo://app?vid=30c624de-a5e5-4c9c-8b95-e6369377f406"},"vehicle_type_id":"4","last_reported":1748473824,"current_range_meters":9200,"station_id":"ce4bgv92rcd13ifvqcr0","pricing_plan_id":"cebpf4jnsgd1na2vs0mg"},{"bike_id":"abc52584-52a9-4216-b4b9-ecbc8e101ebb","system_id":"levelo_inurba_marseille","lat":43.30646,"lon":5.40079,"is_reserved":false,"is_disabled":false,"rental_uris":{"android":"levelo://app?vid=abc52584-52a9-4216-b4b9-ecbc8e101ebb","ios":"levelo://app?vid=abc52584-52a9-4216-b4b9-ecbc8e101ebb"},"vehicle_type_id":"4","last_reported":1748473824,"current_range_meters":9200,"station_id":"ce4bh112rcd13ifvqda0","pricing_plan_id":"cebpf4jnsgd1na2vs0mg"},{"bike_id":"346b4841-9c0b-4ec9-8c69-927873e37bb5","system_id":"levelo_inurba_marseille","lat":43.29874,"lon":5.36315,"is_reserved":false,"is_disabled":false,"rental_uris":{"android":"levelo://app?vid=346b4841-9c0b-4ec9-8c69-927873e37bb5","ios":"levelo://app?vid=346b4841-9c0b-4ec9-8c69-927873e37bb5"},"vehicle_type_id":"4","last_reported":1748473824,"current_range_meters":9600,"station_id":"ce4bgpp2rcd13ifvqc3g","pricing_plan_id":"cebpf4jnsgd1na2vs0mg"},{"bike_id":"2e07b45c-7b34-450c-84e3-ad4c681fd588","system_id":"levelo_inurba_marseille","lat":43.28851,"lon":5.39303,"is_reserved":false,"is_disabled":false,"rental_uris":{"android":"levelo://app?vid=2e07b45c-7b34-450c-84e3-ad4c681fd588","ios":"levelo://app?vid=2e07b45c-7b34-450c-84e3-ad4c681fd588"},"vehicle_type_id":"4","last_reported":1748473824,"current_range_meters":9600,"station_id":"ce4bh2p2rcd13ifvqdi0","pricing_plan_id":"cebpf4jnsgd1na2vs0mg"},{"bike_id":"5971a270-a06b-40fc-9a6d-21ba6c0b20ff","system_id":"levelo_inurba_marseille","lat":43.28421,"lon":5.37524,"is_reserved":false,"is_disabled":false,"rental_uris":{"android":"levelo://app?vid=5971a270-a06b-40fc-9a6d-21ba6c0b20ff","ios":"levelo://app?vid=5971a270-a06b-40fc-9a6d-21ba6c0b20ff"},"vehicle_type_id":"4","last_reported":1748473824,"current_range_meters":9600,"station_id":"ce4bh412rcd13ifvqds0","pricing_plan_id":"cebpf4jnsgd1na2vs0mg"},{"bike_id":"5bda20a1-4642-4989-8aa9-61ce114b94f8","system_id":"levelo_inurba_marseille","lat":43.241776,"lon":5.39726,"is_reserved":false,"is_disabled":false,"rental_uris":{"android":"levelo://app?vid=5bda20a1-4642-4989-8aa9-61ce114b94f8","ios":"levelo://app?vid=5bda20a1-4642-4989-8aa9-61ce114b94f8"},"vehicle_type_id":"4","last_reported":1748473824,"current_range_meters":9600,"station_id":"ce4bhn12rcd13ifvqgpg","pricing_plan_id":"cebpf4jnsgd1na2vs0mg"},{"bike_id":"16f8c46e-dbc6-4ab1-941f-3d93ad546819","system_id":"levelo_inurba_marseille","lat":43.32283,"lon":5.38273,"is_reserved":false,"is_disabled":false,"rental_uris":{"android":"levelo://app?vid=16f8c46e-dbc6-4ab1-941f-3d93ad546819","ios":"levelo://app?vid=16f8c46e-dbc6-4ab1-941f-3d93ad546819"},"vehicle_type_id":"4","last_reported":1748473824,"current_range_meters":9600,"station_id":"ce4bhr12rcd13ifvqhqg","pricing_plan_id":"cebpf4jnsgd1na2vs0mg"},{"bike_id":"63ce564f-cc2c-47c7-8f98-71fce446fc69","system_id":"levelo_inurba_marseille","lat":43.32461,"lon":5.365663,"is_reserved":false,"is_disabled":false,"rental_uris":{"android":"levelo://app?vid=63ce564f-cc2c-47c7-8f98-71fce446fc69","ios":"levelo://app?vid=63ce564f-cc2c-47c7-8f98-71fce446fc69"},"vehicle_type_id":"4","last_reported":1748473824,"current_range_meters":9600,"station_id":"ce4bhs12rcd13ifvqhvg","pricing_plan_id":"cebpf4jnsgd1na2vs0mg"},{"bike_id":"0dde7803-e4b4-44c8-98fe-68ad6fa3cde1","system_id":"levelo_inurba_marseille","lat":43.317312,"lon":5.388836,"is_reserved":false,"is_disabled":false,"rental_uris":{"android":"levelo://app?vid=0dde7803-e4b4-44c8-98fe-68ad6fa3cde1","ios":"levelo://app?vid=0dde7803-e4b4-44c8-98fe-68ad6fa3cde1"},"vehicle_type_id":"4","last_reported":1748473824,"current_range_meters":10000,"station_id":"","pricing_plan_id":"cebpf4jnsgd1na2vs0mg"},{"bike_id":"2f650bb1-6027-4191-83d2-16315820a0a7","system_id":"levelo_inurba_marseille","lat":43.299888,"lon":5.373645,"is_reserved":false,"is_disabled":false,"rental_uris":{"android":"levelo://app?vid=2f650bb1-6027-4191-83d2-16315820a0a7","ios":"levelo://app?vid=2f650bb1-6027-4191-83d2-16315820a0a7"},"vehicle_type_id":"4","last_reported":1748473824,"current_range_meters":10000,"station_id":"","pricing_plan_id":"cebpf4jnsgd1na2vs0mg"},{"bike_id":"e96e6ad8-66a5-4a74-9b8a-04311f0e6684","system_id":"levelo_inurba_marseille","lat":43.33055,"lon":5.38907,"is_reserved":false,"is_disabled":false,"rental_uris":{"android":"levelo://app?vid=e96e6ad8-66a5-4a74-9b8a-04311f0e6684","ios":"levelo://app?vid=e96e6ad8-66a5-4a74-9b8a-04311f0e6684"},"vehicle_type_id":"4","last_reported":1748473824,"current_range_meters":10000,"station_id":"","pricing_plan_id":"cebpf4jnsgd1na2vs0mg"},{"bike_id":"bb56860a-7122-4a88-9171-ed630c433268","system_id":"levelo_inurba_marseille","lat":43.295066,"lon":5.374448,"is_reserved":false,"is_disabled":false,"rental_uris":{"android":"levelo://app?vid=bb56860a-7122-4a88-9171-ed630c433268","ios":"levelo://app?vid=bb56860a-7122-4a88-9171-ed630c433268"},"vehicle_type_id":"4","last_reported":1748473824,"current_range_meters":10000,"station_id":"ce4bgh92rcd13ifvqb50","pricing_plan_id":"cebpf4jnsgd1na2vs0mg"},{"bike_id":"762c733d-3cad-403d-808c-c65a66ea5ea7","system_id":"levelo_inurba_marseille","lat":43.30591,"lon":5.3936,"is_reserved":false,"is_disabled":false,"rental_uris":{"android":"levelo://app?vid=762c733d-3cad-403d-808c-c65a66ea5ea7","ios":"levelo://app?vid=762c733d-3cad-403d-808c-c65a66ea5ea7"},"vehicle_type_id":"4","last_reported":1748473824,"current_range_meters":10000,"station_id":"ce4bh0p2rcd13ifvqd80","pricing_plan_id":"cebpf4jnsgd1na2vs0mg"},{"bike_id":"3cec685c-b0f9-4455-ae62-e59aebffea6a","system_id":"levelo_inurba_marseille","lat":43.2885,"lon":5.39302,"is_reserved":false,"is_disabled":false,"rental_uris":{"android":"levelo://app?vid=3cec685c-b0f9-4455-ae62-e59aebffea6a","ios":"levelo://app?vid=3cec685c-b0f9-4455-ae62-e59aebffea6a"},"vehicle_type_id":"4","last_reported":1748473824,"current_range_meters":10000,"station_id":"ce4bh2p2rcd13ifvqdi0","pricing_plan_id":"cebpf4jnsgd1na2vs0mg"},{"bike_id":"20795f93-dfcb-4d17-a396-e3027ac3fe8f","system_id":"levelo_inurba_marseille","lat":43.28712,"lon":5.37416,"is_reserved":false,"is_disabled":false,"rental_uris":{"android":"levelo://app?vid=20795f93-dfcb-4d17-a396-e3027ac3fe8f","ios":"levelo://app?vid=20795f93-dfcb-4d17-a396-e3027ac3fe8f"},"vehicle_type_id":"4","last_reported":1748473824,"current_range_meters":10000,"station_id":"ce4bh3p2rcd13ifvqdq0","pricing_plan_id":"cebpf4jnsgd1na2vs0mg"},{"bike_id":"8b3f6b67-4a99-4d17-a934-8c447cefc7fa","system_id":"levelo_inurba_marseille","lat":43.281059,"lon":5.373067,"is_reserved":false,"is_disabled":false,"rental_uris":{"android":"levelo://app?vid=8b3f6b67-4a99-4d17-a934-8c447cefc7fa","ios":"levelo://app?vid=8b3f6b67-4a99-4d17-a934-8c447cefc7fa"},"vehicle_type_id":"4","last_reported":1748473824,"current_range_meters":10000,"station_id":"ce4bh412rcd13ifvqds0","pricing_plan_id":"cebpf4jnsgd1na2vs0mg"},{"bike_id":"e2695898-3d8e-445c-b107-83d988a84c50","system_id":"levelo_inurba_marseille","lat":43.27985,"lon":5.36969,"is_reserved":false,"is_disabled":false,"rental_uris":{"android":"levelo://app?vid=e2695898-3d8e-445c-b107-83d988a84c50","ios":"levelo://app?vid=e2695898-3d8e-445c-b107-83d988a84c50"},"vehicle_type_id":"4","last_reported":1748473824,"current_range_meters":10000,"station_id":"ce4bha12rcd13ifvqef0","pricing_plan_id":"cebpf4jnsgd1na2vs0mg"},{"bike_id":"247d9efb-32a4-4fb4-b454-4c5933d33414","system_id":"levelo_inurba_marseille","lat":43.258693,"lon":5.398939,"is_reserved":false,"is_disabled":false,"rental_uris":{"android":"levelo://app?vid=247d9efb-32a4-4fb4-b454-4c5933d33414","ios":"levelo://app?vid=247d9efb-32a4-4fb4-b454-4c5933d33414"},"vehicle_type_id":"4","last_reported":1748473824,"current_range_meters":10000,"station_id":"ce4bhl92rcd13ifvqghg","pricing_plan_id":"cebpf4jnsgd1na2vs0mg"},{"bike_id":"31c3b208-56cd-46d6-99c4-93414088c6fa","system_id":"levelo_inurba_marseille","lat":43.28141,"lon":5.42643,"is_reserved":false,"is_disabled":false,"rental_uris":{"android":"levelo://app?vid=31c3b208-56cd-46d6-99c4-93414088c6fa","ios":"levelo://app?vid=31c3b208-56cd-46d6-99c4-93414088c6fa"},"vehicle_type_id":"4","last_reported":1748473824,"current_range_meters":10000,"station_id":"ce4bhnh2rcd13ifvqgug","pricing_plan_id":"cebpf4jnsgd1na2vs0mg"},{"bike_id":"3b3f20fb-be76-498a-a9f5-ae1aa0fc1802","system_id":"levelo_inurba_marseille","lat":43.27982,"lon":5.41664,"is_reserved":false,"is_disabled":false,"rental_uris":{"android":"levelo://app?vid=3b3f20fb-be76-498a-a9f5-ae1aa0fc1802","ios":"levelo://app?vid=3b3f20fb-be76-498a-a9f5-ae1aa0fc1802"},"vehicle_type_id":"4","last_reported":1748473824,"current_range_meters":10000,"station_id":"ce4bho12rcd13ifvqh1g","pricing_plan_id":"cebpf4jnsgd1na2vs0mg"},{"bike_id":"1839a72b-1f19-439f-ba17-e7974ed596b4","system_id":"levelo_inurba_marseille","lat":43.3207,"lon":5.37486,"is_reserved":false,"is_disabled":false,"rental_uris":{"android":"levelo://app?vid=1839a72b-1f19-439f-ba17-e7974ed596b4","ios":"levelo://app?vid=1839a72b-1f19-439f-ba17-e7974ed596b4"},"vehicle_type_id":"4","last_reported":1748473824,"current_range_meters":10800,"station_id":"","pricing_plan_id":"cebpf4jnsgd1na2vs0mg"},{"bike_id":"afb32a74-b0f2-4a82-9263-586377d317de","system_id":"levelo_inurba_marseille","lat":43.31494,"lon":5.37312,"is_reserved":false,"is_disabled":false,"rental_uris":{"android":"levelo://app?vid=afb32a74-b0f2-4a82-9263-586377d317de","ios":"levelo://app?vid=afb32a74-b0f2-4a82-9263-586377d317de"},"vehicle_type_id":"4","last_reported":1748473824,"current_range_meters":10800,"station_id":"ce4bgt12rcd13ifvqcd0","pricing_plan_id":"cebpf4jnsgd1na2vs0mg"},{"bike_id":"4c5086a1-75d0-4d75-b775-7ecc5efd28d9","system_id":"levelo_inurba_marseille","lat":43.286762,"lon":5.36337,"is_reserved":false,"is_disabled":false,"rental_uris":{"android":"levelo://app?vid=4c5086a1-75d0-4d75-b775-7ecc5efd28d9","ios":"levelo://app?vid=4c5086a1-75d0-4d75-b775-7ecc5efd28d9"},"vehicle_type_id":"4","last_reported":1748473824,"current_range_meters":10800,"station_id":"ce4bhah2rcd13ifvqej0","pricing_plan_id":"cebpf4jnsgd1na2vs0mg"},{"bike_id":"db46cd93-68ce-4316-819a-93bc3d72015d","system_id":"levelo_inurba_marseille","lat":43.248042,"lon":5.374532,"is_reserved":false,"is_disabled":false,"rental_uris":{"android":"levelo://app?vid=db46cd93-68ce-4316-819a-93bc3d72015d","ios":"levelo://app?vid=db46cd93-68ce-4316-819a-93bc3d72015d"},"vehicle_type_id":"4","last_reported":1748473824,"current_range_meters":10800,"station_id":"ce4bhgh2rcd13ifvqfb0","pricing_plan_id":"cebpf4jnsgd1na2vs0mg"},{"bike_id":"87bbad0c-8c28-481d-9de5-144650e2492b","system_id":"levelo_inurba_marseille","lat":43.24814,"lon":5.37469,"is_reserved":false,"is_disabled":false,"rental_uris":{"android":"levelo://app?vid=87bbad0c-8c28-481d-9de5-144650e2492b","ios":"levelo://app?vid=87bbad0c-8c28-481d-9de5-144650e2492b"},"vehicle_type_id":"4","last_reported":1748473824,"current_range_meters":10800,"station_id":"ce4bhgh2rcd13ifvqfb0","pricing_plan_id":"cebpf4jnsgd1na2vs0mg"},{"bike_id":"a20e0622-714e-4ac0-bf73-d8c84e36ac9b","system_id":"levelo_inurba_marseille","lat":43.30303,"lon":5.3921,"is_reserved":false,"is_disabled":false,"rental_uris":{"android":"levelo://app?vid=a20e0622-714e-4ac0-bf73-d8c84e36ac9b","ios":"levelo://app?vid=a20e0622-714e-4ac0-bf73-d8c84e36ac9b"},"vehicle_type_id":"4","last_reported":1748473824,"current_range_meters":11200,"station_id":"ce4bgkh2rcd13ifvqbk0","pricing_plan_id":"cebpf4jnsgd1na2vs0mg"},{"bike_id":"c5fdc54e-c77d-4dc9-9f69-45d0be60489c","system_id":"levelo_inurba_marseille","lat":43.303,"lon":5.36884,"is_reserved":false,"is_disabled":false,"rental_uris":{"android":"levelo://app?vid=c5fdc54e-c77d-4dc9-9f69-45d0be60489c","ios":"levelo://app?vid=c5fdc54e-c77d-4dc9-9f69-45d0be60489c"},"vehicle_type_id":"4","last_reported":1748473824,"current_range_meters":11200,"station_id":"ce4bgqh2rcd13ifvqc5g","pricing_plan_id":"cebpf4jnsgd1na2vs0mg"},{"bike_id":"a09d9f3d-435b-42a4-b533-6b0196c08dd6","system_id":"levelo_inurba_marseille","lat":43.308905,"lon":5.396515,"is_reserved":false,"is_disabled":false,"rental_uris":{"android":"levelo://app?vid=a09d9f3d-435b-42a4-b533-6b0196c08dd6","ios":"levelo://app?vid=a09d9f3d-435b-42a4-b533-6b0196c08dd6"},"vehicle_type_id":"4","last_reported":1748473824,"current_range_meters":11200,"station_id":"ce4bh012rcd13ifvqcv0","pricing_plan_id":"cebpf4jnsgd1na2vs0mg"},{"bike_id":"311c0577-bc31-40ec-8254-c6c9677162f1","system_id":"levelo_inurba_marseille","lat":43.284123,"lon":5.375273,"is_reserved":false,"is_disabled":false,"rental_uris":{"android":"levelo://app?vid=311c0577-bc31-40ec-8254-c6c9677162f1","ios":"levelo://app?vid=311c0577-bc31-40ec-8254-c6c9677162f1"},"vehicle_type_id":"4","last_reported":1748473824,"current_range_meters":11200,"station_id":"ce4bh412rcd13ifvqds0","pricing_plan_id":"cebpf4jnsgd1na2vs0mg"},{"bike_id":"1085cf87-258d-462e-ab3f-c0e8d313c4a3","system_id":"levelo_inurba_marseille","lat":43.28476,"lon":5.384141,"is_reserved":false,"is_disabled":false,"rental_uris":{"android":"levelo://app?vid=1085cf87-258d-462e-ab3f-c0e8d313c4a3","ios":"levelo://app?vid=1085cf87-258d-462e-ab3f-c0e8d313c4a3"},"vehicle_type_id":"4","last_reported":1748473824,"current_range_meters":11200,"station_id":"ce4bh512rcd13ifvqe3g","pricing_plan_id":"cebpf4jnsgd1na2vs0mg"},{"bike_id":"3754f181-0271-4298-a06f-d65bcbee4b77","system_id":"levelo_inurba_marseille","lat":43.28704,"lon":5.39993,"is_reserved":false,"is_disabled":false,"rental_uris":{"android":"levelo://app?vid=3754f181-0271-4298-a06f-d65bcbee4b77","ios":"levelo://app?vid=3754f181-0271-4298-a06f-d65bcbee4b77"},"vehicle_type_id":"4","last_reported":1748473824,"current_range_meters":11200,"station_id":"ce4bho92rcd13ifvqh3g","pricing_plan_id":"cebpf4jnsgd1na2vs0mg"},{"bike_id":"221a4a6d-860f-47ce-a071-1f67f4891e2f","system_id":"levelo_inurba_marseille","lat":43.33733,"lon":5.39212,"is_reserved":false,"is_disabled":false,"rental_uris":{"android":"levelo://app?vid=221a4a6d-860f-47ce-a071-1f67f4891e2f","ios":"levelo://app?vid=221a4a6d-860f-47ce-a071-1f67f4891e2f"},"vehicle_type_id":"4","last_reported":1748473824,"current_range_meters":11200,"station_id":"ce4bhr92rcd13ifvqhsg","pricing_plan_id":"cebpf4jnsgd1na2vs0mg"},{"bike_id":"60af92f5-378b-4ca7-965f-8544c59fbbda","system_id":"levelo_inurba_marseille","lat":43.282392,"lon":5.390354,"is_reserved":false,"is_disabled":false,"rental_uris":{"android":"levelo://app?vid=60af92f5-378b-4ca7-965f-8544c59fbbda","ios":"levelo://app?vid=60af92f5-378b-4ca7-965f-8544c59fbbda"},"vehicle_type_id":"4","last_reported":1748473824,"current_range_meters":11600,"station_id":"","pricing_plan_id":"cebpf4jnsgd1na2vs0mg"},{"bike_id":"22771043-09b1-43eb-91e0-5c845144e1e3","system_id":"levelo_inurba_marseille","lat":43.27692,"lon":5.409,"is_reserved":false,"is_disabled":false,"rental_uris":{"android":"levelo://app?vid=22771043-09b1-43eb-91e0-5c845144e1e3","ios":"levelo://app?vid=22771043-09b1-43eb-91e0-5c845144e1e3"},"vehicle_type_id":"4","last_reported":1748473824,"current_range_meters":11600,"station_id":"","pricing_plan_id":"cebpf4jnsgd1na2vs0mg"},{"bike_id":"a7b28dad-b0e3-4373-84c9-ca1db05de1f6","system_id":"levelo_inurba_marseille","lat":43.299998,"lon":5.38383,"is_reserved":false,"is_disabled":false,"rental_uris":{"android":"levelo://app?vid=a7b28dad-b0e3-4373-84c9-ca1db05de1f6","ios":"levelo://app?vid=a7b28dad-b0e3-4373-84c9-ca1db05de1f6"},"vehicle_type_id":"4","last_reported":1748473824,"current_range_meters":11600,"station_id":"","pricing_plan_id":"cebpf4jnsgd1na2vs0mg"},{"bike_id":"3013266d-03ec-4779-8d20-2e5da0a480f7","system_id":"levelo_inurba_marseille","lat":43.31627,"lon":5.38806,"is_reserved":false,"is_disabled":false,"rental_uris":{"android":"levelo://app?vid=3013266d-03ec-4779-8d20-2e5da0a480f7","ios":"levelo://app?vid=3013266d-03ec-4779-8d20-2e5da0a480f7"},"vehicle_type_id":"4","last_reported":1748473824,"current_range_meters":11600,"station_id":"","pricing_plan_id":"cebpf4jnsgd1na2vs0mg"},{"bike_id":"6e08f4f2-09f9-4a03-a2da-579fb08135b5","system_id":"levelo_inurba_marseille","lat":43.30211,"lon":5.39474,"is_reserved":false,"is_disabled":false,"rental_uris":{"android":"levelo://app?vid=6e08f4f2-09f9-4a03-a2da-579fb08135b5","ios":"levelo://app?vid=6e08f4f2-09f9-4a03-a2da-579fb08135b5"},"vehicle_type_id":"4","last_reported":1748473824,"current_range_meters":11600,"station_id":"ce4bh0p2rcd13ifvqd70","pricing_plan_id":"cebpf4jnsgd1na2vs0mg"},{"bike_id":"5a5e3233-c20b-4ef8-ac48-fd40fb8f3275","system_id":"levelo_inurba_marseille","lat":43.30598,"lon":5.39359,"is_reserved":false,"is_disabled":false,"rental_uris":{"android":"levelo://app?vid=5a5e3233-c20b-4ef8-ac48-fd40fb8f3275","ios":"levelo://app?vid=5a5e3233-c20b-4ef8-ac48-fd40fb8f3275"},"vehicle_type_id":"4","last_reported":1748473824,"current_range_meters":11600,"station_id":"ce4bh0p2rcd13ifvqd80","pricing_plan_id":"cebpf4jnsgd1na2vs0mg"},{"bike_id":"847031ec-c235-4f90-8158-8e4eae043a67","system_id":"levelo_inurba_marseille","lat":43.28908,"lon":5.36652,"is_reserved":false,"is_disabled":false,"rental_uris":{"android":"levelo://app?vid=847031ec-c235-4f90-8158-8e4eae043a67","ios":"levelo://app?vid=847031ec-c235-4f90-8158-8e4eae043a67"},"vehicle_type_id":"4","last_reported":1748473824,"current_range_meters":11600,"station_id":"ce4bhap2rcd13ifvqek0","pricing_plan_id":"cebpf4jnsgd1na2vs0mg"},{"bike_id":"d86d8295-be8d-4ea3-a64a-43c7d0c4b495","system_id":"levelo_inurba_marseille","lat":43.26785,"lon":5.39415,"is_reserved":false,"is_disabled":false,"rental_uris":{"android":"levelo://app?vid=d86d8295-be8d-4ea3-a64a-43c7d0c4b495","ios":"levelo://app?vid=d86d8295-be8d-4ea3-a64a-43c7d0c4b495"},"vehicle_type_id":"4","last_reported":1748473824,"current_range_meters":11600,"station_id":"ce4bhh12rcd13ifvqfg0","pricing_plan_id":"cebpf4jnsgd1na2vs0mg"},{"bike_id":"1f05a494-96b9-47a4-8160-db2c6c734351","system_id":"levelo_inurba_marseille","lat":43.25096,"lon":5.40349,"is_reserved":false,"is_disabled":false,"rental_uris":{"android":"levelo://app?vid=1f05a494-96b9-47a4-8160-db2c6c734351","ios":"levelo://app?vid=1f05a494-96b9-47a4-8160-db2c6c734351"},"vehicle_type_id":"4","last_reported":1748473824,"current_range_meters":11600,"station_id":"ce4bhlh2rcd13ifvqgig","pricing_plan_id":"cebpf4jnsgd1na2vs0mg"},{"bike_id":"2864c75b-5c31-4f51-804b-e90944a6d524","system_id":"levelo_inurba_marseille","lat":43.25114,"lon":5.40321,"is_reserved":false,"is_disabled":false,"rental_uris":{"android":"levelo://app?vid=2864c75b-5c31-4f51-804b-e90944a6d524","ios":"levelo://app?vid=2864c75b-5c31-4f51-804b-e90944a6d524"},"vehicle_type_id":"4","last_reported":1748473824,"current_range_meters":11600,"station_id":"ce4bhlh2rcd13ifvqgig","pricing_plan_id":"cebpf4jnsgd1na2vs0mg"},{"bike_id":"47f55a1f-8588-4781-bc30-f75474d90e6f","system_id":"levelo_inurba_marseille","lat":43.241812,"lon":5.397306,"is_reserved":false,"is_disabled":false,"rental_uris":{"android":"levelo://app?vid=47f55a1f-8588-4781-bc30-f75474d90e6f","ios":"levelo://app?vid=47f55a1f-8588-4781-bc30-f75474d90e6f"},"vehicle_type_id":"4","last_reported":1748473824,"current_range_meters":11600,"station_id":"ce4bhn12rcd13ifvqgpg","pricing_plan_id":"cebpf4jnsgd1na2vs0mg"},{"bike_id":"c31b7399-eda8-4d07-81eb-8a1b19bf1a73","system_id":"levelo_inurba_marseille","lat":43.29787,"lon":5.39351,"is_reserved":false,"is_disabled":false,"rental_uris":{"android":"levelo://app?vid=c31b7399-eda8-4d07-81eb-8a1b19bf1a73","ios":"levelo://app?vid=c31b7399-eda8-4d07-81eb-8a1b19bf1a73"},"vehicle_type_id":"4","last_reported":1748473824,"current_range_meters":11600,"station_id":"chh1huq6cuj3fo74tm60","pricing_plan_id":"cebpf4jnsgd1na2vs0mg"},{"bike_id":"c8a50c97-f517-4b42-a241-221a52490a3e","system_id":"levelo_inurba_marseille","lat":43.2899,"lon":5.38618,"is_reserved":false,"is_disabled":false,"rental_uris":{"android":"levelo://app?vid=c8a50c97-f517-4b42-a241-221a52490a3e","ios":"levelo://app?vid=c8a50c97-f517-4b42-a241-221a52490a3e"},"vehicle_type_id":"4","last_reported":1748473824,"current_range_meters":12000,"station_id":"","pricing_plan_id":"cebpf4jnsgd1na2vs0mg"},{"bike_id":"0c86123a-f449-45da-b9f5-701d3abcb46e","system_id":"levelo_inurba_marseille","lat":43.3088,"lon":5.39658,"is_reserved":false,"is_disabled":false,"rental_uris":{"android":"levelo://app?vid=0c86123a-f449-45da-b9f5-701d3abcb46e","ios":"levelo://app?vid=0c86123a-f449-45da-b9f5-701d3abcb46e"},"vehicle_type_id":"4","last_reported":1748473824,"current_range_meters":12000,"station_id":"ce4bh012rcd13ifvqcv0","pricing_plan_id":"cebpf4jnsgd1na2vs0mg"},{"bike_id":"7270ff1a-574f-4ae9-8b4f-de038997e410","system_id":"levelo_inurba_marseille","lat":43.30876,"lon":5.39656,"is_reserved":false,"is_disabled":false,"rental_uris":{"android":"levelo://app?vid=7270ff1a-574f-4ae9-8b4f-de038997e410","ios":"levelo://app?vid=7270ff1a-574f-4ae9-8b4f-de038997e410"},"vehicle_type_id":"4","last_reported":1748473824,"current_range_meters":12000,"station_id":"ce4bh012rcd13ifvqcv0","pricing_plan_id":"cebpf4jnsgd1na2vs0mg"},{"bike_id":"cbe67389-7b7c-490e-90cd-e290e2d46c1d","system_id":"levelo_inurba_marseille","lat":43.288478,"lon":5.358917,"is_reserved":false,"is_disabled":false,"rental_uris":{"android":"levelo://app?vid=cbe67389-7b7c-490e-90cd-e290e2d46c1d","ios":"levelo://app?vid=cbe67389-7b7c-490e-90cd-e290e2d46c1d"},"vehicle_type_id":"4","last_reported":1748473824,"current_range_meters":12000,"station_id":"ce4bhb12rcd13ifvqem0","pricing_plan_id":"cebpf4jnsgd1na2vs0mg"},{"bike_id":"ee1f9dc9-cea9-4079-a2cb-59f00953c6e8","system_id":"levelo_inurba_marseille","lat":43.29271,"lon":5.368463,"is_reserved":false,"is_disabled":false,"rental_uris":{"android":"levelo://app?vid=ee1f9dc9-cea9-4079-a2cb-59f00953c6e8","ios":"levelo://app?vid=ee1f9dc9-cea9-4079-a2cb-59f00953c6e8"},"vehicle_type_id":"4","last_reported":1748473824,"current_range_meters":12000,"station_id":"ce4bhbp2rcd13ifvqesg","pricing_plan_id":"cebpf4jnsgd1na2vs0mg"},{"bike_id":"c791b162-f969-4a54-9010-7bbc6e180952","system_id":"levelo_inurba_marseille","lat":43.24798,"lon":5.37473,"is_reserved":false,"is_disabled":false,"rental_uris":{"android":"levelo://app?vid=c791b162-f969-4a54-9010-7bbc6e180952","ios":"levelo://app?vid=c791b162-f969-4a54-9010-7bbc6e180952"},"vehicle_type_id":"4","last_reported":1748473824,"current_range_meters":12000,"station_id":"ce4bhgh2rcd13ifvqfb0","pricing_plan_id":"cebpf4jnsgd1na2vs0mg"},{"bike_id":"b7c3f369-2ba0-4cb9-96f0-a45973a40bef","system_id":"levelo_inurba_marseille","lat":43.25578,"lon":5.38234,"is_reserved":false,"is_disabled":false,"rental_uris":{"android":"levelo://app?vid=b7c3f369-2ba0-4cb9-96f0-a45973a40bef","ios":"levelo://app?vid=b7c3f369-2ba0-4cb9-96f0-a45973a40bef"},"vehicle_type_id":"4","last_reported":1748473824,"current_range_meters":12000,"station_id":"ce4bhih2rcd13ifvqfs0","pricing_plan_id":"cebpf4jnsgd1na2vs0mg"},{"bike_id":"aadac860-d43c-4062-897b-20d300d16764","system_id":"levelo_inurba_marseille","lat":43.26806,"lon":5.4026,"is_reserved":false,"is_disabled":false,"rental_uris":{"android":"levelo://app?vid=aadac860-d43c-4062-897b-20d300d16764","ios":"levelo://app?vid=aadac860-d43c-4062-897b-20d300d16764"},"vehicle_type_id":"4","last_reported":1748473824,"current_range_meters":12000,"station_id":"ce501612rcd8frsf0b60","pricing_plan_id":"cebpf4jnsgd1na2vs0mg"},{"bike_id":"c7b8b51e-c853-4352-9193-32615af234ef","system_id":"levelo_inurba_marseille","lat":43.26186,"lon":5.42066,"is_reserved":false,"is_disabled":false,"rental_uris":{"android":"levelo://app?vid=c7b8b51e-c853-4352-9193-32615af234ef","ios":"levelo://app?vid=c7b8b51e-c853-4352-9193-32615af234ef"},"vehicle_type_id":"4","last_reported":1748473824,"current_range_meters":12400,"station_id":"","pricing_plan_id":"cebpf4jnsgd1na2vs0mg"},{"bike_id":"5880f429-6632-415b-9dee-6b4e29420505","system_id":"levelo_inurba_marseille","lat":43.30813,"lon":5.3816,"is_reserved":false,"is_disabled":false,"rental_uris":{"android":"levelo://app?vid=5880f429-6632-415b-9dee-6b4e29420505","ios":"levelo://app?vid=5880f429-6632-415b-9dee-6b4e29420505"},"vehicle_type_id":"4","last_reported":1748473824,"current_range_meters":12400,"station_id":"ce4bgt12rcd13ifvqce0","pricing_plan_id":"cebpf4jnsgd1na2vs0mg"},{"bike_id":"c9e33b70-7c56-4284-a448-1024ebba2b69","system_id":"levelo_inurba_marseille","lat":43.28845,"lon":5.39313,"is_reserved":false,"is_disabled":false,"rental_uris":{"android":"levelo://app?vid=c9e33b70-7c56-4284-a448-1024ebba2b69","ios":"levelo://app?vid=c9e33b70-7c56-4284-a448-1024ebba2b69"},"vehicle_type_id":"4","last_reported":1748473824,"current_range_meters":12400,"station_id":"ce4bh2p2rcd13ifvqdi0","pricing_plan_id":"cebpf4jnsgd1na2vs0mg"},{"bike_id":"2b8cf201-3f6a-4001-9ca8-0b486ebce4e1","system_id":"levelo_inurba_marseille","lat":43.28155,"lon":5.426543,"is_reserved":false,"is_disabled":false,"rental_uris":{"android":"levelo://app?vid=2b8cf201-3f6a-4001-9ca8-0b486ebce4e1","ios":"levelo://app?vid=2b8cf201-3f6a-4001-9ca8-0b486ebce4e1"},"vehicle_type_id":"4","last_reported":1748473824,"current_range_meters":12400,"station_id":"ce4bhnh2rcd13ifvqgug","pricing_plan_id":"cebpf4jnsgd1na2vs0mg"},{"bike_id":"32ce1fee-e11e-4b6b-91ef-373111975b5a","system_id":"levelo_inurba_marseille","lat":43.280772,"lon":5.396562,"is_reserved":false,"is_disabled":false,"rental_uris":{"android":"levelo://app?vid=32ce1fee-e11e-4b6b-91ef-373111975b5a","ios":"levelo://app?vid=32ce1fee-e11e-4b6b-91ef-373111975b5a"},"vehicle_type_id":"4","last_reported":1748473824,"current_range_meters":12400,"station_id":"ce4bho12rcd13ifvqh2g","pricing_plan_id":"cebpf4jnsgd1na2vs0mg"},{"bike_id":"ab18719d-c5e7-4613-9c7e-1fe47406cb4b","system_id":"levelo_inurba_marseille","lat":43.30931,"lon":5.40133,"is_reserved":false,"is_disabled":false,"rental_uris":{"android":"levelo://app?vid=ab18719d-c5e7-4613-9c7e-1fe47406cb4b","ios":"levelo://app?vid=ab18719d-c5e7-4613-9c7e-1fe47406cb4b"},"vehicle_type_id":"4","last_reported":1748473824,"current_range_meters":12800,"station_id":"ce4bgvp2rcd13ifvqct0","pricing_plan_id":"cebpf4jnsgd1na2vs0mg"},{"bike_id":"a81b5e56-8fa7-4452-94be-7bb732c824df","system_id":"levelo_inurba_marseille","lat":43.31329,"lon":5.3969,"is_reserved":false,"is_disabled":false,"rental_uris":{"android":"levelo://app?vid=a81b5e56-8fa7-4452-94be-7bb732c824df","ios":"levelo://app?vid=a81b5e56-8fa7-4452-94be-7bb732c824df"},"vehicle_type_id":"4","last_reported":1748473824,"current_range_meters":12800,"station_id":"ce4bgvp2rcd13ifvqcu0","pricing_plan_id":"cebpf4jnsgd1na2vs0mg"},{"bike_id":"7cc4d720-eaab-46ce-a427-bdccad494dd8","system_id":"levelo_inurba_marseille","lat":43.2919,"lon":5.39321,"is_reserved":false,"is_disabled":false,"rental_uris":{"android":"levelo://app?vid=7cc4d720-eaab-46ce-a427-bdccad494dd8","ios":"levelo://app?vid=7cc4d720-eaab-46ce-a427-bdccad494dd8"},"vehicle_type_id":"4","last_reported":1748473824,"current_range_meters":12800,"station_id":"ce4bh192rcd13ifvqdd0","pricing_plan_id":"cebpf4jnsgd1na2vs0mg"},{"bike_id":"9a7ce25c-cbcf-4aac-acf7-3d032c62f0d0","system_id":"levelo_inurba_marseille","lat":43.28573,"lon":5.39491,"is_reserved":false,"is_disabled":false,"rental_uris":{"android":"levelo://app?vid=9a7ce25c-cbcf-4aac-acf7-3d032c62f0d0","ios":"levelo://app?vid=9a7ce25c-cbcf-4aac-acf7-3d032c62f0d0"},"vehicle_type_id":"4","last_reported":1748473824,"current_range_meters":12800,"station_id":"ce4bh292rcd13ifvqdg0","pricing_plan_id":"cebpf4jnsgd1na2vs0mg"},{"bike_id":"87eee157-b9a1-4629-a67f-35c0758860ff","system_id":"levelo_inurba_marseille","lat":43.29261,"lon":5.38441,"is_reserved":false,"is_disabled":false,"rental_uris":{"android":"levelo://app?vid=87eee157-b9a1-4629-a67f-35c0758860ff","ios":"levelo://app?vid=87eee157-b9a1-4629-a67f-35c0758860ff"},"vehicle_type_id":"4","last_reported":1748473824,"current_range_meters":12800,"station_id":"ce4bh692rcd13ifvqea0","pricing_plan_id":"cebpf4jnsgd1na2vs0mg"},{"bike_id":"ed58afc4-72e6-4b6b-aa54-7e5e02433aca","system_id":"levelo_inurba_marseille","lat":43.28464,"lon":5.35876,"is_reserved":false,"is_disabled":false,"rental_uris":{"android":"levelo://app?vid=ed58afc4-72e6-4b6b-aa54-7e5e02433aca","ios":"levelo://app?vid=ed58afc4-72e6-4b6b-aa54-7e5e02433aca"},"vehicle_type_id":"4","last_reported":1748473824,"current_range_meters":12800,"station_id":"ce4bhah2rcd13ifvqei0","pricing_plan_id":"cebpf4jnsgd1na2vs0mg"},{"bike_id":"3f0639f9-7292-42cf-ada7-7a983b23e3b0","system_id":"levelo_inurba_marseille","lat":43.27572,"lon":5.38409,"is_reserved":false,"is_disabled":false,"rental_uris":{"android":"levelo://app?vid=3f0639f9-7292-42cf-ada7-7a983b23e3b0","ios":"levelo://app?vid=3f0639f9-7292-42cf-ada7-7a983b23e3b0"},"vehicle_type_id":"4","last_reported":1748473824,"current_range_meters":12800,"station_id":"ce4bhh92rcd13ifvqfi0","pricing_plan_id":"cebpf4jnsgd1na2vs0mg"},{"bike_id":"1308050e-a7d8-427f-bac3-1f4f14fdad9a","system_id":"levelo_inurba_marseille","lat":43.27543,"lon":5.38409,"is_reserved":false,"is_disabled":false,"rental_uris":{"android":"levelo://app?vid=1308050e-a7d8-427f-bac3-1f4f14fdad9a","ios":"levelo://app?vid=1308050e-a7d8-427f-bac3-1f4f14fdad9a"},"vehicle_type_id":"4","last_reported":1748473824,"current_range_meters":12800,"station_id":"ce4bhh92rcd13ifvqfi0","pricing_plan_id":"cebpf4jnsgd1na2vs0mg"},{"bike_id":"74198e31-5a38-4bf6-8ca9-d01d013dbe2c","system_id":"levelo_inurba_marseille","lat":43.2988,"lon":5.397274,"is_reserved":false,"is_disabled":false,"rental_uris":{"android":"levelo://app?vid=74198e31-5a38-4bf6-8ca9-d01d013dbe2c","ios":"levelo://app?vid=74198e31-5a38-4bf6-8ca9-d01d013dbe2c"},"vehicle_type_id":"4","last_reported":1748473824,"current_range_meters":13600,"station_id":"ce4bh0h2rcd13ifvqd50","pricing_plan_id":"cebpf4jnsgd1na2vs0mg"},{"bike_id":"c14734d7-9d32-4b6a-9101-7cee78d55328","system_id":"levelo_inurba_marseille","lat":43.29878,"lon":5.39732,"is_reserved":false,"is_disabled":false,"rental_uris":{"android":"levelo://app?vid=c14734d7-9d32-4b6a-9101-7cee78d55328","ios":"levelo://app?vid=c14734d7-9d32-4b6a-9101-7cee78d55328"},"vehicle_type_id":"4","last_reported":1748473824,"current_range_meters":13600,"station_id":"ce4bh0h2rcd13ifvqd50","pricing_plan_id":"cebpf4jnsgd1na2vs0mg"},{"bike_id":"26669b7c-a985-49bc-b9d8-e031c6d333e2","system_id":"levelo_inurba_marseille","lat":43.298747,"lon":5.39726,"is_reserved":false,"is_disabled":false,"rental_uris":{"android":"levelo://app?vid=26669b7c-a985-49bc-b9d8-e031c6d333e2","ios":"levelo://app?vid=26669b7c-a985-49bc-b9d8-e031c6d333e2"},"vehicle_type_id":"4","last_reported":1748473824,"current_range_meters":13600,"station_id":"ce4bh0h2rcd13ifvqd50","pricing_plan_id":"cebpf4jnsgd1na2vs0mg"},{"bike_id":"ae9abbf2-b91a-46d7-b826-ff2bfe50810f","system_id":"levelo_inurba_marseille","lat":43.284746,"lon":5.385534,"is_reserved":false,"is_disabled":false,"rental_uris":{"android":"levelo://app?vid=ae9abbf2-b91a-46d7-b826-ff2bfe50810f","ios":"levelo://app?vid=ae9abbf2-b91a-46d7-b826-ff2bfe50810f"},"vehicle_type_id":"4","last_reported":1748473824,"current_range_meters":13600,"station_id":"ce4bh8p2rcd13ifvqeb0","pricing_plan_id":"cebpf4jnsgd1na2vs0mg"},{"bike_id":"db63d575-b5ef-4040-9205-bcd9ff0e6039","system_id":"levelo_inurba_marseille","lat":43.28075,"lon":5.39664,"is_reserved":false,"is_disabled":false,"rental_uris":{"android":"levelo://app?vid=db63d575-b5ef-4040-9205-bcd9ff0e6039","ios":"levelo://app?vid=db63d575-b5ef-4040-9205-bcd9ff0e6039"},"vehicle_type_id":"4","last_reported":1748473824,"current_range_meters":13600,"station_id":"ce4bho12rcd13ifvqh2g","pricing_plan_id":"cebpf4jnsgd1na2vs0mg"},{"bike_id":"ba0c24f2-b0ca-494a-9857-649f84664514","system_id":"levelo_inurba_marseille","lat":43.309331,"lon":5.401358,"is_reserved":false,"is_disabled":false,"rental_uris":{"android":"levelo://app?vid=ba0c24f2-b0ca-494a-9857-649f84664514","ios":"levelo://app?vid=ba0c24f2-b0ca-494a-9857-649f84664514"},"vehicle_type_id":"4","last_reported":1748473824,"current_range_meters":14000,"station_id":"ce4bgvp2rcd13ifvqct0","pricing_plan_id":"cebpf4jnsgd1na2vs0mg"},{"bike_id":"6d0fd9e3-c2ac-47fd-8428-06d287e68107","system_id":"levelo_inurba_marseille","lat":43.28938,"lon":5.36384,"is_reserved":false,"is_disabled":false,"rental_uris":{"android":"levelo://app?vid=6d0fd9e3-c2ac-47fd-8428-06d287e68107","ios":"levelo://app?vid=6d0fd9e3-c2ac-47fd-8428-06d287e68107"},"vehicle_type_id":"4","last_reported":1748473824,"current_range_meters":14000,"station_id":"ce4bhc92rcd13ifvqetg","pricing_plan_id":"cebpf4jnsgd1na2vs0mg"},{"bike_id":"8ea4d048-223c-4b9f-a79c-b8dc2c65d878","system_id":"levelo_inurba_marseille","lat":43.25115,"lon":5.40319,"is_reserved":false,"is_disabled":false,"rental_uris":{"android":"levelo://app?vid=8ea4d048-223c-4b9f-a79c-b8dc2c65d878","ios":"levelo://app?vid=8ea4d048-223c-4b9f-a79c-b8dc2c65d878"},"vehicle_type_id":"4","last_reported":1748473824,"current_range_meters":14000,"station_id":"ce4bhlh2rcd13ifvqgig","pricing_plan_id":"cebpf4jnsgd1na2vs0mg"},{"bike_id":"d1160911-5dba-4a70-bdeb-2e5a47931200","system_id":"levelo_inurba_marseille","lat":43.27995,"lon":5.41672,"is_reserved":false,"is_disabled":false,"rental_uris":{"android":"levelo://app?vid=d1160911-5dba-4a70-bdeb-2e5a47931200","ios":"levelo://app?vid=d1160911-5dba-4a70-bdeb-2e5a47931200"},"vehicle_type_id":"4","last_reported":1748473824,"current_range_meters":14000,"station_id":"ce4bho12rcd13ifvqh1g","pricing_plan_id":"cebpf4jnsgd1na2vs0mg"},{"bike_id":"20216ba5-61bf-44de-983d-1d2b80d544f3","system_id":"levelo_inurba_marseille","lat":43.21729,"lon":5.34622,"is_reserved":false,"is_disabled":false,"rental_uris":{"android":"levelo://app?vid=20216ba5-61bf-44de-983d-1d2b80d544f3","ios":"levelo://app?vid=20216ba5-61bf-44de-983d-1d2b80d544f3"},"vehicle_type_id":"4","last_reported":1748473824,"current_range_meters":14000,"station_id":"st_cvj6r9ubvosntc0bgbag","pricing_plan_id":"cebpf4jnsgd1na2vs0mg"},{"bike_id":"74596cad-01b8-4827-9b35-ca1f4056673c","system_id":"levelo_inurba_marseille","lat":43.32389,"lon":5.383623,"is_reserved":false,"is_disabled":false,"rental_uris":{"android":"levelo://app?vid=74596cad-01b8-4827-9b35-ca1f4056673c","ios":"levelo://app?vid=74596cad-01b8-4827-9b35-ca1f4056673c"},"vehicle_type_id":"4","last_reported":1748473824,"current_range_meters":14400,"station_id":"","pricing_plan_id":"cebpf4jnsgd1na2vs0mg"},{"bike_id":"21b7f9fc-05d2-49f9-ac80-669e905fcf34","system_id":"levelo_inurba_marseille","lat":43.28999,"lon":5.38634,"is_reserved":false,"is_disabled":false,"rental_uris":{"android":"levelo://app?vid=21b7f9fc-05d2-49f9-ac80-669e905fcf34","ios":"levelo://app?vid=21b7f9fc-05d2-49f9-ac80-669e905fcf34"},"vehicle_type_id":"4","last_reported":1748473824,"current_range_meters":14400,"station_id":"ce4bh4p2rcd13ifvqe0g","pricing_plan_id":"cebpf4jnsgd1na2vs0mg"},{"bike_id":"36fc1326-d8b9-4280-8634-1f810d31d6e7","system_id":"levelo_inurba_marseille","lat":43.25106,"lon":5.40321,"is_reserved":false,"is_disabled":false,"rental_uris":{"android":"levelo://app?vid=36fc1326-d8b9-4280-8634-1f810d31d6e7","ios":"levelo://app?vid=36fc1326-d8b9-4280-8634-1f810d31d6e7"},"vehicle_type_id":"4","last_reported":1748473824,"current_range_meters":14400,"station_id":"ce4bhlh2rcd13ifvqgig","pricing_plan_id":"cebpf4jnsgd1na2vs0mg"},{"bike_id":"19c319b8-cb5c-4a9f-a123-c087da106c08","system_id":"levelo_inurba_marseille","lat":43.25928,"lon":5.40895,"is_reserved":false,"is_disabled":false,"rental_uris":{"android":"levelo://app?vid=19c319b8-cb5c-4a9f-a123-c087da106c08","ios":"levelo://app?vid=19c319b8-cb5c-4a9f-a123-c087da106c08"},"vehicle_type_id":"4","last_reported":1748473824,"current_range_meters":14400,"station_id":"ce4bhm92rcd13ifvqglg","pricing_plan_id":"cebpf4jnsgd1na2vs0mg"},{"bike_id":"cc2536f5-d400-4045-ae04-96109c4d0ea4","system_id":"levelo_inurba_marseille","lat":43.30378,"lon":5.42491,"is_reserved":false,"is_disabled":false,"rental_uris":{"android":"levelo://app?vid=cc2536f5-d400-4045-ae04-96109c4d0ea4","ios":"levelo://app?vid=cc2536f5-d400-4045-ae04-96109c4d0ea4"},"vehicle_type_id":"4","last_reported":1748473824,"current_range_meters":14400,"station_id":"ce4bhoh2rcd13ifvqh6g","pricing_plan_id":"cebpf4jnsgd1na2vs0mg"},{"bike_id":"42dca157-bdb0-4361-8022-7979135f94aa","system_id":"levelo_inurba_marseille","lat":43.2855,"lon":5.36691,"is_reserved":false,"is_disabled":false,"rental_uris":{"android":"levelo://app?vid=42dca157-bdb0-4361-8022-7979135f94aa","ios":"levelo://app?vid=42dca157-bdb0-4361-8022-7979135f94aa"},"vehicle_type_id":"4","last_reported":1748473824,"current_range_meters":14800,"station_id":"","pricing_plan_id":"cebpf4jnsgd1na2vs0mg"},{"bike_id":"c1ec72c5-b677-46da-823c-46df5c15390c","system_id":"levelo_inurba_marseille","lat":43.30798,"lon":5.3816,"is_reserved":false,"is_disabled":false,"rental_uris":{"android":"levelo://app?vid=c1ec72c5-b677-46da-823c-46df5c15390c","ios":"levelo://app?vid=c1ec72c5-b677-46da-823c-46df5c15390c"},"vehicle_type_id":"4","last_reported":1748473824,"current_range_meters":14800,"station_id":"ce4bgt12rcd13ifvqce0","pricing_plan_id":"cebpf4jnsgd1na2vs0mg"},{"bike_id":"4d0d0fb9-bf6f-42e8-ad31-5a54e4eebd1a","system_id":"levelo_inurba_marseille","lat":43.28668,"lon":5.3867,"is_reserved":false,"is_disabled":false,"rental_uris":{"android":"levelo://app?vid=4d0d0fb9-bf6f-42e8-ad31-5a54e4eebd1a","ios":"levelo://app?vid=4d0d0fb9-bf6f-42e8-ad31-5a54e4eebd1a"},"vehicle_type_id":"4","last_reported":1748473824,"current_range_meters":15200,"station_id":"ce4bh492rcd13ifvqdug","pricing_plan_id":"cebpf4jnsgd1na2vs0mg"},{"bike_id":"3d20b60e-73d8-4394-ba63-0cf59de05dfc","system_id":"levelo_inurba_marseille","lat":43.24675,"lon":5.38115,"is_reserved":false,"is_disabled":false,"rental_uris":{"android":"levelo://app?vid=3d20b60e-73d8-4394-ba63-0cf59de05dfc","ios":"levelo://app?vid=3d20b60e-73d8-4394-ba63-0cf59de05dfc"},"vehicle_type_id":"4","last_reported":1748473824,"current_range_meters":15200,"station_id":"ce4bhih2rcd13ifvqfr0","pricing_plan_id":"cebpf4jnsgd1na2vs0mg"},{"bike_id":"79bc3e8e-b9b4-4e35-90ef-661867eb3665","system_id":"levelo_inurba_marseille","lat":43.25824,"lon":5.39435,"is_reserved":false,"is_disabled":false,"rental_uris":{"android":"levelo://app?vid=79bc3e8e-b9b4-4e35-90ef-661867eb3665","ios":"levelo://app?vid=79bc3e8e-b9b4-4e35-90ef-661867eb3665"},"vehicle_type_id":"4","last_reported":1748473824,"current_range_meters":15200,"station_id":"ce4bhip2rcd13ifvqft0","pricing_plan_id":"cebpf4jnsgd1na2vs0mg"},{"bike_id":"6aee7286-7c1c-4b5f-a14b-2b7840021176","system_id":"levelo_inurba_marseille","lat":43.271771,"lon":5.409946,"is_reserved":false,"is_disabled":false,"rental_uris":{"android":"levelo://app?vid=6aee7286-7c1c-4b5f-a14b-2b7840021176","ios":"levelo://app?vid=6aee7286-7c1c-4b5f-a14b-2b7840021176"},"vehicle_type_id":"4","last_reported":1748473824,"current_range_meters":15200,"station_id":"ce4bhl12rcd13ifvqgf0","pricing_plan_id":"cebpf4jnsgd1na2vs0mg"},{"bike_id":"4c053a53-5a50-4e31-8104-9b41d82b2307","system_id":"levelo_inurba_marseille","lat":43.330612,"lon":5.393207,"is_reserved":false,"is_disabled":false,"rental_uris":{"android":"levelo://app?vid=4c053a53-5a50-4e31-8104-9b41d82b2307","ios":"levelo://app?vid=4c053a53-5a50-4e31-8104-9b41d82b2307"},"vehicle_type_id":"4","last_reported":1748473824,"current_range_meters":16000,"station_id":"","pricing_plan_id":"cebpf4jnsgd1na2vs0mg"},{"bike_id":"3dcb1592-6f0e-44fe-b14b-b86a0e33de5a","system_id":"levelo_inurba_marseille","lat":43.30181,"lon":5.37207,"is_reserved":false,"is_disabled":false,"rental_uris":{"android":"levelo://app?vid=3dcb1592-6f0e-44fe-b14b-b86a0e33de5a","ios":"levelo://app?vid=3dcb1592-6f0e-44fe-b14b-b86a0e33de5a"},"vehicle_type_id":"4","last_reported":1748473824,"current_range_meters":16000,"station_id":"ce4bgt12rcd13ifvqce0","pricing_plan_id":"cebpf4jnsgd1na2vs0mg"},{"bike_id":"4607379c-9a5a-4d9c-8cea-20530a7eb964","system_id":"levelo_inurba_marseille","lat":43.30925,"lon":5.4014,"is_reserved":false,"is_disabled":false,"rental_uris":{"android":"levelo://app?vid=4607379c-9a5a-4d9c-8cea-20530a7eb964","ios":"levelo://app?vid=4607379c-9a5a-4d9c-8cea-20530a7eb964"},"vehicle_type_id":"4","last_reported":1748473824,"current_range_meters":16000,"station_id":"ce4bgvp2rcd13ifvqct0","pricing_plan_id":"cebpf4jnsgd1na2vs0mg"},{"bike_id":"d6525296-bb83-41c5-868d-2648132d9bcb","system_id":"levelo_inurba_marseille","lat":43.29569,"lon":5.39979,"is_reserved":false,"is_disabled":false,"rental_uris":{"android":"levelo://app?vid=d6525296-bb83-41c5-868d-2648132d9bcb","ios":"levelo://app?vid=d6525296-bb83-41c5-868d-2648132d9bcb"},"vehicle_type_id":"4","last_reported":1748473824,"current_range_meters":16000,"station_id":"ce4bh312rcd13ifvqdj0","pricing_plan_id":"cebpf4jnsgd1na2vs0mg"},{"bike_id":"5f681bc4-47db-4ee2-95a6-acdd40d4f733","system_id":"levelo_inurba_marseille","lat":43.28375,"lon":5.3863,"is_reserved":false,"is_disabled":false,"rental_uris":{"android":"levelo://app?vid=5f681bc4-47db-4ee2-95a6-acdd40d4f733","ios":"levelo://app?vid=5f681bc4-47db-4ee2-95a6-acdd40d4f733"},"vehicle_type_id":"4","last_reported":1748473824,"current_range_meters":16000,"station_id":"ce4bh492rcd13ifvqdvg","pricing_plan_id":"cebpf4jnsgd1na2vs0mg"},{"bike_id":"057891ca-d092-456d-a189-115276fd0030","system_id":"levelo_inurba_marseille","lat":43.28442,"lon":5.35919,"is_reserved":false,"is_disabled":false,"rental_uris":{"android":"levelo://app?vid=057891ca-d092-456d-a189-115276fd0030","ios":"levelo://app?vid=057891ca-d092-456d-a189-115276fd0030"},"vehicle_type_id":"4","last_reported":1748473824,"current_range_meters":16000,"station_id":"ce4bhah2rcd13ifvqei0","pricing_plan_id":"cebpf4jnsgd1na2vs0mg"},{"bike_id":"ae9e0357-b73f-43bb-ad14-492ca30fa510","system_id":"levelo_inurba_marseille","lat":43.25935,"lon":5.40897,"is_reserved":false,"is_disabled":false,"rental_uris":{"android":"levelo://app?vid=ae9e0357-b73f-43bb-ad14-492ca30fa510","ios":"levelo://app?vid=ae9e0357-b73f-43bb-ad14-492ca30fa510"},"vehicle_type_id":"4","last_reported":1748473824,"current_range_meters":16000,"station_id":"ce4bhm92rcd13ifvqglg","pricing_plan_id":"cebpf4jnsgd1na2vs0mg"},{"bike_id":"221eab07-12e0-4f23-8c3a-9f3c22311a6b","system_id":"levelo_inurba_marseille","lat":43.23169,"lon":5.39987,"is_reserved":false,"is_disabled":false,"rental_uris":{"android":"levelo://app?vid=221eab07-12e0-4f23-8c3a-9f3c22311a6b","ios":"levelo://app?vid=221eab07-12e0-4f23-8c3a-9f3c22311a6b"},"vehicle_type_id":"4","last_reported":1748473824,"current_range_meters":16000,"station_id":"ce4bhn12rcd13ifvqgqg","pricing_plan_id":"cebpf4jnsgd1na2vs0mg"},{"bike_id":"a426f99b-d34a-41bf-bbda-59f7dfd6939b","system_id":"levelo_inurba_marseille","lat":43.255796,"lon":5.382262,"is_reserved":false,"is_disabled":false,"rental_uris":{"android":"levelo://app?vid=a426f99b-d34a-41bf-bbda-59f7dfd6939b","ios":"levelo://app?vid=a426f99b-d34a-41bf-bbda-59f7dfd6939b"},"vehicle_type_id":"4","last_reported":1748473824,"current_range_meters":16000,"station_id":"ce501612rcd8frsf0b60","pricing_plan_id":"cebpf4jnsgd1na2vs0mg"},{"bike_id":"5b74cad8-ae9d-4159-8595-64e58b6fe59a","system_id":"levelo_inurba_marseille","lat":43.31545,"lon":5.38362,"is_reserved":false,"is_disabled":false,"rental_uris":{"android":"levelo://app?vid=5b74cad8-ae9d-4159-8595-64e58b6fe59a","ios":"levelo://app?vid=5b74cad8-ae9d-4159-8595-64e58b6fe59a"},"vehicle_type_id":"4","last_reported":1748473824,"current_range_meters":16400,"station_id":"","pricing_plan_id":"cebpf4jnsgd1na2vs0mg"},{"bike_id":"f5733814-9732-4748-bcc9-3b2fac8e1564","system_id":"levelo_inurba_marseille","lat":43.31256,"lon":5.37829,"is_reserved":false,"is_disabled":false,"rental_uris":{"android":"levelo://app?vid=f5733814-9732-4748-bcc9-3b2fac8e1564","ios":"levelo://app?vid=f5733814-9732-4748-bcc9-3b2fac8e1564"},"vehicle_type_id":"4","last_reported":1748473824,"current_range_meters":16400,"station_id":"","pricing_plan_id":"cebpf4jnsgd1na2vs0mg"},{"bike_id":"d497408e-9852-41ab-a454-0b5281a09025","system_id":"levelo_inurba_marseille","lat":43.31165,"lon":5.38723,"is_reserved":false,"is_disabled":false,"rental_uris":{"android":"levelo://app?vid=d497408e-9852-41ab-a454-0b5281a09025","ios":"levelo://app?vid=d497408e-9852-41ab-a454-0b5281a09025"},"vehicle_type_id":"4","last_reported":1748473824,"current_range_meters":16400,"station_id":"ce4bgv12rcd13ifvqcp0","pricing_plan_id":"cebpf4jnsgd1na2vs0mg"},{"bike_id":"d71181b1-0736-4809-ae68-de4917bcbebf","system_id":"levelo_inurba_marseille","lat":43.30931,"lon":5.40142,"is_reserved":false,"is_disabled":false,"rental_uris":{"android":"levelo://app?vid=d71181b1-0736-4809-ae68-de4917bcbebf","ios":"levelo://app?vid=d71181b1-0736-4809-ae68-de4917bcbebf"},"vehicle_type_id":"4","last_reported":1748473824,"current_range_meters":16400,"station_id":"ce4bgvp2rcd13ifvqct0","pricing_plan_id":"cebpf4jnsgd1na2vs0mg"},{"bike_id":"6829e209-471a-4f5d-bdfa-f6471e8f3b4e","system_id":"levelo_inurba_marseille","lat":43.298699,"lon":5.397289,"is_reserved":false,"is_disabled":false,"rental_uris":{"android":"levelo://app?vid=6829e209-471a-4f5d-bdfa-f6471e8f3b4e","ios":"levelo://app?vid=6829e209-471a-4f5d-bdfa-f6471e8f3b4e"},"vehicle_type_id":"4","last_reported":1748473824,"current_range_meters":16400,"station_id":"ce4bh0h2rcd13ifvqd50","pricing_plan_id":"cebpf4jnsgd1na2vs0mg"},{"bike_id":"a829ba8e-bf90-4a53-baee-0213b780debc","system_id":"levelo_inurba_marseille","lat":43.29282,"lon":5.4013,"is_reserved":false,"is_disabled":false,"rental_uris":{"android":"levelo://app?vid=a829ba8e-bf90-4a53-baee-0213b780debc","ios":"levelo://app?vid=a829ba8e-bf90-4a53-baee-0213b780debc"},"vehicle_type_id":"4","last_reported":1748473824,"current_range_meters":16400,"station_id":"ce4bh312rcd13ifvqdk0","pricing_plan_id":"cebpf4jnsgd1na2vs0mg"},{"bike_id":"1593ae6e-a41f-4398-8a0d-d8943190b5f1","system_id":"levelo_inurba_marseille","lat":43.284163,"lon":5.375103,"is_reserved":false,"is_disabled":false,"rental_uris":{"android":"levelo://app?vid=1593ae6e-a41f-4398-8a0d-d8943190b5f1","ios":"levelo://app?vid=1593ae6e-a41f-4398-8a0d-d8943190b5f1"},"vehicle_type_id":"4","last_reported":1748473824,"current_range_meters":16400,"station_id":"ce4bh412rcd13ifvqds0","pricing_plan_id":"cebpf4jnsgd1na2vs0mg"},{"bike_id":"67244c7f-eecd-4514-8dc0-c3b18c7056ff","system_id":"levelo_inurba_marseille","lat":43.28925,"lon":5.38387,"is_reserved":false,"is_disabled":false,"rental_uris":{"android":"levelo://app?vid=67244c7f-eecd-4514-8dc0-c3b18c7056ff","ios":"levelo://app?vid=67244c7f-eecd-4514-8dc0-c3b18c7056ff"},"vehicle_type_id":"4","last_reported":1748473824,"current_range_meters":16400,"station_id":"ce4bh612rcd13ifvqe6g","pricing_plan_id":"cebpf4jnsgd1na2vs0mg"},{"bike_id":"ad6aca86-7934-43a8-93e5-11f3e998538f","system_id":"levelo_inurba_marseille","lat":43.27939,"lon":5.41045,"is_reserved":false,"is_disabled":false,"rental_uris":{"android":"levelo://app?vid=ad6aca86-7934-43a8-93e5-11f3e998538f","ios":"levelo://app?vid=ad6aca86-7934-43a8-93e5-11f3e998538f"},"vehicle_type_id":"4","last_reported":1748473824,"current_range_meters":16400,"station_id":"ce4bhnp2rcd13ifvqh0g","pricing_plan_id":"cebpf4jnsgd1na2vs0mg"},{"bike_id":"e9cda520-c6f4-465d-ad7f-8c059b3dc45a","system_id":"levelo_inurba_marseille","lat":43.31331,"lon":5.38399,"is_reserved":false,"is_disabled":false,"rental_uris":{"android":"levelo://app?vid=e9cda520-c6f4-465d-ad7f-8c059b3dc45a","ios":"levelo://app?vid=e9cda520-c6f4-465d-ad7f-8c059b3dc45a"},"vehicle_type_id":"4","last_reported":1748473824,"current_range_meters":16800,"station_id":"","pricing_plan_id":"cebpf4jnsgd1na2vs0mg"},{"bike_id":"5c1ab4a6-95a6-40ce-bde8-224d20d73c19","system_id":"levelo_inurba_marseille","lat":43.30424,"lon":5.38901,"is_reserved":false,"is_disabled":false,"rental_uris":{"android":"levelo://app?vid=5c1ab4a6-95a6-40ce-bde8-224d20d73c19","ios":"levelo://app?vid=5c1ab4a6-95a6-40ce-bde8-224d20d73c19"},"vehicle_type_id":"4","last_reported":1748473824,"current_range_meters":16800,"station_id":"ce4bgk12rcd13ifvqbi0","pricing_plan_id":"cebpf4jnsgd1na2vs0mg"},{"bike_id":"8f7f9dba-c1a2-4705-9cfb-78b381b601cf","system_id":"levelo_inurba_marseille","lat":43.309326,"lon":5.401486,"is_reserved":false,"is_disabled":false,"rental_uris":{"android":"levelo://app?vid=8f7f9dba-c1a2-4705-9cfb-78b381b601cf","ios":"levelo://app?vid=8f7f9dba-c1a2-4705-9cfb-78b381b601cf"},"vehicle_type_id":"4","last_reported":1748473824,"current_range_meters":16800,"station_id":"ce4bgvp2rcd13ifvqct0","pricing_plan_id":"cebpf4jnsgd1na2vs0mg"},{"bike_id":"7b64b9e6-3c9a-49de-ae0e-b49897caef8d","system_id":"levelo_inurba_marseille","lat":43.30879,"lon":5.39654,"is_reserved":false,"is_disabled":false,"rental_uris":{"android":"levelo://app?vid=7b64b9e6-3c9a-49de-ae0e-b49897caef8d","ios":"levelo://app?vid=7b64b9e6-3c9a-49de-ae0e-b49897caef8d"},"vehicle_type_id":"4","last_reported":1748473824,"current_range_meters":16800,"station_id":"ce4bh012rcd13ifvqcv0","pricing_plan_id":"cebpf4jnsgd1na2vs0mg"},{"bike_id":"fbfa092d-bcb0-4c1e-a4ac-8fe5ba4826aa","system_id":"levelo_inurba_marseille","lat":43.30618,"lon":5.39351,"is_reserved":false,"is_disabled":false,"rental_uris":{"android":"levelo://app?vid=fbfa092d-bcb0-4c1e-a4ac-8fe5ba4826aa","ios":"levelo://app?vid=fbfa092d-bcb0-4c1e-a4ac-8fe5ba4826aa"},"vehicle_type_id":"4","last_reported":1748473824,"current_range_meters":16800,"station_id":"ce4bh0p2rcd13ifvqd80","pricing_plan_id":"cebpf4jnsgd1na2vs0mg"},{"bike_id":"bdd6f96e-9719-4584-8da3-0954b64dc169","system_id":"levelo_inurba_marseille","lat":43.28461,"lon":5.35888,"is_reserved":false,"is_disabled":false,"rental_uris":{"android":"levelo://app?vid=bdd6f96e-9719-4584-8da3-0954b64dc169","ios":"levelo://app?vid=bdd6f96e-9719-4584-8da3-0954b64dc169"},"vehicle_type_id":"4","last_reported":1748473824,"current_range_meters":16800,"station_id":"ce4bhah2rcd13ifvqei0","pricing_plan_id":"cebpf4jnsgd1na2vs0mg"},{"bike_id":"a98948c9-ab07-4786-a753-98919769d886","system_id":"levelo_inurba_marseille","lat":43.323633,"lon":5.388872,"is_reserved":false,"is_disabled":false,"rental_uris":{"android":"levelo://app?vid=a98948c9-ab07-4786-a753-98919769d886","ios":"levelo://app?vid=a98948c9-ab07-4786-a753-98919769d886"},"vehicle_type_id":"4","last_reported":1748473824,"current_range_meters":16800,"station_id":"ce4bhqp2rcd13ifvqhog","pricing_plan_id":"cebpf4jnsgd1na2vs0mg"},{"bike_id":"4144e4c1-e1a6-4db3-915d-9fc6e80894de","system_id":"levelo_inurba_marseille","lat":43.29534,"lon":5.38545,"is_reserved":false,"is_disabled":false,"rental_uris":{"android":"levelo://app?vid=4144e4c1-e1a6-4db3-915d-9fc6e80894de","ios":"levelo://app?vid=4144e4c1-e1a6-4db3-915d-9fc6e80894de"},"vehicle_type_id":"4","last_reported":1748473824,"current_range_meters":17200,"station_id":"ce4bgih2rcd13ifvqba0","pricing_plan_id":"cebpf4jnsgd1na2vs0mg"},{"bike_id":"c9835c10-7089-42d7-81f5-6b9063dafbd0","system_id":"levelo_inurba_marseille","lat":43.31145,"lon":5.38733,"is_reserved":false,"is_disabled":false,"rental_uris":{"android":"levelo://app?vid=c9835c10-7089-42d7-81f5-6b9063dafbd0","ios":"levelo://app?vid=c9835c10-7089-42d7-81f5-6b9063dafbd0"},"vehicle_type_id":"4","last_reported":1748473824,"current_range_meters":17200,"station_id":"ce4bgv12rcd13ifvqcp0","pricing_plan_id":"cebpf4jnsgd1na2vs0mg"},{"bike_id":"3c38eda6-73d8-4141-af14-f52f0bec1f10","system_id":"levelo_inurba_marseille","lat":43.31075,"lon":5.38357,"is_reserved":false,"is_disabled":false,"rental_uris":{"android":"levelo://app?vid=3c38eda6-73d8-4141-af14-f52f0bec1f10","ios":"levelo://app?vid=3c38eda6-73d8-4141-af14-f52f0bec1f10"},"vehicle_type_id":"4","last_reported":1748473824,"current_range_meters":17200,"station_id":"ce4bgv92rcd13ifvqcr0","pricing_plan_id":"cebpf4jnsgd1na2vs0mg"},{"bike_id":"9a8ecd66-2bff-4799-88d1-e3d65db33a9f","system_id":"levelo_inurba_marseille","lat":43.30923,"lon":5.4014,"is_reserved":false,"is_disabled":false,"rental_uris":{"android":"levelo://app?vid=9a8ecd66-2bff-4799-88d1-e3d65db33a9f","ios":"levelo://app?vid=9a8ecd66-2bff-4799-88d1-e3d65db33a9f"},"vehicle_type_id":"4","last_reported":1748473824,"current_range_meters":17200,"station_id":"ce4bgvp2rcd13ifvqct0","pricing_plan_id":"cebpf4jnsgd1na2vs0mg"},{"bike_id":"82fa4e8c-3134-4f76-95de-396eb362a742","system_id":"levelo_inurba_marseille","lat":43.31327,"lon":5.39689,"is_reserved":false,"is_disabled":false,"rental_uris":{"android":"levelo://app?vid=82fa4e8c-3134-4f76-95de-396eb362a742","ios":"levelo://app?vid=82fa4e8c-3134-4f76-95de-396eb362a742"},"vehicle_type_id":"4","last_reported":1748473824,"current_range_meters":17200,"station_id":"ce4bgvp2rcd13ifvqcu0","pricing_plan_id":"cebpf4jnsgd1na2vs0mg"},{"bike_id":"2b4cf0b8-d941-4c6f-9210-dd364701f124","system_id":"levelo_inurba_marseille","lat":43.291967,"lon":5.393083,"is_reserved":false,"is_disabled":false,"rental_uris":{"android":"levelo://app?vid=2b4cf0b8-d941-4c6f-9210-dd364701f124","ios":"levelo://app?vid=2b4cf0b8-d941-4c6f-9210-dd364701f124"},"vehicle_type_id":"4","last_reported":1748473824,"current_range_meters":17200,"station_id":"ce4bh192rcd13ifvqdd0","pricing_plan_id":"cebpf4jnsgd1na2vs0mg"},{"bike_id":"0233c6de-a237-4091-8c9e-b8fe0bcb1b1a","system_id":"levelo_inurba_marseille","lat":43.28565,"lon":5.394983,"is_reserved":false,"is_disabled":false,"rental_uris":{"android":"levelo://app?vid=0233c6de-a237-4091-8c9e-b8fe0bcb1b1a","ios":"levelo://app?vid=0233c6de-a237-4091-8c9e-b8fe0bcb1b1a"},"vehicle_type_id":"4","last_reported":1748473824,"current_range_meters":17200,"station_id":"ce4bh292rcd13ifvqdg0","pricing_plan_id":"cebpf4jnsgd1na2vs0mg"},{"bike_id":"f12dfea2-4a20-4463-aa3e-7c0b4a86991a","system_id":"levelo_inurba_marseille","lat":43.28408,"lon":5.37519,"is_reserved":false,"is_disabled":false,"rental_uris":{"android":"levelo://app?vid=f12dfea2-4a20-4463-aa3e-7c0b4a86991a","ios":"levelo://app?vid=f12dfea2-4a20-4463-aa3e-7c0b4a86991a"},"vehicle_type_id":"4","last_reported":1748473824,"current_range_meters":17200,"station_id":"ce4bh412rcd13ifvqds0","pricing_plan_id":"cebpf4jnsgd1na2vs0mg"},{"bike_id":"19d56776-a78b-401f-9c7d-a0fa59a5813d","system_id":"levelo_inurba_marseille","lat":43.29023,"lon":5.38633,"is_reserved":false,"is_disabled":false,"rental_uris":{"android":"levelo://app?vid=19d56776-a78b-401f-9c7d-a0fa59a5813d","ios":"levelo://app?vid=19d56776-a78b-401f-9c7d-a0fa59a5813d"},"vehicle_type_id":"4","last_reported":1748473824,"current_range_meters":17200,"station_id":"ce4bh4p2rcd13ifvqe0g","pricing_plan_id":"cebpf4jnsgd1na2vs0mg"},{"bike_id":"c3061e91-3ae2-4a3b-a289-2be3a930e60d","system_id":"levelo_inurba_marseille","lat":43.2901,"lon":5.38146,"is_reserved":false,"is_disabled":false,"rental_uris":{"android":"levelo://app?vid=c3061e91-3ae2-4a3b-a289-2be3a930e60d","ios":"levelo://app?vid=c3061e91-3ae2-4a3b-a289-2be3a930e60d"},"vehicle_type_id":"4","last_reported":1748473824,"current_range_meters":17200,"station_id":"ce4bh4p2rcd13ifvqe1g","pricing_plan_id":"cebpf4jnsgd1na2vs0mg"},{"bike_id":"e9fc9d41-a214-40ab-b896-0f0aa302c915","system_id":"levelo_inurba_marseille","lat":43.29098,"lon":5.38156,"is_reserved":false,"is_disabled":false,"rental_uris":{"android":"levelo://app?vid=e9fc9d41-a214-40ab-b896-0f0aa302c915","ios":"levelo://app?vid=e9fc9d41-a214-40ab-b896-0f0aa302c915"},"vehicle_type_id":"4","last_reported":1748473824,"current_range_meters":17200,"station_id":"ce4bh512rcd13ifvqe2g","pricing_plan_id":"cebpf4jnsgd1na2vs0mg"},{"bike_id":"0996bdbb-ae87-4e45-a2e7-e5390dbe4168","system_id":"levelo_inurba_marseille","lat":43.26954,"lon":5.38628,"is_reserved":false,"is_disabled":false,"rental_uris":{"android":"levelo://app?vid=0996bdbb-ae87-4e45-a2e7-e5390dbe4168","ios":"levelo://app?vid=0996bdbb-ae87-4e45-a2e7-e5390dbe4168"},"vehicle_type_id":"4","last_reported":1748473824,"current_range_meters":17200,"station_id":"ce4bhh92rcd13ifvqfh0","pricing_plan_id":"cebpf4jnsgd1na2vs0mg"},{"bike_id":"b7d0182b-44ef-4781-8968-d21fb3c02045","system_id":"levelo_inurba_marseille","lat":43.25077,"lon":5.39518,"is_reserved":false,"is_disabled":false,"rental_uris":{"android":"levelo://app?vid=b7d0182b-44ef-4781-8968-d21fb3c02045","ios":"levelo://app?vid=b7d0182b-44ef-4781-8968-d21fb3c02045"},"vehicle_type_id":"4","last_reported":1748473824,"current_range_meters":17200,"station_id":"ce4bhm12rcd13ifvqgkg","pricing_plan_id":"cebpf4jnsgd1na2vs0mg"},{"bike_id":"268d8a39-8ebd-464e-bfc7-cb2851008607","system_id":"levelo_inurba_marseille","lat":43.24177,"lon":5.39723,"is_reserved":false,"is_disabled":false,"rental_uris":{"android":"levelo://app?vid=268d8a39-8ebd-464e-bfc7-cb2851008607","ios":"levelo://app?vid=268d8a39-8ebd-464e-bfc7-cb2851008607"},"vehicle_type_id":"4","last_reported":1748473824,"current_range_meters":17200,"station_id":"ce4bhn12rcd13ifvqgpg","pricing_plan_id":"cebpf4jnsgd1na2vs0mg"},{"bike_id":"8023504d-3ac6-4178-b0fc-b7283e21344c","system_id":"levelo_inurba_marseille","lat":43.2794,"lon":5.41042,"is_reserved":false,"is_disabled":false,"rental_uris":{"android":"levelo://app?vid=8023504d-3ac6-4178-b0fc-b7283e21344c","ios":"levelo://app?vid=8023504d-3ac6-4178-b0fc-b7283e21344c"},"vehicle_type_id":"4","last_reported":1748473824,"current_range_meters":17200,"station_id":"ce4bhnp2rcd13ifvqh0g","pricing_plan_id":"cebpf4jnsgd1na2vs0mg"},{"bike_id":"f4e8e0bb-ba43-4097-bfe7-dcd796aa03f2","system_id":"levelo_inurba_marseille","lat":43.280038,"lon":5.416669,"is_reserved":false,"is_disabled":false,"rental_uris":{"android":"levelo://app?vid=f4e8e0bb-ba43-4097-bfe7-dcd796aa03f2","ios":"levelo://app?vid=f4e8e0bb-ba43-4097-bfe7-dcd796aa03f2"},"vehicle_type_id":"4","last_reported":1748473824,"current_range_meters":17200,"station_id":"ce4bho12rcd13ifvqh1g","pricing_plan_id":"cebpf4jnsgd1na2vs0mg"},{"bike_id":"11bfd35c-348c-4582-a29a-ceda48487ff1","system_id":"levelo_inurba_marseille","lat":43.29788,"lon":5.39347,"is_reserved":false,"is_disabled":false,"rental_uris":{"android":"levelo://app?vid=11bfd35c-348c-4582-a29a-ceda48487ff1","ios":"levelo://app?vid=11bfd35c-348c-4582-a29a-ceda48487ff1"},"vehicle_type_id":"4","last_reported":1748473824,"current_range_meters":17200,"station_id":"chh1huq6cuj3fo74tm60","pricing_plan_id":"cebpf4jnsgd1na2vs0mg"},{"bike_id":"c29ce092-0794-4ee5-b982-bf3dc415ac4e","system_id":"levelo_inurba_marseille","lat":43.247984,"lon":5.374483,"is_reserved":false,"is_disabled":false,"rental_uris":{"android":"levelo://app?vid=c29ce092-0794-4ee5-b982-bf3dc415ac4e","ios":"levelo://app?vid=c29ce092-0794-4ee5-b982-bf3dc415ac4e"},"vehicle_type_id":"4","last_reported":1748473824,"current_range_meters":17600,"station_id":"","pricing_plan_id":"cebpf4jnsgd1na2vs0mg"},{"bike_id":"1d6d9702-438d-454d-974c-3073193f149e","system_id":"levelo_inurba_marseille","lat":43.30783,"lon":5.37648,"is_reserved":false,"is_disabled":false,"rental_uris":{"android":"levelo://app?vid=1d6d9702-438d-454d-974c-3073193f149e","ios":"levelo://app?vid=1d6d9702-438d-454d-974c-3073193f149e"},"vehicle_type_id":"4","last_reported":1748473824,"current_range_meters":17600,"station_id":"ce4bgv92rcd13ifvqcq0","pricing_plan_id":"cebpf4jnsgd1na2vs0mg"},