{"last_updated":1733933552,"ttl":60,"version":"2.2","data":{"bikes":[{"bike_id":"b055484e-84ac-4065-a9f0-a59c21149d01","system_id":"levelo_inurba_marseille","lat":43.27999,"lon":5.41656,"is_reserved":false,"is_disabled":false,"rental_uris":{"android":"levelo://app?vid=b055484e-84ac-4065-a9f0-a59c21149d01","ios":"levelo://app?vid=b055484e-84ac-4065-a9f0-a59c21149d01"},"vehicle_type_id":"4","last_reported":1733933552,"current_range_meters":33200,"station_id":"ce4bho12rcd13ifvqh1g","pricing_plan_id":"cebpf4jnsgd1na2vs0mg"},{"bike_id":"942b4e46-d890-495e-8316-e3101f104e4c","system_id":"levelo_inurba_marseille","lat":43.28263,"lon":5.35066,"is_reserved":false,"is_disabled":false,"rental_uris":{"android":"levelo://app?vid=942b4e46-d890-495e-8316-e3101f104e4c","ios":"levelo://app?vid=942b4e46-d890-495e-8316-e3101f104e4c"},"vehicle_type_id":"4","last_reported":1733933552,"current_range_meters":38800,"station_id":"ce4bhbp2rcd13ifvqerg","pricing_plan_id":"cebpf4jnsgd1na2vs0mg"},{"bike_id":"5a1d5db3-014a-4e87-97d8-818e2656f060","system_id":"levelo_inurba_marseille","lat":43.25577,"lon":5.38226,"is_reserved":false,"is_disabled":false,"rental_uris":{"android":"levelo://app?vid=5a1d5db3-014a-4e87-97d8-818e2656f060","ios":"levelo://app?vid=5a1d5db3-014a-4e87-97d8-818e2656f060"},"vehicle_type_id":"4","last_reported":1733933552,"current_range_meters":6000,"station_id":"ce4bhih2rcd13ifvqfs0","pricing_plan_id":"cebpf4jnsgd1na2vs0mg"},{"bike_id":"b266efff-3a14-4d1a-a25a-c68ad062a1f4","system_id":"levelo_inurba_marseille","lat":43.24168,"lon":5.36399,"is_reserved":false,"is_disabled":false,"rental_uris":{"android":"levelo://app?vid=b266efff-3a14-4d1a-a25a-c68ad062a1f4","ios":"levelo://app?vid=b266efff-3a14-4d1a-a25a-c68ad062a1f4"},"vehicle_type_id":"4","last_reported":1733933552,"current_range_meters":8800,"station_id":"cpo36qri1sfpv3e86is0","pricing_plan_id":"cebpf4jnsgd1na2vs0mg"},{"bike_id":"23b5111a-f1d0-4d10-910c-56c961adecb0","system_id":"levelo_inurba_marseille","lat":43.26066,"lon":5.39398,"is_reserved":false,"is_disabled":false,"rental_uris":{"android":"levelo://app?vid=23b5111a-f1d0-4d10-910c-56c961adecb0","ios":"levelo://app?vid=23b5111a-f1d0-4d10-910c-56c961adecb0"},"vehicle_type_id":"4","last_reported":1733933552,"current_range_meters":38400,"station_id":"ce4bhh92rcd13ifvqfj0","pricing_plan_id":"cebpf4jnsgd1na2vs0mg"},{"bike_id":"929eed37-73e0-46b2-87f9-67f615cf675b","system_id":"levelo_inurba_marseille","lat":43.29191,"lon":5.39312,"is_reserved":false,"is_disabled":false,"rental_uris":{"android":"levelo://app?vid=929eed37-73e0-46b2-87f9-67f615cf675b","ios":"levelo://app?vid=929eed37-73e0-46b2-87f9-67f615cf675b"},"vehicle_type_id":"4","last_reported":1733933552,"current_range_meters":22400,"station_id":"ce4bh192rcd13ifvqdd0","pricing_plan_id":"cebpf4jnsgd1na2vs0mg"},{"bike_id":"b1ce8388-9ba8-4a81-8720-73a163c75687","system_id":"levelo_inurba_marseille","lat":43.30139,"lon":5.39858,"is_reserved":false,"is_disabled":false,"rental_uris":{"android":"levelo://app?vid=b1ce8388-9ba8-4a81-8720-73a163c75687","ios":"levelo://app?vid=b1ce8388-9ba8-4a81-8720-73a163c75687"},"vehicle_type_id":"4","last_reported":1733933552,"current_range_meters":38800,"station_id":"ce4bh0h2rcd13ifvqd40","pricing_plan_id":"cebpf4jnsgd1na2vs0mg"},{"bike_id":"9a419345-c074-4bed-a055-62578d579e76","system_id":"levelo_inurba_marseille","lat":43.28859,"lon":5.35838,"is_reserved":false,"is_disabled":false,"rental_uris":{"android":"levelo://app?vid=9a419345-c074-4bed-a055-62578d579e76","ios":"levelo://app?vid=9a419345-c074-4bed-a055-62578d579e76"},"vehicle_type_id":"4","last_reported":1733933552,"current_range_meters":20400,"station_id":"ce4bhb12rcd13ifvqem0","pricing_plan_id":"cebpf4jnsgd1na2vs0mg"},{"bike_id":"2525bf92-7c3a-4f73-8ffa-805f23bcd7ed","system_id":"levelo_inurba_marseille","lat":43.2947,"lon":5.37527,"is_reserved":false,"is_disabled":false,"rental_uris":{"android":"levelo://app?vid=2525bf92-7c3a-4f73-8ffa-805f23bcd7ed","ios":"levelo://app?vid=2525bf92-7c3a-4f73-8ffa-805f23bcd7ed"},"vehicle_type_id":"4","last_reported":1733933552,"current_range_meters":24400,"station_id":"","pricing_plan_id":"cebpf4jnsgd1na2vs0mg"},{"bike_id":"980f96eb-32c9-4906-98f6-c44dbf4c84a1","system_id":"levelo_inurba_marseille","lat":43.27455,"lon":5.40073,"is_reserved":false,"is_disabled":true,"rental_uris":{"android":"levelo://app?vid=980f96eb-32c9-4906-98f6-c44dbf4c84a1","ios":"levelo://app?vid=980f96eb-32c9-4906-98f6-c44dbf4c84a1"},"vehicle_type_id":"4","last_reported":1733933552,"current_range_meters":0,"station_id":"","pricing_plan_id":"cebpf4jnsgd1na2vs0mg"},{"bike_id":"f298462c-84d6-413e-b507-7205c6c2f63e","system_id":"levelo_inurba_marseille","lat":43.28618,"lon":5.35106,"is_reserved":false,"is_disabled":false,"rental_uris":{"android":"levelo://app?vid=f298462c-84d6-413e-b507-7205c6c2f63e","ios":"levelo://app?vid=f298462c-84d6-413e-b507-7205c6c2f63e"},"vehicle_type_id":"4","last_reported":1733933552,"current_range_meters":24000,"station_id":"ce4bhch2rcd13ifvqeug","pricing_plan_id":"cebpf4jnsgd1na2vs0mg"},{"bike_id":"21be252d-4634-43f3-a96e-6ac1317a234b","system_id":"levelo_inurba_marseille","lat":43.2937,"lon":5.37858,"is_reserved":false,"is_disabled":true,"rental_uris":{"android":"levelo://app?vid=21be252d-4634-43f3-a96e-6ac1317a234b","ios":"levelo://app?vid=21be252d-4634-43f3-a96e-6ac1317a234b"},"vehicle_type_id":"4","last_reported":1733933552,"current_range_meters":400,"station_id":"ce4bgjh2rcd13ifvqbf0","pricing_plan_id":"cebpf4jnsgd1na2vs0mg"},{"bike_id":"99b8feae-ae77-438e-b58d-b42626a640a7","system_id":"levelo_inurba_marseille","lat":43.24088,"lon":5.37725,"is_reserved":false,"is_disabled":false,"rental_uris":{"android":"levelo://app?vid=99b8feae-ae77-438e-b58d-b42626a640a7","ios":"levelo://app?vid=99b8feae-ae77-438e-b58d-b42626a640a7"},"vehicle_type_id":"4","last_reported":1733933552,"current_range_meters":8800,"station_id":"ce4bhnp2rcd13ifvqgvg","pricing_plan_id":"cebpf4jnsgd1na2vs0mg"},{"bike_id":"5e72c7e6-93b7-4d61-9b23-e1c2841ed855","system_id":"levelo_inurba_marseille","lat":43.33794,"lon":5.37432,"is_reserved":false,"is_disabled":false,"rental_uris":{"android":"levelo://app?vid=5e72c7e6-93b7-4d61-9b23-e1c2841ed855","ios":"levelo://app?vid=5e72c7e6-93b7-4d61-9b23-e1c2841ed855"},"vehicle_type_id":"4","last_reported":1733933552,"current_range_meters":34800,"station_id":"","pricing_plan_id":"cebpf4jnsgd1na2vs0mg"},{"bike_id":"a6c9c386-9669-4b23-badf-1123d99a9721","system_id":"levelo_inurba_marseille","lat":43.23968,"lon":5.36633,"is_reserved":false,"is_disabled":false,"rental_uris":{"android":"levelo://app?vid=a6c9c386-9669-4b23-badf-1123d99a9721","ios":"levelo://app?vid=a6c9c386-9669-4b23-badf-1123d99a9721"},"vehicle_type_id":"4","last_reported":1733933552,"current_range_meters":12800,"station_id":"ce4bhi12rcd13ifvqfp0","pricing_plan_id":"cebpf4jnsgd1na2vs0mg"},{"bike_id":"1a0383fe-ed85-46dd-989d-65fc52ab7a4a","system_id":"levelo_inurba_marseille","lat":43.25826,"lon":5.39436,"is_reserved":false,"is_disabled":false,"rental_uris":{"android":"levelo://app?vid=1a0383fe-ed85-46dd-989d-65fc52ab7a4a","ios":"levelo://app?vid=1a0383fe-ed85-46dd-989d-65fc52ab7a4a"},"vehicle_type_id":"4","last_reported":1733933552,"current_range_meters":28000,"station_id":"ce4bhip2rcd13ifvqft0","pricing_plan_id":"cebpf4jnsgd1na2vs0mg"},{"bike_id":"d3ad5745-453e-42c0-a41b-ce8568706162","system_id":"levelo_inurba_marseille","lat":43.25491,"lon":5.37655,"is_reserved":false,"is_disabled":false,"rental_uris":{"android":"levelo://app?vid=d3ad5745-453e-42c0-a41b-ce8568706162","ios":"levelo://app?vid=d3ad5745-453e-42c0-a41b-ce8568706162"},"vehicle_type_id":"4","last_reported":1733933552,"current_range_meters":24800,"station_id":"ce4bhh12rcd13ifvqff0","pricing_plan_id":"cebpf4jnsgd1na2vs0mg"},{"bike_id":"d195dc54-7a2b-4973-88b9-a2ce35b64089","system_id":"levelo_inurba_marseille","lat":43.32366,"lon":5.38885,"is_reserved":false,"is_disabled":false,"rental_uris":{"android":"levelo://app?vid=d195dc54-7a2b-4973-88b9-a2ce35b64089","ios":"levelo://app?vid=d195dc54-7a2b-4973-88b9-a2ce35b64089"},"vehicle_type_id":"4","last_reported":1733933552,"current_range_meters":26000,"station_id":"ce4bhqp2rcd13ifvqhog","pricing_plan_id":"cebpf4jnsgd1na2vs0mg"},{"bike_id":"ec6baff5-b4ee-4a8b-a54e-c839ce6547a4","system_id":"levelo_inurba_marseille","lat":43.27991,"lon":5.4166,"is_reserved":false,"is_disabled":false,"rental_uris":{"android":"levelo://app?vid=ec6baff5-b4ee-4a8b-a54e-c839ce6547a4","ios":"levelo://app?vid=ec6baff5-b4ee-4a8b-a54e-c839ce6547a4"},"vehicle_type_id":"4","last_reported":1733933552,"current_range_meters":5600,"station_id":"ce4bho12rcd13ifvqh1g","pricing_plan_id":"cebpf4jnsgd1na2vs0mg"},{"bike_id":"eb005499-3c0e-4f41-9831-c070b319130e","system_id":"levelo_inurba_marseille","lat":43.28611,"lon":5.3706,"is_reserved":false,"is_disabled":true,"rental_uris":{"android":"levelo://app?vid=eb005499-3c0e-4f41-9831-c070b319130e","ios":"levelo://app?vid=eb005499-3c0e-4f41-9831-c070b319130e"},"vehicle_type_id":"4","last_reported":1733933552,"current_range_meters":0,"station_id":"ce4bht12rcd13ifvqi60","pricing_plan_id":"cebpf4jnsgd1na2vs0mg"},{"bike_id":"c30e2927-d1ce-4add-bd99-3834be65c25a","system_id":"levelo_inurba_marseille","lat":43.28857,"lon":5.35853,"is_reserved":false,"is_disabled":true,"rental_uris":{"android":"levelo://app?vid=c30e2927-d1ce-4add-bd99-3834be65c25a","ios":"levelo://app?vid=c30e2927-d1ce-4add-bd99-3834be65c25a"},"vehicle_type_id":"4","last_reported":1733933552,"current_range_meters":1600,"station_id":"ce4bhb12rcd13ifvqem0","pricing_plan_id":"cebpf4jnsgd1na2vs0mg"},{"bike_id":"2c778a0e-8dfc-4cee-a42a-06182b1e1dcd","system_id":"levelo_inurba_marseille","lat":43.29005,"lon":5.35612,"is_reserved":false,"is_disabled":false,"rental_uris":{"android":"levelo://app?vid=2c778a0e-8dfc-4cee-a42a-06182b1e1dcd","ios":"levelo://app?vid=2c778a0e-8dfc-4cee-a42a-06182b1e1dcd"},"vehicle_type_id":"4","last_reported":1733933552,"current_range_meters":14800,"station_id":"ce4bhb92rcd13ifvqen0","pricing_plan_id":"cebpf4jnsgd1na2vs0mg"},{"bike_id":"8f90435d-ccec-4e97-9e3e-ff31122e3afe","system_id":"levelo_inurba_marseille","lat":43.30137,"lon":5.37417,"is_reserved":false,"is_disabled":false,"rental_uris":{"android":"levelo://app?vid=8f90435d-ccec-4e97-9e3e-ff31122e3afe","ios":"levelo://app?vid=8f90435d-ccec-4e97-9e3e-ff31122e3afe"},"vehicle_type_id":"4","last_reported":1733933552,"current_range_meters":23200,"station_id":"ce4bgs92rcd13ifvqcc0","pricing_plan_id":"cebpf4jnsgd1na2vs0mg"},{"bike_id":"d3dd1993-0c0f-473b-a6a3-df644092d64e","system_id":"levelo_inurba_marseille","lat":43.2803,"lon":5.3695,"is_reserved":false,"is_disabled":false,"rental_uris":{"android":"levelo://app?vid=d3dd1993-0c0f-473b-a6a3-df644092d64e","ios":"levelo://app?vid=d3dd1993-0c0f-473b-a6a3-df644092d64e"},"vehicle_type_id":"4","last_reported":1733933552,"current_range_meters":16400,"station_id":"ce4bha12rcd13ifvqef0","pricing_plan_id":"cebpf4jnsgd1na2vs0mg"},{"bike_id":"2405c95d-31b4-4df7-bb10-c583a2a90de6","system_id":"levelo_inurba_marseille","lat":43.29873,"lon":5.39724,"is_reserved":false,"is_disabled":false,"rental_uris":{"android":"levelo://app?vid=2405c95d-31b4-4df7-bb10-c583a2a90de6","ios":"levelo://app?vid=2405c95d-31b4-4df7-bb10-c583a2a90de6"},"vehicle_type_id":"4","last_reported":1733933552,"current_range_meters":27600,"station_id":"ce4bh0h2rcd13ifvqd50","pricing_plan_id":"cebpf4jnsgd1na2vs0mg"},{"bike_id":"e63fab7c-0394-4af9-9959-e8c1a3fe2ad6","system_id":"levelo_inurba_marseille","lat":43.30522,"lon":5.36466,"is_reserved":false,"is_disabled":false,"rental_uris":{"android":"levelo://app?vid=e63fab7c-0394-4af9-9959-e8c1a3fe2ad6","ios":"levelo://app?vid=e63fab7c-0394-4af9-9959-e8c1a3fe2ad6"},"vehicle_type_id":"4","last_reported":1733933552,"current_range_meters":38400,"station_id":"ce4bgs12rcd13ifvqcag","pricing_plan_id":"cebpf4jnsgd1na2vs0mg"},{"bike_id":"18c3ab3d-ce2b-4886-8ac0-1f16ef9cc1a0","system_id":"levelo_inurba_marseille","lat":43.23202,"lon":5.39985,"is_reserved":false,"is_disabled":false,"rental_uris":{"android":"levelo://app?vid=18c3ab3d-ce2b-4886-8ac0-1f16ef9cc1a0","ios":"levelo://app?vid=18c3ab3d-ce2b-4886-8ac0-1f16ef9cc1a0"},"vehicle_type_id":"4","last_reported":1733933552,"current_range_meters":9600,"station_id":"","pricing_plan_id":"cebpf4jnsgd1na2vs0mg"},{"bike_id":"c485fd6d-ebb1-4da3-9c9c-6f3ddeec611b","system_id":"levelo_inurba_marseille","lat":43.28941,"lon":5.38387,"is_reserved":false,"is_disabled":false,"rental_uris":{"android":"levelo://app?vid=c485fd6d-ebb1-4da3-9c9c-6f3ddeec611b","ios":"levelo://app?vid=c485fd6d-ebb1-4da3-9c9c-6f3ddeec611b"},"vehicle_type_id":"4","last_reported":1733933552,"current_range_meters":36400,"station_id":"ce4bh612rcd13ifvqe6g","pricing_plan_id":"cebpf4jnsgd1na2vs0mg"},{"bike_id":"fe4cab58-ba30-4c78-b62f-d4434eea7628","system_id":"levelo_inurba_marseille","lat":43.29447,"lon":5.39763,"is_reserved":false,"is_disabled":true,"rental_uris":{"android":"levelo://app?vid=fe4cab58-ba30-4c78-b62f-d4434eea7628","ios":"levelo://app?vid=fe4cab58-ba30-4c78-b62f-d4434eea7628"},"vehicle_type_id":"4","last_reported":1733933552,"current_range_meters":35200,"station_id":"ce4bh3h2rcd13ifvqdo0","pricing_plan_id":"cebpf4jnsgd1na2vs0mg"},{"bike_id":"187a9cac-9fe7-4437-bc4f-beab8d1e51ae","system_id":"levelo_inurba_marseille","lat":43.29559,"lon":5.42295,"is_reserved":false,"is_disabled":false,"rental_uris":{"android":"levelo://app?vid=187a9cac-9fe7-4437-bc4f-beab8d1e51ae","ios":"levelo://app?vid=187a9cac-9fe7-4437-bc4f-beab8d1e51ae"},"vehicle_type_id":"4","last_reported":1733933552,"current_range_meters":38400,"station_id":"ce4bhph2rcd13ifvqhdg","pricing_plan_id":"cebpf4jnsgd1na2vs0mg"},{"bike_id":"82732914-0270-4313-988e-aff4ee85b69c","system_id":"levelo_inurba_marseille","lat":43.25084,"lon":5.39517,"is_reserved":false,"is_disabled":false,"rental_uris":{"android":"levelo://app?vid=82732914-0270-4313-988e-aff4ee85b69c","ios":"levelo://app?vid=82732914-0270-4313-988e-aff4ee85b69c"},"vehicle_type_id":"4","last_reported":1733933552,"current_range_meters":39200,"station_id":"ce4bhm12rcd13ifvqgkg","pricing_plan_id":"cebpf4jnsgd1na2vs0mg"},{"bike_id":"026e8944-b6ab-488b-9727-a6942e67e578","system_id":"levelo_inurba_marseille","lat":43.27676,"lon":5.38874,"is_reserved":false,"is_disabled":false,"rental_uris":{"android":"levelo://app?vid=026e8944-b6ab-488b-9727-a6942e67e578","ios":"levelo://app?vid=026e8944-b6ab-488b-9727-a6942e67e578"},"vehicle_type_id":"4","last_reported":1733933552,"current_range_meters":6800,"station_id":"ce4bhi12rcd13ifvqfo0","pricing_plan_id":"cebpf4jnsgd1na2vs0mg"},{"bike_id":"8979b88b-e0c9-465c-b920-54c929607786","system_id":"levelo_inurba_marseille","lat":43.30398,"lon":5.36786,"is_reserved":false,"is_disabled":false,"rental_uris":{"android":"levelo://app?vid=8979b88b-e0c9-465c-b920-54c929607786","ios":"levelo://app?vid=8979b88b-e0c9-465c-b920-54c929607786"},"vehicle_type_id":"4","last_reported":1733933552,"current_range_meters":18800,"station_id":"","pricing_plan_id":"cebpf4jnsgd1na2vs0mg"},{"bike_id":"3a56946e-b571-4f0a-89c3-228266a44430","system_id":"levelo_inurba_marseille","lat":43.26597,"lon":5.38971,"is_reserved":false,"is_disabled":false,"rental_uris":{"android":"levelo://app?vid=3a56946e-b571-4f0a-89c3-228266a44430","ios":"levelo://app?vid=3a56946e-b571-4f0a-89c3-228266a44430"},"vehicle_type_id":"4","last_reported":1733933552,"current_range_meters":7200,"station_id":"","pricing_plan_id":"cebpf4jnsgd1na2vs0mg"},{"bike_id":"c5851c4e-b9b6-4254-bf55-f6843d58fb5b","system_id":"levelo_inurba_marseille","lat":43.31761,"lon":5.36741,"is_reserved":false,"is_disabled":false,"rental_uris":{"android":"levelo://app?vid=c5851c4e-b9b6-4254-bf55-f6843d58fb5b","ios":"levelo://app?vid=c5851c4e-b9b6-4254-bf55-f6843d58fb5b"},"vehicle_type_id":"4","last_reported":1733933552,"current_range_meters":34800,"station_id":"ce4bhb92rcd13ifvqen0","pricing_plan_id":"cebpf4jnsgd1na2vs0mg"},{"bike_id":"b6945a0b-a7b7-43e6-8925-5145c2af84b7","system_id":"levelo_inurba_marseille","lat":43.25502,"lon":5.37651,"is_reserved":false,"is_disabled":false,"rental_uris":{"android":"levelo://app?vid=b6945a0b-a7b7-43e6-8925-5145c2af84b7","ios":"levelo://app?vid=b6945a0b-a7b7-43e6-8925-5145c2af84b7"},"vehicle_type_id":"4","last_reported":1733933552,"current_range_meters":30800,"station_id":"ce4bhh12rcd13ifvqff0","pricing_plan_id":"cebpf4jnsgd1na2vs0mg"},{"bike_id":"7634b22e-53d4-4102-8522-b10187acf9c9","system_id":"levelo_inurba_marseille","lat":43.26922,"lon":5.38928,"is_reserved":false,"is_disabled":false,"rental_uris":{"android":"levelo://app?vid=7634b22e-53d4-4102-8522-b10187acf9c9","ios":"levelo://app?vid=7634b22e-53d4-4102-8522-b10187acf9c9"},"vehicle_type_id":"4","last_reported":1733933552,"current_range_meters":17600,"station_id":"ce4bhhh2rcd13ifvqfl0","pricing_plan_id":"cebpf4jnsgd1na2vs0mg"},{"bike_id":"90324b92-2d52-4f43-bd59-91b2038c3497","system_id":"levelo_inurba_marseille","lat":43.28943,"lon":5.36622,"is_reserved":false,"is_disabled":true,"rental_uris":{"android":"levelo://app?vid=90324b92-2d52-4f43-bd59-91b2038c3497","ios":"levelo://app?vid=90324b92-2d52-4f43-bd59-91b2038c3497"},"vehicle_type_id":"4","last_reported":1733933552,"current_range_meters":30000,"station_id":"ce4bhap2rcd13ifvqek0","pricing_plan_id":"cebpf4jnsgd1na2vs0mg"},{"bike_id":"b40867c7-bcb3-440b-af50-8beabff870ee","system_id":"levelo_inurba_marseille","lat":43.28102,"lon":5.37833,"is_reserved":false,"is_disabled":false,"rental_uris":{"android":"levelo://app?vid=b40867c7-bcb3-440b-af50-8beabff870ee","ios":"levelo://app?vid=b40867c7-bcb3-440b-af50-8beabff870ee"},"vehicle_type_id":"4","last_reported":1733933552,"current_range_meters":12800,"station_id":"ce4bha12rcd13ifvqee0","pricing_plan_id":"cebpf4jnsgd1na2vs0mg"},{"bike_id":"469e13b4-0033-4bb2-a859-7fee21ac1f8a","system_id":"levelo_inurba_marseille","lat":43.25819,"lon":5.39437,"is_reserved":false,"is_disabled":false,"rental_uris":{"android":"levelo://app?vid=469e13b4-0033-4bb2-a859-7fee21ac1f8a","ios":"levelo://app?vid=469e13b4-0033-4bb2-a859-7fee21ac1f8a"},"vehicle_type_id":"4","last_reported":1733933552,"current_range_meters":12000,"station_id":"ce4bhip2rcd13ifvqft0","pricing_plan_id":"cebpf4jnsgd1na2vs0mg"},{"bike_id":"615509c5-9f37-44e5-a161-de68f51b5d33","system_id":"levelo_inurba_marseille","lat":43.24181,"lon":5.39723,"is_reserved":false,"is_disabled":false,"rental_uris":{"android":"levelo://app?vid=615509c5-9f37-44e5-a161-de68f51b5d33","ios":"levelo://app?vid=615509c5-9f37-44e5-a161-de68f51b5d33"},"vehicle_type_id":"4","last_reported":1733933552,"current_range_meters":11600,"station_id":"ce4bhn12rcd13ifvqgpg","pricing_plan_id":"cebpf4jnsgd1na2vs0mg"},{"bike_id":"6faa6ee7-a588-4286-8e0c-a7deeaae5bab","system_id":"levelo_inurba_marseille","lat":43.27371,"lon":5.36266,"is_reserved":false,"is_disabled":false,"rental_uris":{"android":"levelo://app?vid=6faa6ee7-a588-4286-8e0c-a7deeaae5bab","ios":"levelo://app?vid=6faa6ee7-a588-4286-8e0c-a7deeaae5bab"},"vehicle_type_id":"4","last_reported":1733933552,"current_range_meters":38800,"station_id":"ce4bhbh2rcd13ifvqeo0","pricing_plan_id":"cebpf4jnsgd1na2vs0mg"},{"bike_id":"716e3651-726d-4797-92a9-2212a7dacea5","system_id":"levelo_inurba_marseille","lat":43.29893,"lon":5.43669,"is_reserved":false,"is_disabled":false,"rental_uris":{"android":"levelo://app?vid=716e3651-726d-4797-92a9-2212a7dacea5","ios":"levelo://app?vid=716e3651-726d-4797-92a9-2212a7dacea5"},"vehicle_type_id":"4","last_reported":1733933552,"current_range_meters":38800,"station_id":"ce4bhpp2rcd13ifvqhfg","pricing_plan_id":"cebpf4jnsgd1na2vs0mg"},{"bike_id":"30b7f7b0-cffb-44e8-9e23-86428fe1183d","system_id":"levelo_inurba_marseille","lat":43.2307,"lon":5.35504,"is_reserved":false,"is_disabled":false,"rental_uris":{"android":"levelo://app?vid=30b7f7b0-cffb-44e8-9e23-86428fe1183d","ios":"levelo://app?vid=30b7f7b0-cffb-44e8-9e23-86428fe1183d"},"vehicle_type_id":"4","last_reported":1733933552,"current_range_meters":13600,"station_id":"cpo3342slgdg3j2ifvpg","pricing_plan_id":"cebpf4jnsgd1na2vs0mg"},{"bike_id":"33f06ed4-c8ad-43f5-b7ff-27c41657a24c","system_id":"levelo_inurba_marseille","lat":43.26206,"lon":5.37927,"is_reserved":false,"is_disabled":true,"rental_uris":{"android":"levelo://app?vid=33f06ed4-c8ad-43f5-b7ff-27c41657a24c","ios":"levelo://app?vid=33f06ed4-c8ad-43f5-b7ff-27c41657a24c"},"vehicle_type_id":"4","last_reported":1733933552,"current_range_meters":800,"station_id":"ce4bhjp2rcd13ifvqg90","pricing_plan_id":"cebpf4jnsgd1na2vs0mg"},{"bike_id":"3525db53-1a03-423d-94da-dfa27d380ac3","system_id":"levelo_inurba_marseille","lat":43.25946,"lon":5.39871,"is_reserved":false,"is_disabled":false,"rental_uris":{"android":"levelo://app?vid=3525db53-1a03-423d-94da-dfa27d380ac3","ios":"levelo://app?vid=3525db53-1a03-423d-94da-dfa27d380ac3"},"vehicle_type_id":"4","last_reported":1733933552,"current_range_meters":33600,"station_id":"ce4bhl92rcd13ifvqghg","pricing_plan_id":"cebpf4jnsgd1na2vs0mg"},{"bike_id":"c459ecd8-6463-4387-8a27-adcf8dcee6f4","system_id":"levelo_inurba_marseille","lat":43.26555,"lon":5.37282,"is_reserved":false,"is_disabled":true,"rental_uris":{"android":"levelo://app?vid=c459ecd8-6463-4387-8a27-adcf8dcee6f4","ios":"levelo://app?vid=c459ecd8-6463-4387-8a27-adcf8dcee6f4"},"vehicle_type_id":"4","last_reported":1733933552,"current_range_meters":0,"station_id":"ce4bhg12rcd13ifvqf70","pricing_plan_id":"cebpf4jnsgd1na2vs0mg"},{"bike_id":"564bb544-816b-4d63-a2d2-271960a70de4","system_id":"levelo_inurba_marseille","lat":43.27373,"lon":5.3626,"is_reserved":false,"is_disabled":true,"rental_uris":{"android":"levelo://app?vid=564bb544-816b-4d63-a2d2-271960a70de4","ios":"levelo://app?vid=564bb544-816b-4d63-a2d2-271960a70de4"},"vehicle_type_id":"4","last_reported":1733933552,"current_range_meters":0,"station_id":"ce4bhbh2rcd13ifvqeo0","pricing_plan_id":"cebpf4jnsgd1na2vs0mg"},{"bike_id":"61a7ce69-e74f-4829-b590-1f8d20be8161","system_id":"levelo_inurba_marseille","lat":43.29271,"lon":5.36846,"is_reserved":false,"is_disabled":false,"rental_uris":{"android":"levelo://app?vid=61a7ce69-e74f-4829-b590-1f8d20be8161","ios":"levelo://app?vid=61a7ce69-e74f-4829-b590-1f8d20be8161"},"vehicle_type_id":"4","last_reported":1733933552,"current_range_meters":38800,"station_id":"ce4bhbp2rcd13ifvqesg","pricing_plan_id":"cebpf4jnsgd1na2vs0mg"},{"bike_id":"2e36a5ec-85ce-44ac-a1d9-54a8e609efa1","system_id":"levelo_inurba_marseille","lat":43.24158,"lon":5.36397,"is_reserved":false,"is_disabled":false,"rental_uris":{"android":"levelo://app?vid=2e36a5ec-85ce-44ac-a1d9-54a8e609efa1","ios":"levelo://app?vid=2e36a5ec-85ce-44ac-a1d9-54a8e609efa1"},"vehicle_type_id":"4","last_reported":1733933552,"current_range_meters":16400,"station_id":"cpo36qri1sfpv3e86is0","pricing_plan_id":"cebpf4jnsgd1na2vs0mg"},{"bike_id":"1f6f4028-1de9-43e4-a0f7-b3dd02713bca","system_id":"levelo_inurba_marseille","lat":43.3015,"lon":5.38092,"is_reserved":false,"is_disabled":false,"rental_uris":{"android":"levelo://app?vid=1f6f4028-1de9-43e4-a0f7-b3dd02713bca","ios":"levelo://app?vid=1f6f4028-1de9-43e4-a0f7-b3dd02713bca"},"vehicle_type_id":"4","last_reported":1733933552,"current_range_meters":27600,"station_id":"ce4bgjp2rcd13ifvqbh0","pricing_plan_id":"cebpf4jnsgd1na2vs0mg"},{"bike_id":"0f17d2c4-bf96-42e6-978b-f52d4d5288cd","system_id":"levelo_inurba_marseille","lat":43.30317,"lon":5.40438,"is_reserved":false,"is_disabled":true,"rental_uris":{"android":"levelo://app?vid=0f17d2c4-bf96-42e6-978b-f52d4d5288cd","ios":"levelo://app?vid=0f17d2c4-bf96-42e6-978b-f52d4d5288cd"},"vehicle_type_id":"4","last_reported":1733933552,"current_range_meters":33200,"station_id":"ce4bh012rcd13ifvqd10","pricing_plan_id":"cebpf4jnsgd1na2vs0mg"},{"bike_id":"a2cbed10-302c-4b79-b6d0-c0c616ca87bc","system_id":"levelo_inurba_marseille","lat":43.3122,"lon":5.36866,"is_reserved":false,"is_disabled":false,"rental_uris":{"android":"levelo://app?vid=a2cbed10-302c-4b79-b6d0-c0c616ca87bc","ios":"levelo://app?vid=a2cbed10-302c-4b79-b6d0-c0c616ca87bc"},"vehicle_type_id":"4","last_reported":1733933552,"current_range_meters":37600,"station_id":"ce4bgl92rcd13ifvqbq0","pricing_plan_id":"cebpf4jnsgd1na2vs0mg"},{"bike_id":"79263867-ab0b-431e-89dc-246e72ff457f","system_id":"levelo_inurba_marseille","lat":43.286647,"lon":5.386633,"is_reserved":false,"is_disabled":true,"rental_uris":{"android":"levelo://app?vid=79263867-ab0b-431e-89dc-246e72ff457f","ios":"levelo://app?vid=79263867-ab0b-431e-89dc-246e72ff457f"},"vehicle_type_id":"4","last_reported":1733933552,"current_range_meters":38800,"station_id":"ce4bh492rcd13ifvqdug","pricing_plan_id":"cebpf4jnsgd1na2vs0mg"},{"bike_id":"4da8f61d-0f2a-4234-a08c-151dfadd6b43","system_id":"levelo_inurba_marseille","lat":43.300373,"lon":5.36408,"is_reserved":false,"is_disabled":true,"rental_uris":{"android":"levelo://app?vid=4da8f61d-0f2a-4234-a08c-151dfadd6b43","ios":"levelo://app?vid=4da8f61d-0f2a-4234-a08c-151dfadd6b43"},"vehicle_type_id":"4","last_reported":1733933552,"current_range_meters":0,"station_id":"","pricing_plan_id":"cebpf4jnsgd1na2vs0mg"},{"bike_id":"54dc23f1-3d3b-435a-a309-8fc866f432f3","system_id":"levelo_inurba_marseille","lat":43.24177,"lon":5.39735,"is_reserved":false,"is_disabled":false,"rental_uris":{"android":"levelo://app?vid=54dc23f1-3d3b-435a-a309-8fc866f432f3","ios":"levelo://app?vid=54dc23f1-3d3b-435a-a309-8fc866f432f3"},"vehicle_type_id":"4","last_reported":1733933552,"current_range_meters":4000,"station_id":"ce4bhn12rcd13ifvqgpg","pricing_plan_id":"cebpf4jnsgd1na2vs0mg"},{"bike_id":"26fcf8d2-6a84-4eb7-b8f3-6ff709ef3874","system_id":"levelo_inurba_marseille","lat":43.30895,"lon":5.37181,"is_reserved":false,"is_disabled":false,"rental_uris":{"android":"levelo://app?vid=26fcf8d2-6a84-4eb7-b8f3-6ff709ef3874","ios":"levelo://app?vid=26fcf8d2-6a84-4eb7-b8f3-6ff709ef3874"},"vehicle_type_id":"4","last_reported":1733933552,"current_range_meters":38800,"station_id":"ce4bguh2rcd13ifvqckg","pricing_plan_id":"cebpf4jnsgd1na2vs0mg"},{"bike_id":"e9b08cca-37ab-4633-8ff7-2d0a0a0131fe","system_id":"levelo_inurba_marseille","lat":43.26798,"lon":5.40247,"is_reserved":false,"is_disabled":false,"rental_uris":{"android":"levelo://app?vid=e9b08cca-37ab-4633-8ff7-2d0a0a0131fe","ios":"levelo://app?vid=e9b08cca-37ab-4633-8ff7-2d0a0a0131fe"},"vehicle_type_id":"4","last_reported":1733933552,"current_range_meters":27200,"station_id":"ce501612rcd8frsf0b60","pricing_plan_id":"cebpf4jnsgd1na2vs0mg"},{"bike_id":"af67ac53-ba21-4ff0-8334-95679e9ff2cc","system_id":"levelo_inurba_marseille","lat":43.278805,"lon":5.388003,"is_reserved":false,"is_disabled":true,"rental_uris":{"android":"levelo://app?vid=af67ac53-ba21-4ff0-8334-95679e9ff2cc","ios":"levelo://app?vid=af67ac53-ba21-4ff0-8334-95679e9ff2cc"},"vehicle_type_id":"4","last_reported":1733933552,"current_range_meters":0,"station_id":"","pricing_plan_id":"cebpf4jnsgd1na2vs0mg"},{"bike_id":"ab6bb814-6be0-4a23-8be0-7c219c550454","system_id":"levelo_inurba_marseille","lat":43.29446,"lon":5.39761,"is_reserved":false,"is_disabled":true,"rental_uris":{"android":"levelo://app?vid=ab6bb814-6be0-4a23-8be0-7c219c550454","ios":"levelo://app?vid=ab6bb814-6be0-4a23-8be0-7c219c550454"},"vehicle_type_id":"4","last_reported":1733933552,"current_range_meters":400,"station_id":"ce4bh3h2rcd13ifvqdo0","pricing_plan_id":"cebpf4jnsgd1na2vs0mg"},{"bike_id":"78096a24-0558-4e0f-98b5-e281d64ece81","system_id":"levelo_inurba_marseille","lat":43.28827,"lon":5.3585,"is_reserved":false,"is_disabled":false,"rental_uris":{"android":"levelo://app?vid=78096a24-0558-4e0f-98b5-e281d64ece81","ios":"levelo://app?vid=78096a24-0558-4e0f-98b5-e281d64ece81"},"vehicle_type_id":"4","last_reported":1733933552,"current_range_meters":35600,"station_id":"ce4bhb12rcd13ifvqem0","pricing_plan_id":"cebpf4jnsgd1na2vs0mg"},{"bike_id":"512311c6-8e27-4752-8fc0-b8cbde613e6b","system_id":"levelo_inurba_marseille","lat":43.26186,"lon":5.37455,"is_reserved":false,"is_disabled":false,"rental_uris":{"android":"levelo://app?vid=512311c6-8e27-4752-8fc0-b8cbde613e6b","ios":"levelo://app?vid=512311c6-8e27-4752-8fc0-b8cbde613e6b"},"vehicle_type_id":"4","last_reported":1733933552,"current_range_meters":16000,"station_id":"ce4bhgp2rcd13ifvqfc0","pricing_plan_id":"cebpf4jnsgd1na2vs0mg"},{"bike_id":"c3f87c2d-f647-4d71-89d3-fc010d8ba668","system_id":"levelo_inurba_marseille","lat":43.28481,"lon":5.38428,"is_reserved":false,"is_disabled":true,"rental_uris":{"android":"levelo://app?vid=c3f87c2d-f647-4d71-89d3-fc010d8ba668","ios":"levelo://app?vid=c3f87c2d-f647-4d71-89d3-fc010d8ba668"},"vehicle_type_id":"4","last_reported":1733933552,"current_range_meters":0,"station_id":"ce4bh512rcd13ifvqe3g","pricing_plan_id":"cebpf4jnsgd1na2vs0mg"},{"bike_id":"ad53aee5-a729-48be-8206-ea00c2981c19","system_id":"levelo_inurba_marseille","lat":43.30513,"lon":5.36536,"is_reserved":false,"is_disabled":true,"rental_uris":{"android":"levelo://app?vid=ad53aee5-a729-48be-8206-ea00c2981c19","ios":"levelo://app?vid=ad53aee5-a729-48be-8206-ea00c2981c19"},"vehicle_type_id":"4","last_reported":1733933552,"current_range_meters":0,"station_id":"","pricing_plan_id":"cebpf4jnsgd1na2vs0mg"},{"bike_id":"7d2bf50c-5f62-4bcb-93d6-9d9b8f36813d","system_id":"levelo_inurba_marseille","lat":43.30783,"lon":5.37659,"is_reserved":false,"is_disabled":false,"rental_uris":{"android":"levelo://app?vid=7d2bf50c-5f62-4bcb-93d6-9d9b8f36813d","ios":"levelo://app?vid=7d2bf50c-5f62-4bcb-93d6-9d9b8f36813d"},"vehicle_type_id":"4","last_reported":1733933552,"current_range_meters":22400,"station_id":"ce4bgv92rcd13ifvqcq0","pricing_plan_id":"cebpf4jnsgd1na2vs0mg"},{"bike_id":"0b3eeec8-03fc-4ec9-a747-da2e101f987f","system_id":"levelo_inurba_marseille","lat":43.23961,"lon":5.36631,"is_reserved":false,"is_disabled":false,"rental_uris":{"android":"levelo://app?vid=0b3eeec8-03fc-4ec9-a747-da2e101f987f","ios":"levelo://app?vid=0b3eeec8-03fc-4ec9-a747-da2e101f987f"},"vehicle_type_id":"4","last_reported":1733933552,"current_range_meters":30400,"station_id":"ce4bhi12rcd13ifvqfp0","pricing_plan_id":"cebpf4jnsgd1na2vs0mg"},{"bike_id":"26955912-9146-49da-803e-9cab65d3821f","system_id":"levelo_inurba_marseille","lat":43.25084,"lon":5.39524,"is_reserved":false,"is_disabled":false,"rental_uris":{"android":"levelo://app?vid=26955912-9146-49da-803e-9cab65d3821f","ios":"levelo://app?vid=26955912-9146-49da-803e-9cab65d3821f"},"vehicle_type_id":"4","last_reported":1733933552,"current_range_meters":34000,"station_id":"ce4bhm12rcd13ifvqgkg","pricing_plan_id":"cebpf4jnsgd1na2vs0mg"},{"bike_id":"7a043d75-54b2-410f-bdff-c73f1c6b1778","system_id":"levelo_inurba_marseille","lat":43.28983,"lon":5.37834,"is_reserved":false,"is_disabled":false,"rental_uris":{"android":"levelo://app?vid=7a043d75-54b2-410f-bdff-c73f1c6b1778","ios":"levelo://app?vid=7a043d75-54b2-410f-bdff-c73f1c6b1778"},"vehicle_type_id":"4","last_reported":1733933552,"current_range_meters":7200,"station_id":"ce4bh9p2rcd13ifvqed0","pricing_plan_id":"cebpf4jnsgd1na2vs0mg"},{"bike_id":"b8a93af3-7fef-40f7-bd5f-0c81282ce808","system_id":"levelo_inurba_marseille","lat":43.29728,"lon":5.36579,"is_reserved":false,"is_disabled":false,"rental_uris":{"android":"levelo://app?vid=b8a93af3-7fef-40f7-bd5f-0c81282ce808","ios":"levelo://app?vid=b8a93af3-7fef-40f7-bd5f-0c81282ce808"},"vehicle_type_id":"4","last_reported":1733933552,"current_range_meters":38000,"station_id":"ce4bgn12rcd13ifvqbt0","pricing_plan_id":"cebpf4jnsgd1na2vs0mg"},{"bike_id":"0408a00e-21e6-4196-a326-b3724f0853de","system_id":"levelo_inurba_marseille","lat":43.26952,"lon":5.386433,"is_reserved":false,"is_disabled":false,"rental_uris":{"android":"levelo://app?vid=0408a00e-21e6-4196-a326-b3724f0853de","ios":"levelo://app?vid=0408a00e-21e6-4196-a326-b3724f0853de"},"vehicle_type_id":"4","last_reported":1733933552,"current_range_meters":38000,"station_id":"ce4bhh92rcd13ifvqfh0","pricing_plan_id":"cebpf4jnsgd1na2vs0mg"},{"bike_id":"0aaf9b22-f7e1-4e4f-a1a5-7a779d72a1d4","system_id":"levelo_inurba_marseille","lat":43.29824,"lon":5.3777,"is_reserved":false,"is_disabled":true,"rental_uris":{"android":"levelo://app?vid=0aaf9b22-f7e1-4e4f-a1a5-7a779d72a1d4","ios":"levelo://app?vid=0aaf9b22-f7e1-4e4f-a1a5-7a779d72a1d4"},"vehicle_type_id":"4","last_reported":1733933552,"current_range_meters":800,"station_id":"","pricing_plan_id":"cebpf4jnsgd1na2vs0mg"},{"bike_id":"cefa54cb-a0bd-4d51-b13e-03ea2047e36f","system_id":"levelo_inurba_marseille","lat":43.29583,"lon":5.37492,"is_reserved":false,"is_disabled":true,"rental_uris":{"android":"levelo://app?vid=cefa54cb-a0bd-4d51-b13e-03ea2047e36f","ios":"levelo://app?vid=cefa54cb-a0bd-4d51-b13e-03ea2047e36f"},"vehicle_type_id":"4","last_reported":1733933552,"current_range_meters":32400,"station_id":"ce4bgh92rcd13ifvqb50","pricing_plan_id":"cebpf4jnsgd1na2vs0mg"},{"bike_id":"a89d8b1b-5c0c-4e08-ab10-30a246a48c39","system_id":"levelo_inurba_marseille","lat":43.28838,"lon":5.39318,"is_reserved":false,"is_disabled":false,"rental_uris":{"android":"levelo://app?vid=a89d8b1b-5c0c-4e08-ab10-30a246a48c39","ios":"levelo://app?vid=a89d8b1b-5c0c-4e08-ab10-30a246a48c39"},"vehicle_type_id":"4","last_reported":1733933552,"current_range_meters":23200,"station_id":"ce4bh2p2rcd13ifvqdi0","pricing_plan_id":"cebpf4jnsgd1na2vs0mg"},{"bike_id":"a85501a2-1a09-455f-954b-c790a9d4e292","system_id":"levelo_inurba_marseille","lat":43.31085,"lon":5.42427,"is_reserved":false,"is_disabled":false,"rental_uris":{"android":"levelo://app?vid=a85501a2-1a09-455f-954b-c790a9d4e292","ios":"levelo://app?vid=a85501a2-1a09-455f-954b-c790a9d4e292"},"vehicle_type_id":"4","last_reported":1733933552,"current_range_meters":21600,"station_id":"ce4bhp92rcd13ifvqhag","pricing_plan_id":"cebpf4jnsgd1na2vs0mg"},{"bike_id":"b8e3a311-f02b-4399-af7b-1bfb5506fa2a","system_id":"levelo_inurba_marseille","lat":43.24646,"lon":5.38897,"is_reserved":false,"is_disabled":false,"rental_uris":{"android":"levelo://app?vid=b8e3a311-f02b-4399-af7b-1bfb5506fa2a","ios":"levelo://app?vid=b8e3a311-f02b-4399-af7b-1bfb5506fa2a"},"vehicle_type_id":"4","last_reported":1733933552,"current_range_meters":28000,"station_id":"ce4bhg12rcd13ifvqf60","pricing_plan_id":"cebpf4jnsgd1na2vs0mg"},{"bike_id":"c7c3ed7b-c9bf-42bf-8b4a-6b49efc09e86","system_id":"levelo_inurba_marseille","lat":43.27845,"lon":5.39198,"is_reserved":false,"is_disabled":false,"rental_uris":{"android":"levelo://app?vid=c7c3ed7b-c9bf-42bf-8b4a-6b49efc09e86","ios":"levelo://app?vid=c7c3ed7b-c9bf-42bf-8b4a-6b49efc09e86"},"vehicle_type_id":"4","last_reported":1733933552,"current_range_meters":24000,"station_id":"ce4bhjp2rcd13ifvqga0","pricing_plan_id":"cebpf4jnsgd1na2vs0mg"},{"bike_id":"33a06979-7aa1-4ae0-b5f4-b537c9180943","system_id":"levelo_inurba_marseille","lat":43.324097,"lon":5.362972,"is_reserved":false,"is_disabled":false,"rental_uris":{"android":"levelo://app?vid=33a06979-7aa1-4ae0-b5f4-b537c9180943","ios":"levelo://app?vid=33a06979-7aa1-4ae0-b5f4-b537c9180943"},"vehicle_type_id":"4","last_reported":1733933552,"current_range_meters":36400,"station_id":"ce4bgpp2rcd13ifvqc3g","pricing_plan_id":"cebpf4jnsgd1na2vs0mg"},{"bike_id":"c8000abf-7b04-4aa2-881e-f0c5fefdd95b","system_id":"levelo_inurba_marseille","lat":43.31993,"lon":5.38156,"is_reserved":false,"is_disabled":false,"rental_uris":{"android":"levelo://app?vid=c8000abf-7b04-4aa2-881e-f0c5fefdd95b","ios":"levelo://app?vid=c8000abf-7b04-4aa2-881e-f0c5fefdd95b"},"vehicle_type_id":"4","last_reported":1733933552,"current_range_meters":18800,"station_id":"ce4bhr12rcd13ifvqhpg","pricing_plan_id":"cebpf4jnsgd1na2vs0mg"},{"bike_id":"5746a913-59cb-4881-b851-217de753d5a3","system_id":"levelo_inurba_marseille","lat":43.25084,"lon":5.39528,"is_reserved":false,"is_disabled":false,"rental_uris":{"android":"levelo://app?vid=5746a913-59cb-4881-b851-217de753d5a3","ios":"levelo://app?vid=5746a913-59cb-4881-b851-217de753d5a3"},"vehicle_type_id":"4","last_reported":1733933552,"current_range_meters":28400,"station_id":"ce4bhm12rcd13ifvqgkg","pricing_plan_id":"cebpf4jnsgd1na2vs0mg"},{"bike_id":"0a6164dc-2ff4-46a6-9527-7b91bfebfc93","system_id":"levelo_inurba_marseille","lat":43.31185,"lon":5.38701,"is_reserved":false,"is_disabled":false,"rental_uris":{"android":"levelo://app?vid=0a6164dc-2ff4-46a6-9527-7b91bfebfc93","ios":"levelo://app?vid=0a6164dc-2ff4-46a6-9527-7b91bfebfc93"},"vehicle_type_id":"4","last_reported":1733933552,"current_range_meters":24000,"station_id":"ce4bgv12rcd13ifvqcp0","pricing_plan_id":"cebpf4jnsgd1na2vs0mg"},{"bike_id":"8a429199-c57e-494c-92fa-e980bfd3a0ac","system_id":"levelo_inurba_marseille","lat":43.255,"lon":5.37648,"is_reserved":false,"is_disabled":true,"rental_uris":{"android":"levelo://app?vid=8a429199-c57e-494c-92fa-e980bfd3a0ac","ios":"levelo://app?vid=8a429199-c57e-494c-92fa-e980bfd3a0ac"},"vehicle_type_id":"4","last_reported":1733933552,"current_range_meters":0,"station_id":"ce4bhh12rcd13ifvqff0","pricing_plan_id":"cebpf4jnsgd1na2vs0mg"},{"bike_id":"50b714ae-96e6-4593-bfba-7d9f49fa5482","system_id":"levelo_inurba_marseille","lat":43.23966,"lon":5.36643,"is_reserved":false,"is_disabled":false,"rental_uris":{"android":"levelo://app?vid=50b714ae-96e6-4593-bfba-7d9f49fa5482","ios":"levelo://app?vid=50b714ae-96e6-4593-bfba-7d9f49fa5482"},"vehicle_type_id":"4","last_reported":1733933552,"current_range_meters":38800,"station_id":"ce4bhi12rcd13ifvqfp0","pricing_plan_id":"cebpf4jnsgd1na2vs0mg"},{"bike_id":"9e5c8928-7eb8-42f4-a2fa-1ecf026bec03","system_id":"levelo_inurba_marseille","lat":43.28437,"lon":5.39181,"is_reserved":false,"is_disabled":false,"rental_uris":{"android":"levelo://app?vid=9e5c8928-7eb8-42f4-a2fa-1ecf026bec03","ios":"levelo://app?vid=9e5c8928-7eb8-42f4-a2fa-1ecf026bec03"},"vehicle_type_id":"4","last_reported":1733933552,"current_range_meters":38800,"station_id":"ce4bhoh2rcd13ifvqh5g","pricing_plan_id":"cebpf4jnsgd1na2vs0mg"},{"bike_id":"14471182-9d0d-40e5-8e79-639672641a3b","system_id":"levelo_inurba_marseille","lat":43.27378,"lon":5.36262,"is_reserved":false,"is_disabled":false,"rental_uris":{"android":"levelo://app?vid=14471182-9d0d-40e5-8e79-639672641a3b","ios":"levelo://app?vid=14471182-9d0d-40e5-8e79-639672641a3b"},"vehicle_type_id":"4","last_reported":1733933552,"current_range_meters":38800,"station_id":"ce4bhbh2rcd13ifvqeo0","pricing_plan_id":"cebpf4jnsgd1na2vs0mg"},{"bike_id":"440c0882-719b-4b38-aba1-872c74c75218","system_id":"levelo_inurba_marseille","lat":43.32277,"lon":5.38255,"is_reserved":false,"is_disabled":false,"rental_uris":{"android":"levelo://app?vid=440c0882-719b-4b38-aba1-872c74c75218","ios":"levelo://app?vid=440c0882-719b-4b38-aba1-872c74c75218"},"vehicle_type_id":"4","last_reported":1733933552,"current_range_meters":38800,"station_id":"ce4bhr12rcd13ifvqhqg","pricing_plan_id":"cebpf4jnsgd1na2vs0mg"},{"bike_id":"e43afc4d-2aae-42e0-9ad3-68e69869c487","system_id":"levelo_inurba_marseille","lat":43.25503,"lon":5.37652,"is_reserved":false,"is_disabled":false,"rental_uris":{"android":"levelo://app?vid=e43afc4d-2aae-42e0-9ad3-68e69869c487","ios":"levelo://app?vid=e43afc4d-2aae-42e0-9ad3-68e69869c487"},"vehicle_type_id":"4","last_reported":1733933552,"current_range_meters":38800,"station_id":"ce4bhh12rcd13ifvqff0","pricing_plan_id":"cebpf4jnsgd1na2vs0mg"},{"bike_id":"17d6af53-cdd6-436b-ade8-e0937b85b870","system_id":"levelo_inurba_marseille","lat":43.26945,"lon":5.3891,"is_reserved":false,"is_disabled":false,"rental_uris":{"android":"levelo://app?vid=17d6af53-cdd6-436b-ade8-e0937b85b870","ios":"levelo://app?vid=17d6af53-cdd6-436b-ade8-e0937b85b870"},"vehicle_type_id":"4","last_reported":1733933552,"current_range_meters":38000,"station_id":"ce4bhhh2rcd13ifvqfl0","pricing_plan_id":"cebpf4jnsgd1na2vs0mg"},{"bike_id":"accc15c2-75c8-4823-a61f-1d4d7e399167","system_id":"levelo_inurba_marseille","lat":43.2942,"lon":5.38612,"is_reserved":false,"is_disabled":true,"rental_uris":{"android":"levelo://app?vid=accc15c2-75c8-4823-a61f-1d4d7e399167","ios":"levelo://app?vid=accc15c2-75c8-4823-a61f-1d4d7e399167"},"vehicle_type_id":"4","last_reported":1733933552,"current_range_meters":10800,"station_id":"ce4bh2h2rcd13ifvqdh0","pricing_plan_id":"cebpf4jnsgd1na2vs0mg"},{"bike_id":"1dcb3730-1dbc-4158-85c7-65de2c8645d2","system_id":"levelo_inurba_marseille","lat":43.29553,"lon":5.42278,"is_reserved":false,"is_disabled":false,"rental_uris":{"android":"levelo://app?vid=1dcb3730-1dbc-4158-85c7-65de2c8645d2","ios":"levelo://app?vid=1dcb3730-1dbc-4158-85c7-65de2c8645d2"},"vehicle_type_id":"4","last_reported":1733933552,"current_range_meters":36400,"station_id":"ce4bhph2rcd13ifvqhdg","pricing_plan_id":"cebpf4jnsgd1na2vs0mg"},{"bike_id":"133d9820-27f0-428d-9745-1c7c9d098ecd","system_id":"levelo_inurba_marseille","lat":43.31112,"lon":5.37764,"is_reserved":false,"is_disabled":false,"rental_uris":{"android":"levelo://app?vid=133d9820-27f0-428d-9745-1c7c9d098ecd","ios":"levelo://app?vid=133d9820-27f0-428d-9745-1c7c9d098ecd"},"vehicle_type_id":"4","last_reported":1733933552,"current_range_meters":17600,"station_id":"ce4bgt92rcd13ifvqcg0","pricing_plan_id":"cebpf4jnsgd1na2vs0mg"},{"bike_id":"2c014ae4-7d58-406f-a0f3-e7beffdd9a3b","system_id":"levelo_inurba_marseille","lat":43.30085,"lon":5.39093,"is_reserved":false,"is_disabled":true,"rental_uris":{"android":"levelo://app?vid=2c014ae4-7d58-406f-a0f3-e7beffdd9a3b","ios":"levelo://app?vid=2c014ae4-7d58-406f-a0f3-e7beffdd9a3b"},"vehicle_type_id":"4","last_reported":1733933552,"current_range_meters":30800,"station_id":"ce4bh192rcd13ifvqdb0","pricing_plan_id":"cebpf4jnsgd1na2vs0mg"},{"bike_id":"f053eb9e-5241-4a9c-b6f1-6b0e8a400961","system_id":"levelo_inurba_marseille","lat":43.30818,"lon":5.43524,"is_reserved":false,"is_disabled":false,"rental_uris":{"android":"levelo://app?vid=f053eb9e-5241-4a9c-b6f1-6b0e8a400961","ios":"levelo://app?vid=f053eb9e-5241-4a9c-b6f1-6b0e8a400961"},"vehicle_type_id":"4","last_reported":1733933552,"current_range_meters":17600,"station_id":"ce4bhph2rcd13ifvqheg","pricing_plan_id":"cebpf4jnsgd1na2vs0mg"},{"bike_id":"e966d2c7-c9e1-4cb1-9a39-6325607b0be4","system_id":"levelo_inurba_marseille","lat":43.337444,"lon":5.374475,"is_reserved":false,"is_disabled":true,"rental_uris":{"android":"levelo://app?vid=e966d2c7-c9e1-4cb1-9a39-6325607b0be4","ios":"levelo://app?vid=e966d2c7-c9e1-4cb1-9a39-6325607b0be4"},"vehicle_type_id":"4","last_reported":1733933552,"current_range_meters":0,"station_id":"","pricing_plan_id":"cebpf4jnsgd1na2vs0mg"},{"bike_id":"312bb54d-7981-48b2-bad1-cc0be49295b2","system_id":"levelo_inurba_marseille","lat":43.28814,"lon":5.35864,"is_reserved":false,"is_disabled":false,"rental_uris":{"android":"levelo://app?vid=312bb54d-7981-48b2-bad1-cc0be49295b2","ios":"levelo://app?vid=312bb54d-7981-48b2-bad1-cc0be49295b2"},"vehicle_type_id":"4","last_reported":1733933552,"current_range_meters":30400,"station_id":"ce4bhb12rcd13ifvqem0","pricing_plan_id":"cebpf4jnsgd1na2vs0mg"},{"bike_id":"f0a4f587-2333-4a7a-8819-09121e495e1b","system_id":"levelo_inurba_marseille","lat":43.22935,"lon":5.35389,"is_reserved":false,"is_disabled":false,"rental_uris":{"android":"levelo://app?vid=f0a4f587-2333-4a7a-8819-09121e495e1b","ios":"levelo://app?vid=f0a4f587-2333-4a7a-8819-09121e495e1b"},"vehicle_type_id":"4","last_reported":1733933552,"current_range_meters":12800,"station_id":"cpo3532slgdg3j2ikp40","pricing_plan_id":"cebpf4jnsgd1na2vs0mg"},{"bike_id":"17f59de1-b3ce-4e3a-95ec-402199b35e46","system_id":"levelo_inurba_marseille","lat":43.24647,"lon":5.38917,"is_reserved":false,"is_disabled":false,"rental_uris":{"android":"levelo://app?vid=17f59de1-b3ce-4e3a-95ec-402199b35e46","ios":"levelo://app?vid=17f59de1-b3ce-4e3a-95ec-402199b35e46"},"vehicle_type_id":"4","last_reported":1733933552,"current_range_meters":30800,"station_id":"ce4bhg12rcd13ifvqf60","pricing_plan_id":"cebpf4jnsgd1na2vs0mg"},{"bike_id":"e2b090ff-7c7f-4d4a-8f5b-c317e750043e","system_id":"levelo_inurba_marseille","lat":43.27069,"lon":5.42284,"is_reserved":false,"is_disabled":true,"rental_uris":{"android":"levelo://app?vid=e2b090ff-7c7f-4d4a-8f5b-c317e750043e","ios":"levelo://app?vid=e2b090ff-7c7f-4d4a-8f5b-c317e750043e"},"vehicle_type_id":"4","last_reported":1733933552,"current_range_meters":800,"station_id":"ce4bhk92rcd13ifvqgb0","pricing_plan_id":"cebpf4jnsgd1na2vs0mg"},{"bike_id":"ba8161c7-4a94-40c7-998e-0e585e2c4d1b","system_id":"levelo_inurba_marseille","lat":43.27071,"lon":5.42282,"is_reserved":false,"is_disabled":false,"rental_uris":{"android":"levelo://app?vid=ba8161c7-4a94-40c7-998e-0e585e2c4d1b","ios":"levelo://app?vid=ba8161c7-4a94-40c7-998e-0e585e2c4d1b"},"vehicle_type_id":"4","last_reported":1733933552,"current_range_meters":37600,"station_id":"ce4bhk92rcd13ifvqgb0","pricing_plan_id":"cebpf4jnsgd1na2vs0mg"},{"bike_id":"8db8b6fe-de7b-46b5-9318-5bed759ccf9f","system_id":"levelo_inurba_marseille","lat":43.26565,"lon":5.3901,"is_reserved":false,"is_disabled":false,"rental_uris":{"android":"levelo://app?vid=8db8b6fe-de7b-46b5-9318-5bed759ccf9f","ios":"levelo://app?vid=8db8b6fe-de7b-46b5-9318-5bed759ccf9f"},"vehicle_type_id":"4","last_reported":1733933552,"current_range_meters":6800,"station_id":"ce4bhe12rcd13ifvqf30","pricing_plan_id":"cebpf4jnsgd1na2vs0mg"},{"bike_id":"fe4d47c1-dfb5-4e68-bfe4-126efd20c0c3","system_id":"levelo_inurba_marseille","lat":43.30808,"lon":5.37329,"is_reserved":false,"is_disabled":false,"rental_uris":{"android":"levelo://app?vid=fe4d47c1-dfb5-4e68-bfe4-126efd20c0c3","ios":"levelo://app?vid=fe4d47c1-dfb5-4e68-bfe4-126efd20c0c3"},"vehicle_type_id":"4","last_reported":1733933552,"current_range_meters":25600,"station_id":"","pricing_plan_id":"cebpf4jnsgd1na2vs0mg"},{"bike_id":"fa76fc11-0a0a-4e43-ab82-0c5490279940","system_id":"levelo_inurba_marseille","lat":43.30141,"lon":5.38084,"is_reserved":false,"is_disabled":false,"rental_uris":{"android":"levelo://app?vid=fa76fc11-0a0a-4e43-ab82-0c5490279940","ios":"levelo://app?vid=fa76fc11-0a0a-4e43-ab82-0c5490279940"},"vehicle_type_id":"4","last_reported":1733933552,"current_range_meters":32400,"station_id":"ce4bgjp2rcd13ifvqbh0","pricing_plan_id":"cebpf4jnsgd1na2vs0mg"},{"bike_id":"c346be12-582d-42dc-8dce-5e128ded35bf","system_id":"levelo_inurba_marseille","lat":43.32002,"lon":5.38158,"is_reserved":false,"is_disabled":false,"rental_uris":{"android":"levelo://app?vid=c346be12-582d-42dc-8dce-5e128ded35bf","ios":"levelo://app?vid=c346be12-582d-42dc-8dce-5e128ded35bf"},"vehicle_type_id":"4","last_reported":1733933552,"current_range_meters":25200,"station_id":"ce4bhr12rcd13ifvqhpg","pricing_plan_id":"cebpf4jnsgd1na2vs0mg"},{"bike_id":"99e16a94-5d8b-46ee-9b6a-dd785f204fa1","system_id":"levelo_inurba_marseille","lat":43.28352,"lon":5.38092,"is_reserved":false,"is_disabled":false,"rental_uris":{"android":"levelo://app?vid=99e16a94-5d8b-46ee-9b6a-dd785f204fa1","ios":"levelo://app?vid=99e16a94-5d8b-46ee-9b6a-dd785f204fa1"},"vehicle_type_id":"4","last_reported":1733933552,"current_range_meters":22800,"station_id":"ce4bh412rcd13ifvqdr0","pricing_plan_id":"cebpf4jnsgd1na2vs0mg"},{"bike_id":"f660a001-8f8a-44ee-90cf-cc7bf378c516","system_id":"levelo_inurba_marseille","lat":43.24809,"lon":5.37457,"is_reserved":false,"is_disabled":false,"rental_uris":{"android":"levelo://app?vid=f660a001-8f8a-44ee-90cf-cc7bf378c516","ios":"levelo://app?vid=f660a001-8f8a-44ee-90cf-cc7bf378c516"},"vehicle_type_id":"4","last_reported":1733933552,"current_range_meters":38800,"station_id":"ce4bhgh2rcd13ifvqfb0","pricing_plan_id":"cebpf4jnsgd1na2vs0mg"},{"bike_id":"097a41bf-6635-41a6-b7a7-1173cae29ada","system_id":"levelo_inurba_marseille","lat":43.22933,"lon":5.35398,"is_reserved":false,"is_disabled":false,"rental_uris":{"android":"levelo://app?vid=097a41bf-6635-41a6-b7a7-1173cae29ada","ios":"levelo://app?vid=097a41bf-6635-41a6-b7a7-1173cae29ada"},"vehicle_type_id":"4","last_reported":1733933552,"current_range_meters":39200,"station_id":"cpo3532slgdg3j2ikp40","pricing_plan_id":"cebpf4jnsgd1na2vs0mg"},{"bike_id":"a90ab59e-9775-4bc6-a3e9-285e464122de","system_id":"levelo_inurba_marseille","lat":43.24649,"lon":5.3889,"is_reserved":false,"is_disabled":false,"rental_uris":{"android":"levelo://app?vid=a90ab59e-9775-4bc6-a3e9-285e464122de","ios":"levelo://app?vid=a90ab59e-9775-4bc6-a3e9-285e464122de"},"vehicle_type_id":"4","last_reported":1733933552,"current_range_meters":38400,"station_id":"ce4bhg12rcd13ifvqf60","pricing_plan_id":"cebpf4jnsgd1na2vs0mg"},{"bike_id":"e08a3c45-9a07-474f-9717-a27fa81c4ce9","system_id":"levelo_inurba_marseille","lat":43.307813,"lon":5.38767,"is_reserved":false,"is_disabled":true,"rental_uris":{"android":"levelo://app?vid=e08a3c45-9a07-474f-9717-a27fa81c4ce9","ios":"levelo://app?vid=e08a3c45-9a07-474f-9717-a27fa81c4ce9"},"vehicle_type_id":"4","last_reported":1733933552,"current_range_meters":1200,"station_id":"","pricing_plan_id":"cebpf4jnsgd1na2vs0mg"},{"bike_id":"b527fb3a-beee-43ab-ad58-3d1f3e829bc3","system_id":"levelo_inurba_marseille","lat":43.30554,"lon":5.36532,"is_reserved":false,"is_disabled":false,"rental_uris":{"android":"levelo://app?vid=b527fb3a-beee-43ab-ad58-3d1f3e829bc3","ios":"levelo://app?vid=b527fb3a-beee-43ab-ad58-3d1f3e829bc3"},"vehicle_type_id":"4","last_reported":1733933552,"current_range_meters":26000,"station_id":"ce4bgs12rcd13ifvqcag","pricing_plan_id":"cebpf4jnsgd1na2vs0mg"},{"bike_id":"d85b390a-c092-47c2-a48a-f5c5c92864ab","system_id":"levelo_inurba_marseille","lat":43.28356,"lon":5.38115,"is_reserved":false,"is_disabled":false,"rental_uris":{"android":"levelo://app?vid=d85b390a-c092-47c2-a48a-f5c5c92864ab","ios":"levelo://app?vid=d85b390a-c092-47c2-a48a-f5c5c92864ab"},"vehicle_type_id":"4","last_reported":1733933552,"current_range_meters":9200,"station_id":"ce4bh412rcd13ifvqdr0","pricing_plan_id":"cebpf4jnsgd1na2vs0mg"},{"bike_id":"ca15c5d9-ae35-4e3c-8bd7-996a7540383e","system_id":"levelo_inurba_marseille","lat":43.28101,"lon":5.37862,"is_reserved":false,"is_disabled":false,"rental_uris":{"android":"levelo://app?vid=ca15c5d9-ae35-4e3c-8bd7-996a7540383e","ios":"levelo://app?vid=ca15c5d9-ae35-4e3c-8bd7-996a7540383e"},"vehicle_type_id":"4","last_reported":1733933552,"current_range_meters":38800,"station_id":"ce4bha12rcd13ifvqee0","pricing_plan_id":"cebpf4jnsgd1na2vs0mg"},{"bike_id":"0d514f68-29b7-4049-844a-493370863f98","system_id":"levelo_inurba_marseille","lat":43.28379,"lon":5.38102,"is_reserved":false,"is_disabled":true,"rental_uris":{"android":"levelo://app?vid=0d514f68-29b7-4049-844a-493370863f98","ios":"levelo://app?vid=0d514f68-29b7-4049-844a-493370863f98"},"vehicle_type_id":"4","last_reported":1733933552,"current_range_meters":25200,"station_id":"ce4bh412rcd13ifvqdr0","pricing_plan_id":"cebpf4jnsgd1na2vs0mg"},{"bike_id":"bc119752-b234-4c77-b416-1126eb4f816b","system_id":"levelo_inurba_marseille","lat":43.25595,"lon":5.38234,"is_reserved":false,"is_disabled":false,"rental_uris":{"android":"levelo://app?vid=bc119752-b234-4c77-b416-1126eb4f816b","ios":"levelo://app?vid=bc119752-b234-4c77-b416-1126eb4f816b"},"vehicle_type_id":"4","last_reported":1733933552,"current_range_meters":38000,"station_id":"ce4bhih2rcd13ifvqfs0","pricing_plan_id":"cebpf4jnsgd1na2vs0mg"},{"bike_id":"e3f5cbcc-c0d9-4ed4-96fa-131656aa7cf7","system_id":"levelo_inurba_marseille","lat":43.29576,"lon":5.375,"is_reserved":false,"is_disabled":true,"rental_uris":{"android":"levelo://app?vid=e3f5cbcc-c0d9-4ed4-96fa-131656aa7cf7","ios":"levelo://app?vid=e3f5cbcc-c0d9-4ed4-96fa-131656aa7cf7"},"vehicle_type_id":"4","last_reported":1733933552,"current_range_meters":37600,"station_id":"ce4bgh92rcd13ifvqb50","pricing_plan_id":"cebpf4jnsgd1na2vs0mg"},{"bike_id":"a56f9de4-6a91-4720-9e75-282f862dc823","system_id":"levelo_inurba_marseille","lat":43.24185,"lon":5.39723,"is_reserved":false,"is_disabled":false,"rental_uris":{"android":"levelo://app?vid=a56f9de4-6a91-4720-9e75-282f862dc823","ios":"levelo://app?vid=a56f9de4-6a91-4720-9e75-282f862dc823"},"vehicle_type_id":"4","last_reported":1733933552,"current_range_meters":21600,"station_id":"ce4bhn12rcd13ifvqgpg","pricing_plan_id":"cebpf4jnsgd1na2vs0mg"},{"bike_id":"3cf7c120-dfd4-49e5-8af9-48cda8d258b3","system_id":"levelo_inurba_marseille","lat":43.30802,"lon":5.38144,"is_reserved":false,"is_disabled":false,"rental_uris":{"android":"levelo://app?vid=3cf7c120-dfd4-49e5-8af9-48cda8d258b3","ios":"levelo://app?vid=3cf7c120-dfd4-49e5-8af9-48cda8d258b3"},"vehicle_type_id":"4","last_reported":1733933552,"current_range_meters":8800,"station_id":"ce4bgt12rcd13ifvqce0","pricing_plan_id":"cebpf4jnsgd1na2vs0mg"},{"bike_id":"af77a2c4-4f01-4eac-8bd5-698508bacd7c","system_id":"levelo_inurba_marseille","lat":43.27174,"lon":5.40996,"is_reserved":false,"is_disabled":false,"rental_uris":{"android":"levelo://app?vid=af77a2c4-4f01-4eac-8bd5-698508bacd7c","ios":"levelo://app?vid=af77a2c4-4f01-4eac-8bd5-698508bacd7c"},"vehicle_type_id":"4","last_reported":1733933552,"current_range_meters":24400,"station_id":"ce4bhl12rcd13ifvqgf0","pricing_plan_id":"cebpf4jnsgd1na2vs0mg"},{"bike_id":"e2a77f5d-1d63-4243-bf72-8b9ec30686b1","system_id":"levelo_inurba_marseille","lat":43.28712,"lon":5.37934,"is_reserved":false,"is_disabled":true,"rental_uris":{"android":"levelo://app?vid=e2a77f5d-1d63-4243-bf72-8b9ec30686b1","ios":"levelo://app?vid=e2a77f5d-1d63-4243-bf72-8b9ec30686b1"},"vehicle_type_id":"4","last_reported":1733933552,"current_range_meters":34800,"station_id":"ce4bh9p2rcd13ifvqec0","pricing_plan_id":"cebpf4jnsgd1na2vs0mg"},{"bike_id":"1a6c2e40-cc83-4202-a877-31ef6d077395","system_id":"levelo_inurba_marseille","lat":43.27178,"lon":5.4099,"is_reserved":false,"is_disabled":false,"rental_uris":{"android":"levelo://app?vid=1a6c2e40-cc83-4202-a877-31ef6d077395","ios":"levelo://app?vid=1a6c2e40-cc83-4202-a877-31ef6d077395"},"vehicle_type_id":"4","last_reported":1733933552,"current_range_meters":36800,"station_id":"ce4bhl12rcd13ifvqgf0","pricing_plan_id":"cebpf4jnsgd1na2vs0mg"},{"bike_id":"d5a8a8df-93cd-4089-9974-ae219978109f","system_id":"levelo_inurba_marseille","lat":43.25511,"lon":5.37673,"is_reserved":false,"is_disabled":false,"rental_uris":{"android":"levelo://app?vid=d5a8a8df-93cd-4089-9974-ae219978109f","ios":"levelo://app?vid=d5a8a8df-93cd-4089-9974-ae219978109f"},"vehicle_type_id":"4","last_reported":1733933552,"current_range_meters":26800,"station_id":"ce4bhh12rcd13ifvqff0","pricing_plan_id":"cebpf4jnsgd1na2vs0mg"},{"bike_id":"013d3f10-8d73-4ff3-bc3c-a63b0b5dfd79","system_id":"levelo_inurba_marseille","lat":43.28425,"lon":5.34989,"is_reserved":false,"is_disabled":false,"rental_uris":{"android":"levelo://app?vid=013d3f10-8d73-4ff3-bc3c-a63b0b5dfd79","ios":"levelo://app?vid=013d3f10-8d73-4ff3-bc3c-a63b0b5dfd79"},"vehicle_type_id":"4","last_reported":1733933552,"current_range_meters":35200,"station_id":"ce4bhbh2rcd13ifvqepg","pricing_plan_id":"cebpf4jnsgd1na2vs0mg"},{"bike_id":"ebe5c8b0-5440-4bb6-8d1c-d9c2d49890a8","system_id":"levelo_inurba_marseille","lat":43.30539,"lon":5.36532,"is_reserved":false,"is_disabled":false,"rental_uris":{"android":"levelo://app?vid=ebe5c8b0-5440-4bb6-8d1c-d9c2d49890a8","ios":"levelo://app?vid=ebe5c8b0-5440-4bb6-8d1c-d9c2d49890a8"},"vehicle_type_id":"4","last_reported":1733933552,"current_range_meters":25600,"station_id":"ce4bgs12rcd13ifvqcag","pricing_plan_id":"cebpf4jnsgd1na2vs0mg"},{"bike_id":"a66c4b95-337e-4b9a-950c-e8c8d8e7a3a1","system_id":"levelo_inurba_marseille","lat":43.324799,"lon":5.365716,"is_reserved":false,"is_disabled":true,"rental_uris":{"android":"levelo://app?vid=a66c4b95-337e-4b9a-950c-e8c8d8e7a3a1","ios":"levelo://app?vid=a66c4b95-337e-4b9a-950c-e8c8d8e7a3a1"},"vehicle_type_id":"4","last_reported":1733933552,"current_range_meters":0,"station_id":"","pricing_plan_id":"cebpf4jnsgd1na2vs0mg"},{"bike_id":"b8a8e903-358c-4853-81b0-e99aeaec8699","system_id":"levelo_inurba_marseille","lat":43.24163,"lon":5.36407,"is_reserved":false,"is_disabled":false,"rental_uris":{"android":"levelo://app?vid=b8a8e903-358c-4853-81b0-e99aeaec8699","ios":"levelo://app?vid=b8a8e903-358c-4853-81b0-e99aeaec8699"},"vehicle_type_id":"4","last_reported":1733933552,"current_range_meters":25200,"station_id":"cpo36qri1sfpv3e86is0","pricing_plan_id":"cebpf4jnsgd1na2vs0mg"},{"bike_id":"2ed7839b-5815-46ec-8288-ac8ac565f4e7","system_id":"levelo_inurba_marseille","lat":43.3372,"lon":5.39179,"is_reserved":false,"is_disabled":false,"rental_uris":{"android":"levelo://app?vid=2ed7839b-5815-46ec-8288-ac8ac565f4e7","ios":"levelo://app?vid=2ed7839b-5815-46ec-8288-ac8ac565f4e7"},"vehicle_type_id":"4","last_reported":1733933552,"current_range_meters":38000,"station_id":"ce4bhr92rcd13ifvqhsg","pricing_plan_id":"cebpf4jnsgd1na2vs0mg"},{"bike_id":"4b6ab6f2-3731-4710-b5fa-3ba990bb9aca","system_id":"levelo_inurba_marseille","lat":43.29022,"lon":5.38142,"is_reserved":false,"is_disabled":true,"rental_uris":{"android":"levelo://app?vid=4b6ab6f2-3731-4710-b5fa-3ba990bb9aca","ios":"levelo://app?vid=4b6ab6f2-3731-4710-b5fa-3ba990bb9aca"},"vehicle_type_id":"4","last_reported":1733933552,"current_range_meters":38000,"station_id":"ce4bh4p2rcd13ifvqe1g","pricing_plan_id":"cebpf4jnsgd1na2vs0mg"},{"bike_id":"70ff41d9-9317-4a8a-8bae-8403fbc8a22e","system_id":"levelo_inurba_marseille","lat":43.23961,"lon":5.36632,"is_reserved":false,"is_disabled":false,"rental_uris":{"android":"levelo://app?vid=70ff41d9-9317-4a8a-8bae-8403fbc8a22e","ios":"levelo://app?vid=70ff41d9-9317-4a8a-8bae-8403fbc8a22e"},"vehicle_type_id":"4","last_reported":1733933552,"current_range_meters":20000,"station_id":"ce4bhi12rcd13ifvqfp0","pricing_plan_id":"cebpf4jnsgd1na2vs0mg"},{"bike_id":"1b08dac5-d8d7-4a9b-b629-9267798679f7","system_id":"levelo_inurba_marseille","lat":43.30956,"lon":5.39034,"is_reserved":false,"is_disabled":false,"rental_uris":{"android":"levelo://app?vid=1b08dac5-d8d7-4a9b-b629-9267798679f7","ios":"levelo://app?vid=1b08dac5-d8d7-4a9b-b629-9267798679f7"},"vehicle_type_id":"4","last_reported":1733933552,"current_range_meters":38800,"station_id":"ce4bgup2rcd13ifvqco0","pricing_plan_id":"cebpf4jnsgd1na2vs0mg"},{"bike_id":"3c7d8956-07af-4408-ae94-63514d5e362d","system_id":"levelo_inurba_marseille","lat":43.246477,"lon":5.38895,"is_reserved":false,"is_disabled":false,"rental_uris":{"android":"levelo://app?vid=3c7d8956-07af-4408-ae94-63514d5e362d","ios":"levelo://app?vid=3c7d8956-07af-4408-ae94-63514d5e362d"},"vehicle_type_id":"4","last_reported":1733933552,"current_range_meters":38800,"station_id":"ce4bhg12rcd13ifvqf60","pricing_plan_id":"cebpf4jnsgd1na2vs0mg"},{"bike_id":"2175ae3c-739a-49a6-8b88-c695a996a497","system_id":"levelo_inurba_marseille","lat":43.24053,"lon":5.37686,"is_reserved":false,"is_disabled":true,"rental_uris":{"android":"levelo://app?vid=2175ae3c-739a-49a6-8b88-c695a996a497","ios":"levelo://app?vid=2175ae3c-739a-49a6-8b88-c695a996a497"},"vehicle_type_id":"4","last_reported":1733933552,"current_range_meters":36400,"station_id":"ce4bhnp2rcd13ifvqgvg","pricing_plan_id":"cebpf4jnsgd1na2vs0mg"},{"bike_id":"5773a50a-df0b-4670-990e-5e298bd78ef6","system_id":"levelo_inurba_marseille","lat":43.32662,"lon":5.40995,"is_reserved":false,"is_disabled":false,"rental_uris":{"android":"levelo://app?vid=5773a50a-df0b-4670-990e-5e298bd78ef6","ios":"levelo://app?vid=5773a50a-df0b-4670-990e-5e298bd78ef6"},"vehicle_type_id":"4","last_reported":1733933552,"current_range_meters":37600,"station_id":"ce4bhpp2rcd13ifvqhgg","pricing_plan_id":"cebpf4jnsgd1na2vs0mg"},{"bike_id":"f16e68c0-f023-48e7-a1c5-b395aeec3cc4","system_id":"levelo_inurba_marseille","lat":43.24084,"lon":5.37754,"is_reserved":false,"is_disabled":false,"rental_uris":{"android":"levelo://app?vid=f16e68c0-f023-48e7-a1c5-b395aeec3cc4","ios":"levelo://app?vid=f16e68c0-f023-48e7-a1c5-b395aeec3cc4"},"vehicle_type_id":"4","last_reported":1733933552,"current_range_meters":21600,"station_id":"ce4bhnp2rcd13ifvqgvg","pricing_plan_id":"cebpf4jnsgd1na2vs0mg"},{"bike_id":"bbad0d33-9d14-4ff5-bf75-ebb9a47b717c","system_id":"levelo_inurba_marseille","lat":43.27633,"lon":5.36096,"is_reserved":false,"is_disabled":false,"rental_uris":{"android":"levelo://app?vid=bbad0d33-9d14-4ff5-bf75-ebb9a47b717c","ios":"levelo://app?vid=bbad0d33-9d14-4ff5-bf75-ebb9a47b717c"},"vehicle_type_id":"4","last_reported":1733933552,"current_range_meters":30400,"station_id":"ce4bgj92rcd13ifvqbe0","pricing_plan_id":"cebpf4jnsgd1na2vs0mg"},{"bike_id":"8453ac0b-4951-40e7-9b2c-960ae19641d9","system_id":"levelo_inurba_marseille","lat":43.29022,"lon":5.36978,"is_reserved":false,"is_disabled":true,"rental_uris":{"android":"levelo://app?vid=8453ac0b-4951-40e7-9b2c-960ae19641d9","ios":"levelo://app?vid=8453ac0b-4951-40e7-9b2c-960ae19641d9"},"vehicle_type_id":"4","last_reported":1733933552,"current_range_meters":1600,"station_id":"ce4bgvp2rcd13ifvqcu0","pricing_plan_id":"cebpf4jnsgd1na2vs0mg"},{"bike_id":"e28d523f-4287-411b-99fb-eb1e4e765117","system_id":"levelo_inurba_marseille","lat":43.29803,"lon":5.4041,"is_reserved":false,"is_disabled":false,"rental_uris":{"android":"levelo://app?vid=e28d523f-4287-411b-99fb-eb1e4e765117","ios":"levelo://app?vid=e28d523f-4287-411b-99fb-eb1e4e765117"},"vehicle_type_id":"4","last_reported":1733933552,"current_range_meters":22400,"station_id":"ce4bh112rcd13ifvqd90","pricing_plan_id":"cebpf4jnsgd1na2vs0mg"},{"bike_id":"62dc3d6f-14e9-4572-8025-9eaf9b53e0fb","system_id":"levelo_inurba_marseille","lat":43.28608,"lon":5.37064,"is_reserved":false,"is_disabled":false,"rental_uris":{"android":"levelo://app?vid=62dc3d6f-14e9-4572-8025-9eaf9b53e0fb","ios":"levelo://app?vid=62dc3d6f-14e9-4572-8025-9eaf9b53e0fb"},"vehicle_type_id":"4","last_reported":1733933552,"current_range_meters":38800,"station_id":"ce4bht12rcd13ifvqi60","pricing_plan_id":"cebpf4jnsgd1na2vs0mg"},{"bike_id":"2e9545a9-fd2b-47f1-bee1-f7ef40e6efc8","system_id":"levelo_inurba_marseille","lat":43.30914,"lon":5.37413,"is_reserved":false,"is_disabled":false,"rental_uris":{"android":"levelo://app?vid=2e9545a9-fd2b-47f1-bee1-f7ef40e6efc8","ios":"levelo://app?vid=2e9545a9-fd2b-47f1-bee1-f7ef40e6efc8"},"vehicle_type_id":"4","last_reported":1733933552,"current_range_meters":36800,"station_id":"ce4bgt12rcd13ifvqce0","pricing_plan_id":"cebpf4jnsgd1na2vs0mg"},{"bike_id":"06e1e942-0e43-4969-8409-ac55534c3e75","system_id":"levelo_inurba_marseille","lat":43.28998,"lon":5.35609,"is_reserved":false,"is_disabled":false,"rental_uris":{"android":"levelo://app?vid=06e1e942-0e43-4969-8409-ac55534c3e75","ios":"levelo://app?vid=06e1e942-0e43-4969-8409-ac55534c3e75"},"vehicle_type_id":"4","last_reported":1733933552,"current_range_meters":35200,"station_id":"ce4bhb92rcd13ifvqen0","pricing_plan_id":"cebpf4jnsgd1na2vs0mg"},{"bike_id":"b2426fa6-a7f6-4c3b-9324-81d7895e0adb","system_id":"levelo_inurba_marseille","lat":43.29589,"lon":5.38097,"is_reserved":false,"is_disabled":true,"rental_uris":{"android":"levelo://app?vid=b2426fa6-a7f6-4c3b-9324-81d7895e0adb","ios":"levelo://app?vid=b2426fa6-a7f6-4c3b-9324-81d7895e0adb"},"vehicle_type_id":"4","last_reported":1733933552,"current_range_meters":800,"station_id":"ce4bgl12rcd13ifvqbo0","pricing_plan_id":"cebpf4jnsgd1na2vs0mg"},{"bike_id":"ab1c6a12-19ac-4afb-af5f-776c48efacd2","system_id":"levelo_inurba_marseille","lat":43.23199,"lon":5.35562,"is_reserved":false,"is_disabled":false,"rental_uris":{"android":"levelo://app?vid=ab1c6a12-19ac-4afb-af5f-776c48efacd2","ios":"levelo://app?vid=ab1c6a12-19ac-4afb-af5f-776c48efacd2"},"vehicle_type_id":"4","last_reported":1733933552,"current_range_meters":19600,"station_id":"ce4bhu92rcd13ifvqi70","pricing_plan_id":"cebpf4jnsgd1na2vs0mg"},{"bike_id":"bfeaa8f2-1b87-4fae-9867-4c752a3577ac","system_id":"levelo_inurba_marseille","lat":43.2733,"lon":5.39112,"is_reserved":false,"is_disabled":true,"rental_uris":{"android":"levelo://app?vid=bfeaa8f2-1b87-4fae-9867-4c752a3577ac","ios":"levelo://app?vid=bfeaa8f2-1b87-4fae-9867-4c752a3577ac"},"vehicle_type_id":"4","last_reported":1733933552,"current_range_meters":400,"station_id":"ce4bhgp2rcd13ifvqfe0","pricing_plan_id":"cebpf4jnsgd1na2vs0mg"},{"bike_id":"034afd89-7884-46aa-947a-c5f301e52728","system_id":"levelo_inurba_marseille","lat":43.30879,"lon":5.396443,"is_reserved":false,"is_disabled":true,"rental_uris":{"android":"levelo://app?vid=034afd89-7884-46aa-947a-c5f301e52728","ios":"levelo://app?vid=034afd89-7884-46aa-947a-c5f301e52728"},"vehicle_type_id":"4","last_reported":1733933552,"current_range_meters":23200,"station_id":"ce4bh012rcd13ifvqcv0","pricing_plan_id":"cebpf4jnsgd1na2vs0mg"},{"bike_id":"dc07aef1-de2d-46a7-af9a-0dd2dac6e0dd","system_id":"levelo_inurba_marseille","lat":43.26032,"lon":5.37549,"is_reserved":false,"is_disabled":false,"rental_uris":{"android":"levelo://app?vid=dc07aef1-de2d-46a7-af9a-0dd2dac6e0dd","ios":"levelo://app?vid=dc07aef1-de2d-46a7-af9a-0dd2dac6e0dd"},"vehicle_type_id":"4","last_reported":1733933552,"current_range_meters":39200,"station_id":"ce4bhgh2rcd13ifvqfa0","pricing_plan_id":"cebpf4jnsgd1na2vs0mg"},{"bike_id":"6660ceff-66bf-4436-95f3-6c8efe4cd529","system_id":"levelo_inurba_marseille","lat":43.26207,"lon":5.37926,"is_reserved":false,"is_disabled":false,"rental_uris":{"android":"levelo://app?vid=6660ceff-66bf-4436-95f3-6c8efe4cd529","ios":"levelo://app?vid=6660ceff-66bf-4436-95f3-6c8efe4cd529"},"vehicle_type_id":"4","last_reported":1733933552,"current_range_meters":3200,"station_id":"ce4bhjp2rcd13ifvqg90","pricing_plan_id":"cebpf4jnsgd1na2vs0mg"},{"bike_id":"235a27c5-32a3-4841-a68d-f35363ff4e8b","system_id":"levelo_inurba_marseille","lat":43.26562,"lon":5.37308,"is_reserved":false,"is_disabled":false,"rental_uris":{"android":"levelo://app?vid=235a27c5-32a3-4841-a68d-f35363ff4e8b","ios":"levelo://app?vid=235a27c5-32a3-4841-a68d-f35363ff4e8b"},"vehicle_type_id":"4","last_reported":1733933552,"current_range_meters":27600,"station_id":"ce4bhg12rcd13ifvqf70","pricing_plan_id":"cebpf4jnsgd1na2vs0mg"},{"bike_id":"1be2f911-5fc5-4852-be66-ffe435557077","system_id":"levelo_inurba_marseille","lat":43.24669,"lon":5.38166,"is_reserved":false,"is_disabled":false,"rental_uris":{"android":"levelo://app?vid=1be2f911-5fc5-4852-be66-ffe435557077","ios":"levelo://app?vid=1be2f911-5fc5-4852-be66-ffe435557077"},"vehicle_type_id":"4","last_reported":1733933552,"current_range_meters":38800,"station_id":"ce4bhih2rcd13ifvqfr0","pricing_plan_id":"cebpf4jnsgd1na2vs0mg"},{"bike_id":"1b9459f5-dcc2-4e43-84c1-999b14f8e0bb","system_id":"levelo_inurba_marseille","lat":43.25577,"lon":5.38231,"is_reserved":false,"is_disabled":false,"rental_uris":{"android":"levelo://app?vid=1b9459f5-dcc2-4e43-84c1-999b14f8e0bb","ios":"levelo://app?vid=1b9459f5-dcc2-4e43-84c1-999b14f8e0bb"},"vehicle_type_id":"4","last_reported":1733933552,"current_range_meters":17600,"station_id":"ce4bhih2rcd13ifvqfs0","pricing_plan_id":"cebpf4jnsgd1na2vs0mg"},{"bike_id":"de70ae71-b17f-4f76-b1bc-aa42d45440f8","system_id":"levelo_inurba_marseille","lat":43.32481,"lon":5.36561,"is_reserved":false,"is_disabled":false,"rental_uris":{"android":"levelo://app?vid=de70ae71-b17f-4f76-b1bc-aa42d45440f8","ios":"levelo://app?vid=de70ae71-b17f-4f76-b1bc-aa42d45440f8"},"vehicle_type_id":"4","last_reported":1733933552,"current_range_meters":38400,"station_id":"ce4bhs12rcd13ifvqhvg","pricing_plan_id":"cebpf4jnsgd1na2vs0mg"},{"bike_id":"c2a30cdd-98fc-4055-a1a8-a7e206b3b28f","system_id":"levelo_inurba_marseille","lat":43.26851,"lon":5.37075,"is_reserved":false,"is_disabled":false,"rental_uris":{"android":"levelo://app?vid=c2a30cdd-98fc-4055-a1a8-a7e206b3b28f","ios":"levelo://app?vid=c2a30cdd-98fc-4055-a1a8-a7e206b3b28f"},"vehicle_type_id":"4","last_reported":1733933552,"current_range_meters":24800,"station_id":"","pricing_plan_id":"cebpf4jnsgd1na2vs0mg"},{"bike_id":"7f90f565-0d66-42dc-896d-0fa025e4897e","system_id":"levelo_inurba_marseille","lat":43.28717,"lon":5.36093,"is_reserved":false,"is_disabled":false,"rental_uris":{"android":"levelo://app?vid=7f90f565-0d66-42dc-896d-0fa025e4897e","ios":"levelo://app?vid=7f90f565-0d66-42dc-896d-0fa025e4897e"},"vehicle_type_id":"4","last_reported":1733933552,"current_range_meters":27600,"station_id":"cki0cbj6b192h4jlfktg","pricing_plan_id":"cebpf4jnsgd1na2vs0mg"},{"bike_id":"ee0186ce-5ee6-443a-aa7c-853a1e294ff2","system_id":"levelo_inurba_marseille","lat":43.29595,"lon":5.37712,"is_reserved":false,"is_disabled":true,"rental_uris":{"android":"levelo://app?vid=ee0186ce-5ee6-443a-aa7c-853a1e294ff2","ios":"levelo://app?vid=ee0186ce-5ee6-443a-aa7c-853a1e294ff2"},"vehicle_type_id":"4","last_reported":1733933552,"current_range_meters":23200,"station_id":"ce4bgi92rcd13ifvqb90","pricing_plan_id":"cebpf4jnsgd1na2vs0mg"},{"bike_id":"fc8f2ec9-6807-41c4-848a-0e47aa635543","system_id":"levelo_inurba_marseille","lat":43.29315,"lon":5.37166,"is_reserved":false,"is_disabled":false,"rental_uris":{"android":"levelo://app?vid=fc8f2ec9-6807-41c4-848a-0e47aa635543","ios":"levelo://app?vid=fc8f2ec9-6807-41c4-848a-0e47aa635543"},"vehicle_type_id":"4","last_reported":1733933552,"current_range_meters":39200,"station_id":"ce4bgh92rcd13ifvqb40","pricing_plan_id":"cebpf4jnsgd1na2vs0mg"},{"bike_id":"2c0e941a-a22c-46ac-a45b-80c76de84aa4","system_id":"levelo_inurba_marseille","lat":43.25087,"lon":5.39525,"is_reserved":false,"is_disabled":false,"rental_uris":{"android":"levelo://app?vid=2c0e941a-a22c-46ac-a45b-80c76de84aa4","ios":"levelo://app?vid=2c0e941a-a22c-46ac-a45b-80c76de84aa4"},"vehicle_type_id":"4","last_reported":1733933552,"current_range_meters":25200,"station_id":"ce4bhm12rcd13ifvqgkg","pricing_plan_id":"cebpf4jnsgd1na2vs0mg"},{"bike_id":"f2fd4d39-90e0-41d7-816d-1a4583333188","system_id":"levelo_inurba_marseille","lat":43.30519,"lon":5.38078,"is_reserved":false,"is_disabled":false,"rental_uris":{"android":"levelo://app?vid=f2fd4d39-90e0-41d7-816d-1a4583333188","ios":"levelo://app?vid=f2fd4d39-90e0-41d7-816d-1a4583333188"},"vehicle_type_id":"4","last_reported":1733933552,"current_range_meters":22400,"station_id":"","pricing_plan_id":"cebpf4jnsgd1na2vs0mg"},{"bike_id":"9a76796c-ce59-475b-af37-30ba2eea0518","system_id":"levelo_inurba_marseille","lat":43.27977,"lon":5.38736,"is_reserved":false,"is_disabled":false,"rental_uris":{"android":"levelo://app?vid=9a76796c-ce59-475b-af37-30ba2eea0518","ios":"levelo://app?vid=9a76796c-ce59-475b-af37-30ba2eea0518"},"vehicle_type_id":"4","last_reported":1733933552,"current_range_meters":6800,"station_id":"ce4bhg12rcd13ifvqf80","pricing_plan_id":"cebpf4jnsgd1na2vs0mg"},{"bike_id":"76a900bb-7dc9-4429-932c-6a92dbc95a5c","system_id":"levelo_inurba_marseille","lat":43.29562,"lon":5.42297,"is_reserved":false,"is_disabled":false,"rental_uris":{"android":"levelo://app?vid=76a900bb-7dc9-4429-932c-6a92dbc95a5c","ios":"levelo://app?vid=76a900bb-7dc9-4429-932c-6a92dbc95a5c"},"vehicle_type_id":"4","last_reported":1733933552,"current_range_meters":36800,"station_id":"ce4bhph2rcd13ifvqhdg","pricing_plan_id":"cebpf4jnsgd1na2vs0mg"},{"bike_id":"1c8a7a3b-20eb-480b-b246-0084b61e8baa","system_id":"levelo_inurba_marseille","lat":43.25083,"lon":5.39523,"is_reserved":false,"is_disabled":false,"rental_uris":{"android":"levelo://app?vid=1c8a7a3b-20eb-480b-b246-0084b61e8baa","ios":"levelo://app?vid=1c8a7a3b-20eb-480b-b246-0084b61e8baa"},"vehicle_type_id":"4","last_reported":1733933552,"current_range_meters":23200,"station_id":"ce4bhm12rcd13ifvqgkg","pricing_plan_id":"cebpf4jnsgd1na2vs0mg"},{"bike_id":"8a027a08-15fa-4f84-8aa2-b677a5538315","system_id":"levelo_inurba_marseille","lat":43.24071,"lon":5.3775,"is_reserved":false,"is_disabled":true,"rental_uris":{"android":"levelo://app?vid=8a027a08-15fa-4f84-8aa2-b677a5538315","ios":"levelo://app?vid=8a027a08-15fa-4f84-8aa2-b677a5538315"},"vehicle_type_id":"4","last_reported":1733933552,"current_range_meters":0,"station_id":"ce4bhnp2rcd13ifvqgvg","pricing_plan_id":"cebpf4jnsgd1na2vs0mg"},{"bike_id":"16492b5b-37d8-452f-8923-009b71c8397d","system_id":"levelo_inurba_marseille","lat":43.25575,"lon":5.38227,"is_reserved":false,"is_disabled":false,"rental_uris":{"android":"levelo://app?vid=16492b5b-37d8-452f-8923-009b71c8397d","ios":"levelo://app?vid=16492b5b-37d8-452f-8923-009b71c8397d"},"vehicle_type_id":"4","last_reported":1733933552,"current_range_meters":30000,"station_id":"ce4bhih2rcd13ifvqfs0","pricing_plan_id":"cebpf4jnsgd1na2vs0mg"},{"bike_id":"239480a6-56df-473e-837f-2ed189f76b96","system_id":"levelo_inurba_marseille","lat":43.27491,"lon":5.42456,"is_reserved":false,"is_disabled":true,"rental_uris":{"android":"levelo://app?vid=239480a6-56df-473e-837f-2ed189f76b96","ios":"levelo://app?vid=239480a6-56df-473e-837f-2ed189f76b96"},"vehicle_type_id":"4","last_reported":1733933552,"current_range_meters":0,"station_id":"ce4bhn92rcd13ifvqgrg","pricing_plan_id":"cebpf4jnsgd1na2vs0mg"},{"bike_id":"4d9975b2-8caf-4dfe-9202-9f11fbd0b727","system_id":"levelo_inurba_marseille","lat":43.29522,"lon":5.37501,"is_reserved":false,"is_disabled":true,"rental_uris":{"android":"levelo://app?vid=4d9975b2-8caf-4dfe-9202-9f11fbd0b727","ios":"levelo://app?vid=4d9975b2-8caf-4dfe-9202-9f11fbd0b727"},"vehicle_type_id":"4","last_reported":1733933552,"current_range_meters":21600,"station_id":"ce4bgkp2rcd13ifvqbmg","pricing_plan_id":"cebpf4jnsgd1na2vs0mg"},{"bike_id":"a5589391-a7e4-412b-9a87-f917b2322580","system_id":"levelo_inurba_marseille","lat":43.23067,"lon":5.35499,"is_reserved":false,"is_disabled":false,"rental_uris":{"android":"levelo://app?vid=a5589391-a7e4-412b-9a87-f917b2322580","ios":"levelo://app?vid=a5589391-a7e4-412b-9a87-f917b2322580"},"vehicle_type_id":"4","last_reported":1733933552,"current_range_meters":20400,"station_id":"cpo3342slgdg3j2ifvpg","pricing_plan_id":"cebpf4jnsgd1na2vs0mg"},{"bike_id":"25a2d1d3-20fb-496d-bbf3-087d63bc31f7","system_id":"levelo_inurba_marseille","lat":43.29971,"lon":5.37185,"is_reserved":false,"is_disabled":false,"rental_uris":{"android":"levelo://app?vid=25a2d1d3-20fb-496d-bbf3-087d63bc31f7","ios":"levelo://app?vid=25a2d1d3-20fb-496d-bbf3-087d63bc31f7"},"vehicle_type_id":"4","last_reported":1733933552,"current_range_meters":38800,"station_id":"ce4bgr92rcd13ifvqc7g","pricing_plan_id":"cebpf4jnsgd1na2vs0mg"},{"bike_id":"5d45934d-d05c-4f24-8f37-3eea3f951ebe","system_id":"levelo_inurba_marseille","lat":43.30556,"lon":5.40459,"is_reserved":false,"is_disabled":false,"rental_uris":{"android":"levelo://app?vid=5d45934d-d05c-4f24-8f37-3eea3f951ebe","ios":"levelo://app?vid=5d45934d-d05c-4f24-8f37-3eea3f951ebe"},"vehicle_type_id":"4","last_reported":1733933552,"current_range_meters":30000,"station_id":"","pricing_plan_id":"cebpf4jnsgd1na2vs0mg"},{"bike_id":"fa15d8a2-28b7-498f-924f-f222c63b613c","system_id":"levelo_inurba_marseille","lat":43.28607,"lon":5.35121,"is_reserved":false,"is_disabled":true,"rental_uris":{"android":"levelo://app?vid=fa15d8a2-28b7-498f-924f-f222c63b613c","ios":"levelo://app?vid=fa15d8a2-28b7-498f-924f-f222c63b613c"},"vehicle_type_id":"4","last_reported":1733933552,"current_range_meters":0,"station_id":"ce4bhch2rcd13ifvqeug","pricing_plan_id":"cebpf4jnsgd1na2vs0mg"},{"bike_id":"71cdde36-91bf-4e73-ac25-205d7551cce8","system_id":"levelo_inurba_marseille","lat":43.29225,"lon":5.36072,"is_reserved":false,"is_disabled":false,"rental_uris":{"android":"levelo://app?vid=71cdde36-91bf-4e73-ac25-205d7551cce8","ios":"levelo://app?vid=71cdde36-91bf-4e73-ac25-205d7551cce8"},"vehicle_type_id":"4","last_reported":1733933552,"current_range_meters":11600,"station_id":"ce4bhbh2rcd13ifvqeqg","pricing_plan_id":"cebpf4jnsgd1na2vs0mg"},{"bike_id":"6e0ae349-35e6-4281-bb79-ee1cfcb08eb5","system_id":"levelo_inurba_marseille","lat":43.27618,"lon":5.3611,"is_reserved":false,"is_disabled":false,"rental_uris":{"android":"levelo://app?vid=6e0ae349-35e6-4281-bb79-ee1cfcb08eb5","ios":"levelo://app?vid=6e0ae349-35e6-4281-bb79-ee1cfcb08eb5"},"vehicle_type_id":"4","last_reported":1733933552,"current_range_meters":17600,"station_id":"ce4bgj92rcd13ifvqbe0","pricing_plan_id":"cebpf4jnsgd1na2vs0mg"},{"bike_id":"626fb195-8901-4a08-9ea0-7773e6af5577","system_id":"levelo_inurba_marseille","lat":43.30797,"lon":5.43521,"is_reserved":false,"is_disabled":false,"rental_uris":{"android":"levelo://app?vid=626fb195-8901-4a08-9ea0-7773e6af5577","ios":"levelo://app?vid=626fb195-8901-4a08-9ea0-7773e6af5577"},"vehicle_type_id":"4","last_reported":1733933552,"current_range_meters":29600,"station_id":"ce4bhph2rcd13ifvqheg","pricing_plan_id":"cebpf4jnsgd1na2vs0mg"},{"bike_id":"a7b79bc9-a979-4528-a197-eacfb0c1b45c","system_id":"levelo_inurba_marseille","lat":43.28269,"lon":5.35057,"is_reserved":false,"is_disabled":true,"rental_uris":{"android":"levelo://app?vid=a7b79bc9-a979-4528-a197-eacfb0c1b45c","ios":"levelo://app?vid=a7b79bc9-a979-4528-a197-eacfb0c1b45c"},"vehicle_type_id":"4","last_reported":1733933552,"current_range_meters":0,"station_id":"ce4bhbp2rcd13ifvqerg","pricing_plan_id":"cebpf4jnsgd1na2vs0mg"},{"bike_id":"af8e20f5-e292-4e52-9478-c47f38758a62","system_id":"levelo_inurba_marseille","lat":43.26205,"lon":5.3745,"is_reserved":false,"is_disabled":false,"rental_uris":{"android":"levelo://app?vid=af8e20f5-e292-4e52-9478-c47f38758a62","ios":"levelo://app?vid=af8e20f5-e292-4e52-9478-c47f38758a62"},"vehicle_type_id":"4","last_reported":1733933552,"current_range_meters":22800,"station_id":"ce4bhgp2rcd13ifvqfc0","pricing_plan_id":"cebpf4jnsgd1na2vs0mg"},{"bike_id":"7ea15b3c-7183-480d-829f-ae91cdd6a7aa","system_id":"levelo_inurba_marseille","lat":43.28151,"lon":5.42642,"is_reserved":false,"is_disabled":false,"rental_uris":{"android":"levelo://app?vid=7ea15b3c-7183-480d-829f-ae91cdd6a7aa","ios":"levelo://app?vid=7ea15b3c-7183-480d-829f-ae91cdd6a7aa"},"vehicle_type_id":"4","last_reported":1733933552,"current_range_meters":12800,"station_id":"ce4bhnh2rcd13ifvqgug","pricing_plan_id":"cebpf4jnsgd1na2vs0mg"},{"bike_id":"e56bc2bb-ac57-48fe-82bc-7405df456504","system_id":"levelo_inurba_marseille","lat":43.31271,"lon":5.40158,"is_reserved":false,"is_disabled":false,"rental_uris":{"android":"levelo://app?vid=e56bc2bb-ac57-48fe-82bc-7405df456504","ios":"levelo://app?vid=e56bc2bb-ac57-48fe-82bc-7405df456504"},"vehicle_type_id":"4","last_reported":1733933552,"current_range_meters":14000,"station_id":"ce4bh092rcd13ifvqd30","pricing_plan_id":"cebpf4jnsgd1na2vs0mg"},{"bike_id":"ca3bf6a0-806c-4046-b219-bbea4c2ba646","system_id":"levelo_inurba_marseille","lat":43.23192,"lon":5.35541,"is_reserved":false,"is_disabled":false,"rental_uris":{"android":"levelo://app?vid=ca3bf6a0-806c-4046-b219-bbea4c2ba646","ios":"levelo://app?vid=ca3bf6a0-806c-4046-b219-bbea4c2ba646"},"vehicle_type_id":"4","last_reported":1733933552,"current_range_meters":25600,"station_id":"ce4bhu92rcd13ifvqi70","pricing_plan_id":"cebpf4jnsgd1na2vs0mg"},{"bike_id":"282d8b1c-2823-4a25-9c1d-fcd23da5b0b3","system_id":"levelo_inurba_marseille","lat":43.28153,"lon":5.42639,"is_reserved":false,"is_disabled":false,"rental_uris":{"android":"levelo://app?vid=282d8b1c-2823-4a25-9c1d-fcd23da5b0b3","ios":"levelo://app?vid=282d8b1c-2823-4a25-9c1d-fcd23da5b0b3"},"vehicle_type_id":"4","last_reported":1733933552,"current_range_meters":32800,"station_id":"ce4bhnh2rcd13ifvqgug","pricing_plan_id":"cebpf4jnsgd1na2vs0mg"},{"bike_id":"46b2fdec-0870-4ae2-84dc-b1f57512351e","system_id":"levelo_inurba_marseille","lat":43.337444,"lon":5.374475,"is_reserved":false,"is_disabled":true,"rental_uris":{"android":"levelo://app?vid=46b2fdec-0870-4ae2-84dc-b1f57512351e","ios":"levelo://app?vid=46b2fdec-0870-4ae2-84dc-b1f57512351e"},"vehicle_type_id":"4","last_reported":1733933552,"current_range_meters":0,"station_id":"","pricing_plan_id":"cebpf4jnsgd1na2vs0mg"},{"bike_id":"46503082-e0a9-4a87-b84b-79c5514ef15a","system_id":"levelo_inurba_marseille","lat":43.22928,"lon":5.35377,"is_reserved":false,"is_disabled":false,"rental_uris":{"android":"levelo://app?vid=46503082-e0a9-4a87-b84b-79c5514ef15a","ios":"levelo://app?vid=46503082-e0a9-4a87-b84b-79c5514ef15a"},"vehicle_type_id":"4","last_reported":1733933552,"current_range_meters":27200,"station_id":"cpo3532slgdg3j2ikp40","pricing_plan_id":"cebpf4jnsgd1na2vs0mg"},{"bike_id":"705e677f-5db8-4125-8f8b-e118cdca4ff3","system_id":"levelo_inurba_marseille","lat":43.26568,"lon":5.38994,"is_reserved":false,"is_disabled":false,"rental_uris":{"android":"levelo://app?vid=705e677f-5db8-4125-8f8b-e118cdca4ff3","ios":"levelo://app?vid=705e677f-5db8-4125-8f8b-e118cdca4ff3"},"vehicle_type_id":"4","last_reported":1733933552,"current_range_meters":24400,"station_id":"ce4bhe12rcd13ifvqf30","pricing_plan_id":"cebpf4jnsgd1na2vs0mg"},{"bike_id":"49b074cf-7681-410d-90d4-2d6e28bdf819","system_id":"levelo_inurba_marseille","lat":43.24175,"lon":5.39736,"is_reserved":false,"is_disabled":false,"rental_uris":{"android":"levelo://app?vid=49b074cf-7681-410d-90d4-2d6e28bdf819","ios":"levelo://app?vid=49b074cf-7681-410d-90d4-2d6e28bdf819"},"vehicle_type_id":"4","last_reported":1733933552,"current_range_meters":19200,"station_id":"ce4bhn12rcd13ifvqgpg","pricing_plan_id":"cebpf4jnsgd1na2vs0mg"},{"bike_id":"658c32ae-cd5c-40de-974a-e153a0984c70","system_id":"levelo_inurba_marseille","lat":43.29004,"lon":5.35611,"is_reserved":false,"is_disabled":false,"rental_uris":{"android":"levelo://app?vid=658c32ae-cd5c-40de-974a-e153a0984c70","ios":"levelo://app?vid=658c32ae-cd5c-40de-974a-e153a0984c70"},"vehicle_type_id":"4","last_reported":1733933552,"current_range_meters":11200,"station_id":"ce4bhb92rcd13ifvqen0","pricing_plan_id":"cebpf4jnsgd1na2vs0mg"},{"bike_id":"d892ad28-9bdd-44bf-a75b-3af892aee7c8","system_id":"levelo_inurba_marseille","lat":43.33772,"lon":5.37424,"is_reserved":false,"is_disabled":false,"rental_uris":{"android":"levelo://app?vid=d892ad28-9bdd-44bf-a75b-3af892aee7c8","ios":"levelo://app?vid=d892ad28-9bdd-44bf-a75b-3af892aee7c8"},"vehicle_type_id":"4","last_reported":1733933552,"current_range_meters":11600,"station_id":"","pricing_plan_id":"cebpf4jnsgd1na2vs0mg"},{"bike_id":"a75d3fb5-03a9-40bd-a1a8-05e40514d572","system_id":"levelo_inurba_marseille","lat":43.27199,"lon":5.40973,"is_reserved":false,"is_disabled":false,"rental_uris":{"android":"levelo://app?vid=a75d3fb5-03a9-40bd-a1a8-05e40514d572","ios":"levelo://app?vid=a75d3fb5-03a9-40bd-a1a8-05e40514d572"},"vehicle_type_id":"4","last_reported":1733933552,"current_range_meters":36800,"station_id":"ce4bhl12rcd13ifvqgf0","pricing_plan_id":"cebpf4jnsgd1na2vs0mg"},{"bike_id":"1e8fe257-e2eb-41d7-88a1-7895d02e6cad","system_id":"levelo_inurba_marseille","lat":43.27379,"lon":5.36249,"is_reserved":false,"is_disabled":false,"rental_uris":{"android":"levelo://app?vid=1e8fe257-e2eb-41d7-88a1-7895d02e6cad","ios":"levelo://app?vid=1e8fe257-e2eb-41d7-88a1-7895d02e6cad"},"vehicle_type_id":"4","last_reported":1733933552,"current_range_meters":39200,"station_id":"ce4bhbh2rcd13ifvqeo0","pricing_plan_id":"cebpf4jnsgd1na2vs0mg"},{"bike_id":"2ebd2fc6-13ac-4b60-8a2e-07cab16d51cc","system_id":"levelo_inurba_marseille","lat":43.24649,"lon":5.38892,"is_reserved":false,"is_disabled":false,"rental_uris":{"android":"levelo://app?vid=2ebd2fc6-13ac-4b60-8a2e-07cab16d51cc","ios":"levelo://app?vid=2ebd2fc6-13ac-4b60-8a2e-07cab16d51cc"},"vehicle_type_id":"4","last_reported":1733933552,"current_range_meters":22800,"station_id":"ce4bhg12rcd13ifvqf60","pricing_plan_id":"cebpf4jnsgd1na2vs0mg"},{"bike_id":"fde47c74-48b7-42f3-bbc4-822a8ba605d1","system_id":"levelo_inurba_marseille","lat":43.29998,"lon":5.37186,"is_reserved":false,"is_disabled":false,"rental_uris":{"android":"levelo://app?vid=fde47c74-48b7-42f3-bbc4-822a8ba605d1","ios":"levelo://app?vid=fde47c74-48b7-42f3-bbc4-822a8ba605d1"},"vehicle_type_id":"4","last_reported":1733933552,"current_range_meters":38800,"station_id":"ce4bgr92rcd13ifvqc7g","pricing_plan_id":"cebpf4jnsgd1na2vs0mg"},{"bike_id":"cfeef1d2-86d9-4c1b-8076-adb2f0d09c18","system_id":"levelo_inurba_marseille","lat":43.2947,"lon":5.37699,"is_reserved":false,"is_disabled":true,"rental_uris":{"android":"levelo://app?vid=cfeef1d2-86d9-4c1b-8076-adb2f0d09c18","ios":"levelo://app?vid=cfeef1d2-86d9-4c1b-8076-adb2f0d09c18"},"vehicle_type_id":"4","last_reported":1733933552,"current_range_meters":0,"station_id":"","pricing_plan_id":"cebpf4jnsgd1na2vs0mg"},{"bike_id":"6d05f7ba-808a-4403-b1f3-f8483fec843c","system_id":"levelo_inurba_marseille","lat":43.2319,"lon":5.3556,"is_reserved":false,"is_disabled":false,"rental_uris":{"android":"levelo://app?vid=6d05f7ba-808a-4403-b1f3-f8483fec843c","ios":"levelo://app?vid=6d05f7ba-808a-4403-b1f3-f8483fec843c"},"vehicle_type_id":"4","last_reported":1733933552,"current_range_meters":36400,"station_id":"ce4bhu92rcd13ifvqi70","pricing_plan_id":"cebpf4jnsgd1na2vs0mg"},{"bike_id":"0133a6a3-5a29-4cec-885d-9dd4bcfc6c6e","system_id":"levelo_inurba_marseille","lat":43.27178,"lon":5.41,"is_reserved":false,"is_disabled":false,"rental_uris":{"android":"levelo://app?vid=0133a6a3-5a29-4cec-885d-9dd4bcfc6c6e","ios":"levelo://app?vid=0133a6a3-5a29-4cec-885d-9dd4bcfc6c6e"},"vehicle_type_id":"4","last_reported":1733933552,"current_range_meters":32000,"station_id":"ce4bhl12rcd13ifvqgf0","pricing_plan_id":"cebpf4jnsgd1na2vs0mg"},{"bike_id":"3d97a712-d040-4ba5-9334-6466e8c063ef","system_id":"levelo_inurba_marseille","lat":43.27372,"lon":5.36258,"is_reserved":false,"is_disabled":false,"rental_uris":{"android":"levelo://app?vid=3d97a712-d040-4ba5-9334-6466e8c063ef","ios":"levelo://app?vid=3d97a712-d040-4ba5-9334-6466e8c063ef"},"vehicle_type_id":"4","last_reported":1733933552,"current_range_meters":10800,"station_id":"ce4bhbh2rcd13ifvqeo0","pricing_plan_id":"cebpf4jnsgd1na2vs0mg"},{"bike_id":"11b02ab4-503e-4c05-ac1c-aa102ea2e6c9","system_id":"levelo_inurba_marseille","lat":43.31331,"lon":5.39697,"is_reserved":false,"is_disabled":false,"rental_uris":{"android":"levelo://app?vid=11b02ab4-503e-4c05-ac1c-aa102ea2e6c9","ios":"levelo://app?vid=11b02ab4-503e-4c05-ac1c-aa102ea2e6c9"},"vehicle_type_id":"4","last_reported":1733933552,"current_range_meters":6800,"station_id":"ce4bgvp2rcd13ifvqcu0","pricing_plan_id":"cebpf4jnsgd1na2vs0mg"},{"bike_id":"08595f37-404a-46f2-b805-853a25c1ebe7","system_id":"levelo_inurba_marseille","lat":43.26544,"lon":5.37291,"is_reserved":false,"is_disabled":false,"rental_uris":{"android":"levelo://app?vid=08595f37-404a-46f2-b805-853a25c1ebe7","ios":"levelo://app?vid=08595f37-404a-46f2-b805-853a25c1ebe7"},"vehicle_type_id":"4","last_reported":1733933552,"current_range_meters":17200,"station_id":"ce4bhg12rcd13ifvqf70","pricing_plan_id":"cebpf4jnsgd1na2vs0mg"},{"bike_id":"9d5fa22f-b349-42f6-abc1-dcec0a7eafbf","system_id":"levelo_inurba_marseille","lat":43.30807,"lon":5.37319,"is_reserved":false,"is_disabled":true,"rental_uris":{"android":"levelo://app?vid=9d5fa22f-b349-42f6-abc1-dcec0a7eafbf","ios":"levelo://app?vid=9d5fa22f-b349-42f6-abc1-dcec0a7eafbf"},"vehicle_type_id":"4","last_reported":1733933552,"current_range_meters":0,"station_id":"","pricing_plan_id":"cebpf4jnsgd1na2vs0mg"},{"bike_id":"9c8c1480-9ffa-4086-913c-c2125a6eb848","system_id":"levelo_inurba_marseille","lat":43.22933,"lon":5.35379,"is_reserved":false,"is_disabled":true,"rental_uris":{"android":"levelo://app?vid=9c8c1480-9ffa-4086-913c-c2125a6eb848","ios":"levelo://app?vid=9c8c1480-9ffa-4086-913c-c2125a6eb848"},"vehicle_type_id":"4","last_reported":1733933552,"current_range_meters":38800,"station_id":"cpo3532slgdg3j2ikp40","pricing_plan_id":"cebpf4jnsgd1na2vs0mg"},{"bike_id":"0e9ee8e6-308b-43cf-8d13-c2c7b6d5df31","system_id":"levelo_inurba_marseille","lat":43.25494,"lon":5.3765,"is_reserved":false,"is_disabled":true,"rental_uris":{"android":"levelo://app?vid=0e9ee8e6-308b-43cf-8d13-c2c7b6d5df31","ios":"levelo://app?vid=0e9ee8e6-308b-43cf-8d13-c2c7b6d5df31"},"vehicle_type_id":"4","last_reported":1733933552,"current_range_meters":800,"station_id":"ce4bhh12rcd13ifvqff0","pricing_plan_id":"cebpf4jnsgd1na2vs0mg"},{"bike_id":"279f19c9-941c-4eca-8f82-c20be0450487","system_id":"levelo_inurba_marseille","lat":43.29008,"lon":5.35608,"is_reserved":false,"is_disabled":false,"rental_uris":{"android":"levelo://app?vid=279f19c9-941c-4eca-8f82-c20be0450487","ios":"levelo://app?vid=279f19c9-941c-4eca-8f82-c20be0450487"},"vehicle_type_id":"4","last_reported":1733933552,"current_range_meters":38000,"station_id":"ce4bhb92rcd13ifvqen0","pricing_plan_id":"cebpf4jnsgd1na2vs0mg"},{"bike_id":"d124202d-5c74-4f55-8035-018ee14b4e60","system_id":"levelo_inurba_marseille","lat":43.3046,"lon":5.37901,"is_reserved":false,"is_disabled":false,"rental_uris":{"android":"levelo://app?vid=d124202d-5c74-4f55-8035-018ee14b4e60","ios":"levelo://app?vid=d124202d-5c74-4f55-8035-018ee14b4e60"},"vehicle_type_id":"4","last_reported":1733933552,"current_range_meters":3600,"station_id":"ce4bgup2rcd13ifvqcn0","pricing_plan_id":"cebpf4jnsgd1na2vs0mg"},{"bike_id":"624b20de-ef4a-40b7-b208-bbe4d5c92574","system_id":"levelo_inurba_marseille","lat":43.29622,"lon":5.37154,"is_reserved":false,"is_disabled":false,"rental_uris":{"android":"levelo://app?vid=624b20de-ef4a-40b7-b208-bbe4d5c92574","ios":"levelo://app?vid=624b20de-ef4a-40b7-b208-bbe4d5c92574"},"vehicle_type_id":"4","last_reported":1733933552,"current_range_meters":38800,"station_id":"ce4bgnh2rcd13ifvqc0g","pricing_plan_id":"cebpf4jnsgd1na2vs0mg"},{"bike_id":"87a01583-813c-4ca3-bf1e-3c0a0f140643","system_id":"levelo_inurba_marseille","lat":43.31176,"lon":5.3688,"is_reserved":false,"is_disabled":false,"rental_uris":{"android":"levelo://app?vid=87a01583-813c-4ca3-bf1e-3c0a0f140643","ios":"levelo://app?vid=87a01583-813c-4ca3-bf1e-3c0a0f140643"},"vehicle_type_id":"4","last_reported":1733933552,"current_range_meters":8400,"station_id":"","pricing_plan_id":"cebpf4jnsgd1na2vs0mg"},{"bike_id":"59805652-78d3-4a9e-ab93-ccef054ac3df","system_id":"levelo_inurba_marseille","lat":43.29055,"lon":5.35932,"is_reserved":false,"is_disabled":false,"rental_uris":{"android":"levelo://app?vid=59805652-78d3-4a9e-ab93-ccef054ac3df","ios":"levelo://app?vid=59805652-78d3-4a9e-ab93-ccef054ac3df"},"vehicle_type_id":"4","last_reported":1733933552,"current_range_meters":7200,"station_id":"ce4bha92rcd13ifvqeg0","pricing_plan_id":"cebpf4jnsgd1na2vs0mg"},{"bike_id":"9ac7fa6e-2578-4832-8168-ade341fdc585","system_id":"levelo_inurba_marseille","lat":43.2841,"lon":5.428961,"is_reserved":false,"is_disabled":true,"rental_uris":{"android":"levelo://app?vid=9ac7fa6e-2578-4832-8168-ade341fdc585","ios":"levelo://app?vid=9ac7fa6e-2578-4832-8168-ade341fdc585"},"vehicle_type_id":"4","last_reported":1733933552,"current_range_meters":0,"station_id":"","pricing_plan_id":"cebpf4jnsgd1na2vs0mg"},{"bike_id":"5b93766f-d0f8-4bca-bc57-e286c063ce96","system_id":"levelo_inurba_marseille","lat":43.29556,"lon":5.42281,"is_reserved":false,"is_disabled":false,"rental_uris":{"android":"levelo://app?vid=5b93766f-d0f8-4bca-bc57-e286c063ce96","ios":"levelo://app?vid=5b93766f-d0f8-4bca-bc57-e286c063ce96"},"vehicle_type_id":"4","last_reported":1733933552,"current_range_meters":34000,"station_id":"ce4bhph2rcd13ifvqhdg","pricing_plan_id":"cebpf4jnsgd1na2vs0mg"},{"bike_id":"de6c43c2-692f-45ff-937f-2bea4c76e8d5","system_id":"levelo_inurba_marseille","lat":43.29612,"lon":5.37723,"is_reserved":false,"is_disabled":false,"rental_uris":{"android":"levelo://app?vid=de6c43c2-692f-45ff-937f-2bea4c76e8d5","ios":"levelo://app?vid=de6c43c2-692f-45ff-937f-2bea4c76e8d5"},"vehicle_type_id":"4","last_reported":1733933552,"current_range_meters":38800,"station_id":"ce4bgi92rcd13ifvqb90","pricing_plan_id":"cebpf4jnsgd1na2vs0mg"},{"bike_id":"cd0a934c-285e-4271-9238-b2a1a9588ec8","system_id":"levelo_inurba_marseille","lat":43.2871,"lon":5.37936,"is_reserved":false,"is_disabled":true,"rental_uris":{"android":"levelo://app?vid=cd0a934c-285e-4271-9238-b2a1a9588ec8","ios":"levelo://app?vid=cd0a934c-285e-4271-9238-b2a1a9588ec8"},"vehicle_type_id":"4","last_reported":1733933552,"current_range_meters":8800,"station_id":"ce4bh9p2rcd13ifvqec0","pricing_plan_id":"cebpf4jnsgd1na2vs0mg"},{"bike_id":"6f480f80-7c99-476c-8cb5-e0ea44d96bcd","system_id":"levelo_inurba_marseille","lat":43.24545,"lon":5.39523,"is_reserved":false,"is_disabled":false,"rental_uris":{"android":"levelo://app?vid=6f480f80-7c99-476c-8cb5-e0ea44d96bcd","ios":"levelo://app?vid=6f480f80-7c99-476c-8cb5-e0ea44d96bcd"},"vehicle_type_id":"4","last_reported":1733933552,"current_range_meters":7200,"station_id":"ce4bhlp2rcd13ifvqgjg","pricing_plan_id":"cebpf4jnsgd1na2vs0mg"},{"bike_id":"dfa72cea-8422-423e-89ac-124a5b9338f5","system_id":"levelo_inurba_marseille","lat":43.28611,"lon":5.37066,"is_reserved":false,"is_disabled":false,"rental_uris":{"android":"levelo://app?vid=dfa72cea-8422-423e-89ac-124a5b9338f5","ios":"levelo://app?vid=dfa72cea-8422-423e-89ac-124a5b9338f5"},"vehicle_type_id":"4","last_reported":1733933552,"current_range_meters":33200,"station_id":"ce4bht12rcd13ifvqi60","pricing_plan_id":"cebpf4jnsgd1na2vs0mg"},{"bike_id":"9cb1e78d-4c4a-4660-bb7a-06bb3e54829e","system_id":"levelo_inurba_marseille","lat":43.284527,"lon":5.391962,"is_reserved":false,"is_disabled":false,"rental_uris":{"android":"levelo://app?vid=9cb1e78d-4c4a-4660-bb7a-06bb3e54829e","ios":"levelo://app?vid=9cb1e78d-4c4a-4660-bb7a-06bb3e54829e"},"vehicle_type_id":"4","last_reported":1733933552,"current_range_meters":11200,"station_id":"ce4bhoh2rcd13ifvqh5g","pricing_plan_id":"cebpf4jnsgd1na2vs0mg"},{"bike_id":"2170586e-f48b-488e-9cb8-fca4aa23e253","system_id":"levelo_inurba_marseille","lat":43.27383,"lon":5.36254,"is_reserved":false,"is_disabled":false,"rental_uris":{"android":"levelo://app?vid=2170586e-f48b-488e-9cb8-fca4aa23e253","ios":"levelo://app?vid=2170586e-f48b-488e-9cb8-fca4aa23e253"},"vehicle_type_id":"4","last_reported":1733933552,"current_range_meters":24800,"station_id":"ce4bhbh2rcd13ifvqeo0","pricing_plan_id":"cebpf4jnsgd1na2vs0mg"},{"bike_id":"9cc083be-7f20-43cc-aab7-e0b7dbd8868a","system_id":"levelo_inurba_marseille","lat":43.28423,"lon":5.34994,"is_reserved":false,"is_disabled":false,"rental_uris":{"android":"levelo://app?vid=9cc083be-7f20-43cc-aab7-e0b7dbd8868a","ios":"levelo://app?vid=9cc083be-7f20-43cc-aab7-e0b7dbd8868a"},"vehicle_type_id":"4","last_reported":1733933552,"current_range_meters":26000,"station_id":"ce4bhbh2rcd13ifvqepg","pricing_plan_id":"cebpf4jnsgd1na2vs0mg"},{"bike_id":"0bafb3be-fad5-461e-b5f9-97c07551a213","system_id":"levelo_inurba_marseille","lat":43.30352,"lon":5.41874,"is_reserved":false,"is_disabled":false,"rental_uris":{"android":"levelo://app?vid=0bafb3be-fad5-461e-b5f9-97c07551a213","ios":"levelo://app?vid=0bafb3be-fad5-461e-b5f9-97c07551a213"},"vehicle_type_id":"4","last_reported":1733933552,"current_range_meters":17600,"station_id":"ce4bhop2rcd13ifvqh7g","pricing_plan_id":"cebpf4jnsgd1na2vs0mg"},{"bike_id":"dc3d7a51-4954-4cee-8d90-a10249224c92","system_id":"levelo_inurba_marseille","lat":43.24181,"lon":5.3973,"is_reserved":false,"is_disabled":false,"rental_uris":{"android":"levelo://app?vid=dc3d7a51-4954-4cee-8d90-a10249224c92","ios":"levelo://app?vid=dc3d7a51-4954-4cee-8d90-a10249224c92"},"vehicle_type_id":"4","last_reported":1733933552,"current_range_meters":17200,"station_id":"ce4bhn12rcd13ifvqgpg","pricing_plan_id":"cebpf4jnsgd1na2vs0mg"},{"bike_id":"119691cb-3b1f-46f4-8740-8822e5c1eab6","system_id":"levelo_inurba_marseille","lat":43.26161,"lon":5.42063,"is_reserved":false,"is_disabled":false,"rental_uris":{"android":"levelo://app?vid=119691cb-3b1f-46f4-8740-8822e5c1eab6","ios":"levelo://app?vid=119691cb-3b1f-46f4-8740-8822e5c1eab6"},"vehicle_type_id":"4","last_reported":1733933552,"current_range_meters":25600,"station_id":"","pricing_plan_id":"cebpf4jnsgd1na2vs0mg"},{"bike_id":"b3764c07-04a0-4ea8-8519-308fac5aa3dd","system_id":"levelo_inurba_marseille","lat":43.30911,"lon":5.36854,"is_reserved":false,"is_disabled":false,"rental_uris":{"android":"levelo://app?vid=b3764c07-04a0-4ea8-8519-308fac5aa3dd","ios":"levelo://app?vid=b3764c07-04a0-4ea8-8519-308fac5aa3dd"},"vehicle_type_id":"4","last_reported":1733933552,"current_range_meters":34800,"station_id":"ce4bgn92rcd13ifvqbvg","pricing_plan_id":"cebpf4jnsgd1na2vs0mg"},{"bike_id":"9b2d115d-6a76-408a-b84d-d510d751a218","system_id":"levelo_inurba_marseille","lat":43.31226,"lon":5.36872,"is_reserved":false,"is_disabled":false,"rental_uris":{"android":"levelo://app?vid=9b2d115d-6a76-408a-b84d-d510d751a218","ios":"levelo://app?vid=9b2d115d-6a76-408a-b84d-d510d751a218"},"vehicle_type_id":"4","last_reported":1733933552,"current_range_meters":6800,"station_id":"ce4bgl92rcd13ifvqbq0","pricing_plan_id":"cebpf4jnsgd1na2vs0mg"},{"bike_id":"79884e2a-714c-4b81-b94b-76b83bbc5371","system_id":"levelo_inurba_marseille","lat":43.29906,"lon":5.43669,"is_reserved":false,"is_disabled":false,"rental_uris":{"android":"levelo://app?vid=79884e2a-714c-4b81-b94b-76b83bbc5371","ios":"levelo://app?vid=79884e2a-714c-4b81-b94b-76b83bbc5371"},"vehicle_type_id":"4","last_reported":1733933552,"current_range_meters":18800,"station_id":"ce4bhpp2rcd13ifvqhfg","pricing_plan_id":"cebpf4jnsgd1na2vs0mg"},{"bike_id":"eba3a455-b813-4905-b686-cc059b475ec7","system_id":"levelo_inurba_marseille","lat":43.31121,"lon":5.3777,"is_reserved":false,"is_disabled":false,"rental_uris":{"android":"levelo://app?vid=eba3a455-b813-4905-b686-cc059b475ec7","ios":"levelo://app?vid=eba3a455-b813-4905-b686-cc059b475ec7"},"vehicle_type_id":"4","last_reported":1733933552,"current_range_meters":22000,"station_id":"ce4bgt92rcd13ifvqcg0","pricing_plan_id":"cebpf4jnsgd1na2vs0mg"},{"bike_id":"28a87074-012e-4aad-bf00-30d5235e1d4a","system_id":"levelo_inurba_marseille","lat":43.2904,"lon":5.38649,"is_reserved":false,"is_disabled":false,"rental_uris":{"android":"levelo://app?vid=28a87074-012e-4aad-bf00-30d5235e1d4a","ios":"levelo://app?vid=28a87074-012e-4aad-bf00-30d5235e1d4a"},"vehicle_type_id":"4","last_reported":1733933552,"current_range_meters":28400,"station_id":"ce4bh4p2rcd13ifvqe0g","pricing_plan_id":"cebpf4jnsgd1na2vs0mg"},{"bike_id":"69b8517c-aea9-4279-b5b9-26cddc058d5d","system_id":"levelo_inurba_marseille","lat":43.29666,"lon":5.37824,"is_reserved":false,"is_disabled":false,"rental_uris":{"android":"levelo://app?vid=69b8517c-aea9-4279-b5b9-26cddc058d5d","ios":"levelo://app?vid=69b8517c-aea9-4279-b5b9-26cddc058d5d"},"vehicle_type_id":"4","last_reported":1733933552,"current_range_meters":36000,"station_id":"","pricing_plan_id":"cebpf4jnsgd1na2vs0mg"},{"bike_id":"e5074f85-3e63-42f0-802a-210aa9c0eb8b","system_id":"levelo_inurba_marseille","lat":43.30209,"lon":5.39463,"is_reserved":false,"is_disabled":false,"rental_uris":{"android":"levelo://app?vid=e5074f85-3e63-42f0-802a-210aa9c0eb8b","ios":"levelo://app?vid=e5074f85-3e63-42f0-802a-210aa9c0eb8b"},"vehicle_type_id":"4","last_reported":1733933552,"current_range_meters":22400,"station_id":"ce4bh0p2rcd13ifvqd70","pricing_plan_id":"cebpf4jnsgd1na2vs0mg"},{"bike_id":"7357c66a-c17d-46e5-9dc8-8bf2b8833f1f","system_id":"levelo_inurba_marseille","lat":43.32353,"lon":5.4062,"is_reserved":false,"is_disabled":false,"rental_uris":{"android":"levelo://app?vid=7357c66a-c17d-46e5-9dc8-8bf2b8833f1f","ios":"levelo://app?vid=7357c66a-c17d-46e5-9dc8-8bf2b8833f1f"},"vehicle_type_id":"4","last_reported":1733933552,"current_range_meters":34000,"station_id":"ce4bhq92rcd13ifvqhjg","pricing_plan_id":"cebpf4jnsgd1na2vs0mg"},{"bike_id":"9c6d5372-5aa9-48c8-bd5f-4f34cbb54b2e","system_id":"levelo_inurba_marseille","lat":43.26569,"lon":5.39011,"is_reserved":false,"is_disabled":false,"rental_uris":{"android":"levelo://app?vid=9c6d5372-5aa9-48c8-bd5f-4f34cbb54b2e","ios":"levelo://app?vid=9c6d5372-5aa9-48c8-bd5f-4f34cbb54b2e"},"vehicle_type_id":"4","last_reported":1733933552,"current_range_meters":33200,"station_id":"ce4bhe12rcd13ifvqf30","pricing_plan_id":"cebpf4jnsgd1na2vs0mg"},{"bike_id":"1f54600b-4c41-48d2-a04c-a543c525e0a3","system_id":"levelo_inurba_marseille","lat":43.29007,"lon":5.37554,"is_reserved":false,"is_disabled":true,"rental_uris":{"android":"levelo://app?vid=1f54600b-4c41-48d2-a04c-a543c525e0a3","ios":"levelo://app?vid=1f54600b-4c41-48d2-a04c-a543c525e0a3"},"vehicle_type_id":"4","last_reported":1733933552,"current_range_meters":36800,"station_id":"ce4bh692rcd13ifvqe90","pricing_plan_id":"cebpf4jnsgd1na2vs0mg"},{"bike_id":"7f05238c-2b40-4051-af4f-6de39d70e990","system_id":"levelo_inurba_marseille","lat":43.29289,"lon":5.4013,"is_reserved":false,"is_disabled":false,"rental_uris":{"android":"levelo://app?vid=7f05238c-2b40-4051-af4f-6de39d70e990","ios":"levelo://app?vid=7f05238c-2b40-4051-af4f-6de39d70e990"},"vehicle_type_id":"4","last_reported":1733933552,"current_range_meters":32800,"station_id":"ce4bh312rcd13ifvqdk0","pricing_plan_id":"cebpf4jnsgd1na2vs0mg"},