{"last_updated":1702213654,"ttl":30,"version":"2.2","data":{"bikes":[{"bike_id":"b01071ad-d4d9-4b33-baaf-71d8683b1833","system_id":"levelo_inurba_marseille","lat":43.31224,"lon":5.36854,"is_reserved":false,"is_disabled":false,"rental_uris":{"android":"levelo://app?vid=b01071ad-d4d9-4b33-baaf-71d8683b1833","ios":"levelo://app?vid=b01071ad-d4d9-4b33-baaf-71d8683b1833"},"vehicle_type_id":"4","last_reported":1702213654,"current_range_meters":18800,"station_id":"ce4bgl92rcd13ifvqbq0","pricing_plan_id":"free"},{"bike_id":"085a3a37-38ec-46de-b34d-e725676aa718","system_id":"levelo_inurba_marseille","lat":43.312239,"lon":5.368562,"is_reserved":false,"is_disabled":false,"rental_uris":{"android":"levelo://app?vid=085a3a37-38ec-46de-b34d-e725676aa718","ios":"levelo://app?vid=085a3a37-38ec-46de-b34d-e725676aa718"},"vehicle_type_id":"4","last_reported":1702213654,"current_range_meters":26000,"station_id":"ce4bgl92rcd13ifvqbq0","pricing_plan_id":"free"},{"bike_id":"d72ff9a6-a0a6-43c5-9bc3-040fa3b665ac","system_id":"levelo_inurba_marseille","lat":43.30931,"lon":5.36731,"is_reserved":false,"is_disabled":false,"rental_uris":{"android":"levelo://app?vid=d72ff9a6-a0a6-43c5-9bc3-040fa3b665ac","ios":"levelo://app?vid=d72ff9a6-a0a6-43c5-9bc3-040fa3b665ac"},"vehicle_type_id":"4","last_reported":1702213654,"current_range_meters":10400,"station_id":"ce4bgs12rcd13ifvqcag","pricing_plan_id":"free"},{"bike_id":"fa095748-018b-4dfe-a9af-a4e1fda65414","system_id":"levelo_inurba_marseille","lat":43.309076,"lon":5.368465,"is_reserved":false,"is_disabled":false,"rental_uris":{"android":"levelo://app?vid=fa095748-018b-4dfe-a9af-a4e1fda65414","ios":"levelo://app?vid=fa095748-018b-4dfe-a9af-a4e1fda65414"},"vehicle_type_id":"4","last_reported":1702213654,"current_range_meters":29600,"station_id":"ce4bgn92rcd13ifvqbvg","pricing_plan_id":"free"},{"bike_id":"e581d3eb-e8e0-44bb-b01b-f6a8facadb7b","system_id":"levelo_inurba_marseille","lat":43.309076,"lon":5.368465,"is_reserved":false,"is_disabled":false,"rental_uris":{"android":"levelo://app?vid=e581d3eb-e8e0-44bb-b01b-f6a8facadb7b","ios":"levelo://app?vid=e581d3eb-e8e0-44bb-b01b-f6a8facadb7b"},"vehicle_type_id":"4","last_reported":1702213654,"current_range_meters":7200,"station_id":"ce4bgn92rcd13ifvqbvg","pricing_plan_id":"free"},{"bike_id":"44d40048-dbe7-4a3b-b43a-6cecf34794b8","system_id":"levelo_inurba_marseille","lat":43.315365,"lon":5.37192,"is_reserved":false,"is_disabled":false,"rental_uris":{"android":"levelo://app?vid=44d40048-dbe7-4a3b-b43a-6cecf34794b8","ios":"levelo://app?vid=44d40048-dbe7-4a3b-b43a-6cecf34794b8"},"vehicle_type_id":"4","last_reported":1702213654,"current_range_meters":9200,"station_id":"","pricing_plan_id":"free"},{"bike_id":"a74ae35a-2fe4-4ffc-999a-5296b20fa539","system_id":"levelo_inurba_marseille","lat":43.314811,"lon":5.373103,"is_reserved":false,"is_disabled":false,"rental_uris":{"android":"levelo://app?vid=a74ae35a-2fe4-4ffc-999a-5296b20fa539","ios":"levelo://app?vid=a74ae35a-2fe4-4ffc-999a-5296b20fa539"},"vehicle_type_id":"4","last_reported":1702213654,"current_range_meters":23200,"station_id":"ce4bgt12rcd13ifvqcd0","pricing_plan_id":"free"},{"bike_id":"8aeaf0c7-1776-441d-bd55-668a483130b8","system_id":"levelo_inurba_marseille","lat":43.305192,"lon":5.366268,"is_reserved":false,"is_disabled":false,"rental_uris":{"android":"levelo://app?vid=8aeaf0c7-1776-441d-bd55-668a483130b8","ios":"levelo://app?vid=8aeaf0c7-1776-441d-bd55-668a483130b8"},"vehicle_type_id":"4","last_reported":1702213654,"current_range_meters":4800,"station_id":"","pricing_plan_id":"free"},{"bike_id":"8aa6fde1-d025-4e55-8244-9ccf6b8b1b1b","system_id":"levelo_inurba_marseille","lat":43.307945,"lon":5.376487,"is_reserved":false,"is_disabled":false,"rental_uris":{"android":"levelo://app?vid=8aa6fde1-d025-4e55-8244-9ccf6b8b1b1b","ios":"levelo://app?vid=8aa6fde1-d025-4e55-8244-9ccf6b8b1b1b"},"vehicle_type_id":"4","last_reported":1702213654,"current_range_meters":15200,"station_id":"ce4bgv92rcd13ifvqcq0","pricing_plan_id":"free"},{"bike_id":"a06992f1-4022-4226-8874-fa832e8f4c60","system_id":"levelo_inurba_marseille","lat":43.304606,"lon":5.379026,"is_reserved":false,"is_disabled":false,"rental_uris":{"android":"levelo://app?vid=a06992f1-4022-4226-8874-fa832e8f4c60","ios":"levelo://app?vid=a06992f1-4022-4226-8874-fa832e8f4c60"},"vehicle_type_id":"4","last_reported":1702213654,"current_range_meters":10400,"station_id":"ce4bgup2rcd13ifvqcn0","pricing_plan_id":"free"},{"bike_id":"fae942aa-c7b3-43aa-94b7-00fdbc0389e5","system_id":"levelo_inurba_marseille","lat":43.304606,"lon":5.379026,"is_reserved":false,"is_disabled":false,"rental_uris":{"android":"levelo://app?vid=fae942aa-c7b3-43aa-94b7-00fdbc0389e5","ios":"levelo://app?vid=fae942aa-c7b3-43aa-94b7-00fdbc0389e5"},"vehicle_type_id":"4","last_reported":1702213654,"current_range_meters":18800,"station_id":"ce4bgup2rcd13ifvqcn0","pricing_plan_id":"free"},{"bike_id":"e606102b-a630-4793-8c67-412e6b33c3ae","system_id":"levelo_inurba_marseille","lat":43.319967,"lon":5.381543,"is_reserved":false,"is_disabled":false,"rental_uris":{"android":"levelo://app?vid=e606102b-a630-4793-8c67-412e6b33c3ae","ios":"levelo://app?vid=e606102b-a630-4793-8c67-412e6b33c3ae"},"vehicle_type_id":"4","last_reported":1702213654,"current_range_meters":10400,"station_id":"ce4bhr12rcd13ifvqhpg","pricing_plan_id":"free"},{"bike_id":"d8be298e-f4c0-4479-a66b-e307c680d7cc","system_id":"levelo_inurba_marseille","lat":43.31356,"lon":5.38493,"is_reserved":false,"is_disabled":false,"rental_uris":{"android":"levelo://app?vid=d8be298e-f4c0-4479-a66b-e307c680d7cc","ios":"levelo://app?vid=d8be298e-f4c0-4479-a66b-e307c680d7cc"},"vehicle_type_id":"4","last_reported":1702213654,"current_range_meters":20400,"station_id":"ce4bgt92rcd13ifvqcf0","pricing_plan_id":"free"},{"bike_id":"2ebec5e1-6ab2-46db-8ff2-ddcbfbef3229","system_id":"levelo_inurba_marseille","lat":43.298433,"lon":5.362774,"is_reserved":false,"is_disabled":false,"rental_uris":{"android":"levelo://app?vid=2ebec5e1-6ab2-46db-8ff2-ddcbfbef3229","ios":"levelo://app?vid=2ebec5e1-6ab2-46db-8ff2-ddcbfbef3229"},"vehicle_type_id":"4","last_reported":1702213654,"current_range_meters":9600,"station_id":"ce4bgpp2rcd13ifvqc3g","pricing_plan_id":"free"},{"bike_id":"0370f0dd-02e1-44c3-b626-7cdd11d7ffac","system_id":"levelo_inurba_marseille","lat":43.32287,"lon":5.38266,"is_reserved":false,"is_disabled":false,"rental_uris":{"android":"levelo://app?vid=0370f0dd-02e1-44c3-b626-7cdd11d7ffac","ios":"levelo://app?vid=0370f0dd-02e1-44c3-b626-7cdd11d7ffac"},"vehicle_type_id":"4","last_reported":1702213654,"current_range_meters":30800,"station_id":"ce4bhr12rcd13ifvqhqg","pricing_plan_id":"free"},{"bike_id":"ccd4fbf7-a0c2-498b-8ecc-15a67004cff0","system_id":"levelo_inurba_marseille","lat":43.322872,"lon":5.382756,"is_reserved":false,"is_disabled":false,"rental_uris":{"android":"levelo://app?vid=ccd4fbf7-a0c2-498b-8ecc-15a67004cff0","ios":"levelo://app?vid=ccd4fbf7-a0c2-498b-8ecc-15a67004cff0"},"vehicle_type_id":"4","last_reported":1702213654,"current_range_meters":27200,"station_id":"ce4bhr12rcd13ifvqhqg","pricing_plan_id":"free"},{"bike_id":"9a75aac0-2e54-4ffe-8b56-07e48315b873","system_id":"levelo_inurba_marseille","lat":43.328371,"lon":5.366909,"is_reserved":false,"is_disabled":false,"rental_uris":{"android":"levelo://app?vid=9a75aac0-2e54-4ffe-8b56-07e48315b873","ios":"levelo://app?vid=9a75aac0-2e54-4ffe-8b56-07e48315b873"},"vehicle_type_id":"4","last_reported":1702213654,"current_range_meters":23600,"station_id":"ce4bhs92rcd13ifvqi0g","pricing_plan_id":"free"},{"bike_id":"6ac675f1-e0be-498c-ad2f-b742a949d4b0","system_id":"levelo_inurba_marseille","lat":43.298218,"lon":5.374416,"is_reserved":false,"is_disabled":false,"rental_uris":{"android":"levelo://app?vid=6ac675f1-e0be-498c-ad2f-b742a949d4b0","ios":"levelo://app?vid=6ac675f1-e0be-498c-ad2f-b742a949d4b0"},"vehicle_type_id":"4","last_reported":1702213654,"current_range_meters":0,"station_id":"","pricing_plan_id":"free"},{"bike_id":"1916d169-442f-43bc-b6e8-17b46f11ab84","system_id":"levelo_inurba_marseille","lat":43.328371,"lon":5.366909,"is_reserved":false,"is_disabled":false,"rental_uris":{"android":"levelo://app?vid=1916d169-442f-43bc-b6e8-17b46f11ab84","ios":"levelo://app?vid=1916d169-442f-43bc-b6e8-17b46f11ab84"},"vehicle_type_id":"4","last_reported":1702213654,"current_range_meters":20800,"station_id":"ce4bhs92rcd13ifvqi0g","pricing_plan_id":"free"},{"bike_id":"94e46fa1-c185-4eac-bf0b-0fe7602b1152","system_id":"levelo_inurba_marseille","lat":43.296131,"lon":5.370791,"is_reserved":false,"is_disabled":false,"rental_uris":{"android":"levelo://app?vid=94e46fa1-c185-4eac-bf0b-0fe7602b1152","ios":"levelo://app?vid=94e46fa1-c185-4eac-bf0b-0fe7602b1152"},"vehicle_type_id":"4","last_reported":1702213654,"current_range_meters":5600,"station_id":"ce4bgnh2rcd13ifvqc0g","pricing_plan_id":"free"},{"bike_id":"5aa0dfe5-e6c8-4562-8864-0cc81da5ab58","system_id":"levelo_inurba_marseille","lat":43.296131,"lon":5.370791,"is_reserved":false,"is_disabled":false,"rental_uris":{"android":"levelo://app?vid=5aa0dfe5-e6c8-4562-8864-0cc81da5ab58","ios":"levelo://app?vid=5aa0dfe5-e6c8-4562-8864-0cc81da5ab58"},"vehicle_type_id":"4","last_reported":1702213654,"current_range_meters":26800,"station_id":"ce4bgnh2rcd13ifvqc0g","pricing_plan_id":"free"},{"bike_id":"37bd0f3d-28de-4241-a398-05a9803e0d56","system_id":"levelo_inurba_marseille","lat":43.29573,"lon":5.367355,"is_reserved":false,"is_disabled":false,"rental_uris":{"android":"levelo://app?vid=37bd0f3d-28de-4241-a398-05a9803e0d56","ios":"levelo://app?vid=37bd0f3d-28de-4241-a398-05a9803e0d56"},"vehicle_type_id":"4","last_reported":1702213654,"current_range_meters":22800,"station_id":"ce4bgph2rcd13ifvqc2g","pricing_plan_id":"free"},{"bike_id":"92dc65d6-6823-4de3-93d4-056f738f090c","system_id":"levelo_inurba_marseille","lat":43.316538,"lon":5.38954,"is_reserved":false,"is_disabled":false,"rental_uris":{"android":"levelo://app?vid=92dc65d6-6823-4de3-93d4-056f738f090c","ios":"levelo://app?vid=92dc65d6-6823-4de3-93d4-056f738f090c"},"vehicle_type_id":"4","last_reported":1702213654,"current_range_meters":0,"station_id":"","pricing_plan_id":"free"},{"bike_id":"a09d7650-347c-4192-a700-37c66fefdb75","system_id":"levelo_inurba_marseille","lat":43.29573,"lon":5.367355,"is_reserved":false,"is_disabled":false,"rental_uris":{"android":"levelo://app?vid=a09d7650-347c-4192-a700-37c66fefdb75","ios":"levelo://app?vid=a09d7650-347c-4192-a700-37c66fefdb75"},"vehicle_type_id":"4","last_reported":1702213654,"current_range_meters":25200,"station_id":"ce4bgph2rcd13ifvqc2g","pricing_plan_id":"free"},{"bike_id":"492bbb74-d68a-426c-9654-28874690a112","system_id":"levelo_inurba_marseille","lat":43.29573,"lon":5.367355,"is_reserved":false,"is_disabled":false,"rental_uris":{"android":"levelo://app?vid=492bbb74-d68a-426c-9654-28874690a112","ios":"levelo://app?vid=492bbb74-d68a-426c-9654-28874690a112"},"vehicle_type_id":"4","last_reported":1702213654,"current_range_meters":22000,"station_id":"ce4bgph2rcd13ifvqc2g","pricing_plan_id":"free"},{"bike_id":"605b1889-68fe-4f90-8361-10a7d23bcaca","system_id":"levelo_inurba_marseille","lat":43.29573,"lon":5.367355,"is_reserved":false,"is_disabled":false,"rental_uris":{"android":"levelo://app?vid=605b1889-68fe-4f90-8361-10a7d23bcaca","ios":"levelo://app?vid=605b1889-68fe-4f90-8361-10a7d23bcaca"},"vehicle_type_id":"4","last_reported":1702213654,"current_range_meters":21600,"station_id":"ce4bgph2rcd13ifvqc2g","pricing_plan_id":"free"},{"bike_id":"6f821066-2e06-4286-813a-64fa52fddf96","system_id":"levelo_inurba_marseille","lat":43.296131,"lon":5.370791,"is_reserved":false,"is_disabled":false,"rental_uris":{"android":"levelo://app?vid=6f821066-2e06-4286-813a-64fa52fddf96","ios":"levelo://app?vid=6f821066-2e06-4286-813a-64fa52fddf96"},"vehicle_type_id":"4","last_reported":1702213654,"current_range_meters":22400,"station_id":"ce4bgnh2rcd13ifvqc0g","pricing_plan_id":"free"},{"bike_id":"e2e06fed-7fe6-4eca-8222-673dd62a3c92","system_id":"levelo_inurba_marseille","lat":43.29573,"lon":5.367355,"is_reserved":false,"is_disabled":false,"rental_uris":{"android":"levelo://app?vid=e2e06fed-7fe6-4eca-8222-673dd62a3c92","ios":"levelo://app?vid=e2e06fed-7fe6-4eca-8222-673dd62a3c92"},"vehicle_type_id":"4","last_reported":1702213654,"current_range_meters":23200,"station_id":"ce4bgph2rcd13ifvqc2g","pricing_plan_id":"free"},{"bike_id":"b21520e5-f12c-498e-9e18-334d8b6d8bdc","system_id":"levelo_inurba_marseille","lat":43.309589,"lon":5.390258,"is_reserved":false,"is_disabled":false,"rental_uris":{"android":"levelo://app?vid=b21520e5-f12c-498e-9e18-334d8b6d8bdc","ios":"levelo://app?vid=b21520e5-f12c-498e-9e18-334d8b6d8bdc"},"vehicle_type_id":"4","last_reported":1702213654,"current_range_meters":18800,"station_id":"ce4bgup2rcd13ifvqco0","pricing_plan_id":"free"},{"bike_id":"93ed1efe-4eff-4b43-9c54-d8aaa3548f7d","system_id":"levelo_inurba_marseille","lat":43.317557,"lon":5.390173,"is_reserved":false,"is_disabled":false,"rental_uris":{"android":"levelo://app?vid=93ed1efe-4eff-4b43-9c54-d8aaa3548f7d","ios":"levelo://app?vid=93ed1efe-4eff-4b43-9c54-d8aaa3548f7d"},"vehicle_type_id":"4","last_reported":1702213654,"current_range_meters":16000,"station_id":"ce4bhqp2rcd13ifvqhng","pricing_plan_id":"free"},{"bike_id":"9d827cfb-6416-4744-95f3-f65c9fb220c2","system_id":"levelo_inurba_marseille","lat":43.296263,"lon":5.377094,"is_reserved":false,"is_disabled":false,"rental_uris":{"android":"levelo://app?vid=9d827cfb-6416-4744-95f3-f65c9fb220c2","ios":"levelo://app?vid=9d827cfb-6416-4744-95f3-f65c9fb220c2"},"vehicle_type_id":"4","last_reported":1702213654,"current_range_meters":0,"station_id":"ce4bgi92rcd13ifvqb90","pricing_plan_id":"free"},{"bike_id":"2672b73c-539b-4ebd-a1b9-375f2912a14d","system_id":"levelo_inurba_marseille","lat":43.29788,"lon":5.3811,"is_reserved":false,"is_disabled":false,"rental_uris":{"android":"levelo://app?vid=2672b73c-539b-4ebd-a1b9-375f2912a14d","ios":"levelo://app?vid=2672b73c-539b-4ebd-a1b9-375f2912a14d"},"vehicle_type_id":"4","last_reported":1702213654,"current_range_meters":0,"station_id":"ce4bgip2rcd13ifvqbb0","pricing_plan_id":"free"},{"bike_id":"0b44998e-7597-4955-8402-6a2ecbfa7a8d","system_id":"levelo_inurba_marseille","lat":43.29271,"lon":5.36839,"is_reserved":false,"is_disabled":false,"rental_uris":{"android":"levelo://app?vid=0b44998e-7597-4955-8402-6a2ecbfa7a8d","ios":"levelo://app?vid=0b44998e-7597-4955-8402-6a2ecbfa7a8d"},"vehicle_type_id":"4","last_reported":1702213654,"current_range_meters":0,"station_id":"ce4bhbp2rcd13ifvqesg","pricing_plan_id":"free"},{"bike_id":"1f432ed8-4283-48ef-85e3-e4f1524c9503","system_id":"levelo_inurba_marseille","lat":43.2936,"lon":5.37835,"is_reserved":false,"is_disabled":false,"rental_uris":{"android":"levelo://app?vid=1f432ed8-4283-48ef-85e3-e4f1524c9503","ios":"levelo://app?vid=1f432ed8-4283-48ef-85e3-e4f1524c9503"},"vehicle_type_id":"4","last_reported":1702213654,"current_range_meters":24800,"station_id":"ce4bgjh2rcd13ifvqbf0","pricing_plan_id":"free"},{"bike_id":"5ed66215-e812-4934-8bd8-05fa06e2778c","system_id":"levelo_inurba_marseille","lat":43.332209,"lon":5.379793,"is_reserved":false,"is_disabled":false,"rental_uris":{"android":"levelo://app?vid=5ed66215-e812-4934-8bd8-05fa06e2778c","ios":"levelo://app?vid=5ed66215-e812-4934-8bd8-05fa06e2778c"},"vehicle_type_id":"4","last_reported":1702213654,"current_range_meters":26400,"station_id":"","pricing_plan_id":"free"},{"bike_id":"56dadba3-8e17-4728-8bde-c8ae8e15e36a","system_id":"levelo_inurba_marseille","lat":43.29529,"lon":5.385581,"is_reserved":false,"is_disabled":false,"rental_uris":{"android":"levelo://app?vid=56dadba3-8e17-4728-8bde-c8ae8e15e36a","ios":"levelo://app?vid=56dadba3-8e17-4728-8bde-c8ae8e15e36a"},"vehicle_type_id":"4","last_reported":1702213654,"current_range_meters":26800,"station_id":"ce4bgih2rcd13ifvqba0","pricing_plan_id":"free"},{"bike_id":"918531bf-7d39-4435-9513-f46f3e2b25b7","system_id":"levelo_inurba_marseille","lat":43.290327,"lon":5.375711,"is_reserved":false,"is_disabled":false,"rental_uris":{"android":"levelo://app?vid=918531bf-7d39-4435-9513-f46f3e2b25b7","ios":"levelo://app?vid=918531bf-7d39-4435-9513-f46f3e2b25b7"},"vehicle_type_id":"4","last_reported":1702213654,"current_range_meters":2000,"station_id":"ce4bh692rcd13ifvqe90","pricing_plan_id":"free"},{"bike_id":"a49f5490-6c82-4815-b595-a263a8425c85","system_id":"levelo_inurba_marseille","lat":43.28944,"lon":5.36396,"is_reserved":false,"is_disabled":false,"rental_uris":{"android":"levelo://app?vid=a49f5490-6c82-4815-b595-a263a8425c85","ios":"levelo://app?vid=a49f5490-6c82-4815-b595-a263a8425c85"},"vehicle_type_id":"4","last_reported":1702213654,"current_range_meters":3600,"station_id":"ce4bhc92rcd13ifvqetg","pricing_plan_id":"free"},{"bike_id":"0d55287e-6324-4a21-96f1-2aa124f5d1a5","system_id":"levelo_inurba_marseille","lat":43.290161,"lon":5.375651,"is_reserved":false,"is_disabled":false,"rental_uris":{"android":"levelo://app?vid=0d55287e-6324-4a21-96f1-2aa124f5d1a5","ios":"levelo://app?vid=0d55287e-6324-4a21-96f1-2aa124f5d1a5"},"vehicle_type_id":"4","last_reported":1702213654,"current_range_meters":9600,"station_id":"","pricing_plan_id":"free"},{"bike_id":"a02a1b20-1fb1-4951-988a-77389649024d","system_id":"levelo_inurba_marseille","lat":43.289259,"lon":5.366364,"is_reserved":false,"is_disabled":false,"rental_uris":{"android":"levelo://app?vid=a02a1b20-1fb1-4951-988a-77389649024d","ios":"levelo://app?vid=a02a1b20-1fb1-4951-988a-77389649024d"},"vehicle_type_id":"4","last_reported":1702213654,"current_range_meters":8400,"station_id":"","pricing_plan_id":"free"},{"bike_id":"7dffac0d-a43b-4ae6-86df-4c3b5af72aea","system_id":"levelo_inurba_marseille","lat":43.292644,"lon":5.384257,"is_reserved":false,"is_disabled":false,"rental_uris":{"android":"levelo://app?vid=7dffac0d-a43b-4ae6-86df-4c3b5af72aea","ios":"levelo://app?vid=7dffac0d-a43b-4ae6-86df-4c3b5af72aea"},"vehicle_type_id":"4","last_reported":1702213654,"current_range_meters":8000,"station_id":"ce4bh692rcd13ifvqea0","pricing_plan_id":"free"},{"bike_id":"840f160d-a89f-4b69-88af-338a2766e9d7","system_id":"levelo_inurba_marseille","lat":43.304296,"lon":5.397513,"is_reserved":false,"is_disabled":false,"rental_uris":{"android":"levelo://app?vid=840f160d-a89f-4b69-88af-338a2766e9d7","ios":"levelo://app?vid=840f160d-a89f-4b69-88af-338a2766e9d7"},"vehicle_type_id":"4","last_reported":1702213654,"current_range_meters":23600,"station_id":"ce4bh092rcd13ifvqd20","pricing_plan_id":"free"},{"bike_id":"77a6c46d-d898-4e4f-8846-efa91689c7f0","system_id":"levelo_inurba_marseille","lat":43.330442,"lon":5.389148,"is_reserved":false,"is_disabled":false,"rental_uris":{"android":"levelo://app?vid=77a6c46d-d898-4e4f-8846-efa91689c7f0","ios":"levelo://app?vid=77a6c46d-d898-4e4f-8846-efa91689c7f0"},"vehicle_type_id":"4","last_reported":1702213654,"current_range_meters":0,"station_id":"ce4bhr92rcd13ifvqhrg","pricing_plan_id":"free"},{"bike_id":"16a548ac-a264-4843-91b1-f67b9819a473","system_id":"levelo_inurba_marseille","lat":43.33736,"lon":5.37469,"is_reserved":false,"is_disabled":false,"rental_uris":{"android":"levelo://app?vid=16a548ac-a264-4843-91b1-f67b9819a473","ios":"levelo://app?vid=16a548ac-a264-4843-91b1-f67b9819a473"},"vehicle_type_id":"4","last_reported":1702213654,"current_range_meters":28800,"station_id":"","pricing_plan_id":"free"},{"bike_id":"047142c2-79d9-47db-aeb4-e1c703cd9abc","system_id":"levelo_inurba_marseille","lat":43.33757,"lon":5.37462,"is_reserved":false,"is_disabled":false,"rental_uris":{"android":"levelo://app?vid=047142c2-79d9-47db-aeb4-e1c703cd9abc","ios":"levelo://app?vid=047142c2-79d9-47db-aeb4-e1c703cd9abc"},"vehicle_type_id":"4","last_reported":1702213654,"current_range_meters":29200,"station_id":"","pricing_plan_id":"free"},{"bike_id":"98b95f03-eba3-4ff7-bc4d-035d4ba534b8","system_id":"levelo_inurba_marseille","lat":43.286039,"lon":5.370679,"is_reserved":false,"is_disabled":false,"rental_uris":{"android":"levelo://app?vid=98b95f03-eba3-4ff7-bc4d-035d4ba534b8","ios":"levelo://app?vid=98b95f03-eba3-4ff7-bc4d-035d4ba534b8"},"vehicle_type_id":"4","last_reported":1702213654,"current_range_meters":2800,"station_id":"ce4bht12rcd13ifvqi60","pricing_plan_id":"free"},{"bike_id":"4fe87b90-ee76-4528-9166-1e4fdf93134d","system_id":"levelo_inurba_marseille","lat":43.289307,"lon":5.38406,"is_reserved":false,"is_disabled":false,"rental_uris":{"android":"levelo://app?vid=4fe87b90-ee76-4528-9166-1e4fdf93134d","ios":"levelo://app?vid=4fe87b90-ee76-4528-9166-1e4fdf93134d"},"vehicle_type_id":"4","last_reported":1702213654,"current_range_meters":29200,"station_id":"ce4bh612rcd13ifvqe6g","pricing_plan_id":"free"},{"bike_id":"82fb5ddb-3744-4637-8e06-ef63b565282f","system_id":"levelo_inurba_marseille","lat":43.239588,"lon":5.366238,"is_reserved":false,"is_disabled":false,"rental_uris":{"android":"levelo://app?vid=82fb5ddb-3744-4637-8e06-ef63b565282f","ios":"levelo://app?vid=82fb5ddb-3744-4637-8e06-ef63b565282f"},"vehicle_type_id":"4","last_reported":1702213654,"current_range_meters":14400,"station_id":"ce4bhi12rcd13ifvqfp0","pricing_plan_id":"free"},{"bike_id":"8d57d323-c267-4495-9f3c-91e182bd3d98","system_id":"levelo_inurba_marseille","lat":43.28613,"lon":5.35109,"is_reserved":false,"is_disabled":false,"rental_uris":{"android":"levelo://app?vid=8d57d323-c267-4495-9f3c-91e182bd3d98","ios":"levelo://app?vid=8d57d323-c267-4495-9f3c-91e182bd3d98"},"vehicle_type_id":"4","last_reported":1702213654,"current_range_meters":24800,"station_id":"ce4bhch2rcd13ifvqeug","pricing_plan_id":"free"},{"bike_id":"2bd2f067-c202-40a2-8476-71dae98ba20a","system_id":"levelo_inurba_marseille","lat":43.286093,"lon":5.351066,"is_reserved":false,"is_disabled":false,"rental_uris":{"android":"levelo://app?vid=2bd2f067-c202-40a2-8476-71dae98ba20a","ios":"levelo://app?vid=2bd2f067-c202-40a2-8476-71dae98ba20a"},"vehicle_type_id":"4","last_reported":1702213654,"current_range_meters":15600,"station_id":"","pricing_plan_id":"free"},{"bike_id":"f1b5cdb2-7df3-4e18-9ce9-10081cd786b8","system_id":"levelo_inurba_marseille","lat":43.28413,"lon":5.37591,"is_reserved":false,"is_disabled":false,"rental_uris":{"android":"levelo://app?vid=f1b5cdb2-7df3-4e18-9ce9-10081cd786b8","ios":"levelo://app?vid=f1b5cdb2-7df3-4e18-9ce9-10081cd786b8"},"vehicle_type_id":"4","last_reported":1702213654,"current_range_meters":0,"station_id":"","pricing_plan_id":"free"},{"bike_id":"30ab6307-43a9-4bc6-9e12-165f488f743a","system_id":"levelo_inurba_marseille","lat":43.286595,"lon":5.386795,"is_reserved":false,"is_disabled":false,"rental_uris":{"android":"levelo://app?vid=30ab6307-43a9-4bc6-9e12-165f488f743a","ios":"levelo://app?vid=30ab6307-43a9-4bc6-9e12-165f488f743a"},"vehicle_type_id":"4","last_reported":1702213654,"current_range_meters":9200,"station_id":"ce4bh492rcd13ifvqdug","pricing_plan_id":"free"},{"bike_id":"50344e3a-ef6c-4cec-b99a-6107741addee","system_id":"levelo_inurba_marseille","lat":43.28425,"lon":5.34977,"is_reserved":false,"is_disabled":false,"rental_uris":{"android":"levelo://app?vid=50344e3a-ef6c-4cec-b99a-6107741addee","ios":"levelo://app?vid=50344e3a-ef6c-4cec-b99a-6107741addee"},"vehicle_type_id":"4","last_reported":1702213654,"current_range_meters":12400,"station_id":"ce4bhbh2rcd13ifvqepg","pricing_plan_id":"free"},{"bike_id":"689de9f7-2f27-4c31-b50e-92ba462ab296","system_id":"levelo_inurba_marseille","lat":43.284219,"lon":5.3497,"is_reserved":false,"is_disabled":false,"rental_uris":{"android":"levelo://app?vid=689de9f7-2f27-4c31-b50e-92ba462ab296","ios":"levelo://app?vid=689de9f7-2f27-4c31-b50e-92ba462ab296"},"vehicle_type_id":"4","last_reported":1702213654,"current_range_meters":22000,"station_id":"ce4bhbh2rcd13ifvqepg","pricing_plan_id":"free"},{"bike_id":"2b05d2ef-e9ae-4c3a-a1ca-132cb7949844","system_id":"levelo_inurba_marseille","lat":43.282754,"lon":5.350519,"is_reserved":false,"is_disabled":false,"rental_uris":{"android":"levelo://app?vid=2b05d2ef-e9ae-4c3a-a1ca-132cb7949844","ios":"levelo://app?vid=2b05d2ef-e9ae-4c3a-a1ca-132cb7949844"},"vehicle_type_id":"4","last_reported":1702213654,"current_range_meters":2400,"station_id":"ce4bhbp2rcd13ifvqerg","pricing_plan_id":"free"},{"bike_id":"064468da-3dcb-449e-9da1-730986036b9f","system_id":"levelo_inurba_marseille","lat":43.282754,"lon":5.350519,"is_reserved":false,"is_disabled":false,"rental_uris":{"android":"levelo://app?vid=064468da-3dcb-449e-9da1-730986036b9f","ios":"levelo://app?vid=064468da-3dcb-449e-9da1-730986036b9f"},"vehicle_type_id":"4","last_reported":1702213654,"current_range_meters":22800,"station_id":"ce4bhbp2rcd13ifvqerg","pricing_plan_id":"free"},{"bike_id":"2ee104ce-406b-49ca-ac6b-e98b732cf672","system_id":"levelo_inurba_marseille","lat":43.282754,"lon":5.350519,"is_reserved":false,"is_disabled":false,"rental_uris":{"android":"levelo://app?vid=2ee104ce-406b-49ca-ac6b-e98b732cf672","ios":"levelo://app?vid=2ee104ce-406b-49ca-ac6b-e98b732cf672"},"vehicle_type_id":"4","last_reported":1702213654,"current_range_meters":23600,"station_id":"ce4bhbp2rcd13ifvqerg","pricing_plan_id":"free"},{"bike_id":"57f035b5-4837-4d6f-bb64-0885dc549320","system_id":"levelo_inurba_marseille","lat":43.283502,"lon":5.386471,"is_reserved":false,"is_disabled":false,"rental_uris":{"android":"levelo://app?vid=57f035b5-4837-4d6f-bb64-0885dc549320","ios":"levelo://app?vid=57f035b5-4837-4d6f-bb64-0885dc549320"},"vehicle_type_id":"4","last_reported":1702213654,"current_range_meters":18400,"station_id":"ce4bh492rcd13ifvqdvg","pricing_plan_id":"free"},{"bike_id":"76d17e7e-a55f-434c-89ae-d0cc2246539e","system_id":"levelo_inurba_marseille","lat":43.282754,"lon":5.350519,"is_reserved":false,"is_disabled":false,"rental_uris":{"android":"levelo://app?vid=76d17e7e-a55f-434c-89ae-d0cc2246539e","ios":"levelo://app?vid=76d17e7e-a55f-434c-89ae-d0cc2246539e"},"vehicle_type_id":"4","last_reported":1702213654,"current_range_meters":26400,"station_id":"ce4bhbp2rcd13ifvqerg","pricing_plan_id":"free"},{"bike_id":"5da6d529-b52e-45c0-a474-e1d5bec31c47","system_id":"levelo_inurba_marseille","lat":43.282744,"lon":5.350533,"is_reserved":false,"is_disabled":false,"rental_uris":{"android":"levelo://app?vid=5da6d529-b52e-45c0-a474-e1d5bec31c47","ios":"levelo://app?vid=5da6d529-b52e-45c0-a474-e1d5bec31c47"},"vehicle_type_id":"4","last_reported":1702213654,"current_range_meters":10000,"station_id":"ce4bhbp2rcd13ifvqerg","pricing_plan_id":"free"},{"bike_id":"3583e707-2ac6-4b27-a2e7-9125fee883cb","system_id":"levelo_inurba_marseille","lat":43.282754,"lon":5.350519,"is_reserved":false,"is_disabled":false,"rental_uris":{"android":"levelo://app?vid=3583e707-2ac6-4b27-a2e7-9125fee883cb","ios":"levelo://app?vid=3583e707-2ac6-4b27-a2e7-9125fee883cb"},"vehicle_type_id":"4","last_reported":1702213654,"current_range_meters":13200,"station_id":"ce4bhbp2rcd13ifvqerg","pricing_plan_id":"free"},{"bike_id":"9b04157e-d7ed-4036-8364-36f22b7ba61f","system_id":"levelo_inurba_marseille","lat":43.28039,"lon":5.36949,"is_reserved":false,"is_disabled":false,"rental_uris":{"android":"levelo://app?vid=9b04157e-d7ed-4036-8364-36f22b7ba61f","ios":"levelo://app?vid=9b04157e-d7ed-4036-8364-36f22b7ba61f"},"vehicle_type_id":"4","last_reported":1702213654,"current_range_meters":22000,"station_id":"ce4bha12rcd13ifvqef0","pricing_plan_id":"free"},{"bike_id":"866d01e1-ecb6-4970-b300-74b95402245b","system_id":"levelo_inurba_marseille","lat":43.285742,"lon":5.395004,"is_reserved":false,"is_disabled":false,"rental_uris":{"android":"levelo://app?vid=866d01e1-ecb6-4970-b300-74b95402245b","ios":"levelo://app?vid=866d01e1-ecb6-4970-b300-74b95402245b"},"vehicle_type_id":"4","last_reported":1702213654,"current_range_meters":26800,"station_id":"ce4bh292rcd13ifvqdg0","pricing_plan_id":"free"},{"bike_id":"cd303504-a39b-4263-b5c2-51317c638b94","system_id":"levelo_inurba_marseille","lat":43.304188,"lon":5.412904,"is_reserved":false,"is_disabled":false,"rental_uris":{"android":"levelo://app?vid=cd303504-a39b-4263-b5c2-51317c638b94","ios":"levelo://app?vid=cd303504-a39b-4263-b5c2-51317c638b94"},"vehicle_type_id":"4","last_reported":1702213654,"current_range_meters":28800,"station_id":"ce4bhop2rcd13ifvqh8g","pricing_plan_id":"free"},{"bike_id":"5bc47300-9b0c-46d6-af3b-e87450133c0b","system_id":"levelo_inurba_marseille","lat":43.287154,"lon":5.399979,"is_reserved":false,"is_disabled":false,"rental_uris":{"android":"levelo://app?vid=5bc47300-9b0c-46d6-af3b-e87450133c0b","ios":"levelo://app?vid=5bc47300-9b0c-46d6-af3b-e87450133c0b"},"vehicle_type_id":"4","last_reported":1702213654,"current_range_meters":14000,"station_id":"ce4bho92rcd13ifvqh3g","pricing_plan_id":"free"},{"bike_id":"da3a9798-dd6d-486c-9173-994c184477fa","system_id":"levelo_inurba_marseille","lat":43.292571,"lon":5.409107,"is_reserved":false,"is_disabled":false,"rental_uris":{"android":"levelo://app?vid=da3a9798-dd6d-486c-9173-994c184477fa","ios":"levelo://app?vid=da3a9798-dd6d-486c-9173-994c184477fa"},"vehicle_type_id":"4","last_reported":1702213654,"current_range_meters":6000,"station_id":"ce4bh192rcd13ifvqdc0","pricing_plan_id":"free"},{"bike_id":"2ec34140-4e9e-4548-845a-39416d30aba0","system_id":"levelo_inurba_marseille","lat":43.292571,"lon":5.409107,"is_reserved":false,"is_disabled":false,"rental_uris":{"android":"levelo://app?vid=2ec34140-4e9e-4548-845a-39416d30aba0","ios":"levelo://app?vid=2ec34140-4e9e-4548-845a-39416d30aba0"},"vehicle_type_id":"4","last_reported":1702213654,"current_range_meters":22800,"station_id":"ce4bh192rcd13ifvqdc0","pricing_plan_id":"free"},{"bike_id":"d5d0b37f-3bb5-4cc3-b9e9-78d65d591551","system_id":"levelo_inurba_marseille","lat":43.27615,"lon":5.36112,"is_reserved":false,"is_disabled":false,"rental_uris":{"android":"levelo://app?vid=d5d0b37f-3bb5-4cc3-b9e9-78d65d591551","ios":"levelo://app?vid=d5d0b37f-3bb5-4cc3-b9e9-78d65d591551"},"vehicle_type_id":"4","last_reported":1702213654,"current_range_meters":29200,"station_id":"ce4bgj92rcd13ifvqbe0","pricing_plan_id":"free"},{"bike_id":"b1005858-50bb-47a9-aef3-05493c21b7e2","system_id":"levelo_inurba_marseille","lat":43.336148,"lon":5.410349,"is_reserved":false,"is_disabled":false,"rental_uris":{"android":"levelo://app?vid=b1005858-50bb-47a9-aef3-05493c21b7e2","ios":"levelo://app?vid=b1005858-50bb-47a9-aef3-05493c21b7e2"},"vehicle_type_id":"4","last_reported":1702213654,"current_range_meters":13200,"station_id":"ce4bhqh2rcd13ifvqhmg","pricing_plan_id":"free"},{"bike_id":"c07a35b2-5cb1-4f76-9266-31080de9f364","system_id":"levelo_inurba_marseille","lat":43.33612,"lon":5.410321,"is_reserved":false,"is_disabled":false,"rental_uris":{"android":"levelo://app?vid=c07a35b2-5cb1-4f76-9266-31080de9f364","ios":"levelo://app?vid=c07a35b2-5cb1-4f76-9266-31080de9f364"},"vehicle_type_id":"4","last_reported":1702213654,"current_range_meters":0,"station_id":"ce4bhqh2rcd13ifvqhmg","pricing_plan_id":"free"},{"bike_id":"02791883-a925-42a0-9dd3-b7193f6a574b","system_id":"levelo_inurba_marseille","lat":43.31714,"lon":5.42401,"is_reserved":false,"is_disabled":false,"rental_uris":{"android":"levelo://app?vid=02791883-a925-42a0-9dd3-b7193f6a574b","ios":"levelo://app?vid=02791883-a925-42a0-9dd3-b7193f6a574b"},"vehicle_type_id":"4","last_reported":1702213654,"current_range_meters":26400,"station_id":"ce4bhp92rcd13ifvqhbg","pricing_plan_id":"free"},{"bike_id":"88e59060-d458-48a8-8abe-8a1913097d92","system_id":"levelo_inurba_marseille","lat":43.31714,"lon":5.42401,"is_reserved":false,"is_disabled":false,"rental_uris":{"android":"levelo://app?vid=88e59060-d458-48a8-8abe-8a1913097d92","ios":"levelo://app?vid=88e59060-d458-48a8-8abe-8a1913097d92"},"vehicle_type_id":"4","last_reported":1702213654,"current_range_meters":20400,"station_id":"ce4bhp92rcd13ifvqhbg","pricing_plan_id":"free"},{"bike_id":"e7bd1e73-4f86-473d-905c-a7b0f3d6ad8a","system_id":"levelo_inurba_marseille","lat":43.31723,"lon":5.42405,"is_reserved":false,"is_disabled":false,"rental_uris":{"android":"levelo://app?vid=e7bd1e73-4f86-473d-905c-a7b0f3d6ad8a","ios":"levelo://app?vid=e7bd1e73-4f86-473d-905c-a7b0f3d6ad8a"},"vehicle_type_id":"4","last_reported":1702213654,"current_range_meters":13200,"station_id":"ce4bhp92rcd13ifvqhbg","pricing_plan_id":"free"},{"bike_id":"223614b5-a85d-4112-a5d8-914e8ed423a8","system_id":"levelo_inurba_marseille","lat":43.340804,"lon":5.410219,"is_reserved":false,"is_disabled":false,"rental_uris":{"android":"levelo://app?vid=223614b5-a85d-4112-a5d8-914e8ed423a8","ios":"levelo://app?vid=223614b5-a85d-4112-a5d8-914e8ed423a8"},"vehicle_type_id":"4","last_reported":1702213654,"current_range_meters":30000,"station_id":"ce4bhqh2rcd13ifvqhlg","pricing_plan_id":"free"},{"bike_id":"63133364-316e-458e-b234-bbd4926c63fc","system_id":"levelo_inurba_marseille","lat":43.27583,"lon":5.39474,"is_reserved":false,"is_disabled":false,"rental_uris":{"android":"levelo://app?vid=63133364-316e-458e-b234-bbd4926c63fc","ios":"levelo://app?vid=63133364-316e-458e-b234-bbd4926c63fc"},"vehicle_type_id":"4","last_reported":1702213654,"current_range_meters":3600,"station_id":"","pricing_plan_id":"free"},{"bike_id":"b862dcf0-6e21-4653-8724-3a6647a941e6","system_id":"levelo_inurba_marseille","lat":43.274103,"lon":5.394016,"is_reserved":false,"is_disabled":false,"rental_uris":{"android":"levelo://app?vid=b862dcf0-6e21-4653-8724-3a6647a941e6","ios":"levelo://app?vid=b862dcf0-6e21-4653-8724-3a6647a941e6"},"vehicle_type_id":"4","last_reported":1702213654,"current_range_meters":8800,"station_id":"ce4bhdp2rcd13ifvqf20","pricing_plan_id":"free"},{"bike_id":"9bcbc9fc-26b3-42b1-8476-313eb4d800dc","system_id":"levelo_inurba_marseille","lat":43.304096,"lon":5.425385,"is_reserved":false,"is_disabled":false,"rental_uris":{"android":"levelo://app?vid=9bcbc9fc-26b3-42b1-8476-313eb4d800dc","ios":"levelo://app?vid=9bcbc9fc-26b3-42b1-8476-313eb4d800dc"},"vehicle_type_id":"4","last_reported":1702213654,"current_range_meters":4400,"station_id":"ce4bhoh2rcd13ifvqh6g","pricing_plan_id":"free"},{"bike_id":"efe12f5a-a46b-47b7-be5d-2a89a9228c6b","system_id":"levelo_inurba_marseille","lat":43.304096,"lon":5.425385,"is_reserved":false,"is_disabled":false,"rental_uris":{"android":"levelo://app?vid=efe12f5a-a46b-47b7-be5d-2a89a9228c6b","ios":"levelo://app?vid=efe12f5a-a46b-47b7-be5d-2a89a9228c6b"},"vehicle_type_id":"4","last_reported":1702213654,"current_range_meters":25200,"station_id":"ce4bhoh2rcd13ifvqh6g","pricing_plan_id":"free"},{"bike_id":"8d7773eb-8cfa-4695-aadd-d81486eca834","system_id":"levelo_inurba_marseille","lat":43.295523,"lon":5.422926,"is_reserved":false,"is_disabled":false,"rental_uris":{"android":"levelo://app?vid=8d7773eb-8cfa-4695-aadd-d81486eca834","ios":"levelo://app?vid=8d7773eb-8cfa-4695-aadd-d81486eca834"},"vehicle_type_id":"4","last_reported":1702213654,"current_range_meters":23600,"station_id":"ce4bhph2rcd13ifvqhdg","pricing_plan_id":"free"},{"bike_id":"9b5df87e-5b55-476d-8b11-43f061cad14c","system_id":"levelo_inurba_marseille","lat":43.295523,"lon":5.422926,"is_reserved":false,"is_disabled":false,"rental_uris":{"android":"levelo://app?vid=9b5df87e-5b55-476d-8b11-43f061cad14c","ios":"levelo://app?vid=9b5df87e-5b55-476d-8b11-43f061cad14c"},"vehicle_type_id":"4","last_reported":1702213654,"current_range_meters":30000,"station_id":"ce4bhph2rcd13ifvqhdg","pricing_plan_id":"free"},{"bike_id":"73be8de9-0dde-4ef6-815b-5a26699c3c87","system_id":"levelo_inurba_marseille","lat":43.295511,"lon":5.422926,"is_reserved":false,"is_disabled":false,"rental_uris":{"android":"levelo://app?vid=73be8de9-0dde-4ef6-815b-5a26699c3c87","ios":"levelo://app?vid=73be8de9-0dde-4ef6-815b-5a26699c3c87"},"vehicle_type_id":"4","last_reported":1702213654,"current_range_meters":5200,"station_id":"ce4bhph2rcd13ifvqhdg","pricing_plan_id":"free"},{"bike_id":"24addea6-57d2-4ff1-ab84-07e15fe77aa0","system_id":"levelo_inurba_marseille","lat":43.269467,"lon":5.386439,"is_reserved":false,"is_disabled":false,"rental_uris":{"android":"levelo://app?vid=24addea6-57d2-4ff1-ab84-07e15fe77aa0","ios":"levelo://app?vid=24addea6-57d2-4ff1-ab84-07e15fe77aa0"},"vehicle_type_id":"4","last_reported":1702213654,"current_range_meters":21200,"station_id":"ce4bhh92rcd13ifvqfh0","pricing_plan_id":"free"},{"bike_id":"e7f4707a-7fca-4b6d-9632-64ff377b1c57","system_id":"levelo_inurba_marseille","lat":43.269467,"lon":5.386439,"is_reserved":false,"is_disabled":false,"rental_uris":{"android":"levelo://app?vid=e7f4707a-7fca-4b6d-9632-64ff377b1c57","ios":"levelo://app?vid=e7f4707a-7fca-4b6d-9632-64ff377b1c57"},"vehicle_type_id":"4","last_reported":1702213654,"current_range_meters":30400,"station_id":"ce4bhh92rcd13ifvqfh0","pricing_plan_id":"free"},{"bike_id":"7db2c9c1-cac3-4a72-8037-dbd6c23ca786","system_id":"levelo_inurba_marseille","lat":43.269467,"lon":5.386439,"is_reserved":false,"is_disabled":false,"rental_uris":{"android":"levelo://app?vid=7db2c9c1-cac3-4a72-8037-dbd6c23ca786","ios":"levelo://app?vid=7db2c9c1-cac3-4a72-8037-dbd6c23ca786"},"vehicle_type_id":"4","last_reported":1702213654,"current_range_meters":21600,"station_id":"ce4bhh92rcd13ifvqfh0","pricing_plan_id":"free"},{"bike_id":"2039a23a-daac-42ec-99ee-3baa9dd6dfb8","system_id":"levelo_inurba_marseille","lat":43.26681,"lon":5.382694,"is_reserved":false,"is_disabled":false,"rental_uris":{"android":"levelo://app?vid=2039a23a-daac-42ec-99ee-3baa9dd6dfb8","ios":"levelo://app?vid=2039a23a-daac-42ec-99ee-3baa9dd6dfb8"},"vehicle_type_id":"4","last_reported":1702213654,"current_range_meters":16800,"station_id":"ce4bhg92rcd13ifvqf90","pricing_plan_id":"free"},{"bike_id":"78616d49-3679-4a59-98af-0046d307c3c2","system_id":"levelo_inurba_marseille","lat":43.26681,"lon":5.382694,"is_reserved":false,"is_disabled":false,"rental_uris":{"android":"levelo://app?vid=78616d49-3679-4a59-98af-0046d307c3c2","ios":"levelo://app?vid=78616d49-3679-4a59-98af-0046d307c3c2"},"vehicle_type_id":"4","last_reported":1702213654,"current_range_meters":6400,"station_id":"ce4bhg92rcd13ifvqf90","pricing_plan_id":"free"},{"bike_id":"d569af6a-8327-4956-96e6-c5fd7b8ff746","system_id":"levelo_inurba_marseille","lat":43.27996,"lon":5.416624,"is_reserved":false,"is_disabled":false,"rental_uris":{"android":"levelo://app?vid=d569af6a-8327-4956-96e6-c5fd7b8ff746","ios":"levelo://app?vid=d569af6a-8327-4956-96e6-c5fd7b8ff746"},"vehicle_type_id":"4","last_reported":1702213654,"current_range_meters":0,"station_id":"ce4bho12rcd13ifvqh1g","pricing_plan_id":"free"},{"bike_id":"d9905fd9-fc0a-4c9f-85fa-8aca947c9d38","system_id":"levelo_inurba_marseille","lat":43.30797,"lon":5.43515,"is_reserved":false,"is_disabled":false,"rental_uris":{"android":"levelo://app?vid=d9905fd9-fc0a-4c9f-85fa-8aca947c9d38","ios":"levelo://app?vid=d9905fd9-fc0a-4c9f-85fa-8aca947c9d38"},"vehicle_type_id":"4","last_reported":1702213654,"current_range_meters":25600,"station_id":"ce4bhph2rcd13ifvqheg","pricing_plan_id":"free"},{"bike_id":"983ed045-1f7b-4579-b9d1-f93588aba3b1","system_id":"levelo_inurba_marseille","lat":43.30799,"lon":5.43519,"is_reserved":false,"is_disabled":false,"rental_uris":{"android":"levelo://app?vid=983ed045-1f7b-4579-b9d1-f93588aba3b1","ios":"levelo://app?vid=983ed045-1f7b-4579-b9d1-f93588aba3b1"},"vehicle_type_id":"4","last_reported":1702213654,"current_range_meters":29600,"station_id":"ce4bhph2rcd13ifvqheg","pricing_plan_id":"free"},{"bike_id":"ddd5cc5c-290e-4c4f-9044-00d78bc24412","system_id":"levelo_inurba_marseille","lat":43.30803,"lon":5.43524,"is_reserved":false,"is_disabled":false,"rental_uris":{"android":"levelo://app?vid=ddd5cc5c-290e-4c4f-9044-00d78bc24412","ios":"levelo://app?vid=ddd5cc5c-290e-4c4f-9044-00d78bc24412"},"vehicle_type_id":"4","last_reported":1702213654,"current_range_meters":27600,"station_id":"ce4bhph2rcd13ifvqheg","pricing_plan_id":"free"},{"bike_id":"1594ab0c-8aba-4a4a-83ff-da41c83152d6","system_id":"levelo_inurba_marseille","lat":43.30798,"lon":5.43525,"is_reserved":false,"is_disabled":false,"rental_uris":{"android":"levelo://app?vid=1594ab0c-8aba-4a4a-83ff-da41c83152d6","ios":"levelo://app?vid=1594ab0c-8aba-4a4a-83ff-da41c83152d6"},"vehicle_type_id":"4","last_reported":1702213654,"current_range_meters":25600,"station_id":"ce4bhph2rcd13ifvqheg","pricing_plan_id":"free"},{"bike_id":"95eae8fe-5edc-4f0c-8d9b-c77e415b5d0a","system_id":"levelo_inurba_marseille","lat":43.272116,"lon":5.391763,"is_reserved":false,"is_disabled":false,"rental_uris":{"android":"levelo://app?vid=95eae8fe-5edc-4f0c-8d9b-c77e415b5d0a","ios":"levelo://app?vid=95eae8fe-5edc-4f0c-8d9b-c77e415b5d0a"},"vehicle_type_id":"4","last_reported":1702213654,"current_range_meters":24000,"station_id":"ce4bhhp2rcd13ifvqfm0","pricing_plan_id":"free"},{"bike_id":"12497eed-fedf-4a5e-84a9-241e7eadc496","system_id":"levelo_inurba_marseille","lat":43.265569,"lon":5.390047,"is_reserved":false,"is_disabled":false,"rental_uris":{"android":"levelo://app?vid=12497eed-fedf-4a5e-84a9-241e7eadc496","ios":"levelo://app?vid=12497eed-fedf-4a5e-84a9-241e7eadc496"},"vehicle_type_id":"4","last_reported":1702213654,"current_range_meters":8000,"station_id":"ce4bhe12rcd13ifvqf30","pricing_plan_id":"free"},{"bike_id":"dbacbb4a-9e99-4a7a-9713-43dac221ae4c","system_id":"levelo_inurba_marseille","lat":43.317104,"lon":5.436818,"is_reserved":false,"is_disabled":false,"rental_uris":{"android":"levelo://app?vid=dbacbb4a-9e99-4a7a-9713-43dac221ae4c","ios":"levelo://app?vid=dbacbb4a-9e99-4a7a-9713-43dac221ae4c"},"vehicle_type_id":"4","last_reported":1702213654,"current_range_meters":31200,"station_id":"ce4bhp92rcd13ifvqhcg","pricing_plan_id":"free"},{"bike_id":"a46f03b4-4e8a-4c8d-99c8-0fbdff3c7ad8","system_id":"levelo_inurba_marseille","lat":43.261782,"lon":5.374515,"is_reserved":false,"is_disabled":false,"rental_uris":{"android":"levelo://app?vid=a46f03b4-4e8a-4c8d-99c8-0fbdff3c7ad8","ios":"levelo://app?vid=a46f03b4-4e8a-4c8d-99c8-0fbdff3c7ad8"},"vehicle_type_id":"4","last_reported":1702213654,"current_range_meters":20000,"station_id":"ce4bhgp2rcd13ifvqfc0","pricing_plan_id":"free"},{"bike_id":"b59a34b6-4741-4850-aef4-59a92e421abe","system_id":"levelo_inurba_marseille","lat":43.260225,"lon":5.375455,"is_reserved":false,"is_disabled":false,"rental_uris":{"android":"levelo://app?vid=b59a34b6-4741-4850-aef4-59a92e421abe","ios":"levelo://app?vid=b59a34b6-4741-4850-aef4-59a92e421abe"},"vehicle_type_id":"4","last_reported":1702213654,"current_range_meters":20000,"station_id":"ce4bhgh2rcd13ifvqfa0","pricing_plan_id":"free"},{"bike_id":"eb107442-3e23-4d68-8981-bd6376b3aea0","system_id":"levelo_inurba_marseille","lat":43.260219,"lon":5.37546,"is_reserved":false,"is_disabled":false,"rental_uris":{"android":"levelo://app?vid=eb107442-3e23-4d68-8981-bd6376b3aea0","ios":"levelo://app?vid=eb107442-3e23-4d68-8981-bd6376b3aea0"},"vehicle_type_id":"4","last_reported":1702213654,"current_range_meters":6000,"station_id":"ce4bhgh2rcd13ifvqfa0","pricing_plan_id":"free"},{"bike_id":"0341a2e7-04a4-4d8e-b96d-44e5882da047","system_id":"levelo_inurba_marseille","lat":43.275028,"lon":5.424534,"is_reserved":false,"is_disabled":false,"rental_uris":{"android":"levelo://app?vid=0341a2e7-04a4-4d8e-b96d-44e5882da047","ios":"levelo://app?vid=0341a2e7-04a4-4d8e-b96d-44e5882da047"},"vehicle_type_id":"4","last_reported":1702213654,"current_range_meters":27600,"station_id":"ce4bhn92rcd13ifvqgrg","pricing_plan_id":"free"},{"bike_id":"97b4847e-6601-421f-a151-c2baa3c404f1","system_id":"levelo_inurba_marseille","lat":43.258224,"lon":5.394369,"is_reserved":false,"is_disabled":false,"rental_uris":{"android":"levelo://app?vid=97b4847e-6601-421f-a151-c2baa3c404f1","ios":"levelo://app?vid=97b4847e-6601-421f-a151-c2baa3c404f1"},"vehicle_type_id":"4","last_reported":1702213654,"current_range_meters":31200,"station_id":"ce4bhip2rcd13ifvqft0","pricing_plan_id":"free"},{"bike_id":"42610f1f-ca61-4fbe-b8db-4ca5bfa545db","system_id":"levelo_inurba_marseille","lat":43.254947,"lon":5.376454,"is_reserved":false,"is_disabled":false,"rental_uris":{"android":"levelo://app?vid=42610f1f-ca61-4fbe-b8db-4ca5bfa545db","ios":"levelo://app?vid=42610f1f-ca61-4fbe-b8db-4ca5bfa545db"},"vehicle_type_id":"4","last_reported":1702213654,"current_range_meters":28800,"station_id":"ce4bhh12rcd13ifvqff0","pricing_plan_id":"free"},{"bike_id":"46488328-c339-4346-9280-ec5f809f328b","system_id":"levelo_inurba_marseille","lat":43.270721,"lon":5.422764,"is_reserved":false,"is_disabled":false,"rental_uris":{"android":"levelo://app?vid=46488328-c339-4346-9280-ec5f809f328b","ios":"levelo://app?vid=46488328-c339-4346-9280-ec5f809f328b"},"vehicle_type_id":"4","last_reported":1702213654,"current_range_meters":27600,"station_id":"ce4bhk92rcd13ifvqgb0","pricing_plan_id":"free"},{"bike_id":"3eeea7cd-d7f9-4dfb-a6fb-3f4a724fbb8e","system_id":"levelo_inurba_marseille","lat":43.270721,"lon":5.422764,"is_reserved":false,"is_disabled":false,"rental_uris":{"android":"levelo://app?vid=3eeea7cd-d7f9-4dfb-a6fb-3f4a724fbb8e","ios":"levelo://app?vid=3eeea7cd-d7f9-4dfb-a6fb-3f4a724fbb8e"},"vehicle_type_id":"4","last_reported":1702213654,"current_range_meters":17600,"station_id":"ce4bhk92rcd13ifvqgb0","pricing_plan_id":"free"},{"bike_id":"23852011-45c0-4eb3-b521-fdccfcd75ec1","system_id":"levelo_inurba_marseille","lat":43.250009,"lon":5.389195,"is_reserved":false,"is_disabled":false,"rental_uris":{"android":"levelo://app?vid=23852011-45c0-4eb3-b521-fdccfcd75ec1","ios":"levelo://app?vid=23852011-45c0-4eb3-b521-fdccfcd75ec1"},"vehicle_type_id":"4","last_reported":1702213654,"current_range_meters":27600,"station_id":"ce4bhgp2rcd13ifvqfd0","pricing_plan_id":"free"},{"bike_id":"88bc1a47-a576-4c2b-812d-f4eec21e8c6f","system_id":"levelo_inurba_marseille","lat":43.250023,"lon":5.38919,"is_reserved":false,"is_disabled":false,"rental_uris":{"android":"levelo://app?vid=88bc1a47-a576-4c2b-812d-f4eec21e8c6f","ios":"levelo://app?vid=88bc1a47-a576-4c2b-812d-f4eec21e8c6f"},"vehicle_type_id":"4","last_reported":1702213654,"current_range_meters":29600,"station_id":"ce4bhgp2rcd13ifvqfd0","pricing_plan_id":"free"},{"bike_id":"dbe853aa-6b90-4830-a2ec-79878f44897e","system_id":"levelo_inurba_marseille","lat":43.250966,"lon":5.395186,"is_reserved":false,"is_disabled":false,"rental_uris":{"android":"levelo://app?vid=dbe853aa-6b90-4830-a2ec-79878f44897e","ios":"levelo://app?vid=dbe853aa-6b90-4830-a2ec-79878f44897e"},"vehicle_type_id":"4","last_reported":1702213654,"current_range_meters":16400,"station_id":"ce4bhm12rcd13ifvqgkg","pricing_plan_id":"free"},{"bike_id":"5c711483-2cc8-4797-b8bb-8990c44f1e05","system_id":"levelo_inurba_marseille","lat":43.250966,"lon":5.395186,"is_reserved":false,"is_disabled":false,"rental_uris":{"android":"levelo://app?vid=5c711483-2cc8-4797-b8bb-8990c44f1e05","ios":"levelo://app?vid=5c711483-2cc8-4797-b8bb-8990c44f1e05"},"vehicle_type_id":"4","last_reported":1702213654,"current_range_meters":29200,"station_id":"ce4bhm12rcd13ifvqgkg","pricing_plan_id":"free"},{"bike_id":"3bef7688-e4fb-4f86-8115-a8bfccf691ea","system_id":"levelo_inurba_marseille","lat":43.250966,"lon":5.395186,"is_reserved":false,"is_disabled":false,"rental_uris":{"android":"levelo://app?vid=3bef7688-e4fb-4f86-8115-a8bfccf691ea","ios":"levelo://app?vid=3bef7688-e4fb-4f86-8115-a8bfccf691ea"},"vehicle_type_id":"4","last_reported":1702213654,"current_range_meters":28000,"station_id":"ce4bhm12rcd13ifvqgkg","pricing_plan_id":"free"},{"bike_id":"f8751423-247d-463f-84eb-c4492f784372","system_id":"levelo_inurba_marseille","lat":43.24693,"lon":5.382096,"is_reserved":false,"is_disabled":false,"rental_uris":{"android":"levelo://app?vid=f8751423-247d-463f-84eb-c4492f784372","ios":"levelo://app?vid=f8751423-247d-463f-84eb-c4492f784372"},"vehicle_type_id":"4","last_reported":1702213654,"current_range_meters":30000,"station_id":"ce4bhih2rcd13ifvqfr0","pricing_plan_id":"free"},{"bike_id":"7720c45a-16fd-468c-820d-244fcf7910db","system_id":"levelo_inurba_marseille","lat":43.24693,"lon":5.382096,"is_reserved":false,"is_disabled":false,"rental_uris":{"android":"levelo://app?vid=7720c45a-16fd-468c-820d-244fcf7910db","ios":"levelo://app?vid=7720c45a-16fd-468c-820d-244fcf7910db"},"vehicle_type_id":"4","last_reported":1702213654,"current_range_meters":30000,"station_id":"ce4bhih2rcd13ifvqfr0","pricing_plan_id":"free"},{"bike_id":"8d7f8811-c54b-4ec0-b41b-ecfa5e7f9427","system_id":"levelo_inurba_marseille","lat":43.24693,"lon":5.382096,"is_reserved":false,"is_disabled":false,"rental_uris":{"android":"levelo://app?vid=8d7f8811-c54b-4ec0-b41b-ecfa5e7f9427","ios":"levelo://app?vid=8d7f8811-c54b-4ec0-b41b-ecfa5e7f9427"},"vehicle_type_id":"4","last_reported":1702213654,"current_range_meters":22800,"station_id":"ce4bhih2rcd13ifvqfr0","pricing_plan_id":"free"},{"bike_id":"954cd0fc-20e5-4f66-a77d-e04a38f2f1c9","system_id":"levelo_inurba_marseille","lat":43.25102,"lon":5.403214,"is_reserved":false,"is_disabled":false,"rental_uris":{"android":"levelo://app?vid=954cd0fc-20e5-4f66-a77d-e04a38f2f1c9","ios":"levelo://app?vid=954cd0fc-20e5-4f66-a77d-e04a38f2f1c9"},"vehicle_type_id":"4","last_reported":1702213654,"current_range_meters":0,"station_id":"ce4bhlh2rcd13ifvqgig","pricing_plan_id":"free"},{"bike_id":"5e605dd7-7449-4197-aebf-bcb50d65c55f","system_id":"levelo_inurba_marseille","lat":43.24653,"lon":5.38896,"is_reserved":false,"is_disabled":false,"rental_uris":{"android":"levelo://app?vid=5e605dd7-7449-4197-aebf-bcb50d65c55f","ios":"levelo://app?vid=5e605dd7-7449-4197-aebf-bcb50d65c55f"},"vehicle_type_id":"4","last_reported":1702213654,"current_range_meters":28400,"station_id":"ce4bhg12rcd13ifvqf60","pricing_plan_id":"free"},{"bike_id":"58163e29-bd9c-4d87-b174-635d0562a1eb","system_id":"levelo_inurba_marseille","lat":43.246467,"lon":5.388984,"is_reserved":false,"is_disabled":false,"rental_uris":{"android":"levelo://app?vid=58163e29-bd9c-4d87-b174-635d0562a1eb","ios":"levelo://app?vid=58163e29-bd9c-4d87-b174-635d0562a1eb"},"vehicle_type_id":"4","last_reported":1702213654,"current_range_meters":20000,"station_id":"ce4bhg12rcd13ifvqf60","pricing_plan_id":"free"},{"bike_id":"8e9f91b6-96df-403a-8c6f-f0c8dee337ff","system_id":"levelo_inurba_marseille","lat":43.246467,"lon":5.388984,"is_reserved":false,"is_disabled":false,"rental_uris":{"android":"levelo://app?vid=8e9f91b6-96df-403a-8c6f-f0c8dee337ff","ios":"levelo://app?vid=8e9f91b6-96df-403a-8c6f-f0c8dee337ff"},"vehicle_type_id":"4","last_reported":1702213654,"current_range_meters":14000,"station_id":"ce4bhg12rcd13ifvqf60","pricing_plan_id":"free"},{"bike_id":"1a23636c-273b-427e-ba3a-4cc57a24dce9","system_id":"levelo_inurba_marseille","lat":43.246467,"lon":5.388984,"is_reserved":false,"is_disabled":false,"rental_uris":{"android":"levelo://app?vid=1a23636c-273b-427e-ba3a-4cc57a24dce9","ios":"levelo://app?vid=1a23636c-273b-427e-ba3a-4cc57a24dce9"},"vehicle_type_id":"4","last_reported":1702213654,"current_range_meters":31200,"station_id":"ce4bhg12rcd13ifvqf60","pricing_plan_id":"free"},{"bike_id":"e0e73f13-d1f1-4fa1-9c94-14944708343d","system_id":"levelo_inurba_marseille","lat":43.243884,"lon":5.370736,"is_reserved":false,"is_disabled":false,"rental_uris":{"android":"levelo://app?vid=e0e73f13-d1f1-4fa1-9c94-14944708343d","ios":"levelo://app?vid=e0e73f13-d1f1-4fa1-9c94-14944708343d"},"vehicle_type_id":"4","last_reported":1702213654,"current_range_meters":9200,"station_id":"ce4bhhh2rcd13ifvqfk0","pricing_plan_id":"free"},{"bike_id":"778e6ed4-78bc-484d-85be-620895ae9343","system_id":"levelo_inurba_marseille","lat":43.243884,"lon":5.370737,"is_reserved":false,"is_disabled":false,"rental_uris":{"android":"levelo://app?vid=778e6ed4-78bc-484d-85be-620895ae9343","ios":"levelo://app?vid=778e6ed4-78bc-484d-85be-620895ae9343"},"vehicle_type_id":"4","last_reported":1702213654,"current_range_meters":6000,"station_id":"ce4bhhh2rcd13ifvqfk0","pricing_plan_id":"free"},{"bike_id":"faa186de-8fdc-4e7b-afef-71023ebf19e6","system_id":"levelo_inurba_marseille","lat":43.243884,"lon":5.370736,"is_reserved":false,"is_disabled":false,"rental_uris":{"android":"levelo://app?vid=faa186de-8fdc-4e7b-afef-71023ebf19e6","ios":"levelo://app?vid=faa186de-8fdc-4e7b-afef-71023ebf19e6"},"vehicle_type_id":"4","last_reported":1702213654,"current_range_meters":25600,"station_id":"ce4bhhh2rcd13ifvqfk0","pricing_plan_id":"free"},{"bike_id":"553c1e09-c1d9-4c9c-b07d-e3fceead420a","system_id":"levelo_inurba_marseille","lat":43.24388,"lon":5.37058,"is_reserved":false,"is_disabled":false,"rental_uris":{"android":"levelo://app?vid=553c1e09-c1d9-4c9c-b07d-e3fceead420a","ios":"levelo://app?vid=553c1e09-c1d9-4c9c-b07d-e3fceead420a"},"vehicle_type_id":"4","last_reported":1702213654,"current_range_meters":17200,"station_id":"ce4bhhh2rcd13ifvqfk0","pricing_plan_id":"free"},{"bike_id":"4c3e1f43-73fd-4781-8e26-8e494293041b","system_id":"levelo_inurba_marseille","lat":43.24387,"lon":5.37055,"is_reserved":false,"is_disabled":false,"rental_uris":{"android":"levelo://app?vid=4c3e1f43-73fd-4781-8e26-8e494293041b","ios":"levelo://app?vid=4c3e1f43-73fd-4781-8e26-8e494293041b"},"vehicle_type_id":"4","last_reported":1702213654,"current_range_meters":23600,"station_id":"ce4bhhh2rcd13ifvqfk0","pricing_plan_id":"free"},{"bike_id":"44e2ac67-993d-4edf-81e6-8cabdc00f6ed","system_id":"levelo_inurba_marseille","lat":43.243884,"lon":5.370737,"is_reserved":false,"is_disabled":false,"rental_uris":{"android":"levelo://app?vid=44e2ac67-993d-4edf-81e6-8cabdc00f6ed","ios":"levelo://app?vid=44e2ac67-993d-4edf-81e6-8cabdc00f6ed"},"vehicle_type_id":"4","last_reported":1702213654,"current_range_meters":16000,"station_id":"ce4bhhh2rcd13ifvqfk0","pricing_plan_id":"free"},{"bike_id":"d0cc3f9d-49bd-4a77-91c3-0c3157ce390f","system_id":"levelo_inurba_marseille","lat":43.243884,"lon":5.370736,"is_reserved":false,"is_disabled":false,"rental_uris":{"android":"levelo://app?vid=d0cc3f9d-49bd-4a77-91c3-0c3157ce390f","ios":"levelo://app?vid=d0cc3f9d-49bd-4a77-91c3-0c3157ce390f"},"vehicle_type_id":"4","last_reported":1702213654,"current_range_meters":28400,"station_id":"ce4bhhh2rcd13ifvqfk0","pricing_plan_id":"free"},{"bike_id":"0d64fad9-158a-4ce3-9a2d-c25b15c8ce69","system_id":"levelo_inurba_marseille","lat":43.243884,"lon":5.370736,"is_reserved":false,"is_disabled":false,"rental_uris":{"android":"levelo://app?vid=0d64fad9-158a-4ce3-9a2d-c25b15c8ce69","ios":"levelo://app?vid=0d64fad9-158a-4ce3-9a2d-c25b15c8ce69"},"vehicle_type_id":"4","last_reported":1702213654,"current_range_meters":29600,"station_id":"ce4bhhh2rcd13ifvqfk0","pricing_plan_id":"free"},{"bike_id":"73a090ad-f98c-4911-abff-5bfcae6bacda","system_id":"levelo_inurba_marseille","lat":43.245581,"lon":5.395069,"is_reserved":false,"is_disabled":false,"rental_uris":{"android":"levelo://app?vid=73a090ad-f98c-4911-abff-5bfcae6bacda","ios":"levelo://app?vid=73a090ad-f98c-4911-abff-5bfcae6bacda"},"vehicle_type_id":"4","last_reported":1702213654,"current_range_meters":30000,"station_id":"ce4bhlp2rcd13ifvqgjg","pricing_plan_id":"free"},{"bike_id":"ec13193c-3c4c-4e90-b75a-71df6f64e0b1","system_id":"levelo_inurba_marseille","lat":43.245581,"lon":5.395069,"is_reserved":false,"is_disabled":false,"rental_uris":{"android":"levelo://app?vid=ec13193c-3c4c-4e90-b75a-71df6f64e0b1","ios":"levelo://app?vid=ec13193c-3c4c-4e90-b75a-71df6f64e0b1"},"vehicle_type_id":"4","last_reported":1702213654,"current_range_meters":24000,"station_id":"ce4bhlp2rcd13ifvqgjg","pricing_plan_id":"free"},{"bike_id":"06229c40-1506-44c4-92c2-3c664f796b0b","system_id":"levelo_inurba_marseille","lat":43.245581,"lon":5.395069,"is_reserved":false,"is_disabled":false,"rental_uris":{"android":"levelo://app?vid=06229c40-1506-44c4-92c2-3c664f796b0b","ios":"levelo://app?vid=06229c40-1506-44c4-92c2-3c664f796b0b"},"vehicle_type_id":"4","last_reported":1702213654,"current_range_meters":30000,"station_id":"ce4bhlp2rcd13ifvqgjg","pricing_plan_id":"free"},{"bike_id":"c88399f4-54c8-4f15-97b0-4d47ee4d0a9d","system_id":"levelo_inurba_marseille","lat":43.245581,"lon":5.395069,"is_reserved":false,"is_disabled":false,"rental_uris":{"android":"levelo://app?vid=c88399f4-54c8-4f15-97b0-4d47ee4d0a9d","ios":"levelo://app?vid=c88399f4-54c8-4f15-97b0-4d47ee4d0a9d"},"vehicle_type_id":"4","last_reported":1702213654,"current_range_meters":28400,"station_id":"ce4bhlp2rcd13ifvqgjg","pricing_plan_id":"free"},{"bike_id":"e0027151-3876-4e17-8b4a-b5c8f5b31988","system_id":"levelo_inurba_marseille","lat":43.24073,"lon":5.37755,"is_reserved":false,"is_disabled":false,"rental_uris":{"android":"levelo://app?vid=e0027151-3876-4e17-8b4a-b5c8f5b31988","ios":"levelo://app?vid=e0027151-3876-4e17-8b4a-b5c8f5b31988"},"vehicle_type_id":"4","last_reported":1702213654,"current_range_meters":13600,"station_id":"ce4bhnp2rcd13ifvqgvg","pricing_plan_id":"free"},{"bike_id":"6c11ab36-6115-4ce1-b341-c599bdaacc4d","system_id":"levelo_inurba_marseille","lat":43.239588,"lon":5.366238,"is_reserved":false,"is_disabled":false,"rental_uris":{"android":"levelo://app?vid=6c11ab36-6115-4ce1-b341-c599bdaacc4d","ios":"levelo://app?vid=6c11ab36-6115-4ce1-b341-c599bdaacc4d"},"vehicle_type_id":"4","last_reported":1702213654,"current_range_meters":23200,"station_id":"ce4bhi12rcd13ifvqfp0","pricing_plan_id":"free"},{"bike_id":"a4fbf616-94d5-44b6-955f-60acc6ccdefd","system_id":"levelo_inurba_marseille","lat":43.239588,"lon":5.366238,"is_reserved":false,"is_disabled":false,"rental_uris":{"android":"levelo://app?vid=a4fbf616-94d5-44b6-955f-60acc6ccdefd","ios":"levelo://app?vid=a4fbf616-94d5-44b6-955f-60acc6ccdefd"},"vehicle_type_id":"4","last_reported":1702213654,"current_range_meters":17200,"station_id":"ce4bhi12rcd13ifvqfp0","pricing_plan_id":"free"},{"bike_id":"7d7c7779-125a-465d-9e5a-42bb318eea81","system_id":"levelo_inurba_marseille","lat":43.239588,"lon":5.366238,"is_reserved":false,"is_disabled":false,"rental_uris":{"android":"levelo://app?vid=7d7c7779-125a-465d-9e5a-42bb318eea81","ios":"levelo://app?vid=7d7c7779-125a-465d-9e5a-42bb318eea81"},"vehicle_type_id":"4","last_reported":1702213654,"current_range_meters":4800,"station_id":"ce4bhi12rcd13ifvqfp0","pricing_plan_id":"free"},{"bike_id":"abb6d0d9-6da9-4422-a893-0588013b47d6","system_id":"levelo_inurba_marseille","lat":43.241833,"lon":5.397184,"is_reserved":false,"is_disabled":false,"rental_uris":{"android":"levelo://app?vid=abb6d0d9-6da9-4422-a893-0588013b47d6","ios":"levelo://app?vid=abb6d0d9-6da9-4422-a893-0588013b47d6"},"vehicle_type_id":"4","last_reported":1702213654,"current_range_meters":30000,"station_id":"ce4bhn12rcd13ifvqgpg","pricing_plan_id":"free"},{"bike_id":"1500075f-12ea-4889-b8a6-c6d6350c4d83","system_id":"levelo_inurba_marseille","lat":43.241831,"lon":5.397186,"is_reserved":false,"is_disabled":false,"rental_uris":{"android":"levelo://app?vid=1500075f-12ea-4889-b8a6-c6d6350c4d83","ios":"levelo://app?vid=1500075f-12ea-4889-b8a6-c6d6350c4d83"},"vehicle_type_id":"4","last_reported":1702213654,"current_range_meters":19600,"station_id":"ce4bhn12rcd13ifvqgpg","pricing_plan_id":"free"},{"bike_id":"cfc4a276-4a67-412c-8f70-0b8c1f09f05d","system_id":"levelo_inurba_marseille","lat":43.23197,"lon":5.35545,"is_reserved":false,"is_disabled":false,"rental_uris":{"android":"levelo://app?vid=cfc4a276-4a67-412c-8f70-0b8c1f09f05d","ios":"levelo://app?vid=cfc4a276-4a67-412c-8f70-0b8c1f09f05d"},"vehicle_type_id":"4","last_reported":1702213654,"current_range_meters":30400,"station_id":"ce4bhu92rcd13ifvqi70","pricing_plan_id":"free"},{"bike_id":"82f26454-9757-4cd7-a38a-2ee5545d6712","system_id":"levelo_inurba_marseille","lat":43.23195,"lon":5.3555,"is_reserved":false,"is_disabled":false,"rental_uris":{"android":"levelo://app?vid=82f26454-9757-4cd7-a38a-2ee5545d6712","ios":"levelo://app?vid=82f26454-9757-4cd7-a38a-2ee5545d6712"},"vehicle_type_id":"4","last_reported":1702213654,"current_range_meters":31200,"station_id":"ce4bhu92rcd13ifvqi70","pricing_plan_id":"free"},{"bike_id":"ea5921a3-5778-42b1-9f19-8b22e7f0b654","system_id":"levelo_inurba_marseille","lat":43.23185,"lon":5.35545,"is_reserved":false,"is_disabled":false,"rental_uris":{"android":"levelo://app?vid=ea5921a3-5778-42b1-9f19-8b22e7f0b654","ios":"levelo://app?vid=ea5921a3-5778-42b1-9f19-8b22e7f0b654"},"vehicle_type_id":"4","last_reported":1702213654,"current_range_meters":10400,"station_id":"ce4bhu92rcd13ifvqi70","pricing_plan_id":"free"},{"bike_id":"fc61bc99-06a0-4d72-98c5-3fc6ad0ec772","system_id":"levelo_inurba_marseille","lat":43.231793,"lon":5.400044,"is_reserved":false,"is_disabled":false,"rental_uris":{"android":"levelo://app?vid=fc61bc99-06a0-4d72-98c5-3fc6ad0ec772","ios":"levelo://app?vid=fc61bc99-06a0-4d72-98c5-3fc6ad0ec772"},"vehicle_type_id":"4","last_reported":1702213654,"current_range_meters":30400,"station_id":"ce4bhn12rcd13ifvqgqg","pricing_plan_id":"free"},{"bike_id":"6eb7b3f7-824d-4f20-9887-ca5f3978e74b","system_id":"levelo_inurba_marseille","lat":43.231793,"lon":5.400044,"is_reserved":false,"is_disabled":false,"rental_uris":{"android":"levelo://app?vid=6eb7b3f7-824d-4f20-9887-ca5f3978e74b","ios":"levelo://app?vid=6eb7b3f7-824d-4f20-9887-ca5f3978e74b"},"vehicle_type_id":"4","last_reported":1702213654,"current_range_meters":28000,"station_id":"ce4bhn12rcd13ifvqgqg","pricing_plan_id":"free"},{"bike_id":"707a12b2-fe75-40f0-8e1e-0b76f5f53388","system_id":"levelo_inurba_marseille","lat":43.231794,"lon":5.400052,"is_reserved":false,"is_disabled":false,"rental_uris":{"android":"levelo://app?vid=707a12b2-fe75-40f0-8e1e-0b76f5f53388","ios":"levelo://app?vid=707a12b2-fe75-40f0-8e1e-0b76f5f53388"},"vehicle_type_id":"4","last_reported":1702213654,"current_range_meters":19600,"station_id":"ce4bhn12rcd13ifvqgqg","pricing_plan_id":"free"},{"bike_id":"49e064bc-70cf-4225-b4b5-dae6095ca934","system_id":"levelo_inurba_marseille","lat":43.231562,"lon":5.436933,"is_reserved":false,"is_disabled":false,"rental_uris":{"android":"levelo://app?vid=49e064bc-70cf-4225-b4b5-dae6095ca934","ios":"levelo://app?vid=49e064bc-70cf-4225-b4b5-dae6095ca934"},"vehicle_type_id":"4","last_reported":1702213654,"current_range_meters":1600,"station_id":"ce4bhmp2rcd13ifvqgog","pricing_plan_id":"free"},{"bike_id":"90479f61-6418-4b50-a736-8e2b3eff7819","system_id":"levelo_inurba_marseille","lat":43.231562,"lon":5.436933,"is_reserved":false,"is_disabled":false,"rental_uris":{"android":"levelo://app?vid=90479f61-6418-4b50-a736-8e2b3eff7819","ios":"levelo://app?vid=90479f61-6418-4b50-a736-8e2b3eff7819"},"vehicle_type_id":"4","last_reported":1702213654,"current_range_meters":5200,"station_id":"ce4bhmp2rcd13ifvqgog","pricing_plan_id":"free"},{"bike_id":"cc815b0e-965f-49d1-82c7-7f4aad13e230","system_id":"levelo_inurba_marseille","lat":43.231562,"lon":5.436933,"is_reserved":false,"is_disabled":false,"rental_uris":{"android":"levelo://app?vid=cc815b0e-965f-49d1-82c7-7f4aad13e230","ios":"levelo://app?vid=cc815b0e-965f-49d1-82c7-7f4aad13e230"},"vehicle_type_id":"4","last_reported":1702213654,"current_range_meters":2000,"station_id":"ce4bhmp2rcd13ifvqgog","pricing_plan_id":"free"},{"bike_id":"e01b7cb4-7f30-4047-a8c9-eb1c2a293609","system_id":"levelo_inurba_marseille","lat":43.231562,"lon":5.436933,"is_reserved":false,"is_disabled":false,"rental_uris":{"android":"levelo://app?vid=e01b7cb4-7f30-4047-a8c9-eb1c2a293609","ios":"levelo://app?vid=e01b7cb4-7f30-4047-a8c9-eb1c2a293609"},"vehicle_type_id":"4","last_reported":1702213654,"current_range_meters":25200,"station_id":"ce4bhmp2rcd13ifvqgog","pricing_plan_id":"free"}]}}