{"last_updated":1777403903,"ttl":60,"version":"2.2","data":{"bikes":[{"bike_id":"6c0e44b5-b4c6-4989-a0ec-b3c6d257ac1d","system_id":"levelo_inurba_marseille","lat":43.33186,"lon":5.37828,"is_reserved":false,"is_disabled":false,"rental_uris":{"android":"levelo://app?vid=6c0e44b5-b4c6-4989-a0ec-b3c6d257ac1d","ios":"levelo://app?vid=6c0e44b5-b4c6-4989-a0ec-b3c6d257ac1d"},"vehicle_type_id":"4","last_reported":1777403904,"current_range_meters":2800,"station_id":"","pricing_plan_id":"cebpf4jnsgd1na2vs0mg"},{"bike_id":"83a7c89d-e42d-4734-94bf-d3e7dac8252a","system_id":"levelo_inurba_marseille","lat":43.27657,"lon":5.38888,"is_reserved":false,"is_disabled":true,"rental_uris":{"android":"levelo://app?vid=83a7c89d-e42d-4734-94bf-d3e7dac8252a","ios":"levelo://app?vid=83a7c89d-e42d-4734-94bf-d3e7dac8252a"},"vehicle_type_id":"4","last_reported":1777403904,"current_range_meters":2800,"station_id":"ce4bhi12rcd13ifvqfo0","pricing_plan_id":"cebpf4jnsgd1na2vs0mg"},{"bike_id":"9f77f16b-502d-4ac5-8568-c59f78ec076e","system_id":"levelo_inurba_marseille","lat":43.29041,"lon":5.37787,"is_reserved":false,"is_disabled":false,"rental_uris":{"android":"levelo://app?vid=9f77f16b-502d-4ac5-8568-c59f78ec076e","ios":"levelo://app?vid=9f77f16b-502d-4ac5-8568-c59f78ec076e"},"vehicle_type_id":"4","last_reported":1777403904,"current_range_meters":2800,"station_id":"","pricing_plan_id":"cebpf4jnsgd1na2vs0mg"},{"bike_id":"b0cd3801-d5d8-4737-b521-479255b64fe1","system_id":"levelo_inurba_marseille","lat":43.29258,"lon":5.409,"is_reserved":false,"is_disabled":false,"rental_uris":{"android":"levelo://app?vid=b0cd3801-d5d8-4737-b521-479255b64fe1","ios":"levelo://app?vid=b0cd3801-d5d8-4737-b521-479255b64fe1"},"vehicle_type_id":"4","last_reported":1777403904,"current_range_meters":2800,"station_id":"ce4bh192rcd13ifvqdc0","pricing_plan_id":"cebpf4jnsgd1na2vs0mg"},{"bike_id":"77f1be50-d55c-4753-b02a-0b5e7117e7c7","system_id":"levelo_inurba_marseille","lat":43.31305,"lon":5.38194,"is_reserved":false,"is_disabled":false,"rental_uris":{"android":"levelo://app?vid=77f1be50-d55c-4753-b02a-0b5e7117e7c7","ios":"levelo://app?vid=77f1be50-d55c-4753-b02a-0b5e7117e7c7"},"vehicle_type_id":"4","last_reported":1777403904,"current_range_meters":2800,"station_id":"","pricing_plan_id":"cebpf4jnsgd1na2vs0mg"},{"bike_id":"fb2d480f-a71f-490a-bce9-2c14f4cf2da0","system_id":"levelo_inurba_marseille","lat":43.29222,"lon":5.36069,"is_reserved":false,"is_disabled":true,"rental_uris":{"android":"levelo://app?vid=fb2d480f-a71f-490a-bce9-2c14f4cf2da0","ios":"levelo://app?vid=fb2d480f-a71f-490a-bce9-2c14f4cf2da0"},"vehicle_type_id":"4","last_reported":1777403904,"current_range_meters":2800,"station_id":"ce4bhbh2rcd13ifvqeqg","pricing_plan_id":"cebpf4jnsgd1na2vs0mg"},{"bike_id":"b0fc715f-4a35-4272-9e2a-b10f7b105dc9","system_id":"levelo_inurba_marseille","lat":43.29382,"lon":5.44516,"is_reserved":false,"is_disabled":false,"rental_uris":{"android":"levelo://app?vid=b0fc715f-4a35-4272-9e2a-b10f7b105dc9","ios":"levelo://app?vid=b0fc715f-4a35-4272-9e2a-b10f7b105dc9"},"vehicle_type_id":"4","last_reported":1777403904,"current_range_meters":2800,"station_id":"","pricing_plan_id":"cebpf4jnsgd1na2vs0mg"},{"bike_id":"d57b8f7d-b690-48e9-a604-87b510e99420","system_id":"levelo_inurba_marseille","lat":43.27555,"lon":5.38424,"is_reserved":false,"is_disabled":false,"rental_uris":{"android":"levelo://app?vid=d57b8f7d-b690-48e9-a604-87b510e99420","ios":"levelo://app?vid=d57b8f7d-b690-48e9-a604-87b510e99420"},"vehicle_type_id":"4","last_reported":1777403904,"current_range_meters":2800,"station_id":"ce4bhh92rcd13ifvqfi0","pricing_plan_id":"cebpf4jnsgd1na2vs0mg"},{"bike_id":"f7b03434-649c-4389-a16a-d40ebfecfb5e","system_id":"levelo_inurba_marseille","lat":43.286577,"lon":5.386766,"is_reserved":false,"is_disabled":false,"rental_uris":{"android":"levelo://app?vid=f7b03434-649c-4389-a16a-d40ebfecfb5e","ios":"levelo://app?vid=f7b03434-649c-4389-a16a-d40ebfecfb5e"},"vehicle_type_id":"4","last_reported":1777403904,"current_range_meters":2800,"station_id":"ce4bh492rcd13ifvqdug","pricing_plan_id":"cebpf4jnsgd1na2vs0mg"},{"bike_id":"01332220-ce93-46ee-bde6-7654f68e4884","system_id":"levelo_inurba_marseille","lat":43.27811,"lon":5.40714,"is_reserved":false,"is_disabled":false,"rental_uris":{"android":"levelo://app?vid=01332220-ce93-46ee-bde6-7654f68e4884","ios":"levelo://app?vid=01332220-ce93-46ee-bde6-7654f68e4884"},"vehicle_type_id":"4","last_reported":1777403904,"current_range_meters":2800,"station_id":"ce4bhnh2rcd13ifvqgtg","pricing_plan_id":"cebpf4jnsgd1na2vs0mg"},{"bike_id":"2b5e0768-aad5-4434-a334-e02406ec9b5d","system_id":"levelo_inurba_marseille","lat":43.29533,"lon":5.38541,"is_reserved":false,"is_disabled":false,"rental_uris":{"android":"levelo://app?vid=2b5e0768-aad5-4434-a334-e02406ec9b5d","ios":"levelo://app?vid=2b5e0768-aad5-4434-a334-e02406ec9b5d"},"vehicle_type_id":"4","last_reported":1777403904,"current_range_meters":2800,"station_id":"ce4bgih2rcd13ifvqba0","pricing_plan_id":"cebpf4jnsgd1na2vs0mg"},{"bike_id":"59a258a8-035d-411c-abad-32fdc84ec2ee","system_id":"levelo_inurba_marseille","lat":43.26958,"lon":5.38631,"is_reserved":false,"is_disabled":false,"rental_uris":{"android":"levelo://app?vid=59a258a8-035d-411c-abad-32fdc84ec2ee","ios":"levelo://app?vid=59a258a8-035d-411c-abad-32fdc84ec2ee"},"vehicle_type_id":"4","last_reported":1777403904,"current_range_meters":2800,"station_id":"ce4bhh92rcd13ifvqfh0","pricing_plan_id":"cebpf4jnsgd1na2vs0mg"},{"bike_id":"3a53eb55-df8c-48c3-bb7e-97336b53a603","system_id":"levelo_inurba_marseille","lat":43.29276,"lon":5.3685,"is_reserved":false,"is_disabled":false,"rental_uris":{"android":"levelo://app?vid=3a53eb55-df8c-48c3-bb7e-97336b53a603","ios":"levelo://app?vid=3a53eb55-df8c-48c3-bb7e-97336b53a603"},"vehicle_type_id":"4","last_reported":1777403904,"current_range_meters":2800,"station_id":"ce4bhbp2rcd13ifvqesg","pricing_plan_id":"cebpf4jnsgd1na2vs0mg"},{"bike_id":"1e59e40a-8e17-4655-b122-ec3dacf4e2ee","system_id":"levelo_inurba_marseille","lat":43.24386,"lon":5.37049,"is_reserved":false,"is_disabled":false,"rental_uris":{"android":"levelo://app?vid=1e59e40a-8e17-4655-b122-ec3dacf4e2ee","ios":"levelo://app?vid=1e59e40a-8e17-4655-b122-ec3dacf4e2ee"},"vehicle_type_id":"4","last_reported":1777403904,"current_range_meters":3200,"station_id":"ce4bhhh2rcd13ifvqfk0","pricing_plan_id":"cebpf4jnsgd1na2vs0mg"},{"bike_id":"ab6e5095-a74e-48d5-9fa7-7d61fdda751e","system_id":"levelo_inurba_marseille","lat":43.30652,"lon":5.40101,"is_reserved":false,"is_disabled":true,"rental_uris":{"android":"levelo://app?vid=ab6e5095-a74e-48d5-9fa7-7d61fdda751e","ios":"levelo://app?vid=ab6e5095-a74e-48d5-9fa7-7d61fdda751e"},"vehicle_type_id":"4","last_reported":1777403904,"current_range_meters":3200,"station_id":"ce4bh112rcd13ifvqda0","pricing_plan_id":"cebpf4jnsgd1na2vs0mg"},{"bike_id":"7c80c6e2-b1ef-4a75-96d3-19c68d4c61c3","system_id":"levelo_inurba_marseille","lat":43.29306,"lon":5.37167,"is_reserved":false,"is_disabled":false,"rental_uris":{"android":"levelo://app?vid=7c80c6e2-b1ef-4a75-96d3-19c68d4c61c3","ios":"levelo://app?vid=7c80c6e2-b1ef-4a75-96d3-19c68d4c61c3"},"vehicle_type_id":"4","last_reported":1777403904,"current_range_meters":3200,"station_id":"ce4bgh92rcd13ifvqb40","pricing_plan_id":"cebpf4jnsgd1na2vs0mg"},{"bike_id":"4762e09b-59b8-41ab-9c32-7fa1853bb9b6","system_id":"levelo_inurba_marseille","lat":43.25499,"lon":5.41604,"is_reserved":false,"is_disabled":false,"rental_uris":{"android":"levelo://app?vid=4762e09b-59b8-41ab-9c32-7fa1853bb9b6","ios":"levelo://app?vid=4762e09b-59b8-41ab-9c32-7fa1853bb9b6"},"vehicle_type_id":"4","last_reported":1777403904,"current_range_meters":3200,"station_id":"","pricing_plan_id":"cebpf4jnsgd1na2vs0mg"},{"bike_id":"b1b02246-22ea-48ef-bf03-02ba7ea06573","system_id":"levelo_inurba_marseille","lat":43.25822,"lon":5.39439,"is_reserved":false,"is_disabled":false,"rental_uris":{"android":"levelo://app?vid=b1b02246-22ea-48ef-bf03-02ba7ea06573","ios":"levelo://app?vid=b1b02246-22ea-48ef-bf03-02ba7ea06573"},"vehicle_type_id":"4","last_reported":1777403904,"current_range_meters":3200,"station_id":"ce4bhip2rcd13ifvqft0","pricing_plan_id":"cebpf4jnsgd1na2vs0mg"},{"bike_id":"e307cac8-8276-4e80-89b8-32d0827be870","system_id":"levelo_inurba_marseille","lat":43.25012,"lon":5.42692,"is_reserved":false,"is_disabled":false,"rental_uris":{"android":"levelo://app?vid=e307cac8-8276-4e80-89b8-32d0827be870","ios":"levelo://app?vid=e307cac8-8276-4e80-89b8-32d0827be870"},"vehicle_type_id":"4","last_reported":1777403904,"current_range_meters":3200,"station_id":"","pricing_plan_id":"cebpf4jnsgd1na2vs0mg"},{"bike_id":"7e7d0fbf-9974-4ca6-b0f9-c2e57d03ebcc","system_id":"levelo_inurba_marseille","lat":43.282674,"lon":5.350509,"is_reserved":false,"is_disabled":false,"rental_uris":{"android":"levelo://app?vid=7e7d0fbf-9974-4ca6-b0f9-c2e57d03ebcc","ios":"levelo://app?vid=7e7d0fbf-9974-4ca6-b0f9-c2e57d03ebcc"},"vehicle_type_id":"4","last_reported":1777403904,"current_range_meters":3200,"station_id":"ce4bhbp2rcd13ifvqerg","pricing_plan_id":"cebpf4jnsgd1na2vs0mg"},{"bike_id":"c04c42cf-36a4-4a3c-b656-dde2fe1bae7e","system_id":"levelo_inurba_marseille","lat":43.31922,"lon":5.36799,"is_reserved":false,"is_disabled":false,"rental_uris":{"android":"levelo://app?vid=c04c42cf-36a4-4a3c-b656-dde2fe1bae7e","ios":"levelo://app?vid=c04c42cf-36a4-4a3c-b656-dde2fe1bae7e"},"vehicle_type_id":"4","last_reported":1777403904,"current_range_meters":3200,"station_id":"st_d6o2h0d0559c73evc1b0","pricing_plan_id":"cebpf4jnsgd1na2vs0mg"},{"bike_id":"18cd8e51-dd4a-4686-a624-b5605e8c1286","system_id":"levelo_inurba_marseille","lat":43.29591,"lon":5.3673,"is_reserved":false,"is_disabled":true,"rental_uris":{"android":"levelo://app?vid=18cd8e51-dd4a-4686-a624-b5605e8c1286","ios":"levelo://app?vid=18cd8e51-dd4a-4686-a624-b5605e8c1286"},"vehicle_type_id":"4","last_reported":1777403904,"current_range_meters":3600,"station_id":"ce4bgph2rcd13ifvqc2g","pricing_plan_id":"cebpf4jnsgd1na2vs0mg"},{"bike_id":"f7883914-8a35-41a7-8add-6f343728cd33","system_id":"levelo_inurba_marseille","lat":43.24467,"lon":5.42527,"is_reserved":false,"is_disabled":false,"rental_uris":{"android":"levelo://app?vid=f7883914-8a35-41a7-8add-6f343728cd33","ios":"levelo://app?vid=f7883914-8a35-41a7-8add-6f343728cd33"},"vehicle_type_id":"4","last_reported":1777403904,"current_range_meters":3600,"station_id":"st_d4a3vfp97mjs738cd8kg","pricing_plan_id":"cebpf4jnsgd1na2vs0mg"},{"bike_id":"e2ddbd69-54a9-4195-b691-b17861f53caf","system_id":"levelo_inurba_marseille","lat":43.24807,"lon":5.37471,"is_reserved":false,"is_disabled":false,"rental_uris":{"android":"levelo://app?vid=e2ddbd69-54a9-4195-b691-b17861f53caf","ios":"levelo://app?vid=e2ddbd69-54a9-4195-b691-b17861f53caf"},"vehicle_type_id":"4","last_reported":1777403904,"current_range_meters":3600,"station_id":"ce4bhgh2rcd13ifvqfb0","pricing_plan_id":"cebpf4jnsgd1na2vs0mg"},{"bike_id":"8ac0bd5f-2f2a-4833-ada5-2e9beded5ddb","system_id":"levelo_inurba_marseille","lat":43.31503,"lon":5.39136,"is_reserved":false,"is_disabled":false,"rental_uris":{"android":"levelo://app?vid=8ac0bd5f-2f2a-4833-ada5-2e9beded5ddb","ios":"levelo://app?vid=8ac0bd5f-2f2a-4833-ada5-2e9beded5ddb"},"vehicle_type_id":"4","last_reported":1777403904,"current_range_meters":3600,"station_id":"","pricing_plan_id":"cebpf4jnsgd1na2vs0mg"},{"bike_id":"16d472fe-eb19-4acc-8aa8-94088ad37de6","system_id":"levelo_inurba_marseille","lat":43.35206,"lon":5.3638,"is_reserved":false,"is_disabled":false,"rental_uris":{"android":"levelo://app?vid=16d472fe-eb19-4acc-8aa8-94088ad37de6","ios":"levelo://app?vid=16d472fe-eb19-4acc-8aa8-94088ad37de6"},"vehicle_type_id":"4","last_reported":1777403904,"current_range_meters":3600,"station_id":"","pricing_plan_id":"cebpf4jnsgd1na2vs0mg"},{"bike_id":"139ab125-3cce-4dc8-9b09-1fa656552044","system_id":"levelo_inurba_marseille","lat":43.25105,"lon":5.40333,"is_reserved":false,"is_disabled":false,"rental_uris":{"android":"levelo://app?vid=139ab125-3cce-4dc8-9b09-1fa656552044","ios":"levelo://app?vid=139ab125-3cce-4dc8-9b09-1fa656552044"},"vehicle_type_id":"4","last_reported":1777403904,"current_range_meters":3600,"station_id":"ce4bhlh2rcd13ifvqgig","pricing_plan_id":"cebpf4jnsgd1na2vs0mg"},{"bike_id":"a8274f77-2065-41b4-9426-9d2a5fc7f6ea","system_id":"levelo_inurba_marseille","lat":43.29882,"lon":5.38903,"is_reserved":false,"is_disabled":false,"rental_uris":{"android":"levelo://app?vid=a8274f77-2065-41b4-9426-9d2a5fc7f6ea","ios":"levelo://app?vid=a8274f77-2065-41b4-9426-9d2a5fc7f6ea"},"vehicle_type_id":"4","last_reported":1777403904,"current_range_meters":3600,"station_id":"ce4bh392rcd13ifvqdl0","pricing_plan_id":"cebpf4jnsgd1na2vs0mg"},{"bike_id":"87cc790b-60cd-436a-82f4-3796eb0e0cc9","system_id":"levelo_inurba_marseille","lat":43.29164,"lon":5.43584,"is_reserved":false,"is_disabled":false,"rental_uris":{"android":"levelo://app?vid=87cc790b-60cd-436a-82f4-3796eb0e0cc9","ios":"levelo://app?vid=87cc790b-60cd-436a-82f4-3796eb0e0cc9"},"vehicle_type_id":"4","last_reported":1777403904,"current_range_meters":3600,"station_id":"","pricing_plan_id":"cebpf4jnsgd1na2vs0mg"},{"bike_id":"cc68fed6-437b-4f02-934a-f8fb98275413","system_id":"levelo_inurba_marseille","lat":43.24801,"lon":5.37452,"is_reserved":false,"is_disabled":false,"rental_uris":{"android":"levelo://app?vid=cc68fed6-437b-4f02-934a-f8fb98275413","ios":"levelo://app?vid=cc68fed6-437b-4f02-934a-f8fb98275413"},"vehicle_type_id":"4","last_reported":1777403904,"current_range_meters":3600,"station_id":"ce4bhgh2rcd13ifvqfb0","pricing_plan_id":"cebpf4jnsgd1na2vs0mg"},{"bike_id":"afe98cab-3a1e-444d-a79a-36c7cb789e7d","system_id":"levelo_inurba_marseille","lat":43.29163,"lon":5.37175,"is_reserved":false,"is_disabled":false,"rental_uris":{"android":"levelo://app?vid=afe98cab-3a1e-444d-a79a-36c7cb789e7d","ios":"levelo://app?vid=afe98cab-3a1e-444d-a79a-36c7cb789e7d"},"vehicle_type_id":"4","last_reported":1777403904,"current_range_meters":4000,"station_id":"ce4bha92rcd13ifvqeh0","pricing_plan_id":"cebpf4jnsgd1na2vs0mg"},{"bike_id":"f447fec5-f118-42c2-be2c-8ef32b6d20a2","system_id":"levelo_inurba_marseille","lat":43.25963,"lon":5.41685,"is_reserved":false,"is_disabled":false,"rental_uris":{"android":"levelo://app?vid=f447fec5-f118-42c2-be2c-8ef32b6d20a2","ios":"levelo://app?vid=f447fec5-f118-42c2-be2c-8ef32b6d20a2"},"vehicle_type_id":"4","last_reported":1777403904,"current_range_meters":4000,"station_id":"","pricing_plan_id":"cebpf4jnsgd1na2vs0mg"},{"bike_id":"4ffbbcc5-bdf9-4b99-98e2-1a1b28a7ba05","system_id":"levelo_inurba_marseille","lat":43.27169,"lon":5.40994,"is_reserved":false,"is_disabled":false,"rental_uris":{"android":"levelo://app?vid=4ffbbcc5-bdf9-4b99-98e2-1a1b28a7ba05","ios":"levelo://app?vid=4ffbbcc5-bdf9-4b99-98e2-1a1b28a7ba05"},"vehicle_type_id":"4","last_reported":1777403904,"current_range_meters":4000,"station_id":"ce4bhl12rcd13ifvqgf0","pricing_plan_id":"cebpf4jnsgd1na2vs0mg"},{"bike_id":"14869599-ab60-4e86-8f2c-d0b35d29b95e","system_id":"levelo_inurba_marseille","lat":43.25636,"lon":5.41827,"is_reserved":false,"is_disabled":false,"rental_uris":{"android":"levelo://app?vid=14869599-ab60-4e86-8f2c-d0b35d29b95e","ios":"levelo://app?vid=14869599-ab60-4e86-8f2c-d0b35d29b95e"},"vehicle_type_id":"4","last_reported":1777403904,"current_range_meters":4000,"station_id":"","pricing_plan_id":"cebpf4jnsgd1na2vs0mg"},{"bike_id":"d8f3e2ef-ad6a-4f33-a583-9a7fa08c2b62","system_id":"levelo_inurba_marseille","lat":43.30132,"lon":5.38775,"is_reserved":false,"is_disabled":false,"rental_uris":{"android":"levelo://app?vid=d8f3e2ef-ad6a-4f33-a583-9a7fa08c2b62","ios":"levelo://app?vid=d8f3e2ef-ad6a-4f33-a583-9a7fa08c2b62"},"vehicle_type_id":"4","last_reported":1777403904,"current_range_meters":4000,"station_id":"ce4bghh2rcd13ifvqb60","pricing_plan_id":"cebpf4jnsgd1na2vs0mg"},{"bike_id":"e5cd69c7-9379-4379-93b8-62cf25a54177","system_id":"levelo_inurba_marseille","lat":43.337497,"lon":5.374492,"is_reserved":false,"is_disabled":false,"rental_uris":{"android":"levelo://app?vid=e5cd69c7-9379-4379-93b8-62cf25a54177","ios":"levelo://app?vid=e5cd69c7-9379-4379-93b8-62cf25a54177"},"vehicle_type_id":"4","last_reported":1777403904,"current_range_meters":4000,"station_id":"","pricing_plan_id":"cebpf4jnsgd1na2vs0mg"},{"bike_id":"ac22394e-74ad-49d7-8ce2-7a9e4a1edbca","system_id":"levelo_inurba_marseille","lat":43.30114,"lon":5.43109,"is_reserved":false,"is_disabled":false,"rental_uris":{"android":"levelo://app?vid=ac22394e-74ad-49d7-8ce2-7a9e4a1edbca","ios":"levelo://app?vid=ac22394e-74ad-49d7-8ce2-7a9e4a1edbca"},"vehicle_type_id":"4","last_reported":1777403904,"current_range_meters":4000,"station_id":"st_d3js3co5814s73ftftug","pricing_plan_id":"cebpf4jnsgd1na2vs0mg"},{"bike_id":"c34856ee-f6e4-41a7-a339-82867b6c1d01","system_id":"levelo_inurba_marseille","lat":43.27961,"lon":5.38751,"is_reserved":false,"is_disabled":false,"rental_uris":{"android":"levelo://app?vid=c34856ee-f6e4-41a7-a339-82867b6c1d01","ios":"levelo://app?vid=c34856ee-f6e4-41a7-a339-82867b6c1d01"},"vehicle_type_id":"4","last_reported":1777403904,"current_range_meters":4000,"station_id":"ce4bhg12rcd13ifvqf80","pricing_plan_id":"cebpf4jnsgd1na2vs0mg"},{"bike_id":"8a1e020a-9c48-494b-b81f-ea21c9b5b1b7","system_id":"levelo_inurba_marseille","lat":43.31674,"lon":5.40492,"is_reserved":false,"is_disabled":false,"rental_uris":{"android":"levelo://app?vid=8a1e020a-9c48-494b-b81f-ea21c9b5b1b7","ios":"levelo://app?vid=8a1e020a-9c48-494b-b81f-ea21c9b5b1b7"},"vehicle_type_id":"4","last_reported":1777403904,"current_range_meters":4000,"station_id":"ce4bh012rcd13ifvqd00","pricing_plan_id":"cebpf4jnsgd1na2vs0mg"},{"bike_id":"415b39af-046f-4d9e-acdb-da53915e3d7c","system_id":"levelo_inurba_marseille","lat":43.28627,"lon":5.35107,"is_reserved":false,"is_disabled":false,"rental_uris":{"android":"levelo://app?vid=415b39af-046f-4d9e-acdb-da53915e3d7c","ios":"levelo://app?vid=415b39af-046f-4d9e-acdb-da53915e3d7c"},"vehicle_type_id":"4","last_reported":1777403904,"current_range_meters":4000,"station_id":"ce4bhch2rcd13ifvqeug","pricing_plan_id":"cebpf4jnsgd1na2vs0mg"},{"bike_id":"37856476-6867-4c65-8a34-d61ce32ede4e","system_id":"levelo_inurba_marseille","lat":43.28354,"lon":5.3864,"is_reserved":false,"is_disabled":false,"rental_uris":{"android":"levelo://app?vid=37856476-6867-4c65-8a34-d61ce32ede4e","ios":"levelo://app?vid=37856476-6867-4c65-8a34-d61ce32ede4e"},"vehicle_type_id":"4","last_reported":1777403904,"current_range_meters":4000,"station_id":"ce4bh492rcd13ifvqdvg","pricing_plan_id":"cebpf4jnsgd1na2vs0mg"},{"bike_id":"0ba5c473-448e-4959-962b-1ceda7557f74","system_id":"levelo_inurba_marseille","lat":43.29746,"lon":5.42774,"is_reserved":false,"is_disabled":true,"rental_uris":{"android":"levelo://app?vid=0ba5c473-448e-4959-962b-1ceda7557f74","ios":"levelo://app?vid=0ba5c473-448e-4959-962b-1ceda7557f74"},"vehicle_type_id":"4","last_reported":1777403904,"current_range_meters":4000,"station_id":"st_d3md5207bmas73dh9klg","pricing_plan_id":"cebpf4jnsgd1na2vs0mg"},{"bike_id":"c658f009-bae2-4ba4-a0cc-484db7ff8698","system_id":"levelo_inurba_marseille","lat":43.28152,"lon":5.40411,"is_reserved":false,"is_disabled":false,"rental_uris":{"android":"levelo://app?vid=c658f009-bae2-4ba4-a0cc-484db7ff8698","ios":"levelo://app?vid=c658f009-bae2-4ba4-a0cc-484db7ff8698"},"vehicle_type_id":"4","last_reported":1777403904,"current_range_meters":4000,"station_id":"","pricing_plan_id":"cebpf4jnsgd1na2vs0mg"},{"bike_id":"d24c1930-c1e4-44f3-8294-8bed8164da11","system_id":"levelo_inurba_marseille","lat":43.29013,"lon":5.38661,"is_reserved":false,"is_disabled":false,"rental_uris":{"android":"levelo://app?vid=d24c1930-c1e4-44f3-8294-8bed8164da11","ios":"levelo://app?vid=d24c1930-c1e4-44f3-8294-8bed8164da11"},"vehicle_type_id":"4","last_reported":1777403904,"current_range_meters":4000,"station_id":"ce4bh4p2rcd13ifvqe0g","pricing_plan_id":"cebpf4jnsgd1na2vs0mg"},{"bike_id":"7d4d3a95-715c-4e3d-8376-2480c42f29a8","system_id":"levelo_inurba_marseille","lat":43.32344,"lon":5.36746,"is_reserved":false,"is_disabled":false,"rental_uris":{"android":"levelo://app?vid=7d4d3a95-715c-4e3d-8376-2480c42f29a8","ios":"levelo://app?vid=7d4d3a95-715c-4e3d-8376-2480c42f29a8"},"vehicle_type_id":"4","last_reported":1777403904,"current_range_meters":4400,"station_id":"ce4bhsh2rcd13ifvqi2g","pricing_plan_id":"cebpf4jnsgd1na2vs0mg"},{"bike_id":"74929e98-c2e0-43cc-b447-0901251d01cb","system_id":"levelo_inurba_marseille","lat":43.2549,"lon":5.37677,"is_reserved":false,"is_disabled":true,"rental_uris":{"android":"levelo://app?vid=74929e98-c2e0-43cc-b447-0901251d01cb","ios":"levelo://app?vid=74929e98-c2e0-43cc-b447-0901251d01cb"},"vehicle_type_id":"4","last_reported":1777403904,"current_range_meters":4400,"station_id":"ce4bhh12rcd13ifvqff0","pricing_plan_id":"cebpf4jnsgd1na2vs0mg"},{"bike_id":"ced9ef8f-cc56-494d-a5d6-cc473fa1940f","system_id":"levelo_inurba_marseille","lat":43.2317,"lon":5.40011,"is_reserved":false,"is_disabled":false,"rental_uris":{"android":"levelo://app?vid=ced9ef8f-cc56-494d-a5d6-cc473fa1940f","ios":"levelo://app?vid=ced9ef8f-cc56-494d-a5d6-cc473fa1940f"},"vehicle_type_id":"4","last_reported":1777403904,"current_range_meters":4400,"station_id":"ce4bhn12rcd13ifvqgqg","pricing_plan_id":"cebpf4jnsgd1na2vs0mg"},{"bike_id":"48d0b7b6-6493-4e4d-a5ed-6b14220bf41c","system_id":"levelo_inurba_marseille","lat":43.30928,"lon":5.40142,"is_reserved":false,"is_disabled":false,"rental_uris":{"android":"levelo://app?vid=48d0b7b6-6493-4e4d-a5ed-6b14220bf41c","ios":"levelo://app?vid=48d0b7b6-6493-4e4d-a5ed-6b14220bf41c"},"vehicle_type_id":"4","last_reported":1777403904,"current_range_meters":4400,"station_id":"ce4bgvp2rcd13ifvqct0","pricing_plan_id":"cebpf4jnsgd1na2vs0mg"},{"bike_id":"3837c4f8-1d95-49c1-818c-527e3e65378f","system_id":"levelo_inurba_marseille","lat":43.28716,"lon":5.37374,"is_reserved":false,"is_disabled":false,"rental_uris":{"android":"levelo://app?vid=3837c4f8-1d95-49c1-818c-527e3e65378f","ios":"levelo://app?vid=3837c4f8-1d95-49c1-818c-527e3e65378f"},"vehicle_type_id":"4","last_reported":1777403904,"current_range_meters":4400,"station_id":"ce4bh3p2rcd13ifvqdq0","pricing_plan_id":"cebpf4jnsgd1na2vs0mg"},{"bike_id":"4a061b93-cd52-4a7f-a4f9-16b40eabe167","system_id":"levelo_inurba_marseille","lat":43.29364,"lon":5.37863,"is_reserved":false,"is_disabled":false,"rental_uris":{"android":"levelo://app?vid=4a061b93-cd52-4a7f-a4f9-16b40eabe167","ios":"levelo://app?vid=4a061b93-cd52-4a7f-a4f9-16b40eabe167"},"vehicle_type_id":"4","last_reported":1777403904,"current_range_meters":4400,"station_id":"ce4bgjh2rcd13ifvqbf0","pricing_plan_id":"cebpf4jnsgd1na2vs0mg"},{"bike_id":"59e70e93-12a3-4da9-9302-0e937e796c69","system_id":"levelo_inurba_marseille","lat":43.24817,"lon":5.37449,"is_reserved":false,"is_disabled":false,"rental_uris":{"android":"levelo://app?vid=59e70e93-12a3-4da9-9302-0e937e796c69","ios":"levelo://app?vid=59e70e93-12a3-4da9-9302-0e937e796c69"},"vehicle_type_id":"4","last_reported":1777403904,"current_range_meters":4400,"station_id":"ce4bhgh2rcd13ifvqfb0","pricing_plan_id":"cebpf4jnsgd1na2vs0mg"},{"bike_id":"ea47a9f9-3471-4702-b3a8-cd49de6fe11e","system_id":"levelo_inurba_marseille","lat":43.27944,"lon":5.4105,"is_reserved":false,"is_disabled":false,"rental_uris":{"android":"levelo://app?vid=ea47a9f9-3471-4702-b3a8-cd49de6fe11e","ios":"levelo://app?vid=ea47a9f9-3471-4702-b3a8-cd49de6fe11e"},"vehicle_type_id":"4","last_reported":1777403904,"current_range_meters":4400,"station_id":"ce4bhnp2rcd13ifvqh0g","pricing_plan_id":"cebpf4jnsgd1na2vs0mg"},{"bike_id":"92df0730-a111-4eb7-9ac5-5b2e60ace000","system_id":"levelo_inurba_marseille","lat":43.2864,"lon":5.38513,"is_reserved":false,"is_disabled":false,"rental_uris":{"android":"levelo://app?vid=92df0730-a111-4eb7-9ac5-5b2e60ace000","ios":"levelo://app?vid=92df0730-a111-4eb7-9ac5-5b2e60ace000"},"vehicle_type_id":"4","last_reported":1777403904,"current_range_meters":4800,"station_id":"","pricing_plan_id":"cebpf4jnsgd1na2vs0mg"},{"bike_id":"890e7563-a8fc-46c7-8541-e4be687ab16e","system_id":"levelo_inurba_marseille","lat":43.29195,"lon":5.35808,"is_reserved":false,"is_disabled":false,"rental_uris":{"android":"levelo://app?vid=890e7563-a8fc-46c7-8541-e4be687ab16e","ios":"levelo://app?vid=890e7563-a8fc-46c7-8541-e4be687ab16e"},"vehicle_type_id":"4","last_reported":1777403904,"current_range_meters":4800,"station_id":"ce4bhb12rcd13ifvqel0","pricing_plan_id":"cebpf4jnsgd1na2vs0mg"},{"bike_id":"149f06a3-8edb-4bf2-afdc-349b779089ec","system_id":"levelo_inurba_marseille","lat":43.29529,"lon":5.38543,"is_reserved":false,"is_disabled":false,"rental_uris":{"android":"levelo://app?vid=149f06a3-8edb-4bf2-afdc-349b779089ec","ios":"levelo://app?vid=149f06a3-8edb-4bf2-afdc-349b779089ec"},"vehicle_type_id":"4","last_reported":1777403904,"current_range_meters":4800,"station_id":"ce4bgih2rcd13ifvqba0","pricing_plan_id":"cebpf4jnsgd1na2vs0mg"},{"bike_id":"f28956fb-b430-439e-95c9-b3413e830f4d","system_id":"levelo_inurba_marseille","lat":43.24661,"lon":5.38156,"is_reserved":false,"is_disabled":false,"rental_uris":{"android":"levelo://app?vid=f28956fb-b430-439e-95c9-b3413e830f4d","ios":"levelo://app?vid=f28956fb-b430-439e-95c9-b3413e830f4d"},"vehicle_type_id":"4","last_reported":1777403904,"current_range_meters":4800,"station_id":"ce4bhih2rcd13ifvqfr0","pricing_plan_id":"cebpf4jnsgd1na2vs0mg"},{"bike_id":"f995dca3-1807-4f37-99bf-ef8681a92b41","system_id":"levelo_inurba_marseille","lat":43.22557,"lon":5.34822,"is_reserved":false,"is_disabled":true,"rental_uris":{"android":"levelo://app?vid=f995dca3-1807-4f37-99bf-ef8681a92b41","ios":"levelo://app?vid=f995dca3-1807-4f37-99bf-ef8681a92b41"},"vehicle_type_id":"4","last_reported":1777403904,"current_range_meters":4800,"station_id":"st_cvj5dfep6f1abm77gieg","pricing_plan_id":"cebpf4jnsgd1na2vs0mg"},{"bike_id":"04e12462-8d7e-420c-a899-3da03ebacc10","system_id":"levelo_inurba_marseille","lat":43.28935,"lon":5.36625,"is_reserved":false,"is_disabled":false,"rental_uris":{"android":"levelo://app?vid=04e12462-8d7e-420c-a899-3da03ebacc10","ios":"levelo://app?vid=04e12462-8d7e-420c-a899-3da03ebacc10"},"vehicle_type_id":"4","last_reported":1777403904,"current_range_meters":4800,"station_id":"ce4bhap2rcd13ifvqek0","pricing_plan_id":"cebpf4jnsgd1na2vs0mg"},{"bike_id":"cb41269b-1517-4fc2-8f27-d90e892f72f8","system_id":"levelo_inurba_marseille","lat":43.33021,"lon":5.39041,"is_reserved":false,"is_disabled":false,"rental_uris":{"android":"levelo://app?vid=cb41269b-1517-4fc2-8f27-d90e892f72f8","ios":"levelo://app?vid=cb41269b-1517-4fc2-8f27-d90e892f72f8"},"vehicle_type_id":"4","last_reported":1777403904,"current_range_meters":4800,"station_id":"ce4bhr92rcd13ifvqhrg","pricing_plan_id":"cebpf4jnsgd1na2vs0mg"},{"bike_id":"b7b9a583-86eb-40d9-b9c4-c333feceb670","system_id":"levelo_inurba_marseille","lat":43.30123,"lon":5.38794,"is_reserved":false,"is_disabled":true,"rental_uris":{"android":"levelo://app?vid=b7b9a583-86eb-40d9-b9c4-c333feceb670","ios":"levelo://app?vid=b7b9a583-86eb-40d9-b9c4-c333feceb670"},"vehicle_type_id":"4","last_reported":1777403904,"current_range_meters":4800,"station_id":"ce4bghh2rcd13ifvqb60","pricing_plan_id":"cebpf4jnsgd1na2vs0mg"},{"bike_id":"ae987c10-ec52-4089-8ab4-892c787c36e9","system_id":"levelo_inurba_marseille","lat":43.262218,"lon":5.3876,"is_reserved":false,"is_disabled":true,"rental_uris":{"android":"levelo://app?vid=ae987c10-ec52-4089-8ab4-892c787c36e9","ios":"levelo://app?vid=ae987c10-ec52-4089-8ab4-892c787c36e9"},"vehicle_type_id":"4","last_reported":1777403904,"current_range_meters":4800,"station_id":"","pricing_plan_id":"cebpf4jnsgd1na2vs0mg"},{"bike_id":"f9fb0899-847b-48c8-90cf-edbea3feca3f","system_id":"levelo_inurba_marseille","lat":43.29903,"lon":5.38161,"is_reserved":false,"is_disabled":false,"rental_uris":{"android":"levelo://app?vid=f9fb0899-847b-48c8-90cf-edbea3feca3f","ios":"levelo://app?vid=f9fb0899-847b-48c8-90cf-edbea3feca3f"},"vehicle_type_id":"4","last_reported":1777403904,"current_range_meters":4800,"station_id":"ce4bgj12rcd13ifvqbc0","pricing_plan_id":"cebpf4jnsgd1na2vs0mg"},{"bike_id":"e65037b4-e875-4c99-aabc-ebaefa1b32fa","system_id":"levelo_inurba_marseille","lat":43.29258,"lon":5.40908,"is_reserved":false,"is_disabled":false,"rental_uris":{"android":"levelo://app?vid=e65037b4-e875-4c99-aabc-ebaefa1b32fa","ios":"levelo://app?vid=e65037b4-e875-4c99-aabc-ebaefa1b32fa"},"vehicle_type_id":"4","last_reported":1777403904,"current_range_meters":5600,"station_id":"ce4bh192rcd13ifvqdc0","pricing_plan_id":"cebpf4jnsgd1na2vs0mg"},{"bike_id":"e99e26cf-08f3-41e8-a1b6-ec9c71a8aa2a","system_id":"levelo_inurba_marseille","lat":43.29295,"lon":5.36977,"is_reserved":false,"is_disabled":false,"rental_uris":{"android":"levelo://app?vid=e99e26cf-08f3-41e8-a1b6-ec9c71a8aa2a","ios":"levelo://app?vid=e99e26cf-08f3-41e8-a1b6-ec9c71a8aa2a"},"vehicle_type_id":"4","last_reported":1777403904,"current_range_meters":5600,"station_id":"","pricing_plan_id":"cebpf4jnsgd1na2vs0mg"},{"bike_id":"2b2662f1-d28b-44f2-b2c8-61c6569e4c3d","system_id":"levelo_inurba_marseille","lat":43.29274,"lon":5.40107,"is_reserved":false,"is_disabled":true,"rental_uris":{"android":"levelo://app?vid=2b2662f1-d28b-44f2-b2c8-61c6569e4c3d","ios":"levelo://app?vid=2b2662f1-d28b-44f2-b2c8-61c6569e4c3d"},"vehicle_type_id":"4","last_reported":1777403904,"current_range_meters":5600,"station_id":"ce4bh312rcd13ifvqdk0","pricing_plan_id":"cebpf4jnsgd1na2vs0mg"},{"bike_id":"afde96ac-1493-4085-af72-e5da568a87fd","system_id":"levelo_inurba_marseille","lat":43.28475,"lon":5.48404,"is_reserved":false,"is_disabled":false,"rental_uris":{"android":"levelo://app?vid=afde96ac-1493-4085-af72-e5da568a87fd","ios":"levelo://app?vid=afde96ac-1493-4085-af72-e5da568a87fd"},"vehicle_type_id":"4","last_reported":1777403904,"current_range_meters":5600,"station_id":"st_d3svhcjqgbts73a3dn0g","pricing_plan_id":"cebpf4jnsgd1na2vs0mg"},{"bike_id":"f62e4b28-25b5-4af4-a3e9-ee58b85ff33a","system_id":"levelo_inurba_marseille","lat":43.30111,"lon":5.39898,"is_reserved":false,"is_disabled":false,"rental_uris":{"android":"levelo://app?vid=f62e4b28-25b5-4af4-a3e9-ee58b85ff33a","ios":"levelo://app?vid=f62e4b28-25b5-4af4-a3e9-ee58b85ff33a"},"vehicle_type_id":"4","last_reported":1777403904,"current_range_meters":5600,"station_id":"ce4bh0h2rcd13ifvqd40","pricing_plan_id":"cebpf4jnsgd1na2vs0mg"},{"bike_id":"86d9692b-daa9-42f6-9e9c-f38b263cd452","system_id":"levelo_inurba_marseille","lat":43.29304,"lon":5.37155,"is_reserved":false,"is_disabled":false,"rental_uris":{"android":"levelo://app?vid=86d9692b-daa9-42f6-9e9c-f38b263cd452","ios":"levelo://app?vid=86d9692b-daa9-42f6-9e9c-f38b263cd452"},"vehicle_type_id":"4","last_reported":1777403904,"current_range_meters":5600,"station_id":"ce4bgh92rcd13ifvqb40","pricing_plan_id":"cebpf4jnsgd1na2vs0mg"},{"bike_id":"dc4f256b-dad1-4b0e-b0aa-70815278bacb","system_id":"levelo_inurba_marseille","lat":43.28967,"lon":5.39318,"is_reserved":false,"is_disabled":false,"rental_uris":{"android":"levelo://app?vid=dc4f256b-dad1-4b0e-b0aa-70815278bacb","ios":"levelo://app?vid=dc4f256b-dad1-4b0e-b0aa-70815278bacb"},"vehicle_type_id":"4","last_reported":1777403904,"current_range_meters":5600,"station_id":"","pricing_plan_id":"cebpf4jnsgd1na2vs0mg"},{"bike_id":"57bace77-3622-4a2a-8be8-4aa6c1b962a5","system_id":"levelo_inurba_marseille","lat":43.30301,"lon":5.40445,"is_reserved":false,"is_disabled":false,"rental_uris":{"android":"levelo://app?vid=57bace77-3622-4a2a-8be8-4aa6c1b962a5","ios":"levelo://app?vid=57bace77-3622-4a2a-8be8-4aa6c1b962a5"},"vehicle_type_id":"4","last_reported":1777403904,"current_range_meters":5600,"station_id":"ce4bh012rcd13ifvqd10","pricing_plan_id":"cebpf4jnsgd1na2vs0mg"},{"bike_id":"5367fafd-42a5-4c52-bd35-5d85953af91c","system_id":"levelo_inurba_marseille","lat":43.3145,"lon":5.37379,"is_reserved":false,"is_disabled":true,"rental_uris":{"android":"levelo://app?vid=5367fafd-42a5-4c52-bd35-5d85953af91c","ios":"levelo://app?vid=5367fafd-42a5-4c52-bd35-5d85953af91c"},"vehicle_type_id":"4","last_reported":1777403904,"current_range_meters":6000,"station_id":"","pricing_plan_id":"cebpf4jnsgd1na2vs0mg"},{"bike_id":"15604f92-bef8-4385-9432-45e5b86ebf35","system_id":"levelo_inurba_marseille","lat":43.30288,"lon":5.3921,"is_reserved":false,"is_disabled":false,"rental_uris":{"android":"levelo://app?vid=15604f92-bef8-4385-9432-45e5b86ebf35","ios":"levelo://app?vid=15604f92-bef8-4385-9432-45e5b86ebf35"},"vehicle_type_id":"4","last_reported":1777403904,"current_range_meters":6000,"station_id":"ce4bgkh2rcd13ifvqbk0","pricing_plan_id":"cebpf4jnsgd1na2vs0mg"},{"bike_id":"bdf457fa-3aa5-4438-906e-72d136f86bcb","system_id":"levelo_inurba_marseille","lat":43.31062,"lon":5.37161,"is_reserved":false,"is_disabled":false,"rental_uris":{"android":"levelo://app?vid=bdf457fa-3aa5-4438-906e-72d136f86bcb","ios":"levelo://app?vid=bdf457fa-3aa5-4438-906e-72d136f86bcb"},"vehicle_type_id":"4","last_reported":1777403904,"current_range_meters":6000,"station_id":"st_d4kl2rp97mjs73e7tdfg","pricing_plan_id":"cebpf4jnsgd1na2vs0mg"},{"bike_id":"fb6d819e-3a89-41eb-a687-723f3f4e9f8f","system_id":"levelo_inurba_marseille","lat":43.295141,"lon":5.375115,"is_reserved":false,"is_disabled":false,"rental_uris":{"android":"levelo://app?vid=fb6d819e-3a89-41eb-a687-723f3f4e9f8f","ios":"levelo://app?vid=fb6d819e-3a89-41eb-a687-723f3f4e9f8f"},"vehicle_type_id":"4","last_reported":1777403904,"current_range_meters":6000,"station_id":"ce4bgkp2rcd13ifvqbmg","pricing_plan_id":"cebpf4jnsgd1na2vs0mg"},{"bike_id":"2096ee48-f326-404a-abdb-d88acfa8683f","system_id":"levelo_inurba_marseille","lat":43.25111,"lon":5.40339,"is_reserved":false,"is_disabled":false,"rental_uris":{"android":"levelo://app?vid=2096ee48-f326-404a-abdb-d88acfa8683f","ios":"levelo://app?vid=2096ee48-f326-404a-abdb-d88acfa8683f"},"vehicle_type_id":"4","last_reported":1777403904,"current_range_meters":6000,"station_id":"ce4bhlh2rcd13ifvqgig","pricing_plan_id":"cebpf4jnsgd1na2vs0mg"},{"bike_id":"5d72835e-fba1-4085-a9c6-64f50463825f","system_id":"levelo_inurba_marseille","lat":43.28618,"lon":5.35102,"is_reserved":false,"is_disabled":false,"rental_uris":{"android":"levelo://app?vid=5d72835e-fba1-4085-a9c6-64f50463825f","ios":"levelo://app?vid=5d72835e-fba1-4085-a9c6-64f50463825f"},"vehicle_type_id":"4","last_reported":1777403904,"current_range_meters":6000,"station_id":"ce4bhch2rcd13ifvqeug","pricing_plan_id":"cebpf4jnsgd1na2vs0mg"},{"bike_id":"80762b0c-965a-4274-bcf1-205fd947239d","system_id":"levelo_inurba_marseille","lat":43.30184,"lon":5.36619,"is_reserved":false,"is_disabled":false,"rental_uris":{"android":"levelo://app?vid=80762b0c-965a-4274-bcf1-205fd947239d","ios":"levelo://app?vid=80762b0c-965a-4274-bcf1-205fd947239d"},"vehicle_type_id":"4","last_reported":1777403904,"current_range_meters":6000,"station_id":"ce4bgrh2rcd13ifvqc8g","pricing_plan_id":"cebpf4jnsgd1na2vs0mg"},{"bike_id":"987eda33-b3ad-4fac-a63c-0e3ff496e921","system_id":"levelo_inurba_marseille","lat":43.32358,"lon":5.36717,"is_reserved":false,"is_disabled":false,"rental_uris":{"android":"levelo://app?vid=987eda33-b3ad-4fac-a63c-0e3ff496e921","ios":"levelo://app?vid=987eda33-b3ad-4fac-a63c-0e3ff496e921"},"vehicle_type_id":"4","last_reported":1777403904,"current_range_meters":6000,"station_id":"ce4bhsh2rcd13ifvqi2g","pricing_plan_id":"cebpf4jnsgd1na2vs0mg"},{"bike_id":"92b0e79d-5118-4cdc-a154-ad1d52d847b8","system_id":"levelo_inurba_marseille","lat":43.29608,"lon":5.36065,"is_reserved":false,"is_disabled":false,"rental_uris":{"android":"levelo://app?vid=92b0e79d-5118-4cdc-a154-ad1d52d847b8","ios":"levelo://app?vid=92b0e79d-5118-4cdc-a154-ad1d52d847b8"},"vehicle_type_id":"4","last_reported":1777403904,"current_range_meters":6000,"station_id":"","pricing_plan_id":"cebpf4jnsgd1na2vs0mg"},{"bike_id":"eec401be-82ad-4f63-b0db-33abd6b577d0","system_id":"levelo_inurba_marseille","lat":43.30118,"lon":5.43129,"is_reserved":false,"is_disabled":false,"rental_uris":{"android":"levelo://app?vid=eec401be-82ad-4f63-b0db-33abd6b577d0","ios":"levelo://app?vid=eec401be-82ad-4f63-b0db-33abd6b577d0"},"vehicle_type_id":"4","last_reported":1777403904,"current_range_meters":6000,"station_id":"st_d3js3co5814s73ftftug","pricing_plan_id":"cebpf4jnsgd1na2vs0mg"},{"bike_id":"31cd8ed9-e8f2-45cd-be7c-f8860664bfd2","system_id":"levelo_inurba_marseille","lat":43.30577,"lon":5.37245,"is_reserved":false,"is_disabled":false,"rental_uris":{"android":"levelo://app?vid=31cd8ed9-e8f2-45cd-be7c-f8860664bfd2","ios":"levelo://app?vid=31cd8ed9-e8f2-45cd-be7c-f8860664bfd2"},"vehicle_type_id":"4","last_reported":1777403904,"current_range_meters":6400,"station_id":"ce4bgqh2rcd13ifvqc4g","pricing_plan_id":"cebpf4jnsgd1na2vs0mg"},{"bike_id":"27cd71a7-0940-4415-a67f-21597fbf1cd9","system_id":"levelo_inurba_marseille","lat":43.34534,"lon":5.37787,"is_reserved":false,"is_disabled":true,"rental_uris":{"android":"levelo://app?vid=27cd71a7-0940-4415-a67f-21597fbf1cd9","ios":"levelo://app?vid=27cd71a7-0940-4415-a67f-21597fbf1cd9"},"vehicle_type_id":"4","last_reported":1777403904,"current_range_meters":6400,"station_id":"","pricing_plan_id":"cebpf4jnsgd1na2vs0mg"},{"bike_id":"94b1d427-102e-4c64-aa76-0c93e226150f","system_id":"levelo_inurba_marseille","lat":43.28472,"lon":5.48403,"is_reserved":false,"is_disabled":false,"rental_uris":{"android":"levelo://app?vid=94b1d427-102e-4c64-aa76-0c93e226150f","ios":"levelo://app?vid=94b1d427-102e-4c64-aa76-0c93e226150f"},"vehicle_type_id":"4","last_reported":1777403904,"current_range_meters":6400,"station_id":"st_d3svhcjqgbts73a3dn0g","pricing_plan_id":"cebpf4jnsgd1na2vs0mg"},{"bike_id":"591f6c8b-3d34-4d3b-b1b2-c443b79414b9","system_id":"levelo_inurba_marseille","lat":43.28954,"lon":5.36642,"is_reserved":false,"is_disabled":false,"rental_uris":{"android":"levelo://app?vid=591f6c8b-3d34-4d3b-b1b2-c443b79414b9","ios":"levelo://app?vid=591f6c8b-3d34-4d3b-b1b2-c443b79414b9"},"vehicle_type_id":"4","last_reported":1777403904,"current_range_meters":6400,"station_id":"ce4bhap2rcd13ifvqek0","pricing_plan_id":"cebpf4jnsgd1na2vs0mg"},{"bike_id":"40d58886-f9c3-4163-8c06-ee6310545b15","system_id":"levelo_inurba_marseille","lat":43.2953,"lon":5.39058,"is_reserved":false,"is_disabled":false,"rental_uris":{"android":"levelo://app?vid=40d58886-f9c3-4163-8c06-ee6310545b15","ios":"levelo://app?vid=40d58886-f9c3-4163-8c06-ee6310545b15"},"vehicle_type_id":"4","last_reported":1777403904,"current_range_meters":6400,"station_id":"ce4bh3p2rcd13ifvqdp0","pricing_plan_id":"cebpf4jnsgd1na2vs0mg"},{"bike_id":"cb8bb79d-2f09-40fb-97e7-2b05fd3f8cb8","system_id":"levelo_inurba_marseille","lat":43.29527,"lon":5.39037,"is_reserved":false,"is_disabled":false,"rental_uris":{"android":"levelo://app?vid=cb8bb79d-2f09-40fb-97e7-2b05fd3f8cb8","ios":"levelo://app?vid=cb8bb79d-2f09-40fb-97e7-2b05fd3f8cb8"},"vehicle_type_id":"4","last_reported":1777403904,"current_range_meters":6400,"station_id":"ce4bh3p2rcd13ifvqdp0","pricing_plan_id":"cebpf4jnsgd1na2vs0mg"},{"bike_id":"d2276d1c-4dd8-4805-b674-72347073e05f","system_id":"levelo_inurba_marseille","lat":43.28866,"lon":5.42511,"is_reserved":false,"is_disabled":false,"rental_uris":{"android":"levelo://app?vid=d2276d1c-4dd8-4805-b674-72347073e05f","ios":"levelo://app?vid=d2276d1c-4dd8-4805-b674-72347073e05f"},"vehicle_type_id":"4","last_reported":1777403904,"current_range_meters":6400,"station_id":"st_d3b462108ojc7389ooeg","pricing_plan_id":"cebpf4jnsgd1na2vs0mg"},{"bike_id":"7489f3fb-b674-4f8a-afcd-1d622ca35469","system_id":"levelo_inurba_marseille","lat":43.311,"lon":5.3781,"is_reserved":false,"is_disabled":false,"rental_uris":{"android":"levelo://app?vid=7489f3fb-b674-4f8a-afcd-1d622ca35469","ios":"levelo://app?vid=7489f3fb-b674-4f8a-afcd-1d622ca35469"},"vehicle_type_id":"4","last_reported":1777403904,"current_range_meters":6400,"station_id":"ce4bgt92rcd13ifvqcg0","pricing_plan_id":"cebpf4jnsgd1na2vs0mg"},{"bike_id":"969ee2da-a9e6-437f-822f-1ebfe000ca95","system_id":"levelo_inurba_marseille","lat":43.28263,"lon":5.35103,"is_reserved":false,"is_disabled":false,"rental_uris":{"android":"levelo://app?vid=969ee2da-a9e6-437f-822f-1ebfe000ca95","ios":"levelo://app?vid=969ee2da-a9e6-437f-822f-1ebfe000ca95"},"vehicle_type_id":"4","last_reported":1777403904,"current_range_meters":6400,"station_id":"ce4bhbp2rcd13ifvqerg","pricing_plan_id":"cebpf4jnsgd1na2vs0mg"},{"bike_id":"a097e494-0d3f-4dd7-be79-ea70422940dc","system_id":"levelo_inurba_marseille","lat":43.30881,"lon":5.39661,"is_reserved":false,"is_disabled":false,"rental_uris":{"android":"levelo://app?vid=a097e494-0d3f-4dd7-be79-ea70422940dc","ios":"levelo://app?vid=a097e494-0d3f-4dd7-be79-ea70422940dc"},"vehicle_type_id":"4","last_reported":1777403904,"current_range_meters":6400,"station_id":"ce4bh012rcd13ifvqcv0","pricing_plan_id":"cebpf4jnsgd1na2vs0mg"},{"bike_id":"8b4e6bd3-1e82-4277-a45a-3a8abaa4e3ab","system_id":"levelo_inurba_marseille","lat":43.28481,"lon":5.48377,"is_reserved":false,"is_disabled":false,"rental_uris":{"android":"levelo://app?vid=8b4e6bd3-1e82-4277-a45a-3a8abaa4e3ab","ios":"levelo://app?vid=8b4e6bd3-1e82-4277-a45a-3a8abaa4e3ab"},"vehicle_type_id":"4","last_reported":1777403904,"current_range_meters":6400,"station_id":"","pricing_plan_id":"cebpf4jnsgd1na2vs0mg"},{"bike_id":"a73bfeef-4213-427d-af18-4a5d4cb8ea49","system_id":"levelo_inurba_marseille","lat":43.29522,"lon":5.38542,"is_reserved":false,"is_disabled":false,"rental_uris":{"android":"levelo://app?vid=a73bfeef-4213-427d-af18-4a5d4cb8ea49","ios":"levelo://app?vid=a73bfeef-4213-427d-af18-4a5d4cb8ea49"},"vehicle_type_id":"4","last_reported":1777403904,"current_range_meters":6400,"station_id":"ce4bgih2rcd13ifvqba0","pricing_plan_id":"cebpf4jnsgd1na2vs0mg"},{"bike_id":"c1fdc55c-a85b-4b94-b56b-911a03a5712c","system_id":"levelo_inurba_marseille","lat":43.27419,"lon":5.39413,"is_reserved":false,"is_disabled":true,"rental_uris":{"android":"levelo://app?vid=c1fdc55c-a85b-4b94-b56b-911a03a5712c","ios":"levelo://app?vid=c1fdc55c-a85b-4b94-b56b-911a03a5712c"},"vehicle_type_id":"4","last_reported":1777403904,"current_range_meters":6800,"station_id":"ce4bhdp2rcd13ifvqf20","pricing_plan_id":"cebpf4jnsgd1na2vs0mg"},{"bike_id":"6c105401-d057-4b6f-a53e-ebd13a27c00d","system_id":"levelo_inurba_marseille","lat":43.29776,"lon":5.39368,"is_reserved":false,"is_disabled":false,"rental_uris":{"android":"levelo://app?vid=6c105401-d057-4b6f-a53e-ebd13a27c00d","ios":"levelo://app?vid=6c105401-d057-4b6f-a53e-ebd13a27c00d"},"vehicle_type_id":"4","last_reported":1777403904,"current_range_meters":6800,"station_id":"chh1huq6cuj3fo74tm60","pricing_plan_id":"cebpf4jnsgd1na2vs0mg"},{"bike_id":"bcd67e65-43b0-4b23-bb5c-0bdd7484ac57","system_id":"levelo_inurba_marseille","lat":43.33173,"lon":5.37785,"is_reserved":false,"is_disabled":false,"rental_uris":{"android":"levelo://app?vid=bcd67e65-43b0-4b23-bb5c-0bdd7484ac57","ios":"levelo://app?vid=bcd67e65-43b0-4b23-bb5c-0bdd7484ac57"},"vehicle_type_id":"4","last_reported":1777403904,"current_range_meters":6800,"station_id":"","pricing_plan_id":"cebpf4jnsgd1na2vs0mg"},{"bike_id":"72c4ccb8-9c06-4f24-9811-df6eccbecf29","system_id":"levelo_inurba_marseille","lat":43.24949,"lon":5.40498,"is_reserved":false,"is_disabled":false,"rental_uris":{"android":"levelo://app?vid=72c4ccb8-9c06-4f24-9811-df6eccbecf29","ios":"levelo://app?vid=72c4ccb8-9c06-4f24-9811-df6eccbecf29"},"vehicle_type_id":"4","last_reported":1777403904,"current_range_meters":6800,"station_id":"st_d2ngiaodas8pm72gd1h0","pricing_plan_id":"cebpf4jnsgd1na2vs0mg"},{"bike_id":"96fb4076-24fd-4954-8e89-0fd78f3c00e6","system_id":"levelo_inurba_marseille","lat":43.30926,"lon":5.36859,"is_reserved":false,"is_disabled":false,"rental_uris":{"android":"levelo://app?vid=96fb4076-24fd-4954-8e89-0fd78f3c00e6","ios":"levelo://app?vid=96fb4076-24fd-4954-8e89-0fd78f3c00e6"},"vehicle_type_id":"4","last_reported":1777403904,"current_range_meters":6800,"station_id":"ce4bgn92rcd13ifvqbvg","pricing_plan_id":"cebpf4jnsgd1na2vs0mg"},{"bike_id":"2f14b536-0742-4d44-9c65-17e3f5c295d0","system_id":"levelo_inurba_marseille","lat":43.294222,"lon":5.385727,"is_reserved":false,"is_disabled":false,"rental_uris":{"android":"levelo://app?vid=2f14b536-0742-4d44-9c65-17e3f5c295d0","ios":"levelo://app?vid=2f14b536-0742-4d44-9c65-17e3f5c295d0"},"vehicle_type_id":"4","last_reported":1777403904,"current_range_meters":6800,"station_id":"ce4bh192rcd13ifvqdd0","pricing_plan_id":"cebpf4jnsgd1na2vs0mg"},{"bike_id":"1bf6bc57-f8be-4912-882e-8fb7d21ff70a","system_id":"levelo_inurba_marseille","lat":43.28917,"lon":5.3839,"is_reserved":false,"is_disabled":true,"rental_uris":{"android":"levelo://app?vid=1bf6bc57-f8be-4912-882e-8fb7d21ff70a","ios":"levelo://app?vid=1bf6bc57-f8be-4912-882e-8fb7d21ff70a"},"vehicle_type_id":"4","last_reported":1777403904,"current_range_meters":6800,"station_id":"ce4bh612rcd13ifvqe6g","pricing_plan_id":"cebpf4jnsgd1na2vs0mg"},{"bike_id":"963ad63d-bb00-4266-b1cc-ea4a169ad0ab","system_id":"levelo_inurba_marseille","lat":43.23169,"lon":5.40018,"is_reserved":false,"is_disabled":false,"rental_uris":{"android":"levelo://app?vid=963ad63d-bb00-4266-b1cc-ea4a169ad0ab","ios":"levelo://app?vid=963ad63d-bb00-4266-b1cc-ea4a169ad0ab"},"vehicle_type_id":"4","last_reported":1777403904,"current_range_meters":6800,"station_id":"ce4bhn12rcd13ifvqgqg","pricing_plan_id":"cebpf4jnsgd1na2vs0mg"},{"bike_id":"ffbffd47-0143-4030-b45c-3f1330f54185","system_id":"levelo_inurba_marseille","lat":43.27972,"lon":5.41685,"is_reserved":false,"is_disabled":false,"rental_uris":{"android":"levelo://app?vid=ffbffd47-0143-4030-b45c-3f1330f54185","ios":"levelo://app?vid=ffbffd47-0143-4030-b45c-3f1330f54185"},"vehicle_type_id":"4","last_reported":1777403904,"current_range_meters":6800,"station_id":"ce4bho12rcd13ifvqh1g","pricing_plan_id":"cebpf4jnsgd1na2vs0mg"},{"bike_id":"f95871d4-60e9-45b7-92ae-ea38e312f818","system_id":"levelo_inurba_marseille","lat":43.29524,"lon":5.38565,"is_reserved":false,"is_disabled":false,"rental_uris":{"android":"levelo://app?vid=f95871d4-60e9-45b7-92ae-ea38e312f818","ios":"levelo://app?vid=f95871d4-60e9-45b7-92ae-ea38e312f818"},"vehicle_type_id":"4","last_reported":1777403904,"current_range_meters":6800,"station_id":"ce4bgih2rcd13ifvqba0","pricing_plan_id":"cebpf4jnsgd1na2vs0mg"},{"bike_id":"76907408-a8ff-4688-9cbf-66e48bb415e8","system_id":"levelo_inurba_marseille","lat":43.2869,"lon":5.46708,"is_reserved":false,"is_disabled":false,"rental_uris":{"android":"levelo://app?vid=76907408-a8ff-4688-9cbf-66e48bb415e8","ios":"levelo://app?vid=76907408-a8ff-4688-9cbf-66e48bb415e8"},"vehicle_type_id":"4","last_reported":1777403904,"current_range_meters":6800,"station_id":"st_d6tc3vkotcvc738tfjhg","pricing_plan_id":"cebpf4jnsgd1na2vs0mg"},{"bike_id":"f13c1412-9987-4b53-aa5c-79a6ecb2ba2d","system_id":"levelo_inurba_marseille","lat":43.32354,"lon":5.36734,"is_reserved":false,"is_disabled":false,"rental_uris":{"android":"levelo://app?vid=f13c1412-9987-4b53-aa5c-79a6ecb2ba2d","ios":"levelo://app?vid=f13c1412-9987-4b53-aa5c-79a6ecb2ba2d"},"vehicle_type_id":"4","last_reported":1777403904,"current_range_meters":6800,"station_id":"ce4bhsh2rcd13ifvqi2g","pricing_plan_id":"cebpf4jnsgd1na2vs0mg"},{"bike_id":"1e50c851-896e-44dc-a13c-da834270707c","system_id":"levelo_inurba_marseille","lat":43.27688,"lon":5.38924,"is_reserved":false,"is_disabled":true,"rental_uris":{"android":"levelo://app?vid=1e50c851-896e-44dc-a13c-da834270707c","ios":"levelo://app?vid=1e50c851-896e-44dc-a13c-da834270707c"},"vehicle_type_id":"4","last_reported":1777403904,"current_range_meters":6800,"station_id":"ce4bhi12rcd13ifvqfo0","pricing_plan_id":"cebpf4jnsgd1na2vs0mg"},{"bike_id":"3385b0dd-2ce1-4b2f-a7c9-1e6611a7ad29","system_id":"levelo_inurba_marseille","lat":43.29314,"lon":5.37164,"is_reserved":false,"is_disabled":false,"rental_uris":{"android":"levelo://app?vid=3385b0dd-2ce1-4b2f-a7c9-1e6611a7ad29","ios":"levelo://app?vid=3385b0dd-2ce1-4b2f-a7c9-1e6611a7ad29"},"vehicle_type_id":"4","last_reported":1777403904,"current_range_meters":6800,"station_id":"ce4bgh92rcd13ifvqb40","pricing_plan_id":"cebpf4jnsgd1na2vs0mg"},{"bike_id":"560b69e4-e09c-4701-be1d-e5332624c21f","system_id":"levelo_inurba_marseille","lat":43.31051,"lon":5.37187,"is_reserved":false,"is_disabled":false,"rental_uris":{"android":"levelo://app?vid=560b69e4-e09c-4701-be1d-e5332624c21f","ios":"levelo://app?vid=560b69e4-e09c-4701-be1d-e5332624c21f"},"vehicle_type_id":"4","last_reported":1777403904,"current_range_meters":6800,"station_id":"st_d4kl2rp97mjs73e7tdfg","pricing_plan_id":"cebpf4jnsgd1na2vs0mg"},{"bike_id":"9df064ad-36f1-4430-93a3-b2ef26dc67ac","system_id":"levelo_inurba_marseille","lat":43.29082,"lon":5.3717,"is_reserved":false,"is_disabled":false,"rental_uris":{"android":"levelo://app?vid=9df064ad-36f1-4430-93a3-b2ef26dc67ac","ios":"levelo://app?vid=9df064ad-36f1-4430-93a3-b2ef26dc67ac"},"vehicle_type_id":"4","last_reported":1777403904,"current_range_meters":6800,"station_id":"ce4bh5p2rcd13ifvqe4g","pricing_plan_id":"cebpf4jnsgd1na2vs0mg"},{"bike_id":"9f543810-4dfb-4951-9c10-acd2d2940820","system_id":"levelo_inurba_marseille","lat":43.28588,"lon":5.39499,"is_reserved":false,"is_disabled":true,"rental_uris":{"android":"levelo://app?vid=9f543810-4dfb-4951-9c10-acd2d2940820","ios":"levelo://app?vid=9f543810-4dfb-4951-9c10-acd2d2940820"},"vehicle_type_id":"4","last_reported":1777403904,"current_range_meters":6800,"station_id":"ce4bh292rcd13ifvqdg0","pricing_plan_id":"cebpf4jnsgd1na2vs0mg"},{"bike_id":"fafc5ef8-64f4-41d9-9241-a9e9d6ab8283","system_id":"levelo_inurba_marseille","lat":43.31079,"lon":5.42434,"is_reserved":false,"is_disabled":false,"rental_uris":{"android":"levelo://app?vid=fafc5ef8-64f4-41d9-9241-a9e9d6ab8283","ios":"levelo://app?vid=fafc5ef8-64f4-41d9-9241-a9e9d6ab8283"},"vehicle_type_id":"4","last_reported":1777403904,"current_range_meters":6800,"station_id":"ce4bhp92rcd13ifvqhag","pricing_plan_id":"cebpf4jnsgd1na2vs0mg"},{"bike_id":"dabc5e28-b9df-4b1a-affa-f2e365a8b45b","system_id":"levelo_inurba_marseille","lat":43.32093,"lon":5.36756,"is_reserved":false,"is_disabled":false,"rental_uris":{"android":"levelo://app?vid=dabc5e28-b9df-4b1a-affa-f2e365a8b45b","ios":"levelo://app?vid=dabc5e28-b9df-4b1a-affa-f2e365a8b45b"},"vehicle_type_id":"4","last_reported":1777403904,"current_range_meters":7200,"station_id":"ce4bhrh2rcd13ifvqhug","pricing_plan_id":"cebpf4jnsgd1na2vs0mg"},{"bike_id":"4541a58b-5803-4873-8531-8182c7674429","system_id":"levelo_inurba_marseille","lat":43.28499,"lon":5.48369,"is_reserved":false,"is_disabled":false,"rental_uris":{"android":"levelo://app?vid=4541a58b-5803-4873-8531-8182c7674429","ios":"levelo://app?vid=4541a58b-5803-4873-8531-8182c7674429"},"vehicle_type_id":"4","last_reported":1777403904,"current_range_meters":7200,"station_id":"st_d3svhcjqgbts73a3dn0g","pricing_plan_id":"cebpf4jnsgd1na2vs0mg"},{"bike_id":"664cf089-9ee8-45ac-9efb-42d17c00c9f7","system_id":"levelo_inurba_marseille","lat":43.27336,"lon":5.39114,"is_reserved":false,"is_disabled":false,"rental_uris":{"android":"levelo://app?vid=664cf089-9ee8-45ac-9efb-42d17c00c9f7","ios":"levelo://app?vid=664cf089-9ee8-45ac-9efb-42d17c00c9f7"},"vehicle_type_id":"4","last_reported":1777403904,"current_range_meters":7200,"station_id":"ce4bhgp2rcd13ifvqfe0","pricing_plan_id":"cebpf4jnsgd1na2vs0mg"},{"bike_id":"52789616-3fef-4890-b2ea-138909a6de7f","system_id":"levelo_inurba_marseille","lat":43.30596,"lon":5.39353,"is_reserved":false,"is_disabled":false,"rental_uris":{"android":"levelo://app?vid=52789616-3fef-4890-b2ea-138909a6de7f","ios":"levelo://app?vid=52789616-3fef-4890-b2ea-138909a6de7f"},"vehicle_type_id":"4","last_reported":1777403904,"current_range_meters":7200,"station_id":"ce4bh0p2rcd13ifvqd80","pricing_plan_id":"cebpf4jnsgd1na2vs0mg"},{"bike_id":"e1d26622-7491-4fdf-a6f0-77cbc7cac2ef","system_id":"levelo_inurba_marseille","lat":43.24161,"lon":5.36413,"is_reserved":false,"is_disabled":true,"rental_uris":{"android":"levelo://app?vid=e1d26622-7491-4fdf-a6f0-77cbc7cac2ef","ios":"levelo://app?vid=e1d26622-7491-4fdf-a6f0-77cbc7cac2ef"},"vehicle_type_id":"4","last_reported":1777403904,"current_range_meters":7200,"station_id":"cpo36qri1sfpv3e86is0","pricing_plan_id":"cebpf4jnsgd1na2vs0mg"},{"bike_id":"36600346-ff8e-4805-a730-f4cd07106a3c","system_id":"levelo_inurba_marseille","lat":43.2843,"lon":5.39214,"is_reserved":false,"is_disabled":false,"rental_uris":{"android":"levelo://app?vid=36600346-ff8e-4805-a730-f4cd07106a3c","ios":"levelo://app?vid=36600346-ff8e-4805-a730-f4cd07106a3c"},"vehicle_type_id":"4","last_reported":1777403904,"current_range_meters":7200,"station_id":"ce4bhoh2rcd13ifvqh5g","pricing_plan_id":"cebpf4jnsgd1na2vs0mg"},{"bike_id":"1355db8b-f55d-4ed0-8f1c-96b4c5f69221","system_id":"levelo_inurba_marseille","lat":43.25118,"lon":5.40326,"is_reserved":false,"is_disabled":false,"rental_uris":{"android":"levelo://app?vid=1355db8b-f55d-4ed0-8f1c-96b4c5f69221","ios":"levelo://app?vid=1355db8b-f55d-4ed0-8f1c-96b4c5f69221"},"vehicle_type_id":"4","last_reported":1777403904,"current_range_meters":7200,"station_id":"ce4bhlh2rcd13ifvqgig","pricing_plan_id":"cebpf4jnsgd1na2vs0mg"},{"bike_id":"11effbb2-3489-4e85-aec9-0e018fcdcc03","system_id":"levelo_inurba_marseille","lat":43.23196,"lon":5.35551,"is_reserved":false,"is_disabled":false,"rental_uris":{"android":"levelo://app?vid=11effbb2-3489-4e85-aec9-0e018fcdcc03","ios":"levelo://app?vid=11effbb2-3489-4e85-aec9-0e018fcdcc03"},"vehicle_type_id":"4","last_reported":1777403904,"current_range_meters":7200,"station_id":"ce4bhu92rcd13ifvqi70","pricing_plan_id":"cebpf4jnsgd1na2vs0mg"},{"bike_id":"4bb1465b-4606-43ac-93d7-c06153f58726","system_id":"levelo_inurba_marseille","lat":43.28447,"lon":5.35895,"is_reserved":false,"is_disabled":false,"rental_uris":{"android":"levelo://app?vid=4bb1465b-4606-43ac-93d7-c06153f58726","ios":"levelo://app?vid=4bb1465b-4606-43ac-93d7-c06153f58726"},"vehicle_type_id":"4","last_reported":1777403904,"current_range_meters":7200,"station_id":"ce4bhah2rcd13ifvqei0","pricing_plan_id":"cebpf4jnsgd1na2vs0mg"},{"bike_id":"a737d892-66f6-4cdf-9919-272e1c73c5b2","system_id":"levelo_inurba_marseille","lat":43.30883,"lon":5.39651,"is_reserved":false,"is_disabled":false,"rental_uris":{"android":"levelo://app?vid=a737d892-66f6-4cdf-9919-272e1c73c5b2","ios":"levelo://app?vid=a737d892-66f6-4cdf-9919-272e1c73c5b2"},"vehicle_type_id":"4","last_reported":1777403904,"current_range_meters":7200,"station_id":"ce4bh012rcd13ifvqcv0","pricing_plan_id":"cebpf4jnsgd1na2vs0mg"},{"bike_id":"7411c997-4373-4930-94c6-bccc1a2fb4d9","system_id":"levelo_inurba_marseille","lat":43.30278,"lon":5.39913,"is_reserved":false,"is_disabled":false,"rental_uris":{"android":"levelo://app?vid=7411c997-4373-4930-94c6-bccc1a2fb4d9","ios":"levelo://app?vid=7411c997-4373-4930-94c6-bccc1a2fb4d9"},"vehicle_type_id":"4","last_reported":1777403904,"current_range_meters":7200,"station_id":"","pricing_plan_id":"cebpf4jnsgd1na2vs0mg"},{"bike_id":"68fc52cb-b012-444b-918a-3bc82a11f014","system_id":"levelo_inurba_marseille","lat":43.29289,"lon":5.37142,"is_reserved":false,"is_disabled":false,"rental_uris":{"android":"levelo://app?vid=68fc52cb-b012-444b-918a-3bc82a11f014","ios":"levelo://app?vid=68fc52cb-b012-444b-918a-3bc82a11f014"},"vehicle_type_id":"4","last_reported":1777403904,"current_range_meters":7200,"station_id":"ce4bgh92rcd13ifvqb40","pricing_plan_id":"cebpf4jnsgd1na2vs0mg"},{"bike_id":"0061473e-9ab4-4475-9805-59f85de65e62","system_id":"levelo_inurba_marseille","lat":43.28418,"lon":5.34993,"is_reserved":false,"is_disabled":false,"rental_uris":{"android":"levelo://app?vid=0061473e-9ab4-4475-9805-59f85de65e62","ios":"levelo://app?vid=0061473e-9ab4-4475-9805-59f85de65e62"},"vehicle_type_id":"4","last_reported":1777403904,"current_range_meters":7200,"station_id":"ce4bhbh2rcd13ifvqepg","pricing_plan_id":"cebpf4jnsgd1na2vs0mg"},{"bike_id":"89ebf6d5-cdc0-4d93-af12-2eb24c67f00c","system_id":"levelo_inurba_marseille","lat":43.29307,"lon":5.37176,"is_reserved":false,"is_disabled":false,"rental_uris":{"android":"levelo://app?vid=89ebf6d5-cdc0-4d93-af12-2eb24c67f00c","ios":"levelo://app?vid=89ebf6d5-cdc0-4d93-af12-2eb24c67f00c"},"vehicle_type_id":"4","last_reported":1777403904,"current_range_meters":7200,"station_id":"ce4bgh92rcd13ifvqb40","pricing_plan_id":"cebpf4jnsgd1na2vs0mg"},{"bike_id":"6f21244f-7219-4fef-93b3-dbbbcfa34fb6","system_id":"levelo_inurba_marseille","lat":43.29063,"lon":5.37192,"is_reserved":false,"is_disabled":false,"rental_uris":{"android":"levelo://app?vid=6f21244f-7219-4fef-93b3-dbbbcfa34fb6","ios":"levelo://app?vid=6f21244f-7219-4fef-93b3-dbbbcfa34fb6"},"vehicle_type_id":"4","last_reported":1777403904,"current_range_meters":7200,"station_id":"ce4bh5p2rcd13ifvqe4g","pricing_plan_id":"cebpf4jnsgd1na2vs0mg"},{"bike_id":"e116e98a-e7c1-4e2d-9ae3-1a759c33b548","system_id":"levelo_inurba_marseille","lat":43.337444,"lon":5.374475,"is_reserved":false,"is_disabled":false,"rental_uris":{"android":"levelo://app?vid=e116e98a-e7c1-4e2d-9ae3-1a759c33b548","ios":"levelo://app?vid=e116e98a-e7c1-4e2d-9ae3-1a759c33b548"},"vehicle_type_id":"4","last_reported":1777403904,"current_range_meters":8000,"station_id":"ce4bgop2rcd13ifvqc1g","pricing_plan_id":"cebpf4jnsgd1na2vs0mg"},{"bike_id":"fceb4850-6c24-4b20-9118-090928fd1a6b","system_id":"levelo_inurba_marseille","lat":43.30134,"lon":5.39873,"is_reserved":false,"is_disabled":false,"rental_uris":{"android":"levelo://app?vid=fceb4850-6c24-4b20-9118-090928fd1a6b","ios":"levelo://app?vid=fceb4850-6c24-4b20-9118-090928fd1a6b"},"vehicle_type_id":"4","last_reported":1777403904,"current_range_meters":8000,"station_id":"ce4bh0h2rcd13ifvqd40","pricing_plan_id":"cebpf4jnsgd1na2vs0mg"},{"bike_id":"1673f501-eaa7-4558-954b-d52abde6661f","system_id":"levelo_inurba_marseille","lat":43.28452,"lon":5.35903,"is_reserved":false,"is_disabled":false,"rental_uris":{"android":"levelo://app?vid=1673f501-eaa7-4558-954b-d52abde6661f","ios":"levelo://app?vid=1673f501-eaa7-4558-954b-d52abde6661f"},"vehicle_type_id":"4","last_reported":1777403904,"current_range_meters":8000,"station_id":"ce4bhah2rcd13ifvqei0","pricing_plan_id":"cebpf4jnsgd1na2vs0mg"},{"bike_id":"23b9edcd-305b-48b3-b42b-c5b2d1a2cdca","system_id":"levelo_inurba_marseille","lat":43.27042,"lon":5.38651,"is_reserved":false,"is_disabled":false,"rental_uris":{"android":"levelo://app?vid=23b9edcd-305b-48b3-b42b-c5b2d1a2cdca","ios":"levelo://app?vid=23b9edcd-305b-48b3-b42b-c5b2d1a2cdca"},"vehicle_type_id":"4","last_reported":1777403904,"current_range_meters":8000,"station_id":"","pricing_plan_id":"cebpf4jnsgd1na2vs0mg"},{"bike_id":"e95739bb-1255-4c8c-8ec8-ee8d9c764ba7","system_id":"levelo_inurba_marseille","lat":43.27376,"lon":5.36244,"is_reserved":false,"is_disabled":false,"rental_uris":{"android":"levelo://app?vid=e95739bb-1255-4c8c-8ec8-ee8d9c764ba7","ios":"levelo://app?vid=e95739bb-1255-4c8c-8ec8-ee8d9c764ba7"},"vehicle_type_id":"4","last_reported":1777403904,"current_range_meters":8000,"station_id":"ce4bhbh2rcd13ifvqeo0","pricing_plan_id":"cebpf4jnsgd1na2vs0mg"},{"bike_id":"83455f13-bb09-4416-9167-9f2596ce88c0","system_id":"levelo_inurba_marseille","lat":43.28847,"lon":5.39315,"is_reserved":false,"is_disabled":false,"rental_uris":{"android":"levelo://app?vid=83455f13-bb09-4416-9167-9f2596ce88c0","ios":"levelo://app?vid=83455f13-bb09-4416-9167-9f2596ce88c0"},"vehicle_type_id":"4","last_reported":1777403904,"current_range_meters":8000,"station_id":"ce4bh2p2rcd13ifvqdi0","pricing_plan_id":"cebpf4jnsgd1na2vs0mg"},{"bike_id":"3b493c40-0f52-4a8f-a49c-7e93367250a7","system_id":"levelo_inurba_marseille","lat":43.304205,"lon":5.389008,"is_reserved":false,"is_disabled":false,"rental_uris":{"android":"levelo://app?vid=3b493c40-0f52-4a8f-a49c-7e93367250a7","ios":"levelo://app?vid=3b493c40-0f52-4a8f-a49c-7e93367250a7"},"vehicle_type_id":"4","last_reported":1777403904,"current_range_meters":8000,"station_id":"ce4bgk12rcd13ifvqbi0","pricing_plan_id":"cebpf4jnsgd1na2vs0mg"},{"bike_id":"64caf656-9c5b-4754-be7e-5471268d2436","system_id":"levelo_inurba_marseille","lat":43.29003,"lon":5.38645,"is_reserved":false,"is_disabled":true,"rental_uris":{"android":"levelo://app?vid=64caf656-9c5b-4754-be7e-5471268d2436","ios":"levelo://app?vid=64caf656-9c5b-4754-be7e-5471268d2436"},"vehicle_type_id":"4","last_reported":1777403904,"current_range_meters":8000,"station_id":"ce4bh4p2rcd13ifvqe0g","pricing_plan_id":"cebpf4jnsgd1na2vs0mg"},{"bike_id":"d3bd480c-f6ce-4231-a1d5-20e54cb8851a","system_id":"levelo_inurba_marseille","lat":43.29628,"lon":5.37146,"is_reserved":false,"is_disabled":true,"rental_uris":{"android":"levelo://app?vid=d3bd480c-f6ce-4231-a1d5-20e54cb8851a","ios":"levelo://app?vid=d3bd480c-f6ce-4231-a1d5-20e54cb8851a"},"vehicle_type_id":"4","last_reported":1777403904,"current_range_meters":8000,"station_id":"ce4bgnh2rcd13ifvqc0g","pricing_plan_id":"cebpf4jnsgd1na2vs0mg"},{"bike_id":"19156f03-ab0b-41c7-9a42-bb1ae8fd0140","system_id":"levelo_inurba_marseille","lat":43.31329,"lon":5.39689,"is_reserved":false,"is_disabled":false,"rental_uris":{"android":"levelo://app?vid=19156f03-ab0b-41c7-9a42-bb1ae8fd0140","ios":"levelo://app?vid=19156f03-ab0b-41c7-9a42-bb1ae8fd0140"},"vehicle_type_id":"4","last_reported":1777403904,"current_range_meters":8000,"station_id":"ce4bgvp2rcd13ifvqcu0","pricing_plan_id":"cebpf4jnsgd1na2vs0mg"},{"bike_id":"27cbbdc8-76be-4943-abdc-2247bea40f15","system_id":"levelo_inurba_marseille","lat":43.28442,"lon":5.34999,"is_reserved":false,"is_disabled":false,"rental_uris":{"android":"levelo://app?vid=27cbbdc8-76be-4943-abdc-2247bea40f15","ios":"levelo://app?vid=27cbbdc8-76be-4943-abdc-2247bea40f15"},"vehicle_type_id":"4","last_reported":1777403904,"current_range_meters":8000,"station_id":"ce4bhbh2rcd13ifvqepg","pricing_plan_id":"cebpf4jnsgd1na2vs0mg"},{"bike_id":"e2605e88-9f7b-49cc-8a63-119a038d9512","system_id":"levelo_inurba_marseille","lat":43.25622,"lon":5.38563,"is_reserved":false,"is_disabled":false,"rental_uris":{"android":"levelo://app?vid=e2605e88-9f7b-49cc-8a63-119a038d9512","ios":"levelo://app?vid=e2605e88-9f7b-49cc-8a63-119a038d9512"},"vehicle_type_id":"4","last_reported":1777403904,"current_range_meters":8000,"station_id":"","pricing_plan_id":"cebpf4jnsgd1na2vs0mg"},{"bike_id":"dbf6c680-c4d9-4e99-a8ba-f7dffecd5f63","system_id":"levelo_inurba_marseille","lat":43.28409,"lon":5.34996,"is_reserved":false,"is_disabled":false,"rental_uris":{"android":"levelo://app?vid=dbf6c680-c4d9-4e99-a8ba-f7dffecd5f63","ios":"levelo://app?vid=dbf6c680-c4d9-4e99-a8ba-f7dffecd5f63"},"vehicle_type_id":"4","last_reported":1777403904,"current_range_meters":8000,"station_id":"ce4bhbh2rcd13ifvqepg","pricing_plan_id":"cebpf4jnsgd1na2vs0mg"},{"bike_id":"8ddf78e6-7053-4f51-a052-cbf410efa6bf","system_id":"levelo_inurba_marseille","lat":43.31179,"lon":5.36952,"is_reserved":false,"is_disabled":false,"rental_uris":{"android":"levelo://app?vid=8ddf78e6-7053-4f51-a052-cbf410efa6bf","ios":"levelo://app?vid=8ddf78e6-7053-4f51-a052-cbf410efa6bf"},"vehicle_type_id":"4","last_reported":1777403904,"current_range_meters":8000,"station_id":"ce4bgl92rcd13ifvqbq0","pricing_plan_id":"cebpf4jnsgd1na2vs0mg"},{"bike_id":"5cf5cac4-304b-4407-a8e5-357d3ab6bc0b","system_id":"levelo_inurba_marseille","lat":43.23896,"lon":5.37464,"is_reserved":false,"is_disabled":true,"rental_uris":{"android":"levelo://app?vid=5cf5cac4-304b-4407-a8e5-357d3ab6bc0b","ios":"levelo://app?vid=5cf5cac4-304b-4407-a8e5-357d3ab6bc0b"},"vehicle_type_id":"4","last_reported":1777403904,"current_range_meters":8000,"station_id":"st_d6sm7csbq4hs73f8fpjg","pricing_plan_id":"cebpf4jnsgd1na2vs0mg"},{"bike_id":"30472d49-146d-434c-a5ae-d2b7af681c06","system_id":"levelo_inurba_marseille","lat":43.29517,"lon":5.39044,"is_reserved":false,"is_disabled":false,"rental_uris":{"android":"levelo://app?vid=30472d49-146d-434c-a5ae-d2b7af681c06","ios":"levelo://app?vid=30472d49-146d-434c-a5ae-d2b7af681c06"},"vehicle_type_id":"4","last_reported":1777403904,"current_range_meters":8000,"station_id":"ce4bh3p2rcd13ifvqdp0","pricing_plan_id":"cebpf4jnsgd1na2vs0mg"},{"bike_id":"ccc64b12-fba8-4953-9e4c-789c15629674","system_id":"levelo_inurba_marseille","lat":43.232,"lon":5.35093,"is_reserved":false,"is_disabled":false,"rental_uris":{"android":"levelo://app?vid=ccc64b12-fba8-4953-9e4c-789c15629674","ios":"levelo://app?vid=ccc64b12-fba8-4953-9e4c-789c15629674"},"vehicle_type_id":"4","last_reported":1777403904,"current_range_meters":8000,"station_id":"","pricing_plan_id":"cebpf4jnsgd1na2vs0mg"},{"bike_id":"550b61bf-024e-4f9e-9492-2a8f7afeae1e","system_id":"levelo_inurba_marseille","lat":43.30847,"lon":5.40507,"is_reserved":false,"is_disabled":false,"rental_uris":{"android":"levelo://app?vid=550b61bf-024e-4f9e-9492-2a8f7afeae1e","ios":"levelo://app?vid=550b61bf-024e-4f9e-9492-2a8f7afeae1e"},"vehicle_type_id":"4","last_reported":1777403904,"current_range_meters":8000,"station_id":"","pricing_plan_id":"cebpf4jnsgd1na2vs0mg"},{"bike_id":"fadbd9a5-2a49-4734-8db0-528994d97e40","system_id":"levelo_inurba_marseille","lat":43.29272,"lon":5.38362,"is_reserved":false,"is_disabled":false,"rental_uris":{"android":"levelo://app?vid=fadbd9a5-2a49-4734-8db0-528994d97e40","ios":"levelo://app?vid=fadbd9a5-2a49-4734-8db0-528994d97e40"},"vehicle_type_id":"4","last_reported":1777403904,"current_range_meters":8000,"station_id":"","pricing_plan_id":"cebpf4jnsgd1na2vs0mg"},{"bike_id":"57f90bd9-fa9d-42c1-93a4-bc60e7acd42f","system_id":"levelo_inurba_marseille","lat":43.26591,"lon":5.37271,"is_reserved":false,"is_disabled":false,"rental_uris":{"android":"levelo://app?vid=57f90bd9-fa9d-42c1-93a4-bc60e7acd42f","ios":"levelo://app?vid=57f90bd9-fa9d-42c1-93a4-bc60e7acd42f"},"vehicle_type_id":"4","last_reported":1777403904,"current_range_meters":8000,"station_id":"ce4bhg12rcd13ifvqf70","pricing_plan_id":"cebpf4jnsgd1na2vs0mg"},{"bike_id":"01c578b5-d3ac-4295-8963-0b85678912d1","system_id":"levelo_inurba_marseille","lat":43.28407,"lon":5.37532,"is_reserved":false,"is_disabled":false,"rental_uris":{"android":"levelo://app?vid=01c578b5-d3ac-4295-8963-0b85678912d1","ios":"levelo://app?vid=01c578b5-d3ac-4295-8963-0b85678912d1"},"vehicle_type_id":"4","last_reported":1777403904,"current_range_meters":8000,"station_id":"ce4bh412rcd13ifvqds0","pricing_plan_id":"cebpf4jnsgd1na2vs0mg"},{"bike_id":"3cabb206-107f-465e-b3d6-d79024127c12","system_id":"levelo_inurba_marseille","lat":43.2847,"lon":5.35873,"is_reserved":false,"is_disabled":false,"rental_uris":{"android":"levelo://app?vid=3cabb206-107f-465e-b3d6-d79024127c12","ios":"levelo://app?vid=3cabb206-107f-465e-b3d6-d79024127c12"},"vehicle_type_id":"4","last_reported":1777403904,"current_range_meters":8000,"station_id":"ce4bhah2rcd13ifvqei0","pricing_plan_id":"cebpf4jnsgd1na2vs0mg"},{"bike_id":"95322809-8dbc-4d4b-b75a-4dc954bbd79d","system_id":"levelo_inurba_marseille","lat":43.30234,"lon":5.40075,"is_reserved":false,"is_disabled":false,"rental_uris":{"android":"levelo://app?vid=95322809-8dbc-4d4b-b75a-4dc954bbd79d","ios":"levelo://app?vid=95322809-8dbc-4d4b-b75a-4dc954bbd79d"},"vehicle_type_id":"4","last_reported":1777403904,"current_range_meters":8000,"station_id":"ce4bgvh2rcd13ifvqcs0","pricing_plan_id":"cebpf4jnsgd1na2vs0mg"},{"bike_id":"3437955b-1d01-472d-a152-fed8f08dcf0a","system_id":"levelo_inurba_marseille","lat":43.2841,"lon":5.37518,"is_reserved":false,"is_disabled":false,"rental_uris":{"android":"levelo://app?vid=3437955b-1d01-472d-a152-fed8f08dcf0a","ios":"levelo://app?vid=3437955b-1d01-472d-a152-fed8f08dcf0a"},"vehicle_type_id":"4","last_reported":1777403904,"current_range_meters":8000,"station_id":"ce4bh412rcd13ifvqds0","pricing_plan_id":"cebpf4jnsgd1na2vs0mg"},{"bike_id":"0aa77637-d7e3-499b-846d-09967e25c470","system_id":"levelo_inurba_marseille","lat":43.26182,"lon":5.37953,"is_reserved":false,"is_disabled":false,"rental_uris":{"android":"levelo://app?vid=0aa77637-d7e3-499b-846d-09967e25c470","ios":"levelo://app?vid=0aa77637-d7e3-499b-846d-09967e25c470"},"vehicle_type_id":"4","last_reported":1777403904,"current_range_meters":8000,"station_id":"ce4bhjp2rcd13ifvqg90","pricing_plan_id":"cebpf4jnsgd1na2vs0mg"},{"bike_id":"475b56ab-fd61-45ae-be40-05696313ed1d","system_id":"levelo_inurba_marseille","lat":43.29415,"lon":5.40179,"is_reserved":false,"is_disabled":true,"rental_uris":{"android":"levelo://app?vid=475b56ab-fd61-45ae-be40-05696313ed1d","ios":"levelo://app?vid=475b56ab-fd61-45ae-be40-05696313ed1d"},"vehicle_type_id":"4","last_reported":1777403904,"current_range_meters":8000,"station_id":"","pricing_plan_id":"cebpf4jnsgd1na2vs0mg"},{"bike_id":"fd9a7039-4e51-4a41-8d94-a62cfc47c861","system_id":"levelo_inurba_marseille","lat":43.2647,"lon":5.39558,"is_reserved":false,"is_disabled":false,"rental_uris":{"android":"levelo://app?vid=fd9a7039-4e51-4a41-8d94-a62cfc47c861","ios":"levelo://app?vid=fd9a7039-4e51-4a41-8d94-a62cfc47c861"},"vehicle_type_id":"4","last_reported":1777403904,"current_range_meters":8000,"station_id":"ce4bhi12rcd13ifvqfq0","pricing_plan_id":"cebpf4jnsgd1na2vs0mg"},{"bike_id":"dcccaf40-3159-4149-92e2-805cd9f81ade","system_id":"levelo_inurba_marseille","lat":43.29264,"lon":5.37532,"is_reserved":false,"is_disabled":false,"rental_uris":{"android":"levelo://app?vid=dcccaf40-3159-4149-92e2-805cd9f81ade","ios":"levelo://app?vid=dcccaf40-3159-4149-92e2-805cd9f81ade"},"vehicle_type_id":"4","last_reported":1777403904,"current_range_meters":8000,"station_id":"","pricing_plan_id":"cebpf4jnsgd1na2vs0mg"},{"bike_id":"870cf028-d317-4365-88b3-cfc8b2733cc6","system_id":"levelo_inurba_marseille","lat":43.2871,"lon":5.46686,"is_reserved":false,"is_disabled":false,"rental_uris":{"android":"levelo://app?vid=870cf028-d317-4365-88b3-cfc8b2733cc6","ios":"levelo://app?vid=870cf028-d317-4365-88b3-cfc8b2733cc6"},"vehicle_type_id":"4","last_reported":1777403904,"current_range_meters":8400,"station_id":"st_d6tc3vkotcvc738tfjhg","pricing_plan_id":"cebpf4jnsgd1na2vs0mg"},{"bike_id":"b9c0ca4a-61af-4a0b-994f-7b554a71a91c","system_id":"levelo_inurba_marseille","lat":43.32351,"lon":5.36728,"is_reserved":false,"is_disabled":false,"rental_uris":{"android":"levelo://app?vid=b9c0ca4a-61af-4a0b-994f-7b554a71a91c","ios":"levelo://app?vid=b9c0ca4a-61af-4a0b-994f-7b554a71a91c"},"vehicle_type_id":"4","last_reported":1777403904,"current_range_meters":8400,"station_id":"ce4bhsh2rcd13ifvqi2g","pricing_plan_id":"cebpf4jnsgd1na2vs0mg"},{"bike_id":"f876cb19-0749-40f4-8bd3-e18d1d5c19e4","system_id":"levelo_inurba_marseille","lat":43.31265,"lon":5.40183,"is_reserved":false,"is_disabled":false,"rental_uris":{"android":"levelo://app?vid=f876cb19-0749-40f4-8bd3-e18d1d5c19e4","ios":"levelo://app?vid=f876cb19-0749-40f4-8bd3-e18d1d5c19e4"},"vehicle_type_id":"4","last_reported":1777403904,"current_range_meters":8400,"station_id":"ce4bh092rcd13ifvqd30","pricing_plan_id":"cebpf4jnsgd1na2vs0mg"},{"bike_id":"fe46bf29-5444-450b-8138-3e7925b5ab62","system_id":"levelo_inurba_marseille","lat":43.29024,"lon":5.38627,"is_reserved":false,"is_disabled":false,"rental_uris":{"android":"levelo://app?vid=fe46bf29-5444-450b-8138-3e7925b5ab62","ios":"levelo://app?vid=fe46bf29-5444-450b-8138-3e7925b5ab62"},"vehicle_type_id":"4","last_reported":1777403904,"current_range_meters":8400,"station_id":"ce4bh4p2rcd13ifvqe0g","pricing_plan_id":"cebpf4jnsgd1na2vs0mg"},{"bike_id":"f3253984-8723-496b-b1f9-f2af0dda8d75","system_id":"levelo_inurba_marseille","lat":43.30883,"lon":5.39666,"is_reserved":false,"is_disabled":false,"rental_uris":{"android":"levelo://app?vid=f3253984-8723-496b-b1f9-f2af0dda8d75","ios":"levelo://app?vid=f3253984-8723-496b-b1f9-f2af0dda8d75"},"vehicle_type_id":"4","last_reported":1777403904,"current_range_meters":8400,"station_id":"ce4bh012rcd13ifvqcv0","pricing_plan_id":"cebpf4jnsgd1na2vs0mg"},{"bike_id":"5f107878-7c17-41a5-9872-6ef4a2ca2028","system_id":"levelo_inurba_marseille","lat":43.30263,"lon":5.40081,"is_reserved":false,"is_disabled":false,"rental_uris":{"android":"levelo://app?vid=5f107878-7c17-41a5-9872-6ef4a2ca2028","ios":"levelo://app?vid=5f107878-7c17-41a5-9872-6ef4a2ca2028"},"vehicle_type_id":"4","last_reported":1777403904,"current_range_meters":8400,"station_id":"ce4bgvh2rcd13ifvqcs0","pricing_plan_id":"cebpf4jnsgd1na2vs0mg"},{"bike_id":"c5fb7c9c-a63a-49a1-8aed-b33f29d7e52d","system_id":"levelo_inurba_marseille","lat":43.24656,"lon":5.38883,"is_reserved":false,"is_disabled":false,"rental_uris":{"android":"levelo://app?vid=c5fb7c9c-a63a-49a1-8aed-b33f29d7e52d","ios":"levelo://app?vid=c5fb7c9c-a63a-49a1-8aed-b33f29d7e52d"},"vehicle_type_id":"4","last_reported":1777403904,"current_range_meters":8400,"station_id":"ce4bhg12rcd13ifvqf60","pricing_plan_id":"cebpf4jnsgd1na2vs0mg"},{"bike_id":"ef809088-19f7-4902-a559-51469dadba8c","system_id":"levelo_inurba_marseille","lat":43.27097,"lon":5.39138,"is_reserved":false,"is_disabled":false,"rental_uris":{"android":"levelo://app?vid=ef809088-19f7-4902-a559-51469dadba8c","ios":"levelo://app?vid=ef809088-19f7-4902-a559-51469dadba8c"},"vehicle_type_id":"4","last_reported":1777403904,"current_range_meters":8400,"station_id":"","pricing_plan_id":"cebpf4jnsgd1na2vs0mg"},{"bike_id":"f11e3633-986d-40f4-8b5f-6b5e41220dfc","system_id":"levelo_inurba_marseille","lat":43.3192,"lon":5.36793,"is_reserved":false,"is_disabled":false,"rental_uris":{"android":"levelo://app?vid=f11e3633-986d-40f4-8b5f-6b5e41220dfc","ios":"levelo://app?vid=f11e3633-986d-40f4-8b5f-6b5e41220dfc"},"vehicle_type_id":"4","last_reported":1777403904,"current_range_meters":8400,"station_id":"st_d6o2h0d0559c73evc1b0","pricing_plan_id":"cebpf4jnsgd1na2vs0mg"},{"bike_id":"04d07930-42f0-4c92-9bce-6eaea7bbfac2","system_id":"levelo_inurba_marseille","lat":43.29575,"lon":5.38266,"is_reserved":false,"is_disabled":false,"rental_uris":{"android":"levelo://app?vid=04d07930-42f0-4c92-9bce-6eaea7bbfac2","ios":"levelo://app?vid=04d07930-42f0-4c92-9bce-6eaea7bbfac2"},"vehicle_type_id":"4","last_reported":1777403904,"current_range_meters":8400,"station_id":"","pricing_plan_id":"cebpf4jnsgd1na2vs0mg"},{"bike_id":"ef3a68ef-5b94-411a-921f-f7cda00ffdfc","system_id":"levelo_inurba_marseille","lat":43.29467,"lon":5.39009,"is_reserved":false,"is_disabled":false,"rental_uris":{"android":"levelo://app?vid=ef3a68ef-5b94-411a-921f-f7cda00ffdfc","ios":"levelo://app?vid=ef3a68ef-5b94-411a-921f-f7cda00ffdfc"},"vehicle_type_id":"4","last_reported":1777403904,"current_range_meters":8400,"station_id":"","pricing_plan_id":"cebpf4jnsgd1na2vs0mg"},{"bike_id":"f85937b2-0ec4-4bc0-9c45-454acbb4424f","system_id":"levelo_inurba_marseille","lat":43.24952,"lon":5.40481,"is_reserved":false,"is_disabled":false,"rental_uris":{"android":"levelo://app?vid=f85937b2-0ec4-4bc0-9c45-454acbb4424f","ios":"levelo://app?vid=f85937b2-0ec4-4bc0-9c45-454acbb4424f"},"vehicle_type_id":"4","last_reported":1777403904,"current_range_meters":8400,"station_id":"st_d2ngiaodas8pm72gd1h0","pricing_plan_id":"cebpf4jnsgd1na2vs0mg"},{"bike_id":"525129d8-a7e9-4d3a-94c3-9737193fe89b","system_id":"levelo_inurba_marseille","lat":43.32664,"lon":5.40994,"is_reserved":false,"is_disabled":false,"rental_uris":{"android":"levelo://app?vid=525129d8-a7e9-4d3a-94c3-9737193fe89b","ios":"levelo://app?vid=525129d8-a7e9-4d3a-94c3-9737193fe89b"},"vehicle_type_id":"4","last_reported":1777403904,"current_range_meters":8400,"station_id":"ce4bhpp2rcd13ifvqhgg","pricing_plan_id":"cebpf4jnsgd1na2vs0mg"},{"bike_id":"37970c61-7528-4352-a724-5c9197d918a1","system_id":"levelo_inurba_marseille","lat":43.24674,"lon":5.38147,"is_reserved":false,"is_disabled":false,"rental_uris":{"android":"levelo://app?vid=37970c61-7528-4352-a724-5c9197d918a1","ios":"levelo://app?vid=37970c61-7528-4352-a724-5c9197d918a1"},"vehicle_type_id":"4","last_reported":1777403904,"current_range_meters":8400,"station_id":"ce4bhih2rcd13ifvqfr0","pricing_plan_id":"cebpf4jnsgd1na2vs0mg"},{"bike_id":"b9ac4e31-c4fb-47b1-ab2a-c299da636a3e","system_id":"levelo_inurba_marseille","lat":43.245428,"lon":5.395231,"is_reserved":false,"is_disabled":false,"rental_uris":{"android":"levelo://app?vid=b9ac4e31-c4fb-47b1-ab2a-c299da636a3e","ios":"levelo://app?vid=b9ac4e31-c4fb-47b1-ab2a-c299da636a3e"},"vehicle_type_id":"4","last_reported":1777403904,"current_range_meters":8400,"station_id":"ce4bhlp2rcd13ifvqgjg","pricing_plan_id":"cebpf4jnsgd1na2vs0mg"},{"bike_id":"19f05239-b6f2-4f90-add4-813db0c7d361","system_id":"levelo_inurba_marseille","lat":43.30185,"lon":5.3663,"is_reserved":false,"is_disabled":false,"rental_uris":{"android":"levelo://app?vid=19f05239-b6f2-4f90-add4-813db0c7d361","ios":"levelo://app?vid=19f05239-b6f2-4f90-add4-813db0c7d361"},"vehicle_type_id":"4","last_reported":1777403904,"current_range_meters":8400,"station_id":"ce4bgrh2rcd13ifvqc8g","pricing_plan_id":"cebpf4jnsgd1na2vs0mg"},{"bike_id":"d9f8758c-9be3-48e3-b890-c52c470ddb2c","system_id":"levelo_inurba_marseille","lat":43.29705,"lon":5.36832,"is_reserved":false,"is_disabled":false,"rental_uris":{"android":"levelo://app?vid=d9f8758c-9be3-48e3-b890-c52c470ddb2c","ios":"levelo://app?vid=d9f8758c-9be3-48e3-b890-c52c470ddb2c"},"vehicle_type_id":"4","last_reported":1777403904,"current_range_meters":8400,"station_id":"","pricing_plan_id":"cebpf4jnsgd1na2vs0mg"},{"bike_id":"4dbe00ec-feb8-4193-848e-b5324775416c","system_id":"levelo_inurba_marseille","lat":43.28417,"lon":5.34998,"is_reserved":false,"is_disabled":false,"rental_uris":{"android":"levelo://app?vid=4dbe00ec-feb8-4193-848e-b5324775416c","ios":"levelo://app?vid=4dbe00ec-feb8-4193-848e-b5324775416c"},"vehicle_type_id":"4","last_reported":1777403904,"current_range_meters":8800,"station_id":"ce4bhbh2rcd13ifvqepg","pricing_plan_id":"cebpf4jnsgd1na2vs0mg"},{"bike_id":"d4d191c1-1e42-44ce-acaa-f4fdd3a7ce8e","system_id":"levelo_inurba_marseille","lat":43.28523,"lon":5.38509,"is_reserved":false,"is_disabled":false,"rental_uris":{"android":"levelo://app?vid=d4d191c1-1e42-44ce-acaa-f4fdd3a7ce8e","ios":"levelo://app?vid=d4d191c1-1e42-44ce-acaa-f4fdd3a7ce8e"},"vehicle_type_id":"4","last_reported":1777403904,"current_range_meters":8800,"station_id":"","pricing_plan_id":"cebpf4jnsgd1na2vs0mg"},{"bike_id":"5f2b664d-3299-4b97-a16c-944e74430601","system_id":"levelo_inurba_marseille","lat":43.29292,"lon":5.36402,"is_reserved":false,"is_disabled":false,"rental_uris":{"android":"levelo://app?vid=5f2b664d-3299-4b97-a16c-944e74430601","ios":"levelo://app?vid=5f2b664d-3299-4b97-a16c-944e74430601"},"vehicle_type_id":"4","last_reported":1777403904,"current_range_meters":8800,"station_id":"","pricing_plan_id":"cebpf4jnsgd1na2vs0mg"},{"bike_id":"de1b4f6f-6b9d-4fc7-894f-85b3adf5ba9d","system_id":"levelo_inurba_marseille","lat":43.27533,"lon":5.38459,"is_reserved":false,"is_disabled":true,"rental_uris":{"android":"levelo://app?vid=de1b4f6f-6b9d-4fc7-894f-85b3adf5ba9d","ios":"levelo://app?vid=de1b4f6f-6b9d-4fc7-894f-85b3adf5ba9d"},"vehicle_type_id":"4","last_reported":1777403904,"current_range_meters":8800,"station_id":"ce4bhh92rcd13ifvqfi0","pricing_plan_id":"cebpf4jnsgd1na2vs0mg"},{"bike_id":"4f81a05a-97e9-44ec-a51e-366c3977229f","system_id":"levelo_inurba_marseille","lat":43.31328,"lon":5.39716,"is_reserved":false,"is_disabled":false,"rental_uris":{"android":"levelo://app?vid=4f81a05a-97e9-44ec-a51e-366c3977229f","ios":"levelo://app?vid=4f81a05a-97e9-44ec-a51e-366c3977229f"},"vehicle_type_id":"4","last_reported":1777403904,"current_range_meters":8800,"station_id":"ce4bgvp2rcd13ifvqcu0","pricing_plan_id":"cebpf4jnsgd1na2vs0mg"},{"bike_id":"c4360509-c690-49c4-8c8f-02bf5217fee1","system_id":"levelo_inurba_marseille","lat":43.29507,"lon":5.39054,"is_reserved":false,"is_disabled":false,"rental_uris":{"android":"levelo://app?vid=c4360509-c690-49c4-8c8f-02bf5217fee1","ios":"levelo://app?vid=c4360509-c690-49c4-8c8f-02bf5217fee1"},"vehicle_type_id":"4","last_reported":1777403904,"current_range_meters":8800,"station_id":"ce4bh3p2rcd13ifvqdp0","pricing_plan_id":"cebpf4jnsgd1na2vs0mg"},{"bike_id":"ee5bca21-2a39-4c24-aced-c94d2451e251","system_id":"levelo_inurba_marseille","lat":43.27991,"lon":5.4165,"is_reserved":false,"is_disabled":false,"rental_uris":{"android":"levelo://app?vid=ee5bca21-2a39-4c24-aced-c94d2451e251","ios":"levelo://app?vid=ee5bca21-2a39-4c24-aced-c94d2451e251"},"vehicle_type_id":"4","last_reported":1777403904,"current_range_meters":8800,"station_id":"ce4bho12rcd13ifvqh1g","pricing_plan_id":"cebpf4jnsgd1na2vs0mg"},{"bike_id":"c46d8a22-772b-40f4-a01d-512476bc1bbf","system_id":"levelo_inurba_marseille","lat":43.24945,"lon":5.4051,"is_reserved":false,"is_disabled":false,"rental_uris":{"android":"levelo://app?vid=c46d8a22-772b-40f4-a01d-512476bc1bbf","ios":"levelo://app?vid=c46d8a22-772b-40f4-a01d-512476bc1bbf"},"vehicle_type_id":"4","last_reported":1777403904,"current_range_meters":8800,"station_id":"st_d2ngiaodas8pm72gd1h0","pricing_plan_id":"cebpf4jnsgd1na2vs0mg"},{"bike_id":"2918ec89-555e-45a0-8785-863a2c165390","system_id":"levelo_inurba_marseille","lat":43.31181,"lon":5.36878,"is_reserved":false,"is_disabled":false,"rental_uris":{"android":"levelo://app?vid=2918ec89-555e-45a0-8785-863a2c165390","ios":"levelo://app?vid=2918ec89-555e-45a0-8785-863a2c165390"},"vehicle_type_id":"4","last_reported":1777403904,"current_range_meters":8800,"station_id":"","pricing_plan_id":"cebpf4jnsgd1na2vs0mg"},{"bike_id":"e03a9553-f014-4591-84d1-bb481db182e5","system_id":"levelo_inurba_marseille","lat":43.287,"lon":5.46684,"is_reserved":false,"is_disabled":false,"rental_uris":{"android":"levelo://app?vid=e03a9553-f014-4591-84d1-bb481db182e5","ios":"levelo://app?vid=e03a9553-f014-4591-84d1-bb481db182e5"},"vehicle_type_id":"4","last_reported":1777403904,"current_range_meters":8800,"station_id":"st_d6tc3vkotcvc738tfjhg","pricing_plan_id":"cebpf4jnsgd1na2vs0mg"},{"bike_id":"2a9f517f-dc7e-442a-8a6e-b3ad6200cb4e","system_id":"levelo_inurba_marseille","lat":43.33549,"lon":5.37454,"is_reserved":false,"is_disabled":false,"rental_uris":{"android":"levelo://app?vid=2a9f517f-dc7e-442a-8a6e-b3ad6200cb4e","ios":"levelo://app?vid=2a9f517f-dc7e-442a-8a6e-b3ad6200cb4e"},"vehicle_type_id":"4","last_reported":1777403904,"current_range_meters":8800,"station_id":"st_d46tts09ee8s73dlu43g","pricing_plan_id":"cebpf4jnsgd1na2vs0mg"},{"bike_id":"c14d7c31-74eb-4055-8077-cc05d15cc6b7","system_id":"levelo_inurba_marseille","lat":43.29517,"lon":5.38552,"is_reserved":false,"is_disabled":false,"rental_uris":{"android":"levelo://app?vid=c14d7c31-74eb-4055-8077-cc05d15cc6b7","ios":"levelo://app?vid=c14d7c31-74eb-4055-8077-cc05d15cc6b7"},"vehicle_type_id":"4","last_reported":1777403904,"current_range_meters":8800,"station_id":"ce4bgih2rcd13ifvqba0","pricing_plan_id":"cebpf4jnsgd1na2vs0mg"},{"bike_id":"e2a155dc-3d0d-46a3-95f7-669c8a8ae1e0","system_id":"levelo_inurba_marseille","lat":43.28619,"lon":5.35106,"is_reserved":false,"is_disabled":false,"rental_uris":{"android":"levelo://app?vid=e2a155dc-3d0d-46a3-95f7-669c8a8ae1e0","ios":"levelo://app?vid=e2a155dc-3d0d-46a3-95f7-669c8a8ae1e0"},"vehicle_type_id":"4","last_reported":1777403904,"current_range_meters":8800,"station_id":"ce4bhch2rcd13ifvqeug","pricing_plan_id":"cebpf4jnsgd1na2vs0mg"},{"bike_id":"97101e97-9dc1-46b9-aa51-c662f292853d","system_id":"levelo_inurba_marseille","lat":43.28172,"lon":5.42618,"is_reserved":false,"is_disabled":false,"rental_uris":{"android":"levelo://app?vid=97101e97-9dc1-46b9-aa51-c662f292853d","ios":"levelo://app?vid=97101e97-9dc1-46b9-aa51-c662f292853d"},"vehicle_type_id":"4","last_reported":1777403904,"current_range_meters":8800,"station_id":"ce4bhnh2rcd13ifvqgug","pricing_plan_id":"cebpf4jnsgd1na2vs0mg"},{"bike_id":"0256971e-927a-4136-bafd-665aafac7fc7","system_id":"levelo_inurba_marseille","lat":43.21777,"lon":5.34601,"is_reserved":false,"is_disabled":true,"rental_uris":{"android":"levelo://app?vid=0256971e-927a-4136-bafd-665aafac7fc7","ios":"levelo://app?vid=0256971e-927a-4136-bafd-665aafac7fc7"},"vehicle_type_id":"4","last_reported":1777403904,"current_range_meters":8800,"station_id":"st_cvj6r9ubvosntc0bgbag","pricing_plan_id":"cebpf4jnsgd1na2vs0mg"},{"bike_id":"2c0808ca-959e-46d2-bd7d-5fa523a2fa9a","system_id":"levelo_inurba_marseille","lat":43.30632,"lon":5.43647,"is_reserved":false,"is_disabled":false,"rental_uris":{"android":"levelo://app?vid=2c0808ca-959e-46d2-bd7d-5fa523a2fa9a","ios":"levelo://app?vid=2c0808ca-959e-46d2-bd7d-5fa523a2fa9a"},"vehicle_type_id":"4","last_reported":1777403904,"current_range_meters":8800,"station_id":"","pricing_plan_id":"cebpf4jnsgd1na2vs0mg"},{"bike_id":"5a082d0b-9dcd-4b27-b749-e7a082c3a4b6","system_id":"levelo_inurba_marseille","lat":43.25142,"lon":5.404559,"is_reserved":false,"is_disabled":false,"rental_uris":{"android":"levelo://app?vid=5a082d0b-9dcd-4b27-b749-e7a082c3a4b6","ios":"levelo://app?vid=5a082d0b-9dcd-4b27-b749-e7a082c3a4b6"},"vehicle_type_id":"4","last_reported":1777403904,"current_range_meters":8800,"station_id":"","pricing_plan_id":"cebpf4jnsgd1na2vs0mg"},{"bike_id":"5d411e32-c60a-4019-935b-8e92970257cd","system_id":"levelo_inurba_marseille","lat":43.28418,"lon":5.3497,"is_reserved":false,"is_disabled":false,"rental_uris":{"android":"levelo://app?vid=5d411e32-c60a-4019-935b-8e92970257cd","ios":"levelo://app?vid=5d411e32-c60a-4019-935b-8e92970257cd"},"vehicle_type_id":"4","last_reported":1777403904,"current_range_meters":8800,"station_id":"ce4bhbh2rcd13ifvqepg","pricing_plan_id":"cebpf4jnsgd1na2vs0mg"},{"bike_id":"65010c6b-26f0-4ad8-b6d9-a2be7775660c","system_id":"levelo_inurba_marseille","lat":43.25556,"lon":5.3824,"is_reserved":false,"is_disabled":false,"rental_uris":{"android":"levelo://app?vid=65010c6b-26f0-4ad8-b6d9-a2be7775660c","ios":"levelo://app?vid=65010c6b-26f0-4ad8-b6d9-a2be7775660c"},"vehicle_type_id":"4","last_reported":1777403904,"current_range_meters":8800,"station_id":"ce4bhih2rcd13ifvqfs0","pricing_plan_id":"cebpf4jnsgd1na2vs0mg"},{"bike_id":"8502f1a9-fcda-4f46-ad5a-2dd96b4ddf08","system_id":"levelo_inurba_marseille","lat":43.29528,"lon":5.39026,"is_reserved":false,"is_disabled":false,"rental_uris":{"android":"levelo://app?vid=8502f1a9-fcda-4f46-ad5a-2dd96b4ddf08","ios":"levelo://app?vid=8502f1a9-fcda-4f46-ad5a-2dd96b4ddf08"},"vehicle_type_id":"4","last_reported":1777403904,"current_range_meters":8800,"station_id":"ce4bh3p2rcd13ifvqdp0","pricing_plan_id":"cebpf4jnsgd1na2vs0mg"},{"bike_id":"14015fc9-b839-4138-b4d5-9a2f5afbe521","system_id":"levelo_inurba_marseille","lat":43.29212,"lon":5.42642,"is_reserved":false,"is_disabled":false,"rental_uris":{"android":"levelo://app?vid=14015fc9-b839-4138-b4d5-9a2f5afbe521","ios":"levelo://app?vid=14015fc9-b839-4138-b4d5-9a2f5afbe521"},"vehicle_type_id":"4","last_reported":1777403904,"current_range_meters":8800,"station_id":"","pricing_plan_id":"cebpf4jnsgd1na2vs0mg"},{"bike_id":"32ca017b-97a3-407c-83d0-f7ef756a30b4","system_id":"levelo_inurba_marseille","lat":43.29256,"lon":5.38466,"is_reserved":false,"is_disabled":false,"rental_uris":{"android":"levelo://app?vid=32ca017b-97a3-407c-83d0-f7ef756a30b4","ios":"levelo://app?vid=32ca017b-97a3-407c-83d0-f7ef756a30b4"},"vehicle_type_id":"4","last_reported":1777403904,"current_range_meters":9200,"station_id":"ce4bh692rcd13ifvqea0","pricing_plan_id":"cebpf4jnsgd1na2vs0mg"},{"bike_id":"d96f2c39-788b-4b13-96be-d4e2b4273afe","system_id":"levelo_inurba_marseille","lat":43.29232,"lon":5.38461,"is_reserved":false,"is_disabled":false,"rental_uris":{"android":"levelo://app?vid=d96f2c39-788b-4b13-96be-d4e2b4273afe","ios":"levelo://app?vid=d96f2c39-788b-4b13-96be-d4e2b4273afe"},"vehicle_type_id":"4","last_reported":1777403904,"current_range_meters":9200,"station_id":"ce4bh692rcd13ifvqea0","pricing_plan_id":"cebpf4jnsgd1na2vs0mg"},{"bike_id":"c5d87c94-f8c8-47f4-ae84-ea0b6e6ae165","system_id":"levelo_inurba_marseille","lat":43.26259,"lon":5.38906,"is_reserved":false,"is_disabled":false,"rental_uris":{"android":"levelo://app?vid=c5d87c94-f8c8-47f4-ae84-ea0b6e6ae165","ios":"levelo://app?vid=c5d87c94-f8c8-47f4-ae84-ea0b6e6ae165"},"vehicle_type_id":"4","last_reported":1777403904,"current_range_meters":9200,"station_id":"","pricing_plan_id":"cebpf4jnsgd1na2vs0mg"},{"bike_id":"c42e313b-1419-4b00-9034-dc22550a1f34","system_id":"levelo_inurba_marseille","lat":43.29285,"lon":5.37211,"is_reserved":false,"is_disabled":false,"rental_uris":{"android":"levelo://app?vid=c42e313b-1419-4b00-9034-dc22550a1f34","ios":"levelo://app?vid=c42e313b-1419-4b00-9034-dc22550a1f34"},"vehicle_type_id":"4","last_reported":1777403904,"current_range_meters":9200,"station_id":"ce4bgh92rcd13ifvqb40","pricing_plan_id":"cebpf4jnsgd1na2vs0mg"},{"bike_id":"612aa58d-1989-451e-92ae-2cefbc490be3","system_id":"levelo_inurba_marseille","lat":43.25934,"lon":5.4091,"is_reserved":false,"is_disabled":false,"rental_uris":{"android":"levelo://app?vid=612aa58d-1989-451e-92ae-2cefbc490be3","ios":"levelo://app?vid=612aa58d-1989-451e-92ae-2cefbc490be3"},"vehicle_type_id":"4","last_reported":1777403904,"current_range_meters":9200,"station_id":"ce4bhm92rcd13ifvqglg","pricing_plan_id":"cebpf4jnsgd1na2vs0mg"},{"bike_id":"ef2f410f-463c-4127-8f21-3ae500dd4eda","system_id":"levelo_inurba_marseille","lat":43.28407,"lon":5.37538,"is_reserved":false,"is_disabled":true,"rental_uris":{"android":"levelo://app?vid=ef2f410f-463c-4127-8f21-3ae500dd4eda","ios":"levelo://app?vid=ef2f410f-463c-4127-8f21-3ae500dd4eda"},"vehicle_type_id":"4","last_reported":1777403904,"current_range_meters":9200,"station_id":"ce4bh412rcd13ifvqds0","pricing_plan_id":"cebpf4jnsgd1na2vs0mg"},{"bike_id":"4a1f0f69-0ea6-43e7-8169-567a976232c6","system_id":"levelo_inurba_marseille","lat":43.29065,"lon":5.37157,"is_reserved":false,"is_disabled":false,"rental_uris":{"android":"levelo://app?vid=4a1f0f69-0ea6-43e7-8169-567a976232c6","ios":"levelo://app?vid=4a1f0f69-0ea6-43e7-8169-567a976232c6"},"vehicle_type_id":"4","last_reported":1777403904,"current_range_meters":9200,"station_id":"ce4bh5p2rcd13ifvqe4g","pricing_plan_id":"cebpf4jnsgd1na2vs0mg"},{"bike_id":"8a7be1d9-c2cb-476b-b3a6-43823ef38566","system_id":"levelo_inurba_marseille","lat":43.30779,"lon":5.38191,"is_reserved":false,"is_disabled":false,"rental_uris":{"android":"levelo://app?vid=8a7be1d9-c2cb-476b-b3a6-43823ef38566","ios":"levelo://app?vid=8a7be1d9-c2cb-476b-b3a6-43823ef38566"},"vehicle_type_id":"4","last_reported":1777403904,"current_range_meters":9200,"station_id":"ce4bgt12rcd13ifvqce0","pricing_plan_id":"cebpf4jnsgd1na2vs0mg"},{"bike_id":"76172d9e-75e6-4e36-9fa5-a8bc1e56f86e","system_id":"levelo_inurba_marseille","lat":43.23964,"lon":5.36638,"is_reserved":false,"is_disabled":false,"rental_uris":{"android":"levelo://app?vid=76172d9e-75e6-4e36-9fa5-a8bc1e56f86e","ios":"levelo://app?vid=76172d9e-75e6-4e36-9fa5-a8bc1e56f86e"},"vehicle_type_id":"4","last_reported":1777403904,"current_range_meters":9200,"station_id":"ce4bhi12rcd13ifvqfp0","pricing_plan_id":"cebpf4jnsgd1na2vs0mg"},{"bike_id":"bd94bc60-9f42-49d8-b356-f62ba9512bc6","system_id":"levelo_inurba_marseille","lat":43.26443,"lon":5.39968,"is_reserved":false,"is_disabled":false,"rental_uris":{"android":"levelo://app?vid=bd94bc60-9f42-49d8-b356-f62ba9512bc6","ios":"levelo://app?vid=bd94bc60-9f42-49d8-b356-f62ba9512bc6"},"vehicle_type_id":"4","last_reported":1777403904,"current_range_meters":9200,"station_id":"","pricing_plan_id":"cebpf4jnsgd1na2vs0mg"},{"bike_id":"fb48eb95-a721-45e3-a917-4c0e5102e02d","system_id":"levelo_inurba_marseille","lat":43.23187,"lon":5.35596,"is_reserved":false,"is_disabled":false,"rental_uris":{"android":"levelo://app?vid=fb48eb95-a721-45e3-a917-4c0e5102e02d","ios":"levelo://app?vid=fb48eb95-a721-45e3-a917-4c0e5102e02d"},"vehicle_type_id":"4","last_reported":1777403904,"current_range_meters":9200,"station_id":"ce4bhu92rcd13ifvqi70","pricing_plan_id":"cebpf4jnsgd1na2vs0mg"},{"bike_id":"13a19b64-2305-48b9-97ca-f768ee4bbad0","system_id":"levelo_inurba_marseille","lat":43.27987,"lon":5.41664,"is_reserved":false,"is_disabled":false,"rental_uris":{"android":"levelo://app?vid=13a19b64-2305-48b9-97ca-f768ee4bbad0","ios":"levelo://app?vid=13a19b64-2305-48b9-97ca-f768ee4bbad0"},"vehicle_type_id":"4","last_reported":1777403904,"current_range_meters":9200,"station_id":"ce4bho12rcd13ifvqh1g","pricing_plan_id":"cebpf4jnsgd1na2vs0mg"},{"bike_id":"15ad3928-3439-4825-ae6b-878251711589","system_id":"levelo_inurba_marseille","lat":43.28935,"lon":5.36643,"is_reserved":false,"is_disabled":false,"rental_uris":{"android":"levelo://app?vid=15ad3928-3439-4825-ae6b-878251711589","ios":"levelo://app?vid=15ad3928-3439-4825-ae6b-878251711589"},"vehicle_type_id":"4","last_reported":1777403904,"current_range_meters":9200,"station_id":"ce4bhap2rcd13ifvqek0","pricing_plan_id":"cebpf4jnsgd1na2vs0mg"},{"bike_id":"c5698037-869d-4adf-ac58-74fe99e8a369","system_id":"levelo_inurba_marseille","lat":43.28922,"lon":5.38397,"is_reserved":false,"is_disabled":false,"rental_uris":{"android":"levelo://app?vid=c5698037-869d-4adf-ac58-74fe99e8a369","ios":"levelo://app?vid=c5698037-869d-4adf-ac58-74fe99e8a369"},"vehicle_type_id":"4","last_reported":1777403904,"current_range_meters":9600,"station_id":"ce4bh612rcd13ifvqe6g","pricing_plan_id":"cebpf4jnsgd1na2vs0mg"},{"bike_id":"5e197578-e13f-44b4-9a21-b9f34c9f44ad","system_id":"levelo_inurba_marseille","lat":43.31168,"lon":5.38707,"is_reserved":false,"is_disabled":false,"rental_uris":{"android":"levelo://app?vid=5e197578-e13f-44b4-9a21-b9f34c9f44ad","ios":"levelo://app?vid=5e197578-e13f-44b4-9a21-b9f34c9f44ad"},"vehicle_type_id":"4","last_reported":1777403904,"current_range_meters":9600,"station_id":"ce4bgv12rcd13ifvqcp0","pricing_plan_id":"cebpf4jnsgd1na2vs0mg"},{"bike_id":"e7b5935f-1bc3-49b9-8444-7fc51616003b","system_id":"levelo_inurba_marseille","lat":43.2558,"lon":5.38231,"is_reserved":false,"is_disabled":false,"rental_uris":{"android":"levelo://app?vid=e7b5935f-1bc3-49b9-8444-7fc51616003b","ios":"levelo://app?vid=e7b5935f-1bc3-49b9-8444-7fc51616003b"},"vehicle_type_id":"4","last_reported":1777403904,"current_range_meters":9600,"station_id":"ce4bhih2rcd13ifvqfs0","pricing_plan_id":"cebpf4jnsgd1na2vs0mg"},{"bike_id":"8c2ebc41-7bef-4c6d-91ac-124371586248","system_id":"levelo_inurba_marseille","lat":43.25569,"lon":5.38226,"is_reserved":false,"is_disabled":false,"rental_uris":{"android":"levelo://app?vid=8c2ebc41-7bef-4c6d-91ac-124371586248","ios":"levelo://app?vid=8c2ebc41-7bef-4c6d-91ac-124371586248"},"vehicle_type_id":"4","last_reported":1777403904,"current_range_meters":9600,"station_id":"ce4bhih2rcd13ifvqfs0","pricing_plan_id":"cebpf4jnsgd1na2vs0mg"},{"bike_id":"ad016942-5b0b-44b8-ac1c-1b7068118d02","system_id":"levelo_inurba_marseille","lat":43.2321,"lon":5.35553,"is_reserved":false,"is_disabled":false,"rental_uris":{"android":"levelo://app?vid=ad016942-5b0b-44b8-ac1c-1b7068118d02","ios":"levelo://app?vid=ad016942-5b0b-44b8-ac1c-1b7068118d02"},"vehicle_type_id":"4","last_reported":1777403904,"current_range_meters":9600,"station_id":"ce4bhu92rcd13ifvqi70","pricing_plan_id":"cebpf4jnsgd1na2vs0mg"},{"bike_id":"acc57406-75de-43a2-a6ec-d941193f0be0","system_id":"levelo_inurba_marseille","lat":43.32342,"lon":5.3674,"is_reserved":false,"is_disabled":false,"rental_uris":{"android":"levelo://app?vid=acc57406-75de-43a2-a6ec-d941193f0be0","ios":"levelo://app?vid=acc57406-75de-43a2-a6ec-d941193f0be0"},"vehicle_type_id":"4","last_reported":1777403904,"current_range_meters":9600,"station_id":"ce4bhsh2rcd13ifvqi2g","pricing_plan_id":"cebpf4jnsgd1na2vs0mg"},{"bike_id":"1bb8344f-1db0-45ef-ad3e-3af45d1f5a9f","system_id":"levelo_inurba_marseille","lat":43.2572,"lon":5.38703,"is_reserved":false,"is_disabled":false,"rental_uris":{"android":"levelo://app?vid=1bb8344f-1db0-45ef-ad3e-3af45d1f5a9f","ios":"levelo://app?vid=1bb8344f-1db0-45ef-ad3e-3af45d1f5a9f"},"vehicle_type_id":"4","last_reported":1777403904,"current_range_meters":9600,"station_id":"","pricing_plan_id":"cebpf4jnsgd1na2vs0mg"},{"bike_id":"7b55515c-194c-4fc8-a0b5-be1abd1b3de9","system_id":"levelo_inurba_marseille","lat":43.27812,"lon":5.40706,"is_reserved":false,"is_disabled":false,"rental_uris":{"android":"levelo://app?vid=7b55515c-194c-4fc8-a0b5-be1abd1b3de9","ios":"levelo://app?vid=7b55515c-194c-4fc8-a0b5-be1abd1b3de9"},"vehicle_type_id":"4","last_reported":1777403904,"current_range_meters":9600,"station_id":"ce4bhnh2rcd13ifvqgtg","pricing_plan_id":"cebpf4jnsgd1na2vs0mg"},{"bike_id":"71331cf7-cfb0-4a6e-b7e2-2bd1144fa992","system_id":"levelo_inurba_marseille","lat":43.30617,"lon":5.37217,"is_reserved":false,"is_disabled":false,"rental_uris":{"android":"levelo://app?vid=71331cf7-cfb0-4a6e-b7e2-2bd1144fa992","ios":"levelo://app?vid=71331cf7-cfb0-4a6e-b7e2-2bd1144fa992"},"vehicle_type_id":"4","last_reported":1777403904,"current_range_meters":9600,"station_id":"ce4bgqh2rcd13ifvqc4g","pricing_plan_id":"cebpf4jnsgd1na2vs0mg"},{"bike_id":"fda618be-51fd-467f-aa42-0930d5e4ba7b","system_id":"levelo_inurba_marseille","lat":43.33002,"lon":5.39042,"is_reserved":false,"is_disabled":false,"rental_uris":{"android":"levelo://app?vid=fda618be-51fd-467f-aa42-0930d5e4ba7b","ios":"levelo://app?vid=fda618be-51fd-467f-aa42-0930d5e4ba7b"},"vehicle_type_id":"4","last_reported":1777403904,"current_range_meters":9600,"station_id":"ce4bhr92rcd13ifvqhrg","pricing_plan_id":"cebpf4jnsgd1na2vs0mg"},{"bike_id":"3d629aa3-896b-404c-8ce1-01df00b063ac","system_id":"levelo_inurba_marseille","lat":43.29635,"lon":5.40606,"is_reserved":false,"is_disabled":true,"rental_uris":{"android":"levelo://app?vid=3d629aa3-896b-404c-8ce1-01df00b063ac","ios":"levelo://app?vid=3d629aa3-896b-404c-8ce1-01df00b063ac"},"vehicle_type_id":"4","last_reported":1777403904,"current_range_meters":9600,"station_id":"ce4bh0h2rcd13ifvqd60","pricing_plan_id":"cebpf4jnsgd1na2vs0mg"},{"bike_id":"651e3c62-7a24-48e1-a36e-d636fca1f0d4","system_id":"levelo_inurba_marseille","lat":43.291618,"lon":5.371591,"is_reserved":false,"is_disabled":false,"rental_uris":{"android":"levelo://app?vid=651e3c62-7a24-48e1-a36e-d636fca1f0d4","ios":"levelo://app?vid=651e3c62-7a24-48e1-a36e-d636fca1f0d4"},"vehicle_type_id":"4","last_reported":1777403904,"current_range_meters":9600,"station_id":"ce4bha92rcd13ifvqeh0","pricing_plan_id":"cebpf4jnsgd1na2vs0mg"},{"bike_id":"d41d4b5e-cce6-463a-be73-269b717d004d","system_id":"levelo_inurba_marseille","lat":43.28933,"lon":5.36633,"is_reserved":false,"is_disabled":false,"rental_uris":{"android":"levelo://app?vid=d41d4b5e-cce6-463a-be73-269b717d004d","ios":"levelo://app?vid=d41d4b5e-cce6-463a-be73-269b717d004d"},"vehicle_type_id":"4","last_reported":1777403904,"current_range_meters":9600,"station_id":"ce4bhap2rcd13ifvqek0","pricing_plan_id":"cebpf4jnsgd1na2vs0mg"},{"bike_id":"ae021663-2e05-40c8-b86d-c1c36d30e619","system_id":"levelo_inurba_marseille","lat":43.28935,"lon":5.36632,"is_reserved":false,"is_disabled":false,"rental_uris":{"android":"levelo://app?vid=ae021663-2e05-40c8-b86d-c1c36d30e619","ios":"levelo://app?vid=ae021663-2e05-40c8-b86d-c1c36d30e619"},"vehicle_type_id":"4","last_reported":1777403904,"current_range_meters":9600,"station_id":"ce4bhap2rcd13ifvqek0","pricing_plan_id":"cebpf4jnsgd1na2vs0mg"},{"bike_id":"cbb3b8ec-8c39-4649-812c-947fa5b12f5c","system_id":"levelo_inurba_marseille","lat":43.29165,"lon":5.37171,"is_reserved":false,"is_disabled":false,"rental_uris":{"android":"levelo://app?vid=cbb3b8ec-8c39-4649-812c-947fa5b12f5c","ios":"levelo://app?vid=cbb3b8ec-8c39-4649-812c-947fa5b12f5c"},"vehicle_type_id":"4","last_reported":1777403904,"current_range_meters":9600,"station_id":"ce4bha92rcd13ifvqeh0","pricing_plan_id":"cebpf4jnsgd1na2vs0mg"},{"bike_id":"85d9197d-2701-4777-8558-f6bfd3c75831","system_id":"levelo_inurba_marseille","lat":43.26943,"lon":5.38895,"is_reserved":false,"is_disabled":false,"rental_uris":{"android":"levelo://app?vid=85d9197d-2701-4777-8558-f6bfd3c75831","ios":"levelo://app?vid=85d9197d-2701-4777-8558-f6bfd3c75831"},"vehicle_type_id":"4","last_reported":1777403904,"current_range_meters":9600,"station_id":"ce4bhhh2rcd13ifvqfl0","pricing_plan_id":"cebpf4jnsgd1na2vs0mg"},{"bike_id":"e86fde7f-f309-4c5c-9613-864f1a66fd8e","system_id":"levelo_inurba_marseille","lat":43.2887,"lon":5.42516,"is_reserved":false,"is_disabled":false,"rental_uris":{"android":"levelo://app?vid=e86fde7f-f309-4c5c-9613-864f1a66fd8e","ios":"levelo://app?vid=e86fde7f-f309-4c5c-9613-864f1a66fd8e"},