{"last_updated":1753297881,"ttl":60,"version":"2.2","data":{"bikes":[{"bike_id":"aedc3df4-985b-4973-947a-678cac57ce3e","system_id":"levelo_inurba_marseille","lat":43.2989,"lon":5.38895,"is_reserved":false,"is_disabled":false,"rental_uris":{"android":"levelo://app?vid=aedc3df4-985b-4973-947a-678cac57ce3e","ios":"levelo://app?vid=aedc3df4-985b-4973-947a-678cac57ce3e"},"vehicle_type_id":"4","last_reported":1753297881,"current_range_meters":2800,"station_id":"ce4bh392rcd13ifvqdl0","pricing_plan_id":"cebpf4jnsgd1na2vs0mg"},{"bike_id":"cbfb3b70-10b1-46c2-abb1-b901a76a701a","system_id":"levelo_inurba_marseille","lat":43.30797,"lon":5.38138,"is_reserved":false,"is_disabled":false,"rental_uris":{"android":"levelo://app?vid=cbfb3b70-10b1-46c2-abb1-b901a76a701a","ios":"levelo://app?vid=cbfb3b70-10b1-46c2-abb1-b901a76a701a"},"vehicle_type_id":"4","last_reported":1753297881,"current_range_meters":2800,"station_id":"ce4bgt12rcd13ifvqce0","pricing_plan_id":"cebpf4jnsgd1na2vs0mg"},{"bike_id":"9cb726da-72d0-44e4-830c-69a1c23bdf3c","system_id":"levelo_inurba_marseille","lat":43.29646,"lon":5.37147,"is_reserved":false,"is_disabled":true,"rental_uris":{"android":"levelo://app?vid=9cb726da-72d0-44e4-830c-69a1c23bdf3c","ios":"levelo://app?vid=9cb726da-72d0-44e4-830c-69a1c23bdf3c"},"vehicle_type_id":"4","last_reported":1753297881,"current_range_meters":2800,"station_id":"ce4bgnh2rcd13ifvqc0g","pricing_plan_id":"cebpf4jnsgd1na2vs0mg"},{"bike_id":"8cc6a7f0-c098-4983-8747-37a4a358b4d1","system_id":"levelo_inurba_marseille","lat":43.28614,"lon":5.35101,"is_reserved":false,"is_disabled":true,"rental_uris":{"android":"levelo://app?vid=8cc6a7f0-c098-4983-8747-37a4a358b4d1","ios":"levelo://app?vid=8cc6a7f0-c098-4983-8747-37a4a358b4d1"},"vehicle_type_id":"4","last_reported":1753297881,"current_range_meters":2800,"station_id":"ce4bhch2rcd13ifvqeug","pricing_plan_id":"cebpf4jnsgd1na2vs0mg"},{"bike_id":"5edcf6d7-f238-4fa8-9659-5abdda66d817","system_id":"levelo_inurba_marseille","lat":43.29096,"lon":5.38125,"is_reserved":false,"is_disabled":false,"rental_uris":{"android":"levelo://app?vid=5edcf6d7-f238-4fa8-9659-5abdda66d817","ios":"levelo://app?vid=5edcf6d7-f238-4fa8-9659-5abdda66d817"},"vehicle_type_id":"4","last_reported":1753297881,"current_range_meters":2800,"station_id":"ce4bh512rcd13ifvqe2g","pricing_plan_id":"cebpf4jnsgd1na2vs0mg"},{"bike_id":"13d8d996-56f7-40ff-899c-825ccbeba3e4","system_id":"levelo_inurba_marseille","lat":43.261929,"lon":5.374471,"is_reserved":false,"is_disabled":false,"rental_uris":{"android":"levelo://app?vid=13d8d996-56f7-40ff-899c-825ccbeba3e4","ios":"levelo://app?vid=13d8d996-56f7-40ff-899c-825ccbeba3e4"},"vehicle_type_id":"4","last_reported":1753297881,"current_range_meters":2800,"station_id":"ce4bhgp2rcd13ifvqfc0","pricing_plan_id":"cebpf4jnsgd1na2vs0mg"},{"bike_id":"76d28930-d9cf-428b-807a-3b95cbb5c609","system_id":"levelo_inurba_marseille","lat":43.255785,"lon":5.382349,"is_reserved":false,"is_disabled":false,"rental_uris":{"android":"levelo://app?vid=76d28930-d9cf-428b-807a-3b95cbb5c609","ios":"levelo://app?vid=76d28930-d9cf-428b-807a-3b95cbb5c609"},"vehicle_type_id":"4","last_reported":1753297881,"current_range_meters":3200,"station_id":"ce4bhih2rcd13ifvqfs0","pricing_plan_id":"cebpf4jnsgd1na2vs0mg"},{"bike_id":"a35e0d3b-7b45-4544-b22a-dfb6ea3016e8","system_id":"levelo_inurba_marseille","lat":43.29498,"lon":5.3818,"is_reserved":false,"is_disabled":false,"rental_uris":{"android":"levelo://app?vid=a35e0d3b-7b45-4544-b22a-dfb6ea3016e8","ios":"levelo://app?vid=a35e0d3b-7b45-4544-b22a-dfb6ea3016e8"},"vehicle_type_id":"4","last_reported":1753297881,"current_range_meters":3200,"station_id":"","pricing_plan_id":"cebpf4jnsgd1na2vs0mg"},{"bike_id":"57de1077-7257-4452-b304-7322d650351b","system_id":"levelo_inurba_marseille","lat":43.28848,"lon":5.39321,"is_reserved":false,"is_disabled":false,"rental_uris":{"android":"levelo://app?vid=57de1077-7257-4452-b304-7322d650351b","ios":"levelo://app?vid=57de1077-7257-4452-b304-7322d650351b"},"vehicle_type_id":"4","last_reported":1753297881,"current_range_meters":3200,"station_id":"ce4bh2p2rcd13ifvqdi0","pricing_plan_id":"cebpf4jnsgd1na2vs0mg"},{"bike_id":"1f6462f0-2950-483a-a3cb-acdff81db423","system_id":"levelo_inurba_marseille","lat":43.29598,"lon":5.38112,"is_reserved":false,"is_disabled":false,"rental_uris":{"android":"levelo://app?vid=1f6462f0-2950-483a-a3cb-acdff81db423","ios":"levelo://app?vid=1f6462f0-2950-483a-a3cb-acdff81db423"},"vehicle_type_id":"4","last_reported":1753297881,"current_range_meters":3200,"station_id":"ce4bgl12rcd13ifvqbo0","pricing_plan_id":"cebpf4jnsgd1na2vs0mg"},{"bike_id":"1bc6a75b-756a-43ab-a152-d16aaf95b306","system_id":"levelo_inurba_marseille","lat":43.31363,"lon":5.38485,"is_reserved":false,"is_disabled":false,"rental_uris":{"android":"levelo://app?vid=1bc6a75b-756a-43ab-a152-d16aaf95b306","ios":"levelo://app?vid=1bc6a75b-756a-43ab-a152-d16aaf95b306"},"vehicle_type_id":"4","last_reported":1753297881,"current_range_meters":3600,"station_id":"ce4bgt92rcd13ifvqcf0","pricing_plan_id":"cebpf4jnsgd1na2vs0mg"},{"bike_id":"adafe844-fa4d-4d4d-b8cd-50fbdc007d79","system_id":"levelo_inurba_marseille","lat":43.31273,"lon":5.4016,"is_reserved":false,"is_disabled":false,"rental_uris":{"android":"levelo://app?vid=adafe844-fa4d-4d4d-b8cd-50fbdc007d79","ios":"levelo://app?vid=adafe844-fa4d-4d4d-b8cd-50fbdc007d79"},"vehicle_type_id":"4","last_reported":1753297881,"current_range_meters":4000,"station_id":"ce4bh092rcd13ifvqd30","pricing_plan_id":"cebpf4jnsgd1na2vs0mg"},{"bike_id":"385f3566-1b19-4988-b368-7217f69d8cd5","system_id":"levelo_inurba_marseille","lat":43.29852,"lon":5.36282,"is_reserved":false,"is_disabled":false,"rental_uris":{"android":"levelo://app?vid=385f3566-1b19-4988-b368-7217f69d8cd5","ios":"levelo://app?vid=385f3566-1b19-4988-b368-7217f69d8cd5"},"vehicle_type_id":"4","last_reported":1753297881,"current_range_meters":4400,"station_id":"ce4bgpp2rcd13ifvqc3g","pricing_plan_id":"cebpf4jnsgd1na2vs0mg"},{"bike_id":"37f104c7-9133-4b7b-bf51-a0955f0218ed","system_id":"levelo_inurba_marseille","lat":43.29897,"lon":5.43666,"is_reserved":false,"is_disabled":false,"rental_uris":{"android":"levelo://app?vid=37f104c7-9133-4b7b-bf51-a0955f0218ed","ios":"levelo://app?vid=37f104c7-9133-4b7b-bf51-a0955f0218ed"},"vehicle_type_id":"4","last_reported":1753297881,"current_range_meters":4400,"station_id":"ce4bhpp2rcd13ifvqhfg","pricing_plan_id":"cebpf4jnsgd1na2vs0mg"},{"bike_id":"71883e3a-ecc9-49e8-81d2-45700188f7a5","system_id":"levelo_inurba_marseille","lat":43.29583,"lon":5.36747,"is_reserved":false,"is_disabled":false,"rental_uris":{"android":"levelo://app?vid=71883e3a-ecc9-49e8-81d2-45700188f7a5","ios":"levelo://app?vid=71883e3a-ecc9-49e8-81d2-45700188f7a5"},"vehicle_type_id":"4","last_reported":1753297881,"current_range_meters":4400,"station_id":"ce4bgph2rcd13ifvqc2g","pricing_plan_id":"cebpf4jnsgd1na2vs0mg"},{"bike_id":"5cccb452-224d-486f-8f55-ab6f9fb0d289","system_id":"levelo_inurba_marseille","lat":43.30083,"lon":5.39731,"is_reserved":false,"is_disabled":false,"rental_uris":{"android":"levelo://app?vid=5cccb452-224d-486f-8f55-ab6f9fb0d289","ios":"levelo://app?vid=5cccb452-224d-486f-8f55-ab6f9fb0d289"},"vehicle_type_id":"4","last_reported":1753297881,"current_range_meters":4400,"station_id":"","pricing_plan_id":"cebpf4jnsgd1na2vs0mg"},{"bike_id":"5c62803b-11ff-48b0-b855-57425a178b2a","system_id":"levelo_inurba_marseille","lat":43.29623,"lon":5.37154,"is_reserved":false,"is_disabled":false,"rental_uris":{"android":"levelo://app?vid=5c62803b-11ff-48b0-b855-57425a178b2a","ios":"levelo://app?vid=5c62803b-11ff-48b0-b855-57425a178b2a"},"vehicle_type_id":"4","last_reported":1753297881,"current_range_meters":5600,"station_id":"ce4bgnh2rcd13ifvqc0g","pricing_plan_id":"cebpf4jnsgd1na2vs0mg"},{"bike_id":"499a5a94-30e5-42d2-b8e2-64fd38e1cc1a","system_id":"levelo_inurba_marseille","lat":43.29005,"lon":5.3561,"is_reserved":false,"is_disabled":false,"rental_uris":{"android":"levelo://app?vid=499a5a94-30e5-42d2-b8e2-64fd38e1cc1a","ios":"levelo://app?vid=499a5a94-30e5-42d2-b8e2-64fd38e1cc1a"},"vehicle_type_id":"4","last_reported":1753297881,"current_range_meters":5600,"station_id":"ce4bhb92rcd13ifvqen0","pricing_plan_id":"cebpf4jnsgd1na2vs0mg"},{"bike_id":"e1286f66-c7fa-47b8-ad70-1d84646dd67e","system_id":"levelo_inurba_marseille","lat":43.30737,"lon":5.42427,"is_reserved":false,"is_disabled":false,"rental_uris":{"android":"levelo://app?vid=e1286f66-c7fa-47b8-ad70-1d84646dd67e","ios":"levelo://app?vid=e1286f66-c7fa-47b8-ad70-1d84646dd67e"},"vehicle_type_id":"4","last_reported":1753297881,"current_range_meters":5600,"station_id":"st_cvj6ca6bvosntc0bfgr0","pricing_plan_id":"cebpf4jnsgd1na2vs0mg"},{"bike_id":"1bb66afc-f5c9-44ac-8f1d-f8e4eb76311c","system_id":"levelo_inurba_marseille","lat":43.2958,"lon":5.36746,"is_reserved":false,"is_disabled":false,"rental_uris":{"android":"levelo://app?vid=1bb66afc-f5c9-44ac-8f1d-f8e4eb76311c","ios":"levelo://app?vid=1bb66afc-f5c9-44ac-8f1d-f8e4eb76311c"},"vehicle_type_id":"4","last_reported":1753297881,"current_range_meters":5600,"station_id":"ce4bgph2rcd13ifvqc2g","pricing_plan_id":"cebpf4jnsgd1na2vs0mg"},{"bike_id":"3e672a12-a06c-421d-8d90-001874a4fd84","system_id":"levelo_inurba_marseille","lat":43.30205,"lon":5.39455,"is_reserved":false,"is_disabled":true,"rental_uris":{"android":"levelo://app?vid=3e672a12-a06c-421d-8d90-001874a4fd84","ios":"levelo://app?vid=3e672a12-a06c-421d-8d90-001874a4fd84"},"vehicle_type_id":"4","last_reported":1753297881,"current_range_meters":6000,"station_id":"ce4bh0p2rcd13ifvqd70","pricing_plan_id":"cebpf4jnsgd1na2vs0mg"},{"bike_id":"744807ea-2629-4ccd-a152-8ba7110b6897","system_id":"levelo_inurba_marseille","lat":43.295771,"lon":5.367438,"is_reserved":false,"is_disabled":false,"rental_uris":{"android":"levelo://app?vid=744807ea-2629-4ccd-a152-8ba7110b6897","ios":"levelo://app?vid=744807ea-2629-4ccd-a152-8ba7110b6897"},"vehicle_type_id":"4","last_reported":1753297881,"current_range_meters":6000,"station_id":"ce4bgph2rcd13ifvqc2g","pricing_plan_id":"cebpf4jnsgd1na2vs0mg"},{"bike_id":"8c3466f5-9e6b-42c6-8075-c37965fb4db6","system_id":"levelo_inurba_marseille","lat":43.29518,"lon":5.393901,"is_reserved":false,"is_disabled":true,"rental_uris":{"android":"levelo://app?vid=8c3466f5-9e6b-42c6-8075-c37965fb4db6","ios":"levelo://app?vid=8c3466f5-9e6b-42c6-8075-c37965fb4db6"},"vehicle_type_id":"4","last_reported":1753297881,"current_range_meters":6000,"station_id":"ce4bh292rcd13ifvqdf0","pricing_plan_id":"cebpf4jnsgd1na2vs0mg"},{"bike_id":"83766871-d64f-4fc8-9d3b-2ceaf03b1036","system_id":"levelo_inurba_marseille","lat":43.21191,"lon":5.3507,"is_reserved":false,"is_disabled":false,"rental_uris":{"android":"levelo://app?vid=83766871-d64f-4fc8-9d3b-2ceaf03b1036","ios":"levelo://app?vid=83766871-d64f-4fc8-9d3b-2ceaf03b1036"},"vehicle_type_id":"4","last_reported":1753297881,"current_range_meters":6000,"station_id":"st_cvj6sg6p6f1abm77japg","pricing_plan_id":"cebpf4jnsgd1na2vs0mg"},{"bike_id":"0ff5ec2e-2d4d-479b-81ef-f1508d8f3a97","system_id":"levelo_inurba_marseille","lat":43.30799,"lon":5.3764,"is_reserved":false,"is_disabled":false,"rental_uris":{"android":"levelo://app?vid=0ff5ec2e-2d4d-479b-81ef-f1508d8f3a97","ios":"levelo://app?vid=0ff5ec2e-2d4d-479b-81ef-f1508d8f3a97"},"vehicle_type_id":"4","last_reported":1753297881,"current_range_meters":6400,"station_id":"ce4bgv92rcd13ifvqcq0","pricing_plan_id":"cebpf4jnsgd1na2vs0mg"},{"bike_id":"094564e8-da99-4e3a-9ae7-495f909c52fb","system_id":"levelo_inurba_marseille","lat":43.274284,"lon":5.394083,"is_reserved":false,"is_disabled":false,"rental_uris":{"android":"levelo://app?vid=094564e8-da99-4e3a-9ae7-495f909c52fb","ios":"levelo://app?vid=094564e8-da99-4e3a-9ae7-495f909c52fb"},"vehicle_type_id":"4","last_reported":1753297881,"current_range_meters":3600,"station_id":"ce4bhdp2rcd13ifvqf20","pricing_plan_id":"cebpf4jnsgd1na2vs0mg"},{"bike_id":"fcabdbf7-b24d-4678-a872-85836ba406d2","system_id":"levelo_inurba_marseille","lat":43.29274,"lon":5.38441,"is_reserved":false,"is_disabled":false,"rental_uris":{"android":"levelo://app?vid=fcabdbf7-b24d-4678-a872-85836ba406d2","ios":"levelo://app?vid=fcabdbf7-b24d-4678-a872-85836ba406d2"},"vehicle_type_id":"4","last_reported":1753297881,"current_range_meters":6400,"station_id":"ce4bh692rcd13ifvqea0","pricing_plan_id":"cebpf4jnsgd1na2vs0mg"},{"bike_id":"13bff831-2cc5-482d-8db5-e2cd49eba06c","system_id":"levelo_inurba_marseille","lat":43.3234,"lon":5.40628,"is_reserved":false,"is_disabled":false,"rental_uris":{"android":"levelo://app?vid=13bff831-2cc5-482d-8db5-e2cd49eba06c","ios":"levelo://app?vid=13bff831-2cc5-482d-8db5-e2cd49eba06c"},"vehicle_type_id":"4","last_reported":1753297881,"current_range_meters":6800,"station_id":"ce4bhq92rcd13ifvqhjg","pricing_plan_id":"cebpf4jnsgd1na2vs0mg"},{"bike_id":"80fcadf5-6bdb-45dd-9061-216176a488c2","system_id":"levelo_inurba_marseille","lat":43.29935,"lon":5.36545,"is_reserved":false,"is_disabled":false,"rental_uris":{"android":"levelo://app?vid=80fcadf5-6bdb-45dd-9061-216176a488c2","ios":"levelo://app?vid=80fcadf5-6bdb-45dd-9061-216176a488c2"},"vehicle_type_id":"4","last_reported":1753297881,"current_range_meters":6800,"station_id":"ce4bgm92rcd13ifvqbr0","pricing_plan_id":"cebpf4jnsgd1na2vs0mg"},{"bike_id":"6664b110-6024-4d10-904c-70f0e732d65e","system_id":"levelo_inurba_marseille","lat":43.26206,"lon":5.37419,"is_reserved":false,"is_disabled":true,"rental_uris":{"android":"levelo://app?vid=6664b110-6024-4d10-904c-70f0e732d65e","ios":"levelo://app?vid=6664b110-6024-4d10-904c-70f0e732d65e"},"vehicle_type_id":"4","last_reported":1753297881,"current_range_meters":6800,"station_id":"ce4bhgp2rcd13ifvqfc0","pricing_plan_id":"cebpf4jnsgd1na2vs0mg"},{"bike_id":"e09c7a24-0d1f-4a6c-9e83-0c5a75ec3ecb","system_id":"levelo_inurba_marseille","lat":43.298496,"lon":5.362853,"is_reserved":false,"is_disabled":false,"rental_uris":{"android":"levelo://app?vid=e09c7a24-0d1f-4a6c-9e83-0c5a75ec3ecb","ios":"levelo://app?vid=e09c7a24-0d1f-4a6c-9e83-0c5a75ec3ecb"},"vehicle_type_id":"4","last_reported":1753297881,"current_range_meters":6800,"station_id":"ce4bgpp2rcd13ifvqc3g","pricing_plan_id":"cebpf4jnsgd1na2vs0mg"},{"bike_id":"cc90d8b1-c5a5-4868-b902-1a8ca8c3d09b","system_id":"levelo_inurba_marseille","lat":43.29585,"lon":5.36761,"is_reserved":false,"is_disabled":false,"rental_uris":{"android":"levelo://app?vid=cc90d8b1-c5a5-4868-b902-1a8ca8c3d09b","ios":"levelo://app?vid=cc90d8b1-c5a5-4868-b902-1a8ca8c3d09b"},"vehicle_type_id":"4","last_reported":1753297881,"current_range_meters":6800,"station_id":"ce4bgph2rcd13ifvqc2g","pricing_plan_id":"cebpf4jnsgd1na2vs0mg"},{"bike_id":"ec0adf83-6184-4d63-a8bd-8a4c46331101","system_id":"levelo_inurba_marseille","lat":43.2606,"lon":5.39388,"is_reserved":false,"is_disabled":true,"rental_uris":{"android":"levelo://app?vid=ec0adf83-6184-4d63-a8bd-8a4c46331101","ios":"levelo://app?vid=ec0adf83-6184-4d63-a8bd-8a4c46331101"},"vehicle_type_id":"4","last_reported":1753297881,"current_range_meters":6800,"station_id":"ce4bhh92rcd13ifvqfj0","pricing_plan_id":"cebpf4jnsgd1na2vs0mg"},{"bike_id":"98926446-80c4-4528-8755-3648798c1d08","system_id":"levelo_inurba_marseille","lat":43.295868,"lon":5.367464,"is_reserved":false,"is_disabled":false,"rental_uris":{"android":"levelo://app?vid=98926446-80c4-4528-8755-3648798c1d08","ios":"levelo://app?vid=98926446-80c4-4528-8755-3648798c1d08"},"vehicle_type_id":"4","last_reported":1753297881,"current_range_meters":6800,"station_id":"ce4bgph2rcd13ifvqc2g","pricing_plan_id":"cebpf4jnsgd1na2vs0mg"},{"bike_id":"7b9f249c-a7e9-487e-b653-d13625c73dbd","system_id":"levelo_inurba_marseille","lat":43.29266,"lon":5.38431,"is_reserved":false,"is_disabled":false,"rental_uris":{"android":"levelo://app?vid=7b9f249c-a7e9-487e-b653-d13625c73dbd","ios":"levelo://app?vid=7b9f249c-a7e9-487e-b653-d13625c73dbd"},"vehicle_type_id":"4","last_reported":1753297881,"current_range_meters":7200,"station_id":"ce4bh692rcd13ifvqea0","pricing_plan_id":"cebpf4jnsgd1na2vs0mg"},{"bike_id":"e00b235d-6d2b-428d-8744-2c6f39a8a269","system_id":"levelo_inurba_marseille","lat":43.28614,"lon":5.35105,"is_reserved":false,"is_disabled":false,"rental_uris":{"android":"levelo://app?vid=e00b235d-6d2b-428d-8744-2c6f39a8a269","ios":"levelo://app?vid=e00b235d-6d2b-428d-8744-2c6f39a8a269"},"vehicle_type_id":"4","last_reported":1753297881,"current_range_meters":7200,"station_id":"ce4bhch2rcd13ifvqeug","pricing_plan_id":"cebpf4jnsgd1na2vs0mg"},{"bike_id":"81f48beb-cba8-4a10-929a-d7834448108c","system_id":"levelo_inurba_marseille","lat":43.332517,"lon":5.399097,"is_reserved":false,"is_disabled":false,"rental_uris":{"android":"levelo://app?vid=81f48beb-cba8-4a10-929a-d7834448108c","ios":"levelo://app?vid=81f48beb-cba8-4a10-929a-d7834448108c"},"vehicle_type_id":"4","last_reported":1753297881,"current_range_meters":7200,"station_id":"","pricing_plan_id":"cebpf4jnsgd1na2vs0mg"},{"bike_id":"b48c7fa6-9ba7-43cc-99eb-0cc0c519a16b","system_id":"levelo_inurba_marseille","lat":43.29582,"lon":5.36746,"is_reserved":false,"is_disabled":false,"rental_uris":{"android":"levelo://app?vid=b48c7fa6-9ba7-43cc-99eb-0cc0c519a16b","ios":"levelo://app?vid=b48c7fa6-9ba7-43cc-99eb-0cc0c519a16b"},"vehicle_type_id":"4","last_reported":1753297881,"current_range_meters":7200,"station_id":"ce4bgph2rcd13ifvqc2g","pricing_plan_id":"cebpf4jnsgd1na2vs0mg"},{"bike_id":"b7a5e0e0-ddec-4788-9c11-36971fec7a5d","system_id":"levelo_inurba_marseille","lat":43.29592,"lon":5.36747,"is_reserved":false,"is_disabled":false,"rental_uris":{"android":"levelo://app?vid=b7a5e0e0-ddec-4788-9c11-36971fec7a5d","ios":"levelo://app?vid=b7a5e0e0-ddec-4788-9c11-36971fec7a5d"},"vehicle_type_id":"4","last_reported":1753297881,"current_range_meters":8000,"station_id":"ce4bgph2rcd13ifvqc2g","pricing_plan_id":"cebpf4jnsgd1na2vs0mg"},{"bike_id":"d07f0755-aca6-4050-807e-9c5aaf0dd619","system_id":"levelo_inurba_marseille","lat":43.296823,"lon":5.372723,"is_reserved":false,"is_disabled":true,"rental_uris":{"android":"levelo://app?vid=d07f0755-aca6-4050-807e-9c5aaf0dd619","ios":"levelo://app?vid=d07f0755-aca6-4050-807e-9c5aaf0dd619"},"vehicle_type_id":"4","last_reported":1753297881,"current_range_meters":8000,"station_id":"ce4bgk12rcd13ifvqbj0","pricing_plan_id":"cebpf4jnsgd1na2vs0mg"},{"bike_id":"58694015-16d0-48b2-b43d-dabb7c04f577","system_id":"levelo_inurba_marseille","lat":43.29434,"lon":5.43282,"is_reserved":false,"is_disabled":false,"rental_uris":{"android":"levelo://app?vid=58694015-16d0-48b2-b43d-dabb7c04f577","ios":"levelo://app?vid=58694015-16d0-48b2-b43d-dabb7c04f577"},"vehicle_type_id":"4","last_reported":1753297881,"current_range_meters":8000,"station_id":"","pricing_plan_id":"cebpf4jnsgd1na2vs0mg"},{"bike_id":"9ae7d50c-a3ea-4136-8080-315c191e000a","system_id":"levelo_inurba_marseille","lat":43.28753,"lon":5.38418,"is_reserved":false,"is_disabled":false,"rental_uris":{"android":"levelo://app?vid=9ae7d50c-a3ea-4136-8080-315c191e000a","ios":"levelo://app?vid=9ae7d50c-a3ea-4136-8080-315c191e000a"},"vehicle_type_id":"4","last_reported":1753297881,"current_range_meters":8000,"station_id":"","pricing_plan_id":"cebpf4jnsgd1na2vs0mg"},{"bike_id":"85859896-15e1-41fe-86f4-39909d598a85","system_id":"levelo_inurba_marseille","lat":43.29602,"lon":5.3674,"is_reserved":false,"is_disabled":false,"rental_uris":{"android":"levelo://app?vid=85859896-15e1-41fe-86f4-39909d598a85","ios":"levelo://app?vid=85859896-15e1-41fe-86f4-39909d598a85"},"vehicle_type_id":"4","last_reported":1753297881,"current_range_meters":8000,"station_id":"ce4bgph2rcd13ifvqc2g","pricing_plan_id":"cebpf4jnsgd1na2vs0mg"},{"bike_id":"14b3e6a4-1293-42e4-9c9e-0d83e4fa63a4","system_id":"levelo_inurba_marseille","lat":43.28419,"lon":5.34977,"is_reserved":false,"is_disabled":false,"rental_uris":{"android":"levelo://app?vid=14b3e6a4-1293-42e4-9c9e-0d83e4fa63a4","ios":"levelo://app?vid=14b3e6a4-1293-42e4-9c9e-0d83e4fa63a4"},"vehicle_type_id":"4","last_reported":1753297881,"current_range_meters":8000,"station_id":"ce4bhbh2rcd13ifvqepg","pricing_plan_id":"cebpf4jnsgd1na2vs0mg"},{"bike_id":"24174566-09fc-40e5-b0a6-7352cec24e58","system_id":"levelo_inurba_marseille","lat":43.24387,"lon":5.37063,"is_reserved":false,"is_disabled":false,"rental_uris":{"android":"levelo://app?vid=24174566-09fc-40e5-b0a6-7352cec24e58","ios":"levelo://app?vid=24174566-09fc-40e5-b0a6-7352cec24e58"},"vehicle_type_id":"4","last_reported":1753297881,"current_range_meters":6800,"station_id":"ce4bhhh2rcd13ifvqfk0","pricing_plan_id":"cebpf4jnsgd1na2vs0mg"},{"bike_id":"3c9678bd-8534-4cad-9adf-0a76d5e5d5cd","system_id":"levelo_inurba_marseille","lat":43.31786,"lon":5.39009,"is_reserved":false,"is_disabled":false,"rental_uris":{"android":"levelo://app?vid=3c9678bd-8534-4cad-9adf-0a76d5e5d5cd","ios":"levelo://app?vid=3c9678bd-8534-4cad-9adf-0a76d5e5d5cd"},"vehicle_type_id":"4","last_reported":1753297881,"current_range_meters":8400,"station_id":"ce4bhqp2rcd13ifvqhng","pricing_plan_id":"cebpf4jnsgd1na2vs0mg"},{"bike_id":"d5394a61-49cc-41c9-8237-db65aa5cf827","system_id":"levelo_inurba_marseille","lat":43.29265,"lon":5.38454,"is_reserved":false,"is_disabled":false,"rental_uris":{"android":"levelo://app?vid=d5394a61-49cc-41c9-8237-db65aa5cf827","ios":"levelo://app?vid=d5394a61-49cc-41c9-8237-db65aa5cf827"},"vehicle_type_id":"4","last_reported":1753297881,"current_range_meters":8400,"station_id":"ce4bh692rcd13ifvqea0","pricing_plan_id":"cebpf4jnsgd1na2vs0mg"},{"bike_id":"7634156a-368b-429c-9ace-14ee2370e3ab","system_id":"levelo_inurba_marseille","lat":43.29269,"lon":5.38431,"is_reserved":false,"is_disabled":false,"rental_uris":{"android":"levelo://app?vid=7634156a-368b-429c-9ace-14ee2370e3ab","ios":"levelo://app?vid=7634156a-368b-429c-9ace-14ee2370e3ab"},"vehicle_type_id":"4","last_reported":1753297881,"current_range_meters":8400,"station_id":"ce4bh692rcd13ifvqea0","pricing_plan_id":"cebpf4jnsgd1na2vs0mg"},{"bike_id":"dfae5232-62e9-4906-85be-a48d568d0d05","system_id":"levelo_inurba_marseille","lat":43.29581,"lon":5.36744,"is_reserved":false,"is_disabled":false,"rental_uris":{"android":"levelo://app?vid=dfae5232-62e9-4906-85be-a48d568d0d05","ios":"levelo://app?vid=dfae5232-62e9-4906-85be-a48d568d0d05"},"vehicle_type_id":"4","last_reported":1753297881,"current_range_meters":8400,"station_id":"ce4bgph2rcd13ifvqc2g","pricing_plan_id":"cebpf4jnsgd1na2vs0mg"},{"bike_id":"1d246afa-cfe3-4ec6-a489-029b69c09fd4","system_id":"levelo_inurba_marseille","lat":43.292755,"lon":5.384339,"is_reserved":false,"is_disabled":false,"rental_uris":{"android":"levelo://app?vid=1d246afa-cfe3-4ec6-a489-029b69c09fd4","ios":"levelo://app?vid=1d246afa-cfe3-4ec6-a489-029b69c09fd4"},"vehicle_type_id":"4","last_reported":1753297881,"current_range_meters":8400,"station_id":"","pricing_plan_id":"cebpf4jnsgd1na2vs0mg"},{"bike_id":"e8edd34f-dbef-48b9-a140-a809abb33f78","system_id":"levelo_inurba_marseille","lat":43.298502,"lon":5.362879,"is_reserved":false,"is_disabled":false,"rental_uris":{"android":"levelo://app?vid=e8edd34f-dbef-48b9-a140-a809abb33f78","ios":"levelo://app?vid=e8edd34f-dbef-48b9-a140-a809abb33f78"},"vehicle_type_id":"4","last_reported":1753297881,"current_range_meters":8400,"station_id":"ce4bgpp2rcd13ifvqc3g","pricing_plan_id":"cebpf4jnsgd1na2vs0mg"},{"bike_id":"a5f1f0d6-c678-45f4-9b29-96eaa29a3e36","system_id":"levelo_inurba_marseille","lat":43.25136,"lon":5.37346,"is_reserved":false,"is_disabled":true,"rental_uris":{"android":"levelo://app?vid=a5f1f0d6-c678-45f4-9b29-96eaa29a3e36","ios":"levelo://app?vid=a5f1f0d6-c678-45f4-9b29-96eaa29a3e36"},"vehicle_type_id":"4","last_reported":1753297881,"current_range_meters":8400,"station_id":"","pricing_plan_id":"cebpf4jnsgd1na2vs0mg"},{"bike_id":"e379e75e-c201-4faa-be53-629927e82b1a","system_id":"levelo_inurba_marseille","lat":43.29709,"lon":5.36608,"is_reserved":false,"is_disabled":false,"rental_uris":{"android":"levelo://app?vid=e379e75e-c201-4faa-be53-629927e82b1a","ios":"levelo://app?vid=e379e75e-c201-4faa-be53-629927e82b1a"},"vehicle_type_id":"4","last_reported":1753297881,"current_range_meters":8800,"station_id":"ce4bgn12rcd13ifvqbt0","pricing_plan_id":"cebpf4jnsgd1na2vs0mg"},{"bike_id":"dc0fb100-c456-49d4-ad55-34b48d41d087","system_id":"levelo_inurba_marseille","lat":43.29581,"lon":5.36747,"is_reserved":false,"is_disabled":false,"rental_uris":{"android":"levelo://app?vid=dc0fb100-c456-49d4-ad55-34b48d41d087","ios":"levelo://app?vid=dc0fb100-c456-49d4-ad55-34b48d41d087"},"vehicle_type_id":"4","last_reported":1753297881,"current_range_meters":8800,"station_id":"ce4bgph2rcd13ifvqc2g","pricing_plan_id":"cebpf4jnsgd1na2vs0mg"},{"bike_id":"120c5a4e-be47-4a14-9914-a417224c2dc1","system_id":"levelo_inurba_marseille","lat":43.30819,"lon":5.38133,"is_reserved":false,"is_disabled":true,"rental_uris":{"android":"levelo://app?vid=120c5a4e-be47-4a14-9914-a417224c2dc1","ios":"levelo://app?vid=120c5a4e-be47-4a14-9914-a417224c2dc1"},"vehicle_type_id":"4","last_reported":1753297881,"current_range_meters":8800,"station_id":"ce4bgt12rcd13ifvqce0","pricing_plan_id":"cebpf4jnsgd1na2vs0mg"},{"bike_id":"5b988cf6-fca8-4987-a8b7-204156ac3d27","system_id":"levelo_inurba_marseille","lat":43.29845,"lon":5.36273,"is_reserved":false,"is_disabled":false,"rental_uris":{"android":"levelo://app?vid=5b988cf6-fca8-4987-a8b7-204156ac3d27","ios":"levelo://app?vid=5b988cf6-fca8-4987-a8b7-204156ac3d27"},"vehicle_type_id":"4","last_reported":1753297881,"current_range_meters":8800,"station_id":"ce4bgpp2rcd13ifvqc3g","pricing_plan_id":"cebpf4jnsgd1na2vs0mg"},{"bike_id":"ef52f3dc-0950-4186-a067-bf2d31928734","system_id":"levelo_inurba_marseille","lat":43.29587,"lon":5.36737,"is_reserved":false,"is_disabled":false,"rental_uris":{"android":"levelo://app?vid=ef52f3dc-0950-4186-a067-bf2d31928734","ios":"levelo://app?vid=ef52f3dc-0950-4186-a067-bf2d31928734"},"vehicle_type_id":"4","last_reported":1753297881,"current_range_meters":8800,"station_id":"ce4bgph2rcd13ifvqc2g","pricing_plan_id":"cebpf4jnsgd1na2vs0mg"},{"bike_id":"eafda6b8-4881-413b-a3b1-4c5eb50c7fa4","system_id":"levelo_inurba_marseille","lat":43.29708,"lon":5.36613,"is_reserved":false,"is_disabled":false,"rental_uris":{"android":"levelo://app?vid=eafda6b8-4881-413b-a3b1-4c5eb50c7fa4","ios":"levelo://app?vid=eafda6b8-4881-413b-a3b1-4c5eb50c7fa4"},"vehicle_type_id":"4","last_reported":1753297881,"current_range_meters":8800,"station_id":"ce4bgn12rcd13ifvqbt0","pricing_plan_id":"cebpf4jnsgd1na2vs0mg"},{"bike_id":"2a7dd72f-bdf3-4547-90e6-34b8049722b6","system_id":"levelo_inurba_marseille","lat":43.22491,"lon":5.34762,"is_reserved":false,"is_disabled":false,"rental_uris":{"android":"levelo://app?vid=2a7dd72f-bdf3-4547-90e6-34b8049722b6","ios":"levelo://app?vid=2a7dd72f-bdf3-4547-90e6-34b8049722b6"},"vehicle_type_id":"4","last_reported":1753297881,"current_range_meters":8800,"station_id":"st_cvj5dfep6f1abm77gieg","pricing_plan_id":"cebpf4jnsgd1na2vs0mg"},{"bike_id":"50cad463-981e-46d6-9efe-edddb2ecd361","system_id":"levelo_inurba_marseille","lat":43.28612,"lon":5.37059,"is_reserved":false,"is_disabled":false,"rental_uris":{"android":"levelo://app?vid=50cad463-981e-46d6-9efe-edddb2ecd361","ios":"levelo://app?vid=50cad463-981e-46d6-9efe-edddb2ecd361"},"vehicle_type_id":"4","last_reported":1753297881,"current_range_meters":8800,"station_id":"ce4bht12rcd13ifvqi60","pricing_plan_id":"cebpf4jnsgd1na2vs0mg"},{"bike_id":"1a3969a8-c746-465d-be93-17d09385409b","system_id":"levelo_inurba_marseille","lat":43.25502,"lon":5.37645,"is_reserved":false,"is_disabled":false,"rental_uris":{"android":"levelo://app?vid=1a3969a8-c746-465d-be93-17d09385409b","ios":"levelo://app?vid=1a3969a8-c746-465d-be93-17d09385409b"},"vehicle_type_id":"4","last_reported":1753297881,"current_range_meters":9200,"station_id":"ce4bhh12rcd13ifvqff0","pricing_plan_id":"cebpf4jnsgd1na2vs0mg"},{"bike_id":"e4761578-ae86-4dfa-b146-0428e5d8cca7","system_id":"levelo_inurba_marseille","lat":43.24151,"lon":5.36422,"is_reserved":false,"is_disabled":true,"rental_uris":{"android":"levelo://app?vid=e4761578-ae86-4dfa-b146-0428e5d8cca7","ios":"levelo://app?vid=e4761578-ae86-4dfa-b146-0428e5d8cca7"},"vehicle_type_id":"4","last_reported":1753297881,"current_range_meters":9200,"station_id":"cpo36qri1sfpv3e86is0","pricing_plan_id":"cebpf4jnsgd1na2vs0mg"},{"bike_id":"a967a0ab-266c-4dce-ada7-6f76e1d5f184","system_id":"levelo_inurba_marseille","lat":43.29586,"lon":5.36754,"is_reserved":false,"is_disabled":false,"rental_uris":{"android":"levelo://app?vid=a967a0ab-266c-4dce-ada7-6f76e1d5f184","ios":"levelo://app?vid=a967a0ab-266c-4dce-ada7-6f76e1d5f184"},"vehicle_type_id":"4","last_reported":1753297881,"current_range_meters":9200,"station_id":"ce4bgph2rcd13ifvqc2g","pricing_plan_id":"cebpf4jnsgd1na2vs0mg"},{"bike_id":"b09e7101-c540-4a64-a61c-688486a3c493","system_id":"levelo_inurba_marseille","lat":43.25107,"lon":5.40327,"is_reserved":false,"is_disabled":false,"rental_uris":{"android":"levelo://app?vid=b09e7101-c540-4a64-a61c-688486a3c493","ios":"levelo://app?vid=b09e7101-c540-4a64-a61c-688486a3c493"},"vehicle_type_id":"4","last_reported":1753297881,"current_range_meters":9200,"station_id":"ce4bhlh2rcd13ifvqgig","pricing_plan_id":"cebpf4jnsgd1na2vs0mg"},{"bike_id":"c9dbd36b-479c-4a5c-b200-3aa7673340d9","system_id":"levelo_inurba_marseille","lat":43.241448,"lon":5.363743,"is_reserved":false,"is_disabled":true,"rental_uris":{"android":"levelo://app?vid=c9dbd36b-479c-4a5c-b200-3aa7673340d9","ios":"levelo://app?vid=c9dbd36b-479c-4a5c-b200-3aa7673340d9"},"vehicle_type_id":"4","last_reported":1753297881,"current_range_meters":9200,"station_id":"","pricing_plan_id":"cebpf4jnsgd1na2vs0mg"},{"bike_id":"2fd78a60-17b4-4aef-a20b-79df8ef4542e","system_id":"levelo_inurba_marseille","lat":43.30408,"lon":5.41282,"is_reserved":false,"is_disabled":false,"rental_uris":{"android":"levelo://app?vid=2fd78a60-17b4-4aef-a20b-79df8ef4542e","ios":"levelo://app?vid=2fd78a60-17b4-4aef-a20b-79df8ef4542e"},"vehicle_type_id":"4","last_reported":1753297881,"current_range_meters":9200,"station_id":"ce4bhop2rcd13ifvqh8g","pricing_plan_id":"cebpf4jnsgd1na2vs0mg"},{"bike_id":"3c21b9e1-b296-4844-a6d5-b8d19c7f36c9","system_id":"levelo_inurba_marseille","lat":43.29155,"lon":5.384,"is_reserved":false,"is_disabled":false,"rental_uris":{"android":"levelo://app?vid=3c21b9e1-b296-4844-a6d5-b8d19c7f36c9","ios":"levelo://app?vid=3c21b9e1-b296-4844-a6d5-b8d19c7f36c9"},"vehicle_type_id":"4","last_reported":1753297881,"current_range_meters":9200,"station_id":"","pricing_plan_id":"cebpf4jnsgd1na2vs0mg"},{"bike_id":"a7abbd16-7464-47d6-bce3-b9d619de3c6f","system_id":"levelo_inurba_marseille","lat":43.29616,"lon":5.37091,"is_reserved":false,"is_disabled":false,"rental_uris":{"android":"levelo://app?vid=a7abbd16-7464-47d6-bce3-b9d619de3c6f","ios":"levelo://app?vid=a7abbd16-7464-47d6-bce3-b9d619de3c6f"},"vehicle_type_id":"4","last_reported":1753297881,"current_range_meters":13600,"station_id":"","pricing_plan_id":"cebpf4jnsgd1na2vs0mg"},{"bike_id":"4fa3ba88-b81c-47db-93f7-635c1b652bf0","system_id":"levelo_inurba_marseille","lat":43.29568,"lon":5.36764,"is_reserved":false,"is_disabled":false,"rental_uris":{"android":"levelo://app?vid=4fa3ba88-b81c-47db-93f7-635c1b652bf0","ios":"levelo://app?vid=4fa3ba88-b81c-47db-93f7-635c1b652bf0"},"vehicle_type_id":"4","last_reported":1753297881,"current_range_meters":9200,"station_id":"ce4bgph2rcd13ifvqc2g","pricing_plan_id":"cebpf4jnsgd1na2vs0mg"},{"bike_id":"7a1ef1c2-c058-45b6-b788-86d261e4f088","system_id":"levelo_inurba_marseille","lat":43.291956,"lon":5.393143,"is_reserved":false,"is_disabled":true,"rental_uris":{"android":"levelo://app?vid=7a1ef1c2-c058-45b6-b788-86d261e4f088","ios":"levelo://app?vid=7a1ef1c2-c058-45b6-b788-86d261e4f088"},"vehicle_type_id":"4","last_reported":1753297881,"current_range_meters":9200,"station_id":"ce4bh192rcd13ifvqdd0","pricing_plan_id":"cebpf4jnsgd1na2vs0mg"},{"bike_id":"aa5097b6-6968-4aec-b711-e7780938924b","system_id":"levelo_inurba_marseille","lat":43.329561,"lon":5.35895,"is_reserved":false,"is_disabled":false,"rental_uris":{"android":"levelo://app?vid=aa5097b6-6968-4aec-b711-e7780938924b","ios":"levelo://app?vid=aa5097b6-6968-4aec-b711-e7780938924b"},"vehicle_type_id":"4","last_reported":1753297881,"current_range_meters":9200,"station_id":"","pricing_plan_id":"cebpf4jnsgd1na2vs0mg"},{"bike_id":"fe641ed7-7286-44c0-882a-9d3f5aacf7f9","system_id":"levelo_inurba_marseille","lat":43.29963,"lon":5.38495,"is_reserved":false,"is_disabled":false,"rental_uris":{"android":"levelo://app?vid=fe641ed7-7286-44c0-882a-9d3f5aacf7f9","ios":"levelo://app?vid=fe641ed7-7286-44c0-882a-9d3f5aacf7f9"},"vehicle_type_id":"4","last_reported":1753297881,"current_range_meters":9600,"station_id":"ce4bgj92rcd13ifvqbd0","pricing_plan_id":"cebpf4jnsgd1na2vs0mg"},{"bike_id":"5584f004-a932-4bd5-8ad7-b43d2eea8e5c","system_id":"levelo_inurba_marseille","lat":43.29579,"lon":5.36748,"is_reserved":false,"is_disabled":false,"rental_uris":{"android":"levelo://app?vid=5584f004-a932-4bd5-8ad7-b43d2eea8e5c","ios":"levelo://app?vid=5584f004-a932-4bd5-8ad7-b43d2eea8e5c"},"vehicle_type_id":"4","last_reported":1753297881,"current_range_meters":9600,"station_id":"ce4bgph2rcd13ifvqc2g","pricing_plan_id":"cebpf4jnsgd1na2vs0mg"},{"bike_id":"baca8154-7e82-4bd8-a0cb-6a4d79f767f0","system_id":"levelo_inurba_marseille","lat":43.29058,"lon":5.3717,"is_reserved":false,"is_disabled":false,"rental_uris":{"android":"levelo://app?vid=baca8154-7e82-4bd8-a0cb-6a4d79f767f0","ios":"levelo://app?vid=baca8154-7e82-4bd8-a0cb-6a4d79f767f0"},"vehicle_type_id":"4","last_reported":1753297881,"current_range_meters":9600,"station_id":"ce4bgh92rcd13ifvqb40","pricing_plan_id":"cebpf4jnsgd1na2vs0mg"},{"bike_id":"265012ac-1301-4b91-8401-42847d4fcdb9","system_id":"levelo_inurba_marseille","lat":43.29597,"lon":5.3674,"is_reserved":false,"is_disabled":false,"rental_uris":{"android":"levelo://app?vid=265012ac-1301-4b91-8401-42847d4fcdb9","ios":"levelo://app?vid=265012ac-1301-4b91-8401-42847d4fcdb9"},"vehicle_type_id":"4","last_reported":1753297881,"current_range_meters":9600,"station_id":"ce4bgph2rcd13ifvqc2g","pricing_plan_id":"cebpf4jnsgd1na2vs0mg"},{"bike_id":"c14d0563-25d1-46ee-8153-eba7ff8256fc","system_id":"levelo_inurba_marseille","lat":43.29943,"lon":5.36541,"is_reserved":false,"is_disabled":false,"rental_uris":{"android":"levelo://app?vid=c14d0563-25d1-46ee-8153-eba7ff8256fc","ios":"levelo://app?vid=c14d0563-25d1-46ee-8153-eba7ff8256fc"},"vehicle_type_id":"4","last_reported":1753297881,"current_range_meters":9600,"station_id":"ce4bgm92rcd13ifvqbr0","pricing_plan_id":"cebpf4jnsgd1na2vs0mg"},{"bike_id":"2da13ae6-8774-42be-8b44-4fc9f0fe9aac","system_id":"levelo_inurba_marseille","lat":43.30743,"lon":5.42456,"is_reserved":false,"is_disabled":false,"rental_uris":{"android":"levelo://app?vid=2da13ae6-8774-42be-8b44-4fc9f0fe9aac","ios":"levelo://app?vid=2da13ae6-8774-42be-8b44-4fc9f0fe9aac"},"vehicle_type_id":"4","last_reported":1753297881,"current_range_meters":10000,"station_id":"st_cvj6ca6bvosntc0bfgr0","pricing_plan_id":"cebpf4jnsgd1na2vs0mg"},{"bike_id":"9ed76ab7-815b-4fb8-a57f-76527b5432a9","system_id":"levelo_inurba_marseille","lat":43.29858,"lon":5.36284,"is_reserved":false,"is_disabled":false,"rental_uris":{"android":"levelo://app?vid=9ed76ab7-815b-4fb8-a57f-76527b5432a9","ios":"levelo://app?vid=9ed76ab7-815b-4fb8-a57f-76527b5432a9"},"vehicle_type_id":"4","last_reported":1753297881,"current_range_meters":10000,"station_id":"ce4bgpp2rcd13ifvqc3g","pricing_plan_id":"cebpf4jnsgd1na2vs0mg"},{"bike_id":"7b95d7dd-aa8b-4b8b-b0e4-9dd4719fc41d","system_id":"levelo_inurba_marseille","lat":43.29937,"lon":5.365334,"is_reserved":false,"is_disabled":false,"rental_uris":{"android":"levelo://app?vid=7b95d7dd-aa8b-4b8b-b0e4-9dd4719fc41d","ios":"levelo://app?vid=7b95d7dd-aa8b-4b8b-b0e4-9dd4719fc41d"},"vehicle_type_id":"4","last_reported":1753297881,"current_range_meters":10000,"station_id":"ce4bgm92rcd13ifvqbr0","pricing_plan_id":"cebpf4jnsgd1na2vs0mg"},{"bike_id":"da053e6a-15f2-492e-8bc1-42b1d66cc329","system_id":"levelo_inurba_marseille","lat":43.28354,"lon":5.43256,"is_reserved":false,"is_disabled":false,"rental_uris":{"android":"levelo://app?vid=da053e6a-15f2-492e-8bc1-42b1d66cc329","ios":"levelo://app?vid=da053e6a-15f2-492e-8bc1-42b1d66cc329"},"vehicle_type_id":"4","last_reported":1753297881,"current_range_meters":10000,"station_id":"","pricing_plan_id":"cebpf4jnsgd1na2vs0mg"},{"bike_id":"4666e951-6b1c-4d9b-897e-512d4852818f","system_id":"levelo_inurba_marseille","lat":43.29438,"lon":5.39749,"is_reserved":false,"is_disabled":false,"rental_uris":{"android":"levelo://app?vid=4666e951-6b1c-4d9b-897e-512d4852818f","ios":"levelo://app?vid=4666e951-6b1c-4d9b-897e-512d4852818f"},"vehicle_type_id":"4","last_reported":1753297881,"current_range_meters":10000,"station_id":"ce4bh3h2rcd13ifvqdo0","pricing_plan_id":"cebpf4jnsgd1na2vs0mg"},{"bike_id":"422d4c10-d1b3-4cb3-a65e-b68a9d838966","system_id":"levelo_inurba_marseille","lat":43.29936,"lon":5.36531,"is_reserved":false,"is_disabled":false,"rental_uris":{"android":"levelo://app?vid=422d4c10-d1b3-4cb3-a65e-b68a9d838966","ios":"levelo://app?vid=422d4c10-d1b3-4cb3-a65e-b68a9d838966"},"vehicle_type_id":"4","last_reported":1753297881,"current_range_meters":10000,"station_id":"ce4bgm92rcd13ifvqbr0","pricing_plan_id":"cebpf4jnsgd1na2vs0mg"},{"bike_id":"71ff2a9f-da08-497a-a0e8-3245ecb3b60b","system_id":"levelo_inurba_marseille","lat":43.312453,"lon":5.368593,"is_reserved":false,"is_disabled":false,"rental_uris":{"android":"levelo://app?vid=71ff2a9f-da08-497a-a0e8-3245ecb3b60b","ios":"levelo://app?vid=71ff2a9f-da08-497a-a0e8-3245ecb3b60b"},"vehicle_type_id":"4","last_reported":1753297881,"current_range_meters":10000,"station_id":"ce4bgl92rcd13ifvqbq0","pricing_plan_id":"cebpf4jnsgd1na2vs0mg"},{"bike_id":"97f010fe-5e02-4a28-bcb3-2c90c9ddd00a","system_id":"levelo_inurba_marseille","lat":43.29712,"lon":5.36616,"is_reserved":false,"is_disabled":false,"rental_uris":{"android":"levelo://app?vid=97f010fe-5e02-4a28-bcb3-2c90c9ddd00a","ios":"levelo://app?vid=97f010fe-5e02-4a28-bcb3-2c90c9ddd00a"},"vehicle_type_id":"4","last_reported":1753297881,"current_range_meters":10000,"station_id":"ce4bgn12rcd13ifvqbt0","pricing_plan_id":"cebpf4jnsgd1na2vs0mg"},{"bike_id":"202d6a9f-4283-4e18-aea3-8df3433eac71","system_id":"levelo_inurba_marseille","lat":43.27497,"lon":5.42448,"is_reserved":false,"is_disabled":false,"rental_uris":{"android":"levelo://app?vid=202d6a9f-4283-4e18-aea3-8df3433eac71","ios":"levelo://app?vid=202d6a9f-4283-4e18-aea3-8df3433eac71"},"vehicle_type_id":"4","last_reported":1753297881,"current_range_meters":10000,"station_id":"ce4bhn92rcd13ifvqgrg","pricing_plan_id":"cebpf4jnsgd1na2vs0mg"},{"bike_id":"c3b4c842-89f1-49ff-abb9-fc4b30df4519","system_id":"levelo_inurba_marseille","lat":43.25591,"lon":5.38224,"is_reserved":false,"is_disabled":true,"rental_uris":{"android":"levelo://app?vid=c3b4c842-89f1-49ff-abb9-fc4b30df4519","ios":"levelo://app?vid=c3b4c842-89f1-49ff-abb9-fc4b30df4519"},"vehicle_type_id":"4","last_reported":1753297881,"current_range_meters":10800,"station_id":"ce4bhih2rcd13ifvqfs0","pricing_plan_id":"cebpf4jnsgd1na2vs0mg"},{"bike_id":"f20b4cc0-d1a1-4852-93b7-7fda4062e267","system_id":"levelo_inurba_marseille","lat":43.2986,"lon":5.36266,"is_reserved":false,"is_disabled":false,"rental_uris":{"android":"levelo://app?vid=f20b4cc0-d1a1-4852-93b7-7fda4062e267","ios":"levelo://app?vid=f20b4cc0-d1a1-4852-93b7-7fda4062e267"},"vehicle_type_id":"4","last_reported":1753297881,"current_range_meters":11200,"station_id":"ce4bgpp2rcd13ifvqc3g","pricing_plan_id":"cebpf4jnsgd1na2vs0mg"},{"bike_id":"77d276c4-073b-43d0-9c45-418693f1b7e0","system_id":"levelo_inurba_marseille","lat":43.299353,"lon":5.365495,"is_reserved":false,"is_disabled":false,"rental_uris":{"android":"levelo://app?vid=77d276c4-073b-43d0-9c45-418693f1b7e0","ios":"levelo://app?vid=77d276c4-073b-43d0-9c45-418693f1b7e0"},"vehicle_type_id":"4","last_reported":1753297881,"current_range_meters":11200,"station_id":"ce4bgm92rcd13ifvqbr0","pricing_plan_id":"cebpf4jnsgd1na2vs0mg"},{"bike_id":"a2167b42-5557-4a97-baf9-ceaa81af4e45","system_id":"levelo_inurba_marseille","lat":43.29619,"lon":5.37148,"is_reserved":false,"is_disabled":false,"rental_uris":{"android":"levelo://app?vid=a2167b42-5557-4a97-baf9-ceaa81af4e45","ios":"levelo://app?vid=a2167b42-5557-4a97-baf9-ceaa81af4e45"},"vehicle_type_id":"4","last_reported":1753297881,"current_range_meters":11200,"station_id":"ce4bgnh2rcd13ifvqc0g","pricing_plan_id":"cebpf4jnsgd1na2vs0mg"},{"bike_id":"a10dc0b7-234a-44c0-83ad-302a5078e141","system_id":"levelo_inurba_marseille","lat":43.29601,"lon":5.38094,"is_reserved":false,"is_disabled":false,"rental_uris":{"android":"levelo://app?vid=a10dc0b7-234a-44c0-83ad-302a5078e141","ios":"levelo://app?vid=a10dc0b7-234a-44c0-83ad-302a5078e141"},"vehicle_type_id":"4","last_reported":1753297881,"current_range_meters":11200,"station_id":"ce4bgl12rcd13ifvqbo0","pricing_plan_id":"cebpf4jnsgd1na2vs0mg"},{"bike_id":"e6c29dab-f364-466c-9e50-3364d4df321e","system_id":"levelo_inurba_marseille","lat":43.28073,"lon":5.39663,"is_reserved":false,"is_disabled":false,"rental_uris":{"android":"levelo://app?vid=e6c29dab-f364-466c-9e50-3364d4df321e","ios":"levelo://app?vid=e6c29dab-f364-466c-9e50-3364d4df321e"},"vehicle_type_id":"4","last_reported":1753297881,"current_range_meters":11600,"station_id":"ce4bho12rcd13ifvqh2g","pricing_plan_id":"cebpf4jnsgd1na2vs0mg"},{"bike_id":"1eedde4a-43b2-4c9b-84d6-924e0504f20f","system_id":"levelo_inurba_marseille","lat":43.29024,"lon":5.38635,"is_reserved":false,"is_disabled":false,"rental_uris":{"android":"levelo://app?vid=1eedde4a-43b2-4c9b-84d6-924e0504f20f","ios":"levelo://app?vid=1eedde4a-43b2-4c9b-84d6-924e0504f20f"},"vehicle_type_id":"4","last_reported":1753297881,"current_range_meters":11200,"station_id":"ce4bh4p2rcd13ifvqe0g","pricing_plan_id":"cebpf4jnsgd1na2vs0mg"},{"bike_id":"f9062784-0417-4840-bb15-81c56a64826f","system_id":"levelo_inurba_marseille","lat":43.22504,"lon":5.3478,"is_reserved":false,"is_disabled":false,"rental_uris":{"android":"levelo://app?vid=f9062784-0417-4840-bb15-81c56a64826f","ios":"levelo://app?vid=f9062784-0417-4840-bb15-81c56a64826f"},"vehicle_type_id":"4","last_reported":1753297881,"current_range_meters":11600,"station_id":"","pricing_plan_id":"cebpf4jnsgd1na2vs0mg"},{"bike_id":"c4ab8b6f-b9e7-4d47-91c0-82fcf9196b75","system_id":"levelo_inurba_marseille","lat":43.302459,"lon":5.400826,"is_reserved":false,"is_disabled":true,"rental_uris":{"android":"levelo://app?vid=c4ab8b6f-b9e7-4d47-91c0-82fcf9196b75","ios":"levelo://app?vid=c4ab8b6f-b9e7-4d47-91c0-82fcf9196b75"},"vehicle_type_id":"4","last_reported":1753297881,"current_range_meters":11600,"station_id":"ce4bgvh2rcd13ifvqcs0","pricing_plan_id":"cebpf4jnsgd1na2vs0mg"},{"bike_id":"5110c428-49c8-4321-80d3-645f9bfd8112","system_id":"levelo_inurba_marseille","lat":43.29585,"lon":5.36736,"is_reserved":false,"is_disabled":false,"rental_uris":{"android":"levelo://app?vid=5110c428-49c8-4321-80d3-645f9bfd8112","ios":"levelo://app?vid=5110c428-49c8-4321-80d3-645f9bfd8112"},"vehicle_type_id":"4","last_reported":1753297881,"current_range_meters":11600,"station_id":"ce4bgph2rcd13ifvqc2g","pricing_plan_id":"cebpf4jnsgd1na2vs0mg"},{"bike_id":"ef599691-d117-42fe-8851-5e0ec9b23ce6","system_id":"levelo_inurba_marseille","lat":43.3079,"lon":5.37636,"is_reserved":false,"is_disabled":false,"rental_uris":{"android":"levelo://app?vid=ef599691-d117-42fe-8851-5e0ec9b23ce6","ios":"levelo://app?vid=ef599691-d117-42fe-8851-5e0ec9b23ce6"},"vehicle_type_id":"4","last_reported":1753297881,"current_range_meters":11600,"station_id":"ce4bgv92rcd13ifvqcq0","pricing_plan_id":"cebpf4jnsgd1na2vs0mg"},{"bike_id":"f10e8950-e072-42a9-807b-c9a1b3a7b9b6","system_id":"levelo_inurba_marseille","lat":43.29722,"lon":5.36604,"is_reserved":false,"is_disabled":false,"rental_uris":{"android":"levelo://app?vid=f10e8950-e072-42a9-807b-c9a1b3a7b9b6","ios":"levelo://app?vid=f10e8950-e072-42a9-807b-c9a1b3a7b9b6"},"vehicle_type_id":"4","last_reported":1753297881,"current_range_meters":11600,"station_id":"ce4bgn12rcd13ifvqbt0","pricing_plan_id":"cebpf4jnsgd1na2vs0mg"},{"bike_id":"cc926983-7496-48df-9677-b8723ddc96b9","system_id":"levelo_inurba_marseille","lat":43.22952,"lon":5.353975,"is_reserved":false,"is_disabled":false,"rental_uris":{"android":"levelo://app?vid=cc926983-7496-48df-9677-b8723ddc96b9","ios":"levelo://app?vid=cc926983-7496-48df-9677-b8723ddc96b9"},"vehicle_type_id":"4","last_reported":1753297881,"current_range_meters":12000,"station_id":"cpo3532slgdg3j2ikp40","pricing_plan_id":"cebpf4jnsgd1na2vs0mg"},{"bike_id":"d8d96eac-8597-4b19-9d87-66881fe438d9","system_id":"levelo_inurba_marseille","lat":43.25566,"lon":5.38237,"is_reserved":false,"is_disabled":false,"rental_uris":{"android":"levelo://app?vid=d8d96eac-8597-4b19-9d87-66881fe438d9","ios":"levelo://app?vid=d8d96eac-8597-4b19-9d87-66881fe438d9"},"vehicle_type_id":"4","last_reported":1753297881,"current_range_meters":12000,"station_id":"ce4bhih2rcd13ifvqfs0","pricing_plan_id":"cebpf4jnsgd1na2vs0mg"},{"bike_id":"1ee21dfa-f397-4dcb-b5e7-e2ee28448dea","system_id":"levelo_inurba_marseille","lat":43.24996,"lon":5.3893,"is_reserved":false,"is_disabled":false,"rental_uris":{"android":"levelo://app?vid=1ee21dfa-f397-4dcb-b5e7-e2ee28448dea","ios":"levelo://app?vid=1ee21dfa-f397-4dcb-b5e7-e2ee28448dea"},"vehicle_type_id":"4","last_reported":1753297881,"current_range_meters":12000,"station_id":"ce4bhgp2rcd13ifvqfd0","pricing_plan_id":"cebpf4jnsgd1na2vs0mg"},{"bike_id":"6cd0dc95-e91c-44fb-82bf-14703f047428","system_id":"levelo_inurba_marseille","lat":43.26554,"lon":5.37284,"is_reserved":false,"is_disabled":false,"rental_uris":{"android":"levelo://app?vid=6cd0dc95-e91c-44fb-82bf-14703f047428","ios":"levelo://app?vid=6cd0dc95-e91c-44fb-82bf-14703f047428"},"vehicle_type_id":"4","last_reported":1753297881,"current_range_meters":12000,"station_id":"ce4bhg12rcd13ifvqf70","pricing_plan_id":"cebpf4jnsgd1na2vs0mg"},{"bike_id":"ae6ba4e7-f590-4a9a-b24f-4e0bec754168","system_id":"levelo_inurba_marseille","lat":43.32478,"lon":5.3656,"is_reserved":false,"is_disabled":false,"rental_uris":{"android":"levelo://app?vid=ae6ba4e7-f590-4a9a-b24f-4e0bec754168","ios":"levelo://app?vid=ae6ba4e7-f590-4a9a-b24f-4e0bec754168"},"vehicle_type_id":"4","last_reported":1753297881,"current_range_meters":12000,"station_id":"ce4bhs12rcd13ifvqhvg","pricing_plan_id":"cebpf4jnsgd1na2vs0mg"},{"bike_id":"5ea636b6-7db1-45f7-ab7b-2f73f0e49681","system_id":"levelo_inurba_marseille","lat":43.21213,"lon":5.35089,"is_reserved":false,"is_disabled":false,"rental_uris":{"android":"levelo://app?vid=5ea636b6-7db1-45f7-ab7b-2f73f0e49681","ios":"levelo://app?vid=5ea636b6-7db1-45f7-ab7b-2f73f0e49681"},"vehicle_type_id":"4","last_reported":1753297881,"current_range_meters":12000,"station_id":"st_cvj6sg6p6f1abm77japg","pricing_plan_id":"cebpf4jnsgd1na2vs0mg"},{"bike_id":"412bb96f-d36e-4b15-a835-e078ce9ebf00","system_id":"levelo_inurba_marseille","lat":43.28854,"lon":5.3932,"is_reserved":false,"is_disabled":false,"rental_uris":{"android":"levelo://app?vid=412bb96f-d36e-4b15-a835-e078ce9ebf00","ios":"levelo://app?vid=412bb96f-d36e-4b15-a835-e078ce9ebf00"},"vehicle_type_id":"4","last_reported":1753297881,"current_range_meters":12400,"station_id":"ce4bh2p2rcd13ifvqdi0","pricing_plan_id":"cebpf4jnsgd1na2vs0mg"},{"bike_id":"64e8d229-46e1-4146-baaf-1c6bd6e0fa50","system_id":"levelo_inurba_marseille","lat":43.29842,"lon":5.36266,"is_reserved":false,"is_disabled":false,"rental_uris":{"android":"levelo://app?vid=64e8d229-46e1-4146-baaf-1c6bd6e0fa50","ios":"levelo://app?vid=64e8d229-46e1-4146-baaf-1c6bd6e0fa50"},"vehicle_type_id":"4","last_reported":1753297881,"current_range_meters":12400,"station_id":"ce4bgpp2rcd13ifvqc3g","pricing_plan_id":"cebpf4jnsgd1na2vs0mg"},{"bike_id":"2c369b09-856a-461f-acef-8a5959d82f6c","system_id":"levelo_inurba_marseille","lat":43.29848,"lon":5.3628,"is_reserved":false,"is_disabled":false,"rental_uris":{"android":"levelo://app?vid=2c369b09-856a-461f-acef-8a5959d82f6c","ios":"levelo://app?vid=2c369b09-856a-461f-acef-8a5959d82f6c"},"vehicle_type_id":"4","last_reported":1753297881,"current_range_meters":12400,"station_id":"ce4bgpp2rcd13ifvqc3g","pricing_plan_id":"cebpf4jnsgd1na2vs0mg"},{"bike_id":"133e12b1-8190-4919-ad1b-6bc434c99259","system_id":"levelo_inurba_marseille","lat":43.29586,"lon":5.36736,"is_reserved":false,"is_disabled":false,"rental_uris":{"android":"levelo://app?vid=133e12b1-8190-4919-ad1b-6bc434c99259","ios":"levelo://app?vid=133e12b1-8190-4919-ad1b-6bc434c99259"},"vehicle_type_id":"4","last_reported":1753297881,"current_range_meters":12400,"station_id":"ce4bgph2rcd13ifvqc2g","pricing_plan_id":"cebpf4jnsgd1na2vs0mg"},{"bike_id":"6b8f8b24-6a29-4ea3-86c9-2a8a22cc757b","system_id":"levelo_inurba_marseille","lat":43.25583,"lon":5.382289,"is_reserved":false,"is_disabled":false,"rental_uris":{"android":"levelo://app?vid=6b8f8b24-6a29-4ea3-86c9-2a8a22cc757b","ios":"levelo://app?vid=6b8f8b24-6a29-4ea3-86c9-2a8a22cc757b"},"vehicle_type_id":"4","last_reported":1753297881,"current_range_meters":12400,"station_id":"ce4bhih2rcd13ifvqfs0","pricing_plan_id":"cebpf4jnsgd1na2vs0mg"},{"bike_id":"c4ee45a0-ac2e-41e9-a24a-f8417b73014f","system_id":"levelo_inurba_marseille","lat":43.30611,"lon":5.37217,"is_reserved":false,"is_disabled":false,"rental_uris":{"android":"levelo://app?vid=c4ee45a0-ac2e-41e9-a24a-f8417b73014f","ios":"levelo://app?vid=c4ee45a0-ac2e-41e9-a24a-f8417b73014f"},"vehicle_type_id":"4","last_reported":1753297881,"current_range_meters":12400,"station_id":"ce4bgqh2rcd13ifvqc4g","pricing_plan_id":"cebpf4jnsgd1na2vs0mg"},{"bike_id":"eb954183-4e28-47d1-a5c2-d40cd268372d","system_id":"levelo_inurba_marseille","lat":43.28834,"lon":5.35849,"is_reserved":false,"is_disabled":true,"rental_uris":{"android":"levelo://app?vid=eb954183-4e28-47d1-a5c2-d40cd268372d","ios":"levelo://app?vid=eb954183-4e28-47d1-a5c2-d40cd268372d"},"vehicle_type_id":"4","last_reported":1753297881,"current_range_meters":12400,"station_id":"ce4bhb12rcd13ifvqem0","pricing_plan_id":"cebpf4jnsgd1na2vs0mg"},{"bike_id":"9f3ed220-9e9e-4bc8-a5f6-aeb6066011ca","system_id":"levelo_inurba_marseille","lat":43.2621,"lon":5.37443,"is_reserved":false,"is_disabled":false,"rental_uris":{"android":"levelo://app?vid=9f3ed220-9e9e-4bc8-a5f6-aeb6066011ca","ios":"levelo://app?vid=9f3ed220-9e9e-4bc8-a5f6-aeb6066011ca"},"vehicle_type_id":"4","last_reported":1753297881,"current_range_meters":12400,"station_id":"ce4bhgp2rcd13ifvqfc0","pricing_plan_id":"cebpf4jnsgd1na2vs0mg"},{"bike_id":"6628d4e6-7699-4848-9c52-17cefd00d3c2","system_id":"levelo_inurba_marseille","lat":43.29699,"lon":5.36619,"is_reserved":false,"is_disabled":false,"rental_uris":{"android":"levelo://app?vid=6628d4e6-7699-4848-9c52-17cefd00d3c2","ios":"levelo://app?vid=6628d4e6-7699-4848-9c52-17cefd00d3c2"},"vehicle_type_id":"4","last_reported":1753297881,"current_range_meters":12800,"station_id":"ce4bgn12rcd13ifvqbt0","pricing_plan_id":"cebpf4jnsgd1na2vs0mg"},{"bike_id":"bbc2b271-396f-4875-9f1d-0fcc163d87b6","system_id":"levelo_inurba_marseille","lat":43.29066,"lon":5.39856,"is_reserved":false,"is_disabled":false,"rental_uris":{"android":"levelo://app?vid=bbc2b271-396f-4875-9f1d-0fcc163d87b6","ios":"levelo://app?vid=bbc2b271-396f-4875-9f1d-0fcc163d87b6"},"vehicle_type_id":"4","last_reported":1753297881,"current_range_meters":12800,"station_id":"","pricing_plan_id":"cebpf4jnsgd1na2vs0mg"},{"bike_id":"8aeb6c61-f5c3-4738-9680-41cc4aacbb8f","system_id":"levelo_inurba_marseille","lat":43.29581,"lon":5.36751,"is_reserved":false,"is_disabled":false,"rental_uris":{"android":"levelo://app?vid=8aeb6c61-f5c3-4738-9680-41cc4aacbb8f","ios":"levelo://app?vid=8aeb6c61-f5c3-4738-9680-41cc4aacbb8f"},"vehicle_type_id":"4","last_reported":1753297881,"current_range_meters":12800,"station_id":"ce4bgph2rcd13ifvqc2g","pricing_plan_id":"cebpf4jnsgd1na2vs0mg"},{"bike_id":"319ff353-d996-4eed-9e49-29cead50a1cd","system_id":"levelo_inurba_marseille","lat":43.29531,"lon":5.38536,"is_reserved":false,"is_disabled":false,"rental_uris":{"android":"levelo://app?vid=319ff353-d996-4eed-9e49-29cead50a1cd","ios":"levelo://app?vid=319ff353-d996-4eed-9e49-29cead50a1cd"},"vehicle_type_id":"4","last_reported":1753297881,"current_range_meters":12800,"station_id":"ce4bgih2rcd13ifvqba0","pricing_plan_id":"cebpf4jnsgd1na2vs0mg"},{"bike_id":"a55b0110-48c5-4f1c-bf3b-4e5329bfd385","system_id":"levelo_inurba_marseille","lat":43.29541,"lon":5.38531,"is_reserved":false,"is_disabled":false,"rental_uris":{"android":"levelo://app?vid=a55b0110-48c5-4f1c-bf3b-4e5329bfd385","ios":"levelo://app?vid=a55b0110-48c5-4f1c-bf3b-4e5329bfd385"},"vehicle_type_id":"4","last_reported":1753297881,"current_range_meters":12800,"station_id":"ce4bgih2rcd13ifvqba0","pricing_plan_id":"cebpf4jnsgd1na2vs0mg"},{"bike_id":"661a97f2-5014-42f4-b2e2-2e341cd74ca3","system_id":"levelo_inurba_marseille","lat":43.29849,"lon":5.36277,"is_reserved":false,"is_disabled":false,"rental_uris":{"android":"levelo://app?vid=661a97f2-5014-42f4-b2e2-2e341cd74ca3","ios":"levelo://app?vid=661a97f2-5014-42f4-b2e2-2e341cd74ca3"},"vehicle_type_id":"4","last_reported":1753297881,"current_range_meters":13600,"station_id":"ce4bgpp2rcd13ifvqc3g","pricing_plan_id":"cebpf4jnsgd1na2vs0mg"},{"bike_id":"3c8c8450-a767-4a89-b895-39c7e1d469a3","system_id":"levelo_inurba_marseille","lat":43.25496,"lon":5.3766,"is_reserved":false,"is_disabled":false,"rental_uris":{"android":"levelo://app?vid=3c8c8450-a767-4a89-b895-39c7e1d469a3","ios":"levelo://app?vid=3c8c8450-a767-4a89-b895-39c7e1d469a3"},"vehicle_type_id":"4","last_reported":1753297881,"current_range_meters":13600,"station_id":"ce4bhh12rcd13ifvqff0","pricing_plan_id":"cebpf4jnsgd1na2vs0mg"},{"bike_id":"900d4a5f-87db-41cc-b692-54f3a19d11bb","system_id":"levelo_inurba_marseille","lat":43.31755,"lon":5.39015,"is_reserved":false,"is_disabled":false,"rental_uris":{"android":"levelo://app?vid=900d4a5f-87db-41cc-b692-54f3a19d11bb","ios":"levelo://app?vid=900d4a5f-87db-41cc-b692-54f3a19d11bb"},"vehicle_type_id":"4","last_reported":1753297881,"current_range_meters":13600,"station_id":"ce4bhqp2rcd13ifvqhng","pricing_plan_id":"cebpf4jnsgd1na2vs0mg"},{"bike_id":"396dbd6b-bd12-4fba-a413-85741f08daa2","system_id":"levelo_inurba_marseille","lat":43.23058,"lon":5.35494,"is_reserved":false,"is_disabled":false,"rental_uris":{"android":"levelo://app?vid=396dbd6b-bd12-4fba-a413-85741f08daa2","ios":"levelo://app?vid=396dbd6b-bd12-4fba-a413-85741f08daa2"},"vehicle_type_id":"4","last_reported":1753297881,"current_range_meters":13600,"station_id":"cpo3342slgdg3j2ifvpg","pricing_plan_id":"cebpf4jnsgd1na2vs0mg"},{"bike_id":"ce48a911-4507-4b74-976c-1633ca96f1c2","system_id":"levelo_inurba_marseille","lat":43.29584,"lon":5.3674,"is_reserved":false,"is_disabled":false,"rental_uris":{"android":"levelo://app?vid=ce48a911-4507-4b74-976c-1633ca96f1c2","ios":"levelo://app?vid=ce48a911-4507-4b74-976c-1633ca96f1c2"},"vehicle_type_id":"4","last_reported":1753297881,"current_range_meters":14000,"station_id":"ce4bgph2rcd13ifvqc2g","pricing_plan_id":"cebpf4jnsgd1na2vs0mg"},{"bike_id":"fec3b07e-037a-4fea-a191-679ee2b99950","system_id":"levelo_inurba_marseille","lat":43.24184,"lon":5.3635,"is_reserved":false,"is_disabled":false,"rental_uris":{"android":"levelo://app?vid=fec3b07e-037a-4fea-a191-679ee2b99950","ios":"levelo://app?vid=fec3b07e-037a-4fea-a191-679ee2b99950"},"vehicle_type_id":"4","last_reported":1753297881,"current_range_meters":14000,"station_id":"cpo36qri1sfpv3e86is0","pricing_plan_id":"cebpf4jnsgd1na2vs0mg"},{"bike_id":"d81a83d1-7e0f-4342-866a-dbc41bd13708","system_id":"levelo_inurba_marseille","lat":43.298439,"lon":5.362713,"is_reserved":false,"is_disabled":false,"rental_uris":{"android":"levelo://app?vid=d81a83d1-7e0f-4342-866a-dbc41bd13708","ios":"levelo://app?vid=d81a83d1-7e0f-4342-866a-dbc41bd13708"},"vehicle_type_id":"4","last_reported":1753297881,"current_range_meters":14000,"station_id":"ce4bgpp2rcd13ifvqc3g","pricing_plan_id":"cebpf4jnsgd1na2vs0mg"},{"bike_id":"0190afb5-37b8-4e2d-9fd5-3729fc0356d5","system_id":"levelo_inurba_marseille","lat":43.28472,"lon":5.35875,"is_reserved":false,"is_disabled":false,"rental_uris":{"android":"levelo://app?vid=0190afb5-37b8-4e2d-9fd5-3729fc0356d5","ios":"levelo://app?vid=0190afb5-37b8-4e2d-9fd5-3729fc0356d5"},"vehicle_type_id":"4","last_reported":1753297881,"current_range_meters":14000,"station_id":"ce4bhah2rcd13ifvqei0","pricing_plan_id":"cebpf4jnsgd1na2vs0mg"},{"bike_id":"541e3f7a-640b-4d8c-977d-949ca2a087ab","system_id":"levelo_inurba_marseille","lat":43.30796,"lon":5.379577,"is_reserved":false,"is_disabled":true,"rental_uris":{"android":"levelo://app?vid=541e3f7a-640b-4d8c-977d-949ca2a087ab","ios":"levelo://app?vid=541e3f7a-640b-4d8c-977d-949ca2a087ab"},"vehicle_type_id":"4","last_reported":1753297881,"current_range_meters":14000,"station_id":"ce4bgt12rcd13ifvqce0","pricing_plan_id":"cebpf4jnsgd1na2vs0mg"},{"bike_id":"8ebe434f-5d79-4aab-96e5-a8436d434fd7","system_id":"levelo_inurba_marseille","lat":43.323446,"lon":5.406131,"is_reserved":false,"is_disabled":false,"rental_uris":{"android":"levelo://app?vid=8ebe434f-5d79-4aab-96e5-a8436d434fd7","ios":"levelo://app?vid=8ebe434f-5d79-4aab-96e5-a8436d434fd7"},"vehicle_type_id":"4","last_reported":1753297881,"current_range_meters":14000,"station_id":"ce4bhq92rcd13ifvqhjg","pricing_plan_id":"cebpf4jnsgd1na2vs0mg"},{"bike_id":"6ba8bf23-faf4-4e7f-a0da-6f0984da5df1","system_id":"levelo_inurba_marseille","lat":43.26196,"lon":5.3745,"is_reserved":false,"is_disabled":false,"rental_uris":{"android":"levelo://app?vid=6ba8bf23-faf4-4e7f-a0da-6f0984da5df1","ios":"levelo://app?vid=6ba8bf23-faf4-4e7f-a0da-6f0984da5df1"},"vehicle_type_id":"4","last_reported":1753297881,"current_range_meters":14000,"station_id":"ce4bhgp2rcd13ifvqfc0","pricing_plan_id":"cebpf4jnsgd1na2vs0mg"},{"bike_id":"e85e3b32-e107-42e8-a9fa-d6aed30777a8","system_id":"levelo_inurba_marseille","lat":43.29034,"lon":5.37565,"is_reserved":false,"is_disabled":false,"rental_uris":{"android":"levelo://app?vid=e85e3b32-e107-42e8-a9fa-d6aed30777a8","ios":"levelo://app?vid=e85e3b32-e107-42e8-a9fa-d6aed30777a8"},"vehicle_type_id":"4","last_reported":1753297881,"current_range_meters":14400,"station_id":"ce4bh692rcd13ifvqe90","pricing_plan_id":"cebpf4jnsgd1na2vs0mg"},{"bike_id":"40902f81-8d4b-4071-aa25-91bac3573b61","system_id":"levelo_inurba_marseille","lat":43.29704,"lon":5.36616,"is_reserved":false,"is_disabled":false,"rental_uris":{"android":"levelo://app?vid=40902f81-8d4b-4071-aa25-91bac3573b61","ios":"levelo://app?vid=40902f81-8d4b-4071-aa25-91bac3573b61"},"vehicle_type_id":"4","last_reported":1753297881,"current_range_meters":14400,"station_id":"ce4bgn12rcd13ifvqbt0","pricing_plan_id":"cebpf4jnsgd1na2vs0mg"},{"bike_id":"d17ba8bb-e5af-4ca3-a412-aab59b22d99a","system_id":"levelo_inurba_marseille","lat":43.24998,"lon":5.38927,"is_reserved":false,"is_disabled":false,"rental_uris":{"android":"levelo://app?vid=d17ba8bb-e5af-4ca3-a412-aab59b22d99a","ios":"levelo://app?vid=d17ba8bb-e5af-4ca3-a412-aab59b22d99a"},"vehicle_type_id":"4","last_reported":1753297881,"current_range_meters":14400,"station_id":"ce4bhgp2rcd13ifvqfd0","pricing_plan_id":"cebpf4jnsgd1na2vs0mg"},{"bike_id":"38a28b1f-e48d-4fb2-93dc-e80e1ec8bb1d","system_id":"levelo_inurba_marseille","lat":43.29854,"lon":5.36255,"is_reserved":false,"is_disabled":false,"rental_uris":{"android":"levelo://app?vid=38a28b1f-e48d-4fb2-93dc-e80e1ec8bb1d","ios":"levelo://app?vid=38a28b1f-e48d-4fb2-93dc-e80e1ec8bb1d"},"vehicle_type_id":"4","last_reported":1753297881,"current_range_meters":14400,"station_id":"ce4bgpp2rcd13ifvqc3g","pricing_plan_id":"cebpf4jnsgd1na2vs0mg"},{"bike_id":"f9c9ff83-8548-4acb-a33b-495af4adeef4","system_id":"levelo_inurba_marseille","lat":43.323602,"lon":5.367545,"is_reserved":false,"is_disabled":false,"rental_uris":{"android":"levelo://app?vid=f9c9ff83-8548-4acb-a33b-495af4adeef4","ios":"levelo://app?vid=f9c9ff83-8548-4acb-a33b-495af4adeef4"},"vehicle_type_id":"4","last_reported":1753297881,"current_range_meters":14400,"station_id":"ce4bhsh2rcd13ifvqi2g","pricing_plan_id":"cebpf4jnsgd1na2vs0mg"},{"bike_id":"d5a6c524-d271-4f57-a2f0-642fd942afc3","system_id":"levelo_inurba_marseille","lat":43.28608,"lon":5.37047,"is_reserved":false,"is_disabled":false,"rental_uris":{"android":"levelo://app?vid=d5a6c524-d271-4f57-a2f0-642fd942afc3","ios":"levelo://app?vid=d5a6c524-d271-4f57-a2f0-642fd942afc3"},"vehicle_type_id":"4","last_reported":1753297881,"current_range_meters":14400,"station_id":"ce4bht12rcd13ifvqi60","pricing_plan_id":"cebpf4jnsgd1na2vs0mg"},{"bike_id":"f3217e35-0bb5-43ab-beb0-dd5e233a7114","system_id":"levelo_inurba_marseille","lat":43.25582,"lon":5.38226,"is_reserved":false,"is_disabled":false,"rental_uris":{"android":"levelo://app?vid=f3217e35-0bb5-43ab-beb0-dd5e233a7114","ios":"levelo://app?vid=f3217e35-0bb5-43ab-beb0-dd5e233a7114"},"vehicle_type_id":"4","last_reported":1753297881,"current_range_meters":14400,"station_id":"ce4bhih2rcd13ifvqfs0","pricing_plan_id":"cebpf4jnsgd1na2vs0mg"},{"bike_id":"b5ce8d93-17c0-45a5-b2b1-eefce45c2d79","system_id":"levelo_inurba_marseille","lat":43.31799,"lon":5.43524,"is_reserved":false,"is_disabled":false,"rental_uris":{"android":"levelo://app?vid=b5ce8d93-17c0-45a5-b2b1-eefce45c2d79","ios":"levelo://app?vid=b5ce8d93-17c0-45a5-b2b1-eefce45c2d79"},"vehicle_type_id":"4","last_reported":1753297881,"current_range_meters":14400,"station_id":"","pricing_plan_id":"cebpf4jnsgd1na2vs0mg"},{"bike_id":"ce59a62d-17ec-416f-b54d-751bd3f6f3dd","system_id":"levelo_inurba_marseille","lat":43.27067,"lon":5.42283,"is_reserved":false,"is_disabled":false,"rental_uris":{"android":"levelo://app?vid=ce59a62d-17ec-416f-b54d-751bd3f6f3dd","ios":"levelo://app?vid=ce59a62d-17ec-416f-b54d-751bd3f6f3dd"},"vehicle_type_id":"4","last_reported":1753297881,"current_range_meters":14400,"station_id":"ce4bhk92rcd13ifvqgb0","pricing_plan_id":"cebpf4jnsgd1na2vs0mg"},{"bike_id":"8c88448a-fb33-41bd-ae09-f0aac6cee4c1","system_id":"levelo_inurba_marseille","lat":43.26207,"lon":5.37443,"is_reserved":false,"is_disabled":false,"rental_uris":{"android":"levelo://app?vid=8c88448a-fb33-41bd-ae09-f0aac6cee4c1","ios":"levelo://app?vid=8c88448a-fb33-41bd-ae09-f0aac6cee4c1"},"vehicle_type_id":"4","last_reported":1753297881,"current_range_meters":14400,"station_id":"ce4bhgp2rcd13ifvqfc0","pricing_plan_id":"cebpf4jnsgd1na2vs0mg"},{"bike_id":"f82f6472-5e60-48fd-853e-7328c7c3da9e","system_id":"levelo_inurba_marseille","lat":43.29585,"lon":5.36775,"is_reserved":false,"is_disabled":false,"rental_uris":{"android":"levelo://app?vid=f82f6472-5e60-48fd-853e-7328c7c3da9e","ios":"levelo://app?vid=f82f6472-5e60-48fd-853e-7328c7c3da9e"},"vehicle_type_id":"4","last_reported":1753297881,"current_range_meters":14400,"station_id":"ce4bgph2rcd13ifvqc2g","pricing_plan_id":"cebpf4jnsgd1na2vs0mg"},{"bike_id":"a0de01aa-cd68-4a4d-8bab-65fa167b8610","system_id":"levelo_inurba_marseille","lat":43.231879,"lon":5.355595,"is_reserved":false,"is_disabled":false,"rental_uris":{"android":"levelo://app?vid=a0de01aa-cd68-4a4d-8bab-65fa167b8610","ios":"levelo://app?vid=a0de01aa-cd68-4a4d-8bab-65fa167b8610"},"vehicle_type_id":"4","last_reported":1753297881,"current_range_meters":14400,"station_id":"ce4bhu92rcd13ifvqi70","pricing_plan_id":"cebpf4jnsgd1na2vs0mg"},{"bike_id":"184e7ca1-2751-41a3-abf6-c8837d90e289","system_id":"levelo_inurba_marseille","lat":43.28976,"lon":5.37831,"is_reserved":false,"is_disabled":false,"rental_uris":{"android":"levelo://app?vid=184e7ca1-2751-41a3-abf6-c8837d90e289","ios":"levelo://app?vid=184e7ca1-2751-41a3-abf6-c8837d90e289"},"vehicle_type_id":"4","last_reported":1753297881,"current_range_meters":14400,"station_id":"ce4bh9p2rcd13ifvqed0","pricing_plan_id":"cebpf4jnsgd1na2vs0mg"},{"bike_id":"9ce312f1-cb07-4159-91d6-c11a68a5ee71","system_id":"levelo_inurba_marseille","lat":43.21164,"lon":5.35092,"is_reserved":false,"is_disabled":false,"rental_uris":{"android":"levelo://app?vid=9ce312f1-cb07-4159-91d6-c11a68a5ee71","ios":"levelo://app?vid=9ce312f1-cb07-4159-91d6-c11a68a5ee71"},"vehicle_type_id":"4","last_reported":1753297881,"current_range_meters":14400,"station_id":"st_cvj6sg6p6f1abm77japg","pricing_plan_id":"cebpf4jnsgd1na2vs0mg"},{"bike_id":"0baf60f7-ef58-4786-8ad6-e8218e788c2e","system_id":"levelo_inurba_marseille","lat":43.31766,"lon":5.39016,"is_reserved":false,"is_disabled":false,"rental_uris":{"android":"levelo://app?vid=0baf60f7-ef58-4786-8ad6-e8218e788c2e","ios":"levelo://app?vid=0baf60f7-ef58-4786-8ad6-e8218e788c2e"},"vehicle_type_id":"4","last_reported":1753297881,"current_range_meters":14800,"station_id":"ce4bhqp2rcd13ifvqhng","pricing_plan_id":"cebpf4jnsgd1na2vs0mg"},{"bike_id":"6b13b0cf-ae6f-4dd7-82b8-b5c1c49ede2d","system_id":"levelo_inurba_marseille","lat":43.2763,"lon":5.36096,"is_reserved":false,"is_disabled":false,"rental_uris":{"android":"levelo://app?vid=6b13b0cf-ae6f-4dd7-82b8-b5c1c49ede2d","ios":"levelo://app?vid=6b13b0cf-ae6f-4dd7-82b8-b5c1c49ede2d"},"vehicle_type_id":"4","last_reported":1753297881,"current_range_meters":14800,"station_id":"ce4bgj92rcd13ifvqbe0","pricing_plan_id":"cebpf4jnsgd1na2vs0mg"},{"bike_id":"bbd16db7-d82b-4de1-8c69-f183ff4f975d","system_id":"levelo_inurba_marseille","lat":43.29584,"lon":5.36732,"is_reserved":false,"is_disabled":false,"rental_uris":{"android":"levelo://app?vid=bbd16db7-d82b-4de1-8c69-f183ff4f975d","ios":"levelo://app?vid=bbd16db7-d82b-4de1-8c69-f183ff4f975d"},"vehicle_type_id":"4","last_reported":1753297881,"current_range_meters":14800,"station_id":"ce4bgph2rcd13ifvqc2g","pricing_plan_id":"cebpf4jnsgd1na2vs0mg"},{"bike_id":"a0793413-a044-4896-9d7b-a295bffdc3e8","system_id":"levelo_inurba_marseille","lat":43.295217,"lon":5.390372,"is_reserved":false,"is_disabled":false,"rental_uris":{"android":"levelo://app?vid=a0793413-a044-4896-9d7b-a295bffdc3e8","ios":"levelo://app?vid=a0793413-a044-4896-9d7b-a295bffdc3e8"},"vehicle_type_id":"4","last_reported":1753297881,"current_range_meters":14800,"station_id":"chh1huq6cuj3fo74tm60","pricing_plan_id":"cebpf4jnsgd1na2vs0mg"},{"bike_id":"8006020a-6cfe-4131-82ca-a6c8f07671d2","system_id":"levelo_inurba_marseille","lat":43.311836,"lon":5.377167,"is_reserved":false,"is_disabled":false,"rental_uris":{"android":"levelo://app?vid=8006020a-6cfe-4131-82ca-a6c8f07671d2","ios":"levelo://app?vid=8006020a-6cfe-4131-82ca-a6c8f07671d2"},"vehicle_type_id":"4","last_reported":1753297881,"current_range_meters":14800,"station_id":"","pricing_plan_id":"cebpf4jnsgd1na2vs0mg"},{"bike_id":"cea74219-6b4a-42a1-9ddb-291eafad4793","system_id":"levelo_inurba_marseille","lat":43.29719,"lon":5.36619,"is_reserved":false,"is_disabled":false,"rental_uris":{"android":"levelo://app?vid=cea74219-6b4a-42a1-9ddb-291eafad4793","ios":"levelo://app?vid=cea74219-6b4a-42a1-9ddb-291eafad4793"},"vehicle_type_id":"4","last_reported":1753297881,"current_range_meters":14800,"station_id":"ce4bgn12rcd13ifvqbt0","pricing_plan_id":"cebpf4jnsgd1na2vs0mg"},{"bike_id":"4cc93d5c-f743-44d3-a558-72deda8b523c","system_id":"levelo_inurba_marseille","lat":43.29533,"lon":5.38546,"is_reserved":false,"is_disabled":false,"rental_uris":{"android":"levelo://app?vid=4cc93d5c-f743-44d3-a558-72deda8b523c","ios":"levelo://app?vid=4cc93d5c-f743-44d3-a558-72deda8b523c"},"vehicle_type_id":"4","last_reported":1753297881,"current_range_meters":14800,"station_id":"ce4bgih2rcd13ifvqba0","pricing_plan_id":"cebpf4jnsgd1na2vs0mg"},{"bike_id":"e480bd8b-ab3b-474e-85dc-cd917472d2ed","system_id":"levelo_inurba_marseille","lat":43.2396,"lon":5.36634,"is_reserved":false,"is_disabled":false,"rental_uris":{"android":"levelo://app?vid=e480bd8b-ab3b-474e-85dc-cd917472d2ed","ios":"levelo://app?vid=e480bd8b-ab3b-474e-85dc-cd917472d2ed"},"vehicle_type_id":"4","last_reported":1753297881,"current_range_meters":14800,"station_id":"ce4bhi12rcd13ifvqfp0","pricing_plan_id":"cebpf4jnsgd1na2vs0mg"},{"bike_id":"a3640f8d-e562-4f12-8803-79ea76a806b7","system_id":"levelo_inurba_marseille","lat":43.26548,"lon":5.37281,"is_reserved":false,"is_disabled":false,"rental_uris":{"android":"levelo://app?vid=a3640f8d-e562-4f12-8803-79ea76a806b7","ios":"levelo://app?vid=a3640f8d-e562-4f12-8803-79ea76a806b7"},"vehicle_type_id":"4","last_reported":1753297881,"current_range_meters":14800,"station_id":"ce4bhg12rcd13ifvqf70","pricing_plan_id":"cebpf4jnsgd1na2vs0mg"},{"bike_id":"f8232130-db52-4ff5-b354-f78033a04c00","system_id":"levelo_inurba_marseille","lat":43.279767,"lon":5.410073,"is_reserved":false,"is_disabled":false,"rental_uris":{"android":"levelo://app?vid=f8232130-db52-4ff5-b354-f78033a04c00","ios":"levelo://app?vid=f8232130-db52-4ff5-b354-f78033a04c00"},"vehicle_type_id":"4","last_reported":1753297881,"current_range_meters":14800,"station_id":"","pricing_plan_id":"cebpf4jnsgd1na2vs0mg"},{"bike_id":"b58e63ac-869b-49f9-af95-371b2d857d36","system_id":"levelo_inurba_marseille","lat":43.28776,"lon":5.36663,"is_reserved":false,"is_disabled":false,"rental_uris":{"android":"levelo://app?vid=b58e63ac-869b-49f9-af95-371b2d857d36","ios":"levelo://app?vid=b58e63ac-869b-49f9-af95-371b2d857d36"},"vehicle_type_id":"4","last_reported":1753297881,"current_range_meters":14800,"station_id":"","pricing_plan_id":"cebpf4jnsgd1na2vs0mg"},{"bike_id":"4c32811e-3d3b-4d73-bc5d-c29a94ecb6af","system_id":"levelo_inurba_marseille","lat":43.26707,"lon":5.38279,"is_reserved":false,"is_disabled":false,"rental_uris":{"android":"levelo://app?vid=4c32811e-3d3b-4d73-bc5d-c29a94ecb6af","ios":"levelo://app?vid=4c32811e-3d3b-4d73-bc5d-c29a94ecb6af"},"vehicle_type_id":"4","last_reported":1753297881,"current_range_meters":15200,"station_id":"ce4bhg92rcd13ifvqf90","pricing_plan_id":"cebpf4jnsgd1na2vs0mg"},{"bike_id":"faae374a-c815-429f-9f71-046463b1ab97","system_id":"levelo_inurba_marseille","lat":43.29029,"lon":5.38642,"is_reserved":false,"is_disabled":false,"rental_uris":{"android":"levelo://app?vid=faae374a-c815-429f-9f71-046463b1ab97","ios":"levelo://app?vid=faae374a-c815-429f-9f71-046463b1ab97"},"vehicle_type_id":"4","last_reported":1753297881,"current_range_meters":15200,"station_id":"ce4bh4p2rcd13ifvqe0g","pricing_plan_id":"cebpf4jnsgd1na2vs0mg"},{"bike_id":"028b05be-ec4c-43ca-adc8-d551502182de","system_id":"levelo_inurba_marseille","lat":43.255805,"lon":5.382353,"is_reserved":false,"is_disabled":false,"rental_uris":{"android":"levelo://app?vid=028b05be-ec4c-43ca-adc8-d551502182de","ios":"levelo://app?vid=028b05be-ec4c-43ca-adc8-d551502182de"},"vehicle_type_id":"4","last_reported":1753297881,"current_range_meters":15200,"station_id":"ce4bhih2rcd13ifvqfs0","pricing_plan_id":"cebpf4jnsgd1na2vs0mg"},{"bike_id":"4fca153b-9dee-43e4-9d3d-784cffa27ce0","system_id":"levelo_inurba_marseille","lat":43.301319,"lon":5.39874,"is_reserved":false,"is_disabled":false,"rental_uris":{"android":"levelo://app?vid=4fca153b-9dee-43e4-9d3d-784cffa27ce0","ios":"levelo://app?vid=4fca153b-9dee-43e4-9d3d-784cffa27ce0"},"vehicle_type_id":"4","last_reported":1753297881,"current_range_meters":15200,"station_id":"","pricing_plan_id":"cebpf4jnsgd1na2vs0mg"},{"bike_id":"a8b6b608-9ecc-4a96-b91d-e88ce53d3625","system_id":"levelo_inurba_marseille","lat":43.29844,"lon":5.36276,"is_reserved":false,"is_disabled":false,"rental_uris":{"android":"levelo://app?vid=a8b6b608-9ecc-4a96-b91d-e88ce53d3625","ios":"levelo://app?vid=a8b6b608-9ecc-4a96-b91d-e88ce53d3625"},"vehicle_type_id":"4","last_reported":1753297881,"current_range_meters":15200,"station_id":"ce4bgpp2rcd13ifvqc3g","pricing_plan_id":"cebpf4jnsgd1na2vs0mg"},{"bike_id":"b8140612-392a-411d-ba7f-5352c55f69fc","system_id":"levelo_inurba_marseille","lat":43.30805,"lon":5.43511,"is_reserved":false,"is_disabled":false,"rental_uris":{"android":"levelo://app?vid=b8140612-392a-411d-ba7f-5352c55f69fc","ios":"levelo://app?vid=b8140612-392a-411d-ba7f-5352c55f69fc"},"vehicle_type_id":"4","last_reported":1753297881,"current_range_meters":15200,"station_id":"ce4bhph2rcd13ifvqheg","pricing_plan_id":"cebpf4jnsgd1na2vs0mg"},{"bike_id":"75921511-23bf-408f-9470-1062209789d6","system_id":"levelo_inurba_marseille","lat":43.255819,"lon":5.382338,"is_reserved":false,"is_disabled":false,"rental_uris":{"android":"levelo://app?vid=75921511-23bf-408f-9470-1062209789d6","ios":"levelo://app?vid=75921511-23bf-408f-9470-1062209789d6"},"vehicle_type_id":"4","last_reported":1753297881,"current_range_meters":16000,"station_id":"ce4bhih2rcd13ifvqfs0","pricing_plan_id":"cebpf4jnsgd1na2vs0mg"},{"bike_id":"d4e5dd79-2b52-4d97-8cab-d2aa23e54cd3","system_id":"levelo_inurba_marseille","lat":43.29257,"lon":5.38437,"is_reserved":false,"is_disabled":false,"rental_uris":{"android":"levelo://app?vid=d4e5dd79-2b52-4d97-8cab-d2aa23e54cd3","ios":"levelo://app?vid=d4e5dd79-2b52-4d97-8cab-d2aa23e54cd3"},"vehicle_type_id":"4","last_reported":1753297881,"current_range_meters":16000,"station_id":"ce4bh692rcd13ifvqea0","pricing_plan_id":"cebpf4jnsgd1na2vs0mg"},{"bike_id":"d9d3254b-557d-4def-8feb-ef7b406b766f","system_id":"levelo_inurba_marseille","lat":43.29862,"lon":5.36268,"is_reserved":false,"is_disabled":false,"rental_uris":{"android":"levelo://app?vid=d9d3254b-557d-4def-8feb-ef7b406b766f","ios":"levelo://app?vid=d9d3254b-557d-4def-8feb-ef7b406b766f"},"vehicle_type_id":"4","last_reported":1753297881,"current_range_meters":16000,"station_id":"ce4bgpp2rcd13ifvqc3g","pricing_plan_id":"cebpf4jnsgd1na2vs0mg"},{"bike_id":"36bdbbe1-3121-47c4-bc10-7fa63b8b1c5d","system_id":"levelo_inurba_marseille","lat":43.30781,"lon":5.37654,"is_reserved":false,"is_disabled":false,"rental_uris":{"android":"levelo://app?vid=36bdbbe1-3121-47c4-bc10-7fa63b8b1c5d","ios":"levelo://app?vid=36bdbbe1-3121-47c4-bc10-7fa63b8b1c5d"},"vehicle_type_id":"4","last_reported":1753297881,"current_range_meters":16000,"station_id":"ce4bgv92rcd13ifvqcq0","pricing_plan_id":"cebpf4jnsgd1na2vs0mg"},{"bike_id":"83f868a2-5d8e-48ef-ac82-40376bea65ae","system_id":"levelo_inurba_marseille","lat":43.25584,"lon":5.38244,"is_reserved":false,"is_disabled":false,"rental_uris":{"android":"levelo://app?vid=83f868a2-5d8e-48ef-ac82-40376bea65ae","ios":"levelo://app?vid=83f868a2-5d8e-48ef-ac82-40376bea65ae"},"vehicle_type_id":"4","last_reported":1753297881,"current_range_meters":16000,"station_id":"ce4bhih2rcd13ifvqfs0","pricing_plan_id":"cebpf4jnsgd1na2vs0mg"},{"bike_id":"8ad11a72-99c9-456c-bd0f-1a17d81f682d","system_id":"levelo_inurba_marseille","lat":43.29707,"lon":5.36611,"is_reserved":false,"is_disabled":false,"rental_uris":{"android":"levelo://app?vid=8ad11a72-99c9-456c-bd0f-1a17d81f682d","ios":"levelo://app?vid=8ad11a72-99c9-456c-bd0f-1a17d81f682d"},"vehicle_type_id":"4","last_reported":1753297881,"current_range_meters":16000,"station_id":"ce4bgn12rcd13ifvqbt0","pricing_plan_id":"cebpf4jnsgd1na2vs0mg"},{"bike_id":"4ab795ed-bb50-40ac-90c4-be7b5e6a129c","system_id":"levelo_inurba_marseille","lat":43.31756,"lon":5.39017,"is_reserved":false,"is_disabled":false,"rental_uris":{"android":"levelo://app?vid=4ab795ed-bb50-40ac-90c4-be7b5e6a129c","ios":"levelo://app?vid=4ab795ed-bb50-40ac-90c4-be7b5e6a129c"},"vehicle_type_id":"4","last_reported":1753297881,"current_range_meters":16000,"station_id":"ce4bhqp2rcd13ifvqhng","pricing_plan_id":"cebpf4jnsgd1na2vs0mg"},{"bike_id":"b2b7f5e4-9a64-46ef-9d20-104d4c275bfa","system_id":"levelo_inurba_marseille","lat":43.21201,"lon":5.3505,"is_reserved":false,"is_disabled":false,"rental_uris":{"android":"levelo://app?vid=b2b7f5e4-9a64-46ef-9d20-104d4c275bfa","ios":"levelo://app?vid=b2b7f5e4-9a64-46ef-9d20-104d4c275bfa"},"vehicle_type_id":"4","last_reported":1753297881,"current_range_meters":16000,"station_id":"st_cvj6sg6p6f1abm77japg","pricing_plan_id":"cebpf4jnsgd1na2vs0mg"},{"bike_id":"857088bc-25ce-44bf-8388-aaaeaeb5a8f7","system_id":"levelo_inurba_marseille","lat":43.29535,"lon":5.38537,"is_reserved":false,"is_disabled":false,"rental_uris":{"android":"levelo://app?vid=857088bc-25ce-44bf-8388-aaaeaeb5a8f7","ios":"levelo://app?vid=857088bc-25ce-44bf-8388-aaaeaeb5a8f7"},"vehicle_type_id":"4","last_reported":1753297881,"current_range_meters":16000,"station_id":"ce4bgih2rcd13ifvqba0","pricing_plan_id":"cebpf4jnsgd1na2vs0mg"},{"bike_id":"ba41c70d-58da-4ac8-b646-54004092a48b","system_id":"levelo_inurba_marseille","lat":43.29585,"lon":5.36733,"is_reserved":false,"is_disabled":false,"rental_uris":{"android":"levelo://app?vid=ba41c70d-58da-4ac8-b646-54004092a48b","ios":"levelo://app?vid=ba41c70d-58da-4ac8-b646-54004092a48b"},"vehicle_type_id":"4","last_reported":1753297881,"current_range_meters":16000,"station_id":"ce4bgph2rcd13ifvqc2g","pricing_plan_id":"cebpf4jnsgd1na2vs0mg"},{"bike_id":"e75808ef-f535-4b18-a3df-0dc0f0f71d2d","system_id":"levelo_inurba_marseille","lat":43.29711,"lon":5.36615,"is_reserved":false,"is_disabled":false,"rental_uris":{"android":"levelo://app?vid=e75808ef-f535-4b18-a3df-0dc0f0f71d2d","ios":"levelo://app?vid=e75808ef-f535-4b18-a3df-0dc0f0f71d2d"},"vehicle_type_id":"4","last_reported":1753297881,"current_range_meters":16000,"station_id":"ce4bgn12rcd13ifvqbt0","pricing_plan_id":"cebpf4jnsgd1na2vs0mg"},{"bike_id":"872d6688-34e9-4e87-9a71-30f9e710a775","system_id":"levelo_inurba_marseille","lat":43.26564,"lon":5.37279,"is_reserved":false,"is_disabled":false,"rental_uris":{"android":"levelo://app?vid=872d6688-34e9-4e87-9a71-30f9e710a775","ios":"levelo://app?vid=872d6688-34e9-4e87-9a71-30f9e710a775"},"vehicle_type_id":"4","last_reported":1753297881,"current_range_meters":16000,"station_id":"ce4bhg12rcd13ifvqf70","pricing_plan_id":"cebpf4jnsgd1na2vs0mg"},{"bike_id":"f77e2119-efdf-4f97-ae6a-f4423c6f3a21","system_id":"levelo_inurba_marseille","lat":43.29578,"lon":5.36749,"is_reserved":false,"is_disabled":false,"rental_uris":{"android":"levelo://app?vid=f77e2119-efdf-4f97-ae6a-f4423c6f3a21","ios":"levelo://app?vid=f77e2119-efdf-4f97-ae6a-f4423c6f3a21"},"vehicle_type_id":"4","last_reported":1753297881,"current_range_meters":16000,"station_id":"ce4bgph2rcd13ifvqc2g","pricing_plan_id":"cebpf4jnsgd1na2vs0mg"},{"bike_id":"8da50daa-01e3-4f17-ab0c-8f1f061fcf2c","system_id":"levelo_inurba_marseille","lat":43.26188,"lon":5.37457,"is_reserved":false,"is_disabled":false,"rental_uris":{"android":"levelo://app?vid=8da50daa-01e3-4f17-ab0c-8f1f061fcf2c","ios":"levelo://app?vid=8da50daa-01e3-4f17-ab0c-8f1f061fcf2c"},"vehicle_type_id":"4","last_reported":1753297881,"current_range_meters":16000,"station_id":"ce4bhgp2rcd13ifvqfc0","pricing_plan_id":"cebpf4jnsgd1na2vs0mg"},{"bike_id":"0699673a-5be7-40a8-aeb1-e7da589fb5d9","system_id":"levelo_inurba_marseille","lat":43.27562,"lon":5.38409,"is_reserved":false,"is_disabled":false,"rental_uris":{"android":"levelo://app?vid=0699673a-5be7-40a8-aeb1-e7da589fb5d9","ios":"levelo://app?vid=0699673a-5be7-40a8-aeb1-e7da589fb5d9"},"vehicle_type_id":"4","last_reported":1753297881,"current_range_meters":16400,"station_id":"ce4bhh92rcd13ifvqfi0","pricing_plan_id":"cebpf4jnsgd1na2vs0mg"},{"bike_id":"14507818-57d1-41cb-aa02-ad1e63e35f60","system_id":"levelo_inurba_marseille","lat":43.29582,"lon":5.36749,"is_reserved":false,"is_disabled":false,"rental_uris":{"android":"levelo://app?vid=14507818-57d1-41cb-aa02-ad1e63e35f60","ios":"levelo://app?vid=14507818-57d1-41cb-aa02-ad1e63e35f60"},"vehicle_type_id":"4","last_reported":1753297881,"current_range_meters":16400,"station_id":"ce4bgph2rcd13ifvqc2g","pricing_plan_id":"cebpf4jnsgd1na2vs0mg"},{"bike_id":"3df976ed-be3f-45c4-96eb-0f482e6c81eb","system_id":"levelo_inurba_marseille","lat":43.2621,"lon":5.37444,"is_reserved":false,"is_disabled":false,"rental_uris":{"android":"levelo://app?vid=3df976ed-be3f-45c4-96eb-0f482e6c81eb","ios":"levelo://app?vid=3df976ed-be3f-45c4-96eb-0f482e6c81eb"},"vehicle_type_id":"4","last_reported":1753297881,"current_range_meters":16400,"station_id":"ce4bhgp2rcd13ifvqfc0","pricing_plan_id":"cebpf4jnsgd1na2vs0mg"},{"bike_id":"5ac85406-65d0-4336-aa89-4b04b2e6689e","system_id":"levelo_inurba_marseille","lat":43.332789,"lon":5.419883,"is_reserved":false,"is_disabled":false,"rental_uris":{"android":"levelo://app?vid=5ac85406-65d0-4336-aa89-4b04b2e6689e","ios":"levelo://app?vid=5ac85406-65d0-4336-aa89-4b04b2e6689e"},"vehicle_type_id":"4","last_reported":1753297881,"current_range_meters":16400,"station_id":"","pricing_plan_id":"cebpf4jnsgd1na2vs0mg"},{"bike_id":"496cac02-0e91-4f64-97b9-cb34cf0ab931","system_id":"levelo_inurba_marseille","lat":43.22494,"lon":5.34774,"is_reserved":false,"is_disabled":false,"rental_uris":{"android":"levelo://app?vid=496cac02-0e91-4f64-97b9-cb34cf0ab931","ios":"levelo://app?vid=496cac02-0e91-4f64-97b9-cb34cf0ab931"},"vehicle_type_id":"4","last_reported":1753297881,"current_range_meters":16400,"station_id":"st_cvj5dfep6f1abm77gieg","pricing_plan_id":"cebpf4jnsgd1na2vs0mg"},{"bike_id":"a0dda597-7e3c-4572-895b-aa5a1454c2de","system_id":"levelo_inurba_marseille","lat":43.29042,"lon":5.35916,"is_reserved":false,"is_disabled":false,"rental_uris":{"android":"levelo://app?vid=a0dda597-7e3c-4572-895b-aa5a1454c2de","ios":"levelo://app?vid=a0dda597-7e3c-4572-895b-aa5a1454c2de"},"vehicle_type_id":"4","last_reported":1753297881,"current_range_meters":17200,"station_id":"ce4bha92rcd13ifvqeg0","pricing_plan_id":"cebpf4jnsgd1na2vs0mg"},{"bike_id":"2d4a3aed-f017-4a53-b9bb-7fd9d8cbcb8f","system_id":"levelo_inurba_marseille","lat":43.29588,"lon":5.36748,"is_reserved":false,"is_disabled":false,"rental_uris":{"android":"levelo://app?vid=2d4a3aed-f017-4a53-b9bb-7fd9d8cbcb8f","ios":"levelo://app?vid=2d4a3aed-f017-4a53-b9bb-7fd9d8cbcb8f"},"vehicle_type_id":"4","last_reported":1753297881,"current_range_meters":16400,"station_id":"ce4bgph2rcd13ifvqc2g","pricing_plan_id":"cebpf4jnsgd1na2vs0mg"},{"bike_id":"ae131367-d818-44a0-9e1d-4aa65dcdb16a","system_id":"levelo_inurba_marseille","lat":43.27505,"lon":5.39649,"is_reserved":false,"is_disabled":false,"rental_uris":{"android":"levelo://app?vid=ae131367-d818-44a0-9e1d-4aa65dcdb16a","ios":"levelo://app?vid=ae131367-d818-44a0-9e1d-4aa65dcdb16a"},"vehicle_type_id":"4","last_reported":1753297881,"current_range_meters":16400,"station_id":"","pricing_plan_id":"cebpf4jnsgd1na2vs0mg"},{"bike_id":"0648eb3b-38dc-45ba-994e-ffad74a620d8","system_id":"levelo_inurba_marseille","lat":43.29015,"lon":5.38641,"is_reserved":false,"is_disabled":true,"rental_uris":{"android":"levelo://app?vid=0648eb3b-38dc-45ba-994e-ffad74a620d8","ios":"levelo://app?vid=0648eb3b-38dc-45ba-994e-ffad74a620d8"},"vehicle_type_id":"4","last_reported":1753297881,"current_range_meters":16400,"station_id":"ce4bh4p2rcd13ifvqe0g","pricing_plan_id":"cebpf4jnsgd1na2vs0mg"},{"bike_id":"7e231082-ca80-484a-8170-64d2cde0d7a2","system_id":"levelo_inurba_marseille","lat":43.29022,"lon":5.38618,"is_reserved":false,"is_disabled":false,"rental_uris":{"android":"levelo://app?vid=7e231082-ca80-484a-8170-64d2cde0d7a2","ios":"levelo://app?vid=7e231082-ca80-484a-8170-64d2cde0d7a2"},"vehicle_type_id":"4","last_reported":1753297881,"current_range_meters":16400,"station_id":"ce4bh4p2rcd13ifvqe0g","pricing_plan_id":"cebpf4jnsgd1na2vs0mg"},{"bike_id":"3cd09fc8-9554-4236-8496-0931a7be09d1","system_id":"levelo_inurba_marseille","lat":43.21192,"lon":5.35089,"is_reserved":false,"is_disabled":false,"rental_uris":{"android":"levelo://app?vid=3cd09fc8-9554-4236-8496-0931a7be09d1","ios":"levelo://app?vid=3cd09fc8-9554-4236-8496-0931a7be09d1"},"vehicle_type_id":"4","last_reported":1753297881,"current_range_meters":16400,"station_id":"st_cvj6sg6p6f1abm77japg","pricing_plan_id":"cebpf4jnsgd1na2vs0mg"},{"bike_id":"67467489-78bc-445b-9306-7ebbddb67421","system_id":"levelo_inurba_marseille","lat":43.28609,"lon":5.35107,"is_reserved":false,"is_disabled":false,"rental_uris":{"android":"levelo://app?vid=67467489-78bc-445b-9306-7ebbddb67421","ios":"levelo://app?vid=67467489-78bc-445b-9306-7ebbddb67421"},"vehicle_type_id":"4","last_reported":1753297881,"current_range_meters":16400,"station_id":"ce4bhch2rcd13ifvqeug","pricing_plan_id":"cebpf4jnsgd1na2vs0mg"},{"bike_id":"6bb1f31c-9335-4f39-9585-31374a4775f9","system_id":"levelo_inurba_marseille","lat":43.325583,"lon":5.379059,"is_reserved":false,"is_disabled":false,"rental_uris":{"android":"levelo://app?vid=6bb1f31c-9335-4f39-9585-31374a4775f9","ios":"levelo://app?vid=6bb1f31c-9335-4f39-9585-31374a4775f9"},"vehicle_type_id":"4","last_reported":1753297881,"current_range_meters":16400,"station_id":"","pricing_plan_id":"cebpf4jnsgd1na2vs0mg"},{"bike_id":"21153219-6d23-4427-acaa-a9c5818d34e0","system_id":"levelo_inurba_marseille","lat":43.29617,"lon":5.37174,"is_reserved":false,"is_disabled":false,"rental_uris":{"android":"levelo://app?vid=21153219-6d23-4427-acaa-a9c5818d34e0","ios":"levelo://app?vid=21153219-6d23-4427-acaa-a9c5818d34e0"},"vehicle_type_id":"4","last_reported":1753297881,"current_range_meters":16400,"station_id":"ce4bgnh2rcd13ifvqc0g","pricing_plan_id":"cebpf4jnsgd1na2vs0mg"},{"bike_id":"ba4beda1-3402-4acd-a00a-fcf177703d04","system_id":"levelo_inurba_marseille","lat":43.2958,"lon":5.36768,"is_reserved":false,"is_disabled":false,"rental_uris":{"android":"levelo://app?vid=ba4beda1-3402-4acd-a00a-fcf177703d04","ios":"levelo://app?vid=ba4beda1-3402-4acd-a00a-fcf177703d04"},"vehicle_type_id":"4","last_reported":1753297881,"current_range_meters":16400,"station_id":"ce4bgph2rcd13ifvqc2g","pricing_plan_id":"cebpf4jnsgd1na2vs0mg"},{"bike_id":"f6419716-c272-46b5-b908-d91a04b2b53d","system_id":"levelo_inurba_marseille","lat":43.28039,"lon":5.36941,"is_reserved":false,"is_disabled":false,"rental_uris":{"android":"levelo://app?vid=f6419716-c272-46b5-b908-d91a04b2b53d","ios":"levelo://app?vid=f6419716-c272-46b5-b908-d91a04b2b53d"},"vehicle_type_id":"4","last_reported":1753297881,"current_range_meters":16400,"station_id":"ce4bha12rcd13ifvqef0","pricing_plan_id":"cebpf4jnsgd1na2vs0mg"},{"bike_id":"7249b206-e0b1-49a7-b367-148d951cba52","system_id":"levelo_inurba_marseille","lat":43.33018,"lon":5.39037,"is_reserved":false,"is_disabled":false,"rental_uris":{"android":"levelo://app?vid=7249b206-e0b1-49a7-b367-148d951cba52","ios":"levelo://app?vid=7249b206-e0b1-49a7-b367-148d951cba52"},"vehicle_type_id":"4","last_reported":1753297881,"current_range_meters":16400,"station_id":"ce4bhr92rcd13ifvqhrg","pricing_plan_id":"cebpf4jnsgd1na2vs0mg"},{"bike_id":"c5b6e4f9-7b58-468e-87dd-3b39b07fbb76","system_id":"levelo_inurba_marseille","lat":43.29602,"lon":5.36734,"is_reserved":false,"is_disabled":false,"rental_uris":{"android":"levelo://app?vid=c5b6e4f9-7b58-468e-87dd-3b39b07fbb76","ios":"levelo://app?vid=c5b6e4f9-7b58-468e-87dd-3b39b07fbb76"},"vehicle_type_id":"4","last_reported":1753297881,"current_range_meters":16400,"station_id":"ce4bgph2rcd13ifvqc2g","pricing_plan_id":"cebpf4jnsgd1na2vs0mg"},{"bike_id":"da02e45a-a7af-4ba3-a013-1f386c6cc032","system_id":"levelo_inurba_marseille","lat":43.29584,"lon":5.36746,"is_reserved":false,"is_disabled":false,"rental_uris":{"android":"levelo://app?vid=da02e45a-a7af-4ba3-a013-1f386c6cc032","ios":"levelo://app?vid=da02e45a-a7af-4ba3-a013-1f386c6cc032"},"vehicle_type_id":"4","last_reported":1753297881,"current_range_meters":16400,"station_id":"ce4bgph2rcd13ifvqc2g","pricing_plan_id":"cebpf4jnsgd1na2vs0mg"},{"bike_id":"92e197f5-5f7e-41ca-932d-2a3ff826c4fb","system_id":"levelo_inurba_marseille","lat":43.29695,"lon":5.36611,"is_reserved":false,"is_disabled":false,"rental_uris":{"android":"levelo://app?vid=92e197f5-5f7e-41ca-932d-2a3ff826c4fb","ios":"levelo://app?vid=92e197f5-5f7e-41ca-932d-2a3ff826c4fb"},"vehicle_type_id":"4","last_reported":1753297881,"current_range_meters":16400,"station_id":"ce4bgn12rcd13ifvqbt0","pricing_plan_id":"cebpf4jnsgd1na2vs0mg"},{"bike_id":"072249e0-6b31-4d65-814c-3886177b7a41","system_id":"levelo_inurba_marseille","lat":43.31774,"lon":5.38994,"is_reserved":false,"is_disabled":false,"rental_uris":{"android":"levelo://app?vid=072249e0-6b31-4d65-814c-3886177b7a41","ios":"levelo://app?vid=072249e0-6b31-4d65-814c-3886177b7a41"},"vehicle_type_id":"4","last_reported":1753297881,"current_range_meters":16400,"station_id":"ce4bhqp2rcd13ifvqhng","pricing_plan_id":"cebpf4jnsgd1na2vs0mg"},{"bike_id":"f9003d10-d9c2-4f36-aaab-0b06e5143ac9","system_id":"levelo_inurba_marseille","lat":43.3018,"lon":5.37371,"is_reserved":false,"is_disabled":true,"rental_uris":{"android":"levelo://app?vid=f9003d10-d9c2-4f36-aaab-0b06e5143ac9","ios":"levelo://app?vid=f9003d10-d9c2-4f36-aaab-0b06e5143ac9"},"vehicle_type_id":"4","last_reported":1753297881,"current_range_meters":16800,"station_id":"ce4bgs92rcd13ifvqcc0","pricing_plan_id":"cebpf4jnsgd1na2vs0mg"},{"bike_id":"b1611388-74da-4bd8-aa35-2fd1ff7cb76e","system_id":"levelo_inurba_marseille","lat":43.27059,"lon":5.42292,"is_reserved":false,"is_disabled":false,"rental_uris":{"android":"levelo://app?vid=b1611388-74da-4bd8-aa35-2fd1ff7cb76e","ios":"levelo://app?vid=b1611388-74da-4bd8-aa35-2fd1ff7cb76e"},"vehicle_type_id":"4","last_reported":1753297881,"current_range_meters":16800,"station_id":"ce4bhk92rcd13ifvqgb0","pricing_plan_id":"cebpf4jnsgd1na2vs0mg"},{"bike_id":"8653745e-84f9-4064-b6e8-6e4e8bfce0ff","system_id":"levelo_inurba_marseille","lat":43.23963,"lon":5.3662,"is_reserved":false,"is_disabled":false,"rental_uris":{"android":"levelo://app?vid=8653745e-84f9-4064-b6e8-6e4e8bfce0ff","ios":"levelo://app?vid=8653745e-84f9-4064-b6e8-6e4e8bfce0ff"},"vehicle_type_id":"4","last_reported":1753297881,"current_range_meters":16800,"station_id":"ce4bhi12rcd13ifvqfp0","pricing_plan_id":"cebpf4jnsgd1na2vs0mg"},{"bike_id":"24d41707-0aa6-41f4-a142-43a8857ed779","system_id":"levelo_inurba_marseille","lat":43.29845,"lon":5.36271,"is_reserved":false,"is_disabled":false,"rental_uris":{"android":"levelo://app?vid=24d41707-0aa6-41f4-a142-43a8857ed779","ios":"levelo://app?vid=24d41707-0aa6-41f4-a142-43a8857ed779"},"vehicle_type_id":"4","last_reported":1753297881,"current_range_meters":16800,"station_id":"ce4bgpp2rcd13ifvqc3g","pricing_plan_id":"cebpf4jnsgd1na2vs0mg"},{"bike_id":"c056311f-78c9-4e18-8685-91c659ddb125","system_id":"levelo_inurba_marseille","lat":43.31617,"lon":5.38974,"is_reserved":false,"is_disabled":false,"rental_uris":{"android":"levelo://app?vid=c056311f-78c9-4e18-8685-91c659ddb125","ios":"levelo://app?vid=c056311f-78c9-4e18-8685-91c659ddb125"},"vehicle_type_id":"4","last_reported":1753297881,"current_range_meters":16800,"station_id":"","pricing_plan_id":"cebpf4jnsgd1na2vs0mg"},{"bike_id":"70737bad-8214-4681-8a7d-fa98042cf105","system_id":"levelo_inurba_marseille","lat":43.29048,"lon":5.39989,"is_reserved":false,"is_disabled":false,"rental_uris":{"android":"levelo://app?vid=70737bad-8214-4681-8a7d-fa98042cf105","ios":"levelo://app?vid=70737bad-8214-4681-8a7d-fa98042cf105"},"vehicle_type_id":"4","last_reported":1753297881,"current_range_meters":16800,"station_id":"ce4bh392rcd13ifvqdm0","pricing_plan_id":"cebpf4jnsgd1na2vs0mg"},{"bike_id":"2ab13189-003e-452e-8e71-0da7f2ffad71","system_id":"levelo_inurba_marseille","lat":43.28343,"lon":5.38103,"is_reserved":false,"is_disabled":false,"rental_uris":{"android":"levelo://app?vid=2ab13189-003e-452e-8e71-0da7f2ffad71","ios":"levelo://app?vid=2ab13189-003e-452e-8e71-0da7f2ffad71"},"vehicle_type_id":"4","last_reported":1753297881,"current_range_meters":16800,"station_id":"ce4bh412rcd13ifvqdr0","pricing_plan_id":"cebpf4jnsgd1na2vs0mg"},{"bike_id":"cf70f504-da6d-4258-8ac8-5608a4ce9670","system_id":"levelo_inurba_marseille","lat":43.291,"lon":5.38127,"is_reserved":false,"is_disabled":false,"rental_uris":{"android":"levelo://app?vid=cf70f504-da6d-4258-8ac8-5608a4ce9670","ios":"levelo://app?vid=cf70f504-da6d-4258-8ac8-5608a4ce9670"},"vehicle_type_id":"4","last_reported":1753297881,"current_range_meters":16400,"station_id":"ce4bh512rcd13ifvqe2g","pricing_plan_id":"cebpf4jnsgd1na2vs0mg"},{"bike_id":"399c9278-2e1d-46b0-8fc7-107a470cae18","system_id":"levelo_inurba_marseille","lat":43.29574,"lon":5.36755,"is_reserved":false,"is_disabled":false,"rental_uris":{"android":"levelo://app?vid=399c9278-2e1d-46b0-8fc7-107a470cae18","ios":"levelo://app?vid=399c9278-2e1d-46b0-8fc7-107a470cae18"},"vehicle_type_id":"4","last_reported":1753297881,"current_range_meters":16800,"station_id":"ce4bgph2rcd13ifvqc2g","pricing_plan_id":"cebpf4jnsgd1na2vs0mg"},{"bike_id":"6d4ff16f-f8b9-4f42-bdbe-009a867fa37b","system_id":"levelo_inurba_marseille","lat":43.29585,"lon":5.36747,"is_reserved":false,"is_disabled":false,"rental_uris":{"android":"levelo://app?vid=6d4ff16f-f8b9-4f42-bdbe-009a867fa37b","ios":"levelo://app?vid=6d4ff16f-f8b9-4f42-bdbe-009a867fa37b"},"vehicle_type_id":"4","last_reported":1753297881,"current_range_meters":16800,"station_id":"ce4bgph2rcd13ifvqc2g","pricing_plan_id":"cebpf4jnsgd1na2vs0mg"},{"bike_id":"1dc4fd9d-835f-4a9e-bf4a-65d0f1dd88a9","system_id":"levelo_inurba_marseille","lat":43.31759,"lon":5.3901,"is_reserved":false,"is_disabled":false,"rental_uris":{"android":"levelo://app?vid=1dc4fd9d-835f-4a9e-bf4a-65d0f1dd88a9","ios":"levelo://app?vid=1dc4fd9d-835f-4a9e-bf4a-65d0f1dd88a9"},"vehicle_type_id":"4","last_reported":1753297881,"current_range_meters":16800,"station_id":"ce4bhqp2rcd13ifvqhng","pricing_plan_id":"cebpf4jnsgd1na2vs0mg"},{"bike_id":"5771bc00-065d-4aca-9a53-c03e85646abb","system_id":"levelo_inurba_marseille","lat":43.29857,"lon":5.363,"is_reserved":false,"is_disabled":false,"rental_uris":{"android":"levelo://app?vid=5771bc00-065d-4aca-9a53-c03e85646abb","ios":"levelo://app?vid=5771bc00-065d-4aca-9a53-c03e85646abb"},"vehicle_type_id":"4","last_reported":1753297881,"current_range_meters":16800,"station_id":"ce4bgpp2rcd13ifvqc3g","pricing_plan_id":"cebpf4jnsgd1na2vs0mg"},{"bike_id":"ea5fcb0b-6aa5-4f76-8a4a-c4781d9c4881","system_id":"levelo_inurba_marseille","lat":43.313633,"lon":5.38497,"is_reserved":false,"is_disabled":false,"rental_uris":{"android":"levelo://app?vid=ea5fcb0b-6aa5-4f76-8a4a-c4781d9c4881","ios":"levelo://app?vid=ea5fcb0b-6aa5-4f76-8a4a-c4781d9c4881"},"vehicle_type_id":"4","last_reported":1753297881,"current_range_meters":16800,"station_id":"ce4bgt92rcd13ifvqcf0","pricing_plan_id":"cebpf4jnsgd1na2vs0mg"},{"bike_id":"b52e74cd-ff69-4417-b50e-80e0e49ad997","system_id":"levelo_inurba_marseille","lat":43.22492,"lon":5.34776,"is_reserved":false,"is_disabled":false,"rental_uris":{"android":"levelo://app?vid=b52e74cd-ff69-4417-b50e-80e0e49ad997","ios":"levelo://app?vid=b52e74cd-ff69-4417-b50e-80e0e49ad997"},"vehicle_type_id":"4","last_reported":1753297881,"current_range_meters":16800,"station_id":"st_cvj5dfep6f1abm77gieg","pricing_plan_id":"cebpf4jnsgd1na2vs0mg"},{"bike_id":"6a79a396-2f47-4b1c-9dce-b0d5464f72e4","system_id":"levelo_inurba_marseille","lat":43.22923,"lon":5.35373,"is_reserved":false,"is_disabled":false,"rental_uris":{"android":"levelo://app?vid=6a79a396-2f47-4b1c-9dce-b0d5464f72e4","ios":"levelo://app?vid=6a79a396-2f47-4b1c-9dce-b0d5464f72e4"},"vehicle_type_id":"4","last_reported":1753297881,"current_range_meters":16800,"station_id":"cpo3532slgdg3j2ikp40","pricing_plan_id":"cebpf4jnsgd1na2vs0mg"},{"bike_id":"0f015389-098c-449f-91dd-7f77c61d6819","system_id":"levelo_inurba_marseille","lat":43.29261,"lon":5.38445,"is_reserved":false,"is_disabled":false,"rental_uris":{"android":"levelo://app?vid=0f015389-098c-449f-91dd-7f77c61d6819","ios":"levelo://app?vid=0f015389-098c-449f-91dd-7f77c61d6819"},"vehicle_type_id":"4","last_reported":1753297881,"current_range_meters":16800,"station_id":"ce4bh692rcd13ifvqea0","pricing_plan_id":"cebpf4jnsgd1na2vs0mg"},{"bike_id":"54943e91-61ee-496b-9667-a7c6c3a25bb5","system_id":"levelo_inurba_marseille","lat":43.26227,"lon":5.37422,"is_reserved":false,"is_disabled":false,"rental_uris":{"android":"levelo://app?vid=54943e91-61ee-496b-9667-a7c6c3a25bb5","ios":"levelo://app?vid=54943e91-61ee-496b-9667-a7c6c3a25bb5"},"vehicle_type_id":"4","last_reported":1753297881,"current_range_meters":16800,"station_id":"ce4bhgp2rcd13ifvqfc0","pricing_plan_id":"cebpf4jnsgd1na2vs0mg"},{"bike_id":"d33a195d-1aba-4725-a7a9-74d21f9597a0","system_id":"levelo_inurba_marseille","lat":43.26212,"lon":5.3744,"is_reserved":false,"is_disabled":false,"rental_uris":{"android":"levelo://app?vid=d33a195d-1aba-4725-a7a9-74d21f9597a0","ios":"levelo://app?vid=d33a195d-1aba-4725-a7a9-74d21f9597a0"},"vehicle_type_id":"4","last_reported":1753297881,"current_range_meters":17200,"station_id":"ce4bhgp2rcd13ifvqfc0","pricing_plan_id":"cebpf4jnsgd1na2vs0mg"},{"bike_id":"e1b51a81-d796-418d-95b5-e07ff541f307","system_id":"levelo_inurba_marseille","lat":43.29567,"lon":5.36742,"is_reserved":false,"is_disabled":false,"rental_uris":{"android":"levelo://app?vid=e1b51a81-d796-418d-95b5-e07ff541f307","ios":"levelo://app?vid=e1b51a81-d796-418d-95b5-e07ff541f307"},"vehicle_type_id":"4","last_reported":1753297881,"current_range_meters":17200,"station_id":"ce4bgph2rcd13ifvqc2g","pricing_plan_id":"cebpf4jnsgd1na2vs0mg"},{"bike_id":"3211cbdc-74b2-4255-8fba-b1e6690e199f","system_id":"levelo_inurba_marseille","lat":43.29848,"lon":5.36273,"is_reserved":false,"is_disabled":false,"rental_uris":{"android":"levelo://app?vid=3211cbdc-74b2-4255-8fba-b1e6690e199f","ios":"levelo://app?vid=3211cbdc-74b2-4255-8fba-b1e6690e199f"},"vehicle_type_id":"4","last_reported":1753297881,"current_range_meters":17200,"station_id":"ce4bgpp2rcd13ifvqc3g","pricing_plan_id":"cebpf4jnsgd1na2vs0mg"},{"bike_id":"22b9460e-b092-432c-9ba4-b5553b327bff","system_id":"levelo_inurba_marseille","lat":43.28434,"lon":5.39186,"is_reserved":false,"is_disabled":false,"rental_uris":{"android":"levelo://app?vid=22b9460e-b092-432c-9ba4-b5553b327bff","ios":"levelo://app?vid=22b9460e-b092-432c-9ba4-b5553b327bff"},"vehicle_type_id":"4","last_reported":1753297881,"current_range_meters":17200,"station_id":"ce4bhoh2rcd13ifvqh5g","pricing_plan_id":"cebpf4jnsgd1na2vs0mg"},{"bike_id":"200eafce-91c3-45c4-b765-a29eda91d9dc","system_id":"levelo_inurba_marseille","lat":43.29033,"lon":5.38647,"is_reserved":false,"is_disabled":false,"rental_uris":{"android":"levelo://app?vid=200eafce-91c3-45c4-b765-a29eda91d9dc","ios":"levelo://app?vid=200eafce-91c3-45c4-b765-a29eda91d9dc"},"vehicle_type_id":"4","last_reported":1753297881,"current_range_meters":17200,"station_id":"ce4bh4p2rcd13ifvqe0g","pricing_plan_id":"cebpf4jnsgd1na2vs0mg"},{"bike_id":"1699da3b-157a-4d07-ba4d-8fe9df7d93c7","system_id":"levelo_inurba_marseille","lat":43.30375,"lon":5.41931,"is_reserved":false,"is_disabled":false,"rental_uris":{"android":"levelo://app?vid=1699da3b-157a-4d07-ba4d-8fe9df7d93c7","ios":"levelo://app?vid=1699da3b-157a-4d07-ba4d-8fe9df7d93c7"},"vehicle_type_id":"4","last_reported":1753297881,"current_range_meters":17200,"station_id":"","pricing_plan_id":"cebpf4jnsgd1na2vs0mg"},{"bike_id":"35c14987-3d71-4187-8b70-199e8ffb58d7","system_id":"levelo_inurba_marseille","lat":43.29577,"lon":5.36756,"is_reserved":false,"is_disabled":false,"rental_uris":{"android":"levelo://app?vid=35c14987-3d71-4187-8b70-199e8ffb58d7","ios":"levelo://app?vid=35c14987-3d71-4187-8b70-199e8ffb58d7"},"vehicle_type_id":"4","last_reported":1753297881,"current_range_meters":17200,"station_id":"ce4bgph2rcd13ifvqc2g","pricing_plan_id":"cebpf4jnsgd1na2vs0mg"},{"bike_id":"8cb533f0-6034-460b-90e0-0fbfd987312f","system_id":"levelo_inurba_marseille","lat":43.29859,"lon":5.36217,"is_reserved":false,"is_disabled":false,"rental_uris":{"android":"levelo://app?vid=8cb533f0-6034-460b-90e0-0fbfd987312f","ios":"levelo://app?vid=8cb533f0-6034-460b-90e0-0fbfd987312f"},"vehicle_type_id":"4","last_reported":1753297881,"current_range_meters":17200,"station_id":"","pricing_plan_id":"cebpf4jnsgd1na2vs0mg"},{"bike_id":"18b86593-4f21-41ed-81b3-f3a5b378dc91","system_id":"levelo_inurba_marseille","lat":43.312339,"lon":5.381309,"is_reserved":false,"is_disabled":false,"rental_uris":{"android":"levelo://app?vid=18b86593-4f21-41ed-81b3-f3a5b378dc91","ios":"levelo://app?vid=18b86593-4f21-41ed-81b3-f3a5b378dc91"},"vehicle_type_id":"4","last_reported":1753297881,"current_range_meters":17200,"station_id":"","pricing_plan_id":"cebpf4jnsgd1na2vs0mg"},{"bike_id":"ec75ca64-c00c-48d7-b83f-73ee37d1d1a4","system_id":"levelo_inurba_marseille","lat":43.29937,"lon":5.36521,"is_reserved":false,"is_disabled":false,"rental_uris":{"android":"levelo://app?vid=ec75ca64-c00c-48d7-b83f-73ee37d1d1a4","ios":"levelo://app?vid=ec75ca64-c00c-48d7-b83f-73ee37d1d1a4"},