{"last_updated":1762659471,"ttl":60,"version":"2.2","data":{"bikes":[{"bike_id":"32fa44b7-ee72-495b-965a-2cf0bb7e4981","system_id":"levelo_inurba_marseille","lat":43.29814,"lon":5.38647,"is_reserved":false,"is_disabled":false,"rental_uris":{"android":"levelo://app?vid=32fa44b7-ee72-495b-965a-2cf0bb7e4981","ios":"levelo://app?vid=32fa44b7-ee72-495b-965a-2cf0bb7e4981"},"vehicle_type_id":"4","last_reported":1762659471,"current_range_meters":2800,"station_id":"","pricing_plan_id":"cebpf4jnsgd1na2vs0mg"},{"bike_id":"49dd1d04-6373-4579-ae55-7e56290948f9","system_id":"levelo_inurba_marseille","lat":43.26677,"lon":5.38273,"is_reserved":false,"is_disabled":false,"rental_uris":{"android":"levelo://app?vid=49dd1d04-6373-4579-ae55-7e56290948f9","ios":"levelo://app?vid=49dd1d04-6373-4579-ae55-7e56290948f9"},"vehicle_type_id":"4","last_reported":1762659471,"current_range_meters":2800,"station_id":"ce4bhg92rcd13ifvqf90","pricing_plan_id":"cebpf4jnsgd1na2vs0mg"},{"bike_id":"ef2fe57e-ecba-4765-96d3-8349654ec56e","system_id":"levelo_inurba_marseille","lat":43.32929,"lon":5.364,"is_reserved":false,"is_disabled":false,"rental_uris":{"android":"levelo://app?vid=ef2fe57e-ecba-4765-96d3-8349654ec56e","ios":"levelo://app?vid=ef2fe57e-ecba-4765-96d3-8349654ec56e"},"vehicle_type_id":"4","last_reported":1762659471,"current_range_meters":2800,"station_id":"","pricing_plan_id":"cebpf4jnsgd1na2vs0mg"},{"bike_id":"1d2b7085-d82d-4ba0-8b68-e9a73677e56d","system_id":"levelo_inurba_marseille","lat":43.31066,"lon":5.38357,"is_reserved":false,"is_disabled":false,"rental_uris":{"android":"levelo://app?vid=1d2b7085-d82d-4ba0-8b68-e9a73677e56d","ios":"levelo://app?vid=1d2b7085-d82d-4ba0-8b68-e9a73677e56d"},"vehicle_type_id":"4","last_reported":1762659471,"current_range_meters":2800,"station_id":"ce4bgv92rcd13ifvqcr0","pricing_plan_id":"cebpf4jnsgd1na2vs0mg"},{"bike_id":"5b98d579-5d9e-4fea-93b7-a7307fb6f858","system_id":"levelo_inurba_marseille","lat":43.238003,"lon":5.366267,"is_reserved":false,"is_disabled":false,"rental_uris":{"android":"levelo://app?vid=5b98d579-5d9e-4fea-93b7-a7307fb6f858","ios":"levelo://app?vid=5b98d579-5d9e-4fea-93b7-a7307fb6f858"},"vehicle_type_id":"4","last_reported":1762659471,"current_range_meters":3600,"station_id":"st_d3nk18o9ro0c73en2l3g","pricing_plan_id":"cebpf4jnsgd1na2vs0mg"},{"bike_id":"711b5184-06a1-46c6-b1ad-270408b914a4","system_id":"levelo_inurba_marseille","lat":43.30017,"lon":5.40984,"is_reserved":false,"is_disabled":false,"rental_uris":{"android":"levelo://app?vid=711b5184-06a1-46c6-b1ad-270408b914a4","ios":"levelo://app?vid=711b5184-06a1-46c6-b1ad-270408b914a4"},"vehicle_type_id":"4","last_reported":1762659471,"current_range_meters":3600,"station_id":"","pricing_plan_id":"cebpf4jnsgd1na2vs0mg"},{"bike_id":"46748178-17b8-4dc8-80b3-39159ff743e0","system_id":"levelo_inurba_marseille","lat":43.30072,"lon":5.38341,"is_reserved":false,"is_disabled":false,"rental_uris":{"android":"levelo://app?vid=46748178-17b8-4dc8-80b3-39159ff743e0","ios":"levelo://app?vid=46748178-17b8-4dc8-80b3-39159ff743e0"},"vehicle_type_id":"4","last_reported":1762659471,"current_range_meters":3600,"station_id":"","pricing_plan_id":"cebpf4jnsgd1na2vs0mg"},{"bike_id":"09ef64c9-8369-4998-8a84-5b278effc959","system_id":"levelo_inurba_marseille","lat":43.29614,"lon":5.40309,"is_reserved":false,"is_disabled":false,"rental_uris":{"android":"levelo://app?vid=09ef64c9-8369-4998-8a84-5b278effc959","ios":"levelo://app?vid=09ef64c9-8369-4998-8a84-5b278effc959"},"vehicle_type_id":"4","last_reported":1762659471,"current_range_meters":3600,"station_id":"","pricing_plan_id":"cebpf4jnsgd1na2vs0mg"},{"bike_id":"ce276a57-a873-4d2e-9482-94cff9c01199","system_id":"levelo_inurba_marseille","lat":43.28658,"lon":5.363583,"is_reserved":false,"is_disabled":false,"rental_uris":{"android":"levelo://app?vid=ce276a57-a873-4d2e-9482-94cff9c01199","ios":"levelo://app?vid=ce276a57-a873-4d2e-9482-94cff9c01199"},"vehicle_type_id":"4","last_reported":1762659471,"current_range_meters":3600,"station_id":"ce4bhah2rcd13ifvqej0","pricing_plan_id":"cebpf4jnsgd1na2vs0mg"},{"bike_id":"c687f5b8-73fc-4bba-bdba-8dae557f7ae6","system_id":"levelo_inurba_marseille","lat":43.273767,"lon":5.362491,"is_reserved":false,"is_disabled":true,"rental_uris":{"android":"levelo://app?vid=c687f5b8-73fc-4bba-bdba-8dae557f7ae6","ios":"levelo://app?vid=c687f5b8-73fc-4bba-bdba-8dae557f7ae6"},"vehicle_type_id":"4","last_reported":1762659471,"current_range_meters":4000,"station_id":"ce4bhbh2rcd13ifvqeo0","pricing_plan_id":"cebpf4jnsgd1na2vs0mg"},{"bike_id":"8dda5be2-8b8c-4391-84cd-25d78012c7af","system_id":"levelo_inurba_marseille","lat":43.312411,"lon":5.36875,"is_reserved":false,"is_disabled":false,"rental_uris":{"android":"levelo://app?vid=8dda5be2-8b8c-4391-84cd-25d78012c7af","ios":"levelo://app?vid=8dda5be2-8b8c-4391-84cd-25d78012c7af"},"vehicle_type_id":"4","last_reported":1762659471,"current_range_meters":4000,"station_id":"ce4bgl92rcd13ifvqbq0","pricing_plan_id":"cebpf4jnsgd1na2vs0mg"},{"bike_id":"acd557de-f5b5-4879-83af-4b0e72bb7a14","system_id":"levelo_inurba_marseille","lat":43.2707,"lon":5.38299,"is_reserved":false,"is_disabled":false,"rental_uris":{"android":"levelo://app?vid=acd557de-f5b5-4879-83af-4b0e72bb7a14","ios":"levelo://app?vid=acd557de-f5b5-4879-83af-4b0e72bb7a14"},"vehicle_type_id":"4","last_reported":1762659471,"current_range_meters":4000,"station_id":"st_d3n2fo6cfp8s73cte1j0","pricing_plan_id":"cebpf4jnsgd1na2vs0mg"},{"bike_id":"9f611ac1-6f6a-4437-9025-ea87f35606a4","system_id":"levelo_inurba_marseille","lat":43.285421,"lon":5.377721,"is_reserved":false,"is_disabled":false,"rental_uris":{"android":"levelo://app?vid=9f611ac1-6f6a-4437-9025-ea87f35606a4","ios":"levelo://app?vid=9f611ac1-6f6a-4437-9025-ea87f35606a4"},"vehicle_type_id":"4","last_reported":1762659471,"current_range_meters":4000,"station_id":"","pricing_plan_id":"cebpf4jnsgd1na2vs0mg"},{"bike_id":"9b95728d-eb6e-44bc-be34-317a49ea657a","system_id":"levelo_inurba_marseille","lat":43.28096,"lon":5.40173,"is_reserved":false,"is_disabled":false,"rental_uris":{"android":"levelo://app?vid=9b95728d-eb6e-44bc-be34-317a49ea657a","ios":"levelo://app?vid=9b95728d-eb6e-44bc-be34-317a49ea657a"},"vehicle_type_id":"4","last_reported":1762659471,"current_range_meters":4000,"station_id":"","pricing_plan_id":"cebpf4jnsgd1na2vs0mg"},{"bike_id":"78bd5f74-b07f-4aac-b566-26ecec6fd5df","system_id":"levelo_inurba_marseille","lat":43.30676,"lon":5.38041,"is_reserved":false,"is_disabled":false,"rental_uris":{"android":"levelo://app?vid=78bd5f74-b07f-4aac-b566-26ecec6fd5df","ios":"levelo://app?vid=78bd5f74-b07f-4aac-b566-26ecec6fd5df"},"vehicle_type_id":"4","last_reported":1762659471,"current_range_meters":4000,"station_id":"","pricing_plan_id":"cebpf4jnsgd1na2vs0mg"},{"bike_id":"5d63f2aa-8446-4f1d-92da-1e2d5b4a6cc8","system_id":"levelo_inurba_marseille","lat":43.29665,"lon":5.37758,"is_reserved":false,"is_disabled":false,"rental_uris":{"android":"levelo://app?vid=5d63f2aa-8446-4f1d-92da-1e2d5b4a6cc8","ios":"levelo://app?vid=5d63f2aa-8446-4f1d-92da-1e2d5b4a6cc8"},"vehicle_type_id":"4","last_reported":1762659471,"current_range_meters":4400,"station_id":"","pricing_plan_id":"cebpf4jnsgd1na2vs0mg"},{"bike_id":"6580beb2-f281-473f-9ef4-7b331653ef2e","system_id":"levelo_inurba_marseille","lat":43.29123,"lon":5.40795,"is_reserved":false,"is_disabled":false,"rental_uris":{"android":"levelo://app?vid=6580beb2-f281-473f-9ef4-7b331653ef2e","ios":"levelo://app?vid=6580beb2-f281-473f-9ef4-7b331653ef2e"},"vehicle_type_id":"4","last_reported":1762659471,"current_range_meters":4400,"station_id":"","pricing_plan_id":"cebpf4jnsgd1na2vs0mg"},{"bike_id":"348bf609-07f6-4ffc-add0-6df7615d023f","system_id":"levelo_inurba_marseille","lat":43.337669,"lon":5.37438,"is_reserved":false,"is_disabled":false,"rental_uris":{"android":"levelo://app?vid=348bf609-07f6-4ffc-add0-6df7615d023f","ios":"levelo://app?vid=348bf609-07f6-4ffc-add0-6df7615d023f"},"vehicle_type_id":"4","last_reported":1762659471,"current_range_meters":4400,"station_id":"","pricing_plan_id":"cebpf4jnsgd1na2vs0mg"},{"bike_id":"ec8177c4-cb65-47b2-85c7-d0cab19867f9","system_id":"levelo_inurba_marseille","lat":43.265578,"lon":5.37284,"is_reserved":false,"is_disabled":false,"rental_uris":{"android":"levelo://app?vid=ec8177c4-cb65-47b2-85c7-d0cab19867f9","ios":"levelo://app?vid=ec8177c4-cb65-47b2-85c7-d0cab19867f9"},"vehicle_type_id":"4","last_reported":1762659471,"current_range_meters":4800,"station_id":"ce4bhg12rcd13ifvqf70","pricing_plan_id":"cebpf4jnsgd1na2vs0mg"},{"bike_id":"7c392732-2900-41fd-8c6d-e5b49cdf67b5","system_id":"levelo_inurba_marseille","lat":43.29735,"lon":5.38292,"is_reserved":false,"is_disabled":false,"rental_uris":{"android":"levelo://app?vid=7c392732-2900-41fd-8c6d-e5b49cdf67b5","ios":"levelo://app?vid=7c392732-2900-41fd-8c6d-e5b49cdf67b5"},"vehicle_type_id":"4","last_reported":1762659471,"current_range_meters":4800,"station_id":"","pricing_plan_id":"cebpf4jnsgd1na2vs0mg"},{"bike_id":"c03bd52b-534b-4ae1-bb73-924e391fe2f5","system_id":"levelo_inurba_marseille","lat":43.25523,"lon":5.3767,"is_reserved":false,"is_disabled":true,"rental_uris":{"android":"levelo://app?vid=c03bd52b-534b-4ae1-bb73-924e391fe2f5","ios":"levelo://app?vid=c03bd52b-534b-4ae1-bb73-924e391fe2f5"},"vehicle_type_id":"4","last_reported":1762659471,"current_range_meters":5600,"station_id":"ce4bhh12rcd13ifvqff0","pricing_plan_id":"cebpf4jnsgd1na2vs0mg"},{"bike_id":"3608e548-4033-44dd-af05-e160405da94a","system_id":"levelo_inurba_marseille","lat":43.259337,"lon":5.408985,"is_reserved":false,"is_disabled":false,"rental_uris":{"android":"levelo://app?vid=3608e548-4033-44dd-af05-e160405da94a","ios":"levelo://app?vid=3608e548-4033-44dd-af05-e160405da94a"},"vehicle_type_id":"4","last_reported":1762659471,"current_range_meters":5600,"station_id":"ce4bhm92rcd13ifvqglg","pricing_plan_id":"cebpf4jnsgd1na2vs0mg"},{"bike_id":"34c14480-831b-41a9-b30b-a1e8f994a110","system_id":"levelo_inurba_marseille","lat":43.30857,"lon":5.37132,"is_reserved":false,"is_disabled":false,"rental_uris":{"android":"levelo://app?vid=34c14480-831b-41a9-b30b-a1e8f994a110","ios":"levelo://app?vid=34c14480-831b-41a9-b30b-a1e8f994a110"},"vehicle_type_id":"4","last_reported":1762659471,"current_range_meters":5600,"station_id":"","pricing_plan_id":"cebpf4jnsgd1na2vs0mg"},{"bike_id":"f17369a8-721f-41b9-b44a-b6dd21ee726c","system_id":"levelo_inurba_marseille","lat":43.30424,"lon":5.41292,"is_reserved":false,"is_disabled":false,"rental_uris":{"android":"levelo://app?vid=f17369a8-721f-41b9-b44a-b6dd21ee726c","ios":"levelo://app?vid=f17369a8-721f-41b9-b44a-b6dd21ee726c"},"vehicle_type_id":"4","last_reported":1762659471,"current_range_meters":5600,"station_id":"ce4bhop2rcd13ifvqh8g","pricing_plan_id":"cebpf4jnsgd1na2vs0mg"},{"bike_id":"47820c2c-f6b8-4cf9-a4c6-fc63b338bd4f","system_id":"levelo_inurba_marseille","lat":43.27994,"lon":5.41664,"is_reserved":false,"is_disabled":false,"rental_uris":{"android":"levelo://app?vid=47820c2c-f6b8-4cf9-a4c6-fc63b338bd4f","ios":"levelo://app?vid=47820c2c-f6b8-4cf9-a4c6-fc63b338bd4f"},"vehicle_type_id":"4","last_reported":1762659471,"current_range_meters":5600,"station_id":"ce4bho12rcd13ifvqh1g","pricing_plan_id":"cebpf4jnsgd1na2vs0mg"},{"bike_id":"5bee8f0f-57fe-4257-a72a-04a4967570b5","system_id":"levelo_inurba_marseille","lat":43.30057,"lon":5.37729,"is_reserved":false,"is_disabled":false,"rental_uris":{"android":"levelo://app?vid=5bee8f0f-57fe-4257-a72a-04a4967570b5","ios":"levelo://app?vid=5bee8f0f-57fe-4257-a72a-04a4967570b5"},"vehicle_type_id":"4","last_reported":1762659471,"current_range_meters":5600,"station_id":"","pricing_plan_id":"cebpf4jnsgd1na2vs0mg"},{"bike_id":"b244e63f-2736-4592-bd42-3ed07c477bf1","system_id":"levelo_inurba_marseille","lat":43.30291,"lon":5.36931,"is_reserved":false,"is_disabled":false,"rental_uris":{"android":"levelo://app?vid=b244e63f-2736-4592-bd42-3ed07c477bf1","ios":"levelo://app?vid=b244e63f-2736-4592-bd42-3ed07c477bf1"},"vehicle_type_id":"4","last_reported":1762659471,"current_range_meters":6000,"station_id":"ce4bgqh2rcd13ifvqc5g","pricing_plan_id":"cebpf4jnsgd1na2vs0mg"},{"bike_id":"d12e4128-0f82-40ca-8e94-25ee1548b2e2","system_id":"levelo_inurba_marseille","lat":43.29201,"lon":5.35817,"is_reserved":false,"is_disabled":false,"rental_uris":{"android":"levelo://app?vid=d12e4128-0f82-40ca-8e94-25ee1548b2e2","ios":"levelo://app?vid=d12e4128-0f82-40ca-8e94-25ee1548b2e2"},"vehicle_type_id":"4","last_reported":1762659471,"current_range_meters":6400,"station_id":"ce4bhb12rcd13ifvqel0","pricing_plan_id":"cebpf4jnsgd1na2vs0mg"},{"bike_id":"4368ae1c-3f07-4d38-946d-e5bd2325dd82","system_id":"levelo_inurba_marseille","lat":43.279152,"lon":5.39577,"is_reserved":false,"is_disabled":false,"rental_uris":{"android":"levelo://app?vid=4368ae1c-3f07-4d38-946d-e5bd2325dd82","ios":"levelo://app?vid=4368ae1c-3f07-4d38-946d-e5bd2325dd82"},"vehicle_type_id":"4","last_reported":1762659471,"current_range_meters":6400,"station_id":"ce4bhf92rcd13ifvqf40","pricing_plan_id":"cebpf4jnsgd1na2vs0mg"},{"bike_id":"2bda9569-8855-4749-9a29-a9c55ba153ed","system_id":"levelo_inurba_marseille","lat":43.22555,"lon":5.41627,"is_reserved":false,"is_disabled":false,"rental_uris":{"android":"levelo://app?vid=2bda9569-8855-4749-9a29-a9c55ba153ed","ios":"levelo://app?vid=2bda9569-8855-4749-9a29-a9c55ba153ed"},"vehicle_type_id":"4","last_reported":1762659471,"current_range_meters":6400,"station_id":"st_d2o4gvlbi1j2169b742g","pricing_plan_id":"cebpf4jnsgd1na2vs0mg"},{"bike_id":"b05048b6-3636-4628-97b9-678771374061","system_id":"levelo_inurba_marseille","lat":43.31243,"lon":5.37627,"is_reserved":false,"is_disabled":true,"rental_uris":{"android":"levelo://app?vid=b05048b6-3636-4628-97b9-678771374061","ios":"levelo://app?vid=b05048b6-3636-4628-97b9-678771374061"},"vehicle_type_id":"4","last_reported":1762659471,"current_range_meters":6400,"station_id":"","pricing_plan_id":"cebpf4jnsgd1na2vs0mg"},{"bike_id":"a0ea519d-554f-42a0-93a3-d4c181552c78","system_id":"levelo_inurba_marseille","lat":43.31288,"lon":5.37756,"is_reserved":false,"is_disabled":false,"rental_uris":{"android":"levelo://app?vid=a0ea519d-554f-42a0-93a3-d4c181552c78","ios":"levelo://app?vid=a0ea519d-554f-42a0-93a3-d4c181552c78"},"vehicle_type_id":"4","last_reported":1762659471,"current_range_meters":6400,"station_id":"","pricing_plan_id":"cebpf4jnsgd1na2vs0mg"},{"bike_id":"3df1ea74-4323-4495-adf2-6ebb2ea74981","system_id":"levelo_inurba_marseille","lat":43.281083,"lon":5.378361,"is_reserved":false,"is_disabled":false,"rental_uris":{"android":"levelo://app?vid=3df1ea74-4323-4495-adf2-6ebb2ea74981","ios":"levelo://app?vid=3df1ea74-4323-4495-adf2-6ebb2ea74981"},"vehicle_type_id":"4","last_reported":1762659471,"current_range_meters":6400,"station_id":"ce4bha12rcd13ifvqee0","pricing_plan_id":"cebpf4jnsgd1na2vs0mg"},{"bike_id":"5c17ed12-8897-4f84-bbfc-85419a7f8038","system_id":"levelo_inurba_marseille","lat":43.27079,"lon":5.39476,"is_reserved":false,"is_disabled":false,"rental_uris":{"android":"levelo://app?vid=5c17ed12-8897-4f84-bbfc-85419a7f8038","ios":"levelo://app?vid=5c17ed12-8897-4f84-bbfc-85419a7f8038"},"vehicle_type_id":"4","last_reported":1762659471,"current_range_meters":6800,"station_id":"","pricing_plan_id":"cebpf4jnsgd1na2vs0mg"},{"bike_id":"eb46c66d-5104-4495-80f5-a25d45718f4c","system_id":"levelo_inurba_marseille","lat":43.3039,"lon":5.42496,"is_reserved":false,"is_disabled":false,"rental_uris":{"android":"levelo://app?vid=eb46c66d-5104-4495-80f5-a25d45718f4c","ios":"levelo://app?vid=eb46c66d-5104-4495-80f5-a25d45718f4c"},"vehicle_type_id":"4","last_reported":1762659471,"current_range_meters":6800,"station_id":"ce4bhoh2rcd13ifvqh6g","pricing_plan_id":"cebpf4jnsgd1na2vs0mg"},{"bike_id":"9bc3bbff-37bb-41d1-80dc-b7cb1a77b9d9","system_id":"levelo_inurba_marseille","lat":43.30262,"lon":5.40028,"is_reserved":false,"is_disabled":false,"rental_uris":{"android":"levelo://app?vid=9bc3bbff-37bb-41d1-80dc-b7cb1a77b9d9","ios":"levelo://app?vid=9bc3bbff-37bb-41d1-80dc-b7cb1a77b9d9"},"vehicle_type_id":"4","last_reported":1762659471,"current_range_meters":6800,"station_id":"ce4bgvh2rcd13ifvqcs0","pricing_plan_id":"cebpf4jnsgd1na2vs0mg"},{"bike_id":"8f7c2452-6bc2-4fdc-a583-8d2415ee4356","system_id":"levelo_inurba_marseille","lat":43.27956,"lon":5.41058,"is_reserved":false,"is_disabled":false,"rental_uris":{"android":"levelo://app?vid=8f7c2452-6bc2-4fdc-a583-8d2415ee4356","ios":"levelo://app?vid=8f7c2452-6bc2-4fdc-a583-8d2415ee4356"},"vehicle_type_id":"4","last_reported":1762659471,"current_range_meters":6800,"station_id":"ce4bhnp2rcd13ifvqh0g","pricing_plan_id":"cebpf4jnsgd1na2vs0mg"},{"bike_id":"61a7521a-8207-4e8e-8e62-e9d6929a8cff","system_id":"levelo_inurba_marseille","lat":43.26576,"lon":5.40326,"is_reserved":false,"is_disabled":false,"rental_uris":{"android":"levelo://app?vid=61a7521a-8207-4e8e-8e62-e9d6929a8cff","ios":"levelo://app?vid=61a7521a-8207-4e8e-8e62-e9d6929a8cff"},"vehicle_type_id":"4","last_reported":1762659471,"current_range_meters":6800,"station_id":"ce4bhmp2rcd13ifvqgng","pricing_plan_id":"cebpf4jnsgd1na2vs0mg"},{"bike_id":"a3a26465-b70c-4479-b741-843f16621c8d","system_id":"levelo_inurba_marseille","lat":43.284,"lon":5.37493,"is_reserved":false,"is_disabled":false,"rental_uris":{"android":"levelo://app?vid=a3a26465-b70c-4479-b741-843f16621c8d","ios":"levelo://app?vid=a3a26465-b70c-4479-b741-843f16621c8d"},"vehicle_type_id":"4","last_reported":1762659471,"current_range_meters":7200,"station_id":"ce4bh412rcd13ifvqds0","pricing_plan_id":"cebpf4jnsgd1na2vs0mg"},{"bike_id":"1287bfb9-052c-4054-97f4-3cfc43708f51","system_id":"levelo_inurba_marseille","lat":43.2657,"lon":5.37298,"is_reserved":false,"is_disabled":false,"rental_uris":{"android":"levelo://app?vid=1287bfb9-052c-4054-97f4-3cfc43708f51","ios":"levelo://app?vid=1287bfb9-052c-4054-97f4-3cfc43708f51"},"vehicle_type_id":"4","last_reported":1762659471,"current_range_meters":7200,"station_id":"ce4bhg12rcd13ifvqf70","pricing_plan_id":"cebpf4jnsgd1na2vs0mg"},{"bike_id":"05f5bb0b-ac3b-4234-887b-2f8b90625e47","system_id":"levelo_inurba_marseille","lat":43.28858,"lon":5.35866,"is_reserved":false,"is_disabled":false,"rental_uris":{"android":"levelo://app?vid=05f5bb0b-ac3b-4234-887b-2f8b90625e47","ios":"levelo://app?vid=05f5bb0b-ac3b-4234-887b-2f8b90625e47"},"vehicle_type_id":"4","last_reported":1762659471,"current_range_meters":7200,"station_id":"ce4bhb12rcd13ifvqem0","pricing_plan_id":"cebpf4jnsgd1na2vs0mg"},{"bike_id":"409310d0-a23c-4254-a635-9ac601a84fce","system_id":"levelo_inurba_marseille","lat":43.30533,"lon":5.36714,"is_reserved":false,"is_disabled":false,"rental_uris":{"android":"levelo://app?vid=409310d0-a23c-4254-a635-9ac601a84fce","ios":"levelo://app?vid=409310d0-a23c-4254-a635-9ac601a84fce"},"vehicle_type_id":"4","last_reported":1762659471,"current_range_meters":7200,"station_id":"ce4bgrp2rcd13ifvqc9g","pricing_plan_id":"cebpf4jnsgd1na2vs0mg"},{"bike_id":"d13f7aac-3326-47eb-8c83-0485dd333747","system_id":"levelo_inurba_marseille","lat":43.30481,"lon":5.39271,"is_reserved":false,"is_disabled":false,"rental_uris":{"android":"levelo://app?vid=d13f7aac-3326-47eb-8c83-0485dd333747","ios":"levelo://app?vid=d13f7aac-3326-47eb-8c83-0485dd333747"},"vehicle_type_id":"4","last_reported":1762659471,"current_range_meters":7200,"station_id":"","pricing_plan_id":"cebpf4jnsgd1na2vs0mg"},{"bike_id":"4808a961-222a-4299-a58a-2821e96f740c","system_id":"levelo_inurba_marseille","lat":43.3089,"lon":5.39655,"is_reserved":false,"is_disabled":false,"rental_uris":{"android":"levelo://app?vid=4808a961-222a-4299-a58a-2821e96f740c","ios":"levelo://app?vid=4808a961-222a-4299-a58a-2821e96f740c"},"vehicle_type_id":"4","last_reported":1762659471,"current_range_meters":7200,"station_id":"ce4bh012rcd13ifvqcv0","pricing_plan_id":"cebpf4jnsgd1na2vs0mg"},{"bike_id":"38f4a7b0-738b-4ae6-bbde-ea368b7a33cc","system_id":"levelo_inurba_marseille","lat":43.28357,"lon":5.3811,"is_reserved":false,"is_disabled":false,"rental_uris":{"android":"levelo://app?vid=38f4a7b0-738b-4ae6-bbde-ea368b7a33cc","ios":"levelo://app?vid=38f4a7b0-738b-4ae6-bbde-ea368b7a33cc"},"vehicle_type_id":"4","last_reported":1762659471,"current_range_meters":8000,"station_id":"ce4bh412rcd13ifvqdr0","pricing_plan_id":"cebpf4jnsgd1na2vs0mg"},{"bike_id":"c17e1393-9583-466c-8772-47805069b4b2","system_id":"levelo_inurba_marseille","lat":43.24182,"lon":5.39729,"is_reserved":false,"is_disabled":false,"rental_uris":{"android":"levelo://app?vid=c17e1393-9583-466c-8772-47805069b4b2","ios":"levelo://app?vid=c17e1393-9583-466c-8772-47805069b4b2"},"vehicle_type_id":"4","last_reported":1762659471,"current_range_meters":8000,"station_id":"ce4bhn12rcd13ifvqgpg","pricing_plan_id":"cebpf4jnsgd1na2vs0mg"},{"bike_id":"9a959a9d-3741-405c-a6ee-fd06ae076c40","system_id":"levelo_inurba_marseille","lat":43.217544,"lon":5.346132,"is_reserved":false,"is_disabled":false,"rental_uris":{"android":"levelo://app?vid=9a959a9d-3741-405c-a6ee-fd06ae076c40","ios":"levelo://app?vid=9a959a9d-3741-405c-a6ee-fd06ae076c40"},"vehicle_type_id":"4","last_reported":1762659471,"current_range_meters":8000,"station_id":"st_cvj6r9ubvosntc0bgbag","pricing_plan_id":"cebpf4jnsgd1na2vs0mg"},{"bike_id":"26aad628-bd01-4664-890e-ba85447bad9f","system_id":"levelo_inurba_marseille","lat":43.303332,"lon":5.40429,"is_reserved":false,"is_disabled":true,"rental_uris":{"android":"levelo://app?vid=26aad628-bd01-4664-890e-ba85447bad9f","ios":"levelo://app?vid=26aad628-bd01-4664-890e-ba85447bad9f"},"vehicle_type_id":"4","last_reported":1762659471,"current_range_meters":8000,"station_id":"ce4bh012rcd13ifvqd10","pricing_plan_id":"cebpf4jnsgd1na2vs0mg"},{"bike_id":"bad93078-b484-4873-a1ce-359b2e630abc","system_id":"levelo_inurba_marseille","lat":43.29373,"lon":5.38437,"is_reserved":false,"is_disabled":false,"rental_uris":{"android":"levelo://app?vid=bad93078-b484-4873-a1ce-359b2e630abc","ios":"levelo://app?vid=bad93078-b484-4873-a1ce-359b2e630abc"},"vehicle_type_id":"4","last_reported":1762659471,"current_range_meters":8000,"station_id":"","pricing_plan_id":"cebpf4jnsgd1na2vs0mg"},{"bike_id":"21796bbd-1c22-4041-a45b-9df62dff9b59","system_id":"levelo_inurba_marseille","lat":43.29902,"lon":5.37469,"is_reserved":false,"is_disabled":false,"rental_uris":{"android":"levelo://app?vid=21796bbd-1c22-4041-a45b-9df62dff9b59","ios":"levelo://app?vid=21796bbd-1c22-4041-a45b-9df62dff9b59"},"vehicle_type_id":"4","last_reported":1762659471,"current_range_meters":8000,"station_id":"ce4bgjh2rcd13ifvqbg0","pricing_plan_id":"cebpf4jnsgd1na2vs0mg"},{"bike_id":"36181477-9b1b-474b-b500-94cd21c63e26","system_id":"levelo_inurba_marseille","lat":43.287227,"lon":5.399844,"is_reserved":false,"is_disabled":false,"rental_uris":{"android":"levelo://app?vid=36181477-9b1b-474b-b500-94cd21c63e26","ios":"levelo://app?vid=36181477-9b1b-474b-b500-94cd21c63e26"},"vehicle_type_id":"4","last_reported":1762659471,"current_range_meters":8400,"station_id":"ce4bho92rcd13ifvqh3g","pricing_plan_id":"cebpf4jnsgd1na2vs0mg"},{"bike_id":"5916b080-126b-493e-9d76-68ff8df78665","system_id":"levelo_inurba_marseille","lat":43.25123,"lon":5.40323,"is_reserved":false,"is_disabled":false,"rental_uris":{"android":"levelo://app?vid=5916b080-126b-493e-9d76-68ff8df78665","ios":"levelo://app?vid=5916b080-126b-493e-9d76-68ff8df78665"},"vehicle_type_id":"4","last_reported":1762659471,"current_range_meters":8400,"station_id":"ce4bhlh2rcd13ifvqgig","pricing_plan_id":"cebpf4jnsgd1na2vs0mg"},{"bike_id":"9d001bd6-2c50-4fe0-987b-f4c0aee9f670","system_id":"levelo_inurba_marseille","lat":43.30144,"lon":5.38387,"is_reserved":false,"is_disabled":false,"rental_uris":{"android":"levelo://app?vid=9d001bd6-2c50-4fe0-987b-f4c0aee9f670","ios":"levelo://app?vid=9d001bd6-2c50-4fe0-987b-f4c0aee9f670"},"vehicle_type_id":"4","last_reported":1762659471,"current_range_meters":8400,"station_id":"","pricing_plan_id":"cebpf4jnsgd1na2vs0mg"},{"bike_id":"95565d88-4e0c-4b5d-b6d1-9a4c73bcb1f1","system_id":"levelo_inurba_marseille","lat":43.33767,"lon":5.37432,"is_reserved":false,"is_disabled":false,"rental_uris":{"android":"levelo://app?vid=95565d88-4e0c-4b5d-b6d1-9a4c73bcb1f1","ios":"levelo://app?vid=95565d88-4e0c-4b5d-b6d1-9a4c73bcb1f1"},"vehicle_type_id":"4","last_reported":1762659471,"current_range_meters":8400,"station_id":"","pricing_plan_id":"cebpf4jnsgd1na2vs0mg"},{"bike_id":"417aa6bc-e0ae-4f87-9b37-18072839ab71","system_id":"levelo_inurba_marseille","lat":43.30808,"lon":5.38159,"is_reserved":false,"is_disabled":false,"rental_uris":{"android":"levelo://app?vid=417aa6bc-e0ae-4f87-9b37-18072839ab71","ios":"levelo://app?vid=417aa6bc-e0ae-4f87-9b37-18072839ab71"},"vehicle_type_id":"4","last_reported":1762659471,"current_range_meters":8400,"station_id":"ce4bgt12rcd13ifvqce0","pricing_plan_id":"cebpf4jnsgd1na2vs0mg"},{"bike_id":"bab2073e-c4c9-44aa-be67-77039a9943c5","system_id":"levelo_inurba_marseille","lat":43.28515,"lon":5.38612,"is_reserved":false,"is_disabled":false,"rental_uris":{"android":"levelo://app?vid=bab2073e-c4c9-44aa-be67-77039a9943c5","ios":"levelo://app?vid=bab2073e-c4c9-44aa-be67-77039a9943c5"},"vehicle_type_id":"4","last_reported":1762659471,"current_range_meters":8800,"station_id":"","pricing_plan_id":"cebpf4jnsgd1na2vs0mg"},{"bike_id":"b98c59d1-12c0-4a03-b198-cf728a9bdad0","system_id":"levelo_inurba_marseille","lat":43.29322,"lon":5.37155,"is_reserved":false,"is_disabled":false,"rental_uris":{"android":"levelo://app?vid=b98c59d1-12c0-4a03-b198-cf728a9bdad0","ios":"levelo://app?vid=b98c59d1-12c0-4a03-b198-cf728a9bdad0"},"vehicle_type_id":"4","last_reported":1762659471,"current_range_meters":8800,"station_id":"","pricing_plan_id":"cebpf4jnsgd1na2vs0mg"},{"bike_id":"fc902e96-9661-40f1-bac2-1817df0d7157","system_id":"levelo_inurba_marseille","lat":43.25738,"lon":5.41108,"is_reserved":false,"is_disabled":false,"rental_uris":{"android":"levelo://app?vid=fc902e96-9661-40f1-bac2-1817df0d7157","ios":"levelo://app?vid=fc902e96-9661-40f1-bac2-1817df0d7157"},"vehicle_type_id":"4","last_reported":1762659471,"current_range_meters":8800,"station_id":"ce4bhkp2rcd13ifvqgd0","pricing_plan_id":"cebpf4jnsgd1na2vs0mg"},{"bike_id":"f114550f-0e97-467f-a15f-491fe7ea5021","system_id":"levelo_inurba_marseille","lat":43.2931,"lon":5.37175,"is_reserved":false,"is_disabled":true,"rental_uris":{"android":"levelo://app?vid=f114550f-0e97-467f-a15f-491fe7ea5021","ios":"levelo://app?vid=f114550f-0e97-467f-a15f-491fe7ea5021"},"vehicle_type_id":"4","last_reported":1762659471,"current_range_meters":8800,"station_id":"ce4bgh92rcd13ifvqb40","pricing_plan_id":"cebpf4jnsgd1na2vs0mg"},{"bike_id":"cd36fb7c-4385-47bd-96a8-f8889a6e3476","system_id":"levelo_inurba_marseille","lat":43.29906,"lon":5.43654,"is_reserved":false,"is_disabled":false,"rental_uris":{"android":"levelo://app?vid=cd36fb7c-4385-47bd-96a8-f8889a6e3476","ios":"levelo://app?vid=cd36fb7c-4385-47bd-96a8-f8889a6e3476"},"vehicle_type_id":"4","last_reported":1762659471,"current_range_meters":8800,"station_id":"ce4bhpp2rcd13ifvqhfg","pricing_plan_id":"cebpf4jnsgd1na2vs0mg"},{"bike_id":"cc9a29dd-6ee2-49d8-92ef-b2d7952d5700","system_id":"levelo_inurba_marseille","lat":43.28613,"lon":5.35099,"is_reserved":false,"is_disabled":false,"rental_uris":{"android":"levelo://app?vid=cc9a29dd-6ee2-49d8-92ef-b2d7952d5700","ios":"levelo://app?vid=cc9a29dd-6ee2-49d8-92ef-b2d7952d5700"},"vehicle_type_id":"4","last_reported":1762659471,"current_range_meters":8800,"station_id":"ce4bhch2rcd13ifvqeug","pricing_plan_id":"cebpf4jnsgd1na2vs0mg"},{"bike_id":"a4b610ef-5dc5-47fb-9228-87e17fe490d3","system_id":"levelo_inurba_marseille","lat":43.27076,"lon":5.42286,"is_reserved":false,"is_disabled":true,"rental_uris":{"android":"levelo://app?vid=a4b610ef-5dc5-47fb-9228-87e17fe490d3","ios":"levelo://app?vid=a4b610ef-5dc5-47fb-9228-87e17fe490d3"},"vehicle_type_id":"4","last_reported":1762659471,"current_range_meters":8800,"station_id":"ce4bhk92rcd13ifvqgb0","pricing_plan_id":"cebpf4jnsgd1na2vs0mg"},{"bike_id":"59736966-d2af-4cbc-8ac5-e955aeb2f190","system_id":"levelo_inurba_marseille","lat":43.288664,"lon":5.425087,"is_reserved":false,"is_disabled":false,"rental_uris":{"android":"levelo://app?vid=59736966-d2af-4cbc-8ac5-e955aeb2f190","ios":"levelo://app?vid=59736966-d2af-4cbc-8ac5-e955aeb2f190"},"vehicle_type_id":"4","last_reported":1762659471,"current_range_meters":8800,"station_id":"st_d3b462108ojc7389ooeg","pricing_plan_id":"cebpf4jnsgd1na2vs0mg"},{"bike_id":"c0969de0-74b0-4b5a-9248-b43b0ee3e19e","system_id":"levelo_inurba_marseille","lat":43.24918,"lon":5.37688,"is_reserved":false,"is_disabled":false,"rental_uris":{"android":"levelo://app?vid=c0969de0-74b0-4b5a-9248-b43b0ee3e19e","ios":"levelo://app?vid=c0969de0-74b0-4b5a-9248-b43b0ee3e19e"},"vehicle_type_id":"4","last_reported":1762659471,"current_range_meters":8800,"station_id":"","pricing_plan_id":"cebpf4jnsgd1na2vs0mg"},{"bike_id":"3b294fa9-3f9f-4381-a2a8-e3592d375a68","system_id":"levelo_inurba_marseille","lat":43.26666,"lon":5.39679,"is_reserved":false,"is_disabled":false,"rental_uris":{"android":"levelo://app?vid=3b294fa9-3f9f-4381-a2a8-e3592d375a68","ios":"levelo://app?vid=3b294fa9-3f9f-4381-a2a8-e3592d375a68"},"vehicle_type_id":"4","last_reported":1762659471,"current_range_meters":8800,"station_id":"","pricing_plan_id":"cebpf4jnsgd1na2vs0mg"},{"bike_id":"382f597e-181c-4839-b1de-04339df9aa55","system_id":"levelo_inurba_marseille","lat":43.2681,"lon":5.40252,"is_reserved":false,"is_disabled":true,"rental_uris":{"android":"levelo://app?vid=382f597e-181c-4839-b1de-04339df9aa55","ios":"levelo://app?vid=382f597e-181c-4839-b1de-04339df9aa55"},"vehicle_type_id":"4","last_reported":1762659471,"current_range_meters":9200,"station_id":"ce501612rcd8frsf0b60","pricing_plan_id":"cebpf4jnsgd1na2vs0mg"},{"bike_id":"d510b29d-06c6-4a67-8cee-2182097a14e2","system_id":"levelo_inurba_marseille","lat":43.29268,"lon":5.37558,"is_reserved":false,"is_disabled":true,"rental_uris":{"android":"levelo://app?vid=d510b29d-06c6-4a67-8cee-2182097a14e2","ios":"levelo://app?vid=d510b29d-06c6-4a67-8cee-2182097a14e2"},"vehicle_type_id":"4","last_reported":1762659471,"current_range_meters":9200,"station_id":"","pricing_plan_id":"cebpf4jnsgd1na2vs0mg"},{"bike_id":"321d43c2-a97c-419e-a110-a172b4ee23e9","system_id":"levelo_inurba_marseille","lat":43.26175,"lon":5.4177,"is_reserved":false,"is_disabled":false,"rental_uris":{"android":"levelo://app?vid=321d43c2-a97c-419e-a110-a172b4ee23e9","ios":"levelo://app?vid=321d43c2-a97c-419e-a110-a172b4ee23e9"},"vehicle_type_id":"4","last_reported":1762659471,"current_range_meters":9200,"station_id":"","pricing_plan_id":"cebpf4jnsgd1na2vs0mg"},{"bike_id":"2049b5f5-a61d-4a53-9402-9b03842abc29","system_id":"levelo_inurba_marseille","lat":43.29179,"lon":5.35796,"is_reserved":false,"is_disabled":false,"rental_uris":{"android":"levelo://app?vid=2049b5f5-a61d-4a53-9402-9b03842abc29","ios":"levelo://app?vid=2049b5f5-a61d-4a53-9402-9b03842abc29"},"vehicle_type_id":"4","last_reported":1762659471,"current_range_meters":9200,"station_id":"ce4bhb12rcd13ifvqel0","pricing_plan_id":"cebpf4jnsgd1na2vs0mg"},{"bike_id":"ab824c26-f4e9-401f-98a6-1494a1ffc459","system_id":"levelo_inurba_marseille","lat":43.27977,"lon":5.38737,"is_reserved":false,"is_disabled":false,"rental_uris":{"android":"levelo://app?vid=ab824c26-f4e9-401f-98a6-1494a1ffc459","ios":"levelo://app?vid=ab824c26-f4e9-401f-98a6-1494a1ffc459"},"vehicle_type_id":"4","last_reported":1762659471,"current_range_meters":9600,"station_id":"ce4bhg12rcd13ifvqf80","pricing_plan_id":"cebpf4jnsgd1na2vs0mg"},{"bike_id":"93bedc54-a7b1-48ec-9b87-8b90ffb2b6e0","system_id":"levelo_inurba_marseille","lat":43.26571,"lon":5.3901,"is_reserved":false,"is_disabled":false,"rental_uris":{"android":"levelo://app?vid=93bedc54-a7b1-48ec-9b87-8b90ffb2b6e0","ios":"levelo://app?vid=93bedc54-a7b1-48ec-9b87-8b90ffb2b6e0"},"vehicle_type_id":"4","last_reported":1762659471,"current_range_meters":9600,"station_id":"ce4bhe12rcd13ifvqf30","pricing_plan_id":"cebpf4jnsgd1na2vs0mg"},{"bike_id":"9606f59c-b785-468b-bf32-4f7152eb69f7","system_id":"levelo_inurba_marseille","lat":43.253421,"lon":5.421706,"is_reserved":false,"is_disabled":false,"rental_uris":{"android":"levelo://app?vid=9606f59c-b785-468b-bf32-4f7152eb69f7","ios":"levelo://app?vid=9606f59c-b785-468b-bf32-4f7152eb69f7"},"vehicle_type_id":"4","last_reported":1762659471,"current_range_meters":9600,"station_id":"st_d2m65c5bi1j21697t3ng","pricing_plan_id":"cebpf4jnsgd1na2vs0mg"},{"bike_id":"acebb37f-10a9-4fea-ba6c-a317484bde56","system_id":"levelo_inurba_marseille","lat":43.29836,"lon":5.36504,"is_reserved":false,"is_disabled":false,"rental_uris":{"android":"levelo://app?vid=acebb37f-10a9-4fea-ba6c-a317484bde56","ios":"levelo://app?vid=acebb37f-10a9-4fea-ba6c-a317484bde56"},"vehicle_type_id":"4","last_reported":1762659471,"current_range_meters":9600,"station_id":"","pricing_plan_id":"cebpf4jnsgd1na2vs0mg"},{"bike_id":"1339ef90-7056-4f6c-97e9-32c4fa532151","system_id":"levelo_inurba_marseille","lat":43.240363,"lon":5.377467,"is_reserved":false,"is_disabled":false,"rental_uris":{"android":"levelo://app?vid=1339ef90-7056-4f6c-97e9-32c4fa532151","ios":"levelo://app?vid=1339ef90-7056-4f6c-97e9-32c4fa532151"},"vehicle_type_id":"4","last_reported":1762659471,"current_range_meters":9600,"station_id":"ce4bhnp2rcd13ifvqgvg","pricing_plan_id":"cebpf4jnsgd1na2vs0mg"},{"bike_id":"4bce02cb-bdba-488a-a39f-eae80d4c7da8","system_id":"levelo_inurba_marseille","lat":43.282146,"lon":5.390403,"is_reserved":false,"is_disabled":true,"rental_uris":{"android":"levelo://app?vid=4bce02cb-bdba-488a-a39f-eae80d4c7da8","ios":"levelo://app?vid=4bce02cb-bdba-488a-a39f-eae80d4c7da8"},"vehicle_type_id":"4","last_reported":1762659471,"current_range_meters":9600,"station_id":"ce4bhn92rcd13ifvqgsg","pricing_plan_id":"cebpf4jnsgd1na2vs0mg"},{"bike_id":"dfde87bb-1a24-4866-bcda-6d9da60c1cf9","system_id":"levelo_inurba_marseille","lat":43.28591,"lon":5.39366,"is_reserved":false,"is_disabled":false,"rental_uris":{"android":"levelo://app?vid=dfde87bb-1a24-4866-bcda-6d9da60c1cf9","ios":"levelo://app?vid=dfde87bb-1a24-4866-bcda-6d9da60c1cf9"},"vehicle_type_id":"4","last_reported":1762659471,"current_range_meters":9600,"station_id":"","pricing_plan_id":"cebpf4jnsgd1na2vs0mg"},{"bike_id":"45d41c42-1d64-4739-91b3-0c50d88b5151","system_id":"levelo_inurba_marseille","lat":43.290321,"lon":5.375639,"is_reserved":false,"is_disabled":false,"rental_uris":{"android":"levelo://app?vid=45d41c42-1d64-4739-91b3-0c50d88b5151","ios":"levelo://app?vid=45d41c42-1d64-4739-91b3-0c50d88b5151"},"vehicle_type_id":"4","last_reported":1762659471,"current_range_meters":10000,"station_id":"ce4bh692rcd13ifvqe90","pricing_plan_id":"cebpf4jnsgd1na2vs0mg"},{"bike_id":"0e481b69-920b-48e1-b4f6-7ad29c4b0bcb","system_id":"levelo_inurba_marseille","lat":43.24677,"lon":5.43162,"is_reserved":false,"is_disabled":false,"rental_uris":{"android":"levelo://app?vid=0e481b69-920b-48e1-b4f6-7ad29c4b0bcb","ios":"levelo://app?vid=0e481b69-920b-48e1-b4f6-7ad29c4b0bcb"},"vehicle_type_id":"4","last_reported":1762659471,"current_range_meters":10000,"station_id":"st_d2m6c4gdas8pm72e190g","pricing_plan_id":"cebpf4jnsgd1na2vs0mg"},{"bike_id":"609469e2-94a3-4cce-97ec-9d5ded68b076","system_id":"levelo_inurba_marseille","lat":43.296282,"lon":5.406072,"is_reserved":false,"is_disabled":false,"rental_uris":{"android":"levelo://app?vid=609469e2-94a3-4cce-97ec-9d5ded68b076","ios":"levelo://app?vid=609469e2-94a3-4cce-97ec-9d5ded68b076"},"vehicle_type_id":"4","last_reported":1762659471,"current_range_meters":10000,"station_id":"ce4bh0h2rcd13ifvqd60","pricing_plan_id":"cebpf4jnsgd1na2vs0mg"},{"bike_id":"00a9969d-61b2-4fdd-bff1-9604d9c17fcc","system_id":"levelo_inurba_marseille","lat":43.28672,"lon":5.36351,"is_reserved":false,"is_disabled":false,"rental_uris":{"android":"levelo://app?vid=00a9969d-61b2-4fdd-bff1-9604d9c17fcc","ios":"levelo://app?vid=00a9969d-61b2-4fdd-bff1-9604d9c17fcc"},"vehicle_type_id":"4","last_reported":1762659471,"current_range_meters":10000,"station_id":"ce4bhah2rcd13ifvqej0","pricing_plan_id":"cebpf4jnsgd1na2vs0mg"},{"bike_id":"f241d95e-4149-4a55-b9ec-acd9fdf7868e","system_id":"levelo_inurba_marseille","lat":43.24643,"lon":5.38939,"is_reserved":false,"is_disabled":false,"rental_uris":{"android":"levelo://app?vid=f241d95e-4149-4a55-b9ec-acd9fdf7868e","ios":"levelo://app?vid=f241d95e-4149-4a55-b9ec-acd9fdf7868e"},"vehicle_type_id":"4","last_reported":1762659471,"current_range_meters":10000,"station_id":"ce4bhg12rcd13ifvqf60","pricing_plan_id":"cebpf4jnsgd1na2vs0mg"},{"bike_id":"fecd52af-29bb-4bb2-9160-9e83d6376c53","system_id":"levelo_inurba_marseille","lat":43.2874,"lon":5.39587,"is_reserved":false,"is_disabled":false,"rental_uris":{"android":"levelo://app?vid=fecd52af-29bb-4bb2-9160-9e83d6376c53","ios":"levelo://app?vid=fecd52af-29bb-4bb2-9160-9e83d6376c53"},"vehicle_type_id":"4","last_reported":1762659471,"current_range_meters":10000,"station_id":"","pricing_plan_id":"cebpf4jnsgd1na2vs0mg"},{"bike_id":"d53e3e83-9723-4bde-9700-226d67319c88","system_id":"levelo_inurba_marseille","lat":43.301357,"lon":5.38775,"is_reserved":false,"is_disabled":false,"rental_uris":{"android":"levelo://app?vid=d53e3e83-9723-4bde-9700-226d67319c88","ios":"levelo://app?vid=d53e3e83-9723-4bde-9700-226d67319c88"},"vehicle_type_id":"4","last_reported":1762659471,"current_range_meters":10000,"station_id":"ce4bghh2rcd13ifvqb60","pricing_plan_id":"cebpf4jnsgd1na2vs0mg"},{"bike_id":"0e37c406-15ef-4a6c-8f37-3e3428645836","system_id":"levelo_inurba_marseille","lat":43.3093,"lon":5.40151,"is_reserved":false,"is_disabled":false,"rental_uris":{"android":"levelo://app?vid=0e37c406-15ef-4a6c-8f37-3e3428645836","ios":"levelo://app?vid=0e37c406-15ef-4a6c-8f37-3e3428645836"},"vehicle_type_id":"4","last_reported":1762659471,"current_range_meters":10000,"station_id":"ce4bgvp2rcd13ifvqct0","pricing_plan_id":"cebpf4jnsgd1na2vs0mg"},{"bike_id":"4fa93e58-ad51-41bb-b7cd-c71dad4e22b9","system_id":"levelo_inurba_marseille","lat":43.21192,"lon":5.35078,"is_reserved":false,"is_disabled":true,"rental_uris":{"android":"levelo://app?vid=4fa93e58-ad51-41bb-b7cd-c71dad4e22b9","ios":"levelo://app?vid=4fa93e58-ad51-41bb-b7cd-c71dad4e22b9"},"vehicle_type_id":"4","last_reported":1762659471,"current_range_meters":10000,"station_id":"st_cvj6sg6p6f1abm77japg","pricing_plan_id":"cebpf4jnsgd1na2vs0mg"},{"bike_id":"a9865bd5-be41-486d-b55c-2a75c0334784","system_id":"levelo_inurba_marseille","lat":43.28352,"lon":5.38111,"is_reserved":false,"is_disabled":false,"rental_uris":{"android":"levelo://app?vid=a9865bd5-be41-486d-b55c-2a75c0334784","ios":"levelo://app?vid=a9865bd5-be41-486d-b55c-2a75c0334784"},"vehicle_type_id":"4","last_reported":1762659471,"current_range_meters":10000,"station_id":"ce4bh412rcd13ifvqdr0","pricing_plan_id":"cebpf4jnsgd1na2vs0mg"},{"bike_id":"8e78efcd-f898-49bc-83de-5ac5f7715467","system_id":"levelo_inurba_marseille","lat":43.26482,"lon":5.39548,"is_reserved":false,"is_disabled":false,"rental_uris":{"android":"levelo://app?vid=8e78efcd-f898-49bc-83de-5ac5f7715467","ios":"levelo://app?vid=8e78efcd-f898-49bc-83de-5ac5f7715467"},"vehicle_type_id":"4","last_reported":1762659471,"current_range_meters":10000,"station_id":"ce4bhi12rcd13ifvqfq0","pricing_plan_id":"cebpf4jnsgd1na2vs0mg"},{"bike_id":"86a1d395-e83f-4e1c-9550-675523cd2d40","system_id":"levelo_inurba_marseille","lat":43.28303,"lon":5.39015,"is_reserved":false,"is_disabled":false,"rental_uris":{"android":"levelo://app?vid=86a1d395-e83f-4e1c-9550-675523cd2d40","ios":"levelo://app?vid=86a1d395-e83f-4e1c-9550-675523cd2d40"},"vehicle_type_id":"4","last_reported":1762659471,"current_range_meters":10000,"station_id":"","pricing_plan_id":"cebpf4jnsgd1na2vs0mg"},{"bike_id":"665a5ba2-246e-4ac7-a969-6694219b1452","system_id":"levelo_inurba_marseille","lat":43.28835,"lon":5.358515,"is_reserved":false,"is_disabled":true,"rental_uris":{"android":"levelo://app?vid=665a5ba2-246e-4ac7-a969-6694219b1452","ios":"levelo://app?vid=665a5ba2-246e-4ac7-a969-6694219b1452"},"vehicle_type_id":"4","last_reported":1762659471,"current_range_meters":10000,"station_id":"ce4bhb12rcd13ifvqem0","pricing_plan_id":"cebpf4jnsgd1na2vs0mg"},{"bike_id":"0e1a7b6b-5de9-490d-a3c7-f241ef9468d0","system_id":"levelo_inurba_marseille","lat":43.30529,"lon":5.38456,"is_reserved":false,"is_disabled":false,"rental_uris":{"android":"levelo://app?vid=0e1a7b6b-5de9-490d-a3c7-f241ef9468d0","ios":"levelo://app?vid=0e1a7b6b-5de9-490d-a3c7-f241ef9468d0"},"vehicle_type_id":"4","last_reported":1762659471,"current_range_meters":10000,"station_id":"ce4bgg92rcd13ifvqb30","pricing_plan_id":"cebpf4jnsgd1na2vs0mg"},{"bike_id":"1c96cc64-0234-4ae0-b5ee-3c65f4e1762a","system_id":"levelo_inurba_marseille","lat":43.2454,"lon":5.39529,"is_reserved":false,"is_disabled":false,"rental_uris":{"android":"levelo://app?vid=1c96cc64-0234-4ae0-b5ee-3c65f4e1762a","ios":"levelo://app?vid=1c96cc64-0234-4ae0-b5ee-3c65f4e1762a"},"vehicle_type_id":"4","last_reported":1762659471,"current_range_meters":10000,"station_id":"ce4bhlp2rcd13ifvqgjg","pricing_plan_id":"cebpf4jnsgd1na2vs0mg"},{"bike_id":"e29aa7d7-4287-4a52-b3dc-8004a3da962e","system_id":"levelo_inurba_marseille","lat":43.31067,"lon":5.38351,"is_reserved":false,"is_disabled":false,"rental_uris":{"android":"levelo://app?vid=e29aa7d7-4287-4a52-b3dc-8004a3da962e","ios":"levelo://app?vid=e29aa7d7-4287-4a52-b3dc-8004a3da962e"},"vehicle_type_id":"4","last_reported":1762659471,"current_range_meters":10000,"station_id":"ce4bgv92rcd13ifvqcr0","pricing_plan_id":"cebpf4jnsgd1na2vs0mg"},{"bike_id":"027eee29-9bd0-4480-aee4-1542a23bb9f1","system_id":"levelo_inurba_marseille","lat":43.28477,"lon":5.38419,"is_reserved":false,"is_disabled":false,"rental_uris":{"android":"levelo://app?vid=027eee29-9bd0-4480-aee4-1542a23bb9f1","ios":"levelo://app?vid=027eee29-9bd0-4480-aee4-1542a23bb9f1"},"vehicle_type_id":"4","last_reported":1762659471,"current_range_meters":10000,"station_id":"ce4bh512rcd13ifvqe3g","pricing_plan_id":"cebpf4jnsgd1na2vs0mg"},{"bike_id":"60c530a0-69e7-4ff7-af8a-3ef4e145092d","system_id":"levelo_inurba_marseille","lat":43.21746,"lon":5.346038,"is_reserved":false,"is_disabled":false,"rental_uris":{"android":"levelo://app?vid=60c530a0-69e7-4ff7-af8a-3ef4e145092d","ios":"levelo://app?vid=60c530a0-69e7-4ff7-af8a-3ef4e145092d"},"vehicle_type_id":"4","last_reported":1762659471,"current_range_meters":10000,"station_id":"","pricing_plan_id":"cebpf4jnsgd1na2vs0mg"},{"bike_id":"9740c8e5-19a7-40b9-b20a-4e0dd3ed4204","system_id":"levelo_inurba_marseille","lat":43.29624,"lon":5.39979,"is_reserved":false,"is_disabled":false,"rental_uris":{"android":"levelo://app?vid=9740c8e5-19a7-40b9-b20a-4e0dd3ed4204","ios":"levelo://app?vid=9740c8e5-19a7-40b9-b20a-4e0dd3ed4204"},"vehicle_type_id":"4","last_reported":1762659471,"current_range_meters":10000,"station_id":"","pricing_plan_id":"cebpf4jnsgd1na2vs0mg"},{"bike_id":"3017da39-e910-46eb-97bd-84c089ef33f4","system_id":"levelo_inurba_marseille","lat":43.276171,"lon":5.361188,"is_reserved":false,"is_disabled":false,"rental_uris":{"android":"levelo://app?vid=3017da39-e910-46eb-97bd-84c089ef33f4","ios":"levelo://app?vid=3017da39-e910-46eb-97bd-84c089ef33f4"},"vehicle_type_id":"4","last_reported":1762659471,"current_range_meters":10000,"station_id":"ce4bgj92rcd13ifvqbe0","pricing_plan_id":"cebpf4jnsgd1na2vs0mg"},{"bike_id":"870a9ad1-db35-4ab0-bc9a-84476efc6571","system_id":"levelo_inurba_marseille","lat":43.3278,"lon":5.4266,"is_reserved":false,"is_disabled":false,"rental_uris":{"android":"levelo://app?vid=870a9ad1-db35-4ab0-bc9a-84476efc6571","ios":"levelo://app?vid=870a9ad1-db35-4ab0-bc9a-84476efc6571"},"vehicle_type_id":"4","last_reported":1762659471,"current_range_meters":10000,"station_id":"","pricing_plan_id":"cebpf4jnsgd1na2vs0mg"},{"bike_id":"d2991a60-dcfa-4252-8f9d-bfff4b1dc433","system_id":"levelo_inurba_marseille","lat":43.31108,"lon":5.37151,"is_reserved":false,"is_disabled":false,"rental_uris":{"android":"levelo://app?vid=d2991a60-dcfa-4252-8f9d-bfff4b1dc433","ios":"levelo://app?vid=d2991a60-dcfa-4252-8f9d-bfff4b1dc433"},"vehicle_type_id":"4","last_reported":1762659471,"current_range_meters":10000,"station_id":"","pricing_plan_id":"cebpf4jnsgd1na2vs0mg"},{"bike_id":"825a1957-d327-49da-97b3-2485c79c40e7","system_id":"levelo_inurba_marseille","lat":43.217503,"lon":5.346134,"is_reserved":false,"is_disabled":true,"rental_uris":{"android":"levelo://app?vid=825a1957-d327-49da-97b3-2485c79c40e7","ios":"levelo://app?vid=825a1957-d327-49da-97b3-2485c79c40e7"},"vehicle_type_id":"4","last_reported":1762659471,"current_range_meters":10800,"station_id":"","pricing_plan_id":"cebpf4jnsgd1na2vs0mg"},{"bike_id":"95e21939-d92e-4599-9d54-1a3ed3451cff","system_id":"levelo_inurba_marseille","lat":43.27934,"lon":5.41038,"is_reserved":false,"is_disabled":false,"rental_uris":{"android":"levelo://app?vid=95e21939-d92e-4599-9d54-1a3ed3451cff","ios":"levelo://app?vid=95e21939-d92e-4599-9d54-1a3ed3451cff"},"vehicle_type_id":"4","last_reported":1762659471,"current_range_meters":10800,"station_id":"ce4bhnp2rcd13ifvqh0g","pricing_plan_id":"cebpf4jnsgd1na2vs0mg"},{"bike_id":"54fa92af-5541-4137-afea-d36fade5cb4b","system_id":"levelo_inurba_marseille","lat":43.24635,"lon":5.43146,"is_reserved":false,"is_disabled":false,"rental_uris":{"android":"levelo://app?vid=54fa92af-5541-4137-afea-d36fade5cb4b","ios":"levelo://app?vid=54fa92af-5541-4137-afea-d36fade5cb4b"},"vehicle_type_id":"4","last_reported":1762659471,"current_range_meters":10800,"station_id":"st_d2m6c4gdas8pm72e190g","pricing_plan_id":"cebpf4jnsgd1na2vs0mg"},{"bike_id":"fdfdde80-7f98-4492-a263-3964ecfbbb45","system_id":"levelo_inurba_marseille","lat":43.28301,"lon":5.35099,"is_reserved":false,"is_disabled":true,"rental_uris":{"android":"levelo://app?vid=fdfdde80-7f98-4492-a263-3964ecfbbb45","ios":"levelo://app?vid=fdfdde80-7f98-4492-a263-3964ecfbbb45"},"vehicle_type_id":"4","last_reported":1762659471,"current_range_meters":10800,"station_id":"ce4bhbp2rcd13ifvqerg","pricing_plan_id":"cebpf4jnsgd1na2vs0mg"},{"bike_id":"968e9c29-84ee-4827-bcab-ac08bc4ab6d5","system_id":"levelo_inurba_marseille","lat":43.292754,"lon":5.368319,"is_reserved":false,"is_disabled":true,"rental_uris":{"android":"levelo://app?vid=968e9c29-84ee-4827-bcab-ac08bc4ab6d5","ios":"levelo://app?vid=968e9c29-84ee-4827-bcab-ac08bc4ab6d5"},"vehicle_type_id":"4","last_reported":1762659471,"current_range_meters":10800,"station_id":"ce4bhbp2rcd13ifvqesg","pricing_plan_id":"cebpf4jnsgd1na2vs0mg"},{"bike_id":"2d09d6a2-f592-48df-a952-68864ae6960f","system_id":"levelo_inurba_marseille","lat":43.244677,"lon":5.409589,"is_reserved":false,"is_disabled":false,"rental_uris":{"android":"levelo://app?vid=2d09d6a2-f592-48df-a952-68864ae6960f","ios":"levelo://app?vid=2d09d6a2-f592-48df-a952-68864ae6960f"},"vehicle_type_id":"4","last_reported":1762659471,"current_range_meters":10800,"station_id":"","pricing_plan_id":"cebpf4jnsgd1na2vs0mg"},{"bike_id":"3b4fb0bf-30a1-4202-a176-68034828bad3","system_id":"levelo_inurba_marseille","lat":43.28938,"lon":5.36629,"is_reserved":false,"is_disabled":false,"rental_uris":{"android":"levelo://app?vid=3b4fb0bf-30a1-4202-a176-68034828bad3","ios":"levelo://app?vid=3b4fb0bf-30a1-4202-a176-68034828bad3"},"vehicle_type_id":"4","last_reported":1762659471,"current_range_meters":11200,"station_id":"ce4bhap2rcd13ifvqek0","pricing_plan_id":"cebpf4jnsgd1na2vs0mg"},{"bike_id":"034b45fe-fc8a-40e2-930b-00715a4950c7","system_id":"levelo_inurba_marseille","lat":43.22513,"lon":5.3477,"is_reserved":false,"is_disabled":false,"rental_uris":{"android":"levelo://app?vid=034b45fe-fc8a-40e2-930b-00715a4950c7","ios":"levelo://app?vid=034b45fe-fc8a-40e2-930b-00715a4950c7"},"vehicle_type_id":"4","last_reported":1762659471,"current_range_meters":11200,"station_id":"","pricing_plan_id":"cebpf4jnsgd1na2vs0mg"},{"bike_id":"05891cf1-768d-49ec-ac41-a2f202350756","system_id":"levelo_inurba_marseille","lat":43.31071,"lon":5.38368,"is_reserved":false,"is_disabled":false,"rental_uris":{"android":"levelo://app?vid=05891cf1-768d-49ec-ac41-a2f202350756","ios":"levelo://app?vid=05891cf1-768d-49ec-ac41-a2f202350756"},"vehicle_type_id":"4","last_reported":1762659471,"current_range_meters":11200,"station_id":"ce4bgv92rcd13ifvqcr0","pricing_plan_id":"cebpf4jnsgd1na2vs0mg"},{"bike_id":"08dc64d9-dd63-4bc3-9212-18232bc61022","system_id":"levelo_inurba_marseille","lat":43.28156,"lon":5.42638,"is_reserved":false,"is_disabled":false,"rental_uris":{"android":"levelo://app?vid=08dc64d9-dd63-4bc3-9212-18232bc61022","ios":"levelo://app?vid=08dc64d9-dd63-4bc3-9212-18232bc61022"},"vehicle_type_id":"4","last_reported":1762659471,"current_range_meters":11200,"station_id":"ce4bhnh2rcd13ifvqgug","pricing_plan_id":"cebpf4jnsgd1na2vs0mg"},{"bike_id":"6e516340-9641-4325-9cd8-46780776c1ed","system_id":"levelo_inurba_marseille","lat":43.305434,"lon":5.366995,"is_reserved":false,"is_disabled":true,"rental_uris":{"android":"levelo://app?vid=6e516340-9641-4325-9cd8-46780776c1ed","ios":"levelo://app?vid=6e516340-9641-4325-9cd8-46780776c1ed"},"vehicle_type_id":"4","last_reported":1762659471,"current_range_meters":11200,"station_id":"ce4bgrp2rcd13ifvqc9g","pricing_plan_id":"cebpf4jnsgd1na2vs0mg"},{"bike_id":"e14dda37-224b-49e5-897c-26f7a8c31c5e","system_id":"levelo_inurba_marseille","lat":43.31666,"lon":5.42709,"is_reserved":false,"is_disabled":false,"rental_uris":{"android":"levelo://app?vid=e14dda37-224b-49e5-897c-26f7a8c31c5e","ios":"levelo://app?vid=e14dda37-224b-49e5-897c-26f7a8c31c5e"},"vehicle_type_id":"4","last_reported":1762659471,"current_range_meters":11200,"station_id":"","pricing_plan_id":"cebpf4jnsgd1na2vs0mg"},{"bike_id":"21dcb4e2-bef4-415f-aa59-cd0b9e2cb07b","system_id":"levelo_inurba_marseille","lat":43.22827,"lon":5.43522,"is_reserved":false,"is_disabled":false,"rental_uris":{"android":"levelo://app?vid=21dcb4e2-bef4-415f-aa59-cd0b9e2cb07b","ios":"levelo://app?vid=21dcb4e2-bef4-415f-aa59-cd0b9e2cb07b"},"vehicle_type_id":"4","last_reported":1762659471,"current_range_meters":11200,"station_id":"","pricing_plan_id":"cebpf4jnsgd1na2vs0mg"},{"bike_id":"fb5d33e9-3cb7-4e2c-87f9-2c8d9838040b","system_id":"levelo_inurba_marseille","lat":43.26581,"lon":5.39007,"is_reserved":false,"is_disabled":false,"rental_uris":{"android":"levelo://app?vid=fb5d33e9-3cb7-4e2c-87f9-2c8d9838040b","ios":"levelo://app?vid=fb5d33e9-3cb7-4e2c-87f9-2c8d9838040b"},"vehicle_type_id":"4","last_reported":1762659471,"current_range_meters":11600,"station_id":"ce4bhe12rcd13ifvqf30","pricing_plan_id":"cebpf4jnsgd1na2vs0mg"},{"bike_id":"1f95699b-5498-4194-a0e4-6863698420ac","system_id":"levelo_inurba_marseille","lat":43.27911,"lon":5.39594,"is_reserved":false,"is_disabled":false,"rental_uris":{"android":"levelo://app?vid=1f95699b-5498-4194-a0e4-6863698420ac","ios":"levelo://app?vid=1f95699b-5498-4194-a0e4-6863698420ac"},"vehicle_type_id":"4","last_reported":1762659471,"current_range_meters":11600,"station_id":"ce4bhf92rcd13ifvqf40","pricing_plan_id":"cebpf4jnsgd1na2vs0mg"},{"bike_id":"0b37b69f-4d88-45a5-bb59-8daa184f4232","system_id":"levelo_inurba_marseille","lat":43.29864,"lon":5.36285,"is_reserved":false,"is_disabled":false,"rental_uris":{"android":"levelo://app?vid=0b37b69f-4d88-45a5-bb59-8daa184f4232","ios":"levelo://app?vid=0b37b69f-4d88-45a5-bb59-8daa184f4232"},"vehicle_type_id":"4","last_reported":1762659471,"current_range_meters":11600,"station_id":"ce4bgpp2rcd13ifvqc3g","pricing_plan_id":"cebpf4jnsgd1na2vs0mg"},{"bike_id":"c1ac8c2e-9073-4bc7-a7fa-75f8a4c88d0e","system_id":"levelo_inurba_marseille","lat":43.3149,"lon":5.373017,"is_reserved":false,"is_disabled":false,"rental_uris":{"android":"levelo://app?vid=c1ac8c2e-9073-4bc7-a7fa-75f8a4c88d0e","ios":"levelo://app?vid=c1ac8c2e-9073-4bc7-a7fa-75f8a4c88d0e"},"vehicle_type_id":"4","last_reported":1762659471,"current_range_meters":11600,"station_id":"ce4bgt12rcd13ifvqcd0","pricing_plan_id":"cebpf4jnsgd1na2vs0mg"},{"bike_id":"a630d70e-d466-46de-bd9f-14c9a7757ee6","system_id":"levelo_inurba_marseille","lat":43.2465,"lon":5.38903,"is_reserved":false,"is_disabled":false,"rental_uris":{"android":"levelo://app?vid=a630d70e-d466-46de-bd9f-14c9a7757ee6","ios":"levelo://app?vid=a630d70e-d466-46de-bd9f-14c9a7757ee6"},"vehicle_type_id":"4","last_reported":1762659471,"current_range_meters":11600,"station_id":"ce4bhg12rcd13ifvqf60","pricing_plan_id":"cebpf4jnsgd1na2vs0mg"},{"bike_id":"5c91f7a5-bf4a-47b4-82be-e1c1e11e7df2","system_id":"levelo_inurba_marseille","lat":43.29496,"lon":5.43319,"is_reserved":false,"is_disabled":false,"rental_uris":{"android":"levelo://app?vid=5c91f7a5-bf4a-47b4-82be-e1c1e11e7df2","ios":"levelo://app?vid=5c91f7a5-bf4a-47b4-82be-e1c1e11e7df2"},"vehicle_type_id":"4","last_reported":1762659471,"current_range_meters":11600,"station_id":"st_d3j5ugp08ojc73fj9d10","pricing_plan_id":"cebpf4jnsgd1na2vs0mg"},{"bike_id":"6fb9aaeb-fd54-4120-8c7f-cb19a69f6629","system_id":"levelo_inurba_marseille","lat":43.23574,"lon":5.37419,"is_reserved":false,"is_disabled":false,"rental_uris":{"android":"levelo://app?vid=6fb9aaeb-fd54-4120-8c7f-cb19a69f6629","ios":"levelo://app?vid=6fb9aaeb-fd54-4120-8c7f-cb19a69f6629"},"vehicle_type_id":"4","last_reported":1762659471,"current_range_meters":12000,"station_id":"","pricing_plan_id":"cebpf4jnsgd1na2vs0mg"},{"bike_id":"c73c5513-728d-4700-9395-e31e4399cd51","system_id":"levelo_inurba_marseille","lat":43.29169,"lon":5.40211,"is_reserved":false,"is_disabled":false,"rental_uris":{"android":"levelo://app?vid=c73c5513-728d-4700-9395-e31e4399cd51","ios":"levelo://app?vid=c73c5513-728d-4700-9395-e31e4399cd51"},"vehicle_type_id":"4","last_reported":1762659471,"current_range_meters":12000,"station_id":"","pricing_plan_id":"cebpf4jnsgd1na2vs0mg"},{"bike_id":"96849ec5-10dd-4e24-8e24-c76949fc9655","system_id":"levelo_inurba_marseille","lat":43.274968,"lon":5.424528,"is_reserved":false,"is_disabled":false,"rental_uris":{"android":"levelo://app?vid=96849ec5-10dd-4e24-8e24-c76949fc9655","ios":"levelo://app?vid=96849ec5-10dd-4e24-8e24-c76949fc9655"},"vehicle_type_id":"4","last_reported":1762659471,"current_range_meters":12000,"station_id":"ce4bhn92rcd13ifvqgrg","pricing_plan_id":"cebpf4jnsgd1na2vs0mg"},{"bike_id":"15db09df-59b0-446a-87c5-e354a3319258","system_id":"levelo_inurba_marseille","lat":43.28483,"lon":5.48385,"is_reserved":false,"is_disabled":false,"rental_uris":{"android":"levelo://app?vid=15db09df-59b0-446a-87c5-e354a3319258","ios":"levelo://app?vid=15db09df-59b0-446a-87c5-e354a3319258"},"vehicle_type_id":"4","last_reported":1762659471,"current_range_meters":12000,"station_id":"","pricing_plan_id":"cebpf4jnsgd1na2vs0mg"},{"bike_id":"b1d21688-ff62-434e-9db4-2d5ba1845f03","system_id":"levelo_inurba_marseille","lat":43.30927,"lon":5.4015,"is_reserved":false,"is_disabled":false,"rental_uris":{"android":"levelo://app?vid=b1d21688-ff62-434e-9db4-2d5ba1845f03","ios":"levelo://app?vid=b1d21688-ff62-434e-9db4-2d5ba1845f03"},"vehicle_type_id":"4","last_reported":1762659471,"current_range_meters":12000,"station_id":"ce4bgvp2rcd13ifvqct0","pricing_plan_id":"cebpf4jnsgd1na2vs0mg"},{"bike_id":"462fd3fb-de6a-4a66-9e94-cfd2b0d801c6","system_id":"levelo_inurba_marseille","lat":43.30323,"lon":5.37684,"is_reserved":false,"is_disabled":false,"rental_uris":{"android":"levelo://app?vid=462fd3fb-de6a-4a66-9e94-cfd2b0d801c6","ios":"levelo://app?vid=462fd3fb-de6a-4a66-9e94-cfd2b0d801c6"},"vehicle_type_id":"4","last_reported":1762659471,"current_range_meters":12000,"station_id":"","pricing_plan_id":"cebpf4jnsgd1na2vs0mg"},{"bike_id":"8e140702-853d-4aa7-abe8-645805aa250e","system_id":"levelo_inurba_marseille","lat":43.265661,"lon":5.403289,"is_reserved":false,"is_disabled":false,"rental_uris":{"android":"levelo://app?vid=8e140702-853d-4aa7-abe8-645805aa250e","ios":"levelo://app?vid=8e140702-853d-4aa7-abe8-645805aa250e"},"vehicle_type_id":"4","last_reported":1762659471,"current_range_meters":12400,"station_id":"ce4bhmp2rcd13ifvqgng","pricing_plan_id":"cebpf4jnsgd1na2vs0mg"},{"bike_id":"1a85bd73-f6c9-483d-ac28-5d95b6775d78","system_id":"levelo_inurba_marseille","lat":43.28703,"lon":5.37921,"is_reserved":false,"is_disabled":true,"rental_uris":{"android":"levelo://app?vid=1a85bd73-f6c9-483d-ac28-5d95b6775d78","ios":"levelo://app?vid=1a85bd73-f6c9-483d-ac28-5d95b6775d78"},"vehicle_type_id":"4","last_reported":1762659471,"current_range_meters":12400,"station_id":"ce4bh9p2rcd13ifvqec0","pricing_plan_id":"cebpf4jnsgd1na2vs0mg"},{"bike_id":"03c34763-29db-4cb7-a703-fc9b0b0e3d96","system_id":"levelo_inurba_marseille","lat":43.28722,"lon":5.37952,"is_reserved":false,"is_disabled":false,"rental_uris":{"android":"levelo://app?vid=03c34763-29db-4cb7-a703-fc9b0b0e3d96","ios":"levelo://app?vid=03c34763-29db-4cb7-a703-fc9b0b0e3d96"},"vehicle_type_id":"4","last_reported":1762659471,"current_range_meters":12400,"station_id":"ce4bh9p2rcd13ifvqec0","pricing_plan_id":"cebpf4jnsgd1na2vs0mg"},{"bike_id":"8728ce41-282d-492f-a577-c8f4ea8a6a7e","system_id":"levelo_inurba_marseille","lat":43.253374,"lon":5.421639,"is_reserved":false,"is_disabled":false,"rental_uris":{"android":"levelo://app?vid=8728ce41-282d-492f-a577-c8f4ea8a6a7e","ios":"levelo://app?vid=8728ce41-282d-492f-a577-c8f4ea8a6a7e"},"vehicle_type_id":"4","last_reported":1762659471,"current_range_meters":12400,"station_id":"st_d2m65c5bi1j21697t3ng","pricing_plan_id":"cebpf4jnsgd1na2vs0mg"},{"bike_id":"d5ec9e32-73a6-4ab2-8657-f0e4b9a692a4","system_id":"levelo_inurba_marseille","lat":43.31318,"lon":5.39691,"is_reserved":false,"is_disabled":false,"rental_uris":{"android":"levelo://app?vid=d5ec9e32-73a6-4ab2-8657-f0e4b9a692a4","ios":"levelo://app?vid=d5ec9e32-73a6-4ab2-8657-f0e4b9a692a4"},"vehicle_type_id":"4","last_reported":1762659471,"current_range_meters":12400,"station_id":"ce4bgvp2rcd13ifvqcu0","pricing_plan_id":"cebpf4jnsgd1na2vs0mg"},{"bike_id":"1d5b947e-2f1a-40e5-8166-542ac5ce448f","system_id":"levelo_inurba_marseille","lat":43.30442,"lon":5.38883,"is_reserved":false,"is_disabled":false,"rental_uris":{"android":"levelo://app?vid=1d5b947e-2f1a-40e5-8166-542ac5ce448f","ios":"levelo://app?vid=1d5b947e-2f1a-40e5-8166-542ac5ce448f"},"vehicle_type_id":"4","last_reported":1762659471,"current_range_meters":12400,"station_id":"ce4bgk12rcd13ifvqbi0","pricing_plan_id":"cebpf4jnsgd1na2vs0mg"},{"bike_id":"3e2b6028-a539-4e64-9081-578276ce4315","system_id":"levelo_inurba_marseille","lat":43.2459,"lon":5.4212,"is_reserved":false,"is_disabled":false,"rental_uris":{"android":"levelo://app?vid=3e2b6028-a539-4e64-9081-578276ce4315","ios":"levelo://app?vid=3e2b6028-a539-4e64-9081-578276ce4315"},"vehicle_type_id":"4","last_reported":1762659471,"current_range_meters":12800,"station_id":"","pricing_plan_id":"cebpf4jnsgd1na2vs0mg"},{"bike_id":"a07eee62-9d57-4305-a3b9-5271338fd36d","system_id":"levelo_inurba_marseille","lat":43.256367,"lon":5.39394,"is_reserved":false,"is_disabled":false,"rental_uris":{"android":"levelo://app?vid=a07eee62-9d57-4305-a3b9-5271338fd36d","ios":"levelo://app?vid=a07eee62-9d57-4305-a3b9-5271338fd36d"},"vehicle_type_id":"4","last_reported":1762659471,"current_range_meters":12800,"station_id":"","pricing_plan_id":"cebpf4jnsgd1na2vs0mg"},{"bike_id":"4b7a060b-207b-414c-8a88-1ac0e3892b9b","system_id":"levelo_inurba_marseille","lat":43.28469,"lon":5.38467,"is_reserved":false,"is_disabled":false,"rental_uris":{"android":"levelo://app?vid=4b7a060b-207b-414c-8a88-1ac0e3892b9b","ios":"levelo://app?vid=4b7a060b-207b-414c-8a88-1ac0e3892b9b"},"vehicle_type_id":"4","last_reported":1762659471,"current_range_meters":12800,"station_id":"ce4bh512rcd13ifvqe3g","pricing_plan_id":"cebpf4jnsgd1na2vs0mg"},{"bike_id":"6c3a40b5-fcef-426e-8a9c-85e786754dc6","system_id":"levelo_inurba_marseille","lat":43.302472,"lon":5.400686,"is_reserved":false,"is_disabled":false,"rental_uris":{"android":"levelo://app?vid=6c3a40b5-fcef-426e-8a9c-85e786754dc6","ios":"levelo://app?vid=6c3a40b5-fcef-426e-8a9c-85e786754dc6"},"vehicle_type_id":"4","last_reported":1762659471,"current_range_meters":12800,"station_id":"ce4bgvh2rcd13ifvqcs0","pricing_plan_id":"cebpf4jnsgd1na2vs0mg"},{"bike_id":"96b2482f-648d-43a4-be62-da9678bd96ec","system_id":"levelo_inurba_marseille","lat":43.308913,"lon":5.371745,"is_reserved":false,"is_disabled":false,"rental_uris":{"android":"levelo://app?vid=96b2482f-648d-43a4-be62-da9678bd96ec","ios":"levelo://app?vid=96b2482f-648d-43a4-be62-da9678bd96ec"},"vehicle_type_id":"4","last_reported":1762659471,"current_range_meters":12800,"station_id":"ce4bguh2rcd13ifvqckg","pricing_plan_id":"cebpf4jnsgd1na2vs0mg"},{"bike_id":"755cc534-8502-443b-99ad-796f64a01270","system_id":"levelo_inurba_marseille","lat":43.24177,"lon":5.39728,"is_reserved":false,"is_disabled":false,"rental_uris":{"android":"levelo://app?vid=755cc534-8502-443b-99ad-796f64a01270","ios":"levelo://app?vid=755cc534-8502-443b-99ad-796f64a01270"},"vehicle_type_id":"4","last_reported":1762659471,"current_range_meters":12800,"station_id":"ce4bhn12rcd13ifvqgpg","pricing_plan_id":"cebpf4jnsgd1na2vs0mg"},{"bike_id":"ce8c961a-85c8-44ab-ae83-7f378b5ad238","system_id":"levelo_inurba_marseille","lat":43.28152,"lon":5.42639,"is_reserved":false,"is_disabled":false,"rental_uris":{"android":"levelo://app?vid=ce8c961a-85c8-44ab-ae83-7f378b5ad238","ios":"levelo://app?vid=ce8c961a-85c8-44ab-ae83-7f378b5ad238"},"vehicle_type_id":"4","last_reported":1762659471,"current_range_meters":12800,"station_id":"ce4bhnh2rcd13ifvqgug","pricing_plan_id":"cebpf4jnsgd1na2vs0mg"},{"bike_id":"e374f4d6-676c-4d62-af2d-1f0734c48172","system_id":"levelo_inurba_marseille","lat":43.29496,"lon":5.43315,"is_reserved":false,"is_disabled":false,"rental_uris":{"android":"levelo://app?vid=e374f4d6-676c-4d62-af2d-1f0734c48172","ios":"levelo://app?vid=e374f4d6-676c-4d62-af2d-1f0734c48172"},"vehicle_type_id":"4","last_reported":1762659471,"current_range_meters":13600,"station_id":"st_d3j5ugp08ojc73fj9d10","pricing_plan_id":"cebpf4jnsgd1na2vs0mg"},{"bike_id":"37888dd4-95fa-453e-9ece-f9598c47aad9","system_id":"levelo_inurba_marseille","lat":43.287015,"lon":5.39981,"is_reserved":false,"is_disabled":false,"rental_uris":{"android":"levelo://app?vid=37888dd4-95fa-453e-9ece-f9598c47aad9","ios":"levelo://app?vid=37888dd4-95fa-453e-9ece-f9598c47aad9"},"vehicle_type_id":"4","last_reported":1762659471,"current_range_meters":13600,"station_id":"ce4bho92rcd13ifvqh3g","pricing_plan_id":"cebpf4jnsgd1na2vs0mg"},{"bike_id":"6ca580b9-ae87-4e9b-a62c-4e0f6a07370c","system_id":"levelo_inurba_marseille","lat":43.2121,"lon":5.3507,"is_reserved":false,"is_disabled":false,"rental_uris":{"android":"levelo://app?vid=6ca580b9-ae87-4e9b-a62c-4e0f6a07370c","ios":"levelo://app?vid=6ca580b9-ae87-4e9b-a62c-4e0f6a07370c"},"vehicle_type_id":"4","last_reported":1762659471,"current_range_meters":13600,"station_id":"st_cvj6sg6p6f1abm77japg","pricing_plan_id":"cebpf4jnsgd1na2vs0mg"},{"bike_id":"20c31fb2-0a33-46c5-8481-3fa16cd44a3c","system_id":"levelo_inurba_marseille","lat":43.285697,"lon":5.395013,"is_reserved":false,"is_disabled":false,"rental_uris":{"android":"levelo://app?vid=20c31fb2-0a33-46c5-8481-3fa16cd44a3c","ios":"levelo://app?vid=20c31fb2-0a33-46c5-8481-3fa16cd44a3c"},"vehicle_type_id":"4","last_reported":1762659471,"current_range_meters":13600,"station_id":"ce4bh292rcd13ifvqdg0","pricing_plan_id":"cebpf4jnsgd1na2vs0mg"},{"bike_id":"06b572d6-d95a-4f1a-9a9a-b316897ad6d5","system_id":"levelo_inurba_marseille","lat":43.29545,"lon":5.3752,"is_reserved":false,"is_disabled":false,"rental_uris":{"android":"levelo://app?vid=06b572d6-d95a-4f1a-9a9a-b316897ad6d5","ios":"levelo://app?vid=06b572d6-d95a-4f1a-9a9a-b316897ad6d5"},"vehicle_type_id":"4","last_reported":1762659471,"current_range_meters":13600,"station_id":"ce4bgkp2rcd13ifvqbmg","pricing_plan_id":"cebpf4jnsgd1na2vs0mg"},{"bike_id":"437cf636-6a5d-42d9-8522-2125899f9bcc","system_id":"levelo_inurba_marseille","lat":43.30315,"lon":5.40443,"is_reserved":false,"is_disabled":false,"rental_uris":{"android":"levelo://app?vid=437cf636-6a5d-42d9-8522-2125899f9bcc","ios":"levelo://app?vid=437cf636-6a5d-42d9-8522-2125899f9bcc"},"vehicle_type_id":"4","last_reported":1762659471,"current_range_meters":13600,"station_id":"ce4bh012rcd13ifvqd10","pricing_plan_id":"cebpf4jnsgd1na2vs0mg"},{"bike_id":"2b1e0c4b-c73b-415a-b52c-8778d2bdbadb","system_id":"levelo_inurba_marseille","lat":43.30042,"lon":5.38161,"is_reserved":false,"is_disabled":false,"rental_uris":{"android":"levelo://app?vid=2b1e0c4b-c73b-415a-b52c-8778d2bdbadb","ios":"levelo://app?vid=2b1e0c4b-c73b-415a-b52c-8778d2bdbadb"},"vehicle_type_id":"4","last_reported":1762659471,"current_range_meters":13600,"station_id":"","pricing_plan_id":"cebpf4jnsgd1na2vs0mg"},{"bike_id":"315bec9b-2d61-4fa0-a422-4245ac524e0f","system_id":"levelo_inurba_marseille","lat":43.24942,"lon":5.40507,"is_reserved":false,"is_disabled":false,"rental_uris":{"android":"levelo://app?vid=315bec9b-2d61-4fa0-a422-4245ac524e0f","ios":"levelo://app?vid=315bec9b-2d61-4fa0-a422-4245ac524e0f"},"vehicle_type_id":"4","last_reported":1762659471,"current_range_meters":14000,"station_id":"st_d2ngiaodas8pm72gd1h0","pricing_plan_id":"cebpf4jnsgd1na2vs0mg"},{"bike_id":"4132147f-7431-4834-888a-022eef83d616","system_id":"levelo_inurba_marseille","lat":43.274,"lon":5.39422,"is_reserved":false,"is_disabled":false,"rental_uris":{"android":"levelo://app?vid=4132147f-7431-4834-888a-022eef83d616","ios":"levelo://app?vid=4132147f-7431-4834-888a-022eef83d616"},"vehicle_type_id":"4","last_reported":1762659471,"current_range_meters":14000,"station_id":"ce4bhdp2rcd13ifvqf20","pricing_plan_id":"cebpf4jnsgd1na2vs0mg"},{"bike_id":"c6d5d8d4-4173-4646-a45b-e93034e39692","system_id":"levelo_inurba_marseille","lat":43.23151,"lon":5.4374,"is_reserved":false,"is_disabled":false,"rental_uris":{"android":"levelo://app?vid=c6d5d8d4-4173-4646-a45b-e93034e39692","ios":"levelo://app?vid=c6d5d8d4-4173-4646-a45b-e93034e39692"},"vehicle_type_id":"4","last_reported":1762659471,"current_range_meters":14000,"station_id":"ce4bhmp2rcd13ifvqgog","pricing_plan_id":"cebpf4jnsgd1na2vs0mg"},{"bike_id":"5a5328e0-d49a-47f5-b845-fc6cc4d47ca6","system_id":"levelo_inurba_marseille","lat":43.28437,"lon":5.35005,"is_reserved":false,"is_disabled":false,"rental_uris":{"android":"levelo://app?vid=5a5328e0-d49a-47f5-b845-fc6cc4d47ca6","ios":"levelo://app?vid=5a5328e0-d49a-47f5-b845-fc6cc4d47ca6"},"vehicle_type_id":"4","last_reported":1762659471,"current_range_meters":14000,"station_id":"ce4bhbh2rcd13ifvqepg","pricing_plan_id":"cebpf4jnsgd1na2vs0mg"},{"bike_id":"ac1012d0-7872-4c6e-85e6-fc8eaff39396","system_id":"levelo_inurba_marseille","lat":43.28484,"lon":5.35929,"is_reserved":false,"is_disabled":true,"rental_uris":{"android":"levelo://app?vid=ac1012d0-7872-4c6e-85e6-fc8eaff39396","ios":"levelo://app?vid=ac1012d0-7872-4c6e-85e6-fc8eaff39396"},"vehicle_type_id":"4","last_reported":1762659471,"current_range_meters":14000,"station_id":"","pricing_plan_id":"cebpf4jnsgd1na2vs0mg"},{"bike_id":"b0c16fab-fa00-45da-a504-a4fe01049530","system_id":"levelo_inurba_marseille","lat":43.283513,"lon":5.381035,"is_reserved":false,"is_disabled":false,"rental_uris":{"android":"levelo://app?vid=b0c16fab-fa00-45da-a504-a4fe01049530","ios":"levelo://app?vid=b0c16fab-fa00-45da-a504-a4fe01049530"},"vehicle_type_id":"4","last_reported":1762659471,"current_range_meters":14000,"station_id":"ce4bh412rcd13ifvqdr0","pricing_plan_id":"cebpf4jnsgd1na2vs0mg"},{"bike_id":"50f530d8-a703-4d21-9bca-1083f2e62edb","system_id":"levelo_inurba_marseille","lat":43.25332,"lon":5.42164,"is_reserved":false,"is_disabled":false,"rental_uris":{"android":"levelo://app?vid=50f530d8-a703-4d21-9bca-1083f2e62edb","ios":"levelo://app?vid=50f530d8-a703-4d21-9bca-1083f2e62edb"},"vehicle_type_id":"4","last_reported":1762659471,"current_range_meters":14400,"station_id":"st_d2m65c5bi1j21697t3ng","pricing_plan_id":"cebpf4jnsgd1na2vs0mg"},{"bike_id":"2b4a0053-688e-47e8-ba93-f48ad26ca95f","system_id":"levelo_inurba_marseille","lat":43.30942,"lon":5.40181,"is_reserved":false,"is_disabled":false,"rental_uris":{"android":"levelo://app?vid=2b4a0053-688e-47e8-ba93-f48ad26ca95f","ios":"levelo://app?vid=2b4a0053-688e-47e8-ba93-f48ad26ca95f"},"vehicle_type_id":"4","last_reported":1762659471,"current_range_meters":14400,"station_id":"ce4bgvp2rcd13ifvqct0","pricing_plan_id":"cebpf4jnsgd1na2vs0mg"},{"bike_id":"43cd5cad-a17a-4f7c-b241-a555b3006555","system_id":"levelo_inurba_marseille","lat":43.30894,"lon":5.39659,"is_reserved":false,"is_disabled":false,"rental_uris":{"android":"levelo://app?vid=43cd5cad-a17a-4f7c-b241-a555b3006555","ios":"levelo://app?vid=43cd5cad-a17a-4f7c-b241-a555b3006555"},"vehicle_type_id":"4","last_reported":1762659471,"current_range_meters":14400,"station_id":"ce4bh012rcd13ifvqcv0","pricing_plan_id":"cebpf4jnsgd1na2vs0mg"},{"bike_id":"74573cb4-9773-4fb0-b048-61ac3a6954a7","system_id":"levelo_inurba_marseille","lat":43.28408,"lon":5.37533,"is_reserved":false,"is_disabled":false,"rental_uris":{"android":"levelo://app?vid=74573cb4-9773-4fb0-b048-61ac3a6954a7","ios":"levelo://app?vid=74573cb4-9773-4fb0-b048-61ac3a6954a7"},"vehicle_type_id":"4","last_reported":1762659471,"current_range_meters":14400,"station_id":"ce4bh412rcd13ifvqds0","pricing_plan_id":"cebpf4jnsgd1na2vs0mg"},{"bike_id":"850219d2-9100-4151-995c-053344225fe4","system_id":"levelo_inurba_marseille","lat":43.3064,"lon":5.40083,"is_reserved":false,"is_disabled":false,"rental_uris":{"android":"levelo://app?vid=850219d2-9100-4151-995c-053344225fe4","ios":"levelo://app?vid=850219d2-9100-4151-995c-053344225fe4"},"vehicle_type_id":"4","last_reported":1762659471,"current_range_meters":14400,"station_id":"ce4bh112rcd13ifvqda0","pricing_plan_id":"cebpf4jnsgd1na2vs0mg"},{"bike_id":"bcb7664a-39c2-46f8-930f-41cebd3d0b86","system_id":"levelo_inurba_marseille","lat":43.212004,"lon":5.350856,"is_reserved":false,"is_disabled":true,"rental_uris":{"android":"levelo://app?vid=bcb7664a-39c2-46f8-930f-41cebd3d0b86","ios":"levelo://app?vid=bcb7664a-39c2-46f8-930f-41cebd3d0b86"},"vehicle_type_id":"4","last_reported":1762659471,"current_range_meters":14400,"station_id":"st_cvj6sg6p6f1abm77japg","pricing_plan_id":"cebpf4jnsgd1na2vs0mg"},{"bike_id":"b343e7d4-d786-4665-9636-a7f91c01ef9b","system_id":"levelo_inurba_marseille","lat":43.25326,"lon":5.42146,"is_reserved":false,"is_disabled":false,"rental_uris":{"android":"levelo://app?vid=b343e7d4-d786-4665-9636-a7f91c01ef9b","ios":"levelo://app?vid=b343e7d4-d786-4665-9636-a7f91c01ef9b"},"vehicle_type_id":"4","last_reported":1762659471,"current_range_meters":14400,"station_id":"st_d2m65c5bi1j21697t3ng","pricing_plan_id":"cebpf4jnsgd1na2vs0mg"},{"bike_id":"bac89b46-84a0-40c2-a53f-e3c430d96ef8","system_id":"levelo_inurba_marseille","lat":43.28355,"lon":5.38112,"is_reserved":false,"is_disabled":false,"rental_uris":{"android":"levelo://app?vid=bac89b46-84a0-40c2-a53f-e3c430d96ef8","ios":"levelo://app?vid=bac89b46-84a0-40c2-a53f-e3c430d96ef8"},"vehicle_type_id":"4","last_reported":1762659471,"current_range_meters":14400,"station_id":"ce4bh412rcd13ifvqdr0","pricing_plan_id":"cebpf4jnsgd1na2vs0mg"},{"bike_id":"d4d905e3-5d4c-4dcf-b2a7-a39dd627b8e4","system_id":"levelo_inurba_marseille","lat":43.25331,"lon":5.42157,"is_reserved":false,"is_disabled":false,"rental_uris":{"android":"levelo://app?vid=d4d905e3-5d4c-4dcf-b2a7-a39dd627b8e4","ios":"levelo://app?vid=d4d905e3-5d4c-4dcf-b2a7-a39dd627b8e4"},"vehicle_type_id":"4","last_reported":1762659471,"current_range_meters":14400,"station_id":"st_d2m65c5bi1j21697t3ng","pricing_plan_id":"cebpf4jnsgd1na2vs0mg"},{"bike_id":"7251439b-7fee-4423-83ad-8a0dbd1ea6cd","system_id":"levelo_inurba_marseille","lat":43.2402,"lon":5.37721,"is_reserved":false,"is_disabled":false,"rental_uris":{"android":"levelo://app?vid=7251439b-7fee-4423-83ad-8a0dbd1ea6cd","ios":"levelo://app?vid=7251439b-7fee-4423-83ad-8a0dbd1ea6cd"},"vehicle_type_id":"4","last_reported":1762659471,"current_range_meters":14400,"station_id":"ce4bhnp2rcd13ifvqgvg","pricing_plan_id":"cebpf4jnsgd1na2vs0mg"},{"bike_id":"24a6a279-34e1-439e-8ea4-be1b46fd4762","system_id":"levelo_inurba_marseille","lat":43.31697,"lon":5.40487,"is_reserved":false,"is_disabled":false,"rental_uris":{"android":"levelo://app?vid=24a6a279-34e1-439e-8ea4-be1b46fd4762","ios":"levelo://app?vid=24a6a279-34e1-439e-8ea4-be1b46fd4762"},"vehicle_type_id":"4","last_reported":1762659471,"current_range_meters":14400,"station_id":"ce4bh012rcd13ifvqd00","pricing_plan_id":"cebpf4jnsgd1na2vs0mg"},{"bike_id":"317822ad-eebe-4d49-be47-de3738a7f974","system_id":"levelo_inurba_marseille","lat":43.33149,"lon":5.37697,"is_reserved":false,"is_disabled":false,"rental_uris":{"android":"levelo://app?vid=317822ad-eebe-4d49-be47-de3738a7f974","ios":"levelo://app?vid=317822ad-eebe-4d49-be47-de3738a7f974"},"vehicle_type_id":"4","last_reported":1762659471,"current_range_meters":14800,"station_id":"st_d46cu089ee8s73dldbu0","pricing_plan_id":"cebpf4jnsgd1na2vs0mg"},{"bike_id":"260e08db-ebe0-43dc-841f-0b6cfdac9a2f","system_id":"levelo_inurba_marseille","lat":43.251289,"lon":5.403171,"is_reserved":false,"is_disabled":false,"rental_uris":{"android":"levelo://app?vid=260e08db-ebe0-43dc-841f-0b6cfdac9a2f","ios":"levelo://app?vid=260e08db-ebe0-43dc-841f-0b6cfdac9a2f"},"vehicle_type_id":"4","last_reported":1762659471,"current_range_meters":14800,"station_id":"ce4bhlh2rcd13ifvqgig","pricing_plan_id":"cebpf4jnsgd1na2vs0mg"},{"bike_id":"272d9b1f-bcad-4f30-9c25-1d90c9caaa0f","system_id":"levelo_inurba_marseille","lat":43.22563,"lon":5.4163,"is_reserved":false,"is_disabled":false,"rental_uris":{"android":"levelo://app?vid=272d9b1f-bcad-4f30-9c25-1d90c9caaa0f","ios":"levelo://app?vid=272d9b1f-bcad-4f30-9c25-1d90c9caaa0f"},"vehicle_type_id":"4","last_reported":1762659471,"current_range_meters":14800,"station_id":"st_d2o4gvlbi1j2169b742g","pricing_plan_id":"cebpf4jnsgd1na2vs0mg"},{"bike_id":"2b0c47a1-a456-46ac-9133-b33536d93127","system_id":"levelo_inurba_marseille","lat":43.30642,"lon":5.40076,"is_reserved":false,"is_disabled":false,"rental_uris":{"android":"levelo://app?vid=2b0c47a1-a456-46ac-9133-b33536d93127","ios":"levelo://app?vid=2b0c47a1-a456-46ac-9133-b33536d93127"},"vehicle_type_id":"4","last_reported":1762659471,"current_range_meters":14800,"station_id":"ce4bh112rcd13ifvqda0","pricing_plan_id":"cebpf4jnsgd1na2vs0mg"},{"bike_id":"7b9ecb2d-30bc-4f1c-adb6-39eb3c485c41","system_id":"levelo_inurba_marseille","lat":43.22566,"lon":5.41623,"is_reserved":false,"is_disabled":false,"rental_uris":{"android":"levelo://app?vid=7b9ecb2d-30bc-4f1c-adb6-39eb3c485c41","ios":"levelo://app?vid=7b9ecb2d-30bc-4f1c-adb6-39eb3c485c41"},"vehicle_type_id":"4","last_reported":1762659471,"current_range_meters":14800,"station_id":"st_d2o4gvlbi1j2169b742g","pricing_plan_id":"cebpf4jnsgd1na2vs0mg"},{"bike_id":"90e75491-f300-4cd4-95d9-4fcce675996b","system_id":"levelo_inurba_marseille","lat":43.28408,"lon":5.37536,"is_reserved":false,"is_disabled":true,"rental_uris":{"android":"levelo://app?vid=90e75491-f300-4cd4-95d9-4fcce675996b","ios":"levelo://app?vid=90e75491-f300-4cd4-95d9-4fcce675996b"},"vehicle_type_id":"4","last_reported":1762659471,"current_range_meters":15200,"station_id":"ce4bh412rcd13ifvqds0","pricing_plan_id":"cebpf4jnsgd1na2vs0mg"},{"bike_id":"de55c010-abe2-4f50-9186-e780ceeace4d","system_id":"levelo_inurba_marseille","lat":43.31269,"lon":5.40169,"is_reserved":false,"is_disabled":false,"rental_uris":{"android":"levelo://app?vid=de55c010-abe2-4f50-9186-e780ceeace4d","ios":"levelo://app?vid=de55c010-abe2-4f50-9186-e780ceeace4d"},"vehicle_type_id":"4","last_reported":1762659471,"current_range_meters":15200,"station_id":"ce4bh092rcd13ifvqd30","pricing_plan_id":"cebpf4jnsgd1na2vs0mg"},{"bike_id":"0438f67e-f1fb-4064-8a55-a78fd643a326","system_id":"levelo_inurba_marseille","lat":43.236125,"lon":5.37472,"is_reserved":false,"is_disabled":false,"rental_uris":{"android":"levelo://app?vid=0438f67e-f1fb-4064-8a55-a78fd643a326","ios":"levelo://app?vid=0438f67e-f1fb-4064-8a55-a78fd643a326"},"vehicle_type_id":"4","last_reported":1762659471,"current_range_meters":15200,"station_id":"","pricing_plan_id":"cebpf4jnsgd1na2vs0mg"},{"bike_id":"faf0aceb-00d1-4296-8aba-764fb540ed9f","system_id":"levelo_inurba_marseille","lat":43.24085,"lon":5.37777,"is_reserved":false,"is_disabled":false,"rental_uris":{"android":"levelo://app?vid=faf0aceb-00d1-4296-8aba-764fb540ed9f","ios":"levelo://app?vid=faf0aceb-00d1-4296-8aba-764fb540ed9f"},"vehicle_type_id":"4","last_reported":1762659471,"current_range_meters":15200,"station_id":"ce4bhnp2rcd13ifvqgvg","pricing_plan_id":"cebpf4jnsgd1na2vs0mg"},{"bike_id":"2e27933d-fc18-453e-ad3c-dfe367228a43","system_id":"levelo_inurba_marseille","lat":43.253401,"lon":5.421698,"is_reserved":false,"is_disabled":false,"rental_uris":{"android":"levelo://app?vid=2e27933d-fc18-453e-ad3c-dfe367228a43","ios":"levelo://app?vid=2e27933d-fc18-453e-ad3c-dfe367228a43"},"vehicle_type_id":"4","last_reported":1762659471,"current_range_meters":15200,"station_id":"st_d2m65c5bi1j21697t3ng","pricing_plan_id":"cebpf4jnsgd1na2vs0mg"},{"bike_id":"12f53e4a-fba6-4ed2-9d3b-c6215df92d6f","system_id":"levelo_inurba_marseille","lat":43.29921,"lon":5.37481,"is_reserved":false,"is_disabled":false,"rental_uris":{"android":"levelo://app?vid=12f53e4a-fba6-4ed2-9d3b-c6215df92d6f","ios":"levelo://app?vid=12f53e4a-fba6-4ed2-9d3b-c6215df92d6f"},"vehicle_type_id":"4","last_reported":1762659471,"current_range_meters":16000,"station_id":"ce4bgjh2rcd13ifvqbg0","pricing_plan_id":"cebpf4jnsgd1na2vs0mg"},{"bike_id":"ecd9fbaa-71af-4da1-a554-7b75e9d6ed32","system_id":"levelo_inurba_marseille","lat":43.30447,"lon":5.41301,"is_reserved":false,"is_disabled":false,"rental_uris":{"android":"levelo://app?vid=ecd9fbaa-71af-4da1-a554-7b75e9d6ed32","ios":"levelo://app?vid=ecd9fbaa-71af-4da1-a554-7b75e9d6ed32"},"vehicle_type_id":"4","last_reported":1762659471,"current_range_meters":16000,"station_id":"ce4bhop2rcd13ifvqh8g","pricing_plan_id":"cebpf4jnsgd1na2vs0mg"},{"bike_id":"a697c050-65cb-4cad-975c-84488c6104a1","system_id":"levelo_inurba_marseille","lat":43.319943,"lon":5.381497,"is_reserved":false,"is_disabled":false,"rental_uris":{"android":"levelo://app?vid=a697c050-65cb-4cad-975c-84488c6104a1","ios":"levelo://app?vid=a697c050-65cb-4cad-975c-84488c6104a1"},"vehicle_type_id":"4","last_reported":1762659471,"current_range_meters":16000,"station_id":"ce4bhr12rcd13ifvqhpg","pricing_plan_id":"cebpf4jnsgd1na2vs0mg"},{"bike_id":"b6b8ccfb-e814-47d3-9ccf-88ba6d08d3d8","system_id":"levelo_inurba_marseille","lat":43.26233,"lon":5.40451,"is_reserved":false,"is_disabled":false,"rental_uris":{"android":"levelo://app?vid=b6b8ccfb-e814-47d3-9ccf-88ba6d08d3d8","ios":"levelo://app?vid=b6b8ccfb-e814-47d3-9ccf-88ba6d08d3d8"},"vehicle_type_id":"4","last_reported":1762659471,"current_range_meters":16000,"station_id":"ce4bhmh2rcd13ifvqgmg","pricing_plan_id":"cebpf4jnsgd1na2vs0mg"},{"bike_id":"68e2a4eb-9515-41fd-aa1c-8497e40ac482","system_id":"levelo_inurba_marseille","lat":43.29893,"lon":5.381,"is_reserved":false,"is_disabled":true,"rental_uris":{"android":"levelo://app?vid=68e2a4eb-9515-41fd-aa1c-8497e40ac482","ios":"levelo://app?vid=68e2a4eb-9515-41fd-aa1c-8497e40ac482"},"vehicle_type_id":"4","last_reported":1762659471,"current_range_meters":16000,"station_id":"ce4bgj12rcd13ifvqbc0","pricing_plan_id":"cebpf4jnsgd1na2vs0mg"},{"bike_id":"fff5d2f7-d43d-4cb6-bb65-c1bb3c5409ff","system_id":"levelo_inurba_marseille","lat":43.26894,"lon":5.36981,"is_reserved":false,"is_disabled":false,"rental_uris":{"android":"levelo://app?vid=fff5d2f7-d43d-4cb6-bb65-c1bb3c5409ff","ios":"levelo://app?vid=fff5d2f7-d43d-4cb6-bb65-c1bb3c5409ff"},"vehicle_type_id":"4","last_reported":1762659471,"current_range_meters":16000,"station_id":"","pricing_plan_id":"cebpf4jnsgd1na2vs0mg"},{"bike_id":"8800fc05-f4ef-42c5-b9e3-ffde3a3a7dd9","system_id":"levelo_inurba_marseille","lat":43.282199,"lon":5.391019,"is_reserved":false,"is_disabled":false,"rental_uris":{"android":"levelo://app?vid=8800fc05-f4ef-42c5-b9e3-ffde3a3a7dd9","ios":"levelo://app?vid=8800fc05-f4ef-42c5-b9e3-ffde3a3a7dd9"},"vehicle_type_id":"4","last_reported":1762659471,"current_range_meters":16000,"station_id":"ce4bhn92rcd13ifvqgsg","pricing_plan_id":"cebpf4jnsgd1na2vs0mg"},{"bike_id":"d8a2355e-a776-4b85-8a3e-22368796688d","system_id":"levelo_inurba_marseille","lat":43.308,"lon":5.36938,"is_reserved":false,"is_disabled":false,"rental_uris":{"android":"levelo://app?vid=d8a2355e-a776-4b85-8a3e-22368796688d","ios":"levelo://app?vid=d8a2355e-a776-4b85-8a3e-22368796688d"},"vehicle_type_id":"4","last_reported":1762659471,"current_range_meters":16000,"station_id":"","pricing_plan_id":"cebpf4jnsgd1na2vs0mg"},{"bike_id":"07487456-04db-4d2a-9c08-bc3d6a0a4071","system_id":"levelo_inurba_marseille","lat":43.28169,"lon":5.42643,"is_reserved":false,"is_disabled":false,"rental_uris":{"android":"levelo://app?vid=07487456-04db-4d2a-9c08-bc3d6a0a4071","ios":"levelo://app?vid=07487456-04db-4d2a-9c08-bc3d6a0a4071"},"vehicle_type_id":"4","last_reported":1762659471,"current_range_meters":16400,"station_id":"ce4bhnh2rcd13ifvqgug","pricing_plan_id":"cebpf4jnsgd1na2vs0mg"},{"bike_id":"f4b3610c-ddfd-461d-9ea3-633c91510343","system_id":"levelo_inurba_marseille","lat":43.24656,"lon":5.43149,"is_reserved":false,"is_disabled":false,"rental_uris":{"android":"levelo://app?vid=f4b3610c-ddfd-461d-9ea3-633c91510343","ios":"levelo://app?vid=f4b3610c-ddfd-461d-9ea3-633c91510343"},"vehicle_type_id":"4","last_reported":1762659471,"current_range_meters":16400,"station_id":"st_d2m6c4gdas8pm72e190g","pricing_plan_id":"cebpf4jnsgd1na2vs0mg"},{"bike_id":"a5a51bf9-9908-420d-8212-6ef8d2db5d39","system_id":"levelo_inurba_marseille","lat":43.27381,"lon":5.36256,"is_reserved":false,"is_disabled":false,"rental_uris":{"android":"levelo://app?vid=a5a51bf9-9908-420d-8212-6ef8d2db5d39","ios":"levelo://app?vid=a5a51bf9-9908-420d-8212-6ef8d2db5d39"},"vehicle_type_id":"4","last_reported":1762659471,"current_range_meters":16400,"station_id":"ce4bhbh2rcd13ifvqeo0","pricing_plan_id":"cebpf4jnsgd1na2vs0mg"},{"bike_id":"f953bfa9-f82e-4b47-89f8-5c0117ad39fb","system_id":"levelo_inurba_marseille","lat":43.29246,"lon":5.40909,"is_reserved":false,"is_disabled":false,"rental_uris":{"android":"levelo://app?vid=f953bfa9-f82e-4b47-89f8-5c0117ad39fb","ios":"levelo://app?vid=f953bfa9-f82e-4b47-89f8-5c0117ad39fb"},"vehicle_type_id":"4","last_reported":1762659471,"current_range_meters":16400,"station_id":"ce4bh192rcd13ifvqdc0","pricing_plan_id":"cebpf4jnsgd1na2vs0mg"},{"bike_id":"345285ad-10a7-49ef-b97f-7faa01587ccf","system_id":"levelo_inurba_marseille","lat":43.24635,"lon":5.43151,"is_reserved":false,"is_disabled":false,"rental_uris":{"android":"levelo://app?vid=345285ad-10a7-49ef-b97f-7faa01587ccf","ios":"levelo://app?vid=345285ad-10a7-49ef-b97f-7faa01587ccf"},"vehicle_type_id":"4","last_reported":1762659471,"current_range_meters":16400,"station_id":"st_d2m6c4gdas8pm72e190g","pricing_plan_id":"cebpf4jnsgd1na2vs0mg"},{"bike_id":"9a776a3f-cab6-4283-a416-cc8852920997","system_id":"levelo_inurba_marseille","lat":43.22533,"lon":5.34837,"is_reserved":false,"is_disabled":false,"rental_uris":{"android":"levelo://app?vid=9a776a3f-cab6-4283-a416-cc8852920997","ios":"levelo://app?vid=9a776a3f-cab6-4283-a416-cc8852920997"},"vehicle_type_id":"4","last_reported":1762659471,"current_range_meters":16400,"station_id":"","pricing_plan_id":"cebpf4jnsgd1na2vs0mg"},{"bike_id":"56937f09-c129-498f-93da-0e67d9e568ed","system_id":"levelo_inurba_marseille","lat":43.28455,"lon":5.35886,"is_reserved":false,"is_disabled":false,"rental_uris":{"android":"levelo://app?vid=56937f09-c129-498f-93da-0e67d9e568ed","ios":"levelo://app?vid=56937f09-c129-498f-93da-0e67d9e568ed"},"vehicle_type_id":"4","last_reported":1762659471,"current_range_meters":16400,"station_id":"ce4bhah2rcd13ifvqei0","pricing_plan_id":"cebpf4jnsgd1na2vs0mg"},{"bike_id":"4eac3eb9-9ac1-4ff6-ad57-ed359befeed2","system_id":"levelo_inurba_marseille","lat":43.22869,"lon":5.40235,"is_reserved":false,"is_disabled":false,"rental_uris":{"android":"levelo://app?vid=4eac3eb9-9ac1-4ff6-ad57-ed359befeed2","ios":"levelo://app?vid=4eac3eb9-9ac1-4ff6-ad57-ed359befeed2"},"vehicle_type_id":"4","last_reported":1762659471,"current_range_meters":16400,"station_id":"","pricing_plan_id":"cebpf4jnsgd1na2vs0mg"},{"bike_id":"c197fb5b-6ad3-43e6-ba7c-1a3724b70895","system_id":"levelo_inurba_marseille","lat":43.2658,"lon":5.39017,"is_reserved":false,"is_disabled":false,"rental_uris":{"android":"levelo://app?vid=c197fb5b-6ad3-43e6-ba7c-1a3724b70895","ios":"levelo://app?vid=c197fb5b-6ad3-43e6-ba7c-1a3724b70895"},"vehicle_type_id":"4","last_reported":1762659471,"current_range_meters":16400,"station_id":"ce4bhe12rcd13ifvqf30","pricing_plan_id":"cebpf4jnsgd1na2vs0mg"},{"bike_id":"c19b9475-1f49-4df3-a555-5f8ad7c35f16","system_id":"levelo_inurba_marseille","lat":43.22527,"lon":5.3481,"is_reserved":false,"is_disabled":false,"rental_uris":{"android":"levelo://app?vid=c19b9475-1f49-4df3-a555-5f8ad7c35f16","ios":"levelo://app?vid=c19b9475-1f49-4df3-a555-5f8ad7c35f16"},"vehicle_type_id":"4","last_reported":1762659471,"current_range_meters":16400,"station_id":"","pricing_plan_id":"cebpf4jnsgd1na2vs0mg"},{"bike_id":"7cd82efc-cab1-4304-a152-fb4844e81213","system_id":"levelo_inurba_marseille","lat":43.30315,"lon":5.40443,"is_reserved":false,"is_disabled":false,"rental_uris":{"android":"levelo://app?vid=7cd82efc-cab1-4304-a152-fb4844e81213","ios":"levelo://app?vid=7cd82efc-cab1-4304-a152-fb4844e81213"},"vehicle_type_id":"4","last_reported":1762659471,"current_range_meters":16400,"station_id":"ce4bh012rcd13ifvqd10","pricing_plan_id":"cebpf4jnsgd1na2vs0mg"},{"bike_id":"f08621f1-92b2-4985-8a3a-96dd283a7c2b","system_id":"levelo_inurba_marseille","lat":43.31354,"lon":5.37932,"is_reserved":false,"is_disabled":false,"rental_uris":{"android":"levelo://app?vid=f08621f1-92b2-4985-8a3a-96dd283a7c2b","ios":"levelo://app?vid=f08621f1-92b2-4985-8a3a-96dd283a7c2b"},"vehicle_type_id":"4","last_reported":1762659471,"current_range_meters":16400,"station_id":"","pricing_plan_id":"cebpf4jnsgd1na2vs0mg"},{"bike_id":"5f51530e-ad6d-4525-9dbe-df8ccdff7435","system_id":"levelo_inurba_marseille","lat":43.31595,"lon":5.38176,"is_reserved":false,"is_disabled":false,"rental_uris":{"android":"levelo://app?vid=5f51530e-ad6d-4525-9dbe-df8ccdff7435","ios":"levelo://app?vid=5f51530e-ad6d-4525-9dbe-df8ccdff7435"},"vehicle_type_id":"4","last_reported":1762659471,"current_range_meters":16400,"station_id":"","pricing_plan_id":"cebpf4jnsgd1na2vs0mg"},{"bike_id":"beb94f55-7cad-4f93-b357-1a1cafd7bcec","system_id":"levelo_inurba_marseille","lat":43.24636,"lon":5.43141,"is_reserved":false,"is_disabled":false,"rental_uris":{"android":"levelo://app?vid=beb94f55-7cad-4f93-b357-1a1cafd7bcec","ios":"levelo://app?vid=beb94f55-7cad-4f93-b357-1a1cafd7bcec"},"vehicle_type_id":"4","last_reported":1762659471,"current_range_meters":16400,"station_id":"st_d2m6c4gdas8pm72e190g","pricing_plan_id":"cebpf4jnsgd1na2vs0mg"},{"bike_id":"56c407da-7675-4f00-a1f7-f93d662c9aff","system_id":"levelo_inurba_marseille","lat":43.2994,"lon":5.36534,"is_reserved":false,"is_disabled":false,"rental_uris":{"android":"levelo://app?vid=56c407da-7675-4f00-a1f7-f93d662c9aff","ios":"levelo://app?vid=56c407da-7675-4f00-a1f7-f93d662c9aff"},"vehicle_type_id":"4","last_reported":1762659471,"current_range_meters":16800,"station_id":"ce4bgm92rcd13ifvqbr0","pricing_plan_id":"cebpf4jnsgd1na2vs0mg"},{"bike_id":"a86a00df-d902-4d42-848f-ab787e232cf6","system_id":"levelo_inurba_marseille","lat":43.30255,"lon":5.40051,"is_reserved":false,"is_disabled":false,"rental_uris":{"android":"levelo://app?vid=a86a00df-d902-4d42-848f-ab787e232cf6","ios":"levelo://app?vid=a86a00df-d902-4d42-848f-ab787e232cf6"},"vehicle_type_id":"4","last_reported":1762659471,"current_range_meters":16800,"station_id":"ce4bgvh2rcd13ifvqcs0","pricing_plan_id":"cebpf4jnsgd1na2vs0mg"},{"bike_id":"edbab5ea-5fbf-43f9-9998-2230b6aa2905","system_id":"levelo_inurba_marseille","lat":43.2848,"lon":5.38425,"is_reserved":false,"is_disabled":false,"rental_uris":{"android":"levelo://app?vid=edbab5ea-5fbf-43f9-9998-2230b6aa2905","ios":"levelo://app?vid=edbab5ea-5fbf-43f9-9998-2230b6aa2905"},"vehicle_type_id":"4","last_reported":1762659471,"current_range_meters":16800,"station_id":"","pricing_plan_id":"cebpf4jnsgd1na2vs0mg"},{"bike_id":"fee4f445-bba8-4be4-a3da-4decf51271b2","system_id":"levelo_inurba_marseille","lat":43.318419,"lon":5.407057,"is_reserved":false,"is_disabled":false,"rental_uris":{"android":"levelo://app?vid=fee4f445-bba8-4be4-a3da-4decf51271b2","ios":"levelo://app?vid=fee4f445-bba8-4be4-a3da-4decf51271b2"},"vehicle_type_id":"4","last_reported":1762659471,"current_range_meters":16800,"station_id":"","pricing_plan_id":"cebpf4jnsgd1na2vs0mg"},{"bike_id":"7fbd1ff9-4b4c-41ae-8d84-cca75e8f7f8a","system_id":"levelo_inurba_marseille","lat":43.27325,"lon":5.39072,"is_reserved":false,"is_disabled":false,"rental_uris":{"android":"levelo://app?vid=7fbd1ff9-4b4c-41ae-8d84-cca75e8f7f8a","ios":"levelo://app?vid=7fbd1ff9-4b4c-41ae-8d84-cca75e8f7f8a"},"vehicle_type_id":"4","last_reported":1762659471,"current_range_meters":16800,"station_id":"ce4bhgp2rcd13ifvqfe0","pricing_plan_id":"cebpf4jnsgd1na2vs0mg"},{"bike_id":"c1783fb2-6784-4b7f-92a8-0112651e291c","system_id":"levelo_inurba_marseille","lat":43.297577,"lon":5.427884,"is_reserved":false,"is_disabled":false,"rental_uris":{"android":"levelo://app?vid=c1783fb2-6784-4b7f-92a8-0112651e291c","ios":"levelo://app?vid=c1783fb2-6784-4b7f-92a8-0112651e291c"},"vehicle_type_id":"4","last_reported":1762659471,"current_range_meters":16800,"station_id":"st_d3md5207bmas73dh9klg","pricing_plan_id":"cebpf4jnsgd1na2vs0mg"},{"bike_id":"0cb3c68b-dd02-4bf5-806b-1c8ab23a0f30","system_id":"levelo_inurba_marseille","lat":43.27064,"lon":5.38292,"is_reserved":false,"is_disabled":false,"rental_uris":{"android":"levelo://app?vid=0cb3c68b-dd02-4bf5-806b-1c8ab23a0f30","ios":"levelo://app?vid=0cb3c68b-dd02-4bf5-806b-1c8ab23a0f30"},"vehicle_type_id":"4","last_reported":1762659471,"current_range_meters":16800,"station_id":"st_d3n2fo6cfp8s73cte1j0","pricing_plan_id":"cebpf4jnsgd1na2vs0mg"},{"bike_id":"823f9d7f-5db5-4876-8b5d-28b6923592c8","system_id":"levelo_inurba_marseille","lat":43.24957,"lon":5.40504,"is_reserved":false,"is_disabled":false,"rental_uris":{"android":"levelo://app?vid=823f9d7f-5db5-4876-8b5d-28b6923592c8","ios":"levelo://app?vid=823f9d7f-5db5-4876-8b5d-28b6923592c8"},"vehicle_type_id":"4","last_reported":1762659471,"current_range_meters":16800,"station_id":"st_d2ngiaodas8pm72gd1h0","pricing_plan_id":"cebpf4jnsgd1na2vs0mg"},{"bike_id":"53529ee7-fa79-4bfe-8ac3-2ffb63a46b11","system_id":"levelo_inurba_marseille","lat":43.31845,"lon":5.3885,"is_reserved":false,"is_disabled":false,"rental_uris":{"android":"levelo://app?vid=53529ee7-fa79-4bfe-8ac3-2ffb63a46b11","ios":"levelo://app?vid=53529ee7-fa79-4bfe-8ac3-2ffb63a46b11"},"vehicle_type_id":"4","last_reported":1762659471,"current_range_meters":17200,"station_id":"","pricing_plan_id":"cebpf4jnsgd1na2vs0mg"},{"bike_id":"69ff6164-0506-4dce-bfaa-0d3519b8fd28","system_id":"levelo_inurba_marseille","lat":43.24667,"lon":5.38165,"is_reserved":false,"is_disabled":false,"rental_uris":{"android":"levelo://app?vid=69ff6164-0506-4dce-bfaa-0d3519b8fd28","ios":"levelo://app?vid=69ff6164-0506-4dce-bfaa-0d3519b8fd28"},"vehicle_type_id":"4","last_reported":1762659471,"current_range_meters":17200,"station_id":"ce4bhih2rcd13ifvqfr0","pricing_plan_id":"cebpf4jnsgd1na2vs0mg"},{"bike_id":"46ab665c-852f-426c-81eb-e62b1e140b94","system_id":"levelo_inurba_marseille","lat":43.28443,"lon":5.39182,"is_reserved":false,"is_disabled":false,"rental_uris":{"android":"levelo://app?vid=46ab665c-852f-426c-81eb-e62b1e140b94","ios":"levelo://app?vid=46ab665c-852f-426c-81eb-e62b1e140b94"},"vehicle_type_id":"4","last_reported":1762659471,"current_range_meters":17200,"station_id":"ce4bhoh2rcd13ifvqh5g","pricing_plan_id":"cebpf4jnsgd1na2vs0mg"},{"bike_id":"e995c849-6e21-4213-b2c5-fabfd52ad1d7","system_id":"levelo_inurba_marseille","lat":43.29856,"lon":5.3629,"is_reserved":false,"is_disabled":false,"rental_uris":{"android":"levelo://app?vid=e995c849-6e21-4213-b2c5-fabfd52ad1d7","ios":"levelo://app?vid=e995c849-6e21-4213-b2c5-fabfd52ad1d7"},"vehicle_type_id":"4","last_reported":1762659471,"current_range_meters":17200,"station_id":"ce4bgpp2rcd13ifvqc3g","pricing_plan_id":"cebpf4jnsgd1na2vs0mg"},{"bike_id":"0e5d43f9-473b-4405-940d-2a4860ef702c","system_id":"levelo_inurba_marseille","lat":43.29298,"lon":5.37162,"is_reserved":false,"is_disabled":false,"rental_uris":{"android":"levelo://app?vid=0e5d43f9-473b-4405-940d-2a4860ef702c","ios":"levelo://app?vid=0e5d43f9-473b-4405-940d-2a4860ef702c"},"vehicle_type_id":"4","last_reported":1762659471,"current_range_meters":17200,"station_id":"ce4bgh92rcd13ifvqb40","pricing_plan_id":"cebpf4jnsgd1na2vs0mg"},{"bike_id":"fc31e432-478a-46e7-9f57-170713fcad46","system_id":"levelo_inurba_marseille","lat":43.2871,"lon":5.37413,"is_reserved":false,"is_disabled":false,"rental_uris":{"android":"levelo://app?vid=fc31e432-478a-46e7-9f57-170713fcad46","ios":"levelo://app?vid=fc31e432-478a-46e7-9f57-170713fcad46"},"vehicle_type_id":"4","last_reported":1762659471,"current_range_meters":17200,"station_id":"ce4bh3p2rcd13ifvqdq0","pricing_plan_id":"cebpf4jnsgd1na2vs0mg"},{"bike_id":"2fdccf48-a4e0-405b-a58b-ef528d56693a","system_id":"levelo_inurba_marseille","lat":43.3066,"lon":5.37345,"is_reserved":false,"is_disabled":false,"rental_uris":{"android":"levelo://app?vid=2fdccf48-a4e0-405b-a58b-ef528d56693a","ios":"levelo://app?vid=2fdccf48-a4e0-405b-a58b-ef528d56693a"},"vehicle_type_id":"4","last_reported":1762659471,"current_range_meters":17200,"station_id":"","pricing_plan_id":"cebpf4jnsgd1na2vs0mg"},{"bike_id":"2b6c7f17-6a0b-4c7e-9de0-10989be42791","system_id":"levelo_inurba_marseille","lat":43.29028,"lon":5.38438,"is_reserved":false,"is_disabled":false,"rental_uris":{"android":"levelo://app?vid=2b6c7f17-6a0b-4c7e-9de0-10989be42791","ios":"levelo://app?vid=2b6c7f17-6a0b-4c7e-9de0-10989be42791"},"vehicle_type_id":"4","last_reported":1762659471,"current_range_meters":17200,"station_id":"","pricing_plan_id":"cebpf4jnsgd1na2vs0mg"},{"bike_id":"5320d673-8f17-42b0-b637-4e20de7189dd","system_id":"levelo_inurba_marseille","lat":43.29949,"lon":5.36536,"is_reserved":false,"is_disabled":true,"rental_uris":{"android":"levelo://app?vid=5320d673-8f17-42b0-b637-4e20de7189dd","ios":"levelo://app?vid=5320d673-8f17-42b0-b637-4e20de7189dd"},"vehicle_type_id":"4","last_reported":1762659471,"current_range_meters":17600,"station_id":"ce4bgm92rcd13ifvqbr0","pricing_plan_id":"cebpf4jnsgd1na2vs0mg"},{"bike_id":"81117295-ef99-4696-a5e4-29e11d56d47c","system_id":"levelo_inurba_marseille","lat":43.32668,"lon":5.4099,"is_reserved":false,"is_disabled":false,"rental_uris":{"android":"levelo://app?vid=81117295-ef99-4696-a5e4-29e11d56d47c","ios":"levelo://app?vid=81117295-ef99-4696-a5e4-29e11d56d47c"},"vehicle_type_id":"4","last_reported":1762659471,"current_range_meters":17600,"station_id":"ce4bhpp2rcd13ifvqhgg","pricing_plan_id":"cebpf4jnsgd1na2vs0mg"},{"bike_id":"f4285871-3b92-4148-85b9-632a69343ab6","system_id":"levelo_inurba_marseille","lat":43.30133,"lon":5.399,"is_reserved":false,"is_disabled":false,"rental_uris":{"android":"levelo://app?vid=f4285871-3b92-4148-85b9-632a69343ab6","ios":"levelo://app?vid=f4285871-3b92-4148-85b9-632a69343ab6"},"vehicle_type_id":"4","last_reported":1762659471,"current_range_meters":17600,"station_id":"ce4bh0h2rcd13ifvqd40","pricing_plan_id":"cebpf4jnsgd1na2vs0mg"},{"bike_id":"ab4ac132-5519-4aac-ac12-8b8c2929bb7e","system_id":"levelo_inurba_marseille","lat":43.32302,"lon":5.38493,"is_reserved":false,"is_disabled":false,"rental_uris":{"android":"levelo://app?vid=ab4ac132-5519-4aac-ac12-8b8c2929bb7e","ios":"levelo://app?vid=ab4ac132-5519-4aac-ac12-8b8c2929bb7e"},"vehicle_type_id":"4","last_reported":1762659471,"current_range_meters":17600,"station_id":"st_d45171o9ee8s73djdqug","pricing_plan_id":"cebpf4jnsgd1na2vs0mg"},{"bike_id":"b6ba799f-93a0-474d-970a-cd786094f7da","system_id":"levelo_inurba_marseille","lat":43.284791,"lon":5.384326,"is_reserved":false,"is_disabled":true,"rental_uris":{"android":"levelo://app?vid=b6ba799f-93a0-474d-970a-cd786094f7da","ios":"levelo://app?vid=b6ba799f-93a0-474d-970a-cd786094f7da"},"vehicle_type_id":"4","last_reported":1762659471,"current_range_meters":17600,"station_id":"ce4bh512rcd13ifvqe3g","pricing_plan_id":"cebpf4jnsgd1na2vs0mg"},{"bike_id":"ec1adabd-d948-4149-b7b8-97e95acb79da","system_id":"levelo_inurba_marseille","lat":43.248131,"lon":5.374619,"is_reserved":false,"is_disabled":false,"rental_uris":{"android":"levelo://app?vid=ec1adabd-d948-4149-b7b8-97e95acb79da","ios":"levelo://app?vid=ec1adabd-d948-4149-b7b8-97e95acb79da"},"vehicle_type_id":"4","last_reported":1762659471,"current_range_meters":17600,"station_id":"ce4bhgh2rcd13ifvqfb0","pricing_plan_id":"cebpf4jnsgd1na2vs0mg"},{"bike_id":"0392c01f-c7f1-41fd-9cd6-aa463c8d4035","system_id":"levelo_inurba_marseille","lat":43.24392,"lon":5.37063,"is_reserved":false,"is_disabled":false,"rental_uris":{"android":"levelo://app?vid=0392c01f-c7f1-41fd-9cd6-aa463c8d4035","ios":"levelo://app?vid=0392c01f-c7f1-41fd-9cd6-aa463c8d4035"},"vehicle_type_id":"4","last_reported":1762659471,"current_range_meters":17600,"station_id":"ce4bhhh2rcd13ifvqfk0","pricing_plan_id":"cebpf4jnsgd1na2vs0mg"},{"bike_id":"52fb7e67-9da4-4ef0-8336-d669123c5362","system_id":"levelo_inurba_marseille","lat":43.24198,"lon":5.39729,"is_reserved":false,"is_disabled":false,"rental_uris":{"android":"levelo://app?vid=52fb7e67-9da4-4ef0-8336-d669123c5362","ios":"levelo://app?vid=52fb7e67-9da4-4ef0-8336-d669123c5362"},"vehicle_type_id":"4","last_reported":1762659471,"current_range_meters":17600,"station_id":"ce4bhn12rcd13ifvqgpg","pricing_plan_id":"cebpf4jnsgd1na2vs0mg"},{"bike_id":"fe8bd300-29d3-4225-a7b9-7d01e96d9860","system_id":"levelo_inurba_marseille","lat":43.27179,"lon":5.41001,"is_reserved":false,"is_disabled":false,"rental_uris":{"android":"levelo://app?vid=fe8bd300-29d3-4225-a7b9-7d01e96d9860","ios":"levelo://app?vid=fe8bd300-29d3-4225-a7b9-7d01e96d9860"},"vehicle_type_id":"4","last_reported":1762659471,"current_range_meters":17600,"station_id":"ce4bhl12rcd13ifvqgf0","pricing_plan_id":"cebpf4jnsgd1na2vs0mg"},{"bike_id":"61bfd81e-9ffd-48c0-b242-19f467cf65aa","system_id":"levelo_inurba_marseille","lat":43.27949,"lon":5.41017,"is_reserved":false,"is_disabled":false,"rental_uris":{"android":"levelo://app?vid=61bfd81e-9ffd-48c0-b242-19f467cf65aa","ios":"levelo://app?vid=61bfd81e-9ffd-48c0-b242-19f467cf65aa"},"vehicle_type_id":"4","last_reported":1762659471,"current_range_meters":17600,"station_id":"ce4bhnp2rcd13ifvqh0g","pricing_plan_id":"cebpf4jnsgd1na2vs0mg"},{"bike_id":"e083d16a-6dba-4905-a451-3761c3e28d39","system_id":"levelo_inurba_marseille","lat":43.31127,"lon":5.37785,"is_reserved":false,"is_disabled":false,"rental_uris":{"android":"levelo://app?vid=e083d16a-6dba-4905-a451-3761c3e28d39","ios":"levelo://app?vid=e083d16a-6dba-4905-a451-3761c3e28d39"},"vehicle_type_id":"4","last_reported":1762659471,"current_range_meters":17600,"station_id":"ce4bgt92rcd13ifvqcg0","pricing_plan_id":"cebpf4jnsgd1na2vs0mg"},{"bike_id":"a9d08e4c-0813-4aef-85b1-1d50cf456f69","system_id":"levelo_inurba_marseille","lat":43.217538,"lon":5.346177,"is_reserved":false,"is_disabled":true,"rental_uris":{"android":"levelo://app?vid=a9d08e4c-0813-4aef-85b1-1d50cf456f69","ios":"levelo://app?vid=a9d08e4c-0813-4aef-85b1-1d50cf456f69"},"vehicle_type_id":"4","last_reported":1762659471,"current_range_meters":18000,"station_id":"","pricing_plan_id":"cebpf4jnsgd1na2vs0mg"},{"bike_id":"2bee9d77-f4ce-40fb-a351-5c9f7e879e55","system_id":"levelo_inurba_marseille","lat":43.29618,"lon":5.40572,"is_reserved":false,"is_disabled":false,"rental_uris":{"android":"levelo://app?vid=2bee9d77-f4ce-40fb-a351-5c9f7e879e55","ios":"levelo://app?vid=2bee9d77-f4ce-40fb-a351-5c9f7e879e55"},"vehicle_type_id":"4","last_reported":1762659471,"current_range_meters":18000,"station_id":"ce4bh0h2rcd13ifvqd60","pricing_plan_id":"cebpf4jnsgd1na2vs0mg"},