{"last_updated":1768238149,"ttl":60,"version":"2.2","data":{"bikes":[{"bike_id":"3c74a884-9453-42c3-9254-e34bedb2edbf","system_id":"levelo_inurba_marseille","lat":43.28408,"lon":5.3752,"is_reserved":false,"is_disabled":false,"rental_uris":{"android":"levelo://app?vid=3c74a884-9453-42c3-9254-e34bedb2edbf","ios":"levelo://app?vid=3c74a884-9453-42c3-9254-e34bedb2edbf"},"vehicle_type_id":"4","last_reported":1768238150,"current_range_meters":2800,"station_id":"ce4bh412rcd13ifvqds0","pricing_plan_id":"cebpf4jnsgd1na2vs0mg"},{"bike_id":"891d1c52-5b83-4697-9442-465fd28f9645","system_id":"levelo_inurba_marseille","lat":43.29895,"lon":5.43669,"is_reserved":false,"is_disabled":false,"rental_uris":{"android":"levelo://app?vid=891d1c52-5b83-4697-9442-465fd28f9645","ios":"levelo://app?vid=891d1c52-5b83-4697-9442-465fd28f9645"},"vehicle_type_id":"4","last_reported":1768238150,"current_range_meters":2800,"station_id":"ce4bhpp2rcd13ifvqhfg","pricing_plan_id":"cebpf4jnsgd1na2vs0mg"},{"bike_id":"ccd75597-6bb8-4abb-9e69-a09c8856aabf","system_id":"levelo_inurba_marseille","lat":43.295306,"lon":5.39395,"is_reserved":false,"is_disabled":false,"rental_uris":{"android":"levelo://app?vid=ccd75597-6bb8-4abb-9e69-a09c8856aabf","ios":"levelo://app?vid=ccd75597-6bb8-4abb-9e69-a09c8856aabf"},"vehicle_type_id":"4","last_reported":1768238150,"current_range_meters":2800,"station_id":"ce4bh292rcd13ifvqdf0","pricing_plan_id":"cebpf4jnsgd1na2vs0mg"},{"bike_id":"f5000fa7-2a10-45a3-9972-4d5c63c76559","system_id":"levelo_inurba_marseille","lat":43.25588,"lon":5.3823,"is_reserved":false,"is_disabled":false,"rental_uris":{"android":"levelo://app?vid=f5000fa7-2a10-45a3-9972-4d5c63c76559","ios":"levelo://app?vid=f5000fa7-2a10-45a3-9972-4d5c63c76559"},"vehicle_type_id":"4","last_reported":1768238150,"current_range_meters":2800,"station_id":"ce4bhih2rcd13ifvqfs0","pricing_plan_id":"cebpf4jnsgd1na2vs0mg"},{"bike_id":"b1b1e325-f9ab-4dfc-88c2-8bb9fd05557c","system_id":"levelo_inurba_marseille","lat":43.308845,"lon":5.371955,"is_reserved":false,"is_disabled":false,"rental_uris":{"android":"levelo://app?vid=b1b1e325-f9ab-4dfc-88c2-8bb9fd05557c","ios":"levelo://app?vid=b1b1e325-f9ab-4dfc-88c2-8bb9fd05557c"},"vehicle_type_id":"4","last_reported":1768238150,"current_range_meters":2800,"station_id":"ce4bguh2rcd13ifvqckg","pricing_plan_id":"cebpf4jnsgd1na2vs0mg"},{"bike_id":"6c97f10f-1c8d-4cf6-9985-1259173f2a40","system_id":"levelo_inurba_marseille","lat":43.26502,"lon":5.39551,"is_reserved":false,"is_disabled":false,"rental_uris":{"android":"levelo://app?vid=6c97f10f-1c8d-4cf6-9985-1259173f2a40","ios":"levelo://app?vid=6c97f10f-1c8d-4cf6-9985-1259173f2a40"},"vehicle_type_id":"4","last_reported":1768238150,"current_range_meters":2800,"station_id":"ce4bhi12rcd13ifvqfq0","pricing_plan_id":"cebpf4jnsgd1na2vs0mg"},{"bike_id":"15f8d4ba-e879-4145-abfb-c5f09c8a8d2f","system_id":"levelo_inurba_marseille","lat":43.315512,"lon":5.398423,"is_reserved":false,"is_disabled":false,"rental_uris":{"android":"levelo://app?vid=15f8d4ba-e879-4145-abfb-c5f09c8a8d2f","ios":"levelo://app?vid=15f8d4ba-e879-4145-abfb-c5f09c8a8d2f"},"vehicle_type_id":"4","last_reported":1768238150,"current_range_meters":2800,"station_id":"","pricing_plan_id":"cebpf4jnsgd1na2vs0mg"},{"bike_id":"9838c198-bbe0-4cfb-93b9-8b9d8b507220","system_id":"levelo_inurba_marseille","lat":43.24668,"lon":5.43129,"is_reserved":false,"is_disabled":false,"rental_uris":{"android":"levelo://app?vid=9838c198-bbe0-4cfb-93b9-8b9d8b507220","ios":"levelo://app?vid=9838c198-bbe0-4cfb-93b9-8b9d8b507220"},"vehicle_type_id":"4","last_reported":1768238150,"current_range_meters":2800,"station_id":"st_d2m6c4gdas8pm72e190g","pricing_plan_id":"cebpf4jnsgd1na2vs0mg"},{"bike_id":"feafa852-61f8-4119-a648-63c8bb2ff12b","system_id":"levelo_inurba_marseille","lat":43.31502,"lon":5.37316,"is_reserved":false,"is_disabled":true,"rental_uris":{"android":"levelo://app?vid=feafa852-61f8-4119-a648-63c8bb2ff12b","ios":"levelo://app?vid=feafa852-61f8-4119-a648-63c8bb2ff12b"},"vehicle_type_id":"4","last_reported":1768238150,"current_range_meters":2800,"station_id":"ce4bgt12rcd13ifvqcd0","pricing_plan_id":"cebpf4jnsgd1na2vs0mg"},{"bike_id":"d3bec0ed-e168-45d2-826e-bddeda162a20","system_id":"levelo_inurba_marseille","lat":43.28434,"lon":5.392077,"is_reserved":false,"is_disabled":false,"rental_uris":{"android":"levelo://app?vid=d3bec0ed-e168-45d2-826e-bddeda162a20","ios":"levelo://app?vid=d3bec0ed-e168-45d2-826e-bddeda162a20"},"vehicle_type_id":"4","last_reported":1768238150,"current_range_meters":2800,"station_id":"ce4bhoh2rcd13ifvqh5g","pricing_plan_id":"cebpf4jnsgd1na2vs0mg"},{"bike_id":"a19b78fd-1e46-4610-b594-72ce3646030e","system_id":"levelo_inurba_marseille","lat":43.24074,"lon":5.37722,"is_reserved":false,"is_disabled":false,"rental_uris":{"android":"levelo://app?vid=a19b78fd-1e46-4610-b594-72ce3646030e","ios":"levelo://app?vid=a19b78fd-1e46-4610-b594-72ce3646030e"},"vehicle_type_id":"4","last_reported":1768238150,"current_range_meters":3200,"station_id":"ce4bhnp2rcd13ifvqgvg","pricing_plan_id":"cebpf4jnsgd1na2vs0mg"},{"bike_id":"098d94c1-f520-462c-b21d-91020ee6aa01","system_id":"levelo_inurba_marseille","lat":43.30725,"lon":5.40991,"is_reserved":false,"is_disabled":false,"rental_uris":{"android":"levelo://app?vid=098d94c1-f520-462c-b21d-91020ee6aa01","ios":"levelo://app?vid=098d94c1-f520-462c-b21d-91020ee6aa01"},"vehicle_type_id":"4","last_reported":1768238150,"current_range_meters":3200,"station_id":"","pricing_plan_id":"cebpf4jnsgd1na2vs0mg"},{"bike_id":"0fa22ef5-d785-49d3-80e0-8122bc638a32","system_id":"levelo_inurba_marseille","lat":43.22577,"lon":5.41628,"is_reserved":false,"is_disabled":false,"rental_uris":{"android":"levelo://app?vid=0fa22ef5-d785-49d3-80e0-8122bc638a32","ios":"levelo://app?vid=0fa22ef5-d785-49d3-80e0-8122bc638a32"},"vehicle_type_id":"4","last_reported":1768238150,"current_range_meters":3200,"station_id":"st_d2o4gvlbi1j2169b742g","pricing_plan_id":"cebpf4jnsgd1na2vs0mg"},{"bike_id":"320be350-7ad8-4b9a-a7c5-19451b57fc01","system_id":"levelo_inurba_marseille","lat":43.22935,"lon":5.35362,"is_reserved":false,"is_disabled":false,"rental_uris":{"android":"levelo://app?vid=320be350-7ad8-4b9a-a7c5-19451b57fc01","ios":"levelo://app?vid=320be350-7ad8-4b9a-a7c5-19451b57fc01"},"vehicle_type_id":"4","last_reported":1768238150,"current_range_meters":3200,"station_id":"cpo3532slgdg3j2ikp40","pricing_plan_id":"cebpf4jnsgd1na2vs0mg"},{"bike_id":"2e20bb84-1c03-4f1e-bb7c-55c5ffc3fd10","system_id":"levelo_inurba_marseille","lat":43.31864,"lon":5.37694,"is_reserved":false,"is_disabled":false,"rental_uris":{"android":"levelo://app?vid=2e20bb84-1c03-4f1e-bb7c-55c5ffc3fd10","ios":"levelo://app?vid=2e20bb84-1c03-4f1e-bb7c-55c5ffc3fd10"},"vehicle_type_id":"4","last_reported":1768238150,"current_range_meters":3200,"station_id":"","pricing_plan_id":"cebpf4jnsgd1na2vs0mg"},{"bike_id":"f596da05-0b66-4513-826b-a866a276204c","system_id":"levelo_inurba_marseille","lat":43.245826,"lon":5.374825,"is_reserved":false,"is_disabled":false,"rental_uris":{"android":"levelo://app?vid=f596da05-0b66-4513-826b-a866a276204c","ios":"levelo://app?vid=f596da05-0b66-4513-826b-a866a276204c"},"vehicle_type_id":"4","last_reported":1768238150,"current_range_meters":3200,"station_id":"","pricing_plan_id":"cebpf4jnsgd1na2vs0mg"},{"bike_id":"dcb7be01-50ce-42e0-a9ed-adc761203c14","system_id":"levelo_inurba_marseille","lat":43.28621,"lon":5.42607,"is_reserved":false,"is_disabled":false,"rental_uris":{"android":"levelo://app?vid=dcb7be01-50ce-42e0-a9ed-adc761203c14","ios":"levelo://app?vid=dcb7be01-50ce-42e0-a9ed-adc761203c14"},"vehicle_type_id":"4","last_reported":1768238150,"current_range_meters":3200,"station_id":"","pricing_plan_id":"cebpf4jnsgd1na2vs0mg"},{"bike_id":"a5787e37-ecb5-4a87-bcf3-a0b74c386c9d","system_id":"levelo_inurba_marseille","lat":43.24172,"lon":5.36392,"is_reserved":false,"is_disabled":false,"rental_uris":{"android":"levelo://app?vid=a5787e37-ecb5-4a87-bcf3-a0b74c386c9d","ios":"levelo://app?vid=a5787e37-ecb5-4a87-bcf3-a0b74c386c9d"},"vehicle_type_id":"4","last_reported":1768238150,"current_range_meters":3200,"station_id":"cpo36qri1sfpv3e86is0","pricing_plan_id":"cebpf4jnsgd1na2vs0mg"},{"bike_id":"531b0ec2-bb4e-4db2-875b-a5d5208a4479","system_id":"levelo_inurba_marseille","lat":43.240763,"lon":5.377527,"is_reserved":false,"is_disabled":false,"rental_uris":{"android":"levelo://app?vid=531b0ec2-bb4e-4db2-875b-a5d5208a4479","ios":"levelo://app?vid=531b0ec2-bb4e-4db2-875b-a5d5208a4479"},"vehicle_type_id":"4","last_reported":1768238150,"current_range_meters":3200,"station_id":"ce4bhnp2rcd13ifvqgvg","pricing_plan_id":"cebpf4jnsgd1na2vs0mg"},{"bike_id":"7482f723-e9aa-4c5c-baec-c9574fd38c08","system_id":"levelo_inurba_marseille","lat":43.31526,"lon":5.38034,"is_reserved":false,"is_disabled":false,"rental_uris":{"android":"levelo://app?vid=7482f723-e9aa-4c5c-baec-c9574fd38c08","ios":"levelo://app?vid=7482f723-e9aa-4c5c-baec-c9574fd38c08"},"vehicle_type_id":"4","last_reported":1768238150,"current_range_meters":3200,"station_id":"ce4bhsp2rcd13ifvqi50","pricing_plan_id":"cebpf4jnsgd1na2vs0mg"},{"bike_id":"9bc89c8e-a483-418e-b55a-8f6d2ebdde7a","system_id":"levelo_inurba_marseille","lat":43.22934,"lon":5.35377,"is_reserved":false,"is_disabled":false,"rental_uris":{"android":"levelo://app?vid=9bc89c8e-a483-418e-b55a-8f6d2ebdde7a","ios":"levelo://app?vid=9bc89c8e-a483-418e-b55a-8f6d2ebdde7a"},"vehicle_type_id":"4","last_reported":1768238150,"current_range_meters":3600,"station_id":"cpo3532slgdg3j2ikp40","pricing_plan_id":"cebpf4jnsgd1na2vs0mg"},{"bike_id":"fc07a5f4-baa1-432d-8197-76b4987e0970","system_id":"levelo_inurba_marseille","lat":43.30592,"lon":5.37095,"is_reserved":false,"is_disabled":false,"rental_uris":{"android":"levelo://app?vid=fc07a5f4-baa1-432d-8197-76b4987e0970","ios":"levelo://app?vid=fc07a5f4-baa1-432d-8197-76b4987e0970"},"vehicle_type_id":"4","last_reported":1768238150,"current_range_meters":3600,"station_id":"","pricing_plan_id":"cebpf4jnsgd1na2vs0mg"},{"bike_id":"f55035af-60a9-49d1-8e12-e53ee74a2586","system_id":"levelo_inurba_marseille","lat":43.298599,"lon":5.363036,"is_reserved":false,"is_disabled":false,"rental_uris":{"android":"levelo://app?vid=f55035af-60a9-49d1-8e12-e53ee74a2586","ios":"levelo://app?vid=f55035af-60a9-49d1-8e12-e53ee74a2586"},"vehicle_type_id":"4","last_reported":1768238150,"current_range_meters":3600,"station_id":"ce4bgpp2rcd13ifvqc3g","pricing_plan_id":"cebpf4jnsgd1na2vs0mg"},{"bike_id":"8ecacfc0-04c4-48d3-8ad1-64ee86d60410","system_id":"levelo_inurba_marseille","lat":43.295922,"lon":5.367272,"is_reserved":false,"is_disabled":false,"rental_uris":{"android":"levelo://app?vid=8ecacfc0-04c4-48d3-8ad1-64ee86d60410","ios":"levelo://app?vid=8ecacfc0-04c4-48d3-8ad1-64ee86d60410"},"vehicle_type_id":"4","last_reported":1768238150,"current_range_meters":3600,"station_id":"ce4bgph2rcd13ifvqc2g","pricing_plan_id":"cebpf4jnsgd1na2vs0mg"},{"bike_id":"eb158ffc-5efa-48f5-b3c5-d6400752d49b","system_id":"levelo_inurba_marseille","lat":43.2919,"lon":5.35797,"is_reserved":false,"is_disabled":false,"rental_uris":{"android":"levelo://app?vid=eb158ffc-5efa-48f5-b3c5-d6400752d49b","ios":"levelo://app?vid=eb158ffc-5efa-48f5-b3c5-d6400752d49b"},"vehicle_type_id":"4","last_reported":1768238150,"current_range_meters":3600,"station_id":"ce4bhb12rcd13ifvqel0","pricing_plan_id":"cebpf4jnsgd1na2vs0mg"},{"bike_id":"64cd3d95-1725-477d-bc45-fa8570d8f0cd","system_id":"levelo_inurba_marseille","lat":43.253366,"lon":5.421782,"is_reserved":false,"is_disabled":false,"rental_uris":{"android":"levelo://app?vid=64cd3d95-1725-477d-bc45-fa8570d8f0cd","ios":"levelo://app?vid=64cd3d95-1725-477d-bc45-fa8570d8f0cd"},"vehicle_type_id":"4","last_reported":1768238150,"current_range_meters":3600,"station_id":"st_d2m65c5bi1j21697t3ng","pricing_plan_id":"cebpf4jnsgd1na2vs0mg"},{"bike_id":"2212fcaa-f182-47e5-a289-229f5842a408","system_id":"levelo_inurba_marseille","lat":43.25872,"lon":5.39902,"is_reserved":false,"is_disabled":false,"rental_uris":{"android":"levelo://app?vid=2212fcaa-f182-47e5-a289-229f5842a408","ios":"levelo://app?vid=2212fcaa-f182-47e5-a289-229f5842a408"},"vehicle_type_id":"4","last_reported":1768238150,"current_range_meters":3600,"station_id":"ce4bhl92rcd13ifvqghg","pricing_plan_id":"cebpf4jnsgd1na2vs0mg"},{"bike_id":"0819e983-2244-4de4-928a-ad5b3d4c29ca","system_id":"levelo_inurba_marseille","lat":43.27935,"lon":5.38718,"is_reserved":false,"is_disabled":false,"rental_uris":{"android":"levelo://app?vid=0819e983-2244-4de4-928a-ad5b3d4c29ca","ios":"levelo://app?vid=0819e983-2244-4de4-928a-ad5b3d4c29ca"},"vehicle_type_id":"4","last_reported":1768238150,"current_range_meters":3600,"station_id":"ce4bhg12rcd13ifvqf80","pricing_plan_id":"cebpf4jnsgd1na2vs0mg"},{"bike_id":"6c3d77ae-e5b4-40fb-ac8d-55d2ca975358","system_id":"levelo_inurba_marseille","lat":43.25339,"lon":5.4218,"is_reserved":false,"is_disabled":false,"rental_uris":{"android":"levelo://app?vid=6c3d77ae-e5b4-40fb-ac8d-55d2ca975358","ios":"levelo://app?vid=6c3d77ae-e5b4-40fb-ac8d-55d2ca975358"},"vehicle_type_id":"4","last_reported":1768238150,"current_range_meters":4000,"station_id":"st_d2m65c5bi1j21697t3ng","pricing_plan_id":"cebpf4jnsgd1na2vs0mg"},{"bike_id":"11b7113f-ff79-4452-9417-d352466ee269","system_id":"levelo_inurba_marseille","lat":43.323263,"lon":5.370539,"is_reserved":false,"is_disabled":false,"rental_uris":{"android":"levelo://app?vid=11b7113f-ff79-4452-9417-d352466ee269","ios":"levelo://app?vid=11b7113f-ff79-4452-9417-d352466ee269"},"vehicle_type_id":"4","last_reported":1768238150,"current_range_meters":4000,"station_id":"","pricing_plan_id":"cebpf4jnsgd1na2vs0mg"},{"bike_id":"58e6cba9-b865-453f-805a-a4e4c7b1be3e","system_id":"levelo_inurba_marseille","lat":43.24073,"lon":5.37763,"is_reserved":false,"is_disabled":false,"rental_uris":{"android":"levelo://app?vid=58e6cba9-b865-453f-805a-a4e4c7b1be3e","ios":"levelo://app?vid=58e6cba9-b865-453f-805a-a4e4c7b1be3e"},"vehicle_type_id":"4","last_reported":1768238150,"current_range_meters":4000,"station_id":"ce4bhnp2rcd13ifvqgvg","pricing_plan_id":"cebpf4jnsgd1na2vs0mg"},{"bike_id":"6680bd6e-a9c3-48c4-86d6-4cdc76ce96f2","system_id":"levelo_inurba_marseille","lat":43.26561,"lon":5.4033,"is_reserved":false,"is_disabled":false,"rental_uris":{"android":"levelo://app?vid=6680bd6e-a9c3-48c4-86d6-4cdc76ce96f2","ios":"levelo://app?vid=6680bd6e-a9c3-48c4-86d6-4cdc76ce96f2"},"vehicle_type_id":"4","last_reported":1768238150,"current_range_meters":4000,"station_id":"ce4bhmp2rcd13ifvqgng","pricing_plan_id":"cebpf4jnsgd1na2vs0mg"},{"bike_id":"9787124e-2f43-4981-b8ec-2ffd778032d5","system_id":"levelo_inurba_marseille","lat":43.26936,"lon":5.38927,"is_reserved":false,"is_disabled":false,"rental_uris":{"android":"levelo://app?vid=9787124e-2f43-4981-b8ec-2ffd778032d5","ios":"levelo://app?vid=9787124e-2f43-4981-b8ec-2ffd778032d5"},"vehicle_type_id":"4","last_reported":1768238150,"current_range_meters":4000,"station_id":"","pricing_plan_id":"cebpf4jnsgd1na2vs0mg"},{"bike_id":"af5e1190-c989-4afa-acad-882ad00ab22e","system_id":"levelo_inurba_marseille","lat":43.30137,"lon":5.39864,"is_reserved":false,"is_disabled":false,"rental_uris":{"android":"levelo://app?vid=af5e1190-c989-4afa-acad-882ad00ab22e","ios":"levelo://app?vid=af5e1190-c989-4afa-acad-882ad00ab22e"},"vehicle_type_id":"4","last_reported":1768238150,"current_range_meters":4000,"station_id":"ce4bh0h2rcd13ifvqd40","pricing_plan_id":"cebpf4jnsgd1na2vs0mg"},{"bike_id":"8f919f92-a223-4e66-8d69-264160360d52","system_id":"levelo_inurba_marseille","lat":43.24073,"lon":5.37757,"is_reserved":false,"is_disabled":false,"rental_uris":{"android":"levelo://app?vid=8f919f92-a223-4e66-8d69-264160360d52","ios":"levelo://app?vid=8f919f92-a223-4e66-8d69-264160360d52"},"vehicle_type_id":"4","last_reported":1768238150,"current_range_meters":4000,"station_id":"ce4bhnp2rcd13ifvqgvg","pricing_plan_id":"cebpf4jnsgd1na2vs0mg"},{"bike_id":"6bba4daf-89fe-4d85-b2d6-e7c59d10d0f9","system_id":"levelo_inurba_marseille","lat":43.30088,"lon":5.3908,"is_reserved":false,"is_disabled":false,"rental_uris":{"android":"levelo://app?vid=6bba4daf-89fe-4d85-b2d6-e7c59d10d0f9","ios":"levelo://app?vid=6bba4daf-89fe-4d85-b2d6-e7c59d10d0f9"},"vehicle_type_id":"4","last_reported":1768238150,"current_range_meters":4000,"station_id":"ce4bh192rcd13ifvqdb0","pricing_plan_id":"cebpf4jnsgd1na2vs0mg"},{"bike_id":"e8909d11-c6c0-4a1b-a11a-6b74d5a8be8d","system_id":"levelo_inurba_marseille","lat":43.225339,"lon":5.348392,"is_reserved":false,"is_disabled":false,"rental_uris":{"android":"levelo://app?vid=e8909d11-c6c0-4a1b-a11a-6b74d5a8be8d","ios":"levelo://app?vid=e8909d11-c6c0-4a1b-a11a-6b74d5a8be8d"},"vehicle_type_id":"4","last_reported":1768238150,"current_range_meters":4000,"station_id":"","pricing_plan_id":"cebpf4jnsgd1na2vs0mg"},{"bike_id":"aedb0b1d-61ef-4190-a07d-7f49f8bc3c0c","system_id":"levelo_inurba_marseille","lat":43.22929,"lon":5.3537,"is_reserved":false,"is_disabled":false,"rental_uris":{"android":"levelo://app?vid=aedb0b1d-61ef-4190-a07d-7f49f8bc3c0c","ios":"levelo://app?vid=aedb0b1d-61ef-4190-a07d-7f49f8bc3c0c"},"vehicle_type_id":"4","last_reported":1768238150,"current_range_meters":4000,"station_id":"cpo3532slgdg3j2ikp40","pricing_plan_id":"cebpf4jnsgd1na2vs0mg"},{"bike_id":"c42733a9-3460-4d69-9f64-7395e3d47680","system_id":"levelo_inurba_marseille","lat":43.32532,"lon":5.40675,"is_reserved":false,"is_disabled":false,"rental_uris":{"android":"levelo://app?vid=c42733a9-3460-4d69-9f64-7395e3d47680","ios":"levelo://app?vid=c42733a9-3460-4d69-9f64-7395e3d47680"},"vehicle_type_id":"4","last_reported":1768238150,"current_range_meters":4000,"station_id":"","pricing_plan_id":"cebpf4jnsgd1na2vs0mg"},{"bike_id":"92b964f3-f2b6-4e24-a458-84302062efc7","system_id":"levelo_inurba_marseille","lat":43.322823,"lon":5.382673,"is_reserved":false,"is_disabled":false,"rental_uris":{"android":"levelo://app?vid=92b964f3-f2b6-4e24-a458-84302062efc7","ios":"levelo://app?vid=92b964f3-f2b6-4e24-a458-84302062efc7"},"vehicle_type_id":"4","last_reported":1768238150,"current_range_meters":4000,"station_id":"ce4bhr12rcd13ifvqhqg","pricing_plan_id":"cebpf4jnsgd1na2vs0mg"},{"bike_id":"e61c1748-e4ef-47f4-bd63-f86e1ce5ba1d","system_id":"levelo_inurba_marseille","lat":43.30318,"lon":5.40417,"is_reserved":false,"is_disabled":false,"rental_uris":{"android":"levelo://app?vid=e61c1748-e4ef-47f4-bd63-f86e1ce5ba1d","ios":"levelo://app?vid=e61c1748-e4ef-47f4-bd63-f86e1ce5ba1d"},"vehicle_type_id":"4","last_reported":1768238150,"current_range_meters":4000,"station_id":"ce4bh012rcd13ifvqd10","pricing_plan_id":"cebpf4jnsgd1na2vs0mg"},{"bike_id":"7d685810-6742-41f8-be5c-e1978be9f1f0","system_id":"levelo_inurba_marseille","lat":43.298386,"lon":5.363325,"is_reserved":false,"is_disabled":false,"rental_uris":{"android":"levelo://app?vid=7d685810-6742-41f8-be5c-e1978be9f1f0","ios":"levelo://app?vid=7d685810-6742-41f8-be5c-e1978be9f1f0"},"vehicle_type_id":"4","last_reported":1768238150,"current_range_meters":4400,"station_id":"ce4bgpp2rcd13ifvqc3g","pricing_plan_id":"cebpf4jnsgd1na2vs0mg"},{"bike_id":"682a25db-2229-438e-a91a-bd8e0ed43f7f","system_id":"levelo_inurba_marseille","lat":43.30215,"lon":5.37064,"is_reserved":false,"is_disabled":false,"rental_uris":{"android":"levelo://app?vid=682a25db-2229-438e-a91a-bd8e0ed43f7f","ios":"levelo://app?vid=682a25db-2229-438e-a91a-bd8e0ed43f7f"},"vehicle_type_id":"4","last_reported":1768238150,"current_range_meters":4400,"station_id":"","pricing_plan_id":"cebpf4jnsgd1na2vs0mg"},{"bike_id":"63455f42-0b47-4078-a8cf-348f242f0a66","system_id":"levelo_inurba_marseille","lat":43.25585,"lon":5.38245,"is_reserved":false,"is_disabled":false,"rental_uris":{"android":"levelo://app?vid=63455f42-0b47-4078-a8cf-348f242f0a66","ios":"levelo://app?vid=63455f42-0b47-4078-a8cf-348f242f0a66"},"vehicle_type_id":"4","last_reported":1768238150,"current_range_meters":4400,"station_id":"ce4bhih2rcd13ifvqfs0","pricing_plan_id":"cebpf4jnsgd1na2vs0mg"},{"bike_id":"6ad6e14f-b56b-421d-a6ba-eb1c8cdbfdc6","system_id":"levelo_inurba_marseille","lat":43.29855,"lon":5.36288,"is_reserved":false,"is_disabled":false,"rental_uris":{"android":"levelo://app?vid=6ad6e14f-b56b-421d-a6ba-eb1c8cdbfdc6","ios":"levelo://app?vid=6ad6e14f-b56b-421d-a6ba-eb1c8cdbfdc6"},"vehicle_type_id":"4","last_reported":1768238150,"current_range_meters":4400,"station_id":"ce4bgpp2rcd13ifvqc3g","pricing_plan_id":"cebpf4jnsgd1na2vs0mg"},{"bike_id":"41541052-aaac-401b-9a4b-4100378978ed","system_id":"levelo_inurba_marseille","lat":43.24165,"lon":5.36389,"is_reserved":false,"is_disabled":false,"rental_uris":{"android":"levelo://app?vid=41541052-aaac-401b-9a4b-4100378978ed","ios":"levelo://app?vid=41541052-aaac-401b-9a4b-4100378978ed"},"vehicle_type_id":"4","last_reported":1768238150,"current_range_meters":4400,"station_id":"cpo36qri1sfpv3e86is0","pricing_plan_id":"cebpf4jnsgd1na2vs0mg"},{"bike_id":"6406b753-28fd-4c5d-89b2-3902feebd9b5","system_id":"levelo_inurba_marseille","lat":43.26066,"lon":5.39384,"is_reserved":false,"is_disabled":false,"rental_uris":{"android":"levelo://app?vid=6406b753-28fd-4c5d-89b2-3902feebd9b5","ios":"levelo://app?vid=6406b753-28fd-4c5d-89b2-3902feebd9b5"},"vehicle_type_id":"4","last_reported":1768238150,"current_range_meters":4400,"station_id":"ce4bhh92rcd13ifvqfj0","pricing_plan_id":"cebpf4jnsgd1na2vs0mg"},{"bike_id":"63b1856a-5e73-4949-8313-642a7aae66aa","system_id":"levelo_inurba_marseille","lat":43.22929,"lon":5.35376,"is_reserved":false,"is_disabled":false,"rental_uris":{"android":"levelo://app?vid=63b1856a-5e73-4949-8313-642a7aae66aa","ios":"levelo://app?vid=63b1856a-5e73-4949-8313-642a7aae66aa"},"vehicle_type_id":"4","last_reported":1768238150,"current_range_meters":4400,"station_id":"cpo3532slgdg3j2ikp40","pricing_plan_id":"cebpf4jnsgd1na2vs0mg"},{"bike_id":"f66a133e-7af9-409d-b78c-71e5f6289609","system_id":"levelo_inurba_marseille","lat":43.22555,"lon":5.41637,"is_reserved":false,"is_disabled":false,"rental_uris":{"android":"levelo://app?vid=f66a133e-7af9-409d-b78c-71e5f6289609","ios":"levelo://app?vid=f66a133e-7af9-409d-b78c-71e5f6289609"},"vehicle_type_id":"4","last_reported":1768238150,"current_range_meters":4400,"station_id":"st_d2o4gvlbi1j2169b742g","pricing_plan_id":"cebpf4jnsgd1na2vs0mg"},{"bike_id":"343a6c5f-ac65-43f4-a4a6-fd87094dbc58","system_id":"levelo_inurba_marseille","lat":43.26679,"lon":5.3827,"is_reserved":false,"is_disabled":false,"rental_uris":{"android":"levelo://app?vid=343a6c5f-ac65-43f4-a4a6-fd87094dbc58","ios":"levelo://app?vid=343a6c5f-ac65-43f4-a4a6-fd87094dbc58"},"vehicle_type_id":"4","last_reported":1768238150,"current_range_meters":4400,"station_id":"ce4bhg92rcd13ifvqf90","pricing_plan_id":"cebpf4jnsgd1na2vs0mg"},{"bike_id":"455388f8-9ccd-45c9-bf55-808bb953c5bd","system_id":"levelo_inurba_marseille","lat":43.29532,"lon":5.3905,"is_reserved":false,"is_disabled":false,"rental_uris":{"android":"levelo://app?vid=455388f8-9ccd-45c9-bf55-808bb953c5bd","ios":"levelo://app?vid=455388f8-9ccd-45c9-bf55-808bb953c5bd"},"vehicle_type_id":"4","last_reported":1768238150,"current_range_meters":4400,"station_id":"ce4bh3p2rcd13ifvqdp0","pricing_plan_id":"cebpf4jnsgd1na2vs0mg"},{"bike_id":"cb4fe3ce-276b-4b77-9b41-93de1dcf6826","system_id":"levelo_inurba_marseille","lat":43.29064,"lon":5.37167,"is_reserved":false,"is_disabled":false,"rental_uris":{"android":"levelo://app?vid=cb4fe3ce-276b-4b77-9b41-93de1dcf6826","ios":"levelo://app?vid=cb4fe3ce-276b-4b77-9b41-93de1dcf6826"},"vehicle_type_id":"4","last_reported":1768238150,"current_range_meters":4400,"station_id":"ce4bh5p2rcd13ifvqe4g","pricing_plan_id":"cebpf4jnsgd1na2vs0mg"},{"bike_id":"021c3b11-e583-40b4-8ea1-2ae3371d0bc9","system_id":"levelo_inurba_marseille","lat":43.284744,"lon":5.483966,"is_reserved":false,"is_disabled":false,"rental_uris":{"android":"levelo://app?vid=021c3b11-e583-40b4-8ea1-2ae3371d0bc9","ios":"levelo://app?vid=021c3b11-e583-40b4-8ea1-2ae3371d0bc9"},"vehicle_type_id":"4","last_reported":1768238150,"current_range_meters":4400,"station_id":"","pricing_plan_id":"cebpf4jnsgd1na2vs0mg"},{"bike_id":"b77dd399-8633-4e57-b02f-3cf1ad9b2dc5","system_id":"levelo_inurba_marseille","lat":43.33279,"lon":5.4123,"is_reserved":false,"is_disabled":false,"rental_uris":{"android":"levelo://app?vid=b77dd399-8633-4e57-b02f-3cf1ad9b2dc5","ios":"levelo://app?vid=b77dd399-8633-4e57-b02f-3cf1ad9b2dc5"},"vehicle_type_id":"4","last_reported":1768238150,"current_range_meters":4400,"station_id":"","pricing_plan_id":"cebpf4jnsgd1na2vs0mg"},{"bike_id":"a7f3381d-b96a-4907-8886-7a2032e17419","system_id":"levelo_inurba_marseille","lat":43.307376,"lon":5.42435,"is_reserved":false,"is_disabled":false,"rental_uris":{"android":"levelo://app?vid=a7f3381d-b96a-4907-8886-7a2032e17419","ios":"levelo://app?vid=a7f3381d-b96a-4907-8886-7a2032e17419"},"vehicle_type_id":"4","last_reported":1768238150,"current_range_meters":4800,"station_id":"st_cvj6ca6bvosntc0bfgr0","pricing_plan_id":"cebpf4jnsgd1na2vs0mg"},{"bike_id":"21f594df-8489-4ed1-9833-71f4d7d5f3e6","system_id":"levelo_inurba_marseille","lat":43.27615,"lon":5.36107,"is_reserved":false,"is_disabled":false,"rental_uris":{"android":"levelo://app?vid=21f594df-8489-4ed1-9833-71f4d7d5f3e6","ios":"levelo://app?vid=21f594df-8489-4ed1-9833-71f4d7d5f3e6"},"vehicle_type_id":"4","last_reported":1768238150,"current_range_meters":4800,"station_id":"ce4bgj92rcd13ifvqbe0","pricing_plan_id":"cebpf4jnsgd1na2vs0mg"},{"bike_id":"74517fce-3511-422e-b7b6-d84d30e9d61f","system_id":"levelo_inurba_marseille","lat":43.30367,"lon":5.37326,"is_reserved":false,"is_disabled":false,"rental_uris":{"android":"levelo://app?vid=74517fce-3511-422e-b7b6-d84d30e9d61f","ios":"levelo://app?vid=74517fce-3511-422e-b7b6-d84d30e9d61f"},"vehicle_type_id":"4","last_reported":1768238150,"current_range_meters":4800,"station_id":"","pricing_plan_id":"cebpf4jnsgd1na2vs0mg"},{"bike_id":"63a8ad53-0407-4bea-a09c-eee796fd0c2b","system_id":"levelo_inurba_marseille","lat":43.278403,"lon":5.40699,"is_reserved":false,"is_disabled":false,"rental_uris":{"android":"levelo://app?vid=63a8ad53-0407-4bea-a09c-eee796fd0c2b","ios":"levelo://app?vid=63a8ad53-0407-4bea-a09c-eee796fd0c2b"},"vehicle_type_id":"4","last_reported":1768238150,"current_range_meters":4800,"station_id":"ce4bhnh2rcd13ifvqgtg","pricing_plan_id":"cebpf4jnsgd1na2vs0mg"},{"bike_id":"b0ff2b30-f5b5-4168-9fc0-29fb894c5d21","system_id":"levelo_inurba_marseille","lat":43.269302,"lon":5.389116,"is_reserved":false,"is_disabled":false,"rental_uris":{"android":"levelo://app?vid=b0ff2b30-f5b5-4168-9fc0-29fb894c5d21","ios":"levelo://app?vid=b0ff2b30-f5b5-4168-9fc0-29fb894c5d21"},"vehicle_type_id":"4","last_reported":1768238150,"current_range_meters":4800,"station_id":"ce4bhhh2rcd13ifvqfl0","pricing_plan_id":"cebpf4jnsgd1na2vs0mg"},{"bike_id":"64f7d702-cc24-4d72-aef8-c34806e3088b","system_id":"levelo_inurba_marseille","lat":43.25113,"lon":5.40316,"is_reserved":false,"is_disabled":false,"rental_uris":{"android":"levelo://app?vid=64f7d702-cc24-4d72-aef8-c34806e3088b","ios":"levelo://app?vid=64f7d702-cc24-4d72-aef8-c34806e3088b"},"vehicle_type_id":"4","last_reported":1768238150,"current_range_meters":4800,"station_id":"ce4bhlh2rcd13ifvqgig","pricing_plan_id":"cebpf4jnsgd1na2vs0mg"},{"bike_id":"599551f3-489c-449c-a5f9-34490cbff37c","system_id":"levelo_inurba_marseille","lat":43.28481,"lon":5.38216,"is_reserved":false,"is_disabled":false,"rental_uris":{"android":"levelo://app?vid=599551f3-489c-449c-a5f9-34490cbff37c","ios":"levelo://app?vid=599551f3-489c-449c-a5f9-34490cbff37c"},"vehicle_type_id":"4","last_reported":1768238150,"current_range_meters":4800,"station_id":"","pricing_plan_id":"cebpf4jnsgd1na2vs0mg"},{"bike_id":"950fb9ca-8a92-4124-b176-97b616bd9ee7","system_id":"levelo_inurba_marseille","lat":43.28852,"lon":5.39322,"is_reserved":false,"is_disabled":true,"rental_uris":{"android":"levelo://app?vid=950fb9ca-8a92-4124-b176-97b616bd9ee7","ios":"levelo://app?vid=950fb9ca-8a92-4124-b176-97b616bd9ee7"},"vehicle_type_id":"4","last_reported":1768238150,"current_range_meters":4800,"station_id":"ce4bh2p2rcd13ifvqdi0","pricing_plan_id":"cebpf4jnsgd1na2vs0mg"},{"bike_id":"2f357f68-e8cc-4f6a-9fe7-b735ddecb351","system_id":"levelo_inurba_marseille","lat":43.31724,"lon":5.37753,"is_reserved":false,"is_disabled":false,"rental_uris":{"android":"levelo://app?vid=2f357f68-e8cc-4f6a-9fe7-b735ddecb351","ios":"levelo://app?vid=2f357f68-e8cc-4f6a-9fe7-b735ddecb351"},"vehicle_type_id":"4","last_reported":1768238150,"current_range_meters":4800,"station_id":"ce4bgth2rcd13ifvqch0","pricing_plan_id":"cebpf4jnsgd1na2vs0mg"},{"bike_id":"b9c6eb4c-b3a9-45eb-87cd-efb346d5249f","system_id":"levelo_inurba_marseille","lat":43.28209,"lon":5.39049,"is_reserved":false,"is_disabled":false,"rental_uris":{"android":"levelo://app?vid=b9c6eb4c-b3a9-45eb-87cd-efb346d5249f","ios":"levelo://app?vid=b9c6eb4c-b3a9-45eb-87cd-efb346d5249f"},"vehicle_type_id":"4","last_reported":1768238150,"current_range_meters":4800,"station_id":"ce4bhn92rcd13ifvqgsg","pricing_plan_id":"cebpf4jnsgd1na2vs0mg"},{"bike_id":"d27437ba-3ffb-4f9d-bb78-9893a2ba4e33","system_id":"levelo_inurba_marseille","lat":43.286107,"lon":5.351008,"is_reserved":false,"is_disabled":false,"rental_uris":{"android":"levelo://app?vid=d27437ba-3ffb-4f9d-bb78-9893a2ba4e33","ios":"levelo://app?vid=d27437ba-3ffb-4f9d-bb78-9893a2ba4e33"},"vehicle_type_id":"4","last_reported":1768238150,"current_range_meters":4800,"station_id":"ce4bhch2rcd13ifvqeug","pricing_plan_id":"cebpf4jnsgd1na2vs0mg"},{"bike_id":"6e5c982e-c67a-4226-afb6-c45803df8e9d","system_id":"levelo_inurba_marseille","lat":43.27996,"lon":5.41654,"is_reserved":false,"is_disabled":false,"rental_uris":{"android":"levelo://app?vid=6e5c982e-c67a-4226-afb6-c45803df8e9d","ios":"levelo://app?vid=6e5c982e-c67a-4226-afb6-c45803df8e9d"},"vehicle_type_id":"4","last_reported":1768238150,"current_range_meters":4800,"station_id":"ce4bho12rcd13ifvqh1g","pricing_plan_id":"cebpf4jnsgd1na2vs0mg"},{"bike_id":"10a4859b-492e-4415-9063-1030a46ae63d","system_id":"levelo_inurba_marseille","lat":43.23786,"lon":5.36628,"is_reserved":false,"is_disabled":false,"rental_uris":{"android":"levelo://app?vid=10a4859b-492e-4415-9063-1030a46ae63d","ios":"levelo://app?vid=10a4859b-492e-4415-9063-1030a46ae63d"},"vehicle_type_id":"4","last_reported":1768238150,"current_range_meters":4800,"station_id":"st_d3nk18o9ro0c73en2l3g","pricing_plan_id":"cebpf4jnsgd1na2vs0mg"},{"bike_id":"7fe21793-db8c-4337-8752-6b7e026e2640","system_id":"levelo_inurba_marseille","lat":43.2551,"lon":5.37626,"is_reserved":false,"is_disabled":false,"rental_uris":{"android":"levelo://app?vid=7fe21793-db8c-4337-8752-6b7e026e2640","ios":"levelo://app?vid=7fe21793-db8c-4337-8752-6b7e026e2640"},"vehicle_type_id":"4","last_reported":1768238150,"current_range_meters":4800,"station_id":"ce4bhh12rcd13ifvqff0","pricing_plan_id":"cebpf4jnsgd1na2vs0mg"},{"bike_id":"717bc7ca-2bcc-4313-9b3d-3b96789b6e3e","system_id":"levelo_inurba_marseille","lat":43.31121,"lon":5.37771,"is_reserved":false,"is_disabled":false,"rental_uris":{"android":"levelo://app?vid=717bc7ca-2bcc-4313-9b3d-3b96789b6e3e","ios":"levelo://app?vid=717bc7ca-2bcc-4313-9b3d-3b96789b6e3e"},"vehicle_type_id":"4","last_reported":1768238150,"current_range_meters":4800,"station_id":"ce4bgt92rcd13ifvqcg0","pricing_plan_id":"cebpf4jnsgd1na2vs0mg"},{"bike_id":"d8554dab-c699-4c10-b045-54add82446e0","system_id":"levelo_inurba_marseille","lat":43.26561,"lon":5.38995,"is_reserved":false,"is_disabled":false,"rental_uris":{"android":"levelo://app?vid=d8554dab-c699-4c10-b045-54add82446e0","ios":"levelo://app?vid=d8554dab-c699-4c10-b045-54add82446e0"},"vehicle_type_id":"4","last_reported":1768238150,"current_range_meters":4800,"station_id":"ce4bhe12rcd13ifvqf30","pricing_plan_id":"cebpf4jnsgd1na2vs0mg"},{"bike_id":"6bb9c801-2c3c-43ba-a648-21d3ec25a1d6","system_id":"levelo_inurba_marseille","lat":43.31885,"lon":5.40736,"is_reserved":false,"is_disabled":false,"rental_uris":{"android":"levelo://app?vid=6bb9c801-2c3c-43ba-a648-21d3ec25a1d6","ios":"levelo://app?vid=6bb9c801-2c3c-43ba-a648-21d3ec25a1d6"},"vehicle_type_id":"4","last_reported":1768238150,"current_range_meters":4800,"station_id":"ce4bhq12rcd13ifvqhig","pricing_plan_id":"cebpf4jnsgd1na2vs0mg"},{"bike_id":"9015b465-0566-40d8-bf0f-aebf7ef2083a","system_id":"levelo_inurba_marseille","lat":43.24171,"lon":5.39725,"is_reserved":false,"is_disabled":false,"rental_uris":{"android":"levelo://app?vid=9015b465-0566-40d8-bf0f-aebf7ef2083a","ios":"levelo://app?vid=9015b465-0566-40d8-bf0f-aebf7ef2083a"},"vehicle_type_id":"4","last_reported":1768238150,"current_range_meters":4800,"station_id":"ce4bhn12rcd13ifvqgpg","pricing_plan_id":"cebpf4jnsgd1na2vs0mg"},{"bike_id":"886f6a48-d8c9-4f03-9c08-fa6700bc8f85","system_id":"levelo_inurba_marseille","lat":43.22935,"lon":5.35378,"is_reserved":false,"is_disabled":false,"rental_uris":{"android":"levelo://app?vid=886f6a48-d8c9-4f03-9c08-fa6700bc8f85","ios":"levelo://app?vid=886f6a48-d8c9-4f03-9c08-fa6700bc8f85"},"vehicle_type_id":"4","last_reported":1768238150,"current_range_meters":4800,"station_id":"cpo3532slgdg3j2ikp40","pricing_plan_id":"cebpf4jnsgd1na2vs0mg"},{"bike_id":"4755f4de-5e86-47b9-8160-12c356d26375","system_id":"levelo_inurba_marseille","lat":43.22562,"lon":5.41625,"is_reserved":false,"is_disabled":false,"rental_uris":{"android":"levelo://app?vid=4755f4de-5e86-47b9-8160-12c356d26375","ios":"levelo://app?vid=4755f4de-5e86-47b9-8160-12c356d26375"},"vehicle_type_id":"4","last_reported":1768238150,"current_range_meters":4800,"station_id":"st_d2o4gvlbi1j2169b742g","pricing_plan_id":"cebpf4jnsgd1na2vs0mg"},{"bike_id":"781880ef-4e37-4929-8f9a-614a42684c07","system_id":"levelo_inurba_marseille","lat":43.30145,"lon":5.37418,"is_reserved":false,"is_disabled":false,"rental_uris":{"android":"levelo://app?vid=781880ef-4e37-4929-8f9a-614a42684c07","ios":"levelo://app?vid=781880ef-4e37-4929-8f9a-614a42684c07"},"vehicle_type_id":"4","last_reported":1768238150,"current_range_meters":4800,"station_id":"ce4bgs92rcd13ifvqcc0","pricing_plan_id":"cebpf4jnsgd1na2vs0mg"},{"bike_id":"ecda5ff5-3a90-4248-ae10-27665eb43b77","system_id":"levelo_inurba_marseille","lat":43.302368,"lon":5.400522,"is_reserved":false,"is_disabled":false,"rental_uris":{"android":"levelo://app?vid=ecda5ff5-3a90-4248-ae10-27665eb43b77","ios":"levelo://app?vid=ecda5ff5-3a90-4248-ae10-27665eb43b77"},"vehicle_type_id":"4","last_reported":1768238150,"current_range_meters":4800,"station_id":"ce4bgvh2rcd13ifvqcs0","pricing_plan_id":"cebpf4jnsgd1na2vs0mg"},{"bike_id":"6cfafae2-24e3-4bb5-9336-a15339de06af","system_id":"levelo_inurba_marseille","lat":43.2378,"lon":5.36634,"is_reserved":false,"is_disabled":false,"rental_uris":{"android":"levelo://app?vid=6cfafae2-24e3-4bb5-9336-a15339de06af","ios":"levelo://app?vid=6cfafae2-24e3-4bb5-9336-a15339de06af"},"vehicle_type_id":"4","last_reported":1768238150,"current_range_meters":5600,"station_id":"st_d3nk18o9ro0c73en2l3g","pricing_plan_id":"cebpf4jnsgd1na2vs0mg"},{"bike_id":"2c79ba8b-e186-4531-bb05-ea95004575af","system_id":"levelo_inurba_marseille","lat":43.30182,"lon":5.38079,"is_reserved":false,"is_disabled":false,"rental_uris":{"android":"levelo://app?vid=2c79ba8b-e186-4531-bb05-ea95004575af","ios":"levelo://app?vid=2c79ba8b-e186-4531-bb05-ea95004575af"},"vehicle_type_id":"4","last_reported":1768238150,"current_range_meters":5600,"station_id":"ce4bgjp2rcd13ifvqbh0","pricing_plan_id":"cebpf4jnsgd1na2vs0mg"},{"bike_id":"e21f83f2-ad42-4aed-9759-576415e0cd84","system_id":"levelo_inurba_marseille","lat":43.28528,"lon":5.43079,"is_reserved":false,"is_disabled":false,"rental_uris":{"android":"levelo://app?vid=e21f83f2-ad42-4aed-9759-576415e0cd84","ios":"levelo://app?vid=e21f83f2-ad42-4aed-9759-576415e0cd84"},"vehicle_type_id":"4","last_reported":1768238150,"current_range_meters":5600,"station_id":"","pricing_plan_id":"cebpf4jnsgd1na2vs0mg"},{"bike_id":"795d793e-88df-4ac1-a147-0968b8571e02","system_id":"levelo_inurba_marseille","lat":43.23185,"lon":5.39983,"is_reserved":false,"is_disabled":false,"rental_uris":{"android":"levelo://app?vid=795d793e-88df-4ac1-a147-0968b8571e02","ios":"levelo://app?vid=795d793e-88df-4ac1-a147-0968b8571e02"},"vehicle_type_id":"4","last_reported":1768238150,"current_range_meters":5600,"station_id":"ce4bhn12rcd13ifvqgqg","pricing_plan_id":"cebpf4jnsgd1na2vs0mg"},{"bike_id":"c8ff5af5-da3b-4b10-9507-25dbe88a654d","system_id":"levelo_inurba_marseille","lat":43.28004,"lon":5.40907,"is_reserved":false,"is_disabled":false,"rental_uris":{"android":"levelo://app?vid=c8ff5af5-da3b-4b10-9507-25dbe88a654d","ios":"levelo://app?vid=c8ff5af5-da3b-4b10-9507-25dbe88a654d"},"vehicle_type_id":"4","last_reported":1768238150,"current_range_meters":5600,"station_id":"","pricing_plan_id":"cebpf4jnsgd1na2vs0mg"},{"bike_id":"dd67a0b3-d5e0-4276-b1a4-1926be74a790","system_id":"levelo_inurba_marseille","lat":43.30014,"lon":5.37637,"is_reserved":false,"is_disabled":false,"rental_uris":{"android":"levelo://app?vid=dd67a0b3-d5e0-4276-b1a4-1926be74a790","ios":"levelo://app?vid=dd67a0b3-d5e0-4276-b1a4-1926be74a790"},"vehicle_type_id":"4","last_reported":1768238150,"current_range_meters":5600,"station_id":"","pricing_plan_id":"cebpf4jnsgd1na2vs0mg"},{"bike_id":"c211c6f8-49bd-4417-9066-24ae90884977","system_id":"levelo_inurba_marseille","lat":43.29857,"lon":5.3629,"is_reserved":false,"is_disabled":false,"rental_uris":{"android":"levelo://app?vid=c211c6f8-49bd-4417-9066-24ae90884977","ios":"levelo://app?vid=c211c6f8-49bd-4417-9066-24ae90884977"},"vehicle_type_id":"4","last_reported":1768238150,"current_range_meters":5600,"station_id":"ce4bgpp2rcd13ifvqc3g","pricing_plan_id":"cebpf4jnsgd1na2vs0mg"},{"bike_id":"635a1de5-8a8b-49a7-a7fc-67da1d77364c","system_id":"levelo_inurba_marseille","lat":43.30133,"lon":5.39879,"is_reserved":false,"is_disabled":false,"rental_uris":{"android":"levelo://app?vid=635a1de5-8a8b-49a7-a7fc-67da1d77364c","ios":"levelo://app?vid=635a1de5-8a8b-49a7-a7fc-67da1d77364c"},"vehicle_type_id":"4","last_reported":1768238150,"current_range_meters":5600,"station_id":"ce4bh0h2rcd13ifvqd40","pricing_plan_id":"cebpf4jnsgd1na2vs0mg"},{"bike_id":"62c9d31d-af79-4eba-aab7-a3f56067f357","system_id":"levelo_inurba_marseille","lat":43.3089,"lon":5.39664,"is_reserved":false,"is_disabled":false,"rental_uris":{"android":"levelo://app?vid=62c9d31d-af79-4eba-aab7-a3f56067f357","ios":"levelo://app?vid=62c9d31d-af79-4eba-aab7-a3f56067f357"},"vehicle_type_id":"4","last_reported":1768238150,"current_range_meters":5600,"station_id":"ce4bh012rcd13ifvqcv0","pricing_plan_id":"cebpf4jnsgd1na2vs0mg"},{"bike_id":"8c09d4e7-b9d7-45f4-b78d-ab559cd06ada","system_id":"levelo_inurba_marseille","lat":43.29028,"lon":5.37565,"is_reserved":false,"is_disabled":false,"rental_uris":{"android":"levelo://app?vid=8c09d4e7-b9d7-45f4-b78d-ab559cd06ada","ios":"levelo://app?vid=8c09d4e7-b9d7-45f4-b78d-ab559cd06ada"},"vehicle_type_id":"4","last_reported":1768238150,"current_range_meters":5600,"station_id":"ce4bh692rcd13ifvqe90","pricing_plan_id":"cebpf4jnsgd1na2vs0mg"},{"bike_id":"a984950f-4c04-484d-b682-59c68720332e","system_id":"levelo_inurba_marseille","lat":43.28614,"lon":5.39876,"is_reserved":false,"is_disabled":false,"rental_uris":{"android":"levelo://app?vid=a984950f-4c04-484d-b682-59c68720332e","ios":"levelo://app?vid=a984950f-4c04-484d-b682-59c68720332e"},"vehicle_type_id":"4","last_reported":1768238150,"current_range_meters":5600,"station_id":"st_d4a7ka997mjs738ck50g","pricing_plan_id":"cebpf4jnsgd1na2vs0mg"},{"bike_id":"5a93c31a-82d4-4450-bb2d-5c0f5869f750","system_id":"levelo_inurba_marseille","lat":43.313824,"lon":5.368947,"is_reserved":false,"is_disabled":false,"rental_uris":{"android":"levelo://app?vid=5a93c31a-82d4-4450-bb2d-5c0f5869f750","ios":"levelo://app?vid=5a93c31a-82d4-4450-bb2d-5c0f5869f750"},"vehicle_type_id":"4","last_reported":1768238150,"current_range_meters":5600,"station_id":"","pricing_plan_id":"cebpf4jnsgd1na2vs0mg"},{"bike_id":"31112e0a-315c-4639-8339-bc4861e22d25","system_id":"levelo_inurba_marseille","lat":43.31695,"lon":5.37687,"is_reserved":false,"is_disabled":false,"rental_uris":{"android":"levelo://app?vid=31112e0a-315c-4639-8339-bc4861e22d25","ios":"levelo://app?vid=31112e0a-315c-4639-8339-bc4861e22d25"},"vehicle_type_id":"4","last_reported":1768238150,"current_range_meters":5600,"station_id":"ce4bgth2rcd13ifvqch0","pricing_plan_id":"cebpf4jnsgd1na2vs0mg"},{"bike_id":"301c787a-5305-45f5-86ff-c559fa230a50","system_id":"levelo_inurba_marseille","lat":43.29878,"lon":5.37682,"is_reserved":false,"is_disabled":false,"rental_uris":{"android":"levelo://app?vid=301c787a-5305-45f5-86ff-c559fa230a50","ios":"levelo://app?vid=301c787a-5305-45f5-86ff-c559fa230a50"},"vehicle_type_id":"4","last_reported":1768238150,"current_range_meters":5600,"station_id":"","pricing_plan_id":"cebpf4jnsgd1na2vs0mg"},{"bike_id":"e01a94d5-1eb1-401f-b490-0bab5d75e2fe","system_id":"levelo_inurba_marseille","lat":43.30308,"lon":5.36899,"is_reserved":false,"is_disabled":false,"rental_uris":{"android":"levelo://app?vid=e01a94d5-1eb1-401f-b490-0bab5d75e2fe","ios":"levelo://app?vid=e01a94d5-1eb1-401f-b490-0bab5d75e2fe"},"vehicle_type_id":"4","last_reported":1768238150,"current_range_meters":5600,"station_id":"ce4bgqh2rcd13ifvqc5g","pricing_plan_id":"cebpf4jnsgd1na2vs0mg"},{"bike_id":"53d22cba-91d1-42b1-b294-699211397009","system_id":"levelo_inurba_marseille","lat":43.25341,"lon":5.42175,"is_reserved":false,"is_disabled":false,"rental_uris":{"android":"levelo://app?vid=53d22cba-91d1-42b1-b294-699211397009","ios":"levelo://app?vid=53d22cba-91d1-42b1-b294-699211397009"},"vehicle_type_id":"4","last_reported":1768238150,"current_range_meters":5600,"station_id":"st_d2m65c5bi1j21697t3ng","pricing_plan_id":"cebpf4jnsgd1na2vs0mg"},{"bike_id":"8f7d4958-8799-4979-b908-245a42bc8529","system_id":"levelo_inurba_marseille","lat":43.30432,"lon":5.38895,"is_reserved":false,"is_disabled":false,"rental_uris":{"android":"levelo://app?vid=8f7d4958-8799-4979-b908-245a42bc8529","ios":"levelo://app?vid=8f7d4958-8799-4979-b908-245a42bc8529"},"vehicle_type_id":"4","last_reported":1768238150,"current_range_meters":5600,"station_id":"ce4bgk12rcd13ifvqbi0","pricing_plan_id":"cebpf4jnsgd1na2vs0mg"},{"bike_id":"fa41facd-1726-4f2f-947e-865f658f52f6","system_id":"levelo_inurba_marseille","lat":43.262074,"lon":5.37927,"is_reserved":false,"is_disabled":true,"rental_uris":{"android":"levelo://app?vid=fa41facd-1726-4f2f-947e-865f658f52f6","ios":"levelo://app?vid=fa41facd-1726-4f2f-947e-865f658f52f6"},"vehicle_type_id":"4","last_reported":1768238150,"current_range_meters":6000,"station_id":"","pricing_plan_id":"cebpf4jnsgd1na2vs0mg"},{"bike_id":"f043a1a1-4a69-4186-9666-3af6d6cee7e1","system_id":"levelo_inurba_marseille","lat":43.26197,"lon":5.37465,"is_reserved":false,"is_disabled":true,"rental_uris":{"android":"levelo://app?vid=f043a1a1-4a69-4186-9666-3af6d6cee7e1","ios":"levelo://app?vid=f043a1a1-4a69-4186-9666-3af6d6cee7e1"},"vehicle_type_id":"4","last_reported":1768238150,"current_range_meters":6000,"station_id":"ce4bhgp2rcd13ifvqfc0","pricing_plan_id":"cebpf4jnsgd1na2vs0mg"},{"bike_id":"0b89e391-f907-49b3-821c-11a35132660a","system_id":"levelo_inurba_marseille","lat":43.25338,"lon":5.4217,"is_reserved":false,"is_disabled":false,"rental_uris":{"android":"levelo://app?vid=0b89e391-f907-49b3-821c-11a35132660a","ios":"levelo://app?vid=0b89e391-f907-49b3-821c-11a35132660a"},"vehicle_type_id":"4","last_reported":1768238150,"current_range_meters":6000,"station_id":"st_d2m65c5bi1j21697t3ng","pricing_plan_id":"cebpf4jnsgd1na2vs0mg"},{"bike_id":"5de157c2-16f6-4b03-910c-5a1a0f77b0ec","system_id":"levelo_inurba_marseille","lat":43.279062,"lon":5.380274,"is_reserved":false,"is_disabled":false,"rental_uris":{"android":"levelo://app?vid=5de157c2-16f6-4b03-910c-5a1a0f77b0ec","ios":"levelo://app?vid=5de157c2-16f6-4b03-910c-5a1a0f77b0ec"},"vehicle_type_id":"4","last_reported":1768238150,"current_range_meters":6000,"station_id":"ce4bhf92rcd13ifvqf50","pricing_plan_id":"cebpf4jnsgd1na2vs0mg"},{"bike_id":"b0d8414b-9ec4-4d2d-ada4-4b5a508ba76c","system_id":"levelo_inurba_marseille","lat":43.25917,"lon":5.40906,"is_reserved":false,"is_disabled":false,"rental_uris":{"android":"levelo://app?vid=b0d8414b-9ec4-4d2d-ada4-4b5a508ba76c","ios":"levelo://app?vid=b0d8414b-9ec4-4d2d-ada4-4b5a508ba76c"},"vehicle_type_id":"4","last_reported":1768238150,"current_range_meters":6000,"station_id":"ce4bhm92rcd13ifvqglg","pricing_plan_id":"cebpf4jnsgd1na2vs0mg"},{"bike_id":"c46c587a-efae-4299-bf70-db87099941c4","system_id":"levelo_inurba_marseille","lat":43.27929,"lon":5.38719,"is_reserved":false,"is_disabled":false,"rental_uris":{"android":"levelo://app?vid=c46c587a-efae-4299-bf70-db87099941c4","ios":"levelo://app?vid=c46c587a-efae-4299-bf70-db87099941c4"},"vehicle_type_id":"4","last_reported":1768238150,"current_range_meters":6000,"station_id":"ce4bhg12rcd13ifvqf80","pricing_plan_id":"cebpf4jnsgd1na2vs0mg"},{"bike_id":"fae57e34-d123-4b5d-b549-b5483c41b8c0","system_id":"levelo_inurba_marseille","lat":43.291422,"lon":5.376645,"is_reserved":false,"is_disabled":false,"rental_uris":{"android":"levelo://app?vid=fae57e34-d123-4b5d-b549-b5483c41b8c0","ios":"levelo://app?vid=fae57e34-d123-4b5d-b549-b5483c41b8c0"},"vehicle_type_id":"4","last_reported":1768238150,"current_range_meters":6000,"station_id":"","pricing_plan_id":"cebpf4jnsgd1na2vs0mg"},{"bike_id":"6b4cd2dc-25ea-4079-b9fe-5462d5e3a9f0","system_id":"levelo_inurba_marseille","lat":43.271278,"lon":5.404223,"is_reserved":false,"is_disabled":false,"rental_uris":{"android":"levelo://app?vid=6b4cd2dc-25ea-4079-b9fe-5462d5e3a9f0","ios":"levelo://app?vid=6b4cd2dc-25ea-4079-b9fe-5462d5e3a9f0"},"vehicle_type_id":"4","last_reported":1768238150,"current_range_meters":6000,"station_id":"","pricing_plan_id":"cebpf4jnsgd1na2vs0mg"},{"bike_id":"73458e0d-84b9-4043-9286-37e9026bc27e","system_id":"levelo_inurba_marseille","lat":43.22567,"lon":5.41636,"is_reserved":false,"is_disabled":false,"rental_uris":{"android":"levelo://app?vid=73458e0d-84b9-4043-9286-37e9026bc27e","ios":"levelo://app?vid=73458e0d-84b9-4043-9286-37e9026bc27e"},"vehicle_type_id":"4","last_reported":1768238150,"current_range_meters":6000,"station_id":"st_d2o4gvlbi1j2169b742g","pricing_plan_id":"cebpf4jnsgd1na2vs0mg"},{"bike_id":"b088ad58-7f41-4ab8-80da-21ba2cb9e467","system_id":"levelo_inurba_marseille","lat":43.22558,"lon":5.41636,"is_reserved":false,"is_disabled":false,"rental_uris":{"android":"levelo://app?vid=b088ad58-7f41-4ab8-80da-21ba2cb9e467","ios":"levelo://app?vid=b088ad58-7f41-4ab8-80da-21ba2cb9e467"},"vehicle_type_id":"4","last_reported":1768238150,"current_range_meters":6000,"station_id":"st_d2o4gvlbi1j2169b742g","pricing_plan_id":"cebpf4jnsgd1na2vs0mg"},{"bike_id":"6139c10e-9938-4122-bd56-3985da1045c8","system_id":"levelo_inurba_marseille","lat":43.24466,"lon":5.42539,"is_reserved":false,"is_disabled":false,"rental_uris":{"android":"levelo://app?vid=6139c10e-9938-4122-bd56-3985da1045c8","ios":"levelo://app?vid=6139c10e-9938-4122-bd56-3985da1045c8"},"vehicle_type_id":"4","last_reported":1768238150,"current_range_meters":6000,"station_id":"st_d4a3vfp97mjs738cd8kg","pricing_plan_id":"cebpf4jnsgd1na2vs0mg"},{"bike_id":"58c8e388-9a53-4c33-b5a5-6b11cfa97446","system_id":"levelo_inurba_marseille","lat":43.27917,"lon":5.38727,"is_reserved":false,"is_disabled":false,"rental_uris":{"android":"levelo://app?vid=58c8e388-9a53-4c33-b5a5-6b11cfa97446","ios":"levelo://app?vid=58c8e388-9a53-4c33-b5a5-6b11cfa97446"},"vehicle_type_id":"4","last_reported":1768238150,"current_range_meters":6000,"station_id":"","pricing_plan_id":"cebpf4jnsgd1na2vs0mg"},{"bike_id":"a5e4775c-fe09-4d93-916a-5022170bcc25","system_id":"levelo_inurba_marseille","lat":43.24168,"lon":5.36398,"is_reserved":false,"is_disabled":false,"rental_uris":{"android":"levelo://app?vid=a5e4775c-fe09-4d93-916a-5022170bcc25","ios":"levelo://app?vid=a5e4775c-fe09-4d93-916a-5022170bcc25"},"vehicle_type_id":"4","last_reported":1768238150,"current_range_meters":6000,"station_id":"cpo36qri1sfpv3e86is0","pricing_plan_id":"cebpf4jnsgd1na2vs0mg"},{"bike_id":"9f2a1fd3-ffc5-4586-95af-377ff8c15230","system_id":"levelo_inurba_marseille","lat":43.24947,"lon":5.40493,"is_reserved":false,"is_disabled":false,"rental_uris":{"android":"levelo://app?vid=9f2a1fd3-ffc5-4586-95af-377ff8c15230","ios":"levelo://app?vid=9f2a1fd3-ffc5-4586-95af-377ff8c15230"},"vehicle_type_id":"4","last_reported":1768238150,"current_range_meters":6000,"station_id":"st_d2ngiaodas8pm72gd1h0","pricing_plan_id":"cebpf4jnsgd1na2vs0mg"},{"bike_id":"8685ba34-cb7d-4eb4-a401-a6d947bbdb57","system_id":"levelo_inurba_marseille","lat":43.24467,"lon":5.42533,"is_reserved":false,"is_disabled":false,"rental_uris":{"android":"levelo://app?vid=8685ba34-cb7d-4eb4-a401-a6d947bbdb57","ios":"levelo://app?vid=8685ba34-cb7d-4eb4-a401-a6d947bbdb57"},"vehicle_type_id":"4","last_reported":1768238150,"current_range_meters":6000,"station_id":"st_d4a3vfp97mjs738cd8kg","pricing_plan_id":"cebpf4jnsgd1na2vs0mg"},{"bike_id":"f7164753-58bf-40db-bcbc-0c1ef6ef2c45","system_id":"levelo_inurba_marseille","lat":43.27376,"lon":5.36252,"is_reserved":false,"is_disabled":false,"rental_uris":{"android":"levelo://app?vid=f7164753-58bf-40db-bcbc-0c1ef6ef2c45","ios":"levelo://app?vid=f7164753-58bf-40db-bcbc-0c1ef6ef2c45"},"vehicle_type_id":"4","last_reported":1768238150,"current_range_meters":6000,"station_id":"ce4bhbh2rcd13ifvqeo0","pricing_plan_id":"cebpf4jnsgd1na2vs0mg"},{"bike_id":"35254f06-efb2-4d00-b949-89c11838f9ec","system_id":"levelo_inurba_marseille","lat":43.231976,"lon":5.355665,"is_reserved":false,"is_disabled":false,"rental_uris":{"android":"levelo://app?vid=35254f06-efb2-4d00-b949-89c11838f9ec","ios":"levelo://app?vid=35254f06-efb2-4d00-b949-89c11838f9ec"},"vehicle_type_id":"4","last_reported":1768238150,"current_range_meters":6400,"station_id":"ce4bhu92rcd13ifvqi70","pricing_plan_id":"cebpf4jnsgd1na2vs0mg"},{"bike_id":"857213d5-7353-4d98-a3cc-a303673faf43","system_id":"levelo_inurba_marseille","lat":43.255737,"lon":5.382365,"is_reserved":false,"is_disabled":true,"rental_uris":{"android":"levelo://app?vid=857213d5-7353-4d98-a3cc-a303673faf43","ios":"levelo://app?vid=857213d5-7353-4d98-a3cc-a303673faf43"},"vehicle_type_id":"4","last_reported":1768238150,"current_range_meters":6400,"station_id":"ce4bhih2rcd13ifvqfs0","pricing_plan_id":"cebpf4jnsgd1na2vs0mg"},{"bike_id":"8b18b2ad-71f4-41df-9c02-39787539813e","system_id":"levelo_inurba_marseille","lat":43.27834,"lon":5.39198,"is_reserved":false,"is_disabled":false,"rental_uris":{"android":"levelo://app?vid=8b18b2ad-71f4-41df-9c02-39787539813e","ios":"levelo://app?vid=8b18b2ad-71f4-41df-9c02-39787539813e"},"vehicle_type_id":"4","last_reported":1768238150,"current_range_meters":6400,"station_id":"ce4bhjp2rcd13ifvqga0","pricing_plan_id":"cebpf4jnsgd1na2vs0mg"},{"bike_id":"5b74f76c-7655-4a1b-bf0f-ee1d1ac9b692","system_id":"levelo_inurba_marseille","lat":43.3138,"lon":5.36807,"is_reserved":false,"is_disabled":false,"rental_uris":{"android":"levelo://app?vid=5b74f76c-7655-4a1b-bf0f-ee1d1ac9b692","ios":"levelo://app?vid=5b74f76c-7655-4a1b-bf0f-ee1d1ac9b692"},"vehicle_type_id":"4","last_reported":1768238150,"current_range_meters":6400,"station_id":"","pricing_plan_id":"cebpf4jnsgd1na2vs0mg"},{"bike_id":"b75b9b40-daab-41be-984c-4907ce0bd6e7","system_id":"levelo_inurba_marseille","lat":43.284184,"lon":5.349883,"is_reserved":false,"is_disabled":false,"rental_uris":{"android":"levelo://app?vid=b75b9b40-daab-41be-984c-4907ce0bd6e7","ios":"levelo://app?vid=b75b9b40-daab-41be-984c-4907ce0bd6e7"},"vehicle_type_id":"4","last_reported":1768238150,"current_range_meters":6400,"station_id":"ce4bhbh2rcd13ifvqepg","pricing_plan_id":"cebpf4jnsgd1na2vs0mg"},{"bike_id":"cf7ff780-5cc1-488c-bf59-2cc02d1f230b","system_id":"levelo_inurba_marseille","lat":43.2379,"lon":5.366168,"is_reserved":false,"is_disabled":false,"rental_uris":{"android":"levelo://app?vid=cf7ff780-5cc1-488c-bf59-2cc02d1f230b","ios":"levelo://app?vid=cf7ff780-5cc1-488c-bf59-2cc02d1f230b"},"vehicle_type_id":"4","last_reported":1768238150,"current_range_meters":6400,"station_id":"st_d3nk18o9ro0c73en2l3g","pricing_plan_id":"cebpf4jnsgd1na2vs0mg"},{"bike_id":"aaa7746b-4bb3-4745-9a78-16c7e3f0ea13","system_id":"levelo_inurba_marseille","lat":43.24068,"lon":5.37762,"is_reserved":false,"is_disabled":false,"rental_uris":{"android":"levelo://app?vid=aaa7746b-4bb3-4745-9a78-16c7e3f0ea13","ios":"levelo://app?vid=aaa7746b-4bb3-4745-9a78-16c7e3f0ea13"},"vehicle_type_id":"4","last_reported":1768238150,"current_range_meters":6400,"station_id":"ce4bhnp2rcd13ifvqgvg","pricing_plan_id":"cebpf4jnsgd1na2vs0mg"},{"bike_id":"5a7dd1fb-12da-4ffe-a80c-3d765edaa1e0","system_id":"levelo_inurba_marseille","lat":43.22555,"lon":5.41626,"is_reserved":false,"is_disabled":false,"rental_uris":{"android":"levelo://app?vid=5a7dd1fb-12da-4ffe-a80c-3d765edaa1e0","ios":"levelo://app?vid=5a7dd1fb-12da-4ffe-a80c-3d765edaa1e0"},"vehicle_type_id":"4","last_reported":1768238150,"current_range_meters":6400,"station_id":"st_d2o4gvlbi1j2169b742g","pricing_plan_id":"cebpf4jnsgd1na2vs0mg"},{"bike_id":"393b587f-178f-480f-be5e-5655b53dd6e5","system_id":"levelo_inurba_marseille","lat":43.289744,"lon":5.378291,"is_reserved":false,"is_disabled":false,"rental_uris":{"android":"levelo://app?vid=393b587f-178f-480f-be5e-5655b53dd6e5","ios":"levelo://app?vid=393b587f-178f-480f-be5e-5655b53dd6e5"},"vehicle_type_id":"4","last_reported":1768238150,"current_range_meters":6400,"station_id":"ce4bh9p2rcd13ifvqed0","pricing_plan_id":"cebpf4jnsgd1na2vs0mg"},{"bike_id":"31b02cd8-90be-4607-9612-ef41245111ac","system_id":"levelo_inurba_marseille","lat":43.28949,"lon":5.36408,"is_reserved":false,"is_disabled":true,"rental_uris":{"android":"levelo://app?vid=31b02cd8-90be-4607-9612-ef41245111ac","ios":"levelo://app?vid=31b02cd8-90be-4607-9612-ef41245111ac"},"vehicle_type_id":"4","last_reported":1768238150,"current_range_meters":6400,"station_id":"ce4bhc92rcd13ifvqetg","pricing_plan_id":"cebpf4jnsgd1na2vs0mg"},{"bike_id":"56f33d1a-63a6-44cd-9b0f-4476e7b7806c","system_id":"levelo_inurba_marseille","lat":43.24079,"lon":5.37761,"is_reserved":false,"is_disabled":false,"rental_uris":{"android":"levelo://app?vid=56f33d1a-63a6-44cd-9b0f-4476e7b7806c","ios":"levelo://app?vid=56f33d1a-63a6-44cd-9b0f-4476e7b7806c"},"vehicle_type_id":"4","last_reported":1768238150,"current_range_meters":6400,"station_id":"ce4bhnp2rcd13ifvqgvg","pricing_plan_id":"cebpf4jnsgd1na2vs0mg"},{"bike_id":"482817d6-1c7c-49cd-bf1a-a824b589e285","system_id":"levelo_inurba_marseille","lat":43.27849,"lon":5.3921,"is_reserved":false,"is_disabled":false,"rental_uris":{"android":"levelo://app?vid=482817d6-1c7c-49cd-bf1a-a824b589e285","ios":"levelo://app?vid=482817d6-1c7c-49cd-bf1a-a824b589e285"},"vehicle_type_id":"4","last_reported":1768238150,"current_range_meters":6400,"station_id":"ce4bhjp2rcd13ifvqga0","pricing_plan_id":"cebpf4jnsgd1na2vs0mg"},{"bike_id":"ac50cf03-9768-42b1-bcb2-4d54c6c61c6a","system_id":"levelo_inurba_marseille","lat":43.29845,"lon":5.36269,"is_reserved":false,"is_disabled":false,"rental_uris":{"android":"levelo://app?vid=ac50cf03-9768-42b1-bcb2-4d54c6c61c6a","ios":"levelo://app?vid=ac50cf03-9768-42b1-bcb2-4d54c6c61c6a"},"vehicle_type_id":"4","last_reported":1768238150,"current_range_meters":6400,"station_id":"ce4bgpp2rcd13ifvqc3g","pricing_plan_id":"cebpf4jnsgd1na2vs0mg"},{"bike_id":"5c7c7d9e-b199-43a9-9039-49ab92e678a2","system_id":"levelo_inurba_marseille","lat":43.27769,"lon":5.39941,"is_reserved":false,"is_disabled":false,"rental_uris":{"android":"levelo://app?vid=5c7c7d9e-b199-43a9-9039-49ab92e678a2","ios":"levelo://app?vid=5c7c7d9e-b199-43a9-9039-49ab92e678a2"},"vehicle_type_id":"4","last_reported":1768238150,"current_range_meters":6400,"station_id":"","pricing_plan_id":"cebpf4jnsgd1na2vs0mg"},{"bike_id":"dbad2cff-9661-422b-a29b-69069add4417","system_id":"levelo_inurba_marseille","lat":43.22921,"lon":5.35376,"is_reserved":false,"is_disabled":false,"rental_uris":{"android":"levelo://app?vid=dbad2cff-9661-422b-a29b-69069add4417","ios":"levelo://app?vid=dbad2cff-9661-422b-a29b-69069add4417"},"vehicle_type_id":"4","last_reported":1768238150,"current_range_meters":6400,"station_id":"cpo3532slgdg3j2ikp40","pricing_plan_id":"cebpf4jnsgd1na2vs0mg"},{"bike_id":"697994ed-c258-471a-a5e6-a50f88084b59","system_id":"levelo_inurba_marseille","lat":43.25003,"lon":5.38939,"is_reserved":false,"is_disabled":false,"rental_uris":{"android":"levelo://app?vid=697994ed-c258-471a-a5e6-a50f88084b59","ios":"levelo://app?vid=697994ed-c258-471a-a5e6-a50f88084b59"},"vehicle_type_id":"4","last_reported":1768238150,"current_range_meters":6400,"station_id":"ce4bhgp2rcd13ifvqfd0","pricing_plan_id":"cebpf4jnsgd1na2vs0mg"},{"bike_id":"5830147f-0320-4e17-860a-fb5c0dc4afce","system_id":"levelo_inurba_marseille","lat":43.28458,"lon":5.35882,"is_reserved":false,"is_disabled":false,"rental_uris":{"android":"levelo://app?vid=5830147f-0320-4e17-860a-fb5c0dc4afce","ios":"levelo://app?vid=5830147f-0320-4e17-860a-fb5c0dc4afce"},"vehicle_type_id":"4","last_reported":1768238150,"current_range_meters":6400,"station_id":"ce4bhah2rcd13ifvqei0","pricing_plan_id":"cebpf4jnsgd1na2vs0mg"},{"bike_id":"24f0a2da-aa1b-495a-8bd2-5db4872b3634","system_id":"levelo_inurba_marseille","lat":43.225613,"lon":5.416254,"is_reserved":false,"is_disabled":false,"rental_uris":{"android":"levelo://app?vid=24f0a2da-aa1b-495a-8bd2-5db4872b3634","ios":"levelo://app?vid=24f0a2da-aa1b-495a-8bd2-5db4872b3634"},"vehicle_type_id":"4","last_reported":1768238150,"current_range_meters":6400,"station_id":"st_d2o4gvlbi1j2169b742g","pricing_plan_id":"cebpf4jnsgd1na2vs0mg"},{"bike_id":"1da82394-edf2-4a0c-a62d-43072755bbb4","system_id":"levelo_inurba_marseille","lat":43.24657,"lon":5.38159,"is_reserved":false,"is_disabled":false,"rental_uris":{"android":"levelo://app?vid=1da82394-edf2-4a0c-a62d-43072755bbb4","ios":"levelo://app?vid=1da82394-edf2-4a0c-a62d-43072755bbb4"},"vehicle_type_id":"4","last_reported":1768238150,"current_range_meters":6400,"station_id":"ce4bhih2rcd13ifvqfr0","pricing_plan_id":"cebpf4jnsgd1na2vs0mg"},{"bike_id":"2e02cc71-3e50-4a35-806f-7e9a5398a999","system_id":"levelo_inurba_marseille","lat":43.29227,"lon":5.36078,"is_reserved":false,"is_disabled":true,"rental_uris":{"android":"levelo://app?vid=2e02cc71-3e50-4a35-806f-7e9a5398a999","ios":"levelo://app?vid=2e02cc71-3e50-4a35-806f-7e9a5398a999"},"vehicle_type_id":"4","last_reported":1768238150,"current_range_meters":6800,"station_id":"ce4bhbh2rcd13ifvqeqg","pricing_plan_id":"cebpf4jnsgd1na2vs0mg"},{"bike_id":"d6fc741c-6097-4ce8-aeee-b2422caf87bb","system_id":"levelo_inurba_marseille","lat":43.30153,"lon":5.37431,"is_reserved":false,"is_disabled":false,"rental_uris":{"android":"levelo://app?vid=d6fc741c-6097-4ce8-aeee-b2422caf87bb","ios":"levelo://app?vid=d6fc741c-6097-4ce8-aeee-b2422caf87bb"},"vehicle_type_id":"4","last_reported":1768238150,"current_range_meters":6800,"station_id":"ce4bgs92rcd13ifvqcc0","pricing_plan_id":"cebpf4jnsgd1na2vs0mg"},{"bike_id":"48e0d58e-bd7e-4b90-92d4-898fdf7abd39","system_id":"levelo_inurba_marseille","lat":43.30865,"lon":5.40605,"is_reserved":false,"is_disabled":false,"rental_uris":{"android":"levelo://app?vid=48e0d58e-bd7e-4b90-92d4-898fdf7abd39","ios":"levelo://app?vid=48e0d58e-bd7e-4b90-92d4-898fdf7abd39"},"vehicle_type_id":"4","last_reported":1768238150,"current_range_meters":6800,"station_id":"","pricing_plan_id":"cebpf4jnsgd1na2vs0mg"},{"bike_id":"7c2a7247-1757-4f73-86d7-4e2145cd68ac","system_id":"levelo_inurba_marseille","lat":43.29067,"lon":5.37204,"is_reserved":false,"is_disabled":false,"rental_uris":{"android":"levelo://app?vid=7c2a7247-1757-4f73-86d7-4e2145cd68ac","ios":"levelo://app?vid=7c2a7247-1757-4f73-86d7-4e2145cd68ac"},"vehicle_type_id":"4","last_reported":1768238150,"current_range_meters":6800,"station_id":"ce4bh5p2rcd13ifvqe4g","pricing_plan_id":"cebpf4jnsgd1na2vs0mg"},{"bike_id":"c5cacf13-0b9c-41b5-94a2-55e05bf702f3","system_id":"levelo_inurba_marseille","lat":43.29725,"lon":5.37875,"is_reserved":false,"is_disabled":false,"rental_uris":{"android":"levelo://app?vid=c5cacf13-0b9c-41b5-94a2-55e05bf702f3","ios":"levelo://app?vid=c5cacf13-0b9c-41b5-94a2-55e05bf702f3"},"vehicle_type_id":"4","last_reported":1768238150,"current_range_meters":6800,"station_id":"","pricing_plan_id":"cebpf4jnsgd1na2vs0mg"},{"bike_id":"2587eba2-f80d-4b3a-88e3-bb85d27a199d","system_id":"levelo_inurba_marseille","lat":43.22544,"lon":5.41671,"is_reserved":false,"is_disabled":false,"rental_uris":{"android":"levelo://app?vid=2587eba2-f80d-4b3a-88e3-bb85d27a199d","ios":"levelo://app?vid=2587eba2-f80d-4b3a-88e3-bb85d27a199d"},"vehicle_type_id":"4","last_reported":1768238150,"current_range_meters":6800,"station_id":"st_d2o4gvlbi1j2169b742g","pricing_plan_id":"cebpf4jnsgd1na2vs0mg"},{"bike_id":"13d2cc34-6c58-4420-b4f5-cfabc63d7229","system_id":"levelo_inurba_marseille","lat":43.33158,"lon":5.37692,"is_reserved":false,"is_disabled":false,"rental_uris":{"android":"levelo://app?vid=13d2cc34-6c58-4420-b4f5-cfabc63d7229","ios":"levelo://app?vid=13d2cc34-6c58-4420-b4f5-cfabc63d7229"},"vehicle_type_id":"4","last_reported":1768238150,"current_range_meters":6800,"station_id":"st_d46cu089ee8s73dldbu0","pricing_plan_id":"cebpf4jnsgd1na2vs0mg"},{"bike_id":"d86ceb68-928c-4cd3-a45f-50c9cc1b47c6","system_id":"levelo_inurba_marseille","lat":43.27215,"lon":5.39181,"is_reserved":false,"is_disabled":false,"rental_uris":{"android":"levelo://app?vid=d86ceb68-928c-4cd3-a45f-50c9cc1b47c6","ios":"levelo://app?vid=d86ceb68-928c-4cd3-a45f-50c9cc1b47c6"},"vehicle_type_id":"4","last_reported":1768238150,"current_range_meters":6800,"station_id":"ce4bhhp2rcd13ifvqfm0","pricing_plan_id":"cebpf4jnsgd1na2vs0mg"},{"bike_id":"b8929b8d-6b9c-4968-800e-ea06ffa303ee","system_id":"levelo_inurba_marseille","lat":43.27202,"lon":5.39181,"is_reserved":false,"is_disabled":false,"rental_uris":{"android":"levelo://app?vid=b8929b8d-6b9c-4968-800e-ea06ffa303ee","ios":"levelo://app?vid=b8929b8d-6b9c-4968-800e-ea06ffa303ee"},"vehicle_type_id":"4","last_reported":1768238150,"current_range_meters":6800,"station_id":"ce4bhhp2rcd13ifvqfm0","pricing_plan_id":"cebpf4jnsgd1na2vs0mg"},{"bike_id":"4202e215-6f29-4f58-ace8-2e6289f05e81","system_id":"levelo_inurba_marseille","lat":43.23959,"lon":5.36614,"is_reserved":false,"is_disabled":false,"rental_uris":{"android":"levelo://app?vid=4202e215-6f29-4f58-ace8-2e6289f05e81","ios":"levelo://app?vid=4202e215-6f29-4f58-ace8-2e6289f05e81"},"vehicle_type_id":"4","last_reported":1768238150,"current_range_meters":6800,"station_id":"ce4bhi12rcd13ifvqfp0","pricing_plan_id":"cebpf4jnsgd1na2vs0mg"},{"bike_id":"bce5bef6-66c0-48f9-9494-83e46be9a229","system_id":"levelo_inurba_marseille","lat":43.32343,"lon":5.36713,"is_reserved":false,"is_disabled":false,"rental_uris":{"android":"levelo://app?vid=bce5bef6-66c0-48f9-9494-83e46be9a229","ios":"levelo://app?vid=bce5bef6-66c0-48f9-9494-83e46be9a229"},"vehicle_type_id":"4","last_reported":1768238150,"current_range_meters":6800,"station_id":"ce4bhsh2rcd13ifvqi2g","pricing_plan_id":"cebpf4jnsgd1na2vs0mg"},{"bike_id":"90dfc0c4-0044-4337-8331-b045fdb00361","system_id":"levelo_inurba_marseille","lat":43.33147,"lon":5.37675,"is_reserved":false,"is_disabled":false,"rental_uris":{"android":"levelo://app?vid=90dfc0c4-0044-4337-8331-b045fdb00361","ios":"levelo://app?vid=90dfc0c4-0044-4337-8331-b045fdb00361"},"vehicle_type_id":"4","last_reported":1768238150,"current_range_meters":6800,"station_id":"st_d46cu089ee8s73dldbu0","pricing_plan_id":"cebpf4jnsgd1na2vs0mg"},{"bike_id":"824e0100-c6fc-4a0d-bafe-328ab4a682ff","system_id":"levelo_inurba_marseille","lat":43.3235,"lon":5.36727,"is_reserved":false,"is_disabled":false,"rental_uris":{"android":"levelo://app?vid=824e0100-c6fc-4a0d-bafe-328ab4a682ff","ios":"levelo://app?vid=824e0100-c6fc-4a0d-bafe-328ab4a682ff"},"vehicle_type_id":"4","last_reported":1768238150,"current_range_meters":6800,"station_id":"ce4bhsh2rcd13ifvqi2g","pricing_plan_id":"cebpf4jnsgd1na2vs0mg"},{"bike_id":"7e8fb3ac-47cf-43ae-8049-5deaa51cc530","system_id":"levelo_inurba_marseille","lat":43.29634,"lon":5.37739,"is_reserved":false,"is_disabled":false,"rental_uris":{"android":"levelo://app?vid=7e8fb3ac-47cf-43ae-8049-5deaa51cc530","ios":"levelo://app?vid=7e8fb3ac-47cf-43ae-8049-5deaa51cc530"},"vehicle_type_id":"4","last_reported":1768238150,"current_range_meters":6800,"station_id":"ce4bgi92rcd13ifvqb90","pricing_plan_id":"cebpf4jnsgd1na2vs0mg"},{"bike_id":"b81a771e-796c-40e5-98d5-2c3857393d80","system_id":"levelo_inurba_marseille","lat":43.284767,"lon":5.483983,"is_reserved":false,"is_disabled":false,"rental_uris":{"android":"levelo://app?vid=b81a771e-796c-40e5-98d5-2c3857393d80","ios":"levelo://app?vid=b81a771e-796c-40e5-98d5-2c3857393d80"},"vehicle_type_id":"4","last_reported":1768238150,"current_range_meters":6800,"station_id":"st_d3svhcjqgbts73a3dn0g","pricing_plan_id":"cebpf4jnsgd1na2vs0mg"},{"bike_id":"de51dd94-ddfa-4e66-be16-d1739cc9c1c9","system_id":"levelo_inurba_marseille","lat":43.30553,"lon":5.3656,"is_reserved":false,"is_disabled":false,"rental_uris":{"android":"levelo://app?vid=de51dd94-ddfa-4e66-be16-d1739cc9c1c9","ios":"levelo://app?vid=de51dd94-ddfa-4e66-be16-d1739cc9c1c9"},"vehicle_type_id":"4","last_reported":1768238150,"current_range_meters":6800,"station_id":"ce4bgs12rcd13ifvqcag","pricing_plan_id":"cebpf4jnsgd1na2vs0mg"},{"bike_id":"94d55ad1-df2a-4464-8082-c30dde836fb0","system_id":"levelo_inurba_marseille","lat":43.23781,"lon":5.36628,"is_reserved":false,"is_disabled":false,"rental_uris":{"android":"levelo://app?vid=94d55ad1-df2a-4464-8082-c30dde836fb0","ios":"levelo://app?vid=94d55ad1-df2a-4464-8082-c30dde836fb0"},"vehicle_type_id":"4","last_reported":1768238150,"current_range_meters":6800,"station_id":"st_d3nk18o9ro0c73en2l3g","pricing_plan_id":"cebpf4jnsgd1na2vs0mg"},{"bike_id":"d4c76a3c-be64-4255-845b-8ccc9f87b7d9","system_id":"levelo_inurba_marseille","lat":43.29977,"lon":5.37372,"is_reserved":false,"is_disabled":false,"rental_uris":{"android":"levelo://app?vid=d4c76a3c-be64-4255-845b-8ccc9f87b7d9","ios":"levelo://app?vid=d4c76a3c-be64-4255-845b-8ccc9f87b7d9"},"vehicle_type_id":"4","last_reported":1768238150,"current_range_meters":6800,"station_id":"","pricing_plan_id":"cebpf4jnsgd1na2vs0mg"},{"bike_id":"fbfb1b21-25c7-43f0-8f8f-396358d69ca1","system_id":"levelo_inurba_marseille","lat":43.30947,"lon":5.39042,"is_reserved":false,"is_disabled":false,"rental_uris":{"android":"levelo://app?vid=fbfb1b21-25c7-43f0-8f8f-396358d69ca1","ios":"levelo://app?vid=fbfb1b21-25c7-43f0-8f8f-396358d69ca1"},"vehicle_type_id":"4","last_reported":1768238150,"current_range_meters":6800,"station_id":"ce4bgup2rcd13ifvqco0","pricing_plan_id":"cebpf4jnsgd1na2vs0mg"},{"bike_id":"ad6a4028-e8f6-4170-b59d-bb575efd3d62","system_id":"levelo_inurba_marseille","lat":43.29937,"lon":5.37496,"is_reserved":false,"is_disabled":false,"rental_uris":{"android":"levelo://app?vid=ad6a4028-e8f6-4170-b59d-bb575efd3d62","ios":"levelo://app?vid=ad6a4028-e8f6-4170-b59d-bb575efd3d62"},"vehicle_type_id":"4","last_reported":1768238150,"current_range_meters":7200,"station_id":"ce4bgjh2rcd13ifvqbg0","pricing_plan_id":"cebpf4jnsgd1na2vs0mg"},{"bike_id":"a10cebfe-81dc-4dff-bad4-c25d976b2067","system_id":"levelo_inurba_marseille","lat":43.284152,"lon":5.349843,"is_reserved":false,"is_disabled":false,"rental_uris":{"android":"levelo://app?vid=a10cebfe-81dc-4dff-bad4-c25d976b2067","ios":"levelo://app?vid=a10cebfe-81dc-4dff-bad4-c25d976b2067"},"vehicle_type_id":"4","last_reported":1768238150,"current_range_meters":7200,"station_id":"ce4bhbh2rcd13ifvqepg","pricing_plan_id":"cebpf4jnsgd1na2vs0mg"},{"bike_id":"07459b0c-be4e-4b2c-ac3f-4f1630cbbe77","system_id":"levelo_inurba_marseille","lat":43.2655,"lon":5.37309,"is_reserved":false,"is_disabled":false,"rental_uris":{"android":"levelo://app?vid=07459b0c-be4e-4b2c-ac3f-4f1630cbbe77","ios":"levelo://app?vid=07459b0c-be4e-4b2c-ac3f-4f1630cbbe77"},"vehicle_type_id":"4","last_reported":1768238150,"current_range_meters":7200,"station_id":"ce4bhg12rcd13ifvqf70","pricing_plan_id":"cebpf4jnsgd1na2vs0mg"},{"bike_id":"416e9add-b08d-41ef-8793-a994c0d3386c","system_id":"levelo_inurba_marseille","lat":43.2847,"lon":5.38435,"is_reserved":false,"is_disabled":false,"rental_uris":{"android":"levelo://app?vid=416e9add-b08d-41ef-8793-a994c0d3386c","ios":"levelo://app?vid=416e9add-b08d-41ef-8793-a994c0d3386c"},"vehicle_type_id":"4","last_reported":1768238150,"current_range_meters":7200,"station_id":"ce4bh512rcd13ifvqe3g","pricing_plan_id":"cebpf4jnsgd1na2vs0mg"},{"bike_id":"bad9d05b-2efd-4707-af1a-d48b0eeaba21","system_id":"levelo_inurba_marseille","lat":43.244674,"lon":5.425313,"is_reserved":false,"is_disabled":false,"rental_uris":{"android":"levelo://app?vid=bad9d05b-2efd-4707-af1a-d48b0eeaba21","ios":"levelo://app?vid=bad9d05b-2efd-4707-af1a-d48b0eeaba21"},"vehicle_type_id":"4","last_reported":1768238150,"current_range_meters":7200,"station_id":"st_d4a3vfp97mjs738cd8kg","pricing_plan_id":"cebpf4jnsgd1na2vs0mg"},{"bike_id":"a0750e8b-6f08-4dec-ad7b-75931873cace","system_id":"levelo_inurba_marseille","lat":43.30143,"lon":5.37401,"is_reserved":false,"is_disabled":false,"rental_uris":{"android":"levelo://app?vid=a0750e8b-6f08-4dec-ad7b-75931873cace","ios":"levelo://app?vid=a0750e8b-6f08-4dec-ad7b-75931873cace"},"vehicle_type_id":"4","last_reported":1768238150,"current_range_meters":7200,"station_id":"ce4bgs92rcd13ifvqcc0","pricing_plan_id":"cebpf4jnsgd1na2vs0mg"},{"bike_id":"b0efd0f2-bc5c-4dff-bc29-9743c461b4d7","system_id":"levelo_inurba_marseille","lat":43.24063,"lon":5.37753,"is_reserved":false,"is_disabled":false,"rental_uris":{"android":"levelo://app?vid=b0efd0f2-bc5c-4dff-bc29-9743c461b4d7","ios":"levelo://app?vid=b0efd0f2-bc5c-4dff-bc29-9743c461b4d7"},"vehicle_type_id":"4","last_reported":1768238150,"current_range_meters":7200,"station_id":"","pricing_plan_id":"cebpf4jnsgd1na2vs0mg"},{"bike_id":"38d076d2-a3a0-46d0-b800-0eaafad476d4","system_id":"levelo_inurba_marseille","lat":43.282152,"lon":5.40367,"is_reserved":false,"is_disabled":false,"rental_uris":{"android":"levelo://app?vid=38d076d2-a3a0-46d0-b800-0eaafad476d4","ios":"levelo://app?vid=38d076d2-a3a0-46d0-b800-0eaafad476d4"},"vehicle_type_id":"4","last_reported":1768238150,"current_range_meters":7200,"station_id":"","pricing_plan_id":"cebpf4jnsgd1na2vs0mg"},{"bike_id":"cddcf2c2-04b5-4843-b385-219618c4a20f","system_id":"levelo_inurba_marseille","lat":43.286203,"lon":5.350945,"is_reserved":false,"is_disabled":false,"rental_uris":{"android":"levelo://app?vid=cddcf2c2-04b5-4843-b385-219618c4a20f","ios":"levelo://app?vid=cddcf2c2-04b5-4843-b385-219618c4a20f"},"vehicle_type_id":"4","last_reported":1768238150,"current_range_meters":7200,"station_id":"ce4bhch2rcd13ifvqeug","pricing_plan_id":"cebpf4jnsgd1na2vs0mg"},{"bike_id":"bb1a79bd-f8cd-42d2-9565-6b62b5b7cf92","system_id":"levelo_inurba_marseille","lat":43.30818,"lon":5.38143,"is_reserved":false,"is_disabled":false,"rental_uris":{"android":"levelo://app?vid=bb1a79bd-f8cd-42d2-9565-6b62b5b7cf92","ios":"levelo://app?vid=bb1a79bd-f8cd-42d2-9565-6b62b5b7cf92"},"vehicle_type_id":"4","last_reported":1768238150,"current_range_meters":7200,"station_id":"ce4bgt12rcd13ifvqce0","pricing_plan_id":"cebpf4jnsgd1na2vs0mg"},{"bike_id":"8778a270-debd-4124-975b-32917c0cd81c","system_id":"levelo_inurba_marseille","lat":43.307941,"lon":5.381589,"is_reserved":false,"is_disabled":false,"rental_uris":{"android":"levelo://app?vid=8778a270-debd-4124-975b-32917c0cd81c","ios":"levelo://app?vid=8778a270-debd-4124-975b-32917c0cd81c"},"vehicle_type_id":"4","last_reported":1768238150,"current_range_meters":7200,"station_id":"ce4bgt12rcd13ifvqce0","pricing_plan_id":"cebpf4jnsgd1na2vs0mg"},{"bike_id":"63fc7043-c019-4251-abc3-87e8519908fa","system_id":"levelo_inurba_marseille","lat":43.26694,"lon":5.3828,"is_reserved":false,"is_disabled":true,"rental_uris":{"android":"levelo://app?vid=63fc7043-c019-4251-abc3-87e8519908fa","ios":"levelo://app?vid=63fc7043-c019-4251-abc3-87e8519908fa"},"vehicle_type_id":"4","last_reported":1768238150,"current_range_meters":7200,"station_id":"ce4bhg92rcd13ifvqf90","pricing_plan_id":"cebpf4jnsgd1na2vs0mg"},{"bike_id":"8049ab61-e378-4478-bef4-ac0f529d7d1a","system_id":"levelo_inurba_marseille","lat":43.23194,"lon":5.35558,"is_reserved":false,"is_disabled":false,"rental_uris":{"android":"levelo://app?vid=8049ab61-e378-4478-bef4-ac0f529d7d1a","ios":"levelo://app?vid=8049ab61-e378-4478-bef4-ac0f529d7d1a"},"vehicle_type_id":"4","last_reported":1768238150,"current_range_meters":7200,"station_id":"ce4bhu92rcd13ifvqi70","pricing_plan_id":"cebpf4jnsgd1na2vs0mg"},{"bike_id":"f984a5c8-b4f0-4ca0-8b12-faccee1f74d4","system_id":"levelo_inurba_marseille","lat":43.24807,"lon":5.37452,"is_reserved":false,"is_disabled":false,"rental_uris":{"android":"levelo://app?vid=f984a5c8-b4f0-4ca0-8b12-faccee1f74d4","ios":"levelo://app?vid=f984a5c8-b4f0-4ca0-8b12-faccee1f74d4"},"vehicle_type_id":"4","last_reported":1768238150,"current_range_meters":7200,"station_id":"ce4bhgh2rcd13ifvqfb0","pricing_plan_id":"cebpf4jnsgd1na2vs0mg"},{"bike_id":"b428de07-f060-4f88-85c9-87428a734a4f","system_id":"levelo_inurba_marseille","lat":43.30639,"lon":5.40084,"is_reserved":false,"is_disabled":false,"rental_uris":{"android":"levelo://app?vid=b428de07-f060-4f88-85c9-87428a734a4f","ios":"levelo://app?vid=b428de07-f060-4f88-85c9-87428a734a4f"},"vehicle_type_id":"4","last_reported":1768238150,"current_range_meters":7200,"station_id":"ce4bh112rcd13ifvqda0","pricing_plan_id":"cebpf4jnsgd1na2vs0mg"},{"bike_id":"9f295e7a-65c6-4272-9043-5a3d89670383","system_id":"levelo_inurba_marseille","lat":43.24815,"lon":5.37457,"is_reserved":false,"is_disabled":false,"rental_uris":{"android":"levelo://app?vid=9f295e7a-65c6-4272-9043-5a3d89670383","ios":"levelo://app?vid=9f295e7a-65c6-4272-9043-5a3d89670383"},"vehicle_type_id":"4","last_reported":1768238150,"current_range_meters":7200,"station_id":"ce4bhgh2rcd13ifvqfb0","pricing_plan_id":"cebpf4jnsgd1na2vs0mg"},{"bike_id":"1b1a670a-fcf4-4828-aa79-e1b72cfec18c","system_id":"levelo_inurba_marseille","lat":43.23189,"lon":5.35552,"is_reserved":false,"is_disabled":false,"rental_uris":{"android":"levelo://app?vid=1b1a670a-fcf4-4828-aa79-e1b72cfec18c","ios":"levelo://app?vid=1b1a670a-fcf4-4828-aa79-e1b72cfec18c"},"vehicle_type_id":"4","last_reported":1768238150,"current_range_meters":7200,"station_id":"ce4bhu92rcd13ifvqi70","pricing_plan_id":"cebpf4jnsgd1na2vs0mg"},{"bike_id":"c982d76b-7fd6-451c-9063-ebda7a233a9e","system_id":"levelo_inurba_marseille","lat":43.26944,"lon":5.40241,"is_reserved":false,"is_disabled":false,"rental_uris":{"android":"levelo://app?vid=c982d76b-7fd6-451c-9063-ebda7a233a9e","ios":"levelo://app?vid=c982d76b-7fd6-451c-9063-ebda7a233a9e"},"vehicle_type_id":"4","last_reported":1768238150,"current_range_meters":7200,"station_id":"cjm6bp8fraef2m0cb0m0","pricing_plan_id":"cebpf4jnsgd1na2vs0mg"},{"bike_id":"1fab451c-a69a-44ca-b2c3-fe8939fd9580","system_id":"levelo_inurba_marseille","lat":43.31517,"lon":5.41396,"is_reserved":false,"is_disabled":false,"rental_uris":{"android":"levelo://app?vid=1fab451c-a69a-44ca-b2c3-fe8939fd9580","ios":"levelo://app?vid=1fab451c-a69a-44ca-b2c3-fe8939fd9580"},"vehicle_type_id":"4","last_reported":1768238150,"current_range_meters":7200,"station_id":"","pricing_plan_id":"cebpf4jnsgd1na2vs0mg"},{"bike_id":"2047f63a-8bfa-4351-b9c0-2a41c2c3c424","system_id":"levelo_inurba_marseille","lat":43.2979,"lon":5.404,"is_reserved":false,"is_disabled":false,"rental_uris":{"android":"levelo://app?vid=2047f63a-8bfa-4351-b9c0-2a41c2c3c424","ios":"levelo://app?vid=2047f63a-8bfa-4351-b9c0-2a41c2c3c424"},"vehicle_type_id":"4","last_reported":1768238150,"current_range_meters":7200,"station_id":"ce4bh112rcd13ifvqd90","pricing_plan_id":"cebpf4jnsgd1na2vs0mg"},{"bike_id":"d0c8f902-6830-431b-898a-189fb6a9cd6c","system_id":"levelo_inurba_marseille","lat":43.29842,"lon":5.36286,"is_reserved":false,"is_disabled":false,"rental_uris":{"android":"levelo://app?vid=d0c8f902-6830-431b-898a-189fb6a9cd6c","ios":"levelo://app?vid=d0c8f902-6830-431b-898a-189fb6a9cd6c"},"vehicle_type_id":"4","last_reported":1768238150,"current_range_meters":7200,"station_id":"ce4bgpp2rcd13ifvqc3g","pricing_plan_id":"cebpf4jnsgd1na2vs0mg"},{"bike_id":"dd8da017-7855-40a5-b0b7-e5b03612303e","system_id":"levelo_inurba_marseille","lat":43.28574,"lon":5.395,"is_reserved":false,"is_disabled":false,"rental_uris":{"android":"levelo://app?vid=dd8da017-7855-40a5-b0b7-e5b03612303e","ios":"levelo://app?vid=dd8da017-7855-40a5-b0b7-e5b03612303e"},"vehicle_type_id":"4","last_reported":1768238150,"current_range_meters":7200,"station_id":"ce4bh292rcd13ifvqdg0","pricing_plan_id":"cebpf4jnsgd1na2vs0mg"},{"bike_id":"df269709-d44c-4576-84d8-e2021718e52e","system_id":"levelo_inurba_marseille","lat":43.279432,"lon":5.410465,"is_reserved":false,"is_disabled":false,"rental_uris":{"android":"levelo://app?vid=df269709-d44c-4576-84d8-e2021718e52e","ios":"levelo://app?vid=df269709-d44c-4576-84d8-e2021718e52e"},"vehicle_type_id":"4","last_reported":1768238150,"current_range_meters":7200,"station_id":"ce4bhnp2rcd13ifvqh0g","pricing_plan_id":"cebpf4jnsgd1na2vs0mg"},{"bike_id":"7b6f12be-65ff-469f-954c-5bc823eb23e6","system_id":"levelo_inurba_marseille","lat":43.32534,"lon":5.36471,"is_reserved":false,"is_disabled":false,"rental_uris":{"android":"levelo://app?vid=7b6f12be-65ff-469f-954c-5bc823eb23e6","ios":"levelo://app?vid=7b6f12be-65ff-469f-954c-5bc823eb23e6"},"vehicle_type_id":"4","last_reported":1768238150,"current_range_meters":8000,"station_id":"","pricing_plan_id":"cebpf4jnsgd1na2vs0mg"},{"bike_id":"a38bcbb1-c226-4bc2-8672-2e7d0273da8d","system_id":"levelo_inurba_marseille","lat":43.32234,"lon":5.36786,"is_reserved":false,"is_disabled":false,"rental_uris":{"android":"levelo://app?vid=a38bcbb1-c226-4bc2-8672-2e7d0273da8d","ios":"levelo://app?vid=a38bcbb1-c226-4bc2-8672-2e7d0273da8d"},"vehicle_type_id":"4","last_reported":1768238150,"current_range_meters":8000,"station_id":"","pricing_plan_id":"cebpf4jnsgd1na2vs0mg"},{"bike_id":"f79921af-559e-4d94-95c2-036e9167deb5","system_id":"levelo_inurba_marseille","lat":43.31876,"lon":5.39994,"is_reserved":false,"is_disabled":false,"rental_uris":{"android":"levelo://app?vid=f79921af-559e-4d94-95c2-036e9167deb5","ios":"levelo://app?vid=f79921af-559e-4d94-95c2-036e9167deb5"},"vehicle_type_id":"4","last_reported":1768238150,"current_range_meters":8000,"station_id":"","pricing_plan_id":"cebpf4jnsgd1na2vs0mg"},{"bike_id":"94a3f4ee-c7be-4ab2-8169-5f555333294f","system_id":"levelo_inurba_marseille","lat":43.28249,"lon":5.3508,"is_reserved":false,"is_disabled":false,"rental_uris":{"android":"levelo://app?vid=94a3f4ee-c7be-4ab2-8169-5f555333294f","ios":"levelo://app?vid=94a3f4ee-c7be-4ab2-8169-5f555333294f"},"vehicle_type_id":"4","last_reported":1768238150,"current_range_meters":8000,"station_id":"ce4bhbp2rcd13ifvqerg","pricing_plan_id":"cebpf4jnsgd1na2vs0mg"},{"bike_id":"7fb0d18d-87f0-4490-ac9a-259338a041dc","system_id":"levelo_inurba_marseille","lat":43.23526,"lon":5.35933,"is_reserved":false,"is_disabled":false,"rental_uris":{"android":"levelo://app?vid=7fb0d18d-87f0-4490-ac9a-259338a041dc","ios":"levelo://app?vid=7fb0d18d-87f0-4490-ac9a-259338a041dc"},"vehicle_type_id":"4","last_reported":1768238150,"current_range_meters":8000,"station_id":"","pricing_plan_id":"cebpf4jnsgd1na2vs0mg"},{"bike_id":"f2feb58b-2e1d-410d-a362-6a4d0a6ad00a","system_id":"levelo_inurba_marseille","lat":43.2693,"lon":5.4024,"is_reserved":false,"is_disabled":false,"rental_uris":{"android":"levelo://app?vid=f2feb58b-2e1d-410d-a362-6a4d0a6ad00a","ios":"levelo://app?vid=f2feb58b-2e1d-410d-a362-6a4d0a6ad00a"},"vehicle_type_id":"4","last_reported":1768238150,"current_range_meters":8000,"station_id":"cjm6bp8fraef2m0cb0m0","pricing_plan_id":"cebpf4jnsgd1na2vs0mg"},{"bike_id":"7b7c4d5a-48b0-4253-8d68-ce9bdb9244be","system_id":"levelo_inurba_marseille","lat":43.26541,"lon":5.37286,"is_reserved":false,"is_disabled":false,"rental_uris":{"android":"levelo://app?vid=7b7c4d5a-48b0-4253-8d68-ce9bdb9244be","ios":"levelo://app?vid=7b7c4d5a-48b0-4253-8d68-ce9bdb9244be"},"vehicle_type_id":"4","last_reported":1768238150,"current_range_meters":8000,"station_id":"ce4bhg12rcd13ifvqf70","pricing_plan_id":"cebpf4jnsgd1na2vs0mg"},{"bike_id":"2455333c-abb5-40b2-83d1-6df58226f70a","system_id":"levelo_inurba_marseille","lat":43.32915,"lon":5.38943,"is_reserved":false,"is_disabled":false,"rental_uris":{"android":"levelo://app?vid=2455333c-abb5-40b2-83d1-6df58226f70a","ios":"levelo://app?vid=2455333c-abb5-40b2-83d1-6df58226f70a"},"vehicle_type_id":"4","last_reported":1768238150,"current_range_meters":8000,"station_id":"","pricing_plan_id":"cebpf4jnsgd1na2vs0mg"},{"bike_id":"584740bc-b28f-45e7-8c07-3256faa8a0cc","system_id":"levelo_inurba_marseille","lat":43.262,"lon":5.37922,"is_reserved":false,"is_disabled":true,"rental_uris":{"android":"levelo://app?vid=584740bc-b28f-45e7-8c07-3256faa8a0cc","ios":"levelo://app?vid=584740bc-b28f-45e7-8c07-3256faa8a0cc"},"vehicle_type_id":"4","last_reported":1768238150,"current_range_meters":8000,"station_id":"ce4bhjp2rcd13ifvqg90","pricing_plan_id":"cebpf4jnsgd1na2vs0mg"},{"bike_id":"62a6a880-8c2f-4973-954e-dca5b666173d","system_id":"levelo_inurba_marseille","lat":43.29972,"lon":5.37333,"is_reserved":false,"is_disabled":false,"rental_uris":{"android":"levelo://app?vid=62a6a880-8c2f-4973-954e-dca5b666173d","ios":"levelo://app?vid=62a6a880-8c2f-4973-954e-dca5b666173d"},"vehicle_type_id":"4","last_reported":1768238150,"current_range_meters":8000,"station_id":"","pricing_plan_id":"cebpf4jnsgd1na2vs0mg"},{"bike_id":"10d55602-05b7-463b-8f7c-e4c3a2bfa98d","system_id":"levelo_inurba_marseille","lat":43.312236,"lon":5.368842,"is_reserved":false,"is_disabled":false,"rental_uris":{"android":"levelo://app?vid=10d55602-05b7-463b-8f7c-e4c3a2bfa98d","ios":"levelo://app?vid=10d55602-05b7-463b-8f7c-e4c3a2bfa98d"},"vehicle_type_id":"4","last_reported":1768238150,"current_range_meters":8000,"station_id":"ce4bgr92rcd13ifvqc6g","pricing_plan_id":"cebpf4jnsgd1na2vs0mg"},{"bike_id":"57b1d746-4745-42f5-b53b-447a5c0a8030","system_id":"levelo_inurba_marseille","lat":43.28571,"lon":5.39498,"is_reserved":false,"is_disabled":false,"rental_uris":{"android":"levelo://app?vid=57b1d746-4745-42f5-b53b-447a5c0a8030","ios":"levelo://app?vid=57b1d746-4745-42f5-b53b-447a5c0a8030"},"vehicle_type_id":"4","last_reported":1768238150,"current_range_meters":8000,"station_id":"ce4bh292rcd13ifvqdg0","pricing_plan_id":"cebpf4jnsgd1na2vs0mg"},{"bike_id":"6a29d0f8-9368-4421-9203-6bbc7b648963","system_id":"levelo_inurba_marseille","lat":43.29925,"lon":5.37464,"is_reserved":false,"is_disabled":false,"rental_uris":{"android":"levelo://app?vid=6a29d0f8-9368-4421-9203-6bbc7b648963","ios":"levelo://app?vid=6a29d0f8-9368-4421-9203-6bbc7b648963"},"vehicle_type_id":"4","last_reported":1768238150,"current_range_meters":8000,"station_id":"ce4bgjh2rcd13ifvqbg0","pricing_plan_id":"cebpf4jnsgd1na2vs0mg"},{"bike_id":"bb872cf3-111a-4da5-8326-64266a28cac2","system_id":"levelo_inurba_marseille","lat":43.26035,"lon":5.39387,"is_reserved":false,"is_disabled":false,"rental_uris":{"android":"levelo://app?vid=bb872cf3-111a-4da5-8326-64266a28cac2","ios":"levelo://app?vid=bb872cf3-111a-4da5-8326-64266a28cac2"},"vehicle_type_id":"4","last_reported":1768238150,"current_range_meters":8000,"station_id":"ce4bhh92rcd13ifvqfj0","pricing_plan_id":"cebpf4jnsgd1na2vs0mg"},{"bike_id":"6409133c-4bbf-461b-816e-0788c8d1979b","system_id":"levelo_inurba_marseille","lat":43.3045,"lon":5.38895,"is_reserved":false,"is_disabled":true,"rental_uris":{"android":"levelo://app?vid=6409133c-4bbf-461b-816e-0788c8d1979b","ios":"levelo://app?vid=6409133c-4bbf-461b-816e-0788c8d1979b"},"vehicle_type_id":"4","last_reported":1768238150,"current_range_meters":8000,"station_id":"ce4bgk12rcd13ifvqbi0","pricing_plan_id":"cebpf4jnsgd1na2vs0mg"},{"bike_id":"8edf8029-b928-4873-9c16-39fe4f1c349c","system_id":"levelo_inurba_marseille","lat":43.28712,"lon":5.37923,"is_reserved":false,"is_disabled":false,"rental_uris":{"android":"levelo://app?vid=8edf8029-b928-4873-9c16-39fe4f1c349c","ios":"levelo://app?vid=8edf8029-b928-4873-9c16-39fe4f1c349c"},"vehicle_type_id":"4","last_reported":1768238150,"current_range_meters":8000,"station_id":"ce4bh9p2rcd13ifvqec0","pricing_plan_id":"cebpf4jnsgd1na2vs0mg"},{"bike_id":"e7f880b9-9ced-4dbf-8dbc-b70fe3a8fb49","system_id":"levelo_inurba_marseille","lat":43.323591,"lon":5.367445,"is_reserved":false,"is_disabled":false,"rental_uris":{"android":"levelo://app?vid=e7f880b9-9ced-4dbf-8dbc-b70fe3a8fb49","ios":"levelo://app?vid=e7f880b9-9ced-4dbf-8dbc-b70fe3a8fb49"},"vehicle_type_id":"4","last_reported":1768238150,"current_range_meters":8000,"station_id":"ce4bhsh2rcd13ifvqi2g","pricing_plan_id":"cebpf4jnsgd1na2vs0mg"},{"bike_id":"279f48b8-2189-4af9-a330-e3d21fd8995c","system_id":"levelo_inurba_marseille","lat":43.2885,"lon":5.35858,"is_reserved":false,"is_disabled":false,"rental_uris":{"android":"levelo://app?vid=279f48b8-2189-4af9-a330-e3d21fd8995c","ios":"levelo://app?vid=279f48b8-2189-4af9-a330-e3d21fd8995c"},"vehicle_type_id":"4","last_reported":1768238150,"current_range_meters":8000,"station_id":"ce4bhb12rcd13ifvqem0","pricing_plan_id":"cebpf4jnsgd1na2vs0mg"},{"bike_id":"1168f898-9927-4460-ab60-87aa882d0515","system_id":"levelo_inurba_marseille","lat":43.29932,"lon":5.36535,"is_reserved":false,"is_disabled":false,"rental_uris":{"android":"levelo://app?vid=1168f898-9927-4460-ab60-87aa882d0515","ios":"levelo://app?vid=1168f898-9927-4460-ab60-87aa882d0515"},"vehicle_type_id":"4","last_reported":1768238150,"current_range_meters":8000,"station_id":"ce4bgm92rcd13ifvqbr0","pricing_plan_id":"cebpf4jnsgd1na2vs0mg"},{"bike_id":"2cc9db73-43c9-4a56-a963-4c4c6878c41f","system_id":"levelo_inurba_marseille","lat":43.23835,"lon":5.36655,"is_reserved":false,"is_disabled":false,"rental_uris":{"android":"levelo://app?vid=2cc9db73-43c9-4a56-a963-4c4c6878c41f","ios":"levelo://app?vid=2cc9db73-43c9-4a56-a963-4c4c6878c41f"},"vehicle_type_id":"4","last_reported":1768238150,"current_range_meters":8000,"station_id":"","pricing_plan_id":"cebpf4jnsgd1na2vs0mg"},{"bike_id":"f36b7ae2-2030-496c-8dc8-4dc2101ff9b9","system_id":"levelo_inurba_marseille","lat":43.245499,"lon":5.395219,"is_reserved":false,"is_disabled":false,"rental_uris":{"android":"levelo://app?vid=f36b7ae2-2030-496c-8dc8-4dc2101ff9b9","ios":"levelo://app?vid=f36b7ae2-2030-496c-8dc8-4dc2101ff9b9"},"vehicle_type_id":"4","last_reported":1768238150,"current_range_meters":8000,"station_id":"ce4bhlp2rcd13ifvqgjg","pricing_plan_id":"cebpf4jnsgd1na2vs0mg"},{"bike_id":"596d9d26-1720-42d7-a7ac-dfcfcbc317e8","system_id":"levelo_inurba_marseille","lat":43.301451,"lon":5.380837,"is_reserved":false,"is_disabled":false,"rental_uris":{"android":"levelo://app?vid=596d9d26-1720-42d7-a7ac-dfcfcbc317e8","ios":"levelo://app?vid=596d9d26-1720-42d7-a7ac-dfcfcbc317e8"},"vehicle_type_id":"4","last_reported":1768238150,"current_range_meters":8000,"station_id":"ce4bgjp2rcd13ifvqbh0","pricing_plan_id":"cebpf4jnsgd1na2vs0mg"},{"bike_id":"952412d5-8359-4eb6-9ee8-294a4128a280","system_id":"levelo_inurba_marseille","lat":43.29286,"lon":5.37352,"is_reserved":false,"is_disabled":false,"rental_uris":{"android":"levelo://app?vid=952412d5-8359-4eb6-9ee8-294a4128a280","ios":"levelo://app?vid=952412d5-8359-4eb6-9ee8-294a4128a280"},"vehicle_type_id":"4","last_reported":1768238150,"current_range_meters":8000,"station_id":"","pricing_plan_id":"cebpf4jnsgd1na2vs0mg"},{"bike_id":"8de61461-1f75-44ea-a321-3d572e66b2c1","system_id":"levelo_inurba_marseille","lat":43.2937,"lon":5.40976,"is_reserved":false,"is_disabled":false,"rental_uris":{"android":"levelo://app?vid=8de61461-1f75-44ea-a321-3d572e66b2c1","ios":"levelo://app?vid=8de61461-1f75-44ea-a321-3d572e66b2c1"},"vehicle_type_id":"4","last_reported":1768238150,"current_range_meters":8000,"station_id":"","pricing_plan_id":"cebpf4jnsgd1na2vs0mg"},{"bike_id":"cdb7f885-d79c-4a7f-be8b-87d7e51ae524","system_id":"levelo_inurba_marseille","lat":43.30656,"lon":5.40514,"is_reserved":false,"is_disabled":false,"rental_uris":{"android":"levelo://app?vid=cdb7f885-d79c-4a7f-be8b-87d7e51ae524","ios":"levelo://app?vid=cdb7f885-d79c-4a7f-be8b-87d7e51ae524"},"vehicle_type_id":"4","last_reported":1768238150,"current_range_meters":8000,"station_id":"ce4bh112rcd13ifvqda0","pricing_plan_id":"cebpf4jnsgd1na2vs0mg"},{"bike_id":"b60c8777-50a1-4187-b012-61c8b2392d61","system_id":"levelo_inurba_marseille","lat":43.2417,"lon":5.36401,"is_reserved":false,"is_disabled":false,"rental_uris":{"android":"levelo://app?vid=b60c8777-50a1-4187-b012-61c8b2392d61","ios":"levelo://app?vid=b60c8777-50a1-4187-b012-61c8b2392d61"},"vehicle_type_id":"4","last_reported":1768238150,"current_range_meters":8000,"station_id":"cpo36qri1sfpv3e86is0","pricing_plan_id":"cebpf4jnsgd1na2vs0mg"},{"bike_id":"bb922cdc-5119-4083-8f62-85e098d254d9","system_id":"levelo_inurba_marseille","lat":43.29781,"lon":5.37109,"is_reserved":false,"is_disabled":false,"rental_uris":{"android":"levelo://app?vid=bb922cdc-5119-4083-8f62-85e098d254d9","ios":"levelo://app?vid=bb922cdc-5119-4083-8f62-85e098d254d9"},"vehicle_type_id":"4","last_reported":1768238150,"current_range_meters":8000,"station_id":"ce4bgop2rcd13ifvqc1g","pricing_plan_id":"cebpf4jnsgd1na2vs0mg"},{"bike_id":"59524727-7956-4d34-9a0e-8bc3c1eaefc7","system_id":"levelo_inurba_marseille","lat":43.29884,"lon":5.38899,"is_reserved":false,"is_disabled":false,"rental_uris":{"android":"levelo://app?vid=59524727-7956-4d34-9a0e-8bc3c1eaefc7","ios":"levelo://app?vid=59524727-7956-4d34-9a0e-8bc3c1eaefc7"},"vehicle_type_id":"4","last_reported":1768238150,"current_range_meters":8400,"station_id":"ce4bh392rcd13ifvqdl0","pricing_plan_id":"cebpf4jnsgd1na2vs0mg"},{"bike_id":"e17a9c82-8846-45df-b367-7545f106e168","system_id":"levelo_inurba_marseille","lat":43.3132,"lon":5.38454,"is_reserved":false,"is_disabled":false,"rental_uris":{"android":"levelo://app?vid=e17a9c82-8846-45df-b367-7545f106e168","ios":"levelo://app?vid=e17a9c82-8846-45df-b367-7545f106e168"},"vehicle_type_id":"4","last_reported":1768238150,"current_range_meters":8400,"station_id":"ce4bgt92rcd13ifvqcf0","pricing_plan_id":"cebpf4jnsgd1na2vs0mg"},{"bike_id":"46c3b062-8bf8-4bb2-a71b-9ea599db7e23","system_id":"levelo_inurba_marseille","lat":43.29003,"lon":5.35615,"is_reserved":false,"is_disabled":false,"rental_uris":{"android":"levelo://app?vid=46c3b062-8bf8-4bb2-a71b-9ea599db7e23","ios":"levelo://app?vid=46c3b062-8bf8-4bb2-a71b-9ea599db7e23"},"vehicle_type_id":"4","last_reported":1768238150,"current_range_meters":8400,"station_id":"ce4bhb92rcd13ifvqen0","pricing_plan_id":"cebpf4jnsgd1na2vs0mg"},{"bike_id":"8a8b0f0c-0d15-4719-980a-dbef53ae178d","system_id":"levelo_inurba_marseille","lat":43.30319,"lon":5.40448,"is_reserved":false,"is_disabled":false,"rental_uris":{"android":"levelo://app?vid=8a8b0f0c-0d15-4719-980a-dbef53ae178d","ios":"levelo://app?vid=8a8b0f0c-0d15-4719-980a-dbef53ae178d"},"vehicle_type_id":"4","last_reported":1768238150,"current_range_meters":8400,"station_id":"ce4bh012rcd13ifvqd10","pricing_plan_id":"cebpf4jnsgd1na2vs0mg"},{"bike_id":"c9aa61c2-bf79-4eea-867a-5fdf9f19baaf","system_id":"levelo_inurba_marseille","lat":43.25514,"lon":5.37642,"is_reserved":false,"is_disabled":false,"rental_uris":{"android":"levelo://app?vid=c9aa61c2-bf79-4eea-867a-5fdf9f19baaf","ios":"levelo://app?vid=c9aa61c2-bf79-4eea-867a-5fdf9f19baaf"},"vehicle_type_id":"4","last_reported":1768238150,"current_range_meters":8400,"station_id":"ce4bhh12rcd13ifvqff0","pricing_plan_id":"cebpf4jnsgd1na2vs0mg"},{"bike_id":"a5cec7da-6886-40d2-8a66-645b3e24c8a4","system_id":"levelo_inurba_marseille","lat":43.28006,"lon":5.40013,"is_reserved":false,"is_disabled":false,"rental_uris":{"android":"levelo://app?vid=a5cec7da-6886-40d2-8a66-645b3e24c8a4","ios":"levelo://app?vid=a5cec7da-6886-40d2-8a66-645b3e24c8a4"},"vehicle_type_id":"4","last_reported":1768238150,"current_range_meters":8400,"station_id":"ce4bho92rcd13ifvqh4g","pricing_plan_id":"cebpf4jnsgd1na2vs0mg"},{"bike_id":"ce421665-3c26-4baa-b8ec-61eb8aef5e07","system_id":"levelo_inurba_marseille","lat":43.28071,"lon":5.40705,"is_reserved":false,"is_disabled":false,"rental_uris":{"android":"levelo://app?vid=ce421665-3c26-4baa-b8ec-61eb8aef5e07","ios":"levelo://app?vid=ce421665-3c26-4baa-b8ec-61eb8aef5e07"},"vehicle_type_id":"4","last_reported":1768238150,"current_range_meters":8400,"station_id":"","pricing_plan_id":"cebpf4jnsgd1na2vs0mg"},{"bike_id":"fd5c22af-551e-4b5c-a587-8bd6f93a7d5e","system_id":"levelo_inurba_marseille","lat":43.27945,"lon":5.41031,"is_reserved":false,"is_disabled":false,"rental_uris":{"android":"levelo://app?vid=fd5c22af-551e-4b5c-a587-8bd6f93a7d5e","ios":"levelo://app?vid=fd5c22af-551e-4b5c-a587-8bd6f93a7d5e"},"vehicle_type_id":"4","last_reported":1768238150,"current_range_meters":8400,"station_id":"","pricing_plan_id":"cebpf4jnsgd1na2vs0mg"},{"bike_id":"1bc4dd22-8b42-4ae1-b96e-ede97fc223cf","system_id":"levelo_inurba_marseille","lat":43.29898,"lon":5.37797,"is_reserved":false,"is_disabled":false,"rental_uris":{"android":"levelo://app?vid=1bc4dd22-8b42-4ae1-b96e-ede97fc223cf","ios":"levelo://app?vid=1bc4dd22-8b42-4ae1-b96e-ede97fc223cf"},"vehicle_type_id":"4","last_reported":1768238150,"current_range_meters":8400,"station_id":"","pricing_plan_id":"cebpf4jnsgd1na2vs0mg"},{"bike_id":"889365ac-dd9e-4bc8-95c4-120ab5729ad1","system_id":"levelo_inurba_marseille","lat":43.25583,"lon":5.38235,"is_reserved":false,"is_disabled":false,"rental_uris":{"android":"levelo://app?vid=889365ac-dd9e-4bc8-95c4-120ab5729ad1","ios":"levelo://app?vid=889365ac-dd9e-4bc8-95c4-120ab5729ad1"},"vehicle_type_id":"4","last_reported":1768238150,"current_range_meters":8400,"station_id":"ce4bhih2rcd13ifvqfs0","pricing_plan_id":"cebpf4jnsgd1na2vs0mg"},{"bike_id":"9bd81498-1c2d-46cc-b134-62e2c3cd9ba1","system_id":"levelo_inurba_marseille","lat":43.28873,"lon":5.42523,"is_reserved":false,"is_disabled":false,"rental_uris":{"android":"levelo://app?vid=9bd81498-1c2d-46cc-b134-62e2c3cd9ba1","ios":"levelo://app?vid=9bd81498-1c2d-46cc-b134-62e2c3cd9ba1"},"vehicle_type_id":"4","last_reported":1768238150,"current_range_meters":8400,"station_id":"st_d3b462108ojc7389ooeg","pricing_plan_id":"cebpf4jnsgd1na2vs0mg"},{"bike_id":"5e9ee4bb-6d15-4ae4-a335-81c90d99ea2c","system_id":"levelo_inurba_marseille","lat":43.240708,"lon":5.377459,"is_reserved":false,"is_disabled":false,"rental_uris":{"android":"levelo://app?vid=5e9ee4bb-6d15-4ae4-a335-81c90d99ea2c","ios":"levelo://app?vid=5e9ee4bb-6d15-4ae4-a335-81c90d99ea2c"},"vehicle_type_id":"4","last_reported":1768238150,"current_range_meters":8400,"station_id":"ce4bhnp2rcd13ifvqgvg","pricing_plan_id":"cebpf4jnsgd1na2vs0mg"},{"bike_id":"a714f418-ed3b-4b59-9c3d-b14acbf5c7c6","system_id":"levelo_inurba_marseille","lat":43.2509,"lon":5.39496,"is_reserved":false,"is_disabled":false,"rental_uris":{"android":"levelo://app?vid=a714f418-ed3b-4b59-9c3d-b14acbf5c7c6","ios":"levelo://app?vid=a714f418-ed3b-4b59-9c3d-b14acbf5c7c6"},"vehicle_type_id":"4","last_reported":1768238150,"current_range_meters":8400,"station_id":"ce4bhm12rcd13ifvqgkg","pricing_plan_id":"cebpf4jnsgd1na2vs0mg"},{"bike_id":"9c6ac982-85bd-4de8-bac0-c36b3d884f3d","system_id":"levelo_inurba_marseille","lat":43.32112,"lon":5.36792,"is_reserved":false,"is_disabled":false,"rental_uris":{"android":"levelo://app?vid=9c6ac982-85bd-4de8-bac0-c36b3d884f3d","ios":"levelo://app?vid=9c6ac982-85bd-4de8-bac0-c36b3d884f3d"},"vehicle_type_id":"4","last_reported":1768238150,"current_range_meters":8400,"station_id":"ce4bhrh2rcd13ifvqhug","pricing_plan_id":"cebpf4jnsgd1na2vs0mg"},{"bike_id":"f322ca8a-b5f6-42b1-996f-3c1d56bf66ab","system_id":"levelo_inurba_marseille","lat":43.26539,"lon":5.37293,"is_reserved":false,"is_disabled":false,"rental_uris":{"android":"levelo://app?vid=f322ca8a-b5f6-42b1-996f-3c1d56bf66ab","ios":"levelo://app?vid=f322ca8a-b5f6-42b1-996f-3c1d56bf66ab"},"vehicle_type_id":"4","last_reported":1768238150,"current_range_meters":8400,"station_id":"ce4bhg12rcd13ifvqf70","pricing_plan_id":"cebpf4jnsgd1na2vs0mg"},{"bike_id":"920cda1b-45f7-4913-9f10-496985005c9e","system_id":"levelo_inurba_marseille","lat":43.23779,"lon":5.36634,"is_reserved":false,"is_disabled":false,"rental_uris":{"android":"levelo://app?vid=920cda1b-45f7-4913-9f10-496985005c9e","ios":"levelo://app?vid=920cda1b-45f7-4913-9f10-496985005c9e"},"vehicle_type_id":"4","last_reported":1768238150,"current_range_meters":8400,"station_id":"st_d3nk18o9ro0c73en2l3g","pricing_plan_id":"cebpf4jnsgd1na2vs0mg"},{"bike_id":"85dc30e9-122a-4cdf-a7a9-e5c091d1a4da","system_id":"levelo_inurba_marseille","lat":43.31368,"lon":5.38498,"is_reserved":false,"is_disabled":false,"rental_uris":{"android":"levelo://app?vid=85dc30e9-122a-4cdf-a7a9-e5c091d1a4da","ios":"levelo://app?vid=85dc30e9-122a-4cdf-a7a9-e5c091d1a4da"},"vehicle_type_id":"4","last_reported":1768238150,"current_range_meters":8400,"station_id":"ce4bgt92rcd13ifvqcf0","pricing_plan_id":"cebpf4jnsgd1na2vs0mg"},{"bike_id":"c2362adc-4f3d-470e-807c-33572afc774c","system_id":"levelo_inurba_marseille","lat":43.26557,"lon":5.39012,"is_reserved":false,"is_disabled":false,"rental_uris":{"android":"levelo://app?vid=c2362adc-4f3d-470e-807c-33572afc774c","ios":"levelo://app?vid=c2362adc-4f3d-470e-807c-33572afc774c"},"vehicle_type_id":"4","last_reported":1768238150,"current_range_meters":8400,"station_id":"ce4bhe12rcd13ifvqf30","pricing_plan_id":"cebpf4jnsgd1na2vs0mg"},{"bike_id":"73159171-0e70-4889-87e6-07eac0d40625","system_id":"levelo_inurba_marseille","lat":43.22571,"lon":5.41627,"is_reserved":false,"is_disabled":false,"rental_uris":{"android":"levelo://app?vid=73159171-0e70-4889-87e6-07eac0d40625","ios":"levelo://app?vid=73159171-0e70-4889-87e6-07eac0d40625"},"vehicle_type_id":"4","last_reported":1768238150,"current_range_meters":8400,"station_id":"st_d2o4gvlbi1j2169b742g","pricing_plan_id":"cebpf4jnsgd1na2vs0mg"},{"bike_id":"573219be-8449-4b0b-914b-5825e3035243","system_id":"levelo_inurba_marseille","lat":43.2317,"lon":5.35606,"is_reserved":false,"is_disabled":false,"rental_uris":{"android":"levelo://app?vid=573219be-8449-4b0b-914b-5825e3035243","ios":"levelo://app?vid=573219be-8449-4b0b-914b-5825e3035243"},"vehicle_type_id":"4","last_reported":1768238150,"current_range_meters":8400,"station_id":"ce4bhu92rcd13ifvqi70","pricing_plan_id":"cebpf4jnsgd1na2vs0mg"},{"bike_id":"d7b99653-e383-4bf8-918a-0e39184ba770","system_id":"levelo_inurba_marseille","lat":43.24072,"lon":5.37753,"is_reserved":false,"is_disabled":false,"rental_uris":{"android":"levelo://app?vid=d7b99653-e383-4bf8-918a-0e39184ba770","ios":"levelo://app?vid=d7b99653-e383-4bf8-918a-0e39184ba770"},"vehicle_type_id":"4","last_reported":1768238150,"current_range_meters":8800,"station_id":"ce4bhnp2rcd13ifvqgvg","pricing_plan_id":"cebpf4jnsgd1na2vs0mg"},{"bike_id":"a27f6a61-689d-49de-951e-01c7ddaa0581","system_id":"levelo_inurba_marseille","lat":43.2417,"lon":5.36399,"is_reserved":false,"is_disabled":false,"rental_uris":{"android":"levelo://app?vid=a27f6a61-689d-49de-951e-01c7ddaa0581","ios":"levelo://app?vid=a27f6a61-689d-49de-951e-01c7ddaa0581"},"vehicle_type_id":"4","last_reported":1768238150,"current_range_meters":8800,"station_id":"cpo36qri1sfpv3e86is0","pricing_plan_id":"cebpf4jnsgd1na2vs0mg"},{"bike_id":"47fa8c07-02d3-44db-8c89-106a6ddb4f66","system_id":"levelo_inurba_marseille","lat":43.2954,"lon":5.3854,"is_reserved":false,"is_disabled":false,"rental_uris":{"android":"levelo://app?vid=47fa8c07-02d3-44db-8c89-106a6ddb4f66","ios":"levelo://app?vid=47fa8c07-02d3-44db-8c89-106a6ddb4f66"},"vehicle_type_id":"4","last_reported":1768238150,"current_range_meters":8800,"station_id":"ce4bgih2rcd13ifvqba0","pricing_plan_id":"cebpf4jnsgd1na2vs0mg"},{"bike_id":"352ae303-9d87-4f8e-8c35-16aa74e06489","system_id":"levelo_inurba_marseille","lat":43.24389,"lon":5.37057,"is_reserved":false,"is_disabled":false,"rental_uris":{"android":"levelo://app?vid=352ae303-9d87-4f8e-8c35-16aa74e06489","ios":"levelo://app?vid=352ae303-9d87-4f8e-8c35-16aa74e06489"},