{"last_updated":1745421043,"ttl":60,"version":"2.2","data":{"bikes":[{"bike_id":"1b3c8bfe-d6a3-40e0-89bc-3d79f0b08cad","system_id":"levelo_inurba_marseille","lat":43.25124,"lon":5.40313,"is_reserved":false,"is_disabled":false,"rental_uris":{"android":"levelo://app?vid=1b3c8bfe-d6a3-40e0-89bc-3d79f0b08cad","ios":"levelo://app?vid=1b3c8bfe-d6a3-40e0-89bc-3d79f0b08cad"},"vehicle_type_id":"4","last_reported":1745421043,"current_range_meters":2000,"station_id":"ce4bhlh2rcd13ifvqgig","pricing_plan_id":"cebpf4jnsgd1na2vs0mg"},{"bike_id":"03bbc5db-7780-4675-a80f-8f0f510ae625","system_id":"levelo_inurba_marseille","lat":43.279938,"lon":5.400093,"is_reserved":false,"is_disabled":false,"rental_uris":{"android":"levelo://app?vid=03bbc5db-7780-4675-a80f-8f0f510ae625","ios":"levelo://app?vid=03bbc5db-7780-4675-a80f-8f0f510ae625"},"vehicle_type_id":"4","last_reported":1745421043,"current_range_meters":2800,"station_id":"ce4bho92rcd13ifvqh4g","pricing_plan_id":"cebpf4jnsgd1na2vs0mg"},{"bike_id":"c1a2d8f1-cdfc-440b-a6e7-99a0cf0f1c0f","system_id":"levelo_inurba_marseille","lat":43.29532,"lon":5.38542,"is_reserved":false,"is_disabled":false,"rental_uris":{"android":"levelo://app?vid=c1a2d8f1-cdfc-440b-a6e7-99a0cf0f1c0f","ios":"levelo://app?vid=c1a2d8f1-cdfc-440b-a6e7-99a0cf0f1c0f"},"vehicle_type_id":"4","last_reported":1745421043,"current_range_meters":2800,"station_id":"ce4bgih2rcd13ifvqba0","pricing_plan_id":"cebpf4jnsgd1na2vs0mg"},{"bike_id":"93235d3d-790a-473b-8cab-8698f7ed7407","system_id":"levelo_inurba_marseille","lat":43.273737,"lon":5.362497,"is_reserved":false,"is_disabled":false,"rental_uris":{"android":"levelo://app?vid=93235d3d-790a-473b-8cab-8698f7ed7407","ios":"levelo://app?vid=93235d3d-790a-473b-8cab-8698f7ed7407"},"vehicle_type_id":"4","last_reported":1745421043,"current_range_meters":2800,"station_id":"ce4bhbh2rcd13ifvqeo0","pricing_plan_id":"cebpf4jnsgd1na2vs0mg"},{"bike_id":"80215186-b951-43fe-b01d-13e4b036f8c9","system_id":"levelo_inurba_marseille","lat":43.29417,"lon":5.38623,"is_reserved":false,"is_disabled":false,"rental_uris":{"android":"levelo://app?vid=80215186-b951-43fe-b01d-13e4b036f8c9","ios":"levelo://app?vid=80215186-b951-43fe-b01d-13e4b036f8c9"},"vehicle_type_id":"4","last_reported":1745421043,"current_range_meters":2800,"station_id":"ce4bh2h2rcd13ifvqdh0","pricing_plan_id":"cebpf4jnsgd1na2vs0mg"},{"bike_id":"d254fcd6-a991-4ad7-a69b-1cdbb691e877","system_id":"levelo_inurba_marseille","lat":43.26935,"lon":5.38922,"is_reserved":false,"is_disabled":false,"rental_uris":{"android":"levelo://app?vid=d254fcd6-a991-4ad7-a69b-1cdbb691e877","ios":"levelo://app?vid=d254fcd6-a991-4ad7-a69b-1cdbb691e877"},"vehicle_type_id":"4","last_reported":1745421043,"current_range_meters":2800,"station_id":"ce4bhhh2rcd13ifvqfl0","pricing_plan_id":"cebpf4jnsgd1na2vs0mg"},{"bike_id":"132faebb-77b0-44aa-b1e8-0d8840f671a2","system_id":"levelo_inurba_marseille","lat":43.30212,"lon":5.39475,"is_reserved":false,"is_disabled":false,"rental_uris":{"android":"levelo://app?vid=132faebb-77b0-44aa-b1e8-0d8840f671a2","ios":"levelo://app?vid=132faebb-77b0-44aa-b1e8-0d8840f671a2"},"vehicle_type_id":"4","last_reported":1745421043,"current_range_meters":2800,"station_id":"ce4bh0p2rcd13ifvqd70","pricing_plan_id":"cebpf4jnsgd1na2vs0mg"},{"bike_id":"ba82c17c-bbff-4895-babc-0bb8b0060d6c","system_id":"levelo_inurba_marseille","lat":43.29597,"lon":5.38102,"is_reserved":false,"is_disabled":false,"rental_uris":{"android":"levelo://app?vid=ba82c17c-bbff-4895-babc-0bb8b0060d6c","ios":"levelo://app?vid=ba82c17c-bbff-4895-babc-0bb8b0060d6c"},"vehicle_type_id":"4","last_reported":1745421043,"current_range_meters":2800,"station_id":"ce4bgl12rcd13ifvqbo0","pricing_plan_id":"cebpf4jnsgd1na2vs0mg"},{"bike_id":"342e38da-db39-4a8e-b843-7bd1c94ed5ad","system_id":"levelo_inurba_marseille","lat":43.28409,"lon":5.37509,"is_reserved":false,"is_disabled":false,"rental_uris":{"android":"levelo://app?vid=342e38da-db39-4a8e-b843-7bd1c94ed5ad","ios":"levelo://app?vid=342e38da-db39-4a8e-b843-7bd1c94ed5ad"},"vehicle_type_id":"4","last_reported":1745421043,"current_range_meters":3200,"station_id":"ce4bh412rcd13ifvqds0","pricing_plan_id":"cebpf4jnsgd1na2vs0mg"},{"bike_id":"7bd00d87-2782-420d-a15c-1eadd7ee7e4f","system_id":"levelo_inurba_marseille","lat":43.24949,"lon":5.3909,"is_reserved":false,"is_disabled":false,"rental_uris":{"android":"levelo://app?vid=7bd00d87-2782-420d-a15c-1eadd7ee7e4f","ios":"levelo://app?vid=7bd00d87-2782-420d-a15c-1eadd7ee7e4f"},"vehicle_type_id":"4","last_reported":1745421043,"current_range_meters":3200,"station_id":"","pricing_plan_id":"cebpf4jnsgd1na2vs0mg"},{"bike_id":"1a51ffb1-9a79-4bec-9ba5-e3a8a916919c","system_id":"levelo_inurba_marseille","lat":43.283478,"lon":5.381011,"is_reserved":false,"is_disabled":true,"rental_uris":{"android":"levelo://app?vid=1a51ffb1-9a79-4bec-9ba5-e3a8a916919c","ios":"levelo://app?vid=1a51ffb1-9a79-4bec-9ba5-e3a8a916919c"},"vehicle_type_id":"4","last_reported":1745421043,"current_range_meters":3600,"station_id":"ce4bh512rcd13ifvqe3g","pricing_plan_id":"cebpf4jnsgd1na2vs0mg"},{"bike_id":"74b5ba74-17a7-47e8-a0ed-9452c358f120","system_id":"levelo_inurba_marseille","lat":43.28939,"lon":5.36403,"is_reserved":false,"is_disabled":false,"rental_uris":{"android":"levelo://app?vid=74b5ba74-17a7-47e8-a0ed-9452c358f120","ios":"levelo://app?vid=74b5ba74-17a7-47e8-a0ed-9452c358f120"},"vehicle_type_id":"4","last_reported":1745421043,"current_range_meters":3600,"station_id":"ce4bhc92rcd13ifvqetg","pricing_plan_id":"cebpf4jnsgd1na2vs0mg"},{"bike_id":"b6a102bd-fd6e-4437-9af6-dba02f365db5","system_id":"levelo_inurba_marseille","lat":43.29892,"lon":5.43615,"is_reserved":false,"is_disabled":false,"rental_uris":{"android":"levelo://app?vid=b6a102bd-fd6e-4437-9af6-dba02f365db5","ios":"levelo://app?vid=b6a102bd-fd6e-4437-9af6-dba02f365db5"},"vehicle_type_id":"4","last_reported":1745421043,"current_range_meters":3600,"station_id":"ce4bhpp2rcd13ifvqhfg","pricing_plan_id":"cebpf4jnsgd1na2vs0mg"},{"bike_id":"fabd5186-6be3-4906-8614-149326f6d4c3","system_id":"levelo_inurba_marseille","lat":43.29924,"lon":5.37474,"is_reserved":false,"is_disabled":false,"rental_uris":{"android":"levelo://app?vid=fabd5186-6be3-4906-8614-149326f6d4c3","ios":"levelo://app?vid=fabd5186-6be3-4906-8614-149326f6d4c3"},"vehicle_type_id":"4","last_reported":1745421043,"current_range_meters":1200,"station_id":"ce4bgjh2rcd13ifvqbg0","pricing_plan_id":"cebpf4jnsgd1na2vs0mg"},{"bike_id":"b41b629b-77de-4cf5-933e-0d93fc0c7949","system_id":"levelo_inurba_marseille","lat":43.29472,"lon":5.39061,"is_reserved":false,"is_disabled":false,"rental_uris":{"android":"levelo://app?vid=b41b629b-77de-4cf5-933e-0d93fc0c7949","ios":"levelo://app?vid=b41b629b-77de-4cf5-933e-0d93fc0c7949"},"vehicle_type_id":"4","last_reported":1745421043,"current_range_meters":3600,"station_id":"","pricing_plan_id":"cebpf4jnsgd1na2vs0mg"},{"bike_id":"86ef9aa8-53f4-42af-aea5-9384b33dac8b","system_id":"levelo_inurba_marseille","lat":43.23148,"lon":5.43726,"is_reserved":false,"is_disabled":false,"rental_uris":{"android":"levelo://app?vid=86ef9aa8-53f4-42af-aea5-9384b33dac8b","ios":"levelo://app?vid=86ef9aa8-53f4-42af-aea5-9384b33dac8b"},"vehicle_type_id":"4","last_reported":1745421043,"current_range_meters":4000,"station_id":"ce4bhmp2rcd13ifvqgog","pricing_plan_id":"cebpf4jnsgd1na2vs0mg"},{"bike_id":"d69b4840-a48c-46aa-8de4-1073f19f4178","system_id":"levelo_inurba_marseille","lat":43.282593,"lon":5.350536,"is_reserved":false,"is_disabled":true,"rental_uris":{"android":"levelo://app?vid=d69b4840-a48c-46aa-8de4-1073f19f4178","ios":"levelo://app?vid=d69b4840-a48c-46aa-8de4-1073f19f4178"},"vehicle_type_id":"4","last_reported":1745421043,"current_range_meters":4000,"station_id":"ce4bhbp2rcd13ifvqerg","pricing_plan_id":"cebpf4jnsgd1na2vs0mg"},{"bike_id":"72537a3e-12fb-4a14-b50d-f5f0fd09a404","system_id":"levelo_inurba_marseille","lat":43.2869,"lon":5.3999,"is_reserved":false,"is_disabled":false,"rental_uris":{"android":"levelo://app?vid=72537a3e-12fb-4a14-b50d-f5f0fd09a404","ios":"levelo://app?vid=72537a3e-12fb-4a14-b50d-f5f0fd09a404"},"vehicle_type_id":"4","last_reported":1745421043,"current_range_meters":6000,"station_id":"ce4bho92rcd13ifvqh3g","pricing_plan_id":"cebpf4jnsgd1na2vs0mg"},{"bike_id":"fe756714-03e1-4f44-9ba5-cef6a160a291","system_id":"levelo_inurba_marseille","lat":43.286072,"lon":5.351068,"is_reserved":false,"is_disabled":false,"rental_uris":{"android":"levelo://app?vid=fe756714-03e1-4f44-9ba5-cef6a160a291","ios":"levelo://app?vid=fe756714-03e1-4f44-9ba5-cef6a160a291"},"vehicle_type_id":"4","last_reported":1745421043,"current_range_meters":4400,"station_id":"ce4bhch2rcd13ifvqeug","pricing_plan_id":"cebpf4jnsgd1na2vs0mg"},{"bike_id":"49f073ab-4e4e-4faf-afa7-592d74656b51","system_id":"levelo_inurba_marseille","lat":43.27176,"lon":5.40995,"is_reserved":false,"is_disabled":false,"rental_uris":{"android":"levelo://app?vid=49f073ab-4e4e-4faf-afa7-592d74656b51","ios":"levelo://app?vid=49f073ab-4e4e-4faf-afa7-592d74656b51"},"vehicle_type_id":"4","last_reported":1745421043,"current_range_meters":4400,"station_id":"ce4bhl12rcd13ifvqgf0","pricing_plan_id":"cebpf4jnsgd1na2vs0mg"},{"bike_id":"142a7643-5c69-4da6-a786-0b1e5fca2a23","system_id":"levelo_inurba_marseille","lat":43.27951,"lon":5.38715,"is_reserved":false,"is_disabled":false,"rental_uris":{"android":"levelo://app?vid=142a7643-5c69-4da6-a786-0b1e5fca2a23","ios":"levelo://app?vid=142a7643-5c69-4da6-a786-0b1e5fca2a23"},"vehicle_type_id":"4","last_reported":1745421043,"current_range_meters":5600,"station_id":"ce4bhg12rcd13ifvqf80","pricing_plan_id":"cebpf4jnsgd1na2vs0mg"},{"bike_id":"dfc84df2-6e62-47d5-a8b6-2af656a1a07e","system_id":"levelo_inurba_marseille","lat":43.31731,"lon":5.40446,"is_reserved":false,"is_disabled":false,"rental_uris":{"android":"levelo://app?vid=dfc84df2-6e62-47d5-a8b6-2af656a1a07e","ios":"levelo://app?vid=dfc84df2-6e62-47d5-a8b6-2af656a1a07e"},"vehicle_type_id":"4","last_reported":1745421043,"current_range_meters":5600,"station_id":"","pricing_plan_id":"cebpf4jnsgd1na2vs0mg"},{"bike_id":"4f9a499f-b3c3-4e35-a9e0-fd0e23e53b05","system_id":"levelo_inurba_marseille","lat":43.29524,"lon":5.39048,"is_reserved":false,"is_disabled":false,"rental_uris":{"android":"levelo://app?vid=4f9a499f-b3c3-4e35-a9e0-fd0e23e53b05","ios":"levelo://app?vid=4f9a499f-b3c3-4e35-a9e0-fd0e23e53b05"},"vehicle_type_id":"4","last_reported":1745421043,"current_range_meters":4000,"station_id":"ce4bh3p2rcd13ifvqdp0","pricing_plan_id":"cebpf4jnsgd1na2vs0mg"},{"bike_id":"8bece3fd-c532-4034-b213-0c81aa5831b8","system_id":"levelo_inurba_marseille","lat":43.2561,"lon":5.38209,"is_reserved":false,"is_disabled":false,"rental_uris":{"android":"levelo://app?vid=8bece3fd-c532-4034-b213-0c81aa5831b8","ios":"levelo://app?vid=8bece3fd-c532-4034-b213-0c81aa5831b8"},"vehicle_type_id":"4","last_reported":1745421043,"current_range_meters":6000,"station_id":"ce4bhih2rcd13ifvqfs0","pricing_plan_id":"cebpf4jnsgd1na2vs0mg"},{"bike_id":"aa5efdd2-a92f-41d3-8412-95125db59336","system_id":"levelo_inurba_marseille","lat":43.29677,"lon":5.37305,"is_reserved":false,"is_disabled":false,"rental_uris":{"android":"levelo://app?vid=aa5efdd2-a92f-41d3-8412-95125db59336","ios":"levelo://app?vid=aa5efdd2-a92f-41d3-8412-95125db59336"},"vehicle_type_id":"4","last_reported":1745421043,"current_range_meters":6000,"station_id":"ce4bgk12rcd13ifvqbj0","pricing_plan_id":"cebpf4jnsgd1na2vs0mg"},{"bike_id":"f5701052-e589-4724-a953-94accf6600cc","system_id":"levelo_inurba_marseille","lat":43.284054,"lon":5.375045,"is_reserved":false,"is_disabled":false,"rental_uris":{"android":"levelo://app?vid=f5701052-e589-4724-a953-94accf6600cc","ios":"levelo://app?vid=f5701052-e589-4724-a953-94accf6600cc"},"vehicle_type_id":"4","last_reported":1745421043,"current_range_meters":6400,"station_id":"ce4bh412rcd13ifvqds0","pricing_plan_id":"cebpf4jnsgd1na2vs0mg"},{"bike_id":"a8f1f804-0188-4fcf-b0b5-6e9ac4d0149a","system_id":"levelo_inurba_marseille","lat":43.297028,"lon":5.36605,"is_reserved":false,"is_disabled":true,"rental_uris":{"android":"levelo://app?vid=a8f1f804-0188-4fcf-b0b5-6e9ac4d0149a","ios":"levelo://app?vid=a8f1f804-0188-4fcf-b0b5-6e9ac4d0149a"},"vehicle_type_id":"4","last_reported":1745421043,"current_range_meters":6000,"station_id":"ce4bgn12rcd13ifvqbt0","pricing_plan_id":"cebpf4jnsgd1na2vs0mg"},{"bike_id":"79d18096-a110-471a-b556-3d90b6e2f69e","system_id":"levelo_inurba_marseille","lat":43.29963,"lon":5.38502,"is_reserved":false,"is_disabled":false,"rental_uris":{"android":"levelo://app?vid=79d18096-a110-471a-b556-3d90b6e2f69e","ios":"levelo://app?vid=79d18096-a110-471a-b556-3d90b6e2f69e"},"vehicle_type_id":"4","last_reported":1745421043,"current_range_meters":0,"station_id":"ce4bgj92rcd13ifvqbd0","pricing_plan_id":"cebpf4jnsgd1na2vs0mg"},{"bike_id":"53e76e69-542e-498c-be3c-54ee74e28889","system_id":"levelo_inurba_marseille","lat":43.29697,"lon":5.36593,"is_reserved":false,"is_disabled":true,"rental_uris":{"android":"levelo://app?vid=53e76e69-542e-498c-be3c-54ee74e28889","ios":"levelo://app?vid=53e76e69-542e-498c-be3c-54ee74e28889"},"vehicle_type_id":"4","last_reported":1745421043,"current_range_meters":6400,"station_id":"ce4bgn12rcd13ifvqbt0","pricing_plan_id":"cebpf4jnsgd1na2vs0mg"},{"bike_id":"f9019b7d-8f94-4fdb-bfa4-88811f4c60a2","system_id":"levelo_inurba_marseille","lat":43.30412,"lon":5.41279,"is_reserved":false,"is_disabled":false,"rental_uris":{"android":"levelo://app?vid=f9019b7d-8f94-4fdb-bfa4-88811f4c60a2","ios":"levelo://app?vid=f9019b7d-8f94-4fdb-bfa4-88811f4c60a2"},"vehicle_type_id":"4","last_reported":1745421043,"current_range_meters":6800,"station_id":"ce4bhop2rcd13ifvqh8g","pricing_plan_id":"cebpf4jnsgd1na2vs0mg"},{"bike_id":"01638592-142a-453d-a6e7-370e604fb726","system_id":"levelo_inurba_marseille","lat":43.31701,"lon":5.40464,"is_reserved":false,"is_disabled":false,"rental_uris":{"android":"levelo://app?vid=01638592-142a-453d-a6e7-370e604fb726","ios":"levelo://app?vid=01638592-142a-453d-a6e7-370e604fb726"},"vehicle_type_id":"4","last_reported":1745421043,"current_range_meters":8000,"station_id":"ce4bh012rcd13ifvqd00","pricing_plan_id":"cebpf4jnsgd1na2vs0mg"},{"bike_id":"b4204204-0ae7-4309-80e4-fc7c8744680d","system_id":"levelo_inurba_marseille","lat":43.31991,"lon":5.38155,"is_reserved":false,"is_disabled":false,"rental_uris":{"android":"levelo://app?vid=b4204204-0ae7-4309-80e4-fc7c8744680d","ios":"levelo://app?vid=b4204204-0ae7-4309-80e4-fc7c8744680d"},"vehicle_type_id":"4","last_reported":1745421043,"current_range_meters":6800,"station_id":"ce4bhr12rcd13ifvqhpg","pricing_plan_id":"cebpf4jnsgd1na2vs0mg"},{"bike_id":"a7e11a58-8aa8-40d7-b8b7-8489fcc6ed04","system_id":"levelo_inurba_marseille","lat":43.28563,"lon":5.39506,"is_reserved":false,"is_disabled":false,"rental_uris":{"android":"levelo://app?vid=a7e11a58-8aa8-40d7-b8b7-8489fcc6ed04","ios":"levelo://app?vid=a7e11a58-8aa8-40d7-b8b7-8489fcc6ed04"},"vehicle_type_id":"4","last_reported":1745421043,"current_range_meters":6800,"station_id":"ce4bh292rcd13ifvqdg0","pricing_plan_id":"cebpf4jnsgd1na2vs0mg"},{"bike_id":"8d2789be-d356-436f-bee5-111c80e6604e","system_id":"levelo_inurba_marseille","lat":43.24165,"lon":5.36396,"is_reserved":false,"is_disabled":false,"rental_uris":{"android":"levelo://app?vid=8d2789be-d356-436f-bee5-111c80e6604e","ios":"levelo://app?vid=8d2789be-d356-436f-bee5-111c80e6604e"},"vehicle_type_id":"4","last_reported":1745421043,"current_range_meters":6800,"station_id":"cpo36qri1sfpv3e86is0","pricing_plan_id":"cebpf4jnsgd1na2vs0mg"},{"bike_id":"6580fd8d-b1e9-450f-8b1c-1657025a09fc","system_id":"levelo_inurba_marseille","lat":43.29044,"lon":5.39942,"is_reserved":false,"is_disabled":false,"rental_uris":{"android":"levelo://app?vid=6580fd8d-b1e9-450f-8b1c-1657025a09fc","ios":"levelo://app?vid=6580fd8d-b1e9-450f-8b1c-1657025a09fc"},"vehicle_type_id":"4","last_reported":1745421043,"current_range_meters":6400,"station_id":"ce4bhnh2rcd13ifvqgug","pricing_plan_id":"cebpf4jnsgd1na2vs0mg"},{"bike_id":"d0070e43-5fe5-4a86-8f5e-bebd54b287e7","system_id":"levelo_inurba_marseille","lat":43.32285,"lon":5.38278,"is_reserved":false,"is_disabled":false,"rental_uris":{"android":"levelo://app?vid=d0070e43-5fe5-4a86-8f5e-bebd54b287e7","ios":"levelo://app?vid=d0070e43-5fe5-4a86-8f5e-bebd54b287e7"},"vehicle_type_id":"4","last_reported":1745421043,"current_range_meters":2000,"station_id":"ce4bhr12rcd13ifvqhqg","pricing_plan_id":"cebpf4jnsgd1na2vs0mg"},{"bike_id":"c94e26c1-7575-4802-86ec-0bd6f82482cc","system_id":"levelo_inurba_marseille","lat":43.28606,"lon":5.37143,"is_reserved":false,"is_disabled":false,"rental_uris":{"android":"levelo://app?vid=c94e26c1-7575-4802-86ec-0bd6f82482cc","ios":"levelo://app?vid=c94e26c1-7575-4802-86ec-0bd6f82482cc"},"vehicle_type_id":"4","last_reported":1745421043,"current_range_meters":7200,"station_id":"ce4bht12rcd13ifvqi60","pricing_plan_id":"cebpf4jnsgd1na2vs0mg"},{"bike_id":"b8e83b05-c6d6-414b-9fc1-e12de83f0899","system_id":"levelo_inurba_marseille","lat":43.23964,"lon":5.36626,"is_reserved":false,"is_disabled":false,"rental_uris":{"android":"levelo://app?vid=b8e83b05-c6d6-414b-9fc1-e12de83f0899","ios":"levelo://app?vid=b8e83b05-c6d6-414b-9fc1-e12de83f0899"},"vehicle_type_id":"4","last_reported":1745421043,"current_range_meters":7200,"station_id":"ce4bhi12rcd13ifvqfp0","pricing_plan_id":"cebpf4jnsgd1na2vs0mg"},{"bike_id":"e88ac0aa-172e-418f-9134-2e3c247b5863","system_id":"levelo_inurba_marseille","lat":43.23972,"lon":5.3662,"is_reserved":false,"is_disabled":false,"rental_uris":{"android":"levelo://app?vid=e88ac0aa-172e-418f-9134-2e3c247b5863","ios":"levelo://app?vid=e88ac0aa-172e-418f-9134-2e3c247b5863"},"vehicle_type_id":"4","last_reported":1745421043,"current_range_meters":7200,"station_id":"ce4bhi12rcd13ifvqfp0","pricing_plan_id":"cebpf4jnsgd1na2vs0mg"},{"bike_id":"8d3d203c-c49c-4deb-a007-2f93fb4b57dd","system_id":"levelo_inurba_marseille","lat":43.29906,"lon":5.43664,"is_reserved":false,"is_disabled":false,"rental_uris":{"android":"levelo://app?vid=8d3d203c-c49c-4deb-a007-2f93fb4b57dd","ios":"levelo://app?vid=8d3d203c-c49c-4deb-a007-2f93fb4b57dd"},"vehicle_type_id":"4","last_reported":1745421043,"current_range_meters":7200,"station_id":"ce4bhpp2rcd13ifvqhfg","pricing_plan_id":"cebpf4jnsgd1na2vs0mg"},{"bike_id":"51acf6c4-373e-4e95-95a1-cc88813eeeef","system_id":"levelo_inurba_marseille","lat":43.27394,"lon":5.36298,"is_reserved":false,"is_disabled":false,"rental_uris":{"android":"levelo://app?vid=51acf6c4-373e-4e95-95a1-cc88813eeeef","ios":"levelo://app?vid=51acf6c4-373e-4e95-95a1-cc88813eeeef"},"vehicle_type_id":"4","last_reported":1745421043,"current_range_meters":7200,"station_id":"ce4bhbh2rcd13ifvqeo0","pricing_plan_id":"cebpf4jnsgd1na2vs0mg"},{"bike_id":"c021581f-5b40-4006-9a24-ec939068b91f","system_id":"levelo_inurba_marseille","lat":43.25112,"lon":5.4032,"is_reserved":false,"is_disabled":false,"rental_uris":{"android":"levelo://app?vid=c021581f-5b40-4006-9a24-ec939068b91f","ios":"levelo://app?vid=c021581f-5b40-4006-9a24-ec939068b91f"},"vehicle_type_id":"4","last_reported":1745421043,"current_range_meters":7200,"station_id":"ce4bhlh2rcd13ifvqgig","pricing_plan_id":"cebpf4jnsgd1na2vs0mg"},{"bike_id":"49f26039-908e-49e8-bafd-d0e1f8c74636","system_id":"levelo_inurba_marseille","lat":43.29654,"lon":5.37946,"is_reserved":false,"is_disabled":false,"rental_uris":{"android":"levelo://app?vid=49f26039-908e-49e8-bafd-d0e1f8c74636","ios":"levelo://app?vid=49f26039-908e-49e8-bafd-d0e1f8c74636"},"vehicle_type_id":"4","last_reported":1745421043,"current_range_meters":7200,"station_id":"","pricing_plan_id":"cebpf4jnsgd1na2vs0mg"},{"bike_id":"85272d64-de65-4492-ab81-cb09eacf4ec6","system_id":"levelo_inurba_marseille","lat":43.28413,"lon":5.37507,"is_reserved":false,"is_disabled":false,"rental_uris":{"android":"levelo://app?vid=85272d64-de65-4492-ab81-cb09eacf4ec6","ios":"levelo://app?vid=85272d64-de65-4492-ab81-cb09eacf4ec6"},"vehicle_type_id":"4","last_reported":1745421043,"current_range_meters":7200,"station_id":"ce4bh412rcd13ifvqds0","pricing_plan_id":"cebpf4jnsgd1na2vs0mg"},{"bike_id":"b9e5ec02-eb39-46bd-8ee1-524ec185bca2","system_id":"levelo_inurba_marseille","lat":43.32338,"lon":5.40607,"is_reserved":false,"is_disabled":false,"rental_uris":{"android":"levelo://app?vid=b9e5ec02-eb39-46bd-8ee1-524ec185bca2","ios":"levelo://app?vid=b9e5ec02-eb39-46bd-8ee1-524ec185bca2"},"vehicle_type_id":"4","last_reported":1745421043,"current_range_meters":8000,"station_id":"ce4bhq92rcd13ifvqhjg","pricing_plan_id":"cebpf4jnsgd1na2vs0mg"},{"bike_id":"6ac611be-fa2e-4c81-a0a1-f825b8d54730","system_id":"levelo_inurba_marseille","lat":43.23062,"lon":5.35496,"is_reserved":false,"is_disabled":false,"rental_uris":{"android":"levelo://app?vid=6ac611be-fa2e-4c81-a0a1-f825b8d54730","ios":"levelo://app?vid=6ac611be-fa2e-4c81-a0a1-f825b8d54730"},"vehicle_type_id":"4","last_reported":1745421043,"current_range_meters":8000,"station_id":"cpo3342slgdg3j2ifvpg","pricing_plan_id":"cebpf4jnsgd1na2vs0mg"},{"bike_id":"203edac6-808a-418e-a924-a5a89c94880e","system_id":"levelo_inurba_marseille","lat":43.28134,"lon":5.378632,"is_reserved":false,"is_disabled":false,"rental_uris":{"android":"levelo://app?vid=203edac6-808a-418e-a924-a5a89c94880e","ios":"levelo://app?vid=203edac6-808a-418e-a924-a5a89c94880e"},"vehicle_type_id":"4","last_reported":1745421043,"current_range_meters":8400,"station_id":"ce4bha12rcd13ifvqee0","pricing_plan_id":"cebpf4jnsgd1na2vs0mg"},{"bike_id":"88b5abd1-2f9c-4bf8-95d7-e52673b6561e","system_id":"levelo_inurba_marseille","lat":43.25088,"lon":5.39523,"is_reserved":false,"is_disabled":false,"rental_uris":{"android":"levelo://app?vid=88b5abd1-2f9c-4bf8-95d7-e52673b6561e","ios":"levelo://app?vid=88b5abd1-2f9c-4bf8-95d7-e52673b6561e"},"vehicle_type_id":"4","last_reported":1745421043,"current_range_meters":8400,"station_id":"ce4bhm12rcd13ifvqgkg","pricing_plan_id":"cebpf4jnsgd1na2vs0mg"},{"bike_id":"610a3e5d-c19b-422c-8dcf-c5eb1d7b082b","system_id":"levelo_inurba_marseille","lat":43.28409,"lon":5.37537,"is_reserved":false,"is_disabled":false,"rental_uris":{"android":"levelo://app?vid=610a3e5d-c19b-422c-8dcf-c5eb1d7b082b","ios":"levelo://app?vid=610a3e5d-c19b-422c-8dcf-c5eb1d7b082b"},"vehicle_type_id":"4","last_reported":1745421043,"current_range_meters":8400,"station_id":"ce4bh412rcd13ifvqds0","pricing_plan_id":"cebpf4jnsgd1na2vs0mg"},{"bike_id":"b07428d7-6103-4f44-a2dc-a779a62cb8d0","system_id":"levelo_inurba_marseille","lat":43.2757,"lon":5.38428,"is_reserved":false,"is_disabled":false,"rental_uris":{"android":"levelo://app?vid=b07428d7-6103-4f44-a2dc-a779a62cb8d0","ios":"levelo://app?vid=b07428d7-6103-4f44-a2dc-a779a62cb8d0"},"vehicle_type_id":"4","last_reported":1745421043,"current_range_meters":8400,"station_id":"ce4bhh92rcd13ifvqfi0","pricing_plan_id":"cebpf4jnsgd1na2vs0mg"},{"bike_id":"1b18c42e-a58f-4366-be3f-280b31d3078c","system_id":"levelo_inurba_marseille","lat":43.28268,"lon":5.35044,"is_reserved":false,"is_disabled":false,"rental_uris":{"android":"levelo://app?vid=1b18c42e-a58f-4366-be3f-280b31d3078c","ios":"levelo://app?vid=1b18c42e-a58f-4366-be3f-280b31d3078c"},"vehicle_type_id":"4","last_reported":1745421043,"current_range_meters":8400,"station_id":"ce4bhbp2rcd13ifvqerg","pricing_plan_id":"cebpf4jnsgd1na2vs0mg"},{"bike_id":"0d3b209b-2a46-4c1d-aa6c-776ae006ba7c","system_id":"levelo_inurba_marseille","lat":43.28373,"lon":5.38636,"is_reserved":false,"is_disabled":false,"rental_uris":{"android":"levelo://app?vid=0d3b209b-2a46-4c1d-aa6c-776ae006ba7c","ios":"levelo://app?vid=0d3b209b-2a46-4c1d-aa6c-776ae006ba7c"},"vehicle_type_id":"4","last_reported":1745421043,"current_range_meters":8400,"station_id":"ce4bh492rcd13ifvqdvg","pricing_plan_id":"cebpf4jnsgd1na2vs0mg"},{"bike_id":"4058dd94-1e03-4d3d-be78-a04dc77b88f2","system_id":"levelo_inurba_marseille","lat":43.29929,"lon":5.36529,"is_reserved":false,"is_disabled":false,"rental_uris":{"android":"levelo://app?vid=4058dd94-1e03-4d3d-be78-a04dc77b88f2","ios":"levelo://app?vid=4058dd94-1e03-4d3d-be78-a04dc77b88f2"},"vehicle_type_id":"4","last_reported":1745421043,"current_range_meters":8800,"station_id":"ce4bgm92rcd13ifvqbr0","pricing_plan_id":"cebpf4jnsgd1na2vs0mg"},{"bike_id":"49c0f902-eac7-4a79-adf0-d142aff51e11","system_id":"levelo_inurba_marseille","lat":43.241675,"lon":5.363959,"is_reserved":false,"is_disabled":false,"rental_uris":{"android":"levelo://app?vid=49c0f902-eac7-4a79-adf0-d142aff51e11","ios":"levelo://app?vid=49c0f902-eac7-4a79-adf0-d142aff51e11"},"vehicle_type_id":"4","last_reported":1745421043,"current_range_meters":8800,"station_id":"cpo36qri1sfpv3e86is0","pricing_plan_id":"cebpf4jnsgd1na2vs0mg"},{"bike_id":"369b473d-40c5-46a0-93bf-55f737c18d5c","system_id":"levelo_inurba_marseille","lat":43.28672,"lon":5.36352,"is_reserved":false,"is_disabled":false,"rental_uris":{"android":"levelo://app?vid=369b473d-40c5-46a0-93bf-55f737c18d5c","ios":"levelo://app?vid=369b473d-40c5-46a0-93bf-55f737c18d5c"},"vehicle_type_id":"4","last_reported":1745421043,"current_range_meters":8400,"station_id":"ce4bhah2rcd13ifvqej0","pricing_plan_id":"cebpf4jnsgd1na2vs0mg"},{"bike_id":"a843ee96-2ee0-424d-8069-a9222e949334","system_id":"levelo_inurba_marseille","lat":43.28446,"lon":5.39204,"is_reserved":false,"is_disabled":false,"rental_uris":{"android":"levelo://app?vid=a843ee96-2ee0-424d-8069-a9222e949334","ios":"levelo://app?vid=a843ee96-2ee0-424d-8069-a9222e949334"},"vehicle_type_id":"4","last_reported":1745421043,"current_range_meters":8800,"station_id":"ce4bhoh2rcd13ifvqh5g","pricing_plan_id":"cebpf4jnsgd1na2vs0mg"},{"bike_id":"d6eab50f-20c4-4a2d-ae1d-77fdec44a426","system_id":"levelo_inurba_marseille","lat":43.23162,"lon":5.43731,"is_reserved":false,"is_disabled":false,"rental_uris":{"android":"levelo://app?vid=d6eab50f-20c4-4a2d-ae1d-77fdec44a426","ios":"levelo://app?vid=d6eab50f-20c4-4a2d-ae1d-77fdec44a426"},"vehicle_type_id":"4","last_reported":1745421043,"current_range_meters":9200,"station_id":"ce4bhmp2rcd13ifvqgog","pricing_plan_id":"cebpf4jnsgd1na2vs0mg"},{"bike_id":"abe02467-ccc0-4ea4-ac7a-4a4320438166","system_id":"levelo_inurba_marseille","lat":43.28858,"lon":5.393035,"is_reserved":false,"is_disabled":false,"rental_uris":{"android":"levelo://app?vid=abe02467-ccc0-4ea4-ac7a-4a4320438166","ios":"levelo://app?vid=abe02467-ccc0-4ea4-ac7a-4a4320438166"},"vehicle_type_id":"4","last_reported":1745421043,"current_range_meters":9200,"station_id":"ce4bh2p2rcd13ifvqdi0","pricing_plan_id":"cebpf4jnsgd1na2vs0mg"},{"bike_id":"91253bf4-28be-43fd-a6b5-9e5107287967","system_id":"levelo_inurba_marseille","lat":43.29432,"lon":5.38635,"is_reserved":false,"is_disabled":false,"rental_uris":{"android":"levelo://app?vid=91253bf4-28be-43fd-a6b5-9e5107287967","ios":"levelo://app?vid=91253bf4-28be-43fd-a6b5-9e5107287967"},"vehicle_type_id":"4","last_reported":1745421043,"current_range_meters":9200,"station_id":"ce4bh2h2rcd13ifvqdh0","pricing_plan_id":"cebpf4jnsgd1na2vs0mg"},{"bike_id":"baf85e7c-b965-4c55-8971-07625f2ef22e","system_id":"levelo_inurba_marseille","lat":43.24667,"lon":5.38166,"is_reserved":false,"is_disabled":false,"rental_uris":{"android":"levelo://app?vid=baf85e7c-b965-4c55-8971-07625f2ef22e","ios":"levelo://app?vid=baf85e7c-b965-4c55-8971-07625f2ef22e"},"vehicle_type_id":"4","last_reported":1745421043,"current_range_meters":9200,"station_id":"ce4bhih2rcd13ifvqfr0","pricing_plan_id":"cebpf4jnsgd1na2vs0mg"},{"bike_id":"7d7c18c3-1ea2-4e11-9fa4-78c666046a95","system_id":"levelo_inurba_marseille","lat":43.29031,"lon":5.38651,"is_reserved":false,"is_disabled":false,"rental_uris":{"android":"levelo://app?vid=7d7c18c3-1ea2-4e11-9fa4-78c666046a95","ios":"levelo://app?vid=7d7c18c3-1ea2-4e11-9fa4-78c666046a95"},"vehicle_type_id":"4","last_reported":1745421043,"current_range_meters":9600,"station_id":"ce4bh4p2rcd13ifvqe0g","pricing_plan_id":"cebpf4jnsgd1na2vs0mg"},{"bike_id":"2444db48-73b9-4f67-9dc6-6e8bcceff093","system_id":"levelo_inurba_marseille","lat":43.29779,"lon":5.38101,"is_reserved":false,"is_disabled":true,"rental_uris":{"android":"levelo://app?vid=2444db48-73b9-4f67-9dc6-6e8bcceff093","ios":"levelo://app?vid=2444db48-73b9-4f67-9dc6-6e8bcceff093"},"vehicle_type_id":"4","last_reported":1745421043,"current_range_meters":9600,"station_id":"ce4bgip2rcd13ifvqbb0","pricing_plan_id":"cebpf4jnsgd1na2vs0mg"},{"bike_id":"ef42ce6e-0e4f-4442-9f86-98ad6dc08bed","system_id":"levelo_inurba_marseille","lat":43.28721,"lon":5.37939,"is_reserved":false,"is_disabled":false,"rental_uris":{"android":"levelo://app?vid=ef42ce6e-0e4f-4442-9f86-98ad6dc08bed","ios":"levelo://app?vid=ef42ce6e-0e4f-4442-9f86-98ad6dc08bed"},"vehicle_type_id":"4","last_reported":1745421043,"current_range_meters":9600,"station_id":"ce4bh9p2rcd13ifvqec0","pricing_plan_id":"cebpf4jnsgd1na2vs0mg"},{"bike_id":"fbb6be43-75ac-4697-af84-df6581464ee0","system_id":"levelo_inurba_marseille","lat":43.23961,"lon":5.36662,"is_reserved":false,"is_disabled":false,"rental_uris":{"android":"levelo://app?vid=fbb6be43-75ac-4697-af84-df6581464ee0","ios":"levelo://app?vid=fbb6be43-75ac-4697-af84-df6581464ee0"},"vehicle_type_id":"4","last_reported":1745421043,"current_range_meters":9600,"station_id":"ce4bhi12rcd13ifvqfp0","pricing_plan_id":"cebpf4jnsgd1na2vs0mg"},{"bike_id":"1780b1fd-113e-4b95-a483-e0cb2074c4c6","system_id":"levelo_inurba_marseille","lat":43.29851,"lon":5.36265,"is_reserved":false,"is_disabled":false,"rental_uris":{"android":"levelo://app?vid=1780b1fd-113e-4b95-a483-e0cb2074c4c6","ios":"levelo://app?vid=1780b1fd-113e-4b95-a483-e0cb2074c4c6"},"vehicle_type_id":"4","last_reported":1745421043,"current_range_meters":9600,"station_id":"ce4bgpp2rcd13ifvqc3g","pricing_plan_id":"cebpf4jnsgd1na2vs0mg"},{"bike_id":"7fe22bfe-5171-4dc6-9e68-093d7bccd6c5","system_id":"levelo_inurba_marseille","lat":43.29253,"lon":5.40902,"is_reserved":false,"is_disabled":false,"rental_uris":{"android":"levelo://app?vid=7fe22bfe-5171-4dc6-9e68-093d7bccd6c5","ios":"levelo://app?vid=7fe22bfe-5171-4dc6-9e68-093d7bccd6c5"},"vehicle_type_id":"4","last_reported":1745421043,"current_range_meters":10000,"station_id":"ce4bh192rcd13ifvqdc0","pricing_plan_id":"cebpf4jnsgd1na2vs0mg"},{"bike_id":"48230dd0-b8d0-41ca-a291-11036dfe3bb2","system_id":"levelo_inurba_marseille","lat":43.31701,"lon":5.40439,"is_reserved":false,"is_disabled":false,"rental_uris":{"android":"levelo://app?vid=48230dd0-b8d0-41ca-a291-11036dfe3bb2","ios":"levelo://app?vid=48230dd0-b8d0-41ca-a291-11036dfe3bb2"},"vehicle_type_id":"4","last_reported":1745421043,"current_range_meters":10000,"station_id":"ce4bh012rcd13ifvqd00","pricing_plan_id":"cebpf4jnsgd1na2vs0mg"},{"bike_id":"d6945fca-ed5b-424f-a1aa-fb02ce931565","system_id":"levelo_inurba_marseille","lat":43.23158,"lon":5.4372,"is_reserved":false,"is_disabled":false,"rental_uris":{"android":"levelo://app?vid=d6945fca-ed5b-424f-a1aa-fb02ce931565","ios":"levelo://app?vid=d6945fca-ed5b-424f-a1aa-fb02ce931565"},"vehicle_type_id":"4","last_reported":1745421043,"current_range_meters":10800,"station_id":"ce4bhmp2rcd13ifvqgog","pricing_plan_id":"cebpf4jnsgd1na2vs0mg"},{"bike_id":"d89a07f2-fb66-4b2b-8a73-3672708ff0a6","system_id":"levelo_inurba_marseille","lat":43.21191,"lon":5.35067,"is_reserved":false,"is_disabled":false,"rental_uris":{"android":"levelo://app?vid=d89a07f2-fb66-4b2b-8a73-3672708ff0a6","ios":"levelo://app?vid=d89a07f2-fb66-4b2b-8a73-3672708ff0a6"},"vehicle_type_id":"4","last_reported":1745421043,"current_range_meters":10800,"station_id":"st_cvj6sg6p6f1abm77japg","pricing_plan_id":"cebpf4jnsgd1na2vs0mg"},{"bike_id":"3b605e76-5538-4c8c-9085-8282ebb44007","system_id":"levelo_inurba_marseille","lat":43.27814,"lon":5.40707,"is_reserved":false,"is_disabled":false,"rental_uris":{"android":"levelo://app?vid=3b605e76-5538-4c8c-9085-8282ebb44007","ios":"levelo://app?vid=3b605e76-5538-4c8c-9085-8282ebb44007"},"vehicle_type_id":"4","last_reported":1745421043,"current_range_meters":10800,"station_id":"ce4bhnh2rcd13ifvqgtg","pricing_plan_id":"cebpf4jnsgd1na2vs0mg"},{"bike_id":"47bc677a-6b26-4ad2-9242-cec39b070081","system_id":"levelo_inurba_marseille","lat":43.29966,"lon":5.36356,"is_reserved":false,"is_disabled":false,"rental_uris":{"android":"levelo://app?vid=47bc677a-6b26-4ad2-9242-cec39b070081","ios":"levelo://app?vid=47bc677a-6b26-4ad2-9242-cec39b070081"},"vehicle_type_id":"4","last_reported":1745421043,"current_range_meters":10800,"station_id":"","pricing_plan_id":"cebpf4jnsgd1na2vs0mg"},{"bike_id":"5d708763-b0b6-4947-bd2e-6060844b591c","system_id":"levelo_inurba_marseille","lat":43.23142,"lon":5.43714,"is_reserved":false,"is_disabled":false,"rental_uris":{"android":"levelo://app?vid=5d708763-b0b6-4947-bd2e-6060844b591c","ios":"levelo://app?vid=5d708763-b0b6-4947-bd2e-6060844b591c"},"vehicle_type_id":"4","last_reported":1745421043,"current_range_meters":10800,"station_id":"ce4bhmp2rcd13ifvqgog","pricing_plan_id":"cebpf4jnsgd1na2vs0mg"},{"bike_id":"ec350b30-9b32-4c5f-aa22-3a10fc683fe2","system_id":"levelo_inurba_marseille","lat":43.29346,"lon":5.43435,"is_reserved":false,"is_disabled":false,"rental_uris":{"android":"levelo://app?vid=ec350b30-9b32-4c5f-aa22-3a10fc683fe2","ios":"levelo://app?vid=ec350b30-9b32-4c5f-aa22-3a10fc683fe2"},"vehicle_type_id":"4","last_reported":1745421043,"current_range_meters":10800,"station_id":"","pricing_plan_id":"cebpf4jnsgd1na2vs0mg"},{"bike_id":"d42b0c18-bacb-4ed3-ae5a-194adf05b8aa","system_id":"levelo_inurba_marseille","lat":43.2904,"lon":5.375745,"is_reserved":false,"is_disabled":false,"rental_uris":{"android":"levelo://app?vid=d42b0c18-bacb-4ed3-ae5a-194adf05b8aa","ios":"levelo://app?vid=d42b0c18-bacb-4ed3-ae5a-194adf05b8aa"},"vehicle_type_id":"4","last_reported":1745421043,"current_range_meters":10800,"station_id":"ce4bh692rcd13ifvqe90","pricing_plan_id":"cebpf4jnsgd1na2vs0mg"},{"bike_id":"92c3b340-d069-4f1c-b55b-44c52f19597b","system_id":"levelo_inurba_marseille","lat":43.28244,"lon":5.37832,"is_reserved":false,"is_disabled":false,"rental_uris":{"android":"levelo://app?vid=92c3b340-d069-4f1c-b55b-44c52f19597b","ios":"levelo://app?vid=92c3b340-d069-4f1c-b55b-44c52f19597b"},"vehicle_type_id":"4","last_reported":1745421043,"current_range_meters":11200,"station_id":"","pricing_plan_id":"cebpf4jnsgd1na2vs0mg"},{"bike_id":"f31bee90-1c13-4189-9679-0326782d9854","system_id":"levelo_inurba_marseille","lat":43.31759,"lon":5.39032,"is_reserved":false,"is_disabled":false,"rental_uris":{"android":"levelo://app?vid=f31bee90-1c13-4189-9679-0326782d9854","ios":"levelo://app?vid=f31bee90-1c13-4189-9679-0326782d9854"},"vehicle_type_id":"4","last_reported":1745421043,"current_range_meters":11200,"station_id":"ce4bhqp2rcd13ifvqhng","pricing_plan_id":"cebpf4jnsgd1na2vs0mg"},{"bike_id":"9c325fd4-f154-4a48-857e-569f4cc367f9","system_id":"levelo_inurba_marseille","lat":43.22939,"lon":5.35372,"is_reserved":false,"is_disabled":false,"rental_uris":{"android":"levelo://app?vid=9c325fd4-f154-4a48-857e-569f4cc367f9","ios":"levelo://app?vid=9c325fd4-f154-4a48-857e-569f4cc367f9"},"vehicle_type_id":"4","last_reported":1745421043,"current_range_meters":11200,"station_id":"cpo3532slgdg3j2ikp40","pricing_plan_id":"cebpf4jnsgd1na2vs0mg"},{"bike_id":"150b9fa2-621b-480b-a68d-edc2bc1c2a65","system_id":"levelo_inurba_marseille","lat":43.2317,"lon":5.39976,"is_reserved":false,"is_disabled":false,"rental_uris":{"android":"levelo://app?vid=150b9fa2-621b-480b-a68d-edc2bc1c2a65","ios":"levelo://app?vid=150b9fa2-621b-480b-a68d-edc2bc1c2a65"},"vehicle_type_id":"4","last_reported":1745421043,"current_range_meters":11200,"station_id":"ce4bhn12rcd13ifvqgqg","pricing_plan_id":"cebpf4jnsgd1na2vs0mg"},{"bike_id":"733c9c80-69b1-492c-9da4-bcd1879a7400","system_id":"levelo_inurba_marseille","lat":43.28623,"lon":5.35099,"is_reserved":false,"is_disabled":false,"rental_uris":{"android":"levelo://app?vid=733c9c80-69b1-492c-9da4-bcd1879a7400","ios":"levelo://app?vid=733c9c80-69b1-492c-9da4-bcd1879a7400"},"vehicle_type_id":"4","last_reported":1745421043,"current_range_meters":11200,"station_id":"ce4bhch2rcd13ifvqeug","pricing_plan_id":"cebpf4jnsgd1na2vs0mg"},{"bike_id":"4d745549-7ff8-4991-ac93-6e7c0baa4365","system_id":"levelo_inurba_marseille","lat":43.30905,"lon":5.40148,"is_reserved":false,"is_disabled":false,"rental_uris":{"android":"levelo://app?vid=4d745549-7ff8-4991-ac93-6e7c0baa4365","ios":"levelo://app?vid=4d745549-7ff8-4991-ac93-6e7c0baa4365"},"vehicle_type_id":"4","last_reported":1745421043,"current_range_meters":9600,"station_id":"ce4bgvp2rcd13ifvqct0","pricing_plan_id":"cebpf4jnsgd1na2vs0mg"},{"bike_id":"1260a832-bb3c-4ab3-9eca-6d129a0c4014","system_id":"levelo_inurba_marseille","lat":43.28459,"lon":5.35902,"is_reserved":false,"is_disabled":false,"rental_uris":{"android":"levelo://app?vid=1260a832-bb3c-4ab3-9eca-6d129a0c4014","ios":"levelo://app?vid=1260a832-bb3c-4ab3-9eca-6d129a0c4014"},"vehicle_type_id":"4","last_reported":1745421043,"current_range_meters":11600,"station_id":"ce4bhah2rcd13ifvqei0","pricing_plan_id":"cebpf4jnsgd1na2vs0mg"},{"bike_id":"78d30ac0-5e5a-40f8-8e84-741f4a6cfacf","system_id":"levelo_inurba_marseille","lat":43.23167,"lon":5.43742,"is_reserved":false,"is_disabled":false,"rental_uris":{"android":"levelo://app?vid=78d30ac0-5e5a-40f8-8e84-741f4a6cfacf","ios":"levelo://app?vid=78d30ac0-5e5a-40f8-8e84-741f4a6cfacf"},"vehicle_type_id":"4","last_reported":1745421043,"current_range_meters":11600,"station_id":"ce4bhmp2rcd13ifvqgog","pricing_plan_id":"cebpf4jnsgd1na2vs0mg"},{"bike_id":"5654bb20-d7f4-42f3-a804-9e5bdd351297","system_id":"levelo_inurba_marseille","lat":43.2397,"lon":5.36632,"is_reserved":false,"is_disabled":false,"rental_uris":{"android":"levelo://app?vid=5654bb20-d7f4-42f3-a804-9e5bdd351297","ios":"levelo://app?vid=5654bb20-d7f4-42f3-a804-9e5bdd351297"},"vehicle_type_id":"4","last_reported":1745421043,"current_range_meters":11600,"station_id":"ce4bhi12rcd13ifvqfp0","pricing_plan_id":"cebpf4jnsgd1na2vs0mg"},{"bike_id":"17750eb2-0323-4cf8-8d24-80f229353f9e","system_id":"levelo_inurba_marseille","lat":43.30429,"lon":5.38889,"is_reserved":false,"is_disabled":false,"rental_uris":{"android":"levelo://app?vid=17750eb2-0323-4cf8-8d24-80f229353f9e","ios":"levelo://app?vid=17750eb2-0323-4cf8-8d24-80f229353f9e"},"vehicle_type_id":"4","last_reported":1745421043,"current_range_meters":12000,"station_id":"ce4bgk12rcd13ifvqbi0","pricing_plan_id":"cebpf4jnsgd1na2vs0mg"},{"bike_id":"1722a673-2297-42bc-8c04-e0ec249871b0","system_id":"levelo_inurba_marseille","lat":43.29941,"lon":5.36543,"is_reserved":false,"is_disabled":false,"rental_uris":{"android":"levelo://app?vid=1722a673-2297-42bc-8c04-e0ec249871b0","ios":"levelo://app?vid=1722a673-2297-42bc-8c04-e0ec249871b0"},"vehicle_type_id":"4","last_reported":1745421043,"current_range_meters":12000,"station_id":"ce4bgm92rcd13ifvqbr0","pricing_plan_id":"cebpf4jnsgd1na2vs0mg"},{"bike_id":"b96d48d5-fc65-423b-9a30-5d2c864e8939","system_id":"levelo_inurba_marseille","lat":43.22527,"lon":5.34796,"is_reserved":false,"is_disabled":false,"rental_uris":{"android":"levelo://app?vid=b96d48d5-fc65-423b-9a30-5d2c864e8939","ios":"levelo://app?vid=b96d48d5-fc65-423b-9a30-5d2c864e8939"},"vehicle_type_id":"4","last_reported":1745421043,"current_range_meters":12000,"station_id":"st_cvj5dfep6f1abm77gieg","pricing_plan_id":"cebpf4jnsgd1na2vs0mg"},{"bike_id":"bfc57060-bf96-4e1e-978c-0c15aaef2b8b","system_id":"levelo_inurba_marseille","lat":43.29893,"lon":5.43673,"is_reserved":false,"is_disabled":false,"rental_uris":{"android":"levelo://app?vid=bfc57060-bf96-4e1e-978c-0c15aaef2b8b","ios":"levelo://app?vid=bfc57060-bf96-4e1e-978c-0c15aaef2b8b"},"vehicle_type_id":"4","last_reported":1745421043,"current_range_meters":12000,"station_id":"ce4bhpp2rcd13ifvqhfg","pricing_plan_id":"cebpf4jnsgd1na2vs0mg"},{"bike_id":"22d01123-49c8-4009-8009-ebb5bbc995be","system_id":"levelo_inurba_marseille","lat":43.32595,"lon":5.40351,"is_reserved":false,"is_disabled":false,"rental_uris":{"android":"levelo://app?vid=22d01123-49c8-4009-8009-ebb5bbc995be","ios":"levelo://app?vid=22d01123-49c8-4009-8009-ebb5bbc995be"},"vehicle_type_id":"4","last_reported":1745421043,"current_range_meters":12000,"station_id":"","pricing_plan_id":"cebpf4jnsgd1na2vs0mg"},{"bike_id":"abd226a8-d003-4133-b9d2-b7c952b7ead1","system_id":"levelo_inurba_marseille","lat":43.230583,"lon":5.354908,"is_reserved":false,"is_disabled":false,"rental_uris":{"android":"levelo://app?vid=abd226a8-d003-4133-b9d2-b7c952b7ead1","ios":"levelo://app?vid=abd226a8-d003-4133-b9d2-b7c952b7ead1"},"vehicle_type_id":"4","last_reported":1745421043,"current_range_meters":12000,"station_id":"cpo3342slgdg3j2ifvpg","pricing_plan_id":"cebpf4jnsgd1na2vs0mg"},{"bike_id":"0ad029e0-04da-4537-8cdb-170dba9ee36d","system_id":"levelo_inurba_marseille","lat":43.28155,"lon":5.42648,"is_reserved":false,"is_disabled":false,"rental_uris":{"android":"levelo://app?vid=0ad029e0-04da-4537-8cdb-170dba9ee36d","ios":"levelo://app?vid=0ad029e0-04da-4537-8cdb-170dba9ee36d"},"vehicle_type_id":"4","last_reported":1745421043,"current_range_meters":12000,"station_id":"ce4bhnh2rcd13ifvqgug","pricing_plan_id":"cebpf4jnsgd1na2vs0mg"},{"bike_id":"573db9a0-d237-4286-b1d8-bc5176d5d5ec","system_id":"levelo_inurba_marseille","lat":43.251224,"lon":5.40339,"is_reserved":false,"is_disabled":false,"rental_uris":{"android":"levelo://app?vid=573db9a0-d237-4286-b1d8-bc5176d5d5ec","ios":"levelo://app?vid=573db9a0-d237-4286-b1d8-bc5176d5d5ec"},"vehicle_type_id":"4","last_reported":1745421043,"current_range_meters":12000,"station_id":"ce4bhlh2rcd13ifvqgig","pricing_plan_id":"cebpf4jnsgd1na2vs0mg"},{"bike_id":"53fbf87b-7f0b-465e-93e3-a52be90f83aa","system_id":"levelo_inurba_marseille","lat":43.29034,"lon":5.38647,"is_reserved":false,"is_disabled":false,"rental_uris":{"android":"levelo://app?vid=53fbf87b-7f0b-465e-93e3-a52be90f83aa","ios":"levelo://app?vid=53fbf87b-7f0b-465e-93e3-a52be90f83aa"},"vehicle_type_id":"4","last_reported":1745421043,"current_range_meters":12000,"station_id":"ce4bh4p2rcd13ifvqe0g","pricing_plan_id":"cebpf4jnsgd1na2vs0mg"},{"bike_id":"0cfeedce-c032-4d07-bf22-e7bcc94d57ef","system_id":"levelo_inurba_marseille","lat":43.29853,"lon":5.3628,"is_reserved":false,"is_disabled":false,"rental_uris":{"android":"levelo://app?vid=0cfeedce-c032-4d07-bf22-e7bcc94d57ef","ios":"levelo://app?vid=0cfeedce-c032-4d07-bf22-e7bcc94d57ef"},"vehicle_type_id":"4","last_reported":1745421043,"current_range_meters":12400,"station_id":"ce4bgpp2rcd13ifvqc3g","pricing_plan_id":"cebpf4jnsgd1na2vs0mg"},{"bike_id":"7cb503d8-a3ee-4291-8d4b-648ba2f1137c","system_id":"levelo_inurba_marseille","lat":43.24161,"lon":5.36425,"is_reserved":false,"is_disabled":false,"rental_uris":{"android":"levelo://app?vid=7cb503d8-a3ee-4291-8d4b-648ba2f1137c","ios":"levelo://app?vid=7cb503d8-a3ee-4291-8d4b-648ba2f1137c"},"vehicle_type_id":"4","last_reported":1745421043,"current_range_meters":12400,"station_id":"cpo36qri1sfpv3e86is0","pricing_plan_id":"cebpf4jnsgd1na2vs0mg"},{"bike_id":"5546f93c-c7eb-4a36-b1e9-022b7fc99074","system_id":"levelo_inurba_marseille","lat":43.23194,"lon":5.35552,"is_reserved":false,"is_disabled":false,"rental_uris":{"android":"levelo://app?vid=5546f93c-c7eb-4a36-b1e9-022b7fc99074","ios":"levelo://app?vid=5546f93c-c7eb-4a36-b1e9-022b7fc99074"},"vehicle_type_id":"4","last_reported":1745421043,"current_range_meters":12800,"station_id":"ce4bhu92rcd13ifvqi70","pricing_plan_id":"cebpf4jnsgd1na2vs0mg"},{"bike_id":"bfdb1e2f-45e5-477e-8389-77a3d9841dc7","system_id":"levelo_inurba_marseille","lat":43.29415,"lon":5.38618,"is_reserved":false,"is_disabled":false,"rental_uris":{"android":"levelo://app?vid=bfdb1e2f-45e5-477e-8389-77a3d9841dc7","ios":"levelo://app?vid=bfdb1e2f-45e5-477e-8389-77a3d9841dc7"},"vehicle_type_id":"4","last_reported":1745421043,"current_range_meters":12400,"station_id":"ce4bh2h2rcd13ifvqdh0","pricing_plan_id":"cebpf4jnsgd1na2vs0mg"},{"bike_id":"d3663c20-07a5-40f8-a086-ca44e2d92345","system_id":"levelo_inurba_marseille","lat":43.290812,"lon":5.381497,"is_reserved":false,"is_disabled":false,"rental_uris":{"android":"levelo://app?vid=d3663c20-07a5-40f8-a086-ca44e2d92345","ios":"levelo://app?vid=d3663c20-07a5-40f8-a086-ca44e2d92345"},"vehicle_type_id":"4","last_reported":1745421043,"current_range_meters":13600,"station_id":"ce4bh3h2rcd13ifvqdn0","pricing_plan_id":"cebpf4jnsgd1na2vs0mg"},{"bike_id":"1b8b7145-49a7-4fe1-96a2-72a1d6e84a54","system_id":"levelo_inurba_marseille","lat":43.23059,"lon":5.35489,"is_reserved":false,"is_disabled":false,"rental_uris":{"android":"levelo://app?vid=1b8b7145-49a7-4fe1-96a2-72a1d6e84a54","ios":"levelo://app?vid=1b8b7145-49a7-4fe1-96a2-72a1d6e84a54"},"vehicle_type_id":"4","last_reported":1745421043,"current_range_meters":12800,"station_id":"cpo3342slgdg3j2ifvpg","pricing_plan_id":"cebpf4jnsgd1na2vs0mg"},{"bike_id":"4b8921bc-5aaf-4418-89cf-4d61eddbd7dc","system_id":"levelo_inurba_marseille","lat":43.29576,"lon":5.3675,"is_reserved":false,"is_disabled":false,"rental_uris":{"android":"levelo://app?vid=4b8921bc-5aaf-4418-89cf-4d61eddbd7dc","ios":"levelo://app?vid=4b8921bc-5aaf-4418-89cf-4d61eddbd7dc"},"vehicle_type_id":"4","last_reported":1745421043,"current_range_meters":13600,"station_id":"ce4bgph2rcd13ifvqc2g","pricing_plan_id":"cebpf4jnsgd1na2vs0mg"},{"bike_id":"2a28d19f-28ef-46a1-ac1e-0568dccede2a","system_id":"levelo_inurba_marseille","lat":43.21208,"lon":5.35078,"is_reserved":false,"is_disabled":false,"rental_uris":{"android":"levelo://app?vid=2a28d19f-28ef-46a1-ac1e-0568dccede2a","ios":"levelo://app?vid=2a28d19f-28ef-46a1-ac1e-0568dccede2a"},"vehicle_type_id":"4","last_reported":1745421043,"current_range_meters":13600,"station_id":"st_cvj6sg6p6f1abm77japg","pricing_plan_id":"cebpf4jnsgd1na2vs0mg"},{"bike_id":"ae2607c9-27d0-4814-bc50-d40a7c41d115","system_id":"levelo_inurba_marseille","lat":43.30195,"lon":5.39341,"is_reserved":false,"is_disabled":false,"rental_uris":{"android":"levelo://app?vid=ae2607c9-27d0-4814-bc50-d40a7c41d115","ios":"levelo://app?vid=ae2607c9-27d0-4814-bc50-d40a7c41d115"},"vehicle_type_id":"4","last_reported":1745421043,"current_range_meters":13600,"station_id":"","pricing_plan_id":"cebpf4jnsgd1na2vs0mg"},{"bike_id":"67131355-bc71-4d54-9739-c36701821609","system_id":"levelo_inurba_marseille","lat":43.24837,"lon":5.37457,"is_reserved":false,"is_disabled":false,"rental_uris":{"android":"levelo://app?vid=67131355-bc71-4d54-9739-c36701821609","ios":"levelo://app?vid=67131355-bc71-4d54-9739-c36701821609"},"vehicle_type_id":"4","last_reported":1745421043,"current_range_meters":13600,"station_id":"","pricing_plan_id":"cebpf4jnsgd1na2vs0mg"},{"bike_id":"756dec1e-1972-45ed-addd-b925039d24a4","system_id":"levelo_inurba_marseille","lat":43.28072,"lon":5.3966,"is_reserved":false,"is_disabled":false,"rental_uris":{"android":"levelo://app?vid=756dec1e-1972-45ed-addd-b925039d24a4","ios":"levelo://app?vid=756dec1e-1972-45ed-addd-b925039d24a4"},"vehicle_type_id":"4","last_reported":1745421043,"current_range_meters":14000,"station_id":"ce4bho12rcd13ifvqh2g","pricing_plan_id":"cebpf4jnsgd1na2vs0mg"},{"bike_id":"a0131289-e0ed-40a3-a078-eee82fdc239d","system_id":"levelo_inurba_marseille","lat":43.29269,"lon":5.3844,"is_reserved":false,"is_disabled":false,"rental_uris":{"android":"levelo://app?vid=a0131289-e0ed-40a3-a078-eee82fdc239d","ios":"levelo://app?vid=a0131289-e0ed-40a3-a078-eee82fdc239d"},"vehicle_type_id":"4","last_reported":1745421043,"current_range_meters":14000,"station_id":"ce4bh692rcd13ifvqea0","pricing_plan_id":"cebpf4jnsgd1na2vs0mg"},{"bike_id":"527ab9af-1602-4e3b-a3d5-77f5acec1ebf","system_id":"levelo_inurba_marseille","lat":43.26196,"lon":5.37465,"is_reserved":false,"is_disabled":true,"rental_uris":{"android":"levelo://app?vid=527ab9af-1602-4e3b-a3d5-77f5acec1ebf","ios":"levelo://app?vid=527ab9af-1602-4e3b-a3d5-77f5acec1ebf"},"vehicle_type_id":"4","last_reported":1745421043,"current_range_meters":14000,"station_id":"ce4bhgp2rcd13ifvqfc0","pricing_plan_id":"cebpf4jnsgd1na2vs0mg"},{"bike_id":"e61f5775-7bf1-41f8-8d64-3b3911c7737c","system_id":"levelo_inurba_marseille","lat":43.28618,"lon":5.35111,"is_reserved":false,"is_disabled":false,"rental_uris":{"android":"levelo://app?vid=e61f5775-7bf1-41f8-8d64-3b3911c7737c","ios":"levelo://app?vid=e61f5775-7bf1-41f8-8d64-3b3911c7737c"},"vehicle_type_id":"4","last_reported":1745421043,"current_range_meters":14400,"station_id":"ce4bhch2rcd13ifvqeug","pricing_plan_id":"cebpf4jnsgd1na2vs0mg"},{"bike_id":"e374ab31-cab9-4f72-bb44-c9aa4239ad48","system_id":"levelo_inurba_marseille","lat":43.32669,"lon":5.40991,"is_reserved":false,"is_disabled":false,"rental_uris":{"android":"levelo://app?vid=e374ab31-cab9-4f72-bb44-c9aa4239ad48","ios":"levelo://app?vid=e374ab31-cab9-4f72-bb44-c9aa4239ad48"},"vehicle_type_id":"4","last_reported":1745421043,"current_range_meters":14400,"station_id":"ce4bhpp2rcd13ifvqhgg","pricing_plan_id":"cebpf4jnsgd1na2vs0mg"},{"bike_id":"977c3b2a-5c94-4b68-b726-c1ea4f56ac66","system_id":"levelo_inurba_marseille","lat":43.286112,"lon":5.370614,"is_reserved":false,"is_disabled":false,"rental_uris":{"android":"levelo://app?vid=977c3b2a-5c94-4b68-b726-c1ea4f56ac66","ios":"levelo://app?vid=977c3b2a-5c94-4b68-b726-c1ea4f56ac66"},"vehicle_type_id":"4","last_reported":1745421043,"current_range_meters":14800,"station_id":"ce4bht12rcd13ifvqi60","pricing_plan_id":"cebpf4jnsgd1na2vs0mg"},{"bike_id":"e675b3a4-e7f1-40de-b0ac-a4d66eb62419","system_id":"levelo_inurba_marseille","lat":43.30131,"lon":5.39845,"is_reserved":false,"is_disabled":false,"rental_uris":{"android":"levelo://app?vid=e675b3a4-e7f1-40de-b0ac-a4d66eb62419","ios":"levelo://app?vid=e675b3a4-e7f1-40de-b0ac-a4d66eb62419"},"vehicle_type_id":"4","last_reported":1745421043,"current_range_meters":14800,"station_id":"ce4bh0h2rcd13ifvqd40","pricing_plan_id":"cebpf4jnsgd1na2vs0mg"},{"bike_id":"1ee6df57-f741-4cda-accb-b9a688a69ed6","system_id":"levelo_inurba_marseille","lat":43.26195,"lon":5.37446,"is_reserved":false,"is_disabled":false,"rental_uris":{"android":"levelo://app?vid=1ee6df57-f741-4cda-accb-b9a688a69ed6","ios":"levelo://app?vid=1ee6df57-f741-4cda-accb-b9a688a69ed6"},"vehicle_type_id":"4","last_reported":1745421043,"current_range_meters":15200,"station_id":"ce4bhgp2rcd13ifvqfc0","pricing_plan_id":"cebpf4jnsgd1na2vs0mg"},{"bike_id":"d30abb48-2889-43ff-b4e8-cab592d0c072","system_id":"levelo_inurba_marseille","lat":43.28612,"lon":5.35118,"is_reserved":false,"is_disabled":false,"rental_uris":{"android":"levelo://app?vid=d30abb48-2889-43ff-b4e8-cab592d0c072","ios":"levelo://app?vid=d30abb48-2889-43ff-b4e8-cab592d0c072"},"vehicle_type_id":"4","last_reported":1745421043,"current_range_meters":15200,"station_id":"ce4bhch2rcd13ifvqeug","pricing_plan_id":"cebpf4jnsgd1na2vs0mg"},{"bike_id":"aebfb5ae-bf07-4ae3-9b08-2434047d6949","system_id":"levelo_inurba_marseille","lat":43.29799,"lon":5.37699,"is_reserved":false,"is_disabled":false,"rental_uris":{"android":"levelo://app?vid=aebfb5ae-bf07-4ae3-9b08-2434047d6949","ios":"levelo://app?vid=aebfb5ae-bf07-4ae3-9b08-2434047d6949"},"vehicle_type_id":"4","last_reported":1745421043,"current_range_meters":15200,"station_id":"","pricing_plan_id":"cebpf4jnsgd1na2vs0mg"},{"bike_id":"46374c49-3adc-4c5a-8966-e00f056c0d57","system_id":"levelo_inurba_marseille","lat":43.27846,"lon":5.35442,"is_reserved":false,"is_disabled":false,"rental_uris":{"android":"levelo://app?vid=46374c49-3adc-4c5a-8966-e00f056c0d57","ios":"levelo://app?vid=46374c49-3adc-4c5a-8966-e00f056c0d57"},"vehicle_type_id":"4","last_reported":1745421043,"current_range_meters":16000,"station_id":"","pricing_plan_id":"cebpf4jnsgd1na2vs0mg"},{"bike_id":"ac9bebdb-d4a6-4b09-8175-bbc5cbbebca7","system_id":"levelo_inurba_marseille","lat":43.24801,"lon":5.37463,"is_reserved":false,"is_disabled":false,"rental_uris":{"android":"levelo://app?vid=ac9bebdb-d4a6-4b09-8175-bbc5cbbebca7","ios":"levelo://app?vid=ac9bebdb-d4a6-4b09-8175-bbc5cbbebca7"},"vehicle_type_id":"4","last_reported":1745421043,"current_range_meters":16000,"station_id":"ce4bhgh2rcd13ifvqfb0","pricing_plan_id":"cebpf4jnsgd1na2vs0mg"},{"bike_id":"acc78628-cd0f-40c2-8418-b1c3f5abf222","system_id":"levelo_inurba_marseille","lat":43.27953,"lon":5.41045,"is_reserved":false,"is_disabled":false,"rental_uris":{"android":"levelo://app?vid=acc78628-cd0f-40c2-8418-b1c3f5abf222","ios":"levelo://app?vid=acc78628-cd0f-40c2-8418-b1c3f5abf222"},"vehicle_type_id":"4","last_reported":1745421043,"current_range_meters":16000,"station_id":"ce4bhnp2rcd13ifvqh0g","pricing_plan_id":"cebpf4jnsgd1na2vs0mg"},{"bike_id":"bceb8cba-0252-464f-a7c9-f9b4548f7a27","system_id":"levelo_inurba_marseille","lat":43.28082,"lon":5.3967,"is_reserved":false,"is_disabled":false,"rental_uris":{"android":"levelo://app?vid=bceb8cba-0252-464f-a7c9-f9b4548f7a27","ios":"levelo://app?vid=bceb8cba-0252-464f-a7c9-f9b4548f7a27"},"vehicle_type_id":"4","last_reported":1745421043,"current_range_meters":16400,"station_id":"ce4bho12rcd13ifvqh2g","pricing_plan_id":"cebpf4jnsgd1na2vs0mg"},{"bike_id":"162104c9-c9c3-41e8-9022-0f16a6a968c6","system_id":"levelo_inurba_marseille","lat":43.330258,"lon":5.390454,"is_reserved":false,"is_disabled":false,"rental_uris":{"android":"levelo://app?vid=162104c9-c9c3-41e8-9022-0f16a6a968c6","ios":"levelo://app?vid=162104c9-c9c3-41e8-9022-0f16a6a968c6"},"vehicle_type_id":"4","last_reported":1745421043,"current_range_meters":16400,"station_id":"ce4bhr92rcd13ifvqhrg","pricing_plan_id":"cebpf4jnsgd1na2vs0mg"},{"bike_id":"11ce02ec-5de1-4d28-b35b-b9d2498a4135","system_id":"levelo_inurba_marseille","lat":43.23066,"lon":5.35494,"is_reserved":false,"is_disabled":false,"rental_uris":{"android":"levelo://app?vid=11ce02ec-5de1-4d28-b35b-b9d2498a4135","ios":"levelo://app?vid=11ce02ec-5de1-4d28-b35b-b9d2498a4135"},"vehicle_type_id":"4","last_reported":1745421043,"current_range_meters":16400,"station_id":"cpo3342slgdg3j2ifvpg","pricing_plan_id":"cebpf4jnsgd1na2vs0mg"},{"bike_id":"9962648d-da37-4d17-902f-7a76c3290ebe","system_id":"levelo_inurba_marseille","lat":43.28041,"lon":5.36942,"is_reserved":false,"is_disabled":false,"rental_uris":{"android":"levelo://app?vid=9962648d-da37-4d17-902f-7a76c3290ebe","ios":"levelo://app?vid=9962648d-da37-4d17-902f-7a76c3290ebe"},"vehicle_type_id":"4","last_reported":1745421043,"current_range_meters":17600,"station_id":"ce4bha12rcd13ifvqef0","pricing_plan_id":"cebpf4jnsgd1na2vs0mg"},{"bike_id":"8d9f8df1-2acd-4215-ae00-3f1202dd6f69","system_id":"levelo_inurba_marseille","lat":43.2827,"lon":5.35052,"is_reserved":false,"is_disabled":false,"rental_uris":{"android":"levelo://app?vid=8d9f8df1-2acd-4215-ae00-3f1202dd6f69","ios":"levelo://app?vid=8d9f8df1-2acd-4215-ae00-3f1202dd6f69"},"vehicle_type_id":"4","last_reported":1745421043,"current_range_meters":16400,"station_id":"ce4bhbp2rcd13ifvqerg","pricing_plan_id":"cebpf4jnsgd1na2vs0mg"},{"bike_id":"18aaa6c7-8f0f-42ef-910b-49bbe217fe4f","system_id":"levelo_inurba_marseille","lat":43.28711,"lon":5.37934,"is_reserved":false,"is_disabled":false,"rental_uris":{"android":"levelo://app?vid=18aaa6c7-8f0f-42ef-910b-49bbe217fe4f","ios":"levelo://app?vid=18aaa6c7-8f0f-42ef-910b-49bbe217fe4f"},"vehicle_type_id":"4","last_reported":1745421043,"current_range_meters":16000,"station_id":"ce4bh9p2rcd13ifvqec0","pricing_plan_id":"cebpf4jnsgd1na2vs0mg"},{"bike_id":"a4afc099-4875-44e7-9614-2e33bfb07a43","system_id":"levelo_inurba_marseille","lat":43.29375,"lon":5.37865,"is_reserved":false,"is_disabled":false,"rental_uris":{"android":"levelo://app?vid=a4afc099-4875-44e7-9614-2e33bfb07a43","ios":"levelo://app?vid=a4afc099-4875-44e7-9614-2e33bfb07a43"},"vehicle_type_id":"4","last_reported":1745421043,"current_range_meters":16400,"station_id":"ce4bgjh2rcd13ifvqbf0","pricing_plan_id":"cebpf4jnsgd1na2vs0mg"},{"bike_id":"2b30d130-759e-4ac9-b3b9-9d751eb27ae4","system_id":"levelo_inurba_marseille","lat":43.28408,"lon":5.37518,"is_reserved":false,"is_disabled":false,"rental_uris":{"android":"levelo://app?vid=2b30d130-759e-4ac9-b3b9-9d751eb27ae4","ios":"levelo://app?vid=2b30d130-759e-4ac9-b3b9-9d751eb27ae4"},"vehicle_type_id":"4","last_reported":1745421043,"current_range_meters":16800,"station_id":"ce4bh412rcd13ifvqds0","pricing_plan_id":"cebpf4jnsgd1na2vs0mg"},{"bike_id":"48c88c62-ab32-4ca8-b606-43d1a182ecec","system_id":"levelo_inurba_marseille","lat":43.31331,"lon":5.39701,"is_reserved":false,"is_disabled":false,"rental_uris":{"android":"levelo://app?vid=48c88c62-ab32-4ca8-b606-43d1a182ecec","ios":"levelo://app?vid=48c88c62-ab32-4ca8-b606-43d1a182ecec"},"vehicle_type_id":"4","last_reported":1745421043,"current_range_meters":16800,"station_id":"ce4bgvp2rcd13ifvqcu0","pricing_plan_id":"cebpf4jnsgd1na2vs0mg"},{"bike_id":"cba2ae11-3413-4e6c-b08f-155bac2c82da","system_id":"levelo_inurba_marseille","lat":43.28621,"lon":5.35112,"is_reserved":false,"is_disabled":false,"rental_uris":{"android":"levelo://app?vid=cba2ae11-3413-4e6c-b08f-155bac2c82da","ios":"levelo://app?vid=cba2ae11-3413-4e6c-b08f-155bac2c82da"},"vehicle_type_id":"4","last_reported":1745421043,"current_range_meters":16800,"station_id":"ce4bhch2rcd13ifvqeug","pricing_plan_id":"cebpf4jnsgd1na2vs0mg"},{"bike_id":"9966e2c4-c438-4020-9570-af75c54f7699","system_id":"levelo_inurba_marseille","lat":43.25125,"lon":5.40331,"is_reserved":false,"is_disabled":false,"rental_uris":{"android":"levelo://app?vid=9966e2c4-c438-4020-9570-af75c54f7699","ios":"levelo://app?vid=9966e2c4-c438-4020-9570-af75c54f7699"},"vehicle_type_id":"4","last_reported":1745421043,"current_range_meters":16800,"station_id":"ce4bhlh2rcd13ifvqgig","pricing_plan_id":"cebpf4jnsgd1na2vs0mg"},{"bike_id":"29c27f6c-b172-4d99-add3-c74bdfc6be20","system_id":"levelo_inurba_marseille","lat":43.33044,"lon":5.39079,"is_reserved":false,"is_disabled":false,"rental_uris":{"android":"levelo://app?vid=29c27f6c-b172-4d99-add3-c74bdfc6be20","ios":"levelo://app?vid=29c27f6c-b172-4d99-add3-c74bdfc6be20"},"vehicle_type_id":"4","last_reported":1745421043,"current_range_meters":17200,"station_id":"ce4bhr92rcd13ifvqhrg","pricing_plan_id":"cebpf4jnsgd1na2vs0mg"},{"bike_id":"548a676c-6329-4f1b-a15f-51e09f419043","system_id":"levelo_inurba_marseille","lat":43.26956,"lon":5.38676,"is_reserved":false,"is_disabled":true,"rental_uris":{"android":"levelo://app?vid=548a676c-6329-4f1b-a15f-51e09f419043","ios":"levelo://app?vid=548a676c-6329-4f1b-a15f-51e09f419043"},"vehicle_type_id":"4","last_reported":1745421043,"current_range_meters":17200,"station_id":"ce4bhh92rcd13ifvqfh0","pricing_plan_id":"cebpf4jnsgd1na2vs0mg"},{"bike_id":"7d2633a5-2cb0-46eb-8c00-357bd5fadfef","system_id":"levelo_inurba_marseille","lat":43.254837,"lon":5.376463,"is_reserved":false,"is_disabled":true,"rental_uris":{"android":"levelo://app?vid=7d2633a5-2cb0-46eb-8c00-357bd5fadfef","ios":"levelo://app?vid=7d2633a5-2cb0-46eb-8c00-357bd5fadfef"},"vehicle_type_id":"4","last_reported":1745421043,"current_range_meters":17200,"station_id":"ce4bhh12rcd13ifvqff0","pricing_plan_id":"cebpf4jnsgd1na2vs0mg"},{"bike_id":"7489a429-3def-4314-b2fd-69eb5685941d","system_id":"levelo_inurba_marseille","lat":43.29864,"lon":5.36861,"is_reserved":false,"is_disabled":false,"rental_uris":{"android":"levelo://app?vid=7489a429-3def-4314-b2fd-69eb5685941d","ios":"levelo://app?vid=7489a429-3def-4314-b2fd-69eb5685941d"},"vehicle_type_id":"4","last_reported":1745421043,"current_range_meters":17200,"station_id":"","pricing_plan_id":"cebpf4jnsgd1na2vs0mg"},{"bike_id":"05f4edb7-a67b-49ff-a94b-e6bb3c01276d","system_id":"levelo_inurba_marseille","lat":43.31178,"lon":5.38711,"is_reserved":false,"is_disabled":false,"rental_uris":{"android":"levelo://app?vid=05f4edb7-a67b-49ff-a94b-e6bb3c01276d","ios":"levelo://app?vid=05f4edb7-a67b-49ff-a94b-e6bb3c01276d"},"vehicle_type_id":"4","last_reported":1745421043,"current_range_meters":17200,"station_id":"ce4bgv12rcd13ifvqcp0","pricing_plan_id":"cebpf4jnsgd1na2vs0mg"},{"bike_id":"57340b13-66bd-49e9-8e90-3fe5e11f3d26","system_id":"levelo_inurba_marseille","lat":43.29256,"lon":5.40913,"is_reserved":false,"is_disabled":false,"rental_uris":{"android":"levelo://app?vid=57340b13-66bd-49e9-8e90-3fe5e11f3d26","ios":"levelo://app?vid=57340b13-66bd-49e9-8e90-3fe5e11f3d26"},"vehicle_type_id":"4","last_reported":1745421043,"current_range_meters":17600,"station_id":"ce4bh192rcd13ifvqdc0","pricing_plan_id":"cebpf4jnsgd1na2vs0mg"},{"bike_id":"c48c1b96-c878-455f-9e11-ddc956cb7789","system_id":"levelo_inurba_marseille","lat":43.31764,"lon":5.39028,"is_reserved":false,"is_disabled":false,"rental_uris":{"android":"levelo://app?vid=c48c1b96-c878-455f-9e11-ddc956cb7789","ios":"levelo://app?vid=c48c1b96-c878-455f-9e11-ddc956cb7789"},"vehicle_type_id":"4","last_reported":1745421043,"current_range_meters":17600,"station_id":"ce4bhqp2rcd13ifvqhng","pricing_plan_id":"cebpf4jnsgd1na2vs0mg"},{"bike_id":"c7b90bf3-baf1-4b35-b182-f85c92c205a4","system_id":"levelo_inurba_marseille","lat":43.28449,"lon":5.34975,"is_reserved":false,"is_disabled":false,"rental_uris":{"android":"levelo://app?vid=c7b90bf3-baf1-4b35-b182-f85c92c205a4","ios":"levelo://app?vid=c7b90bf3-baf1-4b35-b182-f85c92c205a4"},"vehicle_type_id":"4","last_reported":1745421043,"current_range_meters":17600,"station_id":"ce4bhbh2rcd13ifvqepg","pricing_plan_id":"cebpf4jnsgd1na2vs0mg"},{"bike_id":"0ea362ce-4354-4f0f-acc7-962b146816c7","system_id":"levelo_inurba_marseille","lat":43.25864,"lon":5.39892,"is_reserved":false,"is_disabled":true,"rental_uris":{"android":"levelo://app?vid=0ea362ce-4354-4f0f-acc7-962b146816c7","ios":"levelo://app?vid=0ea362ce-4354-4f0f-acc7-962b146816c7"},"vehicle_type_id":"4","last_reported":1745421043,"current_range_meters":18000,"station_id":"ce4bhl92rcd13ifvqghg","pricing_plan_id":"cebpf4jnsgd1na2vs0mg"},{"bike_id":"ee354981-1331-4223-a45e-4b1b7261b1e3","system_id":"levelo_inurba_marseille","lat":43.33439,"lon":5.4006,"is_reserved":false,"is_disabled":false,"rental_uris":{"android":"levelo://app?vid=ee354981-1331-4223-a45e-4b1b7261b1e3","ios":"levelo://app?vid=ee354981-1331-4223-a45e-4b1b7261b1e3"},"vehicle_type_id":"4","last_reported":1745421043,"current_range_meters":18000,"station_id":"","pricing_plan_id":"cebpf4jnsgd1na2vs0mg"},{"bike_id":"94201ef7-9954-4e84-be72-e2fae875cbe9","system_id":"levelo_inurba_marseille","lat":43.2828,"lon":5.35116,"is_reserved":false,"is_disabled":false,"rental_uris":{"android":"levelo://app?vid=94201ef7-9954-4e84-be72-e2fae875cbe9","ios":"levelo://app?vid=94201ef7-9954-4e84-be72-e2fae875cbe9"},"vehicle_type_id":"4","last_reported":1745421043,"current_range_meters":18000,"station_id":"ce4bhbp2rcd13ifvqerg","pricing_plan_id":"cebpf4jnsgd1na2vs0mg"},{"bike_id":"8ab2ed8d-364c-4252-a36f-2dad9a4f2a15","system_id":"levelo_inurba_marseille","lat":43.23973,"lon":5.36625,"is_reserved":false,"is_disabled":false,"rental_uris":{"android":"levelo://app?vid=8ab2ed8d-364c-4252-a36f-2dad9a4f2a15","ios":"levelo://app?vid=8ab2ed8d-364c-4252-a36f-2dad9a4f2a15"},"vehicle_type_id":"4","last_reported":1745421043,"current_range_meters":18000,"station_id":"ce4bhi12rcd13ifvqfp0","pricing_plan_id":"cebpf4jnsgd1na2vs0mg"},{"bike_id":"b217c7a4-92b6-4872-91fa-f2c2827250cc","system_id":"levelo_inurba_marseille","lat":43.28835,"lon":5.39221,"is_reserved":false,"is_disabled":false,"rental_uris":{"android":"levelo://app?vid=b217c7a4-92b6-4872-91fa-f2c2827250cc","ios":"levelo://app?vid=b217c7a4-92b6-4872-91fa-f2c2827250cc"},"vehicle_type_id":"4","last_reported":1745421043,"current_range_meters":18000,"station_id":"","pricing_plan_id":"cebpf4jnsgd1na2vs0mg"},{"bike_id":"fa8a552a-d2d3-4e8d-8d8e-02bdba037836","system_id":"levelo_inurba_marseille","lat":43.337444,"lon":5.374475,"is_reserved":false,"is_disabled":false,"rental_uris":{"android":"levelo://app?vid=fa8a552a-d2d3-4e8d-8d8e-02bdba037836","ios":"levelo://app?vid=fa8a552a-d2d3-4e8d-8d8e-02bdba037836"},"vehicle_type_id":"4","last_reported":1745421043,"current_range_meters":18000,"station_id":"","pricing_plan_id":"cebpf4jnsgd1na2vs0mg"},{"bike_id":"3b22efc6-1111-4712-926f-9ecf02efa9ee","system_id":"levelo_inurba_marseille","lat":43.27963,"lon":5.38742,"is_reserved":false,"is_disabled":false,"rental_uris":{"android":"levelo://app?vid=3b22efc6-1111-4712-926f-9ecf02efa9ee","ios":"levelo://app?vid=3b22efc6-1111-4712-926f-9ecf02efa9ee"},"vehicle_type_id":"4","last_reported":1745421043,"current_range_meters":18800,"station_id":"ce4bhg12rcd13ifvqf80","pricing_plan_id":"cebpf4jnsgd1na2vs0mg"},{"bike_id":"46faa5a5-7005-4714-a4e7-3b500c63bf05","system_id":"levelo_inurba_marseille","lat":43.31326,"lon":5.39692,"is_reserved":false,"is_disabled":false,"rental_uris":{"android":"levelo://app?vid=46faa5a5-7005-4714-a4e7-3b500c63bf05","ios":"levelo://app?vid=46faa5a5-7005-4714-a4e7-3b500c63bf05"},"vehicle_type_id":"4","last_reported":1745421043,"current_range_meters":18800,"station_id":"ce4bgvp2rcd13ifvqcu0","pricing_plan_id":"cebpf4jnsgd1na2vs0mg"},{"bike_id":"894b8530-885f-4d4d-a2ae-913958cbbe2f","system_id":"levelo_inurba_marseille","lat":43.25934,"lon":5.40913,"is_reserved":false,"is_disabled":false,"rental_uris":{"android":"levelo://app?vid=894b8530-885f-4d4d-a2ae-913958cbbe2f","ios":"levelo://app?vid=894b8530-885f-4d4d-a2ae-913958cbbe2f"},"vehicle_type_id":"4","last_reported":1745421043,"current_range_meters":18800,"station_id":"ce4bhm92rcd13ifvqglg","pricing_plan_id":"cebpf4jnsgd1na2vs0mg"},{"bike_id":"b46f4f49-f609-4c3e-a860-821458e42dfb","system_id":"levelo_inurba_marseille","lat":43.29932,"lon":5.3654,"is_reserved":false,"is_disabled":false,"rental_uris":{"android":"levelo://app?vid=b46f4f49-f609-4c3e-a860-821458e42dfb","ios":"levelo://app?vid=b46f4f49-f609-4c3e-a860-821458e42dfb"},"vehicle_type_id":"4","last_reported":1745421043,"current_range_meters":19200,"station_id":"ce4bgm92rcd13ifvqbr0","pricing_plan_id":"cebpf4jnsgd1na2vs0mg"},{"bike_id":"4dc98bba-7cf9-43a7-ab26-ed7449bcc8e1","system_id":"levelo_inurba_marseille","lat":43.25111,"lon":5.40318,"is_reserved":false,"is_disabled":false,"rental_uris":{"android":"levelo://app?vid=4dc98bba-7cf9-43a7-ab26-ed7449bcc8e1","ios":"levelo://app?vid=4dc98bba-7cf9-43a7-ab26-ed7449bcc8e1"},"vehicle_type_id":"4","last_reported":1745421043,"current_range_meters":19200,"station_id":"ce4bhlh2rcd13ifvqgig","pricing_plan_id":"cebpf4jnsgd1na2vs0mg"},{"bike_id":"a46baeda-1580-452d-8ee0-a5a2d760b97f","system_id":"levelo_inurba_marseille","lat":43.25002,"lon":5.38929,"is_reserved":false,"is_disabled":false,"rental_uris":{"android":"levelo://app?vid=a46baeda-1580-452d-8ee0-a5a2d760b97f","ios":"levelo://app?vid=a46baeda-1580-452d-8ee0-a5a2d760b97f"},"vehicle_type_id":"4","last_reported":1745421043,"current_range_meters":19200,"station_id":"ce4bgi12rcd13ifvqb70","pricing_plan_id":"cebpf4jnsgd1na2vs0mg"},{"bike_id":"8f33f60c-520f-4816-886f-b784d01d7d2b","system_id":"levelo_inurba_marseille","lat":43.28283,"lon":5.35061,"is_reserved":false,"is_disabled":false,"rental_uris":{"android":"levelo://app?vid=8f33f60c-520f-4816-886f-b784d01d7d2b","ios":"levelo://app?vid=8f33f60c-520f-4816-886f-b784d01d7d2b"},"vehicle_type_id":"4","last_reported":1745421043,"current_range_meters":19200,"station_id":"ce4bhbp2rcd13ifvqerg","pricing_plan_id":"cebpf4jnsgd1na2vs0mg"},{"bike_id":"61adbba7-75b5-4155-9060-c53f430c63fa","system_id":"levelo_inurba_marseille","lat":43.30136,"lon":5.38776,"is_reserved":false,"is_disabled":false,"rental_uris":{"android":"levelo://app?vid=61adbba7-75b5-4155-9060-c53f430c63fa","ios":"levelo://app?vid=61adbba7-75b5-4155-9060-c53f430c63fa"},"vehicle_type_id":"4","last_reported":1745421043,"current_range_meters":19200,"station_id":"ce4bghh2rcd13ifvqb60","pricing_plan_id":"cebpf4jnsgd1na2vs0mg"},{"bike_id":"84fe2676-5392-4b84-91ee-5548a08c7080","system_id":"levelo_inurba_marseille","lat":43.2315,"lon":5.43716,"is_reserved":false,"is_disabled":false,"rental_uris":{"android":"levelo://app?vid=84fe2676-5392-4b84-91ee-5548a08c7080","ios":"levelo://app?vid=84fe2676-5392-4b84-91ee-5548a08c7080"},"vehicle_type_id":"4","last_reported":1745421043,"current_range_meters":19200,"station_id":"ce4bhmp2rcd13ifvqgog","pricing_plan_id":"cebpf4jnsgd1na2vs0mg"},{"bike_id":"5dd12b3b-eef7-4dab-a6de-2ed4ff99da38","system_id":"levelo_inurba_marseille","lat":43.29045,"lon":5.37573,"is_reserved":false,"is_disabled":true,"rental_uris":{"android":"levelo://app?vid=5dd12b3b-eef7-4dab-a6de-2ed4ff99da38","ios":"levelo://app?vid=5dd12b3b-eef7-4dab-a6de-2ed4ff99da38"},"vehicle_type_id":"4","last_reported":1745421043,"current_range_meters":19600,"station_id":"ce4bh692rcd13ifvqe90","pricing_plan_id":"cebpf4jnsgd1na2vs0mg"},{"bike_id":"76c010ce-291d-42e8-8c9c-bb6e23877a8f","system_id":"levelo_inurba_marseille","lat":43.28415,"lon":5.34972,"is_reserved":false,"is_disabled":false,"rental_uris":{"android":"levelo://app?vid=76c010ce-291d-42e8-8c9c-bb6e23877a8f","ios":"levelo://app?vid=76c010ce-291d-42e8-8c9c-bb6e23877a8f"},"vehicle_type_id":"4","last_reported":1745421043,"current_range_meters":19600,"station_id":"ce4bhbh2rcd13ifvqepg","pricing_plan_id":"cebpf4jnsgd1na2vs0mg"},{"bike_id":"ab660249-0742-4ee6-9f3c-cbf7eabd0145","system_id":"levelo_inurba_marseille","lat":43.28615,"lon":5.37086,"is_reserved":false,"is_disabled":false,"rental_uris":{"android":"levelo://app?vid=ab660249-0742-4ee6-9f3c-cbf7eabd0145","ios":"levelo://app?vid=ab660249-0742-4ee6-9f3c-cbf7eabd0145"},"vehicle_type_id":"4","last_reported":1745421043,"current_range_meters":19600,"station_id":"ce4bht12rcd13ifvqi60","pricing_plan_id":"cebpf4jnsgd1na2vs0mg"},{"bike_id":"51948b7b-dcbd-4556-9e24-3c7f6337442b","system_id":"levelo_inurba_marseille","lat":43.29019,"lon":5.38142,"is_reserved":false,"is_disabled":false,"rental_uris":{"android":"levelo://app?vid=51948b7b-dcbd-4556-9e24-3c7f6337442b","ios":"levelo://app?vid=51948b7b-dcbd-4556-9e24-3c7f6337442b"},"vehicle_type_id":"4","last_reported":1745421043,"current_range_meters":19600,"station_id":"ce4bh4p2rcd13ifvqe1g","pricing_plan_id":"cebpf4jnsgd1na2vs0mg"},{"bike_id":"e5fc93a7-336c-4a7f-b15f-796c454bbcd1","system_id":"levelo_inurba_marseille","lat":43.310776,"lon":5.383536,"is_reserved":false,"is_disabled":false,"rental_uris":{"android":"levelo://app?vid=e5fc93a7-336c-4a7f-b15f-796c454bbcd1","ios":"levelo://app?vid=e5fc93a7-336c-4a7f-b15f-796c454bbcd1"},"vehicle_type_id":"4","last_reported":1745421043,"current_range_meters":20000,"station_id":"ce4bgv92rcd13ifvqcr0","pricing_plan_id":"cebpf4jnsgd1na2vs0mg"},{"bike_id":"17f64928-2dde-4002-ba54-81b220f041ae","system_id":"levelo_inurba_marseille","lat":43.284196,"lon":5.349818,"is_reserved":false,"is_disabled":false,"rental_uris":{"android":"levelo://app?vid=17f64928-2dde-4002-ba54-81b220f041ae","ios":"levelo://app?vid=17f64928-2dde-4002-ba54-81b220f041ae"},"vehicle_type_id":"4","last_reported":1745421043,"current_range_meters":20000,"station_id":"ce4bhbh2rcd13ifvqepg","pricing_plan_id":"cebpf4jnsgd1na2vs0mg"},{"bike_id":"8b43b1fb-5cab-4db8-ae05-f66514d8855e","system_id":"levelo_inurba_marseille","lat":43.31313,"lon":5.37325,"is_reserved":false,"is_disabled":false,"rental_uris":{"android":"levelo://app?vid=8b43b1fb-5cab-4db8-ae05-f66514d8855e","ios":"levelo://app?vid=8b43b1fb-5cab-4db8-ae05-f66514d8855e"},"vehicle_type_id":"4","last_reported":1745421043,"current_range_meters":20000,"station_id":"","pricing_plan_id":"cebpf4jnsgd1na2vs0mg"},{"bike_id":"d67e280a-f708-44d7-ac1f-37a8ebf5003e","system_id":"levelo_inurba_marseille","lat":43.30208,"lon":5.39396,"is_reserved":false,"is_disabled":false,"rental_uris":{"android":"levelo://app?vid=d67e280a-f708-44d7-ac1f-37a8ebf5003e","ios":"levelo://app?vid=d67e280a-f708-44d7-ac1f-37a8ebf5003e"},"vehicle_type_id":"4","last_reported":1745421043,"current_range_meters":20000,"station_id":"","pricing_plan_id":"cebpf4jnsgd1na2vs0mg"},{"bike_id":"4913507c-096c-4918-8edb-802e1c951937","system_id":"levelo_inurba_marseille","lat":43.29902,"lon":5.43678,"is_reserved":false,"is_disabled":false,"rental_uris":{"android":"levelo://app?vid=4913507c-096c-4918-8edb-802e1c951937","ios":"levelo://app?vid=4913507c-096c-4918-8edb-802e1c951937"},"vehicle_type_id":"4","last_reported":1745421043,"current_range_meters":20000,"station_id":"ce4bhpp2rcd13ifvqhfg","pricing_plan_id":"cebpf4jnsgd1na2vs0mg"},{"bike_id":"dfe03b83-4768-4cee-ad9c-0f04139efd9b","system_id":"levelo_inurba_marseille","lat":43.31534,"lon":5.38028,"is_reserved":false,"is_disabled":false,"rental_uris":{"android":"levelo://app?vid=dfe03b83-4768-4cee-ad9c-0f04139efd9b","ios":"levelo://app?vid=dfe03b83-4768-4cee-ad9c-0f04139efd9b"},"vehicle_type_id":"4","last_reported":1745421043,"current_range_meters":20000,"station_id":"ce4bhsp2rcd13ifvqi50","pricing_plan_id":"cebpf4jnsgd1na2vs0mg"},{"bike_id":"553dd91c-5b76-436c-a59c-2d412995bbeb","system_id":"levelo_inurba_marseille","lat":43.25582,"lon":5.38231,"is_reserved":false,"is_disabled":false,"rental_uris":{"android":"levelo://app?vid=553dd91c-5b76-436c-a59c-2d412995bbeb","ios":"levelo://app?vid=553dd91c-5b76-436c-a59c-2d412995bbeb"},"vehicle_type_id":"4","last_reported":1745421043,"current_range_meters":20400,"station_id":"ce4bhih2rcd13ifvqfs0","pricing_plan_id":"cebpf4jnsgd1na2vs0mg"},{"bike_id":"68d0ae5a-e8ca-4cca-8a98-a96c8c381da2","system_id":"levelo_inurba_marseille","lat":43.29897,"lon":5.36217,"is_reserved":false,"is_disabled":false,"rental_uris":{"android":"levelo://app?vid=68d0ae5a-e8ca-4cca-8a98-a96c8c381da2","ios":"levelo://app?vid=68d0ae5a-e8ca-4cca-8a98-a96c8c381da2"},"vehicle_type_id":"4","last_reported":1745421043,"current_range_meters":20400,"station_id":"","pricing_plan_id":"cebpf4jnsgd1na2vs0mg"},{"bike_id":"fa1b170d-d64e-4b51-8dcf-77359c9230b9","system_id":"levelo_inurba_marseille","lat":43.28364,"lon":5.38116,"is_reserved":false,"is_disabled":false,"rental_uris":{"android":"levelo://app?vid=fa1b170d-d64e-4b51-8dcf-77359c9230b9","ios":"levelo://app?vid=fa1b170d-d64e-4b51-8dcf-77359c9230b9"},"vehicle_type_id":"4","last_reported":1745421043,"current_range_meters":16800,"station_id":"ce4bh412rcd13ifvqdr0","pricing_plan_id":"cebpf4jnsgd1na2vs0mg"},{"bike_id":"a5856b95-9e19-4436-b973-344e5d5dcbd8","system_id":"levelo_inurba_marseille","lat":43.24158,"lon":5.36435,"is_reserved":false,"is_disabled":false,"rental_uris":{"android":"levelo://app?vid=a5856b95-9e19-4436-b973-344e5d5dcbd8","ios":"levelo://app?vid=a5856b95-9e19-4436-b973-344e5d5dcbd8"},"vehicle_type_id":"4","last_reported":1745421043,"current_range_meters":20400,"station_id":"cpo36qri1sfpv3e86is0","pricing_plan_id":"cebpf4jnsgd1na2vs0mg"},{"bike_id":"4bc10b86-ad31-450c-a972-bf3a5ce21b3a","system_id":"levelo_inurba_marseille","lat":43.31168,"lon":5.38717,"is_reserved":false,"is_disabled":false,"rental_uris":{"android":"levelo://app?vid=4bc10b86-ad31-450c-a972-bf3a5ce21b3a","ios":"levelo://app?vid=4bc10b86-ad31-450c-a972-bf3a5ce21b3a"},"vehicle_type_id":"4","last_reported":1745421043,"current_range_meters":20400,"station_id":"ce4bgv12rcd13ifvqcp0","pricing_plan_id":"cebpf4jnsgd1na2vs0mg"},{"bike_id":"ab8406b2-4f8d-4381-8821-3db52b0a4d4d","system_id":"levelo_inurba_marseille","lat":43.27344,"lon":5.37862,"is_reserved":false,"is_disabled":false,"rental_uris":{"android":"levelo://app?vid=ab8406b2-4f8d-4381-8821-3db52b0a4d4d","ios":"levelo://app?vid=ab8406b2-4f8d-4381-8821-3db52b0a4d4d"},"vehicle_type_id":"4","last_reported":1745421043,"current_range_meters":20400,"station_id":"","pricing_plan_id":"cebpf4jnsgd1na2vs0mg"},{"bike_id":"ccb0d5a3-5025-4d86-9350-edf76e729536","system_id":"levelo_inurba_marseille","lat":43.23966,"lon":5.36625,"is_reserved":false,"is_disabled":false,"rental_uris":{"android":"levelo://app?vid=ccb0d5a3-5025-4d86-9350-edf76e729536","ios":"levelo://app?vid=ccb0d5a3-5025-4d86-9350-edf76e729536"},"vehicle_type_id":"4","last_reported":1745421043,"current_range_meters":20000,"station_id":"ce4bhi12rcd13ifvqfp0","pricing_plan_id":"cebpf4jnsgd1na2vs0mg"},{"bike_id":"3f9ec19c-fd3e-4a10-a60a-7d3bf6ee1b2c","system_id":"levelo_inurba_marseille","lat":43.29423,"lon":5.38638,"is_reserved":false,"is_disabled":false,"rental_uris":{"android":"levelo://app?vid=3f9ec19c-fd3e-4a10-a60a-7d3bf6ee1b2c","ios":"levelo://app?vid=3f9ec19c-fd3e-4a10-a60a-7d3bf6ee1b2c"},"vehicle_type_id":"4","last_reported":1745421043,"current_range_meters":20400,"station_id":"ce4bh2h2rcd13ifvqdh0","pricing_plan_id":"cebpf4jnsgd1na2vs0mg"},{"bike_id":"5a0fddb1-7b1f-4a0c-96a2-fe273b29a8de","system_id":"levelo_inurba_marseille","lat":43.28628,"lon":5.35097,"is_reserved":false,"is_disabled":false,"rental_uris":{"android":"levelo://app?vid=5a0fddb1-7b1f-4a0c-96a2-fe273b29a8de","ios":"levelo://app?vid=5a0fddb1-7b1f-4a0c-96a2-fe273b29a8de"},"vehicle_type_id":"4","last_reported":1745421043,"current_range_meters":20400,"station_id":"ce4bhch2rcd13ifvqeug","pricing_plan_id":"cebpf4jnsgd1na2vs0mg"},{"bike_id":"fccfb157-688a-49af-992a-1ce9f178a3c3","system_id":"levelo_inurba_marseille","lat":43.22934,"lon":5.35378,"is_reserved":false,"is_disabled":false,"rental_uris":{"android":"levelo://app?vid=fccfb157-688a-49af-992a-1ce9f178a3c3","ios":"levelo://app?vid=fccfb157-688a-49af-992a-1ce9f178a3c3"},"vehicle_type_id":"4","last_reported":1745421043,"current_range_meters":20400,"station_id":"cpo3532slgdg3j2ikp40","pricing_plan_id":"cebpf4jnsgd1na2vs0mg"},{"bike_id":"396a3d41-9754-4acf-aa46-c0426eec218f","system_id":"levelo_inurba_marseille","lat":43.29842,"lon":5.36262,"is_reserved":false,"is_disabled":false,"rental_uris":{"android":"levelo://app?vid=396a3d41-9754-4acf-aa46-c0426eec218f","ios":"levelo://app?vid=396a3d41-9754-4acf-aa46-c0426eec218f"},"vehicle_type_id":"4","last_reported":1745421043,"current_range_meters":20800,"station_id":"ce4bgpp2rcd13ifvqc3g","pricing_plan_id":"cebpf4jnsgd1na2vs0mg"},{"bike_id":"bbcf4ec5-f038-4aa9-98a8-c1edd6f1d7c5","system_id":"levelo_inurba_marseille","lat":43.29967,"lon":5.38497,"is_reserved":false,"is_disabled":false,"rental_uris":{"android":"levelo://app?vid=bbcf4ec5-f038-4aa9-98a8-c1edd6f1d7c5","ios":"levelo://app?vid=bbcf4ec5-f038-4aa9-98a8-c1edd6f1d7c5"},"vehicle_type_id":"4","last_reported":1745421043,"current_range_meters":20800,"station_id":"ce4bgj92rcd13ifvqbd0","pricing_plan_id":"cebpf4jnsgd1na2vs0mg"},{"bike_id":"10f152e9-74df-499e-aa8b-881f5b5139fc","system_id":"levelo_inurba_marseille","lat":43.238983,"lon":5.377418,"is_reserved":false,"is_disabled":false,"rental_uris":{"android":"levelo://app?vid=10f152e9-74df-499e-aa8b-881f5b5139fc","ios":"levelo://app?vid=10f152e9-74df-499e-aa8b-881f5b5139fc"},"vehicle_type_id":"4","last_reported":1745421043,"current_range_meters":20400,"station_id":"ce4bhnp2rcd13ifvqgvg","pricing_plan_id":"cebpf4jnsgd1na2vs0mg"},{"bike_id":"deeefa9c-a3a0-4e47-9c27-3e87f7ec1d5e","system_id":"levelo_inurba_marseille","lat":43.23204,"lon":5.39969,"is_reserved":false,"is_disabled":false,"rental_uris":{"android":"levelo://app?vid=deeefa9c-a3a0-4e47-9c27-3e87f7ec1d5e","ios":"levelo://app?vid=deeefa9c-a3a0-4e47-9c27-3e87f7ec1d5e"},"vehicle_type_id":"4","last_reported":1745421043,"current_range_meters":20800,"station_id":"ce4bhn12rcd13ifvqgqg","pricing_plan_id":"cebpf4jnsgd1na2vs0mg"},{"bike_id":"925b0361-d7cb-4668-a58b-f67c26f76500","system_id":"levelo_inurba_marseille","lat":43.29529,"lon":5.390825,"is_reserved":false,"is_disabled":false,"rental_uris":{"android":"levelo://app?vid=925b0361-d7cb-4668-a58b-f67c26f76500","ios":"levelo://app?vid=925b0361-d7cb-4668-a58b-f67c26f76500"},"vehicle_type_id":"4","last_reported":1745421043,"current_range_meters":21600,"station_id":"ce4bh392rcd13ifvqdm0","pricing_plan_id":"cebpf4jnsgd1na2vs0mg"},{"bike_id":"c8cc5bc6-4aee-4811-8513-2b242b7ce89b","system_id":"levelo_inurba_marseille","lat":43.2319,"lon":5.35538,"is_reserved":false,"is_disabled":false,"rental_uris":{"android":"levelo://app?vid=c8cc5bc6-4aee-4811-8513-2b242b7ce89b","ios":"levelo://app?vid=c8cc5bc6-4aee-4811-8513-2b242b7ce89b"},"vehicle_type_id":"4","last_reported":1745421043,"current_range_meters":21600,"station_id":"ce4bhu92rcd13ifvqi70","pricing_plan_id":"cebpf4jnsgd1na2vs0mg"},{"bike_id":"e7e94fdc-f78a-4582-aed8-78c92c01e870","system_id":"levelo_inurba_marseille","lat":43.28621,"lon":5.35105,"is_reserved":false,"is_disabled":false,"rental_uris":{"android":"levelo://app?vid=e7e94fdc-f78a-4582-aed8-78c92c01e870","ios":"levelo://app?vid=e7e94fdc-f78a-4582-aed8-78c92c01e870"},"vehicle_type_id":"4","last_reported":1745421043,"current_range_meters":21600,"station_id":"ce4bhch2rcd13ifvqeug","pricing_plan_id":"cebpf4jnsgd1na2vs0mg"},{"bike_id":"c9701757-a649-48f3-aa5b-53262866ff02","system_id":"levelo_inurba_marseille","lat":43.290153,"lon":5.38131,"is_reserved":false,"is_disabled":false,"rental_uris":{"android":"levelo://app?vid=c9701757-a649-48f3-aa5b-53262866ff02","ios":"levelo://app?vid=c9701757-a649-48f3-aa5b-53262866ff02"},"vehicle_type_id":"4","last_reported":1745421043,"current_range_meters":21600,"station_id":"ce4bh4p2rcd13ifvqe1g","pricing_plan_id":"cebpf4jnsgd1na2vs0mg"},{"bike_id":"461d8654-46de-407a-af94-fab41b64a6f1","system_id":"levelo_inurba_marseille","lat":43.31334,"lon":5.397,"is_reserved":false,"is_disabled":false,"rental_uris":{"android":"levelo://app?vid=461d8654-46de-407a-af94-fab41b64a6f1","ios":"levelo://app?vid=461d8654-46de-407a-af94-fab41b64a6f1"},"vehicle_type_id":"4","last_reported":1745421043,"current_range_meters":22000,"station_id":"ce4bgvp2rcd13ifvqcu0","pricing_plan_id":"cebpf4jnsgd1na2vs0mg"},{"bike_id":"9cfb1968-31f9-498a-a8df-eebd27352a50","system_id":"levelo_inurba_marseille","lat":43.28986,"lon":5.37838,"is_reserved":false,"is_disabled":false,"rental_uris":{"android":"levelo://app?vid=9cfb1968-31f9-498a-a8df-eebd27352a50","ios":"levelo://app?vid=9cfb1968-31f9-498a-a8df-eebd27352a50"},"vehicle_type_id":"4","last_reported":1745421043,"current_range_meters":21600,"station_id":"ce4bh9p2rcd13ifvqed0","pricing_plan_id":"cebpf4jnsgd1na2vs0mg"},{"bike_id":"0d38c5c4-e5b5-4054-8b6f-9944468c4814","system_id":"levelo_inurba_marseille","lat":43.23163,"lon":5.43695,"is_reserved":false,"is_disabled":false,"rental_uris":{"android":"levelo://app?vid=0d38c5c4-e5b5-4054-8b6f-9944468c4814","ios":"levelo://app?vid=0d38c5c4-e5b5-4054-8b6f-9944468c4814"},"vehicle_type_id":"4","last_reported":1745421043,"current_range_meters":22000,"station_id":"ce4bhmp2rcd13ifvqgog","pricing_plan_id":"cebpf4jnsgd1na2vs0mg"},{"bike_id":"c9c9d479-2ddd-4d4c-b800-d2e85233a955","system_id":"levelo_inurba_marseille","lat":43.28939,"lon":5.39622,"is_reserved":false,"is_disabled":false,"rental_uris":{"android":"levelo://app?vid=c9c9d479-2ddd-4d4c-b800-d2e85233a955","ios":"levelo://app?vid=c9c9d479-2ddd-4d4c-b800-d2e85233a955"},"vehicle_type_id":"4","last_reported":1745421043,"current_range_meters":22000,"station_id":"ce4bh3h2rcd13ifvqdn0","pricing_plan_id":"cebpf4jnsgd1na2vs0mg"},{"bike_id":"7a38cd50-7a93-4627-806c-1a69d66aceb3","system_id":"levelo_inurba_marseille","lat":43.30796,"lon":5.43516,"is_reserved":false,"is_disabled":false,"rental_uris":{"android":"levelo://app?vid=7a38cd50-7a93-4627-806c-1a69d66aceb3","ios":"levelo://app?vid=7a38cd50-7a93-4627-806c-1a69d66aceb3"},"vehicle_type_id":"4","last_reported":1745421043,"current_range_meters":22000,"station_id":"ce4bhph2rcd13ifvqheg","pricing_plan_id":"cebpf4jnsgd1na2vs0mg"},{"bike_id":"cadd2a19-c37c-493d-b003-1c5753f859f2","system_id":"levelo_inurba_marseille","lat":43.30559,"lon":5.38445,"is_reserved":false,"is_disabled":true,"rental_uris":{"android":"levelo://app?vid=cadd2a19-c37c-493d-b003-1c5753f859f2","ios":"levelo://app?vid=cadd2a19-c37c-493d-b003-1c5753f859f2"},"vehicle_type_id":"4","last_reported":1745421043,"current_range_meters":22400,"station_id":"ce4bgg92rcd13ifvqb30","pricing_plan_id":"cebpf4jnsgd1na2vs0mg"},{"bike_id":"129ea9c4-35d8-4d8a-97f1-d90eefdd4cf8","system_id":"levelo_inurba_marseille","lat":43.2921,"lon":5.39314,"is_reserved":false,"is_disabled":true,"rental_uris":{"android":"levelo://app?vid=129ea9c4-35d8-4d8a-97f1-d90eefdd4cf8","ios":"levelo://app?vid=129ea9c4-35d8-4d8a-97f1-d90eefdd4cf8"},"vehicle_type_id":"4","last_reported":1745421043,"current_range_meters":22400,"station_id":"ce4bh192rcd13ifvqdd0","pricing_plan_id":"cebpf4jnsgd1na2vs0mg"},{"bike_id":"1cb7d923-56a7-45db-9a25-4055570ab351","system_id":"levelo_inurba_marseille","lat":43.31067,"lon":5.40074,"is_reserved":false,"is_disabled":false,"rental_uris":{"android":"levelo://app?vid=1cb7d923-56a7-45db-9a25-4055570ab351","ios":"levelo://app?vid=1cb7d923-56a7-45db-9a25-4055570ab351"},"vehicle_type_id":"4","last_reported":1745421043,"current_range_meters":22400,"station_id":"","pricing_plan_id":"cebpf4jnsgd1na2vs0mg"},{"bike_id":"b5703c46-3a7f-4c2d-88f6-e483f426603b","system_id":"levelo_inurba_marseille","lat":43.23192,"lon":5.3557,"is_reserved":false,"is_disabled":false,"rental_uris":{"android":"levelo://app?vid=b5703c46-3a7f-4c2d-88f6-e483f426603b","ios":"levelo://app?vid=b5703c46-3a7f-4c2d-88f6-e483f426603b"},"vehicle_type_id":"4","last_reported":1745421043,"current_range_meters":22000,"station_id":"ce4bhu92rcd13ifvqi70","pricing_plan_id":"cebpf4jnsgd1na2vs0mg"},{"bike_id":"c5260414-53ea-4c4b-84bd-1a38f855ebd9","system_id":"levelo_inurba_marseille","lat":43.31074,"lon":5.38359,"is_reserved":false,"is_disabled":true,"rental_uris":{"android":"levelo://app?vid=c5260414-53ea-4c4b-84bd-1a38f855ebd9","ios":"levelo://app?vid=c5260414-53ea-4c4b-84bd-1a38f855ebd9"},"vehicle_type_id":"4","last_reported":1745421043,"current_range_meters":22400,"station_id":"ce4bgv92rcd13ifvqcr0","pricing_plan_id":"cebpf4jnsgd1na2vs0mg"},{"bike_id":"9b65bcea-ef6e-4171-b33d-3d168c5f201d","system_id":"levelo_inurba_marseille","lat":43.31168,"lon":5.38712,"is_reserved":false,"is_disabled":false,"rental_uris":{"android":"levelo://app?vid=9b65bcea-ef6e-4171-b33d-3d168c5f201d","ios":"levelo://app?vid=9b65bcea-ef6e-4171-b33d-3d168c5f201d"},"vehicle_type_id":"4","last_reported":1745421043,"current_range_meters":22400,"station_id":"ce4bgv12rcd13ifvqcp0","pricing_plan_id":"cebpf4jnsgd1na2vs0mg"},{"bike_id":"73f40cff-bb71-4b7a-8ad7-f06c69fb0596","system_id":"levelo_inurba_marseille","lat":43.21224,"lon":5.35092,"is_reserved":false,"is_disabled":false,"rental_uris":{"android":"levelo://app?vid=73f40cff-bb71-4b7a-8ad7-f06c69fb0596","ios":"levelo://app?vid=73f40cff-bb71-4b7a-8ad7-f06c69fb0596"},"vehicle_type_id":"4","last_reported":1745421043,"current_range_meters":22800,"station_id":"st_cvj6sg6p6f1abm77japg","pricing_plan_id":"cebpf4jnsgd1na2vs0mg"},{"bike_id":"829c6fcd-db9b-437e-9138-8a1821730e18","system_id":"levelo_inurba_marseille","lat":43.32337,"lon":5.40609,"is_reserved":false,"is_disabled":false,"rental_uris":{"android":"levelo://app?vid=829c6fcd-db9b-437e-9138-8a1821730e18","ios":"levelo://app?vid=829c6fcd-db9b-437e-9138-8a1821730e18"},"vehicle_type_id":"4","last_reported":1745421043,"current_range_meters":22800,"station_id":"ce4bhq92rcd13ifvqhjg","pricing_plan_id":"cebpf4jnsgd1na2vs0mg"},{"bike_id":"952f6338-e0da-4a54-8de0-52c2eb62db14","system_id":"levelo_inurba_marseille","lat":43.23184,"lon":5.39991,"is_reserved":false,"is_disabled":false,"rental_uris":{"android":"levelo://app?vid=952f6338-e0da-4a54-8de0-52c2eb62db14","ios":"levelo://app?vid=952f6338-e0da-4a54-8de0-52c2eb62db14"},"vehicle_type_id":"4","last_reported":1745421043,"current_range_meters":22400,"station_id":"ce4bhn12rcd13ifvqgqg","pricing_plan_id":"cebpf4jnsgd1na2vs0mg"},{"bike_id":"da194f9d-1acc-4cac-84ac-607303ebb968","system_id":"levelo_inurba_marseille","lat":43.23202,"lon":5.35545,"is_reserved":false,"is_disabled":false,"rental_uris":{"android":"levelo://app?vid=da194f9d-1acc-4cac-84ac-607303ebb968","ios":"levelo://app?vid=da194f9d-1acc-4cac-84ac-607303ebb968"},"vehicle_type_id":"4","last_reported":1745421043,"current_range_meters":22800,"station_id":"ce4bhu92rcd13ifvqi70","pricing_plan_id":"cebpf4jnsgd1na2vs0mg"},{"bike_id":"30da752e-5450-4da3-965e-773778ce5d7d","system_id":"levelo_inurba_marseille","lat":43.241705,"lon":5.36398,"is_reserved":false,"is_disabled":false,"rental_uris":{"android":"levelo://app?vid=30da752e-5450-4da3-965e-773778ce5d7d","ios":"levelo://app?vid=30da752e-5450-4da3-965e-773778ce5d7d"},"vehicle_type_id":"4","last_reported":1745421043,"current_range_meters":22800,"station_id":"cpo36qri1sfpv3e86is0","pricing_plan_id":"cebpf4jnsgd1na2vs0mg"},{"bike_id":"3e0aa3e7-c754-47bb-b121-e4e44f2c86c5","system_id":"levelo_inurba_marseille","lat":43.32477,"lon":5.36568,"is_reserved":false,"is_disabled":false,"rental_uris":{"android":"levelo://app?vid=3e0aa3e7-c754-47bb-b121-e4e44f2c86c5","ios":"levelo://app?vid=3e0aa3e7-c754-47bb-b121-e4e44f2c86c5"},"vehicle_type_id":"4","last_reported":1745421043,"current_range_meters":22800,"station_id":"ce4bhs12rcd13ifvqhvg","pricing_plan_id":"cebpf4jnsgd1na2vs0mg"},{"bike_id":"a823ec9d-7d2e-4894-8bcc-79b308d25452","system_id":"levelo_inurba_marseille","lat":43.33737,"lon":5.39173,"is_reserved":false,"is_disabled":false,"rental_uris":{"android":"levelo://app?vid=a823ec9d-7d2e-4894-8bcc-79b308d25452","ios":"levelo://app?vid=a823ec9d-7d2e-4894-8bcc-79b308d25452"},"vehicle_type_id":"4","last_reported":1745421043,"current_range_meters":22800,"station_id":"ce4bhr92rcd13ifvqhsg","pricing_plan_id":"cebpf4jnsgd1na2vs0mg"},{"bike_id":"ee690c9c-b76e-4a28-979e-d323e7ad3845","system_id":"levelo_inurba_marseille","lat":43.28629,"lon":5.35128,"is_reserved":false,"is_disabled":false,"rental_uris":{"android":"levelo://app?vid=ee690c9c-b76e-4a28-979e-d323e7ad3845","ios":"levelo://app?vid=ee690c9c-b76e-4a28-979e-d323e7ad3845"},"vehicle_type_id":"4","last_reported":1745421043,"current_range_meters":22800,"station_id":"ce4bhch2rcd13ifvqeug","pricing_plan_id":"cebpf4jnsgd1na2vs0mg"},{"bike_id":"40c8c591-9e29-4984-9c43-6bdcf04c4c54","system_id":"levelo_inurba_marseille","lat":43.29844,"lon":5.36273,"is_reserved":false,"is_disabled":false,"rental_uris":{"android":"levelo://app?vid=40c8c591-9e29-4984-9c43-6bdcf04c4c54","ios":"levelo://app?vid=40c8c591-9e29-4984-9c43-6bdcf04c4c54"},"vehicle_type_id":"4","last_reported":1745421043,"current_range_meters":22800,"station_id":"ce4bgpp2rcd13ifvqc3g","pricing_plan_id":"cebpf4jnsgd1na2vs0mg"},{"bike_id":"c8fd229d-246e-4dd9-9c72-0a4ee86e87e9","system_id":"levelo_inurba_marseille","lat":43.239594,"lon":5.366227,"is_reserved":false,"is_disabled":false,"rental_uris":{"android":"levelo://app?vid=c8fd229d-246e-4dd9-9c72-0a4ee86e87e9","ios":"levelo://app?vid=c8fd229d-246e-4dd9-9c72-0a4ee86e87e9"},"vehicle_type_id":"4","last_reported":1745421043,"current_range_meters":22800,"station_id":"ce4bhi12rcd13ifvqfp0","pricing_plan_id":"cebpf4jnsgd1na2vs0mg"},{"bike_id":"52e3cb87-8ff5-4d4a-8eab-ad0f75adacce","system_id":"levelo_inurba_marseille","lat":43.29977,"lon":5.38493,"is_reserved":false,"is_disabled":false,"rental_uris":{"android":"levelo://app?vid=52e3cb87-8ff5-4d4a-8eab-ad0f75adacce","ios":"levelo://app?vid=52e3cb87-8ff5-4d4a-8eab-ad0f75adacce"},"vehicle_type_id":"4","last_reported":1745421043,"current_range_meters":22400,"station_id":"ce4bgj92rcd13ifvqbd0","pricing_plan_id":"cebpf4jnsgd1na2vs0mg"},{"bike_id":"5ed546e5-b3ba-42b1-9415-d0b39e6f5d48","system_id":"levelo_inurba_marseille","lat":43.313329,"lon":5.396948,"is_reserved":false,"is_disabled":false,"rental_uris":{"android":"levelo://app?vid=5ed546e5-b3ba-42b1-9415-d0b39e6f5d48","ios":"levelo://app?vid=5ed546e5-b3ba-42b1-9415-d0b39e6f5d48"},"vehicle_type_id":"4","last_reported":1745421043,"current_range_meters":23200,"station_id":"ce4bgvp2rcd13ifvqcu0","pricing_plan_id":"cebpf4jnsgd1na2vs0mg"},{"bike_id":"42d3c5b5-1f93-4263-b5d2-2a48737e812c","system_id":"levelo_inurba_marseille","lat":43.29997,"lon":5.37428,"is_reserved":false,"is_disabled":false,"rental_uris":{"android":"levelo://app?vid=42d3c5b5-1f93-4263-b5d2-2a48737e812c","ios":"levelo://app?vid=42d3c5b5-1f93-4263-b5d2-2a48737e812c"},"vehicle_type_id":"4","last_reported":1745421043,"current_range_meters":23200,"station_id":"","pricing_plan_id":"cebpf4jnsgd1na2vs0mg"},{"bike_id":"3e3f735b-92ae-48e1-8928-5a9a4fb33d04","system_id":"levelo_inurba_marseille","lat":43.29868,"lon":5.36298,"is_reserved":false,"is_disabled":false,"rental_uris":{"android":"levelo://app?vid=3e3f735b-92ae-48e1-8928-5a9a4fb33d04","ios":"levelo://app?vid=3e3f735b-92ae-48e1-8928-5a9a4fb33d04"},"vehicle_type_id":"4","last_reported":1745421043,"current_range_meters":23200,"station_id":"ce4bgpp2rcd13ifvqc3g","pricing_plan_id":"cebpf4jnsgd1na2vs0mg"},{"bike_id":"95419e80-e155-4b1d-967f-f7b9778ea950","system_id":"levelo_inurba_marseille","lat":43.23189,"lon":5.35566,"is_reserved":false,"is_disabled":false,"rental_uris":{"android":"levelo://app?vid=95419e80-e155-4b1d-967f-f7b9778ea950","ios":"levelo://app?vid=95419e80-e155-4b1d-967f-f7b9778ea950"},"vehicle_type_id":"4","last_reported":1745421043,"current_range_meters":23200,"station_id":"ce4bhu92rcd13ifvqi70","pricing_plan_id":"cebpf4jnsgd1na2vs0mg"},{"bike_id":"cf23c2a3-aece-4eaa-a7f1-9b35a13962bc","system_id":"levelo_inurba_marseille","lat":43.23189,"lon":5.35574,"is_reserved":false,"is_disabled":false,"rental_uris":{"android":"levelo://app?vid=cf23c2a3-aece-4eaa-a7f1-9b35a13962bc","ios":"levelo://app?vid=cf23c2a3-aece-4eaa-a7f1-9b35a13962bc"},"vehicle_type_id":"4","last_reported":1745421043,"current_range_meters":23200,"station_id":"ce4bhu92rcd13ifvqi70","pricing_plan_id":"cebpf4jnsgd1na2vs0mg"},{"bike_id":"0267d9c2-dd60-4f6c-9d59-14262d3dc999","system_id":"levelo_inurba_marseille","lat":43.23179,"lon":5.35553,"is_reserved":false,"is_disabled":false,"rental_uris":{"android":"levelo://app?vid=0267d9c2-dd60-4f6c-9d59-14262d3dc999","ios":"levelo://app?vid=0267d9c2-dd60-4f6c-9d59-14262d3dc999"},"vehicle_type_id":"4","last_reported":1745421043,"current_range_meters":23200,"station_id":"ce4bhu92rcd13ifvqi70","pricing_plan_id":"cebpf4jnsgd1na2vs0mg"},{"bike_id":"6b0dcc75-8de4-4eef-95ac-f6cca6b3d883","system_id":"levelo_inurba_marseille","lat":43.31175,"lon":5.38714,"is_reserved":false,"is_disabled":false,"rental_uris":{"android":"levelo://app?vid=6b0dcc75-8de4-4eef-95ac-f6cca6b3d883","ios":"levelo://app?vid=6b0dcc75-8de4-4eef-95ac-f6cca6b3d883"},"vehicle_type_id":"4","last_reported":1745421043,"current_range_meters":23200,"station_id":"ce4bgv12rcd13ifvqcp0","pricing_plan_id":"cebpf4jnsgd1na2vs0mg"},{"bike_id":"e7093a55-c5e1-4525-90b8-4f083a9c5863","system_id":"levelo_inurba_marseille","lat":43.2872,"lon":5.3793,"is_reserved":false,"is_disabled":true,"rental_uris":{"android":"levelo://app?vid=e7093a55-c5e1-4525-90b8-4f083a9c5863","ios":"levelo://app?vid=e7093a55-c5e1-4525-90b8-4f083a9c5863"},"vehicle_type_id":"4","last_reported":1745421043,"current_range_meters":23200,"station_id":"ce4bh9p2rcd13ifvqec0","pricing_plan_id":"cebpf4jnsgd1na2vs0mg"},{"bike_id":"4b6bde5e-c129-4c6f-9494-78dd643d2009","system_id":"levelo_inurba_marseille","lat":43.29849,"lon":5.36281,"is_reserved":false,"is_disabled":false,"rental_uris":{"android":"levelo://app?vid=4b6bde5e-c129-4c6f-9494-78dd643d2009","ios":"levelo://app?vid=4b6bde5e-c129-4c6f-9494-78dd643d2009"},"vehicle_type_id":"4","last_reported":1745421043,"current_range_meters":23200,"station_id":"ce4bgpp2rcd13ifvqc3g","pricing_plan_id":"cebpf4jnsgd1na2vs0mg"},{"bike_id":"7ac69f8a-b02c-4195-9695-e7013e8459f6","system_id":"levelo_inurba_marseille","lat":43.28461,"lon":5.35893,"is_reserved":false,"is_disabled":false,"rental_uris":{"android":"levelo://app?vid=7ac69f8a-b02c-4195-9695-e7013e8459f6","ios":"levelo://app?vid=7ac69f8a-b02c-4195-9695-e7013e8459f6"},"vehicle_type_id":"4","last_reported":1745421043,"current_range_meters":23200,"station_id":"ce4bhah2rcd13ifvqei0","pricing_plan_id":"cebpf4jnsgd1na2vs0mg"},{"bike_id":"f1643801-d38a-4612-a268-f4e944fd8c4c","system_id":"levelo_inurba_marseille","lat":43.2737,"lon":5.36252,"is_reserved":false,"is_disabled":false,"rental_uris":{"android":"levelo://app?vid=f1643801-d38a-4612-a268-f4e944fd8c4c","ios":"levelo://app?vid=f1643801-d38a-4612-a268-f4e944fd8c4c"},"vehicle_type_id":"4","last_reported":1745421043,"current_range_meters":23200,"station_id":"ce4bhbh2rcd13ifvqeo0","pricing_plan_id":"cebpf4jnsgd1na2vs0mg"},{"bike_id":"83706688-f1f8-4fcf-b0d1-e8342c112c11","system_id":"levelo_inurba_marseille","lat":43.21198,"lon":5.35086,"is_reserved":false,"is_disabled":false,"rental_uris":{"android":"levelo://app?vid=83706688-f1f8-4fcf-b0d1-e8342c112c11","ios":"levelo://app?vid=83706688-f1f8-4fcf-b0d1-e8342c112c11"},"vehicle_type_id":"4","last_reported":1745421043,"current_range_meters":24000,"station_id":"st_cvj6sg6p6f1abm77japg","pricing_plan_id":"cebpf4jnsgd1na2vs0mg"},{"bike_id":"6a03a0fe-054e-47d1-8a04-29636b1d221a","system_id":"levelo_inurba_marseille","lat":43.21182,"lon":5.35083,"is_reserved":false,"is_disabled":false,"rental_uris":{"android":"levelo://app?vid=6a03a0fe-054e-47d1-8a04-29636b1d221a","ios":"levelo://app?vid=6a03a0fe-054e-47d1-8a04-29636b1d221a"},"vehicle_type_id":"4","last_reported":1745421043,"current_range_meters":24000,"station_id":"st_cvj6sg6p6f1abm77japg","pricing_plan_id":"cebpf4jnsgd1na2vs0mg"},{"bike_id":"ba97a81f-bd9e-46ea-9d99-4df0c3e051fc","system_id":"levelo_inurba_marseille","lat":43.2594,"lon":5.40905,"is_reserved":false,"is_disabled":false,"rental_uris":{"android":"levelo://app?vid=ba97a81f-bd9e-46ea-9d99-4df0c3e051fc","ios":"levelo://app?vid=ba97a81f-bd9e-46ea-9d99-4df0c3e051fc"},"vehicle_type_id":"4","last_reported":1745421043,"current_range_meters":24000,"station_id":"ce4bhm92rcd13ifvqglg","pricing_plan_id":"cebpf4jnsgd1na2vs0mg"},{"bike_id":"221edd17-32fc-47f7-9f27-914019bb8bca","system_id":"levelo_inurba_marseille","lat":43.29838,"lon":5.3626,"is_reserved":false,"is_disabled":false,"rental_uris":{"android":"levelo://app?vid=221edd17-32fc-47f7-9f27-914019bb8bca","ios":"levelo://app?vid=221edd17-32fc-47f7-9f27-914019bb8bca"},"vehicle_type_id":"4","last_reported":1745421043,"current_range_meters":24000,"station_id":"ce4bgpp2rcd13ifvqc3g","pricing_plan_id":"cebpf4jnsgd1na2vs0mg"},{"bike_id":"a2154cf2-9e2b-4fac-a3a2-46768f048804","system_id":"levelo_inurba_marseille","lat":43.28463,"lon":5.35881,"is_reserved":false,"is_disabled":false,"rental_uris":{"android":"levelo://app?vid=a2154cf2-9e2b-4fac-a3a2-46768f048804","ios":"levelo://app?vid=a2154cf2-9e2b-4fac-a3a2-46768f048804"},"vehicle_type_id":"4","last_reported":1745421043,"current_range_meters":24000,"station_id":"ce4bhah2rcd13ifvqei0","pricing_plan_id":"cebpf4jnsgd1na2vs0mg"},{"bike_id":"90b3d464-31d9-4451-b405-7a4540baf566","system_id":"levelo_inurba_marseille","lat":43.29851,"lon":5.3626,"is_reserved":false,"is_disabled":false,"rental_uris":{"android":"levelo://app?vid=90b3d464-31d9-4451-b405-7a4540baf566","ios":"levelo://app?vid=90b3d464-31d9-4451-b405-7a4540baf566"},"vehicle_type_id":"4","last_reported":1745421043,"current_range_meters":24000,"station_id":"ce4bgpp2rcd13ifvqc3g","pricing_plan_id":"cebpf4jnsgd1na2vs0mg"},{"bike_id":"74d38f39-401d-4e26-8d13-42432a613d74","system_id":"levelo_inurba_marseille","lat":43.28277,"lon":5.35063,"is_reserved":false,"is_disabled":false,"rental_uris":{"android":"levelo://app?vid=74d38f39-401d-4e26-8d13-42432a613d74","ios":"levelo://app?vid=74d38f39-401d-4e26-8d13-42432a613d74"},"vehicle_type_id":"4","last_reported":1745421043,"current_range_meters":24000,"station_id":"ce4bhbp2rcd13ifvqerg","pricing_plan_id":"cebpf4jnsgd1na2vs0mg"},{"bike_id":"0bfff189-ec6a-4439-b345-e9dd168ab867","system_id":"levelo_inurba_marseille","lat":43.33735,"lon":5.39181,"is_reserved":false,"is_disabled":false,"rental_uris":{"android":"levelo://app?vid=0bfff189-ec6a-4439-b345-e9dd168ab867","ios":"levelo://app?vid=0bfff189-ec6a-4439-b345-e9dd168ab867"},"vehicle_type_id":"4","last_reported":1745421043,"current_range_meters":24000,"station_id":"ce4bhr92rcd13ifvqhsg","pricing_plan_id":"cebpf4jnsgd1na2vs0mg"},{"bike_id":"91b1deb9-5721-4deb-bc59-2568e3ace738","system_id":"levelo_inurba_marseille","lat":43.28621,"lon":5.3708,"is_reserved":false,"is_disabled":false,"rental_uris":{"android":"levelo://app?vid=91b1deb9-5721-4deb-bc59-2568e3ace738","ios":"levelo://app?vid=91b1deb9-5721-4deb-bc59-2568e3ace738"},"vehicle_type_id":"4","last_reported":1745421043,"current_range_meters":24000,"station_id":"ce4bht12rcd13ifvqi60","pricing_plan_id":"cebpf4jnsgd1na2vs0mg"},{"bike_id":"accaeb10-87ab-47a4-934a-fad9a4475455","system_id":"levelo_inurba_marseille","lat":43.29846,"lon":5.37177,"is_reserved":false,"is_disabled":false,"rental_uris":{"android":"levelo://app?vid=accaeb10-87ab-47a4-934a-fad9a4475455","ios":"levelo://app?vid=accaeb10-87ab-47a4-934a-fad9a4475455"},