{"last_updated":1723292044,"ttl":30,"version":"2.2","data":{"bikes":[{"bike_id":"e232171d-7bac-4236-8b10-8423245bc4dd","system_id":"levelo_inurba_marseille","lat":43.31341,"lon":5.367098,"is_reserved":false,"is_disabled":false,"rental_uris":{"android":"levelo://app?vid=e232171d-7bac-4236-8b10-8423245bc4dd","ios":"levelo://app?vid=e232171d-7bac-4236-8b10-8423245bc4dd"},"vehicle_type_id":"4","last_reported":1723292044,"current_range_meters":29200,"station_id":"ce4bgr92rcd13ifvqc6g","pricing_plan_id":"cebpf4jnsgd1na2vs0mg"},{"bike_id":"b4fef601-ff47-462f-861a-455da9ce24e9","system_id":"levelo_inurba_marseille","lat":43.31341,"lon":5.367098,"is_reserved":false,"is_disabled":false,"rental_uris":{"android":"levelo://app?vid=b4fef601-ff47-462f-861a-455da9ce24e9","ios":"levelo://app?vid=b4fef601-ff47-462f-861a-455da9ce24e9"},"vehicle_type_id":"4","last_reported":1723292044,"current_range_meters":2800,"station_id":"ce4bgr92rcd13ifvqc6g","pricing_plan_id":"cebpf4jnsgd1na2vs0mg"},{"bike_id":"bc8eda88-6a98-47f9-836d-d6da12cbbc96","system_id":"levelo_inurba_marseille","lat":43.313513,"lon":5.367278,"is_reserved":false,"is_disabled":false,"rental_uris":{"android":"levelo://app?vid=bc8eda88-6a98-47f9-836d-d6da12cbbc96","ios":"levelo://app?vid=bc8eda88-6a98-47f9-836d-d6da12cbbc96"},"vehicle_type_id":"4","last_reported":1723292044,"current_range_meters":26800,"station_id":"ce4bgr92rcd13ifvqc6g","pricing_plan_id":"cebpf4jnsgd1na2vs0mg"},{"bike_id":"6eec8c8d-b42e-4a5a-9cce-89b98f9c9b0d","system_id":"levelo_inurba_marseille","lat":43.309076,"lon":5.368465,"is_reserved":false,"is_disabled":false,"rental_uris":{"android":"levelo://app?vid=6eec8c8d-b42e-4a5a-9cce-89b98f9c9b0d","ios":"levelo://app?vid=6eec8c8d-b42e-4a5a-9cce-89b98f9c9b0d"},"vehicle_type_id":"4","last_reported":1723292044,"current_range_meters":18800,"station_id":"ce4bgn92rcd13ifvqbvg","pricing_plan_id":"cebpf4jnsgd1na2vs0mg"},{"bike_id":"01a0ac59-ee6e-4f5b-a649-80b2dc28d274","system_id":"levelo_inurba_marseille","lat":43.309076,"lon":5.368465,"is_reserved":false,"is_disabled":false,"rental_uris":{"android":"levelo://app?vid=01a0ac59-ee6e-4f5b-a649-80b2dc28d274","ios":"levelo://app?vid=01a0ac59-ee6e-4f5b-a649-80b2dc28d274"},"vehicle_type_id":"4","last_reported":1723292044,"current_range_meters":29200,"station_id":"ce4bgn92rcd13ifvqbvg","pricing_plan_id":"cebpf4jnsgd1na2vs0mg"},{"bike_id":"dad01b8d-3a46-4ce4-a6ba-af7bf0ea679b","system_id":"levelo_inurba_marseille","lat":43.31484,"lon":5.37298,"is_reserved":false,"is_disabled":false,"rental_uris":{"android":"levelo://app?vid=dad01b8d-3a46-4ce4-a6ba-af7bf0ea679b","ios":"levelo://app?vid=dad01b8d-3a46-4ce4-a6ba-af7bf0ea679b"},"vehicle_type_id":"4","last_reported":1723292044,"current_range_meters":9600,"station_id":"ce4bgt12rcd13ifvqcd0","pricing_plan_id":"cebpf4jnsgd1na2vs0mg"},{"bike_id":"61bfeb3b-5593-46e6-97b6-d90b4519899a","system_id":"levelo_inurba_marseille","lat":43.314907,"lon":5.373087,"is_reserved":false,"is_disabled":false,"rental_uris":{"android":"levelo://app?vid=61bfeb3b-5593-46e6-97b6-d90b4519899a","ios":"levelo://app?vid=61bfeb3b-5593-46e6-97b6-d90b4519899a"},"vehicle_type_id":"4","last_reported":1723292044,"current_range_meters":26800,"station_id":"ce4bgt12rcd13ifvqcd0","pricing_plan_id":"cebpf4jnsgd1na2vs0mg"},{"bike_id":"c3f757b1-8a82-4016-8654-66897046cebf","system_id":"levelo_inurba_marseille","lat":43.314811,"lon":5.373104,"is_reserved":false,"is_disabled":false,"rental_uris":{"android":"levelo://app?vid=c3f757b1-8a82-4016-8654-66897046cebf","ios":"levelo://app?vid=c3f757b1-8a82-4016-8654-66897046cebf"},"vehicle_type_id":"4","last_reported":1723292044,"current_range_meters":19200,"station_id":"ce4bgt12rcd13ifvqcd0","pricing_plan_id":"cebpf4jnsgd1na2vs0mg"},{"bike_id":"dceb7393-da0f-449c-abe1-ce72972c64b4","system_id":"levelo_inurba_marseille","lat":43.31605,"lon":5.3727,"is_reserved":false,"is_disabled":false,"rental_uris":{"android":"levelo://app?vid=dceb7393-da0f-449c-abe1-ce72972c64b4","ios":"levelo://app?vid=dceb7393-da0f-449c-abe1-ce72972c64b4"},"vehicle_type_id":"4","last_reported":1723292044,"current_range_meters":2400,"station_id":"","pricing_plan_id":"cebpf4jnsgd1na2vs0mg"},{"bike_id":"01dd95ad-c10c-47a5-b837-02344acf988f","system_id":"levelo_inurba_marseille","lat":43.31077,"lon":5.37593,"is_reserved":false,"is_disabled":false,"rental_uris":{"android":"levelo://app?vid=01dd95ad-c10c-47a5-b837-02344acf988f","ios":"levelo://app?vid=01dd95ad-c10c-47a5-b837-02344acf988f"},"vehicle_type_id":"4","last_reported":1723292044,"current_range_meters":29200,"station_id":"","pricing_plan_id":"cebpf4jnsgd1na2vs0mg"},{"bike_id":"d81b7bc9-309f-4f3b-9c1c-cb8a875cc203","system_id":"levelo_inurba_marseille","lat":43.31211,"lon":5.3763,"is_reserved":false,"is_disabled":false,"rental_uris":{"android":"levelo://app?vid=d81b7bc9-309f-4f3b-9c1c-cb8a875cc203","ios":"levelo://app?vid=d81b7bc9-309f-4f3b-9c1c-cb8a875cc203"},"vehicle_type_id":"4","last_reported":1723292044,"current_range_meters":31200,"station_id":"","pricing_plan_id":"cebpf4jnsgd1na2vs0mg"},{"bike_id":"c55b5c0a-45c1-47d3-8d2d-10584f22e33f","system_id":"levelo_inurba_marseille","lat":43.31034,"lon":5.37599,"is_reserved":false,"is_disabled":false,"rental_uris":{"android":"levelo://app?vid=c55b5c0a-45c1-47d3-8d2d-10584f22e33f","ios":"levelo://app?vid=c55b5c0a-45c1-47d3-8d2d-10584f22e33f"},"vehicle_type_id":"4","last_reported":1723292044,"current_range_meters":0,"station_id":"","pricing_plan_id":"cebpf4jnsgd1na2vs0mg"},{"bike_id":"41fcc2b2-76bf-4887-a4c1-b1b61c712eb5","system_id":"levelo_inurba_marseille","lat":43.31014,"lon":5.37602,"is_reserved":false,"is_disabled":false,"rental_uris":{"android":"levelo://app?vid=41fcc2b2-76bf-4887-a4c1-b1b61c712eb5","ios":"levelo://app?vid=41fcc2b2-76bf-4887-a4c1-b1b61c712eb5"},"vehicle_type_id":"4","last_reported":1723292044,"current_range_meters":30000,"station_id":"","pricing_plan_id":"cebpf4jnsgd1na2vs0mg"},{"bike_id":"4b295984-6a6a-4060-9b89-fd79068086f6","system_id":"levelo_inurba_marseille","lat":43.305706,"lon":5.365654,"is_reserved":false,"is_disabled":false,"rental_uris":{"android":"levelo://app?vid=4b295984-6a6a-4060-9b89-fd79068086f6","ios":"levelo://app?vid=4b295984-6a6a-4060-9b89-fd79068086f6"},"vehicle_type_id":"4","last_reported":1723292044,"current_range_meters":22000,"station_id":"ce4bgs12rcd13ifvqcag","pricing_plan_id":"cebpf4jnsgd1na2vs0mg"},{"bike_id":"d2de3bb5-c098-4f48-9513-9b08152faa87","system_id":"levelo_inurba_marseille","lat":43.305706,"lon":5.365654,"is_reserved":false,"is_disabled":false,"rental_uris":{"android":"levelo://app?vid=d2de3bb5-c098-4f48-9513-9b08152faa87","ios":"levelo://app?vid=d2de3bb5-c098-4f48-9513-9b08152faa87"},"vehicle_type_id":"4","last_reported":1723292044,"current_range_meters":15600,"station_id":"ce4bgs12rcd13ifvqcag","pricing_plan_id":"cebpf4jnsgd1na2vs0mg"},{"bike_id":"6c817fd9-02ca-421e-8513-0a7496a5a2b9","system_id":"levelo_inurba_marseille","lat":43.305706,"lon":5.365654,"is_reserved":false,"is_disabled":false,"rental_uris":{"android":"levelo://app?vid=6c817fd9-02ca-421e-8513-0a7496a5a2b9","ios":"levelo://app?vid=6c817fd9-02ca-421e-8513-0a7496a5a2b9"},"vehicle_type_id":"4","last_reported":1723292044,"current_range_meters":5600,"station_id":"ce4bgs12rcd13ifvqcag","pricing_plan_id":"cebpf4jnsgd1na2vs0mg"},{"bike_id":"be2dd46e-847a-4d1d-99cc-630bfb754026","system_id":"levelo_inurba_marseille","lat":43.305706,"lon":5.365654,"is_reserved":false,"is_disabled":false,"rental_uris":{"android":"levelo://app?vid=be2dd46e-847a-4d1d-99cc-630bfb754026","ios":"levelo://app?vid=be2dd46e-847a-4d1d-99cc-630bfb754026"},"vehicle_type_id":"4","last_reported":1723292044,"current_range_meters":20000,"station_id":"ce4bgs12rcd13ifvqcag","pricing_plan_id":"cebpf4jnsgd1na2vs0mg"},{"bike_id":"e7a78991-491b-4578-be0a-5d0411cc6d62","system_id":"levelo_inurba_marseille","lat":43.305706,"lon":5.365654,"is_reserved":false,"is_disabled":false,"rental_uris":{"android":"levelo://app?vid=e7a78991-491b-4578-be0a-5d0411cc6d62","ios":"levelo://app?vid=e7a78991-491b-4578-be0a-5d0411cc6d62"},"vehicle_type_id":"4","last_reported":1723292044,"current_range_meters":21600,"station_id":"ce4bgs12rcd13ifvqcag","pricing_plan_id":"cebpf4jnsgd1na2vs0mg"},{"bike_id":"50d25da6-0f2d-4f0b-a00c-f97bc50ed759","system_id":"levelo_inurba_marseille","lat":43.305368,"lon":5.367343,"is_reserved":false,"is_disabled":false,"rental_uris":{"android":"levelo://app?vid=50d25da6-0f2d-4f0b-a00c-f97bc50ed759","ios":"levelo://app?vid=50d25da6-0f2d-4f0b-a00c-f97bc50ed759"},"vehicle_type_id":"4","last_reported":1723292044,"current_range_meters":19600,"station_id":"ce4bgrp2rcd13ifvqc9g","pricing_plan_id":"cebpf4jnsgd1na2vs0mg"},{"bike_id":"0ebe880c-ea98-4b15-b1d7-a6478e6f1184","system_id":"levelo_inurba_marseille","lat":43.305706,"lon":5.365654,"is_reserved":false,"is_disabled":false,"rental_uris":{"android":"levelo://app?vid=0ebe880c-ea98-4b15-b1d7-a6478e6f1184","ios":"levelo://app?vid=0ebe880c-ea98-4b15-b1d7-a6478e6f1184"},"vehicle_type_id":"4","last_reported":1723292044,"current_range_meters":17600,"station_id":"ce4bgs12rcd13ifvqcag","pricing_plan_id":"cebpf4jnsgd1na2vs0mg"},{"bike_id":"868f46b2-0c19-4454-a1b2-b1200edd5198","system_id":"levelo_inurba_marseille","lat":43.305706,"lon":5.365654,"is_reserved":false,"is_disabled":false,"rental_uris":{"android":"levelo://app?vid=868f46b2-0c19-4454-a1b2-b1200edd5198","ios":"levelo://app?vid=868f46b2-0c19-4454-a1b2-b1200edd5198"},"vehicle_type_id":"4","last_reported":1723292044,"current_range_meters":31600,"station_id":"ce4bgs12rcd13ifvqcag","pricing_plan_id":"cebpf4jnsgd1na2vs0mg"},{"bike_id":"a819206d-a57c-487c-8b46-6b1806e6fc09","system_id":"levelo_inurba_marseille","lat":43.305706,"lon":5.365654,"is_reserved":false,"is_disabled":false,"rental_uris":{"android":"levelo://app?vid=a819206d-a57c-487c-8b46-6b1806e6fc09","ios":"levelo://app?vid=a819206d-a57c-487c-8b46-6b1806e6fc09"},"vehicle_type_id":"4","last_reported":1723292044,"current_range_meters":7600,"station_id":"ce4bgs12rcd13ifvqcag","pricing_plan_id":"cebpf4jnsgd1na2vs0mg"},{"bike_id":"811c63b8-4c61-4af5-91c3-33708ac27bdf","system_id":"levelo_inurba_marseille","lat":43.305706,"lon":5.365654,"is_reserved":false,"is_disabled":false,"rental_uris":{"android":"levelo://app?vid=811c63b8-4c61-4af5-91c3-33708ac27bdf","ios":"levelo://app?vid=811c63b8-4c61-4af5-91c3-33708ac27bdf"},"vehicle_type_id":"4","last_reported":1723292044,"current_range_meters":18400,"station_id":"ce4bgs12rcd13ifvqcag","pricing_plan_id":"cebpf4jnsgd1na2vs0mg"},{"bike_id":"30214a7f-ee84-4e7c-93cd-c7f37e340dd1","system_id":"levelo_inurba_marseille","lat":43.305989,"lon":5.37225,"is_reserved":false,"is_disabled":false,"rental_uris":{"android":"levelo://app?vid=30214a7f-ee84-4e7c-93cd-c7f37e340dd1","ios":"levelo://app?vid=30214a7f-ee84-4e7c-93cd-c7f37e340dd1"},"vehicle_type_id":"4","last_reported":1723292044,"current_range_meters":31200,"station_id":"ce4bgqh2rcd13ifvqc4g","pricing_plan_id":"cebpf4jnsgd1na2vs0mg"},{"bike_id":"d5661e93-8c32-4943-8830-488f7b7b012a","system_id":"levelo_inurba_marseille","lat":43.305989,"lon":5.37225,"is_reserved":false,"is_disabled":false,"rental_uris":{"android":"levelo://app?vid=d5661e93-8c32-4943-8830-488f7b7b012a","ios":"levelo://app?vid=d5661e93-8c32-4943-8830-488f7b7b012a"},"vehicle_type_id":"4","last_reported":1723292044,"current_range_meters":26400,"station_id":"ce4bgqh2rcd13ifvqc4g","pricing_plan_id":"cebpf4jnsgd1na2vs0mg"},{"bike_id":"f263c195-dd8a-43da-afa7-9f585102c646","system_id":"levelo_inurba_marseille","lat":43.305989,"lon":5.37225,"is_reserved":false,"is_disabled":false,"rental_uris":{"android":"levelo://app?vid=f263c195-dd8a-43da-afa7-9f585102c646","ios":"levelo://app?vid=f263c195-dd8a-43da-afa7-9f585102c646"},"vehicle_type_id":"4","last_reported":1723292044,"current_range_meters":24800,"station_id":"ce4bgqh2rcd13ifvqc4g","pricing_plan_id":"cebpf4jnsgd1na2vs0mg"},{"bike_id":"7b9a8bda-d215-47bb-849e-2cd693d1b3e4","system_id":"levelo_inurba_marseille","lat":43.305989,"lon":5.37225,"is_reserved":false,"is_disabled":false,"rental_uris":{"android":"levelo://app?vid=7b9a8bda-d215-47bb-849e-2cd693d1b3e4","ios":"levelo://app?vid=7b9a8bda-d215-47bb-849e-2cd693d1b3e4"},"vehicle_type_id":"4","last_reported":1723292044,"current_range_meters":22000,"station_id":"ce4bgqh2rcd13ifvqc4g","pricing_plan_id":"cebpf4jnsgd1na2vs0mg"},{"bike_id":"91d2e389-ba6a-4558-b9f4-528b5e564e45","system_id":"levelo_inurba_marseille","lat":43.307945,"lon":5.376487,"is_reserved":false,"is_disabled":false,"rental_uris":{"android":"levelo://app?vid=91d2e389-ba6a-4558-b9f4-528b5e564e45","ios":"levelo://app?vid=91d2e389-ba6a-4558-b9f4-528b5e564e45"},"vehicle_type_id":"4","last_reported":1723292044,"current_range_meters":14800,"station_id":"ce4bgv92rcd13ifvqcq0","pricing_plan_id":"cebpf4jnsgd1na2vs0mg"},{"bike_id":"4f57b737-9183-4f63-bbdb-1a8ed680bae5","system_id":"levelo_inurba_marseille","lat":43.308012,"lon":5.381511,"is_reserved":false,"is_disabled":false,"rental_uris":{"android":"levelo://app?vid=4f57b737-9183-4f63-bbdb-1a8ed680bae5","ios":"levelo://app?vid=4f57b737-9183-4f63-bbdb-1a8ed680bae5"},"vehicle_type_id":"4","last_reported":1723292044,"current_range_meters":19200,"station_id":"ce4bgt12rcd13ifvqce0","pricing_plan_id":"cebpf4jnsgd1na2vs0mg"},{"bike_id":"a4a863cb-fd00-47ef-baae-693def72eff1","system_id":"levelo_inurba_marseille","lat":43.308012,"lon":5.381511,"is_reserved":false,"is_disabled":false,"rental_uris":{"android":"levelo://app?vid=a4a863cb-fd00-47ef-baae-693def72eff1","ios":"levelo://app?vid=a4a863cb-fd00-47ef-baae-693def72eff1"},"vehicle_type_id":"4","last_reported":1723292044,"current_range_meters":26800,"station_id":"ce4bgt12rcd13ifvqce0","pricing_plan_id":"cebpf4jnsgd1na2vs0mg"},{"bike_id":"6ccdffc8-1ee0-4e6e-9e63-1abd78ef5dd4","system_id":"levelo_inurba_marseille","lat":43.30304,"lon":5.368987,"is_reserved":false,"is_disabled":false,"rental_uris":{"android":"levelo://app?vid=6ccdffc8-1ee0-4e6e-9e63-1abd78ef5dd4","ios":"levelo://app?vid=6ccdffc8-1ee0-4e6e-9e63-1abd78ef5dd4"},"vehicle_type_id":"4","last_reported":1723292044,"current_range_meters":22000,"station_id":"ce4bgqh2rcd13ifvqc5g","pricing_plan_id":"cebpf4jnsgd1na2vs0mg"},{"bike_id":"24115a88-2b84-4a15-a59b-5b58dfe06f73","system_id":"levelo_inurba_marseille","lat":43.301939,"lon":5.366286,"is_reserved":false,"is_disabled":false,"rental_uris":{"android":"levelo://app?vid=24115a88-2b84-4a15-a59b-5b58dfe06f73","ios":"levelo://app?vid=24115a88-2b84-4a15-a59b-5b58dfe06f73"},"vehicle_type_id":"4","last_reported":1723292044,"current_range_meters":22400,"station_id":"ce4bgrh2rcd13ifvqc8g","pricing_plan_id":"cebpf4jnsgd1na2vs0mg"},{"bike_id":"192bc778-be1f-402d-b1df-16d7172e5519","system_id":"levelo_inurba_marseille","lat":43.31359,"lon":5.38283,"is_reserved":false,"is_disabled":false,"rental_uris":{"android":"levelo://app?vid=192bc778-be1f-402d-b1df-16d7172e5519","ios":"levelo://app?vid=192bc778-be1f-402d-b1df-16d7172e5519"},"vehicle_type_id":"4","last_reported":1723292044,"current_range_meters":800,"station_id":"","pricing_plan_id":"cebpf4jnsgd1na2vs0mg"},{"bike_id":"e68b3825-73f3-4455-a831-bc519a5d8716","system_id":"levelo_inurba_marseille","lat":43.308012,"lon":5.381511,"is_reserved":false,"is_disabled":false,"rental_uris":{"android":"levelo://app?vid=e68b3825-73f3-4455-a831-bc519a5d8716","ios":"levelo://app?vid=e68b3825-73f3-4455-a831-bc519a5d8716"},"vehicle_type_id":"4","last_reported":1723292044,"current_range_meters":0,"station_id":"ce4bgt12rcd13ifvqce0","pricing_plan_id":"cebpf4jnsgd1na2vs0mg"},{"bike_id":"bb89cfd9-45fa-46b4-9b9c-963ae29ee285","system_id":"levelo_inurba_marseille","lat":43.308012,"lon":5.381511,"is_reserved":false,"is_disabled":false,"rental_uris":{"android":"levelo://app?vid=bb89cfd9-45fa-46b4-9b9c-963ae29ee285","ios":"levelo://app?vid=bb89cfd9-45fa-46b4-9b9c-963ae29ee285"},"vehicle_type_id":"4","last_reported":1723292044,"current_range_meters":25600,"station_id":"ce4bgt12rcd13ifvqce0","pricing_plan_id":"cebpf4jnsgd1na2vs0mg"},{"bike_id":"cbd025f6-e490-4e3b-8743-4f6a5ef333e5","system_id":"levelo_inurba_marseille","lat":43.308012,"lon":5.381511,"is_reserved":false,"is_disabled":false,"rental_uris":{"android":"levelo://app?vid=cbd025f6-e490-4e3b-8743-4f6a5ef333e5","ios":"levelo://app?vid=cbd025f6-e490-4e3b-8743-4f6a5ef333e5"},"vehicle_type_id":"4","last_reported":1723292044,"current_range_meters":18400,"station_id":"ce4bgt12rcd13ifvqce0","pricing_plan_id":"cebpf4jnsgd1na2vs0mg"},{"bike_id":"280277d5-b58a-4cce-ad54-f03ba526b7f7","system_id":"levelo_inurba_marseille","lat":43.308012,"lon":5.381511,"is_reserved":false,"is_disabled":false,"rental_uris":{"android":"levelo://app?vid=280277d5-b58a-4cce-ad54-f03ba526b7f7","ios":"levelo://app?vid=280277d5-b58a-4cce-ad54-f03ba526b7f7"},"vehicle_type_id":"4","last_reported":1723292044,"current_range_meters":15600,"station_id":"ce4bgt12rcd13ifvqce0","pricing_plan_id":"cebpf4jnsgd1na2vs0mg"},{"bike_id":"ecd98b37-c97e-44f2-a7f2-70cc7098b6bd","system_id":"levelo_inurba_marseille","lat":43.304606,"lon":5.379026,"is_reserved":false,"is_disabled":false,"rental_uris":{"android":"levelo://app?vid=ecd98b37-c97e-44f2-a7f2-70cc7098b6bd","ios":"levelo://app?vid=ecd98b37-c97e-44f2-a7f2-70cc7098b6bd"},"vehicle_type_id":"4","last_reported":1723292044,"current_range_meters":11600,"station_id":"ce4bgup2rcd13ifvqcn0","pricing_plan_id":"cebpf4jnsgd1na2vs0mg"},{"bike_id":"acf5f1e8-de2b-41ca-8aa3-96936cfef668","system_id":"levelo_inurba_marseille","lat":43.31132,"lon":5.38323,"is_reserved":false,"is_disabled":false,"rental_uris":{"android":"levelo://app?vid=acf5f1e8-de2b-41ca-8aa3-96936cfef668","ios":"levelo://app?vid=acf5f1e8-de2b-41ca-8aa3-96936cfef668"},"vehicle_type_id":"4","last_reported":1723292044,"current_range_meters":800,"station_id":"","pricing_plan_id":"cebpf4jnsgd1na2vs0mg"},{"bike_id":"f5ca37fc-5e94-448f-bdd6-a722079e1a4d","system_id":"levelo_inurba_marseille","lat":43.324771,"lon":5.36557,"is_reserved":false,"is_disabled":false,"rental_uris":{"android":"levelo://app?vid=f5ca37fc-5e94-448f-bdd6-a722079e1a4d","ios":"levelo://app?vid=f5ca37fc-5e94-448f-bdd6-a722079e1a4d"},"vehicle_type_id":"4","last_reported":1723292044,"current_range_meters":22000,"station_id":"ce4bhs12rcd13ifvqhvg","pricing_plan_id":"cebpf4jnsgd1na2vs0mg"},{"bike_id":"79ffface-54d4-40fb-95c7-8256a85b69f0","system_id":"levelo_inurba_marseille","lat":43.324771,"lon":5.36557,"is_reserved":false,"is_disabled":false,"rental_uris":{"android":"levelo://app?vid=79ffface-54d4-40fb-95c7-8256a85b69f0","ios":"levelo://app?vid=79ffface-54d4-40fb-95c7-8256a85b69f0"},"vehicle_type_id":"4","last_reported":1723292044,"current_range_meters":28000,"station_id":"ce4bhs12rcd13ifvqhvg","pricing_plan_id":"cebpf4jnsgd1na2vs0mg"},{"bike_id":"eee0473b-958b-40b7-bb28-c27772b76968","system_id":"levelo_inurba_marseille","lat":43.324771,"lon":5.36557,"is_reserved":false,"is_disabled":false,"rental_uris":{"android":"levelo://app?vid=eee0473b-958b-40b7-bb28-c27772b76968","ios":"levelo://app?vid=eee0473b-958b-40b7-bb28-c27772b76968"},"vehicle_type_id":"4","last_reported":1723292044,"current_range_meters":28400,"station_id":"ce4bhs12rcd13ifvqhvg","pricing_plan_id":"cebpf4jnsgd1na2vs0mg"},{"bike_id":"8c271a0d-a394-4d18-891f-48438409eb3a","system_id":"levelo_inurba_marseille","lat":43.324771,"lon":5.36557,"is_reserved":false,"is_disabled":false,"rental_uris":{"android":"levelo://app?vid=8c271a0d-a394-4d18-891f-48438409eb3a","ios":"levelo://app?vid=8c271a0d-a394-4d18-891f-48438409eb3a"},"vehicle_type_id":"4","last_reported":1723292044,"current_range_meters":16000,"station_id":"ce4bhs12rcd13ifvqhvg","pricing_plan_id":"cebpf4jnsgd1na2vs0mg"},{"bike_id":"a5ad36c9-6631-415b-8e10-7c7e9517d651","system_id":"levelo_inurba_marseille","lat":43.324771,"lon":5.36557,"is_reserved":false,"is_disabled":false,"rental_uris":{"android":"levelo://app?vid=a5ad36c9-6631-415b-8e10-7c7e9517d651","ios":"levelo://app?vid=a5ad36c9-6631-415b-8e10-7c7e9517d651"},"vehicle_type_id":"4","last_reported":1723292044,"current_range_meters":31200,"station_id":"ce4bhs12rcd13ifvqhvg","pricing_plan_id":"cebpf4jnsgd1na2vs0mg"},{"bike_id":"addba48e-e352-46be-ab8a-741256f4ced7","system_id":"levelo_inurba_marseille","lat":43.324771,"lon":5.36557,"is_reserved":false,"is_disabled":false,"rental_uris":{"android":"levelo://app?vid=addba48e-e352-46be-ab8a-741256f4ced7","ios":"levelo://app?vid=addba48e-e352-46be-ab8a-741256f4ced7"},"vehicle_type_id":"4","last_reported":1723292044,"current_range_meters":15600,"station_id":"ce4bhs12rcd13ifvqhvg","pricing_plan_id":"cebpf4jnsgd1na2vs0mg"},{"bike_id":"282e32e0-db08-42d5-a972-b34979e8de75","system_id":"levelo_inurba_marseille","lat":43.324771,"lon":5.36557,"is_reserved":false,"is_disabled":false,"rental_uris":{"android":"levelo://app?vid=282e32e0-db08-42d5-a972-b34979e8de75","ios":"levelo://app?vid=282e32e0-db08-42d5-a972-b34979e8de75"},"vehicle_type_id":"4","last_reported":1723292044,"current_range_meters":31200,"station_id":"ce4bhs12rcd13ifvqhvg","pricing_plan_id":"cebpf4jnsgd1na2vs0mg"},{"bike_id":"89927453-136e-4dd2-b659-da6329c38239","system_id":"levelo_inurba_marseille","lat":43.302784,"lon":5.377158,"is_reserved":false,"is_disabled":false,"rental_uris":{"android":"levelo://app?vid=89927453-136e-4dd2-b659-da6329c38239","ios":"levelo://app?vid=89927453-136e-4dd2-b659-da6329c38239"},"vehicle_type_id":"4","last_reported":1723292044,"current_range_meters":10800,"station_id":"ce4bguh2rcd13ifvqcj0","pricing_plan_id":"cebpf4jnsgd1na2vs0mg"},{"bike_id":"72edc99e-42d5-4ce1-ad6f-ed0dd840a0c1","system_id":"levelo_inurba_marseille","lat":43.301429,"lon":5.37413,"is_reserved":false,"is_disabled":false,"rental_uris":{"android":"levelo://app?vid=72edc99e-42d5-4ce1-ad6f-ed0dd840a0c1","ios":"levelo://app?vid=72edc99e-42d5-4ce1-ad6f-ed0dd840a0c1"},"vehicle_type_id":"4","last_reported":1723292044,"current_range_meters":8000,"station_id":"ce4bgs92rcd13ifvqcc0","pricing_plan_id":"cebpf4jnsgd1na2vs0mg"},{"bike_id":"10072255-71c6-425a-8eb5-f64138c05869","system_id":"levelo_inurba_marseille","lat":43.302784,"lon":5.377158,"is_reserved":false,"is_disabled":false,"rental_uris":{"android":"levelo://app?vid=10072255-71c6-425a-8eb5-f64138c05869","ios":"levelo://app?vid=10072255-71c6-425a-8eb5-f64138c05869"},"vehicle_type_id":"4","last_reported":1723292044,"current_range_meters":27600,"station_id":"ce4bguh2rcd13ifvqcj0","pricing_plan_id":"cebpf4jnsgd1na2vs0mg"},{"bike_id":"6de0c950-e137-45b3-81ea-dce7ad12ff7a","system_id":"levelo_inurba_marseille","lat":43.302784,"lon":5.377158,"is_reserved":false,"is_disabled":false,"rental_uris":{"android":"levelo://app?vid=6de0c950-e137-45b3-81ea-dce7ad12ff7a","ios":"levelo://app?vid=6de0c950-e137-45b3-81ea-dce7ad12ff7a"},"vehicle_type_id":"4","last_reported":1723292044,"current_range_meters":800,"station_id":"ce4bguh2rcd13ifvqcj0","pricing_plan_id":"cebpf4jnsgd1na2vs0mg"},{"bike_id":"4db71339-8436-4caf-99d4-b506759aa6cc","system_id":"levelo_inurba_marseille","lat":43.302784,"lon":5.377158,"is_reserved":false,"is_disabled":false,"rental_uris":{"android":"levelo://app?vid=4db71339-8436-4caf-99d4-b506759aa6cc","ios":"levelo://app?vid=4db71339-8436-4caf-99d4-b506759aa6cc"},"vehicle_type_id":"4","last_reported":1723292044,"current_range_meters":30800,"station_id":"ce4bguh2rcd13ifvqcj0","pricing_plan_id":"cebpf4jnsgd1na2vs0mg"},{"bike_id":"a4a9f37e-08f7-45e1-a866-35ca13439bef","system_id":"levelo_inurba_marseille","lat":43.319935,"lon":5.381699,"is_reserved":false,"is_disabled":false,"rental_uris":{"android":"levelo://app?vid=a4a9f37e-08f7-45e1-a866-35ca13439bef","ios":"levelo://app?vid=a4a9f37e-08f7-45e1-a866-35ca13439bef"},"vehicle_type_id":"4","last_reported":1723292044,"current_range_meters":30000,"station_id":"ce4bhr12rcd13ifvqhpg","pricing_plan_id":"cebpf4jnsgd1na2vs0mg"},{"bike_id":"c33a7aa8-03fd-434a-a202-389eeddbe383","system_id":"levelo_inurba_marseille","lat":43.313571,"lon":5.384829,"is_reserved":false,"is_disabled":false,"rental_uris":{"android":"levelo://app?vid=c33a7aa8-03fd-434a-a202-389eeddbe383","ios":"levelo://app?vid=c33a7aa8-03fd-434a-a202-389eeddbe383"},"vehicle_type_id":"4","last_reported":1723292044,"current_range_meters":16000,"station_id":"ce4bgt92rcd13ifvqcf0","pricing_plan_id":"cebpf4jnsgd1na2vs0mg"},{"bike_id":"1c08a955-66f1-47b2-a074-993d5db8e128","system_id":"levelo_inurba_marseille","lat":43.299222,"lon":5.365554,"is_reserved":false,"is_disabled":false,"rental_uris":{"android":"levelo://app?vid=1c08a955-66f1-47b2-a074-993d5db8e128","ios":"levelo://app?vid=1c08a955-66f1-47b2-a074-993d5db8e128"},"vehicle_type_id":"4","last_reported":1723292044,"current_range_meters":21600,"station_id":"ce4bgm92rcd13ifvqbr0","pricing_plan_id":"cebpf4jnsgd1na2vs0mg"},{"bike_id":"5a6a564e-e66c-424f-a2b6-bdbf63260766","system_id":"levelo_inurba_marseille","lat":43.299724,"lon":5.371829,"is_reserved":false,"is_disabled":false,"rental_uris":{"android":"levelo://app?vid=5a6a564e-e66c-424f-a2b6-bdbf63260766","ios":"levelo://app?vid=5a6a564e-e66c-424f-a2b6-bdbf63260766"},"vehicle_type_id":"4","last_reported":1723292044,"current_range_meters":22800,"station_id":"ce4bgr92rcd13ifvqc7g","pricing_plan_id":"cebpf4jnsgd1na2vs0mg"},{"bike_id":"ea7fcc84-ac98-44e5-a651-544ae441dc1d","system_id":"levelo_inurba_marseille","lat":43.299724,"lon":5.371829,"is_reserved":false,"is_disabled":false,"rental_uris":{"android":"levelo://app?vid=ea7fcc84-ac98-44e5-a651-544ae441dc1d","ios":"levelo://app?vid=ea7fcc84-ac98-44e5-a651-544ae441dc1d"},"vehicle_type_id":"4","last_reported":1723292044,"current_range_meters":8000,"station_id":"ce4bgr92rcd13ifvqc7g","pricing_plan_id":"cebpf4jnsgd1na2vs0mg"},{"bike_id":"44bdb130-2758-4e91-a9e5-5307f3103b06","system_id":"levelo_inurba_marseille","lat":43.299222,"lon":5.365554,"is_reserved":false,"is_disabled":false,"rental_uris":{"android":"levelo://app?vid=44bdb130-2758-4e91-a9e5-5307f3103b06","ios":"levelo://app?vid=44bdb130-2758-4e91-a9e5-5307f3103b06"},"vehicle_type_id":"4","last_reported":1723292044,"current_range_meters":13200,"station_id":"ce4bgm92rcd13ifvqbr0","pricing_plan_id":"cebpf4jnsgd1na2vs0mg"},{"bike_id":"6d67ccd1-658b-4e71-8766-2fb74bd40557","system_id":"levelo_inurba_marseille","lat":43.298433,"lon":5.362774,"is_reserved":false,"is_disabled":false,"rental_uris":{"android":"levelo://app?vid=6d67ccd1-658b-4e71-8766-2fb74bd40557","ios":"levelo://app?vid=6d67ccd1-658b-4e71-8766-2fb74bd40557"},"vehicle_type_id":"4","last_reported":1723292044,"current_range_meters":16000,"station_id":"ce4bgpp2rcd13ifvqc3g","pricing_plan_id":"cebpf4jnsgd1na2vs0mg"},{"bike_id":"99c03b29-66d8-41fa-a056-65a8e26c8bfe","system_id":"levelo_inurba_marseille","lat":43.298433,"lon":5.362774,"is_reserved":false,"is_disabled":false,"rental_uris":{"android":"levelo://app?vid=99c03b29-66d8-41fa-a056-65a8e26c8bfe","ios":"levelo://app?vid=99c03b29-66d8-41fa-a056-65a8e26c8bfe"},"vehicle_type_id":"4","last_reported":1723292044,"current_range_meters":400,"station_id":"ce4bgpp2rcd13ifvqc3g","pricing_plan_id":"cebpf4jnsgd1na2vs0mg"},{"bike_id":"d773011f-b65d-422b-849a-5ea618617615","system_id":"levelo_inurba_marseille","lat":43.298433,"lon":5.362774,"is_reserved":false,"is_disabled":false,"rental_uris":{"android":"levelo://app?vid=d773011f-b65d-422b-849a-5ea618617615","ios":"levelo://app?vid=d773011f-b65d-422b-849a-5ea618617615"},"vehicle_type_id":"4","last_reported":1723292044,"current_range_meters":28800,"station_id":"ce4bgpp2rcd13ifvqc3g","pricing_plan_id":"cebpf4jnsgd1na2vs0mg"},{"bike_id":"0597e776-7803-42ed-b2b8-7a75ff1b90b0","system_id":"levelo_inurba_marseille","lat":43.299243,"lon":5.37481,"is_reserved":false,"is_disabled":false,"rental_uris":{"android":"levelo://app?vid=0597e776-7803-42ed-b2b8-7a75ff1b90b0","ios":"levelo://app?vid=0597e776-7803-42ed-b2b8-7a75ff1b90b0"},"vehicle_type_id":"4","last_reported":1723292044,"current_range_meters":24000,"station_id":"ce4bgjh2rcd13ifvqbg0","pricing_plan_id":"cebpf4jnsgd1na2vs0mg"},{"bike_id":"6aca5d6d-4f81-4f67-b0b1-7bcc978318b3","system_id":"levelo_inurba_marseille","lat":43.31203,"lon":5.387218,"is_reserved":false,"is_disabled":false,"rental_uris":{"android":"levelo://app?vid=6aca5d6d-4f81-4f67-b0b1-7bcc978318b3","ios":"levelo://app?vid=6aca5d6d-4f81-4f67-b0b1-7bcc978318b3"},"vehicle_type_id":"4","last_reported":1723292044,"current_range_meters":26400,"station_id":"ce4bgv12rcd13ifvqcp0","pricing_plan_id":"cebpf4jnsgd1na2vs0mg"},{"bike_id":"6c6155f1-054f-4059-92e4-5cbd72687ac8","system_id":"levelo_inurba_marseille","lat":43.311722,"lon":5.387247,"is_reserved":false,"is_disabled":false,"rental_uris":{"android":"levelo://app?vid=6c6155f1-054f-4059-92e4-5cbd72687ac8","ios":"levelo://app?vid=6c6155f1-054f-4059-92e4-5cbd72687ac8"},"vehicle_type_id":"4","last_reported":1723292044,"current_range_meters":21600,"station_id":"ce4bgv12rcd13ifvqcp0","pricing_plan_id":"cebpf4jnsgd1na2vs0mg"},{"bike_id":"c30afed9-af68-4726-8063-f30054d89dd8","system_id":"levelo_inurba_marseille","lat":43.32291,"lon":5.38267,"is_reserved":false,"is_disabled":false,"rental_uris":{"android":"levelo://app?vid=c30afed9-af68-4726-8063-f30054d89dd8","ios":"levelo://app?vid=c30afed9-af68-4726-8063-f30054d89dd8"},"vehicle_type_id":"4","last_reported":1723292044,"current_range_meters":9200,"station_id":"ce4bhr12rcd13ifvqhqg","pricing_plan_id":"cebpf4jnsgd1na2vs0mg"},{"bike_id":"216240ef-238f-48ba-bd26-5d1c9cf540df","system_id":"levelo_inurba_marseille","lat":43.31456,"lon":5.38784,"is_reserved":false,"is_disabled":false,"rental_uris":{"android":"levelo://app?vid=216240ef-238f-48ba-bd26-5d1c9cf540df","ios":"levelo://app?vid=216240ef-238f-48ba-bd26-5d1c9cf540df"},"vehicle_type_id":"4","last_reported":1723292044,"current_range_meters":800,"station_id":"","pricing_plan_id":"cebpf4jnsgd1na2vs0mg"},{"bike_id":"0428a8d4-a6d1-4660-b87c-e6125ec8023e","system_id":"levelo_inurba_marseille","lat":43.322872,"lon":5.382756,"is_reserved":false,"is_disabled":false,"rental_uris":{"android":"levelo://app?vid=0428a8d4-a6d1-4660-b87c-e6125ec8023e","ios":"levelo://app?vid=0428a8d4-a6d1-4660-b87c-e6125ec8023e"},"vehicle_type_id":"4","last_reported":1723292044,"current_range_meters":31200,"station_id":"ce4bhr12rcd13ifvqhqg","pricing_plan_id":"cebpf4jnsgd1na2vs0mg"},{"bike_id":"76b0c718-32ea-4fa8-88c8-22e826f09f1b","system_id":"levelo_inurba_marseille","lat":43.32296,"lon":5.38285,"is_reserved":false,"is_disabled":false,"rental_uris":{"android":"levelo://app?vid=76b0c718-32ea-4fa8-88c8-22e826f09f1b","ios":"levelo://app?vid=76b0c718-32ea-4fa8-88c8-22e826f09f1b"},"vehicle_type_id":"4","last_reported":1723292044,"current_range_meters":2400,"station_id":"ce4bhr12rcd13ifvqhqg","pricing_plan_id":"cebpf4jnsgd1na2vs0mg"},{"bike_id":"67c272cb-3f16-40ea-9cdc-4d77695975db","system_id":"levelo_inurba_marseille","lat":43.297163,"lon":5.365866,"is_reserved":false,"is_disabled":false,"rental_uris":{"android":"levelo://app?vid=67c272cb-3f16-40ea-9cdc-4d77695975db","ios":"levelo://app?vid=67c272cb-3f16-40ea-9cdc-4d77695975db"},"vehicle_type_id":"4","last_reported":1723292044,"current_range_meters":400,"station_id":"ce4bgn12rcd13ifvqbt0","pricing_plan_id":"cebpf4jnsgd1na2vs0mg"},{"bike_id":"21cbd75c-afca-4c5a-970d-2cda3e7e79b6","system_id":"levelo_inurba_marseille","lat":43.2968,"lon":5.37291,"is_reserved":false,"is_disabled":false,"rental_uris":{"android":"levelo://app?vid=21cbd75c-afca-4c5a-970d-2cda3e7e79b6","ios":"levelo://app?vid=21cbd75c-afca-4c5a-970d-2cda3e7e79b6"},"vehicle_type_id":"4","last_reported":1723292044,"current_range_meters":31200,"station_id":"ce4bgk12rcd13ifvqbj0","pricing_plan_id":"cebpf4jnsgd1na2vs0mg"},{"bike_id":"92895bf5-b8b8-4d65-9e39-028e71978b98","system_id":"levelo_inurba_marseille","lat":43.29573,"lon":5.367355,"is_reserved":false,"is_disabled":false,"rental_uris":{"android":"levelo://app?vid=92895bf5-b8b8-4d65-9e39-028e71978b98","ios":"levelo://app?vid=92895bf5-b8b8-4d65-9e39-028e71978b98"},"vehicle_type_id":"4","last_reported":1723292044,"current_range_meters":27600,"station_id":"ce4bgph2rcd13ifvqc2g","pricing_plan_id":"cebpf4jnsgd1na2vs0mg"},{"bike_id":"b41a6237-eea1-4ab9-8824-332e0d8b737e","system_id":"levelo_inurba_marseille","lat":43.29573,"lon":5.367355,"is_reserved":false,"is_disabled":false,"rental_uris":{"android":"levelo://app?vid=b41a6237-eea1-4ab9-8824-332e0d8b737e","ios":"levelo://app?vid=b41a6237-eea1-4ab9-8824-332e0d8b737e"},"vehicle_type_id":"4","last_reported":1723292044,"current_range_meters":12400,"station_id":"ce4bgph2rcd13ifvqc2g","pricing_plan_id":"cebpf4jnsgd1na2vs0mg"},{"bike_id":"0fd9299c-caa5-4f31-ab47-d8d62f767e68","system_id":"levelo_inurba_marseille","lat":43.29573,"lon":5.367355,"is_reserved":false,"is_disabled":false,"rental_uris":{"android":"levelo://app?vid=0fd9299c-caa5-4f31-ab47-d8d62f767e68","ios":"levelo://app?vid=0fd9299c-caa5-4f31-ab47-d8d62f767e68"},"vehicle_type_id":"4","last_reported":1723292044,"current_range_meters":19600,"station_id":"ce4bgph2rcd13ifvqc2g","pricing_plan_id":"cebpf4jnsgd1na2vs0mg"},{"bike_id":"76078e53-d864-4200-b225-3e27f327c69f","system_id":"levelo_inurba_marseille","lat":43.29573,"lon":5.367355,"is_reserved":false,"is_disabled":false,"rental_uris":{"android":"levelo://app?vid=76078e53-d864-4200-b225-3e27f327c69f","ios":"levelo://app?vid=76078e53-d864-4200-b225-3e27f327c69f"},"vehicle_type_id":"4","last_reported":1723292044,"current_range_meters":20400,"station_id":"ce4bgph2rcd13ifvqc2g","pricing_plan_id":"cebpf4jnsgd1na2vs0mg"},{"bike_id":"0454fe9e-4b9f-4382-b2bf-efee7499d1c8","system_id":"levelo_inurba_marseille","lat":43.29573,"lon":5.367355,"is_reserved":false,"is_disabled":false,"rental_uris":{"android":"levelo://app?vid=0454fe9e-4b9f-4382-b2bf-efee7499d1c8","ios":"levelo://app?vid=0454fe9e-4b9f-4382-b2bf-efee7499d1c8"},"vehicle_type_id":"4","last_reported":1723292044,"current_range_meters":30400,"station_id":"ce4bgph2rcd13ifvqc2g","pricing_plan_id":"cebpf4jnsgd1na2vs0mg"},{"bike_id":"5c71163a-ebcb-433f-94dc-cda779c0f818","system_id":"levelo_inurba_marseille","lat":43.29579,"lon":5.36746,"is_reserved":false,"is_disabled":false,"rental_uris":{"android":"levelo://app?vid=5c71163a-ebcb-433f-94dc-cda779c0f818","ios":"levelo://app?vid=5c71163a-ebcb-433f-94dc-cda779c0f818"},"vehicle_type_id":"4","last_reported":1723292044,"current_range_meters":8000,"station_id":"ce4bgph2rcd13ifvqc2g","pricing_plan_id":"cebpf4jnsgd1na2vs0mg"},{"bike_id":"9399e0fc-7799-4a1f-8e97-9ac4cef82235","system_id":"levelo_inurba_marseille","lat":43.29708,"lon":5.37695,"is_reserved":false,"is_disabled":false,"rental_uris":{"android":"levelo://app?vid=9399e0fc-7799-4a1f-8e97-9ac4cef82235","ios":"levelo://app?vid=9399e0fc-7799-4a1f-8e97-9ac4cef82235"},"vehicle_type_id":"4","last_reported":1723292044,"current_range_meters":31200,"station_id":"ce4bgkh2rcd13ifvqbl0","pricing_plan_id":"cebpf4jnsgd1na2vs0mg"},{"bike_id":"5d780be6-de57-4eb0-ad08-9c6fa373b570","system_id":"levelo_inurba_marseille","lat":43.309589,"lon":5.390258,"is_reserved":false,"is_disabled":false,"rental_uris":{"android":"levelo://app?vid=5d780be6-de57-4eb0-ad08-9c6fa373b570","ios":"levelo://app?vid=5d780be6-de57-4eb0-ad08-9c6fa373b570"},"vehicle_type_id":"4","last_reported":1723292044,"current_range_meters":15600,"station_id":"ce4bgup2rcd13ifvqco0","pricing_plan_id":"cebpf4jnsgd1na2vs0mg"},{"bike_id":"5002fdf4-9ddf-47ff-916f-547110b50234","system_id":"levelo_inurba_marseille","lat":43.319637,"lon":5.388843,"is_reserved":false,"is_disabled":false,"rental_uris":{"android":"levelo://app?vid=5002fdf4-9ddf-47ff-916f-547110b50234","ios":"levelo://app?vid=5002fdf4-9ddf-47ff-916f-547110b50234"},"vehicle_type_id":"4","last_reported":1723292044,"current_range_meters":6400,"station_id":"","pricing_plan_id":"cebpf4jnsgd1na2vs0mg"},{"bike_id":"58bf4bb6-35db-4178-b88a-e4082560f8a4","system_id":"levelo_inurba_marseille","lat":43.29535,"lon":5.36529,"is_reserved":false,"is_disabled":false,"rental_uris":{"android":"levelo://app?vid=58bf4bb6-35db-4178-b88a-e4082560f8a4","ios":"levelo://app?vid=58bf4bb6-35db-4178-b88a-e4082560f8a4"},"vehicle_type_id":"4","last_reported":1723292044,"current_range_meters":24000,"station_id":"","pricing_plan_id":"cebpf4jnsgd1na2vs0mg"},{"bike_id":"e3e896b7-3260-42ee-a2cc-aaab0b46ab74","system_id":"levelo_inurba_marseille","lat":43.3176,"lon":5.39012,"is_reserved":false,"is_disabled":false,"rental_uris":{"android":"levelo://app?vid=e3e896b7-3260-42ee-a2cc-aaab0b46ab74","ios":"levelo://app?vid=e3e896b7-3260-42ee-a2cc-aaab0b46ab74"},"vehicle_type_id":"4","last_reported":1723292044,"current_range_meters":26800,"station_id":"ce4bhqp2rcd13ifvqhng","pricing_plan_id":"cebpf4jnsgd1na2vs0mg"},{"bike_id":"046688e4-2af4-4f27-b54c-91435c5d85cc","system_id":"levelo_inurba_marseille","lat":43.299707,"lon":5.384859,"is_reserved":false,"is_disabled":false,"rental_uris":{"android":"levelo://app?vid=046688e4-2af4-4f27-b54c-91435c5d85cc","ios":"levelo://app?vid=046688e4-2af4-4f27-b54c-91435c5d85cc"},"vehicle_type_id":"4","last_reported":1723292044,"current_range_meters":28800,"station_id":"ce4bgj92rcd13ifvqbd0","pricing_plan_id":"cebpf4jnsgd1na2vs0mg"},{"bike_id":"bbfdb1b4-14ed-4fbc-87b2-bcef3ac8ccb9","system_id":"levelo_inurba_marseille","lat":43.299707,"lon":5.384859,"is_reserved":false,"is_disabled":false,"rental_uris":{"android":"levelo://app?vid=bbfdb1b4-14ed-4fbc-87b2-bcef3ac8ccb9","ios":"levelo://app?vid=bbfdb1b4-14ed-4fbc-87b2-bcef3ac8ccb9"},"vehicle_type_id":"4","last_reported":1723292044,"current_range_meters":13600,"station_id":"ce4bgj92rcd13ifvqbd0","pricing_plan_id":"cebpf4jnsgd1na2vs0mg"},{"bike_id":"b2d7625d-ab31-43ca-bfbb-70deb4d220a8","system_id":"levelo_inurba_marseille","lat":43.299707,"lon":5.384859,"is_reserved":false,"is_disabled":false,"rental_uris":{"android":"levelo://app?vid=b2d7625d-ab31-43ca-bfbb-70deb4d220a8","ios":"levelo://app?vid=b2d7625d-ab31-43ca-bfbb-70deb4d220a8"},"vehicle_type_id":"4","last_reported":1723292044,"current_range_meters":23200,"station_id":"ce4bgj92rcd13ifvqbd0","pricing_plan_id":"cebpf4jnsgd1na2vs0mg"},{"bike_id":"295818bd-10ed-4cb1-b33c-4358d91c737b","system_id":"levelo_inurba_marseille","lat":43.299717,"lon":5.384845,"is_reserved":false,"is_disabled":false,"rental_uris":{"android":"levelo://app?vid=295818bd-10ed-4cb1-b33c-4358d91c737b","ios":"levelo://app?vid=295818bd-10ed-4cb1-b33c-4358d91c737b"},"vehicle_type_id":"4","last_reported":1723292044,"current_range_meters":13600,"station_id":"ce4bgj92rcd13ifvqbd0","pricing_plan_id":"cebpf4jnsgd1na2vs0mg"},{"bike_id":"9c83bfcf-fa5e-410e-bb36-1b7b2f4426c9","system_id":"levelo_inurba_marseille","lat":43.295279,"lon":5.375048,"is_reserved":false,"is_disabled":false,"rental_uris":{"android":"levelo://app?vid=9c83bfcf-fa5e-410e-bb36-1b7b2f4426c9","ios":"levelo://app?vid=9c83bfcf-fa5e-410e-bb36-1b7b2f4426c9"},"vehicle_type_id":"4","last_reported":1723292044,"current_range_meters":9200,"station_id":"ce4bgkp2rcd13ifvqbmg","pricing_plan_id":"cebpf4jnsgd1na2vs0mg"},{"bike_id":"3f785981-3f31-443d-8793-f496abd629f1","system_id":"levelo_inurba_marseille","lat":43.295279,"lon":5.375048,"is_reserved":false,"is_disabled":false,"rental_uris":{"android":"levelo://app?vid=3f785981-3f31-443d-8793-f496abd629f1","ios":"levelo://app?vid=3f785981-3f31-443d-8793-f496abd629f1"},"vehicle_type_id":"4","last_reported":1723292044,"current_range_meters":22400,"station_id":"ce4bgkp2rcd13ifvqbmg","pricing_plan_id":"cebpf4jnsgd1na2vs0mg"},{"bike_id":"9282b706-d34d-4554-a52f-c693ec2dae44","system_id":"levelo_inurba_marseille","lat":43.299713,"lon":5.38499,"is_reserved":false,"is_disabled":false,"rental_uris":{"android":"levelo://app?vid=9282b706-d34d-4554-a52f-c693ec2dae44","ios":"levelo://app?vid=9282b706-d34d-4554-a52f-c693ec2dae44"},"vehicle_type_id":"4","last_reported":1723292044,"current_range_meters":5600,"station_id":"ce4bgj92rcd13ifvqbd0","pricing_plan_id":"cebpf4jnsgd1na2vs0mg"},{"bike_id":"79ed394b-247b-41fe-bfa7-0194cee5dc26","system_id":"levelo_inurba_marseille","lat":43.299707,"lon":5.384859,"is_reserved":false,"is_disabled":false,"rental_uris":{"android":"levelo://app?vid=79ed394b-247b-41fe-bfa7-0194cee5dc26","ios":"levelo://app?vid=79ed394b-247b-41fe-bfa7-0194cee5dc26"},"vehicle_type_id":"4","last_reported":1723292044,"current_range_meters":18400,"station_id":"ce4bgj92rcd13ifvqbd0","pricing_plan_id":"cebpf4jnsgd1na2vs0mg"},{"bike_id":"c02a821f-6fc9-4898-82b3-df4bf3cecbf5","system_id":"levelo_inurba_marseille","lat":43.29643,"lon":5.38141,"is_reserved":false,"is_disabled":false,"rental_uris":{"android":"levelo://app?vid=c02a821f-6fc9-4898-82b3-df4bf3cecbf5","ios":"levelo://app?vid=c02a821f-6fc9-4898-82b3-df4bf3cecbf5"},"vehicle_type_id":"4","last_reported":1723292044,"current_range_meters":5600,"station_id":"","pricing_plan_id":"cebpf4jnsgd1na2vs0mg"},{"bike_id":"23949995-c082-4641-b949-9d2000457f7a","system_id":"levelo_inurba_marseille","lat":43.32385,"lon":5.38923,"is_reserved":false,"is_disabled":false,"rental_uris":{"android":"levelo://app?vid=23949995-c082-4641-b949-9d2000457f7a","ios":"levelo://app?vid=23949995-c082-4641-b949-9d2000457f7a"},"vehicle_type_id":"4","last_reported":1723292044,"current_range_meters":0,"station_id":"ce4bhqp2rcd13ifvqhog","pricing_plan_id":"cebpf4jnsgd1na2vs0mg"},{"bike_id":"2a287192-cdc5-4b76-8910-e3b6d0aef491","system_id":"levelo_inurba_marseille","lat":43.29601,"lon":5.381084,"is_reserved":false,"is_disabled":false,"rental_uris":{"android":"levelo://app?vid=2a287192-cdc5-4b76-8910-e3b6d0aef491","ios":"levelo://app?vid=2a287192-cdc5-4b76-8910-e3b6d0aef491"},"vehicle_type_id":"4","last_reported":1723292044,"current_range_meters":31200,"station_id":"ce4bgl12rcd13ifvqbo0","pricing_plan_id":"cebpf4jnsgd1na2vs0mg"},{"bike_id":"7ad06994-5b26-4eb4-a50e-7009286515fc","system_id":"levelo_inurba_marseille","lat":43.293249,"lon":5.371578,"is_reserved":false,"is_disabled":false,"rental_uris":{"android":"levelo://app?vid=7ad06994-5b26-4eb4-a50e-7009286515fc","ios":"levelo://app?vid=7ad06994-5b26-4eb4-a50e-7009286515fc"},"vehicle_type_id":"4","last_reported":1723292044,"current_range_meters":7200,"station_id":"ce4bgh92rcd13ifvqb40","pricing_plan_id":"cebpf4jnsgd1na2vs0mg"},{"bike_id":"4381563b-6305-4ade-97d8-358fef8d8f1b","system_id":"levelo_inurba_marseille","lat":43.292749,"lon":5.368402,"is_reserved":false,"is_disabled":false,"rental_uris":{"android":"levelo://app?vid=4381563b-6305-4ade-97d8-358fef8d8f1b","ios":"levelo://app?vid=4381563b-6305-4ade-97d8-358fef8d8f1b"},"vehicle_type_id":"4","last_reported":1723292044,"current_range_meters":1600,"station_id":"ce4bhbp2rcd13ifvqesg","pricing_plan_id":"cebpf4jnsgd1na2vs0mg"},{"bike_id":"72cd2dae-81cd-4f58-80ec-e228b3953351","system_id":"levelo_inurba_marseille","lat":43.293009,"lon":5.374584,"is_reserved":false,"is_disabled":false,"rental_uris":{"android":"levelo://app?vid=72cd2dae-81cd-4f58-80ec-e228b3953351","ios":"levelo://app?vid=72cd2dae-81cd-4f58-80ec-e228b3953351"},"vehicle_type_id":"4","last_reported":1723292044,"current_range_meters":0,"station_id":"ce4bgi12rcd13ifvqb70","pricing_plan_id":"cebpf4jnsgd1na2vs0mg"},{"bike_id":"8d37495d-9961-45f8-ba67-ee81725ae3ae","system_id":"levelo_inurba_marseille","lat":43.29228,"lon":5.36363,"is_reserved":false,"is_disabled":false,"rental_uris":{"android":"levelo://app?vid=8d37495d-9961-45f8-ba67-ee81725ae3ae","ios":"levelo://app?vid=8d37495d-9961-45f8-ba67-ee81725ae3ae"},"vehicle_type_id":"4","last_reported":1723292044,"current_range_meters":9200,"station_id":"","pricing_plan_id":"cebpf4jnsgd1na2vs0mg"},{"bike_id":"8dfbc42e-3d90-4f2c-98fb-286c760c0763","system_id":"levelo_inurba_marseille","lat":43.291994,"lon":5.357886,"is_reserved":false,"is_disabled":false,"rental_uris":{"android":"levelo://app?vid=8dfbc42e-3d90-4f2c-98fb-286c760c0763","ios":"levelo://app?vid=8dfbc42e-3d90-4f2c-98fb-286c760c0763"},"vehicle_type_id":"4","last_reported":1723292044,"current_range_meters":10400,"station_id":"ce4bhb12rcd13ifvqel0","pricing_plan_id":"cebpf4jnsgd1na2vs0mg"},{"bike_id":"8a807ac9-fce7-4409-90bd-22bc348f149d","system_id":"levelo_inurba_marseille","lat":43.303002,"lon":5.392142,"is_reserved":false,"is_disabled":false,"rental_uris":{"android":"levelo://app?vid=8a807ac9-fce7-4409-90bd-22bc348f149d","ios":"levelo://app?vid=8a807ac9-fce7-4409-90bd-22bc348f149d"},"vehicle_type_id":"4","last_reported":1723292044,"current_range_meters":14000,"station_id":"ce4bgkh2rcd13ifvqbk0","pricing_plan_id":"cebpf4jnsgd1na2vs0mg"},{"bike_id":"3dc90a06-268e-4e37-bec6-baf0ae4a4b4f","system_id":"levelo_inurba_marseille","lat":43.30304,"lon":5.368987,"is_reserved":false,"is_disabled":false,"rental_uris":{"android":"levelo://app?vid=3dc90a06-268e-4e37-bec6-baf0ae4a4b4f","ios":"levelo://app?vid=3dc90a06-268e-4e37-bec6-baf0ae4a4b4f"},"vehicle_type_id":"4","last_reported":1723292044,"current_range_meters":30000,"station_id":"ce4bgqh2rcd13ifvqc5g","pricing_plan_id":"cebpf4jnsgd1na2vs0mg"},{"bike_id":"3f37b13c-cb7a-4696-882c-5f4f2c1f6393","system_id":"levelo_inurba_marseille","lat":43.29377,"lon":5.37862,"is_reserved":false,"is_disabled":false,"rental_uris":{"android":"levelo://app?vid=3f37b13c-cb7a-4696-882c-5f4f2c1f6393","ios":"levelo://app?vid=3f37b13c-cb7a-4696-882c-5f4f2c1f6393"},"vehicle_type_id":"4","last_reported":1723292044,"current_range_meters":0,"station_id":"ce4bgjh2rcd13ifvqbf0","pricing_plan_id":"cebpf4jnsgd1na2vs0mg"},{"bike_id":"c92ad105-de50-4bdb-817d-c8c180acd864","system_id":"levelo_inurba_marseille","lat":43.302992,"lon":5.392136,"is_reserved":false,"is_disabled":false,"rental_uris":{"android":"levelo://app?vid=c92ad105-de50-4bdb-817d-c8c180acd864","ios":"levelo://app?vid=c92ad105-de50-4bdb-817d-c8c180acd864"},"vehicle_type_id":"4","last_reported":1723292044,"current_range_meters":29600,"station_id":"ce4bgkh2rcd13ifvqbk0","pricing_plan_id":"cebpf4jnsgd1na2vs0mg"},{"bike_id":"175af3ce-82f9-49ba-aca0-8757c56fd3e5","system_id":"levelo_inurba_marseille","lat":43.292311,"lon":5.360731,"is_reserved":false,"is_disabled":false,"rental_uris":{"android":"levelo://app?vid=175af3ce-82f9-49ba-aca0-8757c56fd3e5","ios":"levelo://app?vid=175af3ce-82f9-49ba-aca0-8757c56fd3e5"},"vehicle_type_id":"4","last_reported":1723292044,"current_range_meters":31200,"station_id":"ce4bhbh2rcd13ifvqeqg","pricing_plan_id":"cebpf4jnsgd1na2vs0mg"},{"bike_id":"e292ee6f-68ea-4429-8b02-b8d0624a4748","system_id":"levelo_inurba_marseille","lat":43.292311,"lon":5.360731,"is_reserved":false,"is_disabled":false,"rental_uris":{"android":"levelo://app?vid=e292ee6f-68ea-4429-8b02-b8d0624a4748","ios":"levelo://app?vid=e292ee6f-68ea-4429-8b02-b8d0624a4748"},"vehicle_type_id":"4","last_reported":1723292044,"current_range_meters":30000,"station_id":"ce4bhbh2rcd13ifvqeqg","pricing_plan_id":"cebpf4jnsgd1na2vs0mg"},{"bike_id":"55d58771-f15a-4e57-b46e-d7db2c231e84","system_id":"levelo_inurba_marseille","lat":43.29227,"lon":5.3606,"is_reserved":false,"is_disabled":false,"rental_uris":{"android":"levelo://app?vid=55d58771-f15a-4e57-b46e-d7db2c231e84","ios":"levelo://app?vid=55d58771-f15a-4e57-b46e-d7db2c231e84"},"vehicle_type_id":"4","last_reported":1723292044,"current_range_meters":16800,"station_id":"ce4bhbh2rcd13ifvqeqg","pricing_plan_id":"cebpf4jnsgd1na2vs0mg"},{"bike_id":"063af1f4-825a-4240-80f4-04ce9f3ea2fd","system_id":"levelo_inurba_marseille","lat":43.292311,"lon":5.360731,"is_reserved":false,"is_disabled":false,"rental_uris":{"android":"levelo://app?vid=063af1f4-825a-4240-80f4-04ce9f3ea2fd","ios":"levelo://app?vid=063af1f4-825a-4240-80f4-04ce9f3ea2fd"},"vehicle_type_id":"4","last_reported":1723292044,"current_range_meters":24000,"station_id":"ce4bhbh2rcd13ifvqeqg","pricing_plan_id":"cebpf4jnsgd1na2vs0mg"},{"bike_id":"776d3cfd-ce8b-4f05-9698-067f48bc7caf","system_id":"levelo_inurba_marseille","lat":43.30085,"lon":5.390856,"is_reserved":false,"is_disabled":false,"rental_uris":{"android":"levelo://app?vid=776d3cfd-ce8b-4f05-9698-067f48bc7caf","ios":"levelo://app?vid=776d3cfd-ce8b-4f05-9698-067f48bc7caf"},"vehicle_type_id":"4","last_reported":1723292044,"current_range_meters":20400,"station_id":"ce4bh192rcd13ifvqdb0","pricing_plan_id":"cebpf4jnsgd1na2vs0mg"},{"bike_id":"2d4188fa-07de-4b58-87fb-c1888b57ebef","system_id":"levelo_inurba_marseille","lat":43.292311,"lon":5.360731,"is_reserved":false,"is_disabled":false,"rental_uris":{"android":"levelo://app?vid=2d4188fa-07de-4b58-87fb-c1888b57ebef","ios":"levelo://app?vid=2d4188fa-07de-4b58-87fb-c1888b57ebef"},"vehicle_type_id":"4","last_reported":1723292044,"current_range_meters":26400,"station_id":"ce4bhbh2rcd13ifvqeqg","pricing_plan_id":"cebpf4jnsgd1na2vs0mg"},{"bike_id":"62c27b8e-2ad4-4bb1-9c9a-1fe4d99a424a","system_id":"levelo_inurba_marseille","lat":43.292671,"lon":5.376128,"is_reserved":false,"is_disabled":false,"rental_uris":{"android":"levelo://app?vid=62c27b8e-2ad4-4bb1-9c9a-1fe4d99a424a","ios":"levelo://app?vid=62c27b8e-2ad4-4bb1-9c9a-1fe4d99a424a"},"vehicle_type_id":"4","last_reported":1723292044,"current_range_meters":23200,"station_id":"ce4bgi12rcd13ifvqb80","pricing_plan_id":"cebpf4jnsgd1na2vs0mg"},{"bike_id":"3dbf16fe-95e1-488f-b72a-9a3b88d34323","system_id":"levelo_inurba_marseille","lat":43.291675,"lon":5.371583,"is_reserved":false,"is_disabled":false,"rental_uris":{"android":"levelo://app?vid=3dbf16fe-95e1-488f-b72a-9a3b88d34323","ios":"levelo://app?vid=3dbf16fe-95e1-488f-b72a-9a3b88d34323"},"vehicle_type_id":"4","last_reported":1723292044,"current_range_meters":28000,"station_id":"ce4bha92rcd13ifvqeh0","pricing_plan_id":"cebpf4jnsgd1na2vs0mg"},{"bike_id":"8669c215-f64f-4991-918a-38e605b47e3d","system_id":"levelo_inurba_marseille","lat":43.29287,"lon":5.355549,"is_reserved":false,"is_disabled":false,"rental_uris":{"android":"levelo://app?vid=8669c215-f64f-4991-918a-38e605b47e3d","ios":"levelo://app?vid=8669c215-f64f-4991-918a-38e605b47e3d"},"vehicle_type_id":"4","last_reported":1723292044,"current_range_meters":8000,"station_id":"","pricing_plan_id":"cebpf4jnsgd1na2vs0mg"},{"bike_id":"ef3eee61-aa21-4d5a-a21e-32eb93424118","system_id":"levelo_inurba_marseille","lat":43.291994,"lon":5.357886,"is_reserved":false,"is_disabled":false,"rental_uris":{"android":"levelo://app?vid=ef3eee61-aa21-4d5a-a21e-32eb93424118","ios":"levelo://app?vid=ef3eee61-aa21-4d5a-a21e-32eb93424118"},"vehicle_type_id":"4","last_reported":1723292044,"current_range_meters":28000,"station_id":"ce4bhb12rcd13ifvqel0","pricing_plan_id":"cebpf4jnsgd1na2vs0mg"},{"bike_id":"3d127524-4c72-431e-810e-1aafe73d1cd9","system_id":"levelo_inurba_marseille","lat":43.29198,"lon":5.35807,"is_reserved":false,"is_disabled":false,"rental_uris":{"android":"levelo://app?vid=3d127524-4c72-431e-810e-1aafe73d1cd9","ios":"levelo://app?vid=3d127524-4c72-431e-810e-1aafe73d1cd9"},"vehicle_type_id":"4","last_reported":1723292044,"current_range_meters":30000,"station_id":"ce4bhb12rcd13ifvqel0","pricing_plan_id":"cebpf4jnsgd1na2vs0mg"},{"bike_id":"d4c0788c-586f-46e4-908a-50b218087d6e","system_id":"levelo_inurba_marseille","lat":43.33378,"lon":5.37449,"is_reserved":false,"is_disabled":false,"rental_uris":{"android":"levelo://app?vid=d4c0788c-586f-46e4-908a-50b218087d6e","ios":"levelo://app?vid=d4c0788c-586f-46e4-908a-50b218087d6e"},"vehicle_type_id":"4","last_reported":1723292044,"current_range_meters":16800,"station_id":"","pricing_plan_id":"cebpf4jnsgd1na2vs0mg"},{"bike_id":"4dad3722-6baa-4d91-bfec-b89feb5e4614","system_id":"levelo_inurba_marseille","lat":43.292005,"lon":5.357875,"is_reserved":false,"is_disabled":false,"rental_uris":{"android":"levelo://app?vid=4dad3722-6baa-4d91-bfec-b89feb5e4614","ios":"levelo://app?vid=4dad3722-6baa-4d91-bfec-b89feb5e4614"},"vehicle_type_id":"4","last_reported":1723292044,"current_range_meters":10800,"station_id":"ce4bhb12rcd13ifvqel0","pricing_plan_id":"cebpf4jnsgd1na2vs0mg"},{"bike_id":"b579b744-e0bf-47e0-a82b-4628fd8e9f38","system_id":"levelo_inurba_marseille","lat":43.291994,"lon":5.357886,"is_reserved":false,"is_disabled":false,"rental_uris":{"android":"levelo://app?vid=b579b744-e0bf-47e0-a82b-4628fd8e9f38","ios":"levelo://app?vid=b579b744-e0bf-47e0-a82b-4628fd8e9f38"},"vehicle_type_id":"4","last_reported":1723292044,"current_range_meters":22400,"station_id":"ce4bhb12rcd13ifvqel0","pricing_plan_id":"cebpf4jnsgd1na2vs0mg"},{"bike_id":"be8a11cd-c3fc-4fdc-8824-9181fdc73ded","system_id":"levelo_inurba_marseille","lat":43.291994,"lon":5.357886,"is_reserved":false,"is_disabled":false,"rental_uris":{"android":"levelo://app?vid=be8a11cd-c3fc-4fdc-8824-9181fdc73ded","ios":"levelo://app?vid=be8a11cd-c3fc-4fdc-8824-9181fdc73ded"},"vehicle_type_id":"4","last_reported":1723292044,"current_range_meters":27600,"station_id":"ce4bhb12rcd13ifvqel0","pricing_plan_id":"cebpf4jnsgd1na2vs0mg"},{"bike_id":"a208c92f-d234-40e8-8fe6-8282e6edba9d","system_id":"levelo_inurba_marseille","lat":43.29198,"lon":5.35784,"is_reserved":false,"is_disabled":false,"rental_uris":{"android":"levelo://app?vid=a208c92f-d234-40e8-8fe6-8282e6edba9d","ios":"levelo://app?vid=a208c92f-d234-40e8-8fe6-8282e6edba9d"},"vehicle_type_id":"4","last_reported":1723292044,"current_range_meters":19600,"station_id":"ce4bhb12rcd13ifvqel0","pricing_plan_id":"cebpf4jnsgd1na2vs0mg"},{"bike_id":"e16ede68-b5eb-438d-b564-aebf60483d23","system_id":"levelo_inurba_marseille","lat":43.291994,"lon":5.357886,"is_reserved":false,"is_disabled":false,"rental_uris":{"android":"levelo://app?vid=e16ede68-b5eb-438d-b564-aebf60483d23","ios":"levelo://app?vid=e16ede68-b5eb-438d-b564-aebf60483d23"},"vehicle_type_id":"4","last_reported":1723292044,"current_range_meters":8800,"station_id":"ce4bhb12rcd13ifvqel0","pricing_plan_id":"cebpf4jnsgd1na2vs0mg"},{"bike_id":"9d4b68a5-c93f-4844-a235-5ff4a055b660","system_id":"levelo_inurba_marseille","lat":43.292385,"lon":5.37767,"is_reserved":false,"is_disabled":false,"rental_uris":{"android":"levelo://app?vid=9d4b68a5-c93f-4844-a235-5ff4a055b660","ios":"levelo://app?vid=9d4b68a5-c93f-4844-a235-5ff4a055b660"},"vehicle_type_id":"4","last_reported":1723292044,"current_range_meters":12000,"station_id":"","pricing_plan_id":"cebpf4jnsgd1na2vs0mg"},{"bike_id":"811047d7-94a0-46b8-b6b3-e41ed5a93a7d","system_id":"levelo_inurba_marseille","lat":43.291994,"lon":5.357886,"is_reserved":false,"is_disabled":false,"rental_uris":{"android":"levelo://app?vid=811047d7-94a0-46b8-b6b3-e41ed5a93a7d","ios":"levelo://app?vid=811047d7-94a0-46b8-b6b3-e41ed5a93a7d"},"vehicle_type_id":"4","last_reported":1723292044,"current_range_meters":31600,"station_id":"ce4bhb12rcd13ifvqel0","pricing_plan_id":"cebpf4jnsgd1na2vs0mg"},{"bike_id":"fddff27b-53e6-469f-811b-ce0d4d9d6200","system_id":"levelo_inurba_marseille","lat":43.291994,"lon":5.357886,"is_reserved":false,"is_disabled":false,"rental_uris":{"android":"levelo://app?vid=fddff27b-53e6-469f-811b-ce0d4d9d6200","ios":"levelo://app?vid=fddff27b-53e6-469f-811b-ce0d4d9d6200"},"vehicle_type_id":"4","last_reported":1723292044,"current_range_meters":31200,"station_id":"ce4bhb12rcd13ifvqel0","pricing_plan_id":"cebpf4jnsgd1na2vs0mg"},{"bike_id":"61d0fec2-b23f-4fde-90ff-7ec7353f5da6","system_id":"levelo_inurba_marseille","lat":43.309038,"lon":5.396546,"is_reserved":false,"is_disabled":false,"rental_uris":{"android":"levelo://app?vid=61d0fec2-b23f-4fde-90ff-7ec7353f5da6","ios":"levelo://app?vid=61d0fec2-b23f-4fde-90ff-7ec7353f5da6"},"vehicle_type_id":"4","last_reported":1723292044,"current_range_meters":0,"station_id":"ce4bh012rcd13ifvqcv0","pricing_plan_id":"cebpf4jnsgd1na2vs0mg"},{"bike_id":"cdca94aa-4ff6-49ae-948b-4d89915a6e11","system_id":"levelo_inurba_marseille","lat":43.291994,"lon":5.357886,"is_reserved":false,"is_disabled":false,"rental_uris":{"android":"levelo://app?vid=cdca94aa-4ff6-49ae-948b-4d89915a6e11","ios":"levelo://app?vid=cdca94aa-4ff6-49ae-948b-4d89915a6e11"},"vehicle_type_id":"4","last_reported":1723292044,"current_range_meters":29600,"station_id":"ce4bhb12rcd13ifvqel0","pricing_plan_id":"cebpf4jnsgd1na2vs0mg"},{"bike_id":"483b0bbf-2e13-4165-aee8-fdef13f15992","system_id":"levelo_inurba_marseille","lat":43.309038,"lon":5.396546,"is_reserved":false,"is_disabled":false,"rental_uris":{"android":"levelo://app?vid=483b0bbf-2e13-4165-aee8-fdef13f15992","ios":"levelo://app?vid=483b0bbf-2e13-4165-aee8-fdef13f15992"},"vehicle_type_id":"4","last_reported":1723292044,"current_range_meters":6400,"station_id":"ce4bh012rcd13ifvqcv0","pricing_plan_id":"cebpf4jnsgd1na2vs0mg"},{"bike_id":"1092882e-31f6-4a8b-b0ad-6ad8858b4b0d","system_id":"levelo_inurba_marseille","lat":43.313291,"lon":5.396838,"is_reserved":false,"is_disabled":false,"rental_uris":{"android":"levelo://app?vid=1092882e-31f6-4a8b-b0ad-6ad8858b4b0d","ios":"levelo://app?vid=1092882e-31f6-4a8b-b0ad-6ad8858b4b0d"},"vehicle_type_id":"4","last_reported":1723292044,"current_range_meters":18400,"station_id":"ce4bgvp2rcd13ifvqcu0","pricing_plan_id":"cebpf4jnsgd1na2vs0mg"},{"bike_id":"12773d14-21a7-46ce-bfaf-19092cb7c479","system_id":"levelo_inurba_marseille","lat":43.291793,"lon":5.357983,"is_reserved":false,"is_disabled":false,"rental_uris":{"android":"levelo://app?vid=12773d14-21a7-46ce-bfaf-19092cb7c479","ios":"levelo://app?vid=12773d14-21a7-46ce-bfaf-19092cb7c479"},"vehicle_type_id":"4","last_reported":1723292044,"current_range_meters":27200,"station_id":"ce4bhb12rcd13ifvqel0","pricing_plan_id":"cebpf4jnsgd1na2vs0mg"},{"bike_id":"3e00337c-763f-44ef-abc7-ae3752bcc422","system_id":"levelo_inurba_marseille","lat":43.29529,"lon":5.385581,"is_reserved":false,"is_disabled":false,"rental_uris":{"android":"levelo://app?vid=3e00337c-763f-44ef-abc7-ae3752bcc422","ios":"levelo://app?vid=3e00337c-763f-44ef-abc7-ae3752bcc422"},"vehicle_type_id":"4","last_reported":1723292044,"current_range_meters":28800,"station_id":"ce4bgih2rcd13ifvqba0","pricing_plan_id":"cebpf4jnsgd1na2vs0mg"},{"bike_id":"2c6f89a8-34b0-4a25-8e0f-fab272a6c072","system_id":"levelo_inurba_marseille","lat":43.309047,"lon":5.396551,"is_reserved":false,"is_disabled":false,"rental_uris":{"android":"levelo://app?vid=2c6f89a8-34b0-4a25-8e0f-fab272a6c072","ios":"levelo://app?vid=2c6f89a8-34b0-4a25-8e0f-fab272a6c072"},"vehicle_type_id":"4","last_reported":1723292044,"current_range_meters":8800,"station_id":"ce4bh012rcd13ifvqcv0","pricing_plan_id":"cebpf4jnsgd1na2vs0mg"},{"bike_id":"4026ada7-de7b-4884-ad9b-d9b40302ccaa","system_id":"levelo_inurba_marseille","lat":43.2906,"lon":5.37155,"is_reserved":false,"is_disabled":false,"rental_uris":{"android":"levelo://app?vid=4026ada7-de7b-4884-ad9b-d9b40302ccaa","ios":"levelo://app?vid=4026ada7-de7b-4884-ad9b-d9b40302ccaa"},"vehicle_type_id":"4","last_reported":1723292044,"current_range_meters":6400,"station_id":"ce4bh5p2rcd13ifvqe4g","pricing_plan_id":"cebpf4jnsgd1na2vs0mg"},{"bike_id":"88b64060-9cc5-40a2-839e-2c77dadf46b6","system_id":"levelo_inurba_marseille","lat":43.284219,"lon":5.3497,"is_reserved":false,"is_disabled":false,"rental_uris":{"android":"levelo://app?vid=88b64060-9cc5-40a2-839e-2c77dadf46b6","ios":"levelo://app?vid=88b64060-9cc5-40a2-839e-2c77dadf46b6"},"vehicle_type_id":"4","last_reported":1723292044,"current_range_meters":14800,"station_id":"ce4bhbh2rcd13ifvqepg","pricing_plan_id":"cebpf4jnsgd1na2vs0mg"},{"bike_id":"9319951f-ac54-48ba-a881-38837b9a9855","system_id":"levelo_inurba_marseille","lat":43.3352,"lon":5.36162,"is_reserved":false,"is_disabled":false,"rental_uris":{"android":"levelo://app?vid=9319951f-ac54-48ba-a881-38837b9a9855","ios":"levelo://app?vid=9319951f-ac54-48ba-a881-38837b9a9855"},"vehicle_type_id":"4","last_reported":1723292044,"current_range_meters":20000,"station_id":"","pricing_plan_id":"cebpf4jnsgd1na2vs0mg"},{"bike_id":"d3b71699-2fa3-4842-894d-5e715d8cf436","system_id":"levelo_inurba_marseille","lat":43.290624,"lon":5.359245,"is_reserved":false,"is_disabled":false,"rental_uris":{"android":"levelo://app?vid=d3b71699-2fa3-4842-894d-5e715d8cf436","ios":"levelo://app?vid=d3b71699-2fa3-4842-894d-5e715d8cf436"},"vehicle_type_id":"4","last_reported":1723292044,"current_range_meters":14400,"station_id":"ce4bha92rcd13ifvqeg0","pricing_plan_id":"cebpf4jnsgd1na2vs0mg"},{"bike_id":"09399e9b-a4fd-4a60-9635-8b7ad877fff0","system_id":"levelo_inurba_marseille","lat":43.290624,"lon":5.359245,"is_reserved":false,"is_disabled":false,"rental_uris":{"android":"levelo://app?vid=09399e9b-a4fd-4a60-9635-8b7ad877fff0","ios":"levelo://app?vid=09399e9b-a4fd-4a60-9635-8b7ad877fff0"},"vehicle_type_id":"4","last_reported":1723292044,"current_range_meters":0,"station_id":"ce4bha92rcd13ifvqeg0","pricing_plan_id":"cebpf4jnsgd1na2vs0mg"},{"bike_id":"4be1e77e-ff44-4bb5-bfd4-420da3f77209","system_id":"levelo_inurba_marseille","lat":43.290624,"lon":5.359245,"is_reserved":false,"is_disabled":false,"rental_uris":{"android":"levelo://app?vid=4be1e77e-ff44-4bb5-bfd4-420da3f77209","ios":"levelo://app?vid=4be1e77e-ff44-4bb5-bfd4-420da3f77209"},"vehicle_type_id":"4","last_reported":1723292044,"current_range_meters":16800,"station_id":"ce4bha92rcd13ifvqeg0","pricing_plan_id":"cebpf4jnsgd1na2vs0mg"},{"bike_id":"01463685-4c24-440d-b89a-ba6879eb52cb","system_id":"levelo_inurba_marseille","lat":43.290624,"lon":5.359245,"is_reserved":false,"is_disabled":false,"rental_uris":{"android":"levelo://app?vid=01463685-4c24-440d-b89a-ba6879eb52cb","ios":"levelo://app?vid=01463685-4c24-440d-b89a-ba6879eb52cb"},"vehicle_type_id":"4","last_reported":1723292044,"current_range_meters":28400,"station_id":"ce4bha92rcd13ifvqeg0","pricing_plan_id":"cebpf4jnsgd1na2vs0mg"},{"bike_id":"ab49bb54-c46a-4566-a275-99d98a8d1fce","system_id":"levelo_inurba_marseille","lat":43.290624,"lon":5.359245,"is_reserved":false,"is_disabled":false,"rental_uris":{"android":"levelo://app?vid=ab49bb54-c46a-4566-a275-99d98a8d1fce","ios":"levelo://app?vid=ab49bb54-c46a-4566-a275-99d98a8d1fce"},"vehicle_type_id":"4","last_reported":1723292044,"current_range_meters":25600,"station_id":"ce4bha92rcd13ifvqeg0","pricing_plan_id":"cebpf4jnsgd1na2vs0mg"},{"bike_id":"4859a987-402f-4c0a-a03f-eeabc583bd9e","system_id":"levelo_inurba_marseille","lat":43.290631,"lon":5.359244,"is_reserved":false,"is_disabled":false,"rental_uris":{"android":"levelo://app?vid=4859a987-402f-4c0a-a03f-eeabc583bd9e","ios":"levelo://app?vid=4859a987-402f-4c0a-a03f-eeabc583bd9e"},"vehicle_type_id":"4","last_reported":1723292044,"current_range_meters":11200,"station_id":"ce4bha92rcd13ifvqeg0","pricing_plan_id":"cebpf4jnsgd1na2vs0mg"},{"bike_id":"d7ee71a3-f44b-4b1f-8126-65e4501a35c1","system_id":"levelo_inurba_marseille","lat":43.29421,"lon":5.38621,"is_reserved":false,"is_disabled":false,"rental_uris":{"android":"levelo://app?vid=d7ee71a3-f44b-4b1f-8126-65e4501a35c1","ios":"levelo://app?vid=d7ee71a3-f44b-4b1f-8126-65e4501a35c1"},"vehicle_type_id":"4","last_reported":1723292044,"current_range_meters":28400,"station_id":"ce4bh2h2rcd13ifvqdh0","pricing_plan_id":"cebpf4jnsgd1na2vs0mg"},{"bike_id":"7e039b75-33e3-432a-a3cb-ee959c9a51d7","system_id":"levelo_inurba_marseille","lat":43.289468,"lon":5.363719,"is_reserved":false,"is_disabled":false,"rental_uris":{"android":"levelo://app?vid=7e039b75-33e3-432a-a3cb-ee959c9a51d7","ios":"levelo://app?vid=7e039b75-33e3-432a-a3cb-ee959c9a51d7"},"vehicle_type_id":"4","last_reported":1723292044,"current_range_meters":6400,"station_id":"ce4bhc92rcd13ifvqetg","pricing_plan_id":"cebpf4jnsgd1na2vs0mg"},{"bike_id":"71306595-9bb5-4a74-88b2-6606adb43e2d","system_id":"levelo_inurba_marseille","lat":43.28934,"lon":5.36633,"is_reserved":false,"is_disabled":false,"rental_uris":{"android":"levelo://app?vid=71306595-9bb5-4a74-88b2-6606adb43e2d","ios":"levelo://app?vid=71306595-9bb5-4a74-88b2-6606adb43e2d"},"vehicle_type_id":"4","last_reported":1723292044,"current_range_meters":0,"station_id":"ce4bhap2rcd13ifvqek0","pricing_plan_id":"cebpf4jnsgd1na2vs0mg"},{"bike_id":"c34978ba-6184-4b9b-be52-ffd25a96553f","system_id":"levelo_inurba_marseille","lat":43.289468,"lon":5.363719,"is_reserved":false,"is_disabled":false,"rental_uris":{"android":"levelo://app?vid=c34978ba-6184-4b9b-be52-ffd25a96553f","ios":"levelo://app?vid=c34978ba-6184-4b9b-be52-ffd25a96553f"},"vehicle_type_id":"4","last_reported":1723292044,"current_range_meters":0,"station_id":"ce4bhc92rcd13ifvqetg","pricing_plan_id":"cebpf4jnsgd1na2vs0mg"},{"bike_id":"4c65c18e-7e62-445c-ae5b-f86910747b28","system_id":"levelo_inurba_marseille","lat":43.289468,"lon":5.363719,"is_reserved":false,"is_disabled":false,"rental_uris":{"android":"levelo://app?vid=4c65c18e-7e62-445c-ae5b-f86910747b28","ios":"levelo://app?vid=4c65c18e-7e62-445c-ae5b-f86910747b28"},"vehicle_type_id":"4","last_reported":1723292044,"current_range_meters":800,"station_id":"ce4bhc92rcd13ifvqetg","pricing_plan_id":"cebpf4jnsgd1na2vs0mg"},{"bike_id":"ee61b89c-daa2-4a30-953a-d283d3e2aa1c","system_id":"levelo_inurba_marseille","lat":43.290103,"lon":5.356114,"is_reserved":false,"is_disabled":false,"rental_uris":{"android":"levelo://app?vid=ee61b89c-daa2-4a30-953a-d283d3e2aa1c","ios":"levelo://app?vid=ee61b89c-daa2-4a30-953a-d283d3e2aa1c"},"vehicle_type_id":"4","last_reported":1723292044,"current_range_meters":30800,"station_id":"ce4bhb92rcd13ifvqen0","pricing_plan_id":"cebpf4jnsgd1na2vs0mg"},{"bike_id":"f08b1432-cc97-4614-b8d6-18e19a51afe1","system_id":"levelo_inurba_marseille","lat":43.290104,"lon":5.356111,"is_reserved":false,"is_disabled":false,"rental_uris":{"android":"levelo://app?vid=f08b1432-cc97-4614-b8d6-18e19a51afe1","ios":"levelo://app?vid=f08b1432-cc97-4614-b8d6-18e19a51afe1"},"vehicle_type_id":"4","last_reported":1723292044,"current_range_meters":18800,"station_id":"ce4bhb92rcd13ifvqen0","pricing_plan_id":"cebpf4jnsgd1na2vs0mg"},{"bike_id":"089010f9-4fd1-4306-8dbc-ef905531cfe8","system_id":"levelo_inurba_marseille","lat":43.290103,"lon":5.356114,"is_reserved":false,"is_disabled":false,"rental_uris":{"android":"levelo://app?vid=089010f9-4fd1-4306-8dbc-ef905531cfe8","ios":"levelo://app?vid=089010f9-4fd1-4306-8dbc-ef905531cfe8"},"vehicle_type_id":"4","last_reported":1723292044,"current_range_meters":12400,"station_id":"ce4bhb92rcd13ifvqen0","pricing_plan_id":"cebpf4jnsgd1na2vs0mg"},{"bike_id":"10e0fb92-97e1-486f-9028-ffcf7f64d06d","system_id":"levelo_inurba_marseille","lat":43.290103,"lon":5.356114,"is_reserved":false,"is_disabled":false,"rental_uris":{"android":"levelo://app?vid=10e0fb92-97e1-486f-9028-ffcf7f64d06d","ios":"levelo://app?vid=10e0fb92-97e1-486f-9028-ffcf7f64d06d"},"vehicle_type_id":"4","last_reported":1723292044,"current_range_meters":21200,"station_id":"ce4bhb92rcd13ifvqen0","pricing_plan_id":"cebpf4jnsgd1na2vs0mg"},{"bike_id":"ec3600b8-a1a7-427b-894f-0af9a9f74a66","system_id":"levelo_inurba_marseille","lat":43.290103,"lon":5.356114,"is_reserved":false,"is_disabled":false,"rental_uris":{"android":"levelo://app?vid=ec3600b8-a1a7-427b-894f-0af9a9f74a66","ios":"levelo://app?vid=ec3600b8-a1a7-427b-894f-0af9a9f74a66"},"vehicle_type_id":"4","last_reported":1723292044,"current_range_meters":24800,"station_id":"ce4bhb92rcd13ifvqen0","pricing_plan_id":"cebpf4jnsgd1na2vs0mg"},{"bike_id":"d158fd5a-3160-4c05-bf69-76f996c64454","system_id":"levelo_inurba_marseille","lat":43.290104,"lon":5.356111,"is_reserved":false,"is_disabled":false,"rental_uris":{"android":"levelo://app?vid=d158fd5a-3160-4c05-bf69-76f996c64454","ios":"levelo://app?vid=d158fd5a-3160-4c05-bf69-76f996c64454"},"vehicle_type_id":"4","last_reported":1723292044,"current_range_meters":11600,"station_id":"ce4bhb92rcd13ifvqen0","pricing_plan_id":"cebpf4jnsgd1na2vs0mg"},{"bike_id":"1a905b39-2df6-4506-bc23-a08a31bd3608","system_id":"levelo_inurba_marseille","lat":43.290103,"lon":5.356114,"is_reserved":false,"is_disabled":false,"rental_uris":{"android":"levelo://app?vid=1a905b39-2df6-4506-bc23-a08a31bd3608","ios":"levelo://app?vid=1a905b39-2df6-4506-bc23-a08a31bd3608"},"vehicle_type_id":"4","last_reported":1723292044,"current_range_meters":1200,"station_id":"ce4bhb92rcd13ifvqen0","pricing_plan_id":"cebpf4jnsgd1na2vs0mg"},{"bike_id":"776fe6d6-580e-4189-ac37-43f471ff690d","system_id":"levelo_inurba_marseille","lat":43.290104,"lon":5.356111,"is_reserved":false,"is_disabled":false,"rental_uris":{"android":"levelo://app?vid=776fe6d6-580e-4189-ac37-43f471ff690d","ios":"levelo://app?vid=776fe6d6-580e-4189-ac37-43f471ff690d"},"vehicle_type_id":"4","last_reported":1723292044,"current_range_meters":14000,"station_id":"ce4bhb92rcd13ifvqen0","pricing_plan_id":"cebpf4jnsgd1na2vs0mg"},{"bike_id":"d36a7dbb-1cfc-44aa-bb47-0c87519fa4f1","system_id":"levelo_inurba_marseille","lat":43.290104,"lon":5.356111,"is_reserved":false,"is_disabled":false,"rental_uris":{"android":"levelo://app?vid=d36a7dbb-1cfc-44aa-bb47-0c87519fa4f1","ios":"levelo://app?vid=d36a7dbb-1cfc-44aa-bb47-0c87519fa4f1"},"vehicle_type_id":"4","last_reported":1723292044,"current_range_meters":6400,"station_id":"ce4bhb92rcd13ifvqen0","pricing_plan_id":"cebpf4jnsgd1na2vs0mg"},{"bike_id":"813a9eb6-1f40-439e-9668-de72b8008bcc","system_id":"levelo_inurba_marseille","lat":43.290104,"lon":5.356111,"is_reserved":false,"is_disabled":false,"rental_uris":{"android":"levelo://app?vid=813a9eb6-1f40-439e-9668-de72b8008bcc","ios":"levelo://app?vid=813a9eb6-1f40-439e-9668-de72b8008bcc"},"vehicle_type_id":"4","last_reported":1723292044,"current_range_meters":14000,"station_id":"ce4bhb92rcd13ifvqen0","pricing_plan_id":"cebpf4jnsgd1na2vs0mg"},{"bike_id":"45400c6e-8fe0-489f-a0b7-378baeec17c2","system_id":"levelo_inurba_marseille","lat":43.330442,"lon":5.389148,"is_reserved":false,"is_disabled":false,"rental_uris":{"android":"levelo://app?vid=45400c6e-8fe0-489f-a0b7-378baeec17c2","ios":"levelo://app?vid=45400c6e-8fe0-489f-a0b7-378baeec17c2"},"vehicle_type_id":"4","last_reported":1723292044,"current_range_meters":30800,"station_id":"ce4bhr92rcd13ifvqhrg","pricing_plan_id":"cebpf4jnsgd1na2vs0mg"},{"bike_id":"5d07b028-ea05-4457-bb0d-78c8e31c24f4","system_id":"levelo_inurba_marseille","lat":43.330187,"lon":5.390403,"is_reserved":false,"is_disabled":false,"rental_uris":{"android":"levelo://app?vid=5d07b028-ea05-4457-bb0d-78c8e31c24f4","ios":"levelo://app?vid=5d07b028-ea05-4457-bb0d-78c8e31c24f4"},"vehicle_type_id":"4","last_reported":1723292044,"current_range_meters":14800,"station_id":"ce4bhr92rcd13ifvqhrg","pricing_plan_id":"cebpf4jnsgd1na2vs0mg"},{"bike_id":"955f7c39-8a7e-4dec-b39c-c97a67b5433a","system_id":"levelo_inurba_marseille","lat":43.33025,"lon":5.39036,"is_reserved":false,"is_disabled":false,"rental_uris":{"android":"levelo://app?vid=955f7c39-8a7e-4dec-b39c-c97a67b5433a","ios":"levelo://app?vid=955f7c39-8a7e-4dec-b39c-c97a67b5433a"},"vehicle_type_id":"4","last_reported":1723292044,"current_range_meters":24800,"station_id":"ce4bhr92rcd13ifvqhrg","pricing_plan_id":"cebpf4jnsgd1na2vs0mg"},{"bike_id":"d79b94ee-5797-4e8c-8921-3465ea8fbc4b","system_id":"levelo_inurba_marseille","lat":43.33025,"lon":5.39036,"is_reserved":false,"is_disabled":false,"rental_uris":{"android":"levelo://app?vid=d79b94ee-5797-4e8c-8921-3465ea8fbc4b","ios":"levelo://app?vid=d79b94ee-5797-4e8c-8921-3465ea8fbc4b"},"vehicle_type_id":"4","last_reported":1723292044,"current_range_meters":23600,"station_id":"ce4bhr92rcd13ifvqhrg","pricing_plan_id":"cebpf4jnsgd1na2vs0mg"},{"bike_id":"3426e4c0-ccf4-47a9-aa94-cc9d783b72ec","system_id":"levelo_inurba_marseille","lat":43.33024,"lon":5.39042,"is_reserved":false,"is_disabled":false,"rental_uris":{"android":"levelo://app?vid=3426e4c0-ccf4-47a9-aa94-cc9d783b72ec","ios":"levelo://app?vid=3426e4c0-ccf4-47a9-aa94-cc9d783b72ec"},"vehicle_type_id":"4","last_reported":1723292044,"current_range_meters":13200,"station_id":"ce4bhr92rcd13ifvqhrg","pricing_plan_id":"cebpf4jnsgd1na2vs0mg"},{"bike_id":"3e8361a5-70cb-4795-a351-0c9497d9c4db","system_id":"levelo_inurba_marseille","lat":43.3302,"lon":5.39052,"is_reserved":false,"is_disabled":false,"rental_uris":{"android":"levelo://app?vid=3e8361a5-70cb-4795-a351-0c9497d9c4db","ios":"levelo://app?vid=3e8361a5-70cb-4795-a351-0c9497d9c4db"},"vehicle_type_id":"4","last_reported":1723292044,"current_range_meters":12000,"station_id":"ce4bhr92rcd13ifvqhrg","pricing_plan_id":"cebpf4jnsgd1na2vs0mg"},{"bike_id":"0c0e1fec-3432-45ae-8332-161f590ece58","system_id":"levelo_inurba_marseille","lat":43.33029,"lon":5.39041,"is_reserved":false,"is_disabled":false,"rental_uris":{"android":"levelo://app?vid=0c0e1fec-3432-45ae-8332-161f590ece58","ios":"levelo://app?vid=0c0e1fec-3432-45ae-8332-161f590ece58"},"vehicle_type_id":"4","last_reported":1723292044,"current_range_meters":28400,"station_id":"ce4bhr92rcd13ifvqhrg","pricing_plan_id":"cebpf4jnsgd1na2vs0mg"},{"bike_id":"57aa7534-ceb4-4eda-98d2-a42f6caa1222","system_id":"levelo_inurba_marseille","lat":43.318793,"lon":5.399899,"is_reserved":false,"is_disabled":false,"rental_uris":{"android":"levelo://app?vid=57aa7534-ceb4-4eda-98d2-a42f6caa1222","ios":"levelo://app?vid=57aa7534-ceb4-4eda-98d2-a42f6caa1222"},"vehicle_type_id":"4","last_reported":1723292044,"current_range_meters":11600,"station_id":"","pricing_plan_id":"cebpf4jnsgd1na2vs0mg"},{"bike_id":"35fd4fcb-2d90-4e11-9379-5da1c1fb1c0e","system_id":"levelo_inurba_marseille","lat":43.318772,"lon":5.399963,"is_reserved":false,"is_disabled":false,"rental_uris":{"android":"levelo://app?vid=35fd4fcb-2d90-4e11-9379-5da1c1fb1c0e","ios":"levelo://app?vid=35fd4fcb-2d90-4e11-9379-5da1c1fb1c0e"},"vehicle_type_id":"4","last_reported":1723292044,"current_range_meters":9600,"station_id":"","pricing_plan_id":"cebpf4jnsgd1na2vs0mg"},{"bike_id":"bf6d34b7-659d-402f-aca8-e215614aec6f","system_id":"levelo_inurba_marseille","lat":43.310617,"lon":5.400888,"is_reserved":false,"is_disabled":false,"rental_uris":{"android":"levelo://app?vid=bf6d34b7-659d-402f-aca8-e215614aec6f","ios":"levelo://app?vid=bf6d34b7-659d-402f-aca8-e215614aec6f"},"vehicle_type_id":"4","last_reported":1723292044,"current_range_meters":4800,"station_id":"","pricing_plan_id":"cebpf4jnsgd1na2vs0mg"},{"bike_id":"1edc3a17-05f3-4edf-975c-68baed72c09a","system_id":"levelo_inurba_marseille","lat":43.33724,"lon":5.37452,"is_reserved":false,"is_disabled":false,"rental_uris":{"android":"levelo://app?vid=1edc3a17-05f3-4edf-975c-68baed72c09a","ios":"levelo://app?vid=1edc3a17-05f3-4edf-975c-68baed72c09a"},"vehicle_type_id":"4","last_reported":1723292044,"current_range_meters":20800,"station_id":"","pricing_plan_id":"cebpf4jnsgd1na2vs0mg"},{"bike_id":"e27a01ef-061c-4c0e-acd8-74bd06f8bfac","system_id":"levelo_inurba_marseille","lat":43.337395,"lon":5.374622,"is_reserved":false,"is_disabled":false,"rental_uris":{"android":"levelo://app?vid=e27a01ef-061c-4c0e-acd8-74bd06f8bfac","ios":"levelo://app?vid=e27a01ef-061c-4c0e-acd8-74bd06f8bfac"},"vehicle_type_id":"4","last_reported":1723292044,"current_range_meters":30000,"station_id":"","pricing_plan_id":"cebpf4jnsgd1na2vs0mg"},{"bike_id":"a99690a8-3e4f-41a1-9b6a-5b43249a269f","system_id":"levelo_inurba_marseille","lat":43.3374,"lon":5.37466,"is_reserved":false,"is_disabled":false,"rental_uris":{"android":"levelo://app?vid=a99690a8-3e4f-41a1-9b6a-5b43249a269f","ios":"levelo://app?vid=a99690a8-3e4f-41a1-9b6a-5b43249a269f"},"vehicle_type_id":"4","last_reported":1723292044,"current_range_meters":5200,"station_id":"","pricing_plan_id":"cebpf4jnsgd1na2vs0mg"},{"bike_id":"b82d858a-91a0-49bf-a6fc-8ae898ab18fa","system_id":"levelo_inurba_marseille","lat":43.312609,"lon":5.401662,"is_reserved":false,"is_disabled":false,"rental_uris":{"android":"levelo://app?vid=b82d858a-91a0-49bf-a6fc-8ae898ab18fa","ios":"levelo://app?vid=b82d858a-91a0-49bf-a6fc-8ae898ab18fa"},"vehicle_type_id":"4","last_reported":1723292044,"current_range_meters":31200,"station_id":"ce4bh092rcd13ifvqd30","pricing_plan_id":"cebpf4jnsgd1na2vs0mg"},{"bike_id":"ac75d8e5-5139-4e43-a64e-51e7994c2517","system_id":"levelo_inurba_marseille","lat":43.337444,"lon":5.374475,"is_reserved":false,"is_disabled":false,"rental_uris":{"android":"levelo://app?vid=ac75d8e5-5139-4e43-a64e-51e7994c2517","ios":"levelo://app?vid=ac75d8e5-5139-4e43-a64e-51e7994c2517"},"vehicle_type_id":"3","last_reported":1723292044,"current_range_meters":24800,"station_id":"","pricing_plan_id":"cebpf4jnsgd1na2vs0mg"},{"bike_id":"3236191b-4645-49cd-bd26-79f088e2adc8","system_id":"levelo_inurba_marseille","lat":43.309371,"lon":5.401449,"is_reserved":false,"is_disabled":false,"rental_uris":{"android":"levelo://app?vid=3236191b-4645-49cd-bd26-79f088e2adc8","ios":"levelo://app?vid=3236191b-4645-49cd-bd26-79f088e2adc8"},"vehicle_type_id":"4","last_reported":1723292044,"current_range_meters":15200,"station_id":"ce4bgvp2rcd13ifvqct0","pricing_plan_id":"cebpf4jnsgd1na2vs0mg"},{"bike_id":"1115374c-9bd1-4203-8798-2954097db088","system_id":"levelo_inurba_marseille","lat":43.33742,"lon":5.37467,"is_reserved":false,"is_disabled":false,"rental_uris":{"android":"levelo://app?vid=1115374c-9bd1-4203-8798-2954097db088","ios":"levelo://app?vid=1115374c-9bd1-4203-8798-2954097db088"},"vehicle_type_id":"4","last_reported":1723292044,"current_range_meters":6800,"station_id":"","pricing_plan_id":"cebpf4jnsgd1na2vs0mg"},{"bike_id":"99ff80d6-767c-4ca9-81b5-c19f253f3bd3","system_id":"levelo_inurba_marseille","lat":43.33745,"lon":5.37451,"is_reserved":false,"is_disabled":false,"rental_uris":{"android":"levelo://app?vid=99ff80d6-767c-4ca9-81b5-c19f253f3bd3","ios":"levelo://app?vid=99ff80d6-767c-4ca9-81b5-c19f253f3bd3"},"vehicle_type_id":"4","last_reported":1723292044,"current_range_meters":4000,"station_id":"","pricing_plan_id":"cebpf4jnsgd1na2vs0mg"},{"bike_id":"7fd52e3d-d8a0-4216-a455-f832a3c42d30","system_id":"levelo_inurba_marseille","lat":43.337429,"lon":5.374638,"is_reserved":false,"is_disabled":false,"rental_uris":{"android":"levelo://app?vid=7fd52e3d-d8a0-4216-a455-f832a3c42d30","ios":"levelo://app?vid=7fd52e3d-d8a0-4216-a455-f832a3c42d30"},"vehicle_type_id":"4","last_reported":1723292044,"current_range_meters":29600,"station_id":"","pricing_plan_id":"cebpf4jnsgd1na2vs0mg"},{"bike_id":"05b50d76-7193-4433-8135-a17e4315fb2d","system_id":"levelo_inurba_marseille","lat":43.33745,"lon":5.37455,"is_reserved":false,"is_disabled":false,"rental_uris":{"android":"levelo://app?vid=05b50d76-7193-4433-8135-a17e4315fb2d","ios":"levelo://app?vid=05b50d76-7193-4433-8135-a17e4315fb2d"},"vehicle_type_id":"4","last_reported":1723292044,"current_range_meters":25200,"station_id":"","pricing_plan_id":"cebpf4jnsgd1na2vs0mg"},{"bike_id":"7553d7c6-8eef-4b21-9dca-534ec43256a6","system_id":"levelo_inurba_marseille","lat":43.33745,"lon":5.37457,"is_reserved":false,"is_disabled":false,"rental_uris":{"android":"levelo://app?vid=7553d7c6-8eef-4b21-9dca-534ec43256a6","ios":"levelo://app?vid=7553d7c6-8eef-4b21-9dca-534ec43256a6"},"vehicle_type_id":"4","last_reported":1723292044,"current_range_meters":15200,"station_id":"","pricing_plan_id":"cebpf4jnsgd1na2vs0mg"},{"bike_id":"663f3909-6d88-4ad4-b47e-2f2f7399ecd1","system_id":"levelo_inurba_marseille","lat":43.309371,"lon":5.401449,"is_reserved":false,"is_disabled":false,"rental_uris":{"android":"levelo://app?vid=663f3909-6d88-4ad4-b47e-2f2f7399ecd1","ios":"levelo://app?vid=663f3909-6d88-4ad4-b47e-2f2f7399ecd1"},"vehicle_type_id":"4","last_reported":1723292044,"current_range_meters":28400,"station_id":"ce4bgvp2rcd13ifvqct0","pricing_plan_id":"cebpf4jnsgd1na2vs0mg"},{"bike_id":"8b5f6228-3582-497c-9919-c849c8ef0c9b","system_id":"levelo_inurba_marseille","lat":43.337446,"lon":5.374609,"is_reserved":false,"is_disabled":false,"rental_uris":{"android":"levelo://app?vid=8b5f6228-3582-497c-9919-c849c8ef0c9b","ios":"levelo://app?vid=8b5f6228-3582-497c-9919-c849c8ef0c9b"},"vehicle_type_id":"4","last_reported":1723292044,"current_range_meters":2000,"station_id":"","pricing_plan_id":"cebpf4jnsgd1na2vs0mg"},{"bike_id":"43f21911-683d-4ba4-93d3-8a7e20e1c78c","system_id":"levelo_inurba_marseille","lat":43.33744,"lon":5.37467,"is_reserved":false,"is_disabled":false,"rental_uris":{"android":"levelo://app?vid=43f21911-683d-4ba4-93d3-8a7e20e1c78c","ios":"levelo://app?vid=43f21911-683d-4ba4-93d3-8a7e20e1c78c"},"vehicle_type_id":"4","last_reported":1723292044,"current_range_meters":31200,"station_id":"","pricing_plan_id":"cebpf4jnsgd1na2vs0mg"},{"bike_id":"bc4ad99f-e946-4e5c-a7a2-41e11e702155","system_id":"levelo_inurba_marseille","lat":43.30925,"lon":5.40144,"is_reserved":false,"is_disabled":false,"rental_uris":{"android":"levelo://app?vid=bc4ad99f-e946-4e5c-a7a2-41e11e702155","ios":"levelo://app?vid=bc4ad99f-e946-4e5c-a7a2-41e11e702155"},"vehicle_type_id":"4","last_reported":1723292044,"current_range_meters":0,"station_id":"ce4bgvp2rcd13ifvqct0","pricing_plan_id":"cebpf4jnsgd1na2vs0mg"},{"bike_id":"1596ed5a-2748-4147-884b-51e994b2b8ca","system_id":"levelo_inurba_marseille","lat":43.337482,"lon":5.374568,"is_reserved":false,"is_disabled":false,"rental_uris":{"android":"levelo://app?vid=1596ed5a-2748-4147-884b-51e994b2b8ca","ios":"levelo://app?vid=1596ed5a-2748-4147-884b-51e994b2b8ca"},"vehicle_type_id":"4","last_reported":1723292044,"current_range_meters":16800,"station_id":"","pricing_plan_id":"cebpf4jnsgd1na2vs0mg"},{"bike_id":"1d79ffd6-18f9-4da6-8a6c-bf932ba462f8","system_id":"levelo_inurba_marseille","lat":43.3375,"lon":5.37449,"is_reserved":false,"is_disabled":false,"rental_uris":{"android":"levelo://app?vid=1d79ffd6-18f9-4da6-8a6c-bf932ba462f8","ios":"levelo://app?vid=1d79ffd6-18f9-4da6-8a6c-bf932ba462f8"},"vehicle_type_id":"4","last_reported":1723292044,"current_range_meters":2800,"station_id":"","pricing_plan_id":"cebpf4jnsgd1na2vs0mg"},{"bike_id":"7f4a4c6f-9116-49e3-9148-94c29c22873f","system_id":"levelo_inurba_marseille","lat":43.3375,"lon":5.37451,"is_reserved":false,"is_disabled":false,"rental_uris":{"android":"levelo://app?vid=7f4a4c6f-9116-49e3-9148-94c29c22873f","ios":"levelo://app?vid=7f4a4c6f-9116-49e3-9148-94c29c22873f"},"vehicle_type_id":"4","last_reported":1723292044,"current_range_meters":29600,"station_id":"","pricing_plan_id":"cebpf4jnsgd1na2vs0mg"},{"bike_id":"1d380d86-5e76-461b-bb6c-dc94aca12cd4","system_id":"levelo_inurba_marseille","lat":43.3375,"lon":5.37458,"is_reserved":false,"is_disabled":false,"rental_uris":{"android":"levelo://app?vid=1d380d86-5e76-461b-bb6c-dc94aca12cd4","ios":"levelo://app?vid=1d380d86-5e76-461b-bb6c-dc94aca12cd4"},"vehicle_type_id":"4","last_reported":1723292044,"current_range_meters":10400,"station_id":"","pricing_plan_id":"cebpf4jnsgd1na2vs0mg"},{"bike_id":"5adc2e8d-b357-417c-a4c4-d1aa163ea738","system_id":"levelo_inurba_marseille","lat":43.3375,"lon":5.37458,"is_reserved":false,"is_disabled":false,"rental_uris":{"android":"levelo://app?vid=5adc2e8d-b357-417c-a4c4-d1aa163ea738","ios":"levelo://app?vid=5adc2e8d-b357-417c-a4c4-d1aa163ea738"},"vehicle_type_id":"4","last_reported":1723292044,"current_range_meters":5600,"station_id":"","pricing_plan_id":"cebpf4jnsgd1na2vs0mg"},{"bike_id":"176078ac-dbf3-4a59-b7a0-e3f26aa7db6d","system_id":"levelo_inurba_marseille","lat":43.33751,"lon":5.37455,"is_reserved":false,"is_disabled":false,"rental_uris":{"android":"levelo://app?vid=176078ac-dbf3-4a59-b7a0-e3f26aa7db6d","ios":"levelo://app?vid=176078ac-dbf3-4a59-b7a0-e3f26aa7db6d"},"vehicle_type_id":"4","last_reported":1723292044,"current_range_meters":10800,"station_id":"","pricing_plan_id":"cebpf4jnsgd1na2vs0mg"},{"bike_id":"6137b86e-8de9-4c4f-94ef-bfa372175031","system_id":"levelo_inurba_marseille","lat":43.337513,"lon":5.37454,"is_reserved":false,"is_disabled":false,"rental_uris":{"android":"levelo://app?vid=6137b86e-8de9-4c4f-94ef-bfa372175031","ios":"levelo://app?vid=6137b86e-8de9-4c4f-94ef-bfa372175031"},"vehicle_type_id":"4","last_reported":1723292044,"current_range_meters":16000,"station_id":"","pricing_plan_id":"cebpf4jnsgd1na2vs0mg"},{"bike_id":"3bf2c92b-e810-4497-81f3-0eb40ecad1f5","system_id":"levelo_inurba_marseille","lat":43.33754,"lon":5.3744,"is_reserved":false,"is_disabled":false,"rental_uris":{"android":"levelo://app?vid=3bf2c92b-e810-4497-81f3-0eb40ecad1f5","ios":"levelo://app?vid=3bf2c92b-e810-4497-81f3-0eb40ecad1f5"},"vehicle_type_id":"4","last_reported":1723292044,"current_range_meters":30000,"station_id":"","pricing_plan_id":"cebpf4jnsgd1na2vs0mg"},{"bike_id":"ddc4736c-295c-4ba9-8f16-c27754ad5c71","system_id":"levelo_inurba_marseille","lat":43.33751,"lon":5.3746,"is_reserved":false,"is_disabled":false,"rental_uris":{"android":"levelo://app?vid=ddc4736c-295c-4ba9-8f16-c27754ad5c71","ios":"levelo://app?vid=ddc4736c-295c-4ba9-8f16-c27754ad5c71"},"vehicle_type_id":"4","last_reported":1723292044,"current_range_meters":30400,"station_id":"","pricing_plan_id":"cebpf4jnsgd1na2vs0mg"},{"bike_id":"f2c39657-f64b-4c05-b0b3-af94dc52094d","system_id":"levelo_inurba_marseille","lat":43.33756,"lon":5.37441,"is_reserved":false,"is_disabled":false,"rental_uris":{"android":"levelo://app?vid=f2c39657-f64b-4c05-b0b3-af94dc52094d","ios":"levelo://app?vid=f2c39657-f64b-4c05-b0b3-af94dc52094d"},"vehicle_type_id":"4","last_reported":1723292044,"current_range_meters":800,"station_id":"","pricing_plan_id":"cebpf4jnsgd1na2vs0mg"},{"bike_id":"c24ccdf3-8374-4625-a41a-8280c7fc42b0","system_id":"levelo_inurba_marseille","lat":43.337554,"lon":5.374452,"is_reserved":false,"is_disabled":false,"rental_uris":{"android":"levelo://app?vid=c24ccdf3-8374-4625-a41a-8280c7fc42b0","ios":"levelo://app?vid=c24ccdf3-8374-4625-a41a-8280c7fc42b0"},"vehicle_type_id":"4","last_reported":1723292044,"current_range_meters":25600,"station_id":"","pricing_plan_id":"cebpf4jnsgd1na2vs0mg"},{"bike_id":"c3cf305c-692c-41ed-b07c-7ebbc13f240d","system_id":"levelo_inurba_marseille","lat":43.337541,"lon":5.374601,"is_reserved":false,"is_disabled":false,"rental_uris":{"android":"levelo://app?vid=c3cf305c-692c-41ed-b07c-7ebbc13f240d","ios":"levelo://app?vid=c3cf305c-692c-41ed-b07c-7ebbc13f240d"},"vehicle_type_id":"4","last_reported":1723292044,"current_range_meters":14400,"station_id":"","pricing_plan_id":"cebpf4jnsgd1na2vs0mg"},{"bike_id":"1ece39e8-5ec5-465b-b0d5-bdea3554c74d","system_id":"levelo_inurba_marseille","lat":43.33759,"lon":5.374458,"is_reserved":false,"is_disabled":false,"rental_uris":{"android":"levelo://app?vid=1ece39e8-5ec5-465b-b0d5-bdea3554c74d","ios":"levelo://app?vid=1ece39e8-5ec5-465b-b0d5-bdea3554c74d"},"vehicle_type_id":"4","last_reported":1723292044,"current_range_meters":26000,"station_id":"","pricing_plan_id":"cebpf4jnsgd1na2vs0mg"},{"bike_id":"7e9c89fe-e5d1-4d9e-90f7-d0076221035c","system_id":"levelo_inurba_marseille","lat":43.3376,"lon":5.37446,"is_reserved":false,"is_disabled":false,"rental_uris":{"android":"levelo://app?vid=7e9c89fe-e5d1-4d9e-90f7-d0076221035c","ios":"levelo://app?vid=7e9c89fe-e5d1-4d9e-90f7-d0076221035c"},"vehicle_type_id":"4","last_reported":1723292044,"current_range_meters":29600,"station_id":"","pricing_plan_id":"cebpf4jnsgd1na2vs0mg"},{"bike_id":"30e3bf67-f576-417b-9e6f-4c9929e59ffa","system_id":"levelo_inurba_marseille","lat":43.337584,"lon":5.374573,"is_reserved":false,"is_disabled":false,"rental_uris":{"android":"levelo://app?vid=30e3bf67-f576-417b-9e6f-4c9929e59ffa","ios":"levelo://app?vid=30e3bf67-f576-417b-9e6f-4c9929e59ffa"},"vehicle_type_id":"4","last_reported":1723292044,"current_range_meters":12800,"station_id":"","pricing_plan_id":"cebpf4jnsgd1na2vs0mg"},{"bike_id":"12445b66-2542-4296-816a-e8ece665c4ce","system_id":"levelo_inurba_marseille","lat":43.337613,"lon":5.37445,"is_reserved":false,"is_disabled":false,"rental_uris":{"android":"levelo://app?vid=12445b66-2542-4296-816a-e8ece665c4ce","ios":"levelo://app?vid=12445b66-2542-4296-816a-e8ece665c4ce"},"vehicle_type_id":"4","last_reported":1723292044,"current_range_meters":29600,"station_id":"","pricing_plan_id":"cebpf4jnsgd1na2vs0mg"},{"bike_id":"fcb552aa-4b86-4ab7-bdf4-7617d41dcd66","system_id":"levelo_inurba_marseille","lat":43.33763,"lon":5.37443,"is_reserved":false,"is_disabled":false,"rental_uris":{"android":"levelo://app?vid=fcb552aa-4b86-4ab7-bdf4-7617d41dcd66","ios":"levelo://app?vid=fcb552aa-4b86-4ab7-bdf4-7617d41dcd66"},"vehicle_type_id":"4","last_reported":1723292044,"current_range_meters":26400,"station_id":"","pricing_plan_id":"cebpf4jnsgd1na2vs0mg"},{"bike_id":"ea1cc1bc-b3f0-4093-8f5f-6dfff1fa63d9","system_id":"levelo_inurba_marseille","lat":43.33757,"lon":5.37484,"is_reserved":false,"is_disabled":false,"rental_uris":{"android":"levelo://app?vid=ea1cc1bc-b3f0-4093-8f5f-6dfff1fa63d9","ios":"levelo://app?vid=ea1cc1bc-b3f0-4093-8f5f-6dfff1fa63d9"},"vehicle_type_id":"4","last_reported":1723292044,"current_range_meters":29600,"station_id":"","pricing_plan_id":"cebpf4jnsgd1na2vs0mg"},{"bike_id":"10fd0510-81f7-4cd4-8909-99cc874e1a4c","system_id":"levelo_inurba_marseille","lat":43.33763,"lon":5.37449,"is_reserved":false,"is_disabled":false,"rental_uris":{"android":"levelo://app?vid=10fd0510-81f7-4cd4-8909-99cc874e1a4c","ios":"levelo://app?vid=10fd0510-81f7-4cd4-8909-99cc874e1a4c"},"vehicle_type_id":"4","last_reported":1723292044,"current_range_meters":30000,"station_id":"","pricing_plan_id":"cebpf4jnsgd1na2vs0mg"},{"bike_id":"e0da458e-1309-458b-956b-aab617b2ea05","system_id":"levelo_inurba_marseille","lat":43.3376,"lon":5.37473,"is_reserved":false,"is_disabled":false,"rental_uris":{"android":"levelo://app?vid=e0da458e-1309-458b-956b-aab617b2ea05","ios":"levelo://app?vid=e0da458e-1309-458b-956b-aab617b2ea05"},"vehicle_type_id":"4","last_reported":1723292044,"current_range_meters":27600,"station_id":"","pricing_plan_id":"cebpf4jnsgd1na2vs0mg"},{"bike_id":"a7e71684-8757-4c0e-98c0-cd5b05cd0ba7","system_id":"levelo_inurba_marseille","lat":43.33759,"lon":5.37492,"is_reserved":false,"is_disabled":false,"rental_uris":{"android":"levelo://app?vid=a7e71684-8757-4c0e-98c0-cd5b05cd0ba7","ios":"levelo://app?vid=a7e71684-8757-4c0e-98c0-cd5b05cd0ba7"},"vehicle_type_id":"4","last_reported":1723292044,"current_range_meters":30800,"station_id":"","pricing_plan_id":"cebpf4jnsgd1na2vs0mg"},{"bike_id":"76b0bce9-a861-4534-b1a2-64c1fde327ba","system_id":"levelo_inurba_marseille","lat":43.33765,"lon":5.37456,"is_reserved":false,"is_disabled":false,"rental_uris":{"android":"levelo://app?vid=76b0bce9-a861-4534-b1a2-64c1fde327ba","ios":"levelo://app?vid=76b0bce9-a861-4534-b1a2-64c1fde327ba"},"vehicle_type_id":"4","last_reported":1723292044,"current_range_meters":22000,"station_id":"","pricing_plan_id":"cebpf4jnsgd1na2vs0mg"},{"bike_id":"5cb0d0f3-eacc-40eb-a46e-542fc59e15f6","system_id":"levelo_inurba_marseille","lat":43.33761,"lon":5.37487,"is_reserved":false,"is_disabled":false,"rental_uris":{"android":"levelo://app?vid=5cb0d0f3-eacc-40eb-a46e-542fc59e15f6","ios":"levelo://app?vid=5cb0d0f3-eacc-40eb-a46e-542fc59e15f6"},"vehicle_type_id":"4","last_reported":1723292044,"current_range_meters":30800,"station_id":"","pricing_plan_id":"cebpf4jnsgd1na2vs0mg"},{"bike_id":"475ed14f-5d86-4ce1-9e44-9d4d1bef7035","system_id":"levelo_inurba_marseille","lat":43.33765,"lon":5.37486,"is_reserved":false,"is_disabled":false,"rental_uris":{"android":"levelo://app?vid=475ed14f-5d86-4ce1-9e44-9d4d1bef7035","ios":"levelo://app?vid=475ed14f-5d86-4ce1-9e44-9d4d1bef7035"},"vehicle_type_id":"4","last_reported":1723292044,"current_range_meters":25600,"station_id":"","pricing_plan_id":"cebpf4jnsgd1na2vs0mg"},{"bike_id":"c645a007-be01-4393-84eb-73361b7cfa3f","system_id":"levelo_inurba_marseille","lat":43.337689,"lon":5.374664,"is_reserved":false,"is_disabled":false,"rental_uris":{"android":"levelo://app?vid=c645a007-be01-4393-84eb-73361b7cfa3f","ios":"levelo://app?vid=c645a007-be01-4393-84eb-73361b7cfa3f"},"vehicle_type_id":"4","last_reported":1723292044,"current_range_meters":11600,"station_id":"","pricing_plan_id":"cebpf4jnsgd1na2vs0mg"},{"bike_id":"18372928-35e7-45a9-9e7e-8c3f8dd277b0","system_id":"levelo_inurba_marseille","lat":43.301117,"lon":5.398795,"is_reserved":false,"is_disabled":false,"rental_uris":{"android":"levelo://app?vid=18372928-35e7-45a9-9e7e-8c3f8dd277b0","ios":"levelo://app?vid=18372928-35e7-45a9-9e7e-8c3f8dd277b0"},"vehicle_type_id":"4","last_reported":1723292044,"current_range_meters":24800,"station_id":"ce4bh0h2rcd13ifvqd40","pricing_plan_id":"cebpf4jnsgd1na2vs0mg"},{"bike_id":"f43e9556-231b-47ac-930a-1a18de7b2742","system_id":"levelo_inurba_marseille","lat":43.33781,"lon":5.37449,"is_reserved":false,"is_disabled":false,"rental_uris":{"android":"levelo://app?vid=f43e9556-231b-47ac-930a-1a18de7b2742","ios":"levelo://app?vid=f43e9556-231b-47ac-930a-1a18de7b2742"},"vehicle_type_id":"4","last_reported":1723292044,"current_range_meters":31200,"station_id":"","pricing_plan_id":"cebpf4jnsgd1na2vs0mg"},{"bike_id":"95e665ed-afbb-4ece-97e4-ecc3d1a7e7e9","system_id":"levelo_inurba_marseille","lat":43.33786,"lon":5.37436,"is_reserved":false,"is_disabled":false,"rental_uris":{"android":"levelo://app?vid=95e665ed-afbb-4ece-97e4-ecc3d1a7e7e9","ios":"levelo://app?vid=95e665ed-afbb-4ece-97e4-ecc3d1a7e7e9"},"vehicle_type_id":"4","last_reported":1723292044,"current_range_meters":17600,"station_id":"","pricing_plan_id":"cebpf4jnsgd1na2vs0mg"},{"bike_id":"2a35a0c0-a80c-4d82-b366-518f438be889","system_id":"levelo_inurba_marseille","lat":43.337942,"lon":5.373883,"is_reserved":false,"is_disabled":false,"rental_uris":{"android":"levelo://app?vid=2a35a0c0-a80c-4d82-b366-518f438be889","ios":"levelo://app?vid=2a35a0c0-a80c-4d82-b366-518f438be889"},"vehicle_type_id":"4","last_reported":1723292044,"current_range_meters":28800,"station_id":"","pricing_plan_id":"cebpf4jnsgd1na2vs0mg"},{"bike_id":"58d6320c-eea2-47fc-989d-4fa98181cd0d","system_id":"levelo_inurba_marseille","lat":43.28727,"lon":5.36078,"is_reserved":false,"is_disabled":false,"rental_uris":{"android":"levelo://app?vid=58d6320c-eea2-47fc-989d-4fa98181cd0d","ios":"levelo://app?vid=58d6320c-eea2-47fc-989d-4fa98181cd0d"},"vehicle_type_id":"4","last_reported":1723292044,"current_range_meters":8400,"station_id":"cki0cbj6b192h4jlfktg","pricing_plan_id":"cebpf4jnsgd1na2vs0mg"},{"bike_id":"bf327676-1ab9-4b90-94bf-3841ea95235e","system_id":"levelo_inurba_marseille","lat":43.28727,"lon":5.36078,"is_reserved":false,"is_disabled":false,"rental_uris":{"android":"levelo://app?vid=bf327676-1ab9-4b90-94bf-3841ea95235e","ios":"levelo://app?vid=bf327676-1ab9-4b90-94bf-3841ea95235e"},"vehicle_type_id":"4","last_reported":1723292044,"current_range_meters":25200,"station_id":"cki0cbj6b192h4jlfktg","pricing_plan_id":"cebpf4jnsgd1na2vs0mg"},{"bike_id":"c59d1dad-2225-4563-9710-5b8ac7cc967a","system_id":"levelo_inurba_marseille","lat":43.286593,"lon":5.363346,"is_reserved":false,"is_disabled":false,"rental_uris":{"android":"levelo://app?vid=c59d1dad-2225-4563-9710-5b8ac7cc967a","ios":"levelo://app?vid=c59d1dad-2225-4563-9710-5b8ac7cc967a"},"vehicle_type_id":"4","last_reported":1723292044,"current_range_meters":13600,"station_id":"ce4bhah2rcd13ifvqej0","pricing_plan_id":"cebpf4jnsgd1na2vs0mg"},{"bike_id":"2ed2ac1b-debd-4015-9af4-fdc39a52819c","system_id":"levelo_inurba_marseille","lat":43.286593,"lon":5.363346,"is_reserved":false,"is_disabled":false,"rental_uris":{"android":"levelo://app?vid=2ed2ac1b-debd-4015-9af4-fdc39a52819c","ios":"levelo://app?vid=2ed2ac1b-debd-4015-9af4-fdc39a52819c"},"vehicle_type_id":"4","last_reported":1723292044,"current_range_meters":24800,"station_id":"ce4bhah2rcd13ifvqej0","pricing_plan_id":"cebpf4jnsgd1na2vs0mg"},{"bike_id":"3f2ba6e0-8d11-4879-8b1e-a2a003f7c76e","system_id":"levelo_inurba_marseille","lat":43.286593,"lon":5.363346,"is_reserved":false,"is_disabled":false,"rental_uris":{"android":"levelo://app?vid=3f2ba6e0-8d11-4879-8b1e-a2a003f7c76e","ios":"levelo://app?vid=3f2ba6e0-8d11-4879-8b1e-a2a003f7c76e"},"vehicle_type_id":"4","last_reported":1723292044,"current_range_meters":6400,"station_id":"ce4bhah2rcd13ifvqej0","pricing_plan_id":"cebpf4jnsgd1na2vs0mg"},{"bike_id":"2e23caf1-54de-4bea-85c7-1fb8c7a897ba","system_id":"levelo_inurba_marseille","lat":43.286961,"lon":5.373785,"is_reserved":false,"is_disabled":false,"rental_uris":{"android":"levelo://app?vid=2e23caf1-54de-4bea-85c7-1fb8c7a897ba","ios":"levelo://app?vid=2e23caf1-54de-4bea-85c7-1fb8c7a897ba"},"vehicle_type_id":"4","last_reported":1723292044,"current_range_meters":24400,"station_id":"ce4bh3p2rcd13ifvqdq0","pricing_plan_id":"cebpf4jnsgd1na2vs0mg"},{"bike_id":"edceedac-95fe-46ea-b378-d7a02c8cc8e2","system_id":"levelo_inurba_marseille","lat":43.286593,"lon":5.363346,"is_reserved":false,"is_disabled":false,"rental_uris":{"android":"levelo://app?vid=edceedac-95fe-46ea-b378-d7a02c8cc8e2","ios":"levelo://app?vid=edceedac-95fe-46ea-b378-d7a02c8cc8e2"},"vehicle_type_id":"4","last_reported":1723292044,"current_range_meters":17200,"station_id":"ce4bhah2rcd13ifvqej0","pricing_plan_id":"cebpf4jnsgd1na2vs0mg"},{"bike_id":"fc55feb3-e9a5-45bd-8ed6-bd2d4107ab45","system_id":"levelo_inurba_marseille","lat":43.286039,"lon":5.370679,"is_reserved":false,"is_disabled":false,"rental_uris":{"android":"levelo://app?vid=fc55feb3-e9a5-45bd-8ed6-bd2d4107ab45","ios":"levelo://app?vid=fc55feb3-e9a5-45bd-8ed6-bd2d4107ab45"},"vehicle_type_id":"4","last_reported":1723292044,"current_range_meters":28400,"station_id":"ce4bht12rcd13ifvqi60","pricing_plan_id":"cebpf4jnsgd1na2vs0mg"},{"bike_id":"40c0cb0d-8652-4537-be6a-b48951e7d12f","system_id":"levelo_inurba_marseille","lat":43.286029,"lon":5.370675,"is_reserved":false,"is_disabled":false,"rental_uris":{"android":"levelo://app?vid=40c0cb0d-8652-4537-be6a-b48951e7d12f","ios":"levelo://app?vid=40c0cb0d-8652-4537-be6a-b48951e7d12f"},"vehicle_type_id":"4","last_reported":1723292044,"current_range_meters":17200,"station_id":"ce4bht12rcd13ifvqi60","pricing_plan_id":"cebpf4jnsgd1na2vs0mg"},{"bike_id":"57da0337-159a-4148-be4f-fc6e9aca3c31","system_id":"levelo_inurba_marseille","lat":43.338906,"lon":5.357228,"is_reserved":false,"is_disabled":false,"rental_uris":{"android":"levelo://app?vid=57da0337-159a-4148-be4f-fc6e9aca3c31","ios":"levelo://app?vid=57da0337-159a-4148-be4f-fc6e9aca3c31"},"vehicle_type_id":"4","last_reported":1723292044,"current_range_meters":9200,"station_id":"","pricing_plan_id":"cebpf4jnsgd1na2vs0mg"},{"bike_id":"30f539c2-f71c-4f8e-bbac-b5380b33b217","system_id":"levelo_inurba_marseille","lat":43.29869,"lon":5.39948,"is_reserved":false,"is_disabled":false,"rental_uris":{"android":"levelo://app?vid=30f539c2-f71c-4f8e-bbac-b5380b33b217","ios":"levelo://app?vid=30f539c2-f71c-4f8e-bbac-b5380b33b217"},"vehicle_type_id":"4","last_reported":1723292044,"current_range_meters":8400,"station_id":"","pricing_plan_id":"cebpf4jnsgd1na2vs0mg"},{"bike_id":"1cabcaa0-8b93-4667-a38c-1af9ee5e99c0","system_id":"levelo_inurba_marseille","lat":43.316821,"lon":5.404737,"is_reserved":false,"is_disabled":false,"rental_uris":{"android":"levelo://app?vid=1cabcaa0-8b93-4667-a38c-1af9ee5e99c0","ios":"levelo://app?vid=1cabcaa0-8b93-4667-a38c-1af9ee5e99c0"},"vehicle_type_id":"4","last_reported":1723292044,"current_range_meters":31200,"station_id":"ce4bh012rcd13ifvqd00","pricing_plan_id":"cebpf4jnsgd1na2vs0mg"},{"bike_id":"4ee80833-8ab3-46d7-9f75-8948391c644c","system_id":"levelo_inurba_marseille","lat":43.316996,"lon":5.404679,"is_reserved":false,"is_disabled":false,"rental_uris":{"android":"levelo://app?vid=4ee80833-8ab3-46d7-9f75-8948391c644c","ios":"levelo://app?vid=4ee80833-8ab3-46d7-9f75-8948391c644c"},"vehicle_type_id":"4","last_reported":1723292044,"current_range_meters":13600,"station_id":"ce4bh012rcd13ifvqd00","pricing_plan_id":"cebpf4jnsgd1na2vs0mg"},{"bike_id":"32deaecf-e7f6-41a9-8a13-30f10b8d17f6","system_id":"levelo_inurba_marseille","lat":43.31686,"lon":5.40471,"is_reserved":false,"is_disabled":false,"rental_uris":{"android":"levelo://app?vid=32deaecf-e7f6-41a9-8a13-30f10b8d17f6","ios":"levelo://app?vid=32deaecf-e7f6-41a9-8a13-30f10b8d17f6"},"vehicle_type_id":"4","last_reported":1723292044,"current_range_meters":22400,"station_id":"ce4bh012rcd13ifvqd00","pricing_plan_id":"cebpf4jnsgd1na2vs0mg"},{"bike_id":"1779375e-2ad5-415a-a7d2-a080a6c0a665","system_id":"levelo_inurba_marseille","lat":43.31698,"lon":5.404727,"is_reserved":false,"is_disabled":false,"rental_uris":{"android":"levelo://app?vid=1779375e-2ad5-415a-a7d2-a080a6c0a665","ios":"levelo://app?vid=1779375e-2ad5-415a-a7d2-a080a6c0a665"},"vehicle_type_id":"4","last_reported":1723292044,"current_range_meters":1600,"station_id":"ce4bh012rcd13ifvqd00","pricing_plan_id":"cebpf4jnsgd1na2vs0mg"},{"bike_id":"642415b6-69cd-4c89-ad11-7e41fabcd040","system_id":"levelo_inurba_marseille","lat":43.29197,"lon":5.3932,"is_reserved":false,"is_disabled":false,"rental_uris":{"android":"levelo://app?vid=642415b6-69cd-4c89-ad11-7e41fabcd040","ios":"levelo://app?vid=642415b6-69cd-4c89-ad11-7e41fabcd040"},