{"last_updated":1738087932,"ttl":60,"version":"2.2","data":{"bikes":[{"bike_id":"c98c10ad-2c59-465b-9626-e2f31164a824","system_id":"levelo_inurba_marseille","lat":43.23197,"lon":5.3556,"is_reserved":false,"is_disabled":false,"rental_uris":{"android":"levelo://app?vid=c98c10ad-2c59-465b-9626-e2f31164a824","ios":"levelo://app?vid=c98c10ad-2c59-465b-9626-e2f31164a824"},"vehicle_type_id":"4","last_reported":1738087932,"current_range_meters":28400,"station_id":"ce4bhu92rcd13ifvqi70","pricing_plan_id":"cebpf4jnsgd1na2vs0mg"},{"bike_id":"982e2f4e-6ac9-4c1d-95d4-1ddfc46580e8","system_id":"levelo_inurba_marseille","lat":43.29437,"lon":5.39762,"is_reserved":false,"is_disabled":false,"rental_uris":{"android":"levelo://app?vid=982e2f4e-6ac9-4c1d-95d4-1ddfc46580e8","ios":"levelo://app?vid=982e2f4e-6ac9-4c1d-95d4-1ddfc46580e8"},"vehicle_type_id":"4","last_reported":1738087932,"current_range_meters":22000,"station_id":"ce4bh3h2rcd13ifvqdo0","pricing_plan_id":"cebpf4jnsgd1na2vs0mg"},{"bike_id":"23f8ca48-f2fa-4410-880d-26db1f284e23","system_id":"levelo_inurba_marseille","lat":43.28141,"lon":5.42642,"is_reserved":false,"is_disabled":false,"rental_uris":{"android":"levelo://app?vid=23f8ca48-f2fa-4410-880d-26db1f284e23","ios":"levelo://app?vid=23f8ca48-f2fa-4410-880d-26db1f284e23"},"vehicle_type_id":"4","last_reported":1738087932,"current_range_meters":16800,"station_id":"ce4bhnh2rcd13ifvqgug","pricing_plan_id":"cebpf4jnsgd1na2vs0mg"},{"bike_id":"8e650e52-700a-42f9-a1a6-468cb3f9711b","system_id":"levelo_inurba_marseille","lat":43.28529,"lon":5.38416,"is_reserved":false,"is_disabled":false,"rental_uris":{"android":"levelo://app?vid=8e650e52-700a-42f9-a1a6-468cb3f9711b","ios":"levelo://app?vid=8e650e52-700a-42f9-a1a6-468cb3f9711b"},"vehicle_type_id":"4","last_reported":1738087932,"current_range_meters":3200,"station_id":"","pricing_plan_id":"cebpf4jnsgd1na2vs0mg"},{"bike_id":"f7f8117f-03ef-415e-85c6-2eeaf165e4f2","system_id":"levelo_inurba_marseille","lat":43.26218,"lon":5.40424,"is_reserved":false,"is_disabled":true,"rental_uris":{"android":"levelo://app?vid=f7f8117f-03ef-415e-85c6-2eeaf165e4f2","ios":"levelo://app?vid=f7f8117f-03ef-415e-85c6-2eeaf165e4f2"},"vehicle_type_id":"4","last_reported":1738087932,"current_range_meters":32000,"station_id":"ce4bhmh2rcd13ifvqgmg","pricing_plan_id":"cebpf4jnsgd1na2vs0mg"},{"bike_id":"45226d1a-6602-4547-9f5f-cb36e591a81b","system_id":"levelo_inurba_marseille","lat":43.26056,"lon":5.39428,"is_reserved":false,"is_disabled":false,"rental_uris":{"android":"levelo://app?vid=45226d1a-6602-4547-9f5f-cb36e591a81b","ios":"levelo://app?vid=45226d1a-6602-4547-9f5f-cb36e591a81b"},"vehicle_type_id":"4","last_reported":1738087932,"current_range_meters":38800,"station_id":"ce4bhh92rcd13ifvqfj0","pricing_plan_id":"cebpf4jnsgd1na2vs0mg"},{"bike_id":"f7eeff0b-3639-4079-b20d-6264b393d68b","system_id":"levelo_inurba_marseille","lat":43.27816,"lon":5.40726,"is_reserved":false,"is_disabled":false,"rental_uris":{"android":"levelo://app?vid=f7eeff0b-3639-4079-b20d-6264b393d68b","ios":"levelo://app?vid=f7eeff0b-3639-4079-b20d-6264b393d68b"},"vehicle_type_id":"4","last_reported":1738087932,"current_range_meters":29600,"station_id":"ce4bhnh2rcd13ifvqgtg","pricing_plan_id":"cebpf4jnsgd1na2vs0mg"},{"bike_id":"60b94ec1-a2e5-42fc-ad7c-d66b2ada9c44","system_id":"levelo_inurba_marseille","lat":43.2396,"lon":5.36639,"is_reserved":false,"is_disabled":false,"rental_uris":{"android":"levelo://app?vid=60b94ec1-a2e5-42fc-ad7c-d66b2ada9c44","ios":"levelo://app?vid=60b94ec1-a2e5-42fc-ad7c-d66b2ada9c44"},"vehicle_type_id":"4","last_reported":1738087932,"current_range_meters":7200,"station_id":"ce4bhi12rcd13ifvqfp0","pricing_plan_id":"cebpf4jnsgd1na2vs0mg"},{"bike_id":"c67f5310-f980-487b-8940-c35e2c60e957","system_id":"levelo_inurba_marseille","lat":43.29372,"lon":5.37861,"is_reserved":false,"is_disabled":true,"rental_uris":{"android":"levelo://app?vid=c67f5310-f980-487b-8940-c35e2c60e957","ios":"levelo://app?vid=c67f5310-f980-487b-8940-c35e2c60e957"},"vehicle_type_id":"4","last_reported":1738087932,"current_range_meters":2000,"station_id":"ce4bgjh2rcd13ifvqbf0","pricing_plan_id":"cebpf4jnsgd1na2vs0mg"},{"bike_id":"d77faba5-2b0c-430f-ad22-bcf40b90e74c","system_id":"levelo_inurba_marseille","lat":43.27809,"lon":5.40728,"is_reserved":false,"is_disabled":true,"rental_uris":{"android":"levelo://app?vid=d77faba5-2b0c-430f-ad22-bcf40b90e74c","ios":"levelo://app?vid=d77faba5-2b0c-430f-ad22-bcf40b90e74c"},"vehicle_type_id":"4","last_reported":1738087932,"current_range_meters":38000,"station_id":"ce4bhnh2rcd13ifvqgtg","pricing_plan_id":"cebpf4jnsgd1na2vs0mg"},{"bike_id":"c01fbd5a-517c-4ff2-b002-92e6195d8fde","system_id":"levelo_inurba_marseille","lat":43.29516,"lon":5.37509,"is_reserved":false,"is_disabled":false,"rental_uris":{"android":"levelo://app?vid=c01fbd5a-517c-4ff2-b002-92e6195d8fde","ios":"levelo://app?vid=c01fbd5a-517c-4ff2-b002-92e6195d8fde"},"vehicle_type_id":"4","last_reported":1738087932,"current_range_meters":38800,"station_id":"ce4bgkp2rcd13ifvqbmg","pricing_plan_id":"cebpf4jnsgd1na2vs0mg"},{"bike_id":"ac80093f-0fa2-4e3c-a848-b43e92a978d6","system_id":"levelo_inurba_marseille","lat":43.29514,"lon":5.39043,"is_reserved":false,"is_disabled":false,"rental_uris":{"android":"levelo://app?vid=ac80093f-0fa2-4e3c-a848-b43e92a978d6","ios":"levelo://app?vid=ac80093f-0fa2-4e3c-a848-b43e92a978d6"},"vehicle_type_id":"4","last_reported":1738087932,"current_range_meters":12400,"station_id":"ce4bh3p2rcd13ifvqdp0","pricing_plan_id":"cebpf4jnsgd1na2vs0mg"},{"bike_id":"8df2db50-4daa-47a5-9ab9-8a9fa8fdc263","system_id":"levelo_inurba_marseille","lat":43.26494,"lon":5.39552,"is_reserved":false,"is_disabled":false,"rental_uris":{"android":"levelo://app?vid=8df2db50-4daa-47a5-9ab9-8a9fa8fdc263","ios":"levelo://app?vid=8df2db50-4daa-47a5-9ab9-8a9fa8fdc263"},"vehicle_type_id":"4","last_reported":1738087932,"current_range_meters":32000,"station_id":"ce4bhi12rcd13ifvqfq0","pricing_plan_id":"cebpf4jnsgd1na2vs0mg"},{"bike_id":"58e72295-f362-4387-8a27-14a7c991b4f9","system_id":"levelo_inurba_marseille","lat":43.27368,"lon":5.36252,"is_reserved":false,"is_disabled":false,"rental_uris":{"android":"levelo://app?vid=58e72295-f362-4387-8a27-14a7c991b4f9","ios":"levelo://app?vid=58e72295-f362-4387-8a27-14a7c991b4f9"},"vehicle_type_id":"4","last_reported":1738087932,"current_range_meters":4800,"station_id":"ce4bhbh2rcd13ifvqeo0","pricing_plan_id":"cebpf4jnsgd1na2vs0mg"},{"bike_id":"5a7a51e5-624a-42b3-ab25-94422bd9c516","system_id":"levelo_inurba_marseille","lat":43.31357,"lon":5.38493,"is_reserved":false,"is_disabled":false,"rental_uris":{"android":"levelo://app?vid=5a7a51e5-624a-42b3-ab25-94422bd9c516","ios":"levelo://app?vid=5a7a51e5-624a-42b3-ab25-94422bd9c516"},"vehicle_type_id":"4","last_reported":1738087932,"current_range_meters":4400,"station_id":"ce4bgt92rcd13ifvqcf0","pricing_plan_id":"cebpf4jnsgd1na2vs0mg"},{"bike_id":"96c6d005-88bb-4fd6-98f4-0a014c553eb8","system_id":"levelo_inurba_marseille","lat":43.33038,"lon":5.39064,"is_reserved":false,"is_disabled":false,"rental_uris":{"android":"levelo://app?vid=96c6d005-88bb-4fd6-98f4-0a014c553eb8","ios":"levelo://app?vid=96c6d005-88bb-4fd6-98f4-0a014c553eb8"},"vehicle_type_id":"4","last_reported":1738087932,"current_range_meters":38000,"station_id":"ce4bhr92rcd13ifvqhrg","pricing_plan_id":"cebpf4jnsgd1na2vs0mg"},{"bike_id":"bc0e61dc-8d66-45f4-8286-ce5d5852845e","system_id":"levelo_inurba_marseille","lat":43.29326,"lon":5.41158,"is_reserved":false,"is_disabled":false,"rental_uris":{"android":"levelo://app?vid=bc0e61dc-8d66-45f4-8286-ce5d5852845e","ios":"levelo://app?vid=bc0e61dc-8d66-45f4-8286-ce5d5852845e"},"vehicle_type_id":"4","last_reported":1738087932,"current_range_meters":6800,"station_id":"","pricing_plan_id":"cebpf4jnsgd1na2vs0mg"},{"bike_id":"5c388708-e3f2-4bbd-88d9-c199a31e81f9","system_id":"levelo_inurba_marseille","lat":43.28714,"lon":5.4007,"is_reserved":false,"is_disabled":true,"rental_uris":{"android":"levelo://app?vid=5c388708-e3f2-4bbd-88d9-c199a31e81f9","ios":"levelo://app?vid=5c388708-e3f2-4bbd-88d9-c199a31e81f9"},"vehicle_type_id":"4","last_reported":1738087932,"current_range_meters":35600,"station_id":"ce4bho92rcd13ifvqh3g","pricing_plan_id":"cebpf4jnsgd1na2vs0mg"},{"bike_id":"1e7e7ddc-67e7-42fc-acd2-f78f566fb502","system_id":"levelo_inurba_marseille","lat":43.2827,"lon":5.35066,"is_reserved":false,"is_disabled":false,"rental_uris":{"android":"levelo://app?vid=1e7e7ddc-67e7-42fc-acd2-f78f566fb502","ios":"levelo://app?vid=1e7e7ddc-67e7-42fc-acd2-f78f566fb502"},"vehicle_type_id":"4","last_reported":1738087932,"current_range_meters":26000,"station_id":"ce4bhbp2rcd13ifvqerg","pricing_plan_id":"cebpf4jnsgd1na2vs0mg"},{"bike_id":"99f052ce-e5d4-4959-9f96-077a48f3f1c5","system_id":"levelo_inurba_marseille","lat":43.27178,"lon":5.40999,"is_reserved":false,"is_disabled":false,"rental_uris":{"android":"levelo://app?vid=99f052ce-e5d4-4959-9f96-077a48f3f1c5","ios":"levelo://app?vid=99f052ce-e5d4-4959-9f96-077a48f3f1c5"},"vehicle_type_id":"4","last_reported":1738087932,"current_range_meters":37600,"station_id":"ce4bhl12rcd13ifvqgf0","pricing_plan_id":"cebpf4jnsgd1na2vs0mg"},{"bike_id":"deadb618-50ee-48a7-ae15-6799933aae43","system_id":"levelo_inurba_marseille","lat":43.29555,"lon":5.42293,"is_reserved":false,"is_disabled":false,"rental_uris":{"android":"levelo://app?vid=deadb618-50ee-48a7-ae15-6799933aae43","ios":"levelo://app?vid=deadb618-50ee-48a7-ae15-6799933aae43"},"vehicle_type_id":"4","last_reported":1738087932,"current_range_meters":11600,"station_id":"ce4bhph2rcd13ifvqhdg","pricing_plan_id":"cebpf4jnsgd1na2vs0mg"},{"bike_id":"03715c12-2beb-4e0f-b2b6-25a0753f517e","system_id":"levelo_inurba_marseille","lat":43.29194,"lon":5.35803,"is_reserved":false,"is_disabled":false,"rental_uris":{"android":"levelo://app?vid=03715c12-2beb-4e0f-b2b6-25a0753f517e","ios":"levelo://app?vid=03715c12-2beb-4e0f-b2b6-25a0753f517e"},"vehicle_type_id":"4","last_reported":1738087932,"current_range_meters":20400,"station_id":"ce4bhb12rcd13ifvqel0","pricing_plan_id":"cebpf4jnsgd1na2vs0mg"},{"bike_id":"f7dbd7c4-7033-43ce-b8a8-91687507514d","system_id":"levelo_inurba_marseille","lat":43.31117,"lon":5.3777,"is_reserved":false,"is_disabled":false,"rental_uris":{"android":"levelo://app?vid=f7dbd7c4-7033-43ce-b8a8-91687507514d","ios":"levelo://app?vid=f7dbd7c4-7033-43ce-b8a8-91687507514d"},"vehicle_type_id":"4","last_reported":1738087932,"current_range_meters":31200,"station_id":"ce4bgt92rcd13ifvqcg0","pricing_plan_id":"cebpf4jnsgd1na2vs0mg"},{"bike_id":"0b97a610-6941-4eaa-a17b-62923017d3e3","system_id":"levelo_inurba_marseille","lat":43.28154,"lon":5.4265,"is_reserved":false,"is_disabled":false,"rental_uris":{"android":"levelo://app?vid=0b97a610-6941-4eaa-a17b-62923017d3e3","ios":"levelo://app?vid=0b97a610-6941-4eaa-a17b-62923017d3e3"},"vehicle_type_id":"4","last_reported":1738087932,"current_range_meters":28800,"station_id":"ce4bhnh2rcd13ifvqgug","pricing_plan_id":"cebpf4jnsgd1na2vs0mg"},{"bike_id":"148daef1-2db8-4b70-9a34-30c98427eb18","system_id":"levelo_inurba_marseille","lat":43.25824,"lon":5.39426,"is_reserved":false,"is_disabled":false,"rental_uris":{"android":"levelo://app?vid=148daef1-2db8-4b70-9a34-30c98427eb18","ios":"levelo://app?vid=148daef1-2db8-4b70-9a34-30c98427eb18"},"vehicle_type_id":"4","last_reported":1738087932,"current_range_meters":24800,"station_id":"ce4bhip2rcd13ifvqft0","pricing_plan_id":"cebpf4jnsgd1na2vs0mg"},{"bike_id":"81be12e8-7a54-415b-8ac9-3775fc4fa09d","system_id":"levelo_inurba_marseille","lat":43.30198,"lon":5.36629,"is_reserved":false,"is_disabled":false,"rental_uris":{"android":"levelo://app?vid=81be12e8-7a54-415b-8ac9-3775fc4fa09d","ios":"levelo://app?vid=81be12e8-7a54-415b-8ac9-3775fc4fa09d"},"vehicle_type_id":"4","last_reported":1738087932,"current_range_meters":11200,"station_id":"ce4bgrh2rcd13ifvqc8g","pricing_plan_id":"cebpf4jnsgd1na2vs0mg"},{"bike_id":"ee13d7c0-7e7f-48ee-b9c8-b38f07737df2","system_id":"levelo_inurba_marseille","lat":43.31168,"lon":5.38727,"is_reserved":false,"is_disabled":false,"rental_uris":{"android":"levelo://app?vid=ee13d7c0-7e7f-48ee-b9c8-b38f07737df2","ios":"levelo://app?vid=ee13d7c0-7e7f-48ee-b9c8-b38f07737df2"},"vehicle_type_id":"4","last_reported":1738087932,"current_range_meters":18800,"station_id":"ce4bgv12rcd13ifvqcp0","pricing_plan_id":"cebpf4jnsgd1na2vs0mg"},{"bike_id":"069b705e-258c-450c-88dc-0d2ac3a8269c","system_id":"levelo_inurba_marseille","lat":43.31371,"lon":5.38498,"is_reserved":false,"is_disabled":false,"rental_uris":{"android":"levelo://app?vid=069b705e-258c-450c-88dc-0d2ac3a8269c","ios":"levelo://app?vid=069b705e-258c-450c-88dc-0d2ac3a8269c"},"vehicle_type_id":"4","last_reported":1738087932,"current_range_meters":38800,"station_id":"ce4bgt92rcd13ifvqcf0","pricing_plan_id":"cebpf4jnsgd1na2vs0mg"},{"bike_id":"5d4915e0-4a9f-4c36-821a-8bde58abc3cd","system_id":"levelo_inurba_marseille","lat":43.25104,"lon":5.40332,"is_reserved":false,"is_disabled":true,"rental_uris":{"android":"levelo://app?vid=5d4915e0-4a9f-4c36-821a-8bde58abc3cd","ios":"levelo://app?vid=5d4915e0-4a9f-4c36-821a-8bde58abc3cd"},"vehicle_type_id":"4","last_reported":1738087932,"current_range_meters":14000,"station_id":"ce4bhlh2rcd13ifvqgig","pricing_plan_id":"cebpf4jnsgd1na2vs0mg"},{"bike_id":"a8669147-ddd8-412a-9283-bd81178782f6","system_id":"levelo_inurba_marseille","lat":43.25087,"lon":5.39524,"is_reserved":false,"is_disabled":false,"rental_uris":{"android":"levelo://app?vid=a8669147-ddd8-412a-9283-bd81178782f6","ios":"levelo://app?vid=a8669147-ddd8-412a-9283-bd81178782f6"},"vehicle_type_id":"4","last_reported":1738087932,"current_range_meters":23200,"station_id":"ce4bhm12rcd13ifvqgkg","pricing_plan_id":"cebpf4jnsgd1na2vs0mg"},{"bike_id":"75f78423-7bb1-46bc-9291-8f61438106b2","system_id":"levelo_inurba_marseille","lat":43.33016,"lon":5.39042,"is_reserved":false,"is_disabled":false,"rental_uris":{"android":"levelo://app?vid=75f78423-7bb1-46bc-9291-8f61438106b2","ios":"levelo://app?vid=75f78423-7bb1-46bc-9291-8f61438106b2"},"vehicle_type_id":"4","last_reported":1738087932,"current_range_meters":28800,"station_id":"ce4bhr92rcd13ifvqhrg","pricing_plan_id":"cebpf4jnsgd1na2vs0mg"},{"bike_id":"7250d302-ebd9-4a4b-acfe-a6570b70f9c8","system_id":"levelo_inurba_marseille","lat":43.27901,"lon":5.38013,"is_reserved":false,"is_disabled":true,"rental_uris":{"android":"levelo://app?vid=7250d302-ebd9-4a4b-acfe-a6570b70f9c8","ios":"levelo://app?vid=7250d302-ebd9-4a4b-acfe-a6570b70f9c8"},"vehicle_type_id":"4","last_reported":1738087932,"current_range_meters":800,"station_id":"ce4bhf92rcd13ifvqf50","pricing_plan_id":"cebpf4jnsgd1na2vs0mg"},{"bike_id":"1d680631-1608-4a0e-aa0a-bae980fe864a","system_id":"levelo_inurba_marseille","lat":43.29422,"lon":5.38621,"is_reserved":false,"is_disabled":false,"rental_uris":{"android":"levelo://app?vid=1d680631-1608-4a0e-aa0a-bae980fe864a","ios":"levelo://app?vid=1d680631-1608-4a0e-aa0a-bae980fe864a"},"vehicle_type_id":"4","last_reported":1738087932,"current_range_meters":29600,"station_id":"ce4bh2h2rcd13ifvqdh0","pricing_plan_id":"cebpf4jnsgd1na2vs0mg"},{"bike_id":"8906b01c-c546-42d8-8a71-d3e4c23c32f6","system_id":"levelo_inurba_marseille","lat":43.24384,"lon":5.37049,"is_reserved":false,"is_disabled":false,"rental_uris":{"android":"levelo://app?vid=8906b01c-c546-42d8-8a71-d3e4c23c32f6","ios":"levelo://app?vid=8906b01c-c546-42d8-8a71-d3e4c23c32f6"},"vehicle_type_id":"4","last_reported":1738087932,"current_range_meters":38800,"station_id":"ce4bhhh2rcd13ifvqfk0","pricing_plan_id":"cebpf4jnsgd1na2vs0mg"},{"bike_id":"da7ba8e5-f778-4ede-91e7-c38d6ca8bff8","system_id":"levelo_inurba_marseille","lat":43.28722,"lon":5.36113,"is_reserved":false,"is_disabled":false,"rental_uris":{"android":"levelo://app?vid=da7ba8e5-f778-4ede-91e7-c38d6ca8bff8","ios":"levelo://app?vid=da7ba8e5-f778-4ede-91e7-c38d6ca8bff8"},"vehicle_type_id":"4","last_reported":1738087932,"current_range_meters":16800,"station_id":"cki0cbj6b192h4jlfktg","pricing_plan_id":"cebpf4jnsgd1na2vs0mg"},{"bike_id":"f34da461-f61f-4178-8b83-f173480586de","system_id":"levelo_inurba_marseille","lat":43.29873,"lon":5.39738,"is_reserved":false,"is_disabled":false,"rental_uris":{"android":"levelo://app?vid=f34da461-f61f-4178-8b83-f173480586de","ios":"levelo://app?vid=f34da461-f61f-4178-8b83-f173480586de"},"vehicle_type_id":"4","last_reported":1738087932,"current_range_meters":38800,"station_id":"ce4bh0h2rcd13ifvqd50","pricing_plan_id":"cebpf4jnsgd1na2vs0mg"},{"bike_id":"ba23f9e8-dbef-45ac-93d0-595d22402c33","system_id":"levelo_inurba_marseille","lat":43.24726,"lon":5.38267,"is_reserved":false,"is_disabled":false,"rental_uris":{"android":"levelo://app?vid=ba23f9e8-dbef-45ac-93d0-595d22402c33","ios":"levelo://app?vid=ba23f9e8-dbef-45ac-93d0-595d22402c33"},"vehicle_type_id":"4","last_reported":1738087932,"current_range_meters":6400,"station_id":"ce4bhgh2rcd13ifvqfb0","pricing_plan_id":"cebpf4jnsgd1na2vs0mg"},{"bike_id":"81f86b9c-2b19-4345-8db8-7214f740870b","system_id":"levelo_inurba_marseille","lat":43.29272,"lon":5.38432,"is_reserved":false,"is_disabled":false,"rental_uris":{"android":"levelo://app?vid=81f86b9c-2b19-4345-8db8-7214f740870b","ios":"levelo://app?vid=81f86b9c-2b19-4345-8db8-7214f740870b"},"vehicle_type_id":"4","last_reported":1738087932,"current_range_meters":20400,"station_id":"ce4bh692rcd13ifvqea0","pricing_plan_id":"cebpf4jnsgd1na2vs0mg"},{"bike_id":"df226aeb-f508-4c7a-9e65-ac5758ec5c58","system_id":"levelo_inurba_marseille","lat":43.28615,"lon":5.35099,"is_reserved":false,"is_disabled":false,"rental_uris":{"android":"levelo://app?vid=df226aeb-f508-4c7a-9e65-ac5758ec5c58","ios":"levelo://app?vid=df226aeb-f508-4c7a-9e65-ac5758ec5c58"},"vehicle_type_id":"4","last_reported":1738087932,"current_range_meters":16000,"station_id":"ce4bhch2rcd13ifvqeug","pricing_plan_id":"cebpf4jnsgd1na2vs0mg"},{"bike_id":"89092c7f-916b-4bbe-8be9-3d4ae9fa7b64","system_id":"levelo_inurba_marseille","lat":43.2872,"lon":5.40007,"is_reserved":false,"is_disabled":true,"rental_uris":{"android":"levelo://app?vid=89092c7f-916b-4bbe-8be9-3d4ae9fa7b64","ios":"levelo://app?vid=89092c7f-916b-4bbe-8be9-3d4ae9fa7b64"},"vehicle_type_id":"4","last_reported":1738087932,"current_range_meters":800,"station_id":"ce4bho92rcd13ifvqh3g","pricing_plan_id":"cebpf4jnsgd1na2vs0mg"},{"bike_id":"1d3d6cfb-1973-4ef0-b19e-3b4fa3b6b11c","system_id":"levelo_inurba_marseille","lat":43.23964,"lon":5.36629,"is_reserved":false,"is_disabled":false,"rental_uris":{"android":"levelo://app?vid=1d3d6cfb-1973-4ef0-b19e-3b4fa3b6b11c","ios":"levelo://app?vid=1d3d6cfb-1973-4ef0-b19e-3b4fa3b6b11c"},"vehicle_type_id":"4","last_reported":1738087932,"current_range_meters":12000,"station_id":"ce4bhi12rcd13ifvqfp0","pricing_plan_id":"cebpf4jnsgd1na2vs0mg"},{"bike_id":"d443175e-c838-4f0e-90a6-eae26a0b1d17","system_id":"levelo_inurba_marseille","lat":43.26954,"lon":5.40253,"is_reserved":false,"is_disabled":false,"rental_uris":{"android":"levelo://app?vid=d443175e-c838-4f0e-90a6-eae26a0b1d17","ios":"levelo://app?vid=d443175e-c838-4f0e-90a6-eae26a0b1d17"},"vehicle_type_id":"4","last_reported":1738087932,"current_range_meters":30400,"station_id":"cjm6bp8fraef2m0cb0m0","pricing_plan_id":"cebpf4jnsgd1na2vs0mg"},{"bike_id":"064186d2-983b-4fda-a409-176d98eb98ca","system_id":"levelo_inurba_marseille","lat":43.29259,"lon":5.40904,"is_reserved":false,"is_disabled":false,"rental_uris":{"android":"levelo://app?vid=064186d2-983b-4fda-a409-176d98eb98ca","ios":"levelo://app?vid=064186d2-983b-4fda-a409-176d98eb98ca"},"vehicle_type_id":"4","last_reported":1738087932,"current_range_meters":38800,"station_id":"ce4bh192rcd13ifvqdc0","pricing_plan_id":"cebpf4jnsgd1na2vs0mg"},{"bike_id":"84e9f432-e657-49ca-821a-bc16e3f833c4","system_id":"levelo_inurba_marseille","lat":43.27001,"lon":5.39948,"is_reserved":false,"is_disabled":false,"rental_uris":{"android":"levelo://app?vid=84e9f432-e657-49ca-821a-bc16e3f833c4","ios":"levelo://app?vid=84e9f432-e657-49ca-821a-bc16e3f833c4"},"vehicle_type_id":"4","last_reported":1738087932,"current_range_meters":20400,"station_id":"","pricing_plan_id":"cebpf4jnsgd1na2vs0mg"},{"bike_id":"c8a3a0ed-dff2-4f3c-87dc-2e6b47b1ad28","system_id":"levelo_inurba_marseille","lat":43.337444,"lon":5.374475,"is_reserved":false,"is_disabled":true,"rental_uris":{"android":"levelo://app?vid=c8a3a0ed-dff2-4f3c-87dc-2e6b47b1ad28","ios":"levelo://app?vid=c8a3a0ed-dff2-4f3c-87dc-2e6b47b1ad28"},"vehicle_type_id":"4","last_reported":1738087932,"current_range_meters":4400,"station_id":"","pricing_plan_id":"cebpf4jnsgd1na2vs0mg"},{"bike_id":"d5f898d2-9087-49d6-a2d2-f86bf1c038b8","system_id":"levelo_inurba_marseille","lat":43.31705,"lon":5.37765,"is_reserved":false,"is_disabled":false,"rental_uris":{"android":"levelo://app?vid=d5f898d2-9087-49d6-a2d2-f86bf1c038b8","ios":"levelo://app?vid=d5f898d2-9087-49d6-a2d2-f86bf1c038b8"},"vehicle_type_id":"4","last_reported":1738087932,"current_range_meters":34000,"station_id":"ce4bgth2rcd13ifvqch0","pricing_plan_id":"cebpf4jnsgd1na2vs0mg"},{"bike_id":"061a807c-1db8-46c7-beec-da6308b151ea","system_id":"levelo_inurba_marseille","lat":43.29594,"lon":5.38103,"is_reserved":false,"is_disabled":true,"rental_uris":{"android":"levelo://app?vid=061a807c-1db8-46c7-beec-da6308b151ea","ios":"levelo://app?vid=061a807c-1db8-46c7-beec-da6308b151ea"},"vehicle_type_id":"4","last_reported":1738087932,"current_range_meters":31200,"station_id":"ce4bgl12rcd13ifvqbo0","pricing_plan_id":"cebpf4jnsgd1na2vs0mg"},{"bike_id":"b4412971-87e8-467e-aa66-700ea5a741e7","system_id":"levelo_inurba_marseille","lat":43.28445,"lon":5.35874,"is_reserved":false,"is_disabled":false,"rental_uris":{"android":"levelo://app?vid=b4412971-87e8-467e-aa66-700ea5a741e7","ios":"levelo://app?vid=b4412971-87e8-467e-aa66-700ea5a741e7"},"vehicle_type_id":"4","last_reported":1738087932,"current_range_meters":33600,"station_id":"ce4bhah2rcd13ifvqei0","pricing_plan_id":"cebpf4jnsgd1na2vs0mg"},{"bike_id":"8553c0a6-deb9-456c-9106-193b2eb9bd09","system_id":"levelo_inurba_marseille","lat":43.33025,"lon":5.39038,"is_reserved":false,"is_disabled":false,"rental_uris":{"android":"levelo://app?vid=8553c0a6-deb9-456c-9106-193b2eb9bd09","ios":"levelo://app?vid=8553c0a6-deb9-456c-9106-193b2eb9bd09"},"vehicle_type_id":"4","last_reported":1738087932,"current_range_meters":22000,"station_id":"ce4bhr92rcd13ifvqhrg","pricing_plan_id":"cebpf4jnsgd1na2vs0mg"},{"bike_id":"317641f9-e35e-4cc5-8468-c17053a33f25","system_id":"levelo_inurba_marseille","lat":43.299,"lon":5.39748,"is_reserved":false,"is_disabled":false,"rental_uris":{"android":"levelo://app?vid=317641f9-e35e-4cc5-8468-c17053a33f25","ios":"levelo://app?vid=317641f9-e35e-4cc5-8468-c17053a33f25"},"vehicle_type_id":"4","last_reported":1738087932,"current_range_meters":27600,"station_id":"ce4bh0h2rcd13ifvqd50","pricing_plan_id":"cebpf4jnsgd1na2vs0mg"},{"bike_id":"ff67a65d-1277-4b56-8157-a6de3808f59c","system_id":"levelo_inurba_marseille","lat":43.26197,"lon":5.37448,"is_reserved":false,"is_disabled":false,"rental_uris":{"android":"levelo://app?vid=ff67a65d-1277-4b56-8157-a6de3808f59c","ios":"levelo://app?vid=ff67a65d-1277-4b56-8157-a6de3808f59c"},"vehicle_type_id":"4","last_reported":1738087932,"current_range_meters":11200,"station_id":"ce4bhgp2rcd13ifvqfc0","pricing_plan_id":"cebpf4jnsgd1na2vs0mg"},{"bike_id":"fe85483f-b447-45f9-a6fe-387c2f728415","system_id":"levelo_inurba_marseille","lat":43.29196,"lon":5.35799,"is_reserved":false,"is_disabled":false,"rental_uris":{"android":"levelo://app?vid=fe85483f-b447-45f9-a6fe-387c2f728415","ios":"levelo://app?vid=fe85483f-b447-45f9-a6fe-387c2f728415"},"vehicle_type_id":"4","last_reported":1738087932,"current_range_meters":32000,"station_id":"ce4bhb12rcd13ifvqel0","pricing_plan_id":"cebpf4jnsgd1na2vs0mg"},{"bike_id":"f0d1068f-f60b-4df8-ad67-c1405768b38f","system_id":"levelo_inurba_marseille","lat":43.28458,"lon":5.35886,"is_reserved":false,"is_disabled":false,"rental_uris":{"android":"levelo://app?vid=f0d1068f-f60b-4df8-ad67-c1405768b38f","ios":"levelo://app?vid=f0d1068f-f60b-4df8-ad67-c1405768b38f"},"vehicle_type_id":"4","last_reported":1738087932,"current_range_meters":30400,"station_id":"ce4bhah2rcd13ifvqei0","pricing_plan_id":"cebpf4jnsgd1na2vs0mg"},{"bike_id":"c35e8c47-8cd9-4583-8b57-92cc441b1cca","system_id":"levelo_inurba_marseille","lat":43.2784,"lon":5.3921,"is_reserved":false,"is_disabled":false,"rental_uris":{"android":"levelo://app?vid=c35e8c47-8cd9-4583-8b57-92cc441b1cca","ios":"levelo://app?vid=c35e8c47-8cd9-4583-8b57-92cc441b1cca"},"vehicle_type_id":"4","last_reported":1738087932,"current_range_meters":16000,"station_id":"ce4bhjp2rcd13ifvqga0","pricing_plan_id":"cebpf4jnsgd1na2vs0mg"},{"bike_id":"24776794-e86c-4071-a5bc-621af311ac4d","system_id":"levelo_inurba_marseille","lat":43.27947,"lon":5.41052,"is_reserved":false,"is_disabled":false,"rental_uris":{"android":"levelo://app?vid=24776794-e86c-4071-a5bc-621af311ac4d","ios":"levelo://app?vid=24776794-e86c-4071-a5bc-621af311ac4d"},"vehicle_type_id":"4","last_reported":1738087932,"current_range_meters":3600,"station_id":"ce4bhnp2rcd13ifvqh0g","pricing_plan_id":"cebpf4jnsgd1na2vs0mg"},{"bike_id":"a97b41d0-f2a5-4347-a9f1-70f9a9b988f1","system_id":"levelo_inurba_marseille","lat":43.2846,"lon":5.35894,"is_reserved":false,"is_disabled":false,"rental_uris":{"android":"levelo://app?vid=a97b41d0-f2a5-4347-a9f1-70f9a9b988f1","ios":"levelo://app?vid=a97b41d0-f2a5-4347-a9f1-70f9a9b988f1"},"vehicle_type_id":"4","last_reported":1738087932,"current_range_meters":24000,"station_id":"ce4bhah2rcd13ifvqei0","pricing_plan_id":"cebpf4jnsgd1na2vs0mg"},{"bike_id":"9838cc78-2b53-49d3-ae13-82df62c4fd64","system_id":"levelo_inurba_marseille","lat":43.28412,"lon":5.40934,"is_reserved":false,"is_disabled":true,"rental_uris":{"android":"levelo://app?vid=9838cc78-2b53-49d3-ae13-82df62c4fd64","ios":"levelo://app?vid=9838cc78-2b53-49d3-ae13-82df62c4fd64"},"vehicle_type_id":"4","last_reported":1738087932,"current_range_meters":0,"station_id":"","pricing_plan_id":"cebpf4jnsgd1na2vs0mg"},{"bike_id":"11f70921-b04a-4cdd-83e2-24b869bfe246","system_id":"levelo_inurba_marseille","lat":43.28979,"lon":5.3786,"is_reserved":false,"is_disabled":true,"rental_uris":{"android":"levelo://app?vid=11f70921-b04a-4cdd-83e2-24b869bfe246","ios":"levelo://app?vid=11f70921-b04a-4cdd-83e2-24b869bfe246"},"vehicle_type_id":"4","last_reported":1738087932,"current_range_meters":38800,"station_id":"ce4bh9p2rcd13ifvqed0","pricing_plan_id":"cebpf4jnsgd1na2vs0mg"},{"bike_id":"61ac3e69-6b09-41d4-a1b8-84745cc43cb7","system_id":"levelo_inurba_marseille","lat":43.23199,"lon":5.39967,"is_reserved":false,"is_disabled":false,"rental_uris":{"android":"levelo://app?vid=61ac3e69-6b09-41d4-a1b8-84745cc43cb7","ios":"levelo://app?vid=61ac3e69-6b09-41d4-a1b8-84745cc43cb7"},"vehicle_type_id":"4","last_reported":1738087932,"current_range_meters":36000,"station_id":"ce4bhn12rcd13ifvqgqg","pricing_plan_id":"cebpf4jnsgd1na2vs0mg"},{"bike_id":"44d70056-f722-4d8f-80f9-afd89c389591","system_id":"levelo_inurba_marseille","lat":43.3303,"lon":5.39042,"is_reserved":false,"is_disabled":false,"rental_uris":{"android":"levelo://app?vid=44d70056-f722-4d8f-80f9-afd89c389591","ios":"levelo://app?vid=44d70056-f722-4d8f-80f9-afd89c389591"},"vehicle_type_id":"4","last_reported":1738087932,"current_range_meters":20800,"station_id":"ce4bhr92rcd13ifvqhrg","pricing_plan_id":"cebpf4jnsgd1na2vs0mg"},{"bike_id":"cb4b9878-96ef-4892-8d93-336dc7a1cc89","system_id":"levelo_inurba_marseille","lat":43.34025,"lon":5.35369,"is_reserved":false,"is_disabled":false,"rental_uris":{"android":"levelo://app?vid=cb4b9878-96ef-4892-8d93-336dc7a1cc89","ios":"levelo://app?vid=cb4b9878-96ef-4892-8d93-336dc7a1cc89"},"vehicle_type_id":"4","last_reported":1738087932,"current_range_meters":35600,"station_id":"","pricing_plan_id":"cebpf4jnsgd1na2vs0mg"},{"bike_id":"58101d95-a4cf-4bac-9526-961f9b76b2f5","system_id":"levelo_inurba_marseille","lat":43.30793,"lon":5.43529,"is_reserved":false,"is_disabled":false,"rental_uris":{"android":"levelo://app?vid=58101d95-a4cf-4bac-9526-961f9b76b2f5","ios":"levelo://app?vid=58101d95-a4cf-4bac-9526-961f9b76b2f5"},"vehicle_type_id":"4","last_reported":1738087932,"current_range_meters":32800,"station_id":"ce4bhph2rcd13ifvqheg","pricing_plan_id":"cebpf4jnsgd1na2vs0mg"},{"bike_id":"248ee11a-a195-45b1-979c-c98069d77678","system_id":"levelo_inurba_marseille","lat":43.27913,"lon":5.395774,"is_reserved":false,"is_disabled":false,"rental_uris":{"android":"levelo://app?vid=248ee11a-a195-45b1-979c-c98069d77678","ios":"levelo://app?vid=248ee11a-a195-45b1-979c-c98069d77678"},"vehicle_type_id":"4","last_reported":1738087932,"current_range_meters":38800,"station_id":"ce4bhf92rcd13ifvqf40","pricing_plan_id":"cebpf4jnsgd1na2vs0mg"},{"bike_id":"bfc62c06-7d17-4b4b-b2ac-71a2d63d4d16","system_id":"levelo_inurba_marseille","lat":43.29099,"lon":5.38157,"is_reserved":false,"is_disabled":false,"rental_uris":{"android":"levelo://app?vid=bfc62c06-7d17-4b4b-b2ac-71a2d63d4d16","ios":"levelo://app?vid=bfc62c06-7d17-4b4b-b2ac-71a2d63d4d16"},"vehicle_type_id":"4","last_reported":1738087932,"current_range_meters":38800,"station_id":"ce4bh512rcd13ifvqe2g","pricing_plan_id":"cebpf4jnsgd1na2vs0mg"},{"bike_id":"8d198b1c-d183-4e75-867d-bee140abe05c","system_id":"levelo_inurba_marseille","lat":43.3079,"lon":5.43526,"is_reserved":false,"is_disabled":false,"rental_uris":{"android":"levelo://app?vid=8d198b1c-d183-4e75-867d-bee140abe05c","ios":"levelo://app?vid=8d198b1c-d183-4e75-867d-bee140abe05c"},"vehicle_type_id":"4","last_reported":1738087932,"current_range_meters":16400,"station_id":"ce4bhph2rcd13ifvqheg","pricing_plan_id":"cebpf4jnsgd1na2vs0mg"},{"bike_id":"10d867d0-346b-4268-b4c3-60fd5321132c","system_id":"levelo_inurba_marseille","lat":43.29399,"lon":5.38607,"is_reserved":false,"is_disabled":false,"rental_uris":{"android":"levelo://app?vid=10d867d0-346b-4268-b4c3-60fd5321132c","ios":"levelo://app?vid=10d867d0-346b-4268-b4c3-60fd5321132c"},"vehicle_type_id":"4","last_reported":1738087932,"current_range_meters":22000,"station_id":"ce4bh2h2rcd13ifvqdh0","pricing_plan_id":"cebpf4jnsgd1na2vs0mg"},{"bike_id":"bc71d594-a26c-42fb-aa1e-3f9c8ee2b070","system_id":"levelo_inurba_marseille","lat":43.31363,"lon":5.38496,"is_reserved":false,"is_disabled":false,"rental_uris":{"android":"levelo://app?vid=bc71d594-a26c-42fb-aa1e-3f9c8ee2b070","ios":"levelo://app?vid=bc71d594-a26c-42fb-aa1e-3f9c8ee2b070"},"vehicle_type_id":"4","last_reported":1738087932,"current_range_meters":35200,"station_id":"ce4bgt92rcd13ifvqcf0","pricing_plan_id":"cebpf4jnsgd1na2vs0mg"},{"bike_id":"2e0a8b86-b457-48a0-8577-213b01080398","system_id":"levelo_inurba_marseille","lat":43.23197,"lon":5.35555,"is_reserved":false,"is_disabled":false,"rental_uris":{"android":"levelo://app?vid=2e0a8b86-b457-48a0-8577-213b01080398","ios":"levelo://app?vid=2e0a8b86-b457-48a0-8577-213b01080398"},"vehicle_type_id":"4","last_reported":1738087932,"current_range_meters":38800,"station_id":"ce4bhu92rcd13ifvqi70","pricing_plan_id":"cebpf4jnsgd1na2vs0mg"},{"bike_id":"5804285d-81c3-4ebe-a786-d954b5f1b298","system_id":"levelo_inurba_marseille","lat":43.33022,"lon":5.39026,"is_reserved":false,"is_disabled":false,"rental_uris":{"android":"levelo://app?vid=5804285d-81c3-4ebe-a786-d954b5f1b298","ios":"levelo://app?vid=5804285d-81c3-4ebe-a786-d954b5f1b298"},"vehicle_type_id":"4","last_reported":1738087932,"current_range_meters":4000,"station_id":"ce4bhr92rcd13ifvqhrg","pricing_plan_id":"cebpf4jnsgd1na2vs0mg"},{"bike_id":"a277d5ba-79dc-4980-ae8c-8d090716a0b3","system_id":"levelo_inurba_marseille","lat":43.279613,"lon":5.387358,"is_reserved":false,"is_disabled":true,"rental_uris":{"android":"levelo://app?vid=a277d5ba-79dc-4980-ae8c-8d090716a0b3","ios":"levelo://app?vid=a277d5ba-79dc-4980-ae8c-8d090716a0b3"},"vehicle_type_id":"4","last_reported":1738087932,"current_range_meters":0,"station_id":"ce4bhg12rcd13ifvqf80","pricing_plan_id":"cebpf4jnsgd1na2vs0mg"},{"bike_id":"d979d8d2-ec65-47af-9229-e4270aab279a","system_id":"levelo_inurba_marseille","lat":43.23066,"lon":5.3549,"is_reserved":false,"is_disabled":false,"rental_uris":{"android":"levelo://app?vid=d979d8d2-ec65-47af-9229-e4270aab279a","ios":"levelo://app?vid=d979d8d2-ec65-47af-9229-e4270aab279a"},"vehicle_type_id":"4","last_reported":1738087932,"current_range_meters":23200,"station_id":"cpo3342slgdg3j2ifvpg","pricing_plan_id":"cebpf4jnsgd1na2vs0mg"},{"bike_id":"beec82ff-6bac-4064-befa-4bdf4421761b","system_id":"levelo_inurba_marseille","lat":43.31723,"lon":5.42404,"is_reserved":false,"is_disabled":false,"rental_uris":{"android":"levelo://app?vid=beec82ff-6bac-4064-befa-4bdf4421761b","ios":"levelo://app?vid=beec82ff-6bac-4064-befa-4bdf4421761b"},"vehicle_type_id":"4","last_reported":1738087932,"current_range_meters":7200,"station_id":"ce4bhp92rcd13ifvqhbg","pricing_plan_id":"cebpf4jnsgd1na2vs0mg"},{"bike_id":"22d31f87-465c-41a2-9e72-62eb49b5f60f","system_id":"levelo_inurba_marseille","lat":43.30915,"lon":5.36851,"is_reserved":false,"is_disabled":true,"rental_uris":{"android":"levelo://app?vid=22d31f87-465c-41a2-9e72-62eb49b5f60f","ios":"levelo://app?vid=22d31f87-465c-41a2-9e72-62eb49b5f60f"},"vehicle_type_id":"4","last_reported":1738087932,"current_range_meters":22400,"station_id":"ce4bgn92rcd13ifvqbvg","pricing_plan_id":"cebpf4jnsgd1na2vs0mg"},{"bike_id":"b51eee6b-9b36-4f95-b18d-952dcc4c8be9","system_id":"levelo_inurba_marseille","lat":43.26786,"lon":5.39416,"is_reserved":false,"is_disabled":false,"rental_uris":{"android":"levelo://app?vid=b51eee6b-9b36-4f95-b18d-952dcc4c8be9","ios":"levelo://app?vid=b51eee6b-9b36-4f95-b18d-952dcc4c8be9"},"vehicle_type_id":"4","last_reported":1738087932,"current_range_meters":30800,"station_id":"ce4bhh12rcd13ifvqfg0","pricing_plan_id":"cebpf4jnsgd1na2vs0mg"},{"bike_id":"b7f700ff-a5fa-4a94-95a4-042e800c18ff","system_id":"levelo_inurba_marseille","lat":43.3031,"lon":5.36898,"is_reserved":false,"is_disabled":false,"rental_uris":{"android":"levelo://app?vid=b7f700ff-a5fa-4a94-95a4-042e800c18ff","ios":"levelo://app?vid=b7f700ff-a5fa-4a94-95a4-042e800c18ff"},"vehicle_type_id":"4","last_reported":1738087932,"current_range_meters":6000,"station_id":"ce4bgqh2rcd13ifvqc5g","pricing_plan_id":"cebpf4jnsgd1na2vs0mg"},{"bike_id":"3f05ba77-4127-4520-b952-d2d5d050fe4c","system_id":"levelo_inurba_marseille","lat":43.31362,"lon":5.36718,"is_reserved":false,"is_disabled":true,"rental_uris":{"android":"levelo://app?vid=3f05ba77-4127-4520-b952-d2d5d050fe4c","ios":"levelo://app?vid=3f05ba77-4127-4520-b952-d2d5d050fe4c"},"vehicle_type_id":"4","last_reported":1738087932,"current_range_meters":0,"station_id":"ce4bgr92rcd13ifvqc6g","pricing_plan_id":"cebpf4jnsgd1na2vs0mg"},{"bike_id":"c92f3ed1-1832-45b1-95ae-e066a3c304bb","system_id":"levelo_inurba_marseille","lat":43.33036,"lon":5.39035,"is_reserved":false,"is_disabled":false,"rental_uris":{"android":"levelo://app?vid=c92f3ed1-1832-45b1-95ae-e066a3c304bb","ios":"levelo://app?vid=c92f3ed1-1832-45b1-95ae-e066a3c304bb"},"vehicle_type_id":"4","last_reported":1738087932,"current_range_meters":37600,"station_id":"ce4bhr92rcd13ifvqhrg","pricing_plan_id":"cebpf4jnsgd1na2vs0mg"},{"bike_id":"18fb057a-c0db-45a2-a11a-4d3a33668186","system_id":"levelo_inurba_marseille","lat":43.309283,"lon":5.401547,"is_reserved":false,"is_disabled":false,"rental_uris":{"android":"levelo://app?vid=18fb057a-c0db-45a2-a11a-4d3a33668186","ios":"levelo://app?vid=18fb057a-c0db-45a2-a11a-4d3a33668186"},"vehicle_type_id":"4","last_reported":1738087932,"current_range_meters":12800,"station_id":"ce4bgvp2rcd13ifvqct0","pricing_plan_id":"cebpf4jnsgd1na2vs0mg"},{"bike_id":"b320aa66-3482-4c9c-b07d-0320fb8986d9","system_id":"levelo_inurba_marseille","lat":43.30139,"lon":5.39853,"is_reserved":false,"is_disabled":false,"rental_uris":{"android":"levelo://app?vid=b320aa66-3482-4c9c-b07d-0320fb8986d9","ios":"levelo://app?vid=b320aa66-3482-4c9c-b07d-0320fb8986d9"},"vehicle_type_id":"4","last_reported":1738087932,"current_range_meters":7200,"station_id":"ce4bh0h2rcd13ifvqd40","pricing_plan_id":"cebpf4jnsgd1na2vs0mg"},{"bike_id":"75214a19-3086-4aab-8ba6-a177978da634","system_id":"levelo_inurba_marseille","lat":43.29901,"lon":5.43677,"is_reserved":false,"is_disabled":false,"rental_uris":{"android":"levelo://app?vid=75214a19-3086-4aab-8ba6-a177978da634","ios":"levelo://app?vid=75214a19-3086-4aab-8ba6-a177978da634"},"vehicle_type_id":"4","last_reported":1738087932,"current_range_meters":35600,"station_id":"ce4bhpp2rcd13ifvqhfg","pricing_plan_id":"cebpf4jnsgd1na2vs0mg"},{"bike_id":"d8b1c3f9-ff6e-4179-8423-4ba0d2a2af0e","system_id":"levelo_inurba_marseille","lat":43.33725,"lon":5.39187,"is_reserved":false,"is_disabled":false,"rental_uris":{"android":"levelo://app?vid=d8b1c3f9-ff6e-4179-8423-4ba0d2a2af0e","ios":"levelo://app?vid=d8b1c3f9-ff6e-4179-8423-4ba0d2a2af0e"},"vehicle_type_id":"4","last_reported":1738087932,"current_range_meters":38800,"station_id":"ce4bhr92rcd13ifvqhsg","pricing_plan_id":"cebpf4jnsgd1na2vs0mg"},{"bike_id":"ec4e1b41-004b-4ba0-8815-2155424efc7c","system_id":"levelo_inurba_marseille","lat":43.26064,"lon":5.39387,"is_reserved":false,"is_disabled":false,"rental_uris":{"android":"levelo://app?vid=ec4e1b41-004b-4ba0-8815-2155424efc7c","ios":"levelo://app?vid=ec4e1b41-004b-4ba0-8815-2155424efc7c"},"vehicle_type_id":"4","last_reported":1738087932,"current_range_meters":16000,"station_id":"ce4bhh92rcd13ifvqfj0","pricing_plan_id":"cebpf4jnsgd1na2vs0mg"},{"bike_id":"b5409e27-250f-4525-8058-ef21c8db7076","system_id":"levelo_inurba_marseille","lat":43.27369,"lon":5.36262,"is_reserved":false,"is_disabled":false,"rental_uris":{"android":"levelo://app?vid=b5409e27-250f-4525-8058-ef21c8db7076","ios":"levelo://app?vid=b5409e27-250f-4525-8058-ef21c8db7076"},"vehicle_type_id":"4","last_reported":1738087932,"current_range_meters":24400,"station_id":"ce4bhbh2rcd13ifvqeo0","pricing_plan_id":"cebpf4jnsgd1na2vs0mg"},{"bike_id":"ddeeb021-3aa5-4692-ac65-d696b9db8d28","system_id":"levelo_inurba_marseille","lat":43.33004,"lon":5.39049,"is_reserved":false,"is_disabled":false,"rental_uris":{"android":"levelo://app?vid=ddeeb021-3aa5-4692-ac65-d696b9db8d28","ios":"levelo://app?vid=ddeeb021-3aa5-4692-ac65-d696b9db8d28"},"vehicle_type_id":"4","last_reported":1738087932,"current_range_meters":38400,"station_id":"ce4bhr92rcd13ifvqhrg","pricing_plan_id":"cebpf4jnsgd1na2vs0mg"},{"bike_id":"32d93602-4bca-40ff-89dd-07ab7c4f1afc","system_id":"levelo_inurba_marseille","lat":43.30136,"lon":5.39846,"is_reserved":false,"is_disabled":false,"rental_uris":{"android":"levelo://app?vid=32d93602-4bca-40ff-89dd-07ab7c4f1afc","ios":"levelo://app?vid=32d93602-4bca-40ff-89dd-07ab7c4f1afc"},"vehicle_type_id":"4","last_reported":1738087932,"current_range_meters":22800,"station_id":"ce4bh0h2rcd13ifvqd40","pricing_plan_id":"cebpf4jnsgd1na2vs0mg"},{"bike_id":"d3bbcf65-75f5-4e74-a18e-917487a02099","system_id":"levelo_inurba_marseille","lat":43.26786,"lon":5.39407,"is_reserved":false,"is_disabled":false,"rental_uris":{"android":"levelo://app?vid=d3bbcf65-75f5-4e74-a18e-917487a02099","ios":"levelo://app?vid=d3bbcf65-75f5-4e74-a18e-917487a02099"},"vehicle_type_id":"4","last_reported":1738087932,"current_range_meters":20400,"station_id":"ce4bhh12rcd13ifvqfg0","pricing_plan_id":"cebpf4jnsgd1na2vs0mg"},{"bike_id":"df246887-6ea4-401b-b1c5-149bfd21ae45","system_id":"levelo_inurba_marseille","lat":43.3106,"lon":5.40089,"is_reserved":false,"is_disabled":false,"rental_uris":{"android":"levelo://app?vid=df246887-6ea4-401b-b1c5-149bfd21ae45","ios":"levelo://app?vid=df246887-6ea4-401b-b1c5-149bfd21ae45"},"vehicle_type_id":"4","last_reported":1738087932,"current_range_meters":19600,"station_id":"","pricing_plan_id":"cebpf4jnsgd1na2vs0mg"},{"bike_id":"ee1a29b5-bf27-4ed4-80ab-8de86681f638","system_id":"levelo_inurba_marseille","lat":43.28618,"lon":5.35107,"is_reserved":false,"is_disabled":false,"rental_uris":{"android":"levelo://app?vid=ee1a29b5-bf27-4ed4-80ab-8de86681f638","ios":"levelo://app?vid=ee1a29b5-bf27-4ed4-80ab-8de86681f638"},"vehicle_type_id":"4","last_reported":1738087932,"current_range_meters":35200,"station_id":"ce4bhch2rcd13ifvqeug","pricing_plan_id":"cebpf4jnsgd1na2vs0mg"},{"bike_id":"3c9c9088-9c27-4609-bc62-8218c0dc2be8","system_id":"levelo_inurba_marseille","lat":43.23186,"lon":5.35565,"is_reserved":false,"is_disabled":false,"rental_uris":{"android":"levelo://app?vid=3c9c9088-9c27-4609-bc62-8218c0dc2be8","ios":"levelo://app?vid=3c9c9088-9c27-4609-bc62-8218c0dc2be8"},"vehicle_type_id":"4","last_reported":1738087932,"current_range_meters":32000,"station_id":"ce4bhu92rcd13ifvqi70","pricing_plan_id":"cebpf4jnsgd1na2vs0mg"},{"bike_id":"2a7f8667-e6c8-4fe6-889a-5cd2bc14855f","system_id":"levelo_inurba_marseille","lat":43.28705,"lon":5.3739,"is_reserved":false,"is_disabled":true,"rental_uris":{"android":"levelo://app?vid=2a7f8667-e6c8-4fe6-889a-5cd2bc14855f","ios":"levelo://app?vid=2a7f8667-e6c8-4fe6-889a-5cd2bc14855f"},"vehicle_type_id":"4","last_reported":1738087932,"current_range_meters":1600,"station_id":"ce4bh3p2rcd13ifvqdq0","pricing_plan_id":"cebpf4jnsgd1na2vs0mg"},{"bike_id":"1672a0cd-2a68-4581-bf36-fe2b0d644157","system_id":"levelo_inurba_marseille","lat":43.28438,"lon":5.39197,"is_reserved":false,"is_disabled":false,"rental_uris":{"android":"levelo://app?vid=1672a0cd-2a68-4581-bf36-fe2b0d644157","ios":"levelo://app?vid=1672a0cd-2a68-4581-bf36-fe2b0d644157"},"vehicle_type_id":"4","last_reported":1738087932,"current_range_meters":37600,"station_id":"ce4bhoh2rcd13ifvqh5g","pricing_plan_id":"cebpf4jnsgd1na2vs0mg"},{"bike_id":"65d2e0d4-fa4f-4b0f-ad43-f22b8a0c4c38","system_id":"levelo_inurba_marseille","lat":43.30462,"lon":5.37901,"is_reserved":false,"is_disabled":true,"rental_uris":{"android":"levelo://app?vid=65d2e0d4-fa4f-4b0f-ad43-f22b8a0c4c38","ios":"levelo://app?vid=65d2e0d4-fa4f-4b0f-ad43-f22b8a0c4c38"},"vehicle_type_id":"4","last_reported":1738087932,"current_range_meters":0,"station_id":"ce4bgup2rcd13ifvqcn0","pricing_plan_id":"cebpf4jnsgd1na2vs0mg"},{"bike_id":"15af56a0-50cc-4287-938a-57061c15f0c6","system_id":"levelo_inurba_marseille","lat":43.33024,"lon":5.39033,"is_reserved":false,"is_disabled":false,"rental_uris":{"android":"levelo://app?vid=15af56a0-50cc-4287-938a-57061c15f0c6","ios":"levelo://app?vid=15af56a0-50cc-4287-938a-57061c15f0c6"},"vehicle_type_id":"4","last_reported":1738087932,"current_range_meters":35200,"station_id":"ce4bhr92rcd13ifvqhrg","pricing_plan_id":"cebpf4jnsgd1na2vs0mg"},{"bike_id":"025df344-3087-4c00-a2af-50b9af0be7f4","system_id":"levelo_inurba_marseille","lat":43.33023,"lon":5.39038,"is_reserved":false,"is_disabled":false,"rental_uris":{"android":"levelo://app?vid=025df344-3087-4c00-a2af-50b9af0be7f4","ios":"levelo://app?vid=025df344-3087-4c00-a2af-50b9af0be7f4"},"vehicle_type_id":"4","last_reported":1738087932,"current_range_meters":30000,"station_id":"ce4bhr92rcd13ifvqhrg","pricing_plan_id":"cebpf4jnsgd1na2vs0mg"},{"bike_id":"84dd5d71-d29d-4edd-a04d-3dbf702447f0","system_id":"levelo_inurba_marseille","lat":43.2923,"lon":5.36059,"is_reserved":false,"is_disabled":true,"rental_uris":{"android":"levelo://app?vid=84dd5d71-d29d-4edd-a04d-3dbf702447f0","ios":"levelo://app?vid=84dd5d71-d29d-4edd-a04d-3dbf702447f0"},"vehicle_type_id":"4","last_reported":1738087932,"current_range_meters":0,"station_id":"ce4bhbh2rcd13ifvqeqg","pricing_plan_id":"cebpf4jnsgd1na2vs0mg"},{"bike_id":"8e26ba16-03ea-4d9d-b2c6-2afed2db2141","system_id":"levelo_inurba_marseille","lat":43.29514,"lon":5.39399,"is_reserved":false,"is_disabled":false,"rental_uris":{"android":"levelo://app?vid=8e26ba16-03ea-4d9d-b2c6-2afed2db2141","ios":"levelo://app?vid=8e26ba16-03ea-4d9d-b2c6-2afed2db2141"},"vehicle_type_id":"4","last_reported":1738087932,"current_range_meters":38800,"station_id":"ce4bh292rcd13ifvqdf0","pricing_plan_id":"cebpf4jnsgd1na2vs0mg"},{"bike_id":"8045e5a5-32d5-4b9b-9f1d-8444be5eb7af","system_id":"levelo_inurba_marseille","lat":43.3372,"lon":5.39189,"is_reserved":false,"is_disabled":false,"rental_uris":{"android":"levelo://app?vid=8045e5a5-32d5-4b9b-9f1d-8444be5eb7af","ios":"levelo://app?vid=8045e5a5-32d5-4b9b-9f1d-8444be5eb7af"},"vehicle_type_id":"4","last_reported":1738087932,"current_range_meters":18800,"station_id":"ce4bhr92rcd13ifvqhsg","pricing_plan_id":"cebpf4jnsgd1na2vs0mg"},{"bike_id":"6da47834-7d2e-4774-9bb3-2602319ea12c","system_id":"levelo_inurba_marseille","lat":43.33023,"lon":5.39043,"is_reserved":false,"is_disabled":false,"rental_uris":{"android":"levelo://app?vid=6da47834-7d2e-4774-9bb3-2602319ea12c","ios":"levelo://app?vid=6da47834-7d2e-4774-9bb3-2602319ea12c"},"vehicle_type_id":"4","last_reported":1738087932,"current_range_meters":9200,"station_id":"ce4bhr92rcd13ifvqhrg","pricing_plan_id":"cebpf4jnsgd1na2vs0mg"},{"bike_id":"0928d7c6-291b-465e-a26d-59a12315b1a9","system_id":"levelo_inurba_marseille","lat":43.31325,"lon":5.39709,"is_reserved":false,"is_disabled":false,"rental_uris":{"android":"levelo://app?vid=0928d7c6-291b-465e-a26d-59a12315b1a9","ios":"levelo://app?vid=0928d7c6-291b-465e-a26d-59a12315b1a9"},"vehicle_type_id":"4","last_reported":1738087932,"current_range_meters":29600,"station_id":"ce4bgvp2rcd13ifvqcu0","pricing_plan_id":"cebpf4jnsgd1na2vs0mg"},{"bike_id":"ac928eed-dbf9-4385-9a81-80cba59e220e","system_id":"levelo_inurba_marseille","lat":43.29881,"lon":5.38924,"is_reserved":false,"is_disabled":false,"rental_uris":{"android":"levelo://app?vid=ac928eed-dbf9-4385-9a81-80cba59e220e","ios":"levelo://app?vid=ac928eed-dbf9-4385-9a81-80cba59e220e"},"vehicle_type_id":"4","last_reported":1738087932,"current_range_meters":30400,"station_id":"ce4bh392rcd13ifvqdl0","pricing_plan_id":"cebpf4jnsgd1na2vs0mg"},{"bike_id":"fb4449e9-77e2-4108-845d-ac55f561fb62","system_id":"levelo_inurba_marseille","lat":43.28466,"lon":5.35902,"is_reserved":false,"is_disabled":false,"rental_uris":{"android":"levelo://app?vid=fb4449e9-77e2-4108-845d-ac55f561fb62","ios":"levelo://app?vid=fb4449e9-77e2-4108-845d-ac55f561fb62"},"vehicle_type_id":"4","last_reported":1738087932,"current_range_meters":38400,"station_id":"ce4bhah2rcd13ifvqei0","pricing_plan_id":"cebpf4jnsgd1na2vs0mg"},{"bike_id":"4055047e-0c4f-4698-b155-f0ccf6649608","system_id":"levelo_inurba_marseille","lat":43.29518,"lon":5.39397,"is_reserved":false,"is_disabled":true,"rental_uris":{"android":"levelo://app?vid=4055047e-0c4f-4698-b155-f0ccf6649608","ios":"levelo://app?vid=4055047e-0c4f-4698-b155-f0ccf6649608"},"vehicle_type_id":"4","last_reported":1738087932,"current_range_meters":30400,"station_id":"ce4bh292rcd13ifvqdf0","pricing_plan_id":"cebpf4jnsgd1na2vs0mg"},{"bike_id":"2256710f-428a-4b6c-afaf-f485da875c48","system_id":"levelo_inurba_marseille","lat":43.28603,"lon":5.35108,"is_reserved":false,"is_disabled":false,"rental_uris":{"android":"levelo://app?vid=2256710f-428a-4b6c-afaf-f485da875c48","ios":"levelo://app?vid=2256710f-428a-4b6c-afaf-f485da875c48"},"vehicle_type_id":"4","last_reported":1738087932,"current_range_meters":14400,"station_id":"ce4bhch2rcd13ifvqeug","pricing_plan_id":"cebpf4jnsgd1na2vs0mg"},{"bike_id":"ab2c796a-c23b-4a3a-9534-777b873d6a05","system_id":"levelo_inurba_marseille","lat":43.24194,"lon":5.36348,"is_reserved":false,"is_disabled":false,"rental_uris":{"android":"levelo://app?vid=ab2c796a-c23b-4a3a-9534-777b873d6a05","ios":"levelo://app?vid=ab2c796a-c23b-4a3a-9534-777b873d6a05"},"vehicle_type_id":"4","last_reported":1738087932,"current_range_meters":19600,"station_id":"cpo36qri1sfpv3e86is0","pricing_plan_id":"cebpf4jnsgd1na2vs0mg"},{"bike_id":"ef0df46f-7e28-4ea2-a0a6-d54fcb6ef39c","system_id":"levelo_inurba_marseille","lat":43.28851,"lon":5.35862,"is_reserved":false,"is_disabled":false,"rental_uris":{"android":"levelo://app?vid=ef0df46f-7e28-4ea2-a0a6-d54fcb6ef39c","ios":"levelo://app?vid=ef0df46f-7e28-4ea2-a0a6-d54fcb6ef39c"},"vehicle_type_id":"4","last_reported":1738087932,"current_range_meters":12400,"station_id":"ce4bhb12rcd13ifvqem0","pricing_plan_id":"cebpf4jnsgd1na2vs0mg"},{"bike_id":"66953976-44d7-4d69-8dd1-8fb29fcf0464","system_id":"levelo_inurba_marseille","lat":43.26784,"lon":5.39416,"is_reserved":false,"is_disabled":false,"rental_uris":{"android":"levelo://app?vid=66953976-44d7-4d69-8dd1-8fb29fcf0464","ios":"levelo://app?vid=66953976-44d7-4d69-8dd1-8fb29fcf0464"},"vehicle_type_id":"4","last_reported":1738087932,"current_range_meters":10800,"station_id":"ce4bhh12rcd13ifvqfg0","pricing_plan_id":"cebpf4jnsgd1na2vs0mg"},{"bike_id":"529f1ab7-390e-41c3-9180-30692697770e","system_id":"levelo_inurba_marseille","lat":43.28624,"lon":5.351,"is_reserved":false,"is_disabled":false,"rental_uris":{"android":"levelo://app?vid=529f1ab7-390e-41c3-9180-30692697770e","ios":"levelo://app?vid=529f1ab7-390e-41c3-9180-30692697770e"},"vehicle_type_id":"4","last_reported":1738087932,"current_range_meters":12400,"station_id":"ce4bhch2rcd13ifvqeug","pricing_plan_id":"cebpf4jnsgd1na2vs0mg"},{"bike_id":"0ef94dc3-0e7e-425e-906b-989da7f86b36","system_id":"levelo_inurba_marseille","lat":43.30129,"lon":5.39858,"is_reserved":false,"is_disabled":false,"rental_uris":{"android":"levelo://app?vid=0ef94dc3-0e7e-425e-906b-989da7f86b36","ios":"levelo://app?vid=0ef94dc3-0e7e-425e-906b-989da7f86b36"},"vehicle_type_id":"4","last_reported":1738087932,"current_range_meters":33200,"station_id":"ce4bh0h2rcd13ifvqd40","pricing_plan_id":"cebpf4jnsgd1na2vs0mg"},{"bike_id":"381001a7-88f7-45fa-ac7b-1bffc1ae41f4","system_id":"levelo_inurba_marseille","lat":43.278016,"lon":5.402856,"is_reserved":false,"is_disabled":false,"rental_uris":{"android":"levelo://app?vid=381001a7-88f7-45fa-ac7b-1bffc1ae41f4","ios":"levelo://app?vid=381001a7-88f7-45fa-ac7b-1bffc1ae41f4"},"vehicle_type_id":"4","last_reported":1738087932,"current_range_meters":35200,"station_id":"ce4bhnh2rcd13ifvqgtg","pricing_plan_id":"cebpf4jnsgd1na2vs0mg"},{"bike_id":"29d8bd08-79fe-4dd0-9b92-28ce5f7e8519","system_id":"levelo_inurba_marseille","lat":43.28985,"lon":5.37834,"is_reserved":false,"is_disabled":true,"rental_uris":{"android":"levelo://app?vid=29d8bd08-79fe-4dd0-9b92-28ce5f7e8519","ios":"levelo://app?vid=29d8bd08-79fe-4dd0-9b92-28ce5f7e8519"},"vehicle_type_id":"4","last_reported":1738087932,"current_range_meters":0,"station_id":"ce4bh9p2rcd13ifvqed0","pricing_plan_id":"cebpf4jnsgd1na2vs0mg"},{"bike_id":"dbf3b29a-a108-43d9-b728-b60ee2f2337d","system_id":"levelo_inurba_marseille","lat":43.28672,"lon":5.36361,"is_reserved":false,"is_disabled":false,"rental_uris":{"android":"levelo://app?vid=dbf3b29a-a108-43d9-b728-b60ee2f2337d","ios":"levelo://app?vid=dbf3b29a-a108-43d9-b728-b60ee2f2337d"},"vehicle_type_id":"4","last_reported":1738087932,"current_range_meters":2800,"station_id":"ce4bhah2rcd13ifvqej0","pricing_plan_id":"cebpf4jnsgd1na2vs0mg"},{"bike_id":"cbacff53-b569-4358-8d11-4b56096865df","system_id":"levelo_inurba_marseille","lat":43.30801,"lon":5.43525,"is_reserved":false,"is_disabled":false,"rental_uris":{"android":"levelo://app?vid=cbacff53-b569-4358-8d11-4b56096865df","ios":"levelo://app?vid=cbacff53-b569-4358-8d11-4b56096865df"},"vehicle_type_id":"4","last_reported":1738087932,"current_range_meters":18800,"station_id":"ce4bhph2rcd13ifvqheg","pricing_plan_id":"cebpf4jnsgd1na2vs0mg"},{"bike_id":"89a07d9e-fd36-4c2e-aff2-d870b24d3fa2","system_id":"levelo_inurba_marseille","lat":43.29059,"lon":5.35968,"is_reserved":false,"is_disabled":false,"rental_uris":{"android":"levelo://app?vid=89a07d9e-fd36-4c2e-aff2-d870b24d3fa2","ios":"levelo://app?vid=89a07d9e-fd36-4c2e-aff2-d870b24d3fa2"},"vehicle_type_id":"4","last_reported":1738087932,"current_range_meters":18800,"station_id":"ce4bha92rcd13ifvqeg0","pricing_plan_id":"cebpf4jnsgd1na2vs0mg"},{"bike_id":"3afe2907-14fe-40b0-8ce8-247215ed16c8","system_id":"levelo_inurba_marseille","lat":43.26887,"lon":5.39007,"is_reserved":false,"is_disabled":true,"rental_uris":{"android":"levelo://app?vid=3afe2907-14fe-40b0-8ce8-247215ed16c8","ios":"levelo://app?vid=3afe2907-14fe-40b0-8ce8-247215ed16c8"},"vehicle_type_id":"4","last_reported":1738087932,"current_range_meters":8000,"station_id":"","pricing_plan_id":"cebpf4jnsgd1na2vs0mg"},{"bike_id":"e8e1f7c6-d773-4c38-bfcc-4a6d773355ce","system_id":"levelo_inurba_marseille","lat":43.22937,"lon":5.35365,"is_reserved":false,"is_disabled":false,"rental_uris":{"android":"levelo://app?vid=e8e1f7c6-d773-4c38-bfcc-4a6d773355ce","ios":"levelo://app?vid=e8e1f7c6-d773-4c38-bfcc-4a6d773355ce"},"vehicle_type_id":"4","last_reported":1738087932,"current_range_meters":38800,"station_id":"cpo3532slgdg3j2ikp40","pricing_plan_id":"cebpf4jnsgd1na2vs0mg"},{"bike_id":"c81e98ed-1db0-459d-8569-1495e8e01deb","system_id":"levelo_inurba_marseille","lat":43.26213,"lon":5.37442,"is_reserved":false,"is_disabled":false,"rental_uris":{"android":"levelo://app?vid=c81e98ed-1db0-459d-8569-1495e8e01deb","ios":"levelo://app?vid=c81e98ed-1db0-459d-8569-1495e8e01deb"},"vehicle_type_id":"4","last_reported":1738087932,"current_range_meters":26000,"station_id":"ce4bhgp2rcd13ifvqfc0","pricing_plan_id":"cebpf4jnsgd1na2vs0mg"},{"bike_id":"cc26c524-9981-41d6-9e25-17cb40d9e550","system_id":"levelo_inurba_marseille","lat":43.24816,"lon":5.3744,"is_reserved":false,"is_disabled":false,"rental_uris":{"android":"levelo://app?vid=cc26c524-9981-41d6-9e25-17cb40d9e550","ios":"levelo://app?vid=cc26c524-9981-41d6-9e25-17cb40d9e550"},"vehicle_type_id":"4","last_reported":1738087932,"current_range_meters":26000,"station_id":"ce4bhgh2rcd13ifvqfb0","pricing_plan_id":"cebpf4jnsgd1na2vs0mg"},{"bike_id":"8b6a2e22-7314-494c-be31-0722e29d3f36","system_id":"levelo_inurba_marseille","lat":43.27994,"lon":5.40004,"is_reserved":false,"is_disabled":true,"rental_uris":{"android":"levelo://app?vid=8b6a2e22-7314-494c-be31-0722e29d3f36","ios":"levelo://app?vid=8b6a2e22-7314-494c-be31-0722e29d3f36"},"vehicle_type_id":"4","last_reported":1738087932,"current_range_meters":2000,"station_id":"ce4bho92rcd13ifvqh4g","pricing_plan_id":"cebpf4jnsgd1na2vs0mg"},{"bike_id":"a76580b9-6828-4983-80ab-95f00a7bcb49","system_id":"levelo_inurba_marseille","lat":43.28351,"lon":5.38105,"is_reserved":false,"is_disabled":true,"rental_uris":{"android":"levelo://app?vid=a76580b9-6828-4983-80ab-95f00a7bcb49","ios":"levelo://app?vid=a76580b9-6828-4983-80ab-95f00a7bcb49"},"vehicle_type_id":"4","last_reported":1738087932,"current_range_meters":0,"station_id":"ce4bh412rcd13ifvqdr0","pricing_plan_id":"cebpf4jnsgd1na2vs0mg"},{"bike_id":"979afcab-47cc-4ca6-85fa-98c2a022da48","system_id":"levelo_inurba_marseille","lat":43.31076,"lon":5.38348,"is_reserved":false,"is_disabled":false,"rental_uris":{"android":"levelo://app?vid=979afcab-47cc-4ca6-85fa-98c2a022da48","ios":"levelo://app?vid=979afcab-47cc-4ca6-85fa-98c2a022da48"},"vehicle_type_id":"4","last_reported":1738087932,"current_range_meters":19600,"station_id":"ce4bgv92rcd13ifvqcr0","pricing_plan_id":"cebpf4jnsgd1na2vs0mg"},{"bike_id":"dd195832-ff3f-4763-a260-74003ef7ff4c","system_id":"levelo_inurba_marseille","lat":43.29224,"lon":5.36077,"is_reserved":false,"is_disabled":true,"rental_uris":{"android":"levelo://app?vid=dd195832-ff3f-4763-a260-74003ef7ff4c","ios":"levelo://app?vid=dd195832-ff3f-4763-a260-74003ef7ff4c"},"vehicle_type_id":"4","last_reported":1738087932,"current_range_meters":36800,"station_id":"ce4bhbh2rcd13ifvqeqg","pricing_plan_id":"cebpf4jnsgd1na2vs0mg"},{"bike_id":"504dea5b-3c2a-489e-8275-d8db04b04cbd","system_id":"levelo_inurba_marseille","lat":43.2874,"lon":5.38375,"is_reserved":false,"is_disabled":false,"rental_uris":{"android":"levelo://app?vid=504dea5b-3c2a-489e-8275-d8db04b04cbd","ios":"levelo://app?vid=504dea5b-3c2a-489e-8275-d8db04b04cbd"},"vehicle_type_id":"4","last_reported":1738087932,"current_range_meters":36800,"station_id":"","pricing_plan_id":"cebpf4jnsgd1na2vs0mg"},{"bike_id":"a781ddfb-7999-4e8e-8bdf-e423dfc2184d","system_id":"levelo_inurba_marseille","lat":43.29417,"lon":5.38638,"is_reserved":false,"is_disabled":false,"rental_uris":{"android":"levelo://app?vid=a781ddfb-7999-4e8e-8bdf-e423dfc2184d","ios":"levelo://app?vid=a781ddfb-7999-4e8e-8bdf-e423dfc2184d"},"vehicle_type_id":"4","last_reported":1738087932,"current_range_meters":4400,"station_id":"ce4bh2h2rcd13ifvqdh0","pricing_plan_id":"cebpf4jnsgd1na2vs0mg"},{"bike_id":"6f7b2e61-3ffa-40d5-a44b-75e9d523720d","system_id":"levelo_inurba_marseille","lat":43.28149,"lon":5.42642,"is_reserved":false,"is_disabled":false,"rental_uris":{"android":"levelo://app?vid=6f7b2e61-3ffa-40d5-a44b-75e9d523720d","ios":"levelo://app?vid=6f7b2e61-3ffa-40d5-a44b-75e9d523720d"},"vehicle_type_id":"4","last_reported":1738087932,"current_range_meters":16800,"station_id":"ce4bhnh2rcd13ifvqgug","pricing_plan_id":"cebpf4jnsgd1na2vs0mg"},{"bike_id":"3397293d-065b-495f-a994-abeeb6ac01b9","system_id":"levelo_inurba_marseille","lat":43.24669,"lon":5.38156,"is_reserved":false,"is_disabled":false,"rental_uris":{"android":"levelo://app?vid=3397293d-065b-495f-a994-abeeb6ac01b9","ios":"levelo://app?vid=3397293d-065b-495f-a994-abeeb6ac01b9"},"vehicle_type_id":"4","last_reported":1738087932,"current_range_meters":34800,"station_id":"ce4bhih2rcd13ifvqfr0","pricing_plan_id":"cebpf4jnsgd1na2vs0mg"},{"bike_id":"71f34f72-d3b7-46a5-9bd4-1fe057b3152f","system_id":"levelo_inurba_marseille","lat":43.22935,"lon":5.35375,"is_reserved":false,"is_disabled":false,"rental_uris":{"android":"levelo://app?vid=71f34f72-d3b7-46a5-9bd4-1fe057b3152f","ios":"levelo://app?vid=71f34f72-d3b7-46a5-9bd4-1fe057b3152f"},"vehicle_type_id":"4","last_reported":1738087932,"current_range_meters":38800,"station_id":"cpo3532slgdg3j2ikp40","pricing_plan_id":"cebpf4jnsgd1na2vs0mg"},{"bike_id":"360dabff-cce8-4b5a-b384-a825a0fa2c03","system_id":"levelo_inurba_marseille","lat":43.29885,"lon":5.38908,"is_reserved":false,"is_disabled":false,"rental_uris":{"android":"levelo://app?vid=360dabff-cce8-4b5a-b384-a825a0fa2c03","ios":"levelo://app?vid=360dabff-cce8-4b5a-b384-a825a0fa2c03"},"vehicle_type_id":"4","last_reported":1738087932,"current_range_meters":30000,"station_id":"ce4bh392rcd13ifvqdl0","pricing_plan_id":"cebpf4jnsgd1na2vs0mg"},{"bike_id":"20029bdd-9f9c-4ff9-86e4-5ba6ed30f46a","system_id":"levelo_inurba_marseille","lat":43.23132,"lon":5.43741,"is_reserved":false,"is_disabled":true,"rental_uris":{"android":"levelo://app?vid=20029bdd-9f9c-4ff9-86e4-5ba6ed30f46a","ios":"levelo://app?vid=20029bdd-9f9c-4ff9-86e4-5ba6ed30f46a"},"vehicle_type_id":"4","last_reported":1738087932,"current_range_meters":0,"station_id":"ce4bhmp2rcd13ifvqgog","pricing_plan_id":"cebpf4jnsgd1na2vs0mg"},{"bike_id":"a1e9ea9a-e681-4867-9abc-c1bdcd9eed05","system_id":"levelo_inurba_marseille","lat":43.29962,"lon":5.41315,"is_reserved":false,"is_disabled":false,"rental_uris":{"android":"levelo://app?vid=a1e9ea9a-e681-4867-9abc-c1bdcd9eed05","ios":"levelo://app?vid=a1e9ea9a-e681-4867-9abc-c1bdcd9eed05"},"vehicle_type_id":"4","last_reported":1738087932,"current_range_meters":24400,"station_id":"ce4bhp12rcd13ifvqh9g","pricing_plan_id":"cebpf4jnsgd1na2vs0mg"},{"bike_id":"2e003583-b2a5-4f99-ba64-ee4456cc2f4c","system_id":"levelo_inurba_marseille","lat":43.26491,"lon":5.39497,"is_reserved":false,"is_disabled":false,"rental_uris":{"android":"levelo://app?vid=2e003583-b2a5-4f99-ba64-ee4456cc2f4c","ios":"levelo://app?vid=2e003583-b2a5-4f99-ba64-ee4456cc2f4c"},"vehicle_type_id":"4","last_reported":1738087932,"current_range_meters":37600,"station_id":"ce4bhi12rcd13ifvqfq0","pricing_plan_id":"cebpf4jnsgd1na2vs0mg"},{"bike_id":"ed1461ce-d893-48bf-b20d-497f82dbb371","system_id":"levelo_inurba_marseille","lat":43.29808,"lon":5.4041,"is_reserved":false,"is_disabled":false,"rental_uris":{"android":"levelo://app?vid=ed1461ce-d893-48bf-b20d-497f82dbb371","ios":"levelo://app?vid=ed1461ce-d893-48bf-b20d-497f82dbb371"},"vehicle_type_id":"4","last_reported":1738087932,"current_range_meters":38800,"station_id":"ce4bh112rcd13ifvqd90","pricing_plan_id":"cebpf4jnsgd1na2vs0mg"},{"bike_id":"01c346e4-7211-4b0a-9252-8b8a59a9b82f","system_id":"levelo_inurba_marseille","lat":43.288498,"lon":5.358364,"is_reserved":false,"is_disabled":true,"rental_uris":{"android":"levelo://app?vid=01c346e4-7211-4b0a-9252-8b8a59a9b82f","ios":"levelo://app?vid=01c346e4-7211-4b0a-9252-8b8a59a9b82f"},"vehicle_type_id":"4","last_reported":1738087932,"current_range_meters":38000,"station_id":"ce4bhb12rcd13ifvqem0","pricing_plan_id":"cebpf4jnsgd1na2vs0mg"},{"bike_id":"1deb9f83-7def-49a4-a7ec-4fa7f01e7960","system_id":"levelo_inurba_marseille","lat":43.31327,"lon":5.39704,"is_reserved":false,"is_disabled":false,"rental_uris":{"android":"levelo://app?vid=1deb9f83-7def-49a4-a7ec-4fa7f01e7960","ios":"levelo://app?vid=1deb9f83-7def-49a4-a7ec-4fa7f01e7960"},"vehicle_type_id":"4","last_reported":1738087932,"current_range_meters":27600,"station_id":"ce4bgvp2rcd13ifvqcu0","pricing_plan_id":"cebpf4jnsgd1na2vs0mg"},{"bike_id":"3fb74e29-7f1d-4c67-8af5-0bb8332df870","system_id":"levelo_inurba_marseille","lat":43.24366,"lon":5.370337,"is_reserved":false,"is_disabled":false,"rental_uris":{"android":"levelo://app?vid=3fb74e29-7f1d-4c67-8af5-0bb8332df870","ios":"levelo://app?vid=3fb74e29-7f1d-4c67-8af5-0bb8332df870"},"vehicle_type_id":"4","last_reported":1738087932,"current_range_meters":25200,"station_id":"ce4bhhh2rcd13ifvqfk0","pricing_plan_id":"cebpf4jnsgd1na2vs0mg"},{"bike_id":"bad63440-3dff-4f69-b774-e16318d2e743","system_id":"levelo_inurba_marseille","lat":43.28925,"lon":5.38414,"is_reserved":false,"is_disabled":false,"rental_uris":{"android":"levelo://app?vid=bad63440-3dff-4f69-b774-e16318d2e743","ios":"levelo://app?vid=bad63440-3dff-4f69-b774-e16318d2e743"},"vehicle_type_id":"4","last_reported":1738087932,"current_range_meters":38800,"station_id":"ce4bh612rcd13ifvqe6g","pricing_plan_id":"cebpf4jnsgd1na2vs0mg"},{"bike_id":"a1f25abd-5197-4524-ac53-ad8743bef105","system_id":"levelo_inurba_marseille","lat":43.2988,"lon":5.43674,"is_reserved":false,"is_disabled":true,"rental_uris":{"android":"levelo://app?vid=a1f25abd-5197-4524-ac53-ad8743bef105","ios":"levelo://app?vid=a1f25abd-5197-4524-ac53-ad8743bef105"},"vehicle_type_id":"4","last_reported":1738087932,"current_range_meters":37600,"station_id":"ce4bhpp2rcd13ifvqhfg","pricing_plan_id":"cebpf4jnsgd1na2vs0mg"},{"bike_id":"44291550-4f18-4ded-a35a-a78910a72c2c","system_id":"levelo_inurba_marseille","lat":43.28699,"lon":5.37399,"is_reserved":false,"is_disabled":false,"rental_uris":{"android":"levelo://app?vid=44291550-4f18-4ded-a35a-a78910a72c2c","ios":"levelo://app?vid=44291550-4f18-4ded-a35a-a78910a72c2c"},"vehicle_type_id":"4","last_reported":1738087932,"current_range_meters":31200,"station_id":"ce4bgs12rcd13ifvqcag","pricing_plan_id":"cebpf4jnsgd1na2vs0mg"},{"bike_id":"d2720e1a-503c-493a-a400-fc47b5a1c2f3","system_id":"levelo_inurba_marseille","lat":43.28084,"lon":5.39639,"is_reserved":false,"is_disabled":false,"rental_uris":{"android":"levelo://app?vid=d2720e1a-503c-493a-a400-fc47b5a1c2f3","ios":"levelo://app?vid=d2720e1a-503c-493a-a400-fc47b5a1c2f3"},"vehicle_type_id":"4","last_reported":1738087932,"current_range_meters":30000,"station_id":"ce4bho12rcd13ifvqh2g","pricing_plan_id":"cebpf4jnsgd1na2vs0mg"},{"bike_id":"ff68af14-5554-4f8d-a3de-4549d987f602","system_id":"levelo_inurba_marseille","lat":43.29896,"lon":5.43661,"is_reserved":false,"is_disabled":false,"rental_uris":{"android":"levelo://app?vid=ff68af14-5554-4f8d-a3de-4549d987f602","ios":"levelo://app?vid=ff68af14-5554-4f8d-a3de-4549d987f602"},"vehicle_type_id":"4","last_reported":1738087932,"current_range_meters":35600,"station_id":"ce4bhpp2rcd13ifvqhfg","pricing_plan_id":"cebpf4jnsgd1na2vs0mg"},{"bike_id":"296acca2-a355-4830-bc97-a6939a85f573","system_id":"levelo_inurba_marseille","lat":43.25576,"lon":5.38237,"is_reserved":false,"is_disabled":false,"rental_uris":{"android":"levelo://app?vid=296acca2-a355-4830-bc97-a6939a85f573","ios":"levelo://app?vid=296acca2-a355-4830-bc97-a6939a85f573"},"vehicle_type_id":"4","last_reported":1738087932,"current_range_meters":27200,"station_id":"ce4bhih2rcd13ifvqfs0","pricing_plan_id":"cebpf4jnsgd1na2vs0mg"},{"bike_id":"e2aa4144-f725-4497-81a8-6271243a9220","system_id":"levelo_inurba_marseille","lat":43.28277,"lon":5.40825,"is_reserved":false,"is_disabled":false,"rental_uris":{"android":"levelo://app?vid=e2aa4144-f725-4497-81a8-6271243a9220","ios":"levelo://app?vid=e2aa4144-f725-4497-81a8-6271243a9220"},"vehicle_type_id":"4","last_reported":1738087932,"current_range_meters":29600,"station_id":"","pricing_plan_id":"cebpf4jnsgd1na2vs0mg"},{"bike_id":"f0a35167-766c-467d-b0f8-92abb69bee7f","system_id":"levelo_inurba_marseille","lat":43.28928,"lon":5.38389,"is_reserved":false,"is_disabled":false,"rental_uris":{"android":"levelo://app?vid=f0a35167-766c-467d-b0f8-92abb69bee7f","ios":"levelo://app?vid=f0a35167-766c-467d-b0f8-92abb69bee7f"},"vehicle_type_id":"4","last_reported":1738087932,"current_range_meters":24000,"station_id":"ce4bh612rcd13ifvqe6g","pricing_plan_id":"cebpf4jnsgd1na2vs0mg"},{"bike_id":"aed89bdf-daf0-453b-9054-d769e368e278","system_id":"levelo_inurba_marseille","lat":43.28559,"lon":5.39508,"is_reserved":false,"is_disabled":false,"rental_uris":{"android":"levelo://app?vid=aed89bdf-daf0-453b-9054-d769e368e278","ios":"levelo://app?vid=aed89bdf-daf0-453b-9054-d769e368e278"},"vehicle_type_id":"4","last_reported":1738087932,"current_range_meters":38400,"station_id":"ce4bh292rcd13ifvqdg0","pricing_plan_id":"cebpf4jnsgd1na2vs0mg"},{"bike_id":"678c8fdd-4c28-4b55-b0aa-99dc7ed3818a","system_id":"levelo_inurba_marseille","lat":43.31274,"lon":5.40173,"is_reserved":false,"is_disabled":false,"rental_uris":{"android":"levelo://app?vid=678c8fdd-4c28-4b55-b0aa-99dc7ed3818a","ios":"levelo://app?vid=678c8fdd-4c28-4b55-b0aa-99dc7ed3818a"},"vehicle_type_id":"4","last_reported":1738087932,"current_range_meters":10000,"station_id":"ce4bh092rcd13ifvqd30","pricing_plan_id":"cebpf4jnsgd1na2vs0mg"},{"bike_id":"3d95239f-7aae-4c5a-bf4d-ca1ab46f24f8","system_id":"levelo_inurba_marseille","lat":43.27825,"lon":5.40703,"is_reserved":false,"is_disabled":false,"rental_uris":{"android":"levelo://app?vid=3d95239f-7aae-4c5a-bf4d-ca1ab46f24f8","ios":"levelo://app?vid=3d95239f-7aae-4c5a-bf4d-ca1ab46f24f8"},"vehicle_type_id":"4","last_reported":1738087932,"current_range_meters":30400,"station_id":"ce4bhnh2rcd13ifvqgtg","pricing_plan_id":"cebpf4jnsgd1na2vs0mg"},{"bike_id":"c397554f-7f1c-4747-af9f-1b3a2425620c","system_id":"levelo_inurba_marseille","lat":43.29516,"lon":5.39401,"is_reserved":false,"is_disabled":false,"rental_uris":{"android":"levelo://app?vid=c397554f-7f1c-4747-af9f-1b3a2425620c","ios":"levelo://app?vid=c397554f-7f1c-4747-af9f-1b3a2425620c"},"vehicle_type_id":"4","last_reported":1738087932,"current_range_meters":17600,"station_id":"ce4bh292rcd13ifvqdf0","pricing_plan_id":"cebpf4jnsgd1na2vs0mg"},{"bike_id":"5f63049d-21a7-49b1-a460-70fd49b7f6ea","system_id":"levelo_inurba_marseille","lat":43.28935,"lon":5.36644,"is_reserved":false,"is_disabled":false,"rental_uris":{"android":"levelo://app?vid=5f63049d-21a7-49b1-a460-70fd49b7f6ea","ios":"levelo://app?vid=5f63049d-21a7-49b1-a460-70fd49b7f6ea"},"vehicle_type_id":"4","last_reported":1738087932,"current_range_meters":26800,"station_id":"ce4bhap2rcd13ifvqek0","pricing_plan_id":"cebpf4jnsgd1na2vs0mg"},{"bike_id":"60db3a4b-88f0-4db2-8df4-add40c9cf4e4","system_id":"levelo_inurba_marseille","lat":43.26779,"lon":5.39423,"is_reserved":false,"is_disabled":false,"rental_uris":{"android":"levelo://app?vid=60db3a4b-88f0-4db2-8df4-add40c9cf4e4","ios":"levelo://app?vid=60db3a4b-88f0-4db2-8df4-add40c9cf4e4"},"vehicle_type_id":"4","last_reported":1738087932,"current_range_meters":10000,"station_id":"ce4bhh12rcd13ifvqfg0","pricing_plan_id":"cebpf4jnsgd1na2vs0mg"},{"bike_id":"e3c5a10e-948d-477c-91ce-8c835a7fe362","system_id":"levelo_inurba_marseille","lat":43.280978,"lon":5.396606,"is_reserved":false,"is_disabled":true,"rental_uris":{"android":"levelo://app?vid=e3c5a10e-948d-477c-91ce-8c835a7fe362","ios":"levelo://app?vid=e3c5a10e-948d-477c-91ce-8c835a7fe362"},"vehicle_type_id":"4","last_reported":1738087932,"current_range_meters":0,"station_id":"ce4bho12rcd13ifvqh2g","pricing_plan_id":"cebpf4jnsgd1na2vs0mg"},{"bike_id":"ba6ba496-1dd4-416a-b163-d93386a1f772","system_id":"levelo_inurba_marseille","lat":43.27841,"lon":5.39216,"is_reserved":false,"is_disabled":false,"rental_uris":{"android":"levelo://app?vid=ba6ba496-1dd4-416a-b163-d93386a1f772","ios":"levelo://app?vid=ba6ba496-1dd4-416a-b163-d93386a1f772"},"vehicle_type_id":"4","last_reported":1738087932,"current_range_meters":23200,"station_id":"ce4bhjp2rcd13ifvqga0","pricing_plan_id":"cebpf4jnsgd1na2vs0mg"},{"bike_id":"7fc34398-d3b8-48de-93ad-2c00907a0510","system_id":"levelo_inurba_marseille","lat":43.25113,"lon":5.4032,"is_reserved":false,"is_disabled":false,"rental_uris":{"android":"levelo://app?vid=7fc34398-d3b8-48de-93ad-2c00907a0510","ios":"levelo://app?vid=7fc34398-d3b8-48de-93ad-2c00907a0510"},"vehicle_type_id":"4","last_reported":1738087932,"current_range_meters":14400,"station_id":"ce4bhlh2rcd13ifvqgig","pricing_plan_id":"cebpf4jnsgd1na2vs0mg"},{"bike_id":"f958e592-4cfa-4e53-9b19-b627fd019456","system_id":"levelo_inurba_marseille","lat":43.31376,"lon":5.38495,"is_reserved":false,"is_disabled":false,"rental_uris":{"android":"levelo://app?vid=f958e592-4cfa-4e53-9b19-b627fd019456","ios":"levelo://app?vid=f958e592-4cfa-4e53-9b19-b627fd019456"},"vehicle_type_id":"4","last_reported":1738087932,"current_range_meters":8000,"station_id":"ce4bgt92rcd13ifvqcf0","pricing_plan_id":"cebpf4jnsgd1na2vs0mg"},{"bike_id":"9f018113-1138-458d-9938-2357ae09399b","system_id":"levelo_inurba_marseille","lat":43.28614,"lon":5.3511,"is_reserved":false,"is_disabled":false,"rental_uris":{"android":"levelo://app?vid=9f018113-1138-458d-9938-2357ae09399b","ios":"levelo://app?vid=9f018113-1138-458d-9938-2357ae09399b"},"vehicle_type_id":"4","last_reported":1738087932,"current_range_meters":38000,"station_id":"ce4bhch2rcd13ifvqeug","pricing_plan_id":"cebpf4jnsgd1na2vs0mg"},{"bike_id":"62e006bb-09fe-4b52-a9a4-ad97710ad8e1","system_id":"levelo_inurba_marseille","lat":43.28931,"lon":5.38399,"is_reserved":false,"is_disabled":false,"rental_uris":{"android":"levelo://app?vid=62e006bb-09fe-4b52-a9a4-ad97710ad8e1","ios":"levelo://app?vid=62e006bb-09fe-4b52-a9a4-ad97710ad8e1"},"vehicle_type_id":"4","last_reported":1738087932,"current_range_meters":38800,"station_id":"ce4bh612rcd13ifvqe6g","pricing_plan_id":"cebpf4jnsgd1na2vs0mg"},{"bike_id":"f846d495-effa-4e8f-ae39-f2d7b1fc0ba3","system_id":"levelo_inurba_marseille","lat":43.26806,"lon":5.4027,"is_reserved":false,"is_disabled":false,"rental_uris":{"android":"levelo://app?vid=f846d495-effa-4e8f-ae39-f2d7b1fc0ba3","ios":"levelo://app?vid=f846d495-effa-4e8f-ae39-f2d7b1fc0ba3"},"vehicle_type_id":"4","last_reported":1738087932,"current_range_meters":38800,"station_id":"ce501612rcd8frsf0b60","pricing_plan_id":"cebpf4jnsgd1na2vs0mg"},{"bike_id":"78bc61bf-426e-4c8b-af21-b3b451435e49","system_id":"levelo_inurba_marseille","lat":43.29202,"lon":5.35791,"is_reserved":false,"is_disabled":false,"rental_uris":{"android":"levelo://app?vid=78bc61bf-426e-4c8b-af21-b3b451435e49","ios":"levelo://app?vid=78bc61bf-426e-4c8b-af21-b3b451435e49"},"vehicle_type_id":"4","last_reported":1738087932,"current_range_meters":17200,"station_id":"ce4bhb12rcd13ifvqel0","pricing_plan_id":"cebpf4jnsgd1na2vs0mg"},{"bike_id":"134a47c9-8057-4bed-bc45-2dfe506a6fa9","system_id":"levelo_inurba_marseille","lat":43.29578,"lon":5.36748,"is_reserved":false,"is_disabled":true,"rental_uris":{"android":"levelo://app?vid=134a47c9-8057-4bed-bc45-2dfe506a6fa9","ios":"levelo://app?vid=134a47c9-8057-4bed-bc45-2dfe506a6fa9"},"vehicle_type_id":"4","last_reported":1738087932,"current_range_meters":400,"station_id":"ce4bgph2rcd13ifvqc2g","pricing_plan_id":"cebpf4jnsgd1na2vs0mg"},{"bike_id":"352e3806-5290-416f-bc00-4855a8b65e96","system_id":"levelo_inurba_marseille","lat":43.31536,"lon":5.38026,"is_reserved":false,"is_disabled":false,"rental_uris":{"android":"levelo://app?vid=352e3806-5290-416f-bc00-4855a8b65e96","ios":"levelo://app?vid=352e3806-5290-416f-bc00-4855a8b65e96"},"vehicle_type_id":"4","last_reported":1738087932,"current_range_meters":38000,"station_id":"ce4bhsp2rcd13ifvqi50","pricing_plan_id":"cebpf4jnsgd1na2vs0mg"},{"bike_id":"9345b8ca-ad0b-47a3-9ce9-1d4d1c63dba6","system_id":"levelo_inurba_marseille","lat":43.27566,"lon":5.38417,"is_reserved":false,"is_disabled":false,"rental_uris":{"android":"levelo://app?vid=9345b8ca-ad0b-47a3-9ce9-1d4d1c63dba6","ios":"levelo://app?vid=9345b8ca-ad0b-47a3-9ce9-1d4d1c63dba6"},"vehicle_type_id":"4","last_reported":1738087932,"current_range_meters":27200,"station_id":"ce4bhh92rcd13ifvqfi0","pricing_plan_id":"cebpf4jnsgd1na2vs0mg"},{"bike_id":"f9173de2-2fa5-436f-a76b-3c96bd571284","system_id":"levelo_inurba_marseille","lat":43.29807,"lon":5.4042,"is_reserved":false,"is_disabled":true,"rental_uris":{"android":"levelo://app?vid=f9173de2-2fa5-436f-a76b-3c96bd571284","ios":"levelo://app?vid=f9173de2-2fa5-436f-a76b-3c96bd571284"},"vehicle_type_id":"4","last_reported":1738087932,"current_range_meters":36400,"station_id":"ce4bh112rcd13ifvqd90","pricing_plan_id":"cebpf4jnsgd1na2vs0mg"},{"bike_id":"efd80fd0-328b-4dc4-bd09-ca853fed1175","system_id":"levelo_inurba_marseille","lat":43.31079,"lon":5.42437,"is_reserved":false,"is_disabled":false,"rental_uris":{"android":"levelo://app?vid=efd80fd0-328b-4dc4-bd09-ca853fed1175","ios":"levelo://app?vid=efd80fd0-328b-4dc4-bd09-ca853fed1175"},"vehicle_type_id":"4","last_reported":1738087932,"current_range_meters":38800,"station_id":"ce4bhp92rcd13ifvqhag","pricing_plan_id":"cebpf4jnsgd1na2vs0mg"},{"bike_id":"1932502a-a386-4bd4-8041-b68d3b661876","system_id":"levelo_inurba_marseille","lat":43.23198,"lon":5.35552,"is_reserved":false,"is_disabled":false,"rental_uris":{"android":"levelo://app?vid=1932502a-a386-4bd4-8041-b68d3b661876","ios":"levelo://app?vid=1932502a-a386-4bd4-8041-b68d3b661876"},"vehicle_type_id":"4","last_reported":1738087932,"current_range_meters":24800,"station_id":"ce4bhu92rcd13ifvqi70","pricing_plan_id":"cebpf4jnsgd1na2vs0mg"},{"bike_id":"d2f08ce9-194e-43c4-a9f1-3260fde37c7e","system_id":"levelo_inurba_marseille","lat":43.27951,"lon":5.41061,"is_reserved":false,"is_disabled":false,"rental_uris":{"android":"levelo://app?vid=d2f08ce9-194e-43c4-a9f1-3260fde37c7e","ios":"levelo://app?vid=d2f08ce9-194e-43c4-a9f1-3260fde37c7e"},"vehicle_type_id":"4","last_reported":1738087932,"current_range_meters":17200,"station_id":"ce4bhnp2rcd13ifvqh0g","pricing_plan_id":"cebpf4jnsgd1na2vs0mg"},{"bike_id":"c71d9a58-79c2-4121-bc4b-958cbabc75f1","system_id":"levelo_inurba_marseille","lat":43.29272,"lon":5.40124,"is_reserved":false,"is_disabled":true,"rental_uris":{"android":"levelo://app?vid=c71d9a58-79c2-4121-bc4b-958cbabc75f1","ios":"levelo://app?vid=c71d9a58-79c2-4121-bc4b-958cbabc75f1"},"vehicle_type_id":"4","last_reported":1738087932,"current_range_meters":6800,"station_id":"ce4bh312rcd13ifvqdk0","pricing_plan_id":"cebpf4jnsgd1na2vs0mg"},{"bike_id":"cd68e35b-e291-4244-8751-8931f1c888e6","system_id":"levelo_inurba_marseille","lat":43.24392,"lon":5.37061,"is_reserved":false,"is_disabled":false,"rental_uris":{"android":"levelo://app?vid=cd68e35b-e291-4244-8751-8931f1c888e6","ios":"levelo://app?vid=cd68e35b-e291-4244-8751-8931f1c888e6"},"vehicle_type_id":"4","last_reported":1738087932,"current_range_meters":16800,"station_id":"ce4bhhh2rcd13ifvqfk0","pricing_plan_id":"cebpf4jnsgd1na2vs0mg"},{"bike_id":"9f82d94e-8b39-45c9-b4c8-c08c0c178b1e","system_id":"levelo_inurba_marseille","lat":43.31761,"lon":5.40393,"is_reserved":false,"is_disabled":true,"rental_uris":{"android":"levelo://app?vid=9f82d94e-8b39-45c9-b4c8-c08c0c178b1e","ios":"levelo://app?vid=9f82d94e-8b39-45c9-b4c8-c08c0c178b1e"},"vehicle_type_id":"4","last_reported":1738087932,"current_range_meters":0,"station_id":"ce4bh012rcd13ifvqd00","pricing_plan_id":"cebpf4jnsgd1na2vs0mg"},{"bike_id":"38406c4f-f465-463a-8917-08b734d2865e","system_id":"levelo_inurba_marseille","lat":43.28078,"lon":5.39657,"is_reserved":false,"is_disabled":false,"rental_uris":{"android":"levelo://app?vid=38406c4f-f465-463a-8917-08b734d2865e","ios":"levelo://app?vid=38406c4f-f465-463a-8917-08b734d2865e"},"vehicle_type_id":"4","last_reported":1738087932,"current_range_meters":14000,"station_id":"ce4bho12rcd13ifvqh2g","pricing_plan_id":"cebpf4jnsgd1na2vs0mg"},{"bike_id":"8b89029b-ae91-40c5-85ae-0b0bcb66edeb","system_id":"levelo_inurba_marseille","lat":43.29586,"lon":5.36726,"is_reserved":false,"is_disabled":false,"rental_uris":{"android":"levelo://app?vid=8b89029b-ae91-40c5-85ae-0b0bcb66edeb","ios":"levelo://app?vid=8b89029b-ae91-40c5-85ae-0b0bcb66edeb"},"vehicle_type_id":"4","last_reported":1738087932,"current_range_meters":38800,"station_id":"ce4bgph2rcd13ifvqc2g","pricing_plan_id":"cebpf4jnsgd1na2vs0mg"},{"bike_id":"52b765e6-54e2-49e6-8cec-35930577204b","system_id":"levelo_inurba_marseille","lat":43.28925,"lon":5.38387,"is_reserved":false,"is_disabled":false,"rental_uris":{"android":"levelo://app?vid=52b765e6-54e2-49e6-8cec-35930577204b","ios":"levelo://app?vid=52b765e6-54e2-49e6-8cec-35930577204b"},"vehicle_type_id":"4","last_reported":1738087932,"current_range_meters":19200,"station_id":"ce4bh612rcd13ifvqe6g","pricing_plan_id":"cebpf4jnsgd1na2vs0mg"},{"bike_id":"283c25d8-9fc5-495b-9825-5a72a68442bd","system_id":"levelo_inurba_marseille","lat":43.2926,"lon":5.40892,"is_reserved":false,"is_disabled":true,"rental_uris":{"android":"levelo://app?vid=283c25d8-9fc5-495b-9825-5a72a68442bd","ios":"levelo://app?vid=283c25d8-9fc5-495b-9825-5a72a68442bd"},"vehicle_type_id":"4","last_reported":1738087932,"current_range_meters":38800,"station_id":"ce4bh192rcd13ifvqdc0","pricing_plan_id":"cebpf4jnsgd1na2vs0mg"},{"bike_id":"77f3bf21-63b8-49a8-935c-8a5687b8349a","system_id":"levelo_inurba_marseille","lat":43.32906,"lon":5.39079,"is_reserved":false,"is_disabled":false,"rental_uris":{"android":"levelo://app?vid=77f3bf21-63b8-49a8-935c-8a5687b8349a","ios":"levelo://app?vid=77f3bf21-63b8-49a8-935c-8a5687b8349a"},"vehicle_type_id":"4","last_reported":1738087932,"current_range_meters":17600,"station_id":"","pricing_plan_id":"cebpf4jnsgd1na2vs0mg"},{"bike_id":"e3e26aee-15e1-425c-a48f-db58aa520742","system_id":"levelo_inurba_marseille","lat":43.23067,"lon":5.35499,"is_reserved":false,"is_disabled":false,"rental_uris":{"android":"levelo://app?vid=e3e26aee-15e1-425c-a48f-db58aa520742","ios":"levelo://app?vid=e3e26aee-15e1-425c-a48f-db58aa520742"},"vehicle_type_id":"4","last_reported":1738087932,"current_range_meters":36800,"station_id":"cpo3342slgdg3j2ifvpg","pricing_plan_id":"cebpf4jnsgd1na2vs0mg"},{"bike_id":"e695c3a7-8e0d-4828-a94a-cd71ebfaaeb3","system_id":"levelo_inurba_marseille","lat":43.308,"lon":5.38155,"is_reserved":false,"is_disabled":false,"rental_uris":{"android":"levelo://app?vid=e695c3a7-8e0d-4828-a94a-cd71ebfaaeb3","ios":"levelo://app?vid=e695c3a7-8e0d-4828-a94a-cd71ebfaaeb3"},"vehicle_type_id":"4","last_reported":1738087932,"current_range_meters":36800,"station_id":"ce4bgt12rcd13ifvqce0","pricing_plan_id":"cebpf4jnsgd1na2vs0mg"},{"bike_id":"bf65fb93-3958-4e6b-8c4c-1e9528b33388","system_id":"levelo_inurba_marseille","lat":43.29035,"lon":5.3997,"is_reserved":false,"is_disabled":false,"rental_uris":{"android":"levelo://app?vid=bf65fb93-3958-4e6b-8c4c-1e9528b33388","ios":"levelo://app?vid=bf65fb93-3958-4e6b-8c4c-1e9528b33388"},"vehicle_type_id":"4","last_reported":1738087932,"current_range_meters":33200,"station_id":"ce4bh392rcd13ifvqdm0","pricing_plan_id":"cebpf4jnsgd1na2vs0mg"},{"bike_id":"df2653fe-4fdf-43fd-a7c1-0f1c8d8556c5","system_id":"levelo_inurba_marseille","lat":43.33023,"lon":5.39047,"is_reserved":false,"is_disabled":false,"rental_uris":{"android":"levelo://app?vid=df2653fe-4fdf-43fd-a7c1-0f1c8d8556c5","ios":"levelo://app?vid=df2653fe-4fdf-43fd-a7c1-0f1c8d8556c5"},"vehicle_type_id":"4","last_reported":1738087932,"current_range_meters":38400,"station_id":"ce4bhr92rcd13ifvqhrg","pricing_plan_id":"cebpf4jnsgd1na2vs0mg"},{"bike_id":"7c78a755-c7f5-4f07-a96b-621451d47948","system_id":"levelo_inurba_marseille","lat":43.29887,"lon":5.43677,"is_reserved":false,"is_disabled":false,"rental_uris":{"android":"levelo://app?vid=7c78a755-c7f5-4f07-a96b-621451d47948","ios":"levelo://app?vid=7c78a755-c7f5-4f07-a96b-621451d47948"},"vehicle_type_id":"4","last_reported":1738087932,"current_range_meters":22400,"station_id":"ce4bhpp2rcd13ifvqhfg","pricing_plan_id":"cebpf4jnsgd1na2vs0mg"},{"bike_id":"4ebc8090-1105-4905-bf9f-56879aa1cf25","system_id":"levelo_inurba_marseille","lat":43.3136,"lon":5.3849,"is_reserved":false,"is_disabled":false,"rental_uris":{"android":"levelo://app?vid=4ebc8090-1105-4905-bf9f-56879aa1cf25","ios":"levelo://app?vid=4ebc8090-1105-4905-bf9f-56879aa1cf25"},"vehicle_type_id":"4","last_reported":1738087932,"current_range_meters":39200,"station_id":"ce4bgt92rcd13ifvqcf0","pricing_plan_id":"cebpf4jnsgd1na2vs0mg"},{"bike_id":"3d1fcd99-fa1f-402d-be1e-7639922ccd47","system_id":"levelo_inurba_marseille","lat":43.22929,"lon":5.35375,"is_reserved":false,"is_disabled":false,"rental_uris":{"android":"levelo://app?vid=3d1fcd99-fa1f-402d-be1e-7639922ccd47","ios":"levelo://app?vid=3d1fcd99-fa1f-402d-be1e-7639922ccd47"},"vehicle_type_id":"4","last_reported":1738087932,"current_range_meters":29600,"station_id":"cpo3532slgdg3j2ikp40","pricing_plan_id":"cebpf4jnsgd1na2vs0mg"},{"bike_id":"43ea3ad8-8184-4bdc-8358-c047afdc2af7","system_id":"levelo_inurba_marseille","lat":43.29531,"lon":5.38537,"is_reserved":false,"is_disabled":false,"rental_uris":{"android":"levelo://app?vid=43ea3ad8-8184-4bdc-8358-c047afdc2af7","ios":"levelo://app?vid=43ea3ad8-8184-4bdc-8358-c047afdc2af7"},"vehicle_type_id":"4","last_reported":1738087932,"current_range_meters":5600,"station_id":"ce4bgih2rcd13ifvqba0","pricing_plan_id":"cebpf4jnsgd1na2vs0mg"},{"bike_id":"803e03d8-7d2e-4feb-ac46-774902d16dee","system_id":"levelo_inurba_marseille","lat":43.33763,"lon":5.37434,"is_reserved":false,"is_disabled":true,"rental_uris":{"android":"levelo://app?vid=803e03d8-7d2e-4feb-ac46-774902d16dee","ios":"levelo://app?vid=803e03d8-7d2e-4feb-ac46-774902d16dee"},"vehicle_type_id":"4","last_reported":1738087932,"current_range_meters":36800,"station_id":"","pricing_plan_id":"cebpf4jnsgd1na2vs0mg"},{"bike_id":"ff1e303e-f01b-45b4-953d-3439c6552787","system_id":"levelo_inurba_marseille","lat":43.26938,"lon":5.40237,"is_reserved":false,"is_disabled":false,"rental_uris":{"android":"levelo://app?vid=ff1e303e-f01b-45b4-953d-3439c6552787","ios":"levelo://app?vid=ff1e303e-f01b-45b4-953d-3439c6552787"},"vehicle_type_id":"4","last_reported":1738087932,"current_range_meters":32400,"station_id":"cjm6bp8fraef2m0cb0m0","pricing_plan_id":"cebpf4jnsgd1na2vs0mg"},{"bike_id":"70e60ad6-ef20-4b17-bf61-dc343f8741d5","system_id":"levelo_inurba_marseille","lat":43.2781,"lon":5.40717,"is_reserved":false,"is_disabled":false,"rental_uris":{"android":"levelo://app?vid=70e60ad6-ef20-4b17-bf61-dc343f8741d5","ios":"levelo://app?vid=70e60ad6-ef20-4b17-bf61-dc343f8741d5"},"vehicle_type_id":"4","last_reported":1738087932,"current_range_meters":37600,"station_id":"ce4bhnh2rcd13ifvqgtg","pricing_plan_id":"cebpf4jnsgd1na2vs0mg"},{"bike_id":"7f762cad-14d3-4378-9c59-c304651b7679","system_id":"levelo_inurba_marseille","lat":43.2956,"lon":5.39978,"is_reserved":false,"is_disabled":true,"rental_uris":{"android":"levelo://app?vid=7f762cad-14d3-4378-9c59-c304651b7679","ios":"levelo://app?vid=7f762cad-14d3-4378-9c59-c304651b7679"},"vehicle_type_id":"4","last_reported":1738087932,"current_range_meters":28800,"station_id":"ce4bh312rcd13ifvqdj0","pricing_plan_id":"cebpf4jnsgd1na2vs0mg"},{"bike_id":"a1a01cb8-efd4-4d3f-828b-da9838b3a25b","system_id":"levelo_inurba_marseille","lat":43.29514,"lon":5.39406,"is_reserved":false,"is_disabled":false,"rental_uris":{"android":"levelo://app?vid=a1a01cb8-efd4-4d3f-828b-da9838b3a25b","ios":"levelo://app?vid=a1a01cb8-efd4-4d3f-828b-da9838b3a25b"},"vehicle_type_id":"4","last_reported":1738087932,"current_range_meters":34800,"station_id":"ce4bh292rcd13ifvqdf0","pricing_plan_id":"cebpf4jnsgd1na2vs0mg"},{"bike_id":"5c570969-15b5-40e5-8313-bedbe0ca2037","system_id":"levelo_inurba_marseille","lat":43.29594,"lon":5.3998,"is_reserved":false,"is_disabled":false,"rental_uris":{"android":"levelo://app?vid=5c570969-15b5-40e5-8313-bedbe0ca2037","ios":"levelo://app?vid=5c570969-15b5-40e5-8313-bedbe0ca2037"},"vehicle_type_id":"4","last_reported":1738087932,"current_range_meters":27200,"station_id":"ce4bh312rcd13ifvqdj0","pricing_plan_id":"cebpf4jnsgd1na2vs0mg"},{"bike_id":"8509af39-5d60-44f0-bcf8-0a3dd3397f06","system_id":"levelo_inurba_marseille","lat":43.29573,"lon":5.3998,"is_reserved":false,"is_disabled":false,"rental_uris":{"android":"levelo://app?vid=8509af39-5d60-44f0-bcf8-0a3dd3397f06","ios":"levelo://app?vid=8509af39-5d60-44f0-bcf8-0a3dd3397f06"},"vehicle_type_id":"4","last_reported":1738087932,"current_range_meters":32800,"station_id":"ce4bh312rcd13ifvqdj0","pricing_plan_id":"cebpf4jnsgd1na2vs0mg"},{"bike_id":"3bc0f135-575a-4737-9b6a-5704190bb622","system_id":"levelo_inurba_marseille","lat":43.29261,"lon":5.38451,"is_reserved":false,"is_disabled":false,"rental_uris":{"android":"levelo://app?vid=3bc0f135-575a-4737-9b6a-5704190bb622","ios":"levelo://app?vid=3bc0f135-575a-4737-9b6a-5704190bb622"},"vehicle_type_id":"4","last_reported":1738087932,"current_range_meters":19600,"station_id":"ce4bh692rcd13ifvqea0","pricing_plan_id":"cebpf4jnsgd1na2vs0mg"},{"bike_id":"86255055-5d6c-4828-8dde-818efa7f469e","system_id":"levelo_inurba_marseille","lat":43.30943,"lon":5.37811,"is_reserved":false,"is_disabled":false,"rental_uris":{"android":"levelo://app?vid=86255055-5d6c-4828-8dde-818efa7f469e","ios":"levelo://app?vid=86255055-5d6c-4828-8dde-818efa7f469e"},"vehicle_type_id":"4","last_reported":1738087932,"current_range_meters":8800,"station_id":"","pricing_plan_id":"cebpf4jnsgd1na2vs0mg"},{"bike_id":"c438c788-2c8f-4eda-8233-a8485c23c4af","system_id":"levelo_inurba_marseille","lat":43.30419,"lon":5.41276,"is_reserved":false,"is_disabled":true,"rental_uris":{"android":"levelo://app?vid=c438c788-2c8f-4eda-8233-a8485c23c4af","ios":"levelo://app?vid=c438c788-2c8f-4eda-8233-a8485c23c4af"},"vehicle_type_id":"4","last_reported":1738087932,"current_range_meters":0,"station_id":"ce4bhop2rcd13ifvqh8g","pricing_plan_id":"cebpf4jnsgd1na2vs0mg"},{"bike_id":"3fa5ce7a-b0b4-4bfc-bb29-c0503f02ac87","system_id":"levelo_inurba_marseille","lat":43.2737,"lon":5.36259,"is_reserved":false,"is_disabled":false,"rental_uris":{"android":"levelo://app?vid=3fa5ce7a-b0b4-4bfc-bb29-c0503f02ac87","ios":"levelo://app?vid=3fa5ce7a-b0b4-4bfc-bb29-c0503f02ac87"},"vehicle_type_id":"4","last_reported":1738087932,"current_range_meters":32000,"station_id":"ce4bhbh2rcd13ifvqeo0","pricing_plan_id":"cebpf4jnsgd1na2vs0mg"},{"bike_id":"85af6c92-372c-4cd2-84da-c4ec61fa470d","system_id":"levelo_inurba_marseille","lat":43.2569,"lon":5.41152,"is_reserved":false,"is_disabled":true,"rental_uris":{"android":"levelo://app?vid=85af6c92-372c-4cd2-84da-c4ec61fa470d","ios":"levelo://app?vid=85af6c92-372c-4cd2-84da-c4ec61fa470d"},"vehicle_type_id":"4","last_reported":1738087932,"current_range_meters":38800,"station_id":"ce4bhkp2rcd13ifvqgd0","pricing_plan_id":"cebpf4jnsgd1na2vs0mg"},{"bike_id":"db2adb13-fe8f-4f8e-bcf9-5549176fe385","system_id":"levelo_inurba_marseille","lat":43.29581,"lon":5.3751,"is_reserved":false,"is_disabled":false,"rental_uris":{"android":"levelo://app?vid=db2adb13-fe8f-4f8e-bcf9-5549176fe385","ios":"levelo://app?vid=db2adb13-fe8f-4f8e-bcf9-5549176fe385"},"vehicle_type_id":"4","last_reported":1738087932,"current_range_meters":38000,"station_id":"ce4bgh92rcd13ifvqb50","pricing_plan_id":"cebpf4jnsgd1na2vs0mg"},{"bike_id":"0817f8f0-4ec1-4bdf-aae7-42aab8cb0cdf","system_id":"levelo_inurba_marseille","lat":43.29309,"lon":5.37443,"is_reserved":false,"is_disabled":false,"rental_uris":{"android":"levelo://app?vid=0817f8f0-4ec1-4bdf-aae7-42aab8cb0cdf","ios":"levelo://app?vid=0817f8f0-4ec1-4bdf-aae7-42aab8cb0cdf"},"vehicle_type_id":"4","last_reported":1738087932,"current_range_meters":38400,"station_id":"ce4bgi12rcd13ifvqb70","pricing_plan_id":"cebpf4jnsgd1na2vs0mg"},{"bike_id":"dd0cc133-0d17-46c8-8f5c-8de4d6eeb9e2","system_id":"levelo_inurba_marseille","lat":43.30543,"lon":5.36541,"is_reserved":false,"is_disabled":false,"rental_uris":{"android":"levelo://app?vid=dd0cc133-0d17-46c8-8f5c-8de4d6eeb9e2","ios":"levelo://app?vid=dd0cc133-0d17-46c8-8f5c-8de4d6eeb9e2"},"vehicle_type_id":"4","last_reported":1738087932,"current_range_meters":12400,"station_id":"ce4bgs12rcd13ifvqcag","pricing_plan_id":"cebpf4jnsgd1na2vs0mg"},{"bike_id":"2e1341e3-b282-4e16-bf10-2162cfa834e3","system_id":"levelo_inurba_marseille","lat":43.30463,"lon":5.37902,"is_reserved":false,"is_disabled":false,"rental_uris":{"android":"levelo://app?vid=2e1341e3-b282-4e16-bf10-2162cfa834e3","ios":"levelo://app?vid=2e1341e3-b282-4e16-bf10-2162cfa834e3"},"vehicle_type_id":"4","last_reported":1738087932,"current_range_meters":20000,"station_id":"ce4bgup2rcd13ifvqcn0","pricing_plan_id":"cebpf4jnsgd1na2vs0mg"},{"bike_id":"3d98c6ce-e80d-46e8-b577-648cd8c28632","system_id":"levelo_inurba_marseille","lat":43.34699,"lon":5.34741,"is_reserved":false,"is_disabled":true,"rental_uris":{"android":"levelo://app?vid=3d98c6ce-e80d-46e8-b577-648cd8c28632","ios":"levelo://app?vid=3d98c6ce-e80d-46e8-b577-648cd8c28632"},"vehicle_type_id":"4","last_reported":1738087932,"current_range_meters":0,"station_id":"","pricing_plan_id":"cebpf4jnsgd1na2vs0mg"},{"bike_id":"3c529fa2-1929-4ffa-92b8-014d44266d67","system_id":"levelo_inurba_marseille","lat":43.3112,"lon":5.37763,"is_reserved":false,"is_disabled":false,"rental_uris":{"android":"levelo://app?vid=3c529fa2-1929-4ffa-92b8-014d44266d67","ios":"levelo://app?vid=3c529fa2-1929-4ffa-92b8-014d44266d67"},"vehicle_type_id":"4","last_reported":1738087932,"current_range_meters":12800,"station_id":"ce4bgt92rcd13ifvqcg0","pricing_plan_id":"cebpf4jnsgd1na2vs0mg"},{"bike_id":"4bb4f2ad-32f7-4de4-aefe-944acff7c8f5","system_id":"levelo_inurba_marseille","lat":43.26805,"lon":5.40252,"is_reserved":false,"is_disabled":true,"rental_uris":{"android":"levelo://app?vid=4bb4f2ad-32f7-4de4-aefe-944acff7c8f5","ios":"levelo://app?vid=4bb4f2ad-32f7-4de4-aefe-944acff7c8f5"},"vehicle_type_id":"4","last_reported":1738087932,"current_range_meters":18000,"station_id":"ce501612rcd8frsf0b60","pricing_plan_id":"cebpf4jnsgd1na2vs0mg"},{"bike_id":"9c6c808c-2344-4484-b654-8a68fb115aa6","system_id":"levelo_inurba_marseille","lat":43.31436,"lon":5.37383,"is_reserved":false,"is_disabled":false,"rental_uris":{"android":"levelo://app?vid=9c6c808c-2344-4484-b654-8a68fb115aa6","ios":"levelo://app?vid=9c6c808c-2344-4484-b654-8a68fb115aa6"},"vehicle_type_id":"4","last_reported":1738087932,"current_range_meters":33200,"station_id":"","pricing_plan_id":"cebpf4jnsgd1na2vs0mg"},{"bike_id":"52f87e90-bf56-40bc-a8fe-eede13792218","system_id":"levelo_inurba_marseille","lat":43.29429,"lon":5.39765,"is_reserved":false,"is_disabled":false,"rental_uris":{"android":"levelo://app?vid=52f87e90-bf56-40bc-a8fe-eede13792218","ios":"levelo://app?vid=52f87e90-bf56-40bc-a8fe-eede13792218"},"vehicle_type_id":"4","last_reported":1738087932,"current_range_meters":16800,"station_id":"ce4bh3h2rcd13ifvqdo0","pricing_plan_id":"cebpf4jnsgd1na2vs0mg"},{"bike_id":"216a9430-388c-490c-91f3-fd4b9e6affb4","system_id":"levelo_inurba_marseille","lat":43.30443,"lon":5.38885,"is_reserved":false,"is_disabled":false,"rental_uris":{"android":"levelo://app?vid=216a9430-388c-490c-91f3-fd4b9e6affb4","ios":"levelo://app?vid=216a9430-388c-490c-91f3-fd4b9e6affb4"},"vehicle_type_id":"4","last_reported":1738087932,"current_range_meters":19200,"station_id":"ce4bgk12rcd13ifvqbi0","pricing_plan_id":"cebpf4jnsgd1na2vs0mg"},{"bike_id":"deb89397-5ba4-4c45-8ba3-e75e8e8a5ca7","system_id":"levelo_inurba_marseille","lat":43.28616,"lon":5.35097,"is_reserved":false,"is_disabled":false,"rental_uris":{"android":"levelo://app?vid=deb89397-5ba4-4c45-8ba3-e75e8e8a5ca7","ios":"levelo://app?vid=deb89397-5ba4-4c45-8ba3-e75e8e8a5ca7"},"vehicle_type_id":"4","last_reported":1738087932,"current_range_meters":28400,"station_id":"ce4bhch2rcd13ifvqeug","pricing_plan_id":"cebpf4jnsgd1na2vs0mg"},{"bike_id":"61b9f22e-1f20-4b00-b80f-06b78f1e5f9c","system_id":"levelo_inurba_marseille","lat":43.30337,"lon":5.40423,"is_reserved":false,"is_disabled":false,"rental_uris":{"android":"levelo://app?vid=61b9f22e-1f20-4b00-b80f-06b78f1e5f9c","ios":"levelo://app?vid=61b9f22e-1f20-4b00-b80f-06b78f1e5f9c"},"vehicle_type_id":"4","last_reported":1738087932,"current_range_meters":38400,"station_id":"ce4bh012rcd13ifvqd10","pricing_plan_id":"cebpf4jnsgd1na2vs0mg"},{"bike_id":"f551484a-7cf5-41b6-803d-be8d6243ba86","system_id":"levelo_inurba_marseille","lat":43.2886,"lon":5.35857,"is_reserved":false,"is_disabled":false,"rental_uris":{"android":"levelo://app?vid=f551484a-7cf5-41b6-803d-be8d6243ba86","ios":"levelo://app?vid=f551484a-7cf5-41b6-803d-be8d6243ba86"},"vehicle_type_id":"4","last_reported":1738087932,"current_range_meters":19200,"station_id":"ce4bhb12rcd13ifvqem0","pricing_plan_id":"cebpf4jnsgd1na2vs0mg"},{"bike_id":"d70461f1-bcba-4660-8f3e-22f44266130c","system_id":"levelo_inurba_marseille","lat":43.26799,"lon":5.39397,"is_reserved":false,"is_disabled":false,"rental_uris":{"android":"levelo://app?vid=d70461f1-bcba-4660-8f3e-22f44266130c","ios":"levelo://app?vid=d70461f1-bcba-4660-8f3e-22f44266130c"},"vehicle_type_id":"4","last_reported":1738087932,"current_range_meters":38800,"station_id":"ce4bhh12rcd13ifvqfg0","pricing_plan_id":"cebpf4jnsgd1na2vs0mg"},{"bike_id":"dc79667d-47ea-4020-8f2a-03106bac9b1c","system_id":"levelo_inurba_marseille","lat":43.2866,"lon":5.36356,"is_reserved":false,"is_disabled":false,"rental_uris":{"android":"levelo://app?vid=dc79667d-47ea-4020-8f2a-03106bac9b1c","ios":"levelo://app?vid=dc79667d-47ea-4020-8f2a-03106bac9b1c"},"vehicle_type_id":"4","last_reported":1738087932,"current_range_meters":14800,"station_id":"ce4bhah2rcd13ifvqej0","pricing_plan_id":"cebpf4jnsgd1na2vs0mg"},{"bike_id":"ec098f85-99c2-4496-85ac-8004e92e052c","system_id":"levelo_inurba_marseille","lat":43.31363,"lon":5.38498,"is_reserved":false,"is_disabled":false,"rental_uris":{"android":"levelo://app?vid=ec098f85-99c2-4496-85ac-8004e92e052c","ios":"levelo://app?vid=ec098f85-99c2-4496-85ac-8004e92e052c"},"vehicle_type_id":"4","last_reported":1738087932,"current_range_meters":17200,"station_id":"ce4bgt92rcd13ifvqcf0","pricing_plan_id":"cebpf4jnsgd1na2vs0mg"},{"bike_id":"1cc72904-73db-4690-8d8d-9db3a2e22526","system_id":"levelo_inurba_marseille","lat":43.310727,"lon":5.42489,"is_reserved":false,"is_disabled":false,"rental_uris":{"android":"levelo://app?vid=1cc72904-73db-4690-8d8d-9db3a2e22526","ios":"levelo://app?vid=1cc72904-73db-4690-8d8d-9db3a2e22526"},"vehicle_type_id":"4","last_reported":1738087932,"current_range_meters":6000,"station_id":"ce4bhp92rcd13ifvqhag","pricing_plan_id":"cebpf4jnsgd1na2vs0mg"},{"bike_id":"1bc08e45-3260-4a7f-bf96-c4b9e9b7196f","system_id":"levelo_inurba_marseille","lat":43.29301,"lon":5.37469,"is_reserved":false,"is_disabled":false,"rental_uris":{"android":"levelo://app?vid=1bc08e45-3260-4a7f-bf96-c4b9e9b7196f","ios":"levelo://app?vid=1bc08e45-3260-4a7f-bf96-c4b9e9b7196f"},"vehicle_type_id":"4","last_reported":1738087932,"current_range_meters":29600,"station_id":"ce4bgi12rcd13ifvqb70","pricing_plan_id":"cebpf4jnsgd1na2vs0mg"},{"bike_id":"34dbb63a-57de-4db0-805b-7f8db253ddda","system_id":"levelo_inurba_marseille","lat":43.2548,"lon":5.37625,"is_reserved":false,"is_disabled":false,"rental_uris":{"android":"levelo://app?vid=34dbb63a-57de-4db0-805b-7f8db253ddda","ios":"levelo://app?vid=34dbb63a-57de-4db0-805b-7f8db253ddda"},"vehicle_type_id":"4","last_reported":1738087932,"current_range_meters":14400,"station_id":"ce4bhh12rcd13ifvqff0","pricing_plan_id":"cebpf4jnsgd1na2vs0mg"},{"bike_id":"5cf038e3-da9e-4312-b06d-c741f4cb7f67","system_id":"levelo_inurba_marseille","lat":43.26954,"lon":5.38626,"is_reserved":false,"is_disabled":true,"rental_uris":{"android":"levelo://app?vid=5cf038e3-da9e-4312-b06d-c741f4cb7f67","ios":"levelo://app?vid=5cf038e3-da9e-4312-b06d-c741f4cb7f67"},"vehicle_type_id":"4","last_reported":1738087932,"current_range_meters":38800,"station_id":"ce4bhh92rcd13ifvqfh0","pricing_plan_id":"cebpf4jnsgd1na2vs0mg"},{"bike_id":"d8e65285-ec7b-4141-8fba-6c9e2e77e40b","system_id":"levelo_inurba_marseille","lat":43.29781,"lon":5.37093,"is_reserved":false,"is_disabled":false,"rental_uris":{"android":"levelo://app?vid=d8e65285-ec7b-4141-8fba-6c9e2e77e40b","ios":"levelo://app?vid=d8e65285-ec7b-4141-8fba-6c9e2e77e40b"},"vehicle_type_id":"4","last_reported":1738087932,"current_range_meters":33600,"station_id":"ce4bgop2rcd13ifvqc1g","pricing_plan_id":"cebpf4jnsgd1na2vs0mg"},{"bike_id":"bc119764-a053-4194-8689-f485f7acc933","system_id":"levelo_inurba_marseille","lat":43.29051,"lon":5.39972,"is_reserved":false,"is_disabled":false,"rental_uris":{"android":"levelo://app?vid=bc119764-a053-4194-8689-f485f7acc933","ios":"levelo://app?vid=bc119764-a053-4194-8689-f485f7acc933"},"vehicle_type_id":"4","last_reported":1738087932,"current_range_meters":21600,"station_id":"ce4bh392rcd13ifvqdm0","pricing_plan_id":"cebpf4jnsgd1na2vs0mg"},{"bike_id":"887360b6-d874-45f8-b46b-d5b6bed7620a","system_id":"levelo_inurba_marseille","lat":43.32364,"lon":5.38884,"is_reserved":false,"is_disabled":false,"rental_uris":{"android":"levelo://app?vid=887360b6-d874-45f8-b46b-d5b6bed7620a","ios":"levelo://app?vid=887360b6-d874-45f8-b46b-d5b6bed7620a"},"vehicle_type_id":"4","last_reported":1738087932,"current_range_meters":4000,"station_id":"ce4bhqp2rcd13ifvqhog","pricing_plan_id":"cebpf4jnsgd1na2vs0mg"},{"bike_id":"20a34deb-238f-45e2-8e71-976d41387d13","system_id":"levelo_inurba_marseille","lat":43.31531,"lon":5.38043,"is_reserved":false,"is_disabled":false,"rental_uris":{"android":"levelo://app?vid=20a34deb-238f-45e2-8e71-976d41387d13","ios":"levelo://app?vid=20a34deb-238f-45e2-8e71-976d41387d13"},"vehicle_type_id":"4","last_reported":1738087932,"current_range_meters":9600,"station_id":"ce4bhsp2rcd13ifvqi50","pricing_plan_id":"cebpf4jnsgd1na2vs0mg"},{"bike_id":"916d12d4-934e-46e8-a8a1-82654fa32511","system_id":"levelo_inurba_marseille","lat":43.27797,"lon":5.40703,"is_reserved":false,"is_disabled":false,"rental_uris":{"android":"levelo://app?vid=916d12d4-934e-46e8-a8a1-82654fa32511","ios":"levelo://app?vid=916d12d4-934e-46e8-a8a1-82654fa32511"},"vehicle_type_id":"4","last_reported":1738087932,"current_range_meters":19200,"station_id":"ce4bhnh2rcd13ifvqgtg","pricing_plan_id":"cebpf4jnsgd1na2vs0mg"},{"bike_id":"4008c5d4-accb-4981-8933-9e85f4cde128","system_id":"levelo_inurba_marseille","lat":43.2319,"lon":5.35555,"is_reserved":false,"is_disabled":false,"rental_uris":{"android":"levelo://app?vid=4008c5d4-accb-4981-8933-9e85f4cde128","ios":"levelo://app?vid=4008c5d4-accb-4981-8933-9e85f4cde128"},"vehicle_type_id":"4","last_reported":1738087932,"current_range_meters":10800,"station_id":"ce4bhu92rcd13ifvqi70","pricing_plan_id":"cebpf4jnsgd1na2vs0mg"},{"bike_id":"7f7e898a-3071-42c7-bc00-ea1835347453","system_id":"levelo_inurba_marseille","lat":43.27564,"lon":5.38424,"is_reserved":false,"is_disabled":false,"rental_uris":{"android":"levelo://app?vid=7f7e898a-3071-42c7-bc00-ea1835347453","ios":"levelo://app?vid=7f7e898a-3071-42c7-bc00-ea1835347453"},"vehicle_type_id":"4","last_reported":1738087932,"current_range_meters":38800,"station_id":"ce4bhh92rcd13ifvqfi0","pricing_plan_id":"cebpf4jnsgd1na2vs0mg"},{"bike_id":"0e29aebb-96cc-458d-b413-6d65edc88e19","system_id":"levelo_inurba_marseille","lat":43.31357,"lon":5.39145,"is_reserved":false,"is_disabled":false,"rental_uris":{"android":"levelo://app?vid=0e29aebb-96cc-458d-b413-6d65edc88e19","ios":"levelo://app?vid=0e29aebb-96cc-458d-b413-6d65edc88e19"},"vehicle_type_id":"4","last_reported":1738087932,"current_range_meters":27200,"station_id":"","pricing_plan_id":"cebpf4jnsgd1na2vs0mg"},{"bike_id":"cef336cc-7db5-4799-b9ce-ade1b7d270e4","system_id":"levelo_inurba_marseille","lat":43.29586,"lon":5.36741,"is_reserved":false,"is_disabled":false,"rental_uris":{"android":"levelo://app?vid=cef336cc-7db5-4799-b9ce-ade1b7d270e4","ios":"levelo://app?vid=cef336cc-7db5-4799-b9ce-ade1b7d270e4"},