{"last_updated":1767024792,"ttl":60,"version":"2.2","data":{"bikes":[{"bike_id":"8526cb13-c70f-4134-9aed-80c4c9d31e4e","system_id":"levelo_inurba_marseille","lat":43.27895,"lon":5.39157,"is_reserved":false,"is_disabled":false,"rental_uris":{"android":"levelo://app?vid=8526cb13-c70f-4134-9aed-80c4c9d31e4e","ios":"levelo://app?vid=8526cb13-c70f-4134-9aed-80c4c9d31e4e"},"vehicle_type_id":"4","last_reported":1767024792,"current_range_meters":2800,"station_id":"","pricing_plan_id":"cebpf4jnsgd1na2vs0mg"},{"bike_id":"c08da696-3550-4cbd-9f09-e53cd993a8eb","system_id":"levelo_inurba_marseille","lat":43.28699,"lon":5.37382,"is_reserved":false,"is_disabled":false,"rental_uris":{"android":"levelo://app?vid=c08da696-3550-4cbd-9f09-e53cd993a8eb","ios":"levelo://app?vid=c08da696-3550-4cbd-9f09-e53cd993a8eb"},"vehicle_type_id":"4","last_reported":1767024792,"current_range_meters":2800,"station_id":"ce4bh3p2rcd13ifvqdq0","pricing_plan_id":"cebpf4jnsgd1na2vs0mg"},{"bike_id":"66d9e7c7-9ccb-43a3-bc2d-c9e38a296f4e","system_id":"levelo_inurba_marseille","lat":43.22571,"lon":5.41615,"is_reserved":false,"is_disabled":false,"rental_uris":{"android":"levelo://app?vid=66d9e7c7-9ccb-43a3-bc2d-c9e38a296f4e","ios":"levelo://app?vid=66d9e7c7-9ccb-43a3-bc2d-c9e38a296f4e"},"vehicle_type_id":"4","last_reported":1767024792,"current_range_meters":2800,"station_id":"st_d2o4gvlbi1j2169b742g","pricing_plan_id":"cebpf4jnsgd1na2vs0mg"},{"bike_id":"d5157bc4-281e-4273-a854-3dd0ece413ba","system_id":"levelo_inurba_marseille","lat":43.307343,"lon":5.424365,"is_reserved":false,"is_disabled":false,"rental_uris":{"android":"levelo://app?vid=d5157bc4-281e-4273-a854-3dd0ece413ba","ios":"levelo://app?vid=d5157bc4-281e-4273-a854-3dd0ece413ba"},"vehicle_type_id":"4","last_reported":1767024792,"current_range_meters":3200,"station_id":"st_cvj6ca6bvosntc0bfgr0","pricing_plan_id":"cebpf4jnsgd1na2vs0mg"},{"bike_id":"7a5a94c6-bc33-4832-b8c6-914be10b83a0","system_id":"levelo_inurba_marseille","lat":43.295805,"lon":5.375136,"is_reserved":false,"is_disabled":false,"rental_uris":{"android":"levelo://app?vid=7a5a94c6-bc33-4832-b8c6-914be10b83a0","ios":"levelo://app?vid=7a5a94c6-bc33-4832-b8c6-914be10b83a0"},"vehicle_type_id":"4","last_reported":1767024792,"current_range_meters":3200,"station_id":"ce4bgh92rcd13ifvqb50","pricing_plan_id":"cebpf4jnsgd1na2vs0mg"},{"bike_id":"52e58ec2-5572-4d42-9144-41eb7905f5d6","system_id":"levelo_inurba_marseille","lat":43.28707,"lon":5.37933,"is_reserved":false,"is_disabled":false,"rental_uris":{"android":"levelo://app?vid=52e58ec2-5572-4d42-9144-41eb7905f5d6","ios":"levelo://app?vid=52e58ec2-5572-4d42-9144-41eb7905f5d6"},"vehicle_type_id":"4","last_reported":1767024792,"current_range_meters":3600,"station_id":"ce4bh9p2rcd13ifvqec0","pricing_plan_id":"cebpf4jnsgd1na2vs0mg"},{"bike_id":"ed29a0e9-8b46-47c3-95bd-c44aa5efac03","system_id":"levelo_inurba_marseille","lat":43.260201,"lon":5.395156,"is_reserved":false,"is_disabled":false,"rental_uris":{"android":"levelo://app?vid=ed29a0e9-8b46-47c3-95bd-c44aa5efac03","ios":"levelo://app?vid=ed29a0e9-8b46-47c3-95bd-c44aa5efac03"},"vehicle_type_id":"4","last_reported":1767024792,"current_range_meters":4000,"station_id":"ce4bhh92rcd13ifvqfj0","pricing_plan_id":"cebpf4jnsgd1na2vs0mg"},{"bike_id":"8280e7e2-969a-4eac-bf35-2069bb01e0ff","system_id":"levelo_inurba_marseille","lat":43.3234,"lon":5.36722,"is_reserved":false,"is_disabled":false,"rental_uris":{"android":"levelo://app?vid=8280e7e2-969a-4eac-bf35-2069bb01e0ff","ios":"levelo://app?vid=8280e7e2-969a-4eac-bf35-2069bb01e0ff"},"vehicle_type_id":"4","last_reported":1767024792,"current_range_meters":4400,"station_id":"ce4bhsh2rcd13ifvqi2g","pricing_plan_id":"cebpf4jnsgd1na2vs0mg"},{"bike_id":"e84c9e5b-ac18-42dc-b1a0-a8e560bda7f4","system_id":"levelo_inurba_marseille","lat":43.30574,"lon":5.36523,"is_reserved":false,"is_disabled":false,"rental_uris":{"android":"levelo://app?vid=e84c9e5b-ac18-42dc-b1a0-a8e560bda7f4","ios":"levelo://app?vid=e84c9e5b-ac18-42dc-b1a0-a8e560bda7f4"},"vehicle_type_id":"4","last_reported":1767024792,"current_range_meters":4800,"station_id":"ce4bgs12rcd13ifvqcag","pricing_plan_id":"cebpf4jnsgd1na2vs0mg"},{"bike_id":"18a0e984-004f-4139-887f-dbca6335287d","system_id":"levelo_inurba_marseille","lat":43.25576,"lon":5.38233,"is_reserved":false,"is_disabled":false,"rental_uris":{"android":"levelo://app?vid=18a0e984-004f-4139-887f-dbca6335287d","ios":"levelo://app?vid=18a0e984-004f-4139-887f-dbca6335287d"},"vehicle_type_id":"4","last_reported":1767024792,"current_range_meters":4800,"station_id":"ce4bhih2rcd13ifvqfs0","pricing_plan_id":"cebpf4jnsgd1na2vs0mg"},{"bike_id":"a227823c-7ec0-4e12-979c-95529bf5ee7c","system_id":"levelo_inurba_marseille","lat":43.26553,"lon":5.37285,"is_reserved":false,"is_disabled":false,"rental_uris":{"android":"levelo://app?vid=a227823c-7ec0-4e12-979c-95529bf5ee7c","ios":"levelo://app?vid=a227823c-7ec0-4e12-979c-95529bf5ee7c"},"vehicle_type_id":"4","last_reported":1767024792,"current_range_meters":5600,"station_id":"ce4bhg12rcd13ifvqf70","pricing_plan_id":"cebpf4jnsgd1na2vs0mg"},{"bike_id":"3239c13c-9547-4d40-80c9-b5cd2a78d63f","system_id":"levelo_inurba_marseille","lat":43.23195,"lon":5.3555,"is_reserved":false,"is_disabled":false,"rental_uris":{"android":"levelo://app?vid=3239c13c-9547-4d40-80c9-b5cd2a78d63f","ios":"levelo://app?vid=3239c13c-9547-4d40-80c9-b5cd2a78d63f"},"vehicle_type_id":"4","last_reported":1767024792,"current_range_meters":5600,"station_id":"ce4bhu92rcd13ifvqi70","pricing_plan_id":"cebpf4jnsgd1na2vs0mg"},{"bike_id":"3e7e1220-648b-4b63-ae22-365b2db0274e","system_id":"levelo_inurba_marseille","lat":43.2178,"lon":5.34584,"is_reserved":false,"is_disabled":false,"rental_uris":{"android":"levelo://app?vid=3e7e1220-648b-4b63-ae22-365b2db0274e","ios":"levelo://app?vid=3e7e1220-648b-4b63-ae22-365b2db0274e"},"vehicle_type_id":"4","last_reported":1767024792,"current_range_meters":5600,"station_id":"st_cvj6r9ubvosntc0bgbag","pricing_plan_id":"cebpf4jnsgd1na2vs0mg"},{"bike_id":"1747afe2-b652-4c78-a9fc-8eca7690c47e","system_id":"levelo_inurba_marseille","lat":43.30458,"lon":5.37902,"is_reserved":false,"is_disabled":false,"rental_uris":{"android":"levelo://app?vid=1747afe2-b652-4c78-a9fc-8eca7690c47e","ios":"levelo://app?vid=1747afe2-b652-4c78-a9fc-8eca7690c47e"},"vehicle_type_id":"4","last_reported":1767024792,"current_range_meters":6000,"station_id":"ce4bgup2rcd13ifvqcn0","pricing_plan_id":"cebpf4jnsgd1na2vs0mg"},{"bike_id":"b03b30f3-8010-43ee-a03f-8f6cad329432","system_id":"levelo_inurba_marseille","lat":43.29271,"lon":5.40115,"is_reserved":false,"is_disabled":false,"rental_uris":{"android":"levelo://app?vid=b03b30f3-8010-43ee-a03f-8f6cad329432","ios":"levelo://app?vid=b03b30f3-8010-43ee-a03f-8f6cad329432"},"vehicle_type_id":"4","last_reported":1767024792,"current_range_meters":6000,"station_id":"ce4bh312rcd13ifvqdk0","pricing_plan_id":"cebpf4jnsgd1na2vs0mg"},{"bike_id":"955adfe1-7644-42d9-ba8a-77dc59adf72a","system_id":"levelo_inurba_marseille","lat":43.21741,"lon":5.34599,"is_reserved":false,"is_disabled":false,"rental_uris":{"android":"levelo://app?vid=955adfe1-7644-42d9-ba8a-77dc59adf72a","ios":"levelo://app?vid=955adfe1-7644-42d9-ba8a-77dc59adf72a"},"vehicle_type_id":"4","last_reported":1767024792,"current_range_meters":6000,"station_id":"","pricing_plan_id":"cebpf4jnsgd1na2vs0mg"},{"bike_id":"c93bbf3c-9650-44c3-9782-9bef181a9bed","system_id":"levelo_inurba_marseille","lat":43.24763,"lon":5.37564,"is_reserved":false,"is_disabled":false,"rental_uris":{"android":"levelo://app?vid=c93bbf3c-9650-44c3-9782-9bef181a9bed","ios":"levelo://app?vid=c93bbf3c-9650-44c3-9782-9bef181a9bed"},"vehicle_type_id":"4","last_reported":1767024792,"current_range_meters":6000,"station_id":"","pricing_plan_id":"cebpf4jnsgd1na2vs0mg"},{"bike_id":"ec3a3c86-9abd-43c8-b159-b95b9b1267ed","system_id":"levelo_inurba_marseille","lat":43.28823,"lon":5.35543,"is_reserved":false,"is_disabled":false,"rental_uris":{"android":"levelo://app?vid=ec3a3c86-9abd-43c8-b159-b95b9b1267ed","ios":"levelo://app?vid=ec3a3c86-9abd-43c8-b159-b95b9b1267ed"},"vehicle_type_id":"4","last_reported":1767024792,"current_range_meters":6000,"station_id":"","pricing_plan_id":"cebpf4jnsgd1na2vs0mg"},{"bike_id":"90e6ccf6-2539-4f19-826f-d4eb958d775e","system_id":"levelo_inurba_marseille","lat":43.29525,"lon":5.3903,"is_reserved":false,"is_disabled":false,"rental_uris":{"android":"levelo://app?vid=90e6ccf6-2539-4f19-826f-d4eb958d775e","ios":"levelo://app?vid=90e6ccf6-2539-4f19-826f-d4eb958d775e"},"vehicle_type_id":"4","last_reported":1767024792,"current_range_meters":6400,"station_id":"ce4bh3p2rcd13ifvqdp0","pricing_plan_id":"cebpf4jnsgd1na2vs0mg"},{"bike_id":"b2958e0b-dcce-4b93-b93b-c1cae502cb6b","system_id":"levelo_inurba_marseille","lat":43.28857,"lon":5.35851,"is_reserved":false,"is_disabled":false,"rental_uris":{"android":"levelo://app?vid=b2958e0b-dcce-4b93-b93b-c1cae502cb6b","ios":"levelo://app?vid=b2958e0b-dcce-4b93-b93b-c1cae502cb6b"},"vehicle_type_id":"4","last_reported":1767024792,"current_range_meters":6400,"station_id":"ce4bhb12rcd13ifvqem0","pricing_plan_id":"cebpf4jnsgd1na2vs0mg"},{"bike_id":"d4f4a701-16e2-42c5-bf72-5ec7f82e0080","system_id":"levelo_inurba_marseille","lat":43.2465,"lon":5.38892,"is_reserved":false,"is_disabled":false,"rental_uris":{"android":"levelo://app?vid=d4f4a701-16e2-42c5-bf72-5ec7f82e0080","ios":"levelo://app?vid=d4f4a701-16e2-42c5-bf72-5ec7f82e0080"},"vehicle_type_id":"4","last_reported":1767024792,"current_range_meters":6400,"station_id":"ce4bhg12rcd13ifvqf60","pricing_plan_id":"cebpf4jnsgd1na2vs0mg"},{"bike_id":"94b65cfe-edaf-4322-865d-06eff46e3ede","system_id":"levelo_inurba_marseille","lat":43.300355,"lon":5.373565,"is_reserved":false,"is_disabled":false,"rental_uris":{"android":"levelo://app?vid=94b65cfe-edaf-4322-865d-06eff46e3ede","ios":"levelo://app?vid=94b65cfe-edaf-4322-865d-06eff46e3ede"},"vehicle_type_id":"4","last_reported":1767024792,"current_range_meters":6400,"station_id":"","pricing_plan_id":"cebpf4jnsgd1na2vs0mg"},{"bike_id":"17a49efb-d179-4b85-b20c-4afe87c0613f","system_id":"levelo_inurba_marseille","lat":43.31062,"lon":5.37192,"is_reserved":false,"is_disabled":true,"rental_uris":{"android":"levelo://app?vid=17a49efb-d179-4b85-b20c-4afe87c0613f","ios":"levelo://app?vid=17a49efb-d179-4b85-b20c-4afe87c0613f"},"vehicle_type_id":"4","last_reported":1767024792,"current_range_meters":6400,"station_id":"st_d4kl2rp97mjs73e7tdfg","pricing_plan_id":"cebpf4jnsgd1na2vs0mg"},{"bike_id":"6338b996-80b0-4dcb-9069-5e1cac42e071","system_id":"levelo_inurba_marseille","lat":43.30458,"lon":5.379,"is_reserved":false,"is_disabled":false,"rental_uris":{"android":"levelo://app?vid=6338b996-80b0-4dcb-9069-5e1cac42e071","ios":"levelo://app?vid=6338b996-80b0-4dcb-9069-5e1cac42e071"},"vehicle_type_id":"4","last_reported":1767024792,"current_range_meters":6800,"station_id":"ce4bgup2rcd13ifvqcn0","pricing_plan_id":"cebpf4jnsgd1na2vs0mg"},{"bike_id":"08f4624a-a23d-4738-b794-a8bd53bfd7e8","system_id":"levelo_inurba_marseille","lat":43.298458,"lon":5.376545,"is_reserved":false,"is_disabled":false,"rental_uris":{"android":"levelo://app?vid=08f4624a-a23d-4738-b794-a8bd53bfd7e8","ios":"levelo://app?vid=08f4624a-a23d-4738-b794-a8bd53bfd7e8"},"vehicle_type_id":"4","last_reported":1767024792,"current_range_meters":6800,"station_id":"","pricing_plan_id":"cebpf4jnsgd1na2vs0mg"},{"bike_id":"36e3ab74-d85b-46de-9904-53928a1da310","system_id":"levelo_inurba_marseille","lat":43.25673,"lon":5.40018,"is_reserved":false,"is_disabled":false,"rental_uris":{"android":"levelo://app?vid=36e3ab74-d85b-46de-9904-53928a1da310","ios":"levelo://app?vid=36e3ab74-d85b-46de-9904-53928a1da310"},"vehicle_type_id":"4","last_reported":1767024792,"current_range_meters":6800,"station_id":"","pricing_plan_id":"cebpf4jnsgd1na2vs0mg"},{"bike_id":"7451e2f1-97cc-4a6a-824e-1c725c74e9d6","system_id":"levelo_inurba_marseille","lat":43.2928,"lon":5.3733,"is_reserved":false,"is_disabled":false,"rental_uris":{"android":"levelo://app?vid=7451e2f1-97cc-4a6a-824e-1c725c74e9d6","ios":"levelo://app?vid=7451e2f1-97cc-4a6a-824e-1c725c74e9d6"},"vehicle_type_id":"4","last_reported":1767024792,"current_range_meters":6800,"station_id":"","pricing_plan_id":"cebpf4jnsgd1na2vs0mg"},{"bike_id":"b8359eb8-309f-4919-a9d8-14bc8a289068","system_id":"levelo_inurba_marseille","lat":43.29845,"lon":5.381046,"is_reserved":false,"is_disabled":false,"rental_uris":{"android":"levelo://app?vid=b8359eb8-309f-4919-a9d8-14bc8a289068","ios":"levelo://app?vid=b8359eb8-309f-4919-a9d8-14bc8a289068"},"vehicle_type_id":"4","last_reported":1767024792,"current_range_meters":6800,"station_id":"","pricing_plan_id":"cebpf4jnsgd1na2vs0mg"},{"bike_id":"4bcf7794-f5d7-43b0-8d9c-dc5cb2dbd8e3","system_id":"levelo_inurba_marseille","lat":43.3128,"lon":5.40157,"is_reserved":false,"is_disabled":false,"rental_uris":{"android":"levelo://app?vid=4bcf7794-f5d7-43b0-8d9c-dc5cb2dbd8e3","ios":"levelo://app?vid=4bcf7794-f5d7-43b0-8d9c-dc5cb2dbd8e3"},"vehicle_type_id":"4","last_reported":1767024792,"current_range_meters":6800,"station_id":"ce4bh092rcd13ifvqd30","pricing_plan_id":"cebpf4jnsgd1na2vs0mg"},{"bike_id":"edc4487a-8f1c-46cb-9445-913fd3dea420","system_id":"levelo_inurba_marseille","lat":43.285132,"lon":5.397718,"is_reserved":false,"is_disabled":false,"rental_uris":{"android":"levelo://app?vid=edc4487a-8f1c-46cb-9445-913fd3dea420","ios":"levelo://app?vid=edc4487a-8f1c-46cb-9445-913fd3dea420"},"vehicle_type_id":"4","last_reported":1767024792,"current_range_meters":6800,"station_id":"ce4bho92rcd13ifvqh3g","pricing_plan_id":"cebpf4jnsgd1na2vs0mg"},{"bike_id":"4e41f32f-f7b2-4a9f-b30c-7c39bd48bf68","system_id":"levelo_inurba_marseille","lat":43.29773,"lon":5.38083,"is_reserved":false,"is_disabled":false,"rental_uris":{"android":"levelo://app?vid=4e41f32f-f7b2-4a9f-b30c-7c39bd48bf68","ios":"levelo://app?vid=4e41f32f-f7b2-4a9f-b30c-7c39bd48bf68"},"vehicle_type_id":"4","last_reported":1767024792,"current_range_meters":7200,"station_id":"ce4bgip2rcd13ifvqbb0","pricing_plan_id":"cebpf4jnsgd1na2vs0mg"},{"bike_id":"03b90b08-7107-4323-a3fb-ee0aa078f40f","system_id":"levelo_inurba_marseille","lat":43.24809,"lon":5.37457,"is_reserved":false,"is_disabled":false,"rental_uris":{"android":"levelo://app?vid=03b90b08-7107-4323-a3fb-ee0aa078f40f","ios":"levelo://app?vid=03b90b08-7107-4323-a3fb-ee0aa078f40f"},"vehicle_type_id":"4","last_reported":1767024792,"current_range_meters":7200,"station_id":"ce4bhgh2rcd13ifvqfb0","pricing_plan_id":"cebpf4jnsgd1na2vs0mg"},{"bike_id":"6f43cfcd-5b7c-4880-b513-fb31e9502d04","system_id":"levelo_inurba_marseille","lat":43.28012,"lon":5.44024,"is_reserved":false,"is_disabled":false,"rental_uris":{"android":"levelo://app?vid=6f43cfcd-5b7c-4880-b513-fb31e9502d04","ios":"levelo://app?vid=6f43cfcd-5b7c-4880-b513-fb31e9502d04"},"vehicle_type_id":"4","last_reported":1767024792,"current_range_meters":7200,"station_id":"","pricing_plan_id":"cebpf4jnsgd1na2vs0mg"},{"bike_id":"d6a449d9-67ef-4444-ae17-bd1e29b48728","system_id":"levelo_inurba_marseille","lat":43.285767,"lon":5.429835,"is_reserved":false,"is_disabled":false,"rental_uris":{"android":"levelo://app?vid=d6a449d9-67ef-4444-ae17-bd1e29b48728","ios":"levelo://app?vid=d6a449d9-67ef-4444-ae17-bd1e29b48728"},"vehicle_type_id":"4","last_reported":1767024792,"current_range_meters":7200,"station_id":"","pricing_plan_id":"cebpf4jnsgd1na2vs0mg"},{"bike_id":"9a43a5e8-9dd0-4ba0-b8c7-f97f6613ab07","system_id":"levelo_inurba_marseille","lat":43.29166,"lon":5.37147,"is_reserved":false,"is_disabled":false,"rental_uris":{"android":"levelo://app?vid=9a43a5e8-9dd0-4ba0-b8c7-f97f6613ab07","ios":"levelo://app?vid=9a43a5e8-9dd0-4ba0-b8c7-f97f6613ab07"},"vehicle_type_id":"4","last_reported":1767024792,"current_range_meters":7200,"station_id":"ce4bha92rcd13ifvqeh0","pricing_plan_id":"cebpf4jnsgd1na2vs0mg"},{"bike_id":"ed6947c3-3f4b-4eb2-b406-979f0bce019f","system_id":"levelo_inurba_marseille","lat":43.3122,"lon":5.36846,"is_reserved":false,"is_disabled":false,"rental_uris":{"android":"levelo://app?vid=ed6947c3-3f4b-4eb2-b406-979f0bce019f","ios":"levelo://app?vid=ed6947c3-3f4b-4eb2-b406-979f0bce019f"},"vehicle_type_id":"4","last_reported":1767024792,"current_range_meters":8000,"station_id":"ce4bgl92rcd13ifvqbq0","pricing_plan_id":"cebpf4jnsgd1na2vs0mg"},{"bike_id":"00a2c6ad-a711-4f2a-8e27-9524ad0f1faa","system_id":"levelo_inurba_marseille","lat":43.27059,"lon":5.40255,"is_reserved":false,"is_disabled":false,"rental_uris":{"android":"levelo://app?vid=00a2c6ad-a711-4f2a-8e27-9524ad0f1faa","ios":"levelo://app?vid=00a2c6ad-a711-4f2a-8e27-9524ad0f1faa"},"vehicle_type_id":"4","last_reported":1767024792,"current_range_meters":8000,"station_id":"ce4bhk92rcd13ifvqgc0","pricing_plan_id":"cebpf4jnsgd1na2vs0mg"},{"bike_id":"d6e88a96-e819-42ed-ba47-0ad831dd2b72","system_id":"levelo_inurba_marseille","lat":43.295837,"lon":5.375172,"is_reserved":false,"is_disabled":false,"rental_uris":{"android":"levelo://app?vid=d6e88a96-e819-42ed-ba47-0ad831dd2b72","ios":"levelo://app?vid=d6e88a96-e819-42ed-ba47-0ad831dd2b72"},"vehicle_type_id":"4","last_reported":1767024792,"current_range_meters":8000,"station_id":"ce4bgh92rcd13ifvqb50","pricing_plan_id":"cebpf4jnsgd1na2vs0mg"},{"bike_id":"13fe7d34-8cd4-4100-a7c6-d278d7140658","system_id":"levelo_inurba_marseille","lat":43.2605,"lon":5.37561,"is_reserved":false,"is_disabled":false,"rental_uris":{"android":"levelo://app?vid=13fe7d34-8cd4-4100-a7c6-d278d7140658","ios":"levelo://app?vid=13fe7d34-8cd4-4100-a7c6-d278d7140658"},"vehicle_type_id":"4","last_reported":1767024792,"current_range_meters":8000,"station_id":"ce4bhgh2rcd13ifvqfa0","pricing_plan_id":"cebpf4jnsgd1na2vs0mg"},{"bike_id":"84705534-9afe-4b45-abf1-e35c1e6f6310","system_id":"levelo_inurba_marseille","lat":43.29298,"lon":5.37451,"is_reserved":false,"is_disabled":false,"rental_uris":{"android":"levelo://app?vid=84705534-9afe-4b45-abf1-e35c1e6f6310","ios":"levelo://app?vid=84705534-9afe-4b45-abf1-e35c1e6f6310"},"vehicle_type_id":"4","last_reported":1767024792,"current_range_meters":8000,"station_id":"ce4bgi12rcd13ifvqb70","pricing_plan_id":"cebpf4jnsgd1na2vs0mg"},{"bike_id":"8bba8d40-aa25-4081-b344-b21d158dffa6","system_id":"levelo_inurba_marseille","lat":43.21197,"lon":5.3506,"is_reserved":false,"is_disabled":false,"rental_uris":{"android":"levelo://app?vid=8bba8d40-aa25-4081-b344-b21d158dffa6","ios":"levelo://app?vid=8bba8d40-aa25-4081-b344-b21d158dffa6"},"vehicle_type_id":"4","last_reported":1767024792,"current_range_meters":8400,"station_id":"st_cvj6sg6p6f1abm77japg","pricing_plan_id":"cebpf4jnsgd1na2vs0mg"},{"bike_id":"81062f73-91d6-4254-837a-3a79f2f3a1d9","system_id":"levelo_inurba_marseille","lat":43.28128,"lon":5.38918,"is_reserved":false,"is_disabled":false,"rental_uris":{"android":"levelo://app?vid=81062f73-91d6-4254-837a-3a79f2f3a1d9","ios":"levelo://app?vid=81062f73-91d6-4254-837a-3a79f2f3a1d9"},"vehicle_type_id":"4","last_reported":1767024792,"current_range_meters":8400,"station_id":"","pricing_plan_id":"cebpf4jnsgd1na2vs0mg"},{"bike_id":"9588ca58-2342-4a49-abb9-03a91784069f","system_id":"levelo_inurba_marseille","lat":43.28714,"lon":5.39977,"is_reserved":false,"is_disabled":false,"rental_uris":{"android":"levelo://app?vid=9588ca58-2342-4a49-abb9-03a91784069f","ios":"levelo://app?vid=9588ca58-2342-4a49-abb9-03a91784069f"},"vehicle_type_id":"4","last_reported":1767024792,"current_range_meters":8400,"station_id":"ce4bho92rcd13ifvqh3g","pricing_plan_id":"cebpf4jnsgd1na2vs0mg"},{"bike_id":"b672c522-aca1-4885-98f6-4e99eceec109","system_id":"levelo_inurba_marseille","lat":43.30084,"lon":5.38654,"is_reserved":false,"is_disabled":false,"rental_uris":{"android":"levelo://app?vid=b672c522-aca1-4885-98f6-4e99eceec109","ios":"levelo://app?vid=b672c522-aca1-4885-98f6-4e99eceec109"},"vehicle_type_id":"4","last_reported":1767024792,"current_range_meters":8800,"station_id":"","pricing_plan_id":"cebpf4jnsgd1na2vs0mg"},{"bike_id":"d07dc22c-a864-4104-81e7-c60339403064","system_id":"levelo_inurba_marseille","lat":43.29642,"lon":5.38135,"is_reserved":false,"is_disabled":false,"rental_uris":{"android":"levelo://app?vid=d07dc22c-a864-4104-81e7-c60339403064","ios":"levelo://app?vid=d07dc22c-a864-4104-81e7-c60339403064"},"vehicle_type_id":"4","last_reported":1767024792,"current_range_meters":8800,"station_id":"","pricing_plan_id":"cebpf4jnsgd1na2vs0mg"},{"bike_id":"c51301be-aa87-4830-8cdc-99d533c9e895","system_id":"levelo_inurba_marseille","lat":43.280362,"lon":5.369472,"is_reserved":false,"is_disabled":false,"rental_uris":{"android":"levelo://app?vid=c51301be-aa87-4830-8cdc-99d533c9e895","ios":"levelo://app?vid=c51301be-aa87-4830-8cdc-99d533c9e895"},"vehicle_type_id":"4","last_reported":1767024792,"current_range_meters":8800,"station_id":"ce4bha12rcd13ifvqef0","pricing_plan_id":"cebpf4jnsgd1na2vs0mg"},{"bike_id":"df08bb70-73d1-4c47-bc2c-42752eed70dd","system_id":"levelo_inurba_marseille","lat":43.2919,"lon":5.39314,"is_reserved":false,"is_disabled":false,"rental_uris":{"android":"levelo://app?vid=df08bb70-73d1-4c47-bc2c-42752eed70dd","ios":"levelo://app?vid=df08bb70-73d1-4c47-bc2c-42752eed70dd"},"vehicle_type_id":"4","last_reported":1767024792,"current_range_meters":8800,"station_id":"ce4bh192rcd13ifvqdd0","pricing_plan_id":"cebpf4jnsgd1na2vs0mg"},{"bike_id":"c342fbd5-df63-43d2-911d-bfa0fcc44689","system_id":"levelo_inurba_marseille","lat":43.33089,"lon":5.4104,"is_reserved":false,"is_disabled":false,"rental_uris":{"android":"levelo://app?vid=c342fbd5-df63-43d2-911d-bfa0fcc44689","ios":"levelo://app?vid=c342fbd5-df63-43d2-911d-bfa0fcc44689"},"vehicle_type_id":"4","last_reported":1767024792,"current_range_meters":8800,"station_id":"","pricing_plan_id":"cebpf4jnsgd1na2vs0mg"},{"bike_id":"ecc6083e-67e0-4b76-a541-33709fea5c37","system_id":"levelo_inurba_marseille","lat":43.248244,"lon":5.374716,"is_reserved":false,"is_disabled":false,"rental_uris":{"android":"levelo://app?vid=ecc6083e-67e0-4b76-a541-33709fea5c37","ios":"levelo://app?vid=ecc6083e-67e0-4b76-a541-33709fea5c37"},"vehicle_type_id":"4","last_reported":1767024792,"current_range_meters":8800,"station_id":"ce4bhgh2rcd13ifvqfb0","pricing_plan_id":"cebpf4jnsgd1na2vs0mg"},{"bike_id":"5f26fd32-d57c-4a0b-a416-65f73ea2479e","system_id":"levelo_inurba_marseille","lat":43.32781,"lon":5.40659,"is_reserved":false,"is_disabled":false,"rental_uris":{"android":"levelo://app?vid=5f26fd32-d57c-4a0b-a416-65f73ea2479e","ios":"levelo://app?vid=5f26fd32-d57c-4a0b-a416-65f73ea2479e"},"vehicle_type_id":"4","last_reported":1767024792,"current_range_meters":8800,"station_id":"","pricing_plan_id":"cebpf4jnsgd1na2vs0mg"},{"bike_id":"49166d3a-7d57-41ae-b5e6-9a6cbabce031","system_id":"levelo_inurba_marseille","lat":43.29686,"lon":5.36771,"is_reserved":false,"is_disabled":false,"rental_uris":{"android":"levelo://app?vid=49166d3a-7d57-41ae-b5e6-9a6cbabce031","ios":"levelo://app?vid=49166d3a-7d57-41ae-b5e6-9a6cbabce031"},"vehicle_type_id":"4","last_reported":1767024792,"current_range_meters":9200,"station_id":"","pricing_plan_id":"cebpf4jnsgd1na2vs0mg"},{"bike_id":"409f22f5-c320-45ca-851d-1966d2bb3619","system_id":"levelo_inurba_marseille","lat":43.30764,"lon":5.37025,"is_reserved":false,"is_disabled":false,"rental_uris":{"android":"levelo://app?vid=409f22f5-c320-45ca-851d-1966d2bb3619","ios":"levelo://app?vid=409f22f5-c320-45ca-851d-1966d2bb3619"},"vehicle_type_id":"4","last_reported":1767024792,"current_range_meters":9200,"station_id":"","pricing_plan_id":"cebpf4jnsgd1na2vs0mg"},{"bike_id":"959f4659-d365-4ff3-8e93-16417568f80d","system_id":"levelo_inurba_marseille","lat":43.296304,"lon":5.377895,"is_reserved":false,"is_disabled":false,"rental_uris":{"android":"levelo://app?vid=959f4659-d365-4ff3-8e93-16417568f80d","ios":"levelo://app?vid=959f4659-d365-4ff3-8e93-16417568f80d"},"vehicle_type_id":"4","last_reported":1767024792,"current_range_meters":9200,"station_id":"","pricing_plan_id":"cebpf4jnsgd1na2vs0mg"},{"bike_id":"e4b48d40-ab45-4755-976b-4f0313b43dfa","system_id":"levelo_inurba_marseille","lat":43.273852,"lon":5.390408,"is_reserved":false,"is_disabled":false,"rental_uris":{"android":"levelo://app?vid=e4b48d40-ab45-4755-976b-4f0313b43dfa","ios":"levelo://app?vid=e4b48d40-ab45-4755-976b-4f0313b43dfa"},"vehicle_type_id":"4","last_reported":1767024792,"current_range_meters":9200,"station_id":"","pricing_plan_id":"cebpf4jnsgd1na2vs0mg"},{"bike_id":"8c27f8dd-49de-48cb-b4c0-2c146ce86148","system_id":"levelo_inurba_marseille","lat":43.29589,"lon":5.38131,"is_reserved":false,"is_disabled":false,"rental_uris":{"android":"levelo://app?vid=8c27f8dd-49de-48cb-b4c0-2c146ce86148","ios":"levelo://app?vid=8c27f8dd-49de-48cb-b4c0-2c146ce86148"},"vehicle_type_id":"4","last_reported":1767024792,"current_range_meters":9200,"station_id":"ce4bgl12rcd13ifvqbo0","pricing_plan_id":"cebpf4jnsgd1na2vs0mg"},{"bike_id":"f1e029ec-966a-4c18-90a6-6313298321ec","system_id":"levelo_inurba_marseille","lat":43.2423,"lon":5.393436,"is_reserved":false,"is_disabled":false,"rental_uris":{"android":"levelo://app?vid=f1e029ec-966a-4c18-90a6-6313298321ec","ios":"levelo://app?vid=f1e029ec-966a-4c18-90a6-6313298321ec"},"vehicle_type_id":"4","last_reported":1767024792,"current_range_meters":9200,"station_id":"","pricing_plan_id":"cebpf4jnsgd1na2vs0mg"},{"bike_id":"31704bec-4f9a-49bc-bf97-b66633aba2e8","system_id":"levelo_inurba_marseille","lat":43.26033,"lon":5.41723,"is_reserved":false,"is_disabled":false,"rental_uris":{"android":"levelo://app?vid=31704bec-4f9a-49bc-bf97-b66633aba2e8","ios":"levelo://app?vid=31704bec-4f9a-49bc-bf97-b66633aba2e8"},"vehicle_type_id":"4","last_reported":1767024792,"current_range_meters":9200,"station_id":"","pricing_plan_id":"cebpf4jnsgd1na2vs0mg"},{"bike_id":"93238dbe-7e18-4ff9-acc5-cf08ef47ac5a","system_id":"levelo_inurba_marseille","lat":43.27426,"lon":5.41462,"is_reserved":false,"is_disabled":false,"rental_uris":{"android":"levelo://app?vid=93238dbe-7e18-4ff9-acc5-cf08ef47ac5a","ios":"levelo://app?vid=93238dbe-7e18-4ff9-acc5-cf08ef47ac5a"},"vehicle_type_id":"4","last_reported":1767024792,"current_range_meters":9600,"station_id":"","pricing_plan_id":"cebpf4jnsgd1na2vs0mg"},{"bike_id":"108f9e54-1a6b-4b8e-98bf-46ffc09d1c52","system_id":"levelo_inurba_marseille","lat":43.24314,"lon":5.39233,"is_reserved":false,"is_disabled":false,"rental_uris":{"android":"levelo://app?vid=108f9e54-1a6b-4b8e-98bf-46ffc09d1c52","ios":"levelo://app?vid=108f9e54-1a6b-4b8e-98bf-46ffc09d1c52"},"vehicle_type_id":"4","last_reported":1767024792,"current_range_meters":9600,"station_id":"","pricing_plan_id":"cebpf4jnsgd1na2vs0mg"},{"bike_id":"e43603f8-aac9-49ab-adb5-4f98f7f31c88","system_id":"levelo_inurba_marseille","lat":43.28486,"lon":5.38416,"is_reserved":false,"is_disabled":false,"rental_uris":{"android":"levelo://app?vid=e43603f8-aac9-49ab-adb5-4f98f7f31c88","ios":"levelo://app?vid=e43603f8-aac9-49ab-adb5-4f98f7f31c88"},"vehicle_type_id":"4","last_reported":1767024792,"current_range_meters":9600,"station_id":"ce4bh512rcd13ifvqe3g","pricing_plan_id":"cebpf4jnsgd1na2vs0mg"},{"bike_id":"917b698b-6d07-4dcf-be03-698c150ee9f0","system_id":"levelo_inurba_marseille","lat":43.290395,"lon":5.369843,"is_reserved":false,"is_disabled":false,"rental_uris":{"android":"levelo://app?vid=917b698b-6d07-4dcf-be03-698c150ee9f0","ios":"levelo://app?vid=917b698b-6d07-4dcf-be03-698c150ee9f0"},"vehicle_type_id":"4","last_reported":1767024792,"current_range_meters":9600,"station_id":"","pricing_plan_id":"cebpf4jnsgd1na2vs0mg"},{"bike_id":"baeb171e-7eee-453d-a218-99e28ee57976","system_id":"levelo_inurba_marseille","lat":43.27373,"lon":5.36256,"is_reserved":false,"is_disabled":false,"rental_uris":{"android":"levelo://app?vid=baeb171e-7eee-453d-a218-99e28ee57976","ios":"levelo://app?vid=baeb171e-7eee-453d-a218-99e28ee57976"},"vehicle_type_id":"4","last_reported":1767024792,"current_range_meters":9600,"station_id":"ce4bhbh2rcd13ifvqeo0","pricing_plan_id":"cebpf4jnsgd1na2vs0mg"},{"bike_id":"8fe98dff-fb81-4f68-a432-d6ffa2abbb5a","system_id":"levelo_inurba_marseille","lat":43.2694,"lon":5.40252,"is_reserved":false,"is_disabled":false,"rental_uris":{"android":"levelo://app?vid=8fe98dff-fb81-4f68-a432-d6ffa2abbb5a","ios":"levelo://app?vid=8fe98dff-fb81-4f68-a432-d6ffa2abbb5a"},"vehicle_type_id":"4","last_reported":1767024792,"current_range_meters":9600,"station_id":"cjm6bp8fraef2m0cb0m0","pricing_plan_id":"cebpf4jnsgd1na2vs0mg"},{"bike_id":"f737ec76-1ed3-420a-ba1a-4c26fe21313b","system_id":"levelo_inurba_marseille","lat":43.3151,"lon":5.36695,"is_reserved":false,"is_disabled":false,"rental_uris":{"android":"levelo://app?vid=f737ec76-1ed3-420a-ba1a-4c26fe21313b","ios":"levelo://app?vid=f737ec76-1ed3-420a-ba1a-4c26fe21313b"},"vehicle_type_id":"4","last_reported":1767024792,"current_range_meters":9600,"station_id":"","pricing_plan_id":"cebpf4jnsgd1na2vs0mg"},{"bike_id":"eeead4fb-107b-43ad-bf44-7ee154c54ddc","system_id":"levelo_inurba_marseille","lat":43.23066,"lon":5.35489,"is_reserved":false,"is_disabled":false,"rental_uris":{"android":"levelo://app?vid=eeead4fb-107b-43ad-bf44-7ee154c54ddc","ios":"levelo://app?vid=eeead4fb-107b-43ad-bf44-7ee154c54ddc"},"vehicle_type_id":"4","last_reported":1767024792,"current_range_meters":9600,"station_id":"cpo3342slgdg3j2ifvpg","pricing_plan_id":"cebpf4jnsgd1na2vs0mg"},{"bike_id":"b0c73cb9-c9a2-4ac1-aaae-a89fabc4834e","system_id":"levelo_inurba_marseille","lat":43.286974,"lon":5.373782,"is_reserved":false,"is_disabled":false,"rental_uris":{"android":"levelo://app?vid=b0c73cb9-c9a2-4ac1-aaae-a89fabc4834e","ios":"levelo://app?vid=b0c73cb9-c9a2-4ac1-aaae-a89fabc4834e"},"vehicle_type_id":"4","last_reported":1767024792,"current_range_meters":9600,"station_id":"ce4bh3p2rcd13ifvqdq0","pricing_plan_id":"cebpf4jnsgd1na2vs0mg"},{"bike_id":"27c554da-31a9-478d-b516-f6af70e47351","system_id":"levelo_inurba_marseille","lat":43.303002,"lon":5.392134,"is_reserved":false,"is_disabled":false,"rental_uris":{"android":"levelo://app?vid=27c554da-31a9-478d-b516-f6af70e47351","ios":"levelo://app?vid=27c554da-31a9-478d-b516-f6af70e47351"},"vehicle_type_id":"4","last_reported":1767024792,"current_range_meters":9600,"station_id":"ce4bgkh2rcd13ifvqbk0","pricing_plan_id":"cebpf4jnsgd1na2vs0mg"},{"bike_id":"ecf15a0d-c1e4-4ff5-bf9f-4fec57a7c1d3","system_id":"levelo_inurba_marseille","lat":43.283755,"lon":5.384666,"is_reserved":false,"is_disabled":false,"rental_uris":{"android":"levelo://app?vid=ecf15a0d-c1e4-4ff5-bf9f-4fec57a7c1d3","ios":"levelo://app?vid=ecf15a0d-c1e4-4ff5-bf9f-4fec57a7c1d3"},"vehicle_type_id":"4","last_reported":1767024792,"current_range_meters":9600,"station_id":"ce4bhg12rcd13ifvqf80","pricing_plan_id":"cebpf4jnsgd1na2vs0mg"},{"bike_id":"d92812f8-5b57-4c59-8c7f-259f28af8665","system_id":"levelo_inurba_marseille","lat":43.28285,"lon":5.43209,"is_reserved":false,"is_disabled":false,"rental_uris":{"android":"levelo://app?vid=d92812f8-5b57-4c59-8c7f-259f28af8665","ios":"levelo://app?vid=d92812f8-5b57-4c59-8c7f-259f28af8665"},"vehicle_type_id":"4","last_reported":1767024792,"current_range_meters":9600,"station_id":"","pricing_plan_id":"cebpf4jnsgd1na2vs0mg"},{"bike_id":"a5390c1b-8ddc-4e56-baf4-66b1fe2b384c","system_id":"levelo_inurba_marseille","lat":43.28901,"lon":5.42492,"is_reserved":false,"is_disabled":false,"rental_uris":{"android":"levelo://app?vid=a5390c1b-8ddc-4e56-baf4-66b1fe2b384c","ios":"levelo://app?vid=a5390c1b-8ddc-4e56-baf4-66b1fe2b384c"},"vehicle_type_id":"4","last_reported":1767024792,"current_range_meters":10000,"station_id":"","pricing_plan_id":"cebpf4jnsgd1na2vs0mg"},{"bike_id":"8edc1ab8-c82c-4ca3-afef-ae2ed37ce96b","system_id":"levelo_inurba_marseille","lat":43.31221,"lon":5.368624,"is_reserved":false,"is_disabled":false,"rental_uris":{"android":"levelo://app?vid=8edc1ab8-c82c-4ca3-afef-ae2ed37ce96b","ios":"levelo://app?vid=8edc1ab8-c82c-4ca3-afef-ae2ed37ce96b"},"vehicle_type_id":"4","last_reported":1767024792,"current_range_meters":10000,"station_id":"ce4bgl92rcd13ifvqbq0","pricing_plan_id":"cebpf4jnsgd1na2vs0mg"},{"bike_id":"8e408ba0-2118-43f7-a8ba-d277410a9103","system_id":"levelo_inurba_marseille","lat":43.31239,"lon":5.3807,"is_reserved":false,"is_disabled":false,"rental_uris":{"android":"levelo://app?vid=8e408ba0-2118-43f7-a8ba-d277410a9103","ios":"levelo://app?vid=8e408ba0-2118-43f7-a8ba-d277410a9103"},"vehicle_type_id":"4","last_reported":1767024792,"current_range_meters":10000,"station_id":"","pricing_plan_id":"cebpf4jnsgd1na2vs0mg"},{"bike_id":"596c9b3b-bd08-4237-a80d-9ed209e66871","system_id":"levelo_inurba_marseille","lat":43.28863,"lon":5.4251,"is_reserved":false,"is_disabled":false,"rental_uris":{"android":"levelo://app?vid=596c9b3b-bd08-4237-a80d-9ed209e66871","ios":"levelo://app?vid=596c9b3b-bd08-4237-a80d-9ed209e66871"},"vehicle_type_id":"4","last_reported":1767024792,"current_range_meters":10000,"station_id":"st_d3b462108ojc7389ooeg","pricing_plan_id":"cebpf4jnsgd1na2vs0mg"},{"bike_id":"6237d81f-cff5-448d-a442-18a7179fb6cb","system_id":"levelo_inurba_marseille","lat":43.30176,"lon":5.36602,"is_reserved":false,"is_disabled":false,"rental_uris":{"android":"levelo://app?vid=6237d81f-cff5-448d-a442-18a7179fb6cb","ios":"levelo://app?vid=6237d81f-cff5-448d-a442-18a7179fb6cb"},"vehicle_type_id":"4","last_reported":1767024792,"current_range_meters":10000,"station_id":"ce4bgrh2rcd13ifvqc8g","pricing_plan_id":"cebpf4jnsgd1na2vs0mg"},{"bike_id":"8311b606-6ac3-4e17-a3e8-fd93d55fee19","system_id":"levelo_inurba_marseille","lat":43.26549,"lon":5.37301,"is_reserved":false,"is_disabled":false,"rental_uris":{"android":"levelo://app?vid=8311b606-6ac3-4e17-a3e8-fd93d55fee19","ios":"levelo://app?vid=8311b606-6ac3-4e17-a3e8-fd93d55fee19"},"vehicle_type_id":"4","last_reported":1767024792,"current_range_meters":10000,"station_id":"ce4bhg12rcd13ifvqf70","pricing_plan_id":"cebpf4jnsgd1na2vs0mg"},{"bike_id":"9f4b897a-557c-41ae-8cbe-a6fd7a90b286","system_id":"levelo_inurba_marseille","lat":43.29962,"lon":5.38501,"is_reserved":false,"is_disabled":false,"rental_uris":{"android":"levelo://app?vid=9f4b897a-557c-41ae-8cbe-a6fd7a90b286","ios":"levelo://app?vid=9f4b897a-557c-41ae-8cbe-a6fd7a90b286"},"vehicle_type_id":"4","last_reported":1767024792,"current_range_meters":10000,"station_id":"ce4bgj92rcd13ifvqbd0","pricing_plan_id":"cebpf4jnsgd1na2vs0mg"},{"bike_id":"293b1a03-b471-4057-8f13-11b74273e4e7","system_id":"levelo_inurba_marseille","lat":43.337444,"lon":5.374475,"is_reserved":false,"is_disabled":false,"rental_uris":{"android":"levelo://app?vid=293b1a03-b471-4057-8f13-11b74273e4e7","ios":"levelo://app?vid=293b1a03-b471-4057-8f13-11b74273e4e7"},"vehicle_type_id":"4","last_reported":1767024792,"current_range_meters":10000,"station_id":"","pricing_plan_id":"cebpf4jnsgd1na2vs0mg"},{"bike_id":"b7465372-9062-4788-bd0d-d36bd948cc0f","system_id":"levelo_inurba_marseille","lat":43.24162,"lon":5.36394,"is_reserved":false,"is_disabled":false,"rental_uris":{"android":"levelo://app?vid=b7465372-9062-4788-bd0d-d36bd948cc0f","ios":"levelo://app?vid=b7465372-9062-4788-bd0d-d36bd948cc0f"},"vehicle_type_id":"4","last_reported":1767024792,"current_range_meters":10000,"station_id":"cpo36qri1sfpv3e86is0","pricing_plan_id":"cebpf4jnsgd1na2vs0mg"},{"bike_id":"5663c206-c4de-47ab-9767-8711dc76a6f9","system_id":"levelo_inurba_marseille","lat":43.30146,"lon":5.43109,"is_reserved":false,"is_disabled":false,"rental_uris":{"android":"levelo://app?vid=5663c206-c4de-47ab-9767-8711dc76a6f9","ios":"levelo://app?vid=5663c206-c4de-47ab-9767-8711dc76a6f9"},"vehicle_type_id":"4","last_reported":1767024792,"current_range_meters":10800,"station_id":"st_d3js3co5814s73ftftug","pricing_plan_id":"cebpf4jnsgd1na2vs0mg"},{"bike_id":"036cbba1-2eba-4d3a-bebd-070ee4e03e68","system_id":"levelo_inurba_marseille","lat":43.27436,"lon":5.39413,"is_reserved":false,"is_disabled":true,"rental_uris":{"android":"levelo://app?vid=036cbba1-2eba-4d3a-bebd-070ee4e03e68","ios":"levelo://app?vid=036cbba1-2eba-4d3a-bebd-070ee4e03e68"},"vehicle_type_id":"4","last_reported":1767024792,"current_range_meters":10800,"station_id":"ce4bhdp2rcd13ifvqf20","pricing_plan_id":"cebpf4jnsgd1na2vs0mg"},{"bike_id":"991f4e07-4184-40b6-af99-1eb33e3d3eff","system_id":"levelo_inurba_marseille","lat":43.26061,"lon":5.39375,"is_reserved":false,"is_disabled":false,"rental_uris":{"android":"levelo://app?vid=991f4e07-4184-40b6-af99-1eb33e3d3eff","ios":"levelo://app?vid=991f4e07-4184-40b6-af99-1eb33e3d3eff"},"vehicle_type_id":"4","last_reported":1767024792,"current_range_meters":10800,"station_id":"ce4bhh92rcd13ifvqfj0","pricing_plan_id":"cebpf4jnsgd1na2vs0mg"},{"bike_id":"b9b162c9-20d4-4885-aa70-83b7ac23b945","system_id":"levelo_inurba_marseille","lat":43.26948,"lon":5.38638,"is_reserved":false,"is_disabled":false,"rental_uris":{"android":"levelo://app?vid=b9b162c9-20d4-4885-aa70-83b7ac23b945","ios":"levelo://app?vid=b9b162c9-20d4-4885-aa70-83b7ac23b945"},"vehicle_type_id":"4","last_reported":1767024792,"current_range_meters":10800,"station_id":"ce4bhh92rcd13ifvqfh0","pricing_plan_id":"cebpf4jnsgd1na2vs0mg"},{"bike_id":"32a07371-7154-498f-95ef-4715710f7a66","system_id":"levelo_inurba_marseille","lat":43.29919,"lon":5.37463,"is_reserved":false,"is_disabled":false,"rental_uris":{"android":"levelo://app?vid=32a07371-7154-498f-95ef-4715710f7a66","ios":"levelo://app?vid=32a07371-7154-498f-95ef-4715710f7a66"},"vehicle_type_id":"4","last_reported":1767024792,"current_range_meters":10800,"station_id":"ce4bgjh2rcd13ifvqbg0","pricing_plan_id":"cebpf4jnsgd1na2vs0mg"},{"bike_id":"1b98c6d3-988a-40e8-a138-836b264a962b","system_id":"levelo_inurba_marseille","lat":43.32331,"lon":5.36678,"is_reserved":false,"is_disabled":false,"rental_uris":{"android":"levelo://app?vid=1b98c6d3-988a-40e8-a138-836b264a962b","ios":"levelo://app?vid=1b98c6d3-988a-40e8-a138-836b264a962b"},"vehicle_type_id":"4","last_reported":1767024792,"current_range_meters":10800,"station_id":"","pricing_plan_id":"cebpf4jnsgd1na2vs0mg"},{"bike_id":"3981849e-f312-451e-a7c6-49908a23c833","system_id":"levelo_inurba_marseille","lat":43.30125,"lon":5.40209,"is_reserved":false,"is_disabled":false,"rental_uris":{"android":"levelo://app?vid=3981849e-f312-451e-a7c6-49908a23c833","ios":"levelo://app?vid=3981849e-f312-451e-a7c6-49908a23c833"},"vehicle_type_id":"4","last_reported":1767024792,"current_range_meters":11200,"station_id":"","pricing_plan_id":"cebpf4jnsgd1na2vs0mg"},{"bike_id":"5ec820fb-f47e-43b3-bc55-57a5ad8275a7","system_id":"levelo_inurba_marseille","lat":43.29222,"lon":5.36335,"is_reserved":false,"is_disabled":false,"rental_uris":{"android":"levelo://app?vid=5ec820fb-f47e-43b3-bc55-57a5ad8275a7","ios":"levelo://app?vid=5ec820fb-f47e-43b3-bc55-57a5ad8275a7"},"vehicle_type_id":"4","last_reported":1767024792,"current_range_meters":11200,"station_id":"","pricing_plan_id":"cebpf4jnsgd1na2vs0mg"},{"bike_id":"4a694a56-2014-4a59-81d9-a91f3b843169","system_id":"levelo_inurba_marseille","lat":43.32098,"lon":5.41,"is_reserved":false,"is_disabled":false,"rental_uris":{"android":"levelo://app?vid=4a694a56-2014-4a59-81d9-a91f3b843169","ios":"levelo://app?vid=4a694a56-2014-4a59-81d9-a91f3b843169"},"vehicle_type_id":"4","last_reported":1767024792,"current_range_meters":11200,"station_id":"","pricing_plan_id":"cebpf4jnsgd1na2vs0mg"},{"bike_id":"51f79da2-bde2-492e-a11c-85c3b1d14a13","system_id":"levelo_inurba_marseille","lat":43.23784,"lon":5.36628,"is_reserved":false,"is_disabled":false,"rental_uris":{"android":"levelo://app?vid=51f79da2-bde2-492e-a11c-85c3b1d14a13","ios":"levelo://app?vid=51f79da2-bde2-492e-a11c-85c3b1d14a13"},"vehicle_type_id":"4","last_reported":1767024792,"current_range_meters":11200,"station_id":"st_d3nk18o9ro0c73en2l3g","pricing_plan_id":"cebpf4jnsgd1na2vs0mg"},{"bike_id":"0a62435e-a1a1-4faf-b848-03bd53df937d","system_id":"levelo_inurba_marseille","lat":43.29826,"lon":5.37891,"is_reserved":false,"is_disabled":false,"rental_uris":{"android":"levelo://app?vid=0a62435e-a1a1-4faf-b848-03bd53df937d","ios":"levelo://app?vid=0a62435e-a1a1-4faf-b848-03bd53df937d"},"vehicle_type_id":"4","last_reported":1767024792,"current_range_meters":11200,"station_id":"","pricing_plan_id":"cebpf4jnsgd1na2vs0mg"},{"bike_id":"0c8752f9-67a9-4eee-998d-0a21d8c8f9f0","system_id":"levelo_inurba_marseille","lat":43.32862,"lon":5.405,"is_reserved":false,"is_disabled":false,"rental_uris":{"android":"levelo://app?vid=0c8752f9-67a9-4eee-998d-0a21d8c8f9f0","ios":"levelo://app?vid=0c8752f9-67a9-4eee-998d-0a21d8c8f9f0"},"vehicle_type_id":"4","last_reported":1767024792,"current_range_meters":11600,"station_id":"ce4bhq92rcd13ifvqhkg","pricing_plan_id":"cebpf4jnsgd1na2vs0mg"},{"bike_id":"f4c01557-62cf-4b89-aaa2-7c63ad0ad51f","system_id":"levelo_inurba_marseille","lat":43.3105,"lon":5.37159,"is_reserved":false,"is_disabled":false,"rental_uris":{"android":"levelo://app?vid=f4c01557-62cf-4b89-aaa2-7c63ad0ad51f","ios":"levelo://app?vid=f4c01557-62cf-4b89-aaa2-7c63ad0ad51f"},"vehicle_type_id":"4","last_reported":1767024792,"current_range_meters":11600,"station_id":"st_d4kl2rp97mjs73e7tdfg","pricing_plan_id":"cebpf4jnsgd1na2vs0mg"},{"bike_id":"6430d914-0a21-4065-b1bd-22ff590b6d10","system_id":"levelo_inurba_marseille","lat":43.288618,"lon":5.425205,"is_reserved":false,"is_disabled":false,"rental_uris":{"android":"levelo://app?vid=6430d914-0a21-4065-b1bd-22ff590b6d10","ios":"levelo://app?vid=6430d914-0a21-4065-b1bd-22ff590b6d10"},"vehicle_type_id":"4","last_reported":1767024792,"current_range_meters":11600,"station_id":"st_d3b462108ojc7389ooeg","pricing_plan_id":"cebpf4jnsgd1na2vs0mg"},{"bike_id":"fc3e7d1f-6888-4dd5-ac43-c60ab216465e","system_id":"levelo_inurba_marseille","lat":43.2481,"lon":5.3746,"is_reserved":false,"is_disabled":false,"rental_uris":{"android":"levelo://app?vid=fc3e7d1f-6888-4dd5-ac43-c60ab216465e","ios":"levelo://app?vid=fc3e7d1f-6888-4dd5-ac43-c60ab216465e"},"vehicle_type_id":"4","last_reported":1767024792,"current_range_meters":11600,"station_id":"ce4bhgh2rcd13ifvqfb0","pricing_plan_id":"cebpf4jnsgd1na2vs0mg"},{"bike_id":"0d5ddc8d-f2c4-4737-b087-1361f53189ff","system_id":"levelo_inurba_marseille","lat":43.26936,"lon":5.38643,"is_reserved":false,"is_disabled":false,"rental_uris":{"android":"levelo://app?vid=0d5ddc8d-f2c4-4737-b087-1361f53189ff","ios":"levelo://app?vid=0d5ddc8d-f2c4-4737-b087-1361f53189ff"},"vehicle_type_id":"4","last_reported":1767024792,"current_range_meters":11600,"station_id":"ce4bhh92rcd13ifvqfh0","pricing_plan_id":"cebpf4jnsgd1na2vs0mg"},{"bike_id":"ab07ab4d-8c00-4184-a952-35d08d673f0e","system_id":"levelo_inurba_marseille","lat":43.30767,"lon":5.43714,"is_reserved":false,"is_disabled":false,"rental_uris":{"android":"levelo://app?vid=ab07ab4d-8c00-4184-a952-35d08d673f0e","ios":"levelo://app?vid=ab07ab4d-8c00-4184-a952-35d08d673f0e"},"vehicle_type_id":"4","last_reported":1767024792,"current_range_meters":11600,"station_id":"","pricing_plan_id":"cebpf4jnsgd1na2vs0mg"},{"bike_id":"b388443f-e6d4-4125-a04a-5dae673a45a3","system_id":"levelo_inurba_marseille","lat":43.28469,"lon":5.38434,"is_reserved":false,"is_disabled":false,"rental_uris":{"android":"levelo://app?vid=b388443f-e6d4-4125-a04a-5dae673a45a3","ios":"levelo://app?vid=b388443f-e6d4-4125-a04a-5dae673a45a3"},"vehicle_type_id":"4","last_reported":1767024792,"current_range_meters":11600,"station_id":"ce4bh512rcd13ifvqe3g","pricing_plan_id":"cebpf4jnsgd1na2vs0mg"},{"bike_id":"12c38b32-5974-4311-910a-572392b8079a","system_id":"levelo_inurba_marseille","lat":43.28043,"lon":5.3509,"is_reserved":false,"is_disabled":false,"rental_uris":{"android":"levelo://app?vid=12c38b32-5974-4311-910a-572392b8079a","ios":"levelo://app?vid=12c38b32-5974-4311-910a-572392b8079a"},"vehicle_type_id":"4","last_reported":1767024792,"current_range_meters":11600,"station_id":"","pricing_plan_id":"cebpf4jnsgd1na2vs0mg"},{"bike_id":"ef89324f-ec48-4e9f-b181-b06cdb33a73b","system_id":"levelo_inurba_marseille","lat":43.28227,"lon":5.39069,"is_reserved":false,"is_disabled":false,"rental_uris":{"android":"levelo://app?vid=ef89324f-ec48-4e9f-b181-b06cdb33a73b","ios":"levelo://app?vid=ef89324f-ec48-4e9f-b181-b06cdb33a73b"},"vehicle_type_id":"4","last_reported":1767024792,"current_range_meters":11600,"station_id":"ce4bhn92rcd13ifvqgsg","pricing_plan_id":"cebpf4jnsgd1na2vs0mg"},{"bike_id":"f1411068-b09b-4667-92c7-1f093aee39a9","system_id":"levelo_inurba_marseille","lat":43.29488,"lon":5.43308,"is_reserved":false,"is_disabled":true,"rental_uris":{"android":"levelo://app?vid=f1411068-b09b-4667-92c7-1f093aee39a9","ios":"levelo://app?vid=f1411068-b09b-4667-92c7-1f093aee39a9"},"vehicle_type_id":"4","last_reported":1767024792,"current_range_meters":11600,"station_id":"st_d3j5ugp08ojc73fj9d10","pricing_plan_id":"cebpf4jnsgd1na2vs0mg"},{"bike_id":"ae1b9423-a5b0-4421-80f5-23134313aff2","system_id":"levelo_inurba_marseille","lat":43.25575,"lon":5.38241,"is_reserved":false,"is_disabled":false,"rental_uris":{"android":"levelo://app?vid=ae1b9423-a5b0-4421-80f5-23134313aff2","ios":"levelo://app?vid=ae1b9423-a5b0-4421-80f5-23134313aff2"},"vehicle_type_id":"4","last_reported":1767024792,"current_range_meters":11600,"station_id":"ce4bhih2rcd13ifvqfs0","pricing_plan_id":"cebpf4jnsgd1na2vs0mg"},{"bike_id":"70830288-aad2-48e8-9831-2389da295d40","system_id":"levelo_inurba_marseille","lat":43.27066,"lon":5.42268,"is_reserved":false,"is_disabled":false,"rental_uris":{"android":"levelo://app?vid=70830288-aad2-48e8-9831-2389da295d40","ios":"levelo://app?vid=70830288-aad2-48e8-9831-2389da295d40"},"vehicle_type_id":"4","last_reported":1767024792,"current_range_meters":11600,"station_id":"ce4bhk92rcd13ifvqgb0","pricing_plan_id":"cebpf4jnsgd1na2vs0mg"},{"bike_id":"8ed0aaee-94a4-4a16-a923-e8b24a7704a6","system_id":"levelo_inurba_marseille","lat":43.2887,"lon":5.4252,"is_reserved":false,"is_disabled":false,"rental_uris":{"android":"levelo://app?vid=8ed0aaee-94a4-4a16-a923-e8b24a7704a6","ios":"levelo://app?vid=8ed0aaee-94a4-4a16-a923-e8b24a7704a6"},"vehicle_type_id":"4","last_reported":1767024792,"current_range_meters":11600,"station_id":"st_d3b462108ojc7389ooeg","pricing_plan_id":"cebpf4jnsgd1na2vs0mg"},{"bike_id":"febe362e-858e-44c5-b4bb-e4a7c6160c6f","system_id":"levelo_inurba_marseille","lat":43.323549,"lon":5.367545,"is_reserved":false,"is_disabled":false,"rental_uris":{"android":"levelo://app?vid=febe362e-858e-44c5-b4bb-e4a7c6160c6f","ios":"levelo://app?vid=febe362e-858e-44c5-b4bb-e4a7c6160c6f"},"vehicle_type_id":"4","last_reported":1767024792,"current_range_meters":12000,"station_id":"ce4bhsh2rcd13ifvqi2g","pricing_plan_id":"cebpf4jnsgd1na2vs0mg"},{"bike_id":"f696103b-2b2b-4509-b475-28746835ce9f","system_id":"levelo_inurba_marseille","lat":43.32482,"lon":5.36573,"is_reserved":false,"is_disabled":false,"rental_uris":{"android":"levelo://app?vid=f696103b-2b2b-4509-b475-28746835ce9f","ios":"levelo://app?vid=f696103b-2b2b-4509-b475-28746835ce9f"},"vehicle_type_id":"4","last_reported":1767024792,"current_range_meters":12000,"station_id":"ce4bhs12rcd13ifvqhvg","pricing_plan_id":"cebpf4jnsgd1na2vs0mg"},{"bike_id":"1dda1583-1bfa-40bc-8f56-97b0e8077294","system_id":"levelo_inurba_marseille","lat":43.28105,"lon":5.37834,"is_reserved":false,"is_disabled":false,"rental_uris":{"android":"levelo://app?vid=1dda1583-1bfa-40bc-8f56-97b0e8077294","ios":"levelo://app?vid=1dda1583-1bfa-40bc-8f56-97b0e8077294"},"vehicle_type_id":"4","last_reported":1767024792,"current_range_meters":12000,"station_id":"ce4bha12rcd13ifvqee0","pricing_plan_id":"cebpf4jnsgd1na2vs0mg"},{"bike_id":"2b4bef10-30e0-4d87-85ec-d1602d040b52","system_id":"levelo_inurba_marseille","lat":43.29921,"lon":5.3747,"is_reserved":false,"is_disabled":false,"rental_uris":{"android":"levelo://app?vid=2b4bef10-30e0-4d87-85ec-d1602d040b52","ios":"levelo://app?vid=2b4bef10-30e0-4d87-85ec-d1602d040b52"},"vehicle_type_id":"4","last_reported":1767024792,"current_range_meters":12000,"station_id":"ce4bgjh2rcd13ifvqbg0","pricing_plan_id":"cebpf4jnsgd1na2vs0mg"},{"bike_id":"9f035e6d-4716-4f35-9777-425cc5769f01","system_id":"levelo_inurba_marseille","lat":43.313588,"lon":5.367186,"is_reserved":false,"is_disabled":false,"rental_uris":{"android":"levelo://app?vid=9f035e6d-4716-4f35-9777-425cc5769f01","ios":"levelo://app?vid=9f035e6d-4716-4f35-9777-425cc5769f01"},"vehicle_type_id":"4","last_reported":1767024792,"current_range_meters":12000,"station_id":"ce4bgr92rcd13ifvqc6g","pricing_plan_id":"cebpf4jnsgd1na2vs0mg"},{"bike_id":"9e3ed633-b6e5-488c-85c4-b2776340cd44","system_id":"levelo_inurba_marseille","lat":43.24652,"lon":5.38897,"is_reserved":false,"is_disabled":false,"rental_uris":{"android":"levelo://app?vid=9e3ed633-b6e5-488c-85c4-b2776340cd44","ios":"levelo://app?vid=9e3ed633-b6e5-488c-85c4-b2776340cd44"},"vehicle_type_id":"4","last_reported":1767024792,"current_range_meters":12000,"station_id":"ce4bhg12rcd13ifvqf60","pricing_plan_id":"cebpf4jnsgd1na2vs0mg"},{"bike_id":"8d9c3d03-7a3b-492c-ae8f-9af907d8f0e7","system_id":"levelo_inurba_marseille","lat":43.288471,"lon":5.393084,"is_reserved":false,"is_disabled":false,"rental_uris":{"android":"levelo://app?vid=8d9c3d03-7a3b-492c-ae8f-9af907d8f0e7","ios":"levelo://app?vid=8d9c3d03-7a3b-492c-ae8f-9af907d8f0e7"},"vehicle_type_id":"4","last_reported":1767024792,"current_range_meters":12000,"station_id":"ce4bh2p2rcd13ifvqdi0","pricing_plan_id":"cebpf4jnsgd1na2vs0mg"},{"bike_id":"85f80c36-b01d-4148-8a0f-5ed00798dda8","system_id":"levelo_inurba_marseille","lat":43.30104,"lon":5.36478,"is_reserved":false,"is_disabled":false,"rental_uris":{"android":"levelo://app?vid=85f80c36-b01d-4148-8a0f-5ed00798dda8","ios":"levelo://app?vid=85f80c36-b01d-4148-8a0f-5ed00798dda8"},"vehicle_type_id":"4","last_reported":1767024792,"current_range_meters":12000,"station_id":"","pricing_plan_id":"cebpf4jnsgd1na2vs0mg"},{"bike_id":"9c1b57e1-addf-4919-93ed-023a6be78e08","system_id":"levelo_inurba_marseille","lat":43.269562,"lon":5.386351,"is_reserved":false,"is_disabled":false,"rental_uris":{"android":"levelo://app?vid=9c1b57e1-addf-4919-93ed-023a6be78e08","ios":"levelo://app?vid=9c1b57e1-addf-4919-93ed-023a6be78e08"},"vehicle_type_id":"4","last_reported":1767024792,"current_range_meters":12000,"station_id":"ce4bhh92rcd13ifvqfh0","pricing_plan_id":"cebpf4jnsgd1na2vs0mg"},{"bike_id":"910a2da0-a632-4d81-98bc-c11a725442b3","system_id":"levelo_inurba_marseille","lat":43.29887,"lon":5.38473,"is_reserved":false,"is_disabled":false,"rental_uris":{"android":"levelo://app?vid=910a2da0-a632-4d81-98bc-c11a725442b3","ios":"levelo://app?vid=910a2da0-a632-4d81-98bc-c11a725442b3"},"vehicle_type_id":"4","last_reported":1767024792,"current_range_meters":12000,"station_id":"","pricing_plan_id":"cebpf4jnsgd1na2vs0mg"},{"bike_id":"433621e1-12cd-4d0c-b747-14612e74827b","system_id":"levelo_inurba_marseille","lat":43.217503,"lon":5.346013,"is_reserved":false,"is_disabled":false,"rental_uris":{"android":"levelo://app?vid=433621e1-12cd-4d0c-b747-14612e74827b","ios":"levelo://app?vid=433621e1-12cd-4d0c-b747-14612e74827b"},"vehicle_type_id":"4","last_reported":1767024792,"current_range_meters":12400,"station_id":"st_cvj6r9ubvosntc0bgbag","pricing_plan_id":"cebpf4jnsgd1na2vs0mg"},{"bike_id":"618c9613-8716-4cd0-b044-462c295058e6","system_id":"levelo_inurba_marseille","lat":43.273737,"lon":5.362584,"is_reserved":false,"is_disabled":false,"rental_uris":{"android":"levelo://app?vid=618c9613-8716-4cd0-b044-462c295058e6","ios":"levelo://app?vid=618c9613-8716-4cd0-b044-462c295058e6"},"vehicle_type_id":"4","last_reported":1767024792,"current_range_meters":12400,"station_id":"ce4bhbh2rcd13ifvqeo0","pricing_plan_id":"cebpf4jnsgd1na2vs0mg"},{"bike_id":"59ff8209-03da-4e73-af86-9d674bb30d05","system_id":"levelo_inurba_marseille","lat":43.28615,"lon":5.35103,"is_reserved":false,"is_disabled":false,"rental_uris":{"android":"levelo://app?vid=59ff8209-03da-4e73-af86-9d674bb30d05","ios":"levelo://app?vid=59ff8209-03da-4e73-af86-9d674bb30d05"},"vehicle_type_id":"4","last_reported":1767024792,"current_range_meters":12400,"station_id":"ce4bhch2rcd13ifvqeug","pricing_plan_id":"cebpf4jnsgd1na2vs0mg"},{"bike_id":"53d5e8c9-2653-43c3-af86-803b0eacfa38","system_id":"levelo_inurba_marseille","lat":43.30895,"lon":5.37189,"is_reserved":false,"is_disabled":false,"rental_uris":{"android":"levelo://app?vid=53d5e8c9-2653-43c3-af86-803b0eacfa38","ios":"levelo://app?vid=53d5e8c9-2653-43c3-af86-803b0eacfa38"},"vehicle_type_id":"4","last_reported":1767024792,"current_range_meters":12400,"station_id":"ce4bguh2rcd13ifvqckg","pricing_plan_id":"cebpf4jnsgd1na2vs0mg"},{"bike_id":"a186001d-255d-44eb-831d-d1dbd2507670","system_id":"levelo_inurba_marseille","lat":43.21184,"lon":5.3507,"is_reserved":false,"is_disabled":true,"rental_uris":{"android":"levelo://app?vid=a186001d-255d-44eb-831d-d1dbd2507670","ios":"levelo://app?vid=a186001d-255d-44eb-831d-d1dbd2507670"},"vehicle_type_id":"4","last_reported":1767024792,"current_range_meters":12400,"station_id":"st_cvj6sg6p6f1abm77japg","pricing_plan_id":"cebpf4jnsgd1na2vs0mg"},{"bike_id":"ebd2d008-f6da-48d9-ba52-7c53a3b24637","system_id":"levelo_inurba_marseille","lat":43.29831,"lon":5.36252,"is_reserved":false,"is_disabled":false,"rental_uris":{"android":"levelo://app?vid=ebd2d008-f6da-48d9-ba52-7c53a3b24637","ios":"levelo://app?vid=ebd2d008-f6da-48d9-ba52-7c53a3b24637"},"vehicle_type_id":"4","last_reported":1767024792,"current_range_meters":12400,"station_id":"ce4bgpp2rcd13ifvqc3g","pricing_plan_id":"cebpf4jnsgd1na2vs0mg"},{"bike_id":"98cfcb6c-38cd-4083-bfae-b9c6a54fbe45","system_id":"levelo_inurba_marseille","lat":43.30606,"lon":5.37227,"is_reserved":false,"is_disabled":false,"rental_uris":{"android":"levelo://app?vid=98cfcb6c-38cd-4083-bfae-b9c6a54fbe45","ios":"levelo://app?vid=98cfcb6c-38cd-4083-bfae-b9c6a54fbe45"},"vehicle_type_id":"4","last_reported":1767024792,"current_range_meters":12400,"station_id":"ce4bgqh2rcd13ifvqc4g","pricing_plan_id":"cebpf4jnsgd1na2vs0mg"},{"bike_id":"b3d987cd-c41c-479b-809e-597ead2d7b13","system_id":"levelo_inurba_marseille","lat":43.21765,"lon":5.34591,"is_reserved":false,"is_disabled":false,"rental_uris":{"android":"levelo://app?vid=b3d987cd-c41c-479b-809e-597ead2d7b13","ios":"levelo://app?vid=b3d987cd-c41c-479b-809e-597ead2d7b13"},"vehicle_type_id":"4","last_reported":1767024792,"current_range_meters":12400,"station_id":"","pricing_plan_id":"cebpf4jnsgd1na2vs0mg"},{"bike_id":"2059b758-0b4a-46e4-91ff-a166d0193a47","system_id":"levelo_inurba_marseille","lat":43.313352,"lon":5.367525,"is_reserved":false,"is_disabled":false,"rental_uris":{"android":"levelo://app?vid=2059b758-0b4a-46e4-91ff-a166d0193a47","ios":"levelo://app?vid=2059b758-0b4a-46e4-91ff-a166d0193a47"},"vehicle_type_id":"4","last_reported":1767024792,"current_range_meters":12400,"station_id":"ce4bgr92rcd13ifvqc6g","pricing_plan_id":"cebpf4jnsgd1na2vs0mg"},{"bike_id":"af628d8f-8ff3-439a-8d3d-e5212b4c0ee6","system_id":"levelo_inurba_marseille","lat":43.25081,"lon":5.39529,"is_reserved":false,"is_disabled":false,"rental_uris":{"android":"levelo://app?vid=af628d8f-8ff3-439a-8d3d-e5212b4c0ee6","ios":"levelo://app?vid=af628d8f-8ff3-439a-8d3d-e5212b4c0ee6"},"vehicle_type_id":"4","last_reported":1767024792,"current_range_meters":12400,"station_id":"ce4bhm12rcd13ifvqgkg","pricing_plan_id":"cebpf4jnsgd1na2vs0mg"},{"bike_id":"2d3909ba-b680-4e37-8208-02c7aa254e20","system_id":"levelo_inurba_marseille","lat":43.28,"lon":5.4,"is_reserved":false,"is_disabled":false,"rental_uris":{"android":"levelo://app?vid=2d3909ba-b680-4e37-8208-02c7aa254e20","ios":"levelo://app?vid=2d3909ba-b680-4e37-8208-02c7aa254e20"},"vehicle_type_id":"4","last_reported":1767024792,"current_range_meters":12400,"station_id":"ce4bho92rcd13ifvqh4g","pricing_plan_id":"cebpf4jnsgd1na2vs0mg"},{"bike_id":"928b015a-7167-4e24-8c0a-0c323d75b19b","system_id":"levelo_inurba_marseille","lat":43.284812,"lon":5.38447,"is_reserved":false,"is_disabled":false,"rental_uris":{"android":"levelo://app?vid=928b015a-7167-4e24-8c0a-0c323d75b19b","ios":"levelo://app?vid=928b015a-7167-4e24-8c0a-0c323d75b19b"},"vehicle_type_id":"4","last_reported":1767024792,"current_range_meters":12800,"station_id":"ce4bh512rcd13ifvqe3g","pricing_plan_id":"cebpf4jnsgd1na2vs0mg"},{"bike_id":"7351eb57-054e-445e-a14b-6b04bdf893fc","system_id":"levelo_inurba_marseille","lat":43.29195,"lon":5.35814,"is_reserved":false,"is_disabled":false,"rental_uris":{"android":"levelo://app?vid=7351eb57-054e-445e-a14b-6b04bdf893fc","ios":"levelo://app?vid=7351eb57-054e-445e-a14b-6b04bdf893fc"},"vehicle_type_id":"4","last_reported":1767024792,"current_range_meters":12800,"station_id":"ce4bhb12rcd13ifvqel0","pricing_plan_id":"cebpf4jnsgd1na2vs0mg"},{"bike_id":"72959de9-92e6-4658-a570-672fd05f73d3","system_id":"levelo_inurba_marseille","lat":43.32363,"lon":5.36732,"is_reserved":false,"is_disabled":false,"rental_uris":{"android":"levelo://app?vid=72959de9-92e6-4658-a570-672fd05f73d3","ios":"levelo://app?vid=72959de9-92e6-4658-a570-672fd05f73d3"},"vehicle_type_id":"4","last_reported":1767024792,"current_range_meters":12800,"station_id":"ce4bhsh2rcd13ifvqi2g","pricing_plan_id":"cebpf4jnsgd1na2vs0mg"},{"bike_id":"d114c0ea-e911-4e32-951c-297f7234df83","system_id":"levelo_inurba_marseille","lat":43.31233,"lon":5.36867,"is_reserved":false,"is_disabled":false,"rental_uris":{"android":"levelo://app?vid=d114c0ea-e911-4e32-951c-297f7234df83","ios":"levelo://app?vid=d114c0ea-e911-4e32-951c-297f7234df83"},"vehicle_type_id":"4","last_reported":1767024792,"current_range_meters":12800,"station_id":"ce4bgl92rcd13ifvqbq0","pricing_plan_id":"cebpf4jnsgd1na2vs0mg"},{"bike_id":"55ec7e8b-6b2a-4530-bad9-3cd7350b93b7","system_id":"levelo_inurba_marseille","lat":43.32153,"lon":5.38451,"is_reserved":false,"is_disabled":false,"rental_uris":{"android":"levelo://app?vid=55ec7e8b-6b2a-4530-bad9-3cd7350b93b7","ios":"levelo://app?vid=55ec7e8b-6b2a-4530-bad9-3cd7350b93b7"},"vehicle_type_id":"4","last_reported":1767024792,"current_range_meters":12800,"station_id":"","pricing_plan_id":"cebpf4jnsgd1na2vs0mg"},{"bike_id":"85f55649-9d31-4f27-96b4-e44a71d89be8","system_id":"levelo_inurba_marseille","lat":43.24806,"lon":5.37453,"is_reserved":false,"is_disabled":false,"rental_uris":{"android":"levelo://app?vid=85f55649-9d31-4f27-96b4-e44a71d89be8","ios":"levelo://app?vid=85f55649-9d31-4f27-96b4-e44a71d89be8"},"vehicle_type_id":"4","last_reported":1767024792,"current_range_meters":12800,"station_id":"ce4bhgh2rcd13ifvqfb0","pricing_plan_id":"cebpf4jnsgd1na2vs0mg"},{"bike_id":"2b062f89-833b-4703-97fb-d3392df9b3e2","system_id":"levelo_inurba_marseille","lat":43.24808,"lon":5.37451,"is_reserved":false,"is_disabled":false,"rental_uris":{"android":"levelo://app?vid=2b062f89-833b-4703-97fb-d3392df9b3e2","ios":"levelo://app?vid=2b062f89-833b-4703-97fb-d3392df9b3e2"},"vehicle_type_id":"4","last_reported":1767024792,"current_range_meters":12800,"station_id":"ce4bhgh2rcd13ifvqfb0","pricing_plan_id":"cebpf4jnsgd1na2vs0mg"},{"bike_id":"0000dd4a-2300-40dc-9f76-eff50116cbe4","system_id":"levelo_inurba_marseille","lat":43.29094,"lon":5.38112,"is_reserved":false,"is_disabled":false,"rental_uris":{"android":"levelo://app?vid=0000dd4a-2300-40dc-9f76-eff50116cbe4","ios":"levelo://app?vid=0000dd4a-2300-40dc-9f76-eff50116cbe4"},"vehicle_type_id":"4","last_reported":1767024792,"current_range_meters":12800,"station_id":"ce4bh512rcd13ifvqe2g","pricing_plan_id":"cebpf4jnsgd1na2vs0mg"},{"bike_id":"03c88f39-1c95-4ca6-b714-9aa40c7b9a11","system_id":"levelo_inurba_marseille","lat":43.29097,"lon":5.3814,"is_reserved":false,"is_disabled":false,"rental_uris":{"android":"levelo://app?vid=03c88f39-1c95-4ca6-b714-9aa40c7b9a11","ios":"levelo://app?vid=03c88f39-1c95-4ca6-b714-9aa40c7b9a11"},"vehicle_type_id":"4","last_reported":1767024792,"current_range_meters":12800,"station_id":"ce4bh512rcd13ifvqe2g","pricing_plan_id":"cebpf4jnsgd1na2vs0mg"},{"bike_id":"8cd8286c-2dd8-41ad-b181-1afd615d6e0d","system_id":"levelo_inurba_marseille","lat":43.28538,"lon":5.38375,"is_reserved":false,"is_disabled":false,"rental_uris":{"android":"levelo://app?vid=8cd8286c-2dd8-41ad-b181-1afd615d6e0d","ios":"levelo://app?vid=8cd8286c-2dd8-41ad-b181-1afd615d6e0d"},"vehicle_type_id":"4","last_reported":1767024792,"current_range_meters":13600,"station_id":"","pricing_plan_id":"cebpf4jnsgd1na2vs0mg"},{"bike_id":"bac2109d-15df-4d0e-bae2-d33bd1ac452e","system_id":"levelo_inurba_marseille","lat":43.29975,"lon":5.37168,"is_reserved":false,"is_disabled":false,"rental_uris":{"android":"levelo://app?vid=bac2109d-15df-4d0e-bae2-d33bd1ac452e","ios":"levelo://app?vid=bac2109d-15df-4d0e-bae2-d33bd1ac452e"},"vehicle_type_id":"4","last_reported":1767024792,"current_range_meters":13600,"station_id":"ce4bgr92rcd13ifvqc7g","pricing_plan_id":"cebpf4jnsgd1na2vs0mg"},{"bike_id":"6ecd2bc8-2198-43a9-a7e6-37dd5d541656","system_id":"levelo_inurba_marseille","lat":43.3316,"lon":5.3769,"is_reserved":false,"is_disabled":false,"rental_uris":{"android":"levelo://app?vid=6ecd2bc8-2198-43a9-a7e6-37dd5d541656","ios":"levelo://app?vid=6ecd2bc8-2198-43a9-a7e6-37dd5d541656"},"vehicle_type_id":"4","last_reported":1767024792,"current_range_meters":13600,"station_id":"st_d46cu089ee8s73dldbu0","pricing_plan_id":"cebpf4jnsgd1na2vs0mg"},{"bike_id":"dab86601-1d82-4518-931a-8a2c43c571b8","system_id":"levelo_inurba_marseille","lat":43.29618,"lon":5.37712,"is_reserved":false,"is_disabled":false,"rental_uris":{"android":"levelo://app?vid=dab86601-1d82-4518-931a-8a2c43c571b8","ios":"levelo://app?vid=dab86601-1d82-4518-931a-8a2c43c571b8"},"vehicle_type_id":"4","last_reported":1767024792,"current_range_meters":13600,"station_id":"ce4bgi92rcd13ifvqb90","pricing_plan_id":"cebpf4jnsgd1na2vs0mg"},{"bike_id":"3745e737-5737-4541-ab05-7d881133f68f","system_id":"levelo_inurba_marseille","lat":43.27995,"lon":5.40015,"is_reserved":false,"is_disabled":false,"rental_uris":{"android":"levelo://app?vid=3745e737-5737-4541-ab05-7d881133f68f","ios":"levelo://app?vid=3745e737-5737-4541-ab05-7d881133f68f"},"vehicle_type_id":"4","last_reported":1767024792,"current_range_meters":13600,"station_id":"ce4bho92rcd13ifvqh4g","pricing_plan_id":"cebpf4jnsgd1na2vs0mg"},{"bike_id":"5ff1673f-3e70-46df-bce3-5a309f38c597","system_id":"levelo_inurba_marseille","lat":43.29966,"lon":5.38491,"is_reserved":false,"is_disabled":false,"rental_uris":{"android":"levelo://app?vid=5ff1673f-3e70-46df-bce3-5a309f38c597","ios":"levelo://app?vid=5ff1673f-3e70-46df-bce3-5a309f38c597"},"vehicle_type_id":"4","last_reported":1767024792,"current_range_meters":13600,"station_id":"ce4bgj92rcd13ifvqbd0","pricing_plan_id":"cebpf4jnsgd1na2vs0mg"},{"bike_id":"2c46c7a5-389f-47fc-8086-ed2504307f23","system_id":"levelo_inurba_marseille","lat":43.27953,"lon":5.4104,"is_reserved":false,"is_disabled":false,"rental_uris":{"android":"levelo://app?vid=2c46c7a5-389f-47fc-8086-ed2504307f23","ios":"levelo://app?vid=2c46c7a5-389f-47fc-8086-ed2504307f23"},"vehicle_type_id":"4","last_reported":1767024792,"current_range_meters":13600,"station_id":"ce4bhnp2rcd13ifvqh0g","pricing_plan_id":"cebpf4jnsgd1na2vs0mg"},{"bike_id":"647c60e8-e0c0-4a68-b1aa-4cb96225386c","system_id":"levelo_inurba_marseille","lat":43.279888,"lon":5.400112,"is_reserved":false,"is_disabled":false,"rental_uris":{"android":"levelo://app?vid=647c60e8-e0c0-4a68-b1aa-4cb96225386c","ios":"levelo://app?vid=647c60e8-e0c0-4a68-b1aa-4cb96225386c"},"vehicle_type_id":"4","last_reported":1767024792,"current_range_meters":13600,"station_id":"ce4bho92rcd13ifvqh4g","pricing_plan_id":"cebpf4jnsgd1na2vs0mg"},{"bike_id":"ef68c7b4-bf69-4575-8451-3aa7bbb169cc","system_id":"levelo_inurba_marseille","lat":43.29783,"lon":5.38076,"is_reserved":false,"is_disabled":false,"rental_uris":{"android":"levelo://app?vid=ef68c7b4-bf69-4575-8451-3aa7bbb169cc","ios":"levelo://app?vid=ef68c7b4-bf69-4575-8451-3aa7bbb169cc"},"vehicle_type_id":"4","last_reported":1767024792,"current_range_meters":13600,"station_id":"ce4bgip2rcd13ifvqbb0","pricing_plan_id":"cebpf4jnsgd1na2vs0mg"},{"bike_id":"855aa69f-617b-444d-86ee-c73f0c737a2d","system_id":"levelo_inurba_marseille","lat":43.24478,"lon":5.42522,"is_reserved":false,"is_disabled":false,"rental_uris":{"android":"levelo://app?vid=855aa69f-617b-444d-86ee-c73f0c737a2d","ios":"levelo://app?vid=855aa69f-617b-444d-86ee-c73f0c737a2d"},"vehicle_type_id":"4","last_reported":1767024792,"current_range_meters":13600,"station_id":"st_d4a3vfp97mjs738cd8kg","pricing_plan_id":"cebpf4jnsgd1na2vs0mg"},{"bike_id":"4dbc32ba-02dc-454e-a399-a783879c7dcd","system_id":"levelo_inurba_marseille","lat":43.23198,"lon":5.39965,"is_reserved":false,"is_disabled":false,"rental_uris":{"android":"levelo://app?vid=4dbc32ba-02dc-454e-a399-a783879c7dcd","ios":"levelo://app?vid=4dbc32ba-02dc-454e-a399-a783879c7dcd"},"vehicle_type_id":"4","last_reported":1767024792,"current_range_meters":13600,"station_id":"ce4bhn12rcd13ifvqgqg","pricing_plan_id":"cebpf4jnsgd1na2vs0mg"},{"bike_id":"2f0353c1-9275-4ac8-a104-7af6b7d12761","system_id":"levelo_inurba_marseille","lat":43.29583,"lon":5.36723,"is_reserved":false,"is_disabled":false,"rental_uris":{"android":"levelo://app?vid=2f0353c1-9275-4ac8-a104-7af6b7d12761","ios":"levelo://app?vid=2f0353c1-9275-4ac8-a104-7af6b7d12761"},"vehicle_type_id":"4","last_reported":1767024792,"current_range_meters":13600,"station_id":"ce4bgph2rcd13ifvqc2g","pricing_plan_id":"cebpf4jnsgd1na2vs0mg"},{"bike_id":"1f986bde-e823-4547-a8eb-43be952db802","system_id":"levelo_inurba_marseille","lat":43.29442,"lon":5.37288,"is_reserved":false,"is_disabled":false,"rental_uris":{"android":"levelo://app?vid=1f986bde-e823-4547-a8eb-43be952db802","ios":"levelo://app?vid=1f986bde-e823-4547-a8eb-43be952db802"},"vehicle_type_id":"4","last_reported":1767024792,"current_range_meters":13600,"station_id":"","pricing_plan_id":"cebpf4jnsgd1na2vs0mg"},{"bike_id":"c9fdc383-a829-4246-be37-a41d66e9e351","system_id":"levelo_inurba_marseille","lat":43.31912,"lon":5.37352,"is_reserved":false,"is_disabled":false,"rental_uris":{"android":"levelo://app?vid=c9fdc383-a829-4246-be37-a41d66e9e351","ios":"levelo://app?vid=c9fdc383-a829-4246-be37-a41d66e9e351"},"vehicle_type_id":"4","last_reported":1767024792,"current_range_meters":13600,"station_id":"","pricing_plan_id":"cebpf4jnsgd1na2vs0mg"},{"bike_id":"d074fc92-cad8-46a4-9c3a-60454fdaaf67","system_id":"levelo_inurba_marseille","lat":43.29708,"lon":5.37708,"is_reserved":false,"is_disabled":false,"rental_uris":{"android":"levelo://app?vid=d074fc92-cad8-46a4-9c3a-60454fdaaf67","ios":"levelo://app?vid=d074fc92-cad8-46a4-9c3a-60454fdaaf67"},"vehicle_type_id":"4","last_reported":1767024792,"current_range_meters":13600,"station_id":"ce4bgkh2rcd13ifvqbl0","pricing_plan_id":"cebpf4jnsgd1na2vs0mg"},{"bike_id":"4ce22542-ffa1-41bf-88ce-f2146fff3136","system_id":"levelo_inurba_marseille","lat":43.2481,"lon":5.37458,"is_reserved":false,"is_disabled":false,"rental_uris":{"android":"levelo://app?vid=4ce22542-ffa1-41bf-88ce-f2146fff3136","ios":"levelo://app?vid=4ce22542-ffa1-41bf-88ce-f2146fff3136"},"vehicle_type_id":"4","last_reported":1767024792,"current_range_meters":13600,"station_id":"ce4bhgh2rcd13ifvqfb0","pricing_plan_id":"cebpf4jnsgd1na2vs0mg"},{"bike_id":"1f978a8a-6769-4984-8376-4438f9d977bb","system_id":"levelo_inurba_marseille","lat":43.2587,"lon":5.39888,"is_reserved":false,"is_disabled":false,"rental_uris":{"android":"levelo://app?vid=1f978a8a-6769-4984-8376-4438f9d977bb","ios":"levelo://app?vid=1f978a8a-6769-4984-8376-4438f9d977bb"},"vehicle_type_id":"4","last_reported":1767024792,"current_range_meters":13600,"station_id":"ce4bhl92rcd13ifvqghg","pricing_plan_id":"cebpf4jnsgd1na2vs0mg"},{"bike_id":"301a723d-2238-4088-97aa-fd8abf463428","system_id":"levelo_inurba_marseille","lat":43.33544,"lon":5.37443,"is_reserved":false,"is_disabled":false,"rental_uris":{"android":"levelo://app?vid=301a723d-2238-4088-97aa-fd8abf463428","ios":"levelo://app?vid=301a723d-2238-4088-97aa-fd8abf463428"},"vehicle_type_id":"4","last_reported":1767024792,"current_range_meters":14000,"station_id":"st_d46tts09ee8s73dlu43g","pricing_plan_id":"cebpf4jnsgd1na2vs0mg"},{"bike_id":"02154302-b983-4257-8c77-5addd6e5a10d","system_id":"levelo_inurba_marseille","lat":43.22941,"lon":5.353659,"is_reserved":false,"is_disabled":false,"rental_uris":{"android":"levelo://app?vid=02154302-b983-4257-8c77-5addd6e5a10d","ios":"levelo://app?vid=02154302-b983-4257-8c77-5addd6e5a10d"},"vehicle_type_id":"4","last_reported":1767024792,"current_range_meters":14000,"station_id":"cpo3532slgdg3j2ikp40","pricing_plan_id":"cebpf4jnsgd1na2vs0mg"},{"bike_id":"57fba6f1-d576-4b6b-9c72-ccff7df2198f","system_id":"levelo_inurba_marseille","lat":43.27674,"lon":5.38894,"is_reserved":false,"is_disabled":false,"rental_uris":{"android":"levelo://app?vid=57fba6f1-d576-4b6b-9c72-ccff7df2198f","ios":"levelo://app?vid=57fba6f1-d576-4b6b-9c72-ccff7df2198f"},"vehicle_type_id":"4","last_reported":1767024792,"current_range_meters":14000,"station_id":"ce4bhi12rcd13ifvqfo0","pricing_plan_id":"cebpf4jnsgd1na2vs0mg"},{"bike_id":"b05640fc-cf78-4e6b-bafb-c8aa2abc6f80","system_id":"levelo_inurba_marseille","lat":43.273975,"lon":5.390468,"is_reserved":false,"is_disabled":false,"rental_uris":{"android":"levelo://app?vid=b05640fc-cf78-4e6b-bafb-c8aa2abc6f80","ios":"levelo://app?vid=b05640fc-cf78-4e6b-bafb-c8aa2abc6f80"},"vehicle_type_id":"4","last_reported":1767024792,"current_range_meters":14000,"station_id":"","pricing_plan_id":"cebpf4jnsgd1na2vs0mg"},{"bike_id":"1dd2c077-d7fa-43b2-a55d-f6335f7bc478","system_id":"levelo_inurba_marseille","lat":43.29646,"lon":5.37267,"is_reserved":false,"is_disabled":false,"rental_uris":{"android":"levelo://app?vid=1dd2c077-d7fa-43b2-a55d-f6335f7bc478","ios":"levelo://app?vid=1dd2c077-d7fa-43b2-a55d-f6335f7bc478"},"vehicle_type_id":"4","last_reported":1767024792,"current_range_meters":14000,"station_id":"ce4bgk12rcd13ifvqbj0","pricing_plan_id":"cebpf4jnsgd1na2vs0mg"},{"bike_id":"c229d242-44dd-423a-80bd-d6e731d6624d","system_id":"levelo_inurba_marseille","lat":43.29009,"lon":5.3761,"is_reserved":false,"is_disabled":false,"rental_uris":{"android":"levelo://app?vid=c229d242-44dd-423a-80bd-d6e731d6624d","ios":"levelo://app?vid=c229d242-44dd-423a-80bd-d6e731d6624d"},"vehicle_type_id":"4","last_reported":1767024792,"current_range_meters":14000,"station_id":"ce4bh692rcd13ifvqe90","pricing_plan_id":"cebpf4jnsgd1na2vs0mg"},{"bike_id":"b6645d2c-5f1c-4c53-921f-bbde10b6af88","system_id":"levelo_inurba_marseille","lat":43.29808,"lon":5.44072,"is_reserved":false,"is_disabled":false,"rental_uris":{"android":"levelo://app?vid=b6645d2c-5f1c-4c53-921f-bbde10b6af88","ios":"levelo://app?vid=b6645d2c-5f1c-4c53-921f-bbde10b6af88"},"vehicle_type_id":"4","last_reported":1767024792,"current_range_meters":14000,"station_id":"st_d3jp68qikq2c7381ktn0","pricing_plan_id":"cebpf4jnsgd1na2vs0mg"},{"bike_id":"f9bf2b61-0b24-4018-a181-ecc22a139f07","system_id":"levelo_inurba_marseille","lat":43.30909,"lon":5.36837,"is_reserved":false,"is_disabled":false,"rental_uris":{"android":"levelo://app?vid=f9bf2b61-0b24-4018-a181-ecc22a139f07","ios":"levelo://app?vid=f9bf2b61-0b24-4018-a181-ecc22a139f07"},"vehicle_type_id":"4","last_reported":1767024792,"current_range_meters":14000,"station_id":"ce4bgn92rcd13ifvqbvg","pricing_plan_id":"cebpf4jnsgd1na2vs0mg"},{"bike_id":"5c722bea-e4ed-4897-b11b-dca82120f16a","system_id":"levelo_inurba_marseille","lat":43.29003,"lon":5.35604,"is_reserved":false,"is_disabled":false,"rental_uris":{"android":"levelo://app?vid=5c722bea-e4ed-4897-b11b-dca82120f16a","ios":"levelo://app?vid=5c722bea-e4ed-4897-b11b-dca82120f16a"},"vehicle_type_id":"4","last_reported":1767024792,"current_range_meters":14000,"station_id":"","pricing_plan_id":"cebpf4jnsgd1na2vs0mg"},{"bike_id":"7db96c1a-e5b2-40d9-9107-1b44e189350e","system_id":"levelo_inurba_marseille","lat":43.27572,"lon":5.38406,"is_reserved":false,"is_disabled":false,"rental_uris":{"android":"levelo://app?vid=7db96c1a-e5b2-40d9-9107-1b44e189350e","ios":"levelo://app?vid=7db96c1a-e5b2-40d9-9107-1b44e189350e"},"vehicle_type_id":"4","last_reported":1767024792,"current_range_meters":14000,"station_id":"ce4bhh92rcd13ifvqfi0","pricing_plan_id":"cebpf4jnsgd1na2vs0mg"},{"bike_id":"1bf9af3e-5825-4028-b5fa-3733a35fec46","system_id":"levelo_inurba_marseille","lat":43.27055,"lon":5.38299,"is_reserved":false,"is_disabled":false,"rental_uris":{"android":"levelo://app?vid=1bf9af3e-5825-4028-b5fa-3733a35fec46","ios":"levelo://app?vid=1bf9af3e-5825-4028-b5fa-3733a35fec46"},"vehicle_type_id":"4","last_reported":1767024792,"current_range_meters":14400,"station_id":"st_d3n2fo6cfp8s73cte1j0","pricing_plan_id":"cebpf4jnsgd1na2vs0mg"},{"bike_id":"7002ae7a-9cc5-4850-9cfd-4ea56ae8d060","system_id":"levelo_inurba_marseille","lat":43.29102,"lon":5.3813,"is_reserved":false,"is_disabled":false,"rental_uris":{"android":"levelo://app?vid=7002ae7a-9cc5-4850-9cfd-4ea56ae8d060","ios":"levelo://app?vid=7002ae7a-9cc5-4850-9cfd-4ea56ae8d060"},"vehicle_type_id":"4","last_reported":1767024792,"current_range_meters":14400,"station_id":"ce4bh512rcd13ifvqe2g","pricing_plan_id":"cebpf4jnsgd1na2vs0mg"},{"bike_id":"6dd6d7de-0746-4ddc-be8f-e1ab3378009e","system_id":"levelo_inurba_marseille","lat":43.24169,"lon":5.36401,"is_reserved":false,"is_disabled":true,"rental_uris":{"android":"levelo://app?vid=6dd6d7de-0746-4ddc-be8f-e1ab3378009e","ios":"levelo://app?vid=6dd6d7de-0746-4ddc-be8f-e1ab3378009e"},"vehicle_type_id":"4","last_reported":1767024792,"current_range_meters":14400,"station_id":"cpo36qri1sfpv3e86is0","pricing_plan_id":"cebpf4jnsgd1na2vs0mg"},{"bike_id":"cf3c81cf-aace-4f48-8df1-352bf02cf81f","system_id":"levelo_inurba_marseille","lat":43.271932,"lon":5.391871,"is_reserved":false,"is_disabled":false,"rental_uris":{"android":"levelo://app?vid=cf3c81cf-aace-4f48-8df1-352bf02cf81f","ios":"levelo://app?vid=cf3c81cf-aace-4f48-8df1-352bf02cf81f"},"vehicle_type_id":"4","last_reported":1767024792,"current_range_meters":14400,"station_id":"ce4bhhp2rcd13ifvqfm0","pricing_plan_id":"cebpf4jnsgd1na2vs0mg"},{"bike_id":"248a03b6-5cb4-4aa2-8baa-dda3195e836a","system_id":"levelo_inurba_marseille","lat":43.26496,"lon":5.39532,"is_reserved":false,"is_disabled":false,"rental_uris":{"android":"levelo://app?vid=248a03b6-5cb4-4aa2-8baa-dda3195e836a","ios":"levelo://app?vid=248a03b6-5cb4-4aa2-8baa-dda3195e836a"},"vehicle_type_id":"4","last_reported":1767024792,"current_range_meters":14400,"station_id":"ce4bhi12rcd13ifvqfq0","pricing_plan_id":"cebpf4jnsgd1na2vs0mg"},{"bike_id":"3644f2ca-5e66-4e8a-b8e4-774a2a976f7d","system_id":"levelo_inurba_marseille","lat":43.28712,"lon":5.37939,"is_reserved":false,"is_disabled":false,"rental_uris":{"android":"levelo://app?vid=3644f2ca-5e66-4e8a-b8e4-774a2a976f7d","ios":"levelo://app?vid=3644f2ca-5e66-4e8a-b8e4-774a2a976f7d"},"vehicle_type_id":"4","last_reported":1767024792,"current_range_meters":14400,"station_id":"ce4bh9p2rcd13ifvqec0","pricing_plan_id":"cebpf4jnsgd1na2vs0mg"},{"bike_id":"0db285e6-f368-4b4c-8b3e-3a5e4c4fa55a","system_id":"levelo_inurba_marseille","lat":43.21741,"lon":5.34597,"is_reserved":false,"is_disabled":false,"rental_uris":{"android":"levelo://app?vid=0db285e6-f368-4b4c-8b3e-3a5e4c4fa55a","ios":"levelo://app?vid=0db285e6-f368-4b4c-8b3e-3a5e4c4fa55a"},"vehicle_type_id":"4","last_reported":1767024792,"current_range_meters":14400,"station_id":"","pricing_plan_id":"cebpf4jnsgd1na2vs0mg"},{"bike_id":"47bc16c9-bc47-466e-8f0e-28b6fba8e0f4","system_id":"levelo_inurba_marseille","lat":43.293415,"lon":5.376134,"is_reserved":false,"is_disabled":false,"rental_uris":{"android":"levelo://app?vid=47bc16c9-bc47-466e-8f0e-28b6fba8e0f4","ios":"levelo://app?vid=47bc16c9-bc47-466e-8f0e-28b6fba8e0f4"},"vehicle_type_id":"4","last_reported":1767024792,"current_range_meters":14400,"station_id":"ce4bgi12rcd13ifvqb80","pricing_plan_id":"cebpf4jnsgd1na2vs0mg"},{"bike_id":"e54d4104-9e89-4bb8-b60e-d3755b992e4f","system_id":"levelo_inurba_marseille","lat":43.28536,"lon":5.44083,"is_reserved":false,"is_disabled":false,"rental_uris":{"android":"levelo://app?vid=e54d4104-9e89-4bb8-b60e-d3755b992e4f","ios":"levelo://app?vid=e54d4104-9e89-4bb8-b60e-d3755b992e4f"},"vehicle_type_id":"4","last_reported":1767024792,"current_range_meters":14400,"station_id":"st_d3j3df2ikq2c7380ej80","pricing_plan_id":"cebpf4jnsgd1na2vs0mg"},{"bike_id":"01cbb8d5-170b-46a8-8e8e-7d25f92ca46d","system_id":"levelo_inurba_marseille","lat":43.29291,"lon":5.37144,"is_reserved":false,"is_disabled":false,"rental_uris":{"android":"levelo://app?vid=01cbb8d5-170b-46a8-8e8e-7d25f92ca46d","ios":"levelo://app?vid=01cbb8d5-170b-46a8-8e8e-7d25f92ca46d"},"vehicle_type_id":"4","last_reported":1767024792,"current_range_meters":14800,"station_id":"ce4bgh92rcd13ifvqb40","pricing_plan_id":"cebpf4jnsgd1na2vs0mg"},{"bike_id":"69a9232f-0c10-42f3-951d-98f9e1d93fde","system_id":"levelo_inurba_marseille","lat":43.29762,"lon":5.37692,"is_reserved":false,"is_disabled":false,"rental_uris":{"android":"levelo://app?vid=69a9232f-0c10-42f3-951d-98f9e1d93fde","ios":"levelo://app?vid=69a9232f-0c10-42f3-951d-98f9e1d93fde"},"vehicle_type_id":"4","last_reported":1767024792,"current_range_meters":14800,"station_id":"ce4bgkh2rcd13ifvqbl0","pricing_plan_id":"cebpf4jnsgd1na2vs0mg"},{"bike_id":"1756bd8d-a2c4-41cd-85c6-586541aebd61","system_id":"levelo_inurba_marseille","lat":43.28458,"lon":5.3918,"is_reserved":false,"is_disabled":true,"rental_uris":{"android":"levelo://app?vid=1756bd8d-a2c4-41cd-85c6-586541aebd61","ios":"levelo://app?vid=1756bd8d-a2c4-41cd-85c6-586541aebd61"},"vehicle_type_id":"4","last_reported":1767024792,"current_range_meters":14800,"station_id":"ce4bhoh2rcd13ifvqh5g","pricing_plan_id":"cebpf4jnsgd1na2vs0mg"},{"bike_id":"eb3800e0-9284-488e-87ce-997a8a8d0e54","system_id":"levelo_inurba_marseille","lat":43.32099,"lon":5.36774,"is_reserved":false,"is_disabled":false,"rental_uris":{"android":"levelo://app?vid=eb3800e0-9284-488e-87ce-997a8a8d0e54","ios":"levelo://app?vid=eb3800e0-9284-488e-87ce-997a8a8d0e54"},"vehicle_type_id":"4","last_reported":1767024792,"current_range_meters":14800,"station_id":"ce4bhrh2rcd13ifvqhug","pricing_plan_id":"cebpf4jnsgd1na2vs0mg"},{"bike_id":"c4ebcefb-1724-437b-b774-c8af95cba3ef","system_id":"levelo_inurba_marseille","lat":43.24806,"lon":5.37447,"is_reserved":false,"is_disabled":false,"rental_uris":{"android":"levelo://app?vid=c4ebcefb-1724-437b-b774-c8af95cba3ef","ios":"levelo://app?vid=c4ebcefb-1724-437b-b774-c8af95cba3ef"},"vehicle_type_id":"4","last_reported":1767024792,"current_range_meters":14800,"station_id":"ce4bhgh2rcd13ifvqfb0","pricing_plan_id":"cebpf4jnsgd1na2vs0mg"},{"bike_id":"1f39359d-eaf6-458b-8e16-4e46ad43876e","system_id":"levelo_inurba_marseille","lat":43.241694,"lon":5.397344,"is_reserved":false,"is_disabled":false,"rental_uris":{"android":"levelo://app?vid=1f39359d-eaf6-458b-8e16-4e46ad43876e","ios":"levelo://app?vid=1f39359d-eaf6-458b-8e16-4e46ad43876e"},"vehicle_type_id":"4","last_reported":1767024792,"current_range_meters":14800,"station_id":"ce4bhn12rcd13ifvqgpg","pricing_plan_id":"cebpf4jnsgd1na2vs0mg"},{"bike_id":"9a1f1a06-d514-4baf-9146-a4f053df674a","system_id":"levelo_inurba_marseille","lat":43.29522,"lon":5.38534,"is_reserved":false,"is_disabled":false,"rental_uris":{"android":"levelo://app?vid=9a1f1a06-d514-4baf-9146-a4f053df674a","ios":"levelo://app?vid=9a1f1a06-d514-4baf-9146-a4f053df674a"},"vehicle_type_id":"4","last_reported":1767024792,"current_range_meters":14800,"station_id":"ce4bgih2rcd13ifvqba0","pricing_plan_id":"cebpf4jnsgd1na2vs0mg"},{"bike_id":"26fcc9de-a3f4-4b18-a853-822b3fde5b4a","system_id":"levelo_inurba_marseille","lat":43.326958,"lon":5.392727,"is_reserved":false,"is_disabled":false,"rental_uris":{"android":"levelo://app?vid=26fcc9de-a3f4-4b18-a853-822b3fde5b4a","ios":"levelo://app?vid=26fcc9de-a3f4-4b18-a853-822b3fde5b4a"},"vehicle_type_id":"4","last_reported":1767024792,"current_range_meters":14800,"station_id":"","pricing_plan_id":"cebpf4jnsgd1na2vs0mg"},{"bike_id":"2703b803-944c-4f90-b5fc-f9ddd565456b","system_id":"levelo_inurba_marseille","lat":43.27917,"lon":5.39581,"is_reserved":false,"is_disabled":true,"rental_uris":{"android":"levelo://app?vid=2703b803-944c-4f90-b5fc-f9ddd565456b","ios":"levelo://app?vid=2703b803-944c-4f90-b5fc-f9ddd565456b"},"vehicle_type_id":"4","last_reported":1767024792,"current_range_meters":15200,"station_id":"ce4bhf92rcd13ifvqf40","pricing_plan_id":"cebpf4jnsgd1na2vs0mg"},{"bike_id":"5401de85-2150-40d3-a790-950b4a025395","system_id":"levelo_inurba_marseille","lat":43.335386,"lon":5.374606,"is_reserved":false,"is_disabled":false,"rental_uris":{"android":"levelo://app?vid=5401de85-2150-40d3-a790-950b4a025395","ios":"levelo://app?vid=5401de85-2150-40d3-a790-950b4a025395"},"vehicle_type_id":"4","last_reported":1767024792,"current_range_meters":15200,"station_id":"st_d46tts09ee8s73dlu43g","pricing_plan_id":"cebpf4jnsgd1na2vs0mg"},{"bike_id":"02e818d7-b252-45c2-ada4-86e500d8fb91","system_id":"levelo_inurba_marseille","lat":43.27958,"lon":5.41026,"is_reserved":false,"is_disabled":false,"rental_uris":{"android":"levelo://app?vid=02e818d7-b252-45c2-ada4-86e500d8fb91","ios":"levelo://app?vid=02e818d7-b252-45c2-ada4-86e500d8fb91"},"vehicle_type_id":"4","last_reported":1767024792,"current_range_meters":15200,"station_id":"ce4bhnp2rcd13ifvqh0g","pricing_plan_id":"cebpf4jnsgd1na2vs0mg"},{"bike_id":"363b9a40-b86d-456a-99ba-c7de3bef63da","system_id":"levelo_inurba_marseille","lat":43.25723,"lon":5.41096,"is_reserved":false,"is_disabled":false,"rental_uris":{"android":"levelo://app?vid=363b9a40-b86d-456a-99ba-c7de3bef63da","ios":"levelo://app?vid=363b9a40-b86d-456a-99ba-c7de3bef63da"},"vehicle_type_id":"4","last_reported":1767024792,"current_range_meters":15200,"station_id":"ce4bhkp2rcd13ifvqgd0","pricing_plan_id":"cebpf4jnsgd1na2vs0mg"},{"bike_id":"579d1d43-c7b2-47e3-a215-f8b97aff2aa4","system_id":"levelo_inurba_marseille","lat":43.27967,"lon":5.38735,"is_reserved":false,"is_disabled":false,"rental_uris":{"android":"levelo://app?vid=579d1d43-c7b2-47e3-a215-f8b97aff2aa4","ios":"levelo://app?vid=579d1d43-c7b2-47e3-a215-f8b97aff2aa4"},"vehicle_type_id":"4","last_reported":1767024792,"current_range_meters":15200,"station_id":"ce4bhg12rcd13ifvqf80","pricing_plan_id":"cebpf4jnsgd1na2vs0mg"},{"bike_id":"83bda1dd-f8a7-4ba5-885e-96cd4ebeeec9","system_id":"levelo_inurba_marseille","lat":43.31687,"lon":5.40479,"is_reserved":false,"is_disabled":false,"rental_uris":{"android":"levelo://app?vid=83bda1dd-f8a7-4ba5-885e-96cd4ebeeec9","ios":"levelo://app?vid=83bda1dd-f8a7-4ba5-885e-96cd4ebeeec9"},"vehicle_type_id":"4","last_reported":1767024792,"current_range_meters":15200,"station_id":"ce4bh012rcd13ifvqd00","pricing_plan_id":"cebpf4jnsgd1na2vs0mg"},{"bike_id":"59aab69d-aa14-4a71-8d9b-0aa143ba58f2","system_id":"levelo_inurba_marseille","lat":43.285263,"lon":5.440974,"is_reserved":false,"is_disabled":true,"rental_uris":{"android":"levelo://app?vid=59aab69d-aa14-4a71-8d9b-0aa143ba58f2","ios":"levelo://app?vid=59aab69d-aa14-4a71-8d9b-0aa143ba58f2"},"vehicle_type_id":"4","last_reported":1767024792,"current_range_meters":15200,"station_id":"st_d3j3df2ikq2c7380ej80","pricing_plan_id":"cebpf4jnsgd1na2vs0mg"},{"bike_id":"ac22e188-d698-41a2-ab01-4c1844c8e7fd","system_id":"levelo_inurba_marseille","lat":43.32707,"lon":5.39249,"is_reserved":false,"is_disabled":false,"rental_uris":{"android":"levelo://app?vid=ac22e188-d698-41a2-ab01-4c1844c8e7fd","ios":"levelo://app?vid=ac22e188-d698-41a2-ab01-4c1844c8e7fd"},"vehicle_type_id":"4","last_reported":1767024792,"current_range_meters":15200,"station_id":"","pricing_plan_id":"cebpf4jnsgd1na2vs0mg"},{"bike_id":"1499f08b-07fb-45ef-b5dc-009014547bdc","system_id":"levelo_inurba_marseille","lat":43.21736,"lon":5.34603,"is_reserved":false,"is_disabled":false,"rental_uris":{"android":"levelo://app?vid=1499f08b-07fb-45ef-b5dc-009014547bdc","ios":"levelo://app?vid=1499f08b-07fb-45ef-b5dc-009014547bdc"},"vehicle_type_id":"4","last_reported":1767024792,"current_range_meters":15200,"station_id":"","pricing_plan_id":"cebpf4jnsgd1na2vs0mg"},{"bike_id":"61b2b94a-e384-4cf1-a9e1-e9f4685a971d","system_id":"levelo_inurba_marseille","lat":43.30463,"lon":5.3791,"is_reserved":false,"is_disabled":false,"rental_uris":{"android":"levelo://app?vid=61b2b94a-e384-4cf1-a9e1-e9f4685a971d","ios":"levelo://app?vid=61b2b94a-e384-4cf1-a9e1-e9f4685a971d"},"vehicle_type_id":"4","last_reported":1767024792,"current_range_meters":16000,"station_id":"ce4bgup2rcd13ifvqcn0","pricing_plan_id":"cebpf4jnsgd1na2vs0mg"},{"bike_id":"b1fe7799-6a46-49a6-8b2f-2b105e3b71b6","system_id":"levelo_inurba_marseille","lat":43.2959,"lon":5.37518,"is_reserved":false,"is_disabled":false,"rental_uris":{"android":"levelo://app?vid=b1fe7799-6a46-49a6-8b2f-2b105e3b71b6","ios":"levelo://app?vid=b1fe7799-6a46-49a6-8b2f-2b105e3b71b6"},"vehicle_type_id":"4","last_reported":1767024792,"current_range_meters":16000,"station_id":"ce4bgh92rcd13ifvqb50","pricing_plan_id":"cebpf4jnsgd1na2vs0mg"},{"bike_id":"9152dc23-aabb-4dc0-8225-d34b5a4f8b0e","system_id":"levelo_inurba_marseille","lat":43.24662,"lon":5.38889,"is_reserved":false,"is_disabled":false,"rental_uris":{"android":"levelo://app?vid=9152dc23-aabb-4dc0-8225-d34b5a4f8b0e","ios":"levelo://app?vid=9152dc23-aabb-4dc0-8225-d34b5a4f8b0e"},"vehicle_type_id":"4","last_reported":1767024792,"current_range_meters":16000,"station_id":"ce4bhg12rcd13ifvqf60","pricing_plan_id":"cebpf4jnsgd1na2vs0mg"},{"bike_id":"1afb4ac5-1a93-4918-85ae-8de1132030fb","system_id":"levelo_inurba_marseille","lat":43.29612,"lon":5.37731,"is_reserved":false,"is_disabled":false,"rental_uris":{"android":"levelo://app?vid=1afb4ac5-1a93-4918-85ae-8de1132030fb","ios":"levelo://app?vid=1afb4ac5-1a93-4918-85ae-8de1132030fb"},"vehicle_type_id":"4","last_reported":1767024792,"current_range_meters":16000,"station_id":"ce4bgi92rcd13ifvqb90","pricing_plan_id":"cebpf4jnsgd1na2vs0mg"},{"bike_id":"bf6369b9-a462-42a4-9878-d7395b7dd88e","system_id":"levelo_inurba_marseille","lat":43.2983,"lon":5.38092,"is_reserved":false,"is_disabled":false,"rental_uris":{"android":"levelo://app?vid=bf6369b9-a462-42a4-9878-d7395b7dd88e","ios":"levelo://app?vid=bf6369b9-a462-42a4-9878-d7395b7dd88e"},"vehicle_type_id":"4","last_reported":1767024792,"current_range_meters":16000,"station_id":"ce4bgip2rcd13ifvqbb0","pricing_plan_id":"cebpf4jnsgd1na2vs0mg"},{"bike_id":"4ee2dc40-69ea-4c0d-9af3-3035276123d5","system_id":"levelo_inurba_marseille","lat":43.289864,"lon":5.378362,"is_reserved":false,"is_disabled":false,"rental_uris":{"android":"levelo://app?vid=4ee2dc40-69ea-4c0d-9af3-3035276123d5","ios":"levelo://app?vid=4ee2dc40-69ea-4c0d-9af3-3035276123d5"},"vehicle_type_id":"4","last_reported":1767024792,"current_range_meters":16000,"station_id":"","pricing_plan_id":"cebpf4jnsgd1na2vs0mg"},{"bike_id":"ac1efd3e-c5c0-4424-98e3-d72bb7235016","system_id":"levelo_inurba_marseille","lat":43.2318,"lon":5.39988,"is_reserved":false,"is_disabled":false,"rental_uris":{"android":"levelo://app?vid=ac1efd3e-c5c0-4424-98e3-d72bb7235016","ios":"levelo://app?vid=ac1efd3e-c5c0-4424-98e3-d72bb7235016"},"vehicle_type_id":"4","last_reported":1767024792,"current_range_meters":16000,"station_id":"ce4bhn12rcd13ifvqgqg","pricing_plan_id":"cebpf4jnsgd1na2vs0mg"},{"bike_id":"35216096-d16e-4dc4-b635-fc1283f5b0c0","system_id":"levelo_inurba_marseille","lat":43.321244,"lon":5.36758,"is_reserved":false,"is_disabled":false,"rental_uris":{"android":"levelo://app?vid=35216096-d16e-4dc4-b635-fc1283f5b0c0","ios":"levelo://app?vid=35216096-d16e-4dc4-b635-fc1283f5b0c0"},"vehicle_type_id":"4","last_reported":1767024792,"current_range_meters":16000,"station_id":"ce4bhrh2rcd13ifvqhug","pricing_plan_id":"cebpf4jnsgd1na2vs0mg"},{"bike_id":"31a077c9-45f8-44fe-be9c-50cf9d939c3d","system_id":"levelo_inurba_marseille","lat":43.29564,"lon":5.37498,"is_reserved":false,"is_disabled":false,"rental_uris":{"android":"levelo://app?vid=31a077c9-45f8-44fe-be9c-50cf9d939c3d","ios":"levelo://app?vid=31a077c9-45f8-44fe-be9c-50cf9d939c3d"},"vehicle_type_id":"4","last_reported":1767024792,"current_range_meters":16000,"station_id":"ce4bgh92rcd13ifvqb50","pricing_plan_id":"cebpf4jnsgd1na2vs0mg"},{"bike_id":"7a858a05-8d49-486e-8d0c-dcbeffc98352","system_id":"levelo_inurba_marseille","lat":43.33546,"lon":5.37468,"is_reserved":false,"is_disabled":false,"rental_uris":{"android":"levelo://app?vid=7a858a05-8d49-486e-8d0c-dcbeffc98352","ios":"levelo://app?vid=7a858a05-8d49-486e-8d0c-dcbeffc98352"},"vehicle_type_id":"4","last_reported":1767024792,"current_range_meters":16000,"station_id":"st_d46tts09ee8s73dlu43g","pricing_plan_id":"cebpf4jnsgd1na2vs0mg"},{"bike_id":"072c4066-38a2-4658-973c-c4215d710f3c","system_id":"levelo_inurba_marseille","lat":43.299095,"lon":5.381432,"is_reserved":false,"is_disabled":false,"rental_uris":{"android":"levelo://app?vid=072c4066-38a2-4658-973c-c4215d710f3c","ios":"levelo://app?vid=072c4066-38a2-4658-973c-c4215d710f3c"},"vehicle_type_id":"4","last_reported":1767024792,"current_range_meters":16000,"station_id":"ce4bgj12rcd13ifvqbc0","pricing_plan_id":"cebpf4jnsgd1na2vs0mg"},{"bike_id":"9d0b85c3-0c1a-4cbc-bfae-ae2cab992c2d","system_id":"levelo_inurba_marseille","lat":43.30814,"lon":5.38139,"is_reserved":false,"is_disabled":false,"rental_uris":{"android":"levelo://app?vid=9d0b85c3-0c1a-4cbc-bfae-ae2cab992c2d","ios":"levelo://app?vid=9d0b85c3-0c1a-4cbc-bfae-ae2cab992c2d"},"vehicle_type_id":"4","last_reported":1767024792,"current_range_meters":16000,"station_id":"ce4bgt12rcd13ifvqce0","pricing_plan_id":"cebpf4jnsgd1na2vs0mg"},{"bike_id":"ec0e7985-1834-419d-8825-4d58bae0e7a4","system_id":"levelo_inurba_marseille","lat":43.32354,"lon":5.36733,"is_reserved":false,"is_disabled":false,"rental_uris":{"android":"levelo://app?vid=ec0e7985-1834-419d-8825-4d58bae0e7a4","ios":"levelo://app?vid=ec0e7985-1834-419d-8825-4d58bae0e7a4"},"vehicle_type_id":"4","last_reported":1767024792,"current_range_meters":16000,"station_id":"ce4bhsh2rcd13ifvqi2g","pricing_plan_id":"cebpf4jnsgd1na2vs0mg"},{"bike_id":"833f4943-80a3-4386-a7a8-645bc9b306ca","system_id":"levelo_inurba_marseille","lat":43.27619,"lon":5.36107,"is_reserved":false,"is_disabled":false,"rental_uris":{"android":"levelo://app?vid=833f4943-80a3-4386-a7a8-645bc9b306ca","ios":"levelo://app?vid=833f4943-80a3-4386-a7a8-645bc9b306ca"},"vehicle_type_id":"4","last_reported":1767024792,"current_range_meters":16400,"station_id":"ce4bgj92rcd13ifvqbe0","pricing_plan_id":"cebpf4jnsgd1na2vs0mg"},{"bike_id":"0f0fc6ed-82de-439d-993e-666cb650fe34","system_id":"levelo_inurba_marseille","lat":43.2378,"lon":5.36628,"is_reserved":false,"is_disabled":false,"rental_uris":{"android":"levelo://app?vid=0f0fc6ed-82de-439d-993e-666cb650fe34","ios":"levelo://app?vid=0f0fc6ed-82de-439d-993e-666cb650fe34"},"vehicle_type_id":"4","last_reported":1767024792,"current_range_meters":16400,"station_id":"st_d3nk18o9ro0c73en2l3g","pricing_plan_id":"cebpf4jnsgd1na2vs0mg"},{"bike_id":"55c0b431-66fc-4a8d-830c-78f9a530f1ba","system_id":"levelo_inurba_marseille","lat":43.28846,"lon":5.39327,"is_reserved":false,"is_disabled":false,"rental_uris":{"android":"levelo://app?vid=55c0b431-66fc-4a8d-830c-78f9a530f1ba","ios":"levelo://app?vid=55c0b431-66fc-4a8d-830c-78f9a530f1ba"},"vehicle_type_id":"4","last_reported":1767024792,"current_range_meters":16400,"station_id":"ce4bh2p2rcd13ifvqdi0","pricing_plan_id":"cebpf4jnsgd1na2vs0mg"},{"bike_id":"3b40728b-7583-4ab4-81de-79f0904fb57f","system_id":"levelo_inurba_marseille","lat":43.27617,"lon":5.36098,"is_reserved":false,"is_disabled":false,"rental_uris":{"android":"levelo://app?vid=3b40728b-7583-4ab4-81de-79f0904fb57f","ios":"levelo://app?vid=3b40728b-7583-4ab4-81de-79f0904fb57f"},"vehicle_type_id":"4","last_reported":1767024792,"current_range_meters":16400,"station_id":"ce4bgj92rcd13ifvqbe0","pricing_plan_id":"cebpf4jnsgd1na2vs0mg"},{"bike_id":"20b3068d-98c4-410b-b3d7-98251a4b6d6d","system_id":"levelo_inurba_marseille","lat":43.2592,"lon":5.40899,"is_reserved":false,"is_disabled":false,"rental_uris":{"android":"levelo://app?vid=20b3068d-98c4-410b-b3d7-98251a4b6d6d","ios":"levelo://app?vid=20b3068d-98c4-410b-b3d7-98251a4b6d6d"},"vehicle_type_id":"4","last_reported":1767024792,"current_range_meters":16400,"station_id":"ce4bhm92rcd13ifvqglg","pricing_plan_id":"cebpf4jnsgd1na2vs0mg"},{"bike_id":"b5997051-9517-43db-a3fd-22957a07eea8","system_id":"levelo_inurba_marseille","lat":43.25499,"lon":5.37638,"is_reserved":false,"is_disabled":false,"rental_uris":{"android":"levelo://app?vid=b5997051-9517-43db-a3fd-22957a07eea8","ios":"levelo://app?vid=b5997051-9517-43db-a3fd-22957a07eea8"},"vehicle_type_id":"4","last_reported":1767024792,"current_range_meters":16400,"station_id":"ce4bhh12rcd13ifvqff0","pricing_plan_id":"cebpf4jnsgd1na2vs0mg"},{"bike_id":"dbe09716-f079-4c70-a408-7e3d3011c76c","system_id":"levelo_inurba_marseille","lat":43.2742,"lon":5.39412,"is_reserved":false,"is_disabled":true,"rental_uris":{"android":"levelo://app?vid=dbe09716-f079-4c70-a408-7e3d3011c76c","ios":"levelo://app?vid=dbe09716-f079-4c70-a408-7e3d3011c76c"},"vehicle_type_id":"4","last_reported":1767024792,"current_range_meters":16400,"station_id":"ce4bhdp2rcd13ifvqf20","pricing_plan_id":"cebpf4jnsgd1na2vs0mg"},{"bike_id":"1a23c02a-665b-443b-80c2-aaa184e9d9db","system_id":"levelo_inurba_marseille","lat":43.24466,"lon":5.42533,"is_reserved":false,"is_disabled":false,"rental_uris":{"android":"levelo://app?vid=1a23c02a-665b-443b-80c2-aaa184e9d9db","ios":"levelo://app?vid=1a23c02a-665b-443b-80c2-aaa184e9d9db"},"vehicle_type_id":"4","last_reported":1767024792,"current_range_meters":16400,"station_id":"st_d4a3vfp97mjs738cd8kg","pricing_plan_id":"cebpf4jnsgd1na2vs0mg"},{"bike_id":"79fda2c3-d85a-402b-9c3b-0dceb91a8171","system_id":"levelo_inurba_marseille","lat":43.29773,"lon":5.36965,"is_reserved":false,"is_disabled":false,"rental_uris":{"android":"levelo://app?vid=79fda2c3-d85a-402b-9c3b-0dceb91a8171","ios":"levelo://app?vid=79fda2c3-d85a-402b-9c3b-0dceb91a8171"},"vehicle_type_id":"4","last_reported":1767024792,"current_range_meters":16400,"station_id":"","pricing_plan_id":"cebpf4jnsgd1na2vs0mg"},{"bike_id":"3ae180a1-ad81-4fbd-8d8e-5122c1af76f4","system_id":"levelo_inurba_marseille","lat":43.337444,"lon":5.374475,"is_reserved":false,"is_disabled":false,"rental_uris":{"android":"levelo://app?vid=3ae180a1-ad81-4fbd-8d8e-5122c1af76f4","ios":"levelo://app?vid=3ae180a1-ad81-4fbd-8d8e-5122c1af76f4"},"vehicle_type_id":"4","last_reported":1767024792,"current_range_meters":16400,"station_id":"","pricing_plan_id":"cebpf4jnsgd1na2vs0mg"},{"bike_id":"c8c35a9a-4fd2-4128-bd87-390adcb17d7d","system_id":"levelo_inurba_marseille","lat":43.32066,"lon":5.41527,"is_reserved":false,"is_disabled":false,"rental_uris":{"android":"levelo://app?vid=c8c35a9a-4fd2-4128-bd87-390adcb17d7d","ios":"levelo://app?vid=c8c35a9a-4fd2-4128-bd87-390adcb17d7d"},"vehicle_type_id":"4","last_reported":1767024792,"current_range_meters":16400,"station_id":"ce4bhq92rcd13ifvqhkg","pricing_plan_id":"cebpf4jnsgd1na2vs0mg"},{"bike_id":"e3c408eb-4ad4-42d1-9c60-97eb41564ce0","system_id":"levelo_inurba_marseille","lat":43.324815,"lon":5.382943,"is_reserved":false,"is_disabled":false,"rental_uris":{"android":"levelo://app?vid=e3c408eb-4ad4-42d1-9c60-97eb41564ce0","ios":"levelo://app?vid=e3c408eb-4ad4-42d1-9c60-97eb41564ce0"},"vehicle_type_id":"4","last_reported":1767024792,"current_range_meters":16400,"station_id":"st_d4asgbiv49dc73anf9m0","pricing_plan_id":"cebpf4jnsgd1na2vs0mg"},{"bike_id":"d3a69848-5a9c-455e-8529-f8865014b273","system_id":"levelo_inurba_marseille","lat":43.28421,"lon":5.34971,"is_reserved":false,"is_disabled":false,"rental_uris":{"android":"levelo://app?vid=d3a69848-5a9c-455e-8529-f8865014b273","ios":"levelo://app?vid=d3a69848-5a9c-455e-8529-f8865014b273"},"vehicle_type_id":"4","last_reported":1767024792,"current_range_meters":16400,"station_id":"ce4bhbh2rcd13ifvqepg","pricing_plan_id":"cebpf4jnsgd1na2vs0mg"},{"bike_id":"77cbad45-f84c-4268-b010-6beff06c5883","system_id":"levelo_inurba_marseille","lat":43.28276,"lon":5.35074,"is_reserved":false,"is_disabled":false,"rental_uris":{"android":"levelo://app?vid=77cbad45-f84c-4268-b010-6beff06c5883","ios":"levelo://app?vid=77cbad45-f84c-4268-b010-6beff06c5883"},"vehicle_type_id":"4","last_reported":1767024792,"current_range_meters":16400,"station_id":"ce4bhbp2rcd13ifvqerg","pricing_plan_id":"cebpf4jnsgd1na2vs0mg"},{"bike_id":"02fd57a9-8b88-4701-a573-61f04cf9e3d6","system_id":"levelo_inurba_marseille","lat":43.31118,"lon":5.37745,"is_reserved":false,"is_disabled":false,"rental_uris":{"android":"levelo://app?vid=02fd57a9-8b88-4701-a573-61f04cf9e3d6","ios":"levelo://app?vid=02fd57a9-8b88-4701-a573-61f04cf9e3d6"},"vehicle_type_id":"4","last_reported":1767024792,"current_range_meters":16400,"station_id":"ce4bgt92rcd13ifvqcg0","pricing_plan_id":"cebpf4jnsgd1na2vs0mg"},{"bike_id":"32541f6a-1d2c-44c2-a392-06055eaf1598","system_id":"levelo_inurba_marseille","lat":43.26242,"lon":5.41614,"is_reserved":false,"is_disabled":false,"rental_uris":{"android":"levelo://app?vid=32541f6a-1d2c-44c2-a392-06055eaf1598","ios":"levelo://app?vid=32541f6a-1d2c-44c2-a392-06055eaf1598"},"vehicle_type_id":"4","last_reported":1767024792,"current_range_meters":16400,"station_id":"","pricing_plan_id":"cebpf4jnsgd1na2vs0mg"},{"bike_id":"1ef53504-7290-40b3-8fbc-4d2276df422a","system_id":"levelo_inurba_marseille","lat":43.28466,"lon":5.38427,"is_reserved":false,"is_disabled":false,"rental_uris":{"android":"levelo://app?vid=1ef53504-7290-40b3-8fbc-4d2276df422a","ios":"levelo://app?vid=1ef53504-7290-40b3-8fbc-4d2276df422a"},"vehicle_type_id":"4","last_reported":1767024792,"current_range_meters":16800,"station_id":"ce4bh512rcd13ifvqe3g","pricing_plan_id":"cebpf4jnsgd1na2vs0mg"},{"bike_id":"3a6694e6-51f3-4fa5-924d-19a8a09757cc","system_id":"levelo_inurba_marseille","lat":43.31683,"lon":5.37361,"is_reserved":false,"is_disabled":false,"rental_uris":{"android":"levelo://app?vid=3a6694e6-51f3-4fa5-924d-19a8a09757cc","ios":"levelo://app?vid=3a6694e6-51f3-4fa5-924d-19a8a09757cc"},"vehicle_type_id":"4","last_reported":1767024792,"current_range_meters":16800,"station_id":"","pricing_plan_id":"cebpf4jnsgd1na2vs0mg"},{"bike_id":"3f577dd2-4a41-477b-9eb0-e31dacf60ee3","system_id":"levelo_inurba_marseille","lat":43.320525,"lon":5.415537,"is_reserved":false,"is_disabled":false,"rental_uris":{"android":"levelo://app?vid=3f577dd2-4a41-477b-9eb0-e31dacf60ee3","ios":"levelo://app?vid=3f577dd2-4a41-477b-9eb0-e31dacf60ee3"},"vehicle_type_id":"4","last_reported":1767024792,"current_range_meters":16800,"station_id":"ce4bhq92rcd13ifvqhkg","pricing_plan_id":"cebpf4jnsgd1na2vs0mg"},{"bike_id":"62795a40-093f-484c-be6e-15a64fd7baa8","system_id":"levelo_inurba_marseille","lat":43.260418,"lon":5.375512,"is_reserved":false,"is_disabled":false,"rental_uris":{"android":"levelo://app?vid=62795a40-093f-484c-be6e-15a64fd7baa8","ios":"levelo://app?vid=62795a40-093f-484c-be6e-15a64fd7baa8"},"vehicle_type_id":"4","last_reported":1767024792,"current_range_meters":16800,"station_id":"ce4bhgh2rcd13ifvqfa0","pricing_plan_id":"cebpf4jnsgd1na2vs0mg"},{"bike_id":"003bdecd-43ef-4d1e-8dba-4deefbb1f83e","system_id":"levelo_inurba_marseille","lat":43.29427,"lon":5.41307,"is_reserved":false,"is_disabled":false,"rental_uris":{"android":"levelo://app?vid=003bdecd-43ef-4d1e-8dba-4deefbb1f83e","ios":"levelo://app?vid=003bdecd-43ef-4d1e-8dba-4deefbb1f83e"},"vehicle_type_id":"4","last_reported":1767024792,"current_range_meters":16800,"station_id":"","pricing_plan_id":"cebpf4jnsgd1na2vs0mg"},{"bike_id":"dce28840-1b59-4930-917a-12d88071d00f","system_id":"levelo_inurba_marseille","lat":43.28536,"lon":5.44096,"is_reserved":false,"is_disabled":false,"rental_uris":{"android":"levelo://app?vid=dce28840-1b59-4930-917a-12d88071d00f","ios":"levelo://app?vid=dce28840-1b59-4930-917a-12d88071d00f"},"vehicle_type_id":"4","last_reported":1767024792,"current_range_meters":16800,"station_id":"st_d3j3df2ikq2c7380ej80","pricing_plan_id":"cebpf4jnsgd1na2vs0mg"},{"bike_id":"8850eb8b-bbc8-4840-8264-aa6de23d2ea2","system_id":"levelo_inurba_marseille","lat":43.32495,"lon":5.36527,"is_reserved":false,"is_disabled":false,"rental_uris":{"android":"levelo://app?vid=8850eb8b-bbc8-4840-8264-aa6de23d2ea2","ios":"levelo://app?vid=8850eb8b-bbc8-4840-8264-aa6de23d2ea2"},"vehicle_type_id":"4","last_reported":1767024792,"current_range_meters":16800,"station_id":"ce4bhs12rcd13ifvqhvg","pricing_plan_id":"cebpf4jnsgd1na2vs0mg"},