{"last_updated":1706904414,"ttl":30,"version":"2.2","data":{"bikes":[{"bike_id":"e3e592c3-fe90-4759-bdcc-8852e21f4162","system_id":"levelo_inurba_marseille","lat":43.312239,"lon":5.368562,"is_reserved":false,"is_disabled":false,"rental_uris":{"android":"levelo://app?vid=e3e592c3-fe90-4759-bdcc-8852e21f4162","ios":"levelo://app?vid=e3e592c3-fe90-4759-bdcc-8852e21f4162"},"vehicle_type_id":"4","last_reported":1706904414,"current_range_meters":30400,"station_id":"ce4bgl92rcd13ifvqbq0","pricing_plan_id":"free"},{"bike_id":"c08f31f2-3c44-4b8d-a706-100e90b37c04","system_id":"levelo_inurba_marseille","lat":43.312239,"lon":5.368562,"is_reserved":false,"is_disabled":false,"rental_uris":{"android":"levelo://app?vid=c08f31f2-3c44-4b8d-a706-100e90b37c04","ios":"levelo://app?vid=c08f31f2-3c44-4b8d-a706-100e90b37c04"},"vehicle_type_id":"4","last_reported":1706904414,"current_range_meters":16400,"station_id":"ce4bgl92rcd13ifvqbq0","pricing_plan_id":"free"},{"bike_id":"7857b519-bd88-4517-b592-17f0a7315746","system_id":"levelo_inurba_marseille","lat":43.309094,"lon":5.368486,"is_reserved":false,"is_disabled":false,"rental_uris":{"android":"levelo://app?vid=7857b519-bd88-4517-b592-17f0a7315746","ios":"levelo://app?vid=7857b519-bd88-4517-b592-17f0a7315746"},"vehicle_type_id":"4","last_reported":1706904414,"current_range_meters":15600,"station_id":"ce4bgn92rcd13ifvqbvg","pricing_plan_id":"free"},{"bike_id":"3a271586-b873-46dd-8550-fefb04c92b85","system_id":"levelo_inurba_marseille","lat":43.30905,"lon":5.36841,"is_reserved":false,"is_disabled":false,"rental_uris":{"android":"levelo://app?vid=3a271586-b873-46dd-8550-fefb04c92b85","ios":"levelo://app?vid=3a271586-b873-46dd-8550-fefb04c92b85"},"vehicle_type_id":"4","last_reported":1706904414,"current_range_meters":3200,"station_id":"ce4bgn92rcd13ifvqbvg","pricing_plan_id":"free"},{"bike_id":"8075556e-9c83-4ece-b92f-e5e90a5fd8a2","system_id":"levelo_inurba_marseille","lat":43.31306,"lon":5.37258,"is_reserved":false,"is_disabled":false,"rental_uris":{"android":"levelo://app?vid=8075556e-9c83-4ece-b92f-e5e90a5fd8a2","ios":"levelo://app?vid=8075556e-9c83-4ece-b92f-e5e90a5fd8a2"},"vehicle_type_id":"4","last_reported":1706904414,"current_range_meters":8000,"station_id":"","pricing_plan_id":"free"},{"bike_id":"29c1f00f-dc48-4523-a3ce-c6f4b13fd4cf","system_id":"levelo_inurba_marseille","lat":43.314811,"lon":5.373103,"is_reserved":false,"is_disabled":false,"rental_uris":{"android":"levelo://app?vid=29c1f00f-dc48-4523-a3ce-c6f4b13fd4cf","ios":"levelo://app?vid=29c1f00f-dc48-4523-a3ce-c6f4b13fd4cf"},"vehicle_type_id":"4","last_reported":1706904414,"current_range_meters":18800,"station_id":"ce4bgt12rcd13ifvqcd0","pricing_plan_id":"free"},{"bike_id":"4935c2bb-fa9e-412b-9ac1-51d8f5e7ba5e","system_id":"levelo_inurba_marseille","lat":43.30863,"lon":5.37155,"is_reserved":false,"is_disabled":false,"rental_uris":{"android":"levelo://app?vid=4935c2bb-fa9e-412b-9ac1-51d8f5e7ba5e","ios":"levelo://app?vid=4935c2bb-fa9e-412b-9ac1-51d8f5e7ba5e"},"vehicle_type_id":"4","last_reported":1706904414,"current_range_meters":0,"station_id":"","pricing_plan_id":"free"},{"bike_id":"b7d0fca8-fc67-43a5-b74e-7f658427ae6b","system_id":"levelo_inurba_marseille","lat":43.305712,"lon":5.365641,"is_reserved":false,"is_disabled":false,"rental_uris":{"android":"levelo://app?vid=b7d0fca8-fc67-43a5-b74e-7f658427ae6b","ios":"levelo://app?vid=b7d0fca8-fc67-43a5-b74e-7f658427ae6b"},"vehicle_type_id":"4","last_reported":1706904414,"current_range_meters":1200,"station_id":"ce4bgs12rcd13ifvqcag","pricing_plan_id":"free"},{"bike_id":"6ee5ef83-241b-41c4-bbd2-0ecd7f1c8fdf","system_id":"levelo_inurba_marseille","lat":43.311125,"lon":5.377624,"is_reserved":false,"is_disabled":false,"rental_uris":{"android":"levelo://app?vid=6ee5ef83-241b-41c4-bbd2-0ecd7f1c8fdf","ios":"levelo://app?vid=6ee5ef83-241b-41c4-bbd2-0ecd7f1c8fdf"},"vehicle_type_id":"4","last_reported":1706904414,"current_range_meters":800,"station_id":"ce4bgt92rcd13ifvqcg0","pricing_plan_id":"free"},{"bike_id":"9e2b4a0f-91a1-42a6-9bc6-b5511ee6ff19","system_id":"levelo_inurba_marseille","lat":43.311125,"lon":5.377624,"is_reserved":false,"is_disabled":false,"rental_uris":{"android":"levelo://app?vid=9e2b4a0f-91a1-42a6-9bc6-b5511ee6ff19","ios":"levelo://app?vid=9e2b4a0f-91a1-42a6-9bc6-b5511ee6ff19"},"vehicle_type_id":"4","last_reported":1706904414,"current_range_meters":9600,"station_id":"ce4bgt92rcd13ifvqcg0","pricing_plan_id":"free"},{"bike_id":"019398ef-112d-46b0-8a79-578f3ba34a08","system_id":"levelo_inurba_marseille","lat":43.305714,"lon":5.365633,"is_reserved":false,"is_disabled":false,"rental_uris":{"android":"levelo://app?vid=019398ef-112d-46b0-8a79-578f3ba34a08","ios":"levelo://app?vid=019398ef-112d-46b0-8a79-578f3ba34a08"},"vehicle_type_id":"4","last_reported":1706904414,"current_range_meters":15200,"station_id":"ce4bgs12rcd13ifvqcag","pricing_plan_id":"free"},{"bike_id":"3fd6b355-cd17-4e44-a4ed-1c6a0b48a8ac","system_id":"levelo_inurba_marseille","lat":43.307945,"lon":5.376487,"is_reserved":false,"is_disabled":false,"rental_uris":{"android":"levelo://app?vid=3fd6b355-cd17-4e44-a4ed-1c6a0b48a8ac","ios":"levelo://app?vid=3fd6b355-cd17-4e44-a4ed-1c6a0b48a8ac"},"vehicle_type_id":"4","last_reported":1706904414,"current_range_meters":3200,"station_id":"ce4bgv92rcd13ifvqcq0","pricing_plan_id":"free"},{"bike_id":"77d28bf1-2f6e-47a9-8dca-5881f60efa16","system_id":"levelo_inurba_marseille","lat":43.317075,"lon":5.377367,"is_reserved":false,"is_disabled":false,"rental_uris":{"android":"levelo://app?vid=77d28bf1-2f6e-47a9-8dca-5881f60efa16","ios":"levelo://app?vid=77d28bf1-2f6e-47a9-8dca-5881f60efa16"},"vehicle_type_id":"4","last_reported":1706904414,"current_range_meters":27600,"station_id":"ce4bgth2rcd13ifvqch0","pricing_plan_id":"free"},{"bike_id":"ae0f098b-ccaf-4b85-8f2a-505a843a69b4","system_id":"levelo_inurba_marseille","lat":43.317075,"lon":5.377367,"is_reserved":false,"is_disabled":false,"rental_uris":{"android":"levelo://app?vid=ae0f098b-ccaf-4b85-8f2a-505a843a69b4","ios":"levelo://app?vid=ae0f098b-ccaf-4b85-8f2a-505a843a69b4"},"vehicle_type_id":"4","last_reported":1706904414,"current_range_meters":0,"station_id":"ce4bgth2rcd13ifvqch0","pricing_plan_id":"free"},{"bike_id":"63565569-7503-4d4b-8aac-bfc64cff8b2d","system_id":"levelo_inurba_marseille","lat":43.317075,"lon":5.377367,"is_reserved":false,"is_disabled":false,"rental_uris":{"android":"levelo://app?vid=63565569-7503-4d4b-8aac-bfc64cff8b2d","ios":"levelo://app?vid=63565569-7503-4d4b-8aac-bfc64cff8b2d"},"vehicle_type_id":"4","last_reported":1706904414,"current_range_meters":10400,"station_id":"ce4bgth2rcd13ifvqch0","pricing_plan_id":"free"},{"bike_id":"0f833ad1-607f-417a-a09f-4998cd54a18f","system_id":"levelo_inurba_marseille","lat":43.317075,"lon":5.377367,"is_reserved":false,"is_disabled":false,"rental_uris":{"android":"levelo://app?vid=0f833ad1-607f-417a-a09f-4998cd54a18f","ios":"levelo://app?vid=0f833ad1-607f-417a-a09f-4998cd54a18f"},"vehicle_type_id":"4","last_reported":1706904414,"current_range_meters":0,"station_id":"ce4bgth2rcd13ifvqch0","pricing_plan_id":"free"},{"bike_id":"a94bde46-42ed-49d8-bf89-8de1b2b7f499","system_id":"levelo_inurba_marseille","lat":43.317075,"lon":5.377367,"is_reserved":false,"is_disabled":false,"rental_uris":{"android":"levelo://app?vid=a94bde46-42ed-49d8-bf89-8de1b2b7f499","ios":"levelo://app?vid=a94bde46-42ed-49d8-bf89-8de1b2b7f499"},"vehicle_type_id":"4","last_reported":1706904414,"current_range_meters":10800,"station_id":"ce4bgth2rcd13ifvqch0","pricing_plan_id":"free"},{"bike_id":"eca4bc68-2201-4590-84c0-9934a8eaac8f","system_id":"levelo_inurba_marseille","lat":43.317075,"lon":5.377367,"is_reserved":false,"is_disabled":false,"rental_uris":{"android":"levelo://app?vid=eca4bc68-2201-4590-84c0-9934a8eaac8f","ios":"levelo://app?vid=eca4bc68-2201-4590-84c0-9934a8eaac8f"},"vehicle_type_id":"4","last_reported":1706904414,"current_range_meters":13200,"station_id":"ce4bgth2rcd13ifvqch0","pricing_plan_id":"free"},{"bike_id":"fecb14f6-59b5-4d52-99dd-80c6a67fedd3","system_id":"levelo_inurba_marseille","lat":43.317075,"lon":5.377367,"is_reserved":false,"is_disabled":false,"rental_uris":{"android":"levelo://app?vid=fecb14f6-59b5-4d52-99dd-80c6a67fedd3","ios":"levelo://app?vid=fecb14f6-59b5-4d52-99dd-80c6a67fedd3"},"vehicle_type_id":"4","last_reported":1706904414,"current_range_meters":31200,"station_id":"ce4bgth2rcd13ifvqch0","pricing_plan_id":"free"},{"bike_id":"2903f219-2a57-4958-bb20-79c422faf981","system_id":"levelo_inurba_marseille","lat":43.317075,"lon":5.377367,"is_reserved":false,"is_disabled":false,"rental_uris":{"android":"levelo://app?vid=2903f219-2a57-4958-bb20-79c422faf981","ios":"levelo://app?vid=2903f219-2a57-4958-bb20-79c422faf981"},"vehicle_type_id":"4","last_reported":1706904414,"current_range_meters":28000,"station_id":"ce4bgth2rcd13ifvqch0","pricing_plan_id":"free"},{"bike_id":"93cbea08-211d-4a3c-a622-c603b3b836a0","system_id":"levelo_inurba_marseille","lat":43.301939,"lon":5.366286,"is_reserved":false,"is_disabled":false,"rental_uris":{"android":"levelo://app?vid=93cbea08-211d-4a3c-a622-c603b3b836a0","ios":"levelo://app?vid=93cbea08-211d-4a3c-a622-c603b3b836a0"},"vehicle_type_id":"4","last_reported":1706904414,"current_range_meters":6400,"station_id":"ce4bgrh2rcd13ifvqc8g","pricing_plan_id":"free"},{"bike_id":"7752049e-7fc5-4379-88b3-816c0458a297","system_id":"levelo_inurba_marseille","lat":43.308012,"lon":5.381511,"is_reserved":false,"is_disabled":false,"rental_uris":{"android":"levelo://app?vid=7752049e-7fc5-4379-88b3-816c0458a297","ios":"levelo://app?vid=7752049e-7fc5-4379-88b3-816c0458a297"},"vehicle_type_id":"4","last_reported":1706904414,"current_range_meters":16800,"station_id":"ce4bgt12rcd13ifvqce0","pricing_plan_id":"free"},{"bike_id":"47f9cf42-6736-48c3-9997-d035856a3dc8","system_id":"levelo_inurba_marseille","lat":43.308012,"lon":5.381511,"is_reserved":false,"is_disabled":false,"rental_uris":{"android":"levelo://app?vid=47f9cf42-6736-48c3-9997-d035856a3dc8","ios":"levelo://app?vid=47f9cf42-6736-48c3-9997-d035856a3dc8"},"vehicle_type_id":"4","last_reported":1706904414,"current_range_meters":1600,"station_id":"ce4bgt12rcd13ifvqce0","pricing_plan_id":"free"},{"bike_id":"a0bf0aab-fba6-43be-a3c4-b3fea1789ff2","system_id":"levelo_inurba_marseille","lat":43.308012,"lon":5.381511,"is_reserved":false,"is_disabled":false,"rental_uris":{"android":"levelo://app?vid=a0bf0aab-fba6-43be-a3c4-b3fea1789ff2","ios":"levelo://app?vid=a0bf0aab-fba6-43be-a3c4-b3fea1789ff2"},"vehicle_type_id":"4","last_reported":1706904414,"current_range_meters":8000,"station_id":"ce4bgt12rcd13ifvqce0","pricing_plan_id":"free"},{"bike_id":"dbf1a8f0-edf9-4392-a6a8-024912b1d2f2","system_id":"levelo_inurba_marseille","lat":43.324771,"lon":5.36557,"is_reserved":false,"is_disabled":false,"rental_uris":{"android":"levelo://app?vid=dbf1a8f0-edf9-4392-a6a8-024912b1d2f2","ios":"levelo://app?vid=dbf1a8f0-edf9-4392-a6a8-024912b1d2f2"},"vehicle_type_id":"4","last_reported":1706904414,"current_range_meters":1600,"station_id":"ce4bhs12rcd13ifvqhvg","pricing_plan_id":"free"},{"bike_id":"c829652e-e086-4603-a8a6-0278668b9e64","system_id":"levelo_inurba_marseille","lat":43.310804,"lon":5.38359,"is_reserved":false,"is_disabled":false,"rental_uris":{"android":"levelo://app?vid=c829652e-e086-4603-a8a6-0278668b9e64","ios":"levelo://app?vid=c829652e-e086-4603-a8a6-0278668b9e64"},"vehicle_type_id":"4","last_reported":1706904414,"current_range_meters":16400,"station_id":"ce4bgv92rcd13ifvqcr0","pricing_plan_id":"free"},{"bike_id":"1223bdf3-4c95-4a9a-b98e-9c0e8c3f34b8","system_id":"levelo_inurba_marseille","lat":43.310804,"lon":5.38359,"is_reserved":false,"is_disabled":false,"rental_uris":{"android":"levelo://app?vid=1223bdf3-4c95-4a9a-b98e-9c0e8c3f34b8","ios":"levelo://app?vid=1223bdf3-4c95-4a9a-b98e-9c0e8c3f34b8"},"vehicle_type_id":"4","last_reported":1706904414,"current_range_meters":1600,"station_id":"ce4bgv92rcd13ifvqcr0","pricing_plan_id":"free"},{"bike_id":"89477423-b9e8-49c8-8d78-04c9b090cb74","system_id":"levelo_inurba_marseille","lat":43.310804,"lon":5.38359,"is_reserved":false,"is_disabled":false,"rental_uris":{"android":"levelo://app?vid=89477423-b9e8-49c8-8d78-04c9b090cb74","ios":"levelo://app?vid=89477423-b9e8-49c8-8d78-04c9b090cb74"},"vehicle_type_id":"4","last_reported":1706904414,"current_range_meters":15200,"station_id":"ce4bgv92rcd13ifvqcr0","pricing_plan_id":"free"},{"bike_id":"a9746dc6-da4f-4831-8755-51f1385f7850","system_id":"levelo_inurba_marseille","lat":43.310804,"lon":5.38359,"is_reserved":false,"is_disabled":false,"rental_uris":{"android":"levelo://app?vid=a9746dc6-da4f-4831-8755-51f1385f7850","ios":"levelo://app?vid=a9746dc6-da4f-4831-8755-51f1385f7850"},"vehicle_type_id":"4","last_reported":1706904414,"current_range_meters":18800,"station_id":"ce4bgv92rcd13ifvqcr0","pricing_plan_id":"free"},{"bike_id":"42103f60-f207-4204-a703-052ad5927075","system_id":"levelo_inurba_marseille","lat":43.301429,"lon":5.37413,"is_reserved":false,"is_disabled":false,"rental_uris":{"android":"levelo://app?vid=42103f60-f207-4204-a703-052ad5927075","ios":"levelo://app?vid=42103f60-f207-4204-a703-052ad5927075"},"vehicle_type_id":"4","last_reported":1706904414,"current_range_meters":4000,"station_id":"ce4bgs92rcd13ifvqcc0","pricing_plan_id":"free"},{"bike_id":"5301e721-ba6e-4e3f-9607-8f8cd4ef9972","system_id":"levelo_inurba_marseille","lat":43.302871,"lon":5.378081,"is_reserved":false,"is_disabled":false,"rental_uris":{"android":"levelo://app?vid=5301e721-ba6e-4e3f-9607-8f8cd4ef9972","ios":"levelo://app?vid=5301e721-ba6e-4e3f-9607-8f8cd4ef9972"},"vehicle_type_id":"4","last_reported":1706904414,"current_range_meters":12000,"station_id":"ce4bguh2rcd13ifvqcj0","pricing_plan_id":"free"},{"bike_id":"d6c6117f-570d-4943-9f4e-85244eb92b89","system_id":"levelo_inurba_marseille","lat":43.319969,"lon":5.381624,"is_reserved":false,"is_disabled":false,"rental_uris":{"android":"levelo://app?vid=d6c6117f-570d-4943-9f4e-85244eb92b89","ios":"levelo://app?vid=d6c6117f-570d-4943-9f4e-85244eb92b89"},"vehicle_type_id":"4","last_reported":1706904414,"current_range_meters":12000,"station_id":"ce4bhr12rcd13ifvqhpg","pricing_plan_id":"free"},{"bike_id":"106a407c-36e6-462b-9265-604bd28d927b","system_id":"levelo_inurba_marseille","lat":43.319935,"lon":5.381699,"is_reserved":false,"is_disabled":false,"rental_uris":{"android":"levelo://app?vid=106a407c-36e6-462b-9265-604bd28d927b","ios":"levelo://app?vid=106a407c-36e6-462b-9265-604bd28d927b"},"vehicle_type_id":"4","last_reported":1706904414,"current_range_meters":14800,"station_id":"ce4bhr12rcd13ifvqhpg","pricing_plan_id":"free"},{"bike_id":"dafffb0a-0ae6-4ed8-b9e9-57dae0c69cf1","system_id":"levelo_inurba_marseille","lat":43.319988,"lon":5.38164,"is_reserved":false,"is_disabled":false,"rental_uris":{"android":"levelo://app?vid=dafffb0a-0ae6-4ed8-b9e9-57dae0c69cf1","ios":"levelo://app?vid=dafffb0a-0ae6-4ed8-b9e9-57dae0c69cf1"},"vehicle_type_id":"4","last_reported":1706904414,"current_range_meters":26400,"station_id":"ce4bhr12rcd13ifvqhpg","pricing_plan_id":"free"},{"bike_id":"fc02dd47-3f6c-4370-9ff3-ea2aea38ef40","system_id":"levelo_inurba_marseille","lat":43.313571,"lon":5.384829,"is_reserved":false,"is_disabled":false,"rental_uris":{"android":"levelo://app?vid=fc02dd47-3f6c-4370-9ff3-ea2aea38ef40","ios":"levelo://app?vid=fc02dd47-3f6c-4370-9ff3-ea2aea38ef40"},"vehicle_type_id":"4","last_reported":1706904414,"current_range_meters":8800,"station_id":"ce4bgt92rcd13ifvqcf0","pricing_plan_id":"free"},{"bike_id":"82e13c4b-b71d-4bc2-af3e-ada834092e1e","system_id":"levelo_inurba_marseille","lat":43.299724,"lon":5.371829,"is_reserved":false,"is_disabled":false,"rental_uris":{"android":"levelo://app?vid=82e13c4b-b71d-4bc2-af3e-ada834092e1e","ios":"levelo://app?vid=82e13c4b-b71d-4bc2-af3e-ada834092e1e"},"vehicle_type_id":"4","last_reported":1706904414,"current_range_meters":10000,"station_id":"ce4bgr92rcd13ifvqc7g","pricing_plan_id":"free"},{"bike_id":"4f0a88bf-7305-4297-9cf2-16c089e52683","system_id":"levelo_inurba_marseille","lat":43.299724,"lon":5.371829,"is_reserved":false,"is_disabled":false,"rental_uris":{"android":"levelo://app?vid=4f0a88bf-7305-4297-9cf2-16c089e52683","ios":"levelo://app?vid=4f0a88bf-7305-4297-9cf2-16c089e52683"},"vehicle_type_id":"4","last_reported":1706904414,"current_range_meters":26400,"station_id":"ce4bgr92rcd13ifvqc7g","pricing_plan_id":"free"},{"bike_id":"a9327aa3-e29c-474a-9644-061c29586338","system_id":"levelo_inurba_marseille","lat":43.299724,"lon":5.371829,"is_reserved":false,"is_disabled":false,"rental_uris":{"android":"levelo://app?vid=a9327aa3-e29c-474a-9644-061c29586338","ios":"levelo://app?vid=a9327aa3-e29c-474a-9644-061c29586338"},"vehicle_type_id":"4","last_reported":1706904414,"current_range_meters":12000,"station_id":"ce4bgr92rcd13ifvqc7g","pricing_plan_id":"free"},{"bike_id":"3d200b18-937c-406f-89c4-2b160d9187ff","system_id":"levelo_inurba_marseille","lat":43.299724,"lon":5.371829,"is_reserved":false,"is_disabled":false,"rental_uris":{"android":"levelo://app?vid=3d200b18-937c-406f-89c4-2b160d9187ff","ios":"levelo://app?vid=3d200b18-937c-406f-89c4-2b160d9187ff"},"vehicle_type_id":"4","last_reported":1706904414,"current_range_meters":6000,"station_id":"ce4bgr92rcd13ifvqc7g","pricing_plan_id":"free"},{"bike_id":"eddaad55-0b31-4021-8f73-5a1a4c430481","system_id":"levelo_inurba_marseille","lat":43.298433,"lon":5.362774,"is_reserved":false,"is_disabled":false,"rental_uris":{"android":"levelo://app?vid=eddaad55-0b31-4021-8f73-5a1a4c430481","ios":"levelo://app?vid=eddaad55-0b31-4021-8f73-5a1a4c430481"},"vehicle_type_id":"4","last_reported":1706904414,"current_range_meters":21600,"station_id":"ce4bgpp2rcd13ifvqc3g","pricing_plan_id":"free"},{"bike_id":"315d30fb-7274-4e8c-9ce1-b25f48b8672b","system_id":"levelo_inurba_marseille","lat":43.30542,"lon":5.38431,"is_reserved":false,"is_disabled":false,"rental_uris":{"android":"levelo://app?vid=315d30fb-7274-4e8c-9ce1-b25f48b8672b","ios":"levelo://app?vid=315d30fb-7274-4e8c-9ce1-b25f48b8672b"},"vehicle_type_id":"4","last_reported":1706904414,"current_range_meters":13600,"station_id":"ce4bgg92rcd13ifvqb30","pricing_plan_id":"free"},{"bike_id":"50b9ffb9-5e99-4674-be0c-b2a33d46c8f3","system_id":"levelo_inurba_marseille","lat":43.31168,"lon":5.38721,"is_reserved":false,"is_disabled":false,"rental_uris":{"android":"levelo://app?vid=50b9ffb9-5e99-4674-be0c-b2a33d46c8f3","ios":"levelo://app?vid=50b9ffb9-5e99-4674-be0c-b2a33d46c8f3"},"vehicle_type_id":"4","last_reported":1706904414,"current_range_meters":0,"station_id":"ce4bgv12rcd13ifvqcp0","pricing_plan_id":"free"},{"bike_id":"fa932f8f-fcac-420c-8595-9eaed6f9528b","system_id":"levelo_inurba_marseille","lat":43.311722,"lon":5.387247,"is_reserved":false,"is_disabled":false,"rental_uris":{"android":"levelo://app?vid=fa932f8f-fcac-420c-8595-9eaed6f9528b","ios":"levelo://app?vid=fa932f8f-fcac-420c-8595-9eaed6f9528b"},"vehicle_type_id":"4","last_reported":1706904414,"current_range_meters":17200,"station_id":"ce4bgv12rcd13ifvqcp0","pricing_plan_id":"free"},{"bike_id":"e544a8cb-9126-4c85-a57a-b40c62ba6606","system_id":"levelo_inurba_marseille","lat":43.311722,"lon":5.387247,"is_reserved":false,"is_disabled":false,"rental_uris":{"android":"levelo://app?vid=e544a8cb-9126-4c85-a57a-b40c62ba6606","ios":"levelo://app?vid=e544a8cb-9126-4c85-a57a-b40c62ba6606"},"vehicle_type_id":"4","last_reported":1706904414,"current_range_meters":14400,"station_id":"ce4bgv12rcd13ifvqcp0","pricing_plan_id":"free"},{"bike_id":"3d4f3d84-51f3-4229-83fe-3be49c001beb","system_id":"levelo_inurba_marseille","lat":43.311722,"lon":5.387247,"is_reserved":false,"is_disabled":false,"rental_uris":{"android":"levelo://app?vid=3d4f3d84-51f3-4229-83fe-3be49c001beb","ios":"levelo://app?vid=3d4f3d84-51f3-4229-83fe-3be49c001beb"},"vehicle_type_id":"4","last_reported":1706904414,"current_range_meters":0,"station_id":"ce4bgv12rcd13ifvqcp0","pricing_plan_id":"free"},{"bike_id":"b5d7b2cb-266e-4133-b32f-f491e5a88e3f","system_id":"levelo_inurba_marseille","lat":43.32288,"lon":5.38266,"is_reserved":false,"is_disabled":false,"rental_uris":{"android":"levelo://app?vid=b5d7b2cb-266e-4133-b32f-f491e5a88e3f","ios":"levelo://app?vid=b5d7b2cb-266e-4133-b32f-f491e5a88e3f"},"vehicle_type_id":"4","last_reported":1706904414,"current_range_meters":15200,"station_id":"ce4bhr12rcd13ifvqhqg","pricing_plan_id":"free"},{"bike_id":"02e37b27-5863-4c78-9d44-465544029690","system_id":"levelo_inurba_marseille","lat":43.322872,"lon":5.382756,"is_reserved":false,"is_disabled":false,"rental_uris":{"android":"levelo://app?vid=02e37b27-5863-4c78-9d44-465544029690","ios":"levelo://app?vid=02e37b27-5863-4c78-9d44-465544029690"},"vehicle_type_id":"4","last_reported":1706904414,"current_range_meters":15200,"station_id":"ce4bhr12rcd13ifvqhqg","pricing_plan_id":"free"},{"bike_id":"246c608e-7c64-4b37-a197-771571ab6f17","system_id":"levelo_inurba_marseille","lat":43.311722,"lon":5.387247,"is_reserved":false,"is_disabled":false,"rental_uris":{"android":"levelo://app?vid=246c608e-7c64-4b37-a197-771571ab6f17","ios":"levelo://app?vid=246c608e-7c64-4b37-a197-771571ab6f17"},"vehicle_type_id":"4","last_reported":1706904414,"current_range_meters":8800,"station_id":"ce4bgv12rcd13ifvqcp0","pricing_plan_id":"free"},{"bike_id":"65cdfc14-d57a-452e-8dc5-c02b0bdb56dd","system_id":"levelo_inurba_marseille","lat":43.322872,"lon":5.382756,"is_reserved":false,"is_disabled":false,"rental_uris":{"android":"levelo://app?vid=65cdfc14-d57a-452e-8dc5-c02b0bdb56dd","ios":"levelo://app?vid=65cdfc14-d57a-452e-8dc5-c02b0bdb56dd"},"vehicle_type_id":"4","last_reported":1706904414,"current_range_meters":30400,"station_id":"ce4bhr12rcd13ifvqhqg","pricing_plan_id":"free"},{"bike_id":"1900e2ea-9239-49b1-933e-57903fa99707","system_id":"levelo_inurba_marseille","lat":43.32826,"lon":5.36695,"is_reserved":false,"is_disabled":false,"rental_uris":{"android":"levelo://app?vid=1900e2ea-9239-49b1-933e-57903fa99707","ios":"levelo://app?vid=1900e2ea-9239-49b1-933e-57903fa99707"},"vehicle_type_id":"4","last_reported":1706904414,"current_range_meters":17600,"station_id":"ce4bhs92rcd13ifvqi0g","pricing_plan_id":"free"},{"bike_id":"80ba5bce-3c08-4ff2-889a-858c0a65191d","system_id":"levelo_inurba_marseille","lat":43.2968,"lon":5.37291,"is_reserved":false,"is_disabled":false,"rental_uris":{"android":"levelo://app?vid=80ba5bce-3c08-4ff2-889a-858c0a65191d","ios":"levelo://app?vid=80ba5bce-3c08-4ff2-889a-858c0a65191d"},"vehicle_type_id":"4","last_reported":1706904414,"current_range_meters":31200,"station_id":"ce4bgk12rcd13ifvqbj0","pricing_plan_id":"free"},{"bike_id":"528c04ae-45fd-47d7-bcc8-1037bb16010b","system_id":"levelo_inurba_marseille","lat":43.2968,"lon":5.37291,"is_reserved":false,"is_disabled":false,"rental_uris":{"android":"levelo://app?vid=528c04ae-45fd-47d7-bcc8-1037bb16010b","ios":"levelo://app?vid=528c04ae-45fd-47d7-bcc8-1037bb16010b"},"vehicle_type_id":"4","last_reported":1706904414,"current_range_meters":6000,"station_id":"ce4bgk12rcd13ifvqbj0","pricing_plan_id":"free"},{"bike_id":"90c27aa6-674d-4c54-8328-9b6e8cc6c1a5","system_id":"levelo_inurba_marseille","lat":43.29652,"lon":5.36284,"is_reserved":false,"is_disabled":false,"rental_uris":{"android":"levelo://app?vid=90c27aa6-674d-4c54-8328-9b6e8cc6c1a5","ios":"levelo://app?vid=90c27aa6-674d-4c54-8328-9b6e8cc6c1a5"},"vehicle_type_id":"4","last_reported":1706904414,"current_range_meters":17200,"station_id":"","pricing_plan_id":"free"},{"bike_id":"41fbb8b5-da27-45e7-8405-f802db1d0714","system_id":"levelo_inurba_marseille","lat":43.314811,"lon":5.373104,"is_reserved":false,"is_disabled":false,"rental_uris":{"android":"levelo://app?vid=41fbb8b5-da27-45e7-8405-f802db1d0714","ios":"levelo://app?vid=41fbb8b5-da27-45e7-8405-f802db1d0714"},"vehicle_type_id":"4","last_reported":1706904414,"current_range_meters":4800,"station_id":"ce4bgt12rcd13ifvqcd0","pricing_plan_id":"free"},{"bike_id":"d3a9d48d-158c-45f5-9b28-f40722a2fe76","system_id":"levelo_inurba_marseille","lat":43.29582,"lon":5.36739,"is_reserved":false,"is_disabled":false,"rental_uris":{"android":"levelo://app?vid=d3a9d48d-158c-45f5-9b28-f40722a2fe76","ios":"levelo://app?vid=d3a9d48d-158c-45f5-9b28-f40722a2fe76"},"vehicle_type_id":"4","last_reported":1706904414,"current_range_meters":26400,"station_id":"ce4bgph2rcd13ifvqc2g","pricing_plan_id":"free"},{"bike_id":"e8a4e0bf-04a4-4049-97a5-6a86486fa1c9","system_id":"levelo_inurba_marseille","lat":43.309589,"lon":5.390258,"is_reserved":false,"is_disabled":false,"rental_uris":{"android":"levelo://app?vid=e8a4e0bf-04a4-4049-97a5-6a86486fa1c9","ios":"levelo://app?vid=e8a4e0bf-04a4-4049-97a5-6a86486fa1c9"},"vehicle_type_id":"4","last_reported":1706904414,"current_range_meters":22000,"station_id":"ce4bgup2rcd13ifvqco0","pricing_plan_id":"free"},{"bike_id":"6dfd19d6-da61-4ff3-88c5-c1467079fdd0","system_id":"levelo_inurba_marseille","lat":43.309589,"lon":5.390258,"is_reserved":false,"is_disabled":false,"rental_uris":{"android":"levelo://app?vid=6dfd19d6-da61-4ff3-88c5-c1467079fdd0","ios":"levelo://app?vid=6dfd19d6-da61-4ff3-88c5-c1467079fdd0"},"vehicle_type_id":"4","last_reported":1706904414,"current_range_meters":0,"station_id":"ce4bgup2rcd13ifvqco0","pricing_plan_id":"free"},{"bike_id":"6bd28e52-985f-4426-b7a5-dd3644503d35","system_id":"levelo_inurba_marseille","lat":43.309498,"lon":5.39023,"is_reserved":false,"is_disabled":false,"rental_uris":{"android":"levelo://app?vid=6bd28e52-985f-4426-b7a5-dd3644503d35","ios":"levelo://app?vid=6bd28e52-985f-4426-b7a5-dd3644503d35"},"vehicle_type_id":"4","last_reported":1706904414,"current_range_meters":15200,"station_id":"ce4bgup2rcd13ifvqco0","pricing_plan_id":"free"},{"bike_id":"e2c975c1-8ff7-410f-8bb3-35cf2b9c5d3d","system_id":"levelo_inurba_marseille","lat":43.309577,"lon":5.390275,"is_reserved":false,"is_disabled":false,"rental_uris":{"android":"levelo://app?vid=e2c975c1-8ff7-410f-8bb3-35cf2b9c5d3d","ios":"levelo://app?vid=e2c975c1-8ff7-410f-8bb3-35cf2b9c5d3d"},"vehicle_type_id":"4","last_reported":1706904414,"current_range_meters":0,"station_id":"ce4bgup2rcd13ifvqco0","pricing_plan_id":"free"},{"bike_id":"b252f28d-069a-4cbe-bf05-d1af265662ce","system_id":"levelo_inurba_marseille","lat":43.309589,"lon":5.390258,"is_reserved":false,"is_disabled":false,"rental_uris":{"android":"levelo://app?vid=b252f28d-069a-4cbe-bf05-d1af265662ce","ios":"levelo://app?vid=b252f28d-069a-4cbe-bf05-d1af265662ce"},"vehicle_type_id":"4","last_reported":1706904414,"current_range_meters":4400,"station_id":"ce4bgup2rcd13ifvqco0","pricing_plan_id":"free"},{"bike_id":"e3868a36-c89d-4d5b-84b7-9aaa34ea3248","system_id":"levelo_inurba_marseille","lat":43.296935,"lon":5.376544,"is_reserved":false,"is_disabled":false,"rental_uris":{"android":"levelo://app?vid=e3868a36-c89d-4d5b-84b7-9aaa34ea3248","ios":"levelo://app?vid=e3868a36-c89d-4d5b-84b7-9aaa34ea3248"},"vehicle_type_id":"4","last_reported":1706904414,"current_range_meters":800,"station_id":"ce4bgkh2rcd13ifvqbl0","pricing_plan_id":"free"},{"bike_id":"2a2bb158-5339-436a-8507-280d8c574036","system_id":"levelo_inurba_marseille","lat":43.309589,"lon":5.390258,"is_reserved":false,"is_disabled":false,"rental_uris":{"android":"levelo://app?vid=2a2bb158-5339-436a-8507-280d8c574036","ios":"levelo://app?vid=2a2bb158-5339-436a-8507-280d8c574036"},"vehicle_type_id":"4","last_reported":1706904414,"current_range_meters":0,"station_id":"ce4bgup2rcd13ifvqco0","pricing_plan_id":"free"},{"bike_id":"37394cdb-f216-4fc0-809d-f43d72f8439f","system_id":"levelo_inurba_marseille","lat":43.309589,"lon":5.390258,"is_reserved":false,"is_disabled":false,"rental_uris":{"android":"levelo://app?vid=37394cdb-f216-4fc0-809d-f43d72f8439f","ios":"levelo://app?vid=37394cdb-f216-4fc0-809d-f43d72f8439f"},"vehicle_type_id":"4","last_reported":1706904414,"current_range_meters":8000,"station_id":"ce4bgup2rcd13ifvqco0","pricing_plan_id":"free"},{"bike_id":"ab74167f-7d49-4c52-830b-27ef7d328320","system_id":"levelo_inurba_marseille","lat":43.309589,"lon":5.390258,"is_reserved":false,"is_disabled":false,"rental_uris":{"android":"levelo://app?vid=ab74167f-7d49-4c52-830b-27ef7d328320","ios":"levelo://app?vid=ab74167f-7d49-4c52-830b-27ef7d328320"},"vehicle_type_id":"4","last_reported":1706904414,"current_range_meters":6800,"station_id":"ce4bgup2rcd13ifvqco0","pricing_plan_id":"free"},{"bike_id":"397875e9-6480-491a-8b49-3a78a07339a7","system_id":"levelo_inurba_marseille","lat":43.309589,"lon":5.390258,"is_reserved":false,"is_disabled":false,"rental_uris":{"android":"levelo://app?vid=397875e9-6480-491a-8b49-3a78a07339a7","ios":"levelo://app?vid=397875e9-6480-491a-8b49-3a78a07339a7"},"vehicle_type_id":"4","last_reported":1706904414,"current_range_meters":0,"station_id":"ce4bgup2rcd13ifvqco0","pricing_plan_id":"free"},{"bike_id":"8359d29c-4751-487e-8485-be50918790b9","system_id":"levelo_inurba_marseille","lat":43.299028,"lon":5.381509,"is_reserved":false,"is_disabled":false,"rental_uris":{"android":"levelo://app?vid=8359d29c-4751-487e-8485-be50918790b9","ios":"levelo://app?vid=8359d29c-4751-487e-8485-be50918790b9"},"vehicle_type_id":"4","last_reported":1706904414,"current_range_meters":4000,"station_id":"ce4bgj12rcd13ifvqbc0","pricing_plan_id":"free"},{"bike_id":"fa26cb75-1aee-4492-8554-1dea9d009aff","system_id":"levelo_inurba_marseille","lat":43.309589,"lon":5.390258,"is_reserved":false,"is_disabled":false,"rental_uris":{"android":"levelo://app?vid=fa26cb75-1aee-4492-8554-1dea9d009aff","ios":"levelo://app?vid=fa26cb75-1aee-4492-8554-1dea9d009aff"},"vehicle_type_id":"4","last_reported":1706904414,"current_range_meters":12000,"station_id":"ce4bgup2rcd13ifvqco0","pricing_plan_id":"free"},{"bike_id":"423b7b18-cd12-4868-84ec-423c7b591952","system_id":"levelo_inurba_marseille","lat":43.309589,"lon":5.390258,"is_reserved":false,"is_disabled":false,"rental_uris":{"android":"levelo://app?vid=423b7b18-cd12-4868-84ec-423c7b591952","ios":"levelo://app?vid=423b7b18-cd12-4868-84ec-423c7b591952"},"vehicle_type_id":"4","last_reported":1706904414,"current_range_meters":800,"station_id":"ce4bgup2rcd13ifvqco0","pricing_plan_id":"free"},{"bike_id":"97cfc09a-8091-45f0-992b-4818308e4264","system_id":"levelo_inurba_marseille","lat":43.30958,"lon":5.39036,"is_reserved":false,"is_disabled":false,"rental_uris":{"android":"levelo://app?vid=97cfc09a-8091-45f0-992b-4818308e4264","ios":"levelo://app?vid=97cfc09a-8091-45f0-992b-4818308e4264"},"vehicle_type_id":"4","last_reported":1706904414,"current_range_meters":0,"station_id":"ce4bgup2rcd13ifvqco0","pricing_plan_id":"free"},{"bike_id":"ff6fce0f-48bd-4468-9e95-17203171ab9c","system_id":"levelo_inurba_marseille","lat":43.30962,"lon":5.39039,"is_reserved":false,"is_disabled":false,"rental_uris":{"android":"levelo://app?vid=ff6fce0f-48bd-4468-9e95-17203171ab9c","ios":"levelo://app?vid=ff6fce0f-48bd-4468-9e95-17203171ab9c"},"vehicle_type_id":"4","last_reported":1706904414,"current_range_meters":2800,"station_id":"ce4bgup2rcd13ifvqco0","pricing_plan_id":"free"},{"bike_id":"55629ea5-06e2-4e9f-9b5f-7cf9b451b54c","system_id":"levelo_inurba_marseille","lat":43.309589,"lon":5.390258,"is_reserved":false,"is_disabled":false,"rental_uris":{"android":"levelo://app?vid=55629ea5-06e2-4e9f-9b5f-7cf9b451b54c","ios":"levelo://app?vid=55629ea5-06e2-4e9f-9b5f-7cf9b451b54c"},"vehicle_type_id":"4","last_reported":1706904414,"current_range_meters":4400,"station_id":"ce4bgup2rcd13ifvqco0","pricing_plan_id":"free"},{"bike_id":"f9708d1f-22b8-4341-99f6-c7877b219136","system_id":"levelo_inurba_marseille","lat":43.309589,"lon":5.390258,"is_reserved":false,"is_disabled":false,"rental_uris":{"android":"levelo://app?vid=f9708d1f-22b8-4341-99f6-c7877b219136","ios":"levelo://app?vid=f9708d1f-22b8-4341-99f6-c7877b219136"},"vehicle_type_id":"4","last_reported":1706904414,"current_range_meters":14800,"station_id":"ce4bgup2rcd13ifvqco0","pricing_plan_id":"free"},{"bike_id":"6a9b3661-645f-41d4-aedf-d0aa9c636f86","system_id":"levelo_inurba_marseille","lat":43.286961,"lon":5.373785,"is_reserved":false,"is_disabled":false,"rental_uris":{"android":"levelo://app?vid=6a9b3661-645f-41d4-aedf-d0aa9c636f86","ios":"levelo://app?vid=6a9b3661-645f-41d4-aedf-d0aa9c636f86"},"vehicle_type_id":"4","last_reported":1706904414,"current_range_meters":17600,"station_id":"ce4bh3p2rcd13ifvqdq0","pricing_plan_id":"free"},{"bike_id":"6717cb07-a2bf-46d1-ba83-09e9386dc5e6","system_id":"levelo_inurba_marseille","lat":43.317557,"lon":5.390173,"is_reserved":false,"is_disabled":false,"rental_uris":{"android":"levelo://app?vid=6717cb07-a2bf-46d1-ba83-09e9386dc5e6","ios":"levelo://app?vid=6717cb07-a2bf-46d1-ba83-09e9386dc5e6"},"vehicle_type_id":"4","last_reported":1706904414,"current_range_meters":23600,"station_id":"ce4bhqp2rcd13ifvqhng","pricing_plan_id":"free"},{"bike_id":"419f9f4e-2316-470b-8561-6bfa5f340ab0","system_id":"levelo_inurba_marseille","lat":43.317557,"lon":5.390173,"is_reserved":false,"is_disabled":false,"rental_uris":{"android":"levelo://app?vid=419f9f4e-2316-470b-8561-6bfa5f340ab0","ios":"levelo://app?vid=419f9f4e-2316-470b-8561-6bfa5f340ab0"},"vehicle_type_id":"4","last_reported":1706904414,"current_range_meters":20400,"station_id":"ce4bhqp2rcd13ifvqhng","pricing_plan_id":"free"},{"bike_id":"106fe314-0813-4817-8722-724f217949ab","system_id":"levelo_inurba_marseille","lat":43.317557,"lon":5.390173,"is_reserved":false,"is_disabled":false,"rental_uris":{"android":"levelo://app?vid=106fe314-0813-4817-8722-724f217949ab","ios":"levelo://app?vid=106fe314-0813-4817-8722-724f217949ab"},"vehicle_type_id":"4","last_reported":1706904414,"current_range_meters":27200,"station_id":"ce4bhqp2rcd13ifvqhng","pricing_plan_id":"free"},{"bike_id":"aaee9df6-2bd3-419f-9a0a-fb04ee96325a","system_id":"levelo_inurba_marseille","lat":43.317557,"lon":5.390173,"is_reserved":false,"is_disabled":false,"rental_uris":{"android":"levelo://app?vid=aaee9df6-2bd3-419f-9a0a-fb04ee96325a","ios":"levelo://app?vid=aaee9df6-2bd3-419f-9a0a-fb04ee96325a"},"vehicle_type_id":"4","last_reported":1706904414,"current_range_meters":31200,"station_id":"ce4bhqp2rcd13ifvqhng","pricing_plan_id":"free"},{"bike_id":"a58d93ca-bdc9-4969-ad76-287ea92adedb","system_id":"levelo_inurba_marseille","lat":43.317557,"lon":5.390173,"is_reserved":false,"is_disabled":false,"rental_uris":{"android":"levelo://app?vid=a58d93ca-bdc9-4969-ad76-287ea92adedb","ios":"levelo://app?vid=a58d93ca-bdc9-4969-ad76-287ea92adedb"},"vehicle_type_id":"4","last_reported":1706904414,"current_range_meters":30800,"station_id":"ce4bhqp2rcd13ifvqhng","pricing_plan_id":"free"},{"bike_id":"cdd0a5e1-97e9-4609-aa8c-b9db9e70b7f9","system_id":"levelo_inurba_marseille","lat":43.317557,"lon":5.390173,"is_reserved":false,"is_disabled":false,"rental_uris":{"android":"levelo://app?vid=cdd0a5e1-97e9-4609-aa8c-b9db9e70b7f9","ios":"levelo://app?vid=cdd0a5e1-97e9-4609-aa8c-b9db9e70b7f9"},"vehicle_type_id":"4","last_reported":1706904414,"current_range_meters":17600,"station_id":"ce4bhqp2rcd13ifvqhng","pricing_plan_id":"free"},{"bike_id":"86eba5ee-3f3e-465e-879d-a26eca611b6f","system_id":"levelo_inurba_marseille","lat":43.319147,"lon":5.389885,"is_reserved":false,"is_disabled":false,"rental_uris":{"android":"levelo://app?vid=86eba5ee-3f3e-465e-879d-a26eca611b6f","ios":"levelo://app?vid=86eba5ee-3f3e-465e-879d-a26eca611b6f"},"vehicle_type_id":"4","last_reported":1706904414,"current_range_meters":24800,"station_id":"","pricing_plan_id":"free"},{"bike_id":"26161cae-7d1a-45dc-9a39-bd3663f226bc","system_id":"levelo_inurba_marseille","lat":43.295748,"lon":5.37522,"is_reserved":false,"is_disabled":false,"rental_uris":{"android":"levelo://app?vid=26161cae-7d1a-45dc-9a39-bd3663f226bc","ios":"levelo://app?vid=26161cae-7d1a-45dc-9a39-bd3663f226bc"},"vehicle_type_id":"4","last_reported":1706904414,"current_range_meters":11200,"station_id":"ce4bgh92rcd13ifvqb50","pricing_plan_id":"free"},{"bike_id":"91670881-d2b5-4b8d-bfc9-e6c9726e59d8","system_id":"levelo_inurba_marseille","lat":43.304274,"lon":5.388873,"is_reserved":false,"is_disabled":false,"rental_uris":{"android":"levelo://app?vid=91670881-d2b5-4b8d-bfc9-e6c9726e59d8","ios":"levelo://app?vid=91670881-d2b5-4b8d-bfc9-e6c9726e59d8"},"vehicle_type_id":"4","last_reported":1706904414,"current_range_meters":4800,"station_id":"ce4bgk12rcd13ifvqbi0","pricing_plan_id":"free"},{"bike_id":"8e6f7710-3edd-4701-ab3b-0c92b554092b","system_id":"levelo_inurba_marseille","lat":43.29568,"lon":5.37512,"is_reserved":false,"is_disabled":false,"rental_uris":{"android":"levelo://app?vid=8e6f7710-3edd-4701-ab3b-0c92b554092b","ios":"levelo://app?vid=8e6f7710-3edd-4701-ab3b-0c92b554092b"},"vehicle_type_id":"4","last_reported":1706904414,"current_range_meters":0,"station_id":"ce4bgh92rcd13ifvqb50","pricing_plan_id":"free"},{"bike_id":"e5827938-4521-4500-ab43-8510d1c7e681","system_id":"levelo_inurba_marseille","lat":43.295748,"lon":5.37522,"is_reserved":false,"is_disabled":false,"rental_uris":{"android":"levelo://app?vid=e5827938-4521-4500-ab43-8510d1c7e681","ios":"levelo://app?vid=e5827938-4521-4500-ab43-8510d1c7e681"},"vehicle_type_id":"4","last_reported":1706904414,"current_range_meters":12800,"station_id":"ce4bgh92rcd13ifvqb50","pricing_plan_id":"free"},{"bike_id":"09ecd4cc-9129-4f28-b05f-cf9dec3fe62a","system_id":"levelo_inurba_marseille","lat":43.298037,"lon":5.381066,"is_reserved":false,"is_disabled":false,"rental_uris":{"android":"levelo://app?vid=09ecd4cc-9129-4f28-b05f-cf9dec3fe62a","ios":"levelo://app?vid=09ecd4cc-9129-4f28-b05f-cf9dec3fe62a"},"vehicle_type_id":"4","last_reported":1706904414,"current_range_meters":10000,"station_id":"ce4bgip2rcd13ifvqbb0","pricing_plan_id":"free"},{"bike_id":"512ec456-f04a-4914-9e13-7c5d79c33f74","system_id":"levelo_inurba_marseille","lat":43.29555,"lon":5.37514,"is_reserved":false,"is_disabled":false,"rental_uris":{"android":"levelo://app?vid=512ec456-f04a-4914-9e13-7c5d79c33f74","ios":"levelo://app?vid=512ec456-f04a-4914-9e13-7c5d79c33f74"},"vehicle_type_id":"4","last_reported":1706904414,"current_range_meters":20400,"station_id":"ce4bgh92rcd13ifvqb50","pricing_plan_id":"free"},{"bike_id":"678a215c-6842-458f-aafc-843a5271f403","system_id":"levelo_inurba_marseille","lat":43.297743,"lon":5.381269,"is_reserved":false,"is_disabled":false,"rental_uris":{"android":"levelo://app?vid=678a215c-6842-458f-aafc-843a5271f403","ios":"levelo://app?vid=678a215c-6842-458f-aafc-843a5271f403"},"vehicle_type_id":"4","last_reported":1706904414,"current_range_meters":1200,"station_id":"ce4bgip2rcd13ifvqbb0","pricing_plan_id":"free"},{"bike_id":"3d4e8176-2ec9-4344-80ea-911223347935","system_id":"levelo_inurba_marseille","lat":43.309589,"lon":5.390258,"is_reserved":false,"is_disabled":false,"rental_uris":{"android":"levelo://app?vid=3d4e8176-2ec9-4344-80ea-911223347935","ios":"levelo://app?vid=3d4e8176-2ec9-4344-80ea-911223347935"},"vehicle_type_id":"4","last_reported":1706904414,"current_range_meters":17600,"station_id":"ce4bgup2rcd13ifvqco0","pricing_plan_id":"free"},{"bike_id":"a291e153-b18f-42fb-8abf-86c36f8f027c","system_id":"levelo_inurba_marseille","lat":43.32319,"lon":5.38846,"is_reserved":false,"is_disabled":false,"rental_uris":{"android":"levelo://app?vid=a291e153-b18f-42fb-8abf-86c36f8f027c","ios":"levelo://app?vid=a291e153-b18f-42fb-8abf-86c36f8f027c"},"vehicle_type_id":"4","last_reported":1706904414,"current_range_meters":19600,"station_id":"","pricing_plan_id":"free"},{"bike_id":"2f639903-b097-46b0-8494-0017af56b0e6","system_id":"levelo_inurba_marseille","lat":43.32364,"lon":5.38874,"is_reserved":false,"is_disabled":false,"rental_uris":{"android":"levelo://app?vid=2f639903-b097-46b0-8494-0017af56b0e6","ios":"levelo://app?vid=2f639903-b097-46b0-8494-0017af56b0e6"},"vehicle_type_id":"4","last_reported":1706904414,"current_range_meters":20800,"station_id":"ce4bhqp2rcd13ifvqhog","pricing_plan_id":"free"},{"bike_id":"67d49ac5-1f02-4459-b787-ad82d964cdfa","system_id":"levelo_inurba_marseille","lat":43.32361,"lon":5.38877,"is_reserved":false,"is_disabled":false,"rental_uris":{"android":"levelo://app?vid=67d49ac5-1f02-4459-b787-ad82d964cdfa","ios":"levelo://app?vid=67d49ac5-1f02-4459-b787-ad82d964cdfa"},"vehicle_type_id":"4","last_reported":1706904414,"current_range_meters":0,"station_id":"ce4bhqp2rcd13ifvqhog","pricing_plan_id":"free"},{"bike_id":"a763ba73-be1b-47fe-b1b9-a14bd81f3a01","system_id":"levelo_inurba_marseille","lat":43.32367,"lon":5.388836,"is_reserved":false,"is_disabled":false,"rental_uris":{"android":"levelo://app?vid=a763ba73-be1b-47fe-b1b9-a14bd81f3a01","ios":"levelo://app?vid=a763ba73-be1b-47fe-b1b9-a14bd81f3a01"},"vehicle_type_id":"4","last_reported":1706904414,"current_range_meters":23200,"station_id":"ce4bhqp2rcd13ifvqhog","pricing_plan_id":"free"},{"bike_id":"f0c7a271-34e7-485e-b3da-5e19394fe417","system_id":"levelo_inurba_marseille","lat":43.32364,"lon":5.38876,"is_reserved":false,"is_disabled":false,"rental_uris":{"android":"levelo://app?vid=f0c7a271-34e7-485e-b3da-5e19394fe417","ios":"levelo://app?vid=f0c7a271-34e7-485e-b3da-5e19394fe417"},"vehicle_type_id":"4","last_reported":1706904414,"current_range_meters":4400,"station_id":"ce4bhqp2rcd13ifvqhog","pricing_plan_id":"free"},{"bike_id":"f8209757-4767-4431-8b9e-6bdee172c138","system_id":"levelo_inurba_marseille","lat":43.32362,"lon":5.3888,"is_reserved":false,"is_disabled":false,"rental_uris":{"android":"levelo://app?vid=f8209757-4767-4431-8b9e-6bdee172c138","ios":"levelo://app?vid=f8209757-4767-4431-8b9e-6bdee172c138"},"vehicle_type_id":"4","last_reported":1706904414,"current_range_meters":20000,"station_id":"ce4bhqp2rcd13ifvqhog","pricing_plan_id":"free"},{"bike_id":"1aca591f-66c1-4cab-8b35-fdb227e8bbbc","system_id":"levelo_inurba_marseille","lat":43.32367,"lon":5.388836,"is_reserved":false,"is_disabled":false,"rental_uris":{"android":"levelo://app?vid=1aca591f-66c1-4cab-8b35-fdb227e8bbbc","ios":"levelo://app?vid=1aca591f-66c1-4cab-8b35-fdb227e8bbbc"},"vehicle_type_id":"4","last_reported":1706904414,"current_range_meters":1200,"station_id":"ce4bhqp2rcd13ifvqhog","pricing_plan_id":"free"},{"bike_id":"e3ee28ba-cab5-40e7-ba5c-728151521cef","system_id":"levelo_inurba_marseille","lat":43.32364,"lon":5.388807,"is_reserved":false,"is_disabled":false,"rental_uris":{"android":"levelo://app?vid=e3ee28ba-cab5-40e7-ba5c-728151521cef","ios":"levelo://app?vid=e3ee28ba-cab5-40e7-ba5c-728151521cef"},"vehicle_type_id":"4","last_reported":1706904414,"current_range_meters":10000,"station_id":"ce4bhqp2rcd13ifvqhog","pricing_plan_id":"free"},{"bike_id":"80aebc65-9276-4106-9147-2143e4c2833e","system_id":"levelo_inurba_marseille","lat":43.323608,"lon":5.388852,"is_reserved":false,"is_disabled":false,"rental_uris":{"android":"levelo://app?vid=80aebc65-9276-4106-9147-2143e4c2833e","ios":"levelo://app?vid=80aebc65-9276-4106-9147-2143e4c2833e"},"vehicle_type_id":"4","last_reported":1706904414,"current_range_meters":10400,"station_id":"ce4bhqp2rcd13ifvqhog","pricing_plan_id":"free"},{"bike_id":"81b0db2a-d7d3-47f0-a95d-ba7da6ca0e0e","system_id":"levelo_inurba_marseille","lat":43.32365,"lon":5.38882,"is_reserved":false,"is_disabled":false,"rental_uris":{"android":"levelo://app?vid=81b0db2a-d7d3-47f0-a95d-ba7da6ca0e0e","ios":"levelo://app?vid=81b0db2a-d7d3-47f0-a95d-ba7da6ca0e0e"},"vehicle_type_id":"4","last_reported":1706904414,"current_range_meters":400,"station_id":"ce4bhqp2rcd13ifvqhog","pricing_plan_id":"free"},{"bike_id":"2867005b-b9b0-4312-8b91-edb88d7a8842","system_id":"levelo_inurba_marseille","lat":43.32363,"lon":5.388849,"is_reserved":false,"is_disabled":false,"rental_uris":{"android":"levelo://app?vid=2867005b-b9b0-4312-8b91-edb88d7a8842","ios":"levelo://app?vid=2867005b-b9b0-4312-8b91-edb88d7a8842"},"vehicle_type_id":"4","last_reported":1706904414,"current_range_meters":400,"station_id":"ce4bhqp2rcd13ifvqhog","pricing_plan_id":"free"},{"bike_id":"522745f2-6505-4a93-9a55-5c66eaece61d","system_id":"levelo_inurba_marseille","lat":43.32366,"lon":5.38884,"is_reserved":false,"is_disabled":false,"rental_uris":{"android":"levelo://app?vid=522745f2-6505-4a93-9a55-5c66eaece61d","ios":"levelo://app?vid=522745f2-6505-4a93-9a55-5c66eaece61d"},"vehicle_type_id":"4","last_reported":1706904414,"current_range_meters":5600,"station_id":"ce4bhqp2rcd13ifvqhog","pricing_plan_id":"free"},{"bike_id":"ef387e55-0389-4610-8828-a1df8718eecd","system_id":"levelo_inurba_marseille","lat":43.3237,"lon":5.38881,"is_reserved":false,"is_disabled":false,"rental_uris":{"android":"levelo://app?vid=ef387e55-0389-4610-8828-a1df8718eecd","ios":"levelo://app?vid=ef387e55-0389-4610-8828-a1df8718eecd"},"vehicle_type_id":"4","last_reported":1706904414,"current_range_meters":0,"station_id":"ce4bhqp2rcd13ifvqhog","pricing_plan_id":"free"},{"bike_id":"e512050a-6529-4225-a927-b67d6c06029f","system_id":"levelo_inurba_marseille","lat":43.323693,"lon":5.38883,"is_reserved":false,"is_disabled":false,"rental_uris":{"android":"levelo://app?vid=e512050a-6529-4225-a927-b67d6c06029f","ios":"levelo://app?vid=e512050a-6529-4225-a927-b67d6c06029f"},"vehicle_type_id":"4","last_reported":1706904414,"current_range_meters":0,"station_id":"ce4bhqp2rcd13ifvqhog","pricing_plan_id":"free"},{"bike_id":"cabe25cb-ec0b-4dc3-8feb-44741e6dd484","system_id":"levelo_inurba_marseille","lat":43.323675,"lon":5.388888,"is_reserved":false,"is_disabled":false,"rental_uris":{"android":"levelo://app?vid=cabe25cb-ec0b-4dc3-8feb-44741e6dd484","ios":"levelo://app?vid=cabe25cb-ec0b-4dc3-8feb-44741e6dd484"},"vehicle_type_id":"4","last_reported":1706904414,"current_range_meters":6400,"station_id":"ce4bhqp2rcd13ifvqhog","pricing_plan_id":"free"},{"bike_id":"13b9c551-9d4a-4e3d-8b94-3ec930896106","system_id":"levelo_inurba_marseille","lat":43.323679,"lon":5.388903,"is_reserved":false,"is_disabled":false,"rental_uris":{"android":"levelo://app?vid=13b9c551-9d4a-4e3d-8b94-3ec930896106","ios":"levelo://app?vid=13b9c551-9d4a-4e3d-8b94-3ec930896106"},"vehicle_type_id":"4","last_reported":1706904414,"current_range_meters":2800,"station_id":"ce4bhqp2rcd13ifvqhog","pricing_plan_id":"free"},{"bike_id":"67fa9df7-62ac-4ffa-939f-981585f082b6","system_id":"levelo_inurba_marseille","lat":43.29602,"lon":5.381084,"is_reserved":false,"is_disabled":false,"rental_uris":{"android":"levelo://app?vid=67fa9df7-62ac-4ffa-939f-981585f082b6","ios":"levelo://app?vid=67fa9df7-62ac-4ffa-939f-981585f082b6"},"vehicle_type_id":"4","last_reported":1706904414,"current_range_meters":13200,"station_id":"ce4bgl12rcd13ifvqbo0","pricing_plan_id":"free"},{"bike_id":"71cbb30d-9389-491d-adae-ea8563b6b219","system_id":"levelo_inurba_marseille","lat":43.29602,"lon":5.381084,"is_reserved":false,"is_disabled":false,"rental_uris":{"android":"levelo://app?vid=71cbb30d-9389-491d-adae-ea8563b6b219","ios":"levelo://app?vid=71cbb30d-9389-491d-adae-ea8563b6b219"},"vehicle_type_id":"4","last_reported":1706904414,"current_range_meters":17600,"station_id":"ce4bgl12rcd13ifvqbo0","pricing_plan_id":"free"},{"bike_id":"cb8fc009-901f-411e-8b4e-2b3482d39035","system_id":"levelo_inurba_marseille","lat":43.29602,"lon":5.381084,"is_reserved":false,"is_disabled":false,"rental_uris":{"android":"levelo://app?vid=cb8fc009-901f-411e-8b4e-2b3482d39035","ios":"levelo://app?vid=cb8fc009-901f-411e-8b4e-2b3482d39035"},"vehicle_type_id":"4","last_reported":1706904414,"current_range_meters":6400,"station_id":"ce4bgl12rcd13ifvqbo0","pricing_plan_id":"free"},{"bike_id":"07b1356d-1365-44e2-a834-6a763fba0089","system_id":"levelo_inurba_marseille","lat":43.29602,"lon":5.381084,"is_reserved":false,"is_disabled":false,"rental_uris":{"android":"levelo://app?vid=07b1356d-1365-44e2-a834-6a763fba0089","ios":"levelo://app?vid=07b1356d-1365-44e2-a834-6a763fba0089"},"vehicle_type_id":"4","last_reported":1706904414,"current_range_meters":16400,"station_id":"ce4bgl12rcd13ifvqbo0","pricing_plan_id":"free"},{"bike_id":"d25734e4-3706-4f51-992e-e42fa23c9ed5","system_id":"levelo_inurba_marseille","lat":43.295973,"lon":5.380967,"is_reserved":false,"is_disabled":false,"rental_uris":{"android":"levelo://app?vid=d25734e4-3706-4f51-992e-e42fa23c9ed5","ios":"levelo://app?vid=d25734e4-3706-4f51-992e-e42fa23c9ed5"},"vehicle_type_id":"4","last_reported":1706904414,"current_range_meters":0,"station_id":"ce4bgl12rcd13ifvqbo0","pricing_plan_id":"free"},{"bike_id":"9a5304b2-5a9e-42b4-be4a-6f6115ae3aa1","system_id":"levelo_inurba_marseille","lat":43.29601,"lon":5.381084,"is_reserved":false,"is_disabled":false,"rental_uris":{"android":"levelo://app?vid=9a5304b2-5a9e-42b4-be4a-6f6115ae3aa1","ios":"levelo://app?vid=9a5304b2-5a9e-42b4-be4a-6f6115ae3aa1"},"vehicle_type_id":"4","last_reported":1706904414,"current_range_meters":0,"station_id":"ce4bgl12rcd13ifvqbo0","pricing_plan_id":"free"},{"bike_id":"46172b20-8601-4fe1-bf98-4f3ff8124fee","system_id":"levelo_inurba_marseille","lat":43.29602,"lon":5.381084,"is_reserved":false,"is_disabled":false,"rental_uris":{"android":"levelo://app?vid=46172b20-8601-4fe1-bf98-4f3ff8124fee","ios":"levelo://app?vid=46172b20-8601-4fe1-bf98-4f3ff8124fee"},"vehicle_type_id":"4","last_reported":1706904414,"current_range_meters":20800,"station_id":"ce4bgl12rcd13ifvqbo0","pricing_plan_id":"free"},{"bike_id":"a1345c57-e862-4ad3-9348-e699c60e5748","system_id":"levelo_inurba_marseille","lat":43.309589,"lon":5.390258,"is_reserved":false,"is_disabled":false,"rental_uris":{"android":"levelo://app?vid=a1345c57-e862-4ad3-9348-e699c60e5748","ios":"levelo://app?vid=a1345c57-e862-4ad3-9348-e699c60e5748"},"vehicle_type_id":"4","last_reported":1706904414,"current_range_meters":23200,"station_id":"ce4bgup2rcd13ifvqco0","pricing_plan_id":"free"},{"bike_id":"56d811a8-f6b4-42ac-bf89-68ff88448bdb","system_id":"levelo_inurba_marseille","lat":43.299724,"lon":5.371829,"is_reserved":false,"is_disabled":false,"rental_uris":{"android":"levelo://app?vid=56d811a8-f6b4-42ac-bf89-68ff88448bdb","ios":"levelo://app?vid=56d811a8-f6b4-42ac-bf89-68ff88448bdb"},"vehicle_type_id":"4","last_reported":1706904414,"current_range_meters":26800,"station_id":"ce4bgr92rcd13ifvqc7g","pricing_plan_id":"free"},{"bike_id":"e4b233f0-aa97-4c46-9627-14ce58034af0","system_id":"levelo_inurba_marseille","lat":43.292749,"lon":5.368402,"is_reserved":false,"is_disabled":false,"rental_uris":{"android":"levelo://app?vid=e4b233f0-aa97-4c46-9627-14ce58034af0","ios":"levelo://app?vid=e4b233f0-aa97-4c46-9627-14ce58034af0"},"vehicle_type_id":"4","last_reported":1706904414,"current_range_meters":19600,"station_id":"ce4bhbp2rcd13ifvqesg","pricing_plan_id":"free"},{"bike_id":"d0ff51d5-bf94-452f-8dca-acd118964a9b","system_id":"levelo_inurba_marseille","lat":43.2931,"lon":5.37172,"is_reserved":false,"is_disabled":false,"rental_uris":{"android":"levelo://app?vid=d0ff51d5-bf94-452f-8dca-acd118964a9b","ios":"levelo://app?vid=d0ff51d5-bf94-452f-8dca-acd118964a9b"},"vehicle_type_id":"4","last_reported":1706904414,"current_range_meters":5200,"station_id":"ce4bgh92rcd13ifvqb40","pricing_plan_id":"free"},{"bike_id":"1f2f4665-cd92-42b5-b375-be44760fab3d","system_id":"levelo_inurba_marseille","lat":43.293086,"lon":5.37179,"is_reserved":false,"is_disabled":false,"rental_uris":{"android":"levelo://app?vid=1f2f4665-cd92-42b5-b375-be44760fab3d","ios":"levelo://app?vid=1f2f4665-cd92-42b5-b375-be44760fab3d"},"vehicle_type_id":"4","last_reported":1706904414,"current_range_meters":1200,"station_id":"ce4bgh92rcd13ifvqb40","pricing_plan_id":"free"},{"bike_id":"72fc857c-5b97-4664-83e7-bfe64c1e540f","system_id":"levelo_inurba_marseille","lat":43.293259,"lon":5.371586,"is_reserved":false,"is_disabled":false,"rental_uris":{"android":"levelo://app?vid=72fc857c-5b97-4664-83e7-bfe64c1e540f","ios":"levelo://app?vid=72fc857c-5b97-4664-83e7-bfe64c1e540f"},"vehicle_type_id":"4","last_reported":1706904414,"current_range_meters":24000,"station_id":"ce4bgh92rcd13ifvqb40","pricing_plan_id":"free"},{"bike_id":"93c7e884-5901-407f-ba8a-2a952ca5d889","system_id":"levelo_inurba_marseille","lat":43.29304,"lon":5.37162,"is_reserved":false,"is_disabled":false,"rental_uris":{"android":"levelo://app?vid=93c7e884-5901-407f-ba8a-2a952ca5d889","ios":"levelo://app?vid=93c7e884-5901-407f-ba8a-2a952ca5d889"},"vehicle_type_id":"4","last_reported":1706904414,"current_range_meters":800,"station_id":"ce4bgh92rcd13ifvqb40","pricing_plan_id":"free"},{"bike_id":"a6f381ce-6553-46da-9230-a0b624101b04","system_id":"levelo_inurba_marseille","lat":43.29305,"lon":5.37172,"is_reserved":false,"is_disabled":false,"rental_uris":{"android":"levelo://app?vid=a6f381ce-6553-46da-9230-a0b624101b04","ios":"levelo://app?vid=a6f381ce-6553-46da-9230-a0b624101b04"},"vehicle_type_id":"4","last_reported":1706904414,"current_range_meters":1200,"station_id":"ce4bgh92rcd13ifvqb40","pricing_plan_id":"free"},{"bike_id":"166e9c34-b18d-4740-8e3a-623423c90b90","system_id":"levelo_inurba_marseille","lat":43.29305,"lon":5.37174,"is_reserved":false,"is_disabled":false,"rental_uris":{"android":"levelo://app?vid=166e9c34-b18d-4740-8e3a-623423c90b90","ios":"levelo://app?vid=166e9c34-b18d-4740-8e3a-623423c90b90"},"vehicle_type_id":"4","last_reported":1706904414,"current_range_meters":14000,"station_id":"ce4bgh92rcd13ifvqb40","pricing_plan_id":"free"},{"bike_id":"2b7beecd-0b75-4a03-8fe1-70bdb6b4c019","system_id":"levelo_inurba_marseille","lat":43.292749,"lon":5.368402,"is_reserved":false,"is_disabled":false,"rental_uris":{"android":"levelo://app?vid=2b7beecd-0b75-4a03-8fe1-70bdb6b4c019","ios":"levelo://app?vid=2b7beecd-0b75-4a03-8fe1-70bdb6b4c019"},"vehicle_type_id":"4","last_reported":1706904414,"current_range_meters":3200,"station_id":"ce4bhbp2rcd13ifvqesg","pricing_plan_id":"free"},{"bike_id":"ce22580b-a407-459c-a7c1-6855dbe2744a","system_id":"levelo_inurba_marseille","lat":43.293046,"lon":5.371808,"is_reserved":false,"is_disabled":false,"rental_uris":{"android":"levelo://app?vid=ce22580b-a407-459c-a7c1-6855dbe2744a","ios":"levelo://app?vid=ce22580b-a407-459c-a7c1-6855dbe2744a"},"vehicle_type_id":"4","last_reported":1706904414,"current_range_meters":13600,"station_id":"ce4bgh92rcd13ifvqb40","pricing_plan_id":"free"},{"bike_id":"2a844446-6c5d-4e4a-9602-d01b623dba85","system_id":"levelo_inurba_marseille","lat":43.292749,"lon":5.368402,"is_reserved":false,"is_disabled":false,"rental_uris":{"android":"levelo://app?vid=2a844446-6c5d-4e4a-9602-d01b623dba85","ios":"levelo://app?vid=2a844446-6c5d-4e4a-9602-d01b623dba85"},"vehicle_type_id":"4","last_reported":1706904414,"current_range_meters":18800,"station_id":"ce4bhbp2rcd13ifvqesg","pricing_plan_id":"free"},{"bike_id":"db220113-e1c5-4cfe-8a85-6eab5e2d2cdf","system_id":"levelo_inurba_marseille","lat":43.29302,"lon":5.37182,"is_reserved":false,"is_disabled":false,"rental_uris":{"android":"levelo://app?vid=db220113-e1c5-4cfe-8a85-6eab5e2d2cdf","ios":"levelo://app?vid=db220113-e1c5-4cfe-8a85-6eab5e2d2cdf"},"vehicle_type_id":"4","last_reported":1706904414,"current_range_meters":16000,"station_id":"ce4bgh92rcd13ifvqb40","pricing_plan_id":"free"},{"bike_id":"e4cca626-7905-47c7-bbaa-8460d2e32bf8","system_id":"levelo_inurba_marseille","lat":43.29303,"lon":5.37192,"is_reserved":false,"is_disabled":false,"rental_uris":{"android":"levelo://app?vid=e4cca626-7905-47c7-bbaa-8460d2e32bf8","ios":"levelo://app?vid=e4cca626-7905-47c7-bbaa-8460d2e32bf8"},"vehicle_type_id":"4","last_reported":1706904414,"current_range_meters":0,"station_id":"ce4bgh92rcd13ifvqb40","pricing_plan_id":"free"},{"bike_id":"1abd116e-ac1b-4149-94b0-014dc493eb52","system_id":"levelo_inurba_marseille","lat":43.292749,"lon":5.368402,"is_reserved":false,"is_disabled":false,"rental_uris":{"android":"levelo://app?vid=1abd116e-ac1b-4149-94b0-014dc493eb52","ios":"levelo://app?vid=1abd116e-ac1b-4149-94b0-014dc493eb52"},"vehicle_type_id":"4","last_reported":1706904414,"current_range_meters":17600,"station_id":"ce4bhbp2rcd13ifvqesg","pricing_plan_id":"free"},{"bike_id":"9ffa8d96-0e7f-4588-b025-6311387f91b4","system_id":"levelo_inurba_marseille","lat":43.292705,"lon":5.368379,"is_reserved":false,"is_disabled":false,"rental_uris":{"android":"levelo://app?vid=9ffa8d96-0e7f-4588-b025-6311387f91b4","ios":"levelo://app?vid=9ffa8d96-0e7f-4588-b025-6311387f91b4"},"vehicle_type_id":"4","last_reported":1706904414,"current_range_meters":0,"station_id":"ce4bhbp2rcd13ifvqesg","pricing_plan_id":"free"},{"bike_id":"060f9eb3-16b1-4561-b63d-b1a916302000","system_id":"levelo_inurba_marseille","lat":43.29303,"lon":5.37458,"is_reserved":false,"is_disabled":false,"rental_uris":{"android":"levelo://app?vid=060f9eb3-16b1-4561-b63d-b1a916302000","ios":"levelo://app?vid=060f9eb3-16b1-4561-b63d-b1a916302000"},"vehicle_type_id":"4","last_reported":1706904414,"current_range_meters":12000,"station_id":"ce4bgi12rcd13ifvqb70","pricing_plan_id":"free"},{"bike_id":"d3cadec9-d8da-4b80-b130-25db0600d25e","system_id":"levelo_inurba_marseille","lat":43.293046,"lon":5.374745,"is_reserved":false,"is_disabled":false,"rental_uris":{"android":"levelo://app?vid=d3cadec9-d8da-4b80-b130-25db0600d25e","ios":"levelo://app?vid=d3cadec9-d8da-4b80-b130-25db0600d25e"},"vehicle_type_id":"4","last_reported":1706904414,"current_range_meters":0,"station_id":"ce4bgi12rcd13ifvqb70","pricing_plan_id":"free"},{"bike_id":"a8ac6fe1-b769-4547-943b-3ba52c58658c","system_id":"levelo_inurba_marseille","lat":43.293009,"lon":5.374584,"is_reserved":false,"is_disabled":false,"rental_uris":{"android":"levelo://app?vid=a8ac6fe1-b769-4547-943b-3ba52c58658c","ios":"levelo://app?vid=a8ac6fe1-b769-4547-943b-3ba52c58658c"},"vehicle_type_id":"4","last_reported":1706904414,"current_range_meters":26800,"station_id":"ce4bgi12rcd13ifvqb70","pricing_plan_id":"free"},{"bike_id":"78c1a369-15cb-46ce-8206-d0c9a078fa71","system_id":"levelo_inurba_marseille","lat":43.305994,"lon":5.393687,"is_reserved":false,"is_disabled":false,"rental_uris":{"android":"levelo://app?vid=78c1a369-15cb-46ce-8206-d0c9a078fa71","ios":"levelo://app?vid=78c1a369-15cb-46ce-8206-d0c9a078fa71"},"vehicle_type_id":"4","last_reported":1706904414,"current_range_meters":7200,"station_id":"ce4bh0p2rcd13ifvqd80","pricing_plan_id":"free"},{"bike_id":"3dc68bb5-e0a4-448b-b67a-dffa8e9cb7a4","system_id":"levelo_inurba_marseille","lat":43.29295,"lon":5.37448,"is_reserved":false,"is_disabled":false,"rental_uris":{"android":"levelo://app?vid=3dc68bb5-e0a4-448b-b67a-dffa8e9cb7a4","ios":"levelo://app?vid=3dc68bb5-e0a4-448b-b67a-dffa8e9cb7a4"},"vehicle_type_id":"4","last_reported":1706904414,"current_range_meters":6400,"station_id":"ce4bgi12rcd13ifvqb70","pricing_plan_id":"free"},{"bike_id":"ba841b9b-053a-4b6a-8a8a-b1a9ce48f5b4","system_id":"levelo_inurba_marseille","lat":43.29295,"lon":5.37452,"is_reserved":false,"is_disabled":false,"rental_uris":{"android":"levelo://app?vid=ba841b9b-053a-4b6a-8a8a-b1a9ce48f5b4","ios":"levelo://app?vid=ba841b9b-053a-4b6a-8a8a-b1a9ce48f5b4"},"vehicle_type_id":"4","last_reported":1706904414,"current_range_meters":25600,"station_id":"ce4bgi12rcd13ifvqb70","pricing_plan_id":"free"},{"bike_id":"bcab7625-d36c-4095-83f1-59795927cc64","system_id":"levelo_inurba_marseille","lat":43.29295,"lon":5.37454,"is_reserved":false,"is_disabled":false,"rental_uris":{"android":"levelo://app?vid=bcab7625-d36c-4095-83f1-59795927cc64","ios":"levelo://app?vid=bcab7625-d36c-4095-83f1-59795927cc64"},"vehicle_type_id":"4","last_reported":1706904414,"current_range_meters":0,"station_id":"ce4bgi12rcd13ifvqb70","pricing_plan_id":"free"},{"bike_id":"2991abdb-94bb-45ce-9ab1-c03a7580b0d2","system_id":"levelo_inurba_marseille","lat":43.29295,"lon":5.37457,"is_reserved":false,"is_disabled":false,"rental_uris":{"android":"levelo://app?vid=2991abdb-94bb-45ce-9ab1-c03a7580b0d2","ios":"levelo://app?vid=2991abdb-94bb-45ce-9ab1-c03a7580b0d2"},"vehicle_type_id":"4","last_reported":1706904414,"current_range_meters":10400,"station_id":"ce4bgi12rcd13ifvqb70","pricing_plan_id":"free"},{"bike_id":"168f331b-13ee-40a9-9c6d-440100eafd25","system_id":"levelo_inurba_marseille","lat":43.2929,"lon":5.37457,"is_reserved":false,"is_disabled":false,"rental_uris":{"android":"levelo://app?vid=168f331b-13ee-40a9-9c6d-440100eafd25","ios":"levelo://app?vid=168f331b-13ee-40a9-9c6d-440100eafd25"},"vehicle_type_id":"4","last_reported":1706904414,"current_range_meters":14800,"station_id":"ce4bgi12rcd13ifvqb70","pricing_plan_id":"free"},{"bike_id":"90f7b7e9-0aa3-4803-aa84-c7d0bc644c28","system_id":"levelo_inurba_marseille","lat":43.29291,"lon":5.37467,"is_reserved":false,"is_disabled":false,"rental_uris":{"android":"levelo://app?vid=90f7b7e9-0aa3-4803-aa84-c7d0bc644c28","ios":"levelo://app?vid=90f7b7e9-0aa3-4803-aa84-c7d0bc644c28"},"vehicle_type_id":"4","last_reported":1706904414,"current_range_meters":22800,"station_id":"ce4bgi12rcd13ifvqb70","pricing_plan_id":"free"},{"bike_id":"7e6db439-387c-4e86-aab4-02e8c05b2712","system_id":"levelo_inurba_marseille","lat":43.292861,"lon":5.374628,"is_reserved":false,"is_disabled":false,"rental_uris":{"android":"levelo://app?vid=7e6db439-387c-4e86-aab4-02e8c05b2712","ios":"levelo://app?vid=7e6db439-387c-4e86-aab4-02e8c05b2712"},"vehicle_type_id":"4","last_reported":1706904414,"current_range_meters":0,"station_id":"ce4bgi12rcd13ifvqb70","pricing_plan_id":"free"},{"bike_id":"5035b348-a13d-4869-be5d-1777b39d1b10","system_id":"levelo_inurba_marseille","lat":43.29283,"lon":5.37462,"is_reserved":false,"is_disabled":false,"rental_uris":{"android":"levelo://app?vid=5035b348-a13d-4869-be5d-1777b39d1b10","ios":"levelo://app?vid=5035b348-a13d-4869-be5d-1777b39d1b10"},"vehicle_type_id":"4","last_reported":1706904414,"current_range_meters":16000,"station_id":"ce4bgi12rcd13ifvqb70","pricing_plan_id":"free"},{"bike_id":"b36d0b32-c133-4cfe-92b0-7078048e42c5","system_id":"levelo_inurba_marseille","lat":43.302992,"lon":5.392136,"is_reserved":false,"is_disabled":false,"rental_uris":{"android":"levelo://app?vid=b36d0b32-c133-4cfe-92b0-7078048e42c5","ios":"levelo://app?vid=b36d0b32-c133-4cfe-92b0-7078048e42c5"},"vehicle_type_id":"4","last_reported":1706904414,"current_range_meters":10400,"station_id":"ce4bgkh2rcd13ifvqbk0","pricing_plan_id":"free"},{"bike_id":"c1b54559-3da3-4e77-ab10-1e6e02e56b4d","system_id":"levelo_inurba_marseille","lat":43.292652,"lon":5.373811,"is_reserved":false,"is_disabled":false,"rental_uris":{"android":"levelo://app?vid=c1b54559-3da3-4e77-ab10-1e6e02e56b4d","ios":"levelo://app?vid=c1b54559-3da3-4e77-ab10-1e6e02e56b4d"},"vehicle_type_id":"4","last_reported":1706904414,"current_range_meters":5600,"station_id":"","pricing_plan_id":"free"},{"bike_id":"6d16e6fe-7741-4e3b-b8ca-7f8760442015","system_id":"levelo_inurba_marseille","lat":43.292311,"lon":5.360731,"is_reserved":false,"is_disabled":false,"rental_uris":{"android":"levelo://app?vid=6d16e6fe-7741-4e3b-b8ca-7f8760442015","ios":"levelo://app?vid=6d16e6fe-7741-4e3b-b8ca-7f8760442015"},"vehicle_type_id":"4","last_reported":1706904414,"current_range_meters":0,"station_id":"ce4bhbh2rcd13ifvqeqg","pricing_plan_id":"free"},{"bike_id":"9c66bded-f58c-493c-af25-31ecbb93d22c","system_id":"levelo_inurba_marseille","lat":43.298764,"lon":5.388973,"is_reserved":false,"is_disabled":false,"rental_uris":{"android":"levelo://app?vid=9c66bded-f58c-493c-af25-31ecbb93d22c","ios":"levelo://app?vid=9c66bded-f58c-493c-af25-31ecbb93d22c"},"vehicle_type_id":"4","last_reported":1706904414,"current_range_meters":10800,"station_id":"ce4bh392rcd13ifvqdl0","pricing_plan_id":"free"},{"bike_id":"b0bf8def-cf0e-4e8a-8e18-91d9114f8347","system_id":"levelo_inurba_marseille","lat":43.291675,"lon":5.371583,"is_reserved":false,"is_disabled":false,"rental_uris":{"android":"levelo://app?vid=b0bf8def-cf0e-4e8a-8e18-91d9114f8347","ios":"levelo://app?vid=b0bf8def-cf0e-4e8a-8e18-91d9114f8347"},"vehicle_type_id":"4","last_reported":1706904414,"current_range_meters":14800,"station_id":"ce4bha92rcd13ifvqeh0","pricing_plan_id":"free"},{"bike_id":"10871523-752a-4d85-b435-825c6d5bfefe","system_id":"levelo_inurba_marseille","lat":43.293009,"lon":5.374584,"is_reserved":false,"is_disabled":false,"rental_uris":{"android":"levelo://app?vid=10871523-752a-4d85-b435-825c6d5bfefe","ios":"levelo://app?vid=10871523-752a-4d85-b435-825c6d5bfefe"},"vehicle_type_id":"4","last_reported":1706904414,"current_range_meters":17200,"station_id":"ce4bgi12rcd13ifvqb70","pricing_plan_id":"free"},{"bike_id":"2af98117-6a1e-4bb7-922b-85d78af6e4f9","system_id":"levelo_inurba_marseille","lat":43.313291,"lon":5.396838,"is_reserved":false,"is_disabled":false,"rental_uris":{"android":"levelo://app?vid=2af98117-6a1e-4bb7-922b-85d78af6e4f9","ios":"levelo://app?vid=2af98117-6a1e-4bb7-922b-85d78af6e4f9"},"vehicle_type_id":"4","last_reported":1706904414,"current_range_meters":0,"station_id":"ce4bgvp2rcd13ifvqcu0","pricing_plan_id":"free"},{"bike_id":"1ba70d85-90b2-4c4b-9eb7-a40788329ab1","system_id":"levelo_inurba_marseille","lat":43.291994,"lon":5.357886,"is_reserved":false,"is_disabled":false,"rental_uris":{"android":"levelo://app?vid=1ba70d85-90b2-4c4b-9eb7-a40788329ab1","ios":"levelo://app?vid=1ba70d85-90b2-4c4b-9eb7-a40788329ab1"},"vehicle_type_id":"4","last_reported":1706904414,"current_range_meters":23200,"station_id":"ce4bhb12rcd13ifvqel0","pricing_plan_id":"free"},{"bike_id":"7fb4fece-04e5-44db-bff4-358e00033a7a","system_id":"levelo_inurba_marseille","lat":43.291994,"lon":5.357886,"is_reserved":false,"is_disabled":false,"rental_uris":{"android":"levelo://app?vid=7fb4fece-04e5-44db-bff4-358e00033a7a","ios":"levelo://app?vid=7fb4fece-04e5-44db-bff4-358e00033a7a"},"vehicle_type_id":"4","last_reported":1706904414,"current_range_meters":2800,"station_id":"ce4bhb12rcd13ifvqel0","pricing_plan_id":"free"},{"bike_id":"3323a022-c461-4e39-835f-8cc0ac6f7ed4","system_id":"levelo_inurba_marseille","lat":43.29529,"lon":5.385581,"is_reserved":false,"is_disabled":false,"rental_uris":{"android":"levelo://app?vid=3323a022-c461-4e39-835f-8cc0ac6f7ed4","ios":"levelo://app?vid=3323a022-c461-4e39-835f-8cc0ac6f7ed4"},"vehicle_type_id":"4","last_reported":1706904414,"current_range_meters":5200,"station_id":"ce4bgih2rcd13ifvqba0","pricing_plan_id":"free"},{"bike_id":"fadafd3e-d15b-43e0-a4ab-854351751ef3","system_id":"levelo_inurba_marseille","lat":43.29529,"lon":5.385581,"is_reserved":false,"is_disabled":false,"rental_uris":{"android":"levelo://app?vid=fadafd3e-d15b-43e0-a4ab-854351751ef3","ios":"levelo://app?vid=fadafd3e-d15b-43e0-a4ab-854351751ef3"},"vehicle_type_id":"4","last_reported":1706904414,"current_range_meters":1200,"station_id":"ce4bgih2rcd13ifvqba0","pricing_plan_id":"free"},{"bike_id":"5120e82f-4bfe-413d-9537-de4d2d232fbb","system_id":"levelo_inurba_marseille","lat":43.295318,"lon":5.38544,"is_reserved":false,"is_disabled":false,"rental_uris":{"android":"levelo://app?vid=5120e82f-4bfe-413d-9537-de4d2d232fbb","ios":"levelo://app?vid=5120e82f-4bfe-413d-9537-de4d2d232fbb"},"vehicle_type_id":"4","last_reported":1706904414,"current_range_meters":0,"station_id":"ce4bgih2rcd13ifvqba0","pricing_plan_id":"free"},{"bike_id":"1ce5d34b-7922-4b3f-b952-ced7bec89f37","system_id":"levelo_inurba_marseille","lat":43.295268,"lon":5.385594,"is_reserved":false,"is_disabled":false,"rental_uris":{"android":"levelo://app?vid=1ce5d34b-7922-4b3f-b952-ced7bec89f37","ios":"levelo://app?vid=1ce5d34b-7922-4b3f-b952-ced7bec89f37"},"vehicle_type_id":"4","last_reported":1706904414,"current_range_meters":2000,"station_id":"ce4bh2h2rcd13ifvqdh0","pricing_plan_id":"free"},{"bike_id":"d606c7e2-b6e9-4773-bad2-2b8bd0097014","system_id":"levelo_inurba_marseille","lat":43.290779,"lon":5.371482,"is_reserved":false,"is_disabled":false,"rental_uris":{"android":"levelo://app?vid=d606c7e2-b6e9-4773-bad2-2b8bd0097014","ios":"levelo://app?vid=d606c7e2-b6e9-4773-bad2-2b8bd0097014"},"vehicle_type_id":"4","last_reported":1706904414,"current_range_meters":12800,"station_id":"ce4bh5p2rcd13ifvqe4g","pricing_plan_id":"free"},{"bike_id":"2a21fc55-3c56-433c-a156-8c44a9f4ce5a","system_id":"levelo_inurba_marseille","lat":43.29067,"lon":5.37164,"is_reserved":false,"is_disabled":false,"rental_uris":{"android":"levelo://app?vid=2a21fc55-3c56-433c-a156-8c44a9f4ce5a","ios":"levelo://app?vid=2a21fc55-3c56-433c-a156-8c44a9f4ce5a"},"vehicle_type_id":"4","last_reported":1706904414,"current_range_meters":17200,"station_id":"ce4bh5p2rcd13ifvqe4g","pricing_plan_id":"free"},{"bike_id":"a77d7a4f-3c92-4820-ab7d-b6ff048a2d20","system_id":"levelo_inurba_marseille","lat":43.302008,"lon":5.394694,"is_reserved":false,"is_disabled":false,"rental_uris":{"android":"levelo://app?vid=a77d7a4f-3c92-4820-ab7d-b6ff048a2d20","ios":"levelo://app?vid=a77d7a4f-3c92-4820-ab7d-b6ff048a2d20"},"vehicle_type_id":"4","last_reported":1706904414,"current_range_meters":4000,"station_id":"ce4bh0p2rcd13ifvqd70","pricing_plan_id":"free"},{"bike_id":"756a9f18-c8b5-4c53-9587-a24bd6965989","system_id":"levelo_inurba_marseille","lat":43.302157,"lon":5.394638,"is_reserved":false,"is_disabled":false,"rental_uris":{"android":"levelo://app?vid=756a9f18-c8b5-4c53-9587-a24bd6965989","ios":"levelo://app?vid=756a9f18-c8b5-4c53-9587-a24bd6965989"},"vehicle_type_id":"4","last_reported":1706904414,"current_range_meters":22000,"station_id":"ce4bh0p2rcd13ifvqd70","pricing_plan_id":"free"},{"bike_id":"ae991b29-ec83-4c62-bb9d-a66dbaddbe13","system_id":"levelo_inurba_marseille","lat":43.3021,"lon":5.3946,"is_reserved":false,"is_disabled":false,"rental_uris":{"android":"levelo://app?vid=ae991b29-ec83-4c62-bb9d-a66dbaddbe13","ios":"levelo://app?vid=ae991b29-ec83-4c62-bb9d-a66dbaddbe13"},"vehicle_type_id":"4","last_reported":1706904414,"current_range_meters":0,"station_id":"ce4bh0p2rcd13ifvqd70","pricing_plan_id":"free"},{"bike_id":"adf7a225-3328-451a-a516-0b4603f3a91e","system_id":"levelo_inurba_marseille","lat":43.30211,"lon":5.39461,"is_reserved":false,"is_disabled":false,"rental_uris":{"android":"levelo://app?vid=adf7a225-3328-451a-a516-0b4603f3a91e","ios":"levelo://app?vid=adf7a225-3328-451a-a516-0b4603f3a91e"},"vehicle_type_id":"4","last_reported":1706904414,"current_range_meters":0,"station_id":"ce4bh0p2rcd13ifvqd70","pricing_plan_id":"free"},{"bike_id":"7c755874-04f4-49a7-881c-3dccfea2f0df","system_id":"levelo_inurba_marseille","lat":43.290441,"lon":5.359123,"is_reserved":false,"is_disabled":false,"rental_uris":{"android":"levelo://app?vid=7c755874-04f4-49a7-881c-3dccfea2f0df","ios":"levelo://app?vid=7c755874-04f4-49a7-881c-3dccfea2f0df"},"vehicle_type_id":"4","last_reported":1706904414,"current_range_meters":5200,"station_id":"","pricing_plan_id":"free"},{"bike_id":"67d93244-9556-4aa7-b435-858f4f476102","system_id":"levelo_inurba_marseille","lat":43.290624,"lon":5.359245,"is_reserved":false,"is_disabled":false,"rental_uris":{"android":"levelo://app?vid=67d93244-9556-4aa7-b435-858f4f476102","ios":"levelo://app?vid=67d93244-9556-4aa7-b435-858f4f476102"},"vehicle_type_id":"4","last_reported":1706904414,"current_range_meters":16800,"station_id":"ce4bha92rcd13ifvqeg0","pricing_plan_id":"free"},{"bike_id":"790bb071-572c-4a91-b274-4cec0bed3607","system_id":"levelo_inurba_marseille","lat":43.29422,"lon":5.38626,"is_reserved":false,"is_disabled":false,"rental_uris":{"android":"levelo://app?vid=790bb071-572c-4a91-b274-4cec0bed3607","ios":"levelo://app?vid=790bb071-572c-4a91-b274-4cec0bed3607"},"vehicle_type_id":"4","last_reported":1706904414,"current_range_meters":0,"station_id":"ce4bh2h2rcd13ifvqdh0","pricing_plan_id":"free"},{"bike_id":"9ed867bc-b81e-43fb-b611-e7bc51d5b632","system_id":"levelo_inurba_marseille","lat":43.29421,"lon":5.38628,"is_reserved":false,"is_disabled":false,"rental_uris":{"android":"levelo://app?vid=9ed867bc-b81e-43fb-b611-e7bc51d5b632","ios":"levelo://app?vid=9ed867bc-b81e-43fb-b611-e7bc51d5b632"},"vehicle_type_id":"4","last_reported":1706904414,"current_range_meters":0,"station_id":"ce4bh2h2rcd13ifvqdh0","pricing_plan_id":"free"},{"bike_id":"c6e5010c-fd18-45f7-be2f-09bc9bf64e43","system_id":"levelo_inurba_marseille","lat":43.29415,"lon":5.38624,"is_reserved":false,"is_disabled":false,"rental_uris":{"android":"levelo://app?vid=c6e5010c-fd18-45f7-be2f-09bc9bf64e43","ios":"levelo://app?vid=c6e5010c-fd18-45f7-be2f-09bc9bf64e43"},"vehicle_type_id":"4","last_reported":1706904414,"current_range_meters":12800,"station_id":"ce4bh2h2rcd13ifvqdh0","pricing_plan_id":"free"},{"bike_id":"9ad91837-7c6e-4d7a-bd0e-286e5a4d8e05","system_id":"levelo_inurba_marseille","lat":43.294172,"lon":5.38632,"is_reserved":false,"is_disabled":false,"rental_uris":{"android":"levelo://app?vid=9ad91837-7c6e-4d7a-bd0e-286e5a4d8e05","ios":"levelo://app?vid=9ad91837-7c6e-4d7a-bd0e-286e5a4d8e05"},"vehicle_type_id":"4","last_reported":1706904414,"current_range_meters":0,"station_id":"ce4bh2h2rcd13ifvqdh0","pricing_plan_id":"free"},{"bike_id":"9a83e3b1-fcb1-4396-92cf-03db807bb161","system_id":"levelo_inurba_marseille","lat":43.29409,"lon":5.386206,"is_reserved":false,"is_disabled":false,"rental_uris":{"android":"levelo://app?vid=9a83e3b1-fcb1-4396-92cf-03db807bb161","ios":"levelo://app?vid=9a83e3b1-fcb1-4396-92cf-03db807bb161"},"vehicle_type_id":"4","last_reported":1706904414,"current_range_meters":16800,"station_id":"ce4bh2h2rcd13ifvqdh0","pricing_plan_id":"free"},{"bike_id":"df6d665c-ffa0-4739-a83e-6c1e3b01a0d8","system_id":"levelo_inurba_marseille","lat":43.29414,"lon":5.386363,"is_reserved":false,"is_disabled":false,"rental_uris":{"android":"levelo://app?vid=df6d665c-ffa0-4739-a83e-6c1e3b01a0d8","ios":"levelo://app?vid=df6d665c-ffa0-4739-a83e-6c1e3b01a0d8"},"vehicle_type_id":"4","last_reported":1706904414,"current_range_meters":0,"station_id":"ce4bh2h2rcd13ifvqdh0","pricing_plan_id":"free"},{"bike_id":"d431c351-fb3b-45ce-978a-aeae97e7ab75","system_id":"levelo_inurba_marseille","lat":43.293244,"lon":5.385163,"is_reserved":false,"is_disabled":false,"rental_uris":{"android":"levelo://app?vid=d431c351-fb3b-45ce-978a-aeae97e7ab75","ios":"levelo://app?vid=d431c351-fb3b-45ce-978a-aeae97e7ab75"},"vehicle_type_id":"4","last_reported":1706904414,"current_range_meters":0,"station_id":"ce4bh692rcd13ifvqea0","pricing_plan_id":"free"},{"bike_id":"c65b986d-3be7-4526-b5cb-daaf60578bf7","system_id":"levelo_inurba_marseille","lat":43.292644,"lon":5.384257,"is_reserved":false,"is_disabled":false,"rental_uris":{"android":"levelo://app?vid=c65b986d-3be7-4526-b5cb-daaf60578bf7","ios":"levelo://app?vid=c65b986d-3be7-4526-b5cb-daaf60578bf7"},"vehicle_type_id":"4","last_reported":1706904414,"current_range_meters":20000,"station_id":"ce4bh692rcd13ifvqea0","pricing_plan_id":"free"},{"bike_id":"2fa363cc-2315-4876-88c3-09748759a814","system_id":"levelo_inurba_marseille","lat":43.29272,"lon":5.38453,"is_reserved":false,"is_disabled":false,"rental_uris":{"android":"levelo://app?vid=2fa363cc-2315-4876-88c3-09748759a814","ios":"levelo://app?vid=2fa363cc-2315-4876-88c3-09748759a814"},"vehicle_type_id":"4","last_reported":1706904414,"current_range_meters":0,"station_id":"ce4bh692rcd13ifvqea0","pricing_plan_id":"free"},{"bike_id":"225e8c8e-47bd-4028-bcf4-52349812c06d","system_id":"levelo_inurba_marseille","lat":43.292644,"lon":5.384257,"is_reserved":false,"is_disabled":false,"rental_uris":{"android":"levelo://app?vid=225e8c8e-47bd-4028-bcf4-52349812c06d","ios":"levelo://app?vid=225e8c8e-47bd-4028-bcf4-52349812c06d"},"vehicle_type_id":"4","last_reported":1706904414,"current_range_meters":0,"station_id":"ce4bh692rcd13ifvqea0","pricing_plan_id":"free"},{"bike_id":"c456a54f-85af-44e8-aa23-d75a3f7b4520","system_id":"levelo_inurba_marseille","lat":43.292642,"lon":5.384254,"is_reserved":false,"is_disabled":false,"rental_uris":{"android":"levelo://app?vid=c456a54f-85af-44e8-aa23-d75a3f7b4520","ios":"levelo://app?vid=c456a54f-85af-44e8-aa23-d75a3f7b4520"},"vehicle_type_id":"4","last_reported":1706904414,"current_range_meters":0,"station_id":"ce4bh692rcd13ifvqea0","pricing_plan_id":"free"},{"bike_id":"3bf44661-a43c-4f0e-b2d7-8a5bb7fb59b7","system_id":"levelo_inurba_marseille","lat":43.292644,"lon":5.384257,"is_reserved":false,"is_disabled":false,"rental_uris":{"android":"levelo://app?vid=3bf44661-a43c-4f0e-b2d7-8a5bb7fb59b7","ios":"levelo://app?vid=3bf44661-a43c-4f0e-b2d7-8a5bb7fb59b7"},"vehicle_type_id":"4","last_reported":1706904414,"current_range_meters":15200,"station_id":"ce4bh692rcd13ifvqea0","pricing_plan_id":"free"},{"bike_id":"34c393ad-5bd5-48e3-8938-06f01d637a13","system_id":"levelo_inurba_marseille","lat":43.292644,"lon":5.384257,"is_reserved":false,"is_disabled":false,"rental_uris":{"android":"levelo://app?vid=34c393ad-5bd5-48e3-8938-06f01d637a13","ios":"levelo://app?vid=34c393ad-5bd5-48e3-8938-06f01d637a13"},"vehicle_type_id":"4","last_reported":1706904414,"current_range_meters":0,"station_id":"ce4bh692rcd13ifvqea0","pricing_plan_id":"free"},{"bike_id":"b5e5467b-a1c0-4769-81fa-1749f2442f0f","system_id":"levelo_inurba_marseille","lat":43.30423,"lon":5.3976,"is_reserved":false,"is_disabled":false,"rental_uris":{"android":"levelo://app?vid=b5e5467b-a1c0-4769-81fa-1749f2442f0f","ios":"levelo://app?vid=b5e5467b-a1c0-4769-81fa-1749f2442f0f"},"vehicle_type_id":"4","last_reported":1706904414,"current_range_meters":0,"station_id":"ce4bh092rcd13ifvqd20","pricing_plan_id":"free"},{"bike_id":"f9d5d05c-03c7-490f-94f5-7f3e107031f5","system_id":"levelo_inurba_marseille","lat":43.317557,"lon":5.390173,"is_reserved":false,"is_disabled":false,"rental_uris":{"android":"levelo://app?vid=f9d5d05c-03c7-490f-94f5-7f3e107031f5","ios":"levelo://app?vid=f9d5d05c-03c7-490f-94f5-7f3e107031f5"},"vehicle_type_id":"4","last_reported":1706904414,"current_range_meters":4800,"station_id":"ce4bhqp2rcd13ifvqhng","pricing_plan_id":"free"},{"bike_id":"f1d608f9-2dde-4c51-8fe3-613a096577eb","system_id":"levelo_inurba_marseille","lat":43.297815,"lon":5.393548,"is_reserved":false,"is_disabled":false,"rental_uris":{"android":"levelo://app?vid=f1d608f9-2dde-4c51-8fe3-613a096577eb","ios":"levelo://app?vid=f1d608f9-2dde-4c51-8fe3-613a096577eb"},"vehicle_type_id":"4","last_reported":1706904414,"current_range_meters":13600,"station_id":"chh1huq6cuj3fo74tm60","pricing_plan_id":"free"},{"bike_id":"8ee878e3-7b49-47e6-8345-2ccef06d2e28","system_id":"levelo_inurba_marseille","lat":43.29525,"lon":5.3902,"is_reserved":false,"is_disabled":false,"rental_uris":{"android":"levelo://app?vid=8ee878e3-7b49-47e6-8345-2ccef06d2e28","ios":"levelo://app?vid=8ee878e3-7b49-47e6-8345-2ccef06d2e28"},"vehicle_type_id":"4","last_reported":1706904414,"current_range_meters":13200,"station_id":"","pricing_plan_id":"free"},{"bike_id":"1623bc1b-23a5-4a7b-bb7a-55f3e2375e31","system_id":"levelo_inurba_marseille","lat":43.295169,"lon":5.390426,"is_reserved":false,"is_disabled":false,"rental_uris":{"android":"levelo://app?vid=1623bc1b-23a5-4a7b-bb7a-55f3e2375e31","ios":"levelo://app?vid=1623bc1b-23a5-4a7b-bb7a-55f3e2375e31"},"vehicle_type_id":"4","last_reported":1706904414,"current_range_meters":29600,"station_id":"ce4bh3p2rcd13ifvqdp0","pricing_plan_id":"free"},{"bike_id":"37d5312b-48ce-463b-8a79-12ca0134a456","system_id":"levelo_inurba_marseille","lat":43.33023,"lon":5.39039,"is_reserved":false,"is_disabled":false,"rental_uris":{"android":"levelo://app?vid=37d5312b-48ce-463b-8a79-12ca0134a456","ios":"levelo://app?vid=37d5312b-48ce-463b-8a79-12ca0134a456"},"vehicle_type_id":"4","last_reported":1706904414,"current_range_meters":30800,"station_id":"ce4bhr92rcd13ifvqhrg","pricing_plan_id":"free"},{"bike_id":"f012f978-3979-4b26-a23e-83c6e8af5567","system_id":"levelo_inurba_marseille","lat":43.330442,"lon":5.389148,"is_reserved":false,"is_disabled":false,"rental_uris":{"android":"levelo://app?vid=f012f978-3979-4b26-a23e-83c6e8af5567","ios":"levelo://app?vid=f012f978-3979-4b26-a23e-83c6e8af5567"},"vehicle_type_id":"4","last_reported":1706904414,"current_range_meters":24400,"station_id":"ce4bhr92rcd13ifvqhrg","pricing_plan_id":"free"},{"bike_id":"7614ac16-911f-484e-9392-a622f616b1e4","system_id":"levelo_inurba_marseille","lat":43.330442,"lon":5.389148,"is_reserved":false,"is_disabled":false,"rental_uris":{"android":"levelo://app?vid=7614ac16-911f-484e-9392-a622f616b1e4","ios":"levelo://app?vid=7614ac16-911f-484e-9392-a622f616b1e4"},"vehicle_type_id":"4","last_reported":1706904414,"current_range_meters":12800,"station_id":"ce4bhr92rcd13ifvqhrg","pricing_plan_id":"free"},{"bike_id":"4186a1f1-4481-4512-a6f2-253aff1e6dc4","system_id":"levelo_inurba_marseille","lat":43.330442,"lon":5.389148,"is_reserved":false,"is_disabled":false,"rental_uris":{"android":"levelo://app?vid=4186a1f1-4481-4512-a6f2-253aff1e6dc4","ios":"levelo://app?vid=4186a1f1-4481-4512-a6f2-253aff1e6dc4"},"vehicle_type_id":"4","last_reported":1706904414,"current_range_meters":4000,"station_id":"ce4bhr92rcd13ifvqhrg","pricing_plan_id":"free"},{"bike_id":"a569bc82-2799-4d58-8f5c-19e0f6fce87d","system_id":"levelo_inurba_marseille","lat":43.330442,"lon":5.389148,"is_reserved":false,"is_disabled":false,"rental_uris":{"android":"levelo://app?vid=a569bc82-2799-4d58-8f5c-19e0f6fce87d","ios":"levelo://app?vid=a569bc82-2799-4d58-8f5c-19e0f6fce87d"},"vehicle_type_id":"4","last_reported":1706904414,"current_range_meters":5600,"station_id":"ce4bhr92rcd13ifvqhrg","pricing_plan_id":"free"},{"bike_id":"29fa78cb-ddcd-473b-afaa-62a18b90e67f","system_id":"levelo_inurba_marseille","lat":43.330442,"lon":5.389148,"is_reserved":false,"is_disabled":false,"rental_uris":{"android":"levelo://app?vid=29fa78cb-ddcd-473b-afaa-62a18b90e67f","ios":"levelo://app?vid=29fa78cb-ddcd-473b-afaa-62a18b90e67f"},"vehicle_type_id":"4","last_reported":1706904414,"current_range_meters":16000,"station_id":"ce4bhr92rcd13ifvqhrg","pricing_plan_id":"free"},{"bike_id":"1f61a34e-b54f-4134-b65a-7b6a490489bc","system_id":"levelo_inurba_marseille","lat":43.290094,"lon":5.381264,"is_reserved":false,"is_disabled":false,"rental_uris":{"android":"levelo://app?vid=1f61a34e-b54f-4134-b65a-7b6a490489bc","ios":"levelo://app?vid=1f61a34e-b54f-4134-b65a-7b6a490489bc"},"vehicle_type_id":"4","last_reported":1706904414,"current_range_meters":2800,"station_id":"ce4bh4p2rcd13ifvqe1g","pricing_plan_id":"free"},{"bike_id":"8b2ee090-e9c7-40b5-b2e4-d2cf27f67ac7","system_id":"levelo_inurba_marseille","lat":43.28847,"lon":5.35839,"is_reserved":false,"is_disabled":false,"rental_uris":{"android":"levelo://app?vid=8b2ee090-e9c7-40b5-b2e4-d2cf27f67ac7","ios":"levelo://app?vid=8b2ee090-e9c7-40b5-b2e4-d2cf27f67ac7"},"vehicle_type_id":"4","last_reported":1706904414,"current_range_meters":0,"station_id":"ce4bhb12rcd13ifvqem0","pricing_plan_id":"free"},{"bike_id":"88bc9241-7039-45a3-93e9-bb9619a98b23","system_id":"levelo_inurba_marseille","lat":43.312609,"lon":5.401662,"is_reserved":false,"is_disabled":false,"rental_uris":{"android":"levelo://app?vid=88bc9241-7039-45a3-93e9-bb9619a98b23","ios":"levelo://app?vid=88bc9241-7039-45a3-93e9-bb9619a98b23"},"vehicle_type_id":"4","last_reported":1706904414,"current_range_meters":19200,"station_id":"ce4bh092rcd13ifvqd30","pricing_plan_id":"free"},{"bike_id":"2dfa196c-6c5c-4e7d-8a85-f7be22241efa","system_id":"levelo_inurba_marseille","lat":43.312609,"lon":5.401662,"is_reserved":false,"is_disabled":false,"rental_uris":{"android":"levelo://app?vid=2dfa196c-6c5c-4e7d-8a85-f7be22241efa","ios":"levelo://app?vid=2dfa196c-6c5c-4e7d-8a85-f7be22241efa"},"vehicle_type_id":"4","last_reported":1706904414,"current_range_meters":400,"station_id":"ce4bh092rcd13ifvqd30","pricing_plan_id":"free"},{"bike_id":"a693be26-d51d-4635-bbd8-1f98ddaeba30","system_id":"levelo_inurba_marseille","lat":43.337447,"lon":5.374431,"is_reserved":false,"is_disabled":false,"rental_uris":{"android":"levelo://app?vid=a693be26-d51d-4635-bbd8-1f98ddaeba30","ios":"levelo://app?vid=a693be26-d51d-4635-bbd8-1f98ddaeba30"},"vehicle_type_id":"4","last_reported":1706904414,"current_range_meters":28800,"station_id":"","pricing_plan_id":"free"},{"bike_id":"ee5d6033-85f3-4b95-9268-8573b94f20c6","system_id":"levelo_inurba_marseille","lat":43.309281,"lon":5.4014,"is_reserved":false,"is_disabled":false,"rental_uris":{"android":"levelo://app?vid=ee5d6033-85f3-4b95-9268-8573b94f20c6","ios":"levelo://app?vid=ee5d6033-85f3-4b95-9268-8573b94f20c6"},"vehicle_type_id":"4","last_reported":1706904414,"current_range_meters":16000,"station_id":"","pricing_plan_id":"free"},{"bike_id":"0aca2214-6738-4ad0-ba13-439e119f904d","system_id":"levelo_inurba_marseille","lat":43.33756,"lon":5.374457,"is_reserved":false,"is_disabled":false,"rental_uris":{"android":"levelo://app?vid=0aca2214-6738-4ad0-ba13-439e119f904d","ios":"levelo://app?vid=0aca2214-6738-4ad0-ba13-439e119f904d"},"vehicle_type_id":"4","last_reported":1706904414,"current_range_meters":26400,"station_id":"","pricing_plan_id":"free"},{"bike_id":"fbd79014-8443-4fa8-a575-118d08a47cbc","system_id":"levelo_inurba_marseille","lat":43.33762,"lon":5.37432,"is_reserved":false,"is_disabled":false,"rental_uris":{"android":"levelo://app?vid=fbd79014-8443-4fa8-a575-118d08a47cbc","ios":"levelo://app?vid=fbd79014-8443-4fa8-a575-118d08a47cbc"},"vehicle_type_id":"4","last_reported":1706904414,"current_range_meters":25200,"station_id":"","pricing_plan_id":"free"},{"bike_id":"e2d4d079-cc66-4f38-adc8-060273bea7e7","system_id":"levelo_inurba_marseille","lat":43.33767,"lon":5.374411,"is_reserved":false,"is_disabled":false,"rental_uris":{"android":"levelo://app?vid=e2d4d079-cc66-4f38-adc8-060273bea7e7","ios":"levelo://app?vid=e2d4d079-cc66-4f38-adc8-060273bea7e7"},"vehicle_type_id":"4","last_reported":1706904414,"current_range_meters":800,"station_id":"","pricing_plan_id":"free"},{"bike_id":"426147a3-5c01-4a2e-8ad7-555333246514","system_id":"levelo_inurba_marseille","lat":43.28807,"lon":5.37679,"is_reserved":false,"is_disabled":false,"rental_uris":{"android":"levelo://app?vid=426147a3-5c01-4a2e-8ad7-555333246514","ios":"levelo://app?vid=426147a3-5c01-4a2e-8ad7-555333246514"},"vehicle_type_id":"4","last_reported":1706904414,"current_range_meters":24400,"station_id":"","pricing_plan_id":"free"},{"bike_id":"77274fcc-234c-4e92-bac1-00a85bd1b600","system_id":"levelo_inurba_marseille","lat":43.298681,"lon":5.397225,"is_reserved":false,"is_disabled":false,"rental_uris":{"android":"levelo://app?vid=77274fcc-234c-4e92-bac1-00a85bd1b600","ios":"levelo://app?vid=77274fcc-234c-4e92-bac1-00a85bd1b600"},"vehicle_type_id":"4","last_reported":1706904414,"current_range_meters":8800,"station_id":"ce4bh0h2rcd13ifvqd50","pricing_plan_id":"free"},{"bike_id":"8c360b2e-009b-4ffb-b357-1f00562773b9","system_id":"levelo_inurba_marseille","lat":43.286961,"lon":5.373785,"is_reserved":false,"is_disabled":false,"rental_uris":{"android":"levelo://app?vid=8c360b2e-009b-4ffb-b357-1f00562773b9","ios":"levelo://app?vid=8c360b2e-009b-4ffb-b357-1f00562773b9"},"vehicle_type_id":"4","last_reported":1706904414,"current_range_meters":16400,"station_id":"ce4bh3p2rcd13ifvqdq0","pricing_plan_id":"free"},{"bike_id":"6dd3a6f1-ec39-4f95-b02b-acb873f05c6c","system_id":"levelo_inurba_marseille","lat":43.298681,"lon":5.397225,"is_reserved":false,"is_disabled":false,"rental_uris":{"android":"levelo://app?vid=6dd3a6f1-ec39-4f95-b02b-acb873f05c6c","ios":"levelo://app?vid=6dd3a6f1-ec39-4f95-b02b-acb873f05c6c"},"vehicle_type_id":"4","last_reported":1706904414,"current_range_meters":31200,"station_id":"ce4bh0h2rcd13ifvqd50","pricing_plan_id":"free"},{"bike_id":"76a81286-da5a-4ab7-bb64-478d3768a3f4","system_id":"levelo_inurba_marseille","lat":43.295194,"lon":5.39397,"is_reserved":false,"is_disabled":false,"rental_uris":{"android":"levelo://app?vid=76a81286-da5a-4ab7-bb64-478d3768a3f4","ios":"levelo://app?vid=76a81286-da5a-4ab7-bb64-478d3768a3f4"},"vehicle_type_id":"4","last_reported":1706904414,"current_range_meters":0,"station_id":"ce4bh292rcd13ifvqdf0","pricing_plan_id":"free"},{"bike_id":"e4a56a38-06de-4387-a783-366d9079c1a2","system_id":"levelo_inurba_marseille","lat":43.302759,"lon":5.400793,"is_reserved":false,"is_disabled":false,"rental_uris":{"android":"levelo://app?vid=e4a56a38-06de-4387-a783-366d9079c1a2","ios":"levelo://app?vid=e4a56a38-06de-4387-a783-366d9079c1a2"},"vehicle_type_id":"4","last_reported":1706904414,"current_range_meters":2400,"station_id":"ce4bgvh2rcd13ifvqcs0","pricing_plan_id":"free"},{"bike_id":"2de253ef-a8a0-440e-aae4-11b9349c5ecc","system_id":"levelo_inurba_marseille","lat":43.29027,"lon":5.38645,"is_reserved":false,"is_disabled":false,"rental_uris":{"android":"levelo://app?vid=2de253ef-a8a0-440e-aae4-11b9349c5ecc","ios":"levelo://app?vid=2de253ef-a8a0-440e-aae4-11b9349c5ecc"},"vehicle_type_id":"4","last_reported":1706904414,"current_range_meters":0,"station_id":"ce4bh4p2rcd13ifvqe0g","pricing_plan_id":"free"},{"bike_id":"c621328d-fe6f-496a-ba67-af6e2ccae257","system_id":"levelo_inurba_marseille","lat":43.309047,"lon":5.396551,"is_reserved":false,"is_disabled":false,"rental_uris":{"android":"levelo://app?vid=c621328d-fe6f-496a-ba67-af6e2ccae257","ios":"levelo://app?vid=c621328d-fe6f-496a-ba67-af6e2ccae257"},"vehicle_type_id":"4","last_reported":1706904414,"current_range_meters":15600,"station_id":"ce4bh012rcd13ifvqcv0","pricing_plan_id":"free"},{"bike_id":"0906f9c9-4c51-444e-9e62-5e5ed2a145e1","system_id":"levelo_inurba_marseille","lat":43.302759,"lon":5.400793,"is_reserved":false,"is_disabled":false,"rental_uris":{"android":"levelo://app?vid=0906f9c9-4c51-444e-9e62-5e5ed2a145e1","ios":"levelo://app?vid=0906f9c9-4c51-444e-9e62-5e5ed2a145e1"},"vehicle_type_id":"4","last_reported":1706904414,"current_range_meters":16000,"station_id":"ce4bgvh2rcd13ifvqcs0","pricing_plan_id":"free"},{"bike_id":"e8d62a92-71b3-4cee-b13c-43e028df5f69","system_id":"levelo_inurba_marseille","lat":43.302759,"lon":5.400793,"is_reserved":false,"is_disabled":false,"rental_uris":{"android":"levelo://app?vid=e8d62a92-71b3-4cee-b13c-43e028df5f69","ios":"levelo://app?vid=e8d62a92-71b3-4cee-b13c-43e028df5f69"},"vehicle_type_id":"4","last_reported":1706904414,"current_range_meters":3200,"station_id":"ce4bgvh2rcd13ifvqcs0","pricing_plan_id":"free"},{"bike_id":"5c513f16-cac2-47d9-93aa-cf37cef57a8e","system_id":"levelo_inurba_marseille","lat":43.302759,"lon":5.400793,"is_reserved":false,"is_disabled":false,"rental_uris":{"android":"levelo://app?vid=5c513f16-cac2-47d9-93aa-cf37cef57a8e","ios":"levelo://app?vid=5c513f16-cac2-47d9-93aa-cf37cef57a8e"},"vehicle_type_id":"4","last_reported":1706904414,"current_range_meters":13200,"station_id":"ce4bgvh2rcd13ifvqcs0","pricing_plan_id":"free"},{"bike_id":"6ae0d0a1-55ea-4fed-85a4-7dc794d954e0","system_id":"levelo_inurba_marseille","lat":43.302759,"lon":5.400793,"is_reserved":false,"is_disabled":false,"rental_uris":{"android":"levelo://app?vid=6ae0d0a1-55ea-4fed-85a4-7dc794d954e0","ios":"levelo://app?vid=6ae0d0a1-55ea-4fed-85a4-7dc794d954e0"},"vehicle_type_id":"4","last_reported":1706904414,"current_range_meters":1600,"station_id":"ce4bgvh2rcd13ifvqcs0","pricing_plan_id":"free"},{"bike_id":"81187463-0d06-4236-b02e-9dadb5f475d1","system_id":"levelo_inurba_marseille","lat":43.286039,"lon":5.370679,"is_reserved":false,"is_disabled":false,"rental_uris":{"android":"levelo://app?vid=81187463-0d06-4236-b02e-9dadb5f475d1","ios":"levelo://app?vid=81187463-0d06-4236-b02e-9dadb5f475d1"},"vehicle_type_id":"4","last_reported":1706904414,"current_range_meters":4800,"station_id":"ce4bht12rcd13ifvqi60","pricing_plan_id":"free"},{"bike_id":"d2c7a1f4-0cc3-4b39-b936-c295345732c5","system_id":"levelo_inurba_marseille","lat":43.302759,"lon":5.400793,"is_reserved":false,"is_disabled":false,"rental_uris":{"android":"levelo://app?vid=d2c7a1f4-0cc3-4b39-b936-c295345732c5","ios":"levelo://app?vid=d2c7a1f4-0cc3-4b39-b936-c295345732c5"},"vehicle_type_id":"4","last_reported":1706904414,"current_range_meters":16800,"station_id":"ce4bgvh2rcd13ifvqcs0","pricing_plan_id":"free"},{"bike_id":"3d3a14dc-276e-4f5e-8a5c-c589356fc94b","system_id":"levelo_inurba_marseille","lat":43.291994,"lon":5.392907,"is_reserved":false,"is_disabled":false,"rental_uris":{"android":"levelo://app?vid=3d3a14dc-276e-4f5e-8a5c-c589356fc94b","ios":"levelo://app?vid=3d3a14dc-276e-4f5e-8a5c-c589356fc94b"},"vehicle_type_id":"4","last_reported":1706904414,"current_range_meters":4000,"station_id":"ce4bh192rcd13ifvqdd0","pricing_plan_id":"free"},{"bike_id":"a93eec3e-c0ab-417a-b26d-9bf769432897","system_id":"levelo_inurba_marseille","lat":43.324771,"lon":5.36557,"is_reserved":false,"is_disabled":false,"rental_uris":{"android":"levelo://app?vid=a93eec3e-c0ab-417a-b26d-9bf769432897","ios":"levelo://app?vid=a93eec3e-c0ab-417a-b26d-9bf769432897"},"vehicle_type_id":"4","last_reported":1706904414,"current_range_meters":10400,"station_id":"ce4bhs12rcd13ifvqhvg","pricing_plan_id":"free"},{"bike_id":"753b3762-415d-4031-80a9-a702f6e16a22","system_id":"levelo_inurba_marseille","lat":43.28472,"lon":5.35899,"is_reserved":false,"is_disabled":false,"rental_uris":{"android":"levelo://app?vid=753b3762-415d-4031-80a9-a702f6e16a22","ios":"levelo://app?vid=753b3762-415d-4031-80a9-a702f6e16a22"},"vehicle_type_id":"4","last_reported":1706904414,"current_range_meters":0,"station_id":"ce4bhah2rcd13ifvqei0","pricing_plan_id":"free"},{"bike_id":"a5500eb4-acb8-4d01-a939-0ba2f35fb562","system_id":"levelo_inurba_marseille","lat":43.2982,"lon":5.40081,"is_reserved":false,"is_disabled":false,"rental_uris":{"android":"levelo://app?vid=a5500eb4-acb8-4d01-a939-0ba2f35fb562","ios":"levelo://app?vid=a5500eb4-acb8-4d01-a939-0ba2f35fb562"},"vehicle_type_id":"4","last_reported":1706904414,"current_range_meters":8800,"station_id":"","pricing_plan_id":"free"},{"bike_id":"ad80a03a-903a-49ad-adfc-832003fd919d","system_id":"levelo_inurba_marseille","lat":43.28461,"lon":5.35894,"is_reserved":false,"is_disabled":false,"rental_uris":{"android":"levelo://app?vid=ad80a03a-903a-49ad-adfc-832003fd919d","ios":"levelo://app?vid=ad80a03a-903a-49ad-adfc-832003fd919d"},"vehicle_type_id":"4","last_reported":1706904414,"current_range_meters":0,"station_id":"ce4bhah2rcd13ifvqei0","pricing_plan_id":"free"},{"bike_id":"307e47ca-d45c-4216-b0fe-2d8f5c20afd0","system_id":"levelo_inurba_marseille","lat":43.29447,"lon":5.3975,"is_reserved":false,"is_disabled":false,"rental_uris":{"android":"levelo://app?vid=307e47ca-d45c-4216-b0fe-2d8f5c20afd0","ios":"levelo://app?vid=307e47ca-d45c-4216-b0fe-2d8f5c20afd0"},"vehicle_type_id":"4","last_reported":1706904414,"current_range_meters":0,"station_id":"ce4bh3h2rcd13ifvqdo0","pricing_plan_id":"free"},{"bike_id":"f289ebea-55e5-4639-af24-1047c4a3a820","system_id":"levelo_inurba_marseille","lat":43.294314,"lon":5.397498,"is_reserved":false,"is_disabled":false,"rental_uris":{"android":"levelo://app?vid=f289ebea-55e5-4639-af24-1047c4a3a820","ios":"levelo://app?vid=f289ebea-55e5-4639-af24-1047c4a3a820"},"vehicle_type_id":"4","last_reported":1706904414,"current_range_meters":8800,"station_id":"ce4bh3h2rcd13ifvqdo0","pricing_plan_id":"free"},{"bike_id":"3cb835a5-2e52-4e90-b7c6-6f9628f77f93","system_id":"levelo_inurba_marseille","lat":43.295196,"lon":5.39397,"is_reserved":false,"is_disabled":false,"rental_uris":{"android":"levelo://app?vid=3cb835a5-2e52-4e90-b7c6-6f9628f77f93","ios":"levelo://app?vid=3cb835a5-2e52-4e90-b7c6-6f9628f77f93"},"vehicle_type_id":"4","last_reported":1706904414,"current_range_meters":10400,"station_id":"ce4bh292rcd13ifvqdf0","pricing_plan_id":"free"},{"bike_id":"741c7637-7609-49c8-a905-1768b83affcd","system_id":"levelo_inurba_marseille","lat":43.283998,"lon":5.375062,"is_reserved":false,"is_disabled":false,"rental_uris":{"android":"levelo://app?vid=741c7637-7609-49c8-a905-1768b83affcd","ios":"levelo://app?vid=741c7637-7609-49c8-a905-1768b83affcd"},"vehicle_type_id":"4","last_reported":1706904414,"current_range_meters":13600,"station_id":"ce4bh412rcd13ifvqds0","pricing_plan_id":"free"},{"bike_id":"8a4bc98f-3bc9-4e36-9e70-d9b5098d0a37","system_id":"levelo_inurba_marseille","lat":43.283998,"lon":5.375062,"is_reserved":false,"is_disabled":false,"rental_uris":{"android":"levelo://app?vid=8a4bc98f-3bc9-4e36-9e70-d9b5098d0a37","ios":"levelo://app?vid=8a4bc98f-3bc9-4e36-9e70-d9b5098d0a37"},"vehicle_type_id":"4","last_reported":1706904414,"current_range_meters":0,"station_id":"ce4bh412rcd13ifvqds0","pricing_plan_id":"free"},{"bike_id":"48ed00e2-d3c1-4794-9a18-63d44dc12514","system_id":"levelo_inurba_marseille","lat":43.283998,"lon":5.375062,"is_reserved":false,"is_disabled":false,"rental_uris":{"android":"levelo://app?vid=48ed00e2-d3c1-4794-9a18-63d44dc12514","ios":"levelo://app?vid=48ed00e2-d3c1-4794-9a18-63d44dc12514"},"vehicle_type_id":"4","last_reported":1706904414,"current_range_meters":15200,"station_id":"ce4bh412rcd13ifvqds0","pricing_plan_id":"free"},{"bike_id":"4648295a-a42c-47d1-830f-1b7f1fbc899d","system_id":"levelo_inurba_marseille","lat":43.295713,"lon":5.399639,"is_reserved":false,"is_disabled":false,"rental_uris":{"android":"levelo://app?vid=4648295a-a42c-47d1-830f-1b7f1fbc899d","ios":"levelo://app?vid=4648295a-a42c-47d1-830f-1b7f1fbc899d"},"vehicle_type_id":"4","last_reported":1706904414,"current_range_meters":12400,"station_id":"ce4bh312rcd13ifvqdj0","pricing_plan_id":"free"},{"bike_id":"e35956a2-fba2-4660-8983-b7a17b46d35c","system_id":"levelo_inurba_marseille","lat":43.283998,"lon":5.375062,"is_reserved":false,"is_disabled":false,"rental_uris":{"android":"levelo://app?vid=e35956a2-fba2-4660-8983-b7a17b46d35c","ios":"levelo://app?vid=e35956a2-fba2-4660-8983-b7a17b46d35c"},"vehicle_type_id":"4","last_reported":1706904414,"current_range_meters":6000,"station_id":"ce4bh412rcd13ifvqds0","pricing_plan_id":"free"},{"bike_id":"03516ef7-feff-4c68-8095-445be4bc45f8","system_id":"levelo_inurba_marseille","lat":43.286595,"lon":5.386795,"is_reserved":false,"is_disabled":false,"rental_uris":{"android":"levelo://app?vid=03516ef7-feff-4c68-8095-445be4bc45f8","ios":"levelo://app?vid=03516ef7-feff-4c68-8095-445be4bc45f8"},"vehicle_type_id":"4","last_reported":1706904414,"current_range_meters":5600,"station_id":"ce4bh492rcd13ifvqdug","pricing_plan_id":"free"},{"bike_id":"36508673-d65c-4bea-8460-e7816a91137d","system_id":"levelo_inurba_marseille","lat":43.319179,"lon":5.407725,"is_reserved":false,"is_disabled":false,"rental_uris":{"android":"levelo://app?vid=36508673-d65c-4bea-8460-e7816a91137d","ios":"levelo://app?vid=36508673-d65c-4bea-8460-e7816a91137d"},"vehicle_type_id":"4","last_reported":1706904414,"current_range_meters":10400,"station_id":"ce4bhq12rcd13ifvqhig","pricing_plan_id":"free"},{"bike_id":"904e9a1d-e4d6-43b8-9208-a46496853e8b","system_id":"levelo_inurba_marseille","lat":43.319179,"lon":5.407725,"is_reserved":false,"is_disabled":false,"rental_uris":{"android":"levelo://app?vid=904e9a1d-e4d6-43b8-9208-a46496853e8b","ios":"levelo://app?vid=904e9a1d-e4d6-43b8-9208-a46496853e8b"},"vehicle_type_id":"4","last_reported":1706904414,"current_range_meters":27600,"station_id":"ce4bhq12rcd13ifvqhig","pricing_plan_id":"free"},{"bike_id":"0b3fed73-e6df-457b-88cf-ae835579418f","system_id":"levelo_inurba_marseille","lat":43.33717,"lon":5.391857,"is_reserved":false,"is_disabled":false,"rental_uris":{"android":"levelo://app?vid=0b3fed73-e6df-457b-88cf-ae835579418f","ios":"levelo://app?vid=0b3fed73-e6df-457b-88cf-ae835579418f"},"vehicle_type_id":"4","last_reported":1706904414,"current_range_meters":23200,"station_id":"ce4bhr92rcd13ifvqhsg","pricing_plan_id":"free"},{"bike_id":"3c58f18d-b5bf-40f3-bd04-17a6bdfcc283","system_id":"levelo_inurba_marseille","lat":43.32337,"lon":5.40619,"is_reserved":false,"is_disabled":false,"rental_uris":{"android":"levelo://app?vid=3c58f18d-b5bf-40f3-bd04-17a6bdfcc283","ios":"levelo://app?vid=3c58f18d-b5bf-40f3-bd04-17a6bdfcc283"},"vehicle_type_id":"4","last_reported":1706904414,"current_range_meters":1200,"station_id":"ce4bhq92rcd13ifvqhjg","pricing_plan_id":"free"},{"bike_id":"799fed9e-2e2a-4b94-84f1-70897d69e0ae","system_id":"levelo_inurba_marseille","lat":43.32333,"lon":5.40623,"is_reserved":false,"is_disabled":false,"rental_uris":{"android":"levelo://app?vid=799fed9e-2e2a-4b94-84f1-70897d69e0ae","ios":"levelo://app?vid=799fed9e-2e2a-4b94-84f1-70897d69e0ae"},"vehicle_type_id":"4","last_reported":1706904414,"current_range_meters":10000,"station_id":"ce4bhq92rcd13ifvqhjg","pricing_plan_id":"free"},{"bike_id":"a5d1e4fb-c3ac-4ba1-a677-049deb56b64a","system_id":"levelo_inurba_marseille","lat":43.32342,"lon":5.40622,"is_reserved":false,"is_disabled":false,"rental_uris":{"android":"levelo://app?vid=a5d1e4fb-c3ac-4ba1-a677-049deb56b64a","ios":"levelo://app?vid=a5d1e4fb-c3ac-4ba1-a677-049deb56b64a"},"vehicle_type_id":"4","last_reported":1706904414,"current_range_meters":28000,"station_id":"ce4bhq92rcd13ifvqhjg","pricing_plan_id":"free"},