{"last_updated":1742155754,"ttl":60,"version":"2.2","data":{"bikes":[{"bike_id":"fc7d41a1-a971-406e-a0c2-ba352481f824","system_id":"levelo_inurba_marseille","lat":43.23963,"lon":5.36649,"is_reserved":false,"is_disabled":false,"rental_uris":{"android":"levelo://app?vid=fc7d41a1-a971-406e-a0c2-ba352481f824","ios":"levelo://app?vid=fc7d41a1-a971-406e-a0c2-ba352481f824"},"vehicle_type_id":"4","last_reported":1742155754,"current_range_meters":2800,"station_id":"ce4bhi12rcd13ifvqfp0","pricing_plan_id":"cebpf4jnsgd1na2vs0mg"},{"bike_id":"a9998c93-d6de-43bc-99ff-da793d29d638","system_id":"levelo_inurba_marseille","lat":43.29518,"lon":5.37511,"is_reserved":false,"is_disabled":false,"rental_uris":{"android":"levelo://app?vid=a9998c93-d6de-43bc-99ff-da793d29d638","ios":"levelo://app?vid=a9998c93-d6de-43bc-99ff-da793d29d638"},"vehicle_type_id":"4","last_reported":1742155754,"current_range_meters":2000,"station_id":"ce4bgkp2rcd13ifvqbmg","pricing_plan_id":"cebpf4jnsgd1na2vs0mg"},{"bike_id":"88c2ec9c-c2ee-474d-a6aa-dbb7a53fc0ca","system_id":"levelo_inurba_marseille","lat":43.24182,"lon":5.39758,"is_reserved":false,"is_disabled":true,"rental_uris":{"android":"levelo://app?vid=88c2ec9c-c2ee-474d-a6aa-dbb7a53fc0ca","ios":"levelo://app?vid=88c2ec9c-c2ee-474d-a6aa-dbb7a53fc0ca"},"vehicle_type_id":"4","last_reported":1742155754,"current_range_meters":2800,"station_id":"ce4bhn12rcd13ifvqgpg","pricing_plan_id":"cebpf4jnsgd1na2vs0mg"},{"bike_id":"e9d3c721-0f68-4684-b7c5-8351c8d0e9ff","system_id":"levelo_inurba_marseille","lat":43.27067,"lon":5.42281,"is_reserved":false,"is_disabled":false,"rental_uris":{"android":"levelo://app?vid=e9d3c721-0f68-4684-b7c5-8351c8d0e9ff","ios":"levelo://app?vid=e9d3c721-0f68-4684-b7c5-8351c8d0e9ff"},"vehicle_type_id":"4","last_reported":1742155754,"current_range_meters":2800,"station_id":"ce4bhk92rcd13ifvqgb0","pricing_plan_id":"cebpf4jnsgd1na2vs0mg"},{"bike_id":"1925fc67-309c-4e04-9ae3-5408830e0c69","system_id":"levelo_inurba_marseille","lat":43.27993,"lon":5.40015,"is_reserved":false,"is_disabled":true,"rental_uris":{"android":"levelo://app?vid=1925fc67-309c-4e04-9ae3-5408830e0c69","ios":"levelo://app?vid=1925fc67-309c-4e04-9ae3-5408830e0c69"},"vehicle_type_id":"4","last_reported":1742155754,"current_range_meters":2800,"station_id":"ce4bho92rcd13ifvqh4g","pricing_plan_id":"cebpf4jnsgd1na2vs0mg"},{"bike_id":"b82a9e56-761b-4a4d-9aee-9f57c628b006","system_id":"levelo_inurba_marseille","lat":43.3054,"lon":5.38434,"is_reserved":false,"is_disabled":false,"rental_uris":{"android":"levelo://app?vid=b82a9e56-761b-4a4d-9aee-9f57c628b006","ios":"levelo://app?vid=b82a9e56-761b-4a4d-9aee-9f57c628b006"},"vehicle_type_id":"4","last_reported":1742155754,"current_range_meters":1600,"station_id":"ce4bgg92rcd13ifvqb30","pricing_plan_id":"cebpf4jnsgd1na2vs0mg"},{"bike_id":"f3d52fc3-f026-4bf6-ac24-bb570fe64651","system_id":"levelo_inurba_marseille","lat":43.26388,"lon":5.40801,"is_reserved":false,"is_disabled":false,"rental_uris":{"android":"levelo://app?vid=f3d52fc3-f026-4bf6-ac24-bb570fe64651","ios":"levelo://app?vid=f3d52fc3-f026-4bf6-ac24-bb570fe64651"},"vehicle_type_id":"4","last_reported":1742155754,"current_range_meters":3200,"station_id":"ce4bgv12rcd13ifvqcp0","pricing_plan_id":"cebpf4jnsgd1na2vs0mg"},{"bike_id":"12349ae3-7409-45c1-bc76-a9002585bdeb","system_id":"levelo_inurba_marseille","lat":43.24082,"lon":5.37748,"is_reserved":false,"is_disabled":false,"rental_uris":{"android":"levelo://app?vid=12349ae3-7409-45c1-bc76-a9002585bdeb","ios":"levelo://app?vid=12349ae3-7409-45c1-bc76-a9002585bdeb"},"vehicle_type_id":"4","last_reported":1742155754,"current_range_meters":3600,"station_id":"ce4bhnp2rcd13ifvqgvg","pricing_plan_id":"cebpf4jnsgd1na2vs0mg"},{"bike_id":"b6738bf7-62cd-4748-8628-49d2df68b5a7","system_id":"levelo_inurba_marseille","lat":43.27836,"lon":5.40721,"is_reserved":false,"is_disabled":true,"rental_uris":{"android":"levelo://app?vid=b6738bf7-62cd-4748-8628-49d2df68b5a7","ios":"levelo://app?vid=b6738bf7-62cd-4748-8628-49d2df68b5a7"},"vehicle_type_id":"4","last_reported":1742155754,"current_range_meters":3600,"station_id":"ce4bhnh2rcd13ifvqgtg","pricing_plan_id":"cebpf4jnsgd1na2vs0mg"},{"bike_id":"21cfacd0-8fc8-454a-8a3f-d36bcdb61b05","system_id":"levelo_inurba_marseille","lat":43.27945,"lon":5.38713,"is_reserved":false,"is_disabled":true,"rental_uris":{"android":"levelo://app?vid=21cfacd0-8fc8-454a-8a3f-d36bcdb61b05","ios":"levelo://app?vid=21cfacd0-8fc8-454a-8a3f-d36bcdb61b05"},"vehicle_type_id":"4","last_reported":1742155754,"current_range_meters":3600,"station_id":"ce4bhg12rcd13ifvqf80","pricing_plan_id":"cebpf4jnsgd1na2vs0mg"},{"bike_id":"83aa7ab2-d352-459f-bd36-67e70fb4a7aa","system_id":"levelo_inurba_marseille","lat":43.25941,"lon":5.40933,"is_reserved":false,"is_disabled":false,"rental_uris":{"android":"levelo://app?vid=83aa7ab2-d352-459f-bd36-67e70fb4a7aa","ios":"levelo://app?vid=83aa7ab2-d352-459f-bd36-67e70fb4a7aa"},"vehicle_type_id":"4","last_reported":1742155754,"current_range_meters":3600,"station_id":"ce4bhm92rcd13ifvqglg","pricing_plan_id":"cebpf4jnsgd1na2vs0mg"},{"bike_id":"bf1dcd3f-6c6c-4132-bd89-dd7a93f1f7a4","system_id":"levelo_inurba_marseille","lat":43.26809,"lon":5.402585,"is_reserved":false,"is_disabled":false,"rental_uris":{"android":"levelo://app?vid=bf1dcd3f-6c6c-4132-bd89-dd7a93f1f7a4","ios":"levelo://app?vid=bf1dcd3f-6c6c-4132-bd89-dd7a93f1f7a4"},"vehicle_type_id":"4","last_reported":1742155754,"current_range_meters":3600,"station_id":"ce501612rcd8frsf0b60","pricing_plan_id":"cebpf4jnsgd1na2vs0mg"},{"bike_id":"b1e8455b-29f3-4194-a488-e4069bbb43db","system_id":"levelo_inurba_marseille","lat":43.25099,"lon":5.39526,"is_reserved":false,"is_disabled":false,"rental_uris":{"android":"levelo://app?vid=b1e8455b-29f3-4194-a488-e4069bbb43db","ios":"levelo://app?vid=b1e8455b-29f3-4194-a488-e4069bbb43db"},"vehicle_type_id":"4","last_reported":1742155754,"current_range_meters":3600,"station_id":"ce4bhm12rcd13ifvqgkg","pricing_plan_id":"cebpf4jnsgd1na2vs0mg"},{"bike_id":"25bb2ded-fba6-47cc-8f36-5c53dcdeec58","system_id":"levelo_inurba_marseille","lat":43.24179,"lon":5.3972,"is_reserved":false,"is_disabled":false,"rental_uris":{"android":"levelo://app?vid=25bb2ded-fba6-47cc-8f36-5c53dcdeec58","ios":"levelo://app?vid=25bb2ded-fba6-47cc-8f36-5c53dcdeec58"},"vehicle_type_id":"4","last_reported":1742155754,"current_range_meters":3600,"station_id":"ce4bhn12rcd13ifvqgpg","pricing_plan_id":"cebpf4jnsgd1na2vs0mg"},{"bike_id":"fa3bf427-0cfe-4d6c-af46-05367c2f7618","system_id":"levelo_inurba_marseille","lat":43.29308,"lon":5.37178,"is_reserved":false,"is_disabled":false,"rental_uris":{"android":"levelo://app?vid=fa3bf427-0cfe-4d6c-af46-05367c2f7618","ios":"levelo://app?vid=fa3bf427-0cfe-4d6c-af46-05367c2f7618"},"vehicle_type_id":"4","last_reported":1742155754,"current_range_meters":3600,"station_id":"ce4bgh92rcd13ifvqb40","pricing_plan_id":"cebpf4jnsgd1na2vs0mg"},{"bike_id":"3431e59f-77e8-4e6e-97bc-02ab3b69d5b2","system_id":"levelo_inurba_marseille","lat":43.30324,"lon":5.40434,"is_reserved":false,"is_disabled":false,"rental_uris":{"android":"levelo://app?vid=3431e59f-77e8-4e6e-97bc-02ab3b69d5b2","ios":"levelo://app?vid=3431e59f-77e8-4e6e-97bc-02ab3b69d5b2"},"vehicle_type_id":"4","last_reported":1742155754,"current_range_meters":3600,"station_id":"ce4bh012rcd13ifvqd10","pricing_plan_id":"cebpf4jnsgd1na2vs0mg"},{"bike_id":"76b415aa-d90d-4b4c-9954-2e46fdae4260","system_id":"levelo_inurba_marseille","lat":43.29,"lon":5.35593,"is_reserved":false,"is_disabled":true,"rental_uris":{"android":"levelo://app?vid=76b415aa-d90d-4b4c-9954-2e46fdae4260","ios":"levelo://app?vid=76b415aa-d90d-4b4c-9954-2e46fdae4260"},"vehicle_type_id":"4","last_reported":1742155754,"current_range_meters":4000,"station_id":"ce4bhb92rcd13ifvqen0","pricing_plan_id":"cebpf4jnsgd1na2vs0mg"},{"bike_id":"aa795381-5174-4265-abe3-ddbff84516c8","system_id":"levelo_inurba_marseille","lat":43.30131,"lon":5.37427,"is_reserved":false,"is_disabled":true,"rental_uris":{"android":"levelo://app?vid=aa795381-5174-4265-abe3-ddbff84516c8","ios":"levelo://app?vid=aa795381-5174-4265-abe3-ddbff84516c8"},"vehicle_type_id":"4","last_reported":1742155754,"current_range_meters":4000,"station_id":"ce4bgs92rcd13ifvqcc0","pricing_plan_id":"cebpf4jnsgd1na2vs0mg"},{"bike_id":"8ca1ec8b-b275-4c52-b06d-62edf3419828","system_id":"levelo_inurba_marseille","lat":43.30291,"lon":5.36888,"is_reserved":false,"is_disabled":false,"rental_uris":{"android":"levelo://app?vid=8ca1ec8b-b275-4c52-b06d-62edf3419828","ios":"levelo://app?vid=8ca1ec8b-b275-4c52-b06d-62edf3419828"},"vehicle_type_id":"4","last_reported":1742155754,"current_range_meters":4000,"station_id":"ce4bgqh2rcd13ifvqc5g","pricing_plan_id":"cebpf4jnsgd1na2vs0mg"},{"bike_id":"3d846c88-b3d6-4e02-964d-a38eae1d4ad3","system_id":"levelo_inurba_marseille","lat":43.29033,"lon":5.39987,"is_reserved":false,"is_disabled":false,"rental_uris":{"android":"levelo://app?vid=3d846c88-b3d6-4e02-964d-a38eae1d4ad3","ios":"levelo://app?vid=3d846c88-b3d6-4e02-964d-a38eae1d4ad3"},"vehicle_type_id":"4","last_reported":1742155754,"current_range_meters":4000,"station_id":"ce4bh392rcd13ifvqdm0","pricing_plan_id":"cebpf4jnsgd1na2vs0mg"},{"bike_id":"385ae15c-2c3c-4490-a507-5eb20fb883a5","system_id":"levelo_inurba_marseille","lat":43.25938,"lon":5.409,"is_reserved":false,"is_disabled":false,"rental_uris":{"android":"levelo://app?vid=385ae15c-2c3c-4490-a507-5eb20fb883a5","ios":"levelo://app?vid=385ae15c-2c3c-4490-a507-5eb20fb883a5"},"vehicle_type_id":"4","last_reported":1742155754,"current_range_meters":4000,"station_id":"ce4bhm92rcd13ifvqglg","pricing_plan_id":"cebpf4jnsgd1na2vs0mg"},{"bike_id":"6f143c5b-933e-4a51-97d8-72a3705988b8","system_id":"levelo_inurba_marseille","lat":43.32234,"lon":5.37956,"is_reserved":false,"is_disabled":false,"rental_uris":{"android":"levelo://app?vid=6f143c5b-933e-4a51-97d8-72a3705988b8","ios":"levelo://app?vid=6f143c5b-933e-4a51-97d8-72a3705988b8"},"vehicle_type_id":"4","last_reported":1742155754,"current_range_meters":4000,"station_id":"","pricing_plan_id":"cebpf4jnsgd1na2vs0mg"},{"bike_id":"771f865f-4d92-4156-b94d-2d9a8ec851c3","system_id":"levelo_inurba_marseille","lat":43.28453,"lon":5.35892,"is_reserved":false,"is_disabled":false,"rental_uris":{"android":"levelo://app?vid=771f865f-4d92-4156-b94d-2d9a8ec851c3","ios":"levelo://app?vid=771f865f-4d92-4156-b94d-2d9a8ec851c3"},"vehicle_type_id":"4","last_reported":1742155754,"current_range_meters":4400,"station_id":"ce4bhah2rcd13ifvqei0","pricing_plan_id":"cebpf4jnsgd1na2vs0mg"},{"bike_id":"a51e83ee-53b4-4965-b5bb-694ae883e860","system_id":"levelo_inurba_marseille","lat":43.26199,"lon":5.37459,"is_reserved":false,"is_disabled":true,"rental_uris":{"android":"levelo://app?vid=a51e83ee-53b4-4965-b5bb-694ae883e860","ios":"levelo://app?vid=a51e83ee-53b4-4965-b5bb-694ae883e860"},"vehicle_type_id":"4","last_reported":1742155754,"current_range_meters":4400,"station_id":"ce4bhgp2rcd13ifvqfc0","pricing_plan_id":"cebpf4jnsgd1na2vs0mg"},{"bike_id":"72a143c1-87e0-4ccd-97cf-b9628fd01be6","system_id":"levelo_inurba_marseille","lat":43.28843,"lon":5.39322,"is_reserved":false,"is_disabled":false,"rental_uris":{"android":"levelo://app?vid=72a143c1-87e0-4ccd-97cf-b9628fd01be6","ios":"levelo://app?vid=72a143c1-87e0-4ccd-97cf-b9628fd01be6"},"vehicle_type_id":"4","last_reported":1742155754,"current_range_meters":4000,"station_id":"ce4bh2p2rcd13ifvqdi0","pricing_plan_id":"cebpf4jnsgd1na2vs0mg"},{"bike_id":"2ce773c7-7fdb-43a6-894e-fefb7fd94fce","system_id":"levelo_inurba_marseille","lat":43.26579,"lon":5.37294,"is_reserved":false,"is_disabled":false,"rental_uris":{"android":"levelo://app?vid=2ce773c7-7fdb-43a6-894e-fefb7fd94fce","ios":"levelo://app?vid=2ce773c7-7fdb-43a6-894e-fefb7fd94fce"},"vehicle_type_id":"4","last_reported":1742155754,"current_range_meters":4400,"station_id":"ce4bhg12rcd13ifvqf70","pricing_plan_id":"cebpf4jnsgd1na2vs0mg"},{"bike_id":"3a936147-6125-4114-b187-45674787518d","system_id":"levelo_inurba_marseille","lat":43.29515,"lon":5.39398,"is_reserved":false,"is_disabled":false,"rental_uris":{"android":"levelo://app?vid=3a936147-6125-4114-b187-45674787518d","ios":"levelo://app?vid=3a936147-6125-4114-b187-45674787518d"},"vehicle_type_id":"4","last_reported":1742155754,"current_range_meters":4000,"station_id":"ce4bh292rcd13ifvqdf0","pricing_plan_id":"cebpf4jnsgd1na2vs0mg"},{"bike_id":"22f1ff18-0132-4946-a97a-a47e6f70a6ed","system_id":"levelo_inurba_marseille","lat":43.22929,"lon":5.35381,"is_reserved":false,"is_disabled":false,"rental_uris":{"android":"levelo://app?vid=22f1ff18-0132-4946-a97a-a47e6f70a6ed","ios":"levelo://app?vid=22f1ff18-0132-4946-a97a-a47e6f70a6ed"},"vehicle_type_id":"4","last_reported":1742155754,"current_range_meters":4400,"station_id":"cpo3532slgdg3j2ikp40","pricing_plan_id":"cebpf4jnsgd1na2vs0mg"},{"bike_id":"bdb4bfb1-14a4-46ff-b216-5b3cb0ddf95f","system_id":"levelo_inurba_marseille","lat":43.29563,"lon":5.39955,"is_reserved":false,"is_disabled":true,"rental_uris":{"android":"levelo://app?vid=bdb4bfb1-14a4-46ff-b216-5b3cb0ddf95f","ios":"levelo://app?vid=bdb4bfb1-14a4-46ff-b216-5b3cb0ddf95f"},"vehicle_type_id":"4","last_reported":1742155754,"current_range_meters":4400,"station_id":"ce4bh312rcd13ifvqdj0","pricing_plan_id":"cebpf4jnsgd1na2vs0mg"},{"bike_id":"edd2fa11-7b39-430e-a40a-042abf7a2557","system_id":"levelo_inurba_marseille","lat":43.31336,"lon":5.39707,"is_reserved":false,"is_disabled":false,"rental_uris":{"android":"levelo://app?vid=edd2fa11-7b39-430e-a40a-042abf7a2557","ios":"levelo://app?vid=edd2fa11-7b39-430e-a40a-042abf7a2557"},"vehicle_type_id":"4","last_reported":1742155754,"current_range_meters":4400,"station_id":"ce4bgvp2rcd13ifvqcu0","pricing_plan_id":"cebpf4jnsgd1na2vs0mg"},{"bike_id":"1999cecf-f38c-4961-9580-ef6a50d3e0be","system_id":"levelo_inurba_marseille","lat":43.24181,"lon":5.36433,"is_reserved":false,"is_disabled":false,"rental_uris":{"android":"levelo://app?vid=1999cecf-f38c-4961-9580-ef6a50d3e0be","ios":"levelo://app?vid=1999cecf-f38c-4961-9580-ef6a50d3e0be"},"vehicle_type_id":"4","last_reported":1742155754,"current_range_meters":4400,"station_id":"cpo36qri1sfpv3e86is0","pricing_plan_id":"cebpf4jnsgd1na2vs0mg"},{"bike_id":"7bc5e87c-612e-44c3-9425-d738292fde3d","system_id":"levelo_inurba_marseille","lat":43.29687,"lon":5.36606,"is_reserved":false,"is_disabled":false,"rental_uris":{"android":"levelo://app?vid=7bc5e87c-612e-44c3-9425-d738292fde3d","ios":"levelo://app?vid=7bc5e87c-612e-44c3-9425-d738292fde3d"},"vehicle_type_id":"4","last_reported":1742155754,"current_range_meters":4000,"station_id":"ce4bgn12rcd13ifvqbt0","pricing_plan_id":"cebpf4jnsgd1na2vs0mg"},{"bike_id":"34456623-a67f-4e4a-842b-533cd6e33517","system_id":"levelo_inurba_marseille","lat":43.27614,"lon":5.36134,"is_reserved":false,"is_disabled":false,"rental_uris":{"android":"levelo://app?vid=34456623-a67f-4e4a-842b-533cd6e33517","ios":"levelo://app?vid=34456623-a67f-4e4a-842b-533cd6e33517"},"vehicle_type_id":"4","last_reported":1742155754,"current_range_meters":4400,"station_id":"ce4bgj92rcd13ifvqbe0","pricing_plan_id":"cebpf4jnsgd1na2vs0mg"},{"bike_id":"a0319d13-debf-425a-a0f2-19da83f666da","system_id":"levelo_inurba_marseille","lat":43.2845,"lon":5.35887,"is_reserved":false,"is_disabled":false,"rental_uris":{"android":"levelo://app?vid=a0319d13-debf-425a-a0f2-19da83f666da","ios":"levelo://app?vid=a0319d13-debf-425a-a0f2-19da83f666da"},"vehicle_type_id":"4","last_reported":1742155754,"current_range_meters":4400,"station_id":"ce4bhah2rcd13ifvqei0","pricing_plan_id":"cebpf4jnsgd1na2vs0mg"},{"bike_id":"0d2d2936-d550-4836-8da9-aa54a513f6c8","system_id":"levelo_inurba_marseille","lat":43.31083,"lon":5.42429,"is_reserved":false,"is_disabled":false,"rental_uris":{"android":"levelo://app?vid=0d2d2936-d550-4836-8da9-aa54a513f6c8","ios":"levelo://app?vid=0d2d2936-d550-4836-8da9-aa54a513f6c8"},"vehicle_type_id":"4","last_reported":1742155754,"current_range_meters":4000,"station_id":"ce4bhp92rcd13ifvqhag","pricing_plan_id":"cebpf4jnsgd1na2vs0mg"},{"bike_id":"8035dbf2-c464-4ad3-99c6-36165eb63bb2","system_id":"levelo_inurba_marseille","lat":43.287249,"lon":5.360978,"is_reserved":false,"is_disabled":false,"rental_uris":{"android":"levelo://app?vid=8035dbf2-c464-4ad3-99c6-36165eb63bb2","ios":"levelo://app?vid=8035dbf2-c464-4ad3-99c6-36165eb63bb2"},"vehicle_type_id":"4","last_reported":1742155754,"current_range_meters":4800,"station_id":"cki0cbj6b192h4jlfktg","pricing_plan_id":"cebpf4jnsgd1na2vs0mg"},{"bike_id":"0efd54ff-a83e-4d8c-be71-53d94f45fe35","system_id":"levelo_inurba_marseille","lat":43.27972,"lon":5.38734,"is_reserved":false,"is_disabled":false,"rental_uris":{"android":"levelo://app?vid=0efd54ff-a83e-4d8c-be71-53d94f45fe35","ios":"levelo://app?vid=0efd54ff-a83e-4d8c-be71-53d94f45fe35"},"vehicle_type_id":"4","last_reported":1742155754,"current_range_meters":4800,"station_id":"ce4bhg12rcd13ifvqf80","pricing_plan_id":"cebpf4jnsgd1na2vs0mg"},{"bike_id":"af19e5ab-648e-4ff9-a7c2-e941df9f2b56","system_id":"levelo_inurba_marseille","lat":43.29859,"lon":5.39726,"is_reserved":false,"is_disabled":false,"rental_uris":{"android":"levelo://app?vid=af19e5ab-648e-4ff9-a7c2-e941df9f2b56","ios":"levelo://app?vid=af19e5ab-648e-4ff9-a7c2-e941df9f2b56"},"vehicle_type_id":"4","last_reported":1742155754,"current_range_meters":4800,"station_id":"ce4bh0h2rcd13ifvqd50","pricing_plan_id":"cebpf4jnsgd1na2vs0mg"},{"bike_id":"43cc4cbe-b4e9-43c7-b7df-3921c563db2e","system_id":"levelo_inurba_marseille","lat":43.27378,"lon":5.3626,"is_reserved":false,"is_disabled":false,"rental_uris":{"android":"levelo://app?vid=43cc4cbe-b4e9-43c7-b7df-3921c563db2e","ios":"levelo://app?vid=43cc4cbe-b4e9-43c7-b7df-3921c563db2e"},"vehicle_type_id":"4","last_reported":1742155754,"current_range_meters":4800,"station_id":"ce4bhbh2rcd13ifvqeo0","pricing_plan_id":"cebpf4jnsgd1na2vs0mg"},{"bike_id":"de58dd31-693f-47f2-989e-fb410b10fcad","system_id":"levelo_inurba_marseille","lat":43.23209,"lon":5.40005,"is_reserved":false,"is_disabled":false,"rental_uris":{"android":"levelo://app?vid=de58dd31-693f-47f2-989e-fb410b10fcad","ios":"levelo://app?vid=de58dd31-693f-47f2-989e-fb410b10fcad"},"vehicle_type_id":"4","last_reported":1742155754,"current_range_meters":4800,"station_id":"ce4bhn12rcd13ifvqgqg","pricing_plan_id":"cebpf4jnsgd1na2vs0mg"},{"bike_id":"3a2e094a-3107-4948-abbf-84268cb81ee3","system_id":"levelo_inurba_marseille","lat":43.24816,"lon":5.37471,"is_reserved":false,"is_disabled":false,"rental_uris":{"android":"levelo://app?vid=3a2e094a-3107-4948-abbf-84268cb81ee3","ios":"levelo://app?vid=3a2e094a-3107-4948-abbf-84268cb81ee3"},"vehicle_type_id":"4","last_reported":1742155754,"current_range_meters":4800,"station_id":"ce4bhgh2rcd13ifvqfb0","pricing_plan_id":"cebpf4jnsgd1na2vs0mg"},{"bike_id":"2eebf106-1d5d-4662-a123-3de53349ef41","system_id":"levelo_inurba_marseille","lat":43.28754,"lon":5.38487,"is_reserved":false,"is_disabled":false,"rental_uris":{"android":"levelo://app?vid=2eebf106-1d5d-4662-a123-3de53349ef41","ios":"levelo://app?vid=2eebf106-1d5d-4662-a123-3de53349ef41"},"vehicle_type_id":"4","last_reported":1742155754,"current_range_meters":3600,"station_id":"","pricing_plan_id":"cebpf4jnsgd1na2vs0mg"},{"bike_id":"e0834956-e6d7-4bc3-862d-e76e3f887cbb","system_id":"levelo_inurba_marseille","lat":43.23061,"lon":5.35539,"is_reserved":false,"is_disabled":false,"rental_uris":{"android":"levelo://app?vid=e0834956-e6d7-4bc3-862d-e76e3f887cbb","ios":"levelo://app?vid=e0834956-e6d7-4bc3-862d-e76e3f887cbb"},"vehicle_type_id":"4","last_reported":1742155754,"current_range_meters":5600,"station_id":"cpo3342slgdg3j2ifvpg","pricing_plan_id":"cebpf4jnsgd1na2vs0mg"},{"bike_id":"bcdf70d1-98e2-46b2-86dd-446d83cd787c","system_id":"levelo_inurba_marseille","lat":43.26568,"lon":5.3902,"is_reserved":false,"is_disabled":false,"rental_uris":{"android":"levelo://app?vid=bcdf70d1-98e2-46b2-86dd-446d83cd787c","ios":"levelo://app?vid=bcdf70d1-98e2-46b2-86dd-446d83cd787c"},"vehicle_type_id":"4","last_reported":1742155754,"current_range_meters":4800,"station_id":"ce4bhe12rcd13ifvqf30","pricing_plan_id":"cebpf4jnsgd1na2vs0mg"},{"bike_id":"76837955-312a-4300-a00b-4a15c94e44b9","system_id":"levelo_inurba_marseille","lat":43.26585,"lon":5.37273,"is_reserved":false,"is_disabled":false,"rental_uris":{"android":"levelo://app?vid=76837955-312a-4300-a00b-4a15c94e44b9","ios":"levelo://app?vid=76837955-312a-4300-a00b-4a15c94e44b9"},"vehicle_type_id":"4","last_reported":1742155754,"current_range_meters":5600,"station_id":"ce4bhg12rcd13ifvqf70","pricing_plan_id":"cebpf4jnsgd1na2vs0mg"},{"bike_id":"a2886558-4348-42ee-9991-62a4e8d8d085","system_id":"levelo_inurba_marseille","lat":43.258665,"lon":5.398976,"is_reserved":false,"is_disabled":false,"rental_uris":{"android":"levelo://app?vid=a2886558-4348-42ee-9991-62a4e8d8d085","ios":"levelo://app?vid=a2886558-4348-42ee-9991-62a4e8d8d085"},"vehicle_type_id":"4","last_reported":1742155754,"current_range_meters":5600,"station_id":"ce4bhl92rcd13ifvqghg","pricing_plan_id":"cebpf4jnsgd1na2vs0mg"},{"bike_id":"93b25774-360c-4172-8115-c211c035424b","system_id":"levelo_inurba_marseille","lat":43.292823,"lon":5.401233,"is_reserved":false,"is_disabled":false,"rental_uris":{"android":"levelo://app?vid=93b25774-360c-4172-8115-c211c035424b","ios":"levelo://app?vid=93b25774-360c-4172-8115-c211c035424b"},"vehicle_type_id":"4","last_reported":1742155754,"current_range_meters":5600,"station_id":"ce4bh312rcd13ifvqdk0","pricing_plan_id":"cebpf4jnsgd1na2vs0mg"},{"bike_id":"b7032d54-acb2-4146-a727-5663dbeb4009","system_id":"levelo_inurba_marseille","lat":43.23183,"lon":5.39988,"is_reserved":false,"is_disabled":false,"rental_uris":{"android":"levelo://app?vid=b7032d54-acb2-4146-a727-5663dbeb4009","ios":"levelo://app?vid=b7032d54-acb2-4146-a727-5663dbeb4009"},"vehicle_type_id":"4","last_reported":1742155754,"current_range_meters":5600,"station_id":"ce4bhn12rcd13ifvqgqg","pricing_plan_id":"cebpf4jnsgd1na2vs0mg"},{"bike_id":"a0077075-129c-41b6-a008-934f22aa9c2b","system_id":"levelo_inurba_marseille","lat":43.26194,"lon":5.3747,"is_reserved":false,"is_disabled":true,"rental_uris":{"android":"levelo://app?vid=a0077075-129c-41b6-a008-934f22aa9c2b","ios":"levelo://app?vid=a0077075-129c-41b6-a008-934f22aa9c2b"},"vehicle_type_id":"4","last_reported":1742155754,"current_range_meters":5600,"station_id":"ce4bhgp2rcd13ifvqfc0","pricing_plan_id":"cebpf4jnsgd1na2vs0mg"},{"bike_id":"37926ab0-69be-46e6-b16f-c5d780830775","system_id":"levelo_inurba_marseille","lat":43.31013,"lon":5.37706,"is_reserved":false,"is_disabled":false,"rental_uris":{"android":"levelo://app?vid=37926ab0-69be-46e6-b16f-c5d780830775","ios":"levelo://app?vid=37926ab0-69be-46e6-b16f-c5d780830775"},"vehicle_type_id":"4","last_reported":1742155754,"current_range_meters":5600,"station_id":"","pricing_plan_id":"cebpf4jnsgd1na2vs0mg"},{"bike_id":"6c001d2e-b208-4ff5-a256-643169f0701b","system_id":"levelo_inurba_marseille","lat":43.23054,"lon":5.35498,"is_reserved":false,"is_disabled":false,"rental_uris":{"android":"levelo://app?vid=6c001d2e-b208-4ff5-a256-643169f0701b","ios":"levelo://app?vid=6c001d2e-b208-4ff5-a256-643169f0701b"},"vehicle_type_id":"4","last_reported":1742155754,"current_range_meters":5600,"station_id":"cpo3342slgdg3j2ifvpg","pricing_plan_id":"cebpf4jnsgd1na2vs0mg"},{"bike_id":"c8876ad1-79cf-4421-9912-8f75411e76cc","system_id":"levelo_inurba_marseille","lat":43.27202,"lon":5.41042,"is_reserved":false,"is_disabled":true,"rental_uris":{"android":"levelo://app?vid=c8876ad1-79cf-4421-9912-8f75411e76cc","ios":"levelo://app?vid=c8876ad1-79cf-4421-9912-8f75411e76cc"},"vehicle_type_id":"4","last_reported":1742155754,"current_range_meters":5600,"station_id":"ce4bhl12rcd13ifvqgf0","pricing_plan_id":"cebpf4jnsgd1na2vs0mg"},{"bike_id":"d95844fe-dcd8-40ca-83fc-1cfc7348194a","system_id":"levelo_inurba_marseille","lat":43.25113,"lon":5.40321,"is_reserved":false,"is_disabled":false,"rental_uris":{"android":"levelo://app?vid=d95844fe-dcd8-40ca-83fc-1cfc7348194a","ios":"levelo://app?vid=d95844fe-dcd8-40ca-83fc-1cfc7348194a"},"vehicle_type_id":"4","last_reported":1742155754,"current_range_meters":5600,"station_id":"ce4bhlh2rcd13ifvqgig","pricing_plan_id":"cebpf4jnsgd1na2vs0mg"},{"bike_id":"8ac36ff0-95fa-4664-8e37-a03afd0a16e1","system_id":"levelo_inurba_marseille","lat":43.28978,"lon":5.37831,"is_reserved":false,"is_disabled":true,"rental_uris":{"android":"levelo://app?vid=8ac36ff0-95fa-4664-8e37-a03afd0a16e1","ios":"levelo://app?vid=8ac36ff0-95fa-4664-8e37-a03afd0a16e1"},"vehicle_type_id":"4","last_reported":1742155754,"current_range_meters":5600,"station_id":"","pricing_plan_id":"cebpf4jnsgd1na2vs0mg"},{"bike_id":"26ec45d2-b991-464c-99b8-c3029ea5c960","system_id":"levelo_inurba_marseille","lat":43.28477,"lon":5.38454,"is_reserved":false,"is_disabled":true,"rental_uris":{"android":"levelo://app?vid=26ec45d2-b991-464c-99b8-c3029ea5c960","ios":"levelo://app?vid=26ec45d2-b991-464c-99b8-c3029ea5c960"},"vehicle_type_id":"4","last_reported":1742155754,"current_range_meters":5600,"station_id":"ce4bh512rcd13ifvqe3g","pricing_plan_id":"cebpf4jnsgd1na2vs0mg"},{"bike_id":"3663a4bc-490e-4b5c-9056-a176c2b5871a","system_id":"levelo_inurba_marseille","lat":43.29893,"lon":5.38402,"is_reserved":false,"is_disabled":false,"rental_uris":{"android":"levelo://app?vid=3663a4bc-490e-4b5c-9056-a176c2b5871a","ios":"levelo://app?vid=3663a4bc-490e-4b5c-9056-a176c2b5871a"},"vehicle_type_id":"4","last_reported":1742155754,"current_range_meters":6000,"station_id":"","pricing_plan_id":"cebpf4jnsgd1na2vs0mg"},{"bike_id":"1ac0ebad-6828-4242-99b2-14a9f8209f79","system_id":"levelo_inurba_marseille","lat":43.23213,"lon":5.35552,"is_reserved":false,"is_disabled":false,"rental_uris":{"android":"levelo://app?vid=1ac0ebad-6828-4242-99b2-14a9f8209f79","ios":"levelo://app?vid=1ac0ebad-6828-4242-99b2-14a9f8209f79"},"vehicle_type_id":"4","last_reported":1742155754,"current_range_meters":6000,"station_id":"ce4bhu92rcd13ifvqi70","pricing_plan_id":"cebpf4jnsgd1na2vs0mg"},{"bike_id":"dfa76b7e-741a-4edb-9a75-5948b5933f81","system_id":"levelo_inurba_marseille","lat":43.2489,"lon":5.40907,"is_reserved":false,"is_disabled":false,"rental_uris":{"android":"levelo://app?vid=dfa76b7e-741a-4edb-9a75-5948b5933f81","ios":"levelo://app?vid=dfa76b7e-741a-4edb-9a75-5948b5933f81"},"vehicle_type_id":"4","last_reported":1742155754,"current_range_meters":6000,"station_id":"","pricing_plan_id":"cebpf4jnsgd1na2vs0mg"},{"bike_id":"fba612fa-703b-4deb-b5ed-b7208aac552c","system_id":"levelo_inurba_marseille","lat":43.30881,"lon":5.37177,"is_reserved":false,"is_disabled":false,"rental_uris":{"android":"levelo://app?vid=fba612fa-703b-4deb-b5ed-b7208aac552c","ios":"levelo://app?vid=fba612fa-703b-4deb-b5ed-b7208aac552c"},"vehicle_type_id":"4","last_reported":1742155754,"current_range_meters":6000,"station_id":"ce4bguh2rcd13ifvqckg","pricing_plan_id":"cebpf4jnsgd1na2vs0mg"},{"bike_id":"ec3a190a-2eaa-473b-bd8f-78961e7357b0","system_id":"levelo_inurba_marseille","lat":43.32359,"lon":5.36753,"is_reserved":false,"is_disabled":false,"rental_uris":{"android":"levelo://app?vid=ec3a190a-2eaa-473b-bd8f-78961e7357b0","ios":"levelo://app?vid=ec3a190a-2eaa-473b-bd8f-78961e7357b0"},"vehicle_type_id":"4","last_reported":1742155754,"current_range_meters":6000,"station_id":"ce4bhsh2rcd13ifvqi2g","pricing_plan_id":"cebpf4jnsgd1na2vs0mg"},{"bike_id":"ed653f5d-1941-42e2-91bf-d440a97e2393","system_id":"levelo_inurba_marseille","lat":43.31182,"lon":5.38717,"is_reserved":false,"is_disabled":false,"rental_uris":{"android":"levelo://app?vid=ed653f5d-1941-42e2-91bf-d440a97e2393","ios":"levelo://app?vid=ed653f5d-1941-42e2-91bf-d440a97e2393"},"vehicle_type_id":"4","last_reported":1742155754,"current_range_meters":6000,"station_id":"ce4bgv12rcd13ifvqcp0","pricing_plan_id":"cebpf4jnsgd1na2vs0mg"},{"bike_id":"fbaa2d68-98f6-4ccb-b661-299930b2fdb3","system_id":"levelo_inurba_marseille","lat":43.29571,"lon":5.37499,"is_reserved":false,"is_disabled":false,"rental_uris":{"android":"levelo://app?vid=fbaa2d68-98f6-4ccb-b661-299930b2fdb3","ios":"levelo://app?vid=fbaa2d68-98f6-4ccb-b661-299930b2fdb3"},"vehicle_type_id":"4","last_reported":1742155754,"current_range_meters":6000,"station_id":"ce4bgh92rcd13ifvqb50","pricing_plan_id":"cebpf4jnsgd1na2vs0mg"},{"bike_id":"025ef9ea-fdfb-47be-ab46-73c5c34634a6","system_id":"levelo_inurba_marseille","lat":43.29621,"lon":5.40603,"is_reserved":false,"is_disabled":false,"rental_uris":{"android":"levelo://app?vid=025ef9ea-fdfb-47be-ab46-73c5c34634a6","ios":"levelo://app?vid=025ef9ea-fdfb-47be-ab46-73c5c34634a6"},"vehicle_type_id":"4","last_reported":1742155754,"current_range_meters":6000,"station_id":"ce4bh0h2rcd13ifvqd60","pricing_plan_id":"cebpf4jnsgd1na2vs0mg"},{"bike_id":"6cff3099-fc62-4212-a5e6-1cc54ed7cc41","system_id":"levelo_inurba_marseille","lat":43.2503,"lon":5.3891,"is_reserved":false,"is_disabled":false,"rental_uris":{"android":"levelo://app?vid=6cff3099-fc62-4212-a5e6-1cc54ed7cc41","ios":"levelo://app?vid=6cff3099-fc62-4212-a5e6-1cc54ed7cc41"},"vehicle_type_id":"4","last_reported":1742155754,"current_range_meters":6400,"station_id":"ce4bhgp2rcd13ifvqfd0","pricing_plan_id":"cebpf4jnsgd1na2vs0mg"},{"bike_id":"df0fd6a4-d586-41d5-bcd7-a06480a7af83","system_id":"levelo_inurba_marseille","lat":43.23201,"lon":5.39999,"is_reserved":false,"is_disabled":false,"rental_uris":{"android":"levelo://app?vid=df0fd6a4-d586-41d5-bcd7-a06480a7af83","ios":"levelo://app?vid=df0fd6a4-d586-41d5-bcd7-a06480a7af83"},"vehicle_type_id":"4","last_reported":1742155754,"current_range_meters":6400,"station_id":"ce4bhn12rcd13ifvqgqg","pricing_plan_id":"cebpf4jnsgd1na2vs0mg"},{"bike_id":"676e66c6-8e50-404c-b512-5f94c7d6a8fc","system_id":"levelo_inurba_marseille","lat":43.24165,"lon":5.36417,"is_reserved":false,"is_disabled":false,"rental_uris":{"android":"levelo://app?vid=676e66c6-8e50-404c-b512-5f94c7d6a8fc","ios":"levelo://app?vid=676e66c6-8e50-404c-b512-5f94c7d6a8fc"},"vehicle_type_id":"4","last_reported":1742155754,"current_range_meters":6400,"station_id":"cpo36qri1sfpv3e86is0","pricing_plan_id":"cebpf4jnsgd1na2vs0mg"},{"bike_id":"07d20569-353e-4eaa-a99c-477c4e53db2e","system_id":"levelo_inurba_marseille","lat":43.33038,"lon":5.39038,"is_reserved":false,"is_disabled":false,"rental_uris":{"android":"levelo://app?vid=07d20569-353e-4eaa-a99c-477c4e53db2e","ios":"levelo://app?vid=07d20569-353e-4eaa-a99c-477c4e53db2e"},"vehicle_type_id":"4","last_reported":1742155754,"current_range_meters":6400,"station_id":"ce4bhr92rcd13ifvqhrg","pricing_plan_id":"cebpf4jnsgd1na2vs0mg"},{"bike_id":"82465aa7-55ed-4055-9cc8-5fdee15ebdd8","system_id":"levelo_inurba_marseille","lat":43.27633,"lon":5.41896,"is_reserved":false,"is_disabled":false,"rental_uris":{"android":"levelo://app?vid=82465aa7-55ed-4055-9cc8-5fdee15ebdd8","ios":"levelo://app?vid=82465aa7-55ed-4055-9cc8-5fdee15ebdd8"},"vehicle_type_id":"4","last_reported":1742155754,"current_range_meters":6400,"station_id":"","pricing_plan_id":"cebpf4jnsgd1na2vs0mg"},{"bike_id":"0b7bfdb8-fd03-4687-9225-8085184f929c","system_id":"levelo_inurba_marseille","lat":43.3238,"lon":5.36786,"is_reserved":false,"is_disabled":false,"rental_uris":{"android":"levelo://app?vid=0b7bfdb8-fd03-4687-9225-8085184f929c","ios":"levelo://app?vid=0b7bfdb8-fd03-4687-9225-8085184f929c"},"vehicle_type_id":"4","last_reported":1742155754,"current_range_meters":6800,"station_id":"ce4bhsh2rcd13ifvqi2g","pricing_plan_id":"cebpf4jnsgd1na2vs0mg"},{"bike_id":"f6c6b59f-0f79-4859-82fb-6c99c3393fd8","system_id":"levelo_inurba_marseille","lat":43.285998,"lon":5.384482,"is_reserved":false,"is_disabled":false,"rental_uris":{"android":"levelo://app?vid=f6c6b59f-0f79-4859-82fb-6c99c3393fd8","ios":"levelo://app?vid=f6c6b59f-0f79-4859-82fb-6c99c3393fd8"},"vehicle_type_id":"4","last_reported":1742155754,"current_range_meters":6400,"station_id":"ce4bh9p2rcd13ifvqec0","pricing_plan_id":"cebpf4jnsgd1na2vs0mg"},{"bike_id":"ae25fe52-db37-435e-90b0-0d9ecc4e1c43","system_id":"levelo_inurba_marseille","lat":43.27859,"lon":5.39246,"is_reserved":false,"is_disabled":false,"rental_uris":{"android":"levelo://app?vid=ae25fe52-db37-435e-90b0-0d9ecc4e1c43","ios":"levelo://app?vid=ae25fe52-db37-435e-90b0-0d9ecc4e1c43"},"vehicle_type_id":"4","last_reported":1742155754,"current_range_meters":6400,"station_id":"ce4bhjp2rcd13ifvqga0","pricing_plan_id":"cebpf4jnsgd1na2vs0mg"},{"bike_id":"e52b41b5-52df-4c67-a85c-3cebb3bf7504","system_id":"levelo_inurba_marseille","lat":43.32363,"lon":5.36769,"is_reserved":false,"is_disabled":false,"rental_uris":{"android":"levelo://app?vid=e52b41b5-52df-4c67-a85c-3cebb3bf7504","ios":"levelo://app?vid=e52b41b5-52df-4c67-a85c-3cebb3bf7504"},"vehicle_type_id":"4","last_reported":1742155754,"current_range_meters":6400,"station_id":"ce4bhsh2rcd13ifvqi2g","pricing_plan_id":"cebpf4jnsgd1na2vs0mg"},{"bike_id":"71d6b220-48b3-44b0-9feb-d7bbfca6b232","system_id":"levelo_inurba_marseille","lat":43.25483,"lon":5.37655,"is_reserved":false,"is_disabled":true,"rental_uris":{"android":"levelo://app?vid=71d6b220-48b3-44b0-9feb-d7bbfca6b232","ios":"levelo://app?vid=71d6b220-48b3-44b0-9feb-d7bbfca6b232"},"vehicle_type_id":"4","last_reported":1742155754,"current_range_meters":6400,"station_id":"ce4bhh12rcd13ifvqff0","pricing_plan_id":"cebpf4jnsgd1na2vs0mg"},{"bike_id":"9616bb7d-2e2f-41e6-abd7-2b8dd38dcca7","system_id":"levelo_inurba_marseille","lat":43.24815,"lon":5.37466,"is_reserved":false,"is_disabled":false,"rental_uris":{"android":"levelo://app?vid=9616bb7d-2e2f-41e6-abd7-2b8dd38dcca7","ios":"levelo://app?vid=9616bb7d-2e2f-41e6-abd7-2b8dd38dcca7"},"vehicle_type_id":"4","last_reported":1742155754,"current_range_meters":6400,"station_id":"ce4bhgh2rcd13ifvqfb0","pricing_plan_id":"cebpf4jnsgd1na2vs0mg"},{"bike_id":"efb53dda-871b-483c-8dec-e716116f9234","system_id":"levelo_inurba_marseille","lat":43.311,"lon":5.3677,"is_reserved":false,"is_disabled":false,"rental_uris":{"android":"levelo://app?vid=efb53dda-871b-483c-8dec-e716116f9234","ios":"levelo://app?vid=efb53dda-871b-483c-8dec-e716116f9234"},"vehicle_type_id":"4","last_reported":1742155754,"current_range_meters":6400,"station_id":"","pricing_plan_id":"cebpf4jnsgd1na2vs0mg"},{"bike_id":"7df90f1a-4a9b-4957-86b0-d350f51aa6e9","system_id":"levelo_inurba_marseille","lat":43.27642,"lon":5.36154,"is_reserved":false,"is_disabled":false,"rental_uris":{"android":"levelo://app?vid=7df90f1a-4a9b-4957-86b0-d350f51aa6e9","ios":"levelo://app?vid=7df90f1a-4a9b-4957-86b0-d350f51aa6e9"},"vehicle_type_id":"4","last_reported":1742155754,"current_range_meters":6400,"station_id":"","pricing_plan_id":"cebpf4jnsgd1na2vs0mg"},{"bike_id":"b2162390-2557-4253-8653-e2e8f83a9469","system_id":"levelo_inurba_marseille","lat":43.30945,"lon":5.40144,"is_reserved":false,"is_disabled":false,"rental_uris":{"android":"levelo://app?vid=b2162390-2557-4253-8653-e2e8f83a9469","ios":"levelo://app?vid=b2162390-2557-4253-8653-e2e8f83a9469"},"vehicle_type_id":"4","last_reported":1742155754,"current_range_meters":6800,"station_id":"ce4bgvp2rcd13ifvqct0","pricing_plan_id":"cebpf4jnsgd1na2vs0mg"},{"bike_id":"54db2e56-24b9-4a93-9174-d3002f4fb72b","system_id":"levelo_inurba_marseille","lat":43.30312,"lon":5.36889,"is_reserved":false,"is_disabled":false,"rental_uris":{"android":"levelo://app?vid=54db2e56-24b9-4a93-9174-d3002f4fb72b","ios":"levelo://app?vid=54db2e56-24b9-4a93-9174-d3002f4fb72b"},"vehicle_type_id":"4","last_reported":1742155754,"current_range_meters":6800,"station_id":"ce4bgqh2rcd13ifvqc5g","pricing_plan_id":"cebpf4jnsgd1na2vs0mg"},{"bike_id":"f336eca5-27fd-4972-926a-7215cdccbadb","system_id":"levelo_inurba_marseille","lat":43.30936,"lon":5.40144,"is_reserved":false,"is_disabled":false,"rental_uris":{"android":"levelo://app?vid=f336eca5-27fd-4972-926a-7215cdccbadb","ios":"levelo://app?vid=f336eca5-27fd-4972-926a-7215cdccbadb"},"vehicle_type_id":"4","last_reported":1742155754,"current_range_meters":7200,"station_id":"ce4bgvp2rcd13ifvqct0","pricing_plan_id":"cebpf4jnsgd1na2vs0mg"},{"bike_id":"d378659a-b095-4d28-a820-d3bacca7d8f8","system_id":"levelo_inurba_marseille","lat":43.27638,"lon":5.36094,"is_reserved":false,"is_disabled":false,"rental_uris":{"android":"levelo://app?vid=d378659a-b095-4d28-a820-d3bacca7d8f8","ios":"levelo://app?vid=d378659a-b095-4d28-a820-d3bacca7d8f8"},"vehicle_type_id":"4","last_reported":1742155754,"current_range_meters":6800,"station_id":"ce4bgj92rcd13ifvqbe0","pricing_plan_id":"cebpf4jnsgd1na2vs0mg"},{"bike_id":"2127c283-3bf3-4081-9791-ba201cf5a542","system_id":"levelo_inurba_marseille","lat":43.30481,"lon":5.37338,"is_reserved":false,"is_disabled":true,"rental_uris":{"android":"levelo://app?vid=2127c283-3bf3-4081-9791-ba201cf5a542","ios":"levelo://app?vid=2127c283-3bf3-4081-9791-ba201cf5a542"},"vehicle_type_id":"4","last_reported":1742155754,"current_range_meters":6800,"station_id":"","pricing_plan_id":"cebpf4jnsgd1na2vs0mg"},{"bike_id":"7dd769be-a96c-41b3-8a44-6973fc831e5b","system_id":"levelo_inurba_marseille","lat":43.25532,"lon":5.37725,"is_reserved":false,"is_disabled":true,"rental_uris":{"android":"levelo://app?vid=7dd769be-a96c-41b3-8a44-6973fc831e5b","ios":"levelo://app?vid=7dd769be-a96c-41b3-8a44-6973fc831e5b"},"vehicle_type_id":"4","last_reported":1742155754,"current_range_meters":6800,"station_id":"","pricing_plan_id":"cebpf4jnsgd1na2vs0mg"},{"bike_id":"f45ae2a8-413c-4b67-a873-ec691fe0f212","system_id":"levelo_inurba_marseille","lat":43.28461,"lon":5.35895,"is_reserved":false,"is_disabled":false,"rental_uris":{"android":"levelo://app?vid=f45ae2a8-413c-4b67-a873-ec691fe0f212","ios":"levelo://app?vid=f45ae2a8-413c-4b67-a873-ec691fe0f212"},"vehicle_type_id":"4","last_reported":1742155754,"current_range_meters":6800,"station_id":"ce4bhah2rcd13ifvqei0","pricing_plan_id":"cebpf4jnsgd1na2vs0mg"},{"bike_id":"f2b7b04e-8089-4d6c-9db8-5e21bca75c26","system_id":"levelo_inurba_marseille","lat":43.27821,"lon":5.39192,"is_reserved":false,"is_disabled":true,"rental_uris":{"android":"levelo://app?vid=f2b7b04e-8089-4d6c-9db8-5e21bca75c26","ios":"levelo://app?vid=f2b7b04e-8089-4d6c-9db8-5e21bca75c26"},"vehicle_type_id":"4","last_reported":1742155754,"current_range_meters":7200,"station_id":"ce4bhjp2rcd13ifvqga0","pricing_plan_id":"cebpf4jnsgd1na2vs0mg"},{"bike_id":"c5f6ed78-cc2b-4647-a8ad-05b74517f437","system_id":"levelo_inurba_marseille","lat":43.2894,"lon":5.36635,"is_reserved":false,"is_disabled":false,"rental_uris":{"android":"levelo://app?vid=c5f6ed78-cc2b-4647-a8ad-05b74517f437","ios":"levelo://app?vid=c5f6ed78-cc2b-4647-a8ad-05b74517f437"},"vehicle_type_id":"4","last_reported":1742155754,"current_range_meters":6800,"station_id":"ce4bhap2rcd13ifvqek0","pricing_plan_id":"cebpf4jnsgd1na2vs0mg"},{"bike_id":"c8a58055-bc78-4660-bd06-f4d105173248","system_id":"levelo_inurba_marseille","lat":43.29038,"lon":5.39969,"is_reserved":false,"is_disabled":false,"rental_uris":{"android":"levelo://app?vid=c8a58055-bc78-4660-bd06-f4d105173248","ios":"levelo://app?vid=c8a58055-bc78-4660-bd06-f4d105173248"},"vehicle_type_id":"4","last_reported":1742155754,"current_range_meters":6800,"station_id":"ce4bh392rcd13ifvqdm0","pricing_plan_id":"cebpf4jnsgd1na2vs0mg"},{"bike_id":"5aaabe09-6578-43c7-980e-4aaf099e54cb","system_id":"levelo_inurba_marseille","lat":43.29575,"lon":5.40003,"is_reserved":false,"is_disabled":false,"rental_uris":{"android":"levelo://app?vid=5aaabe09-6578-43c7-980e-4aaf099e54cb","ios":"levelo://app?vid=5aaabe09-6578-43c7-980e-4aaf099e54cb"},"vehicle_type_id":"4","last_reported":1742155754,"current_range_meters":7200,"station_id":"ce4bh312rcd13ifvqdj0","pricing_plan_id":"cebpf4jnsgd1na2vs0mg"},{"bike_id":"63379bde-e9ae-455c-97e5-c3d589bcf133","system_id":"levelo_inurba_marseille","lat":43.299071,"lon":5.381568,"is_reserved":false,"is_disabled":false,"rental_uris":{"android":"levelo://app?vid=63379bde-e9ae-455c-97e5-c3d589bcf133","ios":"levelo://app?vid=63379bde-e9ae-455c-97e5-c3d589bcf133"},"vehicle_type_id":"4","last_reported":1742155754,"current_range_meters":7200,"station_id":"ce4bh112rcd13ifvqda0","pricing_plan_id":"cebpf4jnsgd1na2vs0mg"},{"bike_id":"3441ec86-b8b2-427e-8f60-cf6b63d1f81e","system_id":"levelo_inurba_marseille","lat":43.28663,"lon":5.36348,"is_reserved":false,"is_disabled":false,"rental_uris":{"android":"levelo://app?vid=3441ec86-b8b2-427e-8f60-cf6b63d1f81e","ios":"levelo://app?vid=3441ec86-b8b2-427e-8f60-cf6b63d1f81e"},"vehicle_type_id":"4","last_reported":1742155754,"current_range_meters":7200,"station_id":"ce4bhah2rcd13ifvqej0","pricing_plan_id":"cebpf4jnsgd1na2vs0mg"},{"bike_id":"af004255-93b1-4617-8c69-428414d7ebe9","system_id":"levelo_inurba_marseille","lat":43.25019,"lon":5.38934,"is_reserved":false,"is_disabled":false,"rental_uris":{"android":"levelo://app?vid=af004255-93b1-4617-8c69-428414d7ebe9","ios":"levelo://app?vid=af004255-93b1-4617-8c69-428414d7ebe9"},"vehicle_type_id":"4","last_reported":1742155754,"current_range_meters":7200,"station_id":"ce4bhgp2rcd13ifvqfd0","pricing_plan_id":"cebpf4jnsgd1na2vs0mg"},{"bike_id":"75fe710d-59d7-4360-ad6d-acf41a03287f","system_id":"levelo_inurba_marseille","lat":43.31479,"lon":5.36863,"is_reserved":false,"is_disabled":false,"rental_uris":{"android":"levelo://app?vid=75fe710d-59d7-4360-ad6d-acf41a03287f","ios":"levelo://app?vid=75fe710d-59d7-4360-ad6d-acf41a03287f"},"vehicle_type_id":"4","last_reported":1742155754,"current_range_meters":7200,"station_id":"","pricing_plan_id":"cebpf4jnsgd1na2vs0mg"},{"bike_id":"e3acbff3-15e0-47b5-80be-e0b4d7c85f89","system_id":"levelo_inurba_marseille","lat":43.23954,"lon":5.36644,"is_reserved":false,"is_disabled":false,"rental_uris":{"android":"levelo://app?vid=e3acbff3-15e0-47b5-80be-e0b4d7c85f89","ios":"levelo://app?vid=e3acbff3-15e0-47b5-80be-e0b4d7c85f89"},"vehicle_type_id":"4","last_reported":1742155754,"current_range_meters":7200,"station_id":"ce4bhi12rcd13ifvqfp0","pricing_plan_id":"cebpf4jnsgd1na2vs0mg"},{"bike_id":"cf78aa08-aba3-408a-8558-e3b5d86caada","system_id":"levelo_inurba_marseille","lat":43.26224,"lon":5.37458,"is_reserved":false,"is_disabled":false,"rental_uris":{"android":"levelo://app?vid=cf78aa08-aba3-408a-8558-e3b5d86caada","ios":"levelo://app?vid=cf78aa08-aba3-408a-8558-e3b5d86caada"},"vehicle_type_id":"4","last_reported":1742155754,"current_range_meters":9600,"station_id":"ce4bhgp2rcd13ifvqfc0","pricing_plan_id":"cebpf4jnsgd1na2vs0mg"},{"bike_id":"e28ff5df-59fc-4a9e-b133-e51d322b5876","system_id":"levelo_inurba_marseille","lat":43.289214,"lon":5.38385,"is_reserved":false,"is_disabled":false,"rental_uris":{"android":"levelo://app?vid=e28ff5df-59fc-4a9e-b133-e51d322b5876","ios":"levelo://app?vid=e28ff5df-59fc-4a9e-b133-e51d322b5876"},"vehicle_type_id":"4","last_reported":1742155754,"current_range_meters":7200,"station_id":"ce4bh612rcd13ifvqe6g","pricing_plan_id":"cebpf4jnsgd1na2vs0mg"},{"bike_id":"743c9fbf-42df-4986-bc8c-9b4a2bc386be","system_id":"levelo_inurba_marseille","lat":43.24073,"lon":5.37766,"is_reserved":false,"is_disabled":false,"rental_uris":{"android":"levelo://app?vid=743c9fbf-42df-4986-bc8c-9b4a2bc386be","ios":"levelo://app?vid=743c9fbf-42df-4986-bc8c-9b4a2bc386be"},"vehicle_type_id":"4","last_reported":1742155754,"current_range_meters":7200,"station_id":"ce4bhnp2rcd13ifvqgvg","pricing_plan_id":"cebpf4jnsgd1na2vs0mg"},{"bike_id":"82e4859a-e942-44b1-82e8-bca3ed8730b3","system_id":"levelo_inurba_marseille","lat":43.24801,"lon":5.37458,"is_reserved":false,"is_disabled":false,"rental_uris":{"android":"levelo://app?vid=82e4859a-e942-44b1-82e8-bca3ed8730b3","ios":"levelo://app?vid=82e4859a-e942-44b1-82e8-bca3ed8730b3"},"vehicle_type_id":"4","last_reported":1742155754,"current_range_meters":7200,"station_id":"ce4bhgh2rcd13ifvqfb0","pricing_plan_id":"cebpf4jnsgd1na2vs0mg"},{"bike_id":"20d099e0-8494-48b6-9369-3b77eefe31dd","system_id":"levelo_inurba_marseille","lat":43.29254,"lon":5.40897,"is_reserved":false,"is_disabled":false,"rental_uris":{"android":"levelo://app?vid=20d099e0-8494-48b6-9369-3b77eefe31dd","ios":"levelo://app?vid=20d099e0-8494-48b6-9369-3b77eefe31dd"},"vehicle_type_id":"4","last_reported":1742155754,"current_range_meters":7200,"station_id":"ce4bh192rcd13ifvqdc0","pricing_plan_id":"cebpf4jnsgd1na2vs0mg"},{"bike_id":"c5ff76ac-c5f0-4e6d-872b-0339d85f51aa","system_id":"levelo_inurba_marseille","lat":43.24082,"lon":5.37762,"is_reserved":false,"is_disabled":false,"rental_uris":{"android":"levelo://app?vid=c5ff76ac-c5f0-4e6d-872b-0339d85f51aa","ios":"levelo://app?vid=c5ff76ac-c5f0-4e6d-872b-0339d85f51aa"},"vehicle_type_id":"4","last_reported":1742155754,"current_range_meters":7200,"station_id":"ce4bhnp2rcd13ifvqgvg","pricing_plan_id":"cebpf4jnsgd1na2vs0mg"},{"bike_id":"0102a975-ca16-4d1e-8694-d919e87a2584","system_id":"levelo_inurba_marseille","lat":43.29556,"lon":5.42284,"is_reserved":false,"is_disabled":false,"rental_uris":{"android":"levelo://app?vid=0102a975-ca16-4d1e-8694-d919e87a2584","ios":"levelo://app?vid=0102a975-ca16-4d1e-8694-d919e87a2584"},"vehicle_type_id":"4","last_reported":1742155754,"current_range_meters":8000,"station_id":"ce4bhph2rcd13ifvqhdg","pricing_plan_id":"cebpf4jnsgd1na2vs0mg"},{"bike_id":"42094b0b-ff49-4045-8d22-17a56f1b543d","system_id":"levelo_inurba_marseille","lat":43.29577,"lon":5.39982,"is_reserved":false,"is_disabled":false,"rental_uris":{"android":"levelo://app?vid=42094b0b-ff49-4045-8d22-17a56f1b543d","ios":"levelo://app?vid=42094b0b-ff49-4045-8d22-17a56f1b543d"},"vehicle_type_id":"4","last_reported":1742155754,"current_range_meters":8000,"station_id":"ce4bh312rcd13ifvqdj0","pricing_plan_id":"cebpf4jnsgd1na2vs0mg"},{"bike_id":"c803d56b-c665-4201-ac60-8a8240fb98cb","system_id":"levelo_inurba_marseille","lat":43.28921,"lon":5.38404,"is_reserved":false,"is_disabled":false,"rental_uris":{"android":"levelo://app?vid=c803d56b-c665-4201-ac60-8a8240fb98cb","ios":"levelo://app?vid=c803d56b-c665-4201-ac60-8a8240fb98cb"},"vehicle_type_id":"4","last_reported":1742155754,"current_range_meters":8000,"station_id":"ce4bh612rcd13ifvqe6g","pricing_plan_id":"cebpf4jnsgd1na2vs0mg"},{"bike_id":"68f3bcfe-e20f-4ad8-9579-f569150feb8a","system_id":"levelo_inurba_marseille","lat":43.27621,"lon":5.36123,"is_reserved":false,"is_disabled":false,"rental_uris":{"android":"levelo://app?vid=68f3bcfe-e20f-4ad8-9579-f569150feb8a","ios":"levelo://app?vid=68f3bcfe-e20f-4ad8-9579-f569150feb8a"},"vehicle_type_id":"4","last_reported":1742155754,"current_range_meters":8000,"station_id":"ce4bgj92rcd13ifvqbe0","pricing_plan_id":"cebpf4jnsgd1na2vs0mg"},{"bike_id":"8bf2e89b-2ebd-4f34-a419-e5c65583077b","system_id":"levelo_inurba_marseille","lat":43.28117,"lon":5.44593,"is_reserved":false,"is_disabled":false,"rental_uris":{"android":"levelo://app?vid=8bf2e89b-2ebd-4f34-a419-e5c65583077b","ios":"levelo://app?vid=8bf2e89b-2ebd-4f34-a419-e5c65583077b"},"vehicle_type_id":"4","last_reported":1742155754,"current_range_meters":8000,"station_id":"","pricing_plan_id":"cebpf4jnsgd1na2vs0mg"},{"bike_id":"a17866dc-3074-49fc-9a89-48869866e9d8","system_id":"levelo_inurba_marseille","lat":43.27227,"lon":5.39224,"is_reserved":false,"is_disabled":true,"rental_uris":{"android":"levelo://app?vid=a17866dc-3074-49fc-9a89-48869866e9d8","ios":"levelo://app?vid=a17866dc-3074-49fc-9a89-48869866e9d8"},"vehicle_type_id":"4","last_reported":1742155754,"current_range_meters":8000,"station_id":"ce4bhhp2rcd13ifvqfm0","pricing_plan_id":"cebpf4jnsgd1na2vs0mg"},{"bike_id":"3f23f4ce-3922-4172-96ed-bf44b4d6f9f5","system_id":"levelo_inurba_marseille","lat":43.26564,"lon":5.37301,"is_reserved":false,"is_disabled":false,"rental_uris":{"android":"levelo://app?vid=3f23f4ce-3922-4172-96ed-bf44b4d6f9f5","ios":"levelo://app?vid=3f23f4ce-3922-4172-96ed-bf44b4d6f9f5"},"vehicle_type_id":"4","last_reported":1742155754,"current_range_meters":8000,"station_id":"ce4bhg12rcd13ifvqf70","pricing_plan_id":"cebpf4jnsgd1na2vs0mg"},{"bike_id":"ed258cb7-9851-491c-a0b2-e327c4e7bc83","system_id":"levelo_inurba_marseille","lat":43.28921,"lon":5.38403,"is_reserved":false,"is_disabled":false,"rental_uris":{"android":"levelo://app?vid=ed258cb7-9851-491c-a0b2-e327c4e7bc83","ios":"levelo://app?vid=ed258cb7-9851-491c-a0b2-e327c4e7bc83"},"vehicle_type_id":"4","last_reported":1742155754,"current_range_meters":8000,"station_id":"ce4bh612rcd13ifvqe6g","pricing_plan_id":"cebpf4jnsgd1na2vs0mg"},{"bike_id":"d6842c2f-1b52-4f60-90b2-7559ffbb3ced","system_id":"levelo_inurba_marseille","lat":43.29967,"lon":5.38498,"is_reserved":false,"is_disabled":false,"rental_uris":{"android":"levelo://app?vid=d6842c2f-1b52-4f60-90b2-7559ffbb3ced","ios":"levelo://app?vid=d6842c2f-1b52-4f60-90b2-7559ffbb3ced"},"vehicle_type_id":"4","last_reported":1742155754,"current_range_meters":8400,"station_id":"ce4bgj92rcd13ifvqbd0","pricing_plan_id":"cebpf4jnsgd1na2vs0mg"},{"bike_id":"3a766561-d5df-4bb1-accb-85c347f27a70","system_id":"levelo_inurba_marseille","lat":43.33748,"lon":5.39203,"is_reserved":false,"is_disabled":false,"rental_uris":{"android":"levelo://app?vid=3a766561-d5df-4bb1-accb-85c347f27a70","ios":"levelo://app?vid=3a766561-d5df-4bb1-accb-85c347f27a70"},"vehicle_type_id":"4","last_reported":1742155754,"current_range_meters":8000,"station_id":"ce4bhr92rcd13ifvqhsg","pricing_plan_id":"cebpf4jnsgd1na2vs0mg"},{"bike_id":"1ba3f37e-0729-4b3c-95fc-bcd679a2ddcd","system_id":"levelo_inurba_marseille","lat":43.28704,"lon":5.37389,"is_reserved":false,"is_disabled":false,"rental_uris":{"android":"levelo://app?vid=1ba3f37e-0729-4b3c-95fc-bcd679a2ddcd","ios":"levelo://app?vid=1ba3f37e-0729-4b3c-95fc-bcd679a2ddcd"},"vehicle_type_id":"4","last_reported":1742155754,"current_range_meters":8000,"station_id":"ce4bh3p2rcd13ifvqdq0","pricing_plan_id":"cebpf4jnsgd1na2vs0mg"},{"bike_id":"c1ccf9ca-98f0-4eaf-9c83-bb7b5133d125","system_id":"levelo_inurba_marseille","lat":43.32112,"lon":5.36781,"is_reserved":false,"is_disabled":false,"rental_uris":{"android":"levelo://app?vid=c1ccf9ca-98f0-4eaf-9c83-bb7b5133d125","ios":"levelo://app?vid=c1ccf9ca-98f0-4eaf-9c83-bb7b5133d125"},"vehicle_type_id":"4","last_reported":1742155754,"current_range_meters":8000,"station_id":"ce4bhrh2rcd13ifvqhug","pricing_plan_id":"cebpf4jnsgd1na2vs0mg"},{"bike_id":"6aa38dd1-5a47-4e0f-9e26-155da9d0bc13","system_id":"levelo_inurba_marseille","lat":43.29766,"lon":5.37116,"is_reserved":false,"is_disabled":false,"rental_uris":{"android":"levelo://app?vid=6aa38dd1-5a47-4e0f-9e26-155da9d0bc13","ios":"levelo://app?vid=6aa38dd1-5a47-4e0f-9e26-155da9d0bc13"},"vehicle_type_id":"4","last_reported":1742155754,"current_range_meters":8000,"station_id":"ce4bgop2rcd13ifvqc1g","pricing_plan_id":"cebpf4jnsgd1na2vs0mg"},{"bike_id":"d3bd0ca2-58e0-4f19-bd33-980724ab7a39","system_id":"levelo_inurba_marseille","lat":43.30905,"lon":5.39651,"is_reserved":false,"is_disabled":true,"rental_uris":{"android":"levelo://app?vid=d3bd0ca2-58e0-4f19-bd33-980724ab7a39","ios":"levelo://app?vid=d3bd0ca2-58e0-4f19-bd33-980724ab7a39"},"vehicle_type_id":"4","last_reported":1742155754,"current_range_meters":8000,"station_id":"ce4bh012rcd13ifvqcv0","pricing_plan_id":"cebpf4jnsgd1na2vs0mg"},{"bike_id":"5f813939-abd0-4724-aebe-15fd911368cc","system_id":"levelo_inurba_marseille","lat":43.23207,"lon":5.35548,"is_reserved":false,"is_disabled":false,"rental_uris":{"android":"levelo://app?vid=5f813939-abd0-4724-aebe-15fd911368cc","ios":"levelo://app?vid=5f813939-abd0-4724-aebe-15fd911368cc"},"vehicle_type_id":"4","last_reported":1742155754,"current_range_meters":8000,"station_id":"ce4bhu92rcd13ifvqi70","pricing_plan_id":"cebpf4jnsgd1na2vs0mg"},{"bike_id":"31710fca-ccfa-43a5-ac6f-5ec923018ebf","system_id":"levelo_inurba_marseille","lat":43.27402,"lon":5.42047,"is_reserved":false,"is_disabled":false,"rental_uris":{"android":"levelo://app?vid=31710fca-ccfa-43a5-ac6f-5ec923018ebf","ios":"levelo://app?vid=31710fca-ccfa-43a5-ac6f-5ec923018ebf"},"vehicle_type_id":"4","last_reported":1742155754,"current_range_meters":8000,"station_id":"","pricing_plan_id":"cebpf4jnsgd1na2vs0mg"},{"bike_id":"70e40c08-4e8e-488a-abd5-409689465472","system_id":"levelo_inurba_marseille","lat":43.23218,"lon":5.39991,"is_reserved":false,"is_disabled":false,"rental_uris":{"android":"levelo://app?vid=70e40c08-4e8e-488a-abd5-409689465472","ios":"levelo://app?vid=70e40c08-4e8e-488a-abd5-409689465472"},"vehicle_type_id":"4","last_reported":1742155754,"current_range_meters":8400,"station_id":"ce4bhn12rcd13ifvqgqg","pricing_plan_id":"cebpf4jnsgd1na2vs0mg"},{"bike_id":"557bdedf-d832-4d91-a8bb-590c5ce2710f","system_id":"levelo_inurba_marseille","lat":43.29252,"lon":5.40902,"is_reserved":false,"is_disabled":false,"rental_uris":{"android":"levelo://app?vid=557bdedf-d832-4d91-a8bb-590c5ce2710f","ios":"levelo://app?vid=557bdedf-d832-4d91-a8bb-590c5ce2710f"},"vehicle_type_id":"4","last_reported":1742155754,"current_range_meters":8000,"station_id":"ce4bh192rcd13ifvqdc0","pricing_plan_id":"cebpf4jnsgd1na2vs0mg"},{"bike_id":"3fb590e8-1c38-4b01-b532-afad17657030","system_id":"levelo_inurba_marseille","lat":43.31185,"lon":5.3871,"is_reserved":false,"is_disabled":false,"rental_uris":{"android":"levelo://app?vid=3fb590e8-1c38-4b01-b532-afad17657030","ios":"levelo://app?vid=3fb590e8-1c38-4b01-b532-afad17657030"},"vehicle_type_id":"4","last_reported":1742155754,"current_range_meters":8400,"station_id":"ce4bgv12rcd13ifvqcp0","pricing_plan_id":"cebpf4jnsgd1na2vs0mg"},{"bike_id":"031e832d-5bb7-40f7-8762-339a6335f1c6","system_id":"levelo_inurba_marseille","lat":43.28925,"lon":5.38395,"is_reserved":false,"is_disabled":false,"rental_uris":{"android":"levelo://app?vid=031e832d-5bb7-40f7-8762-339a6335f1c6","ios":"levelo://app?vid=031e832d-5bb7-40f7-8762-339a6335f1c6"},"vehicle_type_id":"4","last_reported":1742155754,"current_range_meters":8400,"station_id":"ce4bh612rcd13ifvqe6g","pricing_plan_id":"cebpf4jnsgd1na2vs0mg"},{"bike_id":"71b342b8-694b-40d5-99e8-310baf77a970","system_id":"levelo_inurba_marseille","lat":43.23053,"lon":5.35486,"is_reserved":false,"is_disabled":false,"rental_uris":{"android":"levelo://app?vid=71b342b8-694b-40d5-99e8-310baf77a970","ios":"levelo://app?vid=71b342b8-694b-40d5-99e8-310baf77a970"},"vehicle_type_id":"4","last_reported":1742155754,"current_range_meters":8400,"station_id":"cpo3342slgdg3j2ifvpg","pricing_plan_id":"cebpf4jnsgd1na2vs0mg"},{"bike_id":"6582e7c2-5aa5-4e6a-abc5-fa241e74aeb6","system_id":"levelo_inurba_marseille","lat":43.29905,"lon":5.43673,"is_reserved":false,"is_disabled":false,"rental_uris":{"android":"levelo://app?vid=6582e7c2-5aa5-4e6a-abc5-fa241e74aeb6","ios":"levelo://app?vid=6582e7c2-5aa5-4e6a-abc5-fa241e74aeb6"},"vehicle_type_id":"4","last_reported":1742155754,"current_range_meters":8400,"station_id":"ce4bhpp2rcd13ifvqhfg","pricing_plan_id":"cebpf4jnsgd1na2vs0mg"},{"bike_id":"fc071de1-2cc0-488a-a43e-f8037a5a9a49","system_id":"levelo_inurba_marseille","lat":43.23056,"lon":5.35487,"is_reserved":false,"is_disabled":false,"rental_uris":{"android":"levelo://app?vid=fc071de1-2cc0-488a-a43e-f8037a5a9a49","ios":"levelo://app?vid=fc071de1-2cc0-488a-a43e-f8037a5a9a49"},"vehicle_type_id":"4","last_reported":1742155754,"current_range_meters":8400,"station_id":"cpo3342slgdg3j2ifvpg","pricing_plan_id":"cebpf4jnsgd1na2vs0mg"},{"bike_id":"c4c002d3-8c70-4b36-8c7f-5d4af5808201","system_id":"levelo_inurba_marseille","lat":43.29195,"lon":5.39323,"is_reserved":false,"is_disabled":true,"rental_uris":{"android":"levelo://app?vid=c4c002d3-8c70-4b36-8c7f-5d4af5808201","ios":"levelo://app?vid=c4c002d3-8c70-4b36-8c7f-5d4af5808201"},"vehicle_type_id":"4","last_reported":1742155754,"current_range_meters":8400,"station_id":"ce4bh192rcd13ifvqdd0","pricing_plan_id":"cebpf4jnsgd1na2vs0mg"},{"bike_id":"174c9c66-b172-484e-b7f9-5752aa18aabf","system_id":"levelo_inurba_marseille","lat":43.23054,"lon":5.35509,"is_reserved":false,"is_disabled":false,"rental_uris":{"android":"levelo://app?vid=174c9c66-b172-484e-b7f9-5752aa18aabf","ios":"levelo://app?vid=174c9c66-b172-484e-b7f9-5752aa18aabf"},"vehicle_type_id":"4","last_reported":1742155754,"current_range_meters":8400,"station_id":"cpo3342slgdg3j2ifvpg","pricing_plan_id":"cebpf4jnsgd1na2vs0mg"},{"bike_id":"bbb88ac7-a04f-4a92-bd66-25071e0d5a29","system_id":"levelo_inurba_marseille","lat":43.3093,"lon":5.40137,"is_reserved":false,"is_disabled":false,"rental_uris":{"android":"levelo://app?vid=bbb88ac7-a04f-4a92-bd66-25071e0d5a29","ios":"levelo://app?vid=bbb88ac7-a04f-4a92-bd66-25071e0d5a29"},"vehicle_type_id":"4","last_reported":1742155754,"current_range_meters":8400,"station_id":"ce4bgvp2rcd13ifvqct0","pricing_plan_id":"cebpf4jnsgd1na2vs0mg"},{"bike_id":"3e2e14c7-f5ed-4573-bf2b-84d788bc9968","system_id":"levelo_inurba_marseille","lat":43.3371,"lon":5.42085,"is_reserved":false,"is_disabled":false,"rental_uris":{"android":"levelo://app?vid=3e2e14c7-f5ed-4573-bf2b-84d788bc9968","ios":"levelo://app?vid=3e2e14c7-f5ed-4573-bf2b-84d788bc9968"},"vehicle_type_id":"4","last_reported":1742155754,"current_range_meters":8400,"station_id":"","pricing_plan_id":"cebpf4jnsgd1na2vs0mg"},{"bike_id":"1e0a82c6-b441-4ee1-92f0-8f157a0553ef","system_id":"levelo_inurba_marseille","lat":43.27303,"lon":5.39123,"is_reserved":false,"is_disabled":false,"rental_uris":{"android":"levelo://app?vid=1e0a82c6-b441-4ee1-92f0-8f157a0553ef","ios":"levelo://app?vid=1e0a82c6-b441-4ee1-92f0-8f157a0553ef"},"vehicle_type_id":"4","last_reported":1742155754,"current_range_meters":8400,"station_id":"ce4bhgp2rcd13ifvqfe0","pricing_plan_id":"cebpf4jnsgd1na2vs0mg"},{"bike_id":"03aa2ac5-4675-49fd-bbbd-bbe4740c6557","system_id":"levelo_inurba_marseille","lat":43.30246,"lon":5.40081,"is_reserved":false,"is_disabled":false,"rental_uris":{"android":"levelo://app?vid=03aa2ac5-4675-49fd-bbbd-bbe4740c6557","ios":"levelo://app?vid=03aa2ac5-4675-49fd-bbbd-bbe4740c6557"},"vehicle_type_id":"4","last_reported":1742155754,"current_range_meters":8400,"station_id":"ce4bgvh2rcd13ifvqcs0","pricing_plan_id":"cebpf4jnsgd1na2vs0mg"},{"bike_id":"f876773a-fec2-4503-8f9a-c65b00603ae5","system_id":"levelo_inurba_marseille","lat":43.241,"lon":5.37773,"is_reserved":false,"is_disabled":false,"rental_uris":{"android":"levelo://app?vid=f876773a-fec2-4503-8f9a-c65b00603ae5","ios":"levelo://app?vid=f876773a-fec2-4503-8f9a-c65b00603ae5"},"vehicle_type_id":"4","last_reported":1742155754,"current_range_meters":8800,"station_id":"ce4bhnp2rcd13ifvqgvg","pricing_plan_id":"cebpf4jnsgd1na2vs0mg"},{"bike_id":"f4806f6b-90cc-4357-8538-1ba6d4b0b5e4","system_id":"levelo_inurba_marseille","lat":43.23213,"lon":5.3557,"is_reserved":false,"is_disabled":false,"rental_uris":{"android":"levelo://app?vid=f4806f6b-90cc-4357-8538-1ba6d4b0b5e4","ios":"levelo://app?vid=f4806f6b-90cc-4357-8538-1ba6d4b0b5e4"},"vehicle_type_id":"4","last_reported":1742155754,"current_range_meters":8800,"station_id":"ce4bhu92rcd13ifvqi70","pricing_plan_id":"cebpf4jnsgd1na2vs0mg"},{"bike_id":"d9963252-f527-4148-b1d4-4971fe625c84","system_id":"levelo_inurba_marseille","lat":43.28439,"lon":5.39189,"is_reserved":false,"is_disabled":false,"rental_uris":{"android":"levelo://app?vid=d9963252-f527-4148-b1d4-4971fe625c84","ios":"levelo://app?vid=d9963252-f527-4148-b1d4-4971fe625c84"},"vehicle_type_id":"4","last_reported":1742155754,"current_range_meters":8800,"station_id":"ce4bhoh2rcd13ifvqh5g","pricing_plan_id":"cebpf4jnsgd1na2vs0mg"},{"bike_id":"0a75b9be-4843-49b8-b389-4ce031569179","system_id":"levelo_inurba_marseille","lat":43.27941,"lon":5.40806,"is_reserved":false,"is_disabled":false,"rental_uris":{"android":"levelo://app?vid=0a75b9be-4843-49b8-b389-4ce031569179","ios":"levelo://app?vid=0a75b9be-4843-49b8-b389-4ce031569179"},"vehicle_type_id":"4","last_reported":1742155754,"current_range_meters":8800,"station_id":"","pricing_plan_id":"cebpf4jnsgd1na2vs0mg"},{"bike_id":"97c131d9-98a1-4d0b-aeac-841b3db6abc0","system_id":"levelo_inurba_marseille","lat":43.27949,"lon":5.38729,"is_reserved":false,"is_disabled":false,"rental_uris":{"android":"levelo://app?vid=97c131d9-98a1-4d0b-aeac-841b3db6abc0","ios":"levelo://app?vid=97c131d9-98a1-4d0b-aeac-841b3db6abc0"},"vehicle_type_id":"4","last_reported":1742155754,"current_range_meters":8800,"station_id":"ce4bhg12rcd13ifvqf80","pricing_plan_id":"cebpf4jnsgd1na2vs0mg"},{"bike_id":"3bf5554b-254d-4816-9936-df5fad834be3","system_id":"levelo_inurba_marseille","lat":43.28462,"lon":5.35898,"is_reserved":false,"is_disabled":false,"rental_uris":{"android":"levelo://app?vid=3bf5554b-254d-4816-9936-df5fad834be3","ios":"levelo://app?vid=3bf5554b-254d-4816-9936-df5fad834be3"},"vehicle_type_id":"4","last_reported":1742155754,"current_range_meters":8800,"station_id":"ce4bhah2rcd13ifvqei0","pricing_plan_id":"cebpf4jnsgd1na2vs0mg"},{"bike_id":"dd0e576d-74e2-413f-88a4-0de58301e2c5","system_id":"levelo_inurba_marseille","lat":43.32355,"lon":5.38908,"is_reserved":false,"is_disabled":false,"rental_uris":{"android":"levelo://app?vid=dd0e576d-74e2-413f-88a4-0de58301e2c5","ios":"levelo://app?vid=dd0e576d-74e2-413f-88a4-0de58301e2c5"},"vehicle_type_id":"4","last_reported":1742155754,"current_range_meters":8800,"station_id":"ce4bhqp2rcd13ifvqhog","pricing_plan_id":"cebpf4jnsgd1na2vs0mg"},{"bike_id":"13d4045f-57ae-4734-b2dc-f397a04d64bd","system_id":"levelo_inurba_marseille","lat":43.27826,"lon":5.40717,"is_reserved":false,"is_disabled":false,"rental_uris":{"android":"levelo://app?vid=13d4045f-57ae-4734-b2dc-f397a04d64bd","ios":"levelo://app?vid=13d4045f-57ae-4734-b2dc-f397a04d64bd"},"vehicle_type_id":"4","last_reported":1742155754,"current_range_meters":8800,"station_id":"ce4bhnh2rcd13ifvqgtg","pricing_plan_id":"cebpf4jnsgd1na2vs0mg"},{"bike_id":"42a42bda-f44c-4520-b467-340620a1e799","system_id":"levelo_inurba_marseille","lat":43.28933,"lon":5.36629,"is_reserved":false,"is_disabled":false,"rental_uris":{"android":"levelo://app?vid=42a42bda-f44c-4520-b467-340620a1e799","ios":"levelo://app?vid=42a42bda-f44c-4520-b467-340620a1e799"},"vehicle_type_id":"4","last_reported":1742155754,"current_range_meters":8800,"station_id":"ce4bhap2rcd13ifvqek0","pricing_plan_id":"cebpf4jnsgd1na2vs0mg"},{"bike_id":"9679012a-73d5-49d2-8752-56a047a9688a","system_id":"levelo_inurba_marseille","lat":43.30455,"lon":5.378719,"is_reserved":false,"is_disabled":false,"rental_uris":{"android":"levelo://app?vid=9679012a-73d5-49d2-8752-56a047a9688a","ios":"levelo://app?vid=9679012a-73d5-49d2-8752-56a047a9688a"},"vehicle_type_id":"4","last_reported":1742155754,"current_range_meters":8400,"station_id":"ce4bha12rcd13ifvqee0","pricing_plan_id":"cebpf4jnsgd1na2vs0mg"},{"bike_id":"69ec093c-f383-4678-a986-0b42042640c3","system_id":"levelo_inurba_marseille","lat":43.29269,"lon":5.36846,"is_reserved":false,"is_disabled":false,"rental_uris":{"android":"levelo://app?vid=69ec093c-f383-4678-a986-0b42042640c3","ios":"levelo://app?vid=69ec093c-f383-4678-a986-0b42042640c3"},"vehicle_type_id":"4","last_reported":1742155754,"current_range_meters":9200,"station_id":"ce4bhbp2rcd13ifvqesg","pricing_plan_id":"cebpf4jnsgd1na2vs0mg"},{"bike_id":"30a3f5aa-8adb-417a-a2c9-dedb0fb285b3","system_id":"levelo_inurba_marseille","lat":43.28986,"lon":5.37857,"is_reserved":false,"is_disabled":true,"rental_uris":{"android":"levelo://app?vid=30a3f5aa-8adb-417a-a2c9-dedb0fb285b3","ios":"levelo://app?vid=30a3f5aa-8adb-417a-a2c9-dedb0fb285b3"},"vehicle_type_id":"4","last_reported":1742155754,"current_range_meters":9200,"station_id":"ce4bh9p2rcd13ifvqed0","pricing_plan_id":"cebpf4jnsgd1na2vs0mg"},{"bike_id":"9e6dd499-ef79-469a-9c98-e4d20013679e","system_id":"levelo_inurba_marseille","lat":43.26796,"lon":5.40248,"is_reserved":false,"is_disabled":false,"rental_uris":{"android":"levelo://app?vid=9e6dd499-ef79-469a-9c98-e4d20013679e","ios":"levelo://app?vid=9e6dd499-ef79-469a-9c98-e4d20013679e"},"vehicle_type_id":"4","last_reported":1742155754,"current_range_meters":9200,"station_id":"ce501612rcd8frsf0b60","pricing_plan_id":"cebpf4jnsgd1na2vs0mg"},{"bike_id":"f6599bc8-04e8-4050-bc14-193e8d431386","system_id":"levelo_inurba_marseille","lat":43.29595,"lon":5.38103,"is_reserved":false,"is_disabled":false,"rental_uris":{"android":"levelo://app?vid=f6599bc8-04e8-4050-bc14-193e8d431386","ios":"levelo://app?vid=f6599bc8-04e8-4050-bc14-193e8d431386"},"vehicle_type_id":"4","last_reported":1742155754,"current_range_meters":9200,"station_id":"ce4bgl12rcd13ifvqbo0","pricing_plan_id":"cebpf4jnsgd1na2vs0mg"},{"bike_id":"d31b58bf-4a58-45ea-a8ad-fca35a061583","system_id":"levelo_inurba_marseille","lat":43.28459,"lon":5.35891,"is_reserved":false,"is_disabled":false,"rental_uris":{"android":"levelo://app?vid=d31b58bf-4a58-45ea-a8ad-fca35a061583","ios":"levelo://app?vid=d31b58bf-4a58-45ea-a8ad-fca35a061583"},"vehicle_type_id":"4","last_reported":1742155754,"current_range_meters":9200,"station_id":"ce4bhah2rcd13ifvqei0","pricing_plan_id":"cebpf4jnsgd1na2vs0mg"},{"bike_id":"b904cd92-5280-4762-9d64-bd17f7b9b425","system_id":"levelo_inurba_marseille","lat":43.27911,"lon":5.39593,"is_reserved":false,"is_disabled":false,"rental_uris":{"android":"levelo://app?vid=b904cd92-5280-4762-9d64-bd17f7b9b425","ios":"levelo://app?vid=b904cd92-5280-4762-9d64-bd17f7b9b425"},"vehicle_type_id":"4","last_reported":1742155754,"current_range_meters":9200,"station_id":"ce4bhf92rcd13ifvqf40","pricing_plan_id":"cebpf4jnsgd1na2vs0mg"},{"bike_id":"c46bec50-c693-405c-875f-3f20e5871328","system_id":"levelo_inurba_marseille","lat":43.24186,"lon":5.39742,"is_reserved":false,"is_disabled":false,"rental_uris":{"android":"levelo://app?vid=c46bec50-c693-405c-875f-3f20e5871328","ios":"levelo://app?vid=c46bec50-c693-405c-875f-3f20e5871328"},"vehicle_type_id":"4","last_reported":1742155754,"current_range_meters":9200,"station_id":"ce4bhn12rcd13ifvqgpg","pricing_plan_id":"cebpf4jnsgd1na2vs0mg"},{"bike_id":"ec4c8fc9-399f-4f5a-b345-e19e03d811c3","system_id":"levelo_inurba_marseille","lat":43.27194,"lon":5.41003,"is_reserved":false,"is_disabled":true,"rental_uris":{"android":"levelo://app?vid=ec4c8fc9-399f-4f5a-b345-e19e03d811c3","ios":"levelo://app?vid=ec4c8fc9-399f-4f5a-b345-e19e03d811c3"},"vehicle_type_id":"4","last_reported":1742155754,"current_range_meters":9200,"station_id":"ce4bhl12rcd13ifvqgf0","pricing_plan_id":"cebpf4jnsgd1na2vs0mg"},{"bike_id":"9822cc1b-8d2d-4943-a626-a9df2e16c484","system_id":"levelo_inurba_marseille","lat":43.2695,"lon":5.38926,"is_reserved":false,"is_disabled":false,"rental_uris":{"android":"levelo://app?vid=9822cc1b-8d2d-4943-a626-a9df2e16c484","ios":"levelo://app?vid=9822cc1b-8d2d-4943-a626-a9df2e16c484"},"vehicle_type_id":"4","last_reported":1742155754,"current_range_meters":9600,"station_id":"ce4bhhh2rcd13ifvqfl0","pricing_plan_id":"cebpf4jnsgd1na2vs0mg"},{"bike_id":"63ccaa1b-7302-45e3-82a8-d904a69351b6","system_id":"levelo_inurba_marseille","lat":43.23951,"lon":5.36638,"is_reserved":false,"is_disabled":true,"rental_uris":{"android":"levelo://app?vid=63ccaa1b-7302-45e3-82a8-d904a69351b6","ios":"levelo://app?vid=63ccaa1b-7302-45e3-82a8-d904a69351b6"},"vehicle_type_id":"4","last_reported":1742155754,"current_range_meters":9200,"station_id":"ce4bhi12rcd13ifvqfp0","pricing_plan_id":"cebpf4jnsgd1na2vs0mg"},{"bike_id":"1a2b33f0-be86-4f9b-afe7-09d1c13014b7","system_id":"levelo_inurba_marseille","lat":43.27974,"lon":5.38746,"is_reserved":false,"is_disabled":false,"rental_uris":{"android":"levelo://app?vid=1a2b33f0-be86-4f9b-afe7-09d1c13014b7","ios":"levelo://app?vid=1a2b33f0-be86-4f9b-afe7-09d1c13014b7"},"vehicle_type_id":"4","last_reported":1742155754,"current_range_meters":9200,"station_id":"ce4bhg12rcd13ifvqf80","pricing_plan_id":"cebpf4jnsgd1na2vs0mg"},{"bike_id":"02903d83-44bb-40cf-a804-6798606e7bc6","system_id":"levelo_inurba_marseille","lat":43.24811,"lon":5.37463,"is_reserved":false,"is_disabled":false,"rental_uris":{"android":"levelo://app?vid=02903d83-44bb-40cf-a804-6798606e7bc6","ios":"levelo://app?vid=02903d83-44bb-40cf-a804-6798606e7bc6"},"vehicle_type_id":"4","last_reported":1742155754,"current_range_meters":9200,"station_id":"ce4bhgh2rcd13ifvqfb0","pricing_plan_id":"cebpf4jnsgd1na2vs0mg"},{"bike_id":"38de9398-607b-4e38-b181-28a0e85a0172","system_id":"levelo_inurba_marseille","lat":43.29034,"lon":5.38624,"is_reserved":false,"is_disabled":true,"rental_uris":{"android":"levelo://app?vid=38de9398-607b-4e38-b181-28a0e85a0172","ios":"levelo://app?vid=38de9398-607b-4e38-b181-28a0e85a0172"},"vehicle_type_id":"4","last_reported":1742155754,"current_range_meters":9200,"station_id":"ce4bh4p2rcd13ifvqe0g","pricing_plan_id":"cebpf4jnsgd1na2vs0mg"},{"bike_id":"7099c38a-2986-4dc9-9398-307b562f7d30","system_id":"levelo_inurba_marseille","lat":43.25959,"lon":5.40909,"is_reserved":false,"is_disabled":false,"rental_uris":{"android":"levelo://app?vid=7099c38a-2986-4dc9-9398-307b562f7d30","ios":"levelo://app?vid=7099c38a-2986-4dc9-9398-307b562f7d30"},"vehicle_type_id":"4","last_reported":1742155754,"current_range_meters":9200,"station_id":"ce4bhm92rcd13ifvqglg","pricing_plan_id":"cebpf4jnsgd1na2vs0mg"},{"bike_id":"9fbd07b4-f8ec-47c8-8b77-af3d624fa697","system_id":"levelo_inurba_marseille","lat":43.29904,"lon":5.4367,"is_reserved":false,"is_disabled":false,"rental_uris":{"android":"levelo://app?vid=9fbd07b4-f8ec-47c8-8b77-af3d624fa697","ios":"levelo://app?vid=9fbd07b4-f8ec-47c8-8b77-af3d624fa697"},"vehicle_type_id":"4","last_reported":1742155754,"current_range_meters":9200,"station_id":"ce4bhpp2rcd13ifvqhfg","pricing_plan_id":"cebpf4jnsgd1na2vs0mg"},{"bike_id":"3f3e844d-8056-4826-a519-e24eec72528f","system_id":"levelo_inurba_marseille","lat":43.30643,"lon":5.36563,"is_reserved":false,"is_disabled":false,"rental_uris":{"android":"levelo://app?vid=3f3e844d-8056-4826-a519-e24eec72528f","ios":"levelo://app?vid=3f3e844d-8056-4826-a519-e24eec72528f"},"vehicle_type_id":"4","last_reported":1742155754,"current_range_meters":9200,"station_id":"","pricing_plan_id":"cebpf4jnsgd1na2vs0mg"},{"bike_id":"d2140e8e-fc46-4fb8-a675-866428dbf6bb","system_id":"levelo_inurba_marseille","lat":43.23064,"lon":5.35525,"is_reserved":false,"is_disabled":false,"rental_uris":{"android":"levelo://app?vid=d2140e8e-fc46-4fb8-a675-866428dbf6bb","ios":"levelo://app?vid=d2140e8e-fc46-4fb8-a675-866428dbf6bb"},"vehicle_type_id":"4","last_reported":1742155754,"current_range_meters":9200,"station_id":"cpo3342slgdg3j2ifvpg","pricing_plan_id":"cebpf4jnsgd1na2vs0mg"},{"bike_id":"3a6d84ee-e958-4f91-84af-46ee45b44fec","system_id":"levelo_inurba_marseille","lat":43.26564,"lon":5.39009,"is_reserved":false,"is_disabled":false,"rental_uris":{"android":"levelo://app?vid=3a6d84ee-e958-4f91-84af-46ee45b44fec","ios":"levelo://app?vid=3a6d84ee-e958-4f91-84af-46ee45b44fec"},"vehicle_type_id":"4","last_reported":1742155754,"current_range_meters":9200,"station_id":"ce4bhe12rcd13ifvqf30","pricing_plan_id":"cebpf4jnsgd1na2vs0mg"},{"bike_id":"bd2d405c-073d-4054-8ad0-80127d5bc2c0","system_id":"levelo_inurba_marseille","lat":43.312012,"lon":5.368102,"is_reserved":false,"is_disabled":false,"rental_uris":{"android":"levelo://app?vid=bd2d405c-073d-4054-8ad0-80127d5bc2c0","ios":"levelo://app?vid=bd2d405c-073d-4054-8ad0-80127d5bc2c0"},"vehicle_type_id":"4","last_reported":1742155754,"current_range_meters":10000,"station_id":"ce4bgl92rcd13ifvqbq0","pricing_plan_id":"cebpf4jnsgd1na2vs0mg"},{"bike_id":"f062f120-39b9-41de-9dd5-11932050366e","system_id":"levelo_inurba_marseille","lat":43.29374,"lon":5.37859,"is_reserved":false,"is_disabled":false,"rental_uris":{"android":"levelo://app?vid=f062f120-39b9-41de-9dd5-11932050366e","ios":"levelo://app?vid=f062f120-39b9-41de-9dd5-11932050366e"},"vehicle_type_id":"4","last_reported":1742155754,"current_range_meters":10000,"station_id":"ce4bgjh2rcd13ifvqbf0","pricing_plan_id":"cebpf4jnsgd1na2vs0mg"},{"bike_id":"0be282a9-519e-41bf-b6c2-8944d7535ef0","system_id":"levelo_inurba_marseille","lat":43.28453,"lon":5.35897,"is_reserved":false,"is_disabled":false,"rental_uris":{"android":"levelo://app?vid=0be282a9-519e-41bf-b6c2-8944d7535ef0","ios":"levelo://app?vid=0be282a9-519e-41bf-b6c2-8944d7535ef0"},"vehicle_type_id":"4","last_reported":1742155754,"current_range_meters":9600,"station_id":"ce4bhah2rcd13ifvqei0","pricing_plan_id":"cebpf4jnsgd1na2vs0mg"},{"bike_id":"098d86fc-c5a2-4828-aa74-3e07d06ddbf5","system_id":"levelo_inurba_marseille","lat":43.28844,"lon":5.35859,"is_reserved":false,"is_disabled":true,"rental_uris":{"android":"levelo://app?vid=098d86fc-c5a2-4828-aa74-3e07d06ddbf5","ios":"levelo://app?vid=098d86fc-c5a2-4828-aa74-3e07d06ddbf5"},"vehicle_type_id":"4","last_reported":1742155754,"current_range_meters":9600,"station_id":"ce4bhb12rcd13ifvqem0","pricing_plan_id":"cebpf4jnsgd1na2vs0mg"},{"bike_id":"9e1ad486-39af-49f6-9b28-fbd37ec9873b","system_id":"levelo_inurba_marseille","lat":43.30605,"lon":5.37216,"is_reserved":false,"is_disabled":false,"rental_uris":{"android":"levelo://app?vid=9e1ad486-39af-49f6-9b28-fbd37ec9873b","ios":"levelo://app?vid=9e1ad486-39af-49f6-9b28-fbd37ec9873b"},"vehicle_type_id":"4","last_reported":1742155754,"current_range_meters":9600,"station_id":"ce4bgqh2rcd13ifvqc4g","pricing_plan_id":"cebpf4jnsgd1na2vs0mg"},{"bike_id":"2f45c597-3e44-40e2-9963-5013cf5e5441","system_id":"levelo_inurba_marseille","lat":43.34151,"lon":5.40895,"is_reserved":false,"is_disabled":false,"rental_uris":{"android":"levelo://app?vid=2f45c597-3e44-40e2-9963-5013cf5e5441","ios":"levelo://app?vid=2f45c597-3e44-40e2-9963-5013cf5e5441"},"vehicle_type_id":"4","last_reported":1742155754,"current_range_meters":9600,"station_id":"ce4bhqh2rcd13ifvqhlg","pricing_plan_id":"cebpf4jnsgd1na2vs0mg"},{"bike_id":"4b1426cb-648f-45df-a095-ae89ed465b04","system_id":"levelo_inurba_marseille","lat":43.25052,"lon":5.38957,"is_reserved":false,"is_disabled":false,"rental_uris":{"android":"levelo://app?vid=4b1426cb-648f-45df-a095-ae89ed465b04","ios":"levelo://app?vid=4b1426cb-648f-45df-a095-ae89ed465b04"},"vehicle_type_id":"4","last_reported":1742155754,"current_range_meters":9600,"station_id":"","pricing_plan_id":"cebpf4jnsgd1na2vs0mg"},{"bike_id":"7bc61800-995f-443b-a166-ee5d72465ad2","system_id":"levelo_inurba_marseille","lat":43.28151,"lon":5.42653,"is_reserved":false,"is_disabled":false,"rental_uris":{"android":"levelo://app?vid=7bc61800-995f-443b-a166-ee5d72465ad2","ios":"levelo://app?vid=7bc61800-995f-443b-a166-ee5d72465ad2"},"vehicle_type_id":"4","last_reported":1742155754,"current_range_meters":10000,"station_id":"ce4bhnh2rcd13ifvqgug","pricing_plan_id":"cebpf4jnsgd1na2vs0mg"},{"bike_id":"97c4e1ed-5464-4aaf-80ed-e089cfee1e37","system_id":"levelo_inurba_marseille","lat":43.27976,"lon":5.38704,"is_reserved":false,"is_disabled":false,"rental_uris":{"android":"levelo://app?vid=97c4e1ed-5464-4aaf-80ed-e089cfee1e37","ios":"levelo://app?vid=97c4e1ed-5464-4aaf-80ed-e089cfee1e37"},"vehicle_type_id":"4","last_reported":1742155754,"current_range_meters":10000,"station_id":"ce4bhg12rcd13ifvqf80","pricing_plan_id":"cebpf4jnsgd1na2vs0mg"},{"bike_id":"ef5f1700-a014-413c-a2de-2c85c0299921","system_id":"levelo_inurba_marseille","lat":43.28154,"lon":5.42639,"is_reserved":false,"is_disabled":false,"rental_uris":{"android":"levelo://app?vid=ef5f1700-a014-413c-a2de-2c85c0299921","ios":"levelo://app?vid=ef5f1700-a014-413c-a2de-2c85c0299921"},"vehicle_type_id":"4","last_reported":1742155754,"current_range_meters":10800,"station_id":"ce4bhnh2rcd13ifvqgug","pricing_plan_id":"cebpf4jnsgd1na2vs0mg"},{"bike_id":"b881a216-a8e0-47ad-9c6d-ce879391627c","system_id":"levelo_inurba_marseille","lat":43.29956,"lon":5.36537,"is_reserved":false,"is_disabled":true,"rental_uris":{"android":"levelo://app?vid=b881a216-a8e0-47ad-9c6d-ce879391627c","ios":"levelo://app?vid=b881a216-a8e0-47ad-9c6d-ce879391627c"},"vehicle_type_id":"4","last_reported":1742155754,"current_range_meters":10000,"station_id":"ce4bgm92rcd13ifvqbr0","pricing_plan_id":"cebpf4jnsgd1na2vs0mg"},{"bike_id":"71e418cf-43f9-46f5-b078-e026456d3572","system_id":"levelo_inurba_marseille","lat":43.27054,"lon":5.40253,"is_reserved":false,"is_disabled":false,"rental_uris":{"android":"levelo://app?vid=71e418cf-43f9-46f5-b078-e026456d3572","ios":"levelo://app?vid=71e418cf-43f9-46f5-b078-e026456d3572"},"vehicle_type_id":"4","last_reported":1742155754,"current_range_meters":10000,"station_id":"ce4bhk92rcd13ifvqgc0","pricing_plan_id":"cebpf4jnsgd1na2vs0mg"},{"bike_id":"2e6c3038-6eb8-46ce-bd43-53f0733e5db9","system_id":"levelo_inurba_marseille","lat":43.3215,"lon":5.36766,"is_reserved":false,"is_disabled":false,"rental_uris":{"android":"levelo://app?vid=2e6c3038-6eb8-46ce-bd43-53f0733e5db9","ios":"levelo://app?vid=2e6c3038-6eb8-46ce-bd43-53f0733e5db9"},"vehicle_type_id":"4","last_reported":1742155754,"current_range_meters":10000,"station_id":"","pricing_plan_id":"cebpf4jnsgd1na2vs0mg"},{"bike_id":"af0e35b3-8dbd-46c7-96d1-8852cbb490f2","system_id":"levelo_inurba_marseille","lat":43.26999,"lon":5.36571,"is_reserved":false,"is_disabled":false,"rental_uris":{"android":"levelo://app?vid=af0e35b3-8dbd-46c7-96d1-8852cbb490f2","ios":"levelo://app?vid=af0e35b3-8dbd-46c7-96d1-8852cbb490f2"},"vehicle_type_id":"4","last_reported":1742155754,"current_range_meters":10800,"station_id":"","pricing_plan_id":"cebpf4jnsgd1na2vs0mg"},{"bike_id":"d7c2bc98-45da-49fc-a8cd-2217a76eb064","system_id":"levelo_inurba_marseille","lat":43.2958,"lon":5.39985,"is_reserved":false,"is_disabled":false,"rental_uris":{"android":"levelo://app?vid=d7c2bc98-45da-49fc-a8cd-2217a76eb064","ios":"levelo://app?vid=d7c2bc98-45da-49fc-a8cd-2217a76eb064"},"vehicle_type_id":"4","last_reported":1742155754,"current_range_meters":9600,"station_id":"ce4bh312rcd13ifvqdj0","pricing_plan_id":"cebpf4jnsgd1na2vs0mg"},{"bike_id":"10a5dfbf-3aa3-4cf3-ac17-cd4d12fd6782","system_id":"levelo_inurba_marseille","lat":43.32363,"lon":5.36783,"is_reserved":false,"is_disabled":false,"rental_uris":{"android":"levelo://app?vid=10a5dfbf-3aa3-4cf3-ac17-cd4d12fd6782","ios":"levelo://app?vid=10a5dfbf-3aa3-4cf3-ac17-cd4d12fd6782"},"vehicle_type_id":"4","last_reported":1742155754,"current_range_meters":10000,"station_id":"ce4bhsh2rcd13ifvqi2g","pricing_plan_id":"cebpf4jnsgd1na2vs0mg"},{"bike_id":"c0d14a55-0953-4c59-b0cd-c76953277ffe","system_id":"levelo_inurba_marseille","lat":43.29726,"lon":5.44769,"is_reserved":false,"is_disabled":false,"rental_uris":{"android":"levelo://app?vid=c0d14a55-0953-4c59-b0cd-c76953277ffe","ios":"levelo://app?vid=c0d14a55-0953-4c59-b0cd-c76953277ffe"},"vehicle_type_id":"4","last_reported":1742155754,"current_range_meters":10000,"station_id":"","pricing_plan_id":"cebpf4jnsgd1na2vs0mg"},{"bike_id":"25918a15-4b94-4c69-aaa3-b5f5e1c56790","system_id":"levelo_inurba_marseille","lat":43.25039,"lon":5.38944,"is_reserved":false,"is_disabled":false,"rental_uris":{"android":"levelo://app?vid=25918a15-4b94-4c69-aaa3-b5f5e1c56790","ios":"levelo://app?vid=25918a15-4b94-4c69-aaa3-b5f5e1c56790"},"vehicle_type_id":"4","last_reported":1742155754,"current_range_meters":10000,"station_id":"ce4bhgp2rcd13ifvqfd0","pricing_plan_id":"cebpf4jnsgd1na2vs0mg"},{"bike_id":"fb92ce7f-273f-42f9-843b-fa211bfbdea0","system_id":"levelo_inurba_marseille","lat":43.28919,"lon":5.38417,"is_reserved":false,"is_disabled":false,"rental_uris":{"android":"levelo://app?vid=fb92ce7f-273f-42f9-843b-fa211bfbdea0","ios":"levelo://app?vid=fb92ce7f-273f-42f9-843b-fa211bfbdea0"},"vehicle_type_id":"4","last_reported":1742155754,"current_range_meters":10000,"station_id":"ce4bh612rcd13ifvqe6g","pricing_plan_id":"cebpf4jnsgd1na2vs0mg"},{"bike_id":"5347502d-92da-4d7b-94b1-1aa2f08ecf79","system_id":"levelo_inurba_marseille","lat":43.29071,"lon":5.38622,"is_reserved":false,"is_disabled":false,"rental_uris":{"android":"levelo://app?vid=5347502d-92da-4d7b-94b1-1aa2f08ecf79","ios":"levelo://app?vid=5347502d-92da-4d7b-94b1-1aa2f08ecf79"},"vehicle_type_id":"4","last_reported":1742155754,"current_range_meters":10000,"station_id":"ce4bh4p2rcd13ifvqe0g","pricing_plan_id":"cebpf4jnsgd1na2vs0mg"},{"bike_id":"49fea2c2-9361-4fb5-954f-b44bbf354e43","system_id":"levelo_inurba_marseille","lat":43.32353,"lon":5.36754,"is_reserved":false,"is_disabled":false,"rental_uris":{"android":"levelo://app?vid=49fea2c2-9361-4fb5-954f-b44bbf354e43","ios":"levelo://app?vid=49fea2c2-9361-4fb5-954f-b44bbf354e43"},"vehicle_type_id":"4","last_reported":1742155754,"current_range_meters":10000,"station_id":"ce4bhsh2rcd13ifvqi2g","pricing_plan_id":"cebpf4jnsgd1na2vs0mg"},{"bike_id":"18f33ae7-3acb-407d-a5a7-4c104a302f2a","system_id":"levelo_inurba_marseille","lat":43.27611,"lon":5.36111,"is_reserved":false,"is_disabled":false,"rental_uris":{"android":"levelo://app?vid=18f33ae7-3acb-407d-a5a7-4c104a302f2a","ios":"levelo://app?vid=18f33ae7-3acb-407d-a5a7-4c104a302f2a"},"vehicle_type_id":"4","last_reported":1742155754,"current_range_meters":10000,"station_id":"ce4bgj92rcd13ifvqbe0","pricing_plan_id":"cebpf4jnsgd1na2vs0mg"},{"bike_id":"8edc5ab0-1af0-4fee-8eff-75f20f26be0a","system_id":"levelo_inurba_marseille","lat":43.2845,"lon":5.3919,"is_reserved":false,"is_disabled":false,"rental_uris":{"android":"levelo://app?vid=8edc5ab0-1af0-4fee-8eff-75f20f26be0a","ios":"levelo://app?vid=8edc5ab0-1af0-4fee-8eff-75f20f26be0a"},"vehicle_type_id":"4","last_reported":1742155754,"current_range_meters":10800,"station_id":"ce4bhoh2rcd13ifvqh5g","pricing_plan_id":"cebpf4jnsgd1na2vs0mg"},{"bike_id":"b0d2cd6b-a9b2-49f5-b582-3051ba923f33","system_id":"levelo_inurba_marseille","lat":43.25086,"lon":5.39517,"is_reserved":false,"is_disabled":false,"rental_uris":{"android":"levelo://app?vid=b0d2cd6b-a9b2-49f5-b582-3051ba923f33","ios":"levelo://app?vid=b0d2cd6b-a9b2-49f5-b582-3051ba923f33"},"vehicle_type_id":"4","last_reported":1742155754,"current_range_meters":10800,"station_id":"ce4bhm12rcd13ifvqgkg","pricing_plan_id":"cebpf4jnsgd1na2vs0mg"},{"bike_id":"d6cd0df4-ca0d-407c-ac60-8420479f0dd1","system_id":"levelo_inurba_marseille","lat":43.23061,"lon":5.35524,"is_reserved":false,"is_disabled":false,"rental_uris":{"android":"levelo://app?vid=d6cd0df4-ca0d-407c-ac60-8420479f0dd1","ios":"levelo://app?vid=d6cd0df4-ca0d-407c-ac60-8420479f0dd1"},"vehicle_type_id":"4","last_reported":1742155754,"current_range_meters":10800,"station_id":"cpo3342slgdg3j2ifvpg","pricing_plan_id":"cebpf4jnsgd1na2vs0mg"},{"bike_id":"23d4689b-80a0-4957-9106-f572be80fe0e","system_id":"levelo_inurba_marseille","lat":43.27494,"lon":5.42453,"is_reserved":false,"is_disabled":false,"rental_uris":{"android":"levelo://app?vid=23d4689b-80a0-4957-9106-f572be80fe0e","ios":"levelo://app?vid=23d4689b-80a0-4957-9106-f572be80fe0e"},"vehicle_type_id":"4","last_reported":1742155754,"current_range_meters":10800,"station_id":"ce4bhn92rcd13ifvqgrg","pricing_plan_id":"cebpf4jnsgd1na2vs0mg"},{"bike_id":"4a945509-81de-4386-a3ec-0c963fa0f055","system_id":"levelo_inurba_marseille","lat":43.28921,"lon":5.38417,"is_reserved":false,"is_disabled":false,"rental_uris":{"android":"levelo://app?vid=4a945509-81de-4386-a3ec-0c963fa0f055","ios":"levelo://app?vid=4a945509-81de-4386-a3ec-0c963fa0f055"},"vehicle_type_id":"4","last_reported":1742155754,"current_range_meters":10800,"station_id":"ce4bh612rcd13ifvqe6g","pricing_plan_id":"cebpf4jnsgd1na2vs0mg"},{"bike_id":"5a61a616-683f-484d-83ae-d7f61143d634","system_id":"levelo_inurba_marseille","lat":43.29524,"lon":5.4249,"is_reserved":false,"is_disabled":false,"rental_uris":{"android":"levelo://app?vid=5a61a616-683f-484d-83ae-d7f61143d634","ios":"levelo://app?vid=5a61a616-683f-484d-83ae-d7f61143d634"},"vehicle_type_id":"4","last_reported":1742155754,"current_range_meters":10800,"station_id":"","pricing_plan_id":"cebpf4jnsgd1na2vs0mg"},{"bike_id":"d58e46ef-6b32-4697-a865-c1ef5e4815f5","system_id":"levelo_inurba_marseille","lat":43.28356,"lon":5.38099,"is_reserved":false,"is_disabled":false,"rental_uris":{"android":"levelo://app?vid=d58e46ef-6b32-4697-a865-c1ef5e4815f5","ios":"levelo://app?vid=d58e46ef-6b32-4697-a865-c1ef5e4815f5"},"vehicle_type_id":"4","last_reported":1742155754,"current_range_meters":10800,"station_id":"ce4bh412rcd13ifvqdr0","pricing_plan_id":"cebpf4jnsgd1na2vs0mg"},{"bike_id":"ce157c99-2b38-44c1-b6a5-db708ae225d5","system_id":"levelo_inurba_marseille","lat":43.24083,"lon":5.37756,"is_reserved":false,"is_disabled":false,"rental_uris":{"android":"levelo://app?vid=ce157c99-2b38-44c1-b6a5-db708ae225d5","ios":"levelo://app?vid=ce157c99-2b38-44c1-b6a5-db708ae225d5"},"vehicle_type_id":"4","last_reported":1742155754,"current_range_meters":10800,"station_id":"ce4bhnp2rcd13ifvqgvg","pricing_plan_id":"cebpf4jnsgd1na2vs0mg"},{"bike_id":"9f21745e-6afa-493e-9200-73b477b9a4a3","system_id":"levelo_inurba_marseille","lat":43.2847,"lon":5.38421,"is_reserved":false,"is_disabled":false,"rental_uris":{"android":"levelo://app?vid=9f21745e-6afa-493e-9200-73b477b9a4a3","ios":"levelo://app?vid=9f21745e-6afa-493e-9200-73b477b9a4a3"},"vehicle_type_id":"4","last_reported":1742155754,"current_range_meters":10000,"station_id":"ce4bh512rcd13ifvqe3g","pricing_plan_id":"cebpf4jnsgd1na2vs0mg"},{"bike_id":"659cfc6c-f2ba-4758-b6de-6943e7c2dc48","system_id":"levelo_inurba_marseille","lat":43.28706,"lon":5.37394,"is_reserved":false,"is_disabled":true,"rental_uris":{"android":"levelo://app?vid=659cfc6c-f2ba-4758-b6de-6943e7c2dc48","ios":"levelo://app?vid=659cfc6c-f2ba-4758-b6de-6943e7c2dc48"},"vehicle_type_id":"4","last_reported":1742155754,"current_range_meters":10800,"station_id":"ce4bh3p2rcd13ifvqdq0","pricing_plan_id":"cebpf4jnsgd1na2vs0mg"},{"bike_id":"8fa7ea8d-156d-42f2-95b3-ae3567fc37ee","system_id":"levelo_inurba_marseille","lat":43.23182,"lon":5.39993,"is_reserved":false,"is_disabled":false,"rental_uris":{"android":"levelo://app?vid=8fa7ea8d-156d-42f2-95b3-ae3567fc37ee","ios":"levelo://app?vid=8fa7ea8d-156d-42f2-95b3-ae3567fc37ee"},"vehicle_type_id":"4","last_reported":1742155754,"current_range_meters":10800,"station_id":"ce4bhn12rcd13ifvqgqg","pricing_plan_id":"cebpf4jnsgd1na2vs0mg"},{"bike_id":"ce94305a-77be-4fec-8849-896816a114ef","system_id":"levelo_inurba_marseille","lat":43.28688,"lon":5.38671,"is_reserved":false,"is_disabled":false,"rental_uris":{"android":"levelo://app?vid=ce94305a-77be-4fec-8849-896816a114ef","ios":"levelo://app?vid=ce94305a-77be-4fec-8849-896816a114ef"},"vehicle_type_id":"4","last_reported":1742155754,"current_range_meters":10800,"station_id":"ce4bh492rcd13ifvqdug","pricing_plan_id":"cebpf4jnsgd1na2vs0mg"},{"bike_id":"d78a64ce-13c2-48bf-808e-e90b3704ad19","system_id":"levelo_inurba_marseille","lat":43.2693,"lon":5.4026,"is_reserved":false,"is_disabled":false,"rental_uris":{"android":"levelo://app?vid=d78a64ce-13c2-48bf-808e-e90b3704ad19","ios":"levelo://app?vid=d78a64ce-13c2-48bf-808e-e90b3704ad19"},"vehicle_type_id":"4","last_reported":1742155754,"current_range_meters":10800,"station_id":"cjm6bp8fraef2m0cb0m0","pricing_plan_id":"cebpf4jnsgd1na2vs0mg"},{"bike_id":"7744a398-14ee-4b67-a148-5c9c6471def4","system_id":"levelo_inurba_marseille","lat":43.25495,"lon":5.37647,"is_reserved":false,"is_disabled":true,"rental_uris":{"android":"levelo://app?vid=7744a398-14ee-4b67-a148-5c9c6471def4","ios":"levelo://app?vid=7744a398-14ee-4b67-a148-5c9c6471def4"},"vehicle_type_id":"4","last_reported":1742155754,"current_range_meters":10800,"station_id":"ce4bhh12rcd13ifvqff0","pricing_plan_id":"cebpf4jnsgd1na2vs0mg"},{"bike_id":"760b38d2-79b4-4c3c-b4bb-02586e46e837","system_id":"levelo_inurba_marseille","lat":43.30805,"lon":5.38158,"is_reserved":false,"is_disabled":true,"rental_uris":{"android":"levelo://app?vid=760b38d2-79b4-4c3c-b4bb-02586e46e837","ios":"levelo://app?vid=760b38d2-79b4-4c3c-b4bb-02586e46e837"},"vehicle_type_id":"4","last_reported":1742155754,"current_range_meters":10800,"station_id":"ce4bgt12rcd13ifvqce0","pricing_plan_id":"cebpf4jnsgd1na2vs0mg"},{"bike_id":"c2f488d4-1fa5-41e3-8797-f7db6ced0af9","system_id":"levelo_inurba_marseille","lat":43.28928,"lon":5.36628,"is_reserved":false,"is_disabled":false,"rental_uris":{"android":"levelo://app?vid=c2f488d4-1fa5-41e3-8797-f7db6ced0af9","ios":"levelo://app?vid=c2f488d4-1fa5-41e3-8797-f7db6ced0af9"},"vehicle_type_id":"4","last_reported":1742155754,"current_range_meters":10800,"station_id":"ce4bhap2rcd13ifvqek0","pricing_plan_id":"cebpf4jnsgd1na2vs0mg"},{"bike_id":"1f9a9668-f20a-4b32-9dce-dfb024996834","system_id":"levelo_inurba_marseille","lat":43.29038,"lon":5.38643,"is_reserved":false,"is_disabled":true,"rental_uris":{"android":"levelo://app?vid=1f9a9668-f20a-4b32-9dce-dfb024996834","ios":"levelo://app?vid=1f9a9668-f20a-4b32-9dce-dfb024996834"},"vehicle_type_id":"4","last_reported":1742155754,"current_range_meters":10800,"station_id":"ce4bh4p2rcd13ifvqe0g","pricing_plan_id":"cebpf4jnsgd1na2vs0mg"},{"bike_id":"531f032d-3355-44fc-9c12-73c9b82fd1f9","system_id":"levelo_inurba_marseille","lat":43.27675,"lon":5.38869,"is_reserved":false,"is_disabled":false,"rental_uris":{"android":"levelo://app?vid=531f032d-3355-44fc-9c12-73c9b82fd1f9","ios":"levelo://app?vid=531f032d-3355-44fc-9c12-73c9b82fd1f9"},"vehicle_type_id":"4","last_reported":1742155754,"current_range_meters":10800,"station_id":"ce4bhi12rcd13ifvqfo0","pricing_plan_id":"cebpf4jnsgd1na2vs0mg"},{"bike_id":"4f127b48-0acb-41e9-bf41-b549ca1c2c4a","system_id":"levelo_inurba_marseille","lat":43.34144,"lon":5.40906,"is_reserved":false,"is_disabled":false,"rental_uris":{"android":"levelo://app?vid=4f127b48-0acb-41e9-bf41-b549ca1c2c4a","ios":"levelo://app?vid=4f127b48-0acb-41e9-bf41-b549ca1c2c4a"},"vehicle_type_id":"4","last_reported":1742155754,"current_range_meters":10800,"station_id":"ce4bhqh2rcd13ifvqhlg","pricing_plan_id":"cebpf4jnsgd1na2vs0mg"},{"bike_id":"a8feeff1-ea1a-4525-810d-d35e5f3e0edd","system_id":"levelo_inurba_marseille","lat":43.25866,"lon":5.39907,"is_reserved":false,"is_disabled":false,"rental_uris":{"android":"levelo://app?vid=a8feeff1-ea1a-4525-810d-d35e5f3e0edd","ios":"levelo://app?vid=a8feeff1-ea1a-4525-810d-d35e5f3e0edd"},"vehicle_type_id":"4","last_reported":1742155754,"current_range_meters":10800,"station_id":"ce4bhl92rcd13ifvqghg","pricing_plan_id":"cebpf4jnsgd1na2vs0mg"},{"bike_id":"27b1b0af-b5c5-4c99-84fd-b558c5b3d1b8","system_id":"levelo_inurba_marseille","lat":43.25719,"lon":5.41113,"is_reserved":false,"is_disabled":false,"rental_uris":{"android":"levelo://app?vid=27b1b0af-b5c5-4c99-84fd-b558c5b3d1b8","ios":"levelo://app?vid=27b1b0af-b5c5-4c99-84fd-b558c5b3d1b8"},"vehicle_type_id":"4","last_reported":1742155754,"current_range_meters":10800,"station_id":"ce4bhkp2rcd13ifvqgd0","pricing_plan_id":"cebpf4jnsgd1na2vs0mg"},{"bike_id":"5b7b28c8-1233-4a83-b373-0b1f147a8fad","system_id":"levelo_inurba_marseille","lat":43.27494,"lon":5.42451,"is_reserved":false,"is_disabled":false,"rental_uris":{"android":"levelo://app?vid=5b7b28c8-1233-4a83-b373-0b1f147a8fad","ios":"levelo://app?vid=5b7b28c8-1233-4a83-b373-0b1f147a8fad"},"vehicle_type_id":"4","last_reported":1742155754,"current_range_meters":10800,"station_id":"ce4bhn92rcd13ifvqgrg","pricing_plan_id":"cebpf4jnsgd1na2vs0mg"},{"bike_id":"b2a9b540-5556-439b-ae8d-6d46b27b801c","system_id":"levelo_inurba_marseille","lat":43.28348,"lon":5.38123,"is_reserved":false,"is_disabled":true,"rental_uris":{"android":"levelo://app?vid=b2a9b540-5556-439b-ae8d-6d46b27b801c","ios":"levelo://app?vid=b2a9b540-5556-439b-ae8d-6d46b27b801c"},"vehicle_type_id":"4","last_reported":1742155754,"current_range_meters":11200,"station_id":"ce4bh412rcd13ifvqdr0","pricing_plan_id":"cebpf4jnsgd1na2vs0mg"},{"bike_id":"f06e4a8f-33c7-4305-b5b9-0f5d85caf8b8","system_id":"levelo_inurba_marseille","lat":43.29037,"lon":5.39963,"is_reserved":false,"is_disabled":false,"rental_uris":{"android":"levelo://app?vid=f06e4a8f-33c7-4305-b5b9-0f5d85caf8b8","ios":"levelo://app?vid=f06e4a8f-33c7-4305-b5b9-0f5d85caf8b8"},"vehicle_type_id":"4","last_reported":1742155754,"current_range_meters":11200,"station_id":"ce4bh392rcd13ifvqdm0","pricing_plan_id":"cebpf4jnsgd1na2vs0mg"},{"bike_id":"502a3b3e-8957-45c1-a4dd-1cb7cf5ee2e2","system_id":"levelo_inurba_marseille","lat":43.32151,"lon":5.36764,"is_reserved":false,"is_disabled":false,"rental_uris":{"android":"levelo://app?vid=502a3b3e-8957-45c1-a4dd-1cb7cf5ee2e2","ios":"levelo://app?vid=502a3b3e-8957-45c1-a4dd-1cb7cf5ee2e2"},"vehicle_type_id":"4","last_reported":1742155754,"current_range_meters":11200,"station_id":"","pricing_plan_id":"cebpf4jnsgd1na2vs0mg"},{"bike_id":"b12504a2-a649-4e69-8759-4dc56a1cd8bd","system_id":"levelo_inurba_marseille","lat":43.27899,"lon":5.3823,"is_reserved":false,"is_disabled":false,"rental_uris":{"android":"levelo://app?vid=b12504a2-a649-4e69-8759-4dc56a1cd8bd","ios":"levelo://app?vid=b12504a2-a649-4e69-8759-4dc56a1cd8bd"},"vehicle_type_id":"4","last_reported":1742155754,"current_range_meters":11200,"station_id":"","pricing_plan_id":"cebpf4jnsgd1na2vs0mg"},{"bike_id":"d258768a-f24f-4c44-97f2-bb4dadff68d3","system_id":"levelo_inurba_marseille","lat":43.3117,"lon":5.38723,"is_reserved":false,"is_disabled":false,"rental_uris":{"android":"levelo://app?vid=d258768a-f24f-4c44-97f2-bb4dadff68d3","ios":"levelo://app?vid=d258768a-f24f-4c44-97f2-bb4dadff68d3"},"vehicle_type_id":"4","last_reported":1742155754,"current_range_meters":11200,"station_id":"ce4bgv12rcd13ifvqcp0","pricing_plan_id":"cebpf4jnsgd1na2vs0mg"},{"bike_id":"3e494845-24d5-40cf-aeb6-ebebae12044d","system_id":"levelo_inurba_marseille","lat":43.31168,"lon":5.38712,"is_reserved":false,"is_disabled":false,"rental_uris":{"android":"levelo://app?vid=3e494845-24d5-40cf-aeb6-ebebae12044d","ios":"levelo://app?vid=3e494845-24d5-40cf-aeb6-ebebae12044d"},"vehicle_type_id":"4","last_reported":1742155754,"current_range_meters":11200,"station_id":"ce4bgv12rcd13ifvqcp0","pricing_plan_id":"cebpf4jnsgd1na2vs0mg"},{"bike_id":"ea3faa2e-2727-4cd3-a354-57574da4893b","system_id":"levelo_inurba_marseille","lat":43.24171,"lon":5.36413,"is_reserved":false,"is_disabled":false,"rental_uris":{"android":"levelo://app?vid=ea3faa2e-2727-4cd3-a354-57574da4893b","ios":"levelo://app?vid=ea3faa2e-2727-4cd3-a354-57574da4893b"},"vehicle_type_id":"4","last_reported":1742155754,"current_range_meters":11200,"station_id":"cpo36qri1sfpv3e86is0","pricing_plan_id":"cebpf4jnsgd1na2vs0mg"},{"bike_id":"fc137773-94c5-4c85-b362-abc199012fb6","system_id":"levelo_inurba_marseille","lat":43.27614,"lon":5.36124,"is_reserved":false,"is_disabled":false,"rental_uris":{"android":"levelo://app?vid=fc137773-94c5-4c85-b362-abc199012fb6","ios":"levelo://app?vid=fc137773-94c5-4c85-b362-abc199012fb6"},"vehicle_type_id":"4","last_reported":1742155754,"current_range_meters":11200,"station_id":"ce4bgj92rcd13ifvqbe0","pricing_plan_id":"cebpf4jnsgd1na2vs0mg"},{"bike_id":"ad7e816c-331d-4e16-92a5-779a19a53ef4","system_id":"levelo_inurba_marseille","lat":43.27668,"lon":5.38884,"is_reserved":false,"is_disabled":false,"rental_uris":{"android":"levelo://app?vid=ad7e816c-331d-4e16-92a5-779a19a53ef4","ios":"levelo://app?vid=ad7e816c-331d-4e16-92a5-779a19a53ef4"},"vehicle_type_id":"4","last_reported":1742155754,"current_range_meters":11200,"station_id":"ce4bhi12rcd13ifvqfo0","pricing_plan_id":"cebpf4jnsgd1na2vs0mg"},{"bike_id":"e03200a4-588e-4904-b8fa-457870813d7a","system_id":"levelo_inurba_marseille","lat":43.29776,"lon":5.37102,"is_reserved":false,"is_disabled":false,"rental_uris":{"android":"levelo://app?vid=e03200a4-588e-4904-b8fa-457870813d7a","ios":"levelo://app?vid=e03200a4-588e-4904-b8fa-457870813d7a"},"vehicle_type_id":"4","last_reported":1742155754,"current_range_meters":11600,"station_id":"ce4bgop2rcd13ifvqc1g","pricing_plan_id":"cebpf4jnsgd1na2vs0mg"},{"bike_id":"a31cee86-5ba4-4334-a7ad-e877f0d7ea5f","system_id":"levelo_inurba_marseille","lat":43.2721,"lon":5.39173,"is_reserved":false,"is_disabled":false,"rental_uris":{"android":"levelo://app?vid=a31cee86-5ba4-4334-a7ad-e877f0d7ea5f","ios":"levelo://app?vid=a31cee86-5ba4-4334-a7ad-e877f0d7ea5f"},"vehicle_type_id":"4","last_reported":1742155754,"current_range_meters":10800,"station_id":"ce4bhhp2rcd13ifvqfm0","pricing_plan_id":"cebpf4jnsgd1na2vs0mg"},{"bike_id":"ec9d1174-e42a-443d-b0b1-7488f75aa02a","system_id":"levelo_inurba_marseille","lat":43.25896,"lon":5.39936,"is_reserved":false,"is_disabled":false,"rental_uris":{"android":"levelo://app?vid=ec9d1174-e42a-443d-b0b1-7488f75aa02a","ios":"levelo://app?vid=ec9d1174-e42a-443d-b0b1-7488f75aa02a"},"vehicle_type_id":"4","last_reported":1742155754,"current_range_meters":11600,"station_id":"ce4bhl92rcd13ifvqghg","pricing_plan_id":"cebpf4jnsgd1na2vs0mg"},{"bike_id":"0e20dd06-a25e-43cc-a91a-ee4fc349821f","system_id":"levelo_inurba_marseille","lat":43.29644,"lon":5.38116,"is_reserved":false,"is_disabled":false,"rental_uris":{"android":"levelo://app?vid=0e20dd06-a25e-43cc-a91a-ee4fc349821f","ios":"levelo://app?vid=0e20dd06-a25e-43cc-a91a-ee4fc349821f"},"vehicle_type_id":"4","last_reported":1742155754,"current_range_meters":11600,"station_id":"ce4bgl12rcd13ifvqbo0","pricing_plan_id":"cebpf4jnsgd1na2vs0mg"},{"bike_id":"a87ea8b8-919d-4545-9ae6-d81eeee24a0f","system_id":"levelo_inurba_marseille","lat":43.29338,"lon":5.37823,"is_reserved":false,"is_disabled":false,"rental_uris":{"android":"levelo://app?vid=a87ea8b8-919d-4545-9ae6-d81eeee24a0f","ios":"levelo://app?vid=a87ea8b8-919d-4545-9ae6-d81eeee24a0f"},"vehicle_type_id":"4","last_reported":1742155754,"current_range_meters":11600,"station_id":"ce4bgjh2rcd13ifvqbf0","pricing_plan_id":"cebpf4jnsgd1na2vs0mg"},{"bike_id":"65d3bf5b-65bc-4faa-925a-0d5e44091256","system_id":"levelo_inurba_marseille","lat":43.295986,"lon":5.380981,"is_reserved":false,"is_disabled":false,"rental_uris":{"android":"levelo://app?vid=65d3bf5b-65bc-4faa-925a-0d5e44091256","ios":"levelo://app?vid=65d3bf5b-65bc-4faa-925a-0d5e44091256"},"vehicle_type_id":"4","last_reported":1742155754,"current_range_meters":11600,"station_id":"ce4bgl12rcd13ifvqbo0","pricing_plan_id":"cebpf4jnsgd1na2vs0mg"},{"bike_id":"db819791-27c1-48de-91ad-79208088cf91","system_id":"levelo_inurba_marseille","lat":43.23185,"lon":5.39982,"is_reserved":false,"is_disabled":false,"rental_uris":{"android":"levelo://app?vid=db819791-27c1-48de-91ad-79208088cf91","ios":"levelo://app?vid=db819791-27c1-48de-91ad-79208088cf91"},"vehicle_type_id":"4","last_reported":1742155754,"current_range_meters":11600,"station_id":"ce4bhn12rcd13ifvqgqg","pricing_plan_id":"cebpf4jnsgd1na2vs0mg"},{"bike_id":"d92b0e15-d2f6-4c31-a3c2-ad40bafefc3e","system_id":"levelo_inurba_marseille","lat":43.29161,"lon":5.3718,"is_reserved":false,"is_disabled":false,"rental_uris":{"android":"levelo://app?vid=d92b0e15-d2f6-4c31-a3c2-ad40bafefc3e","ios":"levelo://app?vid=d92b0e15-d2f6-4c31-a3c2-ad40bafefc3e"},"vehicle_type_id":"4","last_reported":1742155754,"current_range_meters":11200,"station_id":"ce4bha92rcd13ifvqeh0","pricing_plan_id":"cebpf4jnsgd1na2vs0mg"},{"bike_id":"ba7378e9-0bb2-4efe-9ce8-9600b8c7fb63","system_id":"levelo_inurba_marseille","lat":43.27828,"lon":5.40743,"is_reserved":false,"is_disabled":false,"rental_uris":{"android":"levelo://app?vid=ba7378e9-0bb2-4efe-9ce8-9600b8c7fb63","ios":"levelo://app?vid=ba7378e9-0bb2-4efe-9ce8-9600b8c7fb63"},"vehicle_type_id":"4","last_reported":1742155754,"current_range_meters":11600,"station_id":"ce4bhnh2rcd13ifvqgtg","pricing_plan_id":"cebpf4jnsgd1na2vs0mg"},{"bike_id":"c1396c92-a760-46d9-b52f-7e6b680712af","system_id":"levelo_inurba_marseille","lat":43.29003,"lon":5.38137,"is_reserved":false,"is_disabled":false,"rental_uris":{"android":"levelo://app?vid=c1396c92-a760-46d9-b52f-7e6b680712af","ios":"levelo://app?vid=c1396c92-a760-46d9-b52f-7e6b680712af"},"vehicle_type_id":"4","last_reported":1742155754,"current_range_meters":11600,"station_id":"ce4bh4p2rcd13ifvqe1g","pricing_plan_id":"cebpf4jnsgd1na2vs0mg"},{"bike_id":"8f174fe3-d9c1-4277-acf4-5f57aac7b40f","system_id":"levelo_inurba_marseille","lat":43.29618,"lon":5.37721,"is_reserved":false,"is_disabled":false,"rental_uris":{"android":"levelo://app?vid=8f174fe3-d9c1-4277-acf4-5f57aac7b40f","ios":"levelo://app?vid=8f174fe3-d9c1-4277-acf4-5f57aac7b40f"},"vehicle_type_id":"4","last_reported":1742155754,"current_range_meters":11600,"station_id":"ce4bgi92rcd13ifvqb90","pricing_plan_id":"cebpf4jnsgd1na2vs0mg"},{"bike_id":"3794d117-8b60-4e97-860b-7eab8f7c16e4","system_id":"levelo_inurba_marseille","lat":43.28954,"lon":5.38412,"is_reserved":false,"is_disabled":false,"rental_uris":{"android":"levelo://app?vid=3794d117-8b60-4e97-860b-7eab8f7c16e4","ios":"levelo://app?vid=3794d117-8b60-4e97-860b-7eab8f7c16e4"},"vehicle_type_id":"4","last_reported":1742155754,"current_range_meters":12000,"station_id":"ce4bh612rcd13ifvqe6g","pricing_plan_id":"cebpf4jnsgd1na2vs0mg"},