{"last_updated":1718122196,"ttl":30,"version":"2.2","data":{"bikes":[{"bike_id":"f25992a1-c949-4d61-ad8f-d0dc3a56b7ac","system_id":"levelo_inurba_marseille","lat":43.313391,"lon":5.36706,"is_reserved":false,"is_disabled":false,"rental_uris":{"android":"levelo://app?vid=f25992a1-c949-4d61-ad8f-d0dc3a56b7ac","ios":"levelo://app?vid=f25992a1-c949-4d61-ad8f-d0dc3a56b7ac"},"vehicle_type_id":"4","last_reported":1718122196,"current_range_meters":5200,"station_id":"ce4bgr92rcd13ifvqc6g","pricing_plan_id":"cebpf4jnsgd1na2vs0mg"},{"bike_id":"6453e501-d46c-49f4-9c11-34c2eb0a8ae8","system_id":"levelo_inurba_marseille","lat":43.313593,"lon":5.3671,"is_reserved":false,"is_disabled":false,"rental_uris":{"android":"levelo://app?vid=6453e501-d46c-49f4-9c11-34c2eb0a8ae8","ios":"levelo://app?vid=6453e501-d46c-49f4-9c11-34c2eb0a8ae8"},"vehicle_type_id":"4","last_reported":1718122196,"current_range_meters":0,"station_id":"ce4bgr92rcd13ifvqc6g","pricing_plan_id":"cebpf4jnsgd1na2vs0mg"},{"bike_id":"aa7dbe38-6974-41aa-b335-34a6ab6bd4ea","system_id":"levelo_inurba_marseille","lat":43.312239,"lon":5.368562,"is_reserved":false,"is_disabled":false,"rental_uris":{"android":"levelo://app?vid=aa7dbe38-6974-41aa-b335-34a6ab6bd4ea","ios":"levelo://app?vid=aa7dbe38-6974-41aa-b335-34a6ab6bd4ea"},"vehicle_type_id":"4","last_reported":1718122196,"current_range_meters":21600,"station_id":"ce4bgl92rcd13ifvqbq0","pricing_plan_id":"cebpf4jnsgd1na2vs0mg"},{"bike_id":"50aa3855-b361-4a65-b612-346e3044d5cd","system_id":"levelo_inurba_marseille","lat":43.314811,"lon":5.373104,"is_reserved":false,"is_disabled":false,"rental_uris":{"android":"levelo://app?vid=50aa3855-b361-4a65-b612-346e3044d5cd","ios":"levelo://app?vid=50aa3855-b361-4a65-b612-346e3044d5cd"},"vehicle_type_id":"4","last_reported":1718122196,"current_range_meters":15600,"station_id":"ce4bgt12rcd13ifvqcd0","pricing_plan_id":"cebpf4jnsgd1na2vs0mg"},{"bike_id":"b4bbb89c-1531-4a3c-935f-db7c86de781d","system_id":"levelo_inurba_marseille","lat":43.314811,"lon":5.373104,"is_reserved":false,"is_disabled":false,"rental_uris":{"android":"levelo://app?vid=b4bbb89c-1531-4a3c-935f-db7c86de781d","ios":"levelo://app?vid=b4bbb89c-1531-4a3c-935f-db7c86de781d"},"vehicle_type_id":"4","last_reported":1718122196,"current_range_meters":30800,"station_id":"ce4bgt12rcd13ifvqcd0","pricing_plan_id":"cebpf4jnsgd1na2vs0mg"},{"bike_id":"3eeedd0d-0066-4ba0-b1ea-eceb5647da62","system_id":"levelo_inurba_marseille","lat":43.309034,"lon":5.371783,"is_reserved":false,"is_disabled":false,"rental_uris":{"android":"levelo://app?vid=3eeedd0d-0066-4ba0-b1ea-eceb5647da62","ios":"levelo://app?vid=3eeedd0d-0066-4ba0-b1ea-eceb5647da62"},"vehicle_type_id":"4","last_reported":1718122196,"current_range_meters":0,"station_id":"ce4bguh2rcd13ifvqckg","pricing_plan_id":"cebpf4jnsgd1na2vs0mg"},{"bike_id":"0ace250b-b6c2-4b5f-80c6-6cd3f3b5379d","system_id":"levelo_inurba_marseille","lat":43.31308,"lon":5.3755,"is_reserved":false,"is_disabled":false,"rental_uris":{"android":"levelo://app?vid=0ace250b-b6c2-4b5f-80c6-6cd3f3b5379d","ios":"levelo://app?vid=0ace250b-b6c2-4b5f-80c6-6cd3f3b5379d"},"vehicle_type_id":"4","last_reported":1718122196,"current_range_meters":6800,"station_id":"ce4bhah2rcd13ifvqej0","pricing_plan_id":"cebpf4jnsgd1na2vs0mg"},{"bike_id":"5e059584-372b-44b0-9d08-1b0a44cdaf85","system_id":"levelo_inurba_marseille","lat":43.30537,"lon":5.367345,"is_reserved":false,"is_disabled":false,"rental_uris":{"android":"levelo://app?vid=5e059584-372b-44b0-9d08-1b0a44cdaf85","ios":"levelo://app?vid=5e059584-372b-44b0-9d08-1b0a44cdaf85"},"vehicle_type_id":"4","last_reported":1718122196,"current_range_meters":0,"station_id":"ce4bgrp2rcd13ifvqc9g","pricing_plan_id":"cebpf4jnsgd1na2vs0mg"},{"bike_id":"6b95b5e7-3b5f-4d33-8ead-93568f2a9fd5","system_id":"levelo_inurba_marseille","lat":43.30537,"lon":5.367345,"is_reserved":false,"is_disabled":false,"rental_uris":{"android":"levelo://app?vid=6b95b5e7-3b5f-4d33-8ead-93568f2a9fd5","ios":"levelo://app?vid=6b95b5e7-3b5f-4d33-8ead-93568f2a9fd5"},"vehicle_type_id":"4","last_reported":1718122196,"current_range_meters":5600,"station_id":"ce4bgrp2rcd13ifvqc9g","pricing_plan_id":"cebpf4jnsgd1na2vs0mg"},{"bike_id":"00b64ea0-1f33-406f-9403-707a02537b3c","system_id":"levelo_inurba_marseille","lat":43.305368,"lon":5.367343,"is_reserved":false,"is_disabled":false,"rental_uris":{"android":"levelo://app?vid=00b64ea0-1f33-406f-9403-707a02537b3c","ios":"levelo://app?vid=00b64ea0-1f33-406f-9403-707a02537b3c"},"vehicle_type_id":"4","last_reported":1718122196,"current_range_meters":0,"station_id":"ce4bgrp2rcd13ifvqc9g","pricing_plan_id":"cebpf4jnsgd1na2vs0mg"},{"bike_id":"44efd023-e521-4be4-bec0-c896c4916d15","system_id":"levelo_inurba_marseille","lat":43.305706,"lon":5.365654,"is_reserved":false,"is_disabled":false,"rental_uris":{"android":"levelo://app?vid=44efd023-e521-4be4-bec0-c896c4916d15","ios":"levelo://app?vid=44efd023-e521-4be4-bec0-c896c4916d15"},"vehicle_type_id":"4","last_reported":1718122196,"current_range_meters":0,"station_id":"ce4bgs12rcd13ifvqcag","pricing_plan_id":"cebpf4jnsgd1na2vs0mg"},{"bike_id":"23507e77-43b6-40a6-86e5-f5bc096c2c43","system_id":"levelo_inurba_marseille","lat":43.305989,"lon":5.37225,"is_reserved":false,"is_disabled":false,"rental_uris":{"android":"levelo://app?vid=23507e77-43b6-40a6-86e5-f5bc096c2c43","ios":"levelo://app?vid=23507e77-43b6-40a6-86e5-f5bc096c2c43"},"vehicle_type_id":"4","last_reported":1718122196,"current_range_meters":18000,"station_id":"ce4bgqh2rcd13ifvqc4g","pricing_plan_id":"cebpf4jnsgd1na2vs0mg"},{"bike_id":"d0e8b1c4-81c8-4716-9f79-bfbb00d4ea26","system_id":"levelo_inurba_marseille","lat":43.305989,"lon":5.37225,"is_reserved":false,"is_disabled":false,"rental_uris":{"android":"levelo://app?vid=d0e8b1c4-81c8-4716-9f79-bfbb00d4ea26","ios":"levelo://app?vid=d0e8b1c4-81c8-4716-9f79-bfbb00d4ea26"},"vehicle_type_id":"4","last_reported":1718122196,"current_range_meters":5200,"station_id":"ce4bgqh2rcd13ifvqc4g","pricing_plan_id":"cebpf4jnsgd1na2vs0mg"},{"bike_id":"599d5fde-279e-42b1-94fe-f11e2c3744d9","system_id":"levelo_inurba_marseille","lat":43.3112,"lon":5.37778,"is_reserved":false,"is_disabled":false,"rental_uris":{"android":"levelo://app?vid=599d5fde-279e-42b1-94fe-f11e2c3744d9","ios":"levelo://app?vid=599d5fde-279e-42b1-94fe-f11e2c3744d9"},"vehicle_type_id":"4","last_reported":1718122196,"current_range_meters":0,"station_id":"ce4bgt92rcd13ifvqcg0","pricing_plan_id":"cebpf4jnsgd1na2vs0mg"},{"bike_id":"5ea46c79-d5c9-4755-8142-1ca662ac8db6","system_id":"levelo_inurba_marseille","lat":43.307945,"lon":5.376487,"is_reserved":false,"is_disabled":false,"rental_uris":{"android":"levelo://app?vid=5ea46c79-d5c9-4755-8142-1ca662ac8db6","ios":"levelo://app?vid=5ea46c79-d5c9-4755-8142-1ca662ac8db6"},"vehicle_type_id":"4","last_reported":1718122196,"current_range_meters":9600,"station_id":"ce4bgv92rcd13ifvqcq0","pricing_plan_id":"cebpf4jnsgd1na2vs0mg"},{"bike_id":"5da268a6-5224-4cc4-9661-20bbebe929fd","system_id":"levelo_inurba_marseille","lat":43.31713,"lon":5.37742,"is_reserved":false,"is_disabled":false,"rental_uris":{"android":"levelo://app?vid=5da268a6-5224-4cc4-9661-20bbebe929fd","ios":"levelo://app?vid=5da268a6-5224-4cc4-9661-20bbebe929fd"},"vehicle_type_id":"4","last_reported":1718122196,"current_range_meters":20400,"station_id":"ce4bgth2rcd13ifvqch0","pricing_plan_id":"cebpf4jnsgd1na2vs0mg"},{"bike_id":"d2ec8f15-6e7d-4b38-86a3-e4024a637d1f","system_id":"levelo_inurba_marseille","lat":43.317105,"lon":5.37757,"is_reserved":false,"is_disabled":false,"rental_uris":{"android":"levelo://app?vid=d2ec8f15-6e7d-4b38-86a3-e4024a637d1f","ios":"levelo://app?vid=d2ec8f15-6e7d-4b38-86a3-e4024a637d1f"},"vehicle_type_id":"4","last_reported":1718122196,"current_range_meters":0,"station_id":"ce4bgth2rcd13ifvqch0","pricing_plan_id":"cebpf4jnsgd1na2vs0mg"},{"bike_id":"dcbe0b98-f333-4d34-80b4-b080a82877a4","system_id":"levelo_inurba_marseille","lat":43.317075,"lon":5.377367,"is_reserved":false,"is_disabled":false,"rental_uris":{"android":"levelo://app?vid=dcbe0b98-f333-4d34-80b4-b080a82877a4","ios":"levelo://app?vid=dcbe0b98-f333-4d34-80b4-b080a82877a4"},"vehicle_type_id":"4","last_reported":1718122196,"current_range_meters":28000,"station_id":"ce4bgth2rcd13ifvqch0","pricing_plan_id":"cebpf4jnsgd1na2vs0mg"},{"bike_id":"fbe3fe5a-e637-4bc2-bfcf-e8e21c182bb8","system_id":"levelo_inurba_marseille","lat":43.317075,"lon":5.377367,"is_reserved":false,"is_disabled":false,"rental_uris":{"android":"levelo://app?vid=fbe3fe5a-e637-4bc2-bfcf-e8e21c182bb8","ios":"levelo://app?vid=fbe3fe5a-e637-4bc2-bfcf-e8e21c182bb8"},"vehicle_type_id":"4","last_reported":1718122196,"current_range_meters":26800,"station_id":"ce4bgth2rcd13ifvqch0","pricing_plan_id":"cebpf4jnsgd1na2vs0mg"},{"bike_id":"28f44cb0-be90-4557-a2ce-57942f4cbeea","system_id":"levelo_inurba_marseille","lat":43.30327,"lon":5.36889,"is_reserved":false,"is_disabled":false,"rental_uris":{"android":"levelo://app?vid=28f44cb0-be90-4557-a2ce-57942f4cbeea","ios":"levelo://app?vid=28f44cb0-be90-4557-a2ce-57942f4cbeea"},"vehicle_type_id":"4","last_reported":1718122196,"current_range_meters":30000,"station_id":"ce4bgqh2rcd13ifvqc5g","pricing_plan_id":"cebpf4jnsgd1na2vs0mg"},{"bike_id":"f689b6d8-584a-45dd-bd32-d50ab88ca91f","system_id":"levelo_inurba_marseille","lat":43.315289,"lon":5.380349,"is_reserved":false,"is_disabled":false,"rental_uris":{"android":"levelo://app?vid=f689b6d8-584a-45dd-bd32-d50ab88ca91f","ios":"levelo://app?vid=f689b6d8-584a-45dd-bd32-d50ab88ca91f"},"vehicle_type_id":"4","last_reported":1718122196,"current_range_meters":4000,"station_id":"ce4bhsp2rcd13ifvqi50","pricing_plan_id":"cebpf4jnsgd1na2vs0mg"},{"bike_id":"2d1b2fa1-0e62-4141-bc64-a35ada411963","system_id":"levelo_inurba_marseille","lat":43.30195,"lon":5.36623,"is_reserved":false,"is_disabled":false,"rental_uris":{"android":"levelo://app?vid=2d1b2fa1-0e62-4141-bc64-a35ada411963","ios":"levelo://app?vid=2d1b2fa1-0e62-4141-bc64-a35ada411963"},"vehicle_type_id":"4","last_reported":1718122196,"current_range_meters":6000,"station_id":"ce4bgrh2rcd13ifvqc8g","pricing_plan_id":"cebpf4jnsgd1na2vs0mg"},{"bike_id":"35996c25-55e5-478a-8303-85f8f8b99587","system_id":"levelo_inurba_marseille","lat":43.308074,"lon":5.381602,"is_reserved":false,"is_disabled":false,"rental_uris":{"android":"levelo://app?vid=35996c25-55e5-478a-8303-85f8f8b99587","ios":"levelo://app?vid=35996c25-55e5-478a-8303-85f8f8b99587"},"vehicle_type_id":"4","last_reported":1718122196,"current_range_meters":0,"station_id":"ce4bgt12rcd13ifvqce0","pricing_plan_id":"cebpf4jnsgd1na2vs0mg"},{"bike_id":"9d71883e-ba6f-4e3d-8ee4-6c05dd00a1d1","system_id":"levelo_inurba_marseille","lat":43.304606,"lon":5.379026,"is_reserved":false,"is_disabled":false,"rental_uris":{"android":"levelo://app?vid=9d71883e-ba6f-4e3d-8ee4-6c05dd00a1d1","ios":"levelo://app?vid=9d71883e-ba6f-4e3d-8ee4-6c05dd00a1d1"},"vehicle_type_id":"4","last_reported":1718122196,"current_range_meters":0,"station_id":"ce4bgup2rcd13ifvqcn0","pricing_plan_id":"cebpf4jnsgd1na2vs0mg"},{"bike_id":"5e948987-e62f-4415-833f-3039c8bf58ec","system_id":"levelo_inurba_marseille","lat":43.31428,"lon":5.38351,"is_reserved":false,"is_disabled":false,"rental_uris":{"android":"levelo://app?vid=5e948987-e62f-4415-833f-3039c8bf58ec","ios":"levelo://app?vid=5e948987-e62f-4415-833f-3039c8bf58ec"},"vehicle_type_id":"4","last_reported":1718122196,"current_range_meters":14000,"station_id":"","pricing_plan_id":"cebpf4jnsgd1na2vs0mg"},{"bike_id":"f444f805-a1e9-45f8-ade1-e3d918b8a80b","system_id":"levelo_inurba_marseille","lat":43.3107,"lon":5.38356,"is_reserved":false,"is_disabled":false,"rental_uris":{"android":"levelo://app?vid=f444f805-a1e9-45f8-ade1-e3d918b8a80b","ios":"levelo://app?vid=f444f805-a1e9-45f8-ade1-e3d918b8a80b"},"vehicle_type_id":"4","last_reported":1718122196,"current_range_meters":0,"station_id":"ce4bgv92rcd13ifvqcr0","pricing_plan_id":"cebpf4jnsgd1na2vs0mg"},{"bike_id":"a4b48376-6c5e-4364-b96a-6ec260116034","system_id":"levelo_inurba_marseille","lat":43.301429,"lon":5.37413,"is_reserved":false,"is_disabled":false,"rental_uris":{"android":"levelo://app?vid=a4b48376-6c5e-4364-b96a-6ec260116034","ios":"levelo://app?vid=a4b48376-6c5e-4364-b96a-6ec260116034"},"vehicle_type_id":"4","last_reported":1718122196,"current_range_meters":18800,"station_id":"ce4bgs92rcd13ifvqcc0","pricing_plan_id":"cebpf4jnsgd1na2vs0mg"},{"bike_id":"cfea63f2-f6d5-4f74-97b3-8053702455d7","system_id":"levelo_inurba_marseille","lat":43.301429,"lon":5.37413,"is_reserved":false,"is_disabled":false,"rental_uris":{"android":"levelo://app?vid=cfea63f2-f6d5-4f74-97b3-8053702455d7","ios":"levelo://app?vid=cfea63f2-f6d5-4f74-97b3-8053702455d7"},"vehicle_type_id":"4","last_reported":1718122196,"current_range_meters":14800,"station_id":"ce4bgs92rcd13ifvqcc0","pricing_plan_id":"cebpf4jnsgd1na2vs0mg"},{"bike_id":"facb0d95-a72a-44d8-baf8-7d9c672d7062","system_id":"levelo_inurba_marseille","lat":43.30143,"lon":5.37413,"is_reserved":false,"is_disabled":false,"rental_uris":{"android":"levelo://app?vid=facb0d95-a72a-44d8-baf8-7d9c672d7062","ios":"levelo://app?vid=facb0d95-a72a-44d8-baf8-7d9c672d7062"},"vehicle_type_id":"4","last_reported":1718122196,"current_range_meters":0,"station_id":"ce4bgs92rcd13ifvqcc0","pricing_plan_id":"cebpf4jnsgd1na2vs0mg"},{"bike_id":"69a57e29-aeb9-4a28-840f-6317ee14dbeb","system_id":"levelo_inurba_marseille","lat":43.302784,"lon":5.377158,"is_reserved":false,"is_disabled":false,"rental_uris":{"android":"levelo://app?vid=69a57e29-aeb9-4a28-840f-6317ee14dbeb","ios":"levelo://app?vid=69a57e29-aeb9-4a28-840f-6317ee14dbeb"},"vehicle_type_id":"4","last_reported":1718122196,"current_range_meters":0,"station_id":"ce4bguh2rcd13ifvqcj0","pricing_plan_id":"cebpf4jnsgd1na2vs0mg"},{"bike_id":"e80d74aa-9625-4730-8f58-2b62fd2d3e48","system_id":"levelo_inurba_marseille","lat":43.3199,"lon":5.38133,"is_reserved":false,"is_disabled":false,"rental_uris":{"android":"levelo://app?vid=e80d74aa-9625-4730-8f58-2b62fd2d3e48","ios":"levelo://app?vid=e80d74aa-9625-4730-8f58-2b62fd2d3e48"},"vehicle_type_id":"4","last_reported":1718122196,"current_range_meters":4000,"station_id":"ce4bhr12rcd13ifvqhpg","pricing_plan_id":"cebpf4jnsgd1na2vs0mg"},{"bike_id":"87fb78ba-68bd-4455-b2f4-590dcc2bb72b","system_id":"levelo_inurba_marseille","lat":43.319935,"lon":5.381699,"is_reserved":false,"is_disabled":false,"rental_uris":{"android":"levelo://app?vid=87fb78ba-68bd-4455-b2f4-590dcc2bb72b","ios":"levelo://app?vid=87fb78ba-68bd-4455-b2f4-590dcc2bb72b"},"vehicle_type_id":"4","last_reported":1718122196,"current_range_meters":14400,"station_id":"ce4bhr12rcd13ifvqhpg","pricing_plan_id":"cebpf4jnsgd1na2vs0mg"},{"bike_id":"c7d3b741-38f9-4ea9-bcae-a9fc53686980","system_id":"levelo_inurba_marseille","lat":43.31992,"lon":5.38164,"is_reserved":false,"is_disabled":false,"rental_uris":{"android":"levelo://app?vid=c7d3b741-38f9-4ea9-bcae-a9fc53686980","ios":"levelo://app?vid=c7d3b741-38f9-4ea9-bcae-a9fc53686980"},"vehicle_type_id":"4","last_reported":1718122196,"current_range_meters":0,"station_id":"ce4bhr12rcd13ifvqhpg","pricing_plan_id":"cebpf4jnsgd1na2vs0mg"},{"bike_id":"049857a8-2b8b-4c39-8d04-3d3afafd1914","system_id":"levelo_inurba_marseille","lat":43.299222,"lon":5.365554,"is_reserved":false,"is_disabled":false,"rental_uris":{"android":"levelo://app?vid=049857a8-2b8b-4c39-8d04-3d3afafd1914","ios":"levelo://app?vid=049857a8-2b8b-4c39-8d04-3d3afafd1914"},"vehicle_type_id":"4","last_reported":1718122196,"current_range_meters":11200,"station_id":"ce4bgm92rcd13ifvqbr0","pricing_plan_id":"cebpf4jnsgd1na2vs0mg"},{"bike_id":"c4f4aa81-1757-4c6c-9b5c-59a963d93c62","system_id":"levelo_inurba_marseille","lat":43.313571,"lon":5.384829,"is_reserved":false,"is_disabled":false,"rental_uris":{"android":"levelo://app?vid=c4f4aa81-1757-4c6c-9b5c-59a963d93c62","ios":"levelo://app?vid=c4f4aa81-1757-4c6c-9b5c-59a963d93c62"},"vehicle_type_id":"4","last_reported":1718122196,"current_range_meters":24800,"station_id":"ce4bgt92rcd13ifvqcf0","pricing_plan_id":"cebpf4jnsgd1na2vs0mg"},{"bike_id":"3b43a67c-ba49-47d0-bf76-faacba158718","system_id":"levelo_inurba_marseille","lat":43.299222,"lon":5.365554,"is_reserved":false,"is_disabled":false,"rental_uris":{"android":"levelo://app?vid=3b43a67c-ba49-47d0-bf76-faacba158718","ios":"levelo://app?vid=3b43a67c-ba49-47d0-bf76-faacba158718"},"vehicle_type_id":"4","last_reported":1718122196,"current_range_meters":24000,"station_id":"ce4bgm92rcd13ifvqbr0","pricing_plan_id":"cebpf4jnsgd1na2vs0mg"},{"bike_id":"f178dbf6-f837-4385-bca5-802b9954fe9b","system_id":"levelo_inurba_marseille","lat":43.299222,"lon":5.365554,"is_reserved":false,"is_disabled":false,"rental_uris":{"android":"levelo://app?vid=f178dbf6-f837-4385-bca5-802b9954fe9b","ios":"levelo://app?vid=f178dbf6-f837-4385-bca5-802b9954fe9b"},"vehicle_type_id":"4","last_reported":1718122196,"current_range_meters":14000,"station_id":"ce4bgm92rcd13ifvqbr0","pricing_plan_id":"cebpf4jnsgd1na2vs0mg"},{"bike_id":"4f1d4a3c-6d41-4f43-9061-83c14e56b8ce","system_id":"levelo_inurba_marseille","lat":43.299222,"lon":5.365554,"is_reserved":false,"is_disabled":false,"rental_uris":{"android":"levelo://app?vid=4f1d4a3c-6d41-4f43-9061-83c14e56b8ce","ios":"levelo://app?vid=4f1d4a3c-6d41-4f43-9061-83c14e56b8ce"},"vehicle_type_id":"4","last_reported":1718122196,"current_range_meters":24800,"station_id":"ce4bgm92rcd13ifvqbr0","pricing_plan_id":"cebpf4jnsgd1na2vs0mg"},{"bike_id":"785033b2-aa34-4172-addb-a7460ac97c52","system_id":"levelo_inurba_marseille","lat":43.299222,"lon":5.365554,"is_reserved":false,"is_disabled":false,"rental_uris":{"android":"levelo://app?vid=785033b2-aa34-4172-addb-a7460ac97c52","ios":"levelo://app?vid=785033b2-aa34-4172-addb-a7460ac97c52"},"vehicle_type_id":"4","last_reported":1718122196,"current_range_meters":28800,"station_id":"ce4bgm92rcd13ifvqbr0","pricing_plan_id":"cebpf4jnsgd1na2vs0mg"},{"bike_id":"e0437f7c-5b22-4e87-b6b6-aaf919ef7393","system_id":"levelo_inurba_marseille","lat":43.299222,"lon":5.365554,"is_reserved":false,"is_disabled":false,"rental_uris":{"android":"levelo://app?vid=e0437f7c-5b22-4e87-b6b6-aaf919ef7393","ios":"levelo://app?vid=e0437f7c-5b22-4e87-b6b6-aaf919ef7393"},"vehicle_type_id":"4","last_reported":1718122196,"current_range_meters":18000,"station_id":"ce4bgm92rcd13ifvqbr0","pricing_plan_id":"cebpf4jnsgd1na2vs0mg"},{"bike_id":"8c0535bb-42e6-4a08-a7ad-bec4bbe997fc","system_id":"levelo_inurba_marseille","lat":43.299222,"lon":5.365554,"is_reserved":false,"is_disabled":false,"rental_uris":{"android":"levelo://app?vid=8c0535bb-42e6-4a08-a7ad-bec4bbe997fc","ios":"levelo://app?vid=8c0535bb-42e6-4a08-a7ad-bec4bbe997fc"},"vehicle_type_id":"4","last_reported":1718122196,"current_range_meters":30800,"station_id":"ce4bgm92rcd13ifvqbr0","pricing_plan_id":"cebpf4jnsgd1na2vs0mg"},{"bike_id":"00dbbd44-8152-4899-be02-96440d9a1393","system_id":"levelo_inurba_marseille","lat":43.29976,"lon":5.37183,"is_reserved":false,"is_disabled":false,"rental_uris":{"android":"levelo://app?vid=00dbbd44-8152-4899-be02-96440d9a1393","ios":"levelo://app?vid=00dbbd44-8152-4899-be02-96440d9a1393"},"vehicle_type_id":"4","last_reported":1718122196,"current_range_meters":26800,"station_id":"ce4bgr92rcd13ifvqc7g","pricing_plan_id":"cebpf4jnsgd1na2vs0mg"},{"bike_id":"82ee3d43-6093-4007-91c1-f8a45b769933","system_id":"levelo_inurba_marseille","lat":43.29975,"lon":5.37185,"is_reserved":false,"is_disabled":false,"rental_uris":{"android":"levelo://app?vid=82ee3d43-6093-4007-91c1-f8a45b769933","ios":"levelo://app?vid=82ee3d43-6093-4007-91c1-f8a45b769933"},"vehicle_type_id":"4","last_reported":1718122196,"current_range_meters":9200,"station_id":"ce4bgr92rcd13ifvqc7g","pricing_plan_id":"cebpf4jnsgd1na2vs0mg"},{"bike_id":"590e22d1-3739-4540-a22e-9af5027c71f9","system_id":"levelo_inurba_marseille","lat":43.299222,"lon":5.365554,"is_reserved":false,"is_disabled":false,"rental_uris":{"android":"levelo://app?vid=590e22d1-3739-4540-a22e-9af5027c71f9","ios":"levelo://app?vid=590e22d1-3739-4540-a22e-9af5027c71f9"},"vehicle_type_id":"4","last_reported":1718122196,"current_range_meters":30400,"station_id":"ce4bgm92rcd13ifvqbr0","pricing_plan_id":"cebpf4jnsgd1na2vs0mg"},{"bike_id":"64b13bc4-c010-46a6-9dbe-fd1453421108","system_id":"levelo_inurba_marseille","lat":43.299222,"lon":5.365554,"is_reserved":false,"is_disabled":false,"rental_uris":{"android":"levelo://app?vid=64b13bc4-c010-46a6-9dbe-fd1453421108","ios":"levelo://app?vid=64b13bc4-c010-46a6-9dbe-fd1453421108"},"vehicle_type_id":"4","last_reported":1718122196,"current_range_meters":16000,"station_id":"ce4bgm92rcd13ifvqbr0","pricing_plan_id":"cebpf4jnsgd1na2vs0mg"},{"bike_id":"198462f2-ba3f-4a97-ae53-df979abf8460","system_id":"levelo_inurba_marseille","lat":43.299222,"lon":5.365554,"is_reserved":false,"is_disabled":false,"rental_uris":{"android":"levelo://app?vid=198462f2-ba3f-4a97-ae53-df979abf8460","ios":"levelo://app?vid=198462f2-ba3f-4a97-ae53-df979abf8460"},"vehicle_type_id":"4","last_reported":1718122196,"current_range_meters":27200,"station_id":"ce4bgm92rcd13ifvqbr0","pricing_plan_id":"cebpf4jnsgd1na2vs0mg"},{"bike_id":"63a6bf20-6c85-46c9-9b6f-8a1a2261c2b5","system_id":"levelo_inurba_marseille","lat":43.299373,"lon":5.37134,"is_reserved":false,"is_disabled":false,"rental_uris":{"android":"levelo://app?vid=63a6bf20-6c85-46c9-9b6f-8a1a2261c2b5","ios":"levelo://app?vid=63a6bf20-6c85-46c9-9b6f-8a1a2261c2b5"},"vehicle_type_id":"4","last_reported":1718122196,"current_range_meters":0,"station_id":"","pricing_plan_id":"cebpf4jnsgd1na2vs0mg"},{"bike_id":"da6d7392-7662-4668-ad76-ae7b603ed023","system_id":"levelo_inurba_marseille","lat":43.297794,"lon":5.370888,"is_reserved":false,"is_disabled":false,"rental_uris":{"android":"levelo://app?vid=da6d7392-7662-4668-ad76-ae7b603ed023","ios":"levelo://app?vid=da6d7392-7662-4668-ad76-ae7b603ed023"},"vehicle_type_id":"4","last_reported":1718122196,"current_range_meters":24800,"station_id":"ce4bgop2rcd13ifvqc1g","pricing_plan_id":"cebpf4jnsgd1na2vs0mg"},{"bike_id":"84bb62f8-9ed6-46a2-91f5-f903fec94610","system_id":"levelo_inurba_marseille","lat":43.299243,"lon":5.374807,"is_reserved":false,"is_disabled":false,"rental_uris":{"android":"levelo://app?vid=84bb62f8-9ed6-46a2-91f5-f903fec94610","ios":"levelo://app?vid=84bb62f8-9ed6-46a2-91f5-f903fec94610"},"vehicle_type_id":"4","last_reported":1718122196,"current_range_meters":6000,"station_id":"ce4bgjh2rcd13ifvqbg0","pricing_plan_id":"cebpf4jnsgd1na2vs0mg"},{"bike_id":"01ca70b6-4e2c-42cb-9aed-a8b80d5ea29c","system_id":"levelo_inurba_marseille","lat":43.305267,"lon":5.384133,"is_reserved":false,"is_disabled":false,"rental_uris":{"android":"levelo://app?vid=01ca70b6-4e2c-42cb-9aed-a8b80d5ea29c","ios":"levelo://app?vid=01ca70b6-4e2c-42cb-9aed-a8b80d5ea29c"},"vehicle_type_id":"4","last_reported":1718122196,"current_range_meters":7200,"station_id":"ce4bgg92rcd13ifvqb30","pricing_plan_id":"cebpf4jnsgd1na2vs0mg"},{"bike_id":"3bcdabb7-edf0-4e3b-9fb8-d1c81f1497cc","system_id":"levelo_inurba_marseille","lat":43.32245,"lon":5.381904,"is_reserved":false,"is_disabled":false,"rental_uris":{"android":"levelo://app?vid=3bcdabb7-edf0-4e3b-9fb8-d1c81f1497cc","ios":"levelo://app?vid=3bcdabb7-edf0-4e3b-9fb8-d1c81f1497cc"},"vehicle_type_id":"4","last_reported":1718122196,"current_range_meters":0,"station_id":"ce4bhr12rcd13ifvqhqg","pricing_plan_id":"cebpf4jnsgd1na2vs0mg"},{"bike_id":"44633568-3934-497b-8674-62af8ef7d3fb","system_id":"levelo_inurba_marseille","lat":43.307843,"lon":5.385835,"is_reserved":false,"is_disabled":false,"rental_uris":{"android":"levelo://app?vid=44633568-3934-497b-8674-62af8ef7d3fb","ios":"levelo://app?vid=44633568-3934-497b-8674-62af8ef7d3fb"},"vehicle_type_id":"4","last_reported":1718122196,"current_range_meters":20000,"station_id":"","pricing_plan_id":"cebpf4jnsgd1na2vs0mg"},{"bike_id":"07674da2-4a57-451b-a095-9cfefc66c154","system_id":"levelo_inurba_marseille","lat":43.29845,"lon":5.362771,"is_reserved":false,"is_disabled":false,"rental_uris":{"android":"levelo://app?vid=07674da2-4a57-451b-a095-9cfefc66c154","ios":"levelo://app?vid=07674da2-4a57-451b-a095-9cfefc66c154"},"vehicle_type_id":"4","last_reported":1718122196,"current_range_meters":0,"station_id":"ce4bgpp2rcd13ifvqc3g","pricing_plan_id":"cebpf4jnsgd1na2vs0mg"},{"bike_id":"80e83f07-818a-47a7-ad95-40d52b806185","system_id":"levelo_inurba_marseille","lat":43.311722,"lon":5.387247,"is_reserved":false,"is_disabled":false,"rental_uris":{"android":"levelo://app?vid=80e83f07-818a-47a7-ad95-40d52b806185","ios":"levelo://app?vid=80e83f07-818a-47a7-ad95-40d52b806185"},"vehicle_type_id":"4","last_reported":1718122196,"current_range_meters":15200,"station_id":"ce4bgv12rcd13ifvqcp0","pricing_plan_id":"cebpf4jnsgd1na2vs0mg"},{"bike_id":"9bfe81f1-92c8-404c-83d4-a27b45b27f4e","system_id":"levelo_inurba_marseille","lat":43.311722,"lon":5.387247,"is_reserved":false,"is_disabled":false,"rental_uris":{"android":"levelo://app?vid=9bfe81f1-92c8-404c-83d4-a27b45b27f4e","ios":"levelo://app?vid=9bfe81f1-92c8-404c-83d4-a27b45b27f4e"},"vehicle_type_id":"4","last_reported":1718122196,"current_range_meters":0,"station_id":"ce4bgv12rcd13ifvqcp0","pricing_plan_id":"cebpf4jnsgd1na2vs0mg"},{"bike_id":"0f61197e-cd91-4335-aa99-74aa8607b5a8","system_id":"levelo_inurba_marseille","lat":43.311722,"lon":5.387247,"is_reserved":false,"is_disabled":false,"rental_uris":{"android":"levelo://app?vid=0f61197e-cd91-4335-aa99-74aa8607b5a8","ios":"levelo://app?vid=0f61197e-cd91-4335-aa99-74aa8607b5a8"},"vehicle_type_id":"4","last_reported":1718122196,"current_range_meters":14000,"station_id":"ce4bgv12rcd13ifvqcp0","pricing_plan_id":"cebpf4jnsgd1na2vs0mg"},{"bike_id":"61cc56dd-0fdf-4538-9412-459dc49758fc","system_id":"levelo_inurba_marseille","lat":43.297794,"lon":5.370888,"is_reserved":false,"is_disabled":false,"rental_uris":{"android":"levelo://app?vid=61cc56dd-0fdf-4538-9412-459dc49758fc","ios":"levelo://app?vid=61cc56dd-0fdf-4538-9412-459dc49758fc"},"vehicle_type_id":"4","last_reported":1718122196,"current_range_meters":16800,"station_id":"ce4bgop2rcd13ifvqc1g","pricing_plan_id":"cebpf4jnsgd1na2vs0mg"},{"bike_id":"6f49c193-a3ff-4ae6-b123-c45ddd96ebc6","system_id":"levelo_inurba_marseille","lat":43.297794,"lon":5.370888,"is_reserved":false,"is_disabled":false,"rental_uris":{"android":"levelo://app?vid=6f49c193-a3ff-4ae6-b123-c45ddd96ebc6","ios":"levelo://app?vid=6f49c193-a3ff-4ae6-b123-c45ddd96ebc6"},"vehicle_type_id":"4","last_reported":1718122196,"current_range_meters":14800,"station_id":"ce4bgop2rcd13ifvqc1g","pricing_plan_id":"cebpf4jnsgd1na2vs0mg"},{"bike_id":"b9e802bf-f498-486d-bd9f-2a65d6891a91","system_id":"levelo_inurba_marseille","lat":43.296131,"lon":5.370791,"is_reserved":false,"is_disabled":false,"rental_uris":{"android":"levelo://app?vid=b9e802bf-f498-486d-bd9f-2a65d6891a91","ios":"levelo://app?vid=b9e802bf-f498-486d-bd9f-2a65d6891a91"},"vehicle_type_id":"4","last_reported":1718122196,"current_range_meters":28800,"station_id":"ce4bgnh2rcd13ifvqc0g","pricing_plan_id":"cebpf4jnsgd1na2vs0mg"},{"bike_id":"d93d232f-e1e4-432b-8c42-c908d6923def","system_id":"levelo_inurba_marseille","lat":43.297774,"lon":5.370875,"is_reserved":false,"is_disabled":false,"rental_uris":{"android":"levelo://app?vid=d93d232f-e1e4-432b-8c42-c908d6923def","ios":"levelo://app?vid=d93d232f-e1e4-432b-8c42-c908d6923def"},"vehicle_type_id":"4","last_reported":1718122196,"current_range_meters":6400,"station_id":"ce4bgop2rcd13ifvqc1g","pricing_plan_id":"cebpf4jnsgd1na2vs0mg"},{"bike_id":"599b6b50-e579-486a-bbb7-a0ad9773bb9d","system_id":"levelo_inurba_marseille","lat":43.322872,"lon":5.382756,"is_reserved":false,"is_disabled":false,"rental_uris":{"android":"levelo://app?vid=599b6b50-e579-486a-bbb7-a0ad9773bb9d","ios":"levelo://app?vid=599b6b50-e579-486a-bbb7-a0ad9773bb9d"},"vehicle_type_id":"4","last_reported":1718122196,"current_range_meters":0,"station_id":"ce4bhr12rcd13ifvqhqg","pricing_plan_id":"cebpf4jnsgd1na2vs0mg"},{"bike_id":"c0cfe633-10ed-4f5d-a772-6190cc50fce2","system_id":"levelo_inurba_marseille","lat":43.297163,"lon":5.365866,"is_reserved":false,"is_disabled":false,"rental_uris":{"android":"levelo://app?vid=c0cfe633-10ed-4f5d-a772-6190cc50fce2","ios":"levelo://app?vid=c0cfe633-10ed-4f5d-a772-6190cc50fce2"},"vehicle_type_id":"4","last_reported":1718122196,"current_range_meters":30400,"station_id":"ce4bgn12rcd13ifvqbt0","pricing_plan_id":"cebpf4jnsgd1na2vs0mg"},{"bike_id":"ac5a1ad0-9216-445d-bb3b-708c4e31ca80","system_id":"levelo_inurba_marseille","lat":43.297163,"lon":5.365866,"is_reserved":false,"is_disabled":false,"rental_uris":{"android":"levelo://app?vid=ac5a1ad0-9216-445d-bb3b-708c4e31ca80","ios":"levelo://app?vid=ac5a1ad0-9216-445d-bb3b-708c4e31ca80"},"vehicle_type_id":"4","last_reported":1718122196,"current_range_meters":8800,"station_id":"ce4bgn12rcd13ifvqbt0","pricing_plan_id":"cebpf4jnsgd1na2vs0mg"},{"bike_id":"861a9d5d-6f90-4503-9890-7f78d31182c0","system_id":"levelo_inurba_marseille","lat":43.297163,"lon":5.365866,"is_reserved":false,"is_disabled":false,"rental_uris":{"android":"levelo://app?vid=861a9d5d-6f90-4503-9890-7f78d31182c0","ios":"levelo://app?vid=861a9d5d-6f90-4503-9890-7f78d31182c0"},"vehicle_type_id":"4","last_reported":1718122196,"current_range_meters":5600,"station_id":"ce4bgn12rcd13ifvqbt0","pricing_plan_id":"cebpf4jnsgd1na2vs0mg"},{"bike_id":"28812fe1-2c41-481e-84ee-cf659c796fa3","system_id":"levelo_inurba_marseille","lat":43.2968,"lon":5.37291,"is_reserved":false,"is_disabled":false,"rental_uris":{"android":"levelo://app?vid=28812fe1-2c41-481e-84ee-cf659c796fa3","ios":"levelo://app?vid=28812fe1-2c41-481e-84ee-cf659c796fa3"},"vehicle_type_id":"4","last_reported":1718122196,"current_range_meters":6000,"station_id":"ce4bgk12rcd13ifvqbj0","pricing_plan_id":"cebpf4jnsgd1na2vs0mg"},{"bike_id":"3b9b0b19-9719-4fed-82c4-50a38a10f270","system_id":"levelo_inurba_marseille","lat":43.2968,"lon":5.37291,"is_reserved":false,"is_disabled":false,"rental_uris":{"android":"levelo://app?vid=3b9b0b19-9719-4fed-82c4-50a38a10f270","ios":"levelo://app?vid=3b9b0b19-9719-4fed-82c4-50a38a10f270"},"vehicle_type_id":"4","last_reported":1718122196,"current_range_meters":31200,"station_id":"ce4bgk12rcd13ifvqbj0","pricing_plan_id":"cebpf4jnsgd1na2vs0mg"},{"bike_id":"ba4d7f65-08fe-4d3b-bbfa-994726aa433f","system_id":"levelo_inurba_marseille","lat":43.29573,"lon":5.367355,"is_reserved":false,"is_disabled":false,"rental_uris":{"android":"levelo://app?vid=ba4d7f65-08fe-4d3b-bbfa-994726aa433f","ios":"levelo://app?vid=ba4d7f65-08fe-4d3b-bbfa-994726aa433f"},"vehicle_type_id":"4","last_reported":1718122196,"current_range_meters":31200,"station_id":"ce4bgph2rcd13ifvqc2g","pricing_plan_id":"cebpf4jnsgd1na2vs0mg"},{"bike_id":"46ce255d-1e97-4c7c-a07b-db25d80e9d85","system_id":"levelo_inurba_marseille","lat":43.29573,"lon":5.367355,"is_reserved":false,"is_disabled":false,"rental_uris":{"android":"levelo://app?vid=46ce255d-1e97-4c7c-a07b-db25d80e9d85","ios":"levelo://app?vid=46ce255d-1e97-4c7c-a07b-db25d80e9d85"},"vehicle_type_id":"4","last_reported":1718122196,"current_range_meters":28000,"station_id":"ce4bgph2rcd13ifvqc2g","pricing_plan_id":"cebpf4jnsgd1na2vs0mg"},{"bike_id":"525c4ae8-4e67-43be-a8b6-2679b23dcf0b","system_id":"levelo_inurba_marseille","lat":43.296131,"lon":5.370791,"is_reserved":false,"is_disabled":false,"rental_uris":{"android":"levelo://app?vid=525c4ae8-4e67-43be-a8b6-2679b23dcf0b","ios":"levelo://app?vid=525c4ae8-4e67-43be-a8b6-2679b23dcf0b"},"vehicle_type_id":"4","last_reported":1718122196,"current_range_meters":12400,"station_id":"ce4bgnh2rcd13ifvqc0g","pricing_plan_id":"cebpf4jnsgd1na2vs0mg"},{"bike_id":"8e75edb1-090e-4512-9040-ffcbbad12c30","system_id":"levelo_inurba_marseille","lat":43.296131,"lon":5.370791,"is_reserved":false,"is_disabled":false,"rental_uris":{"android":"levelo://app?vid=8e75edb1-090e-4512-9040-ffcbbad12c30","ios":"levelo://app?vid=8e75edb1-090e-4512-9040-ffcbbad12c30"},"vehicle_type_id":"4","last_reported":1718122196,"current_range_meters":30000,"station_id":"ce4bgnh2rcd13ifvqc0g","pricing_plan_id":"cebpf4jnsgd1na2vs0mg"},{"bike_id":"3912bce5-6067-49ed-b8e7-da0357d1896b","system_id":"levelo_inurba_marseille","lat":43.296131,"lon":5.370791,"is_reserved":false,"is_disabled":false,"rental_uris":{"android":"levelo://app?vid=3912bce5-6067-49ed-b8e7-da0357d1896b","ios":"levelo://app?vid=3912bce5-6067-49ed-b8e7-da0357d1896b"},"vehicle_type_id":"4","last_reported":1718122196,"current_range_meters":20800,"station_id":"ce4bgnh2rcd13ifvqc0g","pricing_plan_id":"cebpf4jnsgd1na2vs0mg"},{"bike_id":"38283ea4-433b-4c34-81a8-d968689f7d86","system_id":"levelo_inurba_marseille","lat":43.29573,"lon":5.367355,"is_reserved":false,"is_disabled":false,"rental_uris":{"android":"levelo://app?vid=38283ea4-433b-4c34-81a8-d968689f7d86","ios":"levelo://app?vid=38283ea4-433b-4c34-81a8-d968689f7d86"},"vehicle_type_id":"4","last_reported":1718122196,"current_range_meters":29600,"station_id":"ce4bgph2rcd13ifvqc2g","pricing_plan_id":"cebpf4jnsgd1na2vs0mg"},{"bike_id":"c531284c-f282-4403-be4f-3d46cad0f738","system_id":"levelo_inurba_marseille","lat":43.29573,"lon":5.367355,"is_reserved":false,"is_disabled":false,"rental_uris":{"android":"levelo://app?vid=c531284c-f282-4403-be4f-3d46cad0f738","ios":"levelo://app?vid=c531284c-f282-4403-be4f-3d46cad0f738"},"vehicle_type_id":"4","last_reported":1718122196,"current_range_meters":22000,"station_id":"ce4bgph2rcd13ifvqc2g","pricing_plan_id":"cebpf4jnsgd1na2vs0mg"},{"bike_id":"c766b7e2-337e-455a-a343-7f7c8991ed55","system_id":"levelo_inurba_marseille","lat":43.296129,"lon":5.370777,"is_reserved":false,"is_disabled":false,"rental_uris":{"android":"levelo://app?vid=c766b7e2-337e-455a-a343-7f7c8991ed55","ios":"levelo://app?vid=c766b7e2-337e-455a-a343-7f7c8991ed55"},"vehicle_type_id":"4","last_reported":1718122196,"current_range_meters":28800,"station_id":"ce4bgnh2rcd13ifvqc0g","pricing_plan_id":"cebpf4jnsgd1na2vs0mg"},{"bike_id":"2ded4fda-c0b9-4c09-9e5a-64f932a3f615","system_id":"levelo_inurba_marseille","lat":43.29573,"lon":5.367355,"is_reserved":false,"is_disabled":false,"rental_uris":{"android":"levelo://app?vid=2ded4fda-c0b9-4c09-9e5a-64f932a3f615","ios":"levelo://app?vid=2ded4fda-c0b9-4c09-9e5a-64f932a3f615"},"vehicle_type_id":"4","last_reported":1718122196,"current_range_meters":13600,"station_id":"ce4bgph2rcd13ifvqc2g","pricing_plan_id":"cebpf4jnsgd1na2vs0mg"},{"bike_id":"79aea4f6-ad85-4330-9e1d-f306be102a79","system_id":"levelo_inurba_marseille","lat":43.29573,"lon":5.367355,"is_reserved":false,"is_disabled":false,"rental_uris":{"android":"levelo://app?vid=79aea4f6-ad85-4330-9e1d-f306be102a79","ios":"levelo://app?vid=79aea4f6-ad85-4330-9e1d-f306be102a79"},"vehicle_type_id":"4","last_reported":1718122196,"current_range_meters":14800,"station_id":"ce4bgph2rcd13ifvqc2g","pricing_plan_id":"cebpf4jnsgd1na2vs0mg"},{"bike_id":"2b5bb6fe-0c68-4d76-9db9-854beae25956","system_id":"levelo_inurba_marseille","lat":43.29573,"lon":5.367355,"is_reserved":false,"is_disabled":false,"rental_uris":{"android":"levelo://app?vid=2b5bb6fe-0c68-4d76-9db9-854beae25956","ios":"levelo://app?vid=2b5bb6fe-0c68-4d76-9db9-854beae25956"},"vehicle_type_id":"4","last_reported":1718122196,"current_range_meters":16400,"station_id":"ce4bgph2rcd13ifvqc2g","pricing_plan_id":"cebpf4jnsgd1na2vs0mg"},{"bike_id":"fa494cec-9e12-4aa6-b56c-509216f558a1","system_id":"levelo_inurba_marseille","lat":43.29573,"lon":5.367355,"is_reserved":false,"is_disabled":false,"rental_uris":{"android":"levelo://app?vid=fa494cec-9e12-4aa6-b56c-509216f558a1","ios":"levelo://app?vid=fa494cec-9e12-4aa6-b56c-509216f558a1"},"vehicle_type_id":"4","last_reported":1718122196,"current_range_meters":6000,"station_id":"ce4bgph2rcd13ifvqc2g","pricing_plan_id":"cebpf4jnsgd1na2vs0mg"},{"bike_id":"9663b8df-a320-4c62-a2dc-f12029ad1443","system_id":"levelo_inurba_marseille","lat":43.29573,"lon":5.367355,"is_reserved":false,"is_disabled":false,"rental_uris":{"android":"levelo://app?vid=9663b8df-a320-4c62-a2dc-f12029ad1443","ios":"levelo://app?vid=9663b8df-a320-4c62-a2dc-f12029ad1443"},"vehicle_type_id":"4","last_reported":1718122196,"current_range_meters":27200,"station_id":"ce4bgph2rcd13ifvqc2g","pricing_plan_id":"cebpf4jnsgd1na2vs0mg"},{"bike_id":"0b8916be-aab7-48ca-82d4-114db9e7efdd","system_id":"levelo_inurba_marseille","lat":43.29573,"lon":5.367355,"is_reserved":false,"is_disabled":false,"rental_uris":{"android":"levelo://app?vid=0b8916be-aab7-48ca-82d4-114db9e7efdd","ios":"levelo://app?vid=0b8916be-aab7-48ca-82d4-114db9e7efdd"},"vehicle_type_id":"4","last_reported":1718122196,"current_range_meters":26400,"station_id":"ce4bgph2rcd13ifvqc2g","pricing_plan_id":"cebpf4jnsgd1na2vs0mg"},{"bike_id":"ed2c5571-99a7-4e57-a4c1-af1a1b8022d0","system_id":"levelo_inurba_marseille","lat":43.2966,"lon":5.37471,"is_reserved":false,"is_disabled":false,"rental_uris":{"android":"levelo://app?vid=ed2c5571-99a7-4e57-a4c1-af1a1b8022d0","ios":"levelo://app?vid=ed2c5571-99a7-4e57-a4c1-af1a1b8022d0"},"vehicle_type_id":"4","last_reported":1718122196,"current_range_meters":11200,"station_id":"","pricing_plan_id":"cebpf4jnsgd1na2vs0mg"},{"bike_id":"494a8dd1-55b2-41ce-869b-744fbbe2b9fc","system_id":"levelo_inurba_marseille","lat":43.299028,"lon":5.381509,"is_reserved":false,"is_disabled":false,"rental_uris":{"android":"levelo://app?vid=494a8dd1-55b2-41ce-869b-744fbbe2b9fc","ios":"levelo://app?vid=494a8dd1-55b2-41ce-869b-744fbbe2b9fc"},"vehicle_type_id":"4","last_reported":1718122196,"current_range_meters":800,"station_id":"ce4bgj12rcd13ifvqbc0","pricing_plan_id":"cebpf4jnsgd1na2vs0mg"},{"bike_id":"9a5dd210-5014-429a-8c15-e054faf81518","system_id":"levelo_inurba_marseille","lat":43.30948,"lon":5.39036,"is_reserved":false,"is_disabled":false,"rental_uris":{"android":"levelo://app?vid=9a5dd210-5014-429a-8c15-e054faf81518","ios":"levelo://app?vid=9a5dd210-5014-429a-8c15-e054faf81518"},"vehicle_type_id":"4","last_reported":1718122196,"current_range_meters":0,"station_id":"ce4bgup2rcd13ifvqco0","pricing_plan_id":"cebpf4jnsgd1na2vs0mg"},{"bike_id":"8f52c631-2724-498e-9962-f7ca5a617e68","system_id":"levelo_inurba_marseille","lat":43.309532,"lon":5.390405,"is_reserved":false,"is_disabled":false,"rental_uris":{"android":"levelo://app?vid=8f52c631-2724-498e-9962-f7ca5a617e68","ios":"levelo://app?vid=8f52c631-2724-498e-9962-f7ca5a617e68"},"vehicle_type_id":"4","last_reported":1718122196,"current_range_meters":0,"station_id":"ce4bgup2rcd13ifvqco0","pricing_plan_id":"cebpf4jnsgd1na2vs0mg"},{"bike_id":"8a9dd96c-636f-44d1-95a0-6c6e389d9c75","system_id":"levelo_inurba_marseille","lat":43.317557,"lon":5.390173,"is_reserved":false,"is_disabled":false,"rental_uris":{"android":"levelo://app?vid=8a9dd96c-636f-44d1-95a0-6c6e389d9c75","ios":"levelo://app?vid=8a9dd96c-636f-44d1-95a0-6c6e389d9c75"},"vehicle_type_id":"4","last_reported":1718122196,"current_range_meters":16000,"station_id":"ce4bhqp2rcd13ifvqhng","pricing_plan_id":"cebpf4jnsgd1na2vs0mg"},{"bike_id":"7d754739-3e03-409f-8210-8f12cc1761ef","system_id":"levelo_inurba_marseille","lat":43.30431,"lon":5.38893,"is_reserved":false,"is_disabled":false,"rental_uris":{"android":"levelo://app?vid=7d754739-3e03-409f-8210-8f12cc1761ef","ios":"levelo://app?vid=7d754739-3e03-409f-8210-8f12cc1761ef"},"vehicle_type_id":"4","last_reported":1718122196,"current_range_meters":0,"station_id":"ce4bgk12rcd13ifvqbi0","pricing_plan_id":"cebpf4jnsgd1na2vs0mg"},{"bike_id":"5c32b4f5-f39b-4f97-8868-fdfcbb330d5a","system_id":"levelo_inurba_marseille","lat":43.296141,"lon":5.376914,"is_reserved":false,"is_disabled":false,"rental_uris":{"android":"levelo://app?vid=5c32b4f5-f39b-4f97-8868-fdfcbb330d5a","ios":"levelo://app?vid=5c32b4f5-f39b-4f97-8868-fdfcbb330d5a"},"vehicle_type_id":"4","last_reported":1718122196,"current_range_meters":30000,"station_id":"ce4bgi92rcd13ifvqb90","pricing_plan_id":"cebpf4jnsgd1na2vs0mg"},{"bike_id":"97b77e08-cda5-461e-8f44-c82c1cbc8c18","system_id":"levelo_inurba_marseille","lat":43.296263,"lon":5.377094,"is_reserved":false,"is_disabled":false,"rental_uris":{"android":"levelo://app?vid=97b77e08-cda5-461e-8f44-c82c1cbc8c18","ios":"levelo://app?vid=97b77e08-cda5-461e-8f44-c82c1cbc8c18"},"vehicle_type_id":"4","last_reported":1718122196,"current_range_meters":17200,"station_id":"ce4bgi92rcd13ifvqb90","pricing_plan_id":"cebpf4jnsgd1na2vs0mg"},{"bike_id":"d9f29ac3-e812-4d67-82b8-389542d61d17","system_id":"levelo_inurba_marseille","lat":43.295279,"lon":5.375048,"is_reserved":false,"is_disabled":false,"rental_uris":{"android":"levelo://app?vid=d9f29ac3-e812-4d67-82b8-389542d61d17","ios":"levelo://app?vid=d9f29ac3-e812-4d67-82b8-389542d61d17"},"vehicle_type_id":"4","last_reported":1718122196,"current_range_meters":5200,"station_id":"ce4bgkp2rcd13ifvqbmg","pricing_plan_id":"cebpf4jnsgd1na2vs0mg"},{"bike_id":"582a71a7-5fbd-4a99-860c-de1bfccd63ea","system_id":"levelo_inurba_marseille","lat":43.295279,"lon":5.375048,"is_reserved":false,"is_disabled":false,"rental_uris":{"android":"levelo://app?vid=582a71a7-5fbd-4a99-860c-de1bfccd63ea","ios":"levelo://app?vid=582a71a7-5fbd-4a99-860c-de1bfccd63ea"},"vehicle_type_id":"4","last_reported":1718122196,"current_range_meters":24400,"station_id":"ce4bgkp2rcd13ifvqbmg","pricing_plan_id":"cebpf4jnsgd1na2vs0mg"},{"bike_id":"3387d2a8-07d9-41b9-8607-d836a12346ed","system_id":"levelo_inurba_marseille","lat":43.299707,"lon":5.384859,"is_reserved":false,"is_disabled":false,"rental_uris":{"android":"levelo://app?vid=3387d2a8-07d9-41b9-8607-d836a12346ed","ios":"levelo://app?vid=3387d2a8-07d9-41b9-8607-d836a12346ed"},"vehicle_type_id":"4","last_reported":1718122196,"current_range_meters":20400,"station_id":"ce4bgj92rcd13ifvqbd0","pricing_plan_id":"cebpf4jnsgd1na2vs0mg"},{"bike_id":"3b17fb9d-700b-4661-b526-2bcb49c1cc5c","system_id":"levelo_inurba_marseille","lat":43.299707,"lon":5.384859,"is_reserved":false,"is_disabled":false,"rental_uris":{"android":"levelo://app?vid=3b17fb9d-700b-4661-b526-2bcb49c1cc5c","ios":"levelo://app?vid=3b17fb9d-700b-4661-b526-2bcb49c1cc5c"},"vehicle_type_id":"4","last_reported":1718122196,"current_range_meters":0,"station_id":"ce4bgj92rcd13ifvqbd0","pricing_plan_id":"cebpf4jnsgd1na2vs0mg"},{"bike_id":"90f97068-9c82-4a0c-a237-26a2808d2e09","system_id":"levelo_inurba_marseille","lat":43.295279,"lon":5.375048,"is_reserved":false,"is_disabled":false,"rental_uris":{"android":"levelo://app?vid=90f97068-9c82-4a0c-a237-26a2808d2e09","ios":"levelo://app?vid=90f97068-9c82-4a0c-a237-26a2808d2e09"},"vehicle_type_id":"4","last_reported":1718122196,"current_range_meters":28800,"station_id":"ce4bgkp2rcd13ifvqbmg","pricing_plan_id":"cebpf4jnsgd1na2vs0mg"},{"bike_id":"72ec091e-1322-4383-a9c7-de6b273e0286","system_id":"levelo_inurba_marseille","lat":43.299717,"lon":5.384845,"is_reserved":false,"is_disabled":false,"rental_uris":{"android":"levelo://app?vid=72ec091e-1322-4383-a9c7-de6b273e0286","ios":"levelo://app?vid=72ec091e-1322-4383-a9c7-de6b273e0286"},"vehicle_type_id":"4","last_reported":1718122196,"current_range_meters":11600,"station_id":"ce4bgj92rcd13ifvqbd0","pricing_plan_id":"cebpf4jnsgd1na2vs0mg"},{"bike_id":"48653dfd-37a6-4294-805d-dfd15257ee3a","system_id":"levelo_inurba_marseille","lat":43.32367,"lon":5.388836,"is_reserved":false,"is_disabled":false,"rental_uris":{"android":"levelo://app?vid=48653dfd-37a6-4294-805d-dfd15257ee3a","ios":"levelo://app?vid=48653dfd-37a6-4294-805d-dfd15257ee3a"},"vehicle_type_id":"4","last_reported":1718122196,"current_range_meters":9600,"station_id":"ce4bhqp2rcd13ifvqhog","pricing_plan_id":"cebpf4jnsgd1na2vs0mg"},{"bike_id":"c2c0960a-afc6-4200-8c26-82d95891f8eb","system_id":"levelo_inurba_marseille","lat":43.32367,"lon":5.388836,"is_reserved":false,"is_disabled":false,"rental_uris":{"android":"levelo://app?vid=c2c0960a-afc6-4200-8c26-82d95891f8eb","ios":"levelo://app?vid=c2c0960a-afc6-4200-8c26-82d95891f8eb"},"vehicle_type_id":"4","last_reported":1718122196,"current_range_meters":5200,"station_id":"ce4bhqp2rcd13ifvqhog","pricing_plan_id":"cebpf4jnsgd1na2vs0mg"},{"bike_id":"7a36b725-f84a-4846-8be6-d9264e618ee4","system_id":"levelo_inurba_marseille","lat":43.296021,"lon":5.380976,"is_reserved":false,"is_disabled":false,"rental_uris":{"android":"levelo://app?vid=7a36b725-f84a-4846-8be6-d9264e618ee4","ios":"levelo://app?vid=7a36b725-f84a-4846-8be6-d9264e618ee4"},"vehicle_type_id":"4","last_reported":1718122196,"current_range_meters":20000,"station_id":"ce4bhnp2rcd13ifvqgvg","pricing_plan_id":"cebpf4jnsgd1na2vs0mg"},{"bike_id":"09da7c54-1bf3-4d45-b103-ae4619f58384","system_id":"levelo_inurba_marseille","lat":43.29602,"lon":5.381084,"is_reserved":false,"is_disabled":false,"rental_uris":{"android":"levelo://app?vid=09da7c54-1bf3-4d45-b103-ae4619f58384","ios":"levelo://app?vid=09da7c54-1bf3-4d45-b103-ae4619f58384"},"vehicle_type_id":"4","last_reported":1718122196,"current_range_meters":10000,"station_id":"ce4bgl12rcd13ifvqbo0","pricing_plan_id":"cebpf4jnsgd1na2vs0mg"},{"bike_id":"091d0760-44da-4d52-91d5-c81ebd757699","system_id":"levelo_inurba_marseille","lat":43.289184,"lon":5.366408,"is_reserved":false,"is_disabled":false,"rental_uris":{"android":"levelo://app?vid=091d0760-44da-4d52-91d5-c81ebd757699","ios":"levelo://app?vid=091d0760-44da-4d52-91d5-c81ebd757699"},"vehicle_type_id":"4","last_reported":1718122196,"current_range_meters":8400,"station_id":"ce4bhap2rcd13ifvqek0","pricing_plan_id":"cebpf4jnsgd1na2vs0mg"},{"bike_id":"a2d0eeff-c261-4327-a456-6154253a96c5","system_id":"levelo_inurba_marseille","lat":43.292749,"lon":5.368402,"is_reserved":false,"is_disabled":false,"rental_uris":{"android":"levelo://app?vid=a2d0eeff-c261-4327-a456-6154253a96c5","ios":"levelo://app?vid=a2d0eeff-c261-4327-a456-6154253a96c5"},"vehicle_type_id":"4","last_reported":1718122196,"current_range_meters":6400,"station_id":"ce4bhbp2rcd13ifvqesg","pricing_plan_id":"cebpf4jnsgd1na2vs0mg"},{"bike_id":"767e6086-4993-4fc1-90c2-69563b24cb86","system_id":"levelo_inurba_marseille","lat":43.292749,"lon":5.368402,"is_reserved":false,"is_disabled":false,"rental_uris":{"android":"levelo://app?vid=767e6086-4993-4fc1-90c2-69563b24cb86","ios":"levelo://app?vid=767e6086-4993-4fc1-90c2-69563b24cb86"},"vehicle_type_id":"4","last_reported":1718122196,"current_range_meters":12000,"station_id":"ce4bhbp2rcd13ifvqesg","pricing_plan_id":"cebpf4jnsgd1na2vs0mg"},{"bike_id":"c0d697f1-c0db-46b9-b196-8fd3839be564","system_id":"levelo_inurba_marseille","lat":43.292749,"lon":5.368402,"is_reserved":false,"is_disabled":false,"rental_uris":{"android":"levelo://app?vid=c0d697f1-c0db-46b9-b196-8fd3839be564","ios":"levelo://app?vid=c0d697f1-c0db-46b9-b196-8fd3839be564"},"vehicle_type_id":"4","last_reported":1718122196,"current_range_meters":24400,"station_id":"ce4bhbp2rcd13ifvqesg","pricing_plan_id":"cebpf4jnsgd1na2vs0mg"},{"bike_id":"13dd31dd-83fe-4d7a-b7d8-98313f40f69c","system_id":"levelo_inurba_marseille","lat":43.29275,"lon":5.36841,"is_reserved":false,"is_disabled":false,"rental_uris":{"android":"levelo://app?vid=13dd31dd-83fe-4d7a-b7d8-98313f40f69c","ios":"levelo://app?vid=13dd31dd-83fe-4d7a-b7d8-98313f40f69c"},"vehicle_type_id":"4","last_reported":1718122196,"current_range_meters":0,"station_id":"ce4bhbp2rcd13ifvqesg","pricing_plan_id":"cebpf4jnsgd1na2vs0mg"},{"bike_id":"683340a4-a613-4f75-ac59-1f431ee874b4","system_id":"levelo_inurba_marseille","lat":43.292749,"lon":5.368402,"is_reserved":false,"is_disabled":false,"rental_uris":{"android":"levelo://app?vid=683340a4-a613-4f75-ac59-1f431ee874b4","ios":"levelo://app?vid=683340a4-a613-4f75-ac59-1f431ee874b4"},"vehicle_type_id":"4","last_reported":1718122196,"current_range_meters":4400,"station_id":"ce4bhbp2rcd13ifvqesg","pricing_plan_id":"cebpf4jnsgd1na2vs0mg"},{"bike_id":"a69d3b4f-f5ad-4fe1-adeb-aa7d97f39eb0","system_id":"levelo_inurba_marseille","lat":43.292749,"lon":5.368402,"is_reserved":false,"is_disabled":false,"rental_uris":{"android":"levelo://app?vid=a69d3b4f-f5ad-4fe1-adeb-aa7d97f39eb0","ios":"levelo://app?vid=a69d3b4f-f5ad-4fe1-adeb-aa7d97f39eb0"},"vehicle_type_id":"4","last_reported":1718122196,"current_range_meters":11200,"station_id":"ce4bhbp2rcd13ifvqesg","pricing_plan_id":"cebpf4jnsgd1na2vs0mg"},{"bike_id":"c6850ef3-2749-4e6f-9468-c5941832d926","system_id":"levelo_inurba_marseille","lat":43.293009,"lon":5.374584,"is_reserved":false,"is_disabled":false,"rental_uris":{"android":"levelo://app?vid=c6850ef3-2749-4e6f-9468-c5941832d926","ios":"levelo://app?vid=c6850ef3-2749-4e6f-9468-c5941832d926"},"vehicle_type_id":"4","last_reported":1718122196,"current_range_meters":24000,"station_id":"ce4bgi12rcd13ifvqb70","pricing_plan_id":"cebpf4jnsgd1na2vs0mg"},{"bike_id":"79f74f63-20c5-48fe-82f8-2dd96b7781c0","system_id":"levelo_inurba_marseille","lat":43.29375,"lon":5.37842,"is_reserved":false,"is_disabled":false,"rental_uris":{"android":"levelo://app?vid=79f74f63-20c5-48fe-82f8-2dd96b7781c0","ios":"levelo://app?vid=79f74f63-20c5-48fe-82f8-2dd96b7781c0"},"vehicle_type_id":"4","last_reported":1718122196,"current_range_meters":18800,"station_id":"","pricing_plan_id":"cebpf4jnsgd1na2vs0mg"},{"bike_id":"df3ebb97-bc02-4ff5-b51b-e00ed0332863","system_id":"levelo_inurba_marseille","lat":43.303002,"lon":5.392142,"is_reserved":false,"is_disabled":false,"rental_uris":{"android":"levelo://app?vid=df3ebb97-bc02-4ff5-b51b-e00ed0332863","ios":"levelo://app?vid=df3ebb97-bc02-4ff5-b51b-e00ed0332863"},"vehicle_type_id":"4","last_reported":1718122196,"current_range_meters":27600,"station_id":"ce4bgkh2rcd13ifvqbk0","pricing_plan_id":"cebpf4jnsgd1na2vs0mg"},{"bike_id":"ce50639c-37dd-4610-8e3f-bde72caf169a","system_id":"levelo_inurba_marseille","lat":43.29374,"lon":5.37858,"is_reserved":false,"is_disabled":false,"rental_uris":{"android":"levelo://app?vid=ce50639c-37dd-4610-8e3f-bde72caf169a","ios":"levelo://app?vid=ce50639c-37dd-4610-8e3f-bde72caf169a"},"vehicle_type_id":"4","last_reported":1718122196,"current_range_meters":0,"station_id":"ce4bgjh2rcd13ifvqbf0","pricing_plan_id":"cebpf4jnsgd1na2vs0mg"},{"bike_id":"7bf4d03b-28e6-4271-b96c-97cfa8054f70","system_id":"levelo_inurba_marseille","lat":43.302992,"lon":5.392136,"is_reserved":false,"is_disabled":false,"rental_uris":{"android":"levelo://app?vid=7bf4d03b-28e6-4271-b96c-97cfa8054f70","ios":"levelo://app?vid=7bf4d03b-28e6-4271-b96c-97cfa8054f70"},"vehicle_type_id":"4","last_reported":1718122196,"current_range_meters":25200,"station_id":"ce4bgkh2rcd13ifvqbk0","pricing_plan_id":"cebpf4jnsgd1na2vs0mg"},{"bike_id":"e36d59cc-ffd6-470d-8e89-e02d6227664b","system_id":"levelo_inurba_marseille","lat":43.30085,"lon":5.390856,"is_reserved":false,"is_disabled":false,"rental_uris":{"android":"levelo://app?vid=e36d59cc-ffd6-470d-8e89-e02d6227664b","ios":"levelo://app?vid=e36d59cc-ffd6-470d-8e89-e02d6227664b"},"vehicle_type_id":"4","last_reported":1718122196,"current_range_meters":0,"station_id":"ce4bh192rcd13ifvqdb0","pricing_plan_id":"cebpf4jnsgd1na2vs0mg"},{"bike_id":"42ee7dbb-eb8e-4a26-b871-0c298ccae69e","system_id":"levelo_inurba_marseille","lat":43.30085,"lon":5.390856,"is_reserved":false,"is_disabled":false,"rental_uris":{"android":"levelo://app?vid=42ee7dbb-eb8e-4a26-b871-0c298ccae69e","ios":"levelo://app?vid=42ee7dbb-eb8e-4a26-b871-0c298ccae69e"},"vehicle_type_id":"4","last_reported":1718122196,"current_range_meters":8000,"station_id":"ce4bh192rcd13ifvqdb0","pricing_plan_id":"cebpf4jnsgd1na2vs0mg"},{"bike_id":"1eb08deb-3e8e-49b4-931b-17f8610089ca","system_id":"levelo_inurba_marseille","lat":43.30085,"lon":5.390856,"is_reserved":false,"is_disabled":false,"rental_uris":{"android":"levelo://app?vid=1eb08deb-3e8e-49b4-931b-17f8610089ca","ios":"levelo://app?vid=1eb08deb-3e8e-49b4-931b-17f8610089ca"},"vehicle_type_id":"4","last_reported":1718122196,"current_range_meters":21600,"station_id":"ce4bh192rcd13ifvqdb0","pricing_plan_id":"cebpf4jnsgd1na2vs0mg"},{"bike_id":"e8b6b0f7-72ba-4271-a6d8-852f30791bf6","system_id":"levelo_inurba_marseille","lat":43.30085,"lon":5.39073,"is_reserved":false,"is_disabled":false,"rental_uris":{"android":"levelo://app?vid=e8b6b0f7-72ba-4271-a6d8-852f30791bf6","ios":"levelo://app?vid=e8b6b0f7-72ba-4271-a6d8-852f30791bf6"},"vehicle_type_id":"4","last_reported":1718122196,"current_range_meters":4800,"station_id":"ce4bh192rcd13ifvqdb0","pricing_plan_id":"cebpf4jnsgd1na2vs0mg"},{"bike_id":"255b401a-4026-4cb4-83df-cc4e80e798e3","system_id":"levelo_inurba_marseille","lat":43.30085,"lon":5.390856,"is_reserved":false,"is_disabled":false,"rental_uris":{"android":"levelo://app?vid=255b401a-4026-4cb4-83df-cc4e80e798e3","ios":"levelo://app?vid=255b401a-4026-4cb4-83df-cc4e80e798e3"},"vehicle_type_id":"4","last_reported":1718122196,"current_range_meters":28400,"station_id":"ce4bh192rcd13ifvqdb0","pricing_plan_id":"cebpf4jnsgd1na2vs0mg"},{"bike_id":"cb5f5951-ff26-46bc-a303-b99f37061cc2","system_id":"levelo_inurba_marseille","lat":43.298764,"lon":5.388973,"is_reserved":false,"is_disabled":false,"rental_uris":{"android":"levelo://app?vid=cb5f5951-ff26-46bc-a303-b99f37061cc2","ios":"levelo://app?vid=cb5f5951-ff26-46bc-a303-b99f37061cc2"},"vehicle_type_id":"4","last_reported":1718122196,"current_range_meters":20800,"station_id":"ce4bh392rcd13ifvqdl0","pricing_plan_id":"cebpf4jnsgd1na2vs0mg"},{"bike_id":"c1ef7321-5b7f-4a73-b600-728db3896e43","system_id":"levelo_inurba_marseille","lat":43.302008,"lon":5.394694,"is_reserved":false,"is_disabled":false,"rental_uris":{"android":"levelo://app?vid=c1ef7321-5b7f-4a73-b600-728db3896e43","ios":"levelo://app?vid=c1ef7321-5b7f-4a73-b600-728db3896e43"},"vehicle_type_id":"4","last_reported":1718122196,"current_range_meters":17200,"station_id":"ce4bh0p2rcd13ifvqd70","pricing_plan_id":"cebpf4jnsgd1na2vs0mg"},{"bike_id":"23cb8e90-b3c4-421b-8cba-a7ccb293fe0c","system_id":"levelo_inurba_marseille","lat":43.298764,"lon":5.388973,"is_reserved":false,"is_disabled":false,"rental_uris":{"android":"levelo://app?vid=23cb8e90-b3c4-421b-8cba-a7ccb293fe0c","ios":"levelo://app?vid=23cb8e90-b3c4-421b-8cba-a7ccb293fe0c"},"vehicle_type_id":"4","last_reported":1718122196,"current_range_meters":11200,"station_id":"ce4bh392rcd13ifvqdl0","pricing_plan_id":"cebpf4jnsgd1na2vs0mg"},{"bike_id":"e13d3e82-4f7b-401e-9db4-67f3e5ef8df1","system_id":"levelo_inurba_marseille","lat":43.298764,"lon":5.388973,"is_reserved":false,"is_disabled":false,"rental_uris":{"android":"levelo://app?vid=e13d3e82-4f7b-401e-9db4-67f3e5ef8df1","ios":"levelo://app?vid=e13d3e82-4f7b-401e-9db4-67f3e5ef8df1"},"vehicle_type_id":"4","last_reported":1718122196,"current_range_meters":18400,"station_id":"ce4bh392rcd13ifvqdl0","pricing_plan_id":"cebpf4jnsgd1na2vs0mg"},{"bike_id":"0773c74e-807d-42e6-8fe4-c72d22c9f116","system_id":"levelo_inurba_marseille","lat":43.298764,"lon":5.388973,"is_reserved":false,"is_disabled":false,"rental_uris":{"android":"levelo://app?vid=0773c74e-807d-42e6-8fe4-c72d22c9f116","ios":"levelo://app?vid=0773c74e-807d-42e6-8fe4-c72d22c9f116"},"vehicle_type_id":"4","last_reported":1718122196,"current_range_meters":24800,"station_id":"ce4bh392rcd13ifvqdl0","pricing_plan_id":"cebpf4jnsgd1na2vs0mg"},{"bike_id":"15bf06f0-97af-4484-97dc-d3571218787d","system_id":"levelo_inurba_marseille","lat":43.298764,"lon":5.388973,"is_reserved":false,"is_disabled":false,"rental_uris":{"android":"levelo://app?vid=15bf06f0-97af-4484-97dc-d3571218787d","ios":"levelo://app?vid=15bf06f0-97af-4484-97dc-d3571218787d"},"vehicle_type_id":"4","last_reported":1718122196,"current_range_meters":23600,"station_id":"ce4bh392rcd13ifvqdl0","pricing_plan_id":"cebpf4jnsgd1na2vs0mg"},{"bike_id":"0a135c6f-82d0-457d-9c46-af7a74253ec0","system_id":"levelo_inurba_marseille","lat":43.29136,"lon":5.370107,"is_reserved":false,"is_disabled":false,"rental_uris":{"android":"levelo://app?vid=0a135c6f-82d0-457d-9c46-af7a74253ec0","ios":"levelo://app?vid=0a135c6f-82d0-457d-9c46-af7a74253ec0"},"vehicle_type_id":"4","last_reported":1718122196,"current_range_meters":22400,"station_id":"","pricing_plan_id":"cebpf4jnsgd1na2vs0mg"},{"bike_id":"62a870d9-5972-4aa6-aa25-43ed7237586f","system_id":"levelo_inurba_marseille","lat":43.292005,"lon":5.357875,"is_reserved":false,"is_disabled":false,"rental_uris":{"android":"levelo://app?vid=62a870d9-5972-4aa6-aa25-43ed7237586f","ios":"levelo://app?vid=62a870d9-5972-4aa6-aa25-43ed7237586f"},"vehicle_type_id":"4","last_reported":1718122196,"current_range_meters":12000,"station_id":"ce4bhb12rcd13ifvqel0","pricing_plan_id":"cebpf4jnsgd1na2vs0mg"},{"bike_id":"0c64034f-7cdf-4d31-9f8b-533a9667ee12","system_id":"levelo_inurba_marseille","lat":43.313291,"lon":5.396838,"is_reserved":false,"is_disabled":false,"rental_uris":{"android":"levelo://app?vid=0c64034f-7cdf-4d31-9f8b-533a9667ee12","ios":"levelo://app?vid=0c64034f-7cdf-4d31-9f8b-533a9667ee12"},"vehicle_type_id":"4","last_reported":1718122196,"current_range_meters":11200,"station_id":"ce4bgvp2rcd13ifvqcu0","pricing_plan_id":"cebpf4jnsgd1na2vs0mg"},{"bike_id":"6d9a8fea-1c6d-4331-a984-7bb3d97f02c1","system_id":"levelo_inurba_marseille","lat":43.313291,"lon":5.396838,"is_reserved":false,"is_disabled":false,"rental_uris":{"android":"levelo://app?vid=6d9a8fea-1c6d-4331-a984-7bb3d97f02c1","ios":"levelo://app?vid=6d9a8fea-1c6d-4331-a984-7bb3d97f02c1"},"vehicle_type_id":"4","last_reported":1718122196,"current_range_meters":26800,"station_id":"ce4bgvp2rcd13ifvqcu0","pricing_plan_id":"cebpf4jnsgd1na2vs0mg"},{"bike_id":"58912c00-1f3c-4b0d-90cd-9be0503ba43f","system_id":"levelo_inurba_marseille","lat":43.291896,"lon":5.357959,"is_reserved":false,"is_disabled":false,"rental_uris":{"android":"levelo://app?vid=58912c00-1f3c-4b0d-90cd-9be0503ba43f","ios":"levelo://app?vid=58912c00-1f3c-4b0d-90cd-9be0503ba43f"},"vehicle_type_id":"4","last_reported":1718122196,"current_range_meters":10800,"station_id":"","pricing_plan_id":"cebpf4jnsgd1na2vs0mg"},{"bike_id":"29cbd84a-e705-4e0c-a26a-f359b8fd84ac","system_id":"levelo_inurba_marseille","lat":43.31333,"lon":5.39695,"is_reserved":false,"is_disabled":false,"rental_uris":{"android":"levelo://app?vid=29cbd84a-e705-4e0c-a26a-f359b8fd84ac","ios":"levelo://app?vid=29cbd84a-e705-4e0c-a26a-f359b8fd84ac"},"vehicle_type_id":"4","last_reported":1718122196,"current_range_meters":0,"station_id":"ce4bgvp2rcd13ifvqcu0","pricing_plan_id":"cebpf4jnsgd1na2vs0mg"},{"bike_id":"17850e14-373b-4d7d-95ec-75d7a4ab8a2f","system_id":"levelo_inurba_marseille","lat":43.309047,"lon":5.396551,"is_reserved":false,"is_disabled":false,"rental_uris":{"android":"levelo://app?vid=17850e14-373b-4d7d-95ec-75d7a4ab8a2f","ios":"levelo://app?vid=17850e14-373b-4d7d-95ec-75d7a4ab8a2f"},"vehicle_type_id":"4","last_reported":1718122196,"current_range_meters":0,"station_id":"ce4bh012rcd13ifvqcv0","pricing_plan_id":"cebpf4jnsgd1na2vs0mg"},{"bike_id":"8ee8693b-9761-4414-bd75-68b1a801d806","system_id":"levelo_inurba_marseille","lat":43.309047,"lon":5.396551,"is_reserved":false,"is_disabled":false,"rental_uris":{"android":"levelo://app?vid=8ee8693b-9761-4414-bd75-68b1a801d806","ios":"levelo://app?vid=8ee8693b-9761-4414-bd75-68b1a801d806"},"vehicle_type_id":"4","last_reported":1718122196,"current_range_meters":14400,"station_id":"ce4bh012rcd13ifvqcv0","pricing_plan_id":"cebpf4jnsgd1na2vs0mg"},{"bike_id":"e54e04be-c71f-465f-8371-83337a3622b1","system_id":"levelo_inurba_marseille","lat":43.309047,"lon":5.396551,"is_reserved":false,"is_disabled":false,"rental_uris":{"android":"levelo://app?vid=e54e04be-c71f-465f-8371-83337a3622b1","ios":"levelo://app?vid=e54e04be-c71f-465f-8371-83337a3622b1"},"vehicle_type_id":"4","last_reported":1718122196,"current_range_meters":3600,"station_id":"ce4bh012rcd13ifvqcv0","pricing_plan_id":"cebpf4jnsgd1na2vs0mg"},{"bike_id":"f8d7431f-73e4-4474-aac1-1233a97448fb","system_id":"levelo_inurba_marseille","lat":43.313283,"lon":5.39705,"is_reserved":false,"is_disabled":false,"rental_uris":{"android":"levelo://app?vid=f8d7431f-73e4-4474-aac1-1233a97448fb","ios":"levelo://app?vid=f8d7431f-73e4-4474-aac1-1233a97448fb"},"vehicle_type_id":"4","last_reported":1718122196,"current_range_meters":0,"station_id":"ce4bgvp2rcd13ifvqcu0","pricing_plan_id":"cebpf4jnsgd1na2vs0mg"},{"bike_id":"ec9fe19d-46d5-4d45-b569-96437bd6ce7f","system_id":"levelo_inurba_marseille","lat":43.295274,"lon":5.385177,"is_reserved":false,"is_disabled":false,"rental_uris":{"android":"levelo://app?vid=ec9fe19d-46d5-4d45-b569-96437bd6ce7f","ios":"levelo://app?vid=ec9fe19d-46d5-4d45-b569-96437bd6ce7f"},"vehicle_type_id":"4","last_reported":1718122196,"current_range_meters":0,"station_id":"ce4bgih2rcd13ifvqba0","pricing_plan_id":"cebpf4jnsgd1na2vs0mg"},{"bike_id":"e6a3c619-7687-4d59-95c8-1193a3b86d19","system_id":"levelo_inurba_marseille","lat":43.29529,"lon":5.385581,"is_reserved":false,"is_disabled":false,"rental_uris":{"android":"levelo://app?vid=e6a3c619-7687-4d59-95c8-1193a3b86d19","ios":"levelo://app?vid=e6a3c619-7687-4d59-95c8-1193a3b86d19"},"vehicle_type_id":"4","last_reported":1718122196,"current_range_meters":3600,"station_id":"ce4bgih2rcd13ifvqba0","pricing_plan_id":"cebpf4jnsgd1na2vs0mg"},{"bike_id":"06559f23-57e6-4ec0-9c51-9d30a3ec2c18","system_id":"levelo_inurba_marseille","lat":43.29529,"lon":5.385581,"is_reserved":false,"is_disabled":false,"rental_uris":{"android":"levelo://app?vid=06559f23-57e6-4ec0-9c51-9d30a3ec2c18","ios":"levelo://app?vid=06559f23-57e6-4ec0-9c51-9d30a3ec2c18"},"vehicle_type_id":"4","last_reported":1718122196,"current_range_meters":5600,"station_id":"ce4bgih2rcd13ifvqba0","pricing_plan_id":"cebpf4jnsgd1na2vs0mg"},{"bike_id":"8b33167d-d4d8-4fc2-b649-23bb26bee99c","system_id":"levelo_inurba_marseille","lat":43.290647,"lon":5.371543,"is_reserved":false,"is_disabled":false,"rental_uris":{"android":"levelo://app?vid=8b33167d-d4d8-4fc2-b649-23bb26bee99c","ios":"levelo://app?vid=8b33167d-d4d8-4fc2-b649-23bb26bee99c"},"vehicle_type_id":"4","last_reported":1718122196,"current_range_meters":4000,"station_id":"ce4bh5p2rcd13ifvqe4g","pricing_plan_id":"cebpf4jnsgd1na2vs0mg"},{"bike_id":"3a9845e2-7a59-44f9-9d64-4136470714b7","system_id":"levelo_inurba_marseille","lat":43.298764,"lon":5.388973,"is_reserved":false,"is_disabled":false,"rental_uris":{"android":"levelo://app?vid=3a9845e2-7a59-44f9-9d64-4136470714b7","ios":"levelo://app?vid=3a9845e2-7a59-44f9-9d64-4136470714b7"},"vehicle_type_id":"4","last_reported":1718122196,"current_range_meters":7200,"station_id":"ce4bh392rcd13ifvqdl0","pricing_plan_id":"cebpf4jnsgd1na2vs0mg"},{"bike_id":"3aed47ff-14d3-4815-ac8b-87f45596d43f","system_id":"levelo_inurba_marseille","lat":43.290624,"lon":5.359245,"is_reserved":false,"is_disabled":false,"rental_uris":{"android":"levelo://app?vid=3aed47ff-14d3-4815-ac8b-87f45596d43f","ios":"levelo://app?vid=3aed47ff-14d3-4815-ac8b-87f45596d43f"},"vehicle_type_id":"4","last_reported":1718122196,"current_range_meters":24400,"station_id":"ce4bha92rcd13ifvqeg0","pricing_plan_id":"cebpf4jnsgd1na2vs0mg"},{"bike_id":"73045e1d-8071-4b34-963e-f5d21dbf2206","system_id":"levelo_inurba_marseille","lat":43.302008,"lon":5.394694,"is_reserved":false,"is_disabled":false,"rental_uris":{"android":"levelo://app?vid=73045e1d-8071-4b34-963e-f5d21dbf2206","ios":"levelo://app?vid=73045e1d-8071-4b34-963e-f5d21dbf2206"},"vehicle_type_id":"4","last_reported":1718122196,"current_range_meters":1600,"station_id":"ce4bh0p2rcd13ifvqd70","pricing_plan_id":"cebpf4jnsgd1na2vs0mg"},{"bike_id":"d5fcbedf-4b1f-4a2d-9c7c-1b44403bc873","system_id":"levelo_inurba_marseille","lat":43.302008,"lon":5.394694,"is_reserved":false,"is_disabled":false,"rental_uris":{"android":"levelo://app?vid=d5fcbedf-4b1f-4a2d-9c7c-1b44403bc873","ios":"levelo://app?vid=d5fcbedf-4b1f-4a2d-9c7c-1b44403bc873"},"vehicle_type_id":"4","last_reported":1718122196,"current_range_meters":13200,"station_id":"ce4bh0p2rcd13ifvqd70","pricing_plan_id":"cebpf4jnsgd1na2vs0mg"},{"bike_id":"25137381-ca98-45f9-b428-5f3de5e830d4","system_id":"levelo_inurba_marseille","lat":43.302008,"lon":5.394694,"is_reserved":false,"is_disabled":false,"rental_uris":{"android":"levelo://app?vid=25137381-ca98-45f9-b428-5f3de5e830d4","ios":"levelo://app?vid=25137381-ca98-45f9-b428-5f3de5e830d4"},"vehicle_type_id":"4","last_reported":1718122196,"current_range_meters":4800,"station_id":"ce4bh0p2rcd13ifvqd70","pricing_plan_id":"cebpf4jnsgd1na2vs0mg"},{"bike_id":"88deb229-a729-43f2-b8ec-7ca87ea57b98","system_id":"levelo_inurba_marseille","lat":43.302008,"lon":5.394694,"is_reserved":false,"is_disabled":false,"rental_uris":{"android":"levelo://app?vid=88deb229-a729-43f2-b8ec-7ca87ea57b98","ios":"levelo://app?vid=88deb229-a729-43f2-b8ec-7ca87ea57b98"},"vehicle_type_id":"4","last_reported":1718122196,"current_range_meters":10800,"station_id":"ce4bh0p2rcd13ifvqd70","pricing_plan_id":"cebpf4jnsgd1na2vs0mg"},{"bike_id":"50026da0-67dd-4fef-80a6-93ee47a5c00b","system_id":"levelo_inurba_marseille","lat":43.302338,"lon":5.395201,"is_reserved":false,"is_disabled":false,"rental_uris":{"android":"levelo://app?vid=50026da0-67dd-4fef-80a6-93ee47a5c00b","ios":"levelo://app?vid=50026da0-67dd-4fef-80a6-93ee47a5c00b"},"vehicle_type_id":"4","last_reported":1718122196,"current_range_meters":4800,"station_id":"ce4bh0p2rcd13ifvqd70","pricing_plan_id":"cebpf4jnsgd1na2vs0mg"},{"bike_id":"92b4bb9c-9e22-4600-80f3-6171568b4ed1","system_id":"levelo_inurba_marseille","lat":43.294372,"lon":5.386308,"is_reserved":false,"is_disabled":false,"rental_uris":{"android":"levelo://app?vid=92b4bb9c-9e22-4600-80f3-6171568b4ed1","ios":"levelo://app?vid=92b4bb9c-9e22-4600-80f3-6171568b4ed1"},"vehicle_type_id":"4","last_reported":1718122196,"current_range_meters":0,"station_id":"ce4bh2h2rcd13ifvqdh0","pricing_plan_id":"cebpf4jnsgd1na2vs0mg"},{"bike_id":"6e4131e6-12ff-48e4-9bf0-a3528cadd54a","system_id":"levelo_inurba_marseille","lat":43.294153,"lon":5.386305,"is_reserved":false,"is_disabled":false,"rental_uris":{"android":"levelo://app?vid=6e4131e6-12ff-48e4-9bf0-a3528cadd54a","ios":"levelo://app?vid=6e4131e6-12ff-48e4-9bf0-a3528cadd54a"},"vehicle_type_id":"4","last_reported":1718122196,"current_range_meters":18000,"station_id":"ce4bh2h2rcd13ifvqdh0","pricing_plan_id":"cebpf4jnsgd1na2vs0mg"},{"bike_id":"d4eb6554-ddb0-4753-b8f7-8c47c6fd5ce4","system_id":"levelo_inurba_marseille","lat":43.294153,"lon":5.386305,"is_reserved":false,"is_disabled":false,"rental_uris":{"android":"levelo://app?vid=d4eb6554-ddb0-4753-b8f7-8c47c6fd5ce4","ios":"levelo://app?vid=d4eb6554-ddb0-4753-b8f7-8c47c6fd5ce4"},"vehicle_type_id":"4","last_reported":1718122196,"current_range_meters":0,"station_id":"ce4bh2h2rcd13ifvqdh0","pricing_plan_id":"cebpf4jnsgd1na2vs0mg"},{"bike_id":"cc2c371f-2fc3-4a10-bcc2-37c8d3aecf7a","system_id":"levelo_inurba_marseille","lat":43.290327,"lon":5.375711,"is_reserved":false,"is_disabled":false,"rental_uris":{"android":"levelo://app?vid=cc2c371f-2fc3-4a10-bcc2-37c8d3aecf7a","ios":"levelo://app?vid=cc2c371f-2fc3-4a10-bcc2-37c8d3aecf7a"},"vehicle_type_id":"4","last_reported":1718122196,"current_range_meters":9200,"station_id":"ce4bh692rcd13ifvqe90","pricing_plan_id":"cebpf4jnsgd1na2vs0mg"},{"bike_id":"943439fb-c4a2-4af6-bfc3-3d1889955048","system_id":"levelo_inurba_marseille","lat":43.29423,"lon":5.38621,"is_reserved":false,"is_disabled":false,"rental_uris":{"android":"levelo://app?vid=943439fb-c4a2-4af6-bfc3-3d1889955048","ios":"levelo://app?vid=943439fb-c4a2-4af6-bfc3-3d1889955048"},"vehicle_type_id":"4","last_reported":1718122196,"current_range_meters":800,"station_id":"ce4bh2h2rcd13ifvqdh0","pricing_plan_id":"cebpf4jnsgd1na2vs0mg"},{"bike_id":"a466200f-bcac-4ebf-be5f-0774bc1081c0","system_id":"levelo_inurba_marseille","lat":43.294206,"lon":5.386242,"is_reserved":false,"is_disabled":false,"rental_uris":{"android":"levelo://app?vid=a466200f-bcac-4ebf-be5f-0774bc1081c0","ios":"levelo://app?vid=a466200f-bcac-4ebf-be5f-0774bc1081c0"},"vehicle_type_id":"4","last_reported":1718122196,"current_range_meters":18800,"station_id":"ce4bh2h2rcd13ifvqdh0","pricing_plan_id":"cebpf4jnsgd1na2vs0mg"},{"bike_id":"7e53c9ea-116d-442c-96a2-cc0bbb6a011c","system_id":"levelo_inurba_marseille","lat":43.294686,"lon":5.387085,"is_reserved":false,"is_disabled":false,"rental_uris":{"android":"levelo://app?vid=7e53c9ea-116d-442c-96a2-cc0bbb6a011c","ios":"levelo://app?vid=7e53c9ea-116d-442c-96a2-cc0bbb6a011c"},"vehicle_type_id":"4","last_reported":1718122196,"current_range_meters":0,"station_id":"ce4bh2h2rcd13ifvqdh0","pricing_plan_id":"cebpf4jnsgd1na2vs0mg"},{"bike_id":"050dcabf-0bbe-4bfc-a9c1-29b17aad31e0","system_id":"levelo_inurba_marseille","lat":43.294162,"lon":5.386292,"is_reserved":false,"is_disabled":false,"rental_uris":{"android":"levelo://app?vid=050dcabf-0bbe-4bfc-a9c1-29b17aad31e0","ios":"levelo://app?vid=050dcabf-0bbe-4bfc-a9c1-29b17aad31e0"},"vehicle_type_id":"4","last_reported":1718122196,"current_range_meters":10400,"station_id":"ce4bh2h2rcd13ifvqdh0","pricing_plan_id":"cebpf4jnsgd1na2vs0mg"},{"bike_id":"6b175120-01b8-4ef7-bed2-911074e890fe","system_id":"levelo_inurba_marseille","lat":43.29418,"lon":5.38621,"is_reserved":false,"is_disabled":false,"rental_uris":{"android":"levelo://app?vid=6b175120-01b8-4ef7-bed2-911074e890fe","ios":"levelo://app?vid=6b175120-01b8-4ef7-bed2-911074e890fe"},"vehicle_type_id":"4","last_reported":1718122196,"current_range_meters":20000,"station_id":"ce4bh2h2rcd13ifvqdh0","pricing_plan_id":"cebpf4jnsgd1na2vs0mg"},{"bike_id":"3e3948ba-7f53-45bb-9dab-9f301283ce2f","system_id":"levelo_inurba_marseille","lat":43.28947,"lon":5.3664,"is_reserved":false,"is_disabled":false,"rental_uris":{"android":"levelo://app?vid=3e3948ba-7f53-45bb-9dab-9f301283ce2f","ios":"levelo://app?vid=3e3948ba-7f53-45bb-9dab-9f301283ce2f"},"vehicle_type_id":"4","last_reported":1718122196,"current_range_meters":0,"station_id":"ce4bhap2rcd13ifvqek0","pricing_plan_id":"cebpf4jnsgd1na2vs0mg"},{"bike_id":"234aa0cc-c0ad-435d-b26b-a5ac0aa963b0","system_id":"levelo_inurba_marseille","lat":43.29418,"lon":5.38623,"is_reserved":false,"is_disabled":false,"rental_uris":{"android":"levelo://app?vid=234aa0cc-c0ad-435d-b26b-a5ac0aa963b0","ios":"levelo://app?vid=234aa0cc-c0ad-435d-b26b-a5ac0aa963b0"},"vehicle_type_id":"4","last_reported":1718122196,"current_range_meters":0,"station_id":"ce4bh2h2rcd13ifvqdh0","pricing_plan_id":"cebpf4jnsgd1na2vs0mg"},{"bike_id":"2e98307c-dfb7-47ca-8f63-5802e6e8dc7a","system_id":"levelo_inurba_marseille","lat":43.294189,"lon":5.386269,"is_reserved":false,"is_disabled":false,"rental_uris":{"android":"levelo://app?vid=2e98307c-dfb7-47ca-8f63-5802e6e8dc7a","ios":"levelo://app?vid=2e98307c-dfb7-47ca-8f63-5802e6e8dc7a"},"vehicle_type_id":"4","last_reported":1718122196,"current_range_meters":15600,"station_id":"ce4bh2h2rcd13ifvqdh0","pricing_plan_id":"cebpf4jnsgd1na2vs0mg"},{"bike_id":"809be7cf-22e2-4808-a26e-3be3132ab533","system_id":"levelo_inurba_marseille","lat":43.294214,"lon":5.386315,"is_reserved":false,"is_disabled":false,"rental_uris":{"android":"levelo://app?vid=809be7cf-22e2-4808-a26e-3be3132ab533","ios":"levelo://app?vid=809be7cf-22e2-4808-a26e-3be3132ab533"},"vehicle_type_id":"4","last_reported":1718122196,"current_range_meters":2000,"station_id":"ce4bh2h2rcd13ifvqdh0","pricing_plan_id":"cebpf4jnsgd1na2vs0mg"},{"bike_id":"beb7fb96-7fb4-43ba-a361-a96935058b71","system_id":"levelo_inurba_marseille","lat":43.29419,"lon":5.38629,"is_reserved":false,"is_disabled":false,"rental_uris":{"android":"levelo://app?vid=beb7fb96-7fb4-43ba-a361-a96935058b71","ios":"levelo://app?vid=beb7fb96-7fb4-43ba-a361-a96935058b71"},"vehicle_type_id":"4","last_reported":1718122196,"current_range_meters":6000,"station_id":"ce4bh2h2rcd13ifvqdh0","pricing_plan_id":"cebpf4jnsgd1na2vs0mg"},{"bike_id":"79eff8f1-f24a-41fd-8071-0e3be3ca48f0","system_id":"levelo_inurba_marseille","lat":43.294168,"lon":5.386253,"is_reserved":false,"is_disabled":false,"rental_uris":{"android":"levelo://app?vid=79eff8f1-f24a-41fd-8071-0e3be3ca48f0","ios":"levelo://app?vid=79eff8f1-f24a-41fd-8071-0e3be3ca48f0"},"vehicle_type_id":"4","last_reported":1718122196,"current_range_meters":0,"station_id":"ce4bh2h2rcd13ifvqdh0","pricing_plan_id":"cebpf4jnsgd1na2vs0mg"},{"bike_id":"5fd6853a-573d-4065-b9bb-16078fc70fd3","system_id":"levelo_inurba_marseille","lat":43.29417,"lon":5.38626,"is_reserved":false,"is_disabled":false,"rental_uris":{"android":"levelo://app?vid=5fd6853a-573d-4065-b9bb-16078fc70fd3","ios":"levelo://app?vid=5fd6853a-573d-4065-b9bb-16078fc70fd3"},"vehicle_type_id":"4","last_reported":1718122196,"current_range_meters":16400,"station_id":"ce4bh2h2rcd13ifvqdh0","pricing_plan_id":"cebpf4jnsgd1na2vs0mg"},{"bike_id":"e7ccb144-17ff-43c0-9c79-1bee46fa9bd5","system_id":"levelo_inurba_marseille","lat":43.290327,"lon":5.375711,"is_reserved":false,"is_disabled":false,"rental_uris":{"android":"levelo://app?vid=e7ccb144-17ff-43c0-9c79-1bee46fa9bd5","ios":"levelo://app?vid=e7ccb144-17ff-43c0-9c79-1bee46fa9bd5"},"vehicle_type_id":"4","last_reported":1718122196,"current_range_meters":0,"station_id":"ce4bh692rcd13ifvqe90","pricing_plan_id":"cebpf4jnsgd1na2vs0mg"},{"bike_id":"a2c54eb9-1b21-42ae-a6ba-2ad6587ddaad","system_id":"levelo_inurba_marseille","lat":43.294147,"lon":5.386278,"is_reserved":false,"is_disabled":false,"rental_uris":{"android":"levelo://app?vid=a2c54eb9-1b21-42ae-a6ba-2ad6587ddaad","ios":"levelo://app?vid=a2c54eb9-1b21-42ae-a6ba-2ad6587ddaad"},"vehicle_type_id":"4","last_reported":1718122196,"current_range_meters":26000,"station_id":"ce4bh2h2rcd13ifvqdh0","pricing_plan_id":"cebpf4jnsgd1na2vs0mg"},{"bike_id":"b708872b-709d-4e9a-b4f8-de9febbe1a5d","system_id":"levelo_inurba_marseille","lat":43.289184,"lon":5.366408,"is_reserved":false,"is_disabled":false,"rental_uris":{"android":"levelo://app?vid=b708872b-709d-4e9a-b4f8-de9febbe1a5d","ios":"levelo://app?vid=b708872b-709d-4e9a-b4f8-de9febbe1a5d"},"vehicle_type_id":"4","last_reported":1718122196,"current_range_meters":16400,"station_id":"ce4bhap2rcd13ifvqek0","pricing_plan_id":"cebpf4jnsgd1na2vs0mg"},{"bike_id":"cb385731-19fc-41e9-8c83-c1fd6299442d","system_id":"levelo_inurba_marseille","lat":43.289184,"lon":5.366408,"is_reserved":false,"is_disabled":false,"rental_uris":{"android":"levelo://app?vid=cb385731-19fc-41e9-8c83-c1fd6299442d","ios":"levelo://app?vid=cb385731-19fc-41e9-8c83-c1fd6299442d"},"vehicle_type_id":"4","last_reported":1718122196,"current_range_meters":8000,"station_id":"ce4bhap2rcd13ifvqek0","pricing_plan_id":"cebpf4jnsgd1na2vs0mg"},{"bike_id":"56f52a67-7a6d-4669-b1b8-f8d6b4c7e77f","system_id":"levelo_inurba_marseille","lat":43.289417,"lon":5.364037,"is_reserved":false,"is_disabled":false,"rental_uris":{"android":"levelo://app?vid=56f52a67-7a6d-4669-b1b8-f8d6b4c7e77f","ios":"levelo://app?vid=56f52a67-7a6d-4669-b1b8-f8d6b4c7e77f"},"vehicle_type_id":"4","last_reported":1718122196,"current_range_meters":0,"station_id":"ce4bhc92rcd13ifvqetg","pricing_plan_id":"cebpf4jnsgd1na2vs0mg"},{"bike_id":"1c74c70e-ddff-4821-808d-32835b20522b","system_id":"levelo_inurba_marseille","lat":43.29529,"lon":5.385581,"is_reserved":false,"is_disabled":false,"rental_uris":{"android":"levelo://app?vid=1c74c70e-ddff-4821-808d-32835b20522b","ios":"levelo://app?vid=1c74c70e-ddff-4821-808d-32835b20522b"},"vehicle_type_id":"4","last_reported":1718122196,"current_range_meters":21600,"station_id":"ce4bgih2rcd13ifvqba0","pricing_plan_id":"cebpf4jnsgd1na2vs0mg"},{"bike_id":"0ae082bb-9dd5-4ebd-80c8-0d39e244fd14","system_id":"levelo_inurba_marseille","lat":43.289468,"lon":5.363719,"is_reserved":false,"is_disabled":false,"rental_uris":{"android":"levelo://app?vid=0ae082bb-9dd5-4ebd-80c8-0d39e244fd14","ios":"levelo://app?vid=0ae082bb-9dd5-4ebd-80c8-0d39e244fd14"},"vehicle_type_id":"4","last_reported":1718122196,"current_range_meters":0,"station_id":"ce4bhc92rcd13ifvqetg","pricing_plan_id":"cebpf4jnsgd1na2vs0mg"},{"bike_id":"f338fdfb-c223-4fcd-8967-f34c34ac5bc2","system_id":"levelo_inurba_marseille","lat":43.292644,"lon":5.384257,"is_reserved":false,"is_disabled":false,"rental_uris":{"android":"levelo://app?vid=f338fdfb-c223-4fcd-8967-f34c34ac5bc2","ios":"levelo://app?vid=f338fdfb-c223-4fcd-8967-f34c34ac5bc2"},"vehicle_type_id":"4","last_reported":1718122196,"current_range_meters":800,"station_id":"ce4bh692rcd13ifvqea0","pricing_plan_id":"cebpf4jnsgd1na2vs0mg"},{"bike_id":"706f3fc7-5b76-4dba-958f-6b144269cbea","system_id":"levelo_inurba_marseille","lat":43.292642,"lon":5.384254,"is_reserved":false,"is_disabled":false,"rental_uris":{"android":"levelo://app?vid=706f3fc7-5b76-4dba-958f-6b144269cbea","ios":"levelo://app?vid=706f3fc7-5b76-4dba-958f-6b144269cbea"},"vehicle_type_id":"4","last_reported":1718122196,"current_range_meters":14000,"station_id":"ce4bh692rcd13ifvqea0","pricing_plan_id":"cebpf4jnsgd1na2vs0mg"},{"bike_id":"04983b89-081e-460f-9d90-dab5e56c04e7","system_id":"levelo_inurba_marseille","lat":43.292642,"lon":5.384254,"is_reserved":false,"is_disabled":false,"rental_uris":{"android":"levelo://app?vid=04983b89-081e-460f-9d90-dab5e56c04e7","ios":"levelo://app?vid=04983b89-081e-460f-9d90-dab5e56c04e7"},"vehicle_type_id":"4","last_reported":1718122196,"current_range_meters":1600,"station_id":"ce4bh692rcd13ifvqea0","pricing_plan_id":"cebpf4jnsgd1na2vs0mg"},{"bike_id":"9bafe3d9-4709-4e4c-9066-cf184b90a61d","system_id":"levelo_inurba_marseille","lat":43.292642,"lon":5.384254,"is_reserved":false,"is_disabled":false,"rental_uris":{"android":"levelo://app?vid=9bafe3d9-4709-4e4c-9066-cf184b90a61d","ios":"levelo://app?vid=9bafe3d9-4709-4e4c-9066-cf184b90a61d"},"vehicle_type_id":"4","last_reported":1718122196,"current_range_meters":14000,"station_id":"ce4bh692rcd13ifvqea0","pricing_plan_id":"cebpf4jnsgd1na2vs0mg"},{"bike_id":"a4424110-ba9c-42d1-82e7-810078f8157e","system_id":"levelo_inurba_marseille","lat":43.30427,"lon":5.39748,"is_reserved":false,"is_disabled":false,"rental_uris":{"android":"levelo://app?vid=a4424110-ba9c-42d1-82e7-810078f8157e","ios":"levelo://app?vid=a4424110-ba9c-42d1-82e7-810078f8157e"},"vehicle_type_id":"4","last_reported":1718122196,"current_range_meters":9600,"station_id":"","pricing_plan_id":"cebpf4jnsgd1na2vs0mg"},{"bike_id":"5962536b-07b7-4be9-9819-68b1696f054e","system_id":"levelo_inurba_marseille","lat":43.292644,"lon":5.384257,"is_reserved":false,"is_disabled":false,"rental_uris":{"android":"levelo://app?vid=5962536b-07b7-4be9-9819-68b1696f054e","ios":"levelo://app?vid=5962536b-07b7-4be9-9819-68b1696f054e"},"vehicle_type_id":"4","last_reported":1718122196,"current_range_meters":6000,"station_id":"ce4bh692rcd13ifvqea0","pricing_plan_id":"cebpf4jnsgd1na2vs0mg"},{"bike_id":"e2cd62af-5cf9-42d3-a035-b78190b8a29d","system_id":"levelo_inurba_marseille","lat":43.292644,"lon":5.384257,"is_reserved":false,"is_disabled":false,"rental_uris":{"android":"levelo://app?vid=e2cd62af-5cf9-42d3-a035-b78190b8a29d","ios":"levelo://app?vid=e2cd62af-5cf9-42d3-a035-b78190b8a29d"},"vehicle_type_id":"4","last_reported":1718122196,"current_range_meters":800,"station_id":"ce4bh692rcd13ifvqea0","pricing_plan_id":"cebpf4jnsgd1na2vs0mg"},{"bike_id":"d5eadf90-bbf9-421a-a563-d43578063b14","system_id":"levelo_inurba_marseille","lat":43.292642,"lon":5.384254,"is_reserved":false,"is_disabled":false,"rental_uris":{"android":"levelo://app?vid=d5eadf90-bbf9-421a-a563-d43578063b14","ios":"levelo://app?vid=d5eadf90-bbf9-421a-a563-d43578063b14"},"vehicle_type_id":"4","last_reported":1718122196,"current_range_meters":2800,"station_id":"ce4bh692rcd13ifvqea0","pricing_plan_id":"cebpf4jnsgd1na2vs0mg"},{"bike_id":"04bdb665-b7ba-4582-af17-d71be466621f","system_id":"levelo_inurba_marseille","lat":43.286593,"lon":5.363346,"is_reserved":false,"is_disabled":false,"rental_uris":{"android":"levelo://app?vid=04bdb665-b7ba-4582-af17-d71be466621f","ios":"levelo://app?vid=04bdb665-b7ba-4582-af17-d71be466621f"},"vehicle_type_id":"4","last_reported":1718122196,"current_range_meters":15600,"station_id":"ce4bhah2rcd13ifvqej0","pricing_plan_id":"cebpf4jnsgd1na2vs0mg"},{"bike_id":"ceb76988-8f80-4f8b-b380-97fb18348bab","system_id":"levelo_inurba_marseille","lat":43.290067,"lon":5.356179,"is_reserved":false,"is_disabled":false,"rental_uris":{"android":"levelo://app?vid=ceb76988-8f80-4f8b-b380-97fb18348bab","ios":"levelo://app?vid=ceb76988-8f80-4f8b-b380-97fb18348bab"},"vehicle_type_id":"4","last_reported":1718122196,"current_range_meters":31200,"station_id":"ce4bhb92rcd13ifvqen0","pricing_plan_id":"cebpf4jnsgd1na2vs0mg"},{"bike_id":"8ec62a8f-d06c-4209-a5c5-90fba58e0c9f","system_id":"levelo_inurba_marseille","lat":43.290104,"lon":5.356111,"is_reserved":false,"is_disabled":false,"rental_uris":{"android":"levelo://app?vid=8ec62a8f-d06c-4209-a5c5-90fba58e0c9f","ios":"levelo://app?vid=8ec62a8f-d06c-4209-a5c5-90fba58e0c9f"},"vehicle_type_id":"4","last_reported":1718122196,"current_range_meters":14000,"station_id":"ce4bhb92rcd13ifvqen0","pricing_plan_id":"cebpf4jnsgd1na2vs0mg"},{"bike_id":"5cc9ee00-de31-4e9b-9f3f-08d4cd284122","system_id":"levelo_inurba_marseille","lat":43.290104,"lon":5.356111,"is_reserved":false,"is_disabled":false,"rental_uris":{"android":"levelo://app?vid=5cc9ee00-de31-4e9b-9f3f-08d4cd284122","ios":"levelo://app?vid=5cc9ee00-de31-4e9b-9f3f-08d4cd284122"},"vehicle_type_id":"4","last_reported":1718122196,"current_range_meters":32000,"station_id":"ce4bhb92rcd13ifvqen0","pricing_plan_id":"cebpf4jnsgd1na2vs0mg"},{"bike_id":"1db5db05-45bf-4046-89b3-8dccad4a82fa","system_id":"levelo_inurba_marseille","lat":43.330442,"lon":5.389148,"is_reserved":false,"is_disabled":false,"rental_uris":{"android":"levelo://app?vid=1db5db05-45bf-4046-89b3-8dccad4a82fa","ios":"levelo://app?vid=1db5db05-45bf-4046-89b3-8dccad4a82fa"},"vehicle_type_id":"4","last_reported":1718122196,"current_range_meters":10000,"station_id":"ce4bhr92rcd13ifvqhrg","pricing_plan_id":"cebpf4jnsgd1na2vs0mg"},{"bike_id":"6eb7879f-4d6f-474a-beba-5dd2c8e955b7","system_id":"levelo_inurba_marseille","lat":43.330442,"lon":5.389148,"is_reserved":false,"is_disabled":false,"rental_uris":{"android":"levelo://app?vid=6eb7879f-4d6f-474a-beba-5dd2c8e955b7","ios":"levelo://app?vid=6eb7879f-4d6f-474a-beba-5dd2c8e955b7"},"vehicle_type_id":"4","last_reported":1718122196,"current_range_meters":0,"station_id":"ce4bhr92rcd13ifvqhrg","pricing_plan_id":"cebpf4jnsgd1na2vs0mg"},{"bike_id":"7fc6fe20-6c40-453e-b8ad-2671a86aea76","system_id":"levelo_inurba_marseille","lat":43.330442,"lon":5.389148,"is_reserved":false,"is_disabled":false,"rental_uris":{"android":"levelo://app?vid=7fc6fe20-6c40-453e-b8ad-2671a86aea76","ios":"levelo://app?vid=7fc6fe20-6c40-453e-b8ad-2671a86aea76"},"vehicle_type_id":"4","last_reported":1718122196,"current_range_meters":4000,"station_id":"ce4bhr92rcd13ifvqhrg","pricing_plan_id":"cebpf4jnsgd1na2vs0mg"},{"bike_id":"be497da0-fbc4-45c7-8876-a17da7e62cbd","system_id":"levelo_inurba_marseille","lat":43.29522,"lon":5.390359,"is_reserved":false,"is_disabled":false,"rental_uris":{"android":"levelo://app?vid=be497da0-fbc4-45c7-8876-a17da7e62cbd","ios":"levelo://app?vid=be497da0-fbc4-45c7-8876-a17da7e62cbd"},"vehicle_type_id":"4","last_reported":1718122196,"current_range_meters":17600,"station_id":"ce4bh3p2rcd13ifvqdp0","pricing_plan_id":"cebpf4jnsgd1na2vs0mg"},{"bike_id":"e9cdfd4f-1424-4958-bb2f-8ca2f79d73e0","system_id":"levelo_inurba_marseille","lat":43.330442,"lon":5.389148,"is_reserved":false,"is_disabled":false,"rental_uris":{"android":"levelo://app?vid=e9cdfd4f-1424-4958-bb2f-8ca2f79d73e0","ios":"levelo://app?vid=e9cdfd4f-1424-4958-bb2f-8ca2f79d73e0"},"vehicle_type_id":"4","last_reported":1718122196,"current_range_meters":12000,"station_id":"ce4bhr92rcd13ifvqhrg","pricing_plan_id":"cebpf4jnsgd1na2vs0mg"},{"bike_id":"ad0b6c66-18cb-4684-8f83-1fe235244d8c","system_id":"levelo_inurba_marseille","lat":43.330442,"lon":5.389148,"is_reserved":false,"is_disabled":false,"rental_uris":{"android":"levelo://app?vid=ad0b6c66-18cb-4684-8f83-1fe235244d8c","ios":"levelo://app?vid=ad0b6c66-18cb-4684-8f83-1fe235244d8c"},"vehicle_type_id":"4","last_reported":1718122196,"current_range_meters":19600,"station_id":"ce4bhr92rcd13ifvqhrg","pricing_plan_id":"cebpf4jnsgd1na2vs0mg"},{"bike_id":"7259d5ad-e35e-420f-920d-76794ab9e8df","system_id":"levelo_inurba_marseille","lat":43.310911,"lon":5.40084,"is_reserved":false,"is_disabled":false,"rental_uris":{"android":"levelo://app?vid=7259d5ad-e35e-420f-920d-76794ab9e8df","ios":"levelo://app?vid=7259d5ad-e35e-420f-920d-76794ab9e8df"},"vehicle_type_id":"4","last_reported":1718122196,"current_range_meters":28000,"station_id":"","pricing_plan_id":"cebpf4jnsgd1na2vs0mg"},{"bike_id":"c6c063e4-c97e-4879-ac3f-87586ec1e139","system_id":"levelo_inurba_marseille","lat":43.28856,"lon":5.358371,"is_reserved":false,"is_disabled":false,"rental_uris":{"android":"levelo://app?vid=c6c063e4-c97e-4879-ac3f-87586ec1e139","ios":"levelo://app?vid=c6c063e4-c97e-4879-ac3f-87586ec1e139"},"vehicle_type_id":"4","last_reported":1718122196,"current_range_meters":0,"station_id":"ce4bhb12rcd13ifvqem0","pricing_plan_id":"cebpf4jnsgd1na2vs0mg"},{"bike_id":"e449ee5b-e334-41bb-8265-77b0fb46f63c","system_id":"levelo_inurba_marseille","lat":43.28856,"lon":5.358371,"is_reserved":false,"is_disabled":false,"rental_uris":{"android":"levelo://app?vid=e449ee5b-e334-41bb-8265-77b0fb46f63c","ios":"levelo://app?vid=e449ee5b-e334-41bb-8265-77b0fb46f63c"},"vehicle_type_id":"4","last_reported":1718122196,"current_range_meters":6000,"station_id":"ce4bhb12rcd13ifvqem0","pricing_plan_id":"cebpf4jnsgd1na2vs0mg"},{"bike_id":"9eeca5fc-2d3c-46ed-8a64-0fb1aa25a6f3","system_id":"levelo_inurba_marseille","lat":43.28856,"lon":5.358371,"is_reserved":false,"is_disabled":false,"rental_uris":{"android":"levelo://app?vid=9eeca5fc-2d3c-46ed-8a64-0fb1aa25a6f3","ios":"levelo://app?vid=9eeca5fc-2d3c-46ed-8a64-0fb1aa25a6f3"},"vehicle_type_id":"4","last_reported":1718122196,"current_range_meters":8400,"station_id":"ce4bhb12rcd13ifvqem0","pricing_plan_id":"cebpf4jnsgd1na2vs0mg"},{"bike_id":"c00a93ac-e51b-47c2-8c80-a0258a429151","system_id":"levelo_inurba_marseille","lat":43.28854,"lon":5.35858,"is_reserved":false,"is_disabled":false,"rental_uris":{"android":"levelo://app?vid=c00a93ac-e51b-47c2-8c80-a0258a429151","ios":"levelo://app?vid=c00a93ac-e51b-47c2-8c80-a0258a429151"},"vehicle_type_id":"4","last_reported":1718122196,"current_range_meters":17200,"station_id":"ce4bhb12rcd13ifvqem0","pricing_plan_id":"cebpf4jnsgd1na2vs0mg"},{"bike_id":"75df8e17-73b3-4277-8531-aa4083f03181","system_id":"levelo_inurba_marseille","lat":43.28853,"lon":5.3586,"is_reserved":false,"is_disabled":false,"rental_uris":{"android":"levelo://app?vid=75df8e17-73b3-4277-8531-aa4083f03181","ios":"levelo://app?vid=75df8e17-73b3-4277-8531-aa4083f03181"},"vehicle_type_id":"4","last_reported":1718122196,"current_range_meters":2400,"station_id":"ce4bhb12rcd13ifvqem0","pricing_plan_id":"cebpf4jnsgd1na2vs0mg"},{"bike_id":"ae7f71b0-69e0-4a90-ba20-0c021e4d5776","system_id":"levelo_inurba_marseille","lat":43.28856,"lon":5.358371,"is_reserved":false,"is_disabled":false,"rental_uris":{"android":"levelo://app?vid=ae7f71b0-69e0-4a90-ba20-0c021e4d5776","ios":"levelo://app?vid=ae7f71b0-69e0-4a90-ba20-0c021e4d5776"},"vehicle_type_id":"4","last_reported":1718122196,"current_range_meters":19600,"station_id":"ce4bhb12rcd13ifvqem0","pricing_plan_id":"cebpf4jnsgd1na2vs0mg"},{"bike_id":"8a9236f7-959f-41f5-8117-9f7574c7fae6","system_id":"levelo_inurba_marseille","lat":43.288494,"lon":5.35858,"is_reserved":false,"is_disabled":false,"rental_uris":{"android":"levelo://app?vid=8a9236f7-959f-41f5-8117-9f7574c7fae6","ios":"levelo://app?vid=8a9236f7-959f-41f5-8117-9f7574c7fae6"},"vehicle_type_id":"4","last_reported":1718122196,"current_range_meters":0,"station_id":"ce4bhb12rcd13ifvqem0","pricing_plan_id":"cebpf4jnsgd1na2vs0mg"},{"bike_id":"63a44497-bbba-4e28-9ae2-636867f2c834","system_id":"levelo_inurba_marseille","lat":43.28856,"lon":5.358371,"is_reserved":false,"is_disabled":false,"rental_uris":{"android":"levelo://app?vid=63a44497-bbba-4e28-9ae2-636867f2c834","ios":"levelo://app?vid=63a44497-bbba-4e28-9ae2-636867f2c834"},"vehicle_type_id":"4","last_reported":1718122196,"current_range_meters":20800,"station_id":"ce4bhb12rcd13ifvqem0","pricing_plan_id":"cebpf4jnsgd1na2vs0mg"},{"bike_id":"3c0324c5-c393-43fa-8dcd-aa986d88a712","system_id":"levelo_inurba_marseille","lat":43.29177,"lon":5.38607,"is_reserved":false,"is_disabled":false,"rental_uris":{"android":"levelo://app?vid=3c0324c5-c393-43fa-8dcd-aa986d88a712","ios":"levelo://app?vid=3c0324c5-c393-43fa-8dcd-aa986d88a712"},"vehicle_type_id":"4","last_reported":1718122196,"current_range_meters":11600,"station_id":"","pricing_plan_id":"cebpf4jnsgd1na2vs0mg"},{"bike_id":"e6240483-6a48-4b6a-9ca5-ba4cae5a8685","system_id":"levelo_inurba_marseille","lat":43.312609,"lon":5.401662,"is_reserved":false,"is_disabled":false,"rental_uris":{"android":"levelo://app?vid=e6240483-6a48-4b6a-9ca5-ba4cae5a8685","ios":"levelo://app?vid=e6240483-6a48-4b6a-9ca5-ba4cae5a8685"},"vehicle_type_id":"4","last_reported":1718122196,"current_range_meters":6400,"station_id":"ce4bh092rcd13ifvqd30","pricing_plan_id":"cebpf4jnsgd1na2vs0mg"},{"bike_id":"39c8a108-e359-400c-93b1-9b8346fe4681","system_id":"levelo_inurba_marseille","lat":43.309371,"lon":5.401449,"is_reserved":false,"is_disabled":false,"rental_uris":{"android":"levelo://app?vid=39c8a108-e359-400c-93b1-9b8346fe4681","ios":"levelo://app?vid=39c8a108-e359-400c-93b1-9b8346fe4681"},"vehicle_type_id":"4","last_reported":1718122196,"current_range_meters":15200,"station_id":"ce4bgvp2rcd13ifvqct0","pricing_plan_id":"cebpf4jnsgd1na2vs0mg"},{"bike_id":"bc46a7db-f634-4848-8573-6c47fd74f167","system_id":"levelo_inurba_marseille","lat":43.312609,"lon":5.401662,"is_reserved":false,"is_disabled":false,"rental_uris":{"android":"levelo://app?vid=bc46a7db-f634-4848-8573-6c47fd74f167","ios":"levelo://app?vid=bc46a7db-f634-4848-8573-6c47fd74f167"},"vehicle_type_id":"4","last_reported":1718122196,"current_range_meters":3200,"station_id":"ce4bh092rcd13ifvqd30","pricing_plan_id":"cebpf4jnsgd1na2vs0mg"},{"bike_id":"ecd44462-1e8e-4735-932b-ab77472434a5","system_id":"levelo_inurba_marseille","lat":43.312609,"lon":5.401662,"is_reserved":false,"is_disabled":false,"rental_uris":{"android":"levelo://app?vid=ecd44462-1e8e-4735-932b-ab77472434a5","ios":"levelo://app?vid=ecd44462-1e8e-4735-932b-ab77472434a5"},"vehicle_type_id":"4","last_reported":1718122196,"current_range_meters":3200,"station_id":"ce4bh092rcd13ifvqd30","pricing_plan_id":"cebpf4jnsgd1na2vs0mg"},{"bike_id":"2b81d890-ad0b-4c01-8bca-b6530c12ff08","system_id":"levelo_inurba_marseille","lat":43.312609,"lon":5.401662,"is_reserved":false,"is_disabled":false,"rental_uris":{"android":"levelo://app?vid=2b81d890-ad0b-4c01-8bca-b6530c12ff08","ios":"levelo://app?vid=2b81d890-ad0b-4c01-8bca-b6530c12ff08"},"vehicle_type_id":"4","last_reported":1718122196,"current_range_meters":2000,"station_id":"ce4bh092rcd13ifvqd30","pricing_plan_id":"cebpf4jnsgd1na2vs0mg"},{"bike_id":"793ce4b1-012c-4e05-a985-a5074b524a2a","system_id":"levelo_inurba_marseille","lat":43.309371,"lon":5.401449,"is_reserved":false,"is_disabled":false,"rental_uris":{"android":"levelo://app?vid=793ce4b1-012c-4e05-a985-a5074b524a2a","ios":"levelo://app?vid=793ce4b1-012c-4e05-a985-a5074b524a2a"},"vehicle_type_id":"4","last_reported":1718122196,"current_range_meters":4400,"station_id":"ce4bgvp2rcd13ifvqct0","pricing_plan_id":"cebpf4jnsgd1na2vs0mg"},{"bike_id":"05541e95-8802-4d9a-a859-eee542a5f62f","system_id":"levelo_inurba_marseille","lat":43.309371,"lon":5.401449,"is_reserved":false,"is_disabled":false,"rental_uris":{"android":"levelo://app?vid=05541e95-8802-4d9a-a859-eee542a5f62f","ios":"levelo://app?vid=05541e95-8802-4d9a-a859-eee542a5f62f"},"vehicle_type_id":"4","last_reported":1718122196,"current_range_meters":1200,"station_id":"ce4bgvp2rcd13ifvqct0","pricing_plan_id":"cebpf4jnsgd1na2vs0mg"},{"bike_id":"ad66a201-6efe-4d73-836a-976caef4a30e","system_id":"levelo_inurba_marseille","lat":43.337539,"lon":5.374568,"is_reserved":false,"is_disabled":false,"rental_uris":{"android":"levelo://app?vid=ad66a201-6efe-4d73-836a-976caef4a30e","ios":"levelo://app?vid=ad66a201-6efe-4d73-836a-976caef4a30e"},"vehicle_type_id":"4","last_reported":1718122196,"current_range_meters":26800,"station_id":"","pricing_plan_id":"cebpf4jnsgd1na2vs0mg"},{"bike_id":"86a27a08-ce72-4f4b-aca9-9dcfbf309216","system_id":"levelo_inurba_marseille","lat":43.337562,"lon":5.374545,"is_reserved":false,"is_disabled":false,"rental_uris":{"android":"levelo://app?vid=86a27a08-ce72-4f4b-aca9-9dcfbf309216","ios":"levelo://app?vid=86a27a08-ce72-4f4b-aca9-9dcfbf309216"},"vehicle_type_id":"4","last_reported":1718122196,"current_range_meters":30000,"station_id":"","pricing_plan_id":"cebpf4jnsgd1na2vs0mg"},{"bike_id":"76974ccf-8357-424c-ab58-e02c21eee6ba","system_id":"levelo_inurba_marseille","lat":43.301117,"lon":5.398795,"is_reserved":false,"is_disabled":false,"rental_uris":{"android":"levelo://app?vid=76974ccf-8357-424c-ab58-e02c21eee6ba","ios":"levelo://app?vid=76974ccf-8357-424c-ab58-e02c21eee6ba"},"vehicle_type_id":"4","last_reported":1718122196,"current_range_meters":3600,"station_id":"ce4bh0h2rcd13ifvqd40","pricing_plan_id":"cebpf4jnsgd1na2vs0mg"},{"bike_id":"30d8e54c-5bcf-4ae9-bda3-28883ee539c6","system_id":"levelo_inurba_marseille","lat":43.28727,"lon":5.36078,"is_reserved":false,"is_disabled":false,"rental_uris":{"android":"levelo://app?vid=30d8e54c-5bcf-4ae9-bda3-28883ee539c6","ios":"levelo://app?vid=30d8e54c-5bcf-4ae9-bda3-28883ee539c6"},"vehicle_type_id":"4","last_reported":1718122196,"current_range_meters":12800,"station_id":"cki0cbj6b192h4jlfktg","pricing_plan_id":"cebpf4jnsgd1na2vs0mg"},{"bike_id":"1919c0f9-8a04-4589-87fc-c62ebeb873e2","system_id":"levelo_inurba_marseille","lat":43.28727,"lon":5.36078,"is_reserved":false,"is_disabled":false,"rental_uris":{"android":"levelo://app?vid=1919c0f9-8a04-4589-87fc-c62ebeb873e2","ios":"levelo://app?vid=1919c0f9-8a04-4589-87fc-c62ebeb873e2"},"vehicle_type_id":"4","last_reported":1718122196,"current_range_meters":30400,"station_id":"cki0cbj6b192h4jlfktg","pricing_plan_id":"cebpf4jnsgd1na2vs0mg"},{"bike_id":"f6fb91ea-87cc-4e3c-af92-a92305a7223d","system_id":"levelo_inurba_marseille","lat":43.286593,"lon":5.363346,"is_reserved":false,"is_disabled":false,"rental_uris":{"android":"levelo://app?vid=f6fb91ea-87cc-4e3c-af92-a92305a7223d","ios":"levelo://app?vid=f6fb91ea-87cc-4e3c-af92-a92305a7223d"},"vehicle_type_id":"4","last_reported":1718122196,"current_range_meters":17200,"station_id":"ce4bhah2rcd13ifvqej0","pricing_plan_id":"cebpf4jnsgd1na2vs0mg"},{"bike_id":"8a2ceb4c-9c07-46be-b8ec-7ee982f137d9","system_id":"levelo_inurba_marseille","lat":43.298681,"lon":5.397225,"is_reserved":false,"is_disabled":false,"rental_uris":{"android":"levelo://app?vid=8a2ceb4c-9c07-46be-b8ec-7ee982f137d9","ios":"levelo://app?vid=8a2ceb4c-9c07-46be-b8ec-7ee982f137d9"},"vehicle_type_id":"4","last_reported":1718122196,"current_range_meters":3600,"station_id":"ce4bh0h2rcd13ifvqd50","pricing_plan_id":"cebpf4jnsgd1na2vs0mg"},{"bike_id":"bac9bdd7-b591-482e-9d26-9fded44f182f","system_id":"levelo_inurba_marseille","lat":43.286961,"lon":5.373785,"is_reserved":false,"is_disabled":false,"rental_uris":{"android":"levelo://app?vid=bac9bdd7-b591-482e-9d26-9fded44f182f","ios":"levelo://app?vid=bac9bdd7-b591-482e-9d26-9fded44f182f"},"vehicle_type_id":"4","last_reported":1718122196,"current_range_meters":5200,"station_id":"ce4bh3p2rcd13ifvqdq0","pricing_plan_id":"cebpf4jnsgd1na2vs0mg"},{"bike_id":"fcdbe211-93ee-43e1-b591-8bc229136677","system_id":"levelo_inurba_marseille","lat":43.298681,"lon":5.397225,"is_reserved":false,"is_disabled":false,"rental_uris":{"android":"levelo://app?vid=fcdbe211-93ee-43e1-b591-8bc229136677","ios":"levelo://app?vid=fcdbe211-93ee-43e1-b591-8bc229136677"},"vehicle_type_id":"4","last_reported":1718122196,"current_range_meters":16000,"station_id":"ce4bh0h2rcd13ifvqd50","pricing_plan_id":"cebpf4jnsgd1na2vs0mg"},{"bike_id":"3fafc6a1-9bfc-4194-90cd-4528e23898cd","system_id":"levelo_inurba_marseille","lat":43.286591,"lon":5.363346,"is_reserved":false,"is_disabled":false,"rental_uris":{"android":"levelo://app?vid=3fafc6a1-9bfc-4194-90cd-4528e23898cd","ios":"levelo://app?vid=3fafc6a1-9bfc-4194-90cd-4528e23898cd"},"vehicle_type_id":"4","last_reported":1718122196,"current_range_meters":8400,"station_id":"ce4bhah2rcd13ifvqej0","pricing_plan_id":"cebpf4jnsgd1na2vs0mg"},{"bike_id":"f77ac0ef-0781-4f26-9452-93294f08e2ba","system_id":"levelo_inurba_marseille","lat":43.286593,"lon":5.363346,"is_reserved":false,"is_disabled":false,"rental_uris":{"android":"levelo://app?vid=f77ac0ef-0781-4f26-9452-93294f08e2ba","ios":"levelo://app?vid=f77ac0ef-0781-4f26-9452-93294f08e2ba"},"vehicle_type_id":"4","last_reported":1718122196,"current_range_meters":3200,"station_id":"ce4bhah2rcd13ifvqej0","pricing_plan_id":"cebpf4jnsgd1na2vs0mg"},{"bike_id":"782903e6-d3b3-4aad-b752-f65561a9dcce","system_id":"levelo_inurba_marseille","lat":43.286961,"lon":5.373785,"is_reserved":false,"is_disabled":false,"rental_uris":{"android":"levelo://app?vid=782903e6-d3b3-4aad-b752-f65561a9dcce","ios":"levelo://app?vid=782903e6-d3b3-4aad-b752-f65561a9dcce"},"vehicle_type_id":"4","last_reported":1718122196,"current_range_meters":3200,"station_id":"ce4bh3p2rcd13ifvqdq0","pricing_plan_id":"cebpf4jnsgd1na2vs0mg"},{"bike_id":"4c10f84c-d510-411e-8ffe-0f82084997a1","system_id":"levelo_inurba_marseille","lat":43.298681,"lon":5.397225,"is_reserved":false,"is_disabled":false,"rental_uris":{"android":"levelo://app?vid=4c10f84c-d510-411e-8ffe-0f82084997a1","ios":"levelo://app?vid=4c10f84c-d510-411e-8ffe-0f82084997a1"},"vehicle_type_id":"4","last_reported":1718122196,"current_range_meters":0,"station_id":"ce4bh0h2rcd13ifvqd50","pricing_plan_id":"cebpf4jnsgd1na2vs0mg"},{"bike_id":"ab884ede-0fe4-4135-8140-7dcf35afd471","system_id":"levelo_inurba_marseille","lat":43.286961,"lon":5.373785,"is_reserved":false,"is_disabled":false,"rental_uris":{"android":"levelo://app?vid=ab884ede-0fe4-4135-8140-7dcf35afd471","ios":"levelo://app?vid=ab884ede-0fe4-4135-8140-7dcf35afd471"},"vehicle_type_id":"4","last_reported":1718122196,"current_range_meters":6000,"station_id":"ce4bh3p2rcd13ifvqdq0","pricing_plan_id":"cebpf4jnsgd1na2vs0mg"},{"bike_id":"928aa794-a938-438a-8f7d-680a05bdac0c","system_id":"levelo_inurba_marseille","lat":43.295332,"lon":5.393977,"is_reserved":false,"is_disabled":false,"rental_uris":{"android":"levelo://app?vid=928aa794-a938-438a-8f7d-680a05bdac0c","ios":"levelo://app?vid=928aa794-a938-438a-8f7d-680a05bdac0c"},"vehicle_type_id":"4","last_reported":1718122196,"current_range_meters":0,"station_id":"ce4bh292rcd13ifvqdf0","pricing_plan_id":"cebpf4jnsgd1na2vs0mg"},{"bike_id":"3a9b9633-ced4-48cd-9e41-7092d5f3357a","system_id":"levelo_inurba_marseille","lat":43.298681,"lon":5.397225,"is_reserved":false,"is_disabled":false,"rental_uris":{"android":"levelo://app?vid=3a9b9633-ced4-48cd-9e41-7092d5f3357a","ios":"levelo://app?vid=3a9b9633-ced4-48cd-9e41-7092d5f3357a"},"vehicle_type_id":"4","last_reported":1718122196,"current_range_meters":400,"station_id":"ce4bh0h2rcd13ifvqd50","pricing_plan_id":"cebpf4jnsgd1na2vs0mg"},{"bike_id":"f57410ac-8430-443f-a157-58ce4ccee373","system_id":"levelo_inurba_marseille","lat":43.286961,"lon":5.373785,"is_reserved":false,"is_disabled":false,"rental_uris":{"android":"levelo://app?vid=f57410ac-8430-443f-a157-58ce4ccee373","ios":"levelo://app?vid=f57410ac-8430-443f-a157-58ce4ccee373"},"vehicle_type_id":"4","last_reported":1718122196,"current_range_meters":12000,"station_id":"ce4bh3p2rcd13ifvqdq0","pricing_plan_id":"cebpf4jnsgd1na2vs0mg"},{"bike_id":"abbfc657-7969-4839-9348-50a57fc5f8ab","system_id":"levelo_inurba_marseille","lat":43.295162,"lon":5.394032,"is_reserved":false,"is_disabled":false,"rental_uris":{"android":"levelo://app?vid=abbfc657-7969-4839-9348-50a57fc5f8ab","ios":"levelo://app?vid=abbfc657-7969-4839-9348-50a57fc5f8ab"},"vehicle_type_id":"4","last_reported":1718122196,"current_range_meters":26800,"station_id":"","pricing_plan_id":"cebpf4jnsgd1na2vs0mg"},{"bike_id":"61d5eb9b-6369-4827-97c9-93448e9ea343","system_id":"levelo_inurba_marseille","lat":43.295194,"lon":5.39397,"is_reserved":false,"is_disabled":false,"rental_uris":{"android":"levelo://app?vid=61d5eb9b-6369-4827-97c9-93448e9ea343","ios":"levelo://app?vid=61d5eb9b-6369-4827-97c9-93448e9ea343"},"vehicle_type_id":"4","last_reported":1718122196,"current_range_meters":0,"station_id":"ce4bh292rcd13ifvqdf0","pricing_plan_id":"cebpf4jnsgd1na2vs0mg"},