{"last_updated":1704387984,"ttl":30,"version":"2.2","data":{"bikes":[{"bike_id":"3c173a29-56fa-489d-aa9e-663e06d8a4fc","system_id":"levelo_inurba_marseille","lat":43.312239,"lon":5.368562,"is_reserved":false,"is_disabled":false,"rental_uris":{"android":"levelo://app?vid=3c173a29-56fa-489d-aa9e-663e06d8a4fc","ios":"levelo://app?vid=3c173a29-56fa-489d-aa9e-663e06d8a4fc"},"vehicle_type_id":"4","last_reported":1704387985,"current_range_meters":13600,"station_id":"ce4bgl92rcd13ifvqbq0","pricing_plan_id":"free"},{"bike_id":"8705fa3a-96ba-4889-8a06-b2bf5a6059ab","system_id":"levelo_inurba_marseille","lat":43.309076,"lon":5.368465,"is_reserved":false,"is_disabled":false,"rental_uris":{"android":"levelo://app?vid=8705fa3a-96ba-4889-8a06-b2bf5a6059ab","ios":"levelo://app?vid=8705fa3a-96ba-4889-8a06-b2bf5a6059ab"},"vehicle_type_id":"4","last_reported":1704387985,"current_range_meters":11600,"station_id":"ce4bgn92rcd13ifvqbvg","pricing_plan_id":"free"},{"bike_id":"0008fd74-5855-4b13-8843-eb694ccc76a6","system_id":"levelo_inurba_marseille","lat":43.305368,"lon":5.367343,"is_reserved":false,"is_disabled":false,"rental_uris":{"android":"levelo://app?vid=0008fd74-5855-4b13-8843-eb694ccc76a6","ios":"levelo://app?vid=0008fd74-5855-4b13-8843-eb694ccc76a6"},"vehicle_type_id":"4","last_reported":1704387985,"current_range_meters":13200,"station_id":"ce4bgrp2rcd13ifvqc9g","pricing_plan_id":"free"},{"bike_id":"e3f1bed7-9b17-49d9-a8ea-cdcd16b2a82d","system_id":"levelo_inurba_marseille","lat":43.305706,"lon":5.365654,"is_reserved":false,"is_disabled":false,"rental_uris":{"android":"levelo://app?vid=e3f1bed7-9b17-49d9-a8ea-cdcd16b2a82d","ios":"levelo://app?vid=e3f1bed7-9b17-49d9-a8ea-cdcd16b2a82d"},"vehicle_type_id":"4","last_reported":1704387985,"current_range_meters":0,"station_id":"ce4bgs12rcd13ifvqcag","pricing_plan_id":"free"},{"bike_id":"2783abd4-1cc5-4d53-ba2c-72fa8f08d748","system_id":"levelo_inurba_marseille","lat":43.3061,"lon":5.37224,"is_reserved":false,"is_disabled":false,"rental_uris":{"android":"levelo://app?vid=2783abd4-1cc5-4d53-ba2c-72fa8f08d748","ios":"levelo://app?vid=2783abd4-1cc5-4d53-ba2c-72fa8f08d748"},"vehicle_type_id":"4","last_reported":1704387985,"current_range_meters":5600,"station_id":"ce4bgqh2rcd13ifvqc4g","pricing_plan_id":"free"},{"bike_id":"c97350ba-74fc-4caf-a593-588e9e6afce6","system_id":"levelo_inurba_marseille","lat":43.30601,"lon":5.37216,"is_reserved":false,"is_disabled":false,"rental_uris":{"android":"levelo://app?vid=c97350ba-74fc-4caf-a593-588e9e6afce6","ios":"levelo://app?vid=c97350ba-74fc-4caf-a593-588e9e6afce6"},"vehicle_type_id":"4","last_reported":1704387985,"current_range_meters":23200,"station_id":"ce4bgqh2rcd13ifvqc4g","pricing_plan_id":"free"},{"bike_id":"8740d784-4e64-4a8a-925c-fc3c726984b9","system_id":"levelo_inurba_marseille","lat":43.30599,"lon":5.37225,"is_reserved":false,"is_disabled":false,"rental_uris":{"android":"levelo://app?vid=8740d784-4e64-4a8a-925c-fc3c726984b9","ios":"levelo://app?vid=8740d784-4e64-4a8a-925c-fc3c726984b9"},"vehicle_type_id":"4","last_reported":1704387985,"current_range_meters":18800,"station_id":"ce4bgqh2rcd13ifvqc4g","pricing_plan_id":"free"},{"bike_id":"3e7b1f7f-d3bc-4339-91b3-8ffcb5c0ec01","system_id":"levelo_inurba_marseille","lat":43.311187,"lon":5.37761,"is_reserved":false,"is_disabled":false,"rental_uris":{"android":"levelo://app?vid=3e7b1f7f-d3bc-4339-91b3-8ffcb5c0ec01","ios":"levelo://app?vid=3e7b1f7f-d3bc-4339-91b3-8ffcb5c0ec01"},"vehicle_type_id":"4","last_reported":1704387985,"current_range_meters":16400,"station_id":"ce4bgt92rcd13ifvqcg0","pricing_plan_id":"free"},{"bike_id":"a4aebf09-86d6-43d3-9af3-23343a886707","system_id":"levelo_inurba_marseille","lat":43.3112,"lon":5.37767,"is_reserved":false,"is_disabled":false,"rental_uris":{"android":"levelo://app?vid=a4aebf09-86d6-43d3-9af3-23343a886707","ios":"levelo://app?vid=a4aebf09-86d6-43d3-9af3-23343a886707"},"vehicle_type_id":"4","last_reported":1704387985,"current_range_meters":22000,"station_id":"ce4bgt92rcd13ifvqcg0","pricing_plan_id":"free"},{"bike_id":"0f5a1f44-efb7-4a12-b3a3-6cf1dc26400a","system_id":"levelo_inurba_marseille","lat":43.31122,"lon":5.37769,"is_reserved":false,"is_disabled":false,"rental_uris":{"android":"levelo://app?vid=0f5a1f44-efb7-4a12-b3a3-6cf1dc26400a","ios":"levelo://app?vid=0f5a1f44-efb7-4a12-b3a3-6cf1dc26400a"},"vehicle_type_id":"4","last_reported":1704387985,"current_range_meters":0,"station_id":"ce4bgt92rcd13ifvqcg0","pricing_plan_id":"free"},{"bike_id":"8f20fd1d-4b5f-4b10-8a6e-fe021223b97b","system_id":"levelo_inurba_marseille","lat":43.30833,"lon":5.37652,"is_reserved":false,"is_disabled":false,"rental_uris":{"android":"levelo://app?vid=8f20fd1d-4b5f-4b10-8a6e-fe021223b97b","ios":"levelo://app?vid=8f20fd1d-4b5f-4b10-8a6e-fe021223b97b"},"vehicle_type_id":"4","last_reported":1704387985,"current_range_meters":8400,"station_id":"ce4bgv92rcd13ifvqcq0","pricing_plan_id":"free"},{"bike_id":"b822ecbc-6c8d-4776-98fc-6808871731f5","system_id":"levelo_inurba_marseille","lat":43.307945,"lon":5.376487,"is_reserved":false,"is_disabled":false,"rental_uris":{"android":"levelo://app?vid=b822ecbc-6c8d-4776-98fc-6808871731f5","ios":"levelo://app?vid=b822ecbc-6c8d-4776-98fc-6808871731f5"},"vehicle_type_id":"4","last_reported":1704387985,"current_range_meters":25200,"station_id":"ce4bgv92rcd13ifvqcq0","pricing_plan_id":"free"},{"bike_id":"4db0a569-4764-4563-84b4-31e34fdc5501","system_id":"levelo_inurba_marseille","lat":43.317075,"lon":5.377367,"is_reserved":false,"is_disabled":false,"rental_uris":{"android":"levelo://app?vid=4db0a569-4764-4563-84b4-31e34fdc5501","ios":"levelo://app?vid=4db0a569-4764-4563-84b4-31e34fdc5501"},"vehicle_type_id":"4","last_reported":1704387985,"current_range_meters":8800,"station_id":"ce4bgth2rcd13ifvqch0","pricing_plan_id":"free"},{"bike_id":"c4e90871-bb94-4085-82dc-ccbd997a22ca","system_id":"levelo_inurba_marseille","lat":43.315213,"lon":5.37907,"is_reserved":false,"is_disabled":false,"rental_uris":{"android":"levelo://app?vid=c4e90871-bb94-4085-82dc-ccbd997a22ca","ios":"levelo://app?vid=c4e90871-bb94-4085-82dc-ccbd997a22ca"},"vehicle_type_id":"4","last_reported":1704387985,"current_range_meters":18400,"station_id":"","pricing_plan_id":"free"},{"bike_id":"99a5a371-edb6-4d87-a180-9d6fcae138b4","system_id":"levelo_inurba_marseille","lat":43.303046,"lon":5.368981,"is_reserved":false,"is_disabled":false,"rental_uris":{"android":"levelo://app?vid=99a5a371-edb6-4d87-a180-9d6fcae138b4","ios":"levelo://app?vid=99a5a371-edb6-4d87-a180-9d6fcae138b4"},"vehicle_type_id":"4","last_reported":1704387985,"current_range_meters":0,"station_id":"ce4bgqh2rcd13ifvqc5g","pricing_plan_id":"free"},{"bike_id":"30bed3f9-8bc5-490c-bf02-187f00983ad8","system_id":"levelo_inurba_marseille","lat":43.301939,"lon":5.366286,"is_reserved":false,"is_disabled":false,"rental_uris":{"android":"levelo://app?vid=30bed3f9-8bc5-490c-bf02-187f00983ad8","ios":"levelo://app?vid=30bed3f9-8bc5-490c-bf02-187f00983ad8"},"vehicle_type_id":"4","last_reported":1704387985,"current_range_meters":8000,"station_id":"ce4bgrh2rcd13ifvqc8g","pricing_plan_id":"free"},{"bike_id":"285d551f-32f3-4fc5-82fe-3bd345ea9bf4","system_id":"levelo_inurba_marseille","lat":43.308012,"lon":5.381511,"is_reserved":false,"is_disabled":false,"rental_uris":{"android":"levelo://app?vid=285d551f-32f3-4fc5-82fe-3bd345ea9bf4","ios":"levelo://app?vid=285d551f-32f3-4fc5-82fe-3bd345ea9bf4"},"vehicle_type_id":"4","last_reported":1704387985,"current_range_meters":0,"station_id":"ce4bgt12rcd13ifvqce0","pricing_plan_id":"free"},{"bike_id":"4b5a67fb-519f-4ac5-ac1e-330c67f16212","system_id":"levelo_inurba_marseille","lat":43.308012,"lon":5.381511,"is_reserved":false,"is_disabled":false,"rental_uris":{"android":"levelo://app?vid=4b5a67fb-519f-4ac5-ac1e-330c67f16212","ios":"levelo://app?vid=4b5a67fb-519f-4ac5-ac1e-330c67f16212"},"vehicle_type_id":"4","last_reported":1704387985,"current_range_meters":10800,"station_id":"ce4bgt12rcd13ifvqce0","pricing_plan_id":"free"},{"bike_id":"275c26d3-ae78-4dfd-8ae5-9ea38bca16b8","system_id":"levelo_inurba_marseille","lat":43.31374,"lon":5.38317,"is_reserved":false,"is_disabled":false,"rental_uris":{"android":"levelo://app?vid=275c26d3-ae78-4dfd-8ae5-9ea38bca16b8","ios":"levelo://app?vid=275c26d3-ae78-4dfd-8ae5-9ea38bca16b8"},"vehicle_type_id":"4","last_reported":1704387985,"current_range_meters":0,"station_id":"","pricing_plan_id":"free"},{"bike_id":"d7dea04c-b16e-44ab-89dd-805311b9280c","system_id":"levelo_inurba_marseille","lat":43.319935,"lon":5.381699,"is_reserved":false,"is_disabled":false,"rental_uris":{"android":"levelo://app?vid=d7dea04c-b16e-44ab-89dd-805311b9280c","ios":"levelo://app?vid=d7dea04c-b16e-44ab-89dd-805311b9280c"},"vehicle_type_id":"4","last_reported":1704387985,"current_range_meters":29200,"station_id":"ce4bhr12rcd13ifvqhpg","pricing_plan_id":"free"},{"bike_id":"f1339662-51db-4ceb-9d62-c7891632b9a2","system_id":"levelo_inurba_marseille","lat":43.319935,"lon":5.381699,"is_reserved":false,"is_disabled":false,"rental_uris":{"android":"levelo://app?vid=f1339662-51db-4ceb-9d62-c7891632b9a2","ios":"levelo://app?vid=f1339662-51db-4ceb-9d62-c7891632b9a2"},"vehicle_type_id":"4","last_reported":1704387985,"current_range_meters":30000,"station_id":"ce4bhr12rcd13ifvqhpg","pricing_plan_id":"free"},{"bike_id":"aaeac1dc-bb3c-411c-ab49-aabae3d8034f","system_id":"levelo_inurba_marseille","lat":43.313571,"lon":5.384829,"is_reserved":false,"is_disabled":false,"rental_uris":{"android":"levelo://app?vid=aaeac1dc-bb3c-411c-ab49-aabae3d8034f","ios":"levelo://app?vid=aaeac1dc-bb3c-411c-ab49-aabae3d8034f"},"vehicle_type_id":"4","last_reported":1704387985,"current_range_meters":20800,"station_id":"ce4bgt92rcd13ifvqcf0","pricing_plan_id":"free"},{"bike_id":"17504bde-947a-4cd6-98b3-9a4c66aca99b","system_id":"levelo_inurba_marseille","lat":43.313827,"lon":5.385007,"is_reserved":false,"is_disabled":false,"rental_uris":{"android":"levelo://app?vid=17504bde-947a-4cd6-98b3-9a4c66aca99b","ios":"levelo://app?vid=17504bde-947a-4cd6-98b3-9a4c66aca99b"},"vehicle_type_id":"4","last_reported":1704387985,"current_range_meters":12800,"station_id":"ce4bgt92rcd13ifvqcf0","pricing_plan_id":"free"},{"bike_id":"ef6aa804-79f3-4f8a-aa93-904f0117c587","system_id":"levelo_inurba_marseille","lat":43.31373,"lon":5.38502,"is_reserved":false,"is_disabled":false,"rental_uris":{"android":"levelo://app?vid=ef6aa804-79f3-4f8a-aa93-904f0117c587","ios":"levelo://app?vid=ef6aa804-79f3-4f8a-aa93-904f0117c587"},"vehicle_type_id":"4","last_reported":1704387985,"current_range_meters":0,"station_id":"ce4bgt92rcd13ifvqcf0","pricing_plan_id":"free"},{"bike_id":"b22604ec-0c4b-41b4-a20e-38add68f7682","system_id":"levelo_inurba_marseille","lat":43.325674,"lon":5.374791,"is_reserved":false,"is_disabled":false,"rental_uris":{"android":"levelo://app?vid=b22604ec-0c4b-41b4-a20e-38add68f7682","ios":"levelo://app?vid=b22604ec-0c4b-41b4-a20e-38add68f7682"},"vehicle_type_id":"4","last_reported":1704387985,"current_range_meters":21600,"station_id":"","pricing_plan_id":"free"},{"bike_id":"681d3ebe-c99c-4c36-a8df-42965b6b46fa","system_id":"levelo_inurba_marseille","lat":43.305364,"lon":5.384119,"is_reserved":false,"is_disabled":false,"rental_uris":{"android":"levelo://app?vid=681d3ebe-c99c-4c36-a8df-42965b6b46fa","ios":"levelo://app?vid=681d3ebe-c99c-4c36-a8df-42965b6b46fa"},"vehicle_type_id":"4","last_reported":1704387985,"current_range_meters":9200,"station_id":"ce4bgg92rcd13ifvqb30","pricing_plan_id":"free"},{"bike_id":"90826e4a-415b-493b-ae1a-7d625fc11bd2","system_id":"levelo_inurba_marseille","lat":43.298433,"lon":5.362774,"is_reserved":false,"is_disabled":false,"rental_uris":{"android":"levelo://app?vid=90826e4a-415b-493b-ae1a-7d625fc11bd2","ios":"levelo://app?vid=90826e4a-415b-493b-ae1a-7d625fc11bd2"},"vehicle_type_id":"4","last_reported":1704387985,"current_range_meters":10400,"station_id":"ce4bgpp2rcd13ifvqc3g","pricing_plan_id":"free"},{"bike_id":"d489dd5b-590f-4e38-8502-b4c7744a080b","system_id":"levelo_inurba_marseille","lat":43.298433,"lon":5.362774,"is_reserved":false,"is_disabled":false,"rental_uris":{"android":"levelo://app?vid=d489dd5b-590f-4e38-8502-b4c7744a080b","ios":"levelo://app?vid=d489dd5b-590f-4e38-8502-b4c7744a080b"},"vehicle_type_id":"4","last_reported":1704387985,"current_range_meters":0,"station_id":"ce4bgpp2rcd13ifvqc3g","pricing_plan_id":"free"},{"bike_id":"989fe84e-72f4-4d54-8a06-1b7d3f5bbdd5","system_id":"levelo_inurba_marseille","lat":43.299243,"lon":5.374807,"is_reserved":false,"is_disabled":false,"rental_uris":{"android":"levelo://app?vid=989fe84e-72f4-4d54-8a06-1b7d3f5bbdd5","ios":"levelo://app?vid=989fe84e-72f4-4d54-8a06-1b7d3f5bbdd5"},"vehicle_type_id":"4","last_reported":1704387985,"current_range_meters":0,"station_id":"ce4bgjh2rcd13ifvqbg0","pricing_plan_id":"free"},{"bike_id":"7f9338b1-50ab-4499-b928-a1df3c0022a6","system_id":"levelo_inurba_marseille","lat":43.311722,"lon":5.387247,"is_reserved":false,"is_disabled":false,"rental_uris":{"android":"levelo://app?vid=7f9338b1-50ab-4499-b928-a1df3c0022a6","ios":"levelo://app?vid=7f9338b1-50ab-4499-b928-a1df3c0022a6"},"vehicle_type_id":"4","last_reported":1704387985,"current_range_meters":25200,"station_id":"ce4bgv12rcd13ifvqcp0","pricing_plan_id":"free"},{"bike_id":"64d5f756-e727-4ac8-af6e-67004a6fbf07","system_id":"levelo_inurba_marseille","lat":43.311722,"lon":5.387247,"is_reserved":false,"is_disabled":false,"rental_uris":{"android":"levelo://app?vid=64d5f756-e727-4ac8-af6e-67004a6fbf07","ios":"levelo://app?vid=64d5f756-e727-4ac8-af6e-67004a6fbf07"},"vehicle_type_id":"4","last_reported":1704387985,"current_range_meters":12800,"station_id":"ce4bgv12rcd13ifvqcp0","pricing_plan_id":"free"},{"bike_id":"f53e7a9d-7ee6-4428-85bd-3db5d7cc3975","system_id":"levelo_inurba_marseille","lat":43.322872,"lon":5.382756,"is_reserved":false,"is_disabled":false,"rental_uris":{"android":"levelo://app?vid=f53e7a9d-7ee6-4428-85bd-3db5d7cc3975","ios":"levelo://app?vid=f53e7a9d-7ee6-4428-85bd-3db5d7cc3975"},"vehicle_type_id":"4","last_reported":1704387985,"current_range_meters":31200,"station_id":"ce4bhr12rcd13ifvqhqg","pricing_plan_id":"free"},{"bike_id":"7e69bdeb-fe69-4483-8ee7-88c81ad264d9","system_id":"levelo_inurba_marseille","lat":43.322872,"lon":5.382756,"is_reserved":false,"is_disabled":false,"rental_uris":{"android":"levelo://app?vid=7e69bdeb-fe69-4483-8ee7-88c81ad264d9","ios":"levelo://app?vid=7e69bdeb-fe69-4483-8ee7-88c81ad264d9"},"vehicle_type_id":"4","last_reported":1704387985,"current_range_meters":27200,"station_id":"ce4bhr12rcd13ifvqhqg","pricing_plan_id":"free"},{"bike_id":"a1a0bcb8-017b-4fdf-8f60-2716e4e6fed8","system_id":"levelo_inurba_marseille","lat":43.32827,"lon":5.36691,"is_reserved":false,"is_disabled":false,"rental_uris":{"android":"levelo://app?vid=a1a0bcb8-017b-4fdf-8f60-2716e4e6fed8","ios":"levelo://app?vid=a1a0bcb8-017b-4fdf-8f60-2716e4e6fed8"},"vehicle_type_id":"4","last_reported":1704387985,"current_range_meters":0,"station_id":"ce4bhs92rcd13ifvqi0g","pricing_plan_id":"free"},{"bike_id":"40547a36-645f-4cc6-8bf9-232a8ea96bf6","system_id":"levelo_inurba_marseille","lat":43.32829,"lon":5.366819,"is_reserved":false,"is_disabled":false,"rental_uris":{"android":"levelo://app?vid=40547a36-645f-4cc6-8bf9-232a8ea96bf6","ios":"levelo://app?vid=40547a36-645f-4cc6-8bf9-232a8ea96bf6"},"vehicle_type_id":"4","last_reported":1704387985,"current_range_meters":9200,"station_id":"ce4bhs92rcd13ifvqi0g","pricing_plan_id":"free"},{"bike_id":"95e60a05-c3f6-42d6-b8d8-8e09a3364abf","system_id":"levelo_inurba_marseille","lat":43.3283,"lon":5.3668,"is_reserved":false,"is_disabled":false,"rental_uris":{"android":"levelo://app?vid=95e60a05-c3f6-42d6-b8d8-8e09a3364abf","ios":"levelo://app?vid=95e60a05-c3f6-42d6-b8d8-8e09a3364abf"},"vehicle_type_id":"4","last_reported":1704387985,"current_range_meters":12000,"station_id":"ce4bhs92rcd13ifvqi0g","pricing_plan_id":"free"},{"bike_id":"4d6cbba3-2e55-4f7b-870f-2fed43f3ec1c","system_id":"levelo_inurba_marseille","lat":43.32836,"lon":5.36693,"is_reserved":false,"is_disabled":false,"rental_uris":{"android":"levelo://app?vid=4d6cbba3-2e55-4f7b-870f-2fed43f3ec1c","ios":"levelo://app?vid=4d6cbba3-2e55-4f7b-870f-2fed43f3ec1c"},"vehicle_type_id":"4","last_reported":1704387985,"current_range_meters":15600,"station_id":"ce4bhs92rcd13ifvqi0g","pricing_plan_id":"free"},{"bike_id":"a6953f89-b867-47c2-a99f-949ca50d8a77","system_id":"levelo_inurba_marseille","lat":43.328371,"lon":5.366909,"is_reserved":false,"is_disabled":false,"rental_uris":{"android":"levelo://app?vid=a6953f89-b867-47c2-a99f-949ca50d8a77","ios":"levelo://app?vid=a6953f89-b867-47c2-a99f-949ca50d8a77"},"vehicle_type_id":"4","last_reported":1704387985,"current_range_meters":16400,"station_id":"ce4bhs92rcd13ifvqi0g","pricing_plan_id":"free"},{"bike_id":"370cccf7-c9ba-46c2-819b-c8e8cacc4c21","system_id":"levelo_inurba_marseille","lat":43.3277,"lon":5.37458,"is_reserved":false,"is_disabled":false,"rental_uris":{"android":"levelo://app?vid=370cccf7-c9ba-46c2-819b-c8e8cacc4c21","ios":"levelo://app?vid=370cccf7-c9ba-46c2-819b-c8e8cacc4c21"},"vehicle_type_id":"4","last_reported":1704387985,"current_range_meters":400,"station_id":"","pricing_plan_id":"free"},{"bike_id":"d3661675-ef34-4363-8f5c-3f830c1dd761","system_id":"levelo_inurba_marseille","lat":43.29615,"lon":5.36783,"is_reserved":false,"is_disabled":false,"rental_uris":{"android":"levelo://app?vid=d3661675-ef34-4363-8f5c-3f830c1dd761","ios":"levelo://app?vid=d3661675-ef34-4363-8f5c-3f830c1dd761"},"vehicle_type_id":"4","last_reported":1704387985,"current_range_meters":21200,"station_id":"","pricing_plan_id":"free"},{"bike_id":"38817299-b487-4cab-8ec8-487c20a23e2e","system_id":"levelo_inurba_marseille","lat":43.297132,"lon":5.376912,"is_reserved":false,"is_disabled":false,"rental_uris":{"android":"levelo://app?vid=38817299-b487-4cab-8ec8-487c20a23e2e","ios":"levelo://app?vid=38817299-b487-4cab-8ec8-487c20a23e2e"},"vehicle_type_id":"4","last_reported":1704387985,"current_range_meters":0,"station_id":"ce4bgkh2rcd13ifvqbl0","pricing_plan_id":"free"},{"bike_id":"b8af1d20-7693-45b5-abaf-cbb0a56fac8d","system_id":"levelo_inurba_marseille","lat":43.317557,"lon":5.390173,"is_reserved":false,"is_disabled":false,"rental_uris":{"android":"levelo://app?vid=b8af1d20-7693-45b5-abaf-cbb0a56fac8d","ios":"levelo://app?vid=b8af1d20-7693-45b5-abaf-cbb0a56fac8d"},"vehicle_type_id":"4","last_reported":1704387985,"current_range_meters":13600,"station_id":"ce4bhqp2rcd13ifvqhng","pricing_plan_id":"free"},{"bike_id":"dd328ff2-e240-47f8-9002-92322c54e2d9","system_id":"levelo_inurba_marseille","lat":43.317557,"lon":5.390173,"is_reserved":false,"is_disabled":false,"rental_uris":{"android":"levelo://app?vid=dd328ff2-e240-47f8-9002-92322c54e2d9","ios":"levelo://app?vid=dd328ff2-e240-47f8-9002-92322c54e2d9"},"vehicle_type_id":"4","last_reported":1704387985,"current_range_meters":26400,"station_id":"ce4bhqp2rcd13ifvqhng","pricing_plan_id":"free"},{"bike_id":"9ac07e68-9c93-4403-9f8f-f56b1f92a53e","system_id":"levelo_inurba_marseille","lat":43.304278,"lon":5.388868,"is_reserved":false,"is_disabled":false,"rental_uris":{"android":"levelo://app?vid=9ac07e68-9c93-4403-9f8f-f56b1f92a53e","ios":"levelo://app?vid=9ac07e68-9c93-4403-9f8f-f56b1f92a53e"},"vehicle_type_id":"4","last_reported":1704387985,"current_range_meters":3200,"station_id":"ce4bgk12rcd13ifvqbi0","pricing_plan_id":"free"},{"bike_id":"aab64a4a-6970-40a3-b31c-a92647f6efb1","system_id":"levelo_inurba_marseille","lat":43.296277,"lon":5.377108,"is_reserved":false,"is_disabled":false,"rental_uris":{"android":"levelo://app?vid=aab64a4a-6970-40a3-b31c-a92647f6efb1","ios":"levelo://app?vid=aab64a4a-6970-40a3-b31c-a92647f6efb1"},"vehicle_type_id":"4","last_reported":1704387985,"current_range_meters":0,"station_id":"ce4bgi92rcd13ifvqb90","pricing_plan_id":"free"},{"bike_id":"d60802d6-4f47-444a-b234-883690eec05b","system_id":"levelo_inurba_marseille","lat":43.33062,"lon":5.3627,"is_reserved":false,"is_disabled":false,"rental_uris":{"android":"levelo://app?vid=d60802d6-4f47-444a-b234-883690eec05b","ios":"levelo://app?vid=d60802d6-4f47-444a-b234-883690eec05b"},"vehicle_type_id":"4","last_reported":1704387985,"current_range_meters":7200,"station_id":"","pricing_plan_id":"free"},{"bike_id":"960bdae2-140d-4c06-9d3a-ea29200f94ab","system_id":"levelo_inurba_marseille","lat":43.295748,"lon":5.37522,"is_reserved":false,"is_disabled":false,"rental_uris":{"android":"levelo://app?vid=960bdae2-140d-4c06-9d3a-ea29200f94ab","ios":"levelo://app?vid=960bdae2-140d-4c06-9d3a-ea29200f94ab"},"vehicle_type_id":"4","last_reported":1704387985,"current_range_meters":24800,"station_id":"ce4bgh92rcd13ifvqb50","pricing_plan_id":"free"},{"bike_id":"a06d1dfe-e5d1-4d93-a118-c0e1ee2f81c7","system_id":"levelo_inurba_marseille","lat":43.296263,"lon":5.377094,"is_reserved":false,"is_disabled":false,"rental_uris":{"android":"levelo://app?vid=a06d1dfe-e5d1-4d93-a118-c0e1ee2f81c7","ios":"levelo://app?vid=a06d1dfe-e5d1-4d93-a118-c0e1ee2f81c7"},"vehicle_type_id":"4","last_reported":1704387985,"current_range_meters":11200,"station_id":"ce4bgi92rcd13ifvqb90","pricing_plan_id":"free"},{"bike_id":"0d9d6b12-5b3d-4f31-b1ee-139823163e50","system_id":"levelo_inurba_marseille","lat":43.295279,"lon":5.375048,"is_reserved":false,"is_disabled":false,"rental_uris":{"android":"levelo://app?vid=0d9d6b12-5b3d-4f31-b1ee-139823163e50","ios":"levelo://app?vid=0d9d6b12-5b3d-4f31-b1ee-139823163e50"},"vehicle_type_id":"4","last_reported":1704387985,"current_range_meters":4000,"station_id":"ce4bgkp2rcd13ifvqbmg","pricing_plan_id":"free"},{"bike_id":"5ed2e3b1-45e1-4d3f-8fb1-a48359016436","system_id":"levelo_inurba_marseille","lat":43.299717,"lon":5.384845,"is_reserved":false,"is_disabled":false,"rental_uris":{"android":"levelo://app?vid=5ed2e3b1-45e1-4d3f-8fb1-a48359016436","ios":"levelo://app?vid=5ed2e3b1-45e1-4d3f-8fb1-a48359016436"},"vehicle_type_id":"4","last_reported":1704387985,"current_range_meters":400,"station_id":"ce4bgj92rcd13ifvqbd0","pricing_plan_id":"free"},{"bike_id":"1711c1f3-8a03-4e32-9d40-91550e26fca7","system_id":"levelo_inurba_marseille","lat":43.299707,"lon":5.384859,"is_reserved":false,"is_disabled":false,"rental_uris":{"android":"levelo://app?vid=1711c1f3-8a03-4e32-9d40-91550e26fca7","ios":"levelo://app?vid=1711c1f3-8a03-4e32-9d40-91550e26fca7"},"vehicle_type_id":"4","last_reported":1704387985,"current_range_meters":0,"station_id":"ce4bgj92rcd13ifvqbd0","pricing_plan_id":"free"},{"bike_id":"a6c5a843-c031-4964-bad3-7c66b0133231","system_id":"levelo_inurba_marseille","lat":43.299028,"lon":5.381509,"is_reserved":false,"is_disabled":false,"rental_uris":{"android":"levelo://app?vid=a6c5a843-c031-4964-bad3-7c66b0133231","ios":"levelo://app?vid=a6c5a843-c031-4964-bad3-7c66b0133231"},"vehicle_type_id":"4","last_reported":1704387985,"current_range_meters":11600,"station_id":"ce4bgj12rcd13ifvqbc0","pricing_plan_id":"free"},{"bike_id":"659ce980-8012-4b56-9925-4d97afd7c6ab","system_id":"levelo_inurba_marseille","lat":43.304274,"lon":5.388873,"is_reserved":false,"is_disabled":false,"rental_uris":{"android":"levelo://app?vid=659ce980-8012-4b56-9925-4d97afd7c6ab","ios":"levelo://app?vid=659ce980-8012-4b56-9925-4d97afd7c6ab"},"vehicle_type_id":"4","last_reported":1704387985,"current_range_meters":24000,"station_id":"ce4bgk12rcd13ifvqbi0","pricing_plan_id":"free"},{"bike_id":"9bac9685-0aee-41c5-a0b2-d294638a00fc","system_id":"levelo_inurba_marseille","lat":43.32365,"lon":5.38877,"is_reserved":false,"is_disabled":false,"rental_uris":{"android":"levelo://app?vid=9bac9685-0aee-41c5-a0b2-d294638a00fc","ios":"levelo://app?vid=9bac9685-0aee-41c5-a0b2-d294638a00fc"},"vehicle_type_id":"4","last_reported":1704387985,"current_range_meters":22800,"station_id":"ce4bhqp2rcd13ifvqhog","pricing_plan_id":"free"},{"bike_id":"e0021f43-de18-4772-bbd0-459c38734811","system_id":"levelo_inurba_marseille","lat":43.32363,"lon":5.38879,"is_reserved":false,"is_disabled":false,"rental_uris":{"android":"levelo://app?vid=e0021f43-de18-4772-bbd0-459c38734811","ios":"levelo://app?vid=e0021f43-de18-4772-bbd0-459c38734811"},"vehicle_type_id":"4","last_reported":1704387985,"current_range_meters":9200,"station_id":"ce4bhqp2rcd13ifvqhog","pricing_plan_id":"free"},{"bike_id":"d02681c8-c2ba-4692-9632-ea6d70f54eca","system_id":"levelo_inurba_marseille","lat":43.32367,"lon":5.388836,"is_reserved":false,"is_disabled":false,"rental_uris":{"android":"levelo://app?vid=d02681c8-c2ba-4692-9632-ea6d70f54eca","ios":"levelo://app?vid=d02681c8-c2ba-4692-9632-ea6d70f54eca"},"vehicle_type_id":"4","last_reported":1704387985,"current_range_meters":13200,"station_id":"ce4bhqp2rcd13ifvqhog","pricing_plan_id":"free"},{"bike_id":"7dcc4c1a-493c-418f-b49b-bb7ef2be55a0","system_id":"levelo_inurba_marseille","lat":43.295967,"lon":5.38103,"is_reserved":false,"is_disabled":false,"rental_uris":{"android":"levelo://app?vid=7dcc4c1a-493c-418f-b49b-bb7ef2be55a0","ios":"levelo://app?vid=7dcc4c1a-493c-418f-b49b-bb7ef2be55a0"},"vehicle_type_id":"4","last_reported":1704387985,"current_range_meters":0,"station_id":"ce4bgl12rcd13ifvqbo0","pricing_plan_id":"free"},{"bike_id":"a8684880-a18d-4e9b-a33d-d89a27860a58","system_id":"levelo_inurba_marseille","lat":43.293259,"lon":5.371586,"is_reserved":false,"is_disabled":false,"rental_uris":{"android":"levelo://app?vid=a8684880-a18d-4e9b-a33d-d89a27860a58","ios":"levelo://app?vid=a8684880-a18d-4e9b-a33d-d89a27860a58"},"vehicle_type_id":"4","last_reported":1704387985,"current_range_meters":800,"station_id":"ce4bgh92rcd13ifvqb40","pricing_plan_id":"free"},{"bike_id":"75ccae2d-ecc4-453b-9a3d-97fa24317fba","system_id":"levelo_inurba_marseille","lat":43.293259,"lon":5.371586,"is_reserved":false,"is_disabled":false,"rental_uris":{"android":"levelo://app?vid=75ccae2d-ecc4-453b-9a3d-97fa24317fba","ios":"levelo://app?vid=75ccae2d-ecc4-453b-9a3d-97fa24317fba"},"vehicle_type_id":"4","last_reported":1704387985,"current_range_meters":4000,"station_id":"ce4bgh92rcd13ifvqb40","pricing_plan_id":"free"},{"bike_id":"022b9adc-7b52-4e73-921e-89cfc53bdd44","system_id":"levelo_inurba_marseille","lat":43.292749,"lon":5.368402,"is_reserved":false,"is_disabled":false,"rental_uris":{"android":"levelo://app?vid=022b9adc-7b52-4e73-921e-89cfc53bdd44","ios":"levelo://app?vid=022b9adc-7b52-4e73-921e-89cfc53bdd44"},"vehicle_type_id":"4","last_reported":1704387985,"current_range_meters":0,"station_id":"ce4bhbp2rcd13ifvqesg","pricing_plan_id":"free"},{"bike_id":"b9095f9f-69f2-42c6-8e70-b767fabbc4f0","system_id":"levelo_inurba_marseille","lat":43.293009,"lon":5.374584,"is_reserved":false,"is_disabled":false,"rental_uris":{"android":"levelo://app?vid=b9095f9f-69f2-42c6-8e70-b767fabbc4f0","ios":"levelo://app?vid=b9095f9f-69f2-42c6-8e70-b767fabbc4f0"},"vehicle_type_id":"4","last_reported":1704387985,"current_range_meters":30400,"station_id":"ce4bgi12rcd13ifvqb70","pricing_plan_id":"free"},{"bike_id":"7e93ae35-0c5d-4c6f-9102-2fee797da8a5","system_id":"levelo_inurba_marseille","lat":43.305994,"lon":5.393687,"is_reserved":false,"is_disabled":false,"rental_uris":{"android":"levelo://app?vid=7e93ae35-0c5d-4c6f-9102-2fee797da8a5","ios":"levelo://app?vid=7e93ae35-0c5d-4c6f-9102-2fee797da8a5"},"vehicle_type_id":"4","last_reported":1704387985,"current_range_meters":17200,"station_id":"ce4bh0p2rcd13ifvqd80","pricing_plan_id":"free"},{"bike_id":"7a06af6d-0735-43fc-8770-c944d5f74e63","system_id":"levelo_inurba_marseille","lat":43.2936,"lon":5.37835,"is_reserved":false,"is_disabled":false,"rental_uris":{"android":"levelo://app?vid=7a06af6d-0735-43fc-8770-c944d5f74e63","ios":"levelo://app?vid=7a06af6d-0735-43fc-8770-c944d5f74e63"},"vehicle_type_id":"4","last_reported":1704387985,"current_range_meters":11600,"station_id":"ce4bgjh2rcd13ifvqbf0","pricing_plan_id":"free"},{"bike_id":"3020ca47-bbec-4e9c-9baa-1cdd527ed70f","system_id":"levelo_inurba_marseille","lat":43.300852,"lon":5.390859,"is_reserved":false,"is_disabled":false,"rental_uris":{"android":"levelo://app?vid=3020ca47-bbec-4e9c-9baa-1cdd527ed70f","ios":"levelo://app?vid=3020ca47-bbec-4e9c-9baa-1cdd527ed70f"},"vehicle_type_id":"4","last_reported":1704387985,"current_range_meters":20800,"station_id":"ce4bh192rcd13ifvqdb0","pricing_plan_id":"free"},{"bike_id":"f8729cc8-c1f3-464b-80c7-ef22409e906f","system_id":"levelo_inurba_marseille","lat":43.30085,"lon":5.390856,"is_reserved":false,"is_disabled":false,"rental_uris":{"android":"levelo://app?vid=f8729cc8-c1f3-464b-80c7-ef22409e906f","ios":"levelo://app?vid=f8729cc8-c1f3-464b-80c7-ef22409e906f"},"vehicle_type_id":"4","last_reported":1704387985,"current_range_meters":21600,"station_id":"ce4bh192rcd13ifvqdb0","pricing_plan_id":"free"},{"bike_id":"f7e01d26-9181-41aa-b4ad-8967b4b5c441","system_id":"levelo_inurba_marseille","lat":43.291675,"lon":5.371583,"is_reserved":false,"is_disabled":false,"rental_uris":{"android":"levelo://app?vid=f7e01d26-9181-41aa-b4ad-8967b4b5c441","ios":"levelo://app?vid=f7e01d26-9181-41aa-b4ad-8967b4b5c441"},"vehicle_type_id":"4","last_reported":1704387985,"current_range_meters":10800,"station_id":"ce4bha92rcd13ifvqeh0","pricing_plan_id":"free"},{"bike_id":"3d536876-69c8-4e35-9754-96ca71bb969c","system_id":"levelo_inurba_marseille","lat":43.29871,"lon":5.38896,"is_reserved":false,"is_disabled":false,"rental_uris":{"android":"levelo://app?vid=3d536876-69c8-4e35-9754-96ca71bb969c","ios":"levelo://app?vid=3d536876-69c8-4e35-9754-96ca71bb969c"},"vehicle_type_id":"4","last_reported":1704387985,"current_range_meters":8800,"station_id":"","pricing_plan_id":"free"},{"bike_id":"8edb536c-1d73-4b91-ad4a-b5a2908e67d6","system_id":"levelo_inurba_marseille","lat":43.29168,"lon":5.37154,"is_reserved":false,"is_disabled":false,"rental_uris":{"android":"levelo://app?vid=8edb536c-1d73-4b91-ad4a-b5a2908e67d6","ios":"levelo://app?vid=8edb536c-1d73-4b91-ad4a-b5a2908e67d6"},"vehicle_type_id":"4","last_reported":1704387985,"current_range_meters":7600,"station_id":"","pricing_plan_id":"free"},{"bike_id":"ed5fdd33-a589-4c71-b472-4fb7a60c35af","system_id":"levelo_inurba_marseille","lat":43.291671,"lon":5.371575,"is_reserved":false,"is_disabled":false,"rental_uris":{"android":"levelo://app?vid=ed5fdd33-a589-4c71-b472-4fb7a60c35af","ios":"levelo://app?vid=ed5fdd33-a589-4c71-b472-4fb7a60c35af"},"vehicle_type_id":"4","last_reported":1704387985,"current_range_meters":2000,"station_id":"ce4bha92rcd13ifvqeh0","pricing_plan_id":"free"},{"bike_id":"018159de-ed14-427e-8be4-b1addadd4dbe","system_id":"levelo_inurba_marseille","lat":43.313291,"lon":5.396838,"is_reserved":false,"is_disabled":false,"rental_uris":{"android":"levelo://app?vid=018159de-ed14-427e-8be4-b1addadd4dbe","ios":"levelo://app?vid=018159de-ed14-427e-8be4-b1addadd4dbe"},"vehicle_type_id":"4","last_reported":1704387985,"current_range_meters":12800,"station_id":"ce4bgvp2rcd13ifvqcu0","pricing_plan_id":"free"},{"bike_id":"35799d36-102d-412e-864e-a0892cd516c3","system_id":"levelo_inurba_marseille","lat":43.313291,"lon":5.396838,"is_reserved":false,"is_disabled":false,"rental_uris":{"android":"levelo://app?vid=35799d36-102d-412e-864e-a0892cd516c3","ios":"levelo://app?vid=35799d36-102d-412e-864e-a0892cd516c3"},"vehicle_type_id":"4","last_reported":1704387985,"current_range_meters":5200,"station_id":"ce4bgvp2rcd13ifvqcu0","pricing_plan_id":"free"},{"bike_id":"11ebe11d-5eb5-4ea1-b905-a6590a77e53b","system_id":"levelo_inurba_marseille","lat":43.313291,"lon":5.396838,"is_reserved":false,"is_disabled":false,"rental_uris":{"android":"levelo://app?vid=11ebe11d-5eb5-4ea1-b905-a6590a77e53b","ios":"levelo://app?vid=11ebe11d-5eb5-4ea1-b905-a6590a77e53b"},"vehicle_type_id":"4","last_reported":1704387985,"current_range_meters":23600,"station_id":"ce4bgvp2rcd13ifvqcu0","pricing_plan_id":"free"},{"bike_id":"5ebab81c-726c-4c7d-adb4-882019490576","system_id":"levelo_inurba_marseille","lat":43.313291,"lon":5.396838,"is_reserved":false,"is_disabled":false,"rental_uris":{"android":"levelo://app?vid=5ebab81c-726c-4c7d-adb4-882019490576","ios":"levelo://app?vid=5ebab81c-726c-4c7d-adb4-882019490576"},"vehicle_type_id":"4","last_reported":1704387985,"current_range_meters":20800,"station_id":"ce4bgvp2rcd13ifvqcu0","pricing_plan_id":"free"},{"bike_id":"a1d4d6a9-131c-4e2d-8a0e-6c2a2e0e9747","system_id":"levelo_inurba_marseille","lat":43.313291,"lon":5.396838,"is_reserved":false,"is_disabled":false,"rental_uris":{"android":"levelo://app?vid=a1d4d6a9-131c-4e2d-8a0e-6c2a2e0e9747","ios":"levelo://app?vid=a1d4d6a9-131c-4e2d-8a0e-6c2a2e0e9747"},"vehicle_type_id":"4","last_reported":1704387985,"current_range_meters":16000,"station_id":"ce4bgvp2rcd13ifvqcu0","pricing_plan_id":"free"},{"bike_id":"4a9311c4-4db5-4367-b1f7-d435bd185033","system_id":"levelo_inurba_marseille","lat":43.33273,"lon":5.37989,"is_reserved":false,"is_disabled":false,"rental_uris":{"android":"levelo://app?vid=4a9311c4-4db5-4367-b1f7-d435bd185033","ios":"levelo://app?vid=4a9311c4-4db5-4367-b1f7-d435bd185033"},"vehicle_type_id":"4","last_reported":1704387985,"current_range_meters":6000,"station_id":"","pricing_plan_id":"free"},{"bike_id":"49b82b6e-d7e3-403d-9854-36c240673f0a","system_id":"levelo_inurba_marseille","lat":43.290631,"lon":5.359244,"is_reserved":false,"is_disabled":false,"rental_uris":{"android":"levelo://app?vid=49b82b6e-d7e3-403d-9854-36c240673f0a","ios":"levelo://app?vid=49b82b6e-d7e3-403d-9854-36c240673f0a"},"vehicle_type_id":"4","last_reported":1704387985,"current_range_meters":31200,"station_id":"ce4bha92rcd13ifvqeg0","pricing_plan_id":"free"},{"bike_id":"e2968eb1-9b4d-4db0-8c07-cbde0187b00a","system_id":"levelo_inurba_marseille","lat":43.294153,"lon":5.386305,"is_reserved":false,"is_disabled":false,"rental_uris":{"android":"levelo://app?vid=e2968eb1-9b4d-4db0-8c07-cbde0187b00a","ios":"levelo://app?vid=e2968eb1-9b4d-4db0-8c07-cbde0187b00a"},"vehicle_type_id":"4","last_reported":1704387985,"current_range_meters":0,"station_id":"ce4bh2h2rcd13ifvqdh0","pricing_plan_id":"free"},{"bike_id":"68a688b8-4c70-42af-a269-95f3a41a8a0d","system_id":"levelo_inurba_marseille","lat":43.290327,"lon":5.375711,"is_reserved":false,"is_disabled":false,"rental_uris":{"android":"levelo://app?vid=68a688b8-4c70-42af-a269-95f3a41a8a0d","ios":"levelo://app?vid=68a688b8-4c70-42af-a269-95f3a41a8a0d"},"vehicle_type_id":"4","last_reported":1704387985,"current_range_meters":24000,"station_id":"ce4bh692rcd13ifvqe90","pricing_plan_id":"free"},{"bike_id":"04414bed-fd1f-4f05-a9d0-ecfba187e040","system_id":"levelo_inurba_marseille","lat":43.289184,"lon":5.366408,"is_reserved":false,"is_disabled":false,"rental_uris":{"android":"levelo://app?vid=04414bed-fd1f-4f05-a9d0-ecfba187e040","ios":"levelo://app?vid=04414bed-fd1f-4f05-a9d0-ecfba187e040"},"vehicle_type_id":"4","last_reported":1704387985,"current_range_meters":17200,"station_id":"ce4bhap2rcd13ifvqek0","pricing_plan_id":"free"},{"bike_id":"38c96f09-9f4d-4f04-8048-cc00d69c0ac2","system_id":"levelo_inurba_marseille","lat":43.289468,"lon":5.363719,"is_reserved":false,"is_disabled":false,"rental_uris":{"android":"levelo://app?vid=38c96f09-9f4d-4f04-8048-cc00d69c0ac2","ios":"levelo://app?vid=38c96f09-9f4d-4f04-8048-cc00d69c0ac2"},"vehicle_type_id":"4","last_reported":1704387985,"current_range_meters":23200,"station_id":"ce4bhc92rcd13ifvqetg","pricing_plan_id":"free"},{"bike_id":"b5fa6a3e-a8e2-4779-a312-9880e1e5b9d5","system_id":"levelo_inurba_marseille","lat":43.304296,"lon":5.397513,"is_reserved":false,"is_disabled":false,"rental_uris":{"android":"levelo://app?vid=b5fa6a3e-a8e2-4779-a312-9880e1e5b9d5","ios":"levelo://app?vid=b5fa6a3e-a8e2-4779-a312-9880e1e5b9d5"},"vehicle_type_id":"4","last_reported":1704387985,"current_range_meters":23600,"station_id":"ce4bh092rcd13ifvqd20","pricing_plan_id":"free"},{"bike_id":"1c8d18cd-37b1-4929-bc5e-aa4d827a2c90","system_id":"levelo_inurba_marseille","lat":43.289741,"lon":5.378306,"is_reserved":false,"is_disabled":false,"rental_uris":{"android":"levelo://app?vid=1c8d18cd-37b1-4929-bc5e-aa4d827a2c90","ios":"levelo://app?vid=1c8d18cd-37b1-4929-bc5e-aa4d827a2c90"},"vehicle_type_id":"4","last_reported":1704387985,"current_range_meters":7600,"station_id":"ce4bh9p2rcd13ifvqed0","pricing_plan_id":"free"},{"bike_id":"a023d84b-11ca-49dd-9d6c-50372e788579","system_id":"levelo_inurba_marseille","lat":43.330442,"lon":5.389148,"is_reserved":false,"is_disabled":false,"rental_uris":{"android":"levelo://app?vid=a023d84b-11ca-49dd-9d6c-50372e788579","ios":"levelo://app?vid=a023d84b-11ca-49dd-9d6c-50372e788579"},"vehicle_type_id":"4","last_reported":1704387985,"current_range_meters":14000,"station_id":"ce4bhr92rcd13ifvqhrg","pricing_plan_id":"free"},{"bike_id":"d925e367-33e5-4105-b610-eead44d82ac5","system_id":"levelo_inurba_marseille","lat":43.295169,"lon":5.390426,"is_reserved":false,"is_disabled":false,"rental_uris":{"android":"levelo://app?vid=d925e367-33e5-4105-b610-eead44d82ac5","ios":"levelo://app?vid=d925e367-33e5-4105-b610-eead44d82ac5"},"vehicle_type_id":"4","last_reported":1704387985,"current_range_meters":4000,"station_id":"ce4bh3p2rcd13ifvqdp0","pricing_plan_id":"free"},{"bike_id":"7da19f74-ba7f-4bc9-841b-f11c963d1d8f","system_id":"levelo_inurba_marseille","lat":43.330442,"lon":5.389148,"is_reserved":false,"is_disabled":false,"rental_uris":{"android":"levelo://app?vid=7da19f74-ba7f-4bc9-841b-f11c963d1d8f","ios":"levelo://app?vid=7da19f74-ba7f-4bc9-841b-f11c963d1d8f"},"vehicle_type_id":"4","last_reported":1704387985,"current_range_meters":4000,"station_id":"ce4bhr92rcd13ifvqhrg","pricing_plan_id":"free"},{"bike_id":"a4544299-4117-4ba4-98ad-2dcd1cebe1e8","system_id":"levelo_inurba_marseille","lat":43.330442,"lon":5.389148,"is_reserved":false,"is_disabled":false,"rental_uris":{"android":"levelo://app?vid=a4544299-4117-4ba4-98ad-2dcd1cebe1e8","ios":"levelo://app?vid=a4544299-4117-4ba4-98ad-2dcd1cebe1e8"},"vehicle_type_id":"4","last_reported":1704387985,"current_range_meters":19600,"station_id":"ce4bhr92rcd13ifvqhrg","pricing_plan_id":"free"},{"bike_id":"a45508dc-3e20-4dc2-a3f2-c48092cac22d","system_id":"levelo_inurba_marseille","lat":43.330442,"lon":5.389148,"is_reserved":false,"is_disabled":false,"rental_uris":{"android":"levelo://app?vid=a45508dc-3e20-4dc2-a3f2-c48092cac22d","ios":"levelo://app?vid=a45508dc-3e20-4dc2-a3f2-c48092cac22d"},"vehicle_type_id":"4","last_reported":1704387985,"current_range_meters":30400,"station_id":"ce4bhr92rcd13ifvqhrg","pricing_plan_id":"free"},{"bike_id":"3537c72e-affb-4603-a0d4-44c57db301e5","system_id":"levelo_inurba_marseille","lat":43.330442,"lon":5.389148,"is_reserved":false,"is_disabled":false,"rental_uris":{"android":"levelo://app?vid=3537c72e-affb-4603-a0d4-44c57db301e5","ios":"levelo://app?vid=3537c72e-affb-4603-a0d4-44c57db301e5"},"vehicle_type_id":"4","last_reported":1704387985,"current_range_meters":25600,"station_id":"ce4bhr92rcd13ifvqhrg","pricing_plan_id":"free"},{"bike_id":"b4dc5f58-d698-47e4-9d04-a65a1aac924a","system_id":"levelo_inurba_marseille","lat":43.330442,"lon":5.389148,"is_reserved":false,"is_disabled":false,"rental_uris":{"android":"levelo://app?vid=b4dc5f58-d698-47e4-9d04-a65a1aac924a","ios":"levelo://app?vid=b4dc5f58-d698-47e4-9d04-a65a1aac924a"},"vehicle_type_id":"4","last_reported":1704387985,"current_range_meters":8400,"station_id":"ce4bhr92rcd13ifvqhrg","pricing_plan_id":"free"},{"bike_id":"6802c80e-b0b7-4cf4-9e8b-bb1f480d9a3f","system_id":"levelo_inurba_marseille","lat":43.28856,"lon":5.358371,"is_reserved":false,"is_disabled":false,"rental_uris":{"android":"levelo://app?vid=6802c80e-b0b7-4cf4-9e8b-bb1f480d9a3f","ios":"levelo://app?vid=6802c80e-b0b7-4cf4-9e8b-bb1f480d9a3f"},"vehicle_type_id":"4","last_reported":1704387985,"current_range_meters":6400,"station_id":"ce4bhb12rcd13ifvqem0","pricing_plan_id":"free"},{"bike_id":"5f75aef2-89e4-495e-8b21-010b53218c13","system_id":"levelo_inurba_marseille","lat":43.309371,"lon":5.401449,"is_reserved":false,"is_disabled":false,"rental_uris":{"android":"levelo://app?vid=5f75aef2-89e4-495e-8b21-010b53218c13","ios":"levelo://app?vid=5f75aef2-89e4-495e-8b21-010b53218c13"},"vehicle_type_id":"4","last_reported":1704387985,"current_range_meters":21600,"station_id":"ce4bgvp2rcd13ifvqct0","pricing_plan_id":"free"},{"bike_id":"281dc619-fe26-43b6-a326-b00761b9daea","system_id":"levelo_inurba_marseille","lat":43.33751,"lon":5.37453,"is_reserved":false,"is_disabled":false,"rental_uris":{"android":"levelo://app?vid=281dc619-fe26-43b6-a326-b00761b9daea","ios":"levelo://app?vid=281dc619-fe26-43b6-a326-b00761b9daea"},"vehicle_type_id":"4","last_reported":1704387985,"current_range_meters":11200,"station_id":"","pricing_plan_id":"free"},{"bike_id":"7e12ae61-25da-49fd-baec-098d716154cb","system_id":"levelo_inurba_marseille","lat":43.30642,"lon":5.401031,"is_reserved":false,"is_disabled":false,"rental_uris":{"android":"levelo://app?vid=7e12ae61-25da-49fd-baec-098d716154cb","ios":"levelo://app?vid=7e12ae61-25da-49fd-baec-098d716154cb"},"vehicle_type_id":"4","last_reported":1704387985,"current_range_meters":20000,"station_id":"ce4bh112rcd13ifvqda0","pricing_plan_id":"free"},{"bike_id":"b87042d5-a5d5-49a9-81ee-bbe3cd37cd23","system_id":"levelo_inurba_marseille","lat":43.337642,"lon":5.374516,"is_reserved":false,"is_disabled":false,"rental_uris":{"android":"levelo://app?vid=b87042d5-a5d5-49a9-81ee-bbe3cd37cd23","ios":"levelo://app?vid=b87042d5-a5d5-49a9-81ee-bbe3cd37cd23"},"vehicle_type_id":"4","last_reported":1704387985,"current_range_meters":20400,"station_id":"","pricing_plan_id":"free"},{"bike_id":"5d422c02-1d66-4689-ba54-1826b8413e32","system_id":"levelo_inurba_marseille","lat":43.306412,"lon":5.401035,"is_reserved":false,"is_disabled":false,"rental_uris":{"android":"levelo://app?vid=5d422c02-1d66-4689-ba54-1826b8413e32","ios":"levelo://app?vid=5d422c02-1d66-4689-ba54-1826b8413e32"},"vehicle_type_id":"4","last_reported":1704387985,"current_range_meters":27200,"station_id":"ce4bh112rcd13ifvqda0","pricing_plan_id":"free"},{"bike_id":"38de82ba-9a22-4d1d-b18c-123321c3e8fe","system_id":"levelo_inurba_marseille","lat":43.33765,"lon":5.37485,"is_reserved":false,"is_disabled":false,"rental_uris":{"android":"levelo://app?vid=38de82ba-9a22-4d1d-b18c-123321c3e8fe","ios":"levelo://app?vid=38de82ba-9a22-4d1d-b18c-123321c3e8fe"},"vehicle_type_id":"4","last_reported":1704387985,"current_range_meters":28400,"station_id":"","pricing_plan_id":"free"},{"bike_id":"a38cb2cd-211a-406b-a45d-b2390548c22c","system_id":"levelo_inurba_marseille","lat":43.337675,"lon":5.374703,"is_reserved":false,"is_disabled":false,"rental_uris":{"android":"levelo://app?vid=a38cb2cd-211a-406b-a45d-b2390548c22c","ios":"levelo://app?vid=a38cb2cd-211a-406b-a45d-b2390548c22c"},"vehicle_type_id":"4","last_reported":1704387985,"current_range_meters":27600,"station_id":"","pricing_plan_id":"free"},{"bike_id":"88b992ac-b851-4370-a5e1-696a7c2459ce","system_id":"levelo_inurba_marseille","lat":43.301361,"lon":5.398773,"is_reserved":false,"is_disabled":false,"rental_uris":{"android":"levelo://app?vid=88b992ac-b851-4370-a5e1-696a7c2459ce","ios":"levelo://app?vid=88b992ac-b851-4370-a5e1-696a7c2459ce"},"vehicle_type_id":"4","last_reported":1704387985,"current_range_meters":0,"station_id":"ce4bh0h2rcd13ifvqd40","pricing_plan_id":"free"},{"bike_id":"ce23df25-1f35-4e91-b521-e745988a7edf","system_id":"levelo_inurba_marseille","lat":43.28727,"lon":5.36078,"is_reserved":false,"is_disabled":false,"rental_uris":{"android":"levelo://app?vid=ce23df25-1f35-4e91-b521-e745988a7edf","ios":"levelo://app?vid=ce23df25-1f35-4e91-b521-e745988a7edf"},"vehicle_type_id":"4","last_reported":1704387985,"current_range_meters":21600,"station_id":"cki0cbj6b192h4jlfktg","pricing_plan_id":"free"},{"bike_id":"3291273b-dbe3-4666-baae-c79a7a1226b8","system_id":"levelo_inurba_marseille","lat":43.286591,"lon":5.363346,"is_reserved":false,"is_disabled":false,"rental_uris":{"android":"levelo://app?vid=3291273b-dbe3-4666-baae-c79a7a1226b8","ios":"levelo://app?vid=3291273b-dbe3-4666-baae-c79a7a1226b8"},"vehicle_type_id":"4","last_reported":1704387985,"current_range_meters":13200,"station_id":"ce4bhah2rcd13ifvqej0","pricing_plan_id":"free"},{"bike_id":"cfc5d20c-e68d-4511-b4b7-1a84e959c9ad","system_id":"levelo_inurba_marseille","lat":43.286591,"lon":5.363346,"is_reserved":false,"is_disabled":false,"rental_uris":{"android":"levelo://app?vid=cfc5d20c-e68d-4511-b4b7-1a84e959c9ad","ios":"levelo://app?vid=cfc5d20c-e68d-4511-b4b7-1a84e959c9ad"},"vehicle_type_id":"4","last_reported":1704387985,"current_range_meters":28400,"station_id":"ce4bhah2rcd13ifvqej0","pricing_plan_id":"free"},{"bike_id":"909e071c-11ab-4fd1-888b-b602a2ad9783","system_id":"levelo_inurba_marseille","lat":43.286961,"lon":5.373785,"is_reserved":false,"is_disabled":false,"rental_uris":{"android":"levelo://app?vid=909e071c-11ab-4fd1-888b-b602a2ad9783","ios":"levelo://app?vid=909e071c-11ab-4fd1-888b-b602a2ad9783"},"vehicle_type_id":"4","last_reported":1704387985,"current_range_meters":21200,"station_id":"ce4bh3p2rcd13ifvqdq0","pricing_plan_id":"free"},{"bike_id":"c3260b59-b0f2-4bae-89f4-d6d2115869d6","system_id":"levelo_inurba_marseille","lat":43.286591,"lon":5.363346,"is_reserved":false,"is_disabled":false,"rental_uris":{"android":"levelo://app?vid=c3260b59-b0f2-4bae-89f4-d6d2115869d6","ios":"levelo://app?vid=c3260b59-b0f2-4bae-89f4-d6d2115869d6"},"vehicle_type_id":"4","last_reported":1704387985,"current_range_meters":4800,"station_id":"ce4bhah2rcd13ifvqej0","pricing_plan_id":"free"},{"bike_id":"a22f48cf-2c3e-415f-ac63-edd1fe5b9def","system_id":"levelo_inurba_marseille","lat":43.298681,"lon":5.397225,"is_reserved":false,"is_disabled":false,"rental_uris":{"android":"levelo://app?vid=a22f48cf-2c3e-415f-ac63-edd1fe5b9def","ios":"levelo://app?vid=a22f48cf-2c3e-415f-ac63-edd1fe5b9def"},"vehicle_type_id":"4","last_reported":1704387985,"current_range_meters":5200,"station_id":"ce4bh0h2rcd13ifvqd50","pricing_plan_id":"free"},{"bike_id":"ce4683d6-03b4-45b6-b088-a08bf7d0a092","system_id":"levelo_inurba_marseille","lat":43.286961,"lon":5.373785,"is_reserved":false,"is_disabled":false,"rental_uris":{"android":"levelo://app?vid=ce4683d6-03b4-45b6-b088-a08bf7d0a092","ios":"levelo://app?vid=ce4683d6-03b4-45b6-b088-a08bf7d0a092"},"vehicle_type_id":"4","last_reported":1704387985,"current_range_meters":11600,"station_id":"ce4bh3p2rcd13ifvqdq0","pricing_plan_id":"free"},{"bike_id":"4b91e8a9-c30c-466b-888e-452d9fcca077","system_id":"levelo_inurba_marseille","lat":43.286593,"lon":5.363346,"is_reserved":false,"is_disabled":false,"rental_uris":{"android":"levelo://app?vid=4b91e8a9-c30c-466b-888e-452d9fcca077","ios":"levelo://app?vid=4b91e8a9-c30c-466b-888e-452d9fcca077"},"vehicle_type_id":"4","last_reported":1704387985,"current_range_meters":20800,"station_id":"ce4bhah2rcd13ifvqej0","pricing_plan_id":"free"},{"bike_id":"d1edfffc-de91-41bb-b4db-32ba7d22c0bc","system_id":"levelo_inurba_marseille","lat":43.295194,"lon":5.39397,"is_reserved":false,"is_disabled":false,"rental_uris":{"android":"levelo://app?vid=d1edfffc-de91-41bb-b4db-32ba7d22c0bc","ios":"levelo://app?vid=d1edfffc-de91-41bb-b4db-32ba7d22c0bc"},"vehicle_type_id":"4","last_reported":1704387985,"current_range_meters":4800,"station_id":"ce4bh292rcd13ifvqdf0","pricing_plan_id":"free"},{"bike_id":"47812b97-1b00-46b7-8ee4-88199cb6cb7b","system_id":"levelo_inurba_marseille","lat":43.290345,"lon":5.38646,"is_reserved":false,"is_disabled":false,"rental_uris":{"android":"levelo://app?vid=47812b97-1b00-46b7-8ee4-88199cb6cb7b","ios":"levelo://app?vid=47812b97-1b00-46b7-8ee4-88199cb6cb7b"},"vehicle_type_id":"4","last_reported":1704387985,"current_range_meters":10000,"station_id":"ce4bh4p2rcd13ifvqe0g","pricing_plan_id":"free"},{"bike_id":"2dc5072d-0f58-41da-be73-759e8d620e17","system_id":"levelo_inurba_marseille","lat":43.290345,"lon":5.38646,"is_reserved":false,"is_disabled":false,"rental_uris":{"android":"levelo://app?vid=2dc5072d-0f58-41da-be73-759e8d620e17","ios":"levelo://app?vid=2dc5072d-0f58-41da-be73-759e8d620e17"},"vehicle_type_id":"4","last_reported":1704387985,"current_range_meters":0,"station_id":"ce4bh4p2rcd13ifvqe0g","pricing_plan_id":"free"},{"bike_id":"a3336a29-e785-4dcd-ae12-39f38e4460f9","system_id":"levelo_inurba_marseille","lat":43.290345,"lon":5.38646,"is_reserved":false,"is_disabled":false,"rental_uris":{"android":"levelo://app?vid=a3336a29-e785-4dcd-ae12-39f38e4460f9","ios":"levelo://app?vid=a3336a29-e785-4dcd-ae12-39f38e4460f9"},"vehicle_type_id":"4","last_reported":1704387985,"current_range_meters":1200,"station_id":"ce4bh4p2rcd13ifvqe0g","pricing_plan_id":"free"},{"bike_id":"086db719-cce4-489c-8aba-b7805439f307","system_id":"levelo_inurba_marseille","lat":43.302759,"lon":5.400793,"is_reserved":false,"is_disabled":false,"rental_uris":{"android":"levelo://app?vid=086db719-cce4-489c-8aba-b7805439f307","ios":"levelo://app?vid=086db719-cce4-489c-8aba-b7805439f307"},"vehicle_type_id":"4","last_reported":1704387985,"current_range_meters":25600,"station_id":"ce4bgvh2rcd13ifvqcs0","pricing_plan_id":"free"},{"bike_id":"f7979b8a-a768-4232-adf9-9eecfcfccbe6","system_id":"levelo_inurba_marseille","lat":43.302759,"lon":5.400793,"is_reserved":false,"is_disabled":false,"rental_uris":{"android":"levelo://app?vid=f7979b8a-a768-4232-adf9-9eecfcfccbe6","ios":"levelo://app?vid=f7979b8a-a768-4232-adf9-9eecfcfccbe6"},"vehicle_type_id":"4","last_reported":1704387985,"current_range_meters":13600,"station_id":"ce4bgvh2rcd13ifvqcs0","pricing_plan_id":"free"},{"bike_id":"98a2242f-4da3-4a2b-94d5-18533170f8c8","system_id":"levelo_inurba_marseille","lat":43.302759,"lon":5.400793,"is_reserved":false,"is_disabled":false,"rental_uris":{"android":"levelo://app?vid=98a2242f-4da3-4a2b-94d5-18533170f8c8","ios":"levelo://app?vid=98a2242f-4da3-4a2b-94d5-18533170f8c8"},"vehicle_type_id":"4","last_reported":1704387985,"current_range_meters":9600,"station_id":"ce4bgvh2rcd13ifvqcs0","pricing_plan_id":"free"},{"bike_id":"b885b656-7312-4c80-900e-c49ad1dd4689","system_id":"levelo_inurba_marseille","lat":43.30247,"lon":5.4007,"is_reserved":false,"is_disabled":false,"rental_uris":{"android":"levelo://app?vid=b885b656-7312-4c80-900e-c49ad1dd4689","ios":"levelo://app?vid=b885b656-7312-4c80-900e-c49ad1dd4689"},"vehicle_type_id":"4","last_reported":1704387985,"current_range_meters":12800,"station_id":"ce4bgvh2rcd13ifvqcs0","pricing_plan_id":"free"},{"bike_id":"0fb8ff4f-85ee-4447-bc55-aed0c96edefa","system_id":"levelo_inurba_marseille","lat":43.302759,"lon":5.400793,"is_reserved":false,"is_disabled":false,"rental_uris":{"android":"levelo://app?vid=0fb8ff4f-85ee-4447-bc55-aed0c96edefa","ios":"levelo://app?vid=0fb8ff4f-85ee-4447-bc55-aed0c96edefa"},"vehicle_type_id":"4","last_reported":1704387985,"current_range_meters":31200,"station_id":"ce4bgvh2rcd13ifvqcs0","pricing_plan_id":"free"},{"bike_id":"91e8a84f-c990-419c-9457-e1cc00e7c2fc","system_id":"levelo_inurba_marseille","lat":43.302759,"lon":5.400793,"is_reserved":false,"is_disabled":false,"rental_uris":{"android":"levelo://app?vid=91e8a84f-c990-419c-9457-e1cc00e7c2fc","ios":"levelo://app?vid=91e8a84f-c990-419c-9457-e1cc00e7c2fc"},"vehicle_type_id":"4","last_reported":1704387985,"current_range_meters":10800,"station_id":"ce4bgvh2rcd13ifvqcs0","pricing_plan_id":"free"},{"bike_id":"c2ec11bc-194f-4b72-8a74-5b82949fb5c5","system_id":"levelo_inurba_marseille","lat":43.290336,"lon":5.386425,"is_reserved":false,"is_disabled":false,"rental_uris":{"android":"levelo://app?vid=c2ec11bc-194f-4b72-8a74-5b82949fb5c5","ios":"levelo://app?vid=c2ec11bc-194f-4b72-8a74-5b82949fb5c5"},"vehicle_type_id":"4","last_reported":1704387985,"current_range_meters":6000,"station_id":"ce4bh4p2rcd13ifvqe0g","pricing_plan_id":"free"},{"bike_id":"551a7b79-2597-411d-b7af-20c6aa18c4ef","system_id":"levelo_inurba_marseille","lat":43.28611,"lon":5.3706,"is_reserved":false,"is_disabled":false,"rental_uris":{"android":"levelo://app?vid=551a7b79-2597-411d-b7af-20c6aa18c4ef","ios":"levelo://app?vid=551a7b79-2597-411d-b7af-20c6aa18c4ef"},"vehicle_type_id":"4","last_reported":1704387985,"current_range_meters":15200,"station_id":"ce4bht12rcd13ifvqi60","pricing_plan_id":"free"},{"bike_id":"0b2e4cda-a050-4604-93e2-98f30b757693","system_id":"levelo_inurba_marseille","lat":43.286039,"lon":5.370679,"is_reserved":false,"is_disabled":false,"rental_uris":{"android":"levelo://app?vid=0b2e4cda-a050-4604-93e2-98f30b757693","ios":"levelo://app?vid=0b2e4cda-a050-4604-93e2-98f30b757693"},"vehicle_type_id":"4","last_reported":1704387985,"current_range_meters":27600,"station_id":"ce4bht12rcd13ifvqi60","pricing_plan_id":"free"},{"bike_id":"43fa715b-0b8c-4853-9980-29bfa9807e84","system_id":"levelo_inurba_marseille","lat":43.286039,"lon":5.370679,"is_reserved":false,"is_disabled":false,"rental_uris":{"android":"levelo://app?vid=43fa715b-0b8c-4853-9980-29bfa9807e84","ios":"levelo://app?vid=43fa715b-0b8c-4853-9980-29bfa9807e84"},"vehicle_type_id":"4","last_reported":1704387985,"current_range_meters":10400,"station_id":"ce4bht12rcd13ifvqi60","pricing_plan_id":"free"},{"bike_id":"ff3b0e82-ef39-4c0a-8168-1f5914d9666d","system_id":"levelo_inurba_marseille","lat":43.287184,"lon":5.37937,"is_reserved":false,"is_disabled":false,"rental_uris":{"android":"levelo://app?vid=ff3b0e82-ef39-4c0a-8168-1f5914d9666d","ios":"levelo://app?vid=ff3b0e82-ef39-4c0a-8168-1f5914d9666d"},"vehicle_type_id":"4","last_reported":1704387985,"current_range_meters":16800,"station_id":"ce4bh9p2rcd13ifvqec0","pricing_plan_id":"free"},{"bike_id":"ee2547f3-1f51-4604-b0dc-8d7e0b69f1f3","system_id":"levelo_inurba_marseille","lat":43.286595,"lon":5.386795,"is_reserved":false,"is_disabled":false,"rental_uris":{"android":"levelo://app?vid=ee2547f3-1f51-4604-b0dc-8d7e0b69f1f3","ios":"levelo://app?vid=ee2547f3-1f51-4604-b0dc-8d7e0b69f1f3"},"vehicle_type_id":"4","last_reported":1704387985,"current_range_meters":26800,"station_id":"ce4bh492rcd13ifvqdug","pricing_plan_id":"free"},{"bike_id":"871962e5-3def-46c2-ad7c-12a7b0ea5d18","system_id":"levelo_inurba_marseille","lat":43.291994,"lon":5.392907,"is_reserved":false,"is_disabled":false,"rental_uris":{"android":"levelo://app?vid=871962e5-3def-46c2-ad7c-12a7b0ea5d18","ios":"levelo://app?vid=871962e5-3def-46c2-ad7c-12a7b0ea5d18"},"vehicle_type_id":"4","last_reported":1704387985,"current_range_meters":24000,"station_id":"ce4bh192rcd13ifvqdd0","pricing_plan_id":"free"},{"bike_id":"334add37-9172-4400-a3a3-11d18d0b99d9","system_id":"levelo_inurba_marseille","lat":43.291994,"lon":5.392907,"is_reserved":false,"is_disabled":false,"rental_uris":{"android":"levelo://app?vid=334add37-9172-4400-a3a3-11d18d0b99d9","ios":"levelo://app?vid=334add37-9172-4400-a3a3-11d18d0b99d9"},"vehicle_type_id":"4","last_reported":1704387985,"current_range_meters":24400,"station_id":"ce4bh192rcd13ifvqdd0","pricing_plan_id":"free"},{"bike_id":"d00b8464-20d2-481d-9d56-9e55c684c758","system_id":"levelo_inurba_marseille","lat":43.291994,"lon":5.392907,"is_reserved":false,"is_disabled":false,"rental_uris":{"android":"levelo://app?vid=d00b8464-20d2-481d-9d56-9e55c684c758","ios":"levelo://app?vid=d00b8464-20d2-481d-9d56-9e55c684c758"},"vehicle_type_id":"4","last_reported":1704387985,"current_range_meters":15200,"station_id":"ce4bh192rcd13ifvqdd0","pricing_plan_id":"free"},{"bike_id":"46ee0808-2aa0-40a3-83d8-5a08a6720368","system_id":"levelo_inurba_marseille","lat":43.285856,"lon":5.350771,"is_reserved":false,"is_disabled":false,"rental_uris":{"android":"levelo://app?vid=46ee0808-2aa0-40a3-83d8-5a08a6720368","ios":"levelo://app?vid=46ee0808-2aa0-40a3-83d8-5a08a6720368"},"vehicle_type_id":"4","last_reported":1704387985,"current_range_meters":2400,"station_id":"ce4bhch2rcd13ifvqeug","pricing_plan_id":"free"},{"bike_id":"3f2d67b5-1b70-4dca-a662-d18b710194fe","system_id":"levelo_inurba_marseille","lat":43.29844,"lon":5.40173,"is_reserved":false,"is_disabled":false,"rental_uris":{"android":"levelo://app?vid=3f2d67b5-1b70-4dca-a662-d18b710194fe","ios":"levelo://app?vid=3f2d67b5-1b70-4dca-a662-d18b710194fe"},"vehicle_type_id":"4","last_reported":1704387985,"current_range_meters":12000,"station_id":"","pricing_plan_id":"free"},{"bike_id":"a40bc083-5940-4172-8dad-81d7bc5b0417","system_id":"levelo_inurba_marseille","lat":43.28413,"lon":5.37507,"is_reserved":false,"is_disabled":false,"rental_uris":{"android":"levelo://app?vid=a40bc083-5940-4172-8dad-81d7bc5b0417","ios":"levelo://app?vid=a40bc083-5940-4172-8dad-81d7bc5b0417"},"vehicle_type_id":"4","last_reported":1704387985,"current_range_meters":22400,"station_id":"ce4bh412rcd13ifvqds0","pricing_plan_id":"free"},{"bike_id":"0b746c79-8268-43ff-90b8-6b45aed47e81","system_id":"levelo_inurba_marseille","lat":43.283998,"lon":5.375062,"is_reserved":false,"is_disabled":false,"rental_uris":{"android":"levelo://app?vid=0b746c79-8268-43ff-90b8-6b45aed47e81","ios":"levelo://app?vid=0b746c79-8268-43ff-90b8-6b45aed47e81"},"vehicle_type_id":"4","last_reported":1704387985,"current_range_meters":2000,"station_id":"ce4bh412rcd13ifvqds0","pricing_plan_id":"free"},{"bike_id":"f2e6e3eb-ffa9-4b77-9582-9a471f01ac0a","system_id":"levelo_inurba_marseille","lat":43.28409,"lon":5.375136,"is_reserved":false,"is_disabled":false,"rental_uris":{"android":"levelo://app?vid=f2e6e3eb-ffa9-4b77-9582-9a471f01ac0a","ios":"levelo://app?vid=f2e6e3eb-ffa9-4b77-9582-9a471f01ac0a"},"vehicle_type_id":"4","last_reported":1704387985,"current_range_meters":22800,"station_id":"ce4bh412rcd13ifvqds0","pricing_plan_id":"free"},{"bike_id":"529052eb-0a46-45d3-b31d-c68ed455e2b6","system_id":"levelo_inurba_marseille","lat":43.283998,"lon":5.375062,"is_reserved":false,"is_disabled":false,"rental_uris":{"android":"levelo://app?vid=529052eb-0a46-45d3-b31d-c68ed455e2b6","ios":"levelo://app?vid=529052eb-0a46-45d3-b31d-c68ed455e2b6"},"vehicle_type_id":"4","last_reported":1704387985,"current_range_meters":20000,"station_id":"ce4bh412rcd13ifvqds0","pricing_plan_id":"free"},{"bike_id":"712aaca2-8cb2-4d86-97a0-ce31de0592b4","system_id":"levelo_inurba_marseille","lat":43.28404,"lon":5.37511,"is_reserved":false,"is_disabled":false,"rental_uris":{"android":"levelo://app?vid=712aaca2-8cb2-4d86-97a0-ce31de0592b4","ios":"levelo://app?vid=712aaca2-8cb2-4d86-97a0-ce31de0592b4"},"vehicle_type_id":"4","last_reported":1704387985,"current_range_meters":11600,"station_id":"ce4bh412rcd13ifvqds0","pricing_plan_id":"free"},{"bike_id":"f08c8570-6a41-4e75-9a9f-ce9d58428f0c","system_id":"levelo_inurba_marseille","lat":43.284013,"lon":5.375146,"is_reserved":false,"is_disabled":false,"rental_uris":{"android":"levelo://app?vid=f08c8570-6a41-4e75-9a9f-ce9d58428f0c","ios":"levelo://app?vid=f08c8570-6a41-4e75-9a9f-ce9d58428f0c"},"vehicle_type_id":"4","last_reported":1704387985,"current_range_meters":13600,"station_id":"ce4bh412rcd13ifvqds0","pricing_plan_id":"free"},{"bike_id":"5ee038ec-debe-4e3d-94e3-9f167cf2cb21","system_id":"levelo_inurba_marseille","lat":43.295713,"lon":5.399639,"is_reserved":false,"is_disabled":false,"rental_uris":{"android":"levelo://app?vid=5ee038ec-debe-4e3d-94e3-9f167cf2cb21","ios":"levelo://app?vid=5ee038ec-debe-4e3d-94e3-9f167cf2cb21"},"vehicle_type_id":"4","last_reported":1704387985,"current_range_meters":14000,"station_id":"ce4bh312rcd13ifvqdj0","pricing_plan_id":"free"},{"bike_id":"c7f1c6b7-08c4-4568-ae6f-b3e8ada30463","system_id":"levelo_inurba_marseille","lat":43.28339,"lon":5.37502,"is_reserved":false,"is_disabled":false,"rental_uris":{"android":"levelo://app?vid=c7f1c6b7-08c4-4568-ae6f-b3e8ada30463","ios":"levelo://app?vid=c7f1c6b7-08c4-4568-ae6f-b3e8ada30463"},"vehicle_type_id":"4","last_reported":1704387985,"current_range_meters":7600,"station_id":"","pricing_plan_id":"free"},{"bike_id":"c08c4656-e513-43a1-b81c-45a180eb0c41","system_id":"levelo_inurba_marseille","lat":43.319179,"lon":5.407725,"is_reserved":false,"is_disabled":false,"rental_uris":{"android":"levelo://app?vid=c08c4656-e513-43a1-b81c-45a180eb0c41","ios":"levelo://app?vid=c08c4656-e513-43a1-b81c-45a180eb0c41"},"vehicle_type_id":"4","last_reported":1704387985,"current_range_meters":9200,"station_id":"ce4bhq12rcd13ifvqhig","pricing_plan_id":"free"},{"bike_id":"41581831-2cca-42ec-9669-b17ccd73160b","system_id":"levelo_inurba_marseille","lat":43.33717,"lon":5.391857,"is_reserved":false,"is_disabled":false,"rental_uris":{"android":"levelo://app?vid=41581831-2cca-42ec-9669-b17ccd73160b","ios":"levelo://app?vid=41581831-2cca-42ec-9669-b17ccd73160b"},"vehicle_type_id":"4","last_reported":1704387985,"current_range_meters":30000,"station_id":"ce4bhr92rcd13ifvqhsg","pricing_plan_id":"free"},{"bike_id":"b543ed77-e7e5-4558-bba6-c398c0454f6f","system_id":"levelo_inurba_marseille","lat":43.33717,"lon":5.391857,"is_reserved":false,"is_disabled":false,"rental_uris":{"android":"levelo://app?vid=b543ed77-e7e5-4558-bba6-c398c0454f6f","ios":"levelo://app?vid=b543ed77-e7e5-4558-bba6-c398c0454f6f"},"vehicle_type_id":"4","last_reported":1704387985,"current_range_meters":29600,"station_id":"ce4bhr92rcd13ifvqhsg","pricing_plan_id":"free"},{"bike_id":"30e1a12a-188c-4e2f-b11a-d273e4571aa1","system_id":"levelo_inurba_marseille","lat":43.32339,"lon":5.40622,"is_reserved":false,"is_disabled":false,"rental_uris":{"android":"levelo://app?vid=30e1a12a-188c-4e2f-b11a-d273e4571aa1","ios":"levelo://app?vid=30e1a12a-188c-4e2f-b11a-d273e4571aa1"},"vehicle_type_id":"4","last_reported":1704387985,"current_range_meters":4000,"station_id":"ce4bhq92rcd13ifvqhjg","pricing_plan_id":"free"},{"bike_id":"b8883d42-babe-4fa9-8829-3a9a2fec3521","system_id":"levelo_inurba_marseille","lat":43.283494,"lon":5.380945,"is_reserved":false,"is_disabled":false,"rental_uris":{"android":"levelo://app?vid=b8883d42-babe-4fa9-8829-3a9a2fec3521","ios":"levelo://app?vid=b8883d42-babe-4fa9-8829-3a9a2fec3521"},"vehicle_type_id":"4","last_reported":1704387985,"current_range_meters":20400,"station_id":"ce4bh412rcd13ifvqdr0","pricing_plan_id":"free"},{"bike_id":"abb09ff2-ee9c-48a2-80f4-6890267de323","system_id":"levelo_inurba_marseille","lat":43.289363,"lon":5.396322,"is_reserved":false,"is_disabled":false,"rental_uris":{"android":"levelo://app?vid=abb09ff2-ee9c-48a2-80f4-6890267de323","ios":"levelo://app?vid=abb09ff2-ee9c-48a2-80f4-6890267de323"},"vehicle_type_id":"4","last_reported":1704387985,"current_range_meters":6400,"station_id":"ce4bh3h2rcd13ifvqdn0","pricing_plan_id":"free"},{"bike_id":"4a7f2178-724a-4776-b95d-d50614da1092","system_id":"levelo_inurba_marseille","lat":43.29268,"lon":5.40135,"is_reserved":false,"is_disabled":false,"rental_uris":{"android":"levelo://app?vid=4a7f2178-724a-4776-b95d-d50614da1092","ios":"levelo://app?vid=4a7f2178-724a-4776-b95d-d50614da1092"},"vehicle_type_id":"4","last_reported":1704387985,"current_range_meters":20000,"station_id":"ce4bh312rcd13ifvqdk0","pricing_plan_id":"free"},{"bike_id":"10e62e57-d556-493e-b34c-45e2438f238c","system_id":"levelo_inurba_marseille","lat":43.280382,"lon":5.369291,"is_reserved":false,"is_disabled":false,"rental_uris":{"android":"levelo://app?vid=10e62e57-d556-493e-b34c-45e2438f238c","ios":"levelo://app?vid=10e62e57-d556-493e-b34c-45e2438f238c"},"vehicle_type_id":"4","last_reported":1704387985,"current_range_meters":26800,"station_id":"ce4bha12rcd13ifvqef0","pricing_plan_id":"free"},{"bike_id":"8b947eb9-9bb5-43a7-80f3-3c48f0bd0977","system_id":"levelo_inurba_marseille","lat":43.283502,"lon":5.386471,"is_reserved":false,"is_disabled":false,"rental_uris":{"android":"levelo://app?vid=8b947eb9-9bb5-43a7-80f3-3c48f0bd0977","ios":"levelo://app?vid=8b947eb9-9bb5-43a7-80f3-3c48f0bd0977"},"vehicle_type_id":"4","last_reported":1704387985,"current_range_meters":8400,"station_id":"ce4bh492rcd13ifvqdvg","pricing_plan_id":"free"},{"bike_id":"45ec4a6e-0aa5-422a-ad58-722f21d73ebc","system_id":"levelo_inurba_marseille","lat":43.28039,"lon":5.369297,"is_reserved":false,"is_disabled":false,"rental_uris":{"android":"levelo://app?vid=45ec4a6e-0aa5-422a-ad58-722f21d73ebc","ios":"levelo://app?vid=45ec4a6e-0aa5-422a-ad58-722f21d73ebc"},"vehicle_type_id":"4","last_reported":1704387985,"current_range_meters":4000,"station_id":"ce4bha12rcd13ifvqef0","pricing_plan_id":"free"},{"bike_id":"ae455cdf-d3bd-4ee2-af2b-18fa45956943","system_id":"levelo_inurba_marseille","lat":43.280382,"lon":5.369291,"is_reserved":false,"is_disabled":false,"rental_uris":{"android":"levelo://app?vid=ae455cdf-d3bd-4ee2-af2b-18fa45956943","ios":"levelo://app?vid=ae455cdf-d3bd-4ee2-af2b-18fa45956943"},"vehicle_type_id":"4","last_reported":1704387985,"current_range_meters":22000,"station_id":"ce4bha12rcd13ifvqef0","pricing_plan_id":"free"},{"bike_id":"c271d5ea-bb2f-4d51-82ac-3942a8fd86e8","system_id":"levelo_inurba_marseille","lat":43.280382,"lon":5.369291,"is_reserved":false,"is_disabled":false,"rental_uris":{"android":"levelo://app?vid=c271d5ea-bb2f-4d51-82ac-3942a8fd86e8","ios":"levelo://app?vid=c271d5ea-bb2f-4d51-82ac-3942a8fd86e8"},"vehicle_type_id":"4","last_reported":1704387985,"current_range_meters":12400,"station_id":"ce4bha12rcd13ifvqef0","pricing_plan_id":"free"},{"bike_id":"7e5cd58f-e25c-4a40-bc1b-1fdeb599dbec","system_id":"levelo_inurba_marseille","lat":43.29041,"lon":5.399634,"is_reserved":false,"is_disabled":false,"rental_uris":{"android":"levelo://app?vid=7e5cd58f-e25c-4a40-bc1b-1fdeb599dbec","ios":"levelo://app?vid=7e5cd58f-e25c-4a40-bc1b-1fdeb599dbec"},"vehicle_type_id":"4","last_reported":1704387985,"current_range_meters":17200,"station_id":"ce4bh392rcd13ifvqdm0","pricing_plan_id":"free"},{"bike_id":"677b0a41-9871-4270-ab15-ce2271656dd5","system_id":"levelo_inurba_marseille","lat":43.290412,"lon":5.399633,"is_reserved":false,"is_disabled":false,"rental_uris":{"android":"levelo://app?vid=677b0a41-9871-4270-ab15-ce2271656dd5","ios":"levelo://app?vid=677b0a41-9871-4270-ab15-ce2271656dd5"},"vehicle_type_id":"4","last_reported":1704387985,"current_range_meters":9600,"station_id":"ce4bh392rcd13ifvqdm0","pricing_plan_id":"free"},{"bike_id":"a1d42838-1b18-4b5e-bb7a-0b28eea2569a","system_id":"levelo_inurba_marseille","lat":43.281044,"lon":5.378308,"is_reserved":false,"is_disabled":false,"rental_uris":{"android":"levelo://app?vid=a1d42838-1b18-4b5e-bb7a-0b28eea2569a","ios":"levelo://app?vid=a1d42838-1b18-4b5e-bb7a-0b28eea2569a"},"vehicle_type_id":"4","last_reported":1704387985,"current_range_meters":10000,"station_id":"ce4bha12rcd13ifvqee0","pricing_plan_id":"free"},{"bike_id":"42021d35-2495-48ee-be25-0f5e58c0081a","system_id":"levelo_inurba_marseille","lat":43.296263,"lon":5.40601,"is_reserved":false,"is_disabled":false,"rental_uris":{"android":"levelo://app?vid=42021d35-2495-48ee-be25-0f5e58c0081a","ios":"levelo://app?vid=42021d35-2495-48ee-be25-0f5e58c0081a"},"vehicle_type_id":"4","last_reported":1704387985,"current_range_meters":11600,"station_id":"ce4bh0h2rcd13ifvqd60","pricing_plan_id":"free"},{"bike_id":"48cdc2ec-ac92-4f20-9500-e050984c90d9","system_id":"levelo_inurba_marseille","lat":43.290412,"lon":5.399633,"is_reserved":false,"is_disabled":false,"rental_uris":{"android":"levelo://app?vid=48cdc2ec-ac92-4f20-9500-e050984c90d9","ios":"levelo://app?vid=48cdc2ec-ac92-4f20-9500-e050984c90d9"},"vehicle_type_id":"4","last_reported":1704387985,"current_range_meters":7600,"station_id":"ce4bh392rcd13ifvqdm0","pricing_plan_id":"free"},{"bike_id":"b4400aa7-979e-46b7-80ac-67475f1c1ffa","system_id":"levelo_inurba_marseille","lat":43.296263,"lon":5.40601,"is_reserved":false,"is_disabled":false,"rental_uris":{"android":"levelo://app?vid=b4400aa7-979e-46b7-80ac-67475f1c1ffa","ios":"levelo://app?vid=b4400aa7-979e-46b7-80ac-67475f1c1ffa"},"vehicle_type_id":"4","last_reported":1704387985,"current_range_meters":2400,"station_id":"ce4bh0h2rcd13ifvqd60","pricing_plan_id":"free"},{"bike_id":"9e831b07-cb2d-480e-afd4-89e0c19e9c7f","system_id":"levelo_inurba_marseille","lat":43.285742,"lon":5.395004,"is_reserved":false,"is_disabled":false,"rental_uris":{"android":"levelo://app?vid=9e831b07-cb2d-480e-afd4-89e0c19e9c7f","ios":"levelo://app?vid=9e831b07-cb2d-480e-afd4-89e0c19e9c7f"},"vehicle_type_id":"4","last_reported":1704387985,"current_range_meters":18400,"station_id":"ce4bh292rcd13ifvqdg0","pricing_plan_id":"free"},{"bike_id":"f3f7c31d-5124-4b26-beb5-7eae2aae76d6","system_id":"levelo_inurba_marseille","lat":43.28567,"lon":5.39504,"is_reserved":false,"is_disabled":false,"rental_uris":{"android":"levelo://app?vid=f3f7c31d-5124-4b26-beb5-7eae2aae76d6","ios":"levelo://app?vid=f3f7c31d-5124-4b26-beb5-7eae2aae76d6"},"vehicle_type_id":"4","last_reported":1704387985,"current_range_meters":27200,"station_id":"ce4bh292rcd13ifvqdg0","pricing_plan_id":"free"},{"bike_id":"437c640e-bc46-4d9a-9834-1cd2afab615c","system_id":"levelo_inurba_marseille","lat":43.326605,"lon":5.409903,"is_reserved":false,"is_disabled":false,"rental_uris":{"android":"levelo://app?vid=437c640e-bc46-4d9a-9834-1cd2afab615c","ios":"levelo://app?vid=437c640e-bc46-4d9a-9834-1cd2afab615c"},"vehicle_type_id":"4","last_reported":1704387985,"current_range_meters":26800,"station_id":"ce4bhpp2rcd13ifvqhgg","pricing_plan_id":"free"},{"bike_id":"f7146817-7cf5-42e9-8eda-db6cd33dae0e","system_id":"levelo_inurba_marseille","lat":43.281044,"lon":5.378308,"is_reserved":false,"is_disabled":false,"rental_uris":{"android":"levelo://app?vid=f7146817-7cf5-42e9-8eda-db6cd33dae0e","ios":"levelo://app?vid=f7146817-7cf5-42e9-8eda-db6cd33dae0e"},"vehicle_type_id":"4","last_reported":1704387985,"current_range_meters":20800,"station_id":"ce4bha12rcd13ifvqee0","pricing_plan_id":"free"},{"bike_id":"50a2065a-fe18-4aa2-ad97-f81cc06b5fd2","system_id":"levelo_inurba_marseille","lat":43.320045,"lon":5.415048,"is_reserved":false,"is_disabled":false,"rental_uris":{"android":"levelo://app?vid=50a2065a-fe18-4aa2-ad97-f81cc06b5fd2","ios":"levelo://app?vid=50a2065a-fe18-4aa2-ad97-f81cc06b5fd2"},"vehicle_type_id":"4","last_reported":1704387985,"current_range_meters":20000,"station_id":"ce4bhq92rcd13ifvqhkg","pricing_plan_id":"free"},{"bike_id":"5908323b-ce53-4a5c-b915-4b4b85e412be","system_id":"levelo_inurba_marseille","lat":43.320045,"lon":5.415048,"is_reserved":false,"is_disabled":false,"rental_uris":{"android":"levelo://app?vid=5908323b-ce53-4a5c-b915-4b4b85e412be","ios":"levelo://app?vid=5908323b-ce53-4a5c-b915-4b4b85e412be"},"vehicle_type_id":"4","last_reported":1704387985,"current_range_meters":11600,"station_id":"ce4bhq92rcd13ifvqhkg","pricing_plan_id":"free"},{"bike_id":"628b292e-043f-4834-9e12-e1d8a7d4533a","system_id":"levelo_inurba_marseille","lat":43.279703,"lon":5.387426,"is_reserved":false,"is_disabled":false,"rental_uris":{"android":"levelo://app?vid=628b292e-043f-4834-9e12-e1d8a7d4533a","ios":"levelo://app?vid=628b292e-043f-4834-9e12-e1d8a7d4533a"},"vehicle_type_id":"4","last_reported":1704387985,"current_range_meters":0,"station_id":"ce4bhg12rcd13ifvqf80","pricing_plan_id":"free"},{"bike_id":"cae3c3ae-103b-46a0-8a34-edd370a57287","system_id":"levelo_inurba_marseille","lat":43.292571,"lon":5.409107,"is_reserved":false,"is_disabled":false,"rental_uris":{"android":"levelo://app?vid=cae3c3ae-103b-46a0-8a34-edd370a57287","ios":"levelo://app?vid=cae3c3ae-103b-46a0-8a34-edd370a57287"},"vehicle_type_id":"4","last_reported":1704387985,"current_range_meters":400,"station_id":"ce4bh192rcd13ifvqdc0","pricing_plan_id":"free"},{"bike_id":"cd62c57c-392f-4811-bac6-d91db55ca440","system_id":"levelo_inurba_marseille","lat":43.27618,"lon":5.361009,"is_reserved":false,"is_disabled":false,"rental_uris":{"android":"levelo://app?vid=cd62c57c-392f-4811-bac6-d91db55ca440","ios":"levelo://app?vid=cd62c57c-392f-4811-bac6-d91db55ca440"},"vehicle_type_id":"4","last_reported":1704387985,"current_range_meters":18400,"station_id":"ce4bgj92rcd13ifvqbe0","pricing_plan_id":"free"},{"bike_id":"e8b54f65-2fb9-4c2b-9388-9bdf74dc3ac2","system_id":"levelo_inurba_marseille","lat":43.27617,"lon":5.36109,"is_reserved":false,"is_disabled":false,"rental_uris":{"android":"levelo://app?vid=e8b54f65-2fb9-4c2b-9388-9bdf74dc3ac2","ios":"levelo://app?vid=e8b54f65-2fb9-4c2b-9388-9bdf74dc3ac2"},"vehicle_type_id":"4","last_reported":1704387985,"current_range_meters":2800,"station_id":"ce4bgj92rcd13ifvqbe0","pricing_plan_id":"free"},{"bike_id":"27b84dd3-f37f-4fdb-93c1-6f21a458c49f","system_id":"levelo_inurba_marseille","lat":43.27614,"lon":5.36132,"is_reserved":false,"is_disabled":false,"rental_uris":{"android":"levelo://app?vid=27b84dd3-f37f-4fdb-93c1-6f21a458c49f","ios":"levelo://app?vid=27b84dd3-f37f-4fdb-93c1-6f21a458c49f"},"vehicle_type_id":"4","last_reported":1704387985,"current_range_meters":30400,"station_id":"ce4bgj92rcd13ifvqbe0","pricing_plan_id":"free"},{"bike_id":"0992a40a-c2f3-4a35-bf07-9a73e67eec85","system_id":"levelo_inurba_marseille","lat":43.27613,"lon":5.36114,"is_reserved":false,"is_disabled":false,"rental_uris":{"android":"levelo://app?vid=0992a40a-c2f3-4a35-bf07-9a73e67eec85","ios":"levelo://app?vid=0992a40a-c2f3-4a35-bf07-9a73e67eec85"},"vehicle_type_id":"4","last_reported":1704387985,"current_range_meters":30400,"station_id":"ce4bgj92rcd13ifvqbe0","pricing_plan_id":"free"},{"bike_id":"5842ef66-2acd-41d0-b8dc-ac939e563cfe","system_id":"levelo_inurba_marseille","lat":43.276179,"lon":5.361009,"is_reserved":false,"is_disabled":false,"rental_uris":{"android":"levelo://app?vid=5842ef66-2acd-41d0-b8dc-ac939e563cfe","ios":"levelo://app?vid=5842ef66-2acd-41d0-b8dc-ac939e563cfe"},"vehicle_type_id":"4","last_reported":1704387985,"current_range_meters":31200,"station_id":"ce4bgj92rcd13ifvqbe0","pricing_plan_id":"free"},{"bike_id":"dc9993a0-2bac-4bc4-8007-8eb3e1e0dddb","system_id":"levelo_inurba_marseille","lat":43.276179,"lon":5.361009,"is_reserved":false,"is_disabled":false,"rental_uris":{"android":"levelo://app?vid=dc9993a0-2bac-4bc4-8007-8eb3e1e0dddb","ios":"levelo://app?vid=dc9993a0-2bac-4bc4-8007-8eb3e1e0dddb"},"vehicle_type_id":"4","last_reported":1704387985,"current_range_meters":5600,"station_id":"ce4bgj92rcd13ifvqbe0","pricing_plan_id":"free"},{"bike_id":"38df6d06-4417-460e-80f1-d60e79db644a","system_id":"levelo_inurba_marseille","lat":43.276179,"lon":5.361009,"is_reserved":false,"is_disabled":false,"rental_uris":{"android":"levelo://app?vid=38df6d06-4417-460e-80f1-d60e79db644a","ios":"levelo://app?vid=38df6d06-4417-460e-80f1-d60e79db644a"},"vehicle_type_id":"4","last_reported":1704387985,"current_range_meters":7600,"station_id":"ce4bgj92rcd13ifvqbe0","pricing_plan_id":"free"},{"bike_id":"d3f25bcc-da64-44bb-8495-bf854b2f447f","system_id":"levelo_inurba_marseille","lat":43.324355,"lon":5.41656,"is_reserved":false,"is_disabled":false,"rental_uris":{"android":"levelo://app?vid=d3f25bcc-da64-44bb-8495-bf854b2f447f","ios":"levelo://app?vid=d3f25bcc-da64-44bb-8495-bf854b2f447f"},"vehicle_type_id":"4","last_reported":1704387985,"current_range_meters":16800,"station_id":"","pricing_plan_id":"free"},{"bike_id":"ab4a31bf-1566-4380-8db1-a6b2c96cce21","system_id":"levelo_inurba_marseille","lat":43.278399,"lon":5.392139,"is_reserved":false,"is_disabled":false,"rental_uris":{"android":"levelo://app?vid=ab4a31bf-1566-4380-8db1-a6b2c96cce21","ios":"levelo://app?vid=ab4a31bf-1566-4380-8db1-a6b2c96cce21"},"vehicle_type_id":"4","last_reported":1704387985,"current_range_meters":5600,"station_id":"ce4bhjp2rcd13ifvqga0","pricing_plan_id":"free"},{"bike_id":"f92bad36-cef5-416f-bcdb-7d0fd96a517e","system_id":"levelo_inurba_marseille","lat":43.278399,"lon":5.392139,"is_reserved":false,"is_disabled":false,"rental_uris":{"android":"levelo://app?vid=f92bad36-cef5-416f-bcdb-7d0fd96a517e","ios":"levelo://app?vid=f92bad36-cef5-416f-bcdb-7d0fd96a517e"},"vehicle_type_id":"4","last_reported":1704387985,"current_range_meters":13600,"station_id":"ce4bhjp2rcd13ifvqga0","pricing_plan_id":"free"},{"bike_id":"cebfec4e-d445-4274-87f4-c5c00304fcdd","system_id":"levelo_inurba_marseille","lat":43.27368,"lon":5.36234,"is_reserved":false,"is_disabled":false,"rental_uris":{"android":"levelo://app?vid=cebfec4e-d445-4274-87f4-c5c00304fcdd","ios":"levelo://app?vid=cebfec4e-d445-4274-87f4-c5c00304fcdd"},"vehicle_type_id":"4","last_reported":1704387985,"current_range_meters":31200,"station_id":"ce4bhbh2rcd13ifvqeo0","pricing_plan_id":"free"},{"bike_id":"097cab6f-4d7d-446e-925f-dbb9526a9c4b","system_id":"levelo_inurba_marseille","lat":43.279952,"lon":5.400085,"is_reserved":false,"is_disabled":false,"rental_uris":{"android":"levelo://app?vid=097cab6f-4d7d-446e-925f-dbb9526a9c4b","ios":"levelo://app?vid=097cab6f-4d7d-446e-925f-dbb9526a9c4b"},"vehicle_type_id":"4","last_reported":1704387985,"current_range_meters":18400,"station_id":"ce4bho92rcd13ifvqh4g","pricing_plan_id":"free"},{"bike_id":"31d59614-a4d9-44ab-a8f8-9f8f40d1aa74","system_id":"levelo_inurba_marseille","lat":43.310785,"lon":5.424305,"is_reserved":false,"is_disabled":false,"rental_uris":{"android":"levelo://app?vid=31d59614-a4d9-44ab-a8f8-9f8f40d1aa74","ios":"levelo://app?vid=31d59614-a4d9-44ab-a8f8-9f8f40d1aa74"},"vehicle_type_id":"4","last_reported":1704387985,"current_range_meters":5600,"station_id":"ce4bhp92rcd13ifvqhag","pricing_plan_id":"free"},{"bike_id":"7e20e46a-cb6e-4167-bfe5-1fdd3fcf844f","system_id":"levelo_inurba_marseille","lat":43.31715,"lon":5.424033,"is_reserved":false,"is_disabled":false,"rental_uris":{"android":"levelo://app?vid=7e20e46a-cb6e-4167-bfe5-1fdd3fcf844f","ios":"levelo://app?vid=7e20e46a-cb6e-4167-bfe5-1fdd3fcf844f"},"vehicle_type_id":"4","last_reported":1704387985,"current_range_meters":0,"station_id":"ce4bhp92rcd13ifvqhbg","pricing_plan_id":"free"},{"bike_id":"3aea3327-5e5a-4c3e-83fe-58f3696e5840","system_id":"levelo_inurba_marseille","lat":43.340804,"lon":5.410219,"is_reserved":false,"is_disabled":false,"rental_uris":{"android":"levelo://app?vid=3aea3327-5e5a-4c3e-83fe-58f3696e5840","ios":"levelo://app?vid=3aea3327-5e5a-4c3e-83fe-58f3696e5840"},"vehicle_type_id":"4","last_reported":1704387985,"current_range_meters":0,"station_id":"ce4bhqh2rcd13ifvqhlg","pricing_plan_id":"free"},{"bike_id":"1e2dca48-688c-4b7e-9860-cff8ca5c3230","system_id":"levelo_inurba_marseille","lat":43.295523,"lon":5.422926,"is_reserved":false,"is_disabled":false,"rental_uris":{"android":"levelo://app?vid=1e2dca48-688c-4b7e-9860-cff8ca5c3230","ios":"levelo://app?vid=1e2dca48-688c-4b7e-9860-cff8ca5c3230"},"vehicle_type_id":"4","last_reported":1704387985,"current_range_meters":17600,"station_id":"ce4bhph2rcd13ifvqhdg","pricing_plan_id":"free"},{"bike_id":"b202a7fa-34da-41ad-bda9-5676f3291552","system_id":"levelo_inurba_marseille","lat":43.278128,"lon":5.407195,"is_reserved":false,"is_disabled":false,"rental_uris":{"android":"levelo://app?vid=b202a7fa-34da-41ad-bda9-5676f3291552","ios":"levelo://app?vid=b202a7fa-34da-41ad-bda9-5676f3291552"},"vehicle_type_id":"4","last_reported":1704387985,"current_range_meters":22400,"station_id":"ce4bhnh2rcd13ifvqgtg","pricing_plan_id":"free"},{"bike_id":"b30a4e6b-7029-44a0-9046-8a5bf7108ec0","system_id":"levelo_inurba_marseille","lat":43.278128,"lon":5.407195,"is_reserved":false,"is_disabled":false,"rental_uris":{"android":"levelo://app?vid=b30a4e6b-7029-44a0-9046-8a5bf7108ec0","ios":"levelo://app?vid=b30a4e6b-7029-44a0-9046-8a5bf7108ec0"},"vehicle_type_id":"4","last_reported":1704387985,"current_range_meters":24000,"station_id":"ce4bhnh2rcd13ifvqgtg","pricing_plan_id":"free"},{"bike_id":"551af9f4-6a9b-4035-9c1f-9fbcfbeead6a","system_id":"levelo_inurba_marseille","lat":43.278128,"lon":5.407195,"is_reserved":false,"is_disabled":false,"rental_uris":{"android":"levelo://app?vid=551af9f4-6a9b-4035-9c1f-9fbcfbeead6a","ios":"levelo://app?vid=551af9f4-6a9b-4035-9c1f-9fbcfbeead6a"},"vehicle_type_id":"4","last_reported":1704387985,"current_range_meters":11200,"station_id":"ce4bhnh2rcd13ifvqgtg","pricing_plan_id":"free"},{"bike_id":"c4adab38-4a78-4393-81a0-cae00ecec592","system_id":"levelo_inurba_marseille","lat":43.27996,"lon":5.416624,"is_reserved":false,"is_disabled":false,"rental_uris":{"android":"levelo://app?vid=c4adab38-4a78-4393-81a0-cae00ecec592","ios":"levelo://app?vid=c4adab38-4a78-4393-81a0-cae00ecec592"},"vehicle_type_id":"4","last_reported":1704387985,"current_range_meters":25600,"station_id":"ce4bho12rcd13ifvqh1g","pricing_plan_id":"free"},{"bike_id":"119c5469-bff3-4564-8245-5098e17bd597","system_id":"levelo_inurba_marseille","lat":43.265714,"lon":5.372891,"is_reserved":false,"is_disabled":false,"rental_uris":{"android":"levelo://app?vid=119c5469-bff3-4564-8245-5098e17bd597","ios":"levelo://app?vid=119c5469-bff3-4564-8245-5098e17bd597"},"vehicle_type_id":"4","last_reported":1704387985,"current_range_meters":10000,"station_id":"ce4bhg12rcd13ifvqf70","pricing_plan_id":"free"},{"bike_id":"a94981e8-9702-4bc1-9410-7701a5453592","system_id":"levelo_inurba_marseille","lat":43.308051,"lon":5.43527,"is_reserved":false,"is_disabled":false,"rental_uris":{"android":"levelo://app?vid=a94981e8-9702-4bc1-9410-7701a5453592","ios":"levelo://app?vid=a94981e8-9702-4bc1-9410-7701a5453592"},"vehicle_type_id":"4","last_reported":1704387985,"current_range_meters":22000,"station_id":"ce4bhph2rcd13ifvqheg","pricing_plan_id":"free"},{"bike_id":"cdb9b886-6b90-4d4c-bc3f-1a4862c9b8ec","system_id":"levelo_inurba_marseille","lat":43.265571,"lon":5.390032,"is_reserved":false,"is_disabled":false,"rental_uris":{"android":"levelo://app?vid=cdb9b886-6b90-4d4c-bc3f-1a4862c9b8ec","ios":"levelo://app?vid=cdb9b886-6b90-4d4c-bc3f-1a4862c9b8ec"},"vehicle_type_id":"4","last_reported":1704387985,"current_range_meters":1600,"station_id":"ce4bhe12rcd13ifvqf30","pricing_plan_id":"free"},{"bike_id":"5daf6899-7798-421c-9639-b2fb798fbbaf","system_id":"levelo_inurba_marseille","lat":43.265569,"lon":5.390047,"is_reserved":false,"is_disabled":false,"rental_uris":{"android":"levelo://app?vid=5daf6899-7798-421c-9639-b2fb798fbbaf","ios":"levelo://app?vid=5daf6899-7798-421c-9639-b2fb798fbbaf"},"vehicle_type_id":"4","last_reported":1704387985,"current_range_meters":800,"station_id":"ce4bhe12rcd13ifvqf30","pricing_plan_id":"free"},{"bike_id":"8f7fc177-6de5-44cd-adb2-9aeaa7c6c834","system_id":"levelo_inurba_marseille","lat":43.265569,"lon":5.390047,"is_reserved":false,"is_disabled":false,"rental_uris":{"android":"levelo://app?vid=8f7fc177-6de5-44cd-adb2-9aeaa7c6c834","ios":"levelo://app?vid=8f7fc177-6de5-44cd-adb2-9aeaa7c6c834"},"vehicle_type_id":"4","last_reported":1704387985,"current_range_meters":2400,"station_id":"ce4bhe12rcd13ifvqf30","pricing_plan_id":"free"},{"bike_id":"a96d3e0c-ec21-44d9-ab48-26228a8581c1","system_id":"levelo_inurba_marseille","lat":43.265569,"lon":5.390047,"is_reserved":false,"is_disabled":false,"rental_uris":{"android":"levelo://app?vid=a96d3e0c-ec21-44d9-ab48-26228a8581c1","ios":"levelo://app?vid=a96d3e0c-ec21-44d9-ab48-26228a8581c1"},"vehicle_type_id":"4","last_reported":1704387985,"current_range_meters":2400,"station_id":"ce4bhe12rcd13ifvqf30","pricing_plan_id":"free"},{"bike_id":"4603f9ec-c78b-4c1b-9ad3-56a46f57026d","system_id":"levelo_inurba_marseille","lat":43.271388,"lon":5.409269,"is_reserved":false,"is_disabled":false,"rental_uris":{"android":"levelo://app?vid=4603f9ec-c78b-4c1b-9ad3-56a46f57026d","ios":"levelo://app?vid=4603f9ec-c78b-4c1b-9ad3-56a46f57026d"},"vehicle_type_id":"4","last_reported":1704387985,"current_range_meters":27600,"station_id":"ce4bhl12rcd13ifvqgf0","pricing_plan_id":"free"},{"bike_id":"24bdd6dc-bef3-4595-9e07-20613bf0fa19","system_id":"levelo_inurba_marseille","lat":43.271368,"lon":5.40928,"is_reserved":false,"is_disabled":false,"rental_uris":{"android":"levelo://app?vid=24bdd6dc-bef3-4595-9e07-20613bf0fa19","ios":"levelo://app?vid=24bdd6dc-bef3-4595-9e07-20613bf0fa19"},"vehicle_type_id":"4","last_reported":1704387985,"current_range_meters":24400,"station_id":"ce4bhl12rcd13ifvqgf0","pricing_plan_id":"free"},{"bike_id":"0523d8d5-98df-42c4-ac36-98ac503981f3","system_id":"levelo_inurba_marseille","lat":43.2651,"lon":5.39469,"is_reserved":false,"is_disabled":false,"rental_uris":{"android":"levelo://app?vid=0523d8d5-98df-42c4-ac36-98ac503981f3","ios":"levelo://app?vid=0523d8d5-98df-42c4-ac36-98ac503981f3"},"vehicle_type_id":"4","last_reported":1704387985,"current_range_meters":18400,"station_id":"ce4bhi12rcd13ifvqfq0","pricing_plan_id":"free"},{"bike_id":"69bfbae1-0795-4565-a827-fff79dc85ee7","system_id":"levelo_inurba_marseille","lat":43.2651,"lon":5.39469,"is_reserved":false,"is_disabled":false,"rental_uris":{"android":"levelo://app?vid=69bfbae1-0795-4565-a827-fff79dc85ee7","ios":"levelo://app?vid=69bfbae1-0795-4565-a827-fff79dc85ee7"},"vehicle_type_id":"4","last_reported":1704387985,"current_range_meters":30400,"station_id":"ce4bhi12rcd13ifvqfq0","pricing_plan_id":"free"},{"bike_id":"61d702da-1ac3-410c-8e1c-bedfd4ecf30c","system_id":"levelo_inurba_marseille","lat":43.298768,"lon":5.43643,"is_reserved":false,"is_disabled":false,"rental_uris":{"android":"levelo://app?vid=61d702da-1ac3-410c-8e1c-bedfd4ecf30c","ios":"levelo://app?vid=61d702da-1ac3-410c-8e1c-bedfd4ecf30c"},"vehicle_type_id":"4","last_reported":1704387985,"current_range_meters":12400,"station_id":"ce4bhpp2rcd13ifvqhfg","pricing_plan_id":"free"},{"bike_id":"81626053-872f-4407-8120-98b82b148f19","system_id":"levelo_inurba_marseille","lat":43.281548,"lon":5.42643,"is_reserved":false,"is_disabled":false,"rental_uris":{"android":"levelo://app?vid=81626053-872f-4407-8120-98b82b148f19","ios":"levelo://app?vid=81626053-872f-4407-8120-98b82b148f19"},"vehicle_type_id":"4","last_reported":1704387985,"current_range_meters":20800,"station_id":"ce4bhnh2rcd13ifvqgug","pricing_plan_id":"free"},{"bike_id":"3f0ff70d-b8d8-4421-b66d-2ee18e149d9d","system_id":"levelo_inurba_marseille","lat":43.281548,"lon":5.42643,"is_reserved":false,"is_disabled":false,"rental_uris":{"android":"levelo://app?vid=3f0ff70d-b8d8-4421-b66d-2ee18e149d9d","ios":"levelo://app?vid=3f0ff70d-b8d8-4421-b66d-2ee18e149d9d"},"vehicle_type_id":"4","last_reported":1704387985,"current_range_meters":24800,"station_id":"ce4bhnh2rcd13ifvqgug","pricing_plan_id":"free"},{"bike_id":"7d2acb7b-7665-4739-b950-958f0769c57b","system_id":"levelo_inurba_marseille","lat":43.281548,"lon":5.42643,"is_reserved":false,"is_disabled":false,"rental_uris":{"android":"levelo://app?vid=7d2acb7b-7665-4739-b950-958f0769c57b","ios":"levelo://app?vid=7d2acb7b-7665-4739-b950-958f0769c57b"},"vehicle_type_id":"4","last_reported":1704387985,"current_range_meters":18000,"station_id":"ce4bhnh2rcd13ifvqgug","pricing_plan_id":"free"},{"bike_id":"84dd2287-29e2-4adf-9f90-138a85584ad5","system_id":"levelo_inurba_marseille","lat":43.281548,"lon":5.42643,"is_reserved":false,"is_disabled":false,"rental_uris":{"android":"levelo://app?vid=84dd2287-29e2-4adf-9f90-138a85584ad5","ios":"levelo://app?vid=84dd2287-29e2-4adf-9f90-138a85584ad5"},"vehicle_type_id":"4","last_reported":1704387985,"current_range_meters":27200,"station_id":"ce4bhnh2rcd13ifvqgug","pricing_plan_id":"free"},{"bike_id":"f5160553-fb68-40a5-9223-50c7752baabf","system_id":"levelo_inurba_marseille","lat":43.281548,"lon":5.42643,"is_reserved":false,"is_disabled":false,"rental_uris":{"android":"levelo://app?vid=f5160553-fb68-40a5-9223-50c7752baabf","ios":"levelo://app?vid=f5160553-fb68-40a5-9223-50c7752baabf"},"vehicle_type_id":"4","last_reported":1704387985,"current_range_meters":14000,"station_id":"ce4bhnh2rcd13ifvqgug","pricing_plan_id":"free"},{"bike_id":"12ed604c-1609-4395-8919-90723278e284","system_id":"levelo_inurba_marseille","lat":43.281548,"lon":5.42643,"is_reserved":false,"is_disabled":false,"rental_uris":{"android":"levelo://app?vid=12ed604c-1609-4395-8919-90723278e284","ios":"levelo://app?vid=12ed604c-1609-4395-8919-90723278e284"},"vehicle_type_id":"4","last_reported":1704387985,"current_range_meters":20400,"station_id":"ce4bhnh2rcd13ifvqgug","pricing_plan_id":"free"},{"bike_id":"cd926c73-e5d2-4436-8656-f0853e5a06c8","system_id":"levelo_inurba_marseille","lat":43.281548,"lon":5.42643,"is_reserved":false,"is_disabled":false,"rental_uris":{"android":"levelo://app?vid=cd926c73-e5d2-4436-8656-f0853e5a06c8","ios":"levelo://app?vid=cd926c73-e5d2-4436-8656-f0853e5a06c8"},"vehicle_type_id":"4","last_reported":1704387985,"current_range_meters":7200,"station_id":"ce4bhnh2rcd13ifvqgug","pricing_plan_id":"free"},{"bike_id":"8fa7a0bb-11af-49b0-9cd3-91edb1e64eda","system_id":"levelo_inurba_marseille","lat":43.29955,"lon":5.43819,"is_reserved":false,"is_disabled":false,"rental_uris":{"android":"levelo://app?vid=8fa7a0bb-11af-49b0-9cd3-91edb1e64eda","ios":"levelo://app?vid=8fa7a0bb-11af-49b0-9cd3-91edb1e64eda"},"vehicle_type_id":"4","last_reported":1704387985,"current_range_meters":4000,"station_id":"","pricing_plan_id":"free"},{"bike_id":"34451ea8-37f7-4de0-a544-ada63d75c3fa","system_id":"levelo_inurba_marseille","lat":43.26063,"lon":5.39398,"is_reserved":false,"is_disabled":false,"rental_uris":{"android":"levelo://app?vid=34451ea8-37f7-4de0-a544-ada63d75c3fa","ios":"levelo://app?vid=34451ea8-37f7-4de0-a544-ada63d75c3fa"},"vehicle_type_id":"4","last_reported":1704387985,"current_range_meters":26400,"station_id":"ce4bhh92rcd13ifvqfj0","pricing_plan_id":"free"},{"bike_id":"d4f516e4-97dd-430b-8896-dea4233dc669","system_id":"levelo_inurba_marseille","lat":43.27494,"lon":5.42456,"is_reserved":false,"is_disabled":false,"rental_uris":{"android":"levelo://app?vid=d4f516e4-97dd-430b-8896-dea4233dc669","ios":"levelo://app?vid=d4f516e4-97dd-430b-8896-dea4233dc669"},"vehicle_type_id":"4","last_reported":1704387985,"current_range_meters":19200,"station_id":"ce4bhn92rcd13ifvqgrg","pricing_plan_id":"free"},{"bike_id":"dbdbf0d3-f2fc-40b4-a7ba-c52dfda302ad","system_id":"levelo_inurba_marseille","lat":43.258224,"lon":5.394369,"is_reserved":false,"is_disabled":false,"rental_uris":{"android":"levelo://app?vid=dbdbf0d3-f2fc-40b4-a7ba-c52dfda302ad","ios":"levelo://app?vid=dbdbf0d3-f2fc-40b4-a7ba-c52dfda302ad"},"vehicle_type_id":"4","last_reported":1704387985,"current_range_meters":24000,"station_id":"ce4bhip2rcd13ifvqft0","pricing_plan_id":"free"},{"bike_id":"2a6d6411-7278-4dd9-8be1-f1c2566d4766","system_id":"levelo_inurba_marseille","lat":43.258224,"lon":5.394369,"is_reserved":false,"is_disabled":false,"rental_uris":{"android":"levelo://app?vid=2a6d6411-7278-4dd9-8be1-f1c2566d4766","ios":"levelo://app?vid=2a6d6411-7278-4dd9-8be1-f1c2566d4766"},"vehicle_type_id":"4","last_reported":1704387985,"current_range_meters":31200,"station_id":"ce4bhip2rcd13ifvqft0","pricing_plan_id":"free"},{"bike_id":"a8389cbf-b6f4-42a7-8a47-b1f5c68e2b17","system_id":"levelo_inurba_marseille","lat":43.258224,"lon":5.394369,"is_reserved":false,"is_disabled":false,"rental_uris":{"android":"levelo://app?vid=a8389cbf-b6f4-42a7-8a47-b1f5c68e2b17","ios":"levelo://app?vid=a8389cbf-b6f4-42a7-8a47-b1f5c68e2b17"},"vehicle_type_id":"4","last_reported":1704387985,"current_range_meters":2000,"station_id":"ce4bhip2rcd13ifvqft0","pricing_plan_id":"free"},{"bike_id":"7fdb4994-593d-464d-96e4-1a36e9cc03c3","system_id":"levelo_inurba_marseille","lat":43.254947,"lon":5.376454,"is_reserved":false,"is_disabled":false,"rental_uris":{"android":"levelo://app?vid=7fdb4994-593d-464d-96e4-1a36e9cc03c3","ios":"levelo://app?vid=7fdb4994-593d-464d-96e4-1a36e9cc03c3"},"vehicle_type_id":"4","last_reported":1704387985,"current_range_meters":31600,"station_id":"ce4bhh12rcd13ifvqff0","pricing_plan_id":"free"},{"bike_id":"40521be2-7d3f-46ee-9ed8-76f3defac3e6","system_id":"levelo_inurba_marseille","lat":43.254947,"lon":5.376454,"is_reserved":false,"is_disabled":false,"rental_uris":{"android":"levelo://app?vid=40521be2-7d3f-46ee-9ed8-76f3defac3e6","ios":"levelo://app?vid=40521be2-7d3f-46ee-9ed8-76f3defac3e6"},"vehicle_type_id":"4","last_reported":1704387985,"current_range_meters":19200,"station_id":"ce4bhh12rcd13ifvqff0","pricing_plan_id":"free"},{"bike_id":"09c2d838-ecdc-4e6a-a724-d646b900d306","system_id":"levelo_inurba_marseille","lat":43.270721,"lon":5.422764,"is_reserved":false,"is_disabled":false,"rental_uris":{"android":"levelo://app?vid=09c2d838-ecdc-4e6a-a724-d646b900d306","ios":"levelo://app?vid=09c2d838-ecdc-4e6a-a724-d646b900d306"},"vehicle_type_id":"4","last_reported":1704387985,"current_range_meters":26800,"station_id":"ce4bhk92rcd13ifvqgb0","pricing_plan_id":"free"},{"bike_id":"6998aad6-c3df-4d76-b246-4158be54e06a","system_id":"levelo_inurba_marseille","lat":43.270721,"lon":5.422764,"is_reserved":false,"is_disabled":false,"rental_uris":{"android":"levelo://app?vid=6998aad6-c3df-4d76-b246-4158be54e06a","ios":"levelo://app?vid=6998aad6-c3df-4d76-b246-4158be54e06a"},"vehicle_type_id":"4","last_reported":1704387985,"current_range_meters":31200,"station_id":"ce4bhk92rcd13ifvqgb0","pricing_plan_id":"free"},{"bike_id":"7727f2ad-aceb-492e-86b1-449393f1ee74","system_id":"levelo_inurba_marseille","lat":43.258658,"lon":5.398935,"is_reserved":false,"is_disabled":false,"rental_uris":{"android":"levelo://app?vid=7727f2ad-aceb-492e-86b1-449393f1ee74","ios":"levelo://app?vid=7727f2ad-aceb-492e-86b1-449393f1ee74"},"vehicle_type_id":"4","last_reported":1704387985,"current_range_meters":8400,"station_id":"ce4bhl92rcd13ifvqghg","pricing_plan_id":"free"},{"bike_id":"7e344476-842f-4865-bd77-e5576781e9a1","system_id":"levelo_inurba_marseille","lat":43.25725,"lon":5.41109,"is_reserved":false,"is_disabled":false,"rental_uris":{"android":"levelo://app?vid=7e344476-842f-4865-bd77-e5576781e9a1","ios":"levelo://app?vid=7e344476-842f-4865-bd77-e5576781e9a1"},"vehicle_type_id":"4","last_reported":1704387985,"current_range_meters":0,"station_id":"ce4bhkp2rcd13ifvqgd0","pricing_plan_id":"free"},{"bike_id":"f8474ea3-d8b0-4b56-b7de-33fba871ba40","system_id":"levelo_inurba_marseille","lat":43.2479,"lon":5.374457,"is_reserved":false,"is_disabled":false,"rental_uris":{"android":"levelo://app?vid=f8474ea3-d8b0-4b56-b7de-33fba871ba40","ios":"levelo://app?vid=f8474ea3-d8b0-4b56-b7de-33fba871ba40"},"vehicle_type_id":"4","last_reported":1704387985,"current_range_meters":14800,"station_id":"ce4bhgh2rcd13ifvqfb0","pricing_plan_id":"free"},{"bike_id":"f8003a1c-868d-462b-894e-26ac0d297bfb","system_id":"levelo_inurba_marseille","lat":43.2479,"lon":5.374457,"is_reserved":false,"is_disabled":false,"rental_uris":{"android":"levelo://app?vid=f8003a1c-868d-462b-894e-26ac0d297bfb","ios":"levelo://app?vid=f8003a1c-868d-462b-894e-26ac0d297bfb"},"vehicle_type_id":"4","last_reported":1704387985,"current_range_meters":4800,"station_id":"ce4bhgh2rcd13ifvqfb0","pricing_plan_id":"free"},{"bike_id":"45e98df5-6bfa-4ec9-aaa4-b4e73ed3b5a0","system_id":"levelo_inurba_marseille","lat":43.250966,"lon":5.395186,"is_reserved":false,"is_disabled":false,"rental_uris":{"android":"levelo://app?vid=45e98df5-6bfa-4ec9-aaa4-b4e73ed3b5a0","ios":"levelo://app?vid=45e98df5-6bfa-4ec9-aaa4-b4e73ed3b5a0"},"vehicle_type_id":"4","last_reported":1704387985,"current_range_meters":14000,"station_id":"ce4bhm12rcd13ifvqgkg","pricing_plan_id":"free"},{"bike_id":"2fd166d3-45f7-44b4-821e-24191ab847bd","system_id":"levelo_inurba_marseille","lat":43.24663,"lon":5.38164,"is_reserved":false,"is_disabled":false,"rental_uris":{"android":"levelo://app?vid=2fd166d3-45f7-44b4-821e-24191ab847bd","ios":"levelo://app?vid=2fd166d3-45f7-44b4-821e-24191ab847bd"},"vehicle_type_id":"4","last_reported":1704387985,"current_range_meters":16800,"station_id":"ce4bhih2rcd13ifvqfr0","pricing_plan_id":"free"},{"bike_id":"0184c6e8-0f48-4ecf-ae1c-850abedea480","system_id":"levelo_inurba_marseille","lat":43.25102,"lon":5.403214,"is_reserved":false,"is_disabled":false,"rental_uris":{"android":"levelo://app?vid=0184c6e8-0f48-4ecf-ae1c-850abedea480","ios":"levelo://app?vid=0184c6e8-0f48-4ecf-ae1c-850abedea480"},"vehicle_type_id":"4","last_reported":1704387985,"current_range_meters":0,"station_id":"ce4bhlh2rcd13ifvqgig","pricing_plan_id":"free"},{"bike_id":"472710ec-cf51-48a2-b152-badef0d06af6","system_id":"levelo_inurba_marseille","lat":43.24392,"lon":5.37054,"is_reserved":false,"is_disabled":false,"rental_uris":{"android":"levelo://app?vid=472710ec-cf51-48a2-b152-badef0d06af6","ios":"levelo://app?vid=472710ec-cf51-48a2-b152-badef0d06af6"},"vehicle_type_id":"4","last_reported":1704387985,"current_range_meters":30000,"station_id":"ce4bhhh2rcd13ifvqfk0","pricing_plan_id":"free"},{"bike_id":"fb13e198-f64c-459b-bff6-b7bd56db05ab","system_id":"levelo_inurba_marseille","lat":43.243884,"lon":5.370736,"is_reserved":false,"is_disabled":false,"rental_uris":{"android":"levelo://app?vid=fb13e198-f64c-459b-bff6-b7bd56db05ab","ios":"levelo://app?vid=fb13e198-f64c-459b-bff6-b7bd56db05ab"},"vehicle_type_id":"4","last_reported":1704387985,"current_range_meters":25200,"station_id":"ce4bhhh2rcd13ifvqfk0","pricing_plan_id":"free"},{"bike_id":"811cee86-8017-4f24-9315-03fbb9cd3013","system_id":"levelo_inurba_marseille","lat":43.2439,"lon":5.37055,"is_reserved":false,"is_disabled":false,"rental_uris":{"android":"levelo://app?vid=811cee86-8017-4f24-9315-03fbb9cd3013","ios":"levelo://app?vid=811cee86-8017-4f24-9315-03fbb9cd3013"},"vehicle_type_id":"4","last_reported":1704387985,"current_range_meters":30000,"station_id":"ce4bhhh2rcd13ifvqfk0","pricing_plan_id":"free"},{"bike_id":"2e40ebfc-4f9c-4141-95b3-5f89ee0db1de","system_id":"levelo_inurba_marseille","lat":43.243882,"lon":5.370524,"is_reserved":false,"is_disabled":false,"rental_uris":{"android":"levelo://app?vid=2e40ebfc-4f9c-4141-95b3-5f89ee0db1de","ios":"levelo://app?vid=2e40ebfc-4f9c-4141-95b3-5f89ee0db1de"},"vehicle_type_id":"4","last_reported":1704387985,"current_range_meters":31200,"station_id":"ce4bhhh2rcd13ifvqfk0","pricing_plan_id":"free"},{"bike_id":"430056cb-9840-4a8e-8116-1e058ba5e920","system_id":"levelo_inurba_marseille","lat":43.24386,"lon":5.3706,"is_reserved":false,"is_disabled":false,"rental_uris":{"android":"levelo://app?vid=430056cb-9840-4a8e-8116-1e058ba5e920","ios":"levelo://app?vid=430056cb-9840-4a8e-8116-1e058ba5e920"},"vehicle_type_id":"4","last_reported":1704387985,"current_range_meters":19200,"station_id":"ce4bhhh2rcd13ifvqfk0","pricing_plan_id":"free"},{"bike_id":"e4e950e4-b6d6-4a26-84c5-40f56ef80c6f","system_id":"levelo_inurba_marseille","lat":43.240618,"lon":5.377636,"is_reserved":false,"is_disabled":false,"rental_uris":{"android":"levelo://app?vid=e4e950e4-b6d6-4a26-84c5-40f56ef80c6f","ios":"levelo://app?vid=e4e950e4-b6d6-4a26-84c5-40f56ef80c6f"},"vehicle_type_id":"4","last_reported":1704387985,"current_range_meters":16400,"station_id":"ce4bhnp2rcd13ifvqgvg","pricing_plan_id":"free"},{"bike_id":"a063a34c-e57e-4077-a30c-9e807d01a6a4","system_id":"levelo_inurba_marseille","lat":43.240618,"lon":5.377636,"is_reserved":false,"is_disabled":false,"rental_uris":{"android":"levelo://app?vid=a063a34c-e57e-4077-a30c-9e807d01a6a4","ios":"levelo://app?vid=a063a34c-e57e-4077-a30c-9e807d01a6a4"},"vehicle_type_id":"4","last_reported":1704387985,"current_range_meters":31200,"station_id":"ce4bhnp2rcd13ifvqgvg","pricing_plan_id":"free"},{"bike_id":"c2d5ee61-7842-4099-b31d-87c7605ac520","system_id":"levelo_inurba_marseille","lat":43.240623,"lon":5.377642,"is_reserved":false,"is_disabled":false,"rental_uris":{"android":"levelo://app?vid=c2d5ee61-7842-4099-b31d-87c7605ac520","ios":"levelo://app?vid=c2d5ee61-7842-4099-b31d-87c7605ac520"},"vehicle_type_id":"4","last_reported":1704387985,"current_range_meters":23600,"station_id":"ce4bhnp2rcd13ifvqgvg","pricing_plan_id":"free"},{"bike_id":"9f31b9c0-f709-42e3-a519-e90befaffca8","system_id":"levelo_inurba_marseille","lat":43.240618,"lon":5.377636,"is_reserved":false,"is_disabled":false,"rental_uris":{"android":"levelo://app?vid=9f31b9c0-f709-42e3-a519-e90befaffca8","ios":"levelo://app?vid=9f31b9c0-f709-42e3-a519-e90befaffca8"},"vehicle_type_id":"4","last_reported":1704387985,"current_range_meters":30400,"station_id":"ce4bhnp2rcd13ifvqgvg","pricing_plan_id":"free"},{"bike_id":"a2972913-8685-4aaa-90f0-f1709d8bc85a","system_id":"levelo_inurba_marseille","lat":43.240623,"lon":5.377642,"is_reserved":false,"is_disabled":false,"rental_uris":{"android":"levelo://app?vid=a2972913-8685-4aaa-90f0-f1709d8bc85a","ios":"levelo://app?vid=a2972913-8685-4aaa-90f0-f1709d8bc85a"},"vehicle_type_id":"4","last_reported":1704387985,"current_range_meters":17200,"station_id":"ce4bhnp2rcd13ifvqgvg","pricing_plan_id":"free"},{"bike_id":"577237a9-8308-4269-a69e-e6447b4f5ce7","system_id":"levelo_inurba_marseille","lat":43.240623,"lon":5.377642,"is_reserved":false,"is_disabled":false,"rental_uris":{"android":"levelo://app?vid=577237a9-8308-4269-a69e-e6447b4f5ce7","ios":"levelo://app?vid=577237a9-8308-4269-a69e-e6447b4f5ce7"},"vehicle_type_id":"4","last_reported":1704387985,"current_range_meters":20800,"station_id":"ce4bhnp2rcd13ifvqgvg","pricing_plan_id":"free"},