{"last_updated":1735319229,"ttl":60,"version":"2.2","data":{"bikes":[{"bike_id":"e3b0e383-3408-455d-b067-b4ec9174ce27","system_id":"levelo_inurba_marseille","lat":43.287677,"lon":5.379308,"is_reserved":false,"is_disabled":false,"rental_uris":{"android":"levelo://app?vid=e3b0e383-3408-455d-b067-b4ec9174ce27","ios":"levelo://app?vid=e3b0e383-3408-455d-b067-b4ec9174ce27"},"vehicle_type_id":"4","last_reported":1735319230,"current_range_meters":20400,"station_id":"ce4bh9p2rcd13ifvqec0","pricing_plan_id":"cebpf4jnsgd1na2vs0mg"},{"bike_id":"10792341-2d03-433b-befa-e4403785b28a","system_id":"levelo_inurba_marseille","lat":43.29575,"lon":5.37514,"is_reserved":false,"is_disabled":false,"rental_uris":{"android":"levelo://app?vid=10792341-2d03-433b-befa-e4403785b28a","ios":"levelo://app?vid=10792341-2d03-433b-befa-e4403785b28a"},"vehicle_type_id":"4","last_reported":1735319230,"current_range_meters":36800,"station_id":"ce4bgh92rcd13ifvqb50","pricing_plan_id":"cebpf4jnsgd1na2vs0mg"},{"bike_id":"f52c2897-0e1e-4374-ae77-9ce773cee8d5","system_id":"levelo_inurba_marseille","lat":43.279006,"lon":5.380011,"is_reserved":false,"is_disabled":false,"rental_uris":{"android":"levelo://app?vid=f52c2897-0e1e-4374-ae77-9ce773cee8d5","ios":"levelo://app?vid=f52c2897-0e1e-4374-ae77-9ce773cee8d5"},"vehicle_type_id":"4","last_reported":1735319230,"current_range_meters":33200,"station_id":"ce4bhf92rcd13ifvqf50","pricing_plan_id":"cebpf4jnsgd1na2vs0mg"},{"bike_id":"015f3506-0edf-4591-879e-490275f7a7d2","system_id":"levelo_inurba_marseille","lat":43.23965,"lon":5.36636,"is_reserved":false,"is_disabled":false,"rental_uris":{"android":"levelo://app?vid=015f3506-0edf-4591-879e-490275f7a7d2","ios":"levelo://app?vid=015f3506-0edf-4591-879e-490275f7a7d2"},"vehicle_type_id":"4","last_reported":1735319230,"current_range_meters":24400,"station_id":"ce4bhi12rcd13ifvqfp0","pricing_plan_id":"cebpf4jnsgd1na2vs0mg"},{"bike_id":"43018bbb-f5df-4f0b-b23d-13d1a6852495","system_id":"levelo_inurba_marseille","lat":43.28937,"lon":5.36629,"is_reserved":false,"is_disabled":false,"rental_uris":{"android":"levelo://app?vid=43018bbb-f5df-4f0b-b23d-13d1a6852495","ios":"levelo://app?vid=43018bbb-f5df-4f0b-b23d-13d1a6852495"},"vehicle_type_id":"4","last_reported":1735319230,"current_range_meters":38800,"station_id":"ce4bhap2rcd13ifvqek0","pricing_plan_id":"cebpf4jnsgd1na2vs0mg"},{"bike_id":"4def4882-e804-4c7f-ad72-1d6041f29fab","system_id":"levelo_inurba_marseille","lat":43.28949,"lon":5.36644,"is_reserved":false,"is_disabled":false,"rental_uris":{"android":"levelo://app?vid=4def4882-e804-4c7f-ad72-1d6041f29fab","ios":"levelo://app?vid=4def4882-e804-4c7f-ad72-1d6041f29fab"},"vehicle_type_id":"4","last_reported":1735319230,"current_range_meters":24400,"station_id":"ce4bhap2rcd13ifvqek0","pricing_plan_id":"cebpf4jnsgd1na2vs0mg"},{"bike_id":"90842d74-1934-4b0d-8946-01f40c1784f3","system_id":"levelo_inurba_marseille","lat":43.27951,"lon":5.41044,"is_reserved":false,"is_disabled":false,"rental_uris":{"android":"levelo://app?vid=90842d74-1934-4b0d-8946-01f40c1784f3","ios":"levelo://app?vid=90842d74-1934-4b0d-8946-01f40c1784f3"},"vehicle_type_id":"4","last_reported":1735319230,"current_range_meters":4000,"station_id":"ce4bhnp2rcd13ifvqh0g","pricing_plan_id":"cebpf4jnsgd1na2vs0mg"},{"bike_id":"7c408824-19b2-4ae6-a36b-59cc686c3be9","system_id":"levelo_inurba_marseille","lat":43.32366,"lon":5.38884,"is_reserved":false,"is_disabled":false,"rental_uris":{"android":"levelo://app?vid=7c408824-19b2-4ae6-a36b-59cc686c3be9","ios":"levelo://app?vid=7c408824-19b2-4ae6-a36b-59cc686c3be9"},"vehicle_type_id":"4","last_reported":1735319230,"current_range_meters":32000,"station_id":"ce4bhqp2rcd13ifvqhog","pricing_plan_id":"cebpf4jnsgd1na2vs0mg"},{"bike_id":"3991aac2-ec7f-43c8-801f-23e11845f2d6","system_id":"levelo_inurba_marseille","lat":43.2815,"lon":5.42637,"is_reserved":false,"is_disabled":false,"rental_uris":{"android":"levelo://app?vid=3991aac2-ec7f-43c8-801f-23e11845f2d6","ios":"levelo://app?vid=3991aac2-ec7f-43c8-801f-23e11845f2d6"},"vehicle_type_id":"4","last_reported":1735319230,"current_range_meters":38800,"station_id":"ce4bhnh2rcd13ifvqgug","pricing_plan_id":"cebpf4jnsgd1na2vs0mg"},{"bike_id":"221ba48f-d8fe-4a93-b923-6a469ee17004","system_id":"levelo_inurba_marseille","lat":43.26794,"lon":5.39414,"is_reserved":false,"is_disabled":false,"rental_uris":{"android":"levelo://app?vid=221ba48f-d8fe-4a93-b923-6a469ee17004","ios":"levelo://app?vid=221ba48f-d8fe-4a93-b923-6a469ee17004"},"vehicle_type_id":"4","last_reported":1735319230,"current_range_meters":38800,"station_id":"ce4bhh12rcd13ifvqfg0","pricing_plan_id":"cebpf4jnsgd1na2vs0mg"},{"bike_id":"aa910906-3ca2-4107-80e1-4fe46d1472a6","system_id":"levelo_inurba_marseille","lat":43.32046,"lon":5.416,"is_reserved":false,"is_disabled":false,"rental_uris":{"android":"levelo://app?vid=aa910906-3ca2-4107-80e1-4fe46d1472a6","ios":"levelo://app?vid=aa910906-3ca2-4107-80e1-4fe46d1472a6"},"vehicle_type_id":"4","last_reported":1735319230,"current_range_meters":34000,"station_id":"ce4bhq92rcd13ifvqhkg","pricing_plan_id":"cebpf4jnsgd1na2vs0mg"},{"bike_id":"6ce1c022-acc8-490f-a6d1-40494c9ad385","system_id":"levelo_inurba_marseille","lat":43.25731,"lon":5.41109,"is_reserved":false,"is_disabled":false,"rental_uris":{"android":"levelo://app?vid=6ce1c022-acc8-490f-a6d1-40494c9ad385","ios":"levelo://app?vid=6ce1c022-acc8-490f-a6d1-40494c9ad385"},"vehicle_type_id":"4","last_reported":1735319230,"current_range_meters":35200,"station_id":"ce4bhkp2rcd13ifvqgd0","pricing_plan_id":"cebpf4jnsgd1na2vs0mg"},{"bike_id":"a72dfd3e-c548-42f4-a5a2-17a1e02a427a","system_id":"levelo_inurba_marseille","lat":43.26201,"lon":5.37934,"is_reserved":false,"is_disabled":false,"rental_uris":{"android":"levelo://app?vid=a72dfd3e-c548-42f4-a5a2-17a1e02a427a","ios":"levelo://app?vid=a72dfd3e-c548-42f4-a5a2-17a1e02a427a"},"vehicle_type_id":"4","last_reported":1735319230,"current_range_meters":38800,"station_id":"ce4bhjp2rcd13ifvqg90","pricing_plan_id":"cebpf4jnsgd1na2vs0mg"},{"bike_id":"cb35f7d8-c204-4a7f-801e-8a8f1f547ed7","system_id":"levelo_inurba_marseille","lat":43.27202,"lon":5.39183,"is_reserved":false,"is_disabled":false,"rental_uris":{"android":"levelo://app?vid=cb35f7d8-c204-4a7f-801e-8a8f1f547ed7","ios":"levelo://app?vid=cb35f7d8-c204-4a7f-801e-8a8f1f547ed7"},"vehicle_type_id":"4","last_reported":1735319230,"current_range_meters":38800,"station_id":"ce4bhhp2rcd13ifvqfm0","pricing_plan_id":"cebpf4jnsgd1na2vs0mg"},{"bike_id":"b8b4a4ff-82ec-4d06-9add-289a8a374bf6","system_id":"levelo_inurba_marseille","lat":43.30207,"lon":5.39467,"is_reserved":false,"is_disabled":false,"rental_uris":{"android":"levelo://app?vid=b8b4a4ff-82ec-4d06-9add-289a8a374bf6","ios":"levelo://app?vid=b8b4a4ff-82ec-4d06-9add-289a8a374bf6"},"vehicle_type_id":"4","last_reported":1735319230,"current_range_meters":16800,"station_id":"ce4bh0p2rcd13ifvqd70","pricing_plan_id":"cebpf4jnsgd1na2vs0mg"},{"bike_id":"4b0fd93f-ab44-4d17-9609-4abb396d054c","system_id":"levelo_inurba_marseille","lat":43.23194,"lon":5.35557,"is_reserved":false,"is_disabled":false,"rental_uris":{"android":"levelo://app?vid=4b0fd93f-ab44-4d17-9609-4abb396d054c","ios":"levelo://app?vid=4b0fd93f-ab44-4d17-9609-4abb396d054c"},"vehicle_type_id":"4","last_reported":1735319230,"current_range_meters":38800,"station_id":"ce4bhu92rcd13ifvqi70","pricing_plan_id":"cebpf4jnsgd1na2vs0mg"},{"bike_id":"4df266d2-4809-458c-8905-788d59fa5eb1","system_id":"levelo_inurba_marseille","lat":43.27322,"lon":5.3911,"is_reserved":false,"is_disabled":false,"rental_uris":{"android":"levelo://app?vid=4df266d2-4809-458c-8905-788d59fa5eb1","ios":"levelo://app?vid=4df266d2-4809-458c-8905-788d59fa5eb1"},"vehicle_type_id":"4","last_reported":1735319230,"current_range_meters":19600,"station_id":"ce4bhgp2rcd13ifvqfe0","pricing_plan_id":"cebpf4jnsgd1na2vs0mg"},{"bike_id":"d97efcc0-2b24-4953-b2da-461cf0985a52","system_id":"levelo_inurba_marseille","lat":43.27949,"lon":5.38724,"is_reserved":false,"is_disabled":false,"rental_uris":{"android":"levelo://app?vid=d97efcc0-2b24-4953-b2da-461cf0985a52","ios":"levelo://app?vid=d97efcc0-2b24-4953-b2da-461cf0985a52"},"vehicle_type_id":"4","last_reported":1735319230,"current_range_meters":22400,"station_id":"ce4bhg12rcd13ifvqf80","pricing_plan_id":"cebpf4jnsgd1na2vs0mg"},{"bike_id":"b81f6e7c-59ff-4017-aa72-c69e170ff39d","system_id":"levelo_inurba_marseille","lat":43.30093,"lon":5.39074,"is_reserved":false,"is_disabled":false,"rental_uris":{"android":"levelo://app?vid=b81f6e7c-59ff-4017-aa72-c69e170ff39d","ios":"levelo://app?vid=b81f6e7c-59ff-4017-aa72-c69e170ff39d"},"vehicle_type_id":"4","last_reported":1735319230,"current_range_meters":8800,"station_id":"ce4bh192rcd13ifvqdb0","pricing_plan_id":"cebpf4jnsgd1na2vs0mg"},{"bike_id":"25e0f3da-f062-4c04-aa97-3f61720746ca","system_id":"levelo_inurba_marseille","lat":43.29533,"lon":5.38552,"is_reserved":false,"is_disabled":false,"rental_uris":{"android":"levelo://app?vid=25e0f3da-f062-4c04-aa97-3f61720746ca","ios":"levelo://app?vid=25e0f3da-f062-4c04-aa97-3f61720746ca"},"vehicle_type_id":"4","last_reported":1735319230,"current_range_meters":36400,"station_id":"ce4bgih2rcd13ifvqba0","pricing_plan_id":"cebpf4jnsgd1na2vs0mg"},{"bike_id":"c50d462b-6a99-49d7-94af-f1fbe24a2442","system_id":"levelo_inurba_marseille","lat":43.2866,"lon":5.36355,"is_reserved":false,"is_disabled":false,"rental_uris":{"android":"levelo://app?vid=c50d462b-6a99-49d7-94af-f1fbe24a2442","ios":"levelo://app?vid=c50d462b-6a99-49d7-94af-f1fbe24a2442"},"vehicle_type_id":"4","last_reported":1735319230,"current_range_meters":22800,"station_id":"ce4bhah2rcd13ifvqej0","pricing_plan_id":"cebpf4jnsgd1na2vs0mg"},{"bike_id":"3fcb2f6f-39f4-445d-a829-8626c3812c7e","system_id":"levelo_inurba_marseille","lat":43.27676,"lon":5.3891,"is_reserved":false,"is_disabled":false,"rental_uris":{"android":"levelo://app?vid=3fcb2f6f-39f4-445d-a829-8626c3812c7e","ios":"levelo://app?vid=3fcb2f6f-39f4-445d-a829-8626c3812c7e"},"vehicle_type_id":"4","last_reported":1735319230,"current_range_meters":25600,"station_id":"ce4bhi12rcd13ifvqfo0","pricing_plan_id":"cebpf4jnsgd1na2vs0mg"},{"bike_id":"54e82adf-653a-40bc-8212-b0e67d34d16f","system_id":"levelo_inurba_marseille","lat":43.29929,"lon":5.36527,"is_reserved":false,"is_disabled":false,"rental_uris":{"android":"levelo://app?vid=54e82adf-653a-40bc-8212-b0e67d34d16f","ios":"levelo://app?vid=54e82adf-653a-40bc-8212-b0e67d34d16f"},"vehicle_type_id":"4","last_reported":1735319230,"current_range_meters":38800,"station_id":"ce4bgm92rcd13ifvqbr0","pricing_plan_id":"cebpf4jnsgd1na2vs0mg"},{"bike_id":"459151cf-2cdd-44b6-95c1-b724579b3d39","system_id":"levelo_inurba_marseille","lat":43.29795,"lon":5.38105,"is_reserved":false,"is_disabled":false,"rental_uris":{"android":"levelo://app?vid=459151cf-2cdd-44b6-95c1-b724579b3d39","ios":"levelo://app?vid=459151cf-2cdd-44b6-95c1-b724579b3d39"},"vehicle_type_id":"4","last_reported":1735319230,"current_range_meters":26000,"station_id":"ce4bgip2rcd13ifvqbb0","pricing_plan_id":"cebpf4jnsgd1na2vs0mg"},{"bike_id":"857344dd-6be1-4d34-90e7-6f62afbbef2e","system_id":"levelo_inurba_marseille","lat":43.32104,"lon":5.3678,"is_reserved":false,"is_disabled":false,"rental_uris":{"android":"levelo://app?vid=857344dd-6be1-4d34-90e7-6f62afbbef2e","ios":"levelo://app?vid=857344dd-6be1-4d34-90e7-6f62afbbef2e"},"vehicle_type_id":"4","last_reported":1735319230,"current_range_meters":36800,"station_id":"ce4bhrh2rcd13ifvqhug","pricing_plan_id":"cebpf4jnsgd1na2vs0mg"},{"bike_id":"dbcb7936-38df-4994-a253-29b424e6f6e1","system_id":"levelo_inurba_marseille","lat":43.29519,"lon":5.37498,"is_reserved":false,"is_disabled":false,"rental_uris":{"android":"levelo://app?vid=dbcb7936-38df-4994-a253-29b424e6f6e1","ios":"levelo://app?vid=dbcb7936-38df-4994-a253-29b424e6f6e1"},"vehicle_type_id":"4","last_reported":1735319230,"current_range_meters":33200,"station_id":"ce4bgkp2rcd13ifvqbmg","pricing_plan_id":"cebpf4jnsgd1na2vs0mg"},{"bike_id":"06e36c0b-f1b7-4a71-80ba-88bd69519748","system_id":"levelo_inurba_marseille","lat":43.30081,"lon":5.39058,"is_reserved":false,"is_disabled":false,"rental_uris":{"android":"levelo://app?vid=06e36c0b-f1b7-4a71-80ba-88bd69519748","ios":"levelo://app?vid=06e36c0b-f1b7-4a71-80ba-88bd69519748"},"vehicle_type_id":"4","last_reported":1735319230,"current_range_meters":32000,"station_id":"ce4bh192rcd13ifvqdb0","pricing_plan_id":"cebpf4jnsgd1na2vs0mg"},{"bike_id":"982e21d4-e971-4b77-a19a-00bb26b68082","system_id":"levelo_inurba_marseille","lat":43.29266,"lon":5.38446,"is_reserved":false,"is_disabled":false,"rental_uris":{"android":"levelo://app?vid=982e21d4-e971-4b77-a19a-00bb26b68082","ios":"levelo://app?vid=982e21d4-e971-4b77-a19a-00bb26b68082"},"vehicle_type_id":"4","last_reported":1735319230,"current_range_meters":11600,"station_id":"ce4bh692rcd13ifvqea0","pricing_plan_id":"cebpf4jnsgd1na2vs0mg"},{"bike_id":"721c1c7f-f5c5-437c-8a8d-3564f4f522ad","system_id":"levelo_inurba_marseille","lat":43.30424,"lon":5.3975,"is_reserved":false,"is_disabled":false,"rental_uris":{"android":"levelo://app?vid=721c1c7f-f5c5-437c-8a8d-3564f4f522ad","ios":"levelo://app?vid=721c1c7f-f5c5-437c-8a8d-3564f4f522ad"},"vehicle_type_id":"4","last_reported":1735319230,"current_range_meters":39200,"station_id":"ce4bh092rcd13ifvqd20","pricing_plan_id":"cebpf4jnsgd1na2vs0mg"},{"bike_id":"f211b7a7-4ea2-43fa-9335-360ff6ef2067","system_id":"levelo_inurba_marseille","lat":43.24077,"lon":5.37748,"is_reserved":false,"is_disabled":false,"rental_uris":{"android":"levelo://app?vid=f211b7a7-4ea2-43fa-9335-360ff6ef2067","ios":"levelo://app?vid=f211b7a7-4ea2-43fa-9335-360ff6ef2067"},"vehicle_type_id":"4","last_reported":1735319230,"current_range_meters":30400,"station_id":"ce4bhnp2rcd13ifvqgvg","pricing_plan_id":"cebpf4jnsgd1na2vs0mg"},{"bike_id":"46f48fbb-7af4-4590-9b7a-994204b296e1","system_id":"levelo_inurba_marseille","lat":43.28155,"lon":5.42637,"is_reserved":false,"is_disabled":false,"rental_uris":{"android":"levelo://app?vid=46f48fbb-7af4-4590-9b7a-994204b296e1","ios":"levelo://app?vid=46f48fbb-7af4-4590-9b7a-994204b296e1"},"vehicle_type_id":"4","last_reported":1735319230,"current_range_meters":32800,"station_id":"ce4bhnh2rcd13ifvqgug","pricing_plan_id":"cebpf4jnsgd1na2vs0mg"},{"bike_id":"ad66ce9d-e2b2-4064-ae7f-fe87403c632b","system_id":"levelo_inurba_marseille","lat":43.23071,"lon":5.35479,"is_reserved":false,"is_disabled":false,"rental_uris":{"android":"levelo://app?vid=ad66ce9d-e2b2-4064-ae7f-fe87403c632b","ios":"levelo://app?vid=ad66ce9d-e2b2-4064-ae7f-fe87403c632b"},"vehicle_type_id":"4","last_reported":1735319230,"current_range_meters":24800,"station_id":"cpo3342slgdg3j2ifvpg","pricing_plan_id":"cebpf4jnsgd1na2vs0mg"},{"bike_id":"5ad0bf61-10f4-4615-a88b-24cadcaa81b0","system_id":"levelo_inurba_marseille","lat":43.3133,"lon":5.39698,"is_reserved":false,"is_disabled":false,"rental_uris":{"android":"levelo://app?vid=5ad0bf61-10f4-4615-a88b-24cadcaa81b0","ios":"levelo://app?vid=5ad0bf61-10f4-4615-a88b-24cadcaa81b0"},"vehicle_type_id":"4","last_reported":1735319230,"current_range_meters":38800,"station_id":"ce4bgvp2rcd13ifvqcu0","pricing_plan_id":"cebpf4jnsgd1na2vs0mg"},{"bike_id":"5a95431d-df0c-4e3b-8013-4cc3c3dd8714","system_id":"levelo_inurba_marseille","lat":43.29514,"lon":5.37476,"is_reserved":false,"is_disabled":false,"rental_uris":{"android":"levelo://app?vid=5a95431d-df0c-4e3b-8013-4cc3c3dd8714","ios":"levelo://app?vid=5a95431d-df0c-4e3b-8013-4cc3c3dd8714"},"vehicle_type_id":"4","last_reported":1735319230,"current_range_meters":38400,"station_id":"ce4bgkp2rcd13ifvqbmg","pricing_plan_id":"cebpf4jnsgd1na2vs0mg"},{"bike_id":"ced76378-03ce-491e-8851-299c9e2a0e28","system_id":"levelo_inurba_marseille","lat":43.27209,"lon":5.39187,"is_reserved":false,"is_disabled":false,"rental_uris":{"android":"levelo://app?vid=ced76378-03ce-491e-8851-299c9e2a0e28","ios":"levelo://app?vid=ced76378-03ce-491e-8851-299c9e2a0e28"},"vehicle_type_id":"4","last_reported":1735319230,"current_range_meters":38800,"station_id":"ce4bhhp2rcd13ifvqfm0","pricing_plan_id":"cebpf4jnsgd1na2vs0mg"},{"bike_id":"d0533ccb-11ce-46dc-9cca-daa9f7a4985a","system_id":"levelo_inurba_marseille","lat":43.29557,"lon":5.42294,"is_reserved":false,"is_disabled":false,"rental_uris":{"android":"levelo://app?vid=d0533ccb-11ce-46dc-9cca-daa9f7a4985a","ios":"levelo://app?vid=d0533ccb-11ce-46dc-9cca-daa9f7a4985a"},"vehicle_type_id":"4","last_reported":1735319230,"current_range_meters":38800,"station_id":"ce4bhph2rcd13ifvqhdg","pricing_plan_id":"cebpf4jnsgd1na2vs0mg"},{"bike_id":"8ad4c07d-8b6d-4342-8833-67a7cb8c2fef","system_id":"levelo_inurba_marseille","lat":43.30535,"lon":5.38425,"is_reserved":false,"is_disabled":false,"rental_uris":{"android":"levelo://app?vid=8ad4c07d-8b6d-4342-8833-67a7cb8c2fef","ios":"levelo://app?vid=8ad4c07d-8b6d-4342-8833-67a7cb8c2fef"},"vehicle_type_id":"4","last_reported":1735319230,"current_range_meters":32000,"station_id":"ce4bgg92rcd13ifvqb30","pricing_plan_id":"cebpf4jnsgd1na2vs0mg"},{"bike_id":"9df6a86e-973a-4959-9331-7febd711fb7d","system_id":"levelo_inurba_marseille","lat":43.2894,"lon":5.3664,"is_reserved":false,"is_disabled":false,"rental_uris":{"android":"levelo://app?vid=9df6a86e-973a-4959-9331-7febd711fb7d","ios":"levelo://app?vid=9df6a86e-973a-4959-9331-7febd711fb7d"},"vehicle_type_id":"4","last_reported":1735319230,"current_range_meters":38800,"station_id":"ce4bhap2rcd13ifvqek0","pricing_plan_id":"cebpf4jnsgd1na2vs0mg"},{"bike_id":"d91f1d8d-66ec-4a8f-b241-0944dbc60775","system_id":"levelo_inurba_marseille","lat":43.27691,"lon":5.38904,"is_reserved":false,"is_disabled":false,"rental_uris":{"android":"levelo://app?vid=d91f1d8d-66ec-4a8f-b241-0944dbc60775","ios":"levelo://app?vid=d91f1d8d-66ec-4a8f-b241-0944dbc60775"},"vehicle_type_id":"4","last_reported":1735319230,"current_range_meters":22000,"station_id":"ce4bhi12rcd13ifvqfo0","pricing_plan_id":"cebpf4jnsgd1na2vs0mg"},{"bike_id":"b32fb18a-c8a8-4404-98aa-9a585746a89d","system_id":"levelo_inurba_marseille","lat":43.31767,"lon":5.40583,"is_reserved":false,"is_disabled":false,"rental_uris":{"android":"levelo://app?vid=b32fb18a-c8a8-4404-98aa-9a585746a89d","ios":"levelo://app?vid=b32fb18a-c8a8-4404-98aa-9a585746a89d"},"vehicle_type_id":"4","last_reported":1735319230,"current_range_meters":28400,"station_id":"","pricing_plan_id":"cebpf4jnsgd1na2vs0mg"},{"bike_id":"fb65f68e-01b9-464f-abae-a60e8b871ed3","system_id":"levelo_inurba_marseille","lat":43.2789,"lon":5.39624,"is_reserved":false,"is_disabled":false,"rental_uris":{"android":"levelo://app?vid=fb65f68e-01b9-464f-abae-a60e8b871ed3","ios":"levelo://app?vid=fb65f68e-01b9-464f-abae-a60e8b871ed3"},"vehicle_type_id":"4","last_reported":1735319230,"current_range_meters":27600,"station_id":"ce4bhf92rcd13ifvqf40","pricing_plan_id":"cebpf4jnsgd1na2vs0mg"},{"bike_id":"a61dabe4-d07f-47b2-966a-ed2cf66e5fa9","system_id":"levelo_inurba_marseille","lat":43.28002,"lon":5.41666,"is_reserved":false,"is_disabled":false,"rental_uris":{"android":"levelo://app?vid=a61dabe4-d07f-47b2-966a-ed2cf66e5fa9","ios":"levelo://app?vid=a61dabe4-d07f-47b2-966a-ed2cf66e5fa9"},"vehicle_type_id":"4","last_reported":1735319230,"current_range_meters":29600,"station_id":"ce4bho12rcd13ifvqh1g","pricing_plan_id":"cebpf4jnsgd1na2vs0mg"},{"bike_id":"caab34a4-5264-4b72-a12f-e55159fe93b6","system_id":"levelo_inurba_marseille","lat":43.270662,"lon":5.422678,"is_reserved":false,"is_disabled":false,"rental_uris":{"android":"levelo://app?vid=caab34a4-5264-4b72-a12f-e55159fe93b6","ios":"levelo://app?vid=caab34a4-5264-4b72-a12f-e55159fe93b6"},"vehicle_type_id":"4","last_reported":1735319230,"current_range_meters":33600,"station_id":"ce4bhk92rcd13ifvqgb0","pricing_plan_id":"cebpf4jnsgd1na2vs0mg"},{"bike_id":"8945d0ae-de7c-47f8-bcb0-1536c9716097","system_id":"levelo_inurba_marseille","lat":43.29517,"lon":5.39031,"is_reserved":false,"is_disabled":true,"rental_uris":{"android":"levelo://app?vid=8945d0ae-de7c-47f8-bcb0-1536c9716097","ios":"levelo://app?vid=8945d0ae-de7c-47f8-bcb0-1536c9716097"},"vehicle_type_id":"4","last_reported":1735319230,"current_range_meters":34800,"station_id":"ce4bh3p2rcd13ifvqdp0","pricing_plan_id":"cebpf4jnsgd1na2vs0mg"},{"bike_id":"fe50a5ce-c05b-410c-af59-7143f0371395","system_id":"levelo_inurba_marseille","lat":43.30142,"lon":5.39861,"is_reserved":false,"is_disabled":false,"rental_uris":{"android":"levelo://app?vid=fe50a5ce-c05b-410c-af59-7143f0371395","ios":"levelo://app?vid=fe50a5ce-c05b-410c-af59-7143f0371395"},"vehicle_type_id":"4","last_reported":1735319230,"current_range_meters":38800,"station_id":"ce4bh0h2rcd13ifvqd40","pricing_plan_id":"cebpf4jnsgd1na2vs0mg"},{"bike_id":"e4622295-9d48-4740-9031-22bc2e23f41f","system_id":"levelo_inurba_marseille","lat":43.29035,"lon":5.39963,"is_reserved":false,"is_disabled":false,"rental_uris":{"android":"levelo://app?vid=e4622295-9d48-4740-9031-22bc2e23f41f","ios":"levelo://app?vid=e4622295-9d48-4740-9031-22bc2e23f41f"},"vehicle_type_id":"4","last_reported":1735319230,"current_range_meters":3200,"station_id":"ce4bh392rcd13ifvqdm0","pricing_plan_id":"cebpf4jnsgd1na2vs0mg"},{"bike_id":"2b08ca99-c6f3-4395-ab2d-aeebc3305aa4","system_id":"levelo_inurba_marseille","lat":43.3376,"lon":5.37445,"is_reserved":false,"is_disabled":false,"rental_uris":{"android":"levelo://app?vid=2b08ca99-c6f3-4395-ab2d-aeebc3305aa4","ios":"levelo://app?vid=2b08ca99-c6f3-4395-ab2d-aeebc3305aa4"},"vehicle_type_id":"4","last_reported":1735319230,"current_range_meters":38000,"station_id":"","pricing_plan_id":"cebpf4jnsgd1na2vs0mg"},{"bike_id":"f73c70ea-6172-4b18-af19-96ee5ed86c47","system_id":"levelo_inurba_marseille","lat":43.29259,"lon":5.40907,"is_reserved":false,"is_disabled":false,"rental_uris":{"android":"levelo://app?vid=f73c70ea-6172-4b18-af19-96ee5ed86c47","ios":"levelo://app?vid=f73c70ea-6172-4b18-af19-96ee5ed86c47"},"vehicle_type_id":"4","last_reported":1735319230,"current_range_meters":37600,"station_id":"ce4bh192rcd13ifvqdc0","pricing_plan_id":"cebpf4jnsgd1na2vs0mg"},{"bike_id":"28e87422-6539-49e0-9c4a-e5a9e98a6ed1","system_id":"levelo_inurba_marseille","lat":43.28731,"lon":5.36074,"is_reserved":false,"is_disabled":false,"rental_uris":{"android":"levelo://app?vid=28e87422-6539-49e0-9c4a-e5a9e98a6ed1","ios":"levelo://app?vid=28e87422-6539-49e0-9c4a-e5a9e98a6ed1"},"vehicle_type_id":"4","last_reported":1735319230,"current_range_meters":20800,"station_id":"cki0cbj6b192h4jlfktg","pricing_plan_id":"cebpf4jnsgd1na2vs0mg"},{"bike_id":"33e4c278-497a-4992-9269-3f4bd7a2ca60","system_id":"levelo_inurba_marseille","lat":43.29916,"lon":5.37467,"is_reserved":false,"is_disabled":false,"rental_uris":{"android":"levelo://app?vid=33e4c278-497a-4992-9269-3f4bd7a2ca60","ios":"levelo://app?vid=33e4c278-497a-4992-9269-3f4bd7a2ca60"},"vehicle_type_id":"4","last_reported":1735319230,"current_range_meters":38800,"station_id":"ce4bgjh2rcd13ifvqbg0","pricing_plan_id":"cebpf4jnsgd1na2vs0mg"},{"bike_id":"8667c60c-dfb4-43d3-953b-5b09425618a3","system_id":"levelo_inurba_marseille","lat":43.28485,"lon":5.38413,"is_reserved":false,"is_disabled":false,"rental_uris":{"android":"levelo://app?vid=8667c60c-dfb4-43d3-953b-5b09425618a3","ios":"levelo://app?vid=8667c60c-dfb4-43d3-953b-5b09425618a3"},"vehicle_type_id":"4","last_reported":1735319230,"current_range_meters":20000,"station_id":"ce4bh512rcd13ifvqe3g","pricing_plan_id":"cebpf4jnsgd1na2vs0mg"},{"bike_id":"4e1b440e-dc87-47f0-92e1-32a898eeb09a","system_id":"levelo_inurba_marseille","lat":43.320367,"lon":5.415715,"is_reserved":false,"is_disabled":false,"rental_uris":{"android":"levelo://app?vid=4e1b440e-dc87-47f0-92e1-32a898eeb09a","ios":"levelo://app?vid=4e1b440e-dc87-47f0-92e1-32a898eeb09a"},"vehicle_type_id":"4","last_reported":1735319230,"current_range_meters":8000,"station_id":"ce4bhq92rcd13ifvqhkg","pricing_plan_id":"cebpf4jnsgd1na2vs0mg"},{"bike_id":"a80e57de-6f86-4486-8ccd-8712412c9d74","system_id":"levelo_inurba_marseille","lat":43.29527,"lon":5.39055,"is_reserved":false,"is_disabled":false,"rental_uris":{"android":"levelo://app?vid=a80e57de-6f86-4486-8ccd-8712412c9d74","ios":"levelo://app?vid=a80e57de-6f86-4486-8ccd-8712412c9d74"},"vehicle_type_id":"4","last_reported":1735319230,"current_range_meters":23200,"station_id":"ce4bh3p2rcd13ifvqdp0","pricing_plan_id":"cebpf4jnsgd1na2vs0mg"},{"bike_id":"c0c3e5c6-edc3-41c4-8feb-85aaa21b750a","system_id":"levelo_inurba_marseille","lat":43.32053,"lon":5.41597,"is_reserved":false,"is_disabled":false,"rental_uris":{"android":"levelo://app?vid=c0c3e5c6-edc3-41c4-8feb-85aaa21b750a","ios":"levelo://app?vid=c0c3e5c6-edc3-41c4-8feb-85aaa21b750a"},"vehicle_type_id":"4","last_reported":1735319230,"current_range_meters":38800,"station_id":"ce4bhq92rcd13ifvqhkg","pricing_plan_id":"cebpf4jnsgd1na2vs0mg"},{"bike_id":"9773a7b1-125f-4fb5-be83-b3f159e4aed3","system_id":"levelo_inurba_marseille","lat":43.28468,"lon":5.38428,"is_reserved":false,"is_disabled":false,"rental_uris":{"android":"levelo://app?vid=9773a7b1-125f-4fb5-be83-b3f159e4aed3","ios":"levelo://app?vid=9773a7b1-125f-4fb5-be83-b3f159e4aed3"},"vehicle_type_id":"4","last_reported":1735319230,"current_range_meters":22800,"station_id":"ce4bh512rcd13ifvqe3g","pricing_plan_id":"cebpf4jnsgd1na2vs0mg"},{"bike_id":"18bc1f72-2985-4563-8c4b-a663b4aade98","system_id":"levelo_inurba_marseille","lat":43.289374,"lon":5.366303,"is_reserved":false,"is_disabled":false,"rental_uris":{"android":"levelo://app?vid=18bc1f72-2985-4563-8c4b-a663b4aade98","ios":"levelo://app?vid=18bc1f72-2985-4563-8c4b-a663b4aade98"},"vehicle_type_id":"4","last_reported":1735319230,"current_range_meters":38800,"station_id":"ce4bhap2rcd13ifvqek0","pricing_plan_id":"cebpf4jnsgd1na2vs0mg"},{"bike_id":"d0d3084b-3935-471b-b893-fa78d4b1dec4","system_id":"levelo_inurba_marseille","lat":43.27993,"lon":5.3999,"is_reserved":false,"is_disabled":false,"rental_uris":{"android":"levelo://app?vid=d0d3084b-3935-471b-b893-fa78d4b1dec4","ios":"levelo://app?vid=d0d3084b-3935-471b-b893-fa78d4b1dec4"},"vehicle_type_id":"4","last_reported":1735319230,"current_range_meters":22800,"station_id":"ce4bho92rcd13ifvqh4g","pricing_plan_id":"cebpf4jnsgd1na2vs0mg"},{"bike_id":"38416082-aa24-4a7b-a713-0ccc2500657d","system_id":"levelo_inurba_marseille","lat":43.29529,"lon":5.38544,"is_reserved":false,"is_disabled":false,"rental_uris":{"android":"levelo://app?vid=38416082-aa24-4a7b-a713-0ccc2500657d","ios":"levelo://app?vid=38416082-aa24-4a7b-a713-0ccc2500657d"},"vehicle_type_id":"4","last_reported":1735319230,"current_range_meters":37600,"station_id":"ce4bgih2rcd13ifvqba0","pricing_plan_id":"cebpf4jnsgd1na2vs0mg"},{"bike_id":"344bfaa6-e3d4-49a7-8d16-1687da239288","system_id":"levelo_inurba_marseille","lat":43.27209,"lon":5.39189,"is_reserved":false,"is_disabled":false,"rental_uris":{"android":"levelo://app?vid=344bfaa6-e3d4-49a7-8d16-1687da239288","ios":"levelo://app?vid=344bfaa6-e3d4-49a7-8d16-1687da239288"},"vehicle_type_id":"4","last_reported":1735319230,"current_range_meters":7200,"station_id":"ce4bhhp2rcd13ifvqfm0","pricing_plan_id":"cebpf4jnsgd1na2vs0mg"},{"bike_id":"0bf1bf3f-3244-4553-a44a-196fa30249fc","system_id":"levelo_inurba_marseille","lat":43.29689,"lon":5.37297,"is_reserved":false,"is_disabled":false,"rental_uris":{"android":"levelo://app?vid=0bf1bf3f-3244-4553-a44a-196fa30249fc","ios":"levelo://app?vid=0bf1bf3f-3244-4553-a44a-196fa30249fc"},"vehicle_type_id":"4","last_reported":1735319230,"current_range_meters":37600,"station_id":"ce4bgk12rcd13ifvqbj0","pricing_plan_id":"cebpf4jnsgd1na2vs0mg"},{"bike_id":"51380689-00d9-4638-9e8c-ba05d22870af","system_id":"levelo_inurba_marseille","lat":43.30143,"lon":5.39876,"is_reserved":false,"is_disabled":false,"rental_uris":{"android":"levelo://app?vid=51380689-00d9-4638-9e8c-ba05d22870af","ios":"levelo://app?vid=51380689-00d9-4638-9e8c-ba05d22870af"},"vehicle_type_id":"4","last_reported":1735319230,"current_range_meters":38800,"station_id":"ce4bh0h2rcd13ifvqd40","pricing_plan_id":"cebpf4jnsgd1na2vs0mg"},{"bike_id":"fc8f1da3-b1e2-4b23-8e38-b05bd9cb00eb","system_id":"levelo_inurba_marseille","lat":43.29675,"lon":5.37294,"is_reserved":false,"is_disabled":false,"rental_uris":{"android":"levelo://app?vid=fc8f1da3-b1e2-4b23-8e38-b05bd9cb00eb","ios":"levelo://app?vid=fc8f1da3-b1e2-4b23-8e38-b05bd9cb00eb"},"vehicle_type_id":"4","last_reported":1735319230,"current_range_meters":35200,"station_id":"ce4bgk12rcd13ifvqbj0","pricing_plan_id":"cebpf4jnsgd1na2vs0mg"},{"bike_id":"fb86dc07-2dc6-4bfa-b85e-9957685650ab","system_id":"levelo_inurba_marseille","lat":43.23062,"lon":5.35492,"is_reserved":false,"is_disabled":false,"rental_uris":{"android":"levelo://app?vid=fb86dc07-2dc6-4bfa-b85e-9957685650ab","ios":"levelo://app?vid=fb86dc07-2dc6-4bfa-b85e-9957685650ab"},"vehicle_type_id":"4","last_reported":1735319230,"current_range_meters":22000,"station_id":"cpo3342slgdg3j2ifvpg","pricing_plan_id":"cebpf4jnsgd1na2vs0mg"},{"bike_id":"d177b97f-9cb5-44b2-b733-700a96a10b48","system_id":"levelo_inurba_marseille","lat":43.30128,"lon":5.37414,"is_reserved":false,"is_disabled":false,"rental_uris":{"android":"levelo://app?vid=d177b97f-9cb5-44b2-b733-700a96a10b48","ios":"levelo://app?vid=d177b97f-9cb5-44b2-b733-700a96a10b48"},"vehicle_type_id":"4","last_reported":1735319230,"current_range_meters":20800,"station_id":"ce4bgs92rcd13ifvqcc0","pricing_plan_id":"cebpf4jnsgd1na2vs0mg"},{"bike_id":"d314ca53-b72d-4397-9cb7-34a37fb16225","system_id":"levelo_inurba_marseille","lat":43.25729,"lon":5.41104,"is_reserved":false,"is_disabled":false,"rental_uris":{"android":"levelo://app?vid=d314ca53-b72d-4397-9cb7-34a37fb16225","ios":"levelo://app?vid=d314ca53-b72d-4397-9cb7-34a37fb16225"},"vehicle_type_id":"4","last_reported":1735319230,"current_range_meters":7200,"station_id":"ce4bhkp2rcd13ifvqgd0","pricing_plan_id":"cebpf4jnsgd1na2vs0mg"},{"bike_id":"566e199f-50db-473e-a6f1-ecbe7ac37775","system_id":"levelo_inurba_marseille","lat":43.290304,"lon":5.379249,"is_reserved":false,"is_disabled":false,"rental_uris":{"android":"levelo://app?vid=566e199f-50db-473e-a6f1-ecbe7ac37775","ios":"levelo://app?vid=566e199f-50db-473e-a6f1-ecbe7ac37775"},"vehicle_type_id":"4","last_reported":1735319230,"current_range_meters":22400,"station_id":"ce4bgn12rcd13ifvqbt0","pricing_plan_id":"cebpf4jnsgd1na2vs0mg"},{"bike_id":"455e3a13-0fae-4de3-9f23-6f4d84b2f98c","system_id":"levelo_inurba_marseille","lat":43.30889,"lon":5.39639,"is_reserved":false,"is_disabled":false,"rental_uris":{"android":"levelo://app?vid=455e3a13-0fae-4de3-9f23-6f4d84b2f98c","ios":"levelo://app?vid=455e3a13-0fae-4de3-9f23-6f4d84b2f98c"},"vehicle_type_id":"4","last_reported":1735319230,"current_range_meters":36800,"station_id":"ce4bh012rcd13ifvqcv0","pricing_plan_id":"cebpf4jnsgd1na2vs0mg"},{"bike_id":"258867d5-6dcc-426b-90e6-82a3c252e630","system_id":"levelo_inurba_marseille","lat":43.2959,"lon":5.37517,"is_reserved":false,"is_disabled":false,"rental_uris":{"android":"levelo://app?vid=258867d5-6dcc-426b-90e6-82a3c252e630","ios":"levelo://app?vid=258867d5-6dcc-426b-90e6-82a3c252e630"},"vehicle_type_id":"4","last_reported":1735319230,"current_range_meters":37600,"station_id":"ce4bgh92rcd13ifvqb50","pricing_plan_id":"cebpf4jnsgd1na2vs0mg"},{"bike_id":"09898dd2-84ad-4911-a21d-d1f0823964b3","system_id":"levelo_inurba_marseille","lat":43.29637,"lon":5.37723,"is_reserved":false,"is_disabled":false,"rental_uris":{"android":"levelo://app?vid=09898dd2-84ad-4911-a21d-d1f0823964b3","ios":"levelo://app?vid=09898dd2-84ad-4911-a21d-d1f0823964b3"},"vehicle_type_id":"4","last_reported":1735319230,"current_range_meters":38800,"station_id":"ce4bgi92rcd13ifvqb90","pricing_plan_id":"cebpf4jnsgd1na2vs0mg"},{"bike_id":"11721974-75d9-4fbb-938c-bdb62890bf86","system_id":"levelo_inurba_marseille","lat":43.28922,"lon":5.38398,"is_reserved":false,"is_disabled":false,"rental_uris":{"android":"levelo://app?vid=11721974-75d9-4fbb-938c-bdb62890bf86","ios":"levelo://app?vid=11721974-75d9-4fbb-938c-bdb62890bf86"},"vehicle_type_id":"4","last_reported":1735319230,"current_range_meters":38800,"station_id":"ce4bh612rcd13ifvqe6g","pricing_plan_id":"cebpf4jnsgd1na2vs0mg"},{"bike_id":"40eee063-b95d-4d32-aca8-c581cf8477cf","system_id":"levelo_inurba_marseille","lat":43.25014,"lon":5.38909,"is_reserved":false,"is_disabled":false,"rental_uris":{"android":"levelo://app?vid=40eee063-b95d-4d32-aca8-c581cf8477cf","ios":"levelo://app?vid=40eee063-b95d-4d32-aca8-c581cf8477cf"},"vehicle_type_id":"4","last_reported":1735319230,"current_range_meters":28400,"station_id":"ce4bhgp2rcd13ifvqfd0","pricing_plan_id":"cebpf4jnsgd1na2vs0mg"},{"bike_id":"dc6097a6-7f72-4ddd-80a8-14b9cd4ad602","system_id":"levelo_inurba_marseille","lat":43.30536,"lon":5.36714,"is_reserved":false,"is_disabled":false,"rental_uris":{"android":"levelo://app?vid=dc6097a6-7f72-4ddd-80a8-14b9cd4ad602","ios":"levelo://app?vid=dc6097a6-7f72-4ddd-80a8-14b9cd4ad602"},"vehicle_type_id":"4","last_reported":1735319230,"current_range_meters":30400,"station_id":"ce4bgrp2rcd13ifvqc9g","pricing_plan_id":"cebpf4jnsgd1na2vs0mg"},{"bike_id":"e23f0746-c9e0-42fb-821e-a43f737e9cb7","system_id":"levelo_inurba_marseille","lat":43.27833,"lon":5.39205,"is_reserved":false,"is_disabled":false,"rental_uris":{"android":"levelo://app?vid=e23f0746-c9e0-42fb-821e-a43f737e9cb7","ios":"levelo://app?vid=e23f0746-c9e0-42fb-821e-a43f737e9cb7"},"vehicle_type_id":"4","last_reported":1735319230,"current_range_meters":37600,"station_id":"ce4bhjp2rcd13ifvqga0","pricing_plan_id":"cebpf4jnsgd1na2vs0mg"},{"bike_id":"6fc39219-982d-4feb-9b3b-e1ba4db40afe","system_id":"levelo_inurba_marseille","lat":43.29603,"lon":5.38079,"is_reserved":false,"is_disabled":false,"rental_uris":{"android":"levelo://app?vid=6fc39219-982d-4feb-9b3b-e1ba4db40afe","ios":"levelo://app?vid=6fc39219-982d-4feb-9b3b-e1ba4db40afe"},"vehicle_type_id":"4","last_reported":1735319230,"current_range_meters":38800,"station_id":"ce4bgl12rcd13ifvqbo0","pricing_plan_id":"cebpf4jnsgd1na2vs0mg"},{"bike_id":"e73e6057-e6e9-407b-a17e-f4e119a96aba","system_id":"levelo_inurba_marseille","lat":43.32119,"lon":5.36776,"is_reserved":false,"is_disabled":false,"rental_uris":{"android":"levelo://app?vid=e73e6057-e6e9-407b-a17e-f4e119a96aba","ios":"levelo://app?vid=e73e6057-e6e9-407b-a17e-f4e119a96aba"},"vehicle_type_id":"4","last_reported":1735319230,"current_range_meters":20800,"station_id":"ce4bhrh2rcd13ifvqhug","pricing_plan_id":"cebpf4jnsgd1na2vs0mg"},{"bike_id":"b026491d-9aa1-442c-80e0-d4e7da5be861","system_id":"levelo_inurba_marseille","lat":43.2987,"lon":5.3974,"is_reserved":false,"is_disabled":false,"rental_uris":{"android":"levelo://app?vid=b026491d-9aa1-442c-80e0-d4e7da5be861","ios":"levelo://app?vid=b026491d-9aa1-442c-80e0-d4e7da5be861"},"vehicle_type_id":"4","last_reported":1735319230,"current_range_meters":35600,"station_id":"ce4bh0h2rcd13ifvqd50","pricing_plan_id":"cebpf4jnsgd1na2vs0mg"},{"bike_id":"ebd56e87-7995-466f-8deb-d37c3a725acc","system_id":"levelo_inurba_marseille","lat":43.30143,"lon":5.38782,"is_reserved":false,"is_disabled":false,"rental_uris":{"android":"levelo://app?vid=ebd56e87-7995-466f-8deb-d37c3a725acc","ios":"levelo://app?vid=ebd56e87-7995-466f-8deb-d37c3a725acc"},"vehicle_type_id":"4","last_reported":1735319230,"current_range_meters":30400,"station_id":"ce4bghh2rcd13ifvqb60","pricing_plan_id":"cebpf4jnsgd1na2vs0mg"},{"bike_id":"57103b12-06fc-494b-9a1a-1903f8f245d5","system_id":"levelo_inurba_marseille","lat":43.27991,"lon":5.41665,"is_reserved":false,"is_disabled":false,"rental_uris":{"android":"levelo://app?vid=57103b12-06fc-494b-9a1a-1903f8f245d5","ios":"levelo://app?vid=57103b12-06fc-494b-9a1a-1903f8f245d5"},"vehicle_type_id":"4","last_reported":1735319230,"current_range_meters":26000,"station_id":"ce4bho12rcd13ifvqh1g","pricing_plan_id":"cebpf4jnsgd1na2vs0mg"},{"bike_id":"3cf1dd15-744f-4ef0-9415-449ce776ba35","system_id":"levelo_inurba_marseille","lat":43.27382,"lon":5.36254,"is_reserved":false,"is_disabled":false,"rental_uris":{"android":"levelo://app?vid=3cf1dd15-744f-4ef0-9415-449ce776ba35","ios":"levelo://app?vid=3cf1dd15-744f-4ef0-9415-449ce776ba35"},"vehicle_type_id":"4","last_reported":1735319230,"current_range_meters":10000,"station_id":"ce4bhbh2rcd13ifvqeo0","pricing_plan_id":"cebpf4jnsgd1na2vs0mg"},{"bike_id":"ff75b992-5b9e-4a80-bf43-1639563588aa","system_id":"levelo_inurba_marseille","lat":43.29961,"lon":5.38499,"is_reserved":false,"is_disabled":false,"rental_uris":{"android":"levelo://app?vid=ff75b992-5b9e-4a80-bf43-1639563588aa","ios":"levelo://app?vid=ff75b992-5b9e-4a80-bf43-1639563588aa"},"vehicle_type_id":"4","last_reported":1735319230,"current_range_meters":18000,"station_id":"ce4bgj92rcd13ifvqbd0","pricing_plan_id":"cebpf4jnsgd1na2vs0mg"},{"bike_id":"731ba9de-00dd-4cec-ab12-769c3978dcf6","system_id":"levelo_inurba_marseille","lat":43.32024,"lon":5.41565,"is_reserved":false,"is_disabled":false,"rental_uris":{"android":"levelo://app?vid=731ba9de-00dd-4cec-ab12-769c3978dcf6","ios":"levelo://app?vid=731ba9de-00dd-4cec-ab12-769c3978dcf6"},"vehicle_type_id":"4","last_reported":1735319230,"current_range_meters":36800,"station_id":"ce4bhq92rcd13ifvqhkg","pricing_plan_id":"cebpf4jnsgd1na2vs0mg"},{"bike_id":"9a6e3a7e-5a38-4778-8569-c4a718bdad09","system_id":"levelo_inurba_marseille","lat":43.28717,"lon":5.37942,"is_reserved":false,"is_disabled":false,"rental_uris":{"android":"levelo://app?vid=9a6e3a7e-5a38-4778-8569-c4a718bdad09","ios":"levelo://app?vid=9a6e3a7e-5a38-4778-8569-c4a718bdad09"},"vehicle_type_id":"4","last_reported":1735319230,"current_range_meters":12400,"station_id":"ce4bh9p2rcd13ifvqec0","pricing_plan_id":"cebpf4jnsgd1na2vs0mg"},{"bike_id":"96e14c54-0140-4802-a4fb-b66404aabb9d","system_id":"levelo_inurba_marseille","lat":43.29608,"lon":5.37712,"is_reserved":false,"is_disabled":false,"rental_uris":{"android":"levelo://app?vid=96e14c54-0140-4802-a4fb-b66404aabb9d","ios":"levelo://app?vid=96e14c54-0140-4802-a4fb-b66404aabb9d"},"vehicle_type_id":"4","last_reported":1735319230,"current_range_meters":27200,"station_id":"ce4bgi92rcd13ifvqb90","pricing_plan_id":"cebpf4jnsgd1na2vs0mg"},{"bike_id":"b398f9ec-3d69-4e65-8657-4986194d6615","system_id":"levelo_inurba_marseille","lat":43.30143,"lon":5.39884,"is_reserved":false,"is_disabled":false,"rental_uris":{"android":"levelo://app?vid=b398f9ec-3d69-4e65-8657-4986194d6615","ios":"levelo://app?vid=b398f9ec-3d69-4e65-8657-4986194d6615"},"vehicle_type_id":"4","last_reported":1735319230,"current_range_meters":30400,"station_id":"ce4bh0h2rcd13ifvqd40","pricing_plan_id":"cebpf4jnsgd1na2vs0mg"},{"bike_id":"bf075035-d901-41db-ae8f-dfcc1aedb23e","system_id":"levelo_inurba_marseille","lat":43.24073,"lon":5.3776,"is_reserved":false,"is_disabled":false,"rental_uris":{"android":"levelo://app?vid=bf075035-d901-41db-ae8f-dfcc1aedb23e","ios":"levelo://app?vid=bf075035-d901-41db-ae8f-dfcc1aedb23e"},"vehicle_type_id":"4","last_reported":1735319230,"current_range_meters":22000,"station_id":"ce4bhnp2rcd13ifvqgvg","pricing_plan_id":"cebpf4jnsgd1na2vs0mg"},{"bike_id":"7efa049c-b1f4-4cdb-9041-5d8cd2408ceb","system_id":"levelo_inurba_marseille","lat":43.28697,"lon":5.39972,"is_reserved":false,"is_disabled":false,"rental_uris":{"android":"levelo://app?vid=7efa049c-b1f4-4cdb-9041-5d8cd2408ceb","ios":"levelo://app?vid=7efa049c-b1f4-4cdb-9041-5d8cd2408ceb"},"vehicle_type_id":"4","last_reported":1735319230,"current_range_meters":30000,"station_id":"ce4bho92rcd13ifvqh3g","pricing_plan_id":"cebpf4jnsgd1na2vs0mg"},{"bike_id":"5f900647-c14e-451e-b352-f30b00097dda","system_id":"levelo_inurba_marseille","lat":43.30538,"lon":5.367,"is_reserved":false,"is_disabled":false,"rental_uris":{"android":"levelo://app?vid=5f900647-c14e-451e-b352-f30b00097dda","ios":"levelo://app?vid=5f900647-c14e-451e-b352-f30b00097dda"},"vehicle_type_id":"4","last_reported":1735319230,"current_range_meters":38800,"station_id":"ce4bgrp2rcd13ifvqc9g","pricing_plan_id":"cebpf4jnsgd1na2vs0mg"},{"bike_id":"f523f994-10cd-4740-b49c-26b69297a317","system_id":"levelo_inurba_marseille","lat":43.25585,"lon":5.38235,"is_reserved":false,"is_disabled":false,"rental_uris":{"android":"levelo://app?vid=f523f994-10cd-4740-b49c-26b69297a317","ios":"levelo://app?vid=f523f994-10cd-4740-b49c-26b69297a317"},"vehicle_type_id":"4","last_reported":1735319230,"current_range_meters":36000,"station_id":"ce4bhih2rcd13ifvqfs0","pricing_plan_id":"cebpf4jnsgd1na2vs0mg"},{"bike_id":"dad6db58-f5bc-4da2-b0b4-3d5d1002166b","system_id":"levelo_inurba_marseille","lat":43.32122,"lon":5.36776,"is_reserved":false,"is_disabled":false,"rental_uris":{"android":"levelo://app?vid=dad6db58-f5bc-4da2-b0b4-3d5d1002166b","ios":"levelo://app?vid=dad6db58-f5bc-4da2-b0b4-3d5d1002166b"},"vehicle_type_id":"4","last_reported":1735319230,"current_range_meters":16000,"station_id":"ce4bhrh2rcd13ifvqhug","pricing_plan_id":"cebpf4jnsgd1na2vs0mg"},{"bike_id":"e531dae6-2d63-482d-ad24-ef5fba30c247","system_id":"levelo_inurba_marseille","lat":43.30134,"lon":5.39869,"is_reserved":false,"is_disabled":false,"rental_uris":{"android":"levelo://app?vid=e531dae6-2d63-482d-ad24-ef5fba30c247","ios":"levelo://app?vid=e531dae6-2d63-482d-ad24-ef5fba30c247"},"vehicle_type_id":"4","last_reported":1735319230,"current_range_meters":24000,"station_id":"ce4bh0h2rcd13ifvqd40","pricing_plan_id":"cebpf4jnsgd1na2vs0mg"},{"bike_id":"962a1d2e-9596-44b4-b390-1549e516e638","system_id":"levelo_inurba_marseille","lat":43.29081,"lon":5.37179,"is_reserved":false,"is_disabled":false,"rental_uris":{"android":"levelo://app?vid=962a1d2e-9596-44b4-b390-1549e516e638","ios":"levelo://app?vid=962a1d2e-9596-44b4-b390-1549e516e638"},"vehicle_type_id":"4","last_reported":1735319230,"current_range_meters":26000,"station_id":"ce4bh5p2rcd13ifvqe4g","pricing_plan_id":"cebpf4jnsgd1na2vs0mg"},{"bike_id":"a3b5e29c-4425-483d-9fe4-2d25fea7803f","system_id":"levelo_inurba_marseille","lat":43.25033,"lon":5.38907,"is_reserved":false,"is_disabled":true,"rental_uris":{"android":"levelo://app?vid=a3b5e29c-4425-483d-9fe4-2d25fea7803f","ios":"levelo://app?vid=a3b5e29c-4425-483d-9fe4-2d25fea7803f"},"vehicle_type_id":"4","last_reported":1735319230,"current_range_meters":31200,"station_id":"ce4bhgp2rcd13ifvqfd0","pricing_plan_id":"cebpf4jnsgd1na2vs0mg"},{"bike_id":"396c5533-5cfa-4087-be42-c0b4bf33858d","system_id":"levelo_inurba_marseille","lat":43.32653,"lon":5.40994,"is_reserved":false,"is_disabled":false,"rental_uris":{"android":"levelo://app?vid=396c5533-5cfa-4087-be42-c0b4bf33858d","ios":"levelo://app?vid=396c5533-5cfa-4087-be42-c0b4bf33858d"},"vehicle_type_id":"4","last_reported":1735319230,"current_range_meters":10000,"station_id":"ce4bhpp2rcd13ifvqhgg","pricing_plan_id":"cebpf4jnsgd1na2vs0mg"},{"bike_id":"5f4a2e38-74b5-4a61-9b7b-9f8a076c61ce","system_id":"levelo_inurba_marseille","lat":43.28941,"lon":5.36638,"is_reserved":false,"is_disabled":false,"rental_uris":{"android":"levelo://app?vid=5f4a2e38-74b5-4a61-9b7b-9f8a076c61ce","ios":"levelo://app?vid=5f4a2e38-74b5-4a61-9b7b-9f8a076c61ce"},"vehicle_type_id":"4","last_reported":1735319230,"current_range_meters":31200,"station_id":"ce4bhap2rcd13ifvqek0","pricing_plan_id":"cebpf4jnsgd1na2vs0mg"},{"bike_id":"a4116148-5949-4a4e-a470-3f07e82f513c","system_id":"levelo_inurba_marseille","lat":43.29618,"lon":5.377,"is_reserved":false,"is_disabled":false,"rental_uris":{"android":"levelo://app?vid=a4116148-5949-4a4e-a470-3f07e82f513c","ios":"levelo://app?vid=a4116148-5949-4a4e-a470-3f07e82f513c"},"vehicle_type_id":"4","last_reported":1735319230,"current_range_meters":30400,"station_id":"ce4bgi92rcd13ifvqb90","pricing_plan_id":"cebpf4jnsgd1na2vs0mg"},{"bike_id":"05b253d1-e13a-4205-9339-dc52c4e75f0a","system_id":"levelo_inurba_marseille","lat":43.25077,"lon":5.39508,"is_reserved":false,"is_disabled":false,"rental_uris":{"android":"levelo://app?vid=05b253d1-e13a-4205-9339-dc52c4e75f0a","ios":"levelo://app?vid=05b253d1-e13a-4205-9339-dc52c4e75f0a"},"vehicle_type_id":"4","last_reported":1735319230,"current_range_meters":39200,"station_id":"ce4bhm12rcd13ifvqgkg","pricing_plan_id":"cebpf4jnsgd1na2vs0mg"},{"bike_id":"2ef3cadb-4938-410b-af4c-81b56131356d","system_id":"levelo_inurba_marseille","lat":43.24808,"lon":5.37463,"is_reserved":false,"is_disabled":false,"rental_uris":{"android":"levelo://app?vid=2ef3cadb-4938-410b-af4c-81b56131356d","ios":"levelo://app?vid=2ef3cadb-4938-410b-af4c-81b56131356d"},"vehicle_type_id":"4","last_reported":1735319230,"current_range_meters":20400,"station_id":"ce4bhgh2rcd13ifvqfb0","pricing_plan_id":"cebpf4jnsgd1na2vs0mg"},{"bike_id":"f3d181d2-be7a-432e-b602-2eac2c046295","system_id":"levelo_inurba_marseille","lat":43.28277,"lon":5.35075,"is_reserved":false,"is_disabled":true,"rental_uris":{"android":"levelo://app?vid=f3d181d2-be7a-432e-b602-2eac2c046295","ios":"levelo://app?vid=f3d181d2-be7a-432e-b602-2eac2c046295"},"vehicle_type_id":"4","last_reported":1735319230,"current_range_meters":33600,"station_id":"ce4bhbp2rcd13ifvqerg","pricing_plan_id":"cebpf4jnsgd1na2vs0mg"},{"bike_id":"7bd44d09-e872-4291-b548-1cbe40f16cac","system_id":"levelo_inurba_marseille","lat":43.28155,"lon":5.42639,"is_reserved":false,"is_disabled":false,"rental_uris":{"android":"levelo://app?vid=7bd44d09-e872-4291-b548-1cbe40f16cac","ios":"levelo://app?vid=7bd44d09-e872-4291-b548-1cbe40f16cac"},"vehicle_type_id":"4","last_reported":1735319230,"current_range_meters":33600,"station_id":"ce4bhnh2rcd13ifvqgug","pricing_plan_id":"cebpf4jnsgd1na2vs0mg"},{"bike_id":"060398a9-6334-44ac-a6c5-5c43fde1b04d","system_id":"levelo_inurba_marseille","lat":43.27382,"lon":5.36253,"is_reserved":false,"is_disabled":true,"rental_uris":{"android":"levelo://app?vid=060398a9-6334-44ac-a6c5-5c43fde1b04d","ios":"levelo://app?vid=060398a9-6334-44ac-a6c5-5c43fde1b04d"},"vehicle_type_id":"4","last_reported":1735319230,"current_range_meters":0,"station_id":"ce4bhbh2rcd13ifvqeo0","pricing_plan_id":"cebpf4jnsgd1na2vs0mg"},{"bike_id":"3d792549-4957-417c-af96-fd60ad161e9d","system_id":"levelo_inurba_marseille","lat":43.30536,"lon":5.36523,"is_reserved":false,"is_disabled":false,"rental_uris":{"android":"levelo://app?vid=3d792549-4957-417c-af96-fd60ad161e9d","ios":"levelo://app?vid=3d792549-4957-417c-af96-fd60ad161e9d"},"vehicle_type_id":"4","last_reported":1735319230,"current_range_meters":36400,"station_id":"ce4bgs12rcd13ifvqcag","pricing_plan_id":"cebpf4jnsgd1na2vs0mg"},{"bike_id":"d20eece3-81ae-4d16-b4a5-1de97278bc94","system_id":"levelo_inurba_marseille","lat":43.29248,"lon":5.3843,"is_reserved":false,"is_disabled":false,"rental_uris":{"android":"levelo://app?vid=d20eece3-81ae-4d16-b4a5-1de97278bc94","ios":"levelo://app?vid=d20eece3-81ae-4d16-b4a5-1de97278bc94"},"vehicle_type_id":"4","last_reported":1735319230,"current_range_meters":38800,"station_id":"ce4bh692rcd13ifvqea0","pricing_plan_id":"cebpf4jnsgd1na2vs0mg"},{"bike_id":"048f6d5f-28d1-4838-a319-20e23af36c3c","system_id":"levelo_inurba_marseille","lat":43.30415,"lon":5.41287,"is_reserved":false,"is_disabled":true,"rental_uris":{"android":"levelo://app?vid=048f6d5f-28d1-4838-a319-20e23af36c3c","ios":"levelo://app?vid=048f6d5f-28d1-4838-a319-20e23af36c3c"},"vehicle_type_id":"4","last_reported":1735319230,"current_range_meters":36000,"station_id":"ce4bhop2rcd13ifvqh8g","pricing_plan_id":"cebpf4jnsgd1na2vs0mg"},{"bike_id":"1f03e07b-50b0-4a9e-bd03-dc766534a5b3","system_id":"levelo_inurba_marseille","lat":43.255796,"lon":5.382435,"is_reserved":false,"is_disabled":false,"rental_uris":{"android":"levelo://app?vid=1f03e07b-50b0-4a9e-bd03-dc766534a5b3","ios":"levelo://app?vid=1f03e07b-50b0-4a9e-bd03-dc766534a5b3"},"vehicle_type_id":"4","last_reported":1735319230,"current_range_meters":38800,"station_id":"ce4bhih2rcd13ifvqfs0","pricing_plan_id":"cebpf4jnsgd1na2vs0mg"},{"bike_id":"aaf1aa19-ffff-4e74-a4a3-b75b3a29f183","system_id":"levelo_inurba_marseille","lat":43.27842,"lon":5.39216,"is_reserved":false,"is_disabled":false,"rental_uris":{"android":"levelo://app?vid=aaf1aa19-ffff-4e74-a4a3-b75b3a29f183","ios":"levelo://app?vid=aaf1aa19-ffff-4e74-a4a3-b75b3a29f183"},"vehicle_type_id":"4","last_reported":1735319230,"current_range_meters":38400,"station_id":"ce4bhjp2rcd13ifvqga0","pricing_plan_id":"cebpf4jnsgd1na2vs0mg"},{"bike_id":"c6834b76-82f1-466a-8b2d-118839d142cc","system_id":"levelo_inurba_marseille","lat":43.29889,"lon":5.43666,"is_reserved":false,"is_disabled":false,"rental_uris":{"android":"levelo://app?vid=c6834b76-82f1-466a-8b2d-118839d142cc","ios":"levelo://app?vid=c6834b76-82f1-466a-8b2d-118839d142cc"},"vehicle_type_id":"4","last_reported":1735319230,"current_range_meters":37600,"station_id":"ce4bhpp2rcd13ifvqhfg","pricing_plan_id":"cebpf4jnsgd1na2vs0mg"},{"bike_id":"359ddae0-5d3f-4b29-8d32-daa2bb9138da","system_id":"levelo_inurba_marseille","lat":43.29724,"lon":5.37679,"is_reserved":false,"is_disabled":false,"rental_uris":{"android":"levelo://app?vid=359ddae0-5d3f-4b29-8d32-daa2bb9138da","ios":"levelo://app?vid=359ddae0-5d3f-4b29-8d32-daa2bb9138da"},"vehicle_type_id":"4","last_reported":1735319230,"current_range_meters":37600,"station_id":"ce4bgkh2rcd13ifvqbl0","pricing_plan_id":"cebpf4jnsgd1na2vs0mg"},{"bike_id":"1107b56a-98a5-4a01-8449-9eba086fee5a","system_id":"levelo_inurba_marseille","lat":43.29073,"lon":5.39883,"is_reserved":false,"is_disabled":false,"rental_uris":{"android":"levelo://app?vid=1107b56a-98a5-4a01-8449-9eba086fee5a","ios":"levelo://app?vid=1107b56a-98a5-4a01-8449-9eba086fee5a"},"vehicle_type_id":"4","last_reported":1735319230,"current_range_meters":22800,"station_id":"","pricing_plan_id":"cebpf4jnsgd1na2vs0mg"},{"bike_id":"11a0ffca-220f-4915-8ee5-56db1deea1c4","system_id":"levelo_inurba_marseille","lat":43.295684,"lon":5.375176,"is_reserved":false,"is_disabled":false,"rental_uris":{"android":"levelo://app?vid=11a0ffca-220f-4915-8ee5-56db1deea1c4","ios":"levelo://app?vid=11a0ffca-220f-4915-8ee5-56db1deea1c4"},"vehicle_type_id":"4","last_reported":1735319230,"current_range_meters":33600,"station_id":"ce4bgh92rcd13ifvqb50","pricing_plan_id":"cebpf4jnsgd1na2vs0mg"},{"bike_id":"dc4f15fa-6d05-4205-b4be-fba68cc03616","system_id":"levelo_inurba_marseille","lat":43.29592,"lon":5.381,"is_reserved":false,"is_disabled":false,"rental_uris":{"android":"levelo://app?vid=dc4f15fa-6d05-4205-b4be-fba68cc03616","ios":"levelo://app?vid=dc4f15fa-6d05-4205-b4be-fba68cc03616"},"vehicle_type_id":"4","last_reported":1735319230,"current_range_meters":38800,"station_id":"ce4bgl12rcd13ifvqbo0","pricing_plan_id":"cebpf4jnsgd1na2vs0mg"},{"bike_id":"011402b4-5a26-4984-8433-55d86d515fdd","system_id":"levelo_inurba_marseille","lat":43.27814,"lon":5.40714,"is_reserved":false,"is_disabled":false,"rental_uris":{"android":"levelo://app?vid=011402b4-5a26-4984-8433-55d86d515fdd","ios":"levelo://app?vid=011402b4-5a26-4984-8433-55d86d515fdd"},"vehicle_type_id":"4","last_reported":1735319230,"current_range_meters":32000,"station_id":"ce4bhnh2rcd13ifvqgtg","pricing_plan_id":"cebpf4jnsgd1na2vs0mg"},{"bike_id":"4485f98a-c081-40ff-aeab-5967b9ceab6a","system_id":"levelo_inurba_marseille","lat":43.30686,"lon":5.38187,"is_reserved":false,"is_disabled":false,"rental_uris":{"android":"levelo://app?vid=4485f98a-c081-40ff-aeab-5967b9ceab6a","ios":"levelo://app?vid=4485f98a-c081-40ff-aeab-5967b9ceab6a"},"vehicle_type_id":"4","last_reported":1735319230,"current_range_meters":28400,"station_id":"","pricing_plan_id":"cebpf4jnsgd1na2vs0mg"},{"bike_id":"5608df94-b66e-460e-9f45-682a8f36b500","system_id":"levelo_inurba_marseille","lat":43.26944,"lon":5.38913,"is_reserved":false,"is_disabled":false,"rental_uris":{"android":"levelo://app?vid=5608df94-b66e-460e-9f45-682a8f36b500","ios":"levelo://app?vid=5608df94-b66e-460e-9f45-682a8f36b500"},"vehicle_type_id":"4","last_reported":1735319230,"current_range_meters":37600,"station_id":"ce4bhhh2rcd13ifvqfl0","pricing_plan_id":"cebpf4jnsgd1na2vs0mg"},{"bike_id":"3fbbac4e-077e-476b-9b1a-9cc6e989ecb0","system_id":"levelo_inurba_marseille","lat":43.25005,"lon":5.3892,"is_reserved":false,"is_disabled":false,"rental_uris":{"android":"levelo://app?vid=3fbbac4e-077e-476b-9b1a-9cc6e989ecb0","ios":"levelo://app?vid=3fbbac4e-077e-476b-9b1a-9cc6e989ecb0"},"vehicle_type_id":"4","last_reported":1735319230,"current_range_meters":38000,"station_id":"ce4bhgp2rcd13ifvqfd0","pricing_plan_id":"cebpf4jnsgd1na2vs0mg"},{"bike_id":"43e9c8e5-d9c1-4a37-9bc0-1d2d3194ee53","system_id":"levelo_inurba_marseille","lat":43.27621,"lon":5.36113,"is_reserved":false,"is_disabled":false,"rental_uris":{"android":"levelo://app?vid=43e9c8e5-d9c1-4a37-9bc0-1d2d3194ee53","ios":"levelo://app?vid=43e9c8e5-d9c1-4a37-9bc0-1d2d3194ee53"},"vehicle_type_id":"4","last_reported":1735319230,"current_range_meters":14000,"station_id":"ce4bgj92rcd13ifvqbe0","pricing_plan_id":"cebpf4jnsgd1na2vs0mg"},{"bike_id":"c5b8925e-86b7-43a6-abd5-843b764256c0","system_id":"levelo_inurba_marseille","lat":43.27944,"lon":5.41059,"is_reserved":false,"is_disabled":false,"rental_uris":{"android":"levelo://app?vid=c5b8925e-86b7-43a6-abd5-843b764256c0","ios":"levelo://app?vid=c5b8925e-86b7-43a6-abd5-843b764256c0"},"vehicle_type_id":"4","last_reported":1735319230,"current_range_meters":33200,"station_id":"ce4bhnp2rcd13ifvqh0g","pricing_plan_id":"cebpf4jnsgd1na2vs0mg"},{"bike_id":"d0ac690d-0efe-47fa-9059-f0f7881223f1","system_id":"levelo_inurba_marseille","lat":43.29691,"lon":5.37686,"is_reserved":false,"is_disabled":false,"rental_uris":{"android":"levelo://app?vid=d0ac690d-0efe-47fa-9059-f0f7881223f1","ios":"levelo://app?vid=d0ac690d-0efe-47fa-9059-f0f7881223f1"},"vehicle_type_id":"4","last_reported":1735319230,"current_range_meters":35600,"station_id":"ce4bgkh2rcd13ifvqbl0","pricing_plan_id":"cebpf4jnsgd1na2vs0mg"},{"bike_id":"e203eede-93d4-4367-be9a-c6d93cdc799f","system_id":"levelo_inurba_marseille","lat":43.299324,"lon":5.365423,"is_reserved":false,"is_disabled":false,"rental_uris":{"android":"levelo://app?vid=e203eede-93d4-4367-be9a-c6d93cdc799f","ios":"levelo://app?vid=e203eede-93d4-4367-be9a-c6d93cdc799f"},"vehicle_type_id":"4","last_reported":1735319230,"current_range_meters":20000,"station_id":"ce4bgm92rcd13ifvqbr0","pricing_plan_id":"cebpf4jnsgd1na2vs0mg"},{"bike_id":"7bf52d63-2aa8-479d-a80d-358abe7b935a","system_id":"levelo_inurba_marseille","lat":43.29266,"lon":5.38436,"is_reserved":false,"is_disabled":false,"rental_uris":{"android":"levelo://app?vid=7bf52d63-2aa8-479d-a80d-358abe7b935a","ios":"levelo://app?vid=7bf52d63-2aa8-479d-a80d-358abe7b935a"},"vehicle_type_id":"4","last_reported":1735319230,"current_range_meters":38000,"station_id":"ce4bh692rcd13ifvqea0","pricing_plan_id":"cebpf4jnsgd1na2vs0mg"},{"bike_id":"ca61230a-fcf3-4e69-aec9-098bfbc065a8","system_id":"levelo_inurba_marseille","lat":43.29721,"lon":5.37677,"is_reserved":false,"is_disabled":false,"rental_uris":{"android":"levelo://app?vid=ca61230a-fcf3-4e69-aec9-098bfbc065a8","ios":"levelo://app?vid=ca61230a-fcf3-4e69-aec9-098bfbc065a8"},"vehicle_type_id":"4","last_reported":1735319230,"current_range_meters":25200,"station_id":"ce4bgkh2rcd13ifvqbl0","pricing_plan_id":"cebpf4jnsgd1na2vs0mg"},{"bike_id":"41e441a8-4ad2-4bf0-81ba-96c35feaf6d8","system_id":"levelo_inurba_marseille","lat":43.28154,"lon":5.42649,"is_reserved":false,"is_disabled":false,"rental_uris":{"android":"levelo://app?vid=41e441a8-4ad2-4bf0-81ba-96c35feaf6d8","ios":"levelo://app?vid=41e441a8-4ad2-4bf0-81ba-96c35feaf6d8"},"vehicle_type_id":"4","last_reported":1735319230,"current_range_meters":37600,"station_id":"ce4bhnh2rcd13ifvqgug","pricing_plan_id":"cebpf4jnsgd1na2vs0mg"},{"bike_id":"a25819d3-be17-4947-b999-ef13378a38e4","system_id":"levelo_inurba_marseille","lat":43.2993,"lon":5.37472,"is_reserved":false,"is_disabled":false,"rental_uris":{"android":"levelo://app?vid=a25819d3-be17-4947-b999-ef13378a38e4","ios":"levelo://app?vid=a25819d3-be17-4947-b999-ef13378a38e4"},"vehicle_type_id":"4","last_reported":1735319230,"current_range_meters":29600,"station_id":"ce4bgjh2rcd13ifvqbg0","pricing_plan_id":"cebpf4jnsgd1na2vs0mg"},{"bike_id":"7a2623d1-6035-4860-82fb-88bc9431903f","system_id":"levelo_inurba_marseille","lat":43.27372,"lon":5.36263,"is_reserved":false,"is_disabled":false,"rental_uris":{"android":"levelo://app?vid=7a2623d1-6035-4860-82fb-88bc9431903f","ios":"levelo://app?vid=7a2623d1-6035-4860-82fb-88bc9431903f"},"vehicle_type_id":"4","last_reported":1735319230,"current_range_meters":35200,"station_id":"ce4bhbh2rcd13ifvqeo0","pricing_plan_id":"cebpf4jnsgd1na2vs0mg"},{"bike_id":"9a85822f-b312-48ed-b90c-104a305b83d8","system_id":"levelo_inurba_marseille","lat":43.25824,"lon":5.39436,"is_reserved":false,"is_disabled":false,"rental_uris":{"android":"levelo://app?vid=9a85822f-b312-48ed-b90c-104a305b83d8","ios":"levelo://app?vid=9a85822f-b312-48ed-b90c-104a305b83d8"},"vehicle_type_id":"4","last_reported":1735319230,"current_range_meters":27600,"station_id":"ce4bhip2rcd13ifvqft0","pricing_plan_id":"cebpf4jnsgd1na2vs0mg"},{"bike_id":"4e04e3c8-bad8-47c2-a784-0c5eba8b5d4f","system_id":"levelo_inurba_marseille","lat":43.27059,"lon":5.42271,"is_reserved":false,"is_disabled":false,"rental_uris":{"android":"levelo://app?vid=4e04e3c8-bad8-47c2-a784-0c5eba8b5d4f","ios":"levelo://app?vid=4e04e3c8-bad8-47c2-a784-0c5eba8b5d4f"},"vehicle_type_id":"4","last_reported":1735319230,"current_range_meters":29600,"station_id":"ce4bhk92rcd13ifvqgb0","pricing_plan_id":"cebpf4jnsgd1na2vs0mg"},{"bike_id":"285eb69f-d14d-4146-8ac0-92e02abbba65","system_id":"levelo_inurba_marseille","lat":43.28107,"lon":5.37841,"is_reserved":false,"is_disabled":false,"rental_uris":{"android":"levelo://app?vid=285eb69f-d14d-4146-8ac0-92e02abbba65","ios":"levelo://app?vid=285eb69f-d14d-4146-8ac0-92e02abbba65"},"vehicle_type_id":"4","last_reported":1735319230,"current_range_meters":10800,"station_id":"ce4bha12rcd13ifvqee0","pricing_plan_id":"cebpf4jnsgd1na2vs0mg"},{"bike_id":"22ff3201-b7a3-4c5e-970c-2a89343fabf7","system_id":"levelo_inurba_marseille","lat":43.30556,"lon":5.36538,"is_reserved":false,"is_disabled":false,"rental_uris":{"android":"levelo://app?vid=22ff3201-b7a3-4c5e-970c-2a89343fabf7","ios":"levelo://app?vid=22ff3201-b7a3-4c5e-970c-2a89343fabf7"},"vehicle_type_id":"4","last_reported":1735319230,"current_range_meters":38800,"station_id":"ce4bgs12rcd13ifvqcag","pricing_plan_id":"cebpf4jnsgd1na2vs0mg"},{"bike_id":"416ab53b-279a-422e-99c8-cc6e97f84422","system_id":"levelo_inurba_marseille","lat":43.29572,"lon":5.3751,"is_reserved":false,"is_disabled":false,"rental_uris":{"android":"levelo://app?vid=416ab53b-279a-422e-99c8-cc6e97f84422","ios":"levelo://app?vid=416ab53b-279a-422e-99c8-cc6e97f84422"},"vehicle_type_id":"4","last_reported":1735319230,"current_range_meters":38800,"station_id":"ce4bgh92rcd13ifvqb50","pricing_plan_id":"cebpf4jnsgd1na2vs0mg"},{"bike_id":"1408272d-67f7-459e-a46d-fa750336aad5","system_id":"levelo_inurba_marseille","lat":43.2956,"lon":5.37515,"is_reserved":false,"is_disabled":false,"rental_uris":{"android":"levelo://app?vid=1408272d-67f7-459e-a46d-fa750336aad5","ios":"levelo://app?vid=1408272d-67f7-459e-a46d-fa750336aad5"},"vehicle_type_id":"4","last_reported":1735319230,"current_range_meters":38400,"station_id":"ce4bgh92rcd13ifvqb50","pricing_plan_id":"cebpf4jnsgd1na2vs0mg"},{"bike_id":"9729fc41-f9c3-49f6-b29a-3e005f0daeb5","system_id":"levelo_inurba_marseille","lat":43.23061,"lon":5.35492,"is_reserved":false,"is_disabled":false,"rental_uris":{"android":"levelo://app?vid=9729fc41-f9c3-49f6-b29a-3e005f0daeb5","ios":"levelo://app?vid=9729fc41-f9c3-49f6-b29a-3e005f0daeb5"},"vehicle_type_id":"4","last_reported":1735319230,"current_range_meters":22800,"station_id":"cpo3342slgdg3j2ifvpg","pricing_plan_id":"cebpf4jnsgd1na2vs0mg"},{"bike_id":"356fd92d-e963-40e6-b40e-58fc72ac9553","system_id":"levelo_inurba_marseille","lat":43.32106,"lon":5.36769,"is_reserved":false,"is_disabled":false,"rental_uris":{"android":"levelo://app?vid=356fd92d-e963-40e6-b40e-58fc72ac9553","ios":"levelo://app?vid=356fd92d-e963-40e6-b40e-58fc72ac9553"},"vehicle_type_id":"4","last_reported":1735319230,"current_range_meters":19200,"station_id":"ce4bhrh2rcd13ifvqhug","pricing_plan_id":"cebpf4jnsgd1na2vs0mg"},{"bike_id":"e197dd2f-0b44-4872-8696-165c2d1e15e6","system_id":"levelo_inurba_marseille","lat":43.30891,"lon":5.39663,"is_reserved":false,"is_disabled":false,"rental_uris":{"android":"levelo://app?vid=e197dd2f-0b44-4872-8696-165c2d1e15e6","ios":"levelo://app?vid=e197dd2f-0b44-4872-8696-165c2d1e15e6"},"vehicle_type_id":"4","last_reported":1735319230,"current_range_meters":21600,"station_id":"ce4bh012rcd13ifvqcv0","pricing_plan_id":"cebpf4jnsgd1na2vs0mg"},{"bike_id":"90c942c7-cc9f-4ca0-a4bf-cccb4ac71e6f","system_id":"levelo_inurba_marseille","lat":43.25723,"lon":5.41119,"is_reserved":false,"is_disabled":false,"rental_uris":{"android":"levelo://app?vid=90c942c7-cc9f-4ca0-a4bf-cccb4ac71e6f","ios":"levelo://app?vid=90c942c7-cc9f-4ca0-a4bf-cccb4ac71e6f"},"vehicle_type_id":"4","last_reported":1735319230,"current_range_meters":36800,"station_id":"ce4bhkp2rcd13ifvqgd0","pricing_plan_id":"cebpf4jnsgd1na2vs0mg"},{"bike_id":"0ab81e67-7e28-4b38-8b6e-0f680e45cc36","system_id":"levelo_inurba_marseille","lat":43.26213,"lon":5.37441,"is_reserved":false,"is_disabled":false,"rental_uris":{"android":"levelo://app?vid=0ab81e67-7e28-4b38-8b6e-0f680e45cc36","ios":"levelo://app?vid=0ab81e67-7e28-4b38-8b6e-0f680e45cc36"},"vehicle_type_id":"4","last_reported":1735319230,"current_range_meters":26000,"station_id":"ce4bhgp2rcd13ifvqfc0","pricing_plan_id":"cebpf4jnsgd1na2vs0mg"},{"bike_id":"202d783a-5722-4a19-a03b-99e121fc0f04","system_id":"levelo_inurba_marseille","lat":43.30875,"lon":5.37113,"is_reserved":false,"is_disabled":false,"rental_uris":{"android":"levelo://app?vid=202d783a-5722-4a19-a03b-99e121fc0f04","ios":"levelo://app?vid=202d783a-5722-4a19-a03b-99e121fc0f04"},"vehicle_type_id":"4","last_reported":1735319230,"current_range_meters":32400,"station_id":"","pricing_plan_id":"cebpf4jnsgd1na2vs0mg"},{"bike_id":"2123428a-af99-4426-928c-df18994f7214","system_id":"levelo_inurba_marseille","lat":43.30159,"lon":5.38786,"is_reserved":false,"is_disabled":false,"rental_uris":{"android":"levelo://app?vid=2123428a-af99-4426-928c-df18994f7214","ios":"levelo://app?vid=2123428a-af99-4426-928c-df18994f7214"},"vehicle_type_id":"4","last_reported":1735319230,"current_range_meters":38800,"station_id":"ce4bghh2rcd13ifvqb60","pricing_plan_id":"cebpf4jnsgd1na2vs0mg"},{"bike_id":"6f85edb9-f3a8-459e-940a-43bd7fb0b2dd","system_id":"levelo_inurba_marseille","lat":43.29567,"lon":5.375,"is_reserved":false,"is_disabled":false,"rental_uris":{"android":"levelo://app?vid=6f85edb9-f3a8-459e-940a-43bd7fb0b2dd","ios":"levelo://app?vid=6f85edb9-f3a8-459e-940a-43bd7fb0b2dd"},"vehicle_type_id":"4","last_reported":1735319230,"current_range_meters":16400,"station_id":"ce4bgh92rcd13ifvqb50","pricing_plan_id":"cebpf4jnsgd1na2vs0mg"},{"bike_id":"b79dcc11-431a-409f-ae93-0024bb291ecf","system_id":"levelo_inurba_marseille","lat":43.30554,"lon":5.36531,"is_reserved":false,"is_disabled":false,"rental_uris":{"android":"levelo://app?vid=b79dcc11-431a-409f-ae93-0024bb291ecf","ios":"levelo://app?vid=b79dcc11-431a-409f-ae93-0024bb291ecf"},"vehicle_type_id":"4","last_reported":1735319230,"current_range_meters":31200,"station_id":"ce4bgs12rcd13ifvqcag","pricing_plan_id":"cebpf4jnsgd1na2vs0mg"},{"bike_id":"25340b52-a730-4aad-a784-ac3c63f004f5","system_id":"levelo_inurba_marseille","lat":43.28685,"lon":5.38683,"is_reserved":false,"is_disabled":false,"rental_uris":{"android":"levelo://app?vid=25340b52-a730-4aad-a784-ac3c63f004f5","ios":"levelo://app?vid=25340b52-a730-4aad-a784-ac3c63f004f5"},"vehicle_type_id":"4","last_reported":1735319230,"current_range_meters":28000,"station_id":"ce4bh492rcd13ifvqdug","pricing_plan_id":"cebpf4jnsgd1na2vs0mg"},{"bike_id":"01fed048-1469-43f6-badd-acb5b8823391","system_id":"levelo_inurba_marseille","lat":43.309279,"lon":5.401458,"is_reserved":false,"is_disabled":false,"rental_uris":{"android":"levelo://app?vid=01fed048-1469-43f6-badd-acb5b8823391","ios":"levelo://app?vid=01fed048-1469-43f6-badd-acb5b8823391"},"vehicle_type_id":"4","last_reported":1735319230,"current_range_meters":26000,"station_id":"ce4bgvp2rcd13ifvqct0","pricing_plan_id":"cebpf4jnsgd1na2vs0mg"},{"bike_id":"673ed0fe-3027-4e1f-9efc-2804b0e32190","system_id":"levelo_inurba_marseille","lat":43.2668,"lon":5.38272,"is_reserved":false,"is_disabled":false,"rental_uris":{"android":"levelo://app?vid=673ed0fe-3027-4e1f-9efc-2804b0e32190","ios":"levelo://app?vid=673ed0fe-3027-4e1f-9efc-2804b0e32190"},"vehicle_type_id":"4","last_reported":1735319230,"current_range_meters":17600,"station_id":"ce4bhg92rcd13ifvqf90","pricing_plan_id":"cebpf4jnsgd1na2vs0mg"},{"bike_id":"f6d9b451-94f6-4384-9bb5-1fd6866e2c96","system_id":"levelo_inurba_marseille","lat":43.32091,"lon":5.36763,"is_reserved":false,"is_disabled":false,"rental_uris":{"android":"levelo://app?vid=f6d9b451-94f6-4384-9bb5-1fd6866e2c96","ios":"levelo://app?vid=f6d9b451-94f6-4384-9bb5-1fd6866e2c96"},"vehicle_type_id":"4","last_reported":1735319230,"current_range_meters":38400,"station_id":"ce4bhrh2rcd13ifvqhug","pricing_plan_id":"cebpf4jnsgd1na2vs0mg"},{"bike_id":"e5da7a22-3d35-4225-a91e-7c6df686c633","system_id":"levelo_inurba_marseille","lat":43.28478,"lon":5.38552,"is_reserved":false,"is_disabled":false,"rental_uris":{"android":"levelo://app?vid=e5da7a22-3d35-4225-a91e-7c6df686c633","ios":"levelo://app?vid=e5da7a22-3d35-4225-a91e-7c6df686c633"},"vehicle_type_id":"4","last_reported":1735319230,"current_range_meters":38800,"station_id":"ce4bh8p2rcd13ifvqeb0","pricing_plan_id":"cebpf4jnsgd1na2vs0mg"},{"bike_id":"6e8e104a-947b-4478-a96c-5bd6da5de79e","system_id":"levelo_inurba_marseille","lat":43.30538,"lon":5.36535,"is_reserved":false,"is_disabled":false,"rental_uris":{"android":"levelo://app?vid=6e8e104a-947b-4478-a96c-5bd6da5de79e","ios":"levelo://app?vid=6e8e104a-947b-4478-a96c-5bd6da5de79e"},"vehicle_type_id":"4","last_reported":1735319230,"current_range_meters":30400,"station_id":"ce4bgs12rcd13ifvqcag","pricing_plan_id":"cebpf4jnsgd1na2vs0mg"},{"bike_id":"cadf8335-6df2-49c1-9678-5228c753266c","system_id":"levelo_inurba_marseille","lat":43.28077,"lon":5.39654,"is_reserved":false,"is_disabled":true,"rental_uris":{"android":"levelo://app?vid=cadf8335-6df2-49c1-9678-5228c753266c","ios":"levelo://app?vid=cadf8335-6df2-49c1-9678-5228c753266c"},"vehicle_type_id":"4","last_reported":1735319230,"current_range_meters":400,"station_id":"ce4bho12rcd13ifvqh2g","pricing_plan_id":"cebpf4jnsgd1na2vs0mg"},{"bike_id":"3e9a4604-a483-455a-a955-3cfb963e2a0b","system_id":"levelo_inurba_marseille","lat":43.31492,"lon":5.37298,"is_reserved":false,"is_disabled":false,"rental_uris":{"android":"levelo://app?vid=3e9a4604-a483-455a-a955-3cfb963e2a0b","ios":"levelo://app?vid=3e9a4604-a483-455a-a955-3cfb963e2a0b"},"vehicle_type_id":"4","last_reported":1735319230,"current_range_meters":38800,"station_id":"ce4bgt12rcd13ifvqcd0","pricing_plan_id":"cebpf4jnsgd1na2vs0mg"},{"bike_id":"01013d79-0b68-4ff4-b915-6d2dc3b51d67","system_id":"levelo_inurba_marseille","lat":43.23151,"lon":5.43702,"is_reserved":false,"is_disabled":false,"rental_uris":{"android":"levelo://app?vid=01013d79-0b68-4ff4-b915-6d2dc3b51d67","ios":"levelo://app?vid=01013d79-0b68-4ff4-b915-6d2dc3b51d67"},"vehicle_type_id":"4","last_reported":1735319230,"current_range_meters":30800,"station_id":"ce4bhmp2rcd13ifvqgog","pricing_plan_id":"cebpf4jnsgd1na2vs0mg"},{"bike_id":"0d356a97-93db-4905-a410-a6d23d3b385c","system_id":"levelo_inurba_marseille","lat":43.28836,"lon":5.35844,"is_reserved":false,"is_disabled":false,"rental_uris":{"android":"levelo://app?vid=0d356a97-93db-4905-a410-a6d23d3b385c","ios":"levelo://app?vid=0d356a97-93db-4905-a410-a6d23d3b385c"},"vehicle_type_id":"4","last_reported":1735319230,"current_range_meters":12800,"station_id":"ce4bhb12rcd13ifvqem0","pricing_plan_id":"cebpf4jnsgd1na2vs0mg"},{"bike_id":"ef1512f2-ecec-4ca5-ae3a-ede1758528e4","system_id":"levelo_inurba_marseille","lat":43.30543,"lon":5.36696,"is_reserved":false,"is_disabled":false,"rental_uris":{"android":"levelo://app?vid=ef1512f2-ecec-4ca5-ae3a-ede1758528e4","ios":"levelo://app?vid=ef1512f2-ecec-4ca5-ae3a-ede1758528e4"},"vehicle_type_id":"4","last_reported":1735319230,"current_range_meters":36400,"station_id":"ce4bgrp2rcd13ifvqc9g","pricing_plan_id":"cebpf4jnsgd1na2vs0mg"},{"bike_id":"4142761d-2812-41dc-8f23-3a923462f285","system_id":"levelo_inurba_marseille","lat":43.25583,"lon":5.38219,"is_reserved":false,"is_disabled":false,"rental_uris":{"android":"levelo://app?vid=4142761d-2812-41dc-8f23-3a923462f285","ios":"levelo://app?vid=4142761d-2812-41dc-8f23-3a923462f285"},"vehicle_type_id":"4","last_reported":1735319230,"current_range_meters":18000,"station_id":"ce4bhih2rcd13ifvqfs0","pricing_plan_id":"cebpf4jnsgd1na2vs0mg"},{"bike_id":"f32d7991-830c-4d27-bfe2-ab40279fd6de","system_id":"levelo_inurba_marseille","lat":43.28351,"lon":5.38113,"is_reserved":false,"is_disabled":false,"rental_uris":{"android":"levelo://app?vid=f32d7991-830c-4d27-bfe2-ab40279fd6de","ios":"levelo://app?vid=f32d7991-830c-4d27-bfe2-ab40279fd6de"},"vehicle_type_id":"4","last_reported":1735319230,"current_range_meters":20400,"station_id":"ce4bh412rcd13ifvqdr0","pricing_plan_id":"cebpf4jnsgd1na2vs0mg"},{"bike_id":"c42acb63-1478-45ee-824d-421c392811ab","system_id":"levelo_inurba_marseille","lat":43.27495,"lon":5.42454,"is_reserved":false,"is_disabled":false,"rental_uris":{"android":"levelo://app?vid=c42acb63-1478-45ee-824d-421c392811ab","ios":"levelo://app?vid=c42acb63-1478-45ee-824d-421c392811ab"},"vehicle_type_id":"4","last_reported":1735319230,"current_range_meters":4800,"station_id":"ce4bhn92rcd13ifvqgrg","pricing_plan_id":"cebpf4jnsgd1na2vs0mg"},{"bike_id":"7890a301-a88f-4909-b599-1892e02f226c","system_id":"levelo_inurba_marseille","lat":43.295336,"lon":5.374961,"is_reserved":false,"is_disabled":false,"rental_uris":{"android":"levelo://app?vid=7890a301-a88f-4909-b599-1892e02f226c","ios":"levelo://app?vid=7890a301-a88f-4909-b599-1892e02f226c"},"vehicle_type_id":"4","last_reported":1735319230,"current_range_meters":30000,"station_id":"ce4bgkp2rcd13ifvqbmg","pricing_plan_id":"cebpf4jnsgd1na2vs0mg"},{"bike_id":"f9bf07a3-d52a-4e29-a667-bb52a902ba73","system_id":"levelo_inurba_marseille","lat":43.337444,"lon":5.374475,"is_reserved":false,"is_disabled":true,"rental_uris":{"android":"levelo://app?vid=f9bf07a3-d52a-4e29-a667-bb52a902ba73","ios":"levelo://app?vid=f9bf07a3-d52a-4e29-a667-bb52a902ba73"},"vehicle_type_id":"4","last_reported":1735319230,"current_range_meters":4800,"station_id":"","pricing_plan_id":"cebpf4jnsgd1na2vs0mg"},{"bike_id":"4f5db02c-99f9-460e-a880-3ca7100df048","system_id":"levelo_inurba_marseille","lat":43.27418,"lon":5.3937,"is_reserved":false,"is_disabled":false,"rental_uris":{"android":"levelo://app?vid=4f5db02c-99f9-460e-a880-3ca7100df048","ios":"levelo://app?vid=4f5db02c-99f9-460e-a880-3ca7100df048"},"vehicle_type_id":"4","last_reported":1735319230,"current_range_meters":36400,"station_id":"ce4bhdp2rcd13ifvqf20","pricing_plan_id":"cebpf4jnsgd1na2vs0mg"},{"bike_id":"8993fc6c-6897-46ce-9a8b-ddd632e0cafc","system_id":"levelo_inurba_marseille","lat":43.32365,"lon":5.38874,"is_reserved":false,"is_disabled":false,"rental_uris":{"android":"levelo://app?vid=8993fc6c-6897-46ce-9a8b-ddd632e0cafc","ios":"levelo://app?vid=8993fc6c-6897-46ce-9a8b-ddd632e0cafc"},"vehicle_type_id":"4","last_reported":1735319230,"current_range_meters":12400,"station_id":"ce4bhqp2rcd13ifvqhog","pricing_plan_id":"cebpf4jnsgd1na2vs0mg"},{"bike_id":"d5ddbfd8-c695-45c7-8f75-3f1b7776c13d","system_id":"levelo_inurba_marseille","lat":43.22933,"lon":5.35374,"is_reserved":false,"is_disabled":false,"rental_uris":{"android":"levelo://app?vid=d5ddbfd8-c695-45c7-8f75-3f1b7776c13d","ios":"levelo://app?vid=d5ddbfd8-c695-45c7-8f75-3f1b7776c13d"},"vehicle_type_id":"4","last_reported":1735319230,"current_range_meters":28000,"station_id":"cpo3532slgdg3j2ikp40","pricing_plan_id":"cebpf4jnsgd1na2vs0mg"},{"bike_id":"748a212e-f616-4809-9ff8-ca063084cf4c","system_id":"levelo_inurba_marseille","lat":43.24813,"lon":5.37458,"is_reserved":false,"is_disabled":false,"rental_uris":{"android":"levelo://app?vid=748a212e-f616-4809-9ff8-ca063084cf4c","ios":"levelo://app?vid=748a212e-f616-4809-9ff8-ca063084cf4c"},"vehicle_type_id":"4","last_reported":1735319230,"current_range_meters":22800,"station_id":"ce4bhgh2rcd13ifvqfb0","pricing_plan_id":"cebpf4jnsgd1na2vs0mg"},{"bike_id":"40b0ed5f-2830-4bc1-b35a-60cfbfe947bf","system_id":"levelo_inurba_marseille","lat":43.29271,"lon":5.36837,"is_reserved":false,"is_disabled":false,"rental_uris":{"android":"levelo://app?vid=40b0ed5f-2830-4bc1-b35a-60cfbfe947bf","ios":"levelo://app?vid=40b0ed5f-2830-4bc1-b35a-60cfbfe947bf"},"vehicle_type_id":"4","last_reported":1735319230,"current_range_meters":19200,"station_id":"ce4bhbp2rcd13ifvqesg","pricing_plan_id":"cebpf4jnsgd1na2vs0mg"},{"bike_id":"e02da87a-3787-4845-b595-90c97adb691a","system_id":"levelo_inurba_marseille","lat":43.28411,"lon":5.37515,"is_reserved":false,"is_disabled":false,"rental_uris":{"android":"levelo://app?vid=e02da87a-3787-4845-b595-90c97adb691a","ios":"levelo://app?vid=e02da87a-3787-4845-b595-90c97adb691a"},"vehicle_type_id":"4","last_reported":1735319230,"current_range_meters":38000,"station_id":"ce4bh412rcd13ifvqds0","pricing_plan_id":"cebpf4jnsgd1na2vs0mg"},{"bike_id":"5477d212-35e2-4622-b27a-bfe5ff434d03","system_id":"levelo_inurba_marseille","lat":43.337603,"lon":5.374424,"is_reserved":false,"is_disabled":false,"rental_uris":{"android":"levelo://app?vid=5477d212-35e2-4622-b27a-bfe5ff434d03","ios":"levelo://app?vid=5477d212-35e2-4622-b27a-bfe5ff434d03"},"vehicle_type_id":"4","last_reported":1735319230,"current_range_meters":28800,"station_id":"","pricing_plan_id":"cebpf4jnsgd1na2vs0mg"},{"bike_id":"cc4e13aa-bf0c-444b-8755-1b3bba2c6559","system_id":"levelo_inurba_marseille","lat":43.29716,"lon":5.36616,"is_reserved":false,"is_disabled":false,"rental_uris":{"android":"levelo://app?vid=cc4e13aa-bf0c-444b-8755-1b3bba2c6559","ios":"levelo://app?vid=cc4e13aa-bf0c-444b-8755-1b3bba2c6559"},"vehicle_type_id":"4","last_reported":1735319230,"current_range_meters":13600,"station_id":"ce4bgn12rcd13ifvqbt0","pricing_plan_id":"cebpf4jnsgd1na2vs0mg"},{"bike_id":"30a1c0f3-8bae-4c3f-b61d-44e45a0f7329","system_id":"levelo_inurba_marseille","lat":43.28676,"lon":5.38672,"is_reserved":false,"is_disabled":false,"rental_uris":{"android":"levelo://app?vid=30a1c0f3-8bae-4c3f-b61d-44e45a0f7329","ios":"levelo://app?vid=30a1c0f3-8bae-4c3f-b61d-44e45a0f7329"},"vehicle_type_id":"4","last_reported":1735319230,"current_range_meters":22800,"station_id":"ce4bh492rcd13ifvqdug","pricing_plan_id":"cebpf4jnsgd1na2vs0mg"},{"bike_id":"b3202def-da0b-4ad3-b2d6-53e83d3a2473","system_id":"levelo_inurba_marseille","lat":43.29722,"lon":5.37703,"is_reserved":false,"is_disabled":false,"rental_uris":{"android":"levelo://app?vid=b3202def-da0b-4ad3-b2d6-53e83d3a2473","ios":"levelo://app?vid=b3202def-da0b-4ad3-b2d6-53e83d3a2473"},"vehicle_type_id":"4","last_reported":1735319230,"current_range_meters":24000,"station_id":"ce4bgkh2rcd13ifvqbl0","pricing_plan_id":"cebpf4jnsgd1na2vs0mg"},{"bike_id":"32df82ce-6219-4736-8eb8-fc8999cbfd21","system_id":"levelo_inurba_marseille","lat":43.26195,"lon":5.37926,"is_reserved":false,"is_disabled":false,"rental_uris":{"android":"levelo://app?vid=32df82ce-6219-4736-8eb8-fc8999cbfd21","ios":"levelo://app?vid=32df82ce-6219-4736-8eb8-fc8999cbfd21"},"vehicle_type_id":"4","last_reported":1735319230,"current_range_meters":26000,"station_id":"ce4bhjp2rcd13ifvqg90","pricing_plan_id":"cebpf4jnsgd1na2vs0mg"},{"bike_id":"4253078e-bd3b-4f69-abf3-e1f8be68ffec","system_id":"levelo_inurba_marseille","lat":43.29803,"lon":5.38093,"is_reserved":false,"is_disabled":false,"rental_uris":{"android":"levelo://app?vid=4253078e-bd3b-4f69-abf3-e1f8be68ffec","ios":"levelo://app?vid=4253078e-bd3b-4f69-abf3-e1f8be68ffec"},"vehicle_type_id":"4","last_reported":1735319230,"current_range_meters":38000,"station_id":"ce4bgip2rcd13ifvqbb0","pricing_plan_id":"cebpf4jnsgd1na2vs0mg"},{"bike_id":"45f431de-8af7-464b-8a00-7c89152b9e16","system_id":"levelo_inurba_marseille","lat":43.28841,"lon":5.35843,"is_reserved":false,"is_disabled":false,"rental_uris":{"android":"levelo://app?vid=45f431de-8af7-464b-8a00-7c89152b9e16","ios":"levelo://app?vid=45f431de-8af7-464b-8a00-7c89152b9e16"},"vehicle_type_id":"4","last_reported":1735319230,"current_range_meters":28800,"station_id":"ce4bhb12rcd13ifvqem0","pricing_plan_id":"cebpf4jnsgd1na2vs0mg"},{"bike_id":"feca4dc0-2617-4bdd-83d4-d69bebf190ec","system_id":"levelo_inurba_marseille","lat":43.32107,"lon":5.36763,"is_reserved":false,"is_disabled":false,"rental_uris":{"android":"levelo://app?vid=feca4dc0-2617-4bdd-83d4-d69bebf190ec","ios":"levelo://app?vid=feca4dc0-2617-4bdd-83d4-d69bebf190ec"},"vehicle_type_id":"4","last_reported":1735319230,"current_range_meters":20800,"station_id":"ce4bhrh2rcd13ifvqhug","pricing_plan_id":"cebpf4jnsgd1na2vs0mg"},{"bike_id":"8b123ca4-94f2-4c26-a9ee-ee0be646d3ad","system_id":"levelo_inurba_marseille","lat":43.31688,"lon":5.40475,"is_reserved":false,"is_disabled":false,"rental_uris":{"android":"levelo://app?vid=8b123ca4-94f2-4c26-a9ee-ee0be646d3ad","ios":"levelo://app?vid=8b123ca4-94f2-4c26-a9ee-ee0be646d3ad"},"vehicle_type_id":"4","last_reported":1735319230,"current_range_meters":32000,"station_id":"ce4bh012rcd13ifvqd00","pricing_plan_id":"cebpf4jnsgd1na2vs0mg"},{"bike_id":"ab6b1e15-cbee-4670-8411-a7a4186cb033","system_id":"levelo_inurba_marseille","lat":43.29569,"lon":5.37511,"is_reserved":false,"is_disabled":false,"rental_uris":{"android":"levelo://app?vid=ab6b1e15-cbee-4670-8411-a7a4186cb033","ios":"levelo://app?vid=ab6b1e15-cbee-4670-8411-a7a4186cb033"},"vehicle_type_id":"4","last_reported":1735319230,"current_range_meters":16800,"station_id":"ce4bgh92rcd13ifvqb50","pricing_plan_id":"cebpf4jnsgd1na2vs0mg"},{"bike_id":"83370a51-59ea-48cf-84b1-03c7b38d9745","system_id":"levelo_inurba_marseille","lat":43.30127,"lon":5.39863,"is_reserved":false,"is_disabled":false,"rental_uris":{"android":"levelo://app?vid=83370a51-59ea-48cf-84b1-03c7b38d9745","ios":"levelo://app?vid=83370a51-59ea-48cf-84b1-03c7b38d9745"},"vehicle_type_id":"4","last_reported":1735319230,"current_range_meters":19600,"station_id":"ce4bh0h2rcd13ifvqd40","pricing_plan_id":"cebpf4jnsgd1na2vs0mg"},{"bike_id":"a32cd1e7-cc87-4292-9d06-455d298daf7c","system_id":"levelo_inurba_marseille","lat":43.304209,"lon":5.39749,"is_reserved":false,"is_disabled":false,"rental_uris":{"android":"levelo://app?vid=a32cd1e7-cc87-4292-9d06-455d298daf7c","ios":"levelo://app?vid=a32cd1e7-cc87-4292-9d06-455d298daf7c"},"vehicle_type_id":"4","last_reported":1735319230,"current_range_meters":38800,"station_id":"ce4bh092rcd13ifvqd20","pricing_plan_id":"cebpf4jnsgd1na2vs0mg"},{"bike_id":"294562ad-8566-45c0-94df-3d7c657064da","system_id":"levelo_inurba_marseille","lat":43.29617,"lon":5.37728,"is_reserved":false,"is_disabled":false,"rental_uris":{"android":"levelo://app?vid=294562ad-8566-45c0-94df-3d7c657064da","ios":"levelo://app?vid=294562ad-8566-45c0-94df-3d7c657064da"},"vehicle_type_id":"4","last_reported":1735319230,"current_range_meters":36800,"station_id":"ce4bgi92rcd13ifvqb90","pricing_plan_id":"cebpf4jnsgd1na2vs0mg"},{"bike_id":"28bd3904-ffcb-4595-8c51-c947161caafc","system_id":"levelo_inurba_marseille","lat":43.29637,"lon":5.37692,"is_reserved":false,"is_disabled":false,"rental_uris":{"android":"levelo://app?vid=28bd3904-ffcb-4595-8c51-c947161caafc","ios":"levelo://app?vid=28bd3904-ffcb-4595-8c51-c947161caafc"},"vehicle_type_id":"4","last_reported":1735319230,"current_range_meters":20800,"station_id":"ce4bgi92rcd13ifvqb90","pricing_plan_id":"cebpf4jnsgd1na2vs0mg"},{"bike_id":"c57096af-feec-4f59-a653-305d13991711","system_id":"levelo_inurba_marseille","lat":43.29618,"lon":5.37168,"is_reserved":false,"is_disabled":false,"rental_uris":{"android":"levelo://app?vid=c57096af-feec-4f59-a653-305d13991711","ios":"levelo://app?vid=c57096af-feec-4f59-a653-305d13991711"},"vehicle_type_id":"4","last_reported":1735319230,"current_range_meters":38000,"station_id":"ce4bgnh2rcd13ifvqc0g","pricing_plan_id":"cebpf4jnsgd1na2vs0mg"},{"bike_id":"96f82544-6c3e-4621-a694-fba76dde99dd","system_id":"levelo_inurba_marseille","lat":43.29213,"lon":5.39288,"is_reserved":false,"is_disabled":false,"rental_uris":{"android":"levelo://app?vid=96f82544-6c3e-4621-a694-fba76dde99dd","ios":"levelo://app?vid=96f82544-6c3e-4621-a694-fba76dde99dd"},"vehicle_type_id":"4","last_reported":1735319230,"current_range_meters":22000,"station_id":"ce4bh192rcd13ifvqdd0","pricing_plan_id":"cebpf4jnsgd1na2vs0mg"},{"bike_id":"2b8d244a-21a0-46cc-bfbb-98e3bd17116f","system_id":"levelo_inurba_marseille","lat":43.30274,"lon":5.37722,"is_reserved":false,"is_disabled":false,"rental_uris":{"android":"levelo://app?vid=2b8d244a-21a0-46cc-bfbb-98e3bd17116f","ios":"levelo://app?vid=2b8d244a-21a0-46cc-bfbb-98e3bd17116f"},"vehicle_type_id":"4","last_reported":1735319230,"current_range_meters":22800,"station_id":"ce4bguh2rcd13ifvqcj0","pricing_plan_id":"cebpf4jnsgd1na2vs0mg"},{"bike_id":"8f2a6914-bba4-4ace-a8cf-6c59b4633c74","system_id":"levelo_inurba_marseille","lat":43.27621,"lon":5.36106,"is_reserved":false,"is_disabled":true,"rental_uris":{"android":"levelo://app?vid=8f2a6914-bba4-4ace-a8cf-6c59b4633c74","ios":"levelo://app?vid=8f2a6914-bba4-4ace-a8cf-6c59b4633c74"},"vehicle_type_id":"4","last_reported":1735319230,"current_range_meters":17200,"station_id":"ce4bgj92rcd13ifvqbe0","pricing_plan_id":"cebpf4jnsgd1na2vs0mg"},{"bike_id":"5e1218c5-04fb-4a69-b12c-727f66aad766","system_id":"levelo_inurba_marseille","lat":43.26211,"lon":5.3744,"is_reserved":false,"is_disabled":false,"rental_uris":{"android":"levelo://app?vid=5e1218c5-04fb-4a69-b12c-727f66aad766","ios":"levelo://app?vid=5e1218c5-04fb-4a69-b12c-727f66aad766"},"vehicle_type_id":"4","last_reported":1735319230,"current_range_meters":33600,"station_id":"ce4bhgp2rcd13ifvqfc0","pricing_plan_id":"cebpf4jnsgd1na2vs0mg"},{"bike_id":"421c6551-132c-4015-aab8-f2eccc5315e9","system_id":"levelo_inurba_marseille","lat":43.32594,"lon":5.41197,"is_reserved":false,"is_disabled":true,"rental_uris":{"android":"levelo://app?vid=421c6551-132c-4015-aab8-f2eccc5315e9","ios":"levelo://app?vid=421c6551-132c-4015-aab8-f2eccc5315e9"},"vehicle_type_id":"4","last_reported":1735319230,"current_range_meters":0,"station_id":"ce4bhq12rcd13ifvqhig","pricing_plan_id":"cebpf4jnsgd1na2vs0mg"},{"bike_id":"3e6b59a7-9e99-4da7-9115-f71ff911bab8","system_id":"levelo_inurba_marseille","lat":43.281591,"lon":5.426525,"is_reserved":false,"is_disabled":false,"rental_uris":{"android":"levelo://app?vid=3e6b59a7-9e99-4da7-9115-f71ff911bab8","ios":"levelo://app?vid=3e6b59a7-9e99-4da7-9115-f71ff911bab8"},"vehicle_type_id":"4","last_reported":1735319230,"current_range_meters":12400,"station_id":"ce4bhnh2rcd13ifvqgug","pricing_plan_id":"cebpf4jnsgd1na2vs0mg"},{"bike_id":"55aacb9c-f87c-454a-b434-2e6d2f23e8cf","system_id":"levelo_inurba_marseille","lat":43.30214,"lon":5.39461,"is_reserved":false,"is_disabled":false,"rental_uris":{"android":"levelo://app?vid=55aacb9c-f87c-454a-b434-2e6d2f23e8cf","ios":"levelo://app?vid=55aacb9c-f87c-454a-b434-2e6d2f23e8cf"},"vehicle_type_id":"4","last_reported":1735319230,"current_range_meters":14800,"station_id":"ce4bh0p2rcd13ifvqd70","pricing_plan_id":"cebpf4jnsgd1na2vs0mg"},{"bike_id":"c542a1bb-54cd-4033-aeff-5e06e35ebd74","system_id":"levelo_inurba_marseille","lat":43.29215,"lon":5.36063,"is_reserved":false,"is_disabled":false,"rental_uris":{"android":"levelo://app?vid=c542a1bb-54cd-4033-aeff-5e06e35ebd74","ios":"levelo://app?vid=c542a1bb-54cd-4033-aeff-5e06e35ebd74"},"vehicle_type_id":"4","last_reported":1735319230,"current_range_meters":34000,"station_id":"ce4bhbh2rcd13ifvqeqg","pricing_plan_id":"cebpf4jnsgd1na2vs0mg"},{"bike_id":"874dd9fc-64b2-467d-bf92-e26669b35040","system_id":"levelo_inurba_marseille","lat":43.30788,"lon":5.37647,"is_reserved":false,"is_disabled":false,"rental_uris":{"android":"levelo://app?vid=874dd9fc-64b2-467d-bf92-e26669b35040","ios":"levelo://app?vid=874dd9fc-64b2-467d-bf92-e26669b35040"},"vehicle_type_id":"4","last_reported":1735319230,"current_range_meters":33600,"station_id":"ce4bgv92rcd13ifvqcq0","pricing_plan_id":"cebpf4jnsgd1na2vs0mg"},{"bike_id":"9b033979-22fb-4fbe-862b-12b59af70025","system_id":"levelo_inurba_marseille","lat":43.23054,"lon":5.35494,"is_reserved":false,"is_disabled":false,"rental_uris":{"android":"levelo://app?vid=9b033979-22fb-4fbe-862b-12b59af70025","ios":"levelo://app?vid=9b033979-22fb-4fbe-862b-12b59af70025"},"vehicle_type_id":"4","last_reported":1735319230,"current_range_meters":32400,"station_id":"cpo3342slgdg3j2ifvpg","pricing_plan_id":"cebpf4jnsgd1na2vs0mg"},{"bike_id":"eb24c49b-b178-4683-bdd5-1432c5484316","system_id":"levelo_inurba_marseille","lat":43.2962,"lon":5.37169,"is_reserved":false,"is_disabled":false,"rental_uris":{"android":"levelo://app?vid=eb24c49b-b178-4683-bdd5-1432c5484316","ios":"levelo://app?vid=eb24c49b-b178-4683-bdd5-1432c5484316"},"vehicle_type_id":"4","last_reported":1735319230,"current_range_meters":38800,"station_id":"ce4bgnh2rcd13ifvqc0g","pricing_plan_id":"cebpf4jnsgd1na2vs0mg"},{"bike_id":"0b5a37ea-37ac-49f0-b587-e8ef92c77fb5","system_id":"levelo_inurba_marseille","lat":43.26928,"lon":5.38906,"is_reserved":false,"is_disabled":false,"rental_uris":{"android":"levelo://app?vid=0b5a37ea-37ac-49f0-b587-e8ef92c77fb5","ios":"levelo://app?vid=0b5a37ea-37ac-49f0-b587-e8ef92c77fb5"},"vehicle_type_id":"4","last_reported":1735319230,"current_range_meters":38800,"station_id":"ce4bhhh2rcd13ifvqfl0","pricing_plan_id":"cebpf4jnsgd1na2vs0mg"},{"bike_id":"7ed14772-43fd-4e91-9682-602d4d8bddbc","system_id":"levelo_inurba_marseille","lat":43.2465,"lon":5.38895,"is_reserved":false,"is_disabled":false,"rental_uris":{"android":"levelo://app?vid=7ed14772-43fd-4e91-9682-602d4d8bddbc","ios":"levelo://app?vid=7ed14772-43fd-4e91-9682-602d4d8bddbc"},"vehicle_type_id":"4","last_reported":1735319230,"current_range_meters":38800,"station_id":"ce4bhg12rcd13ifvqf60","pricing_plan_id":"cebpf4jnsgd1na2vs0mg"},{"bike_id":"3fd0ce8b-62e5-482c-86d5-ed88c92ffef8","system_id":"levelo_inurba_marseille","lat":43.274127,"lon":5.393991,"is_reserved":false,"is_disabled":false,"rental_uris":{"android":"levelo://app?vid=3fd0ce8b-62e5-482c-86d5-ed88c92ffef8","ios":"levelo://app?vid=3fd0ce8b-62e5-482c-86d5-ed88c92ffef8"},"vehicle_type_id":"4","last_reported":1735319230,"current_range_meters":16400,"station_id":"ce4bhdp2rcd13ifvqf20","pricing_plan_id":"cebpf4jnsgd1na2vs0mg"},{"bike_id":"c9e5d6c6-5601-4769-be5c-20fef93ca121","system_id":"levelo_inurba_marseille","lat":43.2417,"lon":5.36391,"is_reserved":false,"is_disabled":false,"rental_uris":{"android":"levelo://app?vid=c9e5d6c6-5601-4769-be5c-20fef93ca121","ios":"levelo://app?vid=c9e5d6c6-5601-4769-be5c-20fef93ca121"},"vehicle_type_id":"4","last_reported":1735319230,"current_range_meters":22400,"station_id":"cpo36qri1sfpv3e86is0","pricing_plan_id":"cebpf4jnsgd1na2vs0mg"},{"bike_id":"0fc8000c-fa06-4225-b5d3-068971e5812b","system_id":"levelo_inurba_marseille","lat":43.28157,"lon":5.42648,"is_reserved":false,"is_disabled":false,"rental_uris":{"android":"levelo://app?vid=0fc8000c-fa06-4225-b5d3-068971e5812b","ios":"levelo://app?vid=0fc8000c-fa06-4225-b5d3-068971e5812b"},"vehicle_type_id":"4","last_reported":1735319230,"current_range_meters":38000,"station_id":"ce4bhnh2rcd13ifvqgug","pricing_plan_id":"cebpf4jnsgd1na2vs0mg"},{"bike_id":"548b2d79-54d6-4c1e-abdd-d982c42234dd","system_id":"levelo_inurba_marseille","lat":43.27971,"lon":5.38713,"is_reserved":false,"is_disabled":false,"rental_uris":{"android":"levelo://app?vid=548b2d79-54d6-4c1e-abdd-d982c42234dd","ios":"levelo://app?vid=548b2d79-54d6-4c1e-abdd-d982c42234dd"},"vehicle_type_id":"4","last_reported":1735319230,"current_range_meters":38800,"station_id":"ce4bhg12rcd13ifvqf80","pricing_plan_id":"cebpf4jnsgd1na2vs0mg"},{"bike_id":"8dc0edca-2d83-43db-b2b6-d78e1244e192","system_id":"levelo_inurba_marseille","lat":43.23056,"lon":5.35501,"is_reserved":false,"is_disabled":false,"rental_uris":{"android":"levelo://app?vid=8dc0edca-2d83-43db-b2b6-d78e1244e192","ios":"levelo://app?vid=8dc0edca-2d83-43db-b2b6-d78e1244e192"},"vehicle_type_id":"4","last_reported":1735319230,"current_range_meters":7200,"station_id":"cpo3342slgdg3j2ifvpg","pricing_plan_id":"cebpf4jnsgd1na2vs0mg"},{"bike_id":"3694afdf-379e-43af-910b-f297893f12f5","system_id":"levelo_inurba_marseille","lat":43.28156,"lon":5.4264,"is_reserved":false,"is_disabled":false,"rental_uris":{"android":"levelo://app?vid=3694afdf-379e-43af-910b-f297893f12f5","ios":"levelo://app?vid=3694afdf-379e-43af-910b-f297893f12f5"},"vehicle_type_id":"4","last_reported":1735319230,"current_range_meters":26000,"station_id":"ce4bhnh2rcd13ifvqgug","pricing_plan_id":"cebpf4jnsgd1na2vs0mg"},{"bike_id":"fbec4ea5-65d3-402f-907b-b448d00dedaa","system_id":"levelo_inurba_marseille","lat":43.26204,"lon":5.37932,"is_reserved":false,"is_disabled":false,"rental_uris":{"android":"levelo://app?vid=fbec4ea5-65d3-402f-907b-b448d00dedaa","ios":"levelo://app?vid=fbec4ea5-65d3-402f-907b-b448d00dedaa"},"vehicle_type_id":"4","last_reported":1735319230,"current_range_meters":12800,"station_id":"ce4bhjp2rcd13ifvqg90","pricing_plan_id":"cebpf4jnsgd1na2vs0mg"},{"bike_id":"29138ec5-d412-4cc0-9796-96cea38f8b3d","system_id":"levelo_inurba_marseille","lat":43.29621,"lon":5.37725,"is_reserved":false,"is_disabled":false,"rental_uris":{"android":"levelo://app?vid=29138ec5-d412-4cc0-9796-96cea38f8b3d","ios":"levelo://app?vid=29138ec5-d412-4cc0-9796-96cea38f8b3d"},"vehicle_type_id":"4","last_reported":1735319230,"current_range_meters":33200,"station_id":"ce4bgi92rcd13ifvqb90","pricing_plan_id":"cebpf4jnsgd1na2vs0mg"},{"bike_id":"172a0707-4cf3-49f8-8561-2e329baaf0d2","system_id":"levelo_inurba_marseille","lat":43.29582,"lon":5.37518,"is_reserved":false,"is_disabled":false,"rental_uris":{"android":"levelo://app?vid=172a0707-4cf3-49f8-8561-2e329baaf0d2","ios":"levelo://app?vid=172a0707-4cf3-49f8-8561-2e329baaf0d2"},"vehicle_type_id":"4","last_reported":1735319230,"current_range_meters":35200,"station_id":"ce4bgh92rcd13ifvqb50","pricing_plan_id":"cebpf4jnsgd1na2vs0mg"},{"bike_id":"26858638-05c1-4dd6-8d7c-4f99456856da","system_id":"levelo_inurba_marseille","lat":43.26561,"lon":5.37289,"is_reserved":false,"is_disabled":false,"rental_uris":{"android":"levelo://app?vid=26858638-05c1-4dd6-8d7c-4f99456856da","ios":"levelo://app?vid=26858638-05c1-4dd6-8d7c-4f99456856da"},"vehicle_type_id":"4","last_reported":1735319230,"current_range_meters":23200,"station_id":"ce4bhg12rcd13ifvqf70","pricing_plan_id":"cebpf4jnsgd1na2vs0mg"},{"bike_id":"deb74dd6-caed-4958-9dd1-d5f6f39c849d","system_id":"levelo_inurba_marseille","lat":43.29924,"lon":5.36367,"is_reserved":false,"is_disabled":false,"rental_uris":{"android":"levelo://app?vid=deb74dd6-caed-4958-9dd1-d5f6f39c849d","ios":"levelo://app?vid=deb74dd6-caed-4958-9dd1-d5f6f39c849d"},"vehicle_type_id":"4","last_reported":1735319230,"current_range_meters":29600,"station_id":"","pricing_plan_id":"cebpf4jnsgd1na2vs0mg"},{"bike_id":"ba404663-03aa-4372-856c-b90d34ca71b4","system_id":"levelo_inurba_marseille","lat":43.30443,"lon":5.38886,"is_reserved":false,"is_disabled":false,"rental_uris":{"android":"levelo://app?vid=ba404663-03aa-4372-856c-b90d34ca71b4","ios":"levelo://app?vid=ba404663-03aa-4372-856c-b90d34ca71b4"},"vehicle_type_id":"4","last_reported":1735319230,"current_range_meters":11600,"station_id":"ce4bgk12rcd13ifvqbi0","pricing_plan_id":"cebpf4jnsgd1na2vs0mg"},{"bike_id":"41becbe0-31ce-4941-828d-b4e44498a200","system_id":"levelo_inurba_marseille","lat":43.303427,"lon":5.369013,"is_reserved":false,"is_disabled":true,"rental_uris":{"android":"levelo://app?vid=41becbe0-31ce-4941-828d-b4e44498a200","ios":"levelo://app?vid=41becbe0-31ce-4941-828d-b4e44498a200"},"vehicle_type_id":"4","last_reported":1735319230,"current_range_meters":38800,"station_id":"ce4bgqh2rcd13ifvqc5g","pricing_plan_id":"cebpf4jnsgd1na2vs0mg"},{"bike_id":"99e85278-265b-4035-ba73-9bf63e27e16e","system_id":"levelo_inurba_marseille","lat":43.30433,"lon":5.38888,"is_reserved":false,"is_disabled":false,"rental_uris":{"android":"levelo://app?vid=99e85278-265b-4035-ba73-9bf63e27e16e","ios":"levelo://app?vid=99e85278-265b-4035-ba73-9bf63e27e16e"},"vehicle_type_id":"4","last_reported":1735319230,"current_range_meters":3600,"station_id":"ce4bgk12rcd13ifvqbi0","pricing_plan_id":"cebpf4jnsgd1na2vs0mg"},{"bike_id":"f96aec47-d152-43d1-8f08-6a1652dcd1d1","system_id":"levelo_inurba_marseille","lat":43.32365,"lon":5.3888,"is_reserved":false,"is_disabled":false,"rental_uris":{"android":"levelo://app?vid=f96aec47-d152-43d1-8f08-6a1652dcd1d1","ios":"levelo://app?vid=f96aec47-d152-43d1-8f08-6a1652dcd1d1"},"vehicle_type_id":"4","last_reported":1735319230,"current_range_meters":21600,"station_id":"ce4bhqp2rcd13ifvqhog","pricing_plan_id":"cebpf4jnsgd1na2vs0mg"},{"bike_id":"5f350e36-8c18-4882-b08d-4797368fcf0a","system_id":"levelo_inurba_marseille","lat":43.29789,"lon":5.37101,"is_reserved":false,"is_disabled":false,"rental_uris":{"android":"levelo://app?vid=5f350e36-8c18-4882-b08d-4797368fcf0a","ios":"levelo://app?vid=5f350e36-8c18-4882-b08d-4797368fcf0a"},"vehicle_type_id":"4","last_reported":1735319230,"current_range_meters":22800,"station_id":"ce4bgop2rcd13ifvqc1g","pricing_plan_id":"cebpf4jnsgd1na2vs0mg"},{"bike_id":"2f1ab3bb-0897-4093-8c51-0bcfce069440","system_id":"levelo_inurba_marseille","lat":43.30812,"lon":5.3816,"is_reserved":false,"is_disabled":false,"rental_uris":{"android":"levelo://app?vid=2f1ab3bb-0897-4093-8c51-0bcfce069440","ios":"levelo://app?vid=2f1ab3bb-0897-4093-8c51-0bcfce069440"},"vehicle_type_id":"4","last_reported":1735319230,"current_range_meters":36800,"station_id":"ce4bgt12rcd13ifvqce0","pricing_plan_id":"cebpf4jnsgd1na2vs0mg"},{"bike_id":"dac94ecf-3203-4c89-acc0-21c14e979588","system_id":"levelo_inurba_marseille","lat":43.267107,"lon":5.382563,"is_reserved":false,"is_disabled":false,"rental_uris":{"android":"levelo://app?vid=dac94ecf-3203-4c89-acc0-21c14e979588","ios":"levelo://app?vid=dac94ecf-3203-4c89-acc0-21c14e979588"},"vehicle_type_id":"4","last_reported":1735319230,"current_range_meters":35200,"station_id":"ce4bhg92rcd13ifvqf90","pricing_plan_id":"cebpf4jnsgd1na2vs0mg"},{"bike_id":"f0cafae0-f29d-4301-add9-cbd6aefdfe71","system_id":"levelo_inurba_marseille","lat":43.27066,"lon":5.42283,"is_reserved":false,"is_disabled":false,"rental_uris":{"android":"levelo://app?vid=f0cafae0-f29d-4301-add9-cbd6aefdfe71","ios":"levelo://app?vid=f0cafae0-f29d-4301-add9-cbd6aefdfe71"},"vehicle_type_id":"4","last_reported":1735319230,"current_range_meters":28400,"station_id":"ce4bhk92rcd13ifvqgb0","pricing_plan_id":"cebpf4jnsgd1na2vs0mg"},{"bike_id":"c09f8790-78d5-41ab-af1c-f4ee25747630","system_id":"levelo_inurba_marseille","lat":43.2961,"lon":5.37714,"is_reserved":false,"is_disabled":false,"rental_uris":{"android":"levelo://app?vid=c09f8790-78d5-41ab-af1c-f4ee25747630","ios":"levelo://app?vid=c09f8790-78d5-41ab-af1c-f4ee25747630"},"vehicle_type_id":"4","last_reported":1735319230,"current_range_meters":24400,"station_id":"ce4bgi92rcd13ifvqb90","pricing_plan_id":"cebpf4jnsgd1na2vs0mg"},{"bike_id":"d787e330-e288-4e1c-926a-5bcb7a236ca2","system_id":"levelo_inurba_marseille","lat":43.28153,"lon":5.42642,"is_reserved":false,"is_disabled":false,"rental_uris":{"android":"levelo://app?vid=d787e330-e288-4e1c-926a-5bcb7a236ca2","ios":"levelo://app?vid=d787e330-e288-4e1c-926a-5bcb7a236ca2"},"vehicle_type_id":"4","last_reported":1735319230,"current_range_meters":32000,"station_id":"ce4bhnh2rcd13ifvqgug","pricing_plan_id":"cebpf4jnsgd1na2vs0mg"},{"bike_id":"35d611d2-fbc7-4194-8ade-d0676d9e3427","system_id":"levelo_inurba_marseille","lat":43.29327,"lon":5.38563,"is_reserved":false,"is_disabled":false,"rental_uris":{"android":"levelo://app?vid=35d611d2-fbc7-4194-8ade-d0676d9e3427","ios":"levelo://app?vid=35d611d2-fbc7-4194-8ade-d0676d9e3427"},"vehicle_type_id":"4","last_reported":1735319230,"current_range_meters":35200,"station_id":"ce4bh2h2rcd13ifvqdh0","pricing_plan_id":"cebpf4jnsgd1na2vs0mg"},{"bike_id":"0e876c69-f906-45eb-b2d7-9d8cf07c0b7d","system_id":"levelo_inurba_marseille","lat":43.28997,"lon":5.3561,"is_reserved":false,"is_disabled":true,"rental_uris":{"android":"levelo://app?vid=0e876c69-f906-45eb-b2d7-9d8cf07c0b7d","ios":"levelo://app?vid=0e876c69-f906-45eb-b2d7-9d8cf07c0b7d"},"vehicle_type_id":"4","last_reported":1735319230,"current_range_meters":24000,"station_id":"ce4bhb92rcd13ifvqen0","pricing_plan_id":"cebpf4jnsgd1na2vs0mg"},{"bike_id":"60fc1937-33bb-45f3-862b-7e1d823ee84e","system_id":"levelo_inurba_marseille","lat":43.29705,"lon":5.37707,"is_reserved":false,"is_disabled":false,"rental_uris":{"android":"levelo://app?vid=60fc1937-33bb-45f3-862b-7e1d823ee84e","ios":"levelo://app?vid=60fc1937-33bb-45f3-862b-7e1d823ee84e"},"vehicle_type_id":"4","last_reported":1735319230,"current_range_meters":34000,"station_id":"ce4bgkh2rcd13ifvqbl0","pricing_plan_id":"cebpf4jnsgd1na2vs0mg"},{"bike_id":"23d9ec8f-d502-4410-9f7a-9706a61157b8","system_id":"levelo_inurba_marseille","lat":43.27617,"lon":5.3611,"is_reserved":false,"is_disabled":false,"rental_uris":{"android":"levelo://app?vid=23d9ec8f-d502-4410-9f7a-9706a61157b8","ios":"levelo://app?vid=23d9ec8f-d502-4410-9f7a-9706a61157b8"},"vehicle_type_id":"4","last_reported":1735319230,"current_range_meters":39200,"station_id":"ce4bgj92rcd13ifvqbe0","pricing_plan_id":"cebpf4jnsgd1na2vs0mg"},{"bike_id":"3b24b85c-1c04-4fb2-a570-991764c32677","system_id":"levelo_inurba_marseille","lat":43.28457,"lon":5.35886,"is_reserved":false,"is_disabled":false,"rental_uris":{"android":"levelo://app?vid=3b24b85c-1c04-4fb2-a570-991764c32677","ios":"levelo://app?vid=3b24b85c-1c04-4fb2-a570-991764c32677"},"vehicle_type_id":"4","last_reported":1735319230,"current_range_meters":29600,"station_id":"ce4bhah2rcd13ifvqei0","pricing_plan_id":"cebpf4jnsgd1na2vs0mg"},{"bike_id":"6b579508-5354-439e-a4e0-4261173e8d8b","system_id":"levelo_inurba_marseille","lat":43.299025,"lon":5.374736,"is_reserved":false,"is_disabled":false,"rental_uris":{"android":"levelo://app?vid=6b579508-5354-439e-a4e0-4261173e8d8b","ios":"levelo://app?vid=6b579508-5354-439e-a4e0-4261173e8d8b"},"vehicle_type_id":"4","last_reported":1735319230,"current_range_meters":38800,"station_id":"ce4bgjh2rcd13ifvqbg0","pricing_plan_id":"cebpf4jnsgd1na2vs0mg"},{"bike_id":"05296b9c-842e-4410-983f-7d579163b7a9","system_id":"levelo_inurba_marseille","lat":43.28344,"lon":5.38114,"is_reserved":false,"is_disabled":false,"rental_uris":{"android":"levelo://app?vid=05296b9c-842e-4410-983f-7d579163b7a9","ios":"levelo://app?vid=05296b9c-842e-4410-983f-7d579163b7a9"},"vehicle_type_id":"4","last_reported":1735319230,"current_range_meters":32000,"station_id":"ce4bh412rcd13ifvqdr0","pricing_plan_id":"cebpf4jnsgd1na2vs0mg"},{"bike_id":"e93efc2f-4d32-418b-a9a6-50f1d941711d","system_id":"levelo_inurba_marseille","lat":43.31987,"lon":5.38135,"is_reserved":false,"is_disabled":false,"rental_uris":{"android":"levelo://app?vid=e93efc2f-4d32-418b-a9a6-50f1d941711d","ios":"levelo://app?vid=e93efc2f-4d32-418b-a9a6-50f1d941711d"},"vehicle_type_id":"4","last_reported":1735319230,"current_range_meters":14000,"station_id":"ce4bhr12rcd13ifvqhpg","pricing_plan_id":"cebpf4jnsgd1na2vs0mg"},{"bike_id":"b904b1d0-e591-4ced-accf-0f9f78048773","system_id":"levelo_inurba_marseille","lat":43.27691,"lon":5.389,"is_reserved":false,"is_disabled":false,"rental_uris":{"android":"levelo://app?vid=b904b1d0-e591-4ced-accf-0f9f78048773","ios":"levelo://app?vid=b904b1d0-e591-4ced-accf-0f9f78048773"},"vehicle_type_id":"4","last_reported":1735319230,"current_range_meters":14000,"station_id":"ce4bhi12rcd13ifvqfo0","pricing_plan_id":"cebpf4jnsgd1na2vs0mg"},{"bike_id":"5c4761e9-1ee5-4ea9-9dd2-01ebc88afbe6","system_id":"levelo_inurba_marseille","lat":43.25573,"lon":5.38234,"is_reserved":false,"is_disabled":false,"rental_uris":{"android":"levelo://app?vid=5c4761e9-1ee5-4ea9-9dd2-01ebc88afbe6","ios":"levelo://app?vid=5c4761e9-1ee5-4ea9-9dd2-01ebc88afbe6"},"vehicle_type_id":"4","last_reported":1735319230,"current_range_meters":28800,"station_id":"ce4bhih2rcd13ifvqfs0","pricing_plan_id":"cebpf4jnsgd1na2vs0mg"},