{"last_updated":1750277586,"ttl":60,"version":"2.2","data":{"bikes":[{"bike_id":"3da29fb8-fc97-44c6-b9ac-31dd456b2fd4","system_id":"levelo_inurba_marseille","lat":43.33771,"lon":5.37424,"is_reserved":false,"is_disabled":true,"rental_uris":{"android":"levelo://app?vid=3da29fb8-fc97-44c6-b9ac-31dd456b2fd4","ios":"levelo://app?vid=3da29fb8-fc97-44c6-b9ac-31dd456b2fd4"},"vehicle_type_id":"4","last_reported":1750277586,"current_range_meters":0,"station_id":"","pricing_plan_id":"cebpf4jnsgd1na2vs0mg"},{"bike_id":"01861ad8-a8d7-4be6-816e-651927c87584","system_id":"levelo_inurba_marseille","lat":43.33751,"lon":5.37456,"is_reserved":false,"is_disabled":true,"rental_uris":{"android":"levelo://app?vid=01861ad8-a8d7-4be6-816e-651927c87584","ios":"levelo://app?vid=01861ad8-a8d7-4be6-816e-651927c87584"},"vehicle_type_id":"4","last_reported":1750277586,"current_range_meters":0,"station_id":"","pricing_plan_id":"cebpf4jnsgd1na2vs0mg"},{"bike_id":"dbfce7a3-3423-4296-b193-a177dea644ac","system_id":"levelo_inurba_marseille","lat":43.27291,"lon":5.41612,"is_reserved":false,"is_disabled":true,"rental_uris":{"android":"levelo://app?vid=dbfce7a3-3423-4296-b193-a177dea644ac","ios":"levelo://app?vid=dbfce7a3-3423-4296-b193-a177dea644ac"},"vehicle_type_id":"4","last_reported":1750277586,"current_range_meters":0,"station_id":"","pricing_plan_id":"cebpf4jnsgd1na2vs0mg"},{"bike_id":"eff675e9-75ca-47c9-bd95-5090bc060d4f","system_id":"levelo_inurba_marseille","lat":43.34068,"lon":5.36114,"is_reserved":false,"is_disabled":true,"rental_uris":{"android":"levelo://app?vid=eff675e9-75ca-47c9-bd95-5090bc060d4f","ios":"levelo://app?vid=eff675e9-75ca-47c9-bd95-5090bc060d4f"},"vehicle_type_id":"4","last_reported":1750277586,"current_range_meters":0,"station_id":"","pricing_plan_id":"cebpf4jnsgd1na2vs0mg"},{"bike_id":"d2bd57c8-6b64-48db-ad24-5398eb3fd9d6","system_id":"levelo_inurba_marseille","lat":43.337444,"lon":5.374475,"is_reserved":false,"is_disabled":true,"rental_uris":{"android":"levelo://app?vid=d2bd57c8-6b64-48db-ad24-5398eb3fd9d6","ios":"levelo://app?vid=d2bd57c8-6b64-48db-ad24-5398eb3fd9d6"},"vehicle_type_id":"4","last_reported":1750277586,"current_range_meters":0,"station_id":"","pricing_plan_id":"cebpf4jnsgd1na2vs0mg"},{"bike_id":"62a493c7-4534-4419-ad43-0582de34a72a","system_id":"levelo_inurba_marseille","lat":43.21366,"lon":5.355183,"is_reserved":false,"is_disabled":true,"rental_uris":{"android":"levelo://app?vid=62a493c7-4534-4419-ad43-0582de34a72a","ios":"levelo://app?vid=62a493c7-4534-4419-ad43-0582de34a72a"},"vehicle_type_id":"4","last_reported":1750277586,"current_range_meters":0,"station_id":"","pricing_plan_id":"cebpf4jnsgd1na2vs0mg"},{"bike_id":"b9e37238-9abe-4b8b-b932-edaee33a7e59","system_id":"levelo_inurba_marseille","lat":43.2748,"lon":5.39011,"is_reserved":false,"is_disabled":true,"rental_uris":{"android":"levelo://app?vid=b9e37238-9abe-4b8b-b932-edaee33a7e59","ios":"levelo://app?vid=b9e37238-9abe-4b8b-b932-edaee33a7e59"},"vehicle_type_id":"4","last_reported":1750277586,"current_range_meters":0,"station_id":"","pricing_plan_id":"cebpf4jnsgd1na2vs0mg"},{"bike_id":"8ad9234e-001a-4549-8bba-9baf2ef98804","system_id":"levelo_inurba_marseille","lat":43.27414,"lon":5.39791,"is_reserved":false,"is_disabled":true,"rental_uris":{"android":"levelo://app?vid=8ad9234e-001a-4549-8bba-9baf2ef98804","ios":"levelo://app?vid=8ad9234e-001a-4549-8bba-9baf2ef98804"},"vehicle_type_id":"4","last_reported":1750277586,"current_range_meters":0,"station_id":"","pricing_plan_id":"cebpf4jnsgd1na2vs0mg"},{"bike_id":"ddf470bc-7dc9-4a99-a339-d9ae733e34d6","system_id":"levelo_inurba_marseille","lat":43.33403,"lon":5.40062,"is_reserved":false,"is_disabled":true,"rental_uris":{"android":"levelo://app?vid=ddf470bc-7dc9-4a99-a339-d9ae733e34d6","ios":"levelo://app?vid=ddf470bc-7dc9-4a99-a339-d9ae733e34d6"},"vehicle_type_id":"4","last_reported":1750277586,"current_range_meters":0,"station_id":"","pricing_plan_id":"cebpf4jnsgd1na2vs0mg"},{"bike_id":"93af304b-67b5-47b8-a3fd-e0775f7cde8c","system_id":"levelo_inurba_marseille","lat":43.215301,"lon":5.347406,"is_reserved":false,"is_disabled":true,"rental_uris":{"android":"levelo://app?vid=93af304b-67b5-47b8-a3fd-e0775f7cde8c","ios":"levelo://app?vid=93af304b-67b5-47b8-a3fd-e0775f7cde8c"},"vehicle_type_id":"4","last_reported":1750277586,"current_range_meters":0,"station_id":"","pricing_plan_id":"cebpf4jnsgd1na2vs0mg"},{"bike_id":"d6609b4f-333b-43c1-9ebe-8726f5e76e88","system_id":"levelo_inurba_marseille","lat":43.337444,"lon":5.374475,"is_reserved":false,"is_disabled":true,"rental_uris":{"android":"levelo://app?vid=d6609b4f-333b-43c1-9ebe-8726f5e76e88","ios":"levelo://app?vid=d6609b4f-333b-43c1-9ebe-8726f5e76e88"},"vehicle_type_id":"4","last_reported":1750277586,"current_range_meters":0,"station_id":"","pricing_plan_id":"cebpf4jnsgd1na2vs0mg"},{"bike_id":"57c83ce1-960e-466a-b6c5-d93bc130c53a","system_id":"levelo_inurba_marseille","lat":43.24878,"lon":5.38952,"is_reserved":false,"is_disabled":true,"rental_uris":{"android":"levelo://app?vid=57c83ce1-960e-466a-b6c5-d93bc130c53a","ios":"levelo://app?vid=57c83ce1-960e-466a-b6c5-d93bc130c53a"},"vehicle_type_id":"4","last_reported":1750277586,"current_range_meters":0,"station_id":"","pricing_plan_id":"cebpf4jnsgd1na2vs0mg"},{"bike_id":"41e07387-4a2e-4dd8-8f58-a7a708e5f066","system_id":"levelo_inurba_marseille","lat":43.26229,"lon":5.37236,"is_reserved":false,"is_disabled":true,"rental_uris":{"android":"levelo://app?vid=41e07387-4a2e-4dd8-8f58-a7a708e5f066","ios":"levelo://app?vid=41e07387-4a2e-4dd8-8f58-a7a708e5f066"},"vehicle_type_id":"4","last_reported":1750277586,"current_range_meters":0,"station_id":"","pricing_plan_id":"cebpf4jnsgd1na2vs0mg"},{"bike_id":"aa420fc6-ad2e-4b14-9d70-c12b03831187","system_id":"levelo_inurba_marseille","lat":43.30288,"lon":5.39219,"is_reserved":false,"is_disabled":true,"rental_uris":{"android":"levelo://app?vid=aa420fc6-ad2e-4b14-9d70-c12b03831187","ios":"levelo://app?vid=aa420fc6-ad2e-4b14-9d70-c12b03831187"},"vehicle_type_id":"4","last_reported":1750277586,"current_range_meters":0,"station_id":"ce4bgkh2rcd13ifvqbk0","pricing_plan_id":"cebpf4jnsgd1na2vs0mg"},{"bike_id":"dcaafb95-70fc-4cc8-b06c-296c2b3dd8f3","system_id":"levelo_inurba_marseille","lat":43.302979,"lon":5.392173,"is_reserved":false,"is_disabled":true,"rental_uris":{"android":"levelo://app?vid=dcaafb95-70fc-4cc8-b06c-296c2b3dd8f3","ios":"levelo://app?vid=dcaafb95-70fc-4cc8-b06c-296c2b3dd8f3"},"vehicle_type_id":"4","last_reported":1750277586,"current_range_meters":0,"station_id":"ce4bgkh2rcd13ifvqbk0","pricing_plan_id":"cebpf4jnsgd1na2vs0mg"},{"bike_id":"15d5c905-abd7-406e-8922-bb2639b02eb5","system_id":"levelo_inurba_marseille","lat":43.30788,"lon":5.37642,"is_reserved":false,"is_disabled":true,"rental_uris":{"android":"levelo://app?vid=15d5c905-abd7-406e-8922-bb2639b02eb5","ios":"levelo://app?vid=15d5c905-abd7-406e-8922-bb2639b02eb5"},"vehicle_type_id":"4","last_reported":1750277586,"current_range_meters":0,"station_id":"ce4bgv92rcd13ifvqcq0","pricing_plan_id":"cebpf4jnsgd1na2vs0mg"},{"bike_id":"53dc5f54-95c0-43a8-bc79-7770e5e7063f","system_id":"levelo_inurba_marseille","lat":43.28044,"lon":5.36936,"is_reserved":false,"is_disabled":true,"rental_uris":{"android":"levelo://app?vid=53dc5f54-95c0-43a8-bc79-7770e5e7063f","ios":"levelo://app?vid=53dc5f54-95c0-43a8-bc79-7770e5e7063f"},"vehicle_type_id":"4","last_reported":1750277586,"current_range_meters":0,"station_id":"ce4bha12rcd13ifvqef0","pricing_plan_id":"cebpf4jnsgd1na2vs0mg"},{"bike_id":"515d4459-d611-4068-a513-5ffbff40e293","system_id":"levelo_inurba_marseille","lat":43.29268,"lon":5.36845,"is_reserved":false,"is_disabled":false,"rental_uris":{"android":"levelo://app?vid=515d4459-d611-4068-a513-5ffbff40e293","ios":"levelo://app?vid=515d4459-d611-4068-a513-5ffbff40e293"},"vehicle_type_id":"4","last_reported":1750277586,"current_range_meters":0,"station_id":"ce4bhbp2rcd13ifvqesg","pricing_plan_id":"cebpf4jnsgd1na2vs0mg"},{"bike_id":"a8f084da-6134-4ba3-9f3b-73ca32b22222","system_id":"levelo_inurba_marseille","lat":43.27204,"lon":5.39211,"is_reserved":false,"is_disabled":true,"rental_uris":{"android":"levelo://app?vid=a8f084da-6134-4ba3-9f3b-73ca32b22222","ios":"levelo://app?vid=a8f084da-6134-4ba3-9f3b-73ca32b22222"},"vehicle_type_id":"4","last_reported":1750277586,"current_range_meters":0,"station_id":"ce4bhhp2rcd13ifvqfm0","pricing_plan_id":"cebpf4jnsgd1na2vs0mg"},{"bike_id":"1aa50db2-107c-4ae5-8d79-4bdf1f7e7160","system_id":"levelo_inurba_marseille","lat":43.27051,"lon":5.4026,"is_reserved":false,"is_disabled":true,"rental_uris":{"android":"levelo://app?vid=1aa50db2-107c-4ae5-8d79-4bdf1f7e7160","ios":"levelo://app?vid=1aa50db2-107c-4ae5-8d79-4bdf1f7e7160"},"vehicle_type_id":"4","last_reported":1750277586,"current_range_meters":0,"station_id":"ce4bhk92rcd13ifvqgc0","pricing_plan_id":"cebpf4jnsgd1na2vs0mg"},{"bike_id":"ab095030-d938-4cc7-8678-d56646437b79","system_id":"levelo_inurba_marseille","lat":43.27995,"lon":5.40002,"is_reserved":false,"is_disabled":true,"rental_uris":{"android":"levelo://app?vid=ab095030-d938-4cc7-8678-d56646437b79","ios":"levelo://app?vid=ab095030-d938-4cc7-8678-d56646437b79"},"vehicle_type_id":"4","last_reported":1750277586,"current_range_meters":0,"station_id":"ce4bho92rcd13ifvqh4g","pricing_plan_id":"cebpf4jnsgd1na2vs0mg"},{"bike_id":"9f66fae9-2f11-4e29-abc6-b15e8f8524ed","system_id":"levelo_inurba_marseille","lat":43.31708,"lon":5.437,"is_reserved":false,"is_disabled":true,"rental_uris":{"android":"levelo://app?vid=9f66fae9-2f11-4e29-abc6-b15e8f8524ed","ios":"levelo://app?vid=9f66fae9-2f11-4e29-abc6-b15e8f8524ed"},"vehicle_type_id":"4","last_reported":1750277586,"current_range_meters":0,"station_id":"ce4bhp92rcd13ifvqhcg","pricing_plan_id":"cebpf4jnsgd1na2vs0mg"},{"bike_id":"0a0c0467-e4d7-4c66-b168-ea6b9a6dd941","system_id":"levelo_inurba_marseille","lat":43.32042,"lon":5.41542,"is_reserved":false,"is_disabled":true,"rental_uris":{"android":"levelo://app?vid=0a0c0467-e4d7-4c66-b168-ea6b9a6dd941","ios":"levelo://app?vid=0a0c0467-e4d7-4c66-b168-ea6b9a6dd941"},"vehicle_type_id":"4","last_reported":1750277586,"current_range_meters":0,"station_id":"ce4bhq92rcd13ifvqhkg","pricing_plan_id":"cebpf4jnsgd1na2vs0mg"},{"bike_id":"11679121-5457-4472-94b6-eb0c28ce7faa","system_id":"levelo_inurba_marseille","lat":43.32087,"lon":5.36762,"is_reserved":false,"is_disabled":true,"rental_uris":{"android":"levelo://app?vid=11679121-5457-4472-94b6-eb0c28ce7faa","ios":"levelo://app?vid=11679121-5457-4472-94b6-eb0c28ce7faa"},"vehicle_type_id":"4","last_reported":1750277586,"current_range_meters":0,"station_id":"ce4bhrh2rcd13ifvqhug","pricing_plan_id":"cebpf4jnsgd1na2vs0mg"},{"bike_id":"f6e3b5b3-8de8-4b90-99e8-7b6f99007197","system_id":"levelo_inurba_marseille","lat":43.26808,"lon":5.40246,"is_reserved":false,"is_disabled":true,"rental_uris":{"android":"levelo://app?vid=f6e3b5b3-8de8-4b90-99e8-7b6f99007197","ios":"levelo://app?vid=f6e3b5b3-8de8-4b90-99e8-7b6f99007197"},"vehicle_type_id":"4","last_reported":1750277586,"current_range_meters":0,"station_id":"ce501612rcd8frsf0b60","pricing_plan_id":"cebpf4jnsgd1na2vs0mg"},{"bike_id":"b6d27190-b949-4a3d-816f-d496cdfa6600","system_id":"levelo_inurba_marseille","lat":43.21185,"lon":5.35073,"is_reserved":false,"is_disabled":true,"rental_uris":{"android":"levelo://app?vid=b6d27190-b949-4a3d-816f-d496cdfa6600","ios":"levelo://app?vid=b6d27190-b949-4a3d-816f-d496cdfa6600"},"vehicle_type_id":"4","last_reported":1750277586,"current_range_meters":0,"station_id":"st_cvj6sg6p6f1abm77japg","pricing_plan_id":"cebpf4jnsgd1na2vs0mg"},{"bike_id":"bc81a397-aae3-4e78-aa3e-c9b45e8bd116","system_id":"levelo_inurba_marseille","lat":43.33965,"lon":5.40623,"is_reserved":false,"is_disabled":true,"rental_uris":{"android":"levelo://app?vid=bc81a397-aae3-4e78-aa3e-c9b45e8bd116","ios":"levelo://app?vid=bc81a397-aae3-4e78-aa3e-c9b45e8bd116"},"vehicle_type_id":"4","last_reported":1750277586,"current_range_meters":400,"station_id":"","pricing_plan_id":"cebpf4jnsgd1na2vs0mg"},{"bike_id":"75e73764-2fe7-44d0-bb78-2d1c10ccb6f8","system_id":"levelo_inurba_marseille","lat":43.28715,"lon":5.37937,"is_reserved":false,"is_disabled":true,"rental_uris":{"android":"levelo://app?vid=75e73764-2fe7-44d0-bb78-2d1c10ccb6f8","ios":"levelo://app?vid=75e73764-2fe7-44d0-bb78-2d1c10ccb6f8"},"vehicle_type_id":"4","last_reported":1750277586,"current_range_meters":400,"station_id":"ce4bh9p2rcd13ifvqec0","pricing_plan_id":"cebpf4jnsgd1na2vs0mg"},{"bike_id":"9833b7eb-4521-451c-9c4f-e9e19f02b941","system_id":"levelo_inurba_marseille","lat":43.21743,"lon":5.34604,"is_reserved":false,"is_disabled":true,"rental_uris":{"android":"levelo://app?vid=9833b7eb-4521-451c-9c4f-e9e19f02b941","ios":"levelo://app?vid=9833b7eb-4521-451c-9c4f-e9e19f02b941"},"vehicle_type_id":"4","last_reported":1750277586,"current_range_meters":400,"station_id":"st_cvj6r9ubvosntc0bgbag","pricing_plan_id":"cebpf4jnsgd1na2vs0mg"},{"bike_id":"d95b8dc3-8d42-4ce1-91ae-39653b607ed0","system_id":"levelo_inurba_marseille","lat":43.28358,"lon":5.38114,"is_reserved":false,"is_disabled":true,"rental_uris":{"android":"levelo://app?vid=d95b8dc3-8d42-4ce1-91ae-39653b607ed0","ios":"levelo://app?vid=d95b8dc3-8d42-4ce1-91ae-39653b607ed0"},"vehicle_type_id":"4","last_reported":1750277586,"current_range_meters":800,"station_id":"ce4bh412rcd13ifvqdr0","pricing_plan_id":"cebpf4jnsgd1na2vs0mg"},{"bike_id":"943b4549-9767-49f0-a061-9f0ac5ea1632","system_id":"levelo_inurba_marseille","lat":43.26189,"lon":5.37446,"is_reserved":false,"is_disabled":false,"rental_uris":{"android":"levelo://app?vid=943b4549-9767-49f0-a061-9f0ac5ea1632","ios":"levelo://app?vid=943b4549-9767-49f0-a061-9f0ac5ea1632"},"vehicle_type_id":"4","last_reported":1750277586,"current_range_meters":800,"station_id":"ce4bhgp2rcd13ifvqfc0","pricing_plan_id":"cebpf4jnsgd1na2vs0mg"},{"bike_id":"ede40f08-7e33-4b60-aac5-2ad570402ec8","system_id":"levelo_inurba_marseille","lat":43.337256,"lon":5.391836,"is_reserved":false,"is_disabled":true,"rental_uris":{"android":"levelo://app?vid=ede40f08-7e33-4b60-aac5-2ad570402ec8","ios":"levelo://app?vid=ede40f08-7e33-4b60-aac5-2ad570402ec8"},"vehicle_type_id":"4","last_reported":1750277586,"current_range_meters":800,"station_id":"ce4bhr92rcd13ifvqhsg","pricing_plan_id":"cebpf4jnsgd1na2vs0mg"},{"bike_id":"5eba18e5-8ee1-4b39-8442-d5f63ccaf14d","system_id":"levelo_inurba_marseille","lat":43.30739,"lon":5.4244,"is_reserved":false,"is_disabled":true,"rental_uris":{"android":"levelo://app?vid=5eba18e5-8ee1-4b39-8442-d5f63ccaf14d","ios":"levelo://app?vid=5eba18e5-8ee1-4b39-8442-d5f63ccaf14d"},"vehicle_type_id":"4","last_reported":1750277586,"current_range_meters":800,"station_id":"st_cvj6ca6bvosntc0bfgr0","pricing_plan_id":"cebpf4jnsgd1na2vs0mg"},{"bike_id":"f6856bde-c087-417e-98d5-459a2a731cea","system_id":"levelo_inurba_marseille","lat":43.21761,"lon":5.34595,"is_reserved":false,"is_disabled":true,"rental_uris":{"android":"levelo://app?vid=f6856bde-c087-417e-98d5-459a2a731cea","ios":"levelo://app?vid=f6856bde-c087-417e-98d5-459a2a731cea"},"vehicle_type_id":"4","last_reported":1750277586,"current_range_meters":800,"station_id":"st_cvj6r9ubvosntc0bgbag","pricing_plan_id":"cebpf4jnsgd1na2vs0mg"},{"bike_id":"f652fe36-df84-456d-ae5c-aa83179ce3be","system_id":"levelo_inurba_marseille","lat":43.30099,"lon":5.40203,"is_reserved":false,"is_disabled":true,"rental_uris":{"android":"levelo://app?vid=f652fe36-df84-456d-ae5c-aa83179ce3be","ios":"levelo://app?vid=f652fe36-df84-456d-ae5c-aa83179ce3be"},"vehicle_type_id":"4","last_reported":1750277586,"current_range_meters":1200,"station_id":"","pricing_plan_id":"cebpf4jnsgd1na2vs0mg"},{"bike_id":"47196f00-388f-4b3b-a4de-3dba126cd107","system_id":"levelo_inurba_marseille","lat":43.243734,"lon":5.411628,"is_reserved":false,"is_disabled":true,"rental_uris":{"android":"levelo://app?vid=47196f00-388f-4b3b-a4de-3dba126cd107","ios":"levelo://app?vid=47196f00-388f-4b3b-a4de-3dba126cd107"},"vehicle_type_id":"4","last_reported":1750277586,"current_range_meters":1200,"station_id":"","pricing_plan_id":"cebpf4jnsgd1na2vs0mg"},{"bike_id":"2498d847-e9ab-4035-883c-e82c1773aa95","system_id":"levelo_inurba_marseille","lat":43.217613,"lon":5.345953,"is_reserved":false,"is_disabled":true,"rental_uris":{"android":"levelo://app?vid=2498d847-e9ab-4035-883c-e82c1773aa95","ios":"levelo://app?vid=2498d847-e9ab-4035-883c-e82c1773aa95"},"vehicle_type_id":"4","last_reported":1750277586,"current_range_meters":1200,"station_id":"","pricing_plan_id":"cebpf4jnsgd1na2vs0mg"},{"bike_id":"86e093fc-1723-40ce-9960-e588d4e8d4d8","system_id":"levelo_inurba_marseille","lat":43.26565,"lon":5.38996,"is_reserved":false,"is_disabled":true,"rental_uris":{"android":"levelo://app?vid=86e093fc-1723-40ce-9960-e588d4e8d4d8","ios":"levelo://app?vid=86e093fc-1723-40ce-9960-e588d4e8d4d8"},"vehicle_type_id":"4","last_reported":1750277586,"current_range_meters":1200,"station_id":"ce4bhe12rcd13ifvqf30","pricing_plan_id":"cebpf4jnsgd1na2vs0mg"},{"bike_id":"ac1c17be-32dc-4449-8610-ca5bfe2cd501","system_id":"levelo_inurba_marseille","lat":43.33797,"lon":5.37492,"is_reserved":false,"is_disabled":true,"rental_uris":{"android":"levelo://app?vid=ac1c17be-32dc-4449-8610-ca5bfe2cd501","ios":"levelo://app?vid=ac1c17be-32dc-4449-8610-ca5bfe2cd501"},"vehicle_type_id":"4","last_reported":1750277586,"current_range_meters":1600,"station_id":"","pricing_plan_id":"cebpf4jnsgd1na2vs0mg"},{"bike_id":"0c25d7c3-b277-462b-8c69-268465bc825e","system_id":"levelo_inurba_marseille","lat":43.31363,"lon":5.38479,"is_reserved":false,"is_disabled":true,"rental_uris":{"android":"levelo://app?vid=0c25d7c3-b277-462b-8c69-268465bc825e","ios":"levelo://app?vid=0c25d7c3-b277-462b-8c69-268465bc825e"},"vehicle_type_id":"4","last_reported":1750277586,"current_range_meters":1600,"station_id":"ce4bgt92rcd13ifvqcf0","pricing_plan_id":"cebpf4jnsgd1na2vs0mg"},{"bike_id":"8b569404-be51-4265-ac6c-8a657888fbc8","system_id":"levelo_inurba_marseille","lat":43.282544,"lon":5.385934,"is_reserved":false,"is_disabled":true,"rental_uris":{"android":"levelo://app?vid=8b569404-be51-4265-ac6c-8a657888fbc8","ios":"levelo://app?vid=8b569404-be51-4265-ac6c-8a657888fbc8"},"vehicle_type_id":"4","last_reported":1750277586,"current_range_meters":1600,"station_id":"ce4bh192rcd13ifvqdd0","pricing_plan_id":"cebpf4jnsgd1na2vs0mg"},{"bike_id":"33e9c9da-1cc0-4262-ad00-281d3e3f35fc","system_id":"levelo_inurba_marseille","lat":43.33774,"lon":5.37425,"is_reserved":false,"is_disabled":true,"rental_uris":{"android":"levelo://app?vid=33e9c9da-1cc0-4262-ad00-281d3e3f35fc","ios":"levelo://app?vid=33e9c9da-1cc0-4262-ad00-281d3e3f35fc"},"vehicle_type_id":"4","last_reported":1750277586,"current_range_meters":2000,"station_id":"","pricing_plan_id":"cebpf4jnsgd1na2vs0mg"},{"bike_id":"2b2933d7-a479-4e55-9760-20677e8ab99a","system_id":"levelo_inurba_marseille","lat":43.302979,"lon":5.39216,"is_reserved":false,"is_disabled":false,"rental_uris":{"android":"levelo://app?vid=2b2933d7-a479-4e55-9760-20677e8ab99a","ios":"levelo://app?vid=2b2933d7-a479-4e55-9760-20677e8ab99a"},"vehicle_type_id":"4","last_reported":1750277586,"current_range_meters":2000,"station_id":"ce4bgkh2rcd13ifvqbk0","pricing_plan_id":"cebpf4jnsgd1na2vs0mg"},{"bike_id":"5e4664f4-edc2-4b56-8740-bf3f1eb09ba1","system_id":"levelo_inurba_marseille","lat":43.30296,"lon":5.3921,"is_reserved":false,"is_disabled":true,"rental_uris":{"android":"levelo://app?vid=5e4664f4-edc2-4b56-8740-bf3f1eb09ba1","ios":"levelo://app?vid=5e4664f4-edc2-4b56-8740-bf3f1eb09ba1"},"vehicle_type_id":"4","last_reported":1750277586,"current_range_meters":2000,"station_id":"ce4bgkh2rcd13ifvqbk0","pricing_plan_id":"cebpf4jnsgd1na2vs0mg"},{"bike_id":"1270a476-5086-46b7-8836-09424b019e9d","system_id":"levelo_inurba_marseille","lat":43.27562,"lon":5.38411,"is_reserved":false,"is_disabled":true,"rental_uris":{"android":"levelo://app?vid=1270a476-5086-46b7-8836-09424b019e9d","ios":"levelo://app?vid=1270a476-5086-46b7-8836-09424b019e9d"},"vehicle_type_id":"4","last_reported":1750277586,"current_range_meters":2000,"station_id":"ce4bhh92rcd13ifvqfi0","pricing_plan_id":"cebpf4jnsgd1na2vs0mg"},{"bike_id":"f7edec4e-4d5f-4000-93be-ac25b000e2f6","system_id":"levelo_inurba_marseille","lat":43.273787,"lon":5.362588,"is_reserved":false,"is_disabled":false,"rental_uris":{"android":"levelo://app?vid=f7edec4e-4d5f-4000-93be-ac25b000e2f6","ios":"levelo://app?vid=f7edec4e-4d5f-4000-93be-ac25b000e2f6"},"vehicle_type_id":"4","last_reported":1750277586,"current_range_meters":2800,"station_id":"","pricing_plan_id":"cebpf4jnsgd1na2vs0mg"},{"bike_id":"8fe124a0-c97b-4604-87f2-b062f571cb36","system_id":"levelo_inurba_marseille","lat":43.29965,"lon":5.38492,"is_reserved":false,"is_disabled":false,"rental_uris":{"android":"levelo://app?vid=8fe124a0-c97b-4604-87f2-b062f571cb36","ios":"levelo://app?vid=8fe124a0-c97b-4604-87f2-b062f571cb36"},"vehicle_type_id":"4","last_reported":1750277586,"current_range_meters":2800,"station_id":"ce4bgj92rcd13ifvqbd0","pricing_plan_id":"cebpf4jnsgd1na2vs0mg"},{"bike_id":"68b91b42-1bdd-4aa6-b880-b4af0e4fcafa","system_id":"levelo_inurba_marseille","lat":43.29261,"lon":5.38445,"is_reserved":false,"is_disabled":false,"rental_uris":{"android":"levelo://app?vid=68b91b42-1bdd-4aa6-b880-b4af0e4fcafa","ios":"levelo://app?vid=68b91b42-1bdd-4aa6-b880-b4af0e4fcafa"},"vehicle_type_id":"4","last_reported":1750277586,"current_range_meters":2800,"station_id":"ce4bh692rcd13ifvqea0","pricing_plan_id":"cebpf4jnsgd1na2vs0mg"},{"bike_id":"2cb97344-5def-472d-b8b4-662ebf63eed1","system_id":"levelo_inurba_marseille","lat":43.32105,"lon":5.36771,"is_reserved":false,"is_disabled":false,"rental_uris":{"android":"levelo://app?vid=2cb97344-5def-472d-b8b4-662ebf63eed1","ios":"levelo://app?vid=2cb97344-5def-472d-b8b4-662ebf63eed1"},"vehicle_type_id":"4","last_reported":1750277586,"current_range_meters":2800,"station_id":"ce4bhrh2rcd13ifvqhug","pricing_plan_id":"cebpf4jnsgd1na2vs0mg"},{"bike_id":"fe753a6d-0961-441e-b4a4-a4fa5974f5cc","system_id":"levelo_inurba_marseille","lat":43.21178,"lon":5.35068,"is_reserved":false,"is_disabled":false,"rental_uris":{"android":"levelo://app?vid=fe753a6d-0961-441e-b4a4-a4fa5974f5cc","ios":"levelo://app?vid=fe753a6d-0961-441e-b4a4-a4fa5974f5cc"},"vehicle_type_id":"4","last_reported":1750277586,"current_range_meters":2800,"station_id":"st_cvj6sg6p6f1abm77japg","pricing_plan_id":"cebpf4jnsgd1na2vs0mg"},{"bike_id":"dcf38cf0-7284-4775-add2-8c5f9927b31c","system_id":"levelo_inurba_marseille","lat":43.25451,"lon":5.37845,"is_reserved":false,"is_disabled":false,"rental_uris":{"android":"levelo://app?vid=dcf38cf0-7284-4775-add2-8c5f9927b31c","ios":"levelo://app?vid=dcf38cf0-7284-4775-add2-8c5f9927b31c"},"vehicle_type_id":"4","last_reported":1750277586,"current_range_meters":3200,"station_id":"","pricing_plan_id":"cebpf4jnsgd1na2vs0mg"},{"bike_id":"1638d4b7-aad7-49ca-8275-5b0147a4fcbd","system_id":"levelo_inurba_marseille","lat":43.29602,"lon":5.38099,"is_reserved":false,"is_disabled":false,"rental_uris":{"android":"levelo://app?vid=1638d4b7-aad7-49ca-8275-5b0147a4fcbd","ios":"levelo://app?vid=1638d4b7-aad7-49ca-8275-5b0147a4fcbd"},"vehicle_type_id":"4","last_reported":1750277586,"current_range_meters":3200,"station_id":"ce4bgl12rcd13ifvqbo0","pricing_plan_id":"cebpf4jnsgd1na2vs0mg"},{"bike_id":"12a0dc86-1822-4ec1-b0a8-350eece6cb89","system_id":"levelo_inurba_marseille","lat":43.28363,"lon":5.386433,"is_reserved":false,"is_disabled":false,"rental_uris":{"android":"levelo://app?vid=12a0dc86-1822-4ec1-b0a8-350eece6cb89","ios":"levelo://app?vid=12a0dc86-1822-4ec1-b0a8-350eece6cb89"},"vehicle_type_id":"4","last_reported":1750277586,"current_range_meters":3200,"station_id":"ce4bh492rcd13ifvqdvg","pricing_plan_id":"cebpf4jnsgd1na2vs0mg"},{"bike_id":"5bf0724d-8269-4006-b2db-d121b6323343","system_id":"levelo_inurba_marseille","lat":43.33725,"lon":5.39175,"is_reserved":false,"is_disabled":false,"rental_uris":{"android":"levelo://app?vid=5bf0724d-8269-4006-b2db-d121b6323343","ios":"levelo://app?vid=5bf0724d-8269-4006-b2db-d121b6323343"},"vehicle_type_id":"4","last_reported":1750277586,"current_range_meters":3600,"station_id":"ce4bhr92rcd13ifvqhsg","pricing_plan_id":"cebpf4jnsgd1na2vs0mg"},{"bike_id":"a623133e-c386-43c9-b2ce-8cbde74ee2df","system_id":"levelo_inurba_marseille","lat":43.32476,"lon":5.36569,"is_reserved":false,"is_disabled":false,"rental_uris":{"android":"levelo://app?vid=a623133e-c386-43c9-b2ce-8cbde74ee2df","ios":"levelo://app?vid=a623133e-c386-43c9-b2ce-8cbde74ee2df"},"vehicle_type_id":"4","last_reported":1750277586,"current_range_meters":3600,"station_id":"ce4bhs12rcd13ifvqhvg","pricing_plan_id":"cebpf4jnsgd1na2vs0mg"},{"bike_id":"85f771de-8c79-4840-9cca-51c8a5541209","system_id":"levelo_inurba_marseille","lat":43.29259,"lon":5.37619,"is_reserved":false,"is_disabled":false,"rental_uris":{"android":"levelo://app?vid=85f771de-8c79-4840-9cca-51c8a5541209","ios":"levelo://app?vid=85f771de-8c79-4840-9cca-51c8a5541209"},"vehicle_type_id":"4","last_reported":1750277586,"current_range_meters":4000,"station_id":"ce4bgi12rcd13ifvqb80","pricing_plan_id":"cebpf4jnsgd1na2vs0mg"},{"bike_id":"fb7f0fca-328c-4590-8315-5fcf92aa068d","system_id":"levelo_inurba_marseille","lat":43.33774,"lon":5.37489,"is_reserved":false,"is_disabled":false,"rental_uris":{"android":"levelo://app?vid=fb7f0fca-328c-4590-8315-5fcf92aa068d","ios":"levelo://app?vid=fb7f0fca-328c-4590-8315-5fcf92aa068d"},"vehicle_type_id":"4","last_reported":1750277586,"current_range_meters":4400,"station_id":"","pricing_plan_id":"cebpf4jnsgd1na2vs0mg"},{"bike_id":"826693c4-6ee8-496c-9948-ceb97e5076ce","system_id":"levelo_inurba_marseille","lat":43.31687,"lon":5.40474,"is_reserved":false,"is_disabled":false,"rental_uris":{"android":"levelo://app?vid=826693c4-6ee8-496c-9948-ceb97e5076ce","ios":"levelo://app?vid=826693c4-6ee8-496c-9948-ceb97e5076ce"},"vehicle_type_id":"4","last_reported":1750277586,"current_range_meters":4400,"station_id":"ce4bh012rcd13ifvqd00","pricing_plan_id":"cebpf4jnsgd1na2vs0mg"},{"bike_id":"d3fa3805-07bc-4c14-bb64-6cf9bae25f58","system_id":"levelo_inurba_marseille","lat":43.28572,"lon":5.39491,"is_reserved":false,"is_disabled":false,"rental_uris":{"android":"levelo://app?vid=d3fa3805-07bc-4c14-bb64-6cf9bae25f58","ios":"levelo://app?vid=d3fa3805-07bc-4c14-bb64-6cf9bae25f58"},"vehicle_type_id":"4","last_reported":1750277586,"current_range_meters":4400,"station_id":"ce4bh292rcd13ifvqdg0","pricing_plan_id":"cebpf4jnsgd1na2vs0mg"},{"bike_id":"6ce10a1f-0a04-4b70-8d39-c196a32af404","system_id":"levelo_inurba_marseille","lat":43.29582,"lon":5.39973,"is_reserved":false,"is_disabled":false,"rental_uris":{"android":"levelo://app?vid=6ce10a1f-0a04-4b70-8d39-c196a32af404","ios":"levelo://app?vid=6ce10a1f-0a04-4b70-8d39-c196a32af404"},"vehicle_type_id":"4","last_reported":1750277586,"current_range_meters":4800,"station_id":"ce4bh312rcd13ifvqdj0","pricing_plan_id":"cebpf4jnsgd1na2vs0mg"},{"bike_id":"d431f049-c906-4a15-b706-47932f8b7aa6","system_id":"levelo_inurba_marseille","lat":43.28919,"lon":5.38379,"is_reserved":false,"is_disabled":false,"rental_uris":{"android":"levelo://app?vid=d431f049-c906-4a15-b706-47932f8b7aa6","ios":"levelo://app?vid=d431f049-c906-4a15-b706-47932f8b7aa6"},"vehicle_type_id":"4","last_reported":1750277586,"current_range_meters":4800,"station_id":"ce4bh612rcd13ifvqe6g","pricing_plan_id":"cebpf4jnsgd1na2vs0mg"},{"bike_id":"0c2732ce-a727-46b0-af5a-af7ba2098b27","system_id":"levelo_inurba_marseille","lat":43.33781,"lon":5.37497,"is_reserved":false,"is_disabled":false,"rental_uris":{"android":"levelo://app?vid=0c2732ce-a727-46b0-af5a-af7ba2098b27","ios":"levelo://app?vid=0c2732ce-a727-46b0-af5a-af7ba2098b27"},"vehicle_type_id":"4","last_reported":1750277586,"current_range_meters":5600,"station_id":"","pricing_plan_id":"cebpf4jnsgd1na2vs0mg"},{"bike_id":"e43a5075-5ddc-492c-bd83-8c2f3f843ed6","system_id":"levelo_inurba_marseille","lat":43.290238,"lon":5.386383,"is_reserved":false,"is_disabled":false,"rental_uris":{"android":"levelo://app?vid=e43a5075-5ddc-492c-bd83-8c2f3f843ed6","ios":"levelo://app?vid=e43a5075-5ddc-492c-bd83-8c2f3f843ed6"},"vehicle_type_id":"4","last_reported":1750277586,"current_range_meters":5600,"station_id":"ce4bh4p2rcd13ifvqe0g","pricing_plan_id":"cebpf4jnsgd1na2vs0mg"},{"bike_id":"8c86e293-f43a-46bb-9ce7-489eedadd4ec","system_id":"levelo_inurba_marseille","lat":43.27212,"lon":5.39168,"is_reserved":false,"is_disabled":false,"rental_uris":{"android":"levelo://app?vid=8c86e293-f43a-46bb-9ce7-489eedadd4ec","ios":"levelo://app?vid=8c86e293-f43a-46bb-9ce7-489eedadd4ec"},"vehicle_type_id":"4","last_reported":1750277586,"current_range_meters":5600,"station_id":"ce4bhhp2rcd13ifvqfm0","pricing_plan_id":"cebpf4jnsgd1na2vs0mg"},{"bike_id":"d8668b9e-841c-4a6d-93f7-b45609b7b3c9","system_id":"levelo_inurba_marseille","lat":43.28442,"lon":5.39195,"is_reserved":false,"is_disabled":false,"rental_uris":{"android":"levelo://app?vid=d8668b9e-841c-4a6d-93f7-b45609b7b3c9","ios":"levelo://app?vid=d8668b9e-841c-4a6d-93f7-b45609b7b3c9"},"vehicle_type_id":"4","last_reported":1750277586,"current_range_meters":5600,"station_id":"ce4bhoh2rcd13ifvqh5g","pricing_plan_id":"cebpf4jnsgd1na2vs0mg"},{"bike_id":"64b8b83e-503a-4015-b7c1-3bd9b6c0bb97","system_id":"levelo_inurba_marseille","lat":43.30366,"lon":5.45138,"is_reserved":false,"is_disabled":false,"rental_uris":{"android":"levelo://app?vid=64b8b83e-503a-4015-b7c1-3bd9b6c0bb97","ios":"levelo://app?vid=64b8b83e-503a-4015-b7c1-3bd9b6c0bb97"},"vehicle_type_id":"4","last_reported":1750277586,"current_range_meters":6000,"station_id":"","pricing_plan_id":"cebpf4jnsgd1na2vs0mg"},{"bike_id":"c9d18fab-5ca0-4e7c-827e-e7e386b12124","system_id":"levelo_inurba_marseille","lat":43.30529,"lon":5.38408,"is_reserved":false,"is_disabled":false,"rental_uris":{"android":"levelo://app?vid=c9d18fab-5ca0-4e7c-827e-e7e386b12124","ios":"levelo://app?vid=c9d18fab-5ca0-4e7c-827e-e7e386b12124"},"vehicle_type_id":"4","last_reported":1750277586,"current_range_meters":6000,"station_id":"ce4bgg92rcd13ifvqb30","pricing_plan_id":"cebpf4jnsgd1na2vs0mg"},{"bike_id":"ddb9b70d-db61-4f52-8fc3-611162a80857","system_id":"levelo_inurba_marseille","lat":43.2794,"lon":5.41044,"is_reserved":false,"is_disabled":false,"rental_uris":{"android":"levelo://app?vid=ddb9b70d-db61-4f52-8fc3-611162a80857","ios":"levelo://app?vid=ddb9b70d-db61-4f52-8fc3-611162a80857"},"vehicle_type_id":"4","last_reported":1750277586,"current_range_meters":6000,"station_id":"ce4bhnp2rcd13ifvqh0g","pricing_plan_id":"cebpf4jnsgd1na2vs0mg"},{"bike_id":"13603010-4ba6-45d8-8742-faf7a41367fa","system_id":"levelo_inurba_marseille","lat":43.29192,"lon":5.38276,"is_reserved":false,"is_disabled":false,"rental_uris":{"android":"levelo://app?vid=13603010-4ba6-45d8-8742-faf7a41367fa","ios":"levelo://app?vid=13603010-4ba6-45d8-8742-faf7a41367fa"},"vehicle_type_id":"4","last_reported":1750277586,"current_range_meters":6400,"station_id":"","pricing_plan_id":"cebpf4jnsgd1na2vs0mg"},{"bike_id":"dd06e3ac-22dd-4430-858c-a433dce6b321","system_id":"levelo_inurba_marseille","lat":43.29806,"lon":5.36408,"is_reserved":false,"is_disabled":false,"rental_uris":{"android":"levelo://app?vid=dd06e3ac-22dd-4430-858c-a433dce6b321","ios":"levelo://app?vid=dd06e3ac-22dd-4430-858c-a433dce6b321"},"vehicle_type_id":"4","last_reported":1750277586,"current_range_meters":6400,"station_id":"","pricing_plan_id":"cebpf4jnsgd1na2vs0mg"},{"bike_id":"820df921-69fc-426c-b325-82acf4918bb0","system_id":"levelo_inurba_marseille","lat":43.30604,"lon":5.372023,"is_reserved":false,"is_disabled":false,"rental_uris":{"android":"levelo://app?vid=820df921-69fc-426c-b325-82acf4918bb0","ios":"levelo://app?vid=820df921-69fc-426c-b325-82acf4918bb0"},"vehicle_type_id":"4","last_reported":1750277586,"current_range_meters":6400,"station_id":"ce4bgqh2rcd13ifvqc4g","pricing_plan_id":"cebpf4jnsgd1na2vs0mg"},{"bike_id":"84d567e8-44c2-45e5-ba71-d239d2622af2","system_id":"levelo_inurba_marseille","lat":43.31354,"lon":5.36706,"is_reserved":false,"is_disabled":false,"rental_uris":{"android":"levelo://app?vid=84d567e8-44c2-45e5-ba71-d239d2622af2","ios":"levelo://app?vid=84d567e8-44c2-45e5-ba71-d239d2622af2"},"vehicle_type_id":"4","last_reported":1750277586,"current_range_meters":6400,"station_id":"ce4bgr92rcd13ifvqc6g","pricing_plan_id":"cebpf4jnsgd1na2vs0mg"},{"bike_id":"831e93f4-aad3-4d88-8b8c-f109843f58c1","system_id":"levelo_inurba_marseille","lat":43.29867,"lon":5.39728,"is_reserved":false,"is_disabled":false,"rental_uris":{"android":"levelo://app?vid=831e93f4-aad3-4d88-8b8c-f109843f58c1","ios":"levelo://app?vid=831e93f4-aad3-4d88-8b8c-f109843f58c1"},"vehicle_type_id":"4","last_reported":1750277586,"current_range_meters":6400,"station_id":"ce4bh0h2rcd13ifvqd50","pricing_plan_id":"cebpf4jnsgd1na2vs0mg"},{"bike_id":"d4b2375e-15c2-4b2f-a628-6d423b46231b","system_id":"levelo_inurba_marseille","lat":43.24265,"lon":5.41168,"is_reserved":false,"is_disabled":false,"rental_uris":{"android":"levelo://app?vid=d4b2375e-15c2-4b2f-a628-6d423b46231b","ios":"levelo://app?vid=d4b2375e-15c2-4b2f-a628-6d423b46231b"},"vehicle_type_id":"4","last_reported":1750277586,"current_range_meters":6800,"station_id":"","pricing_plan_id":"cebpf4jnsgd1na2vs0mg"},{"bike_id":"94bcc58f-7023-41cb-871b-3595da7eac8b","system_id":"levelo_inurba_marseille","lat":43.33093,"lon":5.38063,"is_reserved":false,"is_disabled":false,"rental_uris":{"android":"levelo://app?vid=94bcc58f-7023-41cb-871b-3595da7eac8b","ios":"levelo://app?vid=94bcc58f-7023-41cb-871b-3595da7eac8b"},"vehicle_type_id":"4","last_reported":1750277586,"current_range_meters":6800,"station_id":"","pricing_plan_id":"cebpf4jnsgd1na2vs0mg"},{"bike_id":"884efa12-ce77-4eba-9082-28398d130c75","system_id":"levelo_inurba_marseille","lat":43.30754,"lon":5.41069,"is_reserved":false,"is_disabled":false,"rental_uris":{"android":"levelo://app?vid=884efa12-ce77-4eba-9082-28398d130c75","ios":"levelo://app?vid=884efa12-ce77-4eba-9082-28398d130c75"},"vehicle_type_id":"4","last_reported":1750277586,"current_range_meters":7200,"station_id":"","pricing_plan_id":"cebpf4jnsgd1na2vs0mg"},{"bike_id":"6f3a0055-18ce-456d-886f-5dd53c809fc5","system_id":"levelo_inurba_marseille","lat":43.2677,"lon":5.42533,"is_reserved":false,"is_disabled":false,"rental_uris":{"android":"levelo://app?vid=6f3a0055-18ce-456d-886f-5dd53c809fc5","ios":"levelo://app?vid=6f3a0055-18ce-456d-886f-5dd53c809fc5"},"vehicle_type_id":"4","last_reported":1750277586,"current_range_meters":7200,"station_id":"","pricing_plan_id":"cebpf4jnsgd1na2vs0mg"},{"bike_id":"3b6cb134-fba5-4c92-a083-0b826b3d0167","system_id":"levelo_inurba_marseille","lat":43.29934,"lon":5.3655,"is_reserved":false,"is_disabled":false,"rental_uris":{"android":"levelo://app?vid=3b6cb134-fba5-4c92-a083-0b826b3d0167","ios":"levelo://app?vid=3b6cb134-fba5-4c92-a083-0b826b3d0167"},"vehicle_type_id":"4","last_reported":1750277586,"current_range_meters":7200,"station_id":"ce4bgm92rcd13ifvqbr0","pricing_plan_id":"cebpf4jnsgd1na2vs0mg"},{"bike_id":"de081a37-55a9-4346-bc21-490926bf27cf","system_id":"levelo_inurba_marseille","lat":43.31114,"lon":5.37769,"is_reserved":false,"is_disabled":false,"rental_uris":{"android":"levelo://app?vid=de081a37-55a9-4346-bc21-490926bf27cf","ios":"levelo://app?vid=de081a37-55a9-4346-bc21-490926bf27cf"},"vehicle_type_id":"4","last_reported":1750277586,"current_range_meters":7200,"station_id":"ce4bgt92rcd13ifvqcg0","pricing_plan_id":"cebpf4jnsgd1na2vs0mg"},{"bike_id":"88f23c07-619f-46a6-a32d-485b66e4685f","system_id":"levelo_inurba_marseille","lat":43.30889,"lon":5.37193,"is_reserved":false,"is_disabled":false,"rental_uris":{"android":"levelo://app?vid=88f23c07-619f-46a6-a32d-485b66e4685f","ios":"levelo://app?vid=88f23c07-619f-46a6-a32d-485b66e4685f"},"vehicle_type_id":"4","last_reported":1750277586,"current_range_meters":7200,"station_id":"ce4bguh2rcd13ifvqckg","pricing_plan_id":"cebpf4jnsgd1na2vs0mg"},{"bike_id":"ec66c7f3-2806-44f1-9ab3-324e57926596","system_id":"levelo_inurba_marseille","lat":43.28461,"lon":5.3588,"is_reserved":false,"is_disabled":false,"rental_uris":{"android":"levelo://app?vid=ec66c7f3-2806-44f1-9ab3-324e57926596","ios":"levelo://app?vid=ec66c7f3-2806-44f1-9ab3-324e57926596"},"vehicle_type_id":"4","last_reported":1750277586,"current_range_meters":7200,"station_id":"ce4bhah2rcd13ifvqei0","pricing_plan_id":"cebpf4jnsgd1na2vs0mg"},{"bike_id":"b5002037-f4b0-4634-8bc4-796d0c74810e","system_id":"levelo_inurba_marseille","lat":43.24394,"lon":5.41178,"is_reserved":false,"is_disabled":false,"rental_uris":{"android":"levelo://app?vid=b5002037-f4b0-4634-8bc4-796d0c74810e","ios":"levelo://app?vid=b5002037-f4b0-4634-8bc4-796d0c74810e"},"vehicle_type_id":"4","last_reported":1750277586,"current_range_meters":8000,"station_id":"","pricing_plan_id":"cebpf4jnsgd1na2vs0mg"},{"bike_id":"e0d45a33-1b63-4e52-821d-fc2e49380db6","system_id":"levelo_inurba_marseille","lat":43.29968,"lon":5.38487,"is_reserved":false,"is_disabled":false,"rental_uris":{"android":"levelo://app?vid=e0d45a33-1b63-4e52-821d-fc2e49380db6","ios":"levelo://app?vid=e0d45a33-1b63-4e52-821d-fc2e49380db6"},"vehicle_type_id":"4","last_reported":1750277586,"current_range_meters":8000,"station_id":"ce4bgj92rcd13ifvqbd0","pricing_plan_id":"cebpf4jnsgd1na2vs0mg"},{"bike_id":"f2b6e30e-6073-444b-b52c-fd77be86ce21","system_id":"levelo_inurba_marseille","lat":43.31344,"lon":5.36723,"is_reserved":false,"is_disabled":false,"rental_uris":{"android":"levelo://app?vid=f2b6e30e-6073-444b-b52c-fd77be86ce21","ios":"levelo://app?vid=f2b6e30e-6073-444b-b52c-fd77be86ce21"},"vehicle_type_id":"4","last_reported":1750277586,"current_range_meters":8000,"station_id":"ce4bgr92rcd13ifvqc6g","pricing_plan_id":"cebpf4jnsgd1na2vs0mg"},{"bike_id":"00f3c575-dac7-4235-871a-3c08aedd71f0","system_id":"levelo_inurba_marseille","lat":43.29031,"lon":5.39963,"is_reserved":false,"is_disabled":false,"rental_uris":{"android":"levelo://app?vid=00f3c575-dac7-4235-871a-3c08aedd71f0","ios":"levelo://app?vid=00f3c575-dac7-4235-871a-3c08aedd71f0"},"vehicle_type_id":"4","last_reported":1750277586,"current_range_meters":8000,"station_id":"ce4bh392rcd13ifvqdm0","pricing_plan_id":"cebpf4jnsgd1na2vs0mg"},{"bike_id":"a6e37866-6d21-41f6-9031-8a92d154c48e","system_id":"levelo_inurba_marseille","lat":43.275708,"lon":5.384287,"is_reserved":false,"is_disabled":false,"rental_uris":{"android":"levelo://app?vid=a6e37866-6d21-41f6-9031-8a92d154c48e","ios":"levelo://app?vid=a6e37866-6d21-41f6-9031-8a92d154c48e"},"vehicle_type_id":"4","last_reported":1750277586,"current_range_meters":8000,"station_id":"ce4bhh92rcd13ifvqfi0","pricing_plan_id":"cebpf4jnsgd1na2vs0mg"},{"bike_id":"76e5320a-a0bb-453a-a203-a0565e7068a0","system_id":"levelo_inurba_marseille","lat":43.257138,"lon":5.411074,"is_reserved":false,"is_disabled":false,"rental_uris":{"android":"levelo://app?vid=76e5320a-a0bb-453a-a203-a0565e7068a0","ios":"levelo://app?vid=76e5320a-a0bb-453a-a203-a0565e7068a0"},"vehicle_type_id":"4","last_reported":1750277586,"current_range_meters":8000,"station_id":"ce4bhkp2rcd13ifvqgd0","pricing_plan_id":"cebpf4jnsgd1na2vs0mg"},{"bike_id":"ebd79978-2fa2-4399-b64d-924d9be99ea5","system_id":"levelo_inurba_marseille","lat":43.24164,"lon":5.36394,"is_reserved":false,"is_disabled":false,"rental_uris":{"android":"levelo://app?vid=ebd79978-2fa2-4399-b64d-924d9be99ea5","ios":"levelo://app?vid=ebd79978-2fa2-4399-b64d-924d9be99ea5"},"vehicle_type_id":"4","last_reported":1750277586,"current_range_meters":8000,"station_id":"cpo36qri1sfpv3e86is0","pricing_plan_id":"cebpf4jnsgd1na2vs0mg"},{"bike_id":"dbae5f57-0fc1-4f5f-b585-58ef01ef7e55","system_id":"levelo_inurba_marseille","lat":43.21747,"lon":5.34603,"is_reserved":false,"is_disabled":false,"rental_uris":{"android":"levelo://app?vid=dbae5f57-0fc1-4f5f-b585-58ef01ef7e55","ios":"levelo://app?vid=dbae5f57-0fc1-4f5f-b585-58ef01ef7e55"},"vehicle_type_id":"4","last_reported":1750277586,"current_range_meters":8000,"station_id":"st_cvj6r9ubvosntc0bgbag","pricing_plan_id":"cebpf4jnsgd1na2vs0mg"},{"bike_id":"e337736f-e6a8-4d8d-89ec-8cf78ed1faf1","system_id":"levelo_inurba_marseille","lat":43.21751,"lon":5.34606,"is_reserved":false,"is_disabled":false,"rental_uris":{"android":"levelo://app?vid=e337736f-e6a8-4d8d-89ec-8cf78ed1faf1","ios":"levelo://app?vid=e337736f-e6a8-4d8d-89ec-8cf78ed1faf1"},"vehicle_type_id":"4","last_reported":1750277586,"current_range_meters":8000,"station_id":"st_cvj6r9ubvosntc0bgbag","pricing_plan_id":"cebpf4jnsgd1na2vs0mg"},{"bike_id":"38e6eed7-5269-471e-ab11-65ab6c97e8be","system_id":"levelo_inurba_marseille","lat":43.21733,"lon":5.34601,"is_reserved":false,"is_disabled":false,"rental_uris":{"android":"levelo://app?vid=38e6eed7-5269-471e-ab11-65ab6c97e8be","ios":"levelo://app?vid=38e6eed7-5269-471e-ab11-65ab6c97e8be"},"vehicle_type_id":"4","last_reported":1750277586,"current_range_meters":8000,"station_id":"st_cvj6r9ubvosntc0bgbag","pricing_plan_id":"cebpf4jnsgd1na2vs0mg"},{"bike_id":"75fd588d-acfb-46e9-8dd8-1fb428c7a2d5","system_id":"levelo_inurba_marseille","lat":43.33783,"lon":5.37477,"is_reserved":false,"is_disabled":false,"rental_uris":{"android":"levelo://app?vid=75fd588d-acfb-46e9-8dd8-1fb428c7a2d5","ios":"levelo://app?vid=75fd588d-acfb-46e9-8dd8-1fb428c7a2d5"},"vehicle_type_id":"4","last_reported":1750277586,"current_range_meters":8400,"station_id":"","pricing_plan_id":"cebpf4jnsgd1na2vs0mg"},{"bike_id":"93df9d15-0637-4de0-8853-e00bf7e73594","system_id":"levelo_inurba_marseille","lat":43.29532,"lon":5.38538,"is_reserved":false,"is_disabled":false,"rental_uris":{"android":"levelo://app?vid=93df9d15-0637-4de0-8853-e00bf7e73594","ios":"levelo://app?vid=93df9d15-0637-4de0-8853-e00bf7e73594"},"vehicle_type_id":"4","last_reported":1750277586,"current_range_meters":8400,"station_id":"ce4bgih2rcd13ifvqba0","pricing_plan_id":"cebpf4jnsgd1na2vs0mg"},{"bike_id":"e74ec53c-5d28-4a0c-9275-8d1a60721385","system_id":"levelo_inurba_marseille","lat":43.29045,"lon":5.38156,"is_reserved":false,"is_disabled":false,"rental_uris":{"android":"levelo://app?vid=e74ec53c-5d28-4a0c-9275-8d1a60721385","ios":"levelo://app?vid=e74ec53c-5d28-4a0c-9275-8d1a60721385"},"vehicle_type_id":"4","last_reported":1750277586,"current_range_meters":8400,"station_id":"ce4bh512rcd13ifvqe2g","pricing_plan_id":"cebpf4jnsgd1na2vs0mg"},{"bike_id":"1155f4e4-e3a8-43a1-a25d-53ea44126d9c","system_id":"levelo_inurba_marseille","lat":43.2465,"lon":5.38895,"is_reserved":false,"is_disabled":false,"rental_uris":{"android":"levelo://app?vid=1155f4e4-e3a8-43a1-a25d-53ea44126d9c","ios":"levelo://app?vid=1155f4e4-e3a8-43a1-a25d-53ea44126d9c"},"vehicle_type_id":"4","last_reported":1750277586,"current_range_meters":8400,"station_id":"ce4bhg12rcd13ifvqf60","pricing_plan_id":"cebpf4jnsgd1na2vs0mg"},{"bike_id":"83cfee7d-980d-496a-98c8-745c7e44c68d","system_id":"levelo_inurba_marseille","lat":43.3288,"lon":5.39087,"is_reserved":false,"is_disabled":false,"rental_uris":{"android":"levelo://app?vid=83cfee7d-980d-496a-98c8-745c7e44c68d","ios":"levelo://app?vid=83cfee7d-980d-496a-98c8-745c7e44c68d"},"vehicle_type_id":"4","last_reported":1750277586,"current_range_meters":8800,"station_id":"","pricing_plan_id":"cebpf4jnsgd1na2vs0mg"},{"bike_id":"06deb1ea-4963-455c-9c36-fe4d2c6900b2","system_id":"levelo_inurba_marseille","lat":43.30098,"lon":5.39069,"is_reserved":false,"is_disabled":false,"rental_uris":{"android":"levelo://app?vid=06deb1ea-4963-455c-9c36-fe4d2c6900b2","ios":"levelo://app?vid=06deb1ea-4963-455c-9c36-fe4d2c6900b2"},"vehicle_type_id":"4","last_reported":1750277586,"current_range_meters":8800,"station_id":"ce4bh192rcd13ifvqdb0","pricing_plan_id":"cebpf4jnsgd1na2vs0mg"},{"bike_id":"17054a50-bb14-4390-a814-1acf48f044c5","system_id":"levelo_inurba_marseille","lat":43.29027,"lon":5.38636,"is_reserved":false,"is_disabled":false,"rental_uris":{"android":"levelo://app?vid=17054a50-bb14-4390-a814-1acf48f044c5","ios":"levelo://app?vid=17054a50-bb14-4390-a814-1acf48f044c5"},"vehicle_type_id":"4","last_reported":1750277586,"current_range_meters":8800,"station_id":"ce4bh4p2rcd13ifvqe0g","pricing_plan_id":"cebpf4jnsgd1na2vs0mg"},{"bike_id":"7144d01a-118b-4255-8940-6f5421f910bd","system_id":"levelo_inurba_marseille","lat":43.29026,"lon":5.38641,"is_reserved":false,"is_disabled":false,"rental_uris":{"android":"levelo://app?vid=7144d01a-118b-4255-8940-6f5421f910bd","ios":"levelo://app?vid=7144d01a-118b-4255-8940-6f5421f910bd"},"vehicle_type_id":"4","last_reported":1750277586,"current_range_meters":8800,"station_id":"ce4bh4p2rcd13ifvqe0g","pricing_plan_id":"cebpf4jnsgd1na2vs0mg"},{"bike_id":"58088732-0ef7-4f84-b819-f4127416e820","system_id":"levelo_inurba_marseille","lat":43.29267,"lon":5.38442,"is_reserved":false,"is_disabled":false,"rental_uris":{"android":"levelo://app?vid=58088732-0ef7-4f84-b819-f4127416e820","ios":"levelo://app?vid=58088732-0ef7-4f84-b819-f4127416e820"},"vehicle_type_id":"4","last_reported":1750277586,"current_range_meters":8800,"station_id":"ce4bh692rcd13ifvqea0","pricing_plan_id":"cebpf4jnsgd1na2vs0mg"},{"bike_id":"ce70baa5-5633-4b90-8d7e-9509f4b57f9a","system_id":"levelo_inurba_marseille","lat":43.28463,"lon":5.35887,"is_reserved":false,"is_disabled":false,"rental_uris":{"android":"levelo://app?vid=ce70baa5-5633-4b90-8d7e-9509f4b57f9a","ios":"levelo://app?vid=ce70baa5-5633-4b90-8d7e-9509f4b57f9a"},"vehicle_type_id":"4","last_reported":1750277586,"current_range_meters":8800,"station_id":"ce4bhah2rcd13ifvqei0","pricing_plan_id":"cebpf4jnsgd1na2vs0mg"},{"bike_id":"fff6391a-7306-40b8-86b3-a922b577d688","system_id":"levelo_inurba_marseille","lat":43.24649,"lon":5.38889,"is_reserved":false,"is_disabled":false,"rental_uris":{"android":"levelo://app?vid=fff6391a-7306-40b8-86b3-a922b577d688","ios":"levelo://app?vid=fff6391a-7306-40b8-86b3-a922b577d688"},"vehicle_type_id":"4","last_reported":1750277586,"current_range_meters":8800,"station_id":"ce4bhg12rcd13ifvqf60","pricing_plan_id":"cebpf4jnsgd1na2vs0mg"},{"bike_id":"5b64672e-b786-4fe7-9953-7da2f8feeb90","system_id":"levelo_inurba_marseille","lat":43.30331,"lon":5.40085,"is_reserved":false,"is_disabled":false,"rental_uris":{"android":"levelo://app?vid=5b64672e-b786-4fe7-9953-7da2f8feeb90","ios":"levelo://app?vid=5b64672e-b786-4fe7-9953-7da2f8feeb90"},"vehicle_type_id":"4","last_reported":1750277586,"current_range_meters":9200,"station_id":"","pricing_plan_id":"cebpf4jnsgd1na2vs0mg"},{"bike_id":"7a529732-96e1-4df8-9c07-7982cd2e9e83","system_id":"levelo_inurba_marseille","lat":43.3053,"lon":5.38428,"is_reserved":false,"is_disabled":false,"rental_uris":{"android":"levelo://app?vid=7a529732-96e1-4df8-9c07-7982cd2e9e83","ios":"levelo://app?vid=7a529732-96e1-4df8-9c07-7982cd2e9e83"},"vehicle_type_id":"4","last_reported":1750277586,"current_range_meters":9200,"station_id":"ce4bgg92rcd13ifvqb30","pricing_plan_id":"cebpf4jnsgd1na2vs0mg"},{"bike_id":"1dec58a5-b550-4159-94d0-63b5a73827c7","system_id":"levelo_inurba_marseille","lat":43.298567,"lon":5.397252,"is_reserved":false,"is_disabled":false,"rental_uris":{"android":"levelo://app?vid=1dec58a5-b550-4159-94d0-63b5a73827c7","ios":"levelo://app?vid=1dec58a5-b550-4159-94d0-63b5a73827c7"},"vehicle_type_id":"4","last_reported":1750277586,"current_range_meters":9200,"station_id":"ce4bh0h2rcd13ifvqd50","pricing_plan_id":"cebpf4jnsgd1na2vs0mg"},{"bike_id":"7ed86ac5-6144-439a-a341-4e47f25205f6","system_id":"levelo_inurba_marseille","lat":43.29576,"lon":5.39956,"is_reserved":false,"is_disabled":false,"rental_uris":{"android":"levelo://app?vid=7ed86ac5-6144-439a-a341-4e47f25205f6","ios":"levelo://app?vid=7ed86ac5-6144-439a-a341-4e47f25205f6"},"vehicle_type_id":"4","last_reported":1750277586,"current_range_meters":9200,"station_id":"ce4bh312rcd13ifvqdj0","pricing_plan_id":"cebpf4jnsgd1na2vs0mg"},{"bike_id":"641c5c57-edd1-4e50-a345-96d6a654372e","system_id":"levelo_inurba_marseille","lat":43.23186,"lon":5.39983,"is_reserved":false,"is_disabled":false,"rental_uris":{"android":"levelo://app?vid=641c5c57-edd1-4e50-a345-96d6a654372e","ios":"levelo://app?vid=641c5c57-edd1-4e50-a345-96d6a654372e"},"vehicle_type_id":"4","last_reported":1750277586,"current_range_meters":9200,"station_id":"ce4bhn12rcd13ifvqgqg","pricing_plan_id":"cebpf4jnsgd1na2vs0mg"},{"bike_id":"2503ef2d-ca38-40ac-a55a-d6d8bd08fde6","system_id":"levelo_inurba_marseille","lat":43.31581,"lon":5.36941,"is_reserved":false,"is_disabled":false,"rental_uris":{"android":"levelo://app?vid=2503ef2d-ca38-40ac-a55a-d6d8bd08fde6","ios":"levelo://app?vid=2503ef2d-ca38-40ac-a55a-d6d8bd08fde6"},"vehicle_type_id":"4","last_reported":1750277586,"current_range_meters":9600,"station_id":"","pricing_plan_id":"cebpf4jnsgd1na2vs0mg"},{"bike_id":"bf681d83-ae5d-410a-ba2f-87283af83791","system_id":"levelo_inurba_marseille","lat":43.31359,"lon":5.38492,"is_reserved":false,"is_disabled":false,"rental_uris":{"android":"levelo://app?vid=bf681d83-ae5d-410a-ba2f-87283af83791","ios":"levelo://app?vid=bf681d83-ae5d-410a-ba2f-87283af83791"},"vehicle_type_id":"4","last_reported":1750277586,"current_range_meters":9600,"station_id":"ce4bgt92rcd13ifvqcf0","pricing_plan_id":"cebpf4jnsgd1na2vs0mg"},{"bike_id":"a7eb1525-9da1-4ff7-b4c4-324b10e5714d","system_id":"levelo_inurba_marseille","lat":43.29027,"lon":5.38639,"is_reserved":false,"is_disabled":false,"rental_uris":{"android":"levelo://app?vid=a7eb1525-9da1-4ff7-b4c4-324b10e5714d","ios":"levelo://app?vid=a7eb1525-9da1-4ff7-b4c4-324b10e5714d"},"vehicle_type_id":"4","last_reported":1750277586,"current_range_meters":9600,"station_id":"ce4bh4p2rcd13ifvqe0g","pricing_plan_id":"cebpf4jnsgd1na2vs0mg"},{"bike_id":"d29df1f3-c8ab-409e-adfe-b1cac999a396","system_id":"levelo_inurba_marseille","lat":43.26556,"lon":5.37284,"is_reserved":false,"is_disabled":false,"rental_uris":{"android":"levelo://app?vid=d29df1f3-c8ab-409e-adfe-b1cac999a396","ios":"levelo://app?vid=d29df1f3-c8ab-409e-adfe-b1cac999a396"},"vehicle_type_id":"4","last_reported":1750277586,"current_range_meters":9600,"station_id":"ce4bhg12rcd13ifvqf70","pricing_plan_id":"cebpf4jnsgd1na2vs0mg"},{"bike_id":"0a63d5b3-1624-42d8-9878-a6fe9e4f93b5","system_id":"levelo_inurba_marseille","lat":43.29778,"lon":5.39334,"is_reserved":false,"is_disabled":false,"rental_uris":{"android":"levelo://app?vid=0a63d5b3-1624-42d8-9878-a6fe9e4f93b5","ios":"levelo://app?vid=0a63d5b3-1624-42d8-9878-a6fe9e4f93b5"},"vehicle_type_id":"4","last_reported":1750277586,"current_range_meters":9600,"station_id":"chh1huq6cuj3fo74tm60","pricing_plan_id":"cebpf4jnsgd1na2vs0mg"},{"bike_id":"de0f7c2b-5974-4035-a240-8ed367c0e3f3","system_id":"levelo_inurba_marseille","lat":43.31969,"lon":5.37631,"is_reserved":false,"is_disabled":false,"rental_uris":{"android":"levelo://app?vid=de0f7c2b-5974-4035-a240-8ed367c0e3f3","ios":"levelo://app?vid=de0f7c2b-5974-4035-a240-8ed367c0e3f3"},"vehicle_type_id":"4","last_reported":1750277586,"current_range_meters":10000,"station_id":"","pricing_plan_id":"cebpf4jnsgd1na2vs0mg"},{"bike_id":"85b00e2f-48a4-4c63-bf99-e93dc5653500","system_id":"levelo_inurba_marseille","lat":43.30181,"lon":5.36594,"is_reserved":false,"is_disabled":false,"rental_uris":{"android":"levelo://app?vid=85b00e2f-48a4-4c63-bf99-e93dc5653500","ios":"levelo://app?vid=85b00e2f-48a4-4c63-bf99-e93dc5653500"},"vehicle_type_id":"4","last_reported":1750277586,"current_range_meters":10000,"station_id":"ce4bgrh2rcd13ifvqc8g","pricing_plan_id":"cebpf4jnsgd1na2vs0mg"},{"bike_id":"3e650156-6126-4563-b64d-edd89d310572","system_id":"levelo_inurba_marseille","lat":43.29268,"lon":5.38451,"is_reserved":false,"is_disabled":false,"rental_uris":{"android":"levelo://app?vid=3e650156-6126-4563-b64d-edd89d310572","ios":"levelo://app?vid=3e650156-6126-4563-b64d-edd89d310572"},"vehicle_type_id":"4","last_reported":1750277586,"current_range_meters":10000,"station_id":"ce4bh692rcd13ifvqea0","pricing_plan_id":"cebpf4jnsgd1na2vs0mg"},{"bike_id":"4f62a4ad-b7a6-44e5-a99b-fdb8e2306a5e","system_id":"levelo_inurba_marseille","lat":43.29261,"lon":5.38425,"is_reserved":false,"is_disabled":false,"rental_uris":{"android":"levelo://app?vid=4f62a4ad-b7a6-44e5-a99b-fdb8e2306a5e","ios":"levelo://app?vid=4f62a4ad-b7a6-44e5-a99b-fdb8e2306a5e"},"vehicle_type_id":"4","last_reported":1750277586,"current_range_meters":10000,"station_id":"ce4bh692rcd13ifvqea0","pricing_plan_id":"cebpf4jnsgd1na2vs0mg"},{"bike_id":"823a517d-79ee-47c5-becd-1ef71c4ed1a1","system_id":"levelo_inurba_marseille","lat":43.25583,"lon":5.38231,"is_reserved":false,"is_disabled":false,"rental_uris":{"android":"levelo://app?vid=823a517d-79ee-47c5-becd-1ef71c4ed1a1","ios":"levelo://app?vid=823a517d-79ee-47c5-becd-1ef71c4ed1a1"},"vehicle_type_id":"4","last_reported":1750277586,"current_range_meters":10000,"station_id":"ce4bhih2rcd13ifvqfs0","pricing_plan_id":"cebpf4jnsgd1na2vs0mg"},{"bike_id":"3518210a-6d90-482f-a11b-11cb7c94acd1","system_id":"levelo_inurba_marseille","lat":43.26452,"lon":5.39193,"is_reserved":false,"is_disabled":false,"rental_uris":{"android":"levelo://app?vid=3518210a-6d90-482f-a11b-11cb7c94acd1","ios":"levelo://app?vid=3518210a-6d90-482f-a11b-11cb7c94acd1"},"vehicle_type_id":"4","last_reported":1750277586,"current_range_meters":10800,"station_id":"","pricing_plan_id":"cebpf4jnsgd1na2vs0mg"},{"bike_id":"d83a0f04-244b-4633-bd56-be21b81ea461","system_id":"levelo_inurba_marseille","lat":43.29978,"lon":5.37178,"is_reserved":false,"is_disabled":false,"rental_uris":{"android":"levelo://app?vid=d83a0f04-244b-4633-bd56-be21b81ea461","ios":"levelo://app?vid=d83a0f04-244b-4633-bd56-be21b81ea461"},"vehicle_type_id":"4","last_reported":1750277586,"current_range_meters":10800,"station_id":"ce4bgr92rcd13ifvqc7g","pricing_plan_id":"cebpf4jnsgd1na2vs0mg"},{"bike_id":"fb505541-9a08-440d-836c-84ed4bf0071a","system_id":"levelo_inurba_marseille","lat":43.2835,"lon":5.38101,"is_reserved":false,"is_disabled":false,"rental_uris":{"android":"levelo://app?vid=fb505541-9a08-440d-836c-84ed4bf0071a","ios":"levelo://app?vid=fb505541-9a08-440d-836c-84ed4bf0071a"},"vehicle_type_id":"4","last_reported":1750277586,"current_range_meters":10800,"station_id":"ce4bh412rcd13ifvqdr0","pricing_plan_id":"cebpf4jnsgd1na2vs0mg"},{"bike_id":"9d246328-e8fb-40bc-91b8-7d195adc2824","system_id":"levelo_inurba_marseille","lat":43.29972,"lon":5.3848,"is_reserved":false,"is_disabled":false,"rental_uris":{"android":"levelo://app?vid=9d246328-e8fb-40bc-91b8-7d195adc2824","ios":"levelo://app?vid=9d246328-e8fb-40bc-91b8-7d195adc2824"},"vehicle_type_id":"4","last_reported":1750277586,"current_range_meters":11200,"station_id":"ce4bgj92rcd13ifvqbd0","pricing_plan_id":"cebpf4jnsgd1na2vs0mg"},{"bike_id":"7e045301-375a-4d2f-98e5-a08e43262fe2","system_id":"levelo_inurba_marseille","lat":43.30429,"lon":5.39751,"is_reserved":false,"is_disabled":false,"rental_uris":{"android":"levelo://app?vid=7e045301-375a-4d2f-98e5-a08e43262fe2","ios":"levelo://app?vid=7e045301-375a-4d2f-98e5-a08e43262fe2"},"vehicle_type_id":"4","last_reported":1750277586,"current_range_meters":11200,"station_id":"ce4bh092rcd13ifvqd20","pricing_plan_id":"cebpf4jnsgd1na2vs0mg"},{"bike_id":"a03bc078-481e-418e-9e4c-46a4d00a709c","system_id":"levelo_inurba_marseille","lat":43.28466,"lon":5.35871,"is_reserved":false,"is_disabled":false,"rental_uris":{"android":"levelo://app?vid=a03bc078-481e-418e-9e4c-46a4d00a709c","ios":"levelo://app?vid=a03bc078-481e-418e-9e4c-46a4d00a709c"},"vehicle_type_id":"4","last_reported":1750277586,"current_range_meters":11200,"station_id":"ce4bhah2rcd13ifvqei0","pricing_plan_id":"cebpf4jnsgd1na2vs0mg"},{"bike_id":"4b8da722-ee9e-48a4-a5e5-3a8a10364708","system_id":"levelo_inurba_marseille","lat":43.31236,"lon":5.37824,"is_reserved":false,"is_disabled":false,"rental_uris":{"android":"levelo://app?vid=4b8da722-ee9e-48a4-a5e5-3a8a10364708","ios":"levelo://app?vid=4b8da722-ee9e-48a4-a5e5-3a8a10364708"},"vehicle_type_id":"4","last_reported":1750277586,"current_range_meters":11600,"station_id":"","pricing_plan_id":"cebpf4jnsgd1na2vs0mg"},{"bike_id":"fe153a46-2ef7-45e1-8572-c7c93e6fdc59","system_id":"levelo_inurba_marseille","lat":43.29578,"lon":5.39967,"is_reserved":false,"is_disabled":false,"rental_uris":{"android":"levelo://app?vid=fe153a46-2ef7-45e1-8572-c7c93e6fdc59","ios":"levelo://app?vid=fe153a46-2ef7-45e1-8572-c7c93e6fdc59"},"vehicle_type_id":"4","last_reported":1750277586,"current_range_meters":11600,"station_id":"ce4bh312rcd13ifvqdj0","pricing_plan_id":"cebpf4jnsgd1na2vs0mg"},{"bike_id":"dcecc25f-910e-406e-9663-9a073403f0c4","system_id":"levelo_inurba_marseille","lat":43.29556,"lon":5.42289,"is_reserved":false,"is_disabled":false,"rental_uris":{"android":"levelo://app?vid=dcecc25f-910e-406e-9663-9a073403f0c4","ios":"levelo://app?vid=dcecc25f-910e-406e-9663-9a073403f0c4"},"vehicle_type_id":"4","last_reported":1750277586,"current_range_meters":11600,"station_id":"ce4bhph2rcd13ifvqhdg","pricing_plan_id":"cebpf4jnsgd1na2vs0mg"},{"bike_id":"afd32feb-85c3-4629-9049-28b88f65377e","system_id":"levelo_inurba_marseille","lat":43.217175,"lon":5.345717,"is_reserved":false,"is_disabled":false,"rental_uris":{"android":"levelo://app?vid=afd32feb-85c3-4629-9049-28b88f65377e","ios":"levelo://app?vid=afd32feb-85c3-4629-9049-28b88f65377e"},"vehicle_type_id":"4","last_reported":1750277586,"current_range_meters":11600,"station_id":"cpo3532slgdg3j2ikp40","pricing_plan_id":"cebpf4jnsgd1na2vs0mg"},{"bike_id":"b9740617-416c-49ef-a593-d345aa13726b","system_id":"levelo_inurba_marseille","lat":43.270237,"lon":5.431398,"is_reserved":false,"is_disabled":false,"rental_uris":{"android":"levelo://app?vid=b9740617-416c-49ef-a593-d345aa13726b","ios":"levelo://app?vid=b9740617-416c-49ef-a593-d345aa13726b"},"vehicle_type_id":"4","last_reported":1750277586,"current_range_meters":12000,"station_id":"","pricing_plan_id":"cebpf4jnsgd1na2vs0mg"},{"bike_id":"72a93840-ce06-492f-9c60-a46270f3b67c","system_id":"levelo_inurba_marseille","lat":43.25342,"lon":5.39471,"is_reserved":false,"is_disabled":false,"rental_uris":{"android":"levelo://app?vid=72a93840-ce06-492f-9c60-a46270f3b67c","ios":"levelo://app?vid=72a93840-ce06-492f-9c60-a46270f3b67c"},"vehicle_type_id":"4","last_reported":1750277586,"current_range_meters":12000,"station_id":"","pricing_plan_id":"cebpf4jnsgd1na2vs0mg"},{"bike_id":"0dedb6f6-6801-483b-bfb8-9cd4533d158f","system_id":"levelo_inurba_marseille","lat":43.31158,"lon":5.38071,"is_reserved":false,"is_disabled":false,"rental_uris":{"android":"levelo://app?vid=0dedb6f6-6801-483b-bfb8-9cd4533d158f","ios":"levelo://app?vid=0dedb6f6-6801-483b-bfb8-9cd4533d158f"},"vehicle_type_id":"4","last_reported":1750277586,"current_range_meters":12000,"station_id":"","pricing_plan_id":"cebpf4jnsgd1na2vs0mg"},{"bike_id":"f09e4435-0207-4cfc-9e8b-e439ec782eb3","system_id":"levelo_inurba_marseille","lat":43.29537,"lon":5.38548,"is_reserved":false,"is_disabled":false,"rental_uris":{"android":"levelo://app?vid=f09e4435-0207-4cfc-9e8b-e439ec782eb3","ios":"levelo://app?vid=f09e4435-0207-4cfc-9e8b-e439ec782eb3"},"vehicle_type_id":"4","last_reported":1750277586,"current_range_meters":12000,"station_id":"ce4bgih2rcd13ifvqba0","pricing_plan_id":"cebpf4jnsgd1na2vs0mg"},{"bike_id":"fc8a676b-a48d-4fb6-840c-5826ef82417e","system_id":"levelo_inurba_marseille","lat":43.29601,"lon":5.38101,"is_reserved":false,"is_disabled":false,"rental_uris":{"android":"levelo://app?vid=fc8a676b-a48d-4fb6-840c-5826ef82417e","ios":"levelo://app?vid=fc8a676b-a48d-4fb6-840c-5826ef82417e"},"vehicle_type_id":"4","last_reported":1750277586,"current_range_meters":12000,"station_id":"ce4bgl12rcd13ifvqbo0","pricing_plan_id":"cebpf4jnsgd1na2vs0mg"},{"bike_id":"2a98b236-cdc9-4b58-8c20-3ba23def1ca4","system_id":"levelo_inurba_marseille","lat":43.29264,"lon":5.38441,"is_reserved":false,"is_disabled":false,"rental_uris":{"android":"levelo://app?vid=2a98b236-cdc9-4b58-8c20-3ba23def1ca4","ios":"levelo://app?vid=2a98b236-cdc9-4b58-8c20-3ba23def1ca4"},"vehicle_type_id":"4","last_reported":1750277586,"current_range_meters":12000,"station_id":"ce4bh692rcd13ifvqea0","pricing_plan_id":"cebpf4jnsgd1na2vs0mg"},{"bike_id":"72945425-1aaa-4e75-9ae2-476e905a3c78","system_id":"levelo_inurba_marseille","lat":43.28027,"lon":5.36935,"is_reserved":false,"is_disabled":false,"rental_uris":{"android":"levelo://app?vid=72945425-1aaa-4e75-9ae2-476e905a3c78","ios":"levelo://app?vid=72945425-1aaa-4e75-9ae2-476e905a3c78"},"vehicle_type_id":"4","last_reported":1750277586,"current_range_meters":12000,"station_id":"ce4bha12rcd13ifvqef0","pricing_plan_id":"cebpf4jnsgd1na2vs0mg"},{"bike_id":"3eceb174-c76c-4865-a8ce-669000d3c9cb","system_id":"levelo_inurba_marseille","lat":43.26236,"lon":5.40446,"is_reserved":false,"is_disabled":false,"rental_uris":{"android":"levelo://app?vid=3eceb174-c76c-4865-a8ce-669000d3c9cb","ios":"levelo://app?vid=3eceb174-c76c-4865-a8ce-669000d3c9cb"},"vehicle_type_id":"4","last_reported":1750277586,"current_range_meters":12000,"station_id":"ce4bhmh2rcd13ifvqgmg","pricing_plan_id":"cebpf4jnsgd1na2vs0mg"},{"bike_id":"2e70f9db-9b40-4171-9cc6-1552755875e9","system_id":"levelo_inurba_marseille","lat":43.2816,"lon":5.42638,"is_reserved":false,"is_disabled":false,"rental_uris":{"android":"levelo://app?vid=2e70f9db-9b40-4171-9cc6-1552755875e9","ios":"levelo://app?vid=2e70f9db-9b40-4171-9cc6-1552755875e9"},"vehicle_type_id":"4","last_reported":1750277586,"current_range_meters":12000,"station_id":"ce4bhnh2rcd13ifvqgug","pricing_plan_id":"cebpf4jnsgd1na2vs0mg"},{"bike_id":"090d8134-33c4-46ee-b3a3-bf74142ea81d","system_id":"levelo_inurba_marseille","lat":43.286601,"lon":5.367546,"is_reserved":false,"is_disabled":false,"rental_uris":{"android":"levelo://app?vid=090d8134-33c4-46ee-b3a3-bf74142ea81d","ios":"levelo://app?vid=090d8134-33c4-46ee-b3a3-bf74142ea81d"},"vehicle_type_id":"4","last_reported":1750277586,"current_range_meters":12400,"station_id":"ce4bgj92rcd13ifvqbd0","pricing_plan_id":"cebpf4jnsgd1na2vs0mg"},{"bike_id":"d90d8cb8-30e2-4d71-8221-0f61a505d16b","system_id":"levelo_inurba_marseille","lat":43.30796,"lon":5.38149,"is_reserved":false,"is_disabled":false,"rental_uris":{"android":"levelo://app?vid=d90d8cb8-30e2-4d71-8221-0f61a505d16b","ios":"levelo://app?vid=d90d8cb8-30e2-4d71-8221-0f61a505d16b"},"vehicle_type_id":"4","last_reported":1750277586,"current_range_meters":12400,"station_id":"ce4bgt12rcd13ifvqce0","pricing_plan_id":"cebpf4jnsgd1na2vs0mg"},{"bike_id":"0e1e3d77-19bf-4e89-9bff-e6daf24c465c","system_id":"levelo_inurba_marseille","lat":43.2621,"lon":5.37444,"is_reserved":false,"is_disabled":false,"rental_uris":{"android":"levelo://app?vid=0e1e3d77-19bf-4e89-9bff-e6daf24c465c","ios":"levelo://app?vid=0e1e3d77-19bf-4e89-9bff-e6daf24c465c"},"vehicle_type_id":"4","last_reported":1750277586,"current_range_meters":12400,"station_id":"ce4bhgp2rcd13ifvqfc0","pricing_plan_id":"cebpf4jnsgd1na2vs0mg"},{"bike_id":"c53f5cdb-aaa9-4344-991b-b831c32e3a6b","system_id":"levelo_inurba_marseille","lat":43.31082,"lon":5.42433,"is_reserved":false,"is_disabled":false,"rental_uris":{"android":"levelo://app?vid=c53f5cdb-aaa9-4344-991b-b831c32e3a6b","ios":"levelo://app?vid=c53f5cdb-aaa9-4344-991b-b831c32e3a6b"},"vehicle_type_id":"4","last_reported":1750277586,"current_range_meters":12400,"station_id":"ce4bhp92rcd13ifvqhag","pricing_plan_id":"cebpf4jnsgd1na2vs0mg"},{"bike_id":"755e8ffb-6820-407a-b6c7-c67cf4c26d2a","system_id":"levelo_inurba_marseille","lat":43.32657,"lon":5.40993,"is_reserved":false,"is_disabled":false,"rental_uris":{"android":"levelo://app?vid=755e8ffb-6820-407a-b6c7-c67cf4c26d2a","ios":"levelo://app?vid=755e8ffb-6820-407a-b6c7-c67cf4c26d2a"},"vehicle_type_id":"4","last_reported":1750277586,"current_range_meters":12400,"station_id":"ce4bhpp2rcd13ifvqhgg","pricing_plan_id":"cebpf4jnsgd1na2vs0mg"},{"bike_id":"0e2c392a-764c-46ff-9ee2-994c85e16a9d","system_id":"levelo_inurba_marseille","lat":43.29867,"lon":5.39724,"is_reserved":false,"is_disabled":false,"rental_uris":{"android":"levelo://app?vid=0e2c392a-764c-46ff-9ee2-994c85e16a9d","ios":"levelo://app?vid=0e2c392a-764c-46ff-9ee2-994c85e16a9d"},"vehicle_type_id":"4","last_reported":1750277586,"current_range_meters":12800,"station_id":"ce4bh0h2rcd13ifvqd50","pricing_plan_id":"cebpf4jnsgd1na2vs0mg"},{"bike_id":"1ba4a26e-5e50-42cb-b466-ef85b3c21096","system_id":"levelo_inurba_marseille","lat":43.29279,"lon":5.40127,"is_reserved":false,"is_disabled":false,"rental_uris":{"android":"levelo://app?vid=1ba4a26e-5e50-42cb-b466-ef85b3c21096","ios":"levelo://app?vid=1ba4a26e-5e50-42cb-b466-ef85b3c21096"},"vehicle_type_id":"4","last_reported":1750277586,"current_range_meters":12800,"station_id":"ce4bh312rcd13ifvqdk0","pricing_plan_id":"cebpf4jnsgd1na2vs0mg"},{"bike_id":"edc2da4d-107e-4f6b-bb8b-ba6247d6ed21","system_id":"levelo_inurba_marseille","lat":43.29034,"lon":5.39957,"is_reserved":false,"is_disabled":false,"rental_uris":{"android":"levelo://app?vid=edc2da4d-107e-4f6b-bb8b-ba6247d6ed21","ios":"levelo://app?vid=edc2da4d-107e-4f6b-bb8b-ba6247d6ed21"},"vehicle_type_id":"4","last_reported":1750277586,"current_range_meters":12800,"station_id":"ce4bh392rcd13ifvqdm0","pricing_plan_id":"cebpf4jnsgd1na2vs0mg"},{"bike_id":"77b43f60-5104-4cac-b5b3-20b358f452c5","system_id":"levelo_inurba_marseille","lat":43.29264,"lon":5.38437,"is_reserved":false,"is_disabled":false,"rental_uris":{"android":"levelo://app?vid=77b43f60-5104-4cac-b5b3-20b358f452c5","ios":"levelo://app?vid=77b43f60-5104-4cac-b5b3-20b358f452c5"},"vehicle_type_id":"4","last_reported":1750277586,"current_range_meters":12800,"station_id":"ce4bh692rcd13ifvqea0","pricing_plan_id":"cebpf4jnsgd1na2vs0mg"},{"bike_id":"792998c9-3c9f-4ad3-8857-6140cc66a90b","system_id":"levelo_inurba_marseille","lat":43.231834,"lon":5.399816,"is_reserved":false,"is_disabled":false,"rental_uris":{"android":"levelo://app?vid=792998c9-3c9f-4ad3-8857-6140cc66a90b","ios":"levelo://app?vid=792998c9-3c9f-4ad3-8857-6140cc66a90b"},"vehicle_type_id":"4","last_reported":1750277586,"current_range_meters":13600,"station_id":"","pricing_plan_id":"cebpf4jnsgd1na2vs0mg"},{"bike_id":"dc0ac854-59c2-4773-9a3a-1829c1d34c28","system_id":"levelo_inurba_marseille","lat":43.27912,"lon":5.39579,"is_reserved":false,"is_disabled":false,"rental_uris":{"android":"levelo://app?vid=dc0ac854-59c2-4773-9a3a-1829c1d34c28","ios":"levelo://app?vid=dc0ac854-59c2-4773-9a3a-1829c1d34c28"},"vehicle_type_id":"4","last_reported":1750277586,"current_range_meters":13600,"station_id":"ce4bhf92rcd13ifvqf40","pricing_plan_id":"cebpf4jnsgd1na2vs0mg"},{"bike_id":"268aafb4-1331-426c-97bc-a7d6564caeb6","system_id":"levelo_inurba_marseille","lat":43.32933,"lon":5.37919,"is_reserved":false,"is_disabled":false,"rental_uris":{"android":"levelo://app?vid=268aafb4-1331-426c-97bc-a7d6564caeb6","ios":"levelo://app?vid=268aafb4-1331-426c-97bc-a7d6564caeb6"},"vehicle_type_id":"4","last_reported":1750277586,"current_range_meters":14000,"station_id":"","pricing_plan_id":"cebpf4jnsgd1na2vs0mg"},{"bike_id":"b922e728-6499-4123-90af-7a6f49182cce","system_id":"levelo_inurba_marseille","lat":43.29604,"lon":5.38102,"is_reserved":false,"is_disabled":false,"rental_uris":{"android":"levelo://app?vid=b922e728-6499-4123-90af-7a6f49182cce","ios":"levelo://app?vid=b922e728-6499-4123-90af-7a6f49182cce"},"vehicle_type_id":"4","last_reported":1750277586,"current_range_meters":14000,"station_id":"ce4bgl12rcd13ifvqbo0","pricing_plan_id":"cebpf4jnsgd1na2vs0mg"},{"bike_id":"da1e7c30-0d03-4328-ae88-ae277cb52044","system_id":"levelo_inurba_marseille","lat":43.29848,"lon":5.3628,"is_reserved":false,"is_disabled":false,"rental_uris":{"android":"levelo://app?vid=da1e7c30-0d03-4328-ae88-ae277cb52044","ios":"levelo://app?vid=da1e7c30-0d03-4328-ae88-ae277cb52044"},"vehicle_type_id":"4","last_reported":1750277586,"current_range_meters":14000,"station_id":"ce4bgpp2rcd13ifvqc3g","pricing_plan_id":"cebpf4jnsgd1na2vs0mg"},{"bike_id":"3d1fc9c3-122f-433f-ab35-b934f0bd89ff","system_id":"levelo_inurba_marseille","lat":43.29868,"lon":5.3891,"is_reserved":false,"is_disabled":false,"rental_uris":{"android":"levelo://app?vid=3d1fc9c3-122f-433f-ab35-b934f0bd89ff","ios":"levelo://app?vid=3d1fc9c3-122f-433f-ab35-b934f0bd89ff"},"vehicle_type_id":"4","last_reported":1750277586,"current_range_meters":14000,"station_id":"ce4bh392rcd13ifvqdl0","pricing_plan_id":"cebpf4jnsgd1na2vs0mg"},{"bike_id":"c391321b-f07e-48fe-a265-66ad55aadb6e","system_id":"levelo_inurba_marseille","lat":43.29272,"lon":5.38416,"is_reserved":false,"is_disabled":false,"rental_uris":{"android":"levelo://app?vid=c391321b-f07e-48fe-a265-66ad55aadb6e","ios":"levelo://app?vid=c391321b-f07e-48fe-a265-66ad55aadb6e"},"vehicle_type_id":"4","last_reported":1750277586,"current_range_meters":14000,"station_id":"ce4bh692rcd13ifvqea0","pricing_plan_id":"cebpf4jnsgd1na2vs0mg"},{"bike_id":"9e8a753e-1a3a-4387-a9be-de6f77f12b9d","system_id":"levelo_inurba_marseille","lat":43.24805,"lon":5.37455,"is_reserved":false,"is_disabled":false,"rental_uris":{"android":"levelo://app?vid=9e8a753e-1a3a-4387-a9be-de6f77f12b9d","ios":"levelo://app?vid=9e8a753e-1a3a-4387-a9be-de6f77f12b9d"},"vehicle_type_id":"4","last_reported":1750277586,"current_range_meters":14000,"station_id":"ce4bhgh2rcd13ifvqfb0","pricing_plan_id":"cebpf4jnsgd1na2vs0mg"},{"bike_id":"9d2a90e7-394f-41d8-ae49-77712a22ee78","system_id":"levelo_inurba_marseille","lat":43.254886,"lon":5.376403,"is_reserved":false,"is_disabled":false,"rental_uris":{"android":"levelo://app?vid=9d2a90e7-394f-41d8-ae49-77712a22ee78","ios":"levelo://app?vid=9d2a90e7-394f-41d8-ae49-77712a22ee78"},"vehicle_type_id":"4","last_reported":1750277586,"current_range_meters":14000,"station_id":"ce4bhh12rcd13ifvqff0","pricing_plan_id":"cebpf4jnsgd1na2vs0mg"},{"bike_id":"bb20faf4-85b3-4945-bb41-43e96b45a049","system_id":"levelo_inurba_marseille","lat":43.3153,"lon":5.38027,"is_reserved":false,"is_disabled":false,"rental_uris":{"android":"levelo://app?vid=bb20faf4-85b3-4945-bb41-43e96b45a049","ios":"levelo://app?vid=bb20faf4-85b3-4945-bb41-43e96b45a049"},"vehicle_type_id":"4","last_reported":1750277586,"current_range_meters":14000,"station_id":"ce4bhsp2rcd13ifvqi50","pricing_plan_id":"cebpf4jnsgd1na2vs0mg"},{"bike_id":"c85cd0ab-8e08-42ca-aec4-ee1cbfb122dd","system_id":"levelo_inurba_marseille","lat":43.29516,"lon":5.39408,"is_reserved":false,"is_disabled":false,"rental_uris":{"android":"levelo://app?vid=c85cd0ab-8e08-42ca-aec4-ee1cbfb122dd","ios":"levelo://app?vid=c85cd0ab-8e08-42ca-aec4-ee1cbfb122dd"},"vehicle_type_id":"4","last_reported":1750277586,"current_range_meters":14400,"station_id":"ce4bh292rcd13ifvqdf0","pricing_plan_id":"cebpf4jnsgd1na2vs0mg"},{"bike_id":"472de50e-6323-41ae-ae7f-5810264b6fbc","system_id":"levelo_inurba_marseille","lat":43.29873,"lon":5.38906,"is_reserved":false,"is_disabled":false,"rental_uris":{"android":"levelo://app?vid=472de50e-6323-41ae-ae7f-5810264b6fbc","ios":"levelo://app?vid=472de50e-6323-41ae-ae7f-5810264b6fbc"},"vehicle_type_id":"4","last_reported":1750277586,"current_range_meters":14400,"station_id":"ce4bh392rcd13ifvqdl0","pricing_plan_id":"cebpf4jnsgd1na2vs0mg"},{"bike_id":"8a38cb93-28bc-42d8-86bd-7dff489eb700","system_id":"levelo_inurba_marseille","lat":43.29523,"lon":5.39051,"is_reserved":false,"is_disabled":false,"rental_uris":{"android":"levelo://app?vid=8a38cb93-28bc-42d8-86bd-7dff489eb700","ios":"levelo://app?vid=8a38cb93-28bc-42d8-86bd-7dff489eb700"},"vehicle_type_id":"4","last_reported":1750277586,"current_range_meters":14400,"station_id":"ce4bh3p2rcd13ifvqdp0","pricing_plan_id":"cebpf4jnsgd1na2vs0mg"},{"bike_id":"6d995fa1-e6d1-4995-a7fd-8fe0491d9479","system_id":"levelo_inurba_marseille","lat":43.284159,"lon":5.375219,"is_reserved":false,"is_disabled":false,"rental_uris":{"android":"levelo://app?vid=6d995fa1-e6d1-4995-a7fd-8fe0491d9479","ios":"levelo://app?vid=6d995fa1-e6d1-4995-a7fd-8fe0491d9479"},"vehicle_type_id":"4","last_reported":1750277586,"current_range_meters":14400,"station_id":"ce4bh412rcd13ifvqds0","pricing_plan_id":"cebpf4jnsgd1na2vs0mg"},{"bike_id":"8a624bf8-69cd-475e-9c8f-a289938924c2","system_id":"levelo_inurba_marseille","lat":43.29032,"lon":5.38629,"is_reserved":false,"is_disabled":false,"rental_uris":{"android":"levelo://app?vid=8a624bf8-69cd-475e-9c8f-a289938924c2","ios":"levelo://app?vid=8a624bf8-69cd-475e-9c8f-a289938924c2"},"vehicle_type_id":"4","last_reported":1750277586,"current_range_meters":14400,"station_id":"ce4bh4p2rcd13ifvqe0g","pricing_plan_id":"cebpf4jnsgd1na2vs0mg"},{"bike_id":"e19c5d0b-0d9e-4d79-8e3e-f772e7d1d4cf","system_id":"levelo_inurba_marseille","lat":43.23966,"lon":5.36631,"is_reserved":false,"is_disabled":false,"rental_uris":{"android":"levelo://app?vid=e19c5d0b-0d9e-4d79-8e3e-f772e7d1d4cf","ios":"levelo://app?vid=e19c5d0b-0d9e-4d79-8e3e-f772e7d1d4cf"},"vehicle_type_id":"4","last_reported":1750277586,"current_range_meters":14400,"station_id":"ce4bhi12rcd13ifvqfp0","pricing_plan_id":"cebpf4jnsgd1na2vs0mg"},{"bike_id":"0699c293-73c5-48a3-b557-26fcc4e821f2","system_id":"levelo_inurba_marseille","lat":43.32301,"lon":5.38254,"is_reserved":false,"is_disabled":false,"rental_uris":{"android":"levelo://app?vid=0699c293-73c5-48a3-b557-26fcc4e821f2","ios":"levelo://app?vid=0699c293-73c5-48a3-b557-26fcc4e821f2"},"vehicle_type_id":"4","last_reported":1750277586,"current_range_meters":14400,"station_id":"ce4bhr12rcd13ifvqhqg","pricing_plan_id":"cebpf4jnsgd1na2vs0mg"},{"bike_id":"eaaa9fcd-34d4-4d0b-8f90-fbf605a0610f","system_id":"levelo_inurba_marseille","lat":43.211954,"lon":5.350664,"is_reserved":false,"is_disabled":false,"rental_uris":{"android":"levelo://app?vid=eaaa9fcd-34d4-4d0b-8f90-fbf605a0610f","ios":"levelo://app?vid=eaaa9fcd-34d4-4d0b-8f90-fbf605a0610f"},"vehicle_type_id":"4","last_reported":1750277586,"current_range_meters":14400,"station_id":"st_cvj6sg6p6f1abm77japg","pricing_plan_id":"cebpf4jnsgd1na2vs0mg"},{"bike_id":"f025e0b0-8595-426c-b214-cb9b74c5fcfd","system_id":"levelo_inurba_marseille","lat":43.32198,"lon":5.40571,"is_reserved":false,"is_disabled":false,"rental_uris":{"android":"levelo://app?vid=f025e0b0-8595-426c-b214-cb9b74c5fcfd","ios":"levelo://app?vid=f025e0b0-8595-426c-b214-cb9b74c5fcfd"},"vehicle_type_id":"4","last_reported":1750277586,"current_range_meters":14800,"station_id":"","pricing_plan_id":"cebpf4jnsgd1na2vs0mg"},{"bike_id":"56fdfc4e-979c-4ed5-9885-57018d76de79","system_id":"levelo_inurba_marseille","lat":43.29353,"lon":5.42831,"is_reserved":false,"is_disabled":false,"rental_uris":{"android":"levelo://app?vid=56fdfc4e-979c-4ed5-9885-57018d76de79","ios":"levelo://app?vid=56fdfc4e-979c-4ed5-9885-57018d76de79"},"vehicle_type_id":"4","last_reported":1750277586,"current_range_meters":14800,"station_id":"","pricing_plan_id":"cebpf4jnsgd1na2vs0mg"},{"bike_id":"2b42d6aa-51e7-42db-ae35-66df507e871f","system_id":"levelo_inurba_marseille","lat":43.30886,"lon":5.39654,"is_reserved":false,"is_disabled":false,"rental_uris":{"android":"levelo://app?vid=2b42d6aa-51e7-42db-ae35-66df507e871f","ios":"levelo://app?vid=2b42d6aa-51e7-42db-ae35-66df507e871f"},"vehicle_type_id":"4","last_reported":1750277586,"current_range_meters":14800,"station_id":"ce4bh012rcd13ifvqcv0","pricing_plan_id":"cebpf4jnsgd1na2vs0mg"},{"bike_id":"8fa32756-371a-4795-b65c-53bf71acc125","system_id":"levelo_inurba_marseille","lat":43.29435,"lon":5.39744,"is_reserved":false,"is_disabled":false,"rental_uris":{"android":"levelo://app?vid=8fa32756-371a-4795-b65c-53bf71acc125","ios":"levelo://app?vid=8fa32756-371a-4795-b65c-53bf71acc125"},"vehicle_type_id":"4","last_reported":1750277586,"current_range_meters":14800,"station_id":"ce4bh3h2rcd13ifvqdo0","pricing_plan_id":"cebpf4jnsgd1na2vs0mg"},{"bike_id":"b6b60658-afcc-4797-a1c4-3f8ec988c01f","system_id":"levelo_inurba_marseille","lat":43.29277,"lon":5.38442,"is_reserved":false,"is_disabled":false,"rental_uris":{"android":"levelo://app?vid=b6b60658-afcc-4797-a1c4-3f8ec988c01f","ios":"levelo://app?vid=b6b60658-afcc-4797-a1c4-3f8ec988c01f"},"vehicle_type_id":"4","last_reported":1750277586,"current_range_meters":14800,"station_id":"ce4bh692rcd13ifvqea0","pricing_plan_id":"cebpf4jnsgd1na2vs0mg"},{"bike_id":"54b60a8d-4f9f-439c-aa2f-fab6f6ee0f8c","system_id":"levelo_inurba_marseille","lat":43.25498,"lon":5.37656,"is_reserved":false,"is_disabled":false,"rental_uris":{"android":"levelo://app?vid=54b60a8d-4f9f-439c-aa2f-fab6f6ee0f8c","ios":"levelo://app?vid=54b60a8d-4f9f-439c-aa2f-fab6f6ee0f8c"},"vehicle_type_id":"4","last_reported":1750277586,"current_range_meters":14800,"station_id":"ce4bhh12rcd13ifvqff0","pricing_plan_id":"cebpf4jnsgd1na2vs0mg"},{"bike_id":"a32c9f26-736e-41ed-b0f9-589b5ca1c6de","system_id":"levelo_inurba_marseille","lat":43.231823,"lon":5.400023,"is_reserved":false,"is_disabled":false,"rental_uris":{"android":"levelo://app?vid=a32c9f26-736e-41ed-b0f9-589b5ca1c6de","ios":"levelo://app?vid=a32c9f26-736e-41ed-b0f9-589b5ca1c6de"},"vehicle_type_id":"4","last_reported":1750277586,"current_range_meters":14800,"station_id":"ce4bhn12rcd13ifvqgqg","pricing_plan_id":"cebpf4jnsgd1na2vs0mg"},{"bike_id":"e921cee3-b8ce-4c00-b7eb-8ab335b5e125","system_id":"levelo_inurba_marseille","lat":43.30184,"lon":5.42216,"is_reserved":false,"is_disabled":false,"rental_uris":{"android":"levelo://app?vid=e921cee3-b8ce-4c00-b7eb-8ab335b5e125","ios":"levelo://app?vid=e921cee3-b8ce-4c00-b7eb-8ab335b5e125"},"vehicle_type_id":"4","last_reported":1750277586,"current_range_meters":15200,"station_id":"","pricing_plan_id":"cebpf4jnsgd1na2vs0mg"},{"bike_id":"3eb9992a-e24a-4ed3-bd44-5e035e6e973e","system_id":"levelo_inurba_marseille","lat":43.31316,"lon":5.37879,"is_reserved":false,"is_disabled":false,"rental_uris":{"android":"levelo://app?vid=3eb9992a-e24a-4ed3-bd44-5e035e6e973e","ios":"levelo://app?vid=3eb9992a-e24a-4ed3-bd44-5e035e6e973e"},"vehicle_type_id":"4","last_reported":1750277586,"current_range_meters":15200,"station_id":"","pricing_plan_id":"cebpf4jnsgd1na2vs0mg"},{"bike_id":"c055a145-d39f-476b-907e-bafcfb16ea08","system_id":"levelo_inurba_marseille","lat":43.29531,"lon":5.38536,"is_reserved":false,"is_disabled":false,"rental_uris":{"android":"levelo://app?vid=c055a145-d39f-476b-907e-bafcfb16ea08","ios":"levelo://app?vid=c055a145-d39f-476b-907e-bafcfb16ea08"},"vehicle_type_id":"4","last_reported":1750277586,"current_range_meters":15200,"station_id":"ce4bgih2rcd13ifvqba0","pricing_plan_id":"cebpf4jnsgd1na2vs0mg"},{"bike_id":"f8c5663a-3edd-4762-bd2d-6bf364ae513b","system_id":"levelo_inurba_marseille","lat":43.33663,"lon":5.40948,"is_reserved":false,"is_disabled":false,"rental_uris":{"android":"levelo://app?vid=f8c5663a-3edd-4762-bd2d-6bf364ae513b","ios":"levelo://app?vid=f8c5663a-3edd-4762-bd2d-6bf364ae513b"},"vehicle_type_id":"4","last_reported":1750277586,"current_range_meters":15200,"station_id":"ce4bhqh2rcd13ifvqhmg","pricing_plan_id":"cebpf4jnsgd1na2vs0mg"},{"bike_id":"fa0ae0ed-102b-4234-907a-cfcb22a16335","system_id":"levelo_inurba_marseille","lat":43.31765,"lon":5.390051,"is_reserved":false,"is_disabled":false,"rental_uris":{"android":"levelo://app?vid=fa0ae0ed-102b-4234-907a-cfcb22a16335","ios":"levelo://app?vid=fa0ae0ed-102b-4234-907a-cfcb22a16335"},"vehicle_type_id":"4","last_reported":1750277586,"current_range_meters":15200,"station_id":"ce4bhqp2rcd13ifvqhng","pricing_plan_id":"cebpf4jnsgd1na2vs0mg"},{"bike_id":"65be88d8-1132-4ab5-8053-668d0c8dc5a6","system_id":"levelo_inurba_marseille","lat":43.22938,"lon":5.35364,"is_reserved":false,"is_disabled":false,"rental_uris":{"android":"levelo://app?vid=65be88d8-1132-4ab5-8053-668d0c8dc5a6","ios":"levelo://app?vid=65be88d8-1132-4ab5-8053-668d0c8dc5a6"},"vehicle_type_id":"4","last_reported":1750277586,"current_range_meters":15200,"station_id":"cpo3532slgdg3j2ikp40","pricing_plan_id":"cebpf4jnsgd1na2vs0mg"},{"bike_id":"fd4599e4-e395-4c46-964f-be5497697806","system_id":"levelo_inurba_marseille","lat":43.29298,"lon":5.37462,"is_reserved":false,"is_disabled":false,"rental_uris":{"android":"levelo://app?vid=fd4599e4-e395-4c46-964f-be5497697806","ios":"levelo://app?vid=fd4599e4-e395-4c46-964f-be5497697806"},"vehicle_type_id":"4","last_reported":1750277586,"current_range_meters":16000,"station_id":"ce4bgi12rcd13ifvqb70","pricing_plan_id":"cebpf4jnsgd1na2vs0mg"},{"bike_id":"b794e910-666d-42da-8aee-f4f570593ce2","system_id":"levelo_inurba_marseille","lat":43.31222,"lon":5.36852,"is_reserved":false,"is_disabled":false,"rental_uris":{"android":"levelo://app?vid=b794e910-666d-42da-8aee-f4f570593ce2","ios":"levelo://app?vid=b794e910-666d-42da-8aee-f4f570593ce2"},"vehicle_type_id":"4","last_reported":1750277586,"current_range_meters":16000,"station_id":"ce4bgl92rcd13ifvqbq0","pricing_plan_id":"cebpf4jnsgd1na2vs0mg"},{"bike_id":"59373afd-3195-4781-9d5b-c8a9910c81d8","system_id":"levelo_inurba_marseille","lat":43.30341,"lon":5.40473,"is_reserved":false,"is_disabled":false,"rental_uris":{"android":"levelo://app?vid=59373afd-3195-4781-9d5b-c8a9910c81d8","ios":"levelo://app?vid=59373afd-3195-4781-9d5b-c8a9910c81d8"},"vehicle_type_id":"4","last_reported":1750277586,"current_range_meters":16000,"station_id":"ce4bh012rcd13ifvqd10","pricing_plan_id":"cebpf4jnsgd1na2vs0mg"},{"bike_id":"d131648c-62dd-4350-a484-bb7b469ec4d5","system_id":"levelo_inurba_marseille","lat":43.23184,"lon":5.3997,"is_reserved":false,"is_disabled":false,"rental_uris":{"android":"levelo://app?vid=d131648c-62dd-4350-a484-bb7b469ec4d5","ios":"levelo://app?vid=d131648c-62dd-4350-a484-bb7b469ec4d5"},"vehicle_type_id":"4","last_reported":1750277586,"current_range_meters":16000,"station_id":"ce4bhn12rcd13ifvqgqg","pricing_plan_id":"cebpf4jnsgd1na2vs0mg"},{"bike_id":"5960303c-6ba2-4b42-b233-edc7bfea1825","system_id":"levelo_inurba_marseille","lat":43.23059,"lon":5.35487,"is_reserved":false,"is_disabled":false,"rental_uris":{"android":"levelo://app?vid=5960303c-6ba2-4b42-b233-edc7bfea1825","ios":"levelo://app?vid=5960303c-6ba2-4b42-b233-edc7bfea1825"},"vehicle_type_id":"4","last_reported":1750277586,"current_range_meters":16000,"station_id":"cpo3342slgdg3j2ifvpg","pricing_plan_id":"cebpf4jnsgd1na2vs0mg"},{"bike_id":"77ac8037-3c3c-493a-82c2-904a9ad6c7d0","system_id":"levelo_inurba_marseille","lat":43.26821,"lon":5.39052,"is_reserved":false,"is_disabled":false,"rental_uris":{"android":"levelo://app?vid=77ac8037-3c3c-493a-82c2-904a9ad6c7d0","ios":"levelo://app?vid=77ac8037-3c3c-493a-82c2-904a9ad6c7d0"},"vehicle_type_id":"4","last_reported":1750277586,"current_range_meters":16400,"station_id":"","pricing_plan_id":"cebpf4jnsgd1na2vs0mg"},{"bike_id":"a698d91f-655d-4164-a932-a635f904b56f","system_id":"levelo_inurba_marseille","lat":43.2804,"lon":5.35202,"is_reserved":false,"is_disabled":false,"rental_uris":{"android":"levelo://app?vid=a698d91f-655d-4164-a932-a635f904b56f","ios":"levelo://app?vid=a698d91f-655d-4164-a932-a635f904b56f"},"vehicle_type_id":"4","last_reported":1750277586,"current_range_meters":16400,"station_id":"","pricing_plan_id":"cebpf4jnsgd1na2vs0mg"},{"bike_id":"ae450194-32e9-4948-8385-833f23dc7436","system_id":"levelo_inurba_marseille","lat":43.30911,"lon":5.36839,"is_reserved":false,"is_disabled":false,"rental_uris":{"android":"levelo://app?vid=ae450194-32e9-4948-8385-833f23dc7436","ios":"levelo://app?vid=ae450194-32e9-4948-8385-833f23dc7436"},"vehicle_type_id":"4","last_reported":1750277586,"current_range_meters":16400,"station_id":"ce4bgn92rcd13ifvqbvg","pricing_plan_id":"cebpf4jnsgd1na2vs0mg"},{"bike_id":"38d0f90c-70ae-4fd9-beb6-11a5d45d4d10","system_id":"levelo_inurba_marseille","lat":43.308967,"lon":5.371823,"is_reserved":false,"is_disabled":false,"rental_uris":{"android":"levelo://app?vid=38d0f90c-70ae-4fd9-beb6-11a5d45d4d10","ios":"levelo://app?vid=38d0f90c-70ae-4fd9-beb6-11a5d45d4d10"},"vehicle_type_id":"4","last_reported":1750277586,"current_range_meters":16400,"station_id":"ce4bguh2rcd13ifvqckg","pricing_plan_id":"cebpf4jnsgd1na2vs0mg"},{"bike_id":"6b077483-ae80-4b7c-b303-7cf55a5d89a3","system_id":"levelo_inurba_marseille","lat":43.30097,"lon":5.39074,"is_reserved":false,"is_disabled":false,"rental_uris":{"android":"levelo://app?vid=6b077483-ae80-4b7c-b303-7cf55a5d89a3","ios":"levelo://app?vid=6b077483-ae80-4b7c-b303-7cf55a5d89a3"},"vehicle_type_id":"4","last_reported":1750277586,"current_range_meters":16400,"station_id":"ce4bh192rcd13ifvqdb0","pricing_plan_id":"cebpf4jnsgd1na2vs0mg"},{"bike_id":"35f73f11-c695-4430-80f4-f0ea94d200d6","system_id":"levelo_inurba_marseille","lat":43.26202,"lon":5.374383,"is_reserved":false,"is_disabled":false,"rental_uris":{"android":"levelo://app?vid=35f73f11-c695-4430-80f4-f0ea94d200d6","ios":"levelo://app?vid=35f73f11-c695-4430-80f4-f0ea94d200d6"},"vehicle_type_id":"4","last_reported":1750277586,"current_range_meters":16400,"station_id":"ce4bh512rcd13ifvqe3g","pricing_plan_id":"cebpf4jnsgd1na2vs0mg"},{"bike_id":"7c3164b8-16a7-439f-984d-6947b960bbdc","system_id":"levelo_inurba_marseille","lat":43.29265,"lon":5.38444,"is_reserved":false,"is_disabled":false,"rental_uris":{"android":"levelo://app?vid=7c3164b8-16a7-439f-984d-6947b960bbdc","ios":"levelo://app?vid=7c3164b8-16a7-439f-984d-6947b960bbdc"},"vehicle_type_id":"4","last_reported":1750277586,"current_range_meters":16400,"station_id":"ce4bh692rcd13ifvqea0","pricing_plan_id":"cebpf4jnsgd1na2vs0mg"},{"bike_id":"182e018c-cfb7-4d51-9cb4-29cd18fd52bb","system_id":"levelo_inurba_marseille","lat":43.29249,"lon":5.38422,"is_reserved":false,"is_disabled":false,"rental_uris":{"android":"levelo://app?vid=182e018c-cfb7-4d51-9cb4-29cd18fd52bb","ios":"levelo://app?vid=182e018c-cfb7-4d51-9cb4-29cd18fd52bb"},"vehicle_type_id":"4","last_reported":1750277586,"current_range_meters":16400,"station_id":"ce4bh692rcd13ifvqea0","pricing_plan_id":"cebpf4jnsgd1na2vs0mg"},{"bike_id":"345e610a-d89f-498f-b481-50d4aa0bbfad","system_id":"levelo_inurba_marseille","lat":43.3172,"lon":5.43709,"is_reserved":false,"is_disabled":false,"rental_uris":{"android":"levelo://app?vid=345e610a-d89f-498f-b481-50d4aa0bbfad","ios":"levelo://app?vid=345e610a-d89f-498f-b481-50d4aa0bbfad"},"vehicle_type_id":"4","last_reported":1750277586,"current_range_meters":16400,"station_id":"ce4bhp92rcd13ifvqhcg","pricing_plan_id":"cebpf4jnsgd1na2vs0mg"},{"bike_id":"057d6aa2-fcb5-4be1-9b5d-f16bb5bc60ca","system_id":"levelo_inurba_marseille","lat":43.32283,"lon":5.38261,"is_reserved":false,"is_disabled":false,"rental_uris":{"android":"levelo://app?vid=057d6aa2-fcb5-4be1-9b5d-f16bb5bc60ca","ios":"levelo://app?vid=057d6aa2-fcb5-4be1-9b5d-f16bb5bc60ca"},"vehicle_type_id":"4","last_reported":1750277586,"current_range_meters":16400,"station_id":"ce4bhr12rcd13ifvqhqg","pricing_plan_id":"cebpf4jnsgd1na2vs0mg"},{"bike_id":"a004d7f2-75e1-49e9-b073-ad13bcf23d1e","system_id":"levelo_inurba_marseille","lat":43.231947,"lon":5.355443,"is_reserved":false,"is_disabled":false,"rental_uris":{"android":"levelo://app?vid=a004d7f2-75e1-49e9-b073-ad13bcf23d1e","ios":"levelo://app?vid=a004d7f2-75e1-49e9-b073-ad13bcf23d1e"},"vehicle_type_id":"4","last_reported":1750277586,"current_range_meters":16400,"station_id":"ce4bhu92rcd13ifvqi70","pricing_plan_id":"cebpf4jnsgd1na2vs0mg"},{"bike_id":"2c555767-5c9b-4c10-a745-6bbf5ccfa066","system_id":"levelo_inurba_marseille","lat":43.2541,"lon":5.37599,"is_reserved":false,"is_disabled":false,"rental_uris":{"android":"levelo://app?vid=2c555767-5c9b-4c10-a745-6bbf5ccfa066","ios":"levelo://app?vid=2c555767-5c9b-4c10-a745-6bbf5ccfa066"},"vehicle_type_id":"4","last_reported":1750277586,"current_range_meters":16800,"station_id":"","pricing_plan_id":"cebpf4jnsgd1na2vs0mg"},{"bike_id":"c349eeeb-9f8c-4f08-9207-0f872260792b","system_id":"levelo_inurba_marseille","lat":43.29789,"lon":5.38097,"is_reserved":false,"is_disabled":false,"rental_uris":{"android":"levelo://app?vid=c349eeeb-9f8c-4f08-9207-0f872260792b","ios":"levelo://app?vid=c349eeeb-9f8c-4f08-9207-0f872260792b"},"vehicle_type_id":"4","last_reported":1750277586,"current_range_meters":16800,"station_id":"ce4bgip2rcd13ifvqbb0","pricing_plan_id":"cebpf4jnsgd1na2vs0mg"},{"bike_id":"99e1c476-7c3b-4469-bf73-dedc41135815","system_id":"levelo_inurba_marseille","lat":43.30141,"lon":5.38065,"is_reserved":false,"is_disabled":false,"rental_uris":{"android":"levelo://app?vid=99e1c476-7c3b-4469-bf73-dedc41135815","ios":"levelo://app?vid=99e1c476-7c3b-4469-bf73-dedc41135815"},"vehicle_type_id":"4","last_reported":1750277586,"current_range_meters":16800,"station_id":"ce4bgjp2rcd13ifvqbh0","pricing_plan_id":"cebpf4jnsgd1na2vs0mg"},{"bike_id":"41e12c9a-ed3a-42f6-a740-d1a00d254052","system_id":"levelo_inurba_marseille","lat":43.30604,"lon":5.37221,"is_reserved":false,"is_disabled":false,"rental_uris":{"android":"levelo://app?vid=41e12c9a-ed3a-42f6-a740-d1a00d254052","ios":"levelo://app?vid=41e12c9a-ed3a-42f6-a740-d1a00d254052"},"vehicle_type_id":"4","last_reported":1750277586,"current_range_meters":16800,"station_id":"ce4bgqh2rcd13ifvqc4g","pricing_plan_id":"cebpf4jnsgd1na2vs0mg"},{"bike_id":"eb87a5ed-5ddc-4d30-a5fb-0f222a82092a","system_id":"levelo_inurba_marseille","lat":43.29969,"lon":5.37175,"is_reserved":false,"is_disabled":false,"rental_uris":{"android":"levelo://app?vid=eb87a5ed-5ddc-4d30-a5fb-0f222a82092a","ios":"levelo://app?vid=eb87a5ed-5ddc-4d30-a5fb-0f222a82092a"},"vehicle_type_id":"4","last_reported":1750277586,"current_range_meters":16800,"station_id":"ce4bgr92rcd13ifvqc7g","pricing_plan_id":"cebpf4jnsgd1na2vs0mg"},{"bike_id":"4da18f54-bebe-42fd-aa95-762309ab4b0b","system_id":"levelo_inurba_marseille","lat":43.29877,"lon":5.3891,"is_reserved":false,"is_disabled":false,"rental_uris":{"android":"levelo://app?vid=4da18f54-bebe-42fd-aa95-762309ab4b0b","ios":"levelo://app?vid=4da18f54-bebe-42fd-aa95-762309ab4b0b"},"vehicle_type_id":"4","last_reported":1750277586,"current_range_meters":16800,"station_id":"ce4bh392rcd13ifvqdl0","pricing_plan_id":"cebpf4jnsgd1na2vs0mg"},{"bike_id":"2102a372-19ea-4844-970d-3ffdc650eeb3","system_id":"levelo_inurba_marseille","lat":43.27386,"lon":5.36266,"is_reserved":false,"is_disabled":false,"rental_uris":{"android":"levelo://app?vid=2102a372-19ea-4844-970d-3ffdc650eeb3","ios":"levelo://app?vid=2102a372-19ea-4844-970d-3ffdc650eeb3"},"vehicle_type_id":"4","last_reported":1750277586,"current_range_meters":16800,"station_id":"ce4bhbh2rcd13ifvqeo0","pricing_plan_id":"cebpf4jnsgd1na2vs0mg"},{"bike_id":"fefb8e22-1b65-4151-99d5-3b91d4a57c8a","system_id":"levelo_inurba_marseille","lat":43.25119,"lon":5.40319,"is_reserved":false,"is_disabled":false,"rental_uris":{"android":"levelo://app?vid=fefb8e22-1b65-4151-99d5-3b91d4a57c8a","ios":"levelo://app?vid=fefb8e22-1b65-4151-99d5-3b91d4a57c8a"},"vehicle_type_id":"4","last_reported":1750277586,"current_range_meters":16800,"station_id":"ce4bhlh2rcd13ifvqgig","pricing_plan_id":"cebpf4jnsgd1na2vs0mg"},{"bike_id":"51a3b53b-b946-471e-bbaf-ebc45a129390","system_id":"levelo_inurba_marseille","lat":43.27792,"lon":5.40712,"is_reserved":false,"is_disabled":false,"rental_uris":{"android":"levelo://app?vid=51a3b53b-b946-471e-bbaf-ebc45a129390","ios":"levelo://app?vid=51a3b53b-b946-471e-bbaf-ebc45a129390"},"vehicle_type_id":"4","last_reported":1750277586,"current_range_meters":16800,"station_id":"ce4bhnh2rcd13ifvqgtg","pricing_plan_id":"cebpf4jnsgd1na2vs0mg"},{"bike_id":"5668cdb2-0f80-4fdc-9e87-26332f13354b","system_id":"levelo_inurba_marseille","lat":43.28614,"lon":5.3707,"is_reserved":false,"is_disabled":false,"rental_uris":{"android":"levelo://app?vid=5668cdb2-0f80-4fdc-9e87-26332f13354b","ios":"levelo://app?vid=5668cdb2-0f80-4fdc-9e87-26332f13354b"},"vehicle_type_id":"4","last_reported":1750277586,"current_range_meters":16800,"station_id":"ce4bht12rcd13ifvqi60","pricing_plan_id":"cebpf4jnsgd1na2vs0mg"},{"bike_id":"55756eef-8a18-490b-86ea-4cb3829bccd0","system_id":"levelo_inurba_marseille","lat":43.21772,"lon":5.34591,"is_reserved":false,"is_disabled":false,"rental_uris":{"android":"levelo://app?vid=55756eef-8a18-490b-86ea-4cb3829bccd0","ios":"levelo://app?vid=55756eef-8a18-490b-86ea-4cb3829bccd0"},"vehicle_type_id":"4","last_reported":1750277586,"current_range_meters":16800,"station_id":"st_cvj6r9ubvosntc0bgbag","pricing_plan_id":"cebpf4jnsgd1na2vs0mg"},{"bike_id":"4b6b2a2b-d3c4-4663-8ea1-de4eff39b7b2","system_id":"levelo_inurba_marseille","lat":43.211913,"lon":5.350701,"is_reserved":false,"is_disabled":false,"rental_uris":{"android":"levelo://app?vid=4b6b2a2b-d3c4-4663-8ea1-de4eff39b7b2","ios":"levelo://app?vid=4b6b2a2b-d3c4-4663-8ea1-de4eff39b7b2"},"vehicle_type_id":"4","last_reported":1750277586,"current_range_meters":16800,"station_id":"st_cvj6sg6p6f1abm77japg","pricing_plan_id":"cebpf4jnsgd1na2vs0mg"},{"bike_id":"b2929558-ea77-48e4-bd8a-e08a436e050a","system_id":"levelo_inurba_marseille","lat":43.30466,"lon":5.37912,"is_reserved":false,"is_disabled":false,"rental_uris":{"android":"levelo://app?vid=b2929558-ea77-48e4-bd8a-e08a436e050a","ios":"levelo://app?vid=b2929558-ea77-48e4-bd8a-e08a436e050a"},"vehicle_type_id":"4","last_reported":1750277586,"current_range_meters":17200,"station_id":"ce4bgup2rcd13ifvqcn0","pricing_plan_id":"cebpf4jnsgd1na2vs0mg"},{"bike_id":"0c14d7c8-ad7e-4287-9ed5-b12b39170e36","system_id":"levelo_inurba_marseille","lat":43.2988,"lon":5.38908,"is_reserved":false,"is_disabled":false,"rental_uris":{"android":"levelo://app?vid=0c14d7c8-ad7e-4287-9ed5-b12b39170e36","ios":"levelo://app?vid=0c14d7c8-ad7e-4287-9ed5-b12b39170e36"},"vehicle_type_id":"4","last_reported":1750277586,"current_range_meters":17200,"station_id":"ce4bh392rcd13ifvqdl0","pricing_plan_id":"cebpf4jnsgd1na2vs0mg"},{"bike_id":"bdd6c689-8b9f-424d-8055-b41aa4643ef4","system_id":"levelo_inurba_marseille","lat":43.29534,"lon":5.39034,"is_reserved":false,"is_disabled":false,"rental_uris":{"android":"levelo://app?vid=bdd6c689-8b9f-424d-8055-b41aa4643ef4","ios":"levelo://app?vid=bdd6c689-8b9f-424d-8055-b41aa4643ef4"},"vehicle_type_id":"4","last_reported":1750277586,"current_range_meters":17200,"station_id":"ce4bh3p2rcd13ifvqdp0","pricing_plan_id":"cebpf4jnsgd1na2vs0mg"},{"bike_id":"f3d95cb5-70fd-4e15-8b24-8b2f97e6bb9f","system_id":"levelo_inurba_marseille","lat":43.24807,"lon":5.37472,"is_reserved":false,"is_disabled":false,"rental_uris":{"android":"levelo://app?vid=f3d95cb5-70fd-4e15-8b24-8b2f97e6bb9f","ios":"levelo://app?vid=f3d95cb5-70fd-4e15-8b24-8b2f97e6bb9f"},"vehicle_type_id":"4","last_reported":1750277586,"current_range_meters":17200,"station_id":"ce4bhgh2rcd13ifvqfb0","pricing_plan_id":"cebpf4jnsgd1na2vs0mg"},{"bike_id":"7b90eff6-3832-438a-b1db-b4c9ff5fc565","system_id":"levelo_inurba_marseille","lat":43.2707,"lon":5.42274,"is_reserved":false,"is_disabled":false,"rental_uris":{"android":"levelo://app?vid=7b90eff6-3832-438a-b1db-b4c9ff5fc565","ios":"levelo://app?vid=7b90eff6-3832-438a-b1db-b4c9ff5fc565"},"vehicle_type_id":"4","last_reported":1750277586,"current_range_meters":17200,"station_id":"ce4bhk92rcd13ifvqgb0","pricing_plan_id":"cebpf4jnsgd1na2vs0mg"},{"bike_id":"5e7623a4-c6a5-4810-9a48-b3a618690e0d","system_id":"levelo_inurba_marseille","lat":43.27944,"lon":5.41047,"is_reserved":false,"is_disabled":false,"rental_uris":{"android":"levelo://app?vid=5e7623a4-c6a5-4810-9a48-b3a618690e0d","ios":"levelo://app?vid=5e7623a4-c6a5-4810-9a48-b3a618690e0d"},"vehicle_type_id":"4","last_reported":1750277586,"current_range_meters":17200,"station_id":"ce4bhnp2rcd13ifvqh0g","pricing_plan_id":"cebpf4jnsgd1na2vs0mg"},{"bike_id":"7b2157cf-20da-4a8f-86b6-9e266892dc62","system_id":"levelo_inurba_marseille","lat":43.31996,"lon":5.38156,"is_reserved":false,"is_disabled":false,"rental_uris":{"android":"levelo://app?vid=7b2157cf-20da-4a8f-86b6-9e266892dc62","ios":"levelo://app?vid=7b2157cf-20da-4a8f-86b6-9e266892dc62"},"vehicle_type_id":"4","last_reported":1750277586,"current_range_meters":17200,"station_id":"ce4bhr12rcd13ifvqhpg","pricing_plan_id":"cebpf4jnsgd1na2vs0mg"},{"bike_id":"a52c398e-80c6-403b-8a57-70006c3a9fac","system_id":"levelo_inurba_marseille","lat":43.22936,"lon":5.35386,"is_reserved":false,"is_disabled":false,"rental_uris":{"android":"levelo://app?vid=a52c398e-80c6-403b-8a57-70006c3a9fac","ios":"levelo://app?vid=a52c398e-80c6-403b-8a57-70006c3a9fac"},"vehicle_type_id":"4","last_reported":1750277586,"current_range_meters":17200,"station_id":"cpo3532slgdg3j2ikp40","pricing_plan_id":"cebpf4jnsgd1na2vs0mg"},{"bike_id":"073709de-35b1-41df-b8ea-b4449d0199f1","system_id":"levelo_inurba_marseille","lat":43.3089,"lon":5.37196,"is_reserved":false,"is_disabled":false,"rental_uris":{"android":"levelo://app?vid=073709de-35b1-41df-b8ea-b4449d0199f1","ios":"levelo://app?vid=073709de-35b1-41df-b8ea-b4449d0199f1"},"vehicle_type_id":"4","last_reported":1750277586,"current_range_meters":17600,"station_id":"ce4bguh2rcd13ifvqckg","pricing_plan_id":"cebpf4jnsgd1na2vs0mg"},{"bike_id":"595221b1-3fdd-4a24-a3b6-b6fe4dccb404","system_id":"levelo_inurba_marseille","lat":43.29414,"lon":5.38628,"is_reserved":false,"is_disabled":false,"rental_uris":{"android":"levelo://app?vid=595221b1-3fdd-4a24-a3b6-b6fe4dccb404","ios":"levelo://app?vid=595221b1-3fdd-4a24-a3b6-b6fe4dccb404"},"vehicle_type_id":"4","last_reported":1750277586,"current_range_meters":17600,"station_id":"ce4bh2h2rcd13ifvqdh0","pricing_plan_id":"cebpf4jnsgd1na2vs0mg"},{"bike_id":"1d278b76-60f9-466d-ae9d-2f04e618b3be","system_id":"levelo_inurba_marseille","lat":43.28403,"lon":5.37516,"is_reserved":false,"is_disabled":false,"rental_uris":{"android":"levelo://app?vid=1d278b76-60f9-466d-ae9d-2f04e618b3be","ios":"levelo://app?vid=1d278b76-60f9-466d-ae9d-2f04e618b3be"},"vehicle_type_id":"4","last_reported":1750277586,"current_range_meters":17600,"station_id":"ce4bh412rcd13ifvqds0","pricing_plan_id":"cebpf4jnsgd1na2vs0mg"},{"bike_id":"8e7154c0-a14b-45d0-b7ed-3f861ab208f1","system_id":"levelo_inurba_marseille","lat":43.27385,"lon":5.36245,"is_reserved":false,"is_disabled":false,"rental_uris":{"android":"levelo://app?vid=8e7154c0-a14b-45d0-b7ed-3f861ab208f1","ios":"levelo://app?vid=8e7154c0-a14b-45d0-b7ed-3f861ab208f1"},"vehicle_type_id":"4","last_reported":1750277586,"current_range_meters":17600,"station_id":"ce4bhbh2rcd13ifvqeo0","pricing_plan_id":"cebpf4jnsgd1na2vs0mg"},{"bike_id":"b850abdc-9a42-4fb0-bcfa-ea6268135ac6","system_id":"levelo_inurba_marseille","lat":43.25117,"lon":5.40321,"is_reserved":false,"is_disabled":false,"rental_uris":{"android":"levelo://app?vid=b850abdc-9a42-4fb0-bcfa-ea6268135ac6","ios":"levelo://app?vid=b850abdc-9a42-4fb0-bcfa-ea6268135ac6"},"vehicle_type_id":"4","last_reported":1750277586,"current_range_meters":17600,"station_id":"ce4bhlh2rcd13ifvqgig","pricing_plan_id":"cebpf4jnsgd1na2vs0mg"},{"bike_id":"b2a92dae-8506-4bec-be6c-3b7313213eb9","system_id":"levelo_inurba_marseille","lat":43.23165,"lon":5.43702,"is_reserved":false,"is_disabled":false,"rental_uris":{"android":"levelo://app?vid=b2a92dae-8506-4bec-be6c-3b7313213eb9","ios":"levelo://app?vid=b2a92dae-8506-4bec-be6c-3b7313213eb9"},"vehicle_type_id":"4","last_reported":1750277586,"current_range_meters":17600,"station_id":"ce4bhmp2rcd13ifvqgog","pricing_plan_id":"cebpf4jnsgd1na2vs0mg"},{"bike_id":"a96fa889-2821-44bf-baba-1500552c4da9","system_id":"levelo_inurba_marseille","lat":43.231969,"lon":5.355489,"is_reserved":false,"is_disabled":false,"rental_uris":{"android":"levelo://app?vid=a96fa889-2821-44bf-baba-1500552c4da9","ios":"levelo://app?vid=a96fa889-2821-44bf-baba-1500552c4da9"},"vehicle_type_id":"4","last_reported":1750277586,"current_range_meters":17600,"station_id":"ce4bhu92rcd13ifvqi70","pricing_plan_id":"cebpf4jnsgd1na2vs0mg"},{"bike_id":"9047d51c-bde3-4172-9e00-2f5199110d86","system_id":"levelo_inurba_marseille","lat":43.31481,"lon":5.37307,"is_reserved":false,"is_disabled":false,"rental_uris":{"android":"levelo://app?vid=9047d51c-bde3-4172-9e00-2f5199110d86","ios":"levelo://app?vid=9047d51c-bde3-4172-9e00-2f5199110d86"},"vehicle_type_id":"4","last_reported":1750277586,"current_range_meters":18000,"station_id":"ce4bgt12rcd13ifvqcd0","pricing_plan_id":"cebpf4jnsgd1na2vs0mg"},{"bike_id":"24c04ccc-1970-4e87-9cd8-7e3897c93494","system_id":"levelo_inurba_marseille","lat":43.30888,"lon":5.39656,"is_reserved":false,"is_disabled":false,"rental_uris":{"android":"levelo://app?vid=24c04ccc-1970-4e87-9cd8-7e3897c93494","ios":"levelo://app?vid=24c04ccc-1970-4e87-9cd8-7e3897c93494"},"vehicle_type_id":"4","last_reported":1750277586,"current_range_meters":18000,"station_id":"ce4bh012rcd13ifvqcv0","pricing_plan_id":"cebpf4jnsgd1na2vs0mg"},