{"last_updated":1737572829,"ttl":60,"version":"2.2","data":{"bikes":[{"bike_id":"4af9dd0a-d0eb-4431-8fe8-5f160c4e5727","system_id":"levelo_inurba_marseille","lat":43.26557,"lon":5.38952,"is_reserved":false,"is_disabled":false,"rental_uris":{"android":"levelo://app?vid=4af9dd0a-d0eb-4431-8fe8-5f160c4e5727","ios":"levelo://app?vid=4af9dd0a-d0eb-4431-8fe8-5f160c4e5727"},"vehicle_type_id":"4","last_reported":1737572829,"current_range_meters":7200,"station_id":"ce4bhe12rcd13ifvqf30","pricing_plan_id":"cebpf4jnsgd1na2vs0mg"},{"bike_id":"bc87ebb9-79d8-48ae-98f1-73024abdc038","system_id":"levelo_inurba_marseille","lat":43.29227,"lon":5.36049,"is_reserved":false,"is_disabled":true,"rental_uris":{"android":"levelo://app?vid=bc87ebb9-79d8-48ae-98f1-73024abdc038","ios":"levelo://app?vid=bc87ebb9-79d8-48ae-98f1-73024abdc038"},"vehicle_type_id":"4","last_reported":1737572829,"current_range_meters":800,"station_id":"ce4bhbh2rcd13ifvqeqg","pricing_plan_id":"cebpf4jnsgd1na2vs0mg"},{"bike_id":"fad71a3f-bd9e-4c26-82d7-089e277e18c0","system_id":"levelo_inurba_marseille","lat":43.27055,"lon":5.40254,"is_reserved":false,"is_disabled":false,"rental_uris":{"android":"levelo://app?vid=fad71a3f-bd9e-4c26-82d7-089e277e18c0","ios":"levelo://app?vid=fad71a3f-bd9e-4c26-82d7-089e277e18c0"},"vehicle_type_id":"4","last_reported":1737572829,"current_range_meters":38800,"station_id":"ce4bhk92rcd13ifvqgc0","pricing_plan_id":"cebpf4jnsgd1na2vs0mg"},{"bike_id":"5fe5e92b-23bb-4860-a2fe-86743e81fb05","system_id":"levelo_inurba_marseille","lat":43.28465,"lon":5.35872,"is_reserved":false,"is_disabled":false,"rental_uris":{"android":"levelo://app?vid=5fe5e92b-23bb-4860-a2fe-86743e81fb05","ios":"levelo://app?vid=5fe5e92b-23bb-4860-a2fe-86743e81fb05"},"vehicle_type_id":"4","last_reported":1737572829,"current_range_meters":24800,"station_id":"ce4bhah2rcd13ifvqei0","pricing_plan_id":"cebpf4jnsgd1na2vs0mg"},{"bike_id":"b4515517-c8a5-4347-9a75-b80759d8b378","system_id":"levelo_inurba_marseille","lat":43.29707,"lon":5.36593,"is_reserved":false,"is_disabled":false,"rental_uris":{"android":"levelo://app?vid=b4515517-c8a5-4347-9a75-b80759d8b378","ios":"levelo://app?vid=b4515517-c8a5-4347-9a75-b80759d8b378"},"vehicle_type_id":"4","last_reported":1737572829,"current_range_meters":36000,"station_id":"ce4bgn12rcd13ifvqbt0","pricing_plan_id":"cebpf4jnsgd1na2vs0mg"},{"bike_id":"762c363e-b2db-4405-8db4-1b7c46009985","system_id":"levelo_inurba_marseille","lat":43.28272,"lon":5.35076,"is_reserved":false,"is_disabled":false,"rental_uris":{"android":"levelo://app?vid=762c363e-b2db-4405-8db4-1b7c46009985","ios":"levelo://app?vid=762c363e-b2db-4405-8db4-1b7c46009985"},"vehicle_type_id":"4","last_reported":1737572829,"current_range_meters":35200,"station_id":"ce4bhbp2rcd13ifvqerg","pricing_plan_id":"cebpf4jnsgd1na2vs0mg"},{"bike_id":"bbda3c6a-8a7d-4032-92e7-cc076cf2b2b8","system_id":"levelo_inurba_marseille","lat":43.29212,"lon":5.37509,"is_reserved":false,"is_disabled":false,"rental_uris":{"android":"levelo://app?vid=bbda3c6a-8a7d-4032-92e7-cc076cf2b2b8","ios":"levelo://app?vid=bbda3c6a-8a7d-4032-92e7-cc076cf2b2b8"},"vehicle_type_id":"4","last_reported":1737572829,"current_range_meters":14000,"station_id":"ce4bh692rcd13ifvqe90","pricing_plan_id":"cebpf4jnsgd1na2vs0mg"},{"bike_id":"4d9af203-3667-4745-ac7f-03559c37ec70","system_id":"levelo_inurba_marseille","lat":43.31484,"lon":5.37303,"is_reserved":false,"is_disabled":false,"rental_uris":{"android":"levelo://app?vid=4d9af203-3667-4745-ac7f-03559c37ec70","ios":"levelo://app?vid=4d9af203-3667-4745-ac7f-03559c37ec70"},"vehicle_type_id":"4","last_reported":1737572829,"current_range_meters":30400,"station_id":"ce4bgt12rcd13ifvqcd0","pricing_plan_id":"cebpf4jnsgd1na2vs0mg"},{"bike_id":"21f1aed0-517d-44fe-acc4-af2df5aa40a3","system_id":"levelo_inurba_marseille","lat":43.310723,"lon":5.383583,"is_reserved":false,"is_disabled":false,"rental_uris":{"android":"levelo://app?vid=21f1aed0-517d-44fe-acc4-af2df5aa40a3","ios":"levelo://app?vid=21f1aed0-517d-44fe-acc4-af2df5aa40a3"},"vehicle_type_id":"4","last_reported":1737572829,"current_range_meters":27600,"station_id":"ce4bgv92rcd13ifvqcr0","pricing_plan_id":"cebpf4jnsgd1na2vs0mg"},{"bike_id":"6a7fd8e3-60b6-4468-9c52-741f71ef3c74","system_id":"levelo_inurba_marseille","lat":43.30128,"lon":5.39862,"is_reserved":false,"is_disabled":false,"rental_uris":{"android":"levelo://app?vid=6a7fd8e3-60b6-4468-9c52-741f71ef3c74","ios":"levelo://app?vid=6a7fd8e3-60b6-4468-9c52-741f71ef3c74"},"vehicle_type_id":"4","last_reported":1737572829,"current_range_meters":38400,"station_id":"ce4bh0h2rcd13ifvqd40","pricing_plan_id":"cebpf4jnsgd1na2vs0mg"},{"bike_id":"c7da0e1f-c148-4c46-9d2b-78cca3236908","system_id":"levelo_inurba_marseille","lat":43.28657,"lon":5.38671,"is_reserved":false,"is_disabled":false,"rental_uris":{"android":"levelo://app?vid=c7da0e1f-c148-4c46-9d2b-78cca3236908","ios":"levelo://app?vid=c7da0e1f-c148-4c46-9d2b-78cca3236908"},"vehicle_type_id":"4","last_reported":1737572829,"current_range_meters":10800,"station_id":"ce4bh492rcd13ifvqdug","pricing_plan_id":"cebpf4jnsgd1na2vs0mg"},{"bike_id":"f9509cf3-61c9-4e98-a3dc-ab6e052fedb5","system_id":"levelo_inurba_marseille","lat":43.24069,"lon":5.37741,"is_reserved":false,"is_disabled":false,"rental_uris":{"android":"levelo://app?vid=f9509cf3-61c9-4e98-a3dc-ab6e052fedb5","ios":"levelo://app?vid=f9509cf3-61c9-4e98-a3dc-ab6e052fedb5"},"vehicle_type_id":"4","last_reported":1737572829,"current_range_meters":30800,"station_id":"ce4bhnp2rcd13ifvqgvg","pricing_plan_id":"cebpf4jnsgd1na2vs0mg"},{"bike_id":"1d112a4c-9e7e-41d8-8ffb-8c02b95439bd","system_id":"levelo_inurba_marseille","lat":43.28421,"lon":5.37508,"is_reserved":false,"is_disabled":false,"rental_uris":{"android":"levelo://app?vid=1d112a4c-9e7e-41d8-8ffb-8c02b95439bd","ios":"levelo://app?vid=1d112a4c-9e7e-41d8-8ffb-8c02b95439bd"},"vehicle_type_id":"4","last_reported":1737572829,"current_range_meters":36800,"station_id":"ce4bh412rcd13ifvqds0","pricing_plan_id":"cebpf4jnsgd1na2vs0mg"},{"bike_id":"31ae3073-1386-4275-978a-19018719abb2","system_id":"levelo_inurba_marseille","lat":43.29051,"lon":5.37156,"is_reserved":false,"is_disabled":false,"rental_uris":{"android":"levelo://app?vid=31ae3073-1386-4275-978a-19018719abb2","ios":"levelo://app?vid=31ae3073-1386-4275-978a-19018719abb2"},"vehicle_type_id":"4","last_reported":1737572829,"current_range_meters":38800,"station_id":"ce4bh5p2rcd13ifvqe4g","pricing_plan_id":"cebpf4jnsgd1na2vs0mg"},{"bike_id":"f80daf71-64ee-49e9-aa12-8ec2343a46ac","system_id":"levelo_inurba_marseille","lat":43.33026,"lon":5.39038,"is_reserved":false,"is_disabled":false,"rental_uris":{"android":"levelo://app?vid=f80daf71-64ee-49e9-aa12-8ec2343a46ac","ios":"levelo://app?vid=f80daf71-64ee-49e9-aa12-8ec2343a46ac"},"vehicle_type_id":"4","last_reported":1737572829,"current_range_meters":38800,"station_id":"ce4bhr92rcd13ifvqhrg","pricing_plan_id":"cebpf4jnsgd1na2vs0mg"},{"bike_id":"226f8680-98a9-4951-8f0c-e99ac53cbc82","system_id":"levelo_inurba_marseille","lat":43.26879,"lon":5.38583,"is_reserved":false,"is_disabled":false,"rental_uris":{"android":"levelo://app?vid=226f8680-98a9-4951-8f0c-e99ac53cbc82","ios":"levelo://app?vid=226f8680-98a9-4951-8f0c-e99ac53cbc82"},"vehicle_type_id":"4","last_reported":1737572829,"current_range_meters":37600,"station_id":"ce4bhdp2rcd13ifvqf20","pricing_plan_id":"cebpf4jnsgd1na2vs0mg"},{"bike_id":"1e97f69a-8420-4fb9-a64e-a395e773d2e1","system_id":"levelo_inurba_marseille","lat":43.25582,"lon":5.38221,"is_reserved":false,"is_disabled":false,"rental_uris":{"android":"levelo://app?vid=1e97f69a-8420-4fb9-a64e-a395e773d2e1","ios":"levelo://app?vid=1e97f69a-8420-4fb9-a64e-a395e773d2e1"},"vehicle_type_id":"4","last_reported":1737572829,"current_range_meters":27600,"station_id":"ce4bhih2rcd13ifvqfs0","pricing_plan_id":"cebpf4jnsgd1na2vs0mg"},{"bike_id":"47a5c903-d960-4eec-b908-6451b150f9f7","system_id":"levelo_inurba_marseille","lat":43.24073,"lon":5.37771,"is_reserved":false,"is_disabled":false,"rental_uris":{"android":"levelo://app?vid=47a5c903-d960-4eec-b908-6451b150f9f7","ios":"levelo://app?vid=47a5c903-d960-4eec-b908-6451b150f9f7"},"vehicle_type_id":"4","last_reported":1737572829,"current_range_meters":39200,"station_id":"ce4bhnp2rcd13ifvqgvg","pricing_plan_id":"cebpf4jnsgd1na2vs0mg"},{"bike_id":"2d89806f-db31-45f9-ab39-70b15ff8deae","system_id":"levelo_inurba_marseille","lat":43.29789,"lon":5.39346,"is_reserved":false,"is_disabled":false,"rental_uris":{"android":"levelo://app?vid=2d89806f-db31-45f9-ab39-70b15ff8deae","ios":"levelo://app?vid=2d89806f-db31-45f9-ab39-70b15ff8deae"},"vehicle_type_id":"4","last_reported":1737572829,"current_range_meters":38800,"station_id":"chh1huq6cuj3fo74tm60","pricing_plan_id":"cebpf4jnsgd1na2vs0mg"},{"bike_id":"e4102f6c-1a9f-48fa-854c-436d23052b6a","system_id":"levelo_inurba_marseille","lat":43.27947,"lon":5.41039,"is_reserved":false,"is_disabled":false,"rental_uris":{"android":"levelo://app?vid=e4102f6c-1a9f-48fa-854c-436d23052b6a","ios":"levelo://app?vid=e4102f6c-1a9f-48fa-854c-436d23052b6a"},"vehicle_type_id":"4","last_reported":1737572829,"current_range_meters":38800,"station_id":"ce4bhnp2rcd13ifvqh0g","pricing_plan_id":"cebpf4jnsgd1na2vs0mg"},{"bike_id":"c8b7aed7-c47b-4197-99ca-6b34bfddf40f","system_id":"levelo_inurba_marseille","lat":43.24073,"lon":5.37758,"is_reserved":false,"is_disabled":false,"rental_uris":{"android":"levelo://app?vid=c8b7aed7-c47b-4197-99ca-6b34bfddf40f","ios":"levelo://app?vid=c8b7aed7-c47b-4197-99ca-6b34bfddf40f"},"vehicle_type_id":"4","last_reported":1737572829,"current_range_meters":36400,"station_id":"ce4bhnp2rcd13ifvqgvg","pricing_plan_id":"cebpf4jnsgd1na2vs0mg"},{"bike_id":"4ce9626c-1b67-489a-ac86-8de3c7647f0e","system_id":"levelo_inurba_marseille","lat":43.31117,"lon":5.37771,"is_reserved":false,"is_disabled":false,"rental_uris":{"android":"levelo://app?vid=4ce9626c-1b67-489a-ac86-8de3c7647f0e","ios":"levelo://app?vid=4ce9626c-1b67-489a-ac86-8de3c7647f0e"},"vehicle_type_id":"4","last_reported":1737572829,"current_range_meters":14800,"station_id":"ce4bgt92rcd13ifvqcg0","pricing_plan_id":"cebpf4jnsgd1na2vs0mg"},{"bike_id":"03029508-7ed2-4693-b735-f7deaf763344","system_id":"levelo_inurba_marseille","lat":43.255736,"lon":5.382378,"is_reserved":false,"is_disabled":false,"rental_uris":{"android":"levelo://app?vid=03029508-7ed2-4693-b735-f7deaf763344","ios":"levelo://app?vid=03029508-7ed2-4693-b735-f7deaf763344"},"vehicle_type_id":"4","last_reported":1737572829,"current_range_meters":20400,"station_id":"ce4bhih2rcd13ifvqfs0","pricing_plan_id":"cebpf4jnsgd1na2vs0mg"},{"bike_id":"3cf12ea1-9ab6-4500-b350-ad9117dde723","system_id":"levelo_inurba_marseille","lat":43.28932,"lon":5.38412,"is_reserved":false,"is_disabled":false,"rental_uris":{"android":"levelo://app?vid=3cf12ea1-9ab6-4500-b350-ad9117dde723","ios":"levelo://app?vid=3cf12ea1-9ab6-4500-b350-ad9117dde723"},"vehicle_type_id":"4","last_reported":1737572829,"current_range_meters":4400,"station_id":"ce4bh612rcd13ifvqe6g","pricing_plan_id":"cebpf4jnsgd1na2vs0mg"},{"bike_id":"4920d6f6-8670-4936-b3f9-eca676954082","system_id":"levelo_inurba_marseille","lat":43.27999,"lon":5.40019,"is_reserved":false,"is_disabled":false,"rental_uris":{"android":"levelo://app?vid=4920d6f6-8670-4936-b3f9-eca676954082","ios":"levelo://app?vid=4920d6f6-8670-4936-b3f9-eca676954082"},"vehicle_type_id":"4","last_reported":1737572829,"current_range_meters":8800,"station_id":"ce4bho92rcd13ifvqh4g","pricing_plan_id":"cebpf4jnsgd1na2vs0mg"},{"bike_id":"57f78879-3285-4372-8280-be0d5b9070ca","system_id":"levelo_inurba_marseille","lat":43.321093,"lon":5.367765,"is_reserved":false,"is_disabled":false,"rental_uris":{"android":"levelo://app?vid=57f78879-3285-4372-8280-be0d5b9070ca","ios":"levelo://app?vid=57f78879-3285-4372-8280-be0d5b9070ca"},"vehicle_type_id":"4","last_reported":1737572829,"current_range_meters":2800,"station_id":"ce4bhrh2rcd13ifvqhug","pricing_plan_id":"cebpf4jnsgd1na2vs0mg"},{"bike_id":"0e1fe683-79a2-47f7-93d0-06378253c699","system_id":"levelo_inurba_marseille","lat":43.29519,"lon":5.39018,"is_reserved":false,"is_disabled":false,"rental_uris":{"android":"levelo://app?vid=0e1fe683-79a2-47f7-93d0-06378253c699","ios":"levelo://app?vid=0e1fe683-79a2-47f7-93d0-06378253c699"},"vehicle_type_id":"4","last_reported":1737572829,"current_range_meters":24000,"station_id":"ce4bh3p2rcd13ifvqdp0","pricing_plan_id":"cebpf4jnsgd1na2vs0mg"},{"bike_id":"30f8e998-3060-41db-a385-d6fba3d9d833","system_id":"levelo_inurba_marseille","lat":43.27996,"lon":5.40027,"is_reserved":false,"is_disabled":false,"rental_uris":{"android":"levelo://app?vid=30f8e998-3060-41db-a385-d6fba3d9d833","ios":"levelo://app?vid=30f8e998-3060-41db-a385-d6fba3d9d833"},"vehicle_type_id":"4","last_reported":1737572829,"current_range_meters":38800,"station_id":"ce4bho92rcd13ifvqh4g","pricing_plan_id":"cebpf4jnsgd1na2vs0mg"},{"bike_id":"c7e4dcb1-e5b0-45e1-8872-17f211dc0053","system_id":"levelo_inurba_marseille","lat":43.28468,"lon":5.38543,"is_reserved":false,"is_disabled":false,"rental_uris":{"android":"levelo://app?vid=c7e4dcb1-e5b0-45e1-8872-17f211dc0053","ios":"levelo://app?vid=c7e4dcb1-e5b0-45e1-8872-17f211dc0053"},"vehicle_type_id":"4","last_reported":1737572829,"current_range_meters":38800,"station_id":"ce4bh8p2rcd13ifvqeb0","pricing_plan_id":"cebpf4jnsgd1na2vs0mg"},{"bike_id":"4d59c528-3bc3-469c-bd2e-2962b38b2c9d","system_id":"levelo_inurba_marseille","lat":43.28842,"lon":5.39305,"is_reserved":false,"is_disabled":false,"rental_uris":{"android":"levelo://app?vid=4d59c528-3bc3-469c-bd2e-2962b38b2c9d","ios":"levelo://app?vid=4d59c528-3bc3-469c-bd2e-2962b38b2c9d"},"vehicle_type_id":"4","last_reported":1737572829,"current_range_meters":7200,"station_id":"ce4bh2p2rcd13ifvqdi0","pricing_plan_id":"cebpf4jnsgd1na2vs0mg"},{"bike_id":"cac15169-486f-43a5-9e95-33c702c4876b","system_id":"levelo_inurba_marseille","lat":43.30817,"lon":5.43523,"is_reserved":false,"is_disabled":false,"rental_uris":{"android":"levelo://app?vid=cac15169-486f-43a5-9e95-33c702c4876b","ios":"levelo://app?vid=cac15169-486f-43a5-9e95-33c702c4876b"},"vehicle_type_id":"4","last_reported":1737572829,"current_range_meters":38800,"station_id":"ce4bhph2rcd13ifvqheg","pricing_plan_id":"cebpf4jnsgd1na2vs0mg"},{"bike_id":"0fd77b24-9641-4f85-ad37-0e79c1de1769","system_id":"levelo_inurba_marseille","lat":43.27813,"lon":5.40713,"is_reserved":false,"is_disabled":false,"rental_uris":{"android":"levelo://app?vid=0fd77b24-9641-4f85-ad37-0e79c1de1769","ios":"levelo://app?vid=0fd77b24-9641-4f85-ad37-0e79c1de1769"},"vehicle_type_id":"4","last_reported":1737572829,"current_range_meters":17200,"station_id":"ce4bhnh2rcd13ifvqgtg","pricing_plan_id":"cebpf4jnsgd1na2vs0mg"},{"bike_id":"1867e00d-f575-4b47-871e-082fe451b449","system_id":"levelo_inurba_marseille","lat":43.283577,"lon":5.386346,"is_reserved":false,"is_disabled":false,"rental_uris":{"android":"levelo://app?vid=1867e00d-f575-4b47-871e-082fe451b449","ios":"levelo://app?vid=1867e00d-f575-4b47-871e-082fe451b449"},"vehicle_type_id":"4","last_reported":1737572829,"current_range_meters":34000,"station_id":"ce4bh492rcd13ifvqdvg","pricing_plan_id":"cebpf4jnsgd1na2vs0mg"},{"bike_id":"5a874f97-e53a-486b-bf03-022b93e71acd","system_id":"levelo_inurba_marseille","lat":43.254976,"lon":5.376505,"is_reserved":false,"is_disabled":false,"rental_uris":{"android":"levelo://app?vid=5a874f97-e53a-486b-bf03-022b93e71acd","ios":"levelo://app?vid=5a874f97-e53a-486b-bf03-022b93e71acd"},"vehicle_type_id":"4","last_reported":1737572829,"current_range_meters":26000,"station_id":"ce4bhh12rcd13ifvqff0","pricing_plan_id":"cebpf4jnsgd1na2vs0mg"},{"bike_id":"6f76e31e-4981-4f7c-8e10-696db8c8e6e4","system_id":"levelo_inurba_marseille","lat":43.33012,"lon":5.39045,"is_reserved":false,"is_disabled":false,"rental_uris":{"android":"levelo://app?vid=6f76e31e-4981-4f7c-8e10-696db8c8e6e4","ios":"levelo://app?vid=6f76e31e-4981-4f7c-8e10-696db8c8e6e4"},"vehicle_type_id":"4","last_reported":1737572829,"current_range_meters":38800,"station_id":"ce4bhr92rcd13ifvqhrg","pricing_plan_id":"cebpf4jnsgd1na2vs0mg"},{"bike_id":"0cee0474-a183-4785-95ed-5e8e0658f755","system_id":"levelo_inurba_marseille","lat":43.28944,"lon":5.36638,"is_reserved":false,"is_disabled":false,"rental_uris":{"android":"levelo://app?vid=0cee0474-a183-4785-95ed-5e8e0658f755","ios":"levelo://app?vid=0cee0474-a183-4785-95ed-5e8e0658f755"},"vehicle_type_id":"4","last_reported":1737572829,"current_range_meters":28400,"station_id":"ce4bhap2rcd13ifvqek0","pricing_plan_id":"cebpf4jnsgd1na2vs0mg"},{"bike_id":"7ab51a43-683e-4bd7-a5aa-dd0cb59be96b","system_id":"levelo_inurba_marseille","lat":43.29793,"lon":5.39338,"is_reserved":false,"is_disabled":false,"rental_uris":{"android":"levelo://app?vid=7ab51a43-683e-4bd7-a5aa-dd0cb59be96b","ios":"levelo://app?vid=7ab51a43-683e-4bd7-a5aa-dd0cb59be96b"},"vehicle_type_id":"4","last_reported":1737572829,"current_range_meters":38800,"station_id":"chh1huq6cuj3fo74tm60","pricing_plan_id":"cebpf4jnsgd1na2vs0mg"},{"bike_id":"1a7ae9b9-108c-498f-8bac-48904d23f7bc","system_id":"levelo_inurba_marseille","lat":43.28468,"lon":5.384293,"is_reserved":false,"is_disabled":true,"rental_uris":{"android":"levelo://app?vid=1a7ae9b9-108c-498f-8bac-48904d23f7bc","ios":"levelo://app?vid=1a7ae9b9-108c-498f-8bac-48904d23f7bc"},"vehicle_type_id":"4","last_reported":1737572829,"current_range_meters":36800,"station_id":"ce4bh512rcd13ifvqe3g","pricing_plan_id":"cebpf4jnsgd1na2vs0mg"},{"bike_id":"533aeb71-c453-4351-b55d-26c82aa51b73","system_id":"levelo_inurba_marseille","lat":43.28354,"lon":5.38626,"is_reserved":false,"is_disabled":false,"rental_uris":{"android":"levelo://app?vid=533aeb71-c453-4351-b55d-26c82aa51b73","ios":"levelo://app?vid=533aeb71-c453-4351-b55d-26c82aa51b73"},"vehicle_type_id":"4","last_reported":1737572829,"current_range_meters":16800,"station_id":"ce4bh492rcd13ifvqdvg","pricing_plan_id":"cebpf4jnsgd1na2vs0mg"},{"bike_id":"212ed2e6-f694-4453-a9b8-263502261c77","system_id":"levelo_inurba_marseille","lat":43.29261,"lon":5.38447,"is_reserved":false,"is_disabled":false,"rental_uris":{"android":"levelo://app?vid=212ed2e6-f694-4453-a9b8-263502261c77","ios":"levelo://app?vid=212ed2e6-f694-4453-a9b8-263502261c77"},"vehicle_type_id":"4","last_reported":1737572829,"current_range_meters":38800,"station_id":"ce4bh692rcd13ifvqea0","pricing_plan_id":"cebpf4jnsgd1na2vs0mg"},{"bike_id":"fbc6b901-293c-4cc3-8495-b0d71e091198","system_id":"levelo_inurba_marseille","lat":43.27902,"lon":5.38008,"is_reserved":false,"is_disabled":false,"rental_uris":{"android":"levelo://app?vid=fbc6b901-293c-4cc3-8495-b0d71e091198","ios":"levelo://app?vid=fbc6b901-293c-4cc3-8495-b0d71e091198"},"vehicle_type_id":"4","last_reported":1737572829,"current_range_meters":36800,"station_id":"ce4bhf92rcd13ifvqf50","pricing_plan_id":"cebpf4jnsgd1na2vs0mg"},{"bike_id":"4a1877ac-0eba-4d1d-a5b6-5c57a0d326b7","system_id":"levelo_inurba_marseille","lat":43.310811,"lon":5.424353,"is_reserved":false,"is_disabled":false,"rental_uris":{"android":"levelo://app?vid=4a1877ac-0eba-4d1d-a5b6-5c57a0d326b7","ios":"levelo://app?vid=4a1877ac-0eba-4d1d-a5b6-5c57a0d326b7"},"vehicle_type_id":"4","last_reported":1737572829,"current_range_meters":16800,"station_id":"ce4bhp92rcd13ifvqhag","pricing_plan_id":"cebpf4jnsgd1na2vs0mg"},{"bike_id":"1c5350bc-b85e-4a3a-a39b-e473b0f89be6","system_id":"levelo_inurba_marseille","lat":43.31755,"lon":5.39002,"is_reserved":false,"is_disabled":false,"rental_uris":{"android":"levelo://app?vid=1c5350bc-b85e-4a3a-a39b-e473b0f89be6","ios":"levelo://app?vid=1c5350bc-b85e-4a3a-a39b-e473b0f89be6"},"vehicle_type_id":"4","last_reported":1737572829,"current_range_meters":22400,"station_id":"ce4bhqp2rcd13ifvqhng","pricing_plan_id":"cebpf4jnsgd1na2vs0mg"},{"bike_id":"a2a3717c-0128-442c-a71e-f199be5b1805","system_id":"levelo_inurba_marseille","lat":43.26954,"lon":5.38649,"is_reserved":false,"is_disabled":false,"rental_uris":{"android":"levelo://app?vid=a2a3717c-0128-442c-a71e-f199be5b1805","ios":"levelo://app?vid=a2a3717c-0128-442c-a71e-f199be5b1805"},"vehicle_type_id":"4","last_reported":1737572829,"current_range_meters":33600,"station_id":"ce4bhh92rcd13ifvqfh0","pricing_plan_id":"cebpf4jnsgd1na2vs0mg"},{"bike_id":"0656ad22-4b5e-43af-a872-a71885cb8e6e","system_id":"levelo_inurba_marseille","lat":43.31358,"lon":5.38495,"is_reserved":false,"is_disabled":false,"rental_uris":{"android":"levelo://app?vid=0656ad22-4b5e-43af-a872-a71885cb8e6e","ios":"levelo://app?vid=0656ad22-4b5e-43af-a872-a71885cb8e6e"},"vehicle_type_id":"4","last_reported":1737572829,"current_range_meters":27200,"station_id":"ce4bgt92rcd13ifvqcf0","pricing_plan_id":"cebpf4jnsgd1na2vs0mg"},{"bike_id":"012b9b4c-083c-4fe9-9a64-36583ef538cf","system_id":"levelo_inurba_marseille","lat":43.30933,"lon":5.40149,"is_reserved":false,"is_disabled":false,"rental_uris":{"android":"levelo://app?vid=012b9b4c-083c-4fe9-9a64-36583ef538cf","ios":"levelo://app?vid=012b9b4c-083c-4fe9-9a64-36583ef538cf"},"vehicle_type_id":"4","last_reported":1737572829,"current_range_meters":4800,"station_id":"ce4bgvp2rcd13ifvqct0","pricing_plan_id":"cebpf4jnsgd1na2vs0mg"},{"bike_id":"0063086c-d006-47ef-ba2e-6f57507b490d","system_id":"levelo_inurba_marseille","lat":43.29074,"lon":5.37165,"is_reserved":false,"is_disabled":false,"rental_uris":{"android":"levelo://app?vid=0063086c-d006-47ef-ba2e-6f57507b490d","ios":"levelo://app?vid=0063086c-d006-47ef-ba2e-6f57507b490d"},"vehicle_type_id":"4","last_reported":1737572829,"current_range_meters":26800,"station_id":"ce4bh5p2rcd13ifvqe4g","pricing_plan_id":"cebpf4jnsgd1na2vs0mg"},{"bike_id":"7ace546e-9c67-4124-8420-9ed07a575e5a","system_id":"levelo_inurba_marseille","lat":43.3163,"lon":5.4055,"is_reserved":false,"is_disabled":true,"rental_uris":{"android":"levelo://app?vid=7ace546e-9c67-4124-8420-9ed07a575e5a","ios":"levelo://app?vid=7ace546e-9c67-4124-8420-9ed07a575e5a"},"vehicle_type_id":"4","last_reported":1737572829,"current_range_meters":800,"station_id":"","pricing_plan_id":"cebpf4jnsgd1na2vs0mg"},{"bike_id":"f4064b91-d50f-4faa-b80a-c4b38df2d08b","system_id":"levelo_inurba_marseille","lat":43.229333,"lon":5.353801,"is_reserved":false,"is_disabled":false,"rental_uris":{"android":"levelo://app?vid=f4064b91-d50f-4faa-b80a-c4b38df2d08b","ios":"levelo://app?vid=f4064b91-d50f-4faa-b80a-c4b38df2d08b"},"vehicle_type_id":"4","last_reported":1737572829,"current_range_meters":38800,"station_id":"cpo3532slgdg3j2ikp40","pricing_plan_id":"cebpf4jnsgd1na2vs0mg"},{"bike_id":"05f99f32-62a1-4772-aab8-f5e1ccbaacdc","system_id":"levelo_inurba_marseille","lat":43.28843,"lon":5.35848,"is_reserved":false,"is_disabled":false,"rental_uris":{"android":"levelo://app?vid=05f99f32-62a1-4772-aab8-f5e1ccbaacdc","ios":"levelo://app?vid=05f99f32-62a1-4772-aab8-f5e1ccbaacdc"},"vehicle_type_id":"4","last_reported":1737572829,"current_range_meters":24800,"station_id":"ce4bhb12rcd13ifvqem0","pricing_plan_id":"cebpf4jnsgd1na2vs0mg"},{"bike_id":"5e75dd30-ab3b-44d3-8dcb-cb5fd4a0eb65","system_id":"levelo_inurba_marseille","lat":43.24645,"lon":5.38968,"is_reserved":false,"is_disabled":false,"rental_uris":{"android":"levelo://app?vid=5e75dd30-ab3b-44d3-8dcb-cb5fd4a0eb65","ios":"levelo://app?vid=5e75dd30-ab3b-44d3-8dcb-cb5fd4a0eb65"},"vehicle_type_id":"4","last_reported":1737572829,"current_range_meters":38800,"station_id":"","pricing_plan_id":"cebpf4jnsgd1na2vs0mg"},{"bike_id":"90c8c19d-949d-460f-bb27-403a94bcdfaa","system_id":"levelo_inurba_marseille","lat":43.2845,"lon":5.35878,"is_reserved":false,"is_disabled":false,"rental_uris":{"android":"levelo://app?vid=90c8c19d-949d-460f-bb27-403a94bcdfaa","ios":"levelo://app?vid=90c8c19d-949d-460f-bb27-403a94bcdfaa"},"vehicle_type_id":"4","last_reported":1737572829,"current_range_meters":14400,"station_id":"ce4bhah2rcd13ifvqei0","pricing_plan_id":"cebpf4jnsgd1na2vs0mg"},{"bike_id":"b209af36-1ed7-4b13-ae39-413106d8b115","system_id":"levelo_inurba_marseille","lat":43.31703,"lon":5.437,"is_reserved":false,"is_disabled":false,"rental_uris":{"android":"levelo://app?vid=b209af36-1ed7-4b13-ae39-413106d8b115","ios":"levelo://app?vid=b209af36-1ed7-4b13-ae39-413106d8b115"},"vehicle_type_id":"4","last_reported":1737572829,"current_range_meters":38400,"station_id":"ce4bhp92rcd13ifvqhcg","pricing_plan_id":"cebpf4jnsgd1na2vs0mg"},{"bike_id":"95686d4b-aec0-40de-b18e-cbe8599dc121","system_id":"levelo_inurba_marseille","lat":43.29713,"lon":5.36612,"is_reserved":false,"is_disabled":false,"rental_uris":{"android":"levelo://app?vid=95686d4b-aec0-40de-b18e-cbe8599dc121","ios":"levelo://app?vid=95686d4b-aec0-40de-b18e-cbe8599dc121"},"vehicle_type_id":"4","last_reported":1737572829,"current_range_meters":19600,"station_id":"ce4bgn12rcd13ifvqbt0","pricing_plan_id":"cebpf4jnsgd1na2vs0mg"},{"bike_id":"6b3741d2-ca99-46d8-a2a3-597d08b4470f","system_id":"levelo_inurba_marseille","lat":43.30213,"lon":5.39475,"is_reserved":false,"is_disabled":false,"rental_uris":{"android":"levelo://app?vid=6b3741d2-ca99-46d8-a2a3-597d08b4470f","ios":"levelo://app?vid=6b3741d2-ca99-46d8-a2a3-597d08b4470f"},"vehicle_type_id":"4","last_reported":1737572829,"current_range_meters":8800,"station_id":"ce4bh0p2rcd13ifvqd70","pricing_plan_id":"cebpf4jnsgd1na2vs0mg"},{"bike_id":"65094a7f-b962-43c6-b0af-b51087b9f16f","system_id":"levelo_inurba_marseille","lat":43.28936,"lon":5.36631,"is_reserved":false,"is_disabled":false,"rental_uris":{"android":"levelo://app?vid=65094a7f-b962-43c6-b0af-b51087b9f16f","ios":"levelo://app?vid=65094a7f-b962-43c6-b0af-b51087b9f16f"},"vehicle_type_id":"4","last_reported":1737572829,"current_range_meters":32800,"station_id":"ce4bhap2rcd13ifvqek0","pricing_plan_id":"cebpf4jnsgd1na2vs0mg"},{"bike_id":"a688ca01-f96f-4879-85c1-8fab79de6b22","system_id":"levelo_inurba_marseille","lat":43.31485,"lon":5.37306,"is_reserved":false,"is_disabled":false,"rental_uris":{"android":"levelo://app?vid=a688ca01-f96f-4879-85c1-8fab79de6b22","ios":"levelo://app?vid=a688ca01-f96f-4879-85c1-8fab79de6b22"},"vehicle_type_id":"4","last_reported":1737572829,"current_range_meters":38000,"station_id":"ce4bgt12rcd13ifvqcd0","pricing_plan_id":"cebpf4jnsgd1na2vs0mg"},{"bike_id":"97003c6d-799e-4566-bb9b-54d2510dd4a4","system_id":"levelo_inurba_marseille","lat":43.29252,"lon":5.38437,"is_reserved":false,"is_disabled":false,"rental_uris":{"android":"levelo://app?vid=97003c6d-799e-4566-bb9b-54d2510dd4a4","ios":"levelo://app?vid=97003c6d-799e-4566-bb9b-54d2510dd4a4"},"vehicle_type_id":"4","last_reported":1737572829,"current_range_meters":9600,"station_id":"ce4bh692rcd13ifvqea0","pricing_plan_id":"cebpf4jnsgd1na2vs0mg"},{"bike_id":"e140bb4a-5e7a-45e7-9cd7-0031c0e81926","system_id":"levelo_inurba_marseille","lat":43.28107,"lon":5.37845,"is_reserved":false,"is_disabled":false,"rental_uris":{"android":"levelo://app?vid=e140bb4a-5e7a-45e7-9cd7-0031c0e81926","ios":"levelo://app?vid=e140bb4a-5e7a-45e7-9cd7-0031c0e81926"},"vehicle_type_id":"4","last_reported":1737572829,"current_range_meters":32800,"station_id":"ce4bha12rcd13ifvqee0","pricing_plan_id":"cebpf4jnsgd1na2vs0mg"},{"bike_id":"0095f608-c8a3-464a-9e01-fb511f5fe6c3","system_id":"levelo_inurba_marseille","lat":43.31497,"lon":5.37316,"is_reserved":false,"is_disabled":false,"rental_uris":{"android":"levelo://app?vid=0095f608-c8a3-464a-9e01-fb511f5fe6c3","ios":"levelo://app?vid=0095f608-c8a3-464a-9e01-fb511f5fe6c3"},"vehicle_type_id":"4","last_reported":1737572829,"current_range_meters":28800,"station_id":"ce4bgt12rcd13ifvqcd0","pricing_plan_id":"cebpf4jnsgd1na2vs0mg"},{"bike_id":"c71ea7ef-6072-4511-b5b1-851be91ba120","system_id":"levelo_inurba_marseille","lat":43.29003,"lon":5.35609,"is_reserved":false,"is_disabled":false,"rental_uris":{"android":"levelo://app?vid=c71ea7ef-6072-4511-b5b1-851be91ba120","ios":"levelo://app?vid=c71ea7ef-6072-4511-b5b1-851be91ba120"},"vehicle_type_id":"4","last_reported":1737572829,"current_range_meters":12000,"station_id":"ce4bhb92rcd13ifvqen0","pricing_plan_id":"cebpf4jnsgd1na2vs0mg"},{"bike_id":"902202ff-dbfa-4690-898c-bf2273b04124","system_id":"levelo_inurba_marseille","lat":43.26945,"lon":5.38638,"is_reserved":false,"is_disabled":false,"rental_uris":{"android":"levelo://app?vid=902202ff-dbfa-4690-898c-bf2273b04124","ios":"levelo://app?vid=902202ff-dbfa-4690-898c-bf2273b04124"},"vehicle_type_id":"4","last_reported":1737572829,"current_range_meters":38000,"station_id":"ce4bhh92rcd13ifvqfh0","pricing_plan_id":"cebpf4jnsgd1na2vs0mg"},{"bike_id":"7b806792-532d-4336-a97b-8ec7fdd31b80","system_id":"levelo_inurba_marseille","lat":43.29505,"lon":5.39401,"is_reserved":false,"is_disabled":false,"rental_uris":{"android":"levelo://app?vid=7b806792-532d-4336-a97b-8ec7fdd31b80","ios":"levelo://app?vid=7b806792-532d-4336-a97b-8ec7fdd31b80"},"vehicle_type_id":"4","last_reported":1737572829,"current_range_meters":14800,"station_id":"ce4bh292rcd13ifvqdf0","pricing_plan_id":"cebpf4jnsgd1na2vs0mg"},{"bike_id":"fce56089-84c1-45a6-a29c-c82fe2e3b637","system_id":"levelo_inurba_marseille","lat":43.29523,"lon":5.38538,"is_reserved":false,"is_disabled":true,"rental_uris":{"android":"levelo://app?vid=fce56089-84c1-45a6-a29c-c82fe2e3b637","ios":"levelo://app?vid=fce56089-84c1-45a6-a29c-c82fe2e3b637"},"vehicle_type_id":"4","last_reported":1737572829,"current_range_meters":800,"station_id":"ce4bgih2rcd13ifvqba0","pricing_plan_id":"cebpf4jnsgd1na2vs0mg"},{"bike_id":"f2decab9-91be-42d6-a32f-3f3b95b4f52f","system_id":"levelo_inurba_marseille","lat":43.28471,"lon":5.38412,"is_reserved":false,"is_disabled":false,"rental_uris":{"android":"levelo://app?vid=f2decab9-91be-42d6-a32f-3f3b95b4f52f","ios":"levelo://app?vid=f2decab9-91be-42d6-a32f-3f3b95b4f52f"},"vehicle_type_id":"4","last_reported":1737572829,"current_range_meters":26800,"station_id":"ce4bh512rcd13ifvqe3g","pricing_plan_id":"cebpf4jnsgd1na2vs0mg"},{"bike_id":"3325dbd1-27ed-4cd9-ba91-0feff7fdaa22","system_id":"levelo_inurba_marseille","lat":43.30319,"lon":5.40453,"is_reserved":false,"is_disabled":false,"rental_uris":{"android":"levelo://app?vid=3325dbd1-27ed-4cd9-ba91-0feff7fdaa22","ios":"levelo://app?vid=3325dbd1-27ed-4cd9-ba91-0feff7fdaa22"},"vehicle_type_id":"4","last_reported":1737572829,"current_range_meters":36400,"station_id":"ce4bh012rcd13ifvqd10","pricing_plan_id":"cebpf4jnsgd1na2vs0mg"},{"bike_id":"2aa8a242-3616-46c6-abfd-6cf012bd07d4","system_id":"levelo_inurba_marseille","lat":43.29967,"lon":5.38478,"is_reserved":false,"is_disabled":false,"rental_uris":{"android":"levelo://app?vid=2aa8a242-3616-46c6-abfd-6cf012bd07d4","ios":"levelo://app?vid=2aa8a242-3616-46c6-abfd-6cf012bd07d4"},"vehicle_type_id":"4","last_reported":1737572829,"current_range_meters":15200,"station_id":"ce4bgj92rcd13ifvqbd0","pricing_plan_id":"cebpf4jnsgd1na2vs0mg"},{"bike_id":"6a9e6fb3-1965-43ab-a598-cf1f58670842","system_id":"levelo_inurba_marseille","lat":43.23195,"lon":5.39975,"is_reserved":false,"is_disabled":false,"rental_uris":{"android":"levelo://app?vid=6a9e6fb3-1965-43ab-a598-cf1f58670842","ios":"levelo://app?vid=6a9e6fb3-1965-43ab-a598-cf1f58670842"},"vehicle_type_id":"4","last_reported":1737572829,"current_range_meters":30400,"station_id":"ce4bhn12rcd13ifvqgqg","pricing_plan_id":"cebpf4jnsgd1na2vs0mg"},{"bike_id":"110f4d36-27c9-49b8-86bf-d85558408b80","system_id":"levelo_inurba_marseille","lat":43.32364,"lon":5.38864,"is_reserved":false,"is_disabled":false,"rental_uris":{"android":"levelo://app?vid=110f4d36-27c9-49b8-86bf-d85558408b80","ios":"levelo://app?vid=110f4d36-27c9-49b8-86bf-d85558408b80"},"vehicle_type_id":"4","last_reported":1737572829,"current_range_meters":22800,"station_id":"ce4bhqp2rcd13ifvqhog","pricing_plan_id":"cebpf4jnsgd1na2vs0mg"},{"bike_id":"e2151eb3-314b-404c-b259-cf12a3a3e0c6","system_id":"levelo_inurba_marseille","lat":43.31621,"lon":5.40272,"is_reserved":false,"is_disabled":false,"rental_uris":{"android":"levelo://app?vid=e2151eb3-314b-404c-b259-cf12a3a3e0c6","ios":"levelo://app?vid=e2151eb3-314b-404c-b259-cf12a3a3e0c6"},"vehicle_type_id":"4","last_reported":1737572829,"current_range_meters":25200,"station_id":"","pricing_plan_id":"cebpf4jnsgd1na2vs0mg"},{"bike_id":"8af34738-1005-41d3-9a03-fb3cbeb3f15f","system_id":"levelo_inurba_marseille","lat":43.31706,"lon":5.37751,"is_reserved":false,"is_disabled":false,"rental_uris":{"android":"levelo://app?vid=8af34738-1005-41d3-9a03-fb3cbeb3f15f","ios":"levelo://app?vid=8af34738-1005-41d3-9a03-fb3cbeb3f15f"},"vehicle_type_id":"4","last_reported":1737572829,"current_range_meters":34800,"station_id":"ce4bgth2rcd13ifvqch0","pricing_plan_id":"cebpf4jnsgd1na2vs0mg"},{"bike_id":"b357054c-3137-4ad4-b589-5831a84f2f7f","system_id":"levelo_inurba_marseille","lat":43.29169,"lon":5.37154,"is_reserved":false,"is_disabled":false,"rental_uris":{"android":"levelo://app?vid=b357054c-3137-4ad4-b589-5831a84f2f7f","ios":"levelo://app?vid=b357054c-3137-4ad4-b589-5831a84f2f7f"},"vehicle_type_id":"4","last_reported":1737572829,"current_range_meters":23200,"station_id":"ce4bha92rcd13ifvqeh0","pricing_plan_id":"cebpf4jnsgd1na2vs0mg"},{"bike_id":"3bcd921d-810c-4845-87ab-d96c2ac5451e","system_id":"levelo_inurba_marseille","lat":43.27819,"lon":5.40719,"is_reserved":false,"is_disabled":false,"rental_uris":{"android":"levelo://app?vid=3bcd921d-810c-4845-87ab-d96c2ac5451e","ios":"levelo://app?vid=3bcd921d-810c-4845-87ab-d96c2ac5451e"},"vehicle_type_id":"4","last_reported":1737572829,"current_range_meters":11600,"station_id":"ce4bhnh2rcd13ifvqgtg","pricing_plan_id":"cebpf4jnsgd1na2vs0mg"},{"bike_id":"c39c4262-4ea5-4387-98d9-ced1e9597d73","system_id":"levelo_inurba_marseille","lat":43.2963,"lon":5.40599,"is_reserved":false,"is_disabled":false,"rental_uris":{"android":"levelo://app?vid=c39c4262-4ea5-4387-98d9-ced1e9597d73","ios":"levelo://app?vid=c39c4262-4ea5-4387-98d9-ced1e9597d73"},"vehicle_type_id":"4","last_reported":1737572829,"current_range_meters":32000,"station_id":"ce4bh0h2rcd13ifvqd60","pricing_plan_id":"cebpf4jnsgd1na2vs0mg"},{"bike_id":"c01ff322-934e-4fed-b8ab-096213fbdb3c","system_id":"levelo_inurba_marseille","lat":43.31993,"lon":5.38148,"is_reserved":false,"is_disabled":false,"rental_uris":{"android":"levelo://app?vid=c01ff322-934e-4fed-b8ab-096213fbdb3c","ios":"levelo://app?vid=c01ff322-934e-4fed-b8ab-096213fbdb3c"},"vehicle_type_id":"4","last_reported":1737572829,"current_range_meters":39200,"station_id":"ce4bhr12rcd13ifvqhpg","pricing_plan_id":"cebpf4jnsgd1na2vs0mg"},{"bike_id":"ac8f2c99-5b2b-4a62-9ac6-c3f184bbda75","system_id":"levelo_inurba_marseille","lat":43.27907,"lon":5.38,"is_reserved":false,"is_disabled":false,"rental_uris":{"android":"levelo://app?vid=ac8f2c99-5b2b-4a62-9ac6-c3f184bbda75","ios":"levelo://app?vid=ac8f2c99-5b2b-4a62-9ac6-c3f184bbda75"},"vehicle_type_id":"4","last_reported":1737572829,"current_range_meters":30400,"station_id":"ce4bhf92rcd13ifvqf50","pricing_plan_id":"cebpf4jnsgd1na2vs0mg"},{"bike_id":"69db6415-9707-42d2-aff6-bddac8adc810","system_id":"levelo_inurba_marseille","lat":43.28421,"lon":5.375,"is_reserved":false,"is_disabled":false,"rental_uris":{"android":"levelo://app?vid=69db6415-9707-42d2-aff6-bddac8adc810","ios":"levelo://app?vid=69db6415-9707-42d2-aff6-bddac8adc810"},"vehicle_type_id":"4","last_reported":1737572829,"current_range_meters":38400,"station_id":"ce4bh412rcd13ifvqds0","pricing_plan_id":"cebpf4jnsgd1na2vs0mg"},{"bike_id":"3f63e53d-3b46-4782-a190-92b6b8762f64","system_id":"levelo_inurba_marseille","lat":43.31893,"lon":5.4073,"is_reserved":false,"is_disabled":false,"rental_uris":{"android":"levelo://app?vid=3f63e53d-3b46-4782-a190-92b6b8762f64","ios":"levelo://app?vid=3f63e53d-3b46-4782-a190-92b6b8762f64"},"vehicle_type_id":"4","last_reported":1737572829,"current_range_meters":32400,"station_id":"ce4bhq12rcd13ifvqhig","pricing_plan_id":"cebpf4jnsgd1na2vs0mg"},{"bike_id":"8cf72ef7-e99d-4251-a909-d1924caef0b7","system_id":"levelo_inurba_marseille","lat":43.29598,"lon":5.36721,"is_reserved":false,"is_disabled":false,"rental_uris":{"android":"levelo://app?vid=8cf72ef7-e99d-4251-a909-d1924caef0b7","ios":"levelo://app?vid=8cf72ef7-e99d-4251-a909-d1924caef0b7"},"vehicle_type_id":"4","last_reported":1737572829,"current_range_meters":38800,"station_id":"ce4bgph2rcd13ifvqc2g","pricing_plan_id":"cebpf4jnsgd1na2vs0mg"},{"bike_id":"6440f376-b0ac-4979-8b74-813c76d7599b","system_id":"levelo_inurba_marseille","lat":43.24164,"lon":5.39733,"is_reserved":false,"is_disabled":false,"rental_uris":{"android":"levelo://app?vid=6440f376-b0ac-4979-8b74-813c76d7599b","ios":"levelo://app?vid=6440f376-b0ac-4979-8b74-813c76d7599b"},"vehicle_type_id":"4","last_reported":1737572829,"current_range_meters":28000,"station_id":"ce4bhn12rcd13ifvqgpg","pricing_plan_id":"cebpf4jnsgd1na2vs0mg"},{"bike_id":"07222054-6bcd-45e4-8545-43979da21269","system_id":"levelo_inurba_marseille","lat":43.30121,"lon":5.39892,"is_reserved":false,"is_disabled":false,"rental_uris":{"android":"levelo://app?vid=07222054-6bcd-45e4-8545-43979da21269","ios":"levelo://app?vid=07222054-6bcd-45e4-8545-43979da21269"},"vehicle_type_id":"4","last_reported":1737572829,"current_range_meters":38800,"station_id":"ce4bh0h2rcd13ifvqd40","pricing_plan_id":"cebpf4jnsgd1na2vs0mg"},{"bike_id":"53608539-8cd0-47e7-9cfb-d1161556d6fb","system_id":"levelo_inurba_marseille","lat":43.2549,"lon":5.37653,"is_reserved":false,"is_disabled":false,"rental_uris":{"android":"levelo://app?vid=53608539-8cd0-47e7-9cfb-d1161556d6fb","ios":"levelo://app?vid=53608539-8cd0-47e7-9cfb-d1161556d6fb"},"vehicle_type_id":"4","last_reported":1737572829,"current_range_meters":24800,"station_id":"ce4bhh12rcd13ifvqff0","pricing_plan_id":"cebpf4jnsgd1na2vs0mg"},{"bike_id":"f98a7ee0-f9fe-4556-933e-ecf6827038e5","system_id":"levelo_inurba_marseille","lat":43.29175,"lon":5.35724,"is_reserved":false,"is_disabled":false,"rental_uris":{"android":"levelo://app?vid=f98a7ee0-f9fe-4556-933e-ecf6827038e5","ios":"levelo://app?vid=f98a7ee0-f9fe-4556-933e-ecf6827038e5"},"vehicle_type_id":"4","last_reported":1737572829,"current_range_meters":18000,"station_id":"","pricing_plan_id":"cebpf4jnsgd1na2vs0mg"},{"bike_id":"8fca4091-c5fa-4154-84ea-a7460f617841","system_id":"levelo_inurba_marseille","lat":43.30209,"lon":5.39467,"is_reserved":false,"is_disabled":false,"rental_uris":{"android":"levelo://app?vid=8fca4091-c5fa-4154-84ea-a7460f617841","ios":"levelo://app?vid=8fca4091-c5fa-4154-84ea-a7460f617841"},"vehicle_type_id":"4","last_reported":1737572829,"current_range_meters":10800,"station_id":"ce4bh0p2rcd13ifvqd70","pricing_plan_id":"cebpf4jnsgd1na2vs0mg"},{"bike_id":"c1b9a20a-b484-4b04-8fbf-bea2f1ecaf7b","system_id":"levelo_inurba_marseille","lat":43.24393,"lon":5.37058,"is_reserved":false,"is_disabled":false,"rental_uris":{"android":"levelo://app?vid=c1b9a20a-b484-4b04-8fbf-bea2f1ecaf7b","ios":"levelo://app?vid=c1b9a20a-b484-4b04-8fbf-bea2f1ecaf7b"},"vehicle_type_id":"4","last_reported":1737572829,"current_range_meters":24800,"station_id":"ce4bhhh2rcd13ifvqfk0","pricing_plan_id":"cebpf4jnsgd1na2vs0mg"},{"bike_id":"8a74d9b7-54a0-4c47-bc4e-fd3b900f79fa","system_id":"levelo_inurba_marseille","lat":43.29506,"lon":5.37518,"is_reserved":false,"is_disabled":false,"rental_uris":{"android":"levelo://app?vid=8a74d9b7-54a0-4c47-bc4e-fd3b900f79fa","ios":"levelo://app?vid=8a74d9b7-54a0-4c47-bc4e-fd3b900f79fa"},"vehicle_type_id":"4","last_reported":1737572829,"current_range_meters":27600,"station_id":"ce4bgkp2rcd13ifvqbmg","pricing_plan_id":"cebpf4jnsgd1na2vs0mg"},{"bike_id":"3967bc6b-cbb3-42d3-a6ea-5f0db48a1b4b","system_id":"levelo_inurba_marseille","lat":43.29176,"lon":5.37165,"is_reserved":false,"is_disabled":false,"rental_uris":{"android":"levelo://app?vid=3967bc6b-cbb3-42d3-a6ea-5f0db48a1b4b","ios":"levelo://app?vid=3967bc6b-cbb3-42d3-a6ea-5f0db48a1b4b"},"vehicle_type_id":"4","last_reported":1737572829,"current_range_meters":39200,"station_id":"ce4bha92rcd13ifvqeh0","pricing_plan_id":"cebpf4jnsgd1na2vs0mg"},{"bike_id":"91f957bd-7ae6-4841-8ac4-1ecdcd0c697e","system_id":"levelo_inurba_marseille","lat":43.3155,"lon":5.40168,"is_reserved":false,"is_disabled":false,"rental_uris":{"android":"levelo://app?vid=91f957bd-7ae6-4841-8ac4-1ecdcd0c697e","ios":"levelo://app?vid=91f957bd-7ae6-4841-8ac4-1ecdcd0c697e"},"vehicle_type_id":"4","last_reported":1737572829,"current_range_meters":28000,"station_id":"","pricing_plan_id":"cebpf4jnsgd1na2vs0mg"},{"bike_id":"8f7f9e8c-c2b3-47fa-99c4-a45ae6496a92","system_id":"levelo_inurba_marseille","lat":43.29593,"lon":5.38103,"is_reserved":false,"is_disabled":false,"rental_uris":{"android":"levelo://app?vid=8f7f9e8c-c2b3-47fa-99c4-a45ae6496a92","ios":"levelo://app?vid=8f7f9e8c-c2b3-47fa-99c4-a45ae6496a92"},"vehicle_type_id":"4","last_reported":1737572829,"current_range_meters":32000,"station_id":"ce4bgl12rcd13ifvqbo0","pricing_plan_id":"cebpf4jnsgd1na2vs0mg"},{"bike_id":"96663138-92b9-4343-9a11-314ee4531fc0","system_id":"levelo_inurba_marseille","lat":43.30776,"lon":5.37647,"is_reserved":false,"is_disabled":true,"rental_uris":{"android":"levelo://app?vid=96663138-92b9-4343-9a11-314ee4531fc0","ios":"levelo://app?vid=96663138-92b9-4343-9a11-314ee4531fc0"},"vehicle_type_id":"4","last_reported":1737572829,"current_range_meters":17600,"station_id":"ce4bgv92rcd13ifvqcq0","pricing_plan_id":"cebpf4jnsgd1na2vs0mg"},{"bike_id":"a9d08443-71b6-4ab7-93ae-f8d5b6602792","system_id":"levelo_inurba_marseille","lat":43.30802,"lon":5.4353,"is_reserved":false,"is_disabled":false,"rental_uris":{"android":"levelo://app?vid=a9d08443-71b6-4ab7-93ae-f8d5b6602792","ios":"levelo://app?vid=a9d08443-71b6-4ab7-93ae-f8d5b6602792"},"vehicle_type_id":"4","last_reported":1737572829,"current_range_meters":14400,"station_id":"ce4bhph2rcd13ifvqheg","pricing_plan_id":"cebpf4jnsgd1na2vs0mg"},{"bike_id":"7c99757d-a618-4c05-bdf4-03e32374f001","system_id":"levelo_inurba_marseille","lat":43.28461,"lon":5.35887,"is_reserved":false,"is_disabled":false,"rental_uris":{"android":"levelo://app?vid=7c99757d-a618-4c05-bdf4-03e32374f001","ios":"levelo://app?vid=7c99757d-a618-4c05-bdf4-03e32374f001"},"vehicle_type_id":"4","last_reported":1737572829,"current_range_meters":34000,"station_id":"ce4bhah2rcd13ifvqei0","pricing_plan_id":"cebpf4jnsgd1na2vs0mg"},{"bike_id":"671a624e-4572-4a73-878a-56cac04af55b","system_id":"levelo_inurba_marseille","lat":43.29018,"lon":5.38627,"is_reserved":false,"is_disabled":false,"rental_uris":{"android":"levelo://app?vid=671a624e-4572-4a73-878a-56cac04af55b","ios":"levelo://app?vid=671a624e-4572-4a73-878a-56cac04af55b"},"vehicle_type_id":"4","last_reported":1737572829,"current_range_meters":20800,"station_id":"ce4bh4p2rcd13ifvqe0g","pricing_plan_id":"cebpf4jnsgd1na2vs0mg"},{"bike_id":"b657a756-1477-49c4-a8ff-7db2f86ec3c4","system_id":"levelo_inurba_marseille","lat":43.29778,"lon":5.39336,"is_reserved":false,"is_disabled":false,"rental_uris":{"android":"levelo://app?vid=b657a756-1477-49c4-a8ff-7db2f86ec3c4","ios":"levelo://app?vid=b657a756-1477-49c4-a8ff-7db2f86ec3c4"},"vehicle_type_id":"4","last_reported":1737572829,"current_range_meters":22000,"station_id":"chh1huq6cuj3fo74tm60","pricing_plan_id":"cebpf4jnsgd1na2vs0mg"},{"bike_id":"8ab0346c-8001-4067-8852-009244e2b53d","system_id":"levelo_inurba_marseille","lat":43.31085,"lon":5.42423,"is_reserved":false,"is_disabled":false,"rental_uris":{"android":"levelo://app?vid=8ab0346c-8001-4067-8852-009244e2b53d","ios":"levelo://app?vid=8ab0346c-8001-4067-8852-009244e2b53d"},"vehicle_type_id":"4","last_reported":1737572829,"current_range_meters":38800,"station_id":"ce4bhp92rcd13ifvqhag","pricing_plan_id":"cebpf4jnsgd1na2vs0mg"},{"bike_id":"49b72580-0a1d-4edc-bc96-4de0de30e7b4","system_id":"levelo_inurba_marseille","lat":43.31067,"lon":5.38349,"is_reserved":false,"is_disabled":false,"rental_uris":{"android":"levelo://app?vid=49b72580-0a1d-4edc-bc96-4de0de30e7b4","ios":"levelo://app?vid=49b72580-0a1d-4edc-bc96-4de0de30e7b4"},"vehicle_type_id":"4","last_reported":1737572829,"current_range_meters":38800,"station_id":"ce4bgv92rcd13ifvqcr0","pricing_plan_id":"cebpf4jnsgd1na2vs0mg"},{"bike_id":"ae61e9fb-77e2-453d-8f80-29ea9c2b14f4","system_id":"levelo_inurba_marseille","lat":43.29718,"lon":5.36609,"is_reserved":false,"is_disabled":false,"rental_uris":{"android":"levelo://app?vid=ae61e9fb-77e2-453d-8f80-29ea9c2b14f4","ios":"levelo://app?vid=ae61e9fb-77e2-453d-8f80-29ea9c2b14f4"},"vehicle_type_id":"4","last_reported":1737572829,"current_range_meters":38400,"station_id":"ce4bgn12rcd13ifvqbt0","pricing_plan_id":"cebpf4jnsgd1na2vs0mg"},{"bike_id":"03f65ec4-487a-4a60-a6b7-d28a834120f4","system_id":"levelo_inurba_marseille","lat":43.28136,"lon":5.42645,"is_reserved":false,"is_disabled":false,"rental_uris":{"android":"levelo://app?vid=03f65ec4-487a-4a60-a6b7-d28a834120f4","ios":"levelo://app?vid=03f65ec4-487a-4a60-a6b7-d28a834120f4"},"vehicle_type_id":"4","last_reported":1737572829,"current_range_meters":30800,"station_id":"ce4bhnh2rcd13ifvqgug","pricing_plan_id":"cebpf4jnsgd1na2vs0mg"},{"bike_id":"e14baba4-7381-4ad7-9450-30b4b09a275b","system_id":"levelo_inurba_marseille","lat":43.31083,"lon":5.42432,"is_reserved":false,"is_disabled":false,"rental_uris":{"android":"levelo://app?vid=e14baba4-7381-4ad7-9450-30b4b09a275b","ios":"levelo://app?vid=e14baba4-7381-4ad7-9450-30b4b09a275b"},"vehicle_type_id":"4","last_reported":1737572829,"current_range_meters":37600,"station_id":"ce4bhp92rcd13ifvqhag","pricing_plan_id":"cebpf4jnsgd1na2vs0mg"},{"bike_id":"46df303c-af7b-4bd6-88dd-7d9758a3ac21","system_id":"levelo_inurba_marseille","lat":43.30442,"lon":5.38886,"is_reserved":false,"is_disabled":true,"rental_uris":{"android":"levelo://app?vid=46df303c-af7b-4bd6-88dd-7d9758a3ac21","ios":"levelo://app?vid=46df303c-af7b-4bd6-88dd-7d9758a3ac21"},"vehicle_type_id":"4","last_reported":1737572829,"current_range_meters":24000,"station_id":"ce4bgk12rcd13ifvqbi0","pricing_plan_id":"cebpf4jnsgd1na2vs0mg"},{"bike_id":"5ba5cfe7-a3f0-4559-acb3-f50099266fea","system_id":"levelo_inurba_marseille","lat":43.27584,"lon":5.3841,"is_reserved":false,"is_disabled":false,"rental_uris":{"android":"levelo://app?vid=5ba5cfe7-a3f0-4559-acb3-f50099266fea","ios":"levelo://app?vid=5ba5cfe7-a3f0-4559-acb3-f50099266fea"},"vehicle_type_id":"4","last_reported":1737572829,"current_range_meters":30000,"station_id":"ce4bhh92rcd13ifvqfi0","pricing_plan_id":"cebpf4jnsgd1na2vs0mg"},{"bike_id":"dc25515f-2516-4d8e-8ff7-eaa9f571f705","system_id":"levelo_inurba_marseille","lat":43.3011,"lon":5.39086,"is_reserved":false,"is_disabled":true,"rental_uris":{"android":"levelo://app?vid=dc25515f-2516-4d8e-8ff7-eaa9f571f705","ios":"levelo://app?vid=dc25515f-2516-4d8e-8ff7-eaa9f571f705"},"vehicle_type_id":"4","last_reported":1737572829,"current_range_meters":0,"station_id":"ce4bh192rcd13ifvqdb0","pricing_plan_id":"cebpf4jnsgd1na2vs0mg"},{"bike_id":"ed100342-f883-4b53-abec-316a656acfa1","system_id":"levelo_inurba_marseille","lat":43.2903,"lon":5.38653,"is_reserved":false,"is_disabled":false,"rental_uris":{"android":"levelo://app?vid=ed100342-f883-4b53-abec-316a656acfa1","ios":"levelo://app?vid=ed100342-f883-4b53-abec-316a656acfa1"},"vehicle_type_id":"4","last_reported":1737572829,"current_range_meters":30000,"station_id":"ce4bh4p2rcd13ifvqe0g","pricing_plan_id":"cebpf4jnsgd1na2vs0mg"},{"bike_id":"6a43f7c6-5cb1-4019-aadc-092e87ce2763","system_id":"levelo_inurba_marseille","lat":43.27849,"lon":5.3918,"is_reserved":false,"is_disabled":false,"rental_uris":{"android":"levelo://app?vid=6a43f7c6-5cb1-4019-aadc-092e87ce2763","ios":"levelo://app?vid=6a43f7c6-5cb1-4019-aadc-092e87ce2763"},"vehicle_type_id":"4","last_reported":1737572829,"current_range_meters":14400,"station_id":"ce4bhjp2rcd13ifvqga0","pricing_plan_id":"cebpf4jnsgd1na2vs0mg"},{"bike_id":"37a30f15-00d4-4a23-8df8-38fa02c1faf7","system_id":"levelo_inurba_marseille","lat":43.28488,"lon":5.3842,"is_reserved":false,"is_disabled":false,"rental_uris":{"android":"levelo://app?vid=37a30f15-00d4-4a23-8df8-38fa02c1faf7","ios":"levelo://app?vid=37a30f15-00d4-4a23-8df8-38fa02c1faf7"},"vehicle_type_id":"4","last_reported":1737572829,"current_range_meters":9600,"station_id":"ce4bh512rcd13ifvqe3g","pricing_plan_id":"cebpf4jnsgd1na2vs0mg"},{"bike_id":"988f098f-ad6f-4b5e-a9e2-b984b2365a82","system_id":"levelo_inurba_marseille","lat":43.3117,"lon":5.38729,"is_reserved":false,"is_disabled":false,"rental_uris":{"android":"levelo://app?vid=988f098f-ad6f-4b5e-a9e2-b984b2365a82","ios":"levelo://app?vid=988f098f-ad6f-4b5e-a9e2-b984b2365a82"},"vehicle_type_id":"4","last_reported":1737572829,"current_range_meters":28800,"station_id":"ce4bgv12rcd13ifvqcp0","pricing_plan_id":"cebpf4jnsgd1na2vs0mg"},{"bike_id":"15503ea3-af88-46dc-98ce-74f54620fbfb","system_id":"levelo_inurba_marseille","lat":43.30208,"lon":5.3945,"is_reserved":false,"is_disabled":false,"rental_uris":{"android":"levelo://app?vid=15503ea3-af88-46dc-98ce-74f54620fbfb","ios":"levelo://app?vid=15503ea3-af88-46dc-98ce-74f54620fbfb"},"vehicle_type_id":"4","last_reported":1737572829,"current_range_meters":38800,"station_id":"ce4bh0p2rcd13ifvqd70","pricing_plan_id":"cebpf4jnsgd1na2vs0mg"},{"bike_id":"df52a64c-de81-404e-842e-688282a4849a","system_id":"levelo_inurba_marseille","lat":43.31692,"lon":5.4046,"is_reserved":false,"is_disabled":false,"rental_uris":{"android":"levelo://app?vid=df52a64c-de81-404e-842e-688282a4849a","ios":"levelo://app?vid=df52a64c-de81-404e-842e-688282a4849a"},"vehicle_type_id":"4","last_reported":1737572829,"current_range_meters":26000,"station_id":"ce4bh012rcd13ifvqd00","pricing_plan_id":"cebpf4jnsgd1na2vs0mg"},{"bike_id":"b88f3778-4fc3-4d66-9523-2071b83b7ea9","system_id":"levelo_inurba_marseille","lat":43.30885,"lon":5.39661,"is_reserved":false,"is_disabled":false,"rental_uris":{"android":"levelo://app?vid=b88f3778-4fc3-4d66-9523-2071b83b7ea9","ios":"levelo://app?vid=b88f3778-4fc3-4d66-9523-2071b83b7ea9"},"vehicle_type_id":"4","last_reported":1737572829,"current_range_meters":35200,"station_id":"ce4bh012rcd13ifvqcv0","pricing_plan_id":"cebpf4jnsgd1na2vs0mg"},{"bike_id":"9b4582fb-054f-4843-a73f-6afd5b9195a1","system_id":"levelo_inurba_marseille","lat":43.31767,"lon":5.39019,"is_reserved":false,"is_disabled":false,"rental_uris":{"android":"levelo://app?vid=9b4582fb-054f-4843-a73f-6afd5b9195a1","ios":"levelo://app?vid=9b4582fb-054f-4843-a73f-6afd5b9195a1"},"vehicle_type_id":"4","last_reported":1737572829,"current_range_meters":18800,"station_id":"ce4bhqp2rcd13ifvqhng","pricing_plan_id":"cebpf4jnsgd1na2vs0mg"},{"bike_id":"681a740b-7b3e-4d8d-af76-c004a8668bea","system_id":"levelo_inurba_marseille","lat":43.293,"lon":5.37461,"is_reserved":false,"is_disabled":false,"rental_uris":{"android":"levelo://app?vid=681a740b-7b3e-4d8d-af76-c004a8668bea","ios":"levelo://app?vid=681a740b-7b3e-4d8d-af76-c004a8668bea"},"vehicle_type_id":"4","last_reported":1737572829,"current_range_meters":22400,"station_id":"ce4bgi12rcd13ifvqb70","pricing_plan_id":"cebpf4jnsgd1na2vs0mg"},{"bike_id":"e0ba6aac-d8ba-47b1-aa97-80ae735f1af2","system_id":"levelo_inurba_marseille","lat":43.25716,"lon":5.41108,"is_reserved":false,"is_disabled":false,"rental_uris":{"android":"levelo://app?vid=e0ba6aac-d8ba-47b1-aa97-80ae735f1af2","ios":"levelo://app?vid=e0ba6aac-d8ba-47b1-aa97-80ae735f1af2"},"vehicle_type_id":"4","last_reported":1737572829,"current_range_meters":24800,"station_id":"ce4bhkp2rcd13ifvqgd0","pricing_plan_id":"cebpf4jnsgd1na2vs0mg"},{"bike_id":"7f7971a4-3309-4c4c-ba6d-ee74a73d6b07","system_id":"levelo_inurba_marseille","lat":43.30427,"lon":5.38892,"is_reserved":false,"is_disabled":true,"rental_uris":{"android":"levelo://app?vid=7f7971a4-3309-4c4c-ba6d-ee74a73d6b07","ios":"levelo://app?vid=7f7971a4-3309-4c4c-ba6d-ee74a73d6b07"},"vehicle_type_id":"4","last_reported":1737572829,"current_range_meters":37600,"station_id":"ce4bgk12rcd13ifvqbi0","pricing_plan_id":"cebpf4jnsgd1na2vs0mg"},{"bike_id":"fe5283d4-ad50-4326-875d-e657e7e908e3","system_id":"levelo_inurba_marseille","lat":43.31467,"lon":5.37314,"is_reserved":false,"is_disabled":false,"rental_uris":{"android":"levelo://app?vid=fe5283d4-ad50-4326-875d-e657e7e908e3","ios":"levelo://app?vid=fe5283d4-ad50-4326-875d-e657e7e908e3"},"vehicle_type_id":"4","last_reported":1737572829,"current_range_meters":32800,"station_id":"ce4bgt12rcd13ifvqcd0","pricing_plan_id":"cebpf4jnsgd1na2vs0mg"},{"bike_id":"95289c82-6911-43c4-a49c-6e7f2290b672","system_id":"levelo_inurba_marseille","lat":43.304187,"lon":5.412854,"is_reserved":false,"is_disabled":true,"rental_uris":{"android":"levelo://app?vid=95289c82-6911-43c4-a49c-6e7f2290b672","ios":"levelo://app?vid=95289c82-6911-43c4-a49c-6e7f2290b672"},"vehicle_type_id":"4","last_reported":1737572829,"current_range_meters":1600,"station_id":"ce4bhop2rcd13ifvqh8g","pricing_plan_id":"cebpf4jnsgd1na2vs0mg"},{"bike_id":"e89485d9-cbb3-495b-be67-2d51afd3a182","system_id":"levelo_inurba_marseille","lat":43.30305,"lon":5.39215,"is_reserved":false,"is_disabled":false,"rental_uris":{"android":"levelo://app?vid=e89485d9-cbb3-495b-be67-2d51afd3a182","ios":"levelo://app?vid=e89485d9-cbb3-495b-be67-2d51afd3a182"},"vehicle_type_id":"4","last_reported":1737572829,"current_range_meters":30000,"station_id":"ce4bgkh2rcd13ifvqbk0","pricing_plan_id":"cebpf4jnsgd1na2vs0mg"},{"bike_id":"96e0558c-cec8-47c4-89d3-1aa21c4b0119","system_id":"levelo_inurba_marseille","lat":43.25708,"lon":5.4181,"is_reserved":false,"is_disabled":false,"rental_uris":{"android":"levelo://app?vid=96e0558c-cec8-47c4-89d3-1aa21c4b0119","ios":"levelo://app?vid=96e0558c-cec8-47c4-89d3-1aa21c4b0119"},"vehicle_type_id":"4","last_reported":1737572829,"current_range_meters":20000,"station_id":"","pricing_plan_id":"cebpf4jnsgd1na2vs0mg"},{"bike_id":"f4f0bb5b-d280-444f-a04a-6cef2bf9bee3","system_id":"levelo_inurba_marseille","lat":43.27943,"lon":5.41039,"is_reserved":false,"is_disabled":false,"rental_uris":{"android":"levelo://app?vid=f4f0bb5b-d280-444f-a04a-6cef2bf9bee3","ios":"levelo://app?vid=f4f0bb5b-d280-444f-a04a-6cef2bf9bee3"},"vehicle_type_id":"4","last_reported":1737572829,"current_range_meters":27200,"station_id":"ce4bhnp2rcd13ifvqh0g","pricing_plan_id":"cebpf4jnsgd1na2vs0mg"},{"bike_id":"e56673c9-6d54-4cee-9600-19b9bdfc7c6c","system_id":"levelo_inurba_marseille","lat":43.26945,"lon":5.3863,"is_reserved":false,"is_disabled":false,"rental_uris":{"android":"levelo://app?vid=e56673c9-6d54-4cee-9600-19b9bdfc7c6c","ios":"levelo://app?vid=e56673c9-6d54-4cee-9600-19b9bdfc7c6c"},"vehicle_type_id":"4","last_reported":1737572829,"current_range_meters":7200,"station_id":"ce4bhh92rcd13ifvqfh0","pricing_plan_id":"cebpf4jnsgd1na2vs0mg"},{"bike_id":"273414ea-1401-4794-b313-34930b6f0ad8","system_id":"levelo_inurba_marseille","lat":43.29977,"lon":5.38495,"is_reserved":false,"is_disabled":false,"rental_uris":{"android":"levelo://app?vid=273414ea-1401-4794-b313-34930b6f0ad8","ios":"levelo://app?vid=273414ea-1401-4794-b313-34930b6f0ad8"},"vehicle_type_id":"4","last_reported":1737572829,"current_range_meters":38000,"station_id":"ce4bgj92rcd13ifvqbd0","pricing_plan_id":"cebpf4jnsgd1na2vs0mg"},{"bike_id":"daebd02a-2818-43eb-81a6-0351198e36dc","system_id":"levelo_inurba_marseille","lat":43.31109,"lon":5.3776,"is_reserved":false,"is_disabled":false,"rental_uris":{"android":"levelo://app?vid=daebd02a-2818-43eb-81a6-0351198e36dc","ios":"levelo://app?vid=daebd02a-2818-43eb-81a6-0351198e36dc"},"vehicle_type_id":"4","last_reported":1737572829,"current_range_meters":30800,"station_id":"ce4bgt92rcd13ifvqcg0","pricing_plan_id":"cebpf4jnsgd1na2vs0mg"},{"bike_id":"cc7c3071-962f-4b64-b728-a68ed33e51bb","system_id":"levelo_inurba_marseille","lat":43.28701,"lon":5.37391,"is_reserved":false,"is_disabled":false,"rental_uris":{"android":"levelo://app?vid=cc7c3071-962f-4b64-b728-a68ed33e51bb","ios":"levelo://app?vid=cc7c3071-962f-4b64-b728-a68ed33e51bb"},"vehicle_type_id":"4","last_reported":1737572829,"current_range_meters":6800,"station_id":"ce4bh3p2rcd13ifvqdq0","pricing_plan_id":"cebpf4jnsgd1na2vs0mg"},{"bike_id":"13a64475-e4c7-493c-900a-0bcfe86942ca","system_id":"levelo_inurba_marseille","lat":43.3082,"lon":5.43525,"is_reserved":false,"is_disabled":false,"rental_uris":{"android":"levelo://app?vid=13a64475-e4c7-493c-900a-0bcfe86942ca","ios":"levelo://app?vid=13a64475-e4c7-493c-900a-0bcfe86942ca"},"vehicle_type_id":"4","last_reported":1737572829,"current_range_meters":16000,"station_id":"ce4bhph2rcd13ifvqheg","pricing_plan_id":"cebpf4jnsgd1na2vs0mg"},{"bike_id":"ac3fa518-fef3-4a6f-9e1e-03befa6efc87","system_id":"levelo_inurba_marseille","lat":43.27952,"lon":5.41043,"is_reserved":false,"is_disabled":false,"rental_uris":{"android":"levelo://app?vid=ac3fa518-fef3-4a6f-9e1e-03befa6efc87","ios":"levelo://app?vid=ac3fa518-fef3-4a6f-9e1e-03befa6efc87"},"vehicle_type_id":"4","last_reported":1737572829,"current_range_meters":12800,"station_id":"ce4bhnp2rcd13ifvqh0g","pricing_plan_id":"cebpf4jnsgd1na2vs0mg"},{"bike_id":"366618e5-58e4-49a2-b359-c5654fbadc2c","system_id":"levelo_inurba_marseille","lat":43.24085,"lon":5.37761,"is_reserved":false,"is_disabled":false,"rental_uris":{"android":"levelo://app?vid=366618e5-58e4-49a2-b359-c5654fbadc2c","ios":"levelo://app?vid=366618e5-58e4-49a2-b359-c5654fbadc2c"},"vehicle_type_id":"4","last_reported":1737572829,"current_range_meters":20800,"station_id":"ce4bhnp2rcd13ifvqgvg","pricing_plan_id":"cebpf4jnsgd1na2vs0mg"},{"bike_id":"8fe1c997-19b8-40f6-b8c8-f993de4d95e7","system_id":"levelo_inurba_marseille","lat":43.30221,"lon":5.394836,"is_reserved":false,"is_disabled":false,"rental_uris":{"android":"levelo://app?vid=8fe1c997-19b8-40f6-b8c8-f993de4d95e7","ios":"levelo://app?vid=8fe1c997-19b8-40f6-b8c8-f993de4d95e7"},"vehicle_type_id":"4","last_reported":1737572829,"current_range_meters":36000,"station_id":"ce4bh0p2rcd13ifvqd70","pricing_plan_id":"cebpf4jnsgd1na2vs0mg"},{"bike_id":"aaa0c41b-3b4f-4f38-bba2-425d19b5f467","system_id":"levelo_inurba_marseille","lat":43.25713,"lon":5.41804,"is_reserved":false,"is_disabled":false,"rental_uris":{"android":"levelo://app?vid=aaa0c41b-3b4f-4f38-bba2-425d19b5f467","ios":"levelo://app?vid=aaa0c41b-3b4f-4f38-bba2-425d19b5f467"},"vehicle_type_id":"4","last_reported":1737572829,"current_range_meters":29600,"station_id":"","pricing_plan_id":"cebpf4jnsgd1na2vs0mg"},{"bike_id":"b0ee3244-b915-4f05-8704-8eb07d0c50b6","system_id":"levelo_inurba_marseille","lat":43.31706,"lon":5.37737,"is_reserved":false,"is_disabled":false,"rental_uris":{"android":"levelo://app?vid=b0ee3244-b915-4f05-8704-8eb07d0c50b6","ios":"levelo://app?vid=b0ee3244-b915-4f05-8704-8eb07d0c50b6"},"vehicle_type_id":"4","last_reported":1737572829,"current_range_meters":39200,"station_id":"ce4bgth2rcd13ifvqch0","pricing_plan_id":"cebpf4jnsgd1na2vs0mg"},{"bike_id":"fb2df75f-ea71-4f43-ac2e-88d0918e8d4f","system_id":"levelo_inurba_marseille","lat":43.287317,"lon":5.373823,"is_reserved":false,"is_disabled":false,"rental_uris":{"android":"levelo://app?vid=fb2df75f-ea71-4f43-ac2e-88d0918e8d4f","ios":"levelo://app?vid=fb2df75f-ea71-4f43-ac2e-88d0918e8d4f"},"vehicle_type_id":"4","last_reported":1737572829,"current_range_meters":38000,"station_id":"ce4bh5p2rcd13ifvqe4g","pricing_plan_id":"cebpf4jnsgd1na2vs0mg"},{"bike_id":"bd9b9572-95bc-474a-9c59-2f58bb0e1269","system_id":"levelo_inurba_marseille","lat":43.29204,"lon":5.35804,"is_reserved":false,"is_disabled":false,"rental_uris":{"android":"levelo://app?vid=bd9b9572-95bc-474a-9c59-2f58bb0e1269","ios":"levelo://app?vid=bd9b9572-95bc-474a-9c59-2f58bb0e1269"},"vehicle_type_id":"4","last_reported":1737572829,"current_range_meters":31200,"station_id":"ce4bhb12rcd13ifvqel0","pricing_plan_id":"cebpf4jnsgd1na2vs0mg"},{"bike_id":"58bd67b2-eea0-4ad2-8092-8cb589d6733b","system_id":"levelo_inurba_marseille","lat":43.30802,"lon":5.43524,"is_reserved":false,"is_disabled":false,"rental_uris":{"android":"levelo://app?vid=58bd67b2-eea0-4ad2-8092-8cb589d6733b","ios":"levelo://app?vid=58bd67b2-eea0-4ad2-8092-8cb589d6733b"},"vehicle_type_id":"4","last_reported":1737572829,"current_range_meters":8400,"station_id":"ce4bhph2rcd13ifvqheg","pricing_plan_id":"cebpf4jnsgd1na2vs0mg"},{"bike_id":"f8216a2b-e7c5-4eea-8c3d-912daef0d729","system_id":"levelo_inurba_marseille","lat":43.29891,"lon":5.43642,"is_reserved":false,"is_disabled":false,"rental_uris":{"android":"levelo://app?vid=f8216a2b-e7c5-4eea-8c3d-912daef0d729","ios":"levelo://app?vid=f8216a2b-e7c5-4eea-8c3d-912daef0d729"},"vehicle_type_id":"4","last_reported":1737572829,"current_range_meters":23200,"station_id":"ce4bhpp2rcd13ifvqhfg","pricing_plan_id":"cebpf4jnsgd1na2vs0mg"},{"bike_id":"86fce387-d25e-46bb-928c-c6923257e7fb","system_id":"levelo_inurba_marseille","lat":43.28417,"lon":5.37514,"is_reserved":false,"is_disabled":false,"rental_uris":{"android":"levelo://app?vid=86fce387-d25e-46bb-928c-c6923257e7fb","ios":"levelo://app?vid=86fce387-d25e-46bb-928c-c6923257e7fb"},"vehicle_type_id":"4","last_reported":1737572829,"current_range_meters":38400,"station_id":"ce4bh412rcd13ifvqds0","pricing_plan_id":"cebpf4jnsgd1na2vs0mg"},{"bike_id":"f69be3dd-5c08-41a5-a494-c4d2892249c1","system_id":"levelo_inurba_marseille","lat":43.337241,"lon":5.391831,"is_reserved":false,"is_disabled":false,"rental_uris":{"android":"levelo://app?vid=f69be3dd-5c08-41a5-a494-c4d2892249c1","ios":"levelo://app?vid=f69be3dd-5c08-41a5-a494-c4d2892249c1"},"vehicle_type_id":"4","last_reported":1737572829,"current_range_meters":38800,"station_id":"ce4bhr92rcd13ifvqhsg","pricing_plan_id":"cebpf4jnsgd1na2vs0mg"},{"bike_id":"fa86212b-b092-4008-96d3-f4a4266c241a","system_id":"levelo_inurba_marseille","lat":43.304878,"lon":5.36522,"is_reserved":false,"is_disabled":true,"rental_uris":{"android":"levelo://app?vid=fa86212b-b092-4008-96d3-f4a4266c241a","ios":"levelo://app?vid=fa86212b-b092-4008-96d3-f4a4266c241a"},"vehicle_type_id":"4","last_reported":1737572829,"current_range_meters":0,"station_id":"","pricing_plan_id":"cebpf4jnsgd1na2vs0mg"},{"bike_id":"a43310e2-1908-44e7-acd1-fa2cac064eeb","system_id":"levelo_inurba_marseille","lat":43.33721,"lon":5.39182,"is_reserved":false,"is_disabled":false,"rental_uris":{"android":"levelo://app?vid=a43310e2-1908-44e7-acd1-fa2cac064eeb","ios":"levelo://app?vid=a43310e2-1908-44e7-acd1-fa2cac064eeb"},"vehicle_type_id":"4","last_reported":1737572829,"current_range_meters":38800,"station_id":"ce4bhr92rcd13ifvqhsg","pricing_plan_id":"cebpf4jnsgd1na2vs0mg"},{"bike_id":"a7239622-729f-4aad-9c1c-b8db3157fe13","system_id":"levelo_inurba_marseille","lat":43.28703,"lon":5.37389,"is_reserved":false,"is_disabled":false,"rental_uris":{"android":"levelo://app?vid=a7239622-729f-4aad-9c1c-b8db3157fe13","ios":"levelo://app?vid=a7239622-729f-4aad-9c1c-b8db3157fe13"},"vehicle_type_id":"4","last_reported":1737572829,"current_range_meters":38000,"station_id":"ce4bh3p2rcd13ifvqdq0","pricing_plan_id":"cebpf4jnsgd1na2vs0mg"},{"bike_id":"b4b8b8ad-4ad7-4155-943f-90d66aac77c6","system_id":"levelo_inurba_marseille","lat":43.2867,"lon":5.38728,"is_reserved":false,"is_disabled":false,"rental_uris":{"android":"levelo://app?vid=b4b8b8ad-4ad7-4155-943f-90d66aac77c6","ios":"levelo://app?vid=b4b8b8ad-4ad7-4155-943f-90d66aac77c6"},"vehicle_type_id":"4","last_reported":1737572829,"current_range_meters":38800,"station_id":"ce4bh492rcd13ifvqdug","pricing_plan_id":"cebpf4jnsgd1na2vs0mg"},{"bike_id":"9863b7f9-4316-4322-9f6c-3cc66b0448e2","system_id":"levelo_inurba_marseille","lat":43.279439,"lon":5.389008,"is_reserved":false,"is_disabled":true,"rental_uris":{"android":"levelo://app?vid=9863b7f9-4316-4322-9f6c-3cc66b0448e2","ios":"levelo://app?vid=9863b7f9-4316-4322-9f6c-3cc66b0448e2"},"vehicle_type_id":"4","last_reported":1737572829,"current_range_meters":28000,"station_id":"","pricing_plan_id":"cebpf4jnsgd1na2vs0mg"},{"bike_id":"41558aff-4493-4695-8a6b-37d89836b9c2","system_id":"levelo_inurba_marseille","lat":43.27568,"lon":5.38413,"is_reserved":false,"is_disabled":true,"rental_uris":{"android":"levelo://app?vid=41558aff-4493-4695-8a6b-37d89836b9c2","ios":"levelo://app?vid=41558aff-4493-4695-8a6b-37d89836b9c2"},"vehicle_type_id":"4","last_reported":1737572829,"current_range_meters":0,"station_id":"ce4bhh92rcd13ifvqfi0","pricing_plan_id":"cebpf4jnsgd1na2vs0mg"},{"bike_id":"a5363d95-3287-47fc-be89-6c53b80f6665","system_id":"levelo_inurba_marseille","lat":43.29262,"lon":5.38427,"is_reserved":false,"is_disabled":false,"rental_uris":{"android":"levelo://app?vid=a5363d95-3287-47fc-be89-6c53b80f6665","ios":"levelo://app?vid=a5363d95-3287-47fc-be89-6c53b80f6665"},"vehicle_type_id":"4","last_reported":1737572829,"current_range_meters":16400,"station_id":"ce4bh692rcd13ifvqea0","pricing_plan_id":"cebpf4jnsgd1na2vs0mg"},{"bike_id":"eddb6b89-082b-479c-b34f-44c352a03897","system_id":"levelo_inurba_marseille","lat":43.25503,"lon":5.37653,"is_reserved":false,"is_disabled":false,"rental_uris":{"android":"levelo://app?vid=eddb6b89-082b-479c-b34f-44c352a03897","ios":"levelo://app?vid=eddb6b89-082b-479c-b34f-44c352a03897"},"vehicle_type_id":"4","last_reported":1737572829,"current_range_meters":38800,"station_id":"ce4bhh12rcd13ifvqff0","pricing_plan_id":"cebpf4jnsgd1na2vs0mg"},{"bike_id":"795016d8-3d99-4697-be28-e44e10ed86a8","system_id":"levelo_inurba_marseille","lat":43.27902,"lon":5.38006,"is_reserved":false,"is_disabled":false,"rental_uris":{"android":"levelo://app?vid=795016d8-3d99-4697-be28-e44e10ed86a8","ios":"levelo://app?vid=795016d8-3d99-4697-be28-e44e10ed86a8"},"vehicle_type_id":"4","last_reported":1737572829,"current_range_meters":27200,"station_id":"ce4bhf92rcd13ifvqf50","pricing_plan_id":"cebpf4jnsgd1na2vs0mg"},{"bike_id":"895f869d-5830-4c5b-80e3-0bb0d95c3704","system_id":"levelo_inurba_marseille","lat":43.23965,"lon":5.3663,"is_reserved":false,"is_disabled":false,"rental_uris":{"android":"levelo://app?vid=895f869d-5830-4c5b-80e3-0bb0d95c3704","ios":"levelo://app?vid=895f869d-5830-4c5b-80e3-0bb0d95c3704"},"vehicle_type_id":"4","last_reported":1737572829,"current_range_meters":25200,"station_id":"ce4bhi12rcd13ifvqfp0","pricing_plan_id":"cebpf4jnsgd1na2vs0mg"},{"bike_id":"3c3a7ef9-6af7-4b28-917e-e6ba18feb67f","system_id":"levelo_inurba_marseille","lat":43.30243,"lon":5.40049,"is_reserved":false,"is_disabled":false,"rental_uris":{"android":"levelo://app?vid=3c3a7ef9-6af7-4b28-917e-e6ba18feb67f","ios":"levelo://app?vid=3c3a7ef9-6af7-4b28-917e-e6ba18feb67f"},"vehicle_type_id":"4","last_reported":1737572829,"current_range_meters":39200,"station_id":"ce4bgvh2rcd13ifvqcs0","pricing_plan_id":"cebpf4jnsgd1na2vs0mg"},{"bike_id":"71dadf1d-7daf-40cc-84d2-9745b102a8dc","system_id":"levelo_inurba_marseille","lat":43.31492,"lon":5.37316,"is_reserved":false,"is_disabled":false,"rental_uris":{"android":"levelo://app?vid=71dadf1d-7daf-40cc-84d2-9745b102a8dc","ios":"levelo://app?vid=71dadf1d-7daf-40cc-84d2-9745b102a8dc"},"vehicle_type_id":"4","last_reported":1737572829,"current_range_meters":38400,"station_id":"ce4bgt12rcd13ifvqcd0","pricing_plan_id":"cebpf4jnsgd1na2vs0mg"},{"bike_id":"8e2fe138-ff09-4b92-834b-8fe11a686c0f","system_id":"levelo_inurba_marseille","lat":43.30114,"lon":5.39882,"is_reserved":false,"is_disabled":false,"rental_uris":{"android":"levelo://app?vid=8e2fe138-ff09-4b92-834b-8fe11a686c0f","ios":"levelo://app?vid=8e2fe138-ff09-4b92-834b-8fe11a686c0f"},"vehicle_type_id":"4","last_reported":1737572829,"current_range_meters":16000,"station_id":"ce4bh0h2rcd13ifvqd40","pricing_plan_id":"cebpf4jnsgd1na2vs0mg"},{"bike_id":"e1d0098d-4445-44de-8122-239d13e4b205","system_id":"levelo_inurba_marseille","lat":43.29227,"lon":5.36052,"is_reserved":false,"is_disabled":false,"rental_uris":{"android":"levelo://app?vid=e1d0098d-4445-44de-8122-239d13e4b205","ios":"levelo://app?vid=e1d0098d-4445-44de-8122-239d13e4b205"},"vehicle_type_id":"4","last_reported":1737572829,"current_range_meters":33600,"station_id":"ce4bhbh2rcd13ifvqeqg","pricing_plan_id":"cebpf4jnsgd1na2vs0mg"},{"bike_id":"0d555cab-a3ac-493c-97d1-05fb30170afc","system_id":"levelo_inurba_marseille","lat":43.2781,"lon":5.40719,"is_reserved":false,"is_disabled":false,"rental_uris":{"android":"levelo://app?vid=0d555cab-a3ac-493c-97d1-05fb30170afc","ios":"levelo://app?vid=0d555cab-a3ac-493c-97d1-05fb30170afc"},"vehicle_type_id":"4","last_reported":1737572829,"current_range_meters":9200,"station_id":"ce4bhnh2rcd13ifvqgtg","pricing_plan_id":"cebpf4jnsgd1na2vs0mg"},{"bike_id":"49052dc3-4d8a-4007-89e4-6a2b13d47195","system_id":"levelo_inurba_marseille","lat":43.24389,"lon":5.37062,"is_reserved":false,"is_disabled":true,"rental_uris":{"android":"levelo://app?vid=49052dc3-4d8a-4007-89e4-6a2b13d47195","ios":"levelo://app?vid=49052dc3-4d8a-4007-89e4-6a2b13d47195"},"vehicle_type_id":"4","last_reported":1737572829,"current_range_meters":13600,"station_id":"ce4bhhh2rcd13ifvqfk0","pricing_plan_id":"cebpf4jnsgd1na2vs0mg"},{"bike_id":"b4756c39-7edf-4715-aced-5cb24dd82c47","system_id":"levelo_inurba_marseille","lat":43.30932,"lon":5.40142,"is_reserved":false,"is_disabled":false,"rental_uris":{"android":"levelo://app?vid=b4756c39-7edf-4715-aced-5cb24dd82c47","ios":"levelo://app?vid=b4756c39-7edf-4715-aced-5cb24dd82c47"},"vehicle_type_id":"4","last_reported":1737572829,"current_range_meters":22000,"station_id":"ce4bgvp2rcd13ifvqct0","pricing_plan_id":"cebpf4jnsgd1na2vs0mg"},{"bike_id":"c7dff3cc-e6b8-4ad0-901d-d6dc0a57d7a5","system_id":"levelo_inurba_marseille","lat":43.2927,"lon":5.3843,"is_reserved":false,"is_disabled":false,"rental_uris":{"android":"levelo://app?vid=c7dff3cc-e6b8-4ad0-901d-d6dc0a57d7a5","ios":"levelo://app?vid=c7dff3cc-e6b8-4ad0-901d-d6dc0a57d7a5"},"vehicle_type_id":"4","last_reported":1737572829,"current_range_meters":8000,"station_id":"ce4bh692rcd13ifvqea0","pricing_plan_id":"cebpf4jnsgd1na2vs0mg"},{"bike_id":"1c0bdd64-b440-4cb1-8eef-940fab5db96c","system_id":"levelo_inurba_marseille","lat":43.30141,"lon":5.39866,"is_reserved":false,"is_disabled":false,"rental_uris":{"android":"levelo://app?vid=1c0bdd64-b440-4cb1-8eef-940fab5db96c","ios":"levelo://app?vid=1c0bdd64-b440-4cb1-8eef-940fab5db96c"},"vehicle_type_id":"4","last_reported":1737572829,"current_range_meters":39200,"station_id":"ce4bh0h2rcd13ifvqd40","pricing_plan_id":"cebpf4jnsgd1na2vs0mg"},{"bike_id":"115b114d-8f9f-4503-8de2-b2a7ad2f3c24","system_id":"levelo_inurba_marseille","lat":43.27998,"lon":5.40016,"is_reserved":false,"is_disabled":false,"rental_uris":{"android":"levelo://app?vid=115b114d-8f9f-4503-8de2-b2a7ad2f3c24","ios":"levelo://app?vid=115b114d-8f9f-4503-8de2-b2a7ad2f3c24"},"vehicle_type_id":"4","last_reported":1737572829,"current_range_meters":38800,"station_id":"ce4bho92rcd13ifvqh4g","pricing_plan_id":"cebpf4jnsgd1na2vs0mg"},{"bike_id":"dd0f15cd-123f-4d48-8259-bed14253e065","system_id":"levelo_inurba_marseille","lat":43.30319,"lon":5.40448,"is_reserved":false,"is_disabled":false,"rental_uris":{"android":"levelo://app?vid=dd0f15cd-123f-4d48-8259-bed14253e065","ios":"levelo://app?vid=dd0f15cd-123f-4d48-8259-bed14253e065"},"vehicle_type_id":"4","last_reported":1737572829,"current_range_meters":20400,"station_id":"ce4bh012rcd13ifvqd10","pricing_plan_id":"cebpf4jnsgd1na2vs0mg"},{"bike_id":"fcd4837f-6e09-4786-bcf5-c3a686cbcfef","system_id":"levelo_inurba_marseille","lat":43.29898,"lon":5.43673,"is_reserved":false,"is_disabled":false,"rental_uris":{"android":"levelo://app?vid=fcd4837f-6e09-4786-bcf5-c3a686cbcfef","ios":"levelo://app?vid=fcd4837f-6e09-4786-bcf5-c3a686cbcfef"},"vehicle_type_id":"4","last_reported":1737572829,"current_range_meters":30800,"station_id":"ce4bhpp2rcd13ifvqhfg","pricing_plan_id":"cebpf4jnsgd1na2vs0mg"},{"bike_id":"ca8c2f92-1ac4-471f-a1c7-2c5f34120591","system_id":"levelo_inurba_marseille","lat":43.29273,"lon":5.3845,"is_reserved":false,"is_disabled":false,"rental_uris":{"android":"levelo://app?vid=ca8c2f92-1ac4-471f-a1c7-2c5f34120591","ios":"levelo://app?vid=ca8c2f92-1ac4-471f-a1c7-2c5f34120591"},"vehicle_type_id":"4","last_reported":1737572829,"current_range_meters":34000,"station_id":"ce4bh692rcd13ifvqea0","pricing_plan_id":"cebpf4jnsgd1na2vs0mg"},{"bike_id":"690952aa-4cf6-4ec8-a1ef-02ddc0138251","system_id":"levelo_inurba_marseille","lat":43.26156,"lon":5.42067,"is_reserved":false,"is_disabled":false,"rental_uris":{"android":"levelo://app?vid=690952aa-4cf6-4ec8-a1ef-02ddc0138251","ios":"levelo://app?vid=690952aa-4cf6-4ec8-a1ef-02ddc0138251"},"vehicle_type_id":"4","last_reported":1737572829,"current_range_meters":32000,"station_id":"","pricing_plan_id":"cebpf4jnsgd1na2vs0mg"},{"bike_id":"866b38eb-79f9-46cd-8434-815f06193dcc","system_id":"levelo_inurba_marseille","lat":43.2945,"lon":5.39743,"is_reserved":false,"is_disabled":false,"rental_uris":{"android":"levelo://app?vid=866b38eb-79f9-46cd-8434-815f06193dcc","ios":"levelo://app?vid=866b38eb-79f9-46cd-8434-815f06193dcc"},"vehicle_type_id":"4","last_reported":1737572829,"current_range_meters":38800,"station_id":"ce4bh3h2rcd13ifvqdo0","pricing_plan_id":"cebpf4jnsgd1na2vs0mg"},{"bike_id":"03af5a1d-20f6-4b21-b63e-8bec9df4705a","system_id":"levelo_inurba_marseille","lat":43.27568,"lon":5.38407,"is_reserved":false,"is_disabled":false,"rental_uris":{"android":"levelo://app?vid=03af5a1d-20f6-4b21-b63e-8bec9df4705a","ios":"levelo://app?vid=03af5a1d-20f6-4b21-b63e-8bec9df4705a"},"vehicle_type_id":"4","last_reported":1737572829,"current_range_meters":22400,"station_id":"ce4bhh92rcd13ifvqfi0","pricing_plan_id":"cebpf4jnsgd1na2vs0mg"},{"bike_id":"abc941ac-5452-4eb7-8a25-528c43a14f52","system_id":"levelo_inurba_marseille","lat":43.29264,"lon":5.38455,"is_reserved":false,"is_disabled":false,"rental_uris":{"android":"levelo://app?vid=abc941ac-5452-4eb7-8a25-528c43a14f52","ios":"levelo://app?vid=abc941ac-5452-4eb7-8a25-528c43a14f52"},"vehicle_type_id":"4","last_reported":1737572829,"current_range_meters":38800,"station_id":"ce4bh692rcd13ifvqea0","pricing_plan_id":"cebpf4jnsgd1na2vs0mg"},{"bike_id":"587483c9-2e76-4dd6-8e62-cfbf184f34f9","system_id":"levelo_inurba_marseille","lat":43.28148,"lon":5.42629,"is_reserved":false,"is_disabled":false,"rental_uris":{"android":"levelo://app?vid=587483c9-2e76-4dd6-8e62-cfbf184f34f9","ios":"levelo://app?vid=587483c9-2e76-4dd6-8e62-cfbf184f34f9"},"vehicle_type_id":"4","last_reported":1737572829,"current_range_meters":37600,"station_id":"ce4bhnh2rcd13ifvqgug","pricing_plan_id":"cebpf4jnsgd1na2vs0mg"},{"bike_id":"477a9bbc-d0b1-4f23-920e-fab66e06cb8f","system_id":"levelo_inurba_marseille","lat":43.26922,"lon":5.38931,"is_reserved":false,"is_disabled":false,"rental_uris":{"android":"levelo://app?vid=477a9bbc-d0b1-4f23-920e-fab66e06cb8f","ios":"levelo://app?vid=477a9bbc-d0b1-4f23-920e-fab66e06cb8f"},"vehicle_type_id":"4","last_reported":1737572829,"current_range_meters":39200,"station_id":"ce4bhhh2rcd13ifvqfl0","pricing_plan_id":"cebpf4jnsgd1na2vs0mg"},{"bike_id":"b81c0afe-88b3-471f-9938-57834736de87","system_id":"levelo_inurba_marseille","lat":43.30791,"lon":5.3816,"is_reserved":false,"is_disabled":false,"rental_uris":{"android":"levelo://app?vid=b81c0afe-88b3-471f-9938-57834736de87","ios":"levelo://app?vid=b81c0afe-88b3-471f-9938-57834736de87"},"vehicle_type_id":"4","last_reported":1737572829,"current_range_meters":38800,"station_id":"ce4bgt12rcd13ifvqce0","pricing_plan_id":"cebpf4jnsgd1na2vs0mg"},{"bike_id":"e90fbc39-0cd5-4380-961b-ee626c190d31","system_id":"levelo_inurba_marseille","lat":43.28941,"lon":5.36648,"is_reserved":false,"is_disabled":false,"rental_uris":{"android":"levelo://app?vid=e90fbc39-0cd5-4380-961b-ee626c190d31","ios":"levelo://app?vid=e90fbc39-0cd5-4380-961b-ee626c190d31"},"vehicle_type_id":"4","last_reported":1737572829,"current_range_meters":14400,"station_id":"ce4bhap2rcd13ifvqek0","pricing_plan_id":"cebpf4jnsgd1na2vs0mg"},{"bike_id":"8849a03f-05b2-4932-a83b-313c1681df2b","system_id":"levelo_inurba_marseille","lat":43.29972,"lon":5.38491,"is_reserved":false,"is_disabled":false,"rental_uris":{"android":"levelo://app?vid=8849a03f-05b2-4932-a83b-313c1681df2b","ios":"levelo://app?vid=8849a03f-05b2-4932-a83b-313c1681df2b"},"vehicle_type_id":"4","last_reported":1737572829,"current_range_meters":38800,"station_id":"ce4bgj92rcd13ifvqbd0","pricing_plan_id":"cebpf4jnsgd1na2vs0mg"},{"bike_id":"294557ef-aa07-4670-83cf-6975053e4a1a","system_id":"levelo_inurba_marseille","lat":43.30305,"lon":5.3922,"is_reserved":false,"is_disabled":false,"rental_uris":{"android":"levelo://app?vid=294557ef-aa07-4670-83cf-6975053e4a1a","ios":"levelo://app?vid=294557ef-aa07-4670-83cf-6975053e4a1a"},"vehicle_type_id":"4","last_reported":1737572829,"current_range_meters":32800,"station_id":"ce4bgkh2rcd13ifvqbk0","pricing_plan_id":"cebpf4jnsgd1na2vs0mg"},{"bike_id":"12d4cf66-0850-4966-9b21-37269dcb5145","system_id":"levelo_inurba_marseille","lat":43.26556,"lon":5.37284,"is_reserved":false,"is_disabled":false,"rental_uris":{"android":"levelo://app?vid=12d4cf66-0850-4966-9b21-37269dcb5145","ios":"levelo://app?vid=12d4cf66-0850-4966-9b21-37269dcb5145"},"vehicle_type_id":"4","last_reported":1737572829,"current_range_meters":16800,"station_id":"ce4bhg12rcd13ifvqf70","pricing_plan_id":"cebpf4jnsgd1na2vs0mg"},{"bike_id":"0f401976-6aad-441a-b3af-96a97796859c","system_id":"levelo_inurba_marseille","lat":43.30254,"lon":5.40083,"is_reserved":false,"is_disabled":false,"rental_uris":{"android":"levelo://app?vid=0f401976-6aad-441a-b3af-96a97796859c","ios":"levelo://app?vid=0f401976-6aad-441a-b3af-96a97796859c"},"vehicle_type_id":"4","last_reported":1737572829,"current_range_meters":9200,"station_id":"ce4bgvh2rcd13ifvqcs0","pricing_plan_id":"cebpf4jnsgd1na2vs0mg"},{"bike_id":"51a36b3c-6a3c-4a10-8421-cf3855c7a215","system_id":"levelo_inurba_marseille","lat":43.25583,"lon":5.38228,"is_reserved":false,"is_disabled":false,"rental_uris":{"android":"levelo://app?vid=51a36b3c-6a3c-4a10-8421-cf3855c7a215","ios":"levelo://app?vid=51a36b3c-6a3c-4a10-8421-cf3855c7a215"},"vehicle_type_id":"4","last_reported":1737572829,"current_range_meters":9600,"station_id":"ce4bhih2rcd13ifvqfs0","pricing_plan_id":"cebpf4jnsgd1na2vs0mg"},{"bike_id":"27c2aadb-bc66-4258-8141-9d6672adf248","system_id":"levelo_inurba_marseille","lat":43.30539,"lon":5.38434,"is_reserved":false,"is_disabled":false,"rental_uris":{"android":"levelo://app?vid=27c2aadb-bc66-4258-8141-9d6672adf248","ios":"levelo://app?vid=27c2aadb-bc66-4258-8141-9d6672adf248"},"vehicle_type_id":"4","last_reported":1737572829,"current_range_meters":3200,"station_id":"ce4bgg92rcd13ifvqb30","pricing_plan_id":"cebpf4jnsgd1na2vs0mg"},{"bike_id":"f9d64e89-84dd-4423-8ab8-d5f9add24d94","system_id":"levelo_inurba_marseille","lat":43.28859,"lon":5.35858,"is_reserved":false,"is_disabled":false,"rental_uris":{"android":"levelo://app?vid=f9d64e89-84dd-4423-8ab8-d5f9add24d94","ios":"levelo://app?vid=f9d64e89-84dd-4423-8ab8-d5f9add24d94"},"vehicle_type_id":"4","last_reported":1737572829,"current_range_meters":6400,"station_id":"ce4bhb12rcd13ifvqem0","pricing_plan_id":"cebpf4jnsgd1na2vs0mg"},{"bike_id":"612e82f7-10fc-4a4a-9e67-aa82ed05c11f","system_id":"levelo_inurba_marseille","lat":43.24663,"lon":5.3816,"is_reserved":false,"is_disabled":false,"rental_uris":{"android":"levelo://app?vid=612e82f7-10fc-4a4a-9e67-aa82ed05c11f","ios":"levelo://app?vid=612e82f7-10fc-4a4a-9e67-aa82ed05c11f"},"vehicle_type_id":"4","last_reported":1737572829,"current_range_meters":28800,"station_id":"ce4bhih2rcd13ifvqfr0","pricing_plan_id":"cebpf4jnsgd1na2vs0mg"},{"bike_id":"13ff516e-16cf-4543-8540-9030b8b296b4","system_id":"levelo_inurba_marseille","lat":43.23193,"lon":5.35548,"is_reserved":false,"is_disabled":false,"rental_uris":{"android":"levelo://app?vid=13ff516e-16cf-4543-8540-9030b8b296b4","ios":"levelo://app?vid=13ff516e-16cf-4543-8540-9030b8b296b4"},"vehicle_type_id":"4","last_reported":1737572829,"current_range_meters":32400,"station_id":"ce4bhu92rcd13ifvqi70","pricing_plan_id":"cebpf4jnsgd1na2vs0mg"},{"bike_id":"6a3f11ae-19cd-4d89-806e-94dec7d182bb","system_id":"levelo_inurba_marseille","lat":43.25823,"lon":5.39446,"is_reserved":false,"is_disabled":false,"rental_uris":{"android":"levelo://app?vid=6a3f11ae-19cd-4d89-806e-94dec7d182bb","ios":"levelo://app?vid=6a3f11ae-19cd-4d89-806e-94dec7d182bb"},"vehicle_type_id":"4","last_reported":1737572829,"current_range_meters":39200,"station_id":"ce4bhip2rcd13ifvqft0","pricing_plan_id":"cebpf4jnsgd1na2vs0mg"},{"bike_id":"9984a19d-448e-4ed2-8c95-d1103fd0e167","system_id":"levelo_inurba_marseille","lat":43.31758,"lon":5.3902,"is_reserved":false,"is_disabled":false,"rental_uris":{"android":"levelo://app?vid=9984a19d-448e-4ed2-8c95-d1103fd0e167","ios":"levelo://app?vid=9984a19d-448e-4ed2-8c95-d1103fd0e167"},"vehicle_type_id":"4","last_reported":1737572829,"current_range_meters":38800,"station_id":"ce4bhqp2rcd13ifvqhng","pricing_plan_id":"cebpf4jnsgd1na2vs0mg"},{"bike_id":"dc9afc0d-d533-431b-a32f-6f6423d7880b","system_id":"levelo_inurba_marseille","lat":43.31734,"lon":5.42386,"is_reserved":false,"is_disabled":false,"rental_uris":{"android":"levelo://app?vid=dc9afc0d-d533-431b-a32f-6f6423d7880b","ios":"levelo://app?vid=dc9afc0d-d533-431b-a32f-6f6423d7880b"},"vehicle_type_id":"4","last_reported":1737572829,"current_range_meters":34000,"station_id":"ce4bhp92rcd13ifvqhbg","pricing_plan_id":"cebpf4jnsgd1na2vs0mg"},{"bike_id":"bfc7d970-e019-4665-84d5-e5a81d0af44a","system_id":"levelo_inurba_marseille","lat":43.27943,"lon":5.41044,"is_reserved":false,"is_disabled":false,"rental_uris":{"android":"levelo://app?vid=bfc7d970-e019-4665-84d5-e5a81d0af44a","ios":"levelo://app?vid=bfc7d970-e019-4665-84d5-e5a81d0af44a"},"vehicle_type_id":"4","last_reported":1737572829,"current_range_meters":24800,"station_id":"ce4bhnp2rcd13ifvqh0g","pricing_plan_id":"cebpf4jnsgd1na2vs0mg"},{"bike_id":"888038f9-044f-4ded-824f-b22d803d5b12","system_id":"levelo_inurba_marseille","lat":43.2958,"lon":5.37508,"is_reserved":false,"is_disabled":true,"rental_uris":{"android":"levelo://app?vid=888038f9-044f-4ded-824f-b22d803d5b12","ios":"levelo://app?vid=888038f9-044f-4ded-824f-b22d803d5b12"},"vehicle_type_id":"4","last_reported":1737572829,"current_range_meters":18800,"station_id":"ce4bgh92rcd13ifvqb50","pricing_plan_id":"cebpf4jnsgd1na2vs0mg"},{"bike_id":"3eb9e9f3-a7fa-4208-8256-ea58a1cc5461","system_id":"levelo_inurba_marseille","lat":43.29973,"lon":5.38492,"is_reserved":false,"is_disabled":false,"rental_uris":{"android":"levelo://app?vid=3eb9e9f3-a7fa-4208-8256-ea58a1cc5461","ios":"levelo://app?vid=3eb9e9f3-a7fa-4208-8256-ea58a1cc5461"},"vehicle_type_id":"4","last_reported":1737572829,"current_range_meters":19600,"station_id":"ce4bgj92rcd13ifvqbd0","pricing_plan_id":"cebpf4jnsgd1na2vs0mg"},{"bike_id":"1876537c-c9d8-4160-b31c-e17d644f44c6","system_id":"levelo_inurba_marseille","lat":43.32469,"lon":5.36552,"is_reserved":false,"is_disabled":false,"rental_uris":{"android":"levelo://app?vid=1876537c-c9d8-4160-b31c-e17d644f44c6","ios":"levelo://app?vid=1876537c-c9d8-4160-b31c-e17d644f44c6"},"vehicle_type_id":"4","last_reported":1737572829,"current_range_meters":4400,"station_id":"ce4bhs12rcd13ifvqhvg","pricing_plan_id":"cebpf4jnsgd1na2vs0mg"},{"bike_id":"3ca427d4-897d-4f96-8e6b-de1063edad3d","system_id":"levelo_inurba_marseille","lat":43.28483,"lon":5.35891,"is_reserved":false,"is_disabled":false,"rental_uris":{"android":"levelo://app?vid=3ca427d4-897d-4f96-8e6b-de1063edad3d","ios":"levelo://app?vid=3ca427d4-897d-4f96-8e6b-de1063edad3d"},"vehicle_type_id":"4","last_reported":1737572829,"current_range_meters":38800,"station_id":"ce4bhah2rcd13ifvqei0","pricing_plan_id":"cebpf4jnsgd1na2vs0mg"},{"bike_id":"57880cbf-b984-4a44-85fe-515a71a60b94","system_id":"levelo_inurba_marseille","lat":43.2924,"lon":5.40889,"is_reserved":false,"is_disabled":false,"rental_uris":{"android":"levelo://app?vid=57880cbf-b984-4a44-85fe-515a71a60b94","ios":"levelo://app?vid=57880cbf-b984-4a44-85fe-515a71a60b94"},"vehicle_type_id":"4","last_reported":1737572829,"current_range_meters":22800,"station_id":"ce4bh192rcd13ifvqdc0","pricing_plan_id":"cebpf4jnsgd1na2vs0mg"},{"bike_id":"388eb34f-6129-4d8e-899b-5cc6e1157370","system_id":"levelo_inurba_marseille","lat":43.29526,"lon":5.39403,"is_reserved":false,"is_disabled":false,"rental_uris":{"android":"levelo://app?vid=388eb34f-6129-4d8e-899b-5cc6e1157370","ios":"levelo://app?vid=388eb34f-6129-4d8e-899b-5cc6e1157370"},"vehicle_type_id":"4","last_reported":1737572829,"current_range_meters":22400,"station_id":"ce4bh292rcd13ifvqdf0","pricing_plan_id":"cebpf4jnsgd1na2vs0mg"},{"bike_id":"2221fbfd-5bae-4157-9aed-20543fb4eb62","system_id":"levelo_inurba_marseille","lat":43.32109,"lon":5.36771,"is_reserved":false,"is_disabled":true,"rental_uris":{"android":"levelo://app?vid=2221fbfd-5bae-4157-9aed-20543fb4eb62","ios":"levelo://app?vid=2221fbfd-5bae-4157-9aed-20543fb4eb62"},"vehicle_type_id":"4","last_reported":1737572829,"current_range_meters":0,"station_id":"ce4bhrh2rcd13ifvqhug","pricing_plan_id":"cebpf4jnsgd1na2vs0mg"},{"bike_id":"79828ee4-c684-43d2-ac05-6026af7f61c3","system_id":"levelo_inurba_marseille","lat":43.30259,"lon":5.40065,"is_reserved":false,"is_disabled":false,"rental_uris":{"android":"levelo://app?vid=79828ee4-c684-43d2-ac05-6026af7f61c3","ios":"levelo://app?vid=79828ee4-c684-43d2-ac05-6026af7f61c3"},"vehicle_type_id":"4","last_reported":1737572829,"current_range_meters":27200,"station_id":"ce4bgvh2rcd13ifvqcs0","pricing_plan_id":"cebpf4jnsgd1na2vs0mg"},{"bike_id":"427ec049-7bdc-415e-93a1-e025c8b36d89","system_id":"levelo_inurba_marseille","lat":43.27994,"lon":5.39989,"is_reserved":false,"is_disabled":false,"rental_uris":{"android":"levelo://app?vid=427ec049-7bdc-415e-93a1-e025c8b36d89","ios":"levelo://app?vid=427ec049-7bdc-415e-93a1-e025c8b36d89"},"vehicle_type_id":"4","last_reported":1737572829,"current_range_meters":38800,"station_id":"ce4bho92rcd13ifvqh4g","pricing_plan_id":"cebpf4jnsgd1na2vs0mg"},{"bike_id":"e6ec3baf-a07c-4f6c-9b8c-628ea76affc0","system_id":"levelo_inurba_marseille","lat":43.29267,"lon":5.36841,"is_reserved":false,"is_disabled":false,"rental_uris":{"android":"levelo://app?vid=e6ec3baf-a07c-4f6c-9b8c-628ea76affc0","ios":"levelo://app?vid=e6ec3baf-a07c-4f6c-9b8c-628ea76affc0"},"vehicle_type_id":"4","last_reported":1737572829,"current_range_meters":6800,"station_id":"ce4bhbp2rcd13ifvqesg","pricing_plan_id":"cebpf4jnsgd1na2vs0mg"},{"bike_id":"c355606a-44fe-4448-8d82-d0d7fc581621","system_id":"levelo_inurba_marseille","lat":43.298547,"lon":5.36266,"is_reserved":false,"is_disabled":false,"rental_uris":{"android":"levelo://app?vid=c355606a-44fe-4448-8d82-d0d7fc581621","ios":"levelo://app?vid=c355606a-44fe-4448-8d82-d0d7fc581621"},"vehicle_type_id":"4","last_reported":1737572829,"current_range_meters":38000,"station_id":"ce4bgpp2rcd13ifvqc3g","pricing_plan_id":"cebpf4jnsgd1na2vs0mg"},{"bike_id":"b7c48665-5d78-4174-b837-4aa023f8c486","system_id":"levelo_inurba_marseille","lat":43.28458,"lon":5.35887,"is_reserved":false,"is_disabled":false,"rental_uris":{"android":"levelo://app?vid=b7c48665-5d78-4174-b837-4aa023f8c486","ios":"levelo://app?vid=b7c48665-5d78-4174-b837-4aa023f8c486"},"vehicle_type_id":"4","last_reported":1737572829,"current_range_meters":10800,"station_id":"ce4bhah2rcd13ifvqei0","pricing_plan_id":"cebpf4jnsgd1na2vs0mg"},{"bike_id":"65667caa-b41c-4056-9bf4-097f077833eb","system_id":"levelo_inurba_marseille","lat":43.28464,"lon":5.38419,"is_reserved":false,"is_disabled":false,"rental_uris":{"android":"levelo://app?vid=65667caa-b41c-4056-9bf4-097f077833eb","ios":"levelo://app?vid=65667caa-b41c-4056-9bf4-097f077833eb"},"vehicle_type_id":"4","last_reported":1737572829,"current_range_meters":39200,"station_id":"ce4bh512rcd13ifvqe3g","pricing_plan_id":"cebpf4jnsgd1na2vs0mg"},{"bike_id":"68e9c31c-ad3e-43bf-9dd6-a2db62b95ef7","system_id":"levelo_inurba_marseille","lat":43.32471,"lon":5.36547,"is_reserved":false,"is_disabled":false,"rental_uris":{"android":"levelo://app?vid=68e9c31c-ad3e-43bf-9dd6-a2db62b95ef7","ios":"levelo://app?vid=68e9c31c-ad3e-43bf-9dd6-a2db62b95ef7"},"vehicle_type_id":"4","last_reported":1737572829,"current_range_meters":25600,"station_id":"ce4bhs12rcd13ifvqhvg","pricing_plan_id":"cebpf4jnsgd1na2vs0mg"},{"bike_id":"9cdcbc7a-d403-4ea9-9e12-0a27c46a4147","system_id":"levelo_inurba_marseille","lat":43.30139,"lon":5.38781,"is_reserved":false,"is_disabled":false,"rental_uris":{"android":"levelo://app?vid=9cdcbc7a-d403-4ea9-9e12-0a27c46a4147","ios":"levelo://app?vid=9cdcbc7a-d403-4ea9-9e12-0a27c46a4147"},"vehicle_type_id":"4","last_reported":1737572829,"current_range_meters":17600,"station_id":"ce4bhoh2rcd13ifvqh6g","pricing_plan_id":"cebpf4jnsgd1na2vs0mg"},{"bike_id":"a8f619ef-8db1-4312-9c2f-1f19846a3d2d","system_id":"levelo_inurba_marseille","lat":43.28457,"lon":5.35888,"is_reserved":false,"is_disabled":false,"rental_uris":{"android":"levelo://app?vid=a8f619ef-8db1-4312-9c2f-1f19846a3d2d","ios":"levelo://app?vid=a8f619ef-8db1-4312-9c2f-1f19846a3d2d"},"vehicle_type_id":"4","last_reported":1737572829,"current_range_meters":22800,"station_id":"ce4bhah2rcd13ifvqei0","pricing_plan_id":"cebpf4jnsgd1na2vs0mg"},{"bike_id":"127a26b6-ed39-4c2e-9fc7-31005f453be1","system_id":"levelo_inurba_marseille","lat":43.30644,"lon":5.40073,"is_reserved":false,"is_disabled":false,"rental_uris":{"android":"levelo://app?vid=127a26b6-ed39-4c2e-9fc7-31005f453be1","ios":"levelo://app?vid=127a26b6-ed39-4c2e-9fc7-31005f453be1"},"vehicle_type_id":"4","last_reported":1737572829,"current_range_meters":38800,"station_id":"ce4bh112rcd13ifvqda0","pricing_plan_id":"cebpf4jnsgd1na2vs0mg"},{"bike_id":"d44e0181-8fda-48f6-8535-2fda924ce2fd","system_id":"levelo_inurba_marseille","lat":43.29893,"lon":5.4366,"is_reserved":false,"is_disabled":false,"rental_uris":{"android":"levelo://app?vid=d44e0181-8fda-48f6-8535-2fda924ce2fd","ios":"levelo://app?vid=d44e0181-8fda-48f6-8535-2fda924ce2fd"},"vehicle_type_id":"4","last_reported":1737572829,"current_range_meters":6800,"station_id":"ce4bhpp2rcd13ifvqhfg","pricing_plan_id":"cebpf4jnsgd1na2vs0mg"},{"bike_id":"bd771a8e-666c-4f89-bb31-e000a937060f","system_id":"levelo_inurba_marseille","lat":43.28418,"lon":5.37513,"is_reserved":false,"is_disabled":true,"rental_uris":{"android":"levelo://app?vid=bd771a8e-666c-4f89-bb31-e000a937060f","ios":"levelo://app?vid=bd771a8e-666c-4f89-bb31-e000a937060f"},"vehicle_type_id":"4","last_reported":1737572829,"current_range_meters":8000,"station_id":"ce4bh412rcd13ifvqds0","pricing_plan_id":"cebpf4jnsgd1na2vs0mg"},{"bike_id":"d8ce4ac7-3548-4c99-80c2-54448a2f2a6a","system_id":"levelo_inurba_marseille","lat":43.29265,"lon":5.36843,"is_reserved":false,"is_disabled":true,"rental_uris":{"android":"levelo://app?vid=d8ce4ac7-3548-4c99-80c2-54448a2f2a6a","ios":"levelo://app?vid=d8ce4ac7-3548-4c99-80c2-54448a2f2a6a"},"vehicle_type_id":"4","last_reported":1737572829,"current_range_meters":30400,"station_id":"ce4bhbp2rcd13ifvqesg","pricing_plan_id":"cebpf4jnsgd1na2vs0mg"},{"bike_id":"ff977ac8-312c-4000-a930-9790d9493e1b","system_id":"levelo_inurba_marseille","lat":43.28369,"lon":5.38654,"is_reserved":false,"is_disabled":false,"rental_uris":{"android":"levelo://app?vid=ff977ac8-312c-4000-a930-9790d9493e1b","ios":"levelo://app?vid=ff977ac8-312c-4000-a930-9790d9493e1b"},"vehicle_type_id":"4","last_reported":1737572829,"current_range_meters":38800,"station_id":"ce4bh492rcd13ifvqdvg","pricing_plan_id":"cebpf4jnsgd1na2vs0mg"},{"bike_id":"97631e4b-cbaf-458d-84b3-007b2f354e62","system_id":"levelo_inurba_marseille","lat":43.28002,"lon":5.41663,"is_reserved":false,"is_disabled":false,"rental_uris":{"android":"levelo://app?vid=97631e4b-cbaf-458d-84b3-007b2f354e62","ios":"levelo://app?vid=97631e4b-cbaf-458d-84b3-007b2f354e62"},"vehicle_type_id":"4","last_reported":1737572829,"current_range_meters":24000,"station_id":"ce4bho12rcd13ifvqh1g","pricing_plan_id":"cebpf4jnsgd1na2vs0mg"},{"bike_id":"949a2c5f-99a7-4003-81ed-706918f23154","system_id":"levelo_inurba_marseille","lat":43.28431,"lon":5.37518,"is_reserved":false,"is_disabled":false,"rental_uris":{"android":"levelo://app?vid=949a2c5f-99a7-4003-81ed-706918f23154","ios":"levelo://app?vid=949a2c5f-99a7-4003-81ed-706918f23154"},"vehicle_type_id":"4","last_reported":1737572829,"current_range_meters":5600,"station_id":"ce4bh412rcd13ifvqds0","pricing_plan_id":"cebpf4jnsgd1na2vs0mg"},{"bike_id":"f5b52696-dada-4db8-ac63-486420d431ea","system_id":"levelo_inurba_marseille","lat":43.246531,"lon":5.388945,"is_reserved":false,"is_disabled":false,"rental_uris":{"android":"levelo://app?vid=f5b52696-dada-4db8-ac63-486420d431ea","ios":"levelo://app?vid=f5b52696-dada-4db8-ac63-486420d431ea"},"vehicle_type_id":"4","last_reported":1737572829,"current_range_meters":38800,"station_id":"ce4bhg12rcd13ifvqf60","pricing_plan_id":"cebpf4jnsgd1na2vs0mg"},{"bike_id":"3d2884c8-e678-49ea-8adc-aa1053c2bea5","system_id":"levelo_inurba_marseille","lat":43.30243,"lon":5.40036,"is_reserved":false,"is_disabled":false,"rental_uris":{"android":"levelo://app?vid=3d2884c8-e678-49ea-8adc-aa1053c2bea5","ios":"levelo://app?vid=3d2884c8-e678-49ea-8adc-aa1053c2bea5"},"vehicle_type_id":"4","last_reported":1737572829,"current_range_meters":39200,"station_id":"ce4bgvh2rcd13ifvqcs0","pricing_plan_id":"cebpf4jnsgd1na2vs0mg"},{"bike_id":"9715b434-26d8-4839-88d9-a4ec76fe9304","system_id":"levelo_inurba_marseille","lat":43.28482,"lon":5.38443,"is_reserved":false,"is_disabled":false,"rental_uris":{"android":"levelo://app?vid=9715b434-26d8-4839-88d9-a4ec76fe9304","ios":"levelo://app?vid=9715b434-26d8-4839-88d9-a4ec76fe9304"},"vehicle_type_id":"4","last_reported":1737572829,"current_range_meters":12800,"station_id":"ce4bh512rcd13ifvqe3g","pricing_plan_id":"cebpf4jnsgd1na2vs0mg"},{"bike_id":"62126633-6db5-48fa-8960-d4ae58a1c980","system_id":"levelo_inurba_marseille","lat":43.28159,"lon":5.42635,"is_reserved":false,"is_disabled":false,"rental_uris":{"android":"levelo://app?vid=62126633-6db5-48fa-8960-d4ae58a1c980","ios":"levelo://app?vid=62126633-6db5-48fa-8960-d4ae58a1c980"},"vehicle_type_id":"4","last_reported":1737572829,"current_range_meters":9200,"station_id":"ce4bhnh2rcd13ifvqgug","pricing_plan_id":"cebpf4jnsgd1na2vs0mg"},{"bike_id":"eac3ba27-1288-4022-8f78-81346854f56f","system_id":"levelo_inurba_marseille","lat":43.30217,"lon":5.39486,"is_reserved":false,"is_disabled":false,"rental_uris":{"android":"levelo://app?vid=eac3ba27-1288-4022-8f78-81346854f56f","ios":"levelo://app?vid=eac3ba27-1288-4022-8f78-81346854f56f"},"vehicle_type_id":"4","last_reported":1737572829,"current_range_meters":11600,"station_id":"ce4bh0p2rcd13ifvqd70","pricing_plan_id":"cebpf4jnsgd1na2vs0mg"},{"bike_id":"9ca27096-1654-429f-8960-bf632536ad9f","system_id":"levelo_inurba_marseille","lat":43.30935,"lon":5.40148,"is_reserved":false,"is_disabled":false,"rental_uris":{"android":"levelo://app?vid=9ca27096-1654-429f-8960-bf632536ad9f","ios":"levelo://app?vid=9ca27096-1654-429f-8960-bf632536ad9f"},"vehicle_type_id":"4","last_reported":1737572829,"current_range_meters":20800,"station_id":"ce4bgvp2rcd13ifvqct0","pricing_plan_id":"cebpf4jnsgd1na2vs0mg"},{"bike_id":"f803cfe5-22be-49c6-8b5e-ddab146c2153","system_id":"levelo_inurba_marseille","lat":43.28456,"lon":5.35888,"is_reserved":false,"is_disabled":false,"rental_uris":{"android":"levelo://app?vid=f803cfe5-22be-49c6-8b5e-ddab146c2153","ios":"levelo://app?vid=f803cfe5-22be-49c6-8b5e-ddab146c2153"},"vehicle_type_id":"4","last_reported":1737572829,"current_range_meters":25200,"station_id":"ce4bhah2rcd13ifvqei0","pricing_plan_id":"cebpf4jnsgd1na2vs0mg"},{"bike_id":"76f0aa29-f7ba-41c9-9b22-ab4e4cf850b6","system_id":"levelo_inurba_marseille","lat":43.29262,"lon":5.38446,"is_reserved":false,"is_disabled":false,"rental_uris":{"android":"levelo://app?vid=76f0aa29-f7ba-41c9-9b22-ab4e4cf850b6","ios":"levelo://app?vid=76f0aa29-f7ba-41c9-9b22-ab4e4cf850b6"},"vehicle_type_id":"4","last_reported":1737572829,"current_range_meters":38800,"station_id":"ce4bh692rcd13ifvqea0","pricing_plan_id":"cebpf4jnsgd1na2vs0mg"},{"bike_id":"252d198a-cb62-4aff-8378-b7dedc97192a","system_id":"levelo_inurba_marseille","lat":43.31088,"lon":5.42426,"is_reserved":false,"is_disabled":false,"rental_uris":{"android":"levelo://app?vid=252d198a-cb62-4aff-8378-b7dedc97192a","ios":"levelo://app?vid=252d198a-cb62-4aff-8378-b7dedc97192a"},"vehicle_type_id":"4","last_reported":1737572829,"current_range_meters":38800,"station_id":"ce4bhp92rcd13ifvqhag","pricing_plan_id":"cebpf4jnsgd1na2vs0mg"},{"bike_id":"2a940ca1-682e-4646-9ed4-bb72849c2039","system_id":"levelo_inurba_marseille","lat":43.30604,"lon":5.37227,"is_reserved":false,"is_disabled":false,"rental_uris":{"android":"levelo://app?vid=2a940ca1-682e-4646-9ed4-bb72849c2039","ios":"levelo://app?vid=2a940ca1-682e-4646-9ed4-bb72849c2039"},"vehicle_type_id":"4","last_reported":1737572829,"current_range_meters":14800,"station_id":"ce4bgqh2rcd13ifvqc4g","pricing_plan_id":"cebpf4jnsgd1na2vs0mg"},{"bike_id":"713b4e02-a459-45c2-8b7f-670ded946bdb","system_id":"levelo_inurba_marseille","lat":43.29637,"lon":5.37148,"is_reserved":false,"is_disabled":false,"rental_uris":{"android":"levelo://app?vid=713b4e02-a459-45c2-8b7f-670ded946bdb","ios":"levelo://app?vid=713b4e02-a459-45c2-8b7f-670ded946bdb"},"vehicle_type_id":"4","last_reported":1737572829,"current_range_meters":38800,"station_id":"ce4bgnh2rcd13ifvqc0g","pricing_plan_id":"cebpf4jnsgd1na2vs0mg"},{"bike_id":"cb99f47d-4e3f-40b1-ac13-6c899335a5ef","system_id":"levelo_inurba_marseille","lat":43.31077,"lon":5.3835,"is_reserved":false,"is_disabled":false,"rental_uris":{"android":"levelo://app?vid=cb99f47d-4e3f-40b1-ac13-6c899335a5ef","ios":"levelo://app?vid=cb99f47d-4e3f-40b1-ac13-6c899335a5ef"},"vehicle_type_id":"4","last_reported":1737572829,"current_range_meters":16000,"station_id":"ce4bgv92rcd13ifvqcr0","pricing_plan_id":"cebpf4jnsgd1na2vs0mg"},{"bike_id":"2210897f-5c1c-4cde-9ef4-7d66d65ace48","system_id":"levelo_inurba_marseille","lat":43.28346,"lon":5.3811,"is_reserved":false,"is_disabled":false,"rental_uris":{"android":"levelo://app?vid=2210897f-5c1c-4cde-9ef4-7d66d65ace48","ios":"levelo://app?vid=2210897f-5c1c-4cde-9ef4-7d66d65ace48"},"vehicle_type_id":"4","last_reported":1737572829,"current_range_meters":14800,"station_id":"ce4bh412rcd13ifvqdr0","pricing_plan_id":"cebpf4jnsgd1na2vs0mg"},{"bike_id":"38a62f0f-5642-4b4d-ab65-8ce22514d290","system_id":"levelo_inurba_marseille","lat":43.24662,"lon":5.3889,"is_reserved":false,"is_disabled":false,"rental_uris":{"android":"levelo://app?vid=38a62f0f-5642-4b4d-ab65-8ce22514d290","ios":"levelo://app?vid=38a62f0f-5642-4b4d-ab65-8ce22514d290"},"vehicle_type_id":"4","last_reported":1737572829,"current_range_meters":38800,"station_id":"ce4bhg12rcd13ifvqf60","pricing_plan_id":"cebpf4jnsgd1na2vs0mg"},{"bike_id":"047444fd-cef8-40c5-8925-150045849f94","system_id":"levelo_inurba_marseille","lat":43.30954,"lon":5.39031,"is_reserved":false,"is_disabled":false,"rental_uris":{"android":"levelo://app?vid=047444fd-cef8-40c5-8925-150045849f94","ios":"levelo://app?vid=047444fd-cef8-40c5-8925-150045849f94"},"vehicle_type_id":"4","last_reported":1737572829,"current_range_meters":18000,"station_id":"ce4bgup2rcd13ifvqco0","pricing_plan_id":"cebpf4jnsgd1na2vs0mg"},{"bike_id":"c992f582-2ac1-4de6-9366-59e4903c211f","system_id":"levelo_inurba_marseille","lat":43.24664,"lon":5.3817,"is_reserved":false,"is_disabled":false,"rental_uris":{"android":"levelo://app?vid=c992f582-2ac1-4de6-9366-59e4903c211f","ios":"levelo://app?vid=c992f582-2ac1-4de6-9366-59e4903c211f"},"vehicle_type_id":"4","last_reported":1737572829,"current_range_meters":20400,"station_id":"ce4bhih2rcd13ifvqfr0","pricing_plan_id":"cebpf4jnsgd1na2vs0mg"},{"bike_id":"2ac2c11f-2b1f-4441-a21d-39bfeb50b90a","system_id":"levelo_inurba_marseille","lat":43.25818,"lon":5.39428,"is_reserved":false,"is_disabled":false,"rental_uris":{"android":"levelo://app?vid=2ac2c11f-2b1f-4441-a21d-39bfeb50b90a","ios":"levelo://app?vid=2ac2c11f-2b1f-4441-a21d-39bfeb50b90a"},"vehicle_type_id":"4","last_reported":1737572829,"current_range_meters":39200,"station_id":"ce4bhip2rcd13ifvqft0","pricing_plan_id":"cebpf4jnsgd1na2vs0mg"},{"bike_id":"d8f1b863-dea2-48a8-ac5a-3bfe0b9100f6","system_id":"levelo_inurba_marseille","lat":43.28002,"lon":5.41666,"is_reserved":false,"is_disabled":false,"rental_uris":{"android":"levelo://app?vid=d8f1b863-dea2-48a8-ac5a-3bfe0b9100f6","ios":"levelo://app?vid=d8f1b863-dea2-48a8-ac5a-3bfe0b9100f6"},"vehicle_type_id":"4","last_reported":1737572829,"current_range_meters":11200,"station_id":"ce4bho12rcd13ifvqh1g","pricing_plan_id":"cebpf4jnsgd1na2vs0mg"},