{"last_updated":1747264091,"ttl":60,"version":"2.2","data":{"bikes":[{"bike_id":"c0b9fd4f-e181-46ce-b0bf-f5119973334f","system_id":"levelo_inurba_marseille","lat":43.33771,"lon":5.37424,"is_reserved":false,"is_disabled":false,"rental_uris":{"android":"levelo://app?vid=c0b9fd4f-e181-46ce-b0bf-f5119973334f","ios":"levelo://app?vid=c0b9fd4f-e181-46ce-b0bf-f5119973334f"},"vehicle_type_id":"4","last_reported":1747264092,"current_range_meters":17200,"station_id":"","pricing_plan_id":"cebpf4jnsgd1na2vs0mg"},{"bike_id":"3fae8334-a9d0-4ed3-aa20-0276813b60f6","system_id":"levelo_inurba_marseille","lat":43.26834,"lon":5.38466,"is_reserved":false,"is_disabled":true,"rental_uris":{"android":"levelo://app?vid=3fae8334-a9d0-4ed3-aa20-0276813b60f6","ios":"levelo://app?vid=3fae8334-a9d0-4ed3-aa20-0276813b60f6"},"vehicle_type_id":"4","last_reported":1747264092,"current_range_meters":0,"station_id":"","pricing_plan_id":"cebpf4jnsgd1na2vs0mg"},{"bike_id":"173fb44d-9730-4a64-8c00-f4ad4ef399d3","system_id":"levelo_inurba_marseille","lat":43.31808,"lon":5.38558,"is_reserved":false,"is_disabled":true,"rental_uris":{"android":"levelo://app?vid=173fb44d-9730-4a64-8c00-f4ad4ef399d3","ios":"levelo://app?vid=173fb44d-9730-4a64-8c00-f4ad4ef399d3"},"vehicle_type_id":"4","last_reported":1747264092,"current_range_meters":0,"station_id":"","pricing_plan_id":"cebpf4jnsgd1na2vs0mg"},{"bike_id":"fc2577e7-1497-425b-9d4f-ab8d7dc843c6","system_id":"levelo_inurba_marseille","lat":43.33771,"lon":5.37485,"is_reserved":false,"is_disabled":true,"rental_uris":{"android":"levelo://app?vid=fc2577e7-1497-425b-9d4f-ab8d7dc843c6","ios":"levelo://app?vid=fc2577e7-1497-425b-9d4f-ab8d7dc843c6"},"vehicle_type_id":"4","last_reported":1747264092,"current_range_meters":0,"station_id":"","pricing_plan_id":"cebpf4jnsgd1na2vs0mg"},{"bike_id":"0fedde00-40eb-40d2-8fc2-e61ecce46b7b","system_id":"levelo_inurba_marseille","lat":43.283016,"lon":5.432601,"is_reserved":false,"is_disabled":true,"rental_uris":{"android":"levelo://app?vid=0fedde00-40eb-40d2-8fc2-e61ecce46b7b","ios":"levelo://app?vid=0fedde00-40eb-40d2-8fc2-e61ecce46b7b"},"vehicle_type_id":"4","last_reported":1747264092,"current_range_meters":0,"station_id":"","pricing_plan_id":"cebpf4jnsgd1na2vs0mg"},{"bike_id":"58759d40-402f-44ad-a9ec-ef71c6f52c01","system_id":"levelo_inurba_marseille","lat":43.27897,"lon":5.35416,"is_reserved":false,"is_disabled":true,"rental_uris":{"android":"levelo://app?vid=58759d40-402f-44ad-a9ec-ef71c6f52c01","ios":"levelo://app?vid=58759d40-402f-44ad-a9ec-ef71c6f52c01"},"vehicle_type_id":"4","last_reported":1747264092,"current_range_meters":0,"station_id":"","pricing_plan_id":"cebpf4jnsgd1na2vs0mg"},{"bike_id":"792567c6-0442-4011-aff0-9c05e25deb48","system_id":"levelo_inurba_marseille","lat":43.28071,"lon":5.44168,"is_reserved":false,"is_disabled":true,"rental_uris":{"android":"levelo://app?vid=792567c6-0442-4011-aff0-9c05e25deb48","ios":"levelo://app?vid=792567c6-0442-4011-aff0-9c05e25deb48"},"vehicle_type_id":"4","last_reported":1747264092,"current_range_meters":0,"station_id":"","pricing_plan_id":"cebpf4jnsgd1na2vs0mg"},{"bike_id":"e4bd71e8-5a72-43a6-8436-4e78c03503ef","system_id":"levelo_inurba_marseille","lat":43.25826,"lon":5.39438,"is_reserved":false,"is_disabled":true,"rental_uris":{"android":"levelo://app?vid=e4bd71e8-5a72-43a6-8436-4e78c03503ef","ios":"levelo://app?vid=e4bd71e8-5a72-43a6-8436-4e78c03503ef"},"vehicle_type_id":"4","last_reported":1747264092,"current_range_meters":0,"station_id":"ce4bhip2rcd13ifvqft0","pricing_plan_id":"cebpf4jnsgd1na2vs0mg"},{"bike_id":"623b599c-b24b-48ae-9597-def997a6f927","system_id":"levelo_inurba_marseille","lat":43.26223,"lon":5.40443,"is_reserved":false,"is_disabled":true,"rental_uris":{"android":"levelo://app?vid=623b599c-b24b-48ae-9597-def997a6f927","ios":"levelo://app?vid=623b599c-b24b-48ae-9597-def997a6f927"},"vehicle_type_id":"4","last_reported":1747264092,"current_range_meters":0,"station_id":"ce4bhmh2rcd13ifvqgmg","pricing_plan_id":"cebpf4jnsgd1na2vs0mg"},{"bike_id":"0e86e77a-366a-4287-ae32-11de747ea9dd","system_id":"levelo_inurba_marseille","lat":43.33609,"lon":5.41037,"is_reserved":false,"is_disabled":true,"rental_uris":{"android":"levelo://app?vid=0e86e77a-366a-4287-ae32-11de747ea9dd","ios":"levelo://app?vid=0e86e77a-366a-4287-ae32-11de747ea9dd"},"vehicle_type_id":"4","last_reported":1747264092,"current_range_meters":0,"station_id":"ce4bhqh2rcd13ifvqhmg","pricing_plan_id":"cebpf4jnsgd1na2vs0mg"},{"bike_id":"a70ebef5-8857-46a3-a373-d8f10a11e4a0","system_id":"levelo_inurba_marseille","lat":43.211949,"lon":5.350698,"is_reserved":false,"is_disabled":true,"rental_uris":{"android":"levelo://app?vid=a70ebef5-8857-46a3-a373-d8f10a11e4a0","ios":"levelo://app?vid=a70ebef5-8857-46a3-a373-d8f10a11e4a0"},"vehicle_type_id":"4","last_reported":1747264092,"current_range_meters":0,"station_id":"st_cvj6sg6p6f1abm77japg","pricing_plan_id":"cebpf4jnsgd1na2vs0mg"},{"bike_id":"cbe5d074-3657-4a38-a945-adda68e4e374","system_id":"levelo_inurba_marseille","lat":43.32478,"lon":5.36558,"is_reserved":false,"is_disabled":true,"rental_uris":{"android":"levelo://app?vid=cbe5d074-3657-4a38-a945-adda68e4e374","ios":"levelo://app?vid=cbe5d074-3657-4a38-a945-adda68e4e374"},"vehicle_type_id":"4","last_reported":1747264092,"current_range_meters":1200,"station_id":"ce4bhs12rcd13ifvqhvg","pricing_plan_id":"cebpf4jnsgd1na2vs0mg"},{"bike_id":"96d0275a-ccec-4de6-ad25-67ea77d4c332","system_id":"levelo_inurba_marseille","lat":43.297724,"lon":5.400374,"is_reserved":false,"is_disabled":false,"rental_uris":{"android":"levelo://app?vid=96d0275a-ccec-4de6-ad25-67ea77d4c332","ios":"levelo://app?vid=96d0275a-ccec-4de6-ad25-67ea77d4c332"},"vehicle_type_id":"4","last_reported":1747264092,"current_range_meters":3600,"station_id":"","pricing_plan_id":"cebpf4jnsgd1na2vs0mg"},{"bike_id":"fcc4ef96-c15e-4bef-9606-819e508051db","system_id":"levelo_inurba_marseille","lat":43.26243,"lon":5.42129,"is_reserved":false,"is_disabled":false,"rental_uris":{"android":"levelo://app?vid=fcc4ef96-c15e-4bef-9606-819e508051db","ios":"levelo://app?vid=fcc4ef96-c15e-4bef-9606-819e508051db"},"vehicle_type_id":"4","last_reported":1747264092,"current_range_meters":4000,"station_id":"","pricing_plan_id":"cebpf4jnsgd1na2vs0mg"},{"bike_id":"ce4325af-2448-4172-bdec-81d552ee0b62","system_id":"levelo_inurba_marseille","lat":43.261718,"lon":5.420176,"is_reserved":false,"is_disabled":false,"rental_uris":{"android":"levelo://app?vid=ce4325af-2448-4172-bdec-81d552ee0b62","ios":"levelo://app?vid=ce4325af-2448-4172-bdec-81d552ee0b62"},"vehicle_type_id":"4","last_reported":1747264092,"current_range_meters":4400,"station_id":"","pricing_plan_id":"cebpf4jnsgd1na2vs0mg"},{"bike_id":"c4afdc6b-43e4-4a36-87e0-511399fdf8dd","system_id":"levelo_inurba_marseille","lat":43.31122,"lon":5.3776,"is_reserved":false,"is_disabled":false,"rental_uris":{"android":"levelo://app?vid=c4afdc6b-43e4-4a36-87e0-511399fdf8dd","ios":"levelo://app?vid=c4afdc6b-43e4-4a36-87e0-511399fdf8dd"},"vehicle_type_id":"4","last_reported":1747264092,"current_range_meters":4400,"station_id":"ce4bgt92rcd13ifvqcg0","pricing_plan_id":"cebpf4jnsgd1na2vs0mg"},{"bike_id":"6953ca09-b1d0-473e-8b94-d568eb1a7f43","system_id":"levelo_inurba_marseille","lat":43.28842,"lon":5.37143,"is_reserved":false,"is_disabled":false,"rental_uris":{"android":"levelo://app?vid=6953ca09-b1d0-473e-8b94-d568eb1a7f43","ios":"levelo://app?vid=6953ca09-b1d0-473e-8b94-d568eb1a7f43"},"vehicle_type_id":"4","last_reported":1747264092,"current_range_meters":4800,"station_id":"","pricing_plan_id":"cebpf4jnsgd1na2vs0mg"},{"bike_id":"5439b638-afb1-4011-a479-a041ff362f9b","system_id":"levelo_inurba_marseille","lat":43.29253,"lon":5.40908,"is_reserved":false,"is_disabled":false,"rental_uris":{"android":"levelo://app?vid=5439b638-afb1-4011-a479-a041ff362f9b","ios":"levelo://app?vid=5439b638-afb1-4011-a479-a041ff362f9b"},"vehicle_type_id":"4","last_reported":1747264092,"current_range_meters":5600,"station_id":"ce4bh192rcd13ifvqdc0","pricing_plan_id":"cebpf4jnsgd1na2vs0mg"},{"bike_id":"f37b7848-b34f-4203-8cd6-ee4ac88ff930","system_id":"levelo_inurba_marseille","lat":43.239598,"lon":5.366328,"is_reserved":false,"is_disabled":false,"rental_uris":{"android":"levelo://app?vid=f37b7848-b34f-4203-8cd6-ee4ac88ff930","ios":"levelo://app?vid=f37b7848-b34f-4203-8cd6-ee4ac88ff930"},"vehicle_type_id":"4","last_reported":1747264092,"current_range_meters":5600,"station_id":"ce4bhi12rcd13ifvqfp0","pricing_plan_id":"cebpf4jnsgd1na2vs0mg"},{"bike_id":"75bc4e83-c3de-45ba-95d5-175cdf321809","system_id":"levelo_inurba_marseille","lat":43.27939,"lon":5.41033,"is_reserved":false,"is_disabled":false,"rental_uris":{"android":"levelo://app?vid=75bc4e83-c3de-45ba-95d5-175cdf321809","ios":"levelo://app?vid=75bc4e83-c3de-45ba-95d5-175cdf321809"},"vehicle_type_id":"4","last_reported":1747264092,"current_range_meters":5600,"station_id":"ce4bhnp2rcd13ifvqh0g","pricing_plan_id":"cebpf4jnsgd1na2vs0mg"},{"bike_id":"5de1e8df-cec1-47cf-b554-41f6e726d337","system_id":"levelo_inurba_marseille","lat":43.274136,"lon":5.406106,"is_reserved":false,"is_disabled":false,"rental_uris":{"android":"levelo://app?vid=5de1e8df-cec1-47cf-b554-41f6e726d337","ios":"levelo://app?vid=5de1e8df-cec1-47cf-b554-41f6e726d337"},"vehicle_type_id":"4","last_reported":1747264092,"current_range_meters":6000,"station_id":"","pricing_plan_id":"cebpf4jnsgd1na2vs0mg"},{"bike_id":"02ac928d-986e-4f78-9610-17dfcfa3f031","system_id":"levelo_inurba_marseille","lat":43.309,"lon":5.37186,"is_reserved":false,"is_disabled":false,"rental_uris":{"android":"levelo://app?vid=02ac928d-986e-4f78-9610-17dfcfa3f031","ios":"levelo://app?vid=02ac928d-986e-4f78-9610-17dfcfa3f031"},"vehicle_type_id":"4","last_reported":1747264092,"current_range_meters":6000,"station_id":"ce4bguh2rcd13ifvqckg","pricing_plan_id":"cebpf4jnsgd1na2vs0mg"},{"bike_id":"31e2813c-f647-438c-bb08-7c1907a0ba03","system_id":"levelo_inurba_marseille","lat":43.30784,"lon":5.3766,"is_reserved":false,"is_disabled":false,"rental_uris":{"android":"levelo://app?vid=31e2813c-f647-438c-bb08-7c1907a0ba03","ios":"levelo://app?vid=31e2813c-f647-438c-bb08-7c1907a0ba03"},"vehicle_type_id":"4","last_reported":1747264092,"current_range_meters":6400,"station_id":"ce4bgv92rcd13ifvqcq0","pricing_plan_id":"cebpf4jnsgd1na2vs0mg"},{"bike_id":"ec076c35-f86e-402a-841e-225ad69c6fd5","system_id":"levelo_inurba_marseille","lat":43.28405,"lon":5.37502,"is_reserved":false,"is_disabled":false,"rental_uris":{"android":"levelo://app?vid=ec076c35-f86e-402a-841e-225ad69c6fd5","ios":"levelo://app?vid=ec076c35-f86e-402a-841e-225ad69c6fd5"},"vehicle_type_id":"4","last_reported":1747264092,"current_range_meters":6400,"station_id":"ce4bh412rcd13ifvqds0","pricing_plan_id":"cebpf4jnsgd1na2vs0mg"},{"bike_id":"606f499d-76b6-4b5b-9eac-7f88996d5bed","system_id":"levelo_inurba_marseille","lat":43.30584,"lon":5.37243,"is_reserved":false,"is_disabled":false,"rental_uris":{"android":"levelo://app?vid=606f499d-76b6-4b5b-9eac-7f88996d5bed","ios":"levelo://app?vid=606f499d-76b6-4b5b-9eac-7f88996d5bed"},"vehicle_type_id":"4","last_reported":1747264092,"current_range_meters":6800,"station_id":"ce4bgqh2rcd13ifvqc4g","pricing_plan_id":"cebpf4jnsgd1na2vs0mg"},{"bike_id":"6c5e2750-bf55-4812-bb81-a9df60873a61","system_id":"levelo_inurba_marseille","lat":43.29639,"lon":5.36185,"is_reserved":false,"is_disabled":false,"rental_uris":{"android":"levelo://app?vid=6c5e2750-bf55-4812-bb81-a9df60873a61","ios":"levelo://app?vid=6c5e2750-bf55-4812-bb81-a9df60873a61"},"vehicle_type_id":"4","last_reported":1747264092,"current_range_meters":7200,"station_id":"","pricing_plan_id":"cebpf4jnsgd1na2vs0mg"},{"bike_id":"3d88a63a-f83d-4aa2-aebe-883b2bbd49f5","system_id":"levelo_inurba_marseille","lat":43.26227,"lon":5.40446,"is_reserved":false,"is_disabled":false,"rental_uris":{"android":"levelo://app?vid=3d88a63a-f83d-4aa2-aebe-883b2bbd49f5","ios":"levelo://app?vid=3d88a63a-f83d-4aa2-aebe-883b2bbd49f5"},"vehicle_type_id":"4","last_reported":1747264092,"current_range_meters":7200,"station_id":"ce4bhmh2rcd13ifvqgmg","pricing_plan_id":"cebpf4jnsgd1na2vs0mg"},{"bike_id":"820781c2-91b3-4296-a92e-b37c784e5d12","system_id":"levelo_inurba_marseille","lat":43.28084,"lon":5.39656,"is_reserved":false,"is_disabled":false,"rental_uris":{"android":"levelo://app?vid=820781c2-91b3-4296-a92e-b37c784e5d12","ios":"levelo://app?vid=820781c2-91b3-4296-a92e-b37c784e5d12"},"vehicle_type_id":"4","last_reported":1747264092,"current_range_meters":7200,"station_id":"ce4bho12rcd13ifvqh2g","pricing_plan_id":"cebpf4jnsgd1na2vs0mg"},{"bike_id":"cd08963b-4cc1-4358-9941-f56aa5b4c786","system_id":"levelo_inurba_marseille","lat":43.30646,"lon":5.40104,"is_reserved":false,"is_disabled":false,"rental_uris":{"android":"levelo://app?vid=cd08963b-4cc1-4358-9941-f56aa5b4c786","ios":"levelo://app?vid=cd08963b-4cc1-4358-9941-f56aa5b4c786"},"vehicle_type_id":"4","last_reported":1747264092,"current_range_meters":8000,"station_id":"ce4bh112rcd13ifvqda0","pricing_plan_id":"cebpf4jnsgd1na2vs0mg"},{"bike_id":"9eb308d7-4cc6-4bf3-94f5-69e21789ecf2","system_id":"levelo_inurba_marseille","lat":43.24646,"lon":5.38892,"is_reserved":false,"is_disabled":false,"rental_uris":{"android":"levelo://app?vid=9eb308d7-4cc6-4bf3-94f5-69e21789ecf2","ios":"levelo://app?vid=9eb308d7-4cc6-4bf3-94f5-69e21789ecf2"},"vehicle_type_id":"4","last_reported":1747264092,"current_range_meters":8000,"station_id":"ce4bhg12rcd13ifvqf60","pricing_plan_id":"cebpf4jnsgd1na2vs0mg"},{"bike_id":"7ddd34a0-d984-4dc0-a019-37962a1ca7c6","system_id":"levelo_inurba_marseille","lat":43.25102,"lon":5.40336,"is_reserved":false,"is_disabled":false,"rental_uris":{"android":"levelo://app?vid=7ddd34a0-d984-4dc0-a019-37962a1ca7c6","ios":"levelo://app?vid=7ddd34a0-d984-4dc0-a019-37962a1ca7c6"},"vehicle_type_id":"4","last_reported":1747264092,"current_range_meters":8000,"station_id":"ce4bhlh2rcd13ifvqgig","pricing_plan_id":"cebpf4jnsgd1na2vs0mg"},{"bike_id":"f872a4c2-1be7-49b4-bb7d-e1f71d921d7b","system_id":"levelo_inurba_marseille","lat":43.231877,"lon":5.399832,"is_reserved":false,"is_disabled":false,"rental_uris":{"android":"levelo://app?vid=f872a4c2-1be7-49b4-bb7d-e1f71d921d7b","ios":"levelo://app?vid=f872a4c2-1be7-49b4-bb7d-e1f71d921d7b"},"vehicle_type_id":"4","last_reported":1747264092,"current_range_meters":8000,"station_id":"ce4bhn12rcd13ifvqgqg","pricing_plan_id":"cebpf4jnsgd1na2vs0mg"},{"bike_id":"d2c1d47c-b855-441f-803c-abd860de7f62","system_id":"levelo_inurba_marseille","lat":43.28071,"lon":5.39642,"is_reserved":false,"is_disabled":false,"rental_uris":{"android":"levelo://app?vid=d2c1d47c-b855-441f-803c-abd860de7f62","ios":"levelo://app?vid=d2c1d47c-b855-441f-803c-abd860de7f62"},"vehicle_type_id":"4","last_reported":1747264092,"current_range_meters":8000,"station_id":"ce4bho12rcd13ifvqh2g","pricing_plan_id":"cebpf4jnsgd1na2vs0mg"},{"bike_id":"f516bdec-657c-46f1-abec-ebfac75025ea","system_id":"levelo_inurba_marseille","lat":43.22934,"lon":5.35376,"is_reserved":false,"is_disabled":false,"rental_uris":{"android":"levelo://app?vid=f516bdec-657c-46f1-abec-ebfac75025ea","ios":"levelo://app?vid=f516bdec-657c-46f1-abec-ebfac75025ea"},"vehicle_type_id":"4","last_reported":1747264092,"current_range_meters":8000,"station_id":"cpo3532slgdg3j2ikp40","pricing_plan_id":"cebpf4jnsgd1na2vs0mg"},{"bike_id":"9510c63e-bbbb-491a-a39e-0036184a1d73","system_id":"levelo_inurba_marseille","lat":43.297059,"lon":5.366182,"is_reserved":false,"is_disabled":false,"rental_uris":{"android":"levelo://app?vid=9510c63e-bbbb-491a-a39e-0036184a1d73","ios":"levelo://app?vid=9510c63e-bbbb-491a-a39e-0036184a1d73"},"vehicle_type_id":"4","last_reported":1747264092,"current_range_meters":8400,"station_id":"ce4bgn12rcd13ifvqbt0","pricing_plan_id":"cebpf4jnsgd1na2vs0mg"},{"bike_id":"ab98fdb4-a6fd-4c45-93f8-67a758d9b5be","system_id":"levelo_inurba_marseille","lat":43.29965,"lon":5.37181,"is_reserved":false,"is_disabled":false,"rental_uris":{"android":"levelo://app?vid=ab98fdb4-a6fd-4c45-93f8-67a758d9b5be","ios":"levelo://app?vid=ab98fdb4-a6fd-4c45-93f8-67a758d9b5be"},"vehicle_type_id":"4","last_reported":1747264092,"current_range_meters":8400,"station_id":"ce4bgr92rcd13ifvqc7g","pricing_plan_id":"cebpf4jnsgd1na2vs0mg"},{"bike_id":"aa8db4ff-ac35-4bf2-a9fa-545ce449f88b","system_id":"levelo_inurba_marseille","lat":43.251086,"lon":5.403299,"is_reserved":false,"is_disabled":false,"rental_uris":{"android":"levelo://app?vid=aa8db4ff-ac35-4bf2-a9fa-545ce449f88b","ios":"levelo://app?vid=aa8db4ff-ac35-4bf2-a9fa-545ce449f88b"},"vehicle_type_id":"4","last_reported":1747264092,"current_range_meters":8400,"station_id":"ce4bhlh2rcd13ifvqgig","pricing_plan_id":"cebpf4jnsgd1na2vs0mg"},{"bike_id":"cff07eda-0d35-48d7-ae3d-eafcd93e64af","system_id":"levelo_inurba_marseille","lat":43.31909,"lon":5.39443,"is_reserved":false,"is_disabled":false,"rental_uris":{"android":"levelo://app?vid=cff07eda-0d35-48d7-ae3d-eafcd93e64af","ios":"levelo://app?vid=cff07eda-0d35-48d7-ae3d-eafcd93e64af"},"vehicle_type_id":"4","last_reported":1747264092,"current_range_meters":8800,"station_id":"","pricing_plan_id":"cebpf4jnsgd1na2vs0mg"},{"bike_id":"101529f1-b2b2-48f3-adf4-24d4cf7a709c","system_id":"levelo_inurba_marseille","lat":43.308875,"lon":5.396274,"is_reserved":false,"is_disabled":false,"rental_uris":{"android":"levelo://app?vid=101529f1-b2b2-48f3-adf4-24d4cf7a709c","ios":"levelo://app?vid=101529f1-b2b2-48f3-adf4-24d4cf7a709c"},"vehicle_type_id":"4","last_reported":1747264092,"current_range_meters":8800,"station_id":"ce4bh012rcd13ifvqcv0","pricing_plan_id":"cebpf4jnsgd1na2vs0mg"},{"bike_id":"759f78fe-a239-48b1-8db2-ee97c9309ec7","system_id":"levelo_inurba_marseille","lat":43.30317,"lon":5.404325,"is_reserved":false,"is_disabled":false,"rental_uris":{"android":"levelo://app?vid=759f78fe-a239-48b1-8db2-ee97c9309ec7","ios":"levelo://app?vid=759f78fe-a239-48b1-8db2-ee97c9309ec7"},"vehicle_type_id":"4","last_reported":1747264092,"current_range_meters":8800,"station_id":"ce4bh012rcd13ifvqd10","pricing_plan_id":"cebpf4jnsgd1na2vs0mg"},{"bike_id":"f85f0f02-3aed-4e45-ab3a-0ff4cf09e33e","system_id":"levelo_inurba_marseille","lat":43.28343,"lon":5.38105,"is_reserved":false,"is_disabled":false,"rental_uris":{"android":"levelo://app?vid=f85f0f02-3aed-4e45-ab3a-0ff4cf09e33e","ios":"levelo://app?vid=f85f0f02-3aed-4e45-ab3a-0ff4cf09e33e"},"vehicle_type_id":"4","last_reported":1747264092,"current_range_meters":8800,"station_id":"ce4bh412rcd13ifvqdr0","pricing_plan_id":"cebpf4jnsgd1na2vs0mg"},{"bike_id":"a1bb8e67-fad9-4c62-8ab8-6a7cd6c22b08","system_id":"levelo_inurba_marseille","lat":43.241873,"lon":5.397191,"is_reserved":false,"is_disabled":false,"rental_uris":{"android":"levelo://app?vid=a1bb8e67-fad9-4c62-8ab8-6a7cd6c22b08","ios":"levelo://app?vid=a1bb8e67-fad9-4c62-8ab8-6a7cd6c22b08"},"vehicle_type_id":"4","last_reported":1747264092,"current_range_meters":8800,"station_id":"ce4bhn12rcd13ifvqgpg","pricing_plan_id":"cebpf4jnsgd1na2vs0mg"},{"bike_id":"3faf053c-e846-4d83-83ee-8fd51efc38bb","system_id":"levelo_inurba_marseille","lat":43.321043,"lon":5.367859,"is_reserved":false,"is_disabled":false,"rental_uris":{"android":"levelo://app?vid=3faf053c-e846-4d83-83ee-8fd51efc38bb","ios":"levelo://app?vid=3faf053c-e846-4d83-83ee-8fd51efc38bb"},"vehicle_type_id":"4","last_reported":1747264092,"current_range_meters":8800,"station_id":"ce4bhrh2rcd13ifvqhug","pricing_plan_id":"cebpf4jnsgd1na2vs0mg"},{"bike_id":"53d3e99a-fe32-470b-82e8-98cea0217d4d","system_id":"levelo_inurba_marseille","lat":43.30568,"lon":5.37248,"is_reserved":false,"is_disabled":false,"rental_uris":{"android":"levelo://app?vid=53d3e99a-fe32-470b-82e8-98cea0217d4d","ios":"levelo://app?vid=53d3e99a-fe32-470b-82e8-98cea0217d4d"},"vehicle_type_id":"4","last_reported":1747264092,"current_range_meters":9200,"station_id":"ce4bgqh2rcd13ifvqc4g","pricing_plan_id":"cebpf4jnsgd1na2vs0mg"},{"bike_id":"7334a686-a803-4359-8857-10dc09939f33","system_id":"levelo_inurba_marseille","lat":43.26225,"lon":5.404554,"is_reserved":false,"is_disabled":false,"rental_uris":{"android":"levelo://app?vid=7334a686-a803-4359-8857-10dc09939f33","ios":"levelo://app?vid=7334a686-a803-4359-8857-10dc09939f33"},"vehicle_type_id":"4","last_reported":1747264092,"current_range_meters":9200,"station_id":"ce4bhmh2rcd13ifvqgmg","pricing_plan_id":"cebpf4jnsgd1na2vs0mg"},{"bike_id":"6a94c510-06e9-4819-80f4-2a1f66907200","system_id":"levelo_inurba_marseille","lat":43.24338,"lon":5.38018,"is_reserved":false,"is_disabled":false,"rental_uris":{"android":"levelo://app?vid=6a94c510-06e9-4819-80f4-2a1f66907200","ios":"levelo://app?vid=6a94c510-06e9-4819-80f4-2a1f66907200"},"vehicle_type_id":"4","last_reported":1747264092,"current_range_meters":9600,"station_id":"","pricing_plan_id":"cebpf4jnsgd1na2vs0mg"},{"bike_id":"a92deb3c-961f-4a61-890d-82fd5cc2157e","system_id":"levelo_inurba_marseille","lat":43.31369,"lon":5.38503,"is_reserved":false,"is_disabled":false,"rental_uris":{"android":"levelo://app?vid=a92deb3c-961f-4a61-890d-82fd5cc2157e","ios":"levelo://app?vid=a92deb3c-961f-4a61-890d-82fd5cc2157e"},"vehicle_type_id":"4","last_reported":1747264092,"current_range_meters":9600,"station_id":"ce4bgt92rcd13ifvqcf0","pricing_plan_id":"cebpf4jnsgd1na2vs0mg"},{"bike_id":"e3faef6f-635a-4b6b-b2b3-c0b918604df6","system_id":"levelo_inurba_marseille","lat":43.299154,"lon":5.436716,"is_reserved":false,"is_disabled":false,"rental_uris":{"android":"levelo://app?vid=e3faef6f-635a-4b6b-b2b3-c0b918604df6","ios":"levelo://app?vid=e3faef6f-635a-4b6b-b2b3-c0b918604df6"},"vehicle_type_id":"4","last_reported":1747264092,"current_range_meters":9600,"station_id":"ce4bhpp2rcd13ifvqhfg","pricing_plan_id":"cebpf4jnsgd1na2vs0mg"},{"bike_id":"56a54840-8453-4673-8cc1-64d415eb4281","system_id":"levelo_inurba_marseille","lat":43.323636,"lon":5.388964,"is_reserved":false,"is_disabled":false,"rental_uris":{"android":"levelo://app?vid=56a54840-8453-4673-8cc1-64d415eb4281","ios":"levelo://app?vid=56a54840-8453-4673-8cc1-64d415eb4281"},"vehicle_type_id":"4","last_reported":1747264092,"current_range_meters":9600,"station_id":"ce4bhqp2rcd13ifvqhog","pricing_plan_id":"cebpf4jnsgd1na2vs0mg"},{"bike_id":"d8f09606-f3e1-401b-80ca-0196f668477a","system_id":"levelo_inurba_marseille","lat":43.301903,"lon":5.386012,"is_reserved":false,"is_disabled":false,"rental_uris":{"android":"levelo://app?vid=d8f09606-f3e1-401b-80ca-0196f668477a","ios":"levelo://app?vid=d8f09606-f3e1-401b-80ca-0196f668477a"},"vehicle_type_id":"4","last_reported":1747264092,"current_range_meters":10000,"station_id":"","pricing_plan_id":"cebpf4jnsgd1na2vs0mg"},{"bike_id":"2560ced1-3aa0-4b19-b9ca-c868822cb11c","system_id":"levelo_inurba_marseille","lat":43.31319,"lon":5.3968,"is_reserved":false,"is_disabled":false,"rental_uris":{"android":"levelo://app?vid=2560ced1-3aa0-4b19-b9ca-c868822cb11c","ios":"levelo://app?vid=2560ced1-3aa0-4b19-b9ca-c868822cb11c"},"vehicle_type_id":"4","last_reported":1747264092,"current_range_meters":10000,"station_id":"ce4bgvp2rcd13ifvqcu0","pricing_plan_id":"cebpf4jnsgd1na2vs0mg"},{"bike_id":"3ec3792d-1198-4b1d-8ce9-5ce6b8a7ac84","system_id":"levelo_inurba_marseille","lat":43.306414,"lon":5.400794,"is_reserved":false,"is_disabled":false,"rental_uris":{"android":"levelo://app?vid=3ec3792d-1198-4b1d-8ce9-5ce6b8a7ac84","ios":"levelo://app?vid=3ec3792d-1198-4b1d-8ce9-5ce6b8a7ac84"},"vehicle_type_id":"4","last_reported":1747264092,"current_range_meters":10000,"station_id":"ce4bh112rcd13ifvqda0","pricing_plan_id":"cebpf4jnsgd1na2vs0mg"},{"bike_id":"0879c7af-989f-4e68-9fd6-d134be2b3e7f","system_id":"levelo_inurba_marseille","lat":43.25937,"lon":5.40888,"is_reserved":false,"is_disabled":false,"rental_uris":{"android":"levelo://app?vid=0879c7af-989f-4e68-9fd6-d134be2b3e7f","ios":"levelo://app?vid=0879c7af-989f-4e68-9fd6-d134be2b3e7f"},"vehicle_type_id":"4","last_reported":1747264092,"current_range_meters":10000,"station_id":"ce4bhm92rcd13ifvqglg","pricing_plan_id":"cebpf4jnsgd1na2vs0mg"},{"bike_id":"3bb01f8f-50f7-474f-883f-948400a36ea5","system_id":"levelo_inurba_marseille","lat":43.325959,"lon":5.430078,"is_reserved":false,"is_disabled":false,"rental_uris":{"android":"levelo://app?vid=3bb01f8f-50f7-474f-883f-948400a36ea5","ios":"levelo://app?vid=3bb01f8f-50f7-474f-883f-948400a36ea5"},"vehicle_type_id":"4","last_reported":1747264092,"current_range_meters":10800,"station_id":"","pricing_plan_id":"cebpf4jnsgd1na2vs0mg"},{"bike_id":"ee2a27af-695b-45e2-911d-1feb4d3d8904","system_id":"levelo_inurba_marseille","lat":43.30926,"lon":5.40151,"is_reserved":false,"is_disabled":false,"rental_uris":{"android":"levelo://app?vid=ee2a27af-695b-45e2-911d-1feb4d3d8904","ios":"levelo://app?vid=ee2a27af-695b-45e2-911d-1feb4d3d8904"},"vehicle_type_id":"4","last_reported":1747264092,"current_range_meters":10800,"station_id":"ce4bgvp2rcd13ifvqct0","pricing_plan_id":"cebpf4jnsgd1na2vs0mg"},{"bike_id":"8e54ff22-0290-41ed-84bb-d24b04b30756","system_id":"levelo_inurba_marseille","lat":43.29038,"lon":5.39962,"is_reserved":false,"is_disabled":false,"rental_uris":{"android":"levelo://app?vid=8e54ff22-0290-41ed-84bb-d24b04b30756","ios":"levelo://app?vid=8e54ff22-0290-41ed-84bb-d24b04b30756"},"vehicle_type_id":"4","last_reported":1747264092,"current_range_meters":10800,"station_id":"ce4bh392rcd13ifvqdm0","pricing_plan_id":"cebpf4jnsgd1na2vs0mg"},{"bike_id":"43c40f49-0c3b-4d73-b721-5febd2ec1837","system_id":"levelo_inurba_marseille","lat":43.27944,"lon":5.41035,"is_reserved":false,"is_disabled":false,"rental_uris":{"android":"levelo://app?vid=43c40f49-0c3b-4d73-b721-5febd2ec1837","ios":"levelo://app?vid=43c40f49-0c3b-4d73-b721-5febd2ec1837"},"vehicle_type_id":"4","last_reported":1747264092,"current_range_meters":10800,"station_id":"ce4bhnp2rcd13ifvqh0g","pricing_plan_id":"cebpf4jnsgd1na2vs0mg"},{"bike_id":"01cc56f2-e0a1-494c-a32a-c75065ce15de","system_id":"levelo_inurba_marseille","lat":43.32368,"lon":5.38882,"is_reserved":false,"is_disabled":false,"rental_uris":{"android":"levelo://app?vid=01cc56f2-e0a1-494c-a32a-c75065ce15de","ios":"levelo://app?vid=01cc56f2-e0a1-494c-a32a-c75065ce15de"},"vehicle_type_id":"4","last_reported":1747264092,"current_range_meters":10800,"station_id":"ce4bhqp2rcd13ifvqhog","pricing_plan_id":"cebpf4jnsgd1na2vs0mg"},{"bike_id":"4d83a49d-a4f7-4140-bff3-bb3633e6dccc","system_id":"levelo_inurba_marseille","lat":43.32361,"lon":5.38886,"is_reserved":false,"is_disabled":false,"rental_uris":{"android":"levelo://app?vid=4d83a49d-a4f7-4140-bff3-bb3633e6dccc","ios":"levelo://app?vid=4d83a49d-a4f7-4140-bff3-bb3633e6dccc"},"vehicle_type_id":"4","last_reported":1747264092,"current_range_meters":10800,"station_id":"ce4bhqp2rcd13ifvqhog","pricing_plan_id":"cebpf4jnsgd1na2vs0mg"},{"bike_id":"0e9ae0d5-9720-4dc9-a828-f9e1f047374d","system_id":"levelo_inurba_marseille","lat":43.30254,"lon":5.40062,"is_reserved":false,"is_disabled":false,"rental_uris":{"android":"levelo://app?vid=0e9ae0d5-9720-4dc9-a828-f9e1f047374d","ios":"levelo://app?vid=0e9ae0d5-9720-4dc9-a828-f9e1f047374d"},"vehicle_type_id":"4","last_reported":1747264092,"current_range_meters":11200,"station_id":"ce4bgvh2rcd13ifvqcs0","pricing_plan_id":"cebpf4jnsgd1na2vs0mg"},{"bike_id":"432547d2-9cb3-48e0-b85b-a92c8609dd72","system_id":"levelo_inurba_marseille","lat":43.24387,"lon":5.3707,"is_reserved":false,"is_disabled":false,"rental_uris":{"android":"levelo://app?vid=432547d2-9cb3-48e0-b85b-a92c8609dd72","ios":"levelo://app?vid=432547d2-9cb3-48e0-b85b-a92c8609dd72"},"vehicle_type_id":"4","last_reported":1747264092,"current_range_meters":11200,"station_id":"ce4bhhh2rcd13ifvqfk0","pricing_plan_id":"cebpf4jnsgd1na2vs0mg"},{"bike_id":"f8464d34-9724-44a9-83a6-c3e71bee035c","system_id":"levelo_inurba_marseille","lat":43.28076,"lon":5.396497,"is_reserved":false,"is_disabled":false,"rental_uris":{"android":"levelo://app?vid=f8464d34-9724-44a9-83a6-c3e71bee035c","ios":"levelo://app?vid=f8464d34-9724-44a9-83a6-c3e71bee035c"},"vehicle_type_id":"4","last_reported":1747264092,"current_range_meters":11200,"station_id":"ce4bho12rcd13ifvqh2g","pricing_plan_id":"cebpf4jnsgd1na2vs0mg"},{"bike_id":"0a4a775a-8fe6-4d50-9a0d-f2fe9241b083","system_id":"levelo_inurba_marseille","lat":43.279957,"lon":5.40022,"is_reserved":false,"is_disabled":false,"rental_uris":{"android":"levelo://app?vid=0a4a775a-8fe6-4d50-9a0d-f2fe9241b083","ios":"levelo://app?vid=0a4a775a-8fe6-4d50-9a0d-f2fe9241b083"},"vehicle_type_id":"4","last_reported":1747264092,"current_range_meters":11200,"station_id":"ce4bho92rcd13ifvqh4g","pricing_plan_id":"cebpf4jnsgd1na2vs0mg"},{"bike_id":"74e087de-c735-4d96-8544-ac3e5274d091","system_id":"levelo_inurba_marseille","lat":43.317157,"lon":5.437077,"is_reserved":false,"is_disabled":false,"rental_uris":{"android":"levelo://app?vid=74e087de-c735-4d96-8544-ac3e5274d091","ios":"levelo://app?vid=74e087de-c735-4d96-8544-ac3e5274d091"},"vehicle_type_id":"4","last_reported":1747264092,"current_range_meters":11200,"station_id":"ce4bhp92rcd13ifvqhcg","pricing_plan_id":"cebpf4jnsgd1na2vs0mg"},{"bike_id":"d3a1c825-461c-4875-9f67-a6d33491348f","system_id":"levelo_inurba_marseille","lat":43.32345,"lon":5.40657,"is_reserved":false,"is_disabled":false,"rental_uris":{"android":"levelo://app?vid=d3a1c825-461c-4875-9f67-a6d33491348f","ios":"levelo://app?vid=d3a1c825-461c-4875-9f67-a6d33491348f"},"vehicle_type_id":"4","last_reported":1747264092,"current_range_meters":11200,"station_id":"ce4bhq92rcd13ifvqhjg","pricing_plan_id":"cebpf4jnsgd1na2vs0mg"},{"bike_id":"4a1605c8-9596-4ecb-94b7-2b583c66ecdd","system_id":"levelo_inurba_marseille","lat":43.246627,"lon":5.381671,"is_reserved":false,"is_disabled":false,"rental_uris":{"android":"levelo://app?vid=4a1605c8-9596-4ecb-94b7-2b583c66ecdd","ios":"levelo://app?vid=4a1605c8-9596-4ecb-94b7-2b583c66ecdd"},"vehicle_type_id":"4","last_reported":1747264092,"current_range_meters":11600,"station_id":"ce4bhih2rcd13ifvqfr0","pricing_plan_id":"cebpf4jnsgd1na2vs0mg"},{"bike_id":"999f3621-a272-456e-a2b9-0faa9294d608","system_id":"levelo_inurba_marseille","lat":43.30461,"lon":5.37914,"is_reserved":false,"is_disabled":false,"rental_uris":{"android":"levelo://app?vid=999f3621-a272-456e-a2b9-0faa9294d608","ios":"levelo://app?vid=999f3621-a272-456e-a2b9-0faa9294d608"},"vehicle_type_id":"4","last_reported":1747264092,"current_range_meters":12000,"station_id":"ce4bgup2rcd13ifvqcn0","pricing_plan_id":"cebpf4jnsgd1na2vs0mg"},{"bike_id":"5abc2be0-fe06-42cb-b7be-f3234fd7c9b6","system_id":"levelo_inurba_marseille","lat":43.28408,"lon":5.37511,"is_reserved":false,"is_disabled":false,"rental_uris":{"android":"levelo://app?vid=5abc2be0-fe06-42cb-b7be-f3234fd7c9b6","ios":"levelo://app?vid=5abc2be0-fe06-42cb-b7be-f3234fd7c9b6"},"vehicle_type_id":"4","last_reported":1747264092,"current_range_meters":12000,"station_id":"ce4bh412rcd13ifvqds0","pricing_plan_id":"cebpf4jnsgd1na2vs0mg"},{"bike_id":"b6d31a98-3b69-4971-8c12-cf955836ed52","system_id":"levelo_inurba_marseille","lat":43.281122,"lon":5.378443,"is_reserved":false,"is_disabled":false,"rental_uris":{"android":"levelo://app?vid=b6d31a98-3b69-4971-8c12-cf955836ed52","ios":"levelo://app?vid=b6d31a98-3b69-4971-8c12-cf955836ed52"},"vehicle_type_id":"4","last_reported":1747264092,"current_range_meters":12000,"station_id":"ce4bha12rcd13ifvqee0","pricing_plan_id":"cebpf4jnsgd1na2vs0mg"},{"bike_id":"080c5bc8-2a50-4d60-9a30-88ce86670d7a","system_id":"levelo_inurba_marseille","lat":43.27061,"lon":5.40259,"is_reserved":false,"is_disabled":false,"rental_uris":{"android":"levelo://app?vid=080c5bc8-2a50-4d60-9a30-88ce86670d7a","ios":"levelo://app?vid=080c5bc8-2a50-4d60-9a30-88ce86670d7a"},"vehicle_type_id":"4","last_reported":1747264092,"current_range_meters":12000,"station_id":"ce4bhk92rcd13ifvqgc0","pricing_plan_id":"cebpf4jnsgd1na2vs0mg"},{"bike_id":"17d57f58-ffb0-4d77-bbe5-7f462887ac74","system_id":"levelo_inurba_marseille","lat":43.241765,"lon":5.397069,"is_reserved":false,"is_disabled":false,"rental_uris":{"android":"levelo://app?vid=17d57f58-ffb0-4d77-bbe5-7f462887ac74","ios":"levelo://app?vid=17d57f58-ffb0-4d77-bbe5-7f462887ac74"},"vehicle_type_id":"4","last_reported":1747264092,"current_range_meters":12000,"station_id":"ce4bhn12rcd13ifvqgpg","pricing_plan_id":"cebpf4jnsgd1na2vs0mg"},{"bike_id":"f78e9075-1e2d-4880-8f61-47d08e9eff1c","system_id":"levelo_inurba_marseille","lat":43.2407,"lon":5.37765,"is_reserved":false,"is_disabled":false,"rental_uris":{"android":"levelo://app?vid=f78e9075-1e2d-4880-8f61-47d08e9eff1c","ios":"levelo://app?vid=f78e9075-1e2d-4880-8f61-47d08e9eff1c"},"vehicle_type_id":"4","last_reported":1747264092,"current_range_meters":12000,"station_id":"ce4bhnp2rcd13ifvqgvg","pricing_plan_id":"cebpf4jnsgd1na2vs0mg"},{"bike_id":"08f19e49-3591-4c7d-af71-e220280c0a02","system_id":"levelo_inurba_marseille","lat":43.31715,"lon":5.43699,"is_reserved":false,"is_disabled":false,"rental_uris":{"android":"levelo://app?vid=08f19e49-3591-4c7d-af71-e220280c0a02","ios":"levelo://app?vid=08f19e49-3591-4c7d-af71-e220280c0a02"},"vehicle_type_id":"4","last_reported":1747264092,"current_range_meters":12000,"station_id":"ce4bhp92rcd13ifvqhcg","pricing_plan_id":"cebpf4jnsgd1na2vs0mg"},{"bike_id":"9f22b8aa-a9ca-4a2c-ab0b-0a0b10dbe182","system_id":"levelo_inurba_marseille","lat":43.32485,"lon":5.36558,"is_reserved":false,"is_disabled":false,"rental_uris":{"android":"levelo://app?vid=9f22b8aa-a9ca-4a2c-ab0b-0a0b10dbe182","ios":"levelo://app?vid=9f22b8aa-a9ca-4a2c-ab0b-0a0b10dbe182"},"vehicle_type_id":"4","last_reported":1747264092,"current_range_meters":12000,"station_id":"ce4bhs12rcd13ifvqhvg","pricing_plan_id":"cebpf4jnsgd1na2vs0mg"},{"bike_id":"1710df7f-986b-4753-a618-cabbc13a1f08","system_id":"levelo_inurba_marseille","lat":43.30221,"lon":5.39476,"is_reserved":false,"is_disabled":false,"rental_uris":{"android":"levelo://app?vid=1710df7f-986b-4753-a618-cabbc13a1f08","ios":"levelo://app?vid=1710df7f-986b-4753-a618-cabbc13a1f08"},"vehicle_type_id":"4","last_reported":1747264092,"current_range_meters":12400,"station_id":"ce4bh0p2rcd13ifvqd70","pricing_plan_id":"cebpf4jnsgd1na2vs0mg"},{"bike_id":"9832638e-edec-4ca7-b24e-b1ba9b623849","system_id":"levelo_inurba_marseille","lat":43.28574,"lon":5.3949,"is_reserved":false,"is_disabled":false,"rental_uris":{"android":"levelo://app?vid=9832638e-edec-4ca7-b24e-b1ba9b623849","ios":"levelo://app?vid=9832638e-edec-4ca7-b24e-b1ba9b623849"},"vehicle_type_id":"4","last_reported":1747264092,"current_range_meters":12400,"station_id":"ce4bh292rcd13ifvqdg0","pricing_plan_id":"cebpf4jnsgd1na2vs0mg"},{"bike_id":"293e2ae7-ec51-4849-8745-8d25155e9427","system_id":"levelo_inurba_marseille","lat":43.32656,"lon":5.40993,"is_reserved":false,"is_disabled":false,"rental_uris":{"android":"levelo://app?vid=293e2ae7-ec51-4849-8745-8d25155e9427","ios":"levelo://app?vid=293e2ae7-ec51-4849-8745-8d25155e9427"},"vehicle_type_id":"4","last_reported":1747264092,"current_range_meters":12400,"station_id":"ce4bhpp2rcd13ifvqhgg","pricing_plan_id":"cebpf4jnsgd1na2vs0mg"},{"bike_id":"ff5e1a78-49cb-4065-ad75-694b6e882ec0","system_id":"levelo_inurba_marseille","lat":43.281017,"lon":5.378247,"is_reserved":false,"is_disabled":false,"rental_uris":{"android":"levelo://app?vid=ff5e1a78-49cb-4065-ad75-694b6e882ec0","ios":"levelo://app?vid=ff5e1a78-49cb-4065-ad75-694b6e882ec0"},"vehicle_type_id":"4","last_reported":1747264092,"current_range_meters":12800,"station_id":"ce4bha12rcd13ifvqee0","pricing_plan_id":"cebpf4jnsgd1na2vs0mg"},{"bike_id":"0e5c8afa-fabc-4d5b-9f5f-b90827cc1275","system_id":"levelo_inurba_marseille","lat":43.2846,"lon":5.35881,"is_reserved":false,"is_disabled":false,"rental_uris":{"android":"levelo://app?vid=0e5c8afa-fabc-4d5b-9f5f-b90827cc1275","ios":"levelo://app?vid=0e5c8afa-fabc-4d5b-9f5f-b90827cc1275"},"vehicle_type_id":"4","last_reported":1747264092,"current_range_meters":12800,"station_id":"ce4bhah2rcd13ifvqei0","pricing_plan_id":"cebpf4jnsgd1na2vs0mg"},{"bike_id":"f2fa3917-52e2-462b-8250-01097feb44e5","system_id":"levelo_inurba_marseille","lat":43.241894,"lon":5.397293,"is_reserved":false,"is_disabled":false,"rental_uris":{"android":"levelo://app?vid=f2fa3917-52e2-462b-8250-01097feb44e5","ios":"levelo://app?vid=f2fa3917-52e2-462b-8250-01097feb44e5"},"vehicle_type_id":"4","last_reported":1747264092,"current_range_meters":12800,"station_id":"ce4bhn12rcd13ifvqgpg","pricing_plan_id":"cebpf4jnsgd1na2vs0mg"},{"bike_id":"e29c50a4-a612-41d7-9103-89470d0d5f5e","system_id":"levelo_inurba_marseille","lat":43.287,"lon":5.39987,"is_reserved":false,"is_disabled":false,"rental_uris":{"android":"levelo://app?vid=e29c50a4-a612-41d7-9103-89470d0d5f5e","ios":"levelo://app?vid=e29c50a4-a612-41d7-9103-89470d0d5f5e"},"vehicle_type_id":"4","last_reported":1747264092,"current_range_meters":12800,"station_id":"ce4bho92rcd13ifvqh3g","pricing_plan_id":"cebpf4jnsgd1na2vs0mg"},{"bike_id":"aa9c06a6-ff13-46d8-a8b8-e1851805f0cc","system_id":"levelo_inurba_marseille","lat":43.32363,"lon":5.38892,"is_reserved":false,"is_disabled":false,"rental_uris":{"android":"levelo://app?vid=aa9c06a6-ff13-46d8-a8b8-e1851805f0cc","ios":"levelo://app?vid=aa9c06a6-ff13-46d8-a8b8-e1851805f0cc"},"vehicle_type_id":"4","last_reported":1747264092,"current_range_meters":12800,"station_id":"ce4bhqp2rcd13ifvqhog","pricing_plan_id":"cebpf4jnsgd1na2vs0mg"},{"bike_id":"ade5afed-bf4a-4def-a780-75cc151f95e7","system_id":"levelo_inurba_marseille","lat":43.29788,"lon":5.39342,"is_reserved":false,"is_disabled":false,"rental_uris":{"android":"levelo://app?vid=ade5afed-bf4a-4def-a780-75cc151f95e7","ios":"levelo://app?vid=ade5afed-bf4a-4def-a780-75cc151f95e7"},"vehicle_type_id":"4","last_reported":1747264092,"current_range_meters":12800,"station_id":"chh1huq6cuj3fo74tm60","pricing_plan_id":"cebpf4jnsgd1na2vs0mg"},{"bike_id":"88acd83c-7ef2-45ff-b88e-d5ac2cd8b948","system_id":"levelo_inurba_marseille","lat":43.29532,"lon":5.39378,"is_reserved":false,"is_disabled":false,"rental_uris":{"android":"levelo://app?vid=88acd83c-7ef2-45ff-b88e-d5ac2cd8b948","ios":"levelo://app?vid=88acd83c-7ef2-45ff-b88e-d5ac2cd8b948"},"vehicle_type_id":"4","last_reported":1747264092,"current_range_meters":13600,"station_id":"ce4bh292rcd13ifvqdf0","pricing_plan_id":"cebpf4jnsgd1na2vs0mg"},{"bike_id":"2fbf9af1-2df2-4aeb-8b20-a4c95e106089","system_id":"levelo_inurba_marseille","lat":43.2406,"lon":5.37764,"is_reserved":false,"is_disabled":false,"rental_uris":{"android":"levelo://app?vid=2fbf9af1-2df2-4aeb-8b20-a4c95e106089","ios":"levelo://app?vid=2fbf9af1-2df2-4aeb-8b20-a4c95e106089"},"vehicle_type_id":"4","last_reported":1747264092,"current_range_meters":13600,"station_id":"ce4bhnp2rcd13ifvqgvg","pricing_plan_id":"cebpf4jnsgd1na2vs0mg"},{"bike_id":"15e66101-cd15-46aa-a2a2-4fd649d49fa6","system_id":"levelo_inurba_marseille","lat":43.280734,"lon":5.396641,"is_reserved":false,"is_disabled":false,"rental_uris":{"android":"levelo://app?vid=15e66101-cd15-46aa-a2a2-4fd649d49fa6","ios":"levelo://app?vid=15e66101-cd15-46aa-a2a2-4fd649d49fa6"},"vehicle_type_id":"4","last_reported":1747264092,"current_range_meters":13600,"station_id":"ce4bho12rcd13ifvqh2g","pricing_plan_id":"cebpf4jnsgd1na2vs0mg"},{"bike_id":"1b8fcf53-a929-4878-a714-5e795b4cbebb","system_id":"levelo_inurba_marseille","lat":43.28718,"lon":5.39972,"is_reserved":false,"is_disabled":false,"rental_uris":{"android":"levelo://app?vid=1b8fcf53-a929-4878-a714-5e795b4cbebb","ios":"levelo://app?vid=1b8fcf53-a929-4878-a714-5e795b4cbebb"},"vehicle_type_id":"4","last_reported":1747264092,"current_range_meters":13600,"station_id":"ce4bho92rcd13ifvqh3g","pricing_plan_id":"cebpf4jnsgd1na2vs0mg"},{"bike_id":"8c7308bf-84fd-4edb-9b86-07fbeaf5e51b","system_id":"levelo_inurba_marseille","lat":43.31728,"lon":5.42403,"is_reserved":false,"is_disabled":false,"rental_uris":{"android":"levelo://app?vid=8c7308bf-84fd-4edb-9b86-07fbeaf5e51b","ios":"levelo://app?vid=8c7308bf-84fd-4edb-9b86-07fbeaf5e51b"},"vehicle_type_id":"4","last_reported":1747264092,"current_range_meters":13600,"station_id":"ce4bhp92rcd13ifvqhbg","pricing_plan_id":"cebpf4jnsgd1na2vs0mg"},{"bike_id":"cf04a449-8245-40e5-866f-abb00b28cc6f","system_id":"levelo_inurba_marseille","lat":43.22925,"lon":5.35376,"is_reserved":false,"is_disabled":false,"rental_uris":{"android":"levelo://app?vid=cf04a449-8245-40e5-866f-abb00b28cc6f","ios":"levelo://app?vid=cf04a449-8245-40e5-866f-abb00b28cc6f"},"vehicle_type_id":"4","last_reported":1747264092,"current_range_meters":13600,"station_id":"cpo3532slgdg3j2ikp40","pricing_plan_id":"cebpf4jnsgd1na2vs0mg"},{"bike_id":"f3e7022b-4ef1-4fe9-b368-f11e5afc12e9","system_id":"levelo_inurba_marseille","lat":43.294497,"lon":5.39761,"is_reserved":false,"is_disabled":false,"rental_uris":{"android":"levelo://app?vid=f3e7022b-4ef1-4fe9-b368-f11e5afc12e9","ios":"levelo://app?vid=f3e7022b-4ef1-4fe9-b368-f11e5afc12e9"},"vehicle_type_id":"4","last_reported":1747264092,"current_range_meters":14000,"station_id":"ce4bh3h2rcd13ifvqdo0","pricing_plan_id":"cebpf4jnsgd1na2vs0mg"},{"bike_id":"6c0c1c26-4d1d-42d5-9806-592a7df4a860","system_id":"levelo_inurba_marseille","lat":43.28708,"lon":5.37401,"is_reserved":false,"is_disabled":false,"rental_uris":{"android":"levelo://app?vid=6c0c1c26-4d1d-42d5-9806-592a7df4a860","ios":"levelo://app?vid=6c0c1c26-4d1d-42d5-9806-592a7df4a860"},"vehicle_type_id":"4","last_reported":1747264092,"current_range_meters":14000,"station_id":"ce4bh3p2rcd13ifvqdq0","pricing_plan_id":"cebpf4jnsgd1na2vs0mg"},{"bike_id":"acde896d-16ae-4170-9945-9a86aa4c7cf7","system_id":"levelo_inurba_marseille","lat":43.30599,"lon":5.37226,"is_reserved":false,"is_disabled":false,"rental_uris":{"android":"levelo://app?vid=acde896d-16ae-4170-9945-9a86aa4c7cf7","ios":"levelo://app?vid=acde896d-16ae-4170-9945-9a86aa4c7cf7"},"vehicle_type_id":"4","last_reported":1747264092,"current_range_meters":14400,"station_id":"ce4bgqh2rcd13ifvqc4g","pricing_plan_id":"cebpf4jnsgd1na2vs0mg"},{"bike_id":"0786f947-1387-43c1-8d60-229140e67e3d","system_id":"levelo_inurba_marseille","lat":43.25119,"lon":5.40314,"is_reserved":false,"is_disabled":false,"rental_uris":{"android":"levelo://app?vid=0786f947-1387-43c1-8d60-229140e67e3d","ios":"levelo://app?vid=0786f947-1387-43c1-8d60-229140e67e3d"},"vehicle_type_id":"4","last_reported":1747264092,"current_range_meters":14400,"station_id":"ce4bhlh2rcd13ifvqgig","pricing_plan_id":"cebpf4jnsgd1na2vs0mg"},{"bike_id":"2af0df00-84df-494b-94f3-3f5b86286540","system_id":"levelo_inurba_marseille","lat":43.30892,"lon":5.370703,"is_reserved":false,"is_disabled":false,"rental_uris":{"android":"levelo://app?vid=2af0df00-84df-494b-94f3-3f5b86286540","ios":"levelo://app?vid=2af0df00-84df-494b-94f3-3f5b86286540"},"vehicle_type_id":"4","last_reported":1747264092,"current_range_meters":14800,"station_id":"","pricing_plan_id":"cebpf4jnsgd1na2vs0mg"},{"bike_id":"cc377332-c824-4cf8-bc9d-97d1852f3692","system_id":"levelo_inurba_marseille","lat":43.316907,"lon":5.404806,"is_reserved":false,"is_disabled":false,"rental_uris":{"android":"levelo://app?vid=cc377332-c824-4cf8-bc9d-97d1852f3692","ios":"levelo://app?vid=cc377332-c824-4cf8-bc9d-97d1852f3692"},"vehicle_type_id":"4","last_reported":1747264092,"current_range_meters":14800,"station_id":"ce4bh012rcd13ifvqd00","pricing_plan_id":"cebpf4jnsgd1na2vs0mg"},{"bike_id":"ce9e1229-fff7-491b-a2ec-8db26c02bb32","system_id":"levelo_inurba_marseille","lat":43.29961,"lon":5.4132,"is_reserved":false,"is_disabled":false,"rental_uris":{"android":"levelo://app?vid=ce9e1229-fff7-491b-a2ec-8db26c02bb32","ios":"levelo://app?vid=ce9e1229-fff7-491b-a2ec-8db26c02bb32"},"vehicle_type_id":"4","last_reported":1747264092,"current_range_meters":14800,"station_id":"ce4bhp12rcd13ifvqh9g","pricing_plan_id":"cebpf4jnsgd1na2vs0mg"},{"bike_id":"fde3ab85-39f2-4004-ad73-0618ecaf9961","system_id":"levelo_inurba_marseille","lat":43.32543,"lon":5.41451,"is_reserved":false,"is_disabled":false,"rental_uris":{"android":"levelo://app?vid=fde3ab85-39f2-4004-ad73-0618ecaf9961","ios":"levelo://app?vid=fde3ab85-39f2-4004-ad73-0618ecaf9961"},"vehicle_type_id":"4","last_reported":1747264092,"current_range_meters":14800,"station_id":"ce4bhq12rcd13ifvqhhg","pricing_plan_id":"cebpf4jnsgd1na2vs0mg"},{"bike_id":"21b06e68-a2e0-441f-9af6-90b8ed2d2a0e","system_id":"levelo_inurba_marseille","lat":43.30333,"lon":5.40427,"is_reserved":false,"is_disabled":false,"rental_uris":{"android":"levelo://app?vid=21b06e68-a2e0-441f-9af6-90b8ed2d2a0e","ios":"levelo://app?vid=21b06e68-a2e0-441f-9af6-90b8ed2d2a0e"},"vehicle_type_id":"4","last_reported":1747264092,"current_range_meters":15200,"station_id":"ce4bh012rcd13ifvqd10","pricing_plan_id":"cebpf4jnsgd1na2vs0mg"},{"bike_id":"c09536ca-e24d-4293-8dc2-89603f39745d","system_id":"levelo_inurba_marseille","lat":43.30582,"lon":5.39349,"is_reserved":false,"is_disabled":false,"rental_uris":{"android":"levelo://app?vid=c09536ca-e24d-4293-8dc2-89603f39745d","ios":"levelo://app?vid=c09536ca-e24d-4293-8dc2-89603f39745d"},"vehicle_type_id":"4","last_reported":1747264092,"current_range_meters":15200,"station_id":"ce4bh0p2rcd13ifvqd80","pricing_plan_id":"cebpf4jnsgd1na2vs0mg"},{"bike_id":"a138c49f-1b39-4b18-b08e-26428375a631","system_id":"levelo_inurba_marseille","lat":43.284688,"lon":5.358819,"is_reserved":false,"is_disabled":false,"rental_uris":{"android":"levelo://app?vid=a138c49f-1b39-4b18-b08e-26428375a631","ios":"levelo://app?vid=a138c49f-1b39-4b18-b08e-26428375a631"},"vehicle_type_id":"4","last_reported":1747264092,"current_range_meters":15200,"station_id":"ce4bhah2rcd13ifvqei0","pricing_plan_id":"cebpf4jnsgd1na2vs0mg"},{"bike_id":"77a29338-5556-4205-9db9-a624ab9d00e5","system_id":"levelo_inurba_marseille","lat":43.24555,"lon":5.39535,"is_reserved":false,"is_disabled":false,"rental_uris":{"android":"levelo://app?vid=77a29338-5556-4205-9db9-a624ab9d00e5","ios":"levelo://app?vid=77a29338-5556-4205-9db9-a624ab9d00e5"},"vehicle_type_id":"4","last_reported":1747264092,"current_range_meters":15200,"station_id":"ce4bhlp2rcd13ifvqgjg","pricing_plan_id":"cebpf4jnsgd1na2vs0mg"},{"bike_id":"cfae641a-54c0-4b9b-b874-774267c67373","system_id":"levelo_inurba_marseille","lat":43.28969,"lon":5.43197,"is_reserved":false,"is_disabled":false,"rental_uris":{"android":"levelo://app?vid=cfae641a-54c0-4b9b-b874-774267c67373","ios":"levelo://app?vid=cfae641a-54c0-4b9b-b874-774267c67373"},"vehicle_type_id":"4","last_reported":1747264092,"current_range_meters":16000,"station_id":"","pricing_plan_id":"cebpf4jnsgd1na2vs0mg"},{"bike_id":"feb4f947-8c6b-40c7-9498-be1ceb9335f1","system_id":"levelo_inurba_marseille","lat":43.31321,"lon":5.39703,"is_reserved":false,"is_disabled":false,"rental_uris":{"android":"levelo://app?vid=feb4f947-8c6b-40c7-9498-be1ceb9335f1","ios":"levelo://app?vid=feb4f947-8c6b-40c7-9498-be1ceb9335f1"},"vehicle_type_id":"4","last_reported":1747264092,"current_range_meters":16000,"station_id":"ce4bgvp2rcd13ifvqcu0","pricing_plan_id":"cebpf4jnsgd1na2vs0mg"},{"bike_id":"173815be-97dc-4bd5-92df-b9c49c0c2091","system_id":"levelo_inurba_marseille","lat":43.30308,"lon":5.40441,"is_reserved":false,"is_disabled":false,"rental_uris":{"android":"levelo://app?vid=173815be-97dc-4bd5-92df-b9c49c0c2091","ios":"levelo://app?vid=173815be-97dc-4bd5-92df-b9c49c0c2091"},"vehicle_type_id":"4","last_reported":1747264092,"current_range_meters":16000,"station_id":"ce4bh012rcd13ifvqd10","pricing_plan_id":"cebpf4jnsgd1na2vs0mg"},{"bike_id":"ddaa0f99-41ff-4bfc-8fbc-0ab556a43c75","system_id":"levelo_inurba_marseille","lat":43.28462,"lon":5.35888,"is_reserved":false,"is_disabled":false,"rental_uris":{"android":"levelo://app?vid=ddaa0f99-41ff-4bfc-8fbc-0ab556a43c75","ios":"levelo://app?vid=ddaa0f99-41ff-4bfc-8fbc-0ab556a43c75"},"vehicle_type_id":"4","last_reported":1747264092,"current_range_meters":16000,"station_id":"ce4bhah2rcd13ifvqei0","pricing_plan_id":"cebpf4jnsgd1na2vs0mg"},{"bike_id":"ae6008b3-f628-49fa-a359-b9d43cb68be8","system_id":"levelo_inurba_marseille","lat":43.27425,"lon":5.39421,"is_reserved":false,"is_disabled":false,"rental_uris":{"android":"levelo://app?vid=ae6008b3-f628-49fa-a359-b9d43cb68be8","ios":"levelo://app?vid=ae6008b3-f628-49fa-a359-b9d43cb68be8"},"vehicle_type_id":"4","last_reported":1747264092,"current_range_meters":16000,"station_id":"ce4bhdp2rcd13ifvqf20","pricing_plan_id":"cebpf4jnsgd1na2vs0mg"},{"bike_id":"94425245-09df-4108-9a30-610dbcaf2585","system_id":"levelo_inurba_marseille","lat":43.31717,"lon":5.42421,"is_reserved":false,"is_disabled":false,"rental_uris":{"android":"levelo://app?vid=94425245-09df-4108-9a30-610dbcaf2585","ios":"levelo://app?vid=94425245-09df-4108-9a30-610dbcaf2585"},"vehicle_type_id":"4","last_reported":1747264092,"current_range_meters":16000,"station_id":"ce4bhp92rcd13ifvqhbg","pricing_plan_id":"cebpf4jnsgd1na2vs0mg"},{"bike_id":"21f5a1a4-43c5-4049-8a8d-3146c5c35157","system_id":"levelo_inurba_marseille","lat":43.229365,"lon":5.353792,"is_reserved":false,"is_disabled":false,"rental_uris":{"android":"levelo://app?vid=21f5a1a4-43c5-4049-8a8d-3146c5c35157","ios":"levelo://app?vid=21f5a1a4-43c5-4049-8a8d-3146c5c35157"},"vehicle_type_id":"4","last_reported":1747264092,"current_range_meters":16000,"station_id":"cpo3532slgdg3j2ikp40","pricing_plan_id":"cebpf4jnsgd1na2vs0mg"},{"bike_id":"d74dda0c-2ae8-4a20-aee3-80ba3b692d64","system_id":"levelo_inurba_marseille","lat":43.304717,"lon":5.371771,"is_reserved":false,"is_disabled":false,"rental_uris":{"android":"levelo://app?vid=d74dda0c-2ae8-4a20-aee3-80ba3b692d64","ios":"levelo://app?vid=d74dda0c-2ae8-4a20-aee3-80ba3b692d64"},"vehicle_type_id":"4","last_reported":1747264092,"current_range_meters":16400,"station_id":"","pricing_plan_id":"cebpf4jnsgd1na2vs0mg"},{"bike_id":"c260378e-f038-46ef-acd7-d955ba324b73","system_id":"levelo_inurba_marseille","lat":43.25009,"lon":5.37902,"is_reserved":false,"is_disabled":false,"rental_uris":{"android":"levelo://app?vid=c260378e-f038-46ef-acd7-d955ba324b73","ios":"levelo://app?vid=c260378e-f038-46ef-acd7-d955ba324b73"},"vehicle_type_id":"4","last_reported":1747264092,"current_range_meters":16400,"station_id":"","pricing_plan_id":"cebpf4jnsgd1na2vs0mg"},{"bike_id":"4ca5c04b-83fc-47f0-ba12-ec385416b528","system_id":"levelo_inurba_marseille","lat":43.314268,"lon":5.369703,"is_reserved":false,"is_disabled":false,"rental_uris":{"android":"levelo://app?vid=4ca5c04b-83fc-47f0-ba12-ec385416b528","ios":"levelo://app?vid=4ca5c04b-83fc-47f0-ba12-ec385416b528"},"vehicle_type_id":"4","last_reported":1747264092,"current_range_meters":16400,"station_id":"","pricing_plan_id":"cebpf4jnsgd1na2vs0mg"},{"bike_id":"d7369284-bfc2-4af7-9a95-c50b2030cf6e","system_id":"levelo_inurba_marseille","lat":43.30588,"lon":5.37198,"is_reserved":false,"is_disabled":false,"rental_uris":{"android":"levelo://app?vid=d7369284-bfc2-4af7-9a95-c50b2030cf6e","ios":"levelo://app?vid=d7369284-bfc2-4af7-9a95-c50b2030cf6e"},"vehicle_type_id":"4","last_reported":1747264092,"current_range_meters":16400,"station_id":"ce4bgqh2rcd13ifvqc4g","pricing_plan_id":"cebpf4jnsgd1na2vs0mg"},{"bike_id":"dce53c62-7fc5-4c6c-988a-1116d70b6e43","system_id":"levelo_inurba_marseille","lat":43.30932,"lon":5.40139,"is_reserved":false,"is_disabled":false,"rental_uris":{"android":"levelo://app?vid=dce53c62-7fc5-4c6c-988a-1116d70b6e43","ios":"levelo://app?vid=dce53c62-7fc5-4c6c-988a-1116d70b6e43"},"vehicle_type_id":"4","last_reported":1747264092,"current_range_meters":16400,"station_id":"ce4bgvp2rcd13ifvqct0","pricing_plan_id":"cebpf4jnsgd1na2vs0mg"},{"bike_id":"85229f75-99f9-447a-a3ed-86236028f5a5","system_id":"levelo_inurba_marseille","lat":43.25106,"lon":5.40338,"is_reserved":false,"is_disabled":false,"rental_uris":{"android":"levelo://app?vid=85229f75-99f9-447a-a3ed-86236028f5a5","ios":"levelo://app?vid=85229f75-99f9-447a-a3ed-86236028f5a5"},"vehicle_type_id":"4","last_reported":1747264092,"current_range_meters":16400,"station_id":"ce4bhlh2rcd13ifvqgig","pricing_plan_id":"cebpf4jnsgd1na2vs0mg"},{"bike_id":"88bbba9e-7184-4058-8824-c96a1cc5be7e","system_id":"levelo_inurba_marseille","lat":43.2622,"lon":5.40474,"is_reserved":false,"is_disabled":false,"rental_uris":{"android":"levelo://app?vid=88bbba9e-7184-4058-8824-c96a1cc5be7e","ios":"levelo://app?vid=88bbba9e-7184-4058-8824-c96a1cc5be7e"},"vehicle_type_id":"4","last_reported":1747264092,"current_range_meters":16800,"station_id":"ce4bhmh2rcd13ifvqgmg","pricing_plan_id":"cebpf4jnsgd1na2vs0mg"},{"bike_id":"f5d635aa-40a8-4516-9089-f4be7c5861ab","system_id":"levelo_inurba_marseille","lat":43.323376,"lon":5.406174,"is_reserved":false,"is_disabled":false,"rental_uris":{"android":"levelo://app?vid=f5d635aa-40a8-4516-9089-f4be7c5861ab","ios":"levelo://app?vid=f5d635aa-40a8-4516-9089-f4be7c5861ab"},"vehicle_type_id":"4","last_reported":1747264092,"current_range_meters":16800,"station_id":"ce4bhq92rcd13ifvqhjg","pricing_plan_id":"cebpf4jnsgd1na2vs0mg"},{"bike_id":"0a5e6cc4-0328-4fd7-9db5-c5029f1cf2d9","system_id":"levelo_inurba_marseille","lat":43.32373,"lon":5.38882,"is_reserved":false,"is_disabled":false,"rental_uris":{"android":"levelo://app?vid=0a5e6cc4-0328-4fd7-9db5-c5029f1cf2d9","ios":"levelo://app?vid=0a5e6cc4-0328-4fd7-9db5-c5029f1cf2d9"},"vehicle_type_id":"4","last_reported":1747264092,"current_range_meters":16800,"station_id":"ce4bhqp2rcd13ifvqhog","pricing_plan_id":"cebpf4jnsgd1na2vs0mg"},{"bike_id":"5e3c6034-2fd9-4e27-9eef-8008aefd3776","system_id":"levelo_inurba_marseille","lat":43.27419,"lon":5.39405,"is_reserved":false,"is_disabled":false,"rental_uris":{"android":"levelo://app?vid=5e3c6034-2fd9-4e27-9eef-8008aefd3776","ios":"levelo://app?vid=5e3c6034-2fd9-4e27-9eef-8008aefd3776"},"vehicle_type_id":"4","last_reported":1747264092,"current_range_meters":17200,"station_id":"ce4bhdp2rcd13ifvqf20","pricing_plan_id":"cebpf4jnsgd1na2vs0mg"},{"bike_id":"60af0a7f-4cfd-4f77-8f2f-31f09c58ccf0","system_id":"levelo_inurba_marseille","lat":43.217698,"lon":5.346071,"is_reserved":false,"is_disabled":true,"rental_uris":{"android":"levelo://app?vid=60af0a7f-4cfd-4f77-8f2f-31f09c58ccf0","ios":"levelo://app?vid=60af0a7f-4cfd-4f77-8f2f-31f09c58ccf0"},"vehicle_type_id":"4","last_reported":1747264092,"current_range_meters":17200,"station_id":"st_cvj6r9ubvosntc0bgbag","pricing_plan_id":"cebpf4jnsgd1na2vs0mg"},{"bike_id":"c682a571-1b8e-42c7-82ff-72c8d128bd01","system_id":"levelo_inurba_marseille","lat":43.29904,"lon":5.38303,"is_reserved":false,"is_disabled":false,"rental_uris":{"android":"levelo://app?vid=c682a571-1b8e-42c7-82ff-72c8d128bd01","ios":"levelo://app?vid=c682a571-1b8e-42c7-82ff-72c8d128bd01"},"vehicle_type_id":"4","last_reported":1747264092,"current_range_meters":17600,"station_id":"","pricing_plan_id":"cebpf4jnsgd1na2vs0mg"},{"bike_id":"1def4d9e-ba54-4554-8279-72b57c0de750","system_id":"levelo_inurba_marseille","lat":43.337444,"lon":5.374475,"is_reserved":false,"is_disabled":false,"rental_uris":{"android":"levelo://app?vid=1def4d9e-ba54-4554-8279-72b57c0de750","ios":"levelo://app?vid=1def4d9e-ba54-4554-8279-72b57c0de750"},"vehicle_type_id":"4","last_reported":1747264092,"current_range_meters":17600,"station_id":"","pricing_plan_id":"cebpf4jnsgd1na2vs0mg"},{"bike_id":"b064664a-37e6-4027-8d08-cb54eda1e955","system_id":"levelo_inurba_marseille","lat":43.32667,"lon":5.42964,"is_reserved":false,"is_disabled":false,"rental_uris":{"android":"levelo://app?vid=b064664a-37e6-4027-8d08-cb54eda1e955","ios":"levelo://app?vid=b064664a-37e6-4027-8d08-cb54eda1e955"},"vehicle_type_id":"4","last_reported":1747264092,"current_range_meters":17600,"station_id":"","pricing_plan_id":"cebpf4jnsgd1na2vs0mg"},{"bike_id":"4e0c77bc-c9c5-4641-b896-ed7c27ff8f97","system_id":"levelo_inurba_marseille","lat":43.29874,"lon":5.39738,"is_reserved":false,"is_disabled":false,"rental_uris":{"android":"levelo://app?vid=4e0c77bc-c9c5-4641-b896-ed7c27ff8f97","ios":"levelo://app?vid=4e0c77bc-c9c5-4641-b896-ed7c27ff8f97"},"vehicle_type_id":"4","last_reported":1747264092,"current_range_meters":17600,"station_id":"ce4bh0h2rcd13ifvqd50","pricing_plan_id":"cebpf4jnsgd1na2vs0mg"},{"bike_id":"ee613623-31e1-44c0-961e-7df0445326d3","system_id":"levelo_inurba_marseille","lat":43.28464,"lon":5.35871,"is_reserved":false,"is_disabled":false,"rental_uris":{"android":"levelo://app?vid=ee613623-31e1-44c0-961e-7df0445326d3","ios":"levelo://app?vid=ee613623-31e1-44c0-961e-7df0445326d3"},"vehicle_type_id":"4","last_reported":1747264092,"current_range_meters":17600,"station_id":"ce4bhah2rcd13ifvqei0","pricing_plan_id":"cebpf4jnsgd1na2vs0mg"},{"bike_id":"ad60039a-2887-4b9e-b9d4-922130a2cb14","system_id":"levelo_inurba_marseille","lat":43.329437,"lon":5.364061,"is_reserved":false,"is_disabled":false,"rental_uris":{"android":"levelo://app?vid=ad60039a-2887-4b9e-b9d4-922130a2cb14","ios":"levelo://app?vid=ad60039a-2887-4b9e-b9d4-922130a2cb14"},"vehicle_type_id":"4","last_reported":1747264092,"current_range_meters":18000,"station_id":"","pricing_plan_id":"cebpf4jnsgd1na2vs0mg"},{"bike_id":"d7050558-65ac-4a68-a76c-6a37942a4b17","system_id":"levelo_inurba_marseille","lat":43.304309,"lon":5.388935,"is_reserved":false,"is_disabled":false,"rental_uris":{"android":"levelo://app?vid=d7050558-65ac-4a68-a76c-6a37942a4b17","ios":"levelo://app?vid=d7050558-65ac-4a68-a76c-6a37942a4b17"},"vehicle_type_id":"4","last_reported":1747264092,"current_range_meters":18000,"station_id":"ce4bgk12rcd13ifvqbi0","pricing_plan_id":"cebpf4jnsgd1na2vs0mg"},{"bike_id":"859aa2cf-7050-4342-a29f-4b9ea705567f","system_id":"levelo_inurba_marseille","lat":43.31487,"lon":5.37307,"is_reserved":false,"is_disabled":false,"rental_uris":{"android":"levelo://app?vid=859aa2cf-7050-4342-a29f-4b9ea705567f","ios":"levelo://app?vid=859aa2cf-7050-4342-a29f-4b9ea705567f"},"vehicle_type_id":"4","last_reported":1747264092,"current_range_meters":18000,"station_id":"ce4bgt12rcd13ifvqcd0","pricing_plan_id":"cebpf4jnsgd1na2vs0mg"},{"bike_id":"2ffe5166-7f17-4dbe-8222-2f1bc1b3cab5","system_id":"levelo_inurba_marseille","lat":43.30324,"lon":5.40441,"is_reserved":false,"is_disabled":false,"rental_uris":{"android":"levelo://app?vid=2ffe5166-7f17-4dbe-8222-2f1bc1b3cab5","ios":"levelo://app?vid=2ffe5166-7f17-4dbe-8222-2f1bc1b3cab5"},"vehicle_type_id":"4","last_reported":1747264092,"current_range_meters":18000,"station_id":"ce4bh012rcd13ifvqd10","pricing_plan_id":"cebpf4jnsgd1na2vs0mg"},{"bike_id":"7599eaca-63b8-407c-95df-0108cc7a1242","system_id":"levelo_inurba_marseille","lat":43.284672,"lon":5.358888,"is_reserved":false,"is_disabled":false,"rental_uris":{"android":"levelo://app?vid=7599eaca-63b8-407c-95df-0108cc7a1242","ios":"levelo://app?vid=7599eaca-63b8-407c-95df-0108cc7a1242"},"vehicle_type_id":"4","last_reported":1747264092,"current_range_meters":18000,"station_id":"ce4bhah2rcd13ifvqei0","pricing_plan_id":"cebpf4jnsgd1na2vs0mg"},{"bike_id":"d4abc0f4-75e6-4c24-ab00-0660a88a0c8c","system_id":"levelo_inurba_marseille","lat":43.2512,"lon":5.40314,"is_reserved":false,"is_disabled":false,"rental_uris":{"android":"levelo://app?vid=d4abc0f4-75e6-4c24-ab00-0660a88a0c8c","ios":"levelo://app?vid=d4abc0f4-75e6-4c24-ab00-0660a88a0c8c"},"vehicle_type_id":"4","last_reported":1747264092,"current_range_meters":18000,"station_id":"ce4bhlh2rcd13ifvqgig","pricing_plan_id":"cebpf4jnsgd1na2vs0mg"},{"bike_id":"a0691b52-304f-4302-a908-6d2310817039","system_id":"levelo_inurba_marseille","lat":43.2315,"lon":5.43721,"is_reserved":false,"is_disabled":false,"rental_uris":{"android":"levelo://app?vid=a0691b52-304f-4302-a908-6d2310817039","ios":"levelo://app?vid=a0691b52-304f-4302-a908-6d2310817039"},"vehicle_type_id":"4","last_reported":1747264092,"current_range_meters":18000,"station_id":"ce4bhmp2rcd13ifvqgog","pricing_plan_id":"cebpf4jnsgd1na2vs0mg"},{"bike_id":"a97e7f2f-a4bd-43dc-a4a3-f47c4b150cbd","system_id":"levelo_inurba_marseille","lat":43.24171,"lon":5.3972,"is_reserved":false,"is_disabled":false,"rental_uris":{"android":"levelo://app?vid=a97e7f2f-a4bd-43dc-a4a3-f47c4b150cbd","ios":"levelo://app?vid=a97e7f2f-a4bd-43dc-a4a3-f47c4b150cbd"},"vehicle_type_id":"4","last_reported":1747264092,"current_range_meters":18000,"station_id":"ce4bhn12rcd13ifvqgpg","pricing_plan_id":"cebpf4jnsgd1na2vs0mg"},{"bike_id":"5b4d94d5-d1fb-4594-8ced-01262346e7e4","system_id":"levelo_inurba_marseille","lat":43.286204,"lon":5.370557,"is_reserved":false,"is_disabled":false,"rental_uris":{"android":"levelo://app?vid=5b4d94d5-d1fb-4594-8ced-01262346e7e4","ios":"levelo://app?vid=5b4d94d5-d1fb-4594-8ced-01262346e7e4"},"vehicle_type_id":"4","last_reported":1747264092,"current_range_meters":18000,"station_id":"ce4bht12rcd13ifvqi60","pricing_plan_id":"cebpf4jnsgd1na2vs0mg"},{"bike_id":"9a402898-f116-408b-8709-c62dd77d2b5d","system_id":"levelo_inurba_marseille","lat":43.29343,"lon":5.42823,"is_reserved":false,"is_disabled":false,"rental_uris":{"android":"levelo://app?vid=9a402898-f116-408b-8709-c62dd77d2b5d","ios":"levelo://app?vid=9a402898-f116-408b-8709-c62dd77d2b5d"},"vehicle_type_id":"4","last_reported":1747264092,"current_range_meters":18800,"station_id":"","pricing_plan_id":"cebpf4jnsgd1na2vs0mg"},{"bike_id":"84904e41-efc3-4415-8eeb-991ab4c4f68f","system_id":"levelo_inurba_marseille","lat":43.28707,"lon":5.37381,"is_reserved":false,"is_disabled":false,"rental_uris":{"android":"levelo://app?vid=84904e41-efc3-4415-8eeb-991ab4c4f68f","ios":"levelo://app?vid=84904e41-efc3-4415-8eeb-991ab4c4f68f"},"vehicle_type_id":"4","last_reported":1747264092,"current_range_meters":18800,"station_id":"ce4bh3p2rcd13ifvqdq0","pricing_plan_id":"cebpf4jnsgd1na2vs0mg"},{"bike_id":"cd98fc6a-9f44-4b1e-bb60-10927c342068","system_id":"levelo_inurba_marseille","lat":43.26549,"lon":5.37292,"is_reserved":false,"is_disabled":false,"rental_uris":{"android":"levelo://app?vid=cd98fc6a-9f44-4b1e-bb60-10927c342068","ios":"levelo://app?vid=cd98fc6a-9f44-4b1e-bb60-10927c342068"},"vehicle_type_id":"4","last_reported":1747264092,"current_range_meters":18800,"station_id":"ce4bhg12rcd13ifvqf70","pricing_plan_id":"cebpf4jnsgd1na2vs0mg"},{"bike_id":"c57708e3-e9ea-4734-93c2-58d9bbecdc90","system_id":"levelo_inurba_marseille","lat":43.31535,"lon":5.38033,"is_reserved":false,"is_disabled":false,"rental_uris":{"android":"levelo://app?vid=c57708e3-e9ea-4734-93c2-58d9bbecdc90","ios":"levelo://app?vid=c57708e3-e9ea-4734-93c2-58d9bbecdc90"},"vehicle_type_id":"4","last_reported":1747264092,"current_range_meters":18800,"station_id":"ce4bhsp2rcd13ifvqi50","pricing_plan_id":"cebpf4jnsgd1na2vs0mg"},{"bike_id":"cec32bab-5894-4ac2-97eb-b76126dea5dd","system_id":"levelo_inurba_marseille","lat":43.32336,"lon":5.382934,"is_reserved":false,"is_disabled":false,"rental_uris":{"android":"levelo://app?vid=cec32bab-5894-4ac2-97eb-b76126dea5dd","ios":"levelo://app?vid=cec32bab-5894-4ac2-97eb-b76126dea5dd"},"vehicle_type_id":"4","last_reported":1747264092,"current_range_meters":19200,"station_id":"","pricing_plan_id":"cebpf4jnsgd1na2vs0mg"},{"bike_id":"8321ca4b-d044-4ce8-9848-2a740562d0ea","system_id":"levelo_inurba_marseille","lat":43.30793,"lon":5.38165,"is_reserved":false,"is_disabled":false,"rental_uris":{"android":"levelo://app?vid=8321ca4b-d044-4ce8-9848-2a740562d0ea","ios":"levelo://app?vid=8321ca4b-d044-4ce8-9848-2a740562d0ea"},"vehicle_type_id":"4","last_reported":1747264092,"current_range_meters":19200,"station_id":"ce4bgt12rcd13ifvqce0","pricing_plan_id":"cebpf4jnsgd1na2vs0mg"},{"bike_id":"bfd7292f-0dc3-4d16-8393-ce7be3db558b","system_id":"levelo_inurba_marseille","lat":43.30931,"lon":5.40154,"is_reserved":false,"is_disabled":false,"rental_uris":{"android":"levelo://app?vid=bfd7292f-0dc3-4d16-8393-ce7be3db558b","ios":"levelo://app?vid=bfd7292f-0dc3-4d16-8393-ce7be3db558b"},"vehicle_type_id":"4","last_reported":1747264092,"current_range_meters":19200,"station_id":"ce4bgvp2rcd13ifvqct0","pricing_plan_id":"cebpf4jnsgd1na2vs0mg"},{"bike_id":"f31e0c7d-730a-4cc4-9836-3184dcf3f521","system_id":"levelo_inurba_marseille","lat":43.30324,"lon":5.40439,"is_reserved":false,"is_disabled":false,"rental_uris":{"android":"levelo://app?vid=f31e0c7d-730a-4cc4-9836-3184dcf3f521","ios":"levelo://app?vid=f31e0c7d-730a-4cc4-9836-3184dcf3f521"},"vehicle_type_id":"4","last_reported":1747264092,"current_range_meters":19200,"station_id":"ce4bh012rcd13ifvqd10","pricing_plan_id":"cebpf4jnsgd1na2vs0mg"},{"bike_id":"08c3bbb6-0b0b-4686-a311-8a89b6fbd5c9","system_id":"levelo_inurba_marseille","lat":43.32343,"lon":5.40632,"is_reserved":false,"is_disabled":false,"rental_uris":{"android":"levelo://app?vid=08c3bbb6-0b0b-4686-a311-8a89b6fbd5c9","ios":"levelo://app?vid=08c3bbb6-0b0b-4686-a311-8a89b6fbd5c9"},"vehicle_type_id":"4","last_reported":1747264092,"current_range_meters":19200,"station_id":"ce4bhq92rcd13ifvqhjg","pricing_plan_id":"cebpf4jnsgd1na2vs0mg"},{"bike_id":"e3d0ab29-9117-4c6b-9df8-b2b39209f1bb","system_id":"levelo_inurba_marseille","lat":43.32107,"lon":5.36768,"is_reserved":false,"is_disabled":false,"rental_uris":{"android":"levelo://app?vid=e3d0ab29-9117-4c6b-9df8-b2b39209f1bb","ios":"levelo://app?vid=e3d0ab29-9117-4c6b-9df8-b2b39209f1bb"},"vehicle_type_id":"4","last_reported":1747264092,"current_range_meters":19200,"station_id":"ce4bhrh2rcd13ifvqhug","pricing_plan_id":"cebpf4jnsgd1na2vs0mg"},{"bike_id":"385c5680-aa17-4953-8596-7f0cb64e8bcd","system_id":"levelo_inurba_marseille","lat":43.324784,"lon":5.365654,"is_reserved":false,"is_disabled":false,"rental_uris":{"android":"levelo://app?vid=385c5680-aa17-4953-8596-7f0cb64e8bcd","ios":"levelo://app?vid=385c5680-aa17-4953-8596-7f0cb64e8bcd"},"vehicle_type_id":"4","last_reported":1747264092,"current_range_meters":19200,"station_id":"ce4bhs12rcd13ifvqhvg","pricing_plan_id":"cebpf4jnsgd1na2vs0mg"},{"bike_id":"8b44f886-59c7-4896-a2ca-0dea931a883f","system_id":"levelo_inurba_marseille","lat":43.211897,"lon":5.35073,"is_reserved":false,"is_disabled":false,"rental_uris":{"android":"levelo://app?vid=8b44f886-59c7-4896-a2ca-0dea931a883f","ios":"levelo://app?vid=8b44f886-59c7-4896-a2ca-0dea931a883f"},"vehicle_type_id":"4","last_reported":1747264092,"current_range_meters":19200,"station_id":"st_cvj6sg6p6f1abm77japg","pricing_plan_id":"cebpf4jnsgd1na2vs0mg"},{"bike_id":"923c8157-76eb-4de1-8e7b-3c3522b64237","system_id":"levelo_inurba_marseille","lat":43.30607,"lon":5.372183,"is_reserved":false,"is_disabled":false,"rental_uris":{"android":"levelo://app?vid=923c8157-76eb-4de1-8e7b-3c3522b64237","ios":"levelo://app?vid=923c8157-76eb-4de1-8e7b-3c3522b64237"},"vehicle_type_id":"4","last_reported":1747264092,"current_range_meters":19600,"station_id":"ce4bgqh2rcd13ifvqc4g","pricing_plan_id":"cebpf4jnsgd1na2vs0mg"},{"bike_id":"a6002c7f-3b00-4265-bf42-2020668e804b","system_id":"levelo_inurba_marseille","lat":43.309368,"lon":5.401473,"is_reserved":false,"is_disabled":false,"rental_uris":{"android":"levelo://app?vid=a6002c7f-3b00-4265-bf42-2020668e804b","ios":"levelo://app?vid=a6002c7f-3b00-4265-bf42-2020668e804b"},"vehicle_type_id":"4","last_reported":1747264092,"current_range_meters":19600,"station_id":"ce4bgvp2rcd13ifvqct0","pricing_plan_id":"cebpf4jnsgd1na2vs0mg"},{"bike_id":"9fb1895a-1f16-4d91-ab5f-69d036530215","system_id":"levelo_inurba_marseille","lat":43.28347,"lon":5.38107,"is_reserved":false,"is_disabled":false,"rental_uris":{"android":"levelo://app?vid=9fb1895a-1f16-4d91-ab5f-69d036530215","ios":"levelo://app?vid=9fb1895a-1f16-4d91-ab5f-69d036530215"},"vehicle_type_id":"4","last_reported":1747264092,"current_range_meters":19600,"station_id":"ce4bh412rcd13ifvqdr0","pricing_plan_id":"cebpf4jnsgd1na2vs0mg"},{"bike_id":"56d3515b-c3a0-4e93-b1f9-c90ea7a3ac3f","system_id":"levelo_inurba_marseille","lat":43.28417,"lon":5.37555,"is_reserved":false,"is_disabled":false,"rental_uris":{"android":"levelo://app?vid=56d3515b-c3a0-4e93-b1f9-c90ea7a3ac3f","ios":"levelo://app?vid=56d3515b-c3a0-4e93-b1f9-c90ea7a3ac3f"},"vehicle_type_id":"4","last_reported":1747264092,"current_range_meters":19600,"station_id":"ce4bh412rcd13ifvqds0","pricing_plan_id":"cebpf4jnsgd1na2vs0mg"},{"bike_id":"2b61dc8d-5487-4230-96ff-c81062d776db","system_id":"levelo_inurba_marseille","lat":43.258293,"lon":5.394307,"is_reserved":false,"is_disabled":false,"rental_uris":{"android":"levelo://app?vid=2b61dc8d-5487-4230-96ff-c81062d776db","ios":"levelo://app?vid=2b61dc8d-5487-4230-96ff-c81062d776db"},"vehicle_type_id":"4","last_reported":1747264092,"current_range_meters":19600,"station_id":"ce4bhip2rcd13ifvqft0","pricing_plan_id":"cebpf4jnsgd1na2vs0mg"},{"bike_id":"b8505fd1-8131-40e9-a33d-145916457441","system_id":"levelo_inurba_marseille","lat":43.303758,"lon":5.424895,"is_reserved":false,"is_disabled":false,"rental_uris":{"android":"levelo://app?vid=b8505fd1-8131-40e9-a33d-145916457441","ios":"levelo://app?vid=b8505fd1-8131-40e9-a33d-145916457441"},"vehicle_type_id":"4","last_reported":1747264092,"current_range_meters":19600,"station_id":"ce4bhoh2rcd13ifvqh6g","pricing_plan_id":"cebpf4jnsgd1na2vs0mg"},{"bike_id":"43fbd11b-0562-46b0-bc29-cf8af9467a62","system_id":"levelo_inurba_marseille","lat":43.283728,"lon":5.38636,"is_reserved":false,"is_disabled":false,"rental_uris":{"android":"levelo://app?vid=43fbd11b-0562-46b0-bc29-cf8af9467a62","ios":"levelo://app?vid=43fbd11b-0562-46b0-bc29-cf8af9467a62"},"vehicle_type_id":"4","last_reported":1747264092,"current_range_meters":20000,"station_id":"ce4bh492rcd13ifvqdvg","pricing_plan_id":"cebpf4jnsgd1na2vs0mg"},{"bike_id":"46db9b0d-60ed-4fb3-bb3b-303fa89221b6","system_id":"levelo_inurba_marseille","lat":43.28101,"lon":5.37835,"is_reserved":false,"is_disabled":false,"rental_uris":{"android":"levelo://app?vid=46db9b0d-60ed-4fb3-bb3b-303fa89221b6","ios":"levelo://app?vid=46db9b0d-60ed-4fb3-bb3b-303fa89221b6"},"vehicle_type_id":"4","last_reported":1747264092,"current_range_meters":20000,"station_id":"ce4bha12rcd13ifvqee0","pricing_plan_id":"cebpf4jnsgd1na2vs0mg"},{"bike_id":"61c35223-1233-4719-ae43-c4f9978951b5","system_id":"levelo_inurba_marseille","lat":43.26067,"lon":5.394009,"is_reserved":false,"is_disabled":false,"rental_uris":{"android":"levelo://app?vid=61c35223-1233-4719-ae43-c4f9978951b5","ios":"levelo://app?vid=61c35223-1233-4719-ae43-c4f9978951b5"},"vehicle_type_id":"4","last_reported":1747264092,"current_range_meters":20000,"station_id":"ce4bhh92rcd13ifvqfj0","pricing_plan_id":"cebpf4jnsgd1na2vs0mg"},{"bike_id":"8b6fd76f-4b71-4112-93cd-e2713968c74a","system_id":"levelo_inurba_marseille","lat":43.23151,"lon":5.43708,"is_reserved":false,"is_disabled":false,"rental_uris":{"android":"levelo://app?vid=8b6fd76f-4b71-4112-93cd-e2713968c74a","ios":"levelo://app?vid=8b6fd76f-4b71-4112-93cd-e2713968c74a"},"vehicle_type_id":"4","last_reported":1747264092,"current_range_meters":20000,"station_id":"ce4bhmp2rcd13ifvqgog","pricing_plan_id":"cebpf4jnsgd1na2vs0mg"},{"bike_id":"e66ac413-d049-4b49-a3e9-07d57544d56e","system_id":"levelo_inurba_marseille","lat":43.27487,"lon":5.42457,"is_reserved":false,"is_disabled":false,"rental_uris":{"android":"levelo://app?vid=e66ac413-d049-4b49-a3e9-07d57544d56e","ios":"levelo://app?vid=e66ac413-d049-4b49-a3e9-07d57544d56e"},"vehicle_type_id":"4","last_reported":1747264092,"current_range_meters":20000,"station_id":"ce4bhn92rcd13ifvqgrg","pricing_plan_id":"cebpf4jnsgd1na2vs0mg"},{"bike_id":"0ce6466f-872c-4f1a-a0f8-e41aa916edbb","system_id":"levelo_inurba_marseille","lat":43.31722,"lon":5.42399,"is_reserved":false,"is_disabled":false,"rental_uris":{"android":"levelo://app?vid=0ce6466f-872c-4f1a-a0f8-e41aa916edbb","ios":"levelo://app?vid=0ce6466f-872c-4f1a-a0f8-e41aa916edbb"},"vehicle_type_id":"4","last_reported":1747264092,"current_range_meters":20000,"station_id":"ce4bhp92rcd13ifvqhbg","pricing_plan_id":"cebpf4jnsgd1na2vs0mg"},{"bike_id":"05647ffd-ffa9-4a9c-92e9-9a49dc821811","system_id":"levelo_inurba_marseille","lat":43.32357,"lon":5.36758,"is_reserved":false,"is_disabled":false,"rental_uris":{"android":"levelo://app?vid=05647ffd-ffa9-4a9c-92e9-9a49dc821811","ios":"levelo://app?vid=05647ffd-ffa9-4a9c-92e9-9a49dc821811"},"vehicle_type_id":"4","last_reported":1747264092,"current_range_meters":20000,"station_id":"ce4bhsh2rcd13ifvqi2g","pricing_plan_id":"cebpf4jnsgd1na2vs0mg"},{"bike_id":"d68e2195-4a46-4330-8fb5-099a7e5fcbec","system_id":"levelo_inurba_marseille","lat":43.30814,"lon":5.38151,"is_reserved":false,"is_disabled":false,"rental_uris":{"android":"levelo://app?vid=d68e2195-4a46-4330-8fb5-099a7e5fcbec","ios":"levelo://app?vid=d68e2195-4a46-4330-8fb5-099a7e5fcbec"},"vehicle_type_id":"4","last_reported":1747264092,"current_range_meters":20400,"station_id":"ce4bgt12rcd13ifvqce0","pricing_plan_id":"cebpf4jnsgd1na2vs0mg"},{"bike_id":"1ca5e61f-d948-4f2a-9be9-774b95d0b013","system_id":"levelo_inurba_marseille","lat":43.30926,"lon":5.401515,"is_reserved":false,"is_disabled":false,"rental_uris":{"android":"levelo://app?vid=1ca5e61f-d948-4f2a-9be9-774b95d0b013","ios":"levelo://app?vid=1ca5e61f-d948-4f2a-9be9-774b95d0b013"},"vehicle_type_id":"4","last_reported":1747264092,"current_range_meters":20400,"station_id":"ce4bgvp2rcd13ifvqct0","pricing_plan_id":"cebpf4jnsgd1na2vs0mg"},{"bike_id":"c9006908-b48d-4dec-8629-cb504d23e290","system_id":"levelo_inurba_marseille","lat":43.3093,"lon":5.40156,"is_reserved":false,"is_disabled":false,"rental_uris":{"android":"levelo://app?vid=c9006908-b48d-4dec-8629-cb504d23e290","ios":"levelo://app?vid=c9006908-b48d-4dec-8629-cb504d23e290"},"vehicle_type_id":"4","last_reported":1747264092,"current_range_meters":20400,"station_id":"ce4bgvp2rcd13ifvqct0","pricing_plan_id":"cebpf4jnsgd1na2vs0mg"},{"bike_id":"52e4a34f-b668-43d8-bae6-3bbd6e8ba265","system_id":"levelo_inurba_marseille","lat":43.28471,"lon":5.38402,"is_reserved":false,"is_disabled":false,"rental_uris":{"android":"levelo://app?vid=52e4a34f-b668-43d8-bae6-3bbd6e8ba265","ios":"levelo://app?vid=52e4a34f-b668-43d8-bae6-3bbd6e8ba265"},"vehicle_type_id":"4","last_reported":1747264092,"current_range_meters":20400,"station_id":"ce4bh512rcd13ifvqe3g","pricing_plan_id":"cebpf4jnsgd1na2vs0mg"},{"bike_id":"faac790c-285b-4e73-ad07-d3dc84f9c931","system_id":"levelo_inurba_marseille","lat":43.296265,"lon":5.390036,"is_reserved":false,"is_disabled":false,"rental_uris":{"android":"levelo://app?vid=faac790c-285b-4e73-ad07-d3dc84f9c931","ios":"levelo://app?vid=faac790c-285b-4e73-ad07-d3dc84f9c931"},"vehicle_type_id":"4","last_reported":1747264092,"current_range_meters":20400,"station_id":"ce4bhbp2rcd13ifvqerg","pricing_plan_id":"cebpf4jnsgd1na2vs0mg"},{"bike_id":"7bd521b5-756d-405c-9438-d2db26f23023","system_id":"levelo_inurba_marseille","lat":43.2512,"lon":5.40296,"is_reserved":false,"is_disabled":false,"rental_uris":{"android":"levelo://app?vid=7bd521b5-756d-405c-9438-d2db26f23023","ios":"levelo://app?vid=7bd521b5-756d-405c-9438-d2db26f23023"},"vehicle_type_id":"4","last_reported":1747264092,"current_range_meters":20400,"station_id":"ce4bhlh2rcd13ifvqgig","pricing_plan_id":"cebpf4jnsgd1na2vs0mg"},{"bike_id":"8e78eb10-c998-4a1c-a6b3-5a4ec5b0aeb3","system_id":"levelo_inurba_marseille","lat":43.23151,"lon":5.43719,"is_reserved":false,"is_disabled":false,"rental_uris":{"android":"levelo://app?vid=8e78eb10-c998-4a1c-a6b3-5a4ec5b0aeb3","ios":"levelo://app?vid=8e78eb10-c998-4a1c-a6b3-5a4ec5b0aeb3"},"vehicle_type_id":"4","last_reported":1747264092,"current_range_meters":20400,"station_id":"ce4bhmp2rcd13ifvqgog","pricing_plan_id":"cebpf4jnsgd1na2vs0mg"},{"bike_id":"840dcd41-1169-4d2f-a926-23eb8f7dd13f","system_id":"levelo_inurba_marseille","lat":43.284387,"lon":5.391897,"is_reserved":false,"is_disabled":false,"rental_uris":{"android":"levelo://app?vid=840dcd41-1169-4d2f-a926-23eb8f7dd13f","ios":"levelo://app?vid=840dcd41-1169-4d2f-a926-23eb8f7dd13f"},"vehicle_type_id":"4","last_reported":1747264092,"current_range_meters":20400,"station_id":"ce4bhoh2rcd13ifvqh5g","pricing_plan_id":"cebpf4jnsgd1na2vs0mg"},{"bike_id":"302cfdf1-81be-4755-b604-d1bc07b86986","system_id":"levelo_inurba_marseille","lat":43.32056,"lon":5.4152,"is_reserved":false,"is_disabled":false,"rental_uris":{"android":"levelo://app?vid=302cfdf1-81be-4755-b604-d1bc07b86986","ios":"levelo://app?vid=302cfdf1-81be-4755-b604-d1bc07b86986"},"vehicle_type_id":"4","last_reported":1747264092,"current_range_meters":20400,"station_id":"ce4bhq92rcd13ifvqhkg","pricing_plan_id":"cebpf4jnsgd1na2vs0mg"},{"bike_id":"4296d48c-d37b-4ee6-a872-cd4a27c1f686","system_id":"levelo_inurba_marseille","lat":43.29782,"lon":5.39342,"is_reserved":false,"is_disabled":false,"rental_uris":{"android":"levelo://app?vid=4296d48c-d37b-4ee6-a872-cd4a27c1f686","ios":"levelo://app?vid=4296d48c-d37b-4ee6-a872-cd4a27c1f686"},"vehicle_type_id":"4","last_reported":1747264092,"current_range_meters":20400,"station_id":"chh1huq6cuj3fo74tm60","pricing_plan_id":"cebpf4jnsgd1na2vs0mg"},{"bike_id":"b2c7ee2a-0625-40be-a37e-2e3a273120ed","system_id":"levelo_inurba_marseille","lat":43.31323,"lon":5.39693,"is_reserved":false,"is_disabled":false,"rental_uris":{"android":"levelo://app?vid=b2c7ee2a-0625-40be-a37e-2e3a273120ed","ios":"levelo://app?vid=b2c7ee2a-0625-40be-a37e-2e3a273120ed"},"vehicle_type_id":"4","last_reported":1747264092,"current_range_meters":20800,"station_id":"ce4bgvp2rcd13ifvqcu0","pricing_plan_id":"cebpf4jnsgd1na2vs0mg"},{"bike_id":"083a3188-2f4c-4210-abab-baf0ece53cec","system_id":"levelo_inurba_marseille","lat":43.29044,"lon":5.3993,"is_reserved":false,"is_disabled":false,"rental_uris":{"android":"levelo://app?vid=083a3188-2f4c-4210-abab-baf0ece53cec","ios":"levelo://app?vid=083a3188-2f4c-4210-abab-baf0ece53cec"},"vehicle_type_id":"4","last_reported":1747264092,"current_range_meters":20800,"station_id":"ce4bh392rcd13ifvqdm0","pricing_plan_id":"cebpf4jnsgd1na2vs0mg"},{"bike_id":"da6bc808-f7bb-4ac8-8fe0-d730a9a7718b","system_id":"levelo_inurba_marseille","lat":43.283489,"lon":5.380946,"is_reserved":false,"is_disabled":false,"rental_uris":{"android":"levelo://app?vid=da6bc808-f7bb-4ac8-8fe0-d730a9a7718b","ios":"levelo://app?vid=da6bc808-f7bb-4ac8-8fe0-d730a9a7718b"},"vehicle_type_id":"4","last_reported":1747264092,"current_range_meters":20800,"station_id":"ce4bh412rcd13ifvqdr0","pricing_plan_id":"cebpf4jnsgd1na2vs0mg"},{"bike_id":"2139b0ca-dddd-44ee-b6f6-fc1e6ef5d808","system_id":"levelo_inurba_marseille","lat":43.309321,"lon":5.401492,"is_reserved":false,"is_disabled":false,"rental_uris":{"android":"levelo://app?vid=2139b0ca-dddd-44ee-b6f6-fc1e6ef5d808","ios":"levelo://app?vid=2139b0ca-dddd-44ee-b6f6-fc1e6ef5d808"},"vehicle_type_id":"4","last_reported":1747264092,"current_range_meters":21600,"station_id":"ce4bgvp2rcd13ifvqct0","pricing_plan_id":"cebpf4jnsgd1na2vs0mg"},{"bike_id":"5d6b8819-bc28-4c7c-a4c9-3c239162f9d4","system_id":"levelo_inurba_marseille","lat":43.31722,"lon":5.43683,"is_reserved":false,"is_disabled":false,"rental_uris":{"android":"levelo://app?vid=5d6b8819-bc28-4c7c-a4c9-3c239162f9d4","ios":"levelo://app?vid=5d6b8819-bc28-4c7c-a4c9-3c239162f9d4"},"vehicle_type_id":"4","last_reported":1747264092,"current_range_meters":21600,"station_id":"ce4bhp92rcd13ifvqhcg","pricing_plan_id":"cebpf4jnsgd1na2vs0mg"},{"bike_id":"1fe0cc6f-a090-491c-9a7f-e067c04f1188","system_id":"levelo_inurba_marseille","lat":43.30784,"lon":5.37663,"is_reserved":false,"is_disabled":false,"rental_uris":{"android":"levelo://app?vid=1fe0cc6f-a090-491c-9a7f-e067c04f1188","ios":"levelo://app?vid=1fe0cc6f-a090-491c-9a7f-e067c04f1188"},"vehicle_type_id":"4","last_reported":1747264092,"current_range_meters":22000,"station_id":"ce4bgv92rcd13ifvqcq0","pricing_plan_id":"cebpf4jnsgd1na2vs0mg"},{"bike_id":"3bdff92c-c3dd-4620-b7e0-c4f641e3b43e","system_id":"levelo_inurba_marseille","lat":43.28693,"lon":5.39983,"is_reserved":false,"is_disabled":false,"rental_uris":{"android":"levelo://app?vid=3bdff92c-c3dd-4620-b7e0-c4f641e3b43e","ios":"levelo://app?vid=3bdff92c-c3dd-4620-b7e0-c4f641e3b43e"},"vehicle_type_id":"4","last_reported":1747264092,"current_range_meters":22000,"station_id":"ce4bho92rcd13ifvqh3g","pricing_plan_id":"cebpf4jnsgd1na2vs0mg"},{"bike_id":"54a1a73b-9f7a-414c-a48f-eeace73bd9b0","system_id":"levelo_inurba_marseille","lat":43.22534,"lon":5.3479,"is_reserved":false,"is_disabled":false,"rental_uris":{"android":"levelo://app?vid=54a1a73b-9f7a-414c-a48f-eeace73bd9b0","ios":"levelo://app?vid=54a1a73b-9f7a-414c-a48f-eeace73bd9b0"},"vehicle_type_id":"4","last_reported":1747264092,"current_range_meters":22000,"station_id":"st_cvj5dfep6f1abm77gieg","pricing_plan_id":"cebpf4jnsgd1na2vs0mg"},{"bike_id":"0292d084-36bf-4c0b-bb2b-fc6438be4a7c","system_id":"levelo_inurba_marseille","lat":43.28074,"lon":5.39637,"is_reserved":false,"is_disabled":false,"rental_uris":{"android":"levelo://app?vid=0292d084-36bf-4c0b-bb2b-fc6438be4a7c","ios":"levelo://app?vid=0292d084-36bf-4c0b-bb2b-fc6438be4a7c"},"vehicle_type_id":"4","last_reported":1747264092,"current_range_meters":22400,"station_id":"ce4bho12rcd13ifvqh2g","pricing_plan_id":"cebpf4jnsgd1na2vs0mg"},{"bike_id":"dd2e9f0d-5529-4991-a879-c2b3f7b79d2d","system_id":"levelo_inurba_marseille","lat":43.30601,"lon":5.37225,"is_reserved":false,"is_disabled":false,"rental_uris":{"android":"levelo://app?vid=dd2e9f0d-5529-4991-a879-c2b3f7b79d2d","ios":"levelo://app?vid=dd2e9f0d-5529-4991-a879-c2b3f7b79d2d"},"vehicle_type_id":"4","last_reported":1747264092,"current_range_meters":22800,"station_id":"ce4bgqh2rcd13ifvqc4g","pricing_plan_id":"cebpf4jnsgd1na2vs0mg"},{"bike_id":"f92bcbc1-4487-46a6-96c1-7fedf03d9ccb","system_id":"levelo_inurba_marseille","lat":43.3134,"lon":5.39684,"is_reserved":false,"is_disabled":false,"rental_uris":{"android":"levelo://app?vid=f92bcbc1-4487-46a6-96c1-7fedf03d9ccb","ios":"levelo://app?vid=f92bcbc1-4487-46a6-96c1-7fedf03d9ccb"},"vehicle_type_id":"4","last_reported":1747264092,"current_range_meters":22800,"station_id":"ce4bgvp2rcd13ifvqcu0","pricing_plan_id":"cebpf4jnsgd1na2vs0mg"},{"bike_id":"41c83537-e0fe-41b3-8e96-b638527f1465","system_id":"levelo_inurba_marseille","lat":43.29277,"lon":5.4012,"is_reserved":false,"is_disabled":false,"rental_uris":{"android":"levelo://app?vid=41c83537-e0fe-41b3-8e96-b638527f1465","ios":"levelo://app?vid=41c83537-e0fe-41b3-8e96-b638527f1465"},"vehicle_type_id":"4","last_reported":1747264092,"current_range_meters":22800,"station_id":"ce4bh312rcd13ifvqdk0","pricing_plan_id":"cebpf4jnsgd1na2vs0mg"},{"bike_id":"53255f06-7299-45fa-bc69-8e61557bf5d6","system_id":"levelo_inurba_marseille","lat":43.24068,"lon":5.3775,"is_reserved":false,"is_disabled":false,"rental_uris":{"android":"levelo://app?vid=53255f06-7299-45fa-bc69-8e61557bf5d6","ios":"levelo://app?vid=53255f06-7299-45fa-bc69-8e61557bf5d6"},"vehicle_type_id":"4","last_reported":1747264092,"current_range_meters":22800,"station_id":"ce4bhnp2rcd13ifvqgvg","pricing_plan_id":"cebpf4jnsgd1na2vs0mg"},{"bike_id":"10bbd1f3-7e41-477f-b1de-a2661607019b","system_id":"levelo_inurba_marseille","lat":43.2871,"lon":5.39985,"is_reserved":false,"is_disabled":false,"rental_uris":{"android":"levelo://app?vid=10bbd1f3-7e41-477f-b1de-a2661607019b","ios":"levelo://app?vid=10bbd1f3-7e41-477f-b1de-a2661607019b"},"vehicle_type_id":"4","last_reported":1747264092,"current_range_meters":22800,"station_id":"ce4bho92rcd13ifvqh3g","pricing_plan_id":"cebpf4jnsgd1na2vs0mg"},{"bike_id":"e554f481-e30a-46db-a025-ba7bf6f5dd45","system_id":"levelo_inurba_marseille","lat":43.29552,"lon":5.42288,"is_reserved":false,"is_disabled":false,"rental_uris":{"android":"levelo://app?vid=e554f481-e30a-46db-a025-ba7bf6f5dd45","ios":"levelo://app?vid=e554f481-e30a-46db-a025-ba7bf6f5dd45"},"vehicle_type_id":"4","last_reported":1747264092,"current_range_meters":22800,"station_id":"ce4bhph2rcd13ifvqhdg","pricing_plan_id":"cebpf4jnsgd1na2vs0mg"},{"bike_id":"32b55b17-458e-4a4c-972f-1babf1091298","system_id":"levelo_inurba_marseille","lat":43.315326,"lon":5.380267,"is_reserved":false,"is_disabled":false,"rental_uris":{"android":"levelo://app?vid=32b55b17-458e-4a4c-972f-1babf1091298","ios":"levelo://app?vid=32b55b17-458e-4a4c-972f-1babf1091298"},"vehicle_type_id":"4","last_reported":1747264092,"current_range_meters":22800,"station_id":"ce4bhsp2rcd13ifvqi50","pricing_plan_id":"cebpf4jnsgd1na2vs0mg"},{"bike_id":"51c0565a-9538-4bfc-93e0-a867b481dbd0","system_id":"levelo_inurba_marseille","lat":43.268068,"lon":5.402668,"is_reserved":false,"is_disabled":false,"rental_uris":{"android":"levelo://app?vid=51c0565a-9538-4bfc-93e0-a867b481dbd0","ios":"levelo://app?vid=51c0565a-9538-4bfc-93e0-a867b481dbd0"},"vehicle_type_id":"4","last_reported":1747264092,"current_range_meters":22800,"station_id":"ce501612rcd8frsf0b60","pricing_plan_id":"cebpf4jnsgd1na2vs0mg"},{"bike_id":"54c80718-1468-47f9-9877-bc44f5940722","system_id":"levelo_inurba_marseille","lat":43.21202,"lon":5.35053,"is_reserved":false,"is_disabled":false,"rental_uris":{"android":"levelo://app?vid=54c80718-1468-47f9-9877-bc44f5940722","ios":"levelo://app?vid=54c80718-1468-47f9-9877-bc44f5940722"},"vehicle_type_id":"4","last_reported":1747264092,"current_range_meters":22800,"station_id":"st_cvj6sg6p6f1abm77japg","pricing_plan_id":"cebpf4jnsgd1na2vs0mg"},{"bike_id":"621aa8e6-46f8-4850-9de9-5690b4d6cce3","system_id":"levelo_inurba_marseille","lat":43.30782,"lon":5.3765,"is_reserved":false,"is_disabled":false,"rental_uris":{"android":"levelo://app?vid=621aa8e6-46f8-4850-9de9-5690b4d6cce3","ios":"levelo://app?vid=621aa8e6-46f8-4850-9de9-5690b4d6cce3"},"vehicle_type_id":"4","last_reported":1747264092,"current_range_meters":23200,"station_id":"ce4bgv92rcd13ifvqcq0","pricing_plan_id":"cebpf4jnsgd1na2vs0mg"},{"bike_id":"f3f8f5ad-94f0-4b5c-a174-e6e485acffc5","system_id":"levelo_inurba_marseille","lat":43.30232,"lon":5.40012,"is_reserved":false,"is_disabled":false,"rental_uris":{"android":"levelo://app?vid=f3f8f5ad-94f0-4b5c-a174-e6e485acffc5","ios":"levelo://app?vid=f3f8f5ad-94f0-4b5c-a174-e6e485acffc5"},"vehicle_type_id":"4","last_reported":1747264092,"current_range_meters":23200,"station_id":"ce4bgvh2rcd13ifvqcs0","pricing_plan_id":"cebpf4jnsgd1na2vs0mg"},{"bike_id":"77d99d4e-6673-4a2a-bf8e-322360770264","system_id":"levelo_inurba_marseille","lat":43.31332,"lon":5.39686,"is_reserved":false,"is_disabled":false,"rental_uris":{"android":"levelo://app?vid=77d99d4e-6673-4a2a-bf8e-322360770264","ios":"levelo://app?vid=77d99d4e-6673-4a2a-bf8e-322360770264"},"vehicle_type_id":"4","last_reported":1747264092,"current_range_meters":23200,"station_id":"ce4bgvp2rcd13ifvqcu0","pricing_plan_id":"cebpf4jnsgd1na2vs0mg"},{"bike_id":"f69a8e46-20ab-4141-8d58-8d7e5af144f7","system_id":"levelo_inurba_marseille","lat":43.262025,"lon":5.379295,"is_reserved":false,"is_disabled":false,"rental_uris":{"android":"levelo://app?vid=f69a8e46-20ab-4141-8d58-8d7e5af144f7","ios":"levelo://app?vid=f69a8e46-20ab-4141-8d58-8d7e5af144f7"},"vehicle_type_id":"4","last_reported":1747264092,"current_range_meters":23200,"station_id":"ce4bhjp2rcd13ifvqg90","pricing_plan_id":"cebpf4jnsgd1na2vs0mg"},{"bike_id":"59e29e8a-a0e6-4f97-a7dd-6f3bb9740c59","system_id":"levelo_inurba_marseille","lat":43.31069,"lon":5.42435,"is_reserved":false,"is_disabled":false,"rental_uris":{"android":"levelo://app?vid=59e29e8a-a0e6-4f97-a7dd-6f3bb9740c59","ios":"levelo://app?vid=59e29e8a-a0e6-4f97-a7dd-6f3bb9740c59"},"vehicle_type_id":"4","last_reported":1747264092,"current_range_meters":23200,"station_id":"ce4bhp92rcd13ifvqhag","pricing_plan_id":"cebpf4jnsgd1na2vs0mg"},{"bike_id":"5dd81d8b-2d5c-46a8-ae61-aaef33b7e2ac","system_id":"levelo_inurba_marseille","lat":43.32368,"lon":5.388821,"is_reserved":false,"is_disabled":false,"rental_uris":{"android":"levelo://app?vid=5dd81d8b-2d5c-46a8-ae61-aaef33b7e2ac","ios":"levelo://app?vid=5dd81d8b-2d5c-46a8-ae61-aaef33b7e2ac"},"vehicle_type_id":"4","last_reported":1747264092,"current_range_meters":23200,"station_id":"ce4bhqp2rcd13ifvqhog","pricing_plan_id":"cebpf4jnsgd1na2vs0mg"},{"bike_id":"4d587744-162d-4ca4-8c47-17ab76226010","system_id":"levelo_inurba_marseille","lat":43.29775,"lon":5.39333,"is_reserved":false,"is_disabled":false,"rental_uris":{"android":"levelo://app?vid=4d587744-162d-4ca4-8c47-17ab76226010","ios":"levelo://app?vid=4d587744-162d-4ca4-8c47-17ab76226010"},"vehicle_type_id":"4","last_reported":1747264092,"current_range_meters":23200,"station_id":"chh1huq6cuj3fo74tm60","pricing_plan_id":"cebpf4jnsgd1na2vs0mg"},{"bike_id":"e49a83d3-515b-4669-be06-c9808da7cc3e","system_id":"levelo_inurba_marseille","lat":43.31688,"lon":5.40637,"is_reserved":false,"is_disabled":false,"rental_uris":{"android":"levelo://app?vid=e49a83d3-515b-4669-be06-c9808da7cc3e","ios":"levelo://app?vid=e49a83d3-515b-4669-be06-c9808da7cc3e"},"vehicle_type_id":"4","last_reported":1747264092,"current_range_meters":24000,"station_id":"","pricing_plan_id":"cebpf4jnsgd1na2vs0mg"},{"bike_id":"bf88d87a-dfd6-4953-9135-2b70f55f2aa5","system_id":"levelo_inurba_marseille","lat":43.32631,"lon":5.42941,"is_reserved":false,"is_disabled":false,"rental_uris":{"android":"levelo://app?vid=bf88d87a-dfd6-4953-9135-2b70f55f2aa5","ios":"levelo://app?vid=bf88d87a-dfd6-4953-9135-2b70f55f2aa5"},"vehicle_type_id":"4","last_reported":1747264092,"current_range_meters":24000,"station_id":"","pricing_plan_id":"cebpf4jnsgd1na2vs0mg"},{"bike_id":"eca226ce-d6d1-48e2-a2bf-1a9108989671","system_id":"levelo_inurba_marseille","lat":43.25869,"lon":5.39902,"is_reserved":false,"is_disabled":false,"rental_uris":{"android":"levelo://app?vid=eca226ce-d6d1-48e2-a2bf-1a9108989671","ios":"levelo://app?vid=eca226ce-d6d1-48e2-a2bf-1a9108989671"},"vehicle_type_id":"4","last_reported":1747264092,"current_range_meters":24000,"station_id":"ce4bhl92rcd13ifvqghg","pricing_plan_id":"cebpf4jnsgd1na2vs0mg"},{"bike_id":"74726cf2-d3c5-422c-8e8c-f94a51643b9c","system_id":"levelo_inurba_marseille","lat":43.27947,"lon":5.41049,"is_reserved":false,"is_disabled":false,"rental_uris":{"android":"levelo://app?vid=74726cf2-d3c5-422c-8e8c-f94a51643b9c","ios":"levelo://app?vid=74726cf2-d3c5-422c-8e8c-f94a51643b9c"},"vehicle_type_id":"4","last_reported":1747264092,"current_range_meters":24000,"station_id":"ce4bhnp2rcd13ifvqh0g","pricing_plan_id":"cebpf4jnsgd1na2vs0mg"},{"bike_id":"57e6f947-b8b9-427e-82a9-0d92f39f92d7","system_id":"levelo_inurba_marseille","lat":43.28712,"lon":5.39995,"is_reserved":false,"is_disabled":false,"rental_uris":{"android":"levelo://app?vid=57e6f947-b8b9-427e-82a9-0d92f39f92d7","ios":"levelo://app?vid=57e6f947-b8b9-427e-82a9-0d92f39f92d7"},"vehicle_type_id":"4","last_reported":1747264092,"current_range_meters":24000,"station_id":"ce4bho92rcd13ifvqh3g","pricing_plan_id":"cebpf4jnsgd1na2vs0mg"},{"bike_id":"d9edb28a-9621-408e-aeb7-c4c3a0581a9a","system_id":"levelo_inurba_marseille","lat":43.28701,"lon":5.39993,"is_reserved":false,"is_disabled":false,"rental_uris":{"android":"levelo://app?vid=d9edb28a-9621-408e-aeb7-c4c3a0581a9a","ios":"levelo://app?vid=d9edb28a-9621-408e-aeb7-c4c3a0581a9a"},"vehicle_type_id":"4","last_reported":1747264092,"current_range_meters":24000,"station_id":"ce4bho92rcd13ifvqh3g","pricing_plan_id":"cebpf4jnsgd1na2vs0mg"},{"bike_id":"0902ad8d-7763-45cb-b68b-36518dfa3e27","system_id":"levelo_inurba_marseille","lat":43.26809,"lon":5.4026,"is_reserved":false,"is_disabled":false,"rental_uris":{"android":"levelo://app?vid=0902ad8d-7763-45cb-b68b-36518dfa3e27","ios":"levelo://app?vid=0902ad8d-7763-45cb-b68b-36518dfa3e27"},"vehicle_type_id":"4","last_reported":1747264092,"current_range_meters":24000,"station_id":"ce501612rcd8frsf0b60","pricing_plan_id":"cebpf4jnsgd1na2vs0mg"},{"bike_id":"1f41c365-5504-464e-bb81-c60ee3135a55","system_id":"levelo_inurba_marseille","lat":43.30427,"lon":5.39737,"is_reserved":false,"is_disabled":false,"rental_uris":{"android":"levelo://app?vid=1f41c365-5504-464e-bb81-c60ee3135a55","ios":"levelo://app?vid=1f41c365-5504-464e-bb81-c60ee3135a55"},"vehicle_type_id":"4","last_reported":1747264092,"current_range_meters":24400,"station_id":"ce4bh092rcd13ifvqd20","pricing_plan_id":"cebpf4jnsgd1na2vs0mg"},{"bike_id":"9d65bd0c-bbb6-45a4-8882-b486a9724126","system_id":"levelo_inurba_marseille","lat":43.3128,"lon":5.4017,"is_reserved":false,"is_disabled":false,"rental_uris":{"android":"levelo://app?vid=9d65bd0c-bbb6-45a4-8882-b486a9724126","ios":"levelo://app?vid=9d65bd0c-bbb6-45a4-8882-b486a9724126"},"vehicle_type_id":"4","last_reported":1747264092,"current_range_meters":24400,"station_id":"ce4bh092rcd13ifvqd30","pricing_plan_id":"cebpf4jnsgd1na2vs0mg"},{"bike_id":"7f4cd850-a7e5-411b-93bc-bd75ace3ed15","system_id":"levelo_inurba_marseille","lat":43.28861,"lon":5.39307,"is_reserved":false,"is_disabled":false,"rental_uris":{"android":"levelo://app?vid=7f4cd850-a7e5-411b-93bc-bd75ace3ed15","ios":"levelo://app?vid=7f4cd850-a7e5-411b-93bc-bd75ace3ed15"},"vehicle_type_id":"4","last_reported":1747264092,"current_range_meters":24400,"station_id":"ce4bh2p2rcd13ifvqdi0","pricing_plan_id":"cebpf4jnsgd1na2vs0mg"},{"bike_id":"f6430995-f01e-49ed-8c40-2e7e119e7f11","system_id":"levelo_inurba_marseille","lat":43.281021,"lon":5.378283,"is_reserved":false,"is_disabled":false,"rental_uris":{"android":"levelo://app?vid=f6430995-f01e-49ed-8c40-2e7e119e7f11","ios":"levelo://app?vid=f6430995-f01e-49ed-8c40-2e7e119e7f11"},"vehicle_type_id":"4","last_reported":1747264092,"current_range_meters":24400,"station_id":"ce4bha12rcd13ifvqee0","pricing_plan_id":"cebpf4jnsgd1na2vs0mg"},{"bike_id":"c0fc5e24-25fb-4dfd-b960-d6bc0e9bef3a","system_id":"levelo_inurba_marseille","lat":43.25839,"lon":5.39864,"is_reserved":false,"is_disabled":false,"rental_uris":{"android":"levelo://app?vid=c0fc5e24-25fb-4dfd-b960-d6bc0e9bef3a","ios":"levelo://app?vid=c0fc5e24-25fb-4dfd-b960-d6bc0e9bef3a"},"vehicle_type_id":"4","last_reported":1747264092,"current_range_meters":24400,"station_id":"ce4bhl92rcd13ifvqghg","pricing_plan_id":"cebpf4jnsgd1na2vs0mg"},{"bike_id":"a57e9504-e546-4396-a181-d68bb8e41bb9","system_id":"levelo_inurba_marseille","lat":43.337185,"lon":5.391907,"is_reserved":false,"is_disabled":false,"rental_uris":{"android":"levelo://app?vid=a57e9504-e546-4396-a181-d68bb8e41bb9","ios":"levelo://app?vid=a57e9504-e546-4396-a181-d68bb8e41bb9"},"vehicle_type_id":"4","last_reported":1747264092,"current_range_meters":24400,"station_id":"ce4bhr92rcd13ifvqhsg","pricing_plan_id":"cebpf4jnsgd1na2vs0mg"},{"bike_id":"43334b68-65ae-4cc9-99d2-0bdd8b9ecbc9","system_id":"levelo_inurba_marseille","lat":43.315529,"lon":5.387573,"is_reserved":false,"is_disabled":false,"rental_uris":{"android":"levelo://app?vid=43334b68-65ae-4cc9-99d2-0bdd8b9ecbc9","ios":"levelo://app?vid=43334b68-65ae-4cc9-99d2-0bdd8b9ecbc9"},"vehicle_type_id":"4","last_reported":1747264092,"current_range_meters":24800,"station_id":"","pricing_plan_id":"cebpf4jnsgd1na2vs0mg"},{"bike_id":"968180e8-1b85-4160-9c88-d8f898861abb","system_id":"levelo_inurba_marseille","lat":43.29928,"lon":5.37466,"is_reserved":false,"is_disabled":false,"rental_uris":{"android":"levelo://app?vid=968180e8-1b85-4160-9c88-d8f898861abb","ios":"levelo://app?vid=968180e8-1b85-4160-9c88-d8f898861abb"},"vehicle_type_id":"4","last_reported":1747264092,"current_range_meters":24800,"station_id":"ce4bgjh2rcd13ifvqbg0","pricing_plan_id":"cebpf4jnsgd1na2vs0mg"},{"bike_id":"0d2e3cf8-4d60-4128-9acb-c18ee2c28e38","system_id":"levelo_inurba_marseille","lat":43.2926,"lon":5.40893,"is_reserved":false,"is_disabled":false,"rental_uris":{"android":"levelo://app?vid=0d2e3cf8-4d60-4128-9acb-c18ee2c28e38","ios":"levelo://app?vid=0d2e3cf8-4d60-4128-9acb-c18ee2c28e38"},"vehicle_type_id":"4","last_reported":1747264092,"current_range_meters":24800,"station_id":"ce4bh192rcd13ifvqdc0","pricing_plan_id":"cebpf4jnsgd1na2vs0mg"},{"bike_id":"2eaafdda-d340-446e-af3c-9cc74709c479","system_id":"levelo_inurba_marseille","lat":43.29031,"lon":5.39957,"is_reserved":false,"is_disabled":false,"rental_uris":{"android":"levelo://app?vid=2eaafdda-d340-446e-af3c-9cc74709c479","ios":"levelo://app?vid=2eaafdda-d340-446e-af3c-9cc74709c479"},"vehicle_type_id":"4","last_reported":1747264092,"current_range_meters":24800,"station_id":"ce4bh392rcd13ifvqdm0","pricing_plan_id":"cebpf4jnsgd1na2vs0mg"},{"bike_id":"df471285-bee0-4be9-bb70-d211b5505d34","system_id":"levelo_inurba_marseille","lat":43.246668,"lon":5.381645,"is_reserved":false,"is_disabled":false,"rental_uris":{"android":"levelo://app?vid=df471285-bee0-4be9-bb70-d211b5505d34","ios":"levelo://app?vid=df471285-bee0-4be9-bb70-d211b5505d34"},"vehicle_type_id":"4","last_reported":1747264092,"current_range_meters":24800,"station_id":"ce4bhih2rcd13ifvqfr0","pricing_plan_id":"cebpf4jnsgd1na2vs0mg"},{"bike_id":"1a92416b-be52-4c5b-84e7-193d528293ec","system_id":"levelo_inurba_marseille","lat":43.27172,"lon":5.40994,"is_reserved":false,"is_disabled":false,"rental_uris":{"android":"levelo://app?vid=1a92416b-be52-4c5b-84e7-193d528293ec","ios":"levelo://app?vid=1a92416b-be52-4c5b-84e7-193d528293ec"},"vehicle_type_id":"4","last_reported":1747264092,"current_range_meters":24800,"station_id":"ce4bhl12rcd13ifvqgf0","pricing_plan_id":"cebpf4jnsgd1na2vs0mg"},{"bike_id":"0a5e6002-58b4-4165-b609-155139c22ab1","system_id":"levelo_inurba_marseille","lat":43.24183,"lon":5.39725,"is_reserved":false,"is_disabled":false,"rental_uris":{"android":"levelo://app?vid=0a5e6002-58b4-4165-b609-155139c22ab1","ios":"levelo://app?vid=0a5e6002-58b4-4165-b609-155139c22ab1"},"vehicle_type_id":"4","last_reported":1747264092,"current_range_meters":24800,"station_id":"ce4bhn12rcd13ifvqgpg","pricing_plan_id":"cebpf4jnsgd1na2vs0mg"},{"bike_id":"2286bd46-de13-4763-9a46-4540518e528a","system_id":"levelo_inurba_marseille","lat":43.27494,"lon":5.42468,"is_reserved":false,"is_disabled":false,"rental_uris":{"android":"levelo://app?vid=2286bd46-de13-4763-9a46-4540518e528a","ios":"levelo://app?vid=2286bd46-de13-4763-9a46-4540518e528a"},"vehicle_type_id":"4","last_reported":1747264092,"current_range_meters":24800,"station_id":"ce4bhn92rcd13ifvqgrg","pricing_plan_id":"cebpf4jnsgd1na2vs0mg"},{"bike_id":"fd565c39-1705-4d65-a2c6-ce03aa9ae93b","system_id":"levelo_inurba_marseille","lat":43.279456,"lon":5.410343,"is_reserved":false,"is_disabled":false,"rental_uris":{"android":"levelo://app?vid=fd565c39-1705-4d65-a2c6-ce03aa9ae93b","ios":"levelo://app?vid=fd565c39-1705-4d65-a2c6-ce03aa9ae93b"},"vehicle_type_id":"4","last_reported":1747264092,"current_range_meters":24800,"station_id":"ce4bhnp2rcd13ifvqh0g","pricing_plan_id":"cebpf4jnsgd1na2vs0mg"},{"bike_id":"f36711b4-099b-49a7-8948-098ec1f047f8","system_id":"levelo_inurba_marseille","lat":43.229298,"lon":5.353764,"is_reserved":false,"is_disabled":false,"rental_uris":{"android":"levelo://app?vid=f36711b4-099b-49a7-8948-098ec1f047f8","ios":"levelo://app?vid=f36711b4-099b-49a7-8948-098ec1f047f8"},"vehicle_type_id":"4","last_reported":1747264092,"current_range_meters":24800,"station_id":"cpo3532slgdg3j2ikp40","pricing_plan_id":"cebpf4jnsgd1na2vs0mg"},{"bike_id":"64532c66-18c6-4089-8d34-f3689b3cee8f","system_id":"levelo_inurba_marseille","lat":43.30605,"lon":5.37224,"is_reserved":false,"is_disabled":false,"rental_uris":{"android":"levelo://app?vid=64532c66-18c6-4089-8d34-f3689b3cee8f","ios":"levelo://app?vid=64532c66-18c6-4089-8d34-f3689b3cee8f"},"vehicle_type_id":"4","last_reported":1747264092,"current_range_meters":25200,"station_id":"ce4bgqh2rcd13ifvqc4g","pricing_plan_id":"cebpf4jnsgd1na2vs0mg"},{"bike_id":"51830c35-93bf-46d6-adbc-0ceaedb79e31","system_id":"levelo_inurba_marseille","lat":43.31323,"lon":5.39705,"is_reserved":false,"is_disabled":false,"rental_uris":{"android":"levelo://app?vid=51830c35-93bf-46d6-adbc-0ceaedb79e31","ios":"levelo://app?vid=51830c35-93bf-46d6-adbc-0ceaedb79e31"},"vehicle_type_id":"4","last_reported":1747264092,"current_range_meters":25200,"station_id":"ce4bgvp2rcd13ifvqcu0","pricing_plan_id":"cebpf4jnsgd1na2vs0mg"},{"bike_id":"70a133ed-fdc7-4ea7-8881-dc4039dac7a6","system_id":"levelo_inurba_marseille","lat":43.30892,"lon":5.39635,"is_reserved":false,"is_disabled":false,"rental_uris":{"android":"levelo://app?vid=70a133ed-fdc7-4ea7-8881-dc4039dac7a6","ios":"levelo://app?vid=70a133ed-fdc7-4ea7-8881-dc4039dac7a6"},"vehicle_type_id":"4","last_reported":1747264092,"current_range_meters":25200,"station_id":"ce4bh012rcd13ifvqcv0","pricing_plan_id":"cebpf4jnsgd1na2vs0mg"},{"bike_id":"bf3b6ed5-1c4c-4b54-901e-f4bf6bd2dfb0","system_id":"levelo_inurba_marseille","lat":43.29871,"lon":5.39726,"is_reserved":false,"is_disabled":false,"rental_uris":{"android":"levelo://app?vid=bf3b6ed5-1c4c-4b54-901e-f4bf6bd2dfb0","ios":"levelo://app?vid=bf3b6ed5-1c4c-4b54-901e-f4bf6bd2dfb0"},