{"last_updated":1701756611,"ttl":30,"version":"2.2","data":{"bikes":[{"bike_id":"5fd61d4d-97d9-46ea-ad6e-9ae0ba00cbdf","system_id":"levelo_inurba_marseille","lat":43.313468,"lon":5.366844,"is_reserved":false,"is_disabled":false,"rental_uris":{"android":"levelo://app?vid=5fd61d4d-97d9-46ea-ad6e-9ae0ba00cbdf","ios":"levelo://app?vid=5fd61d4d-97d9-46ea-ad6e-9ae0ba00cbdf"},"vehicle_type_id":"4","last_reported":1701756611,"current_range_meters":26000,"station_id":"ce4bgr92rcd13ifvqc6g","pricing_plan_id":"free"},{"bike_id":"335bd2e4-d778-465e-8392-7659726a15ef","system_id":"levelo_inurba_marseille","lat":43.313479,"lon":5.366878,"is_reserved":false,"is_disabled":false,"rental_uris":{"android":"levelo://app?vid=335bd2e4-d778-465e-8392-7659726a15ef","ios":"levelo://app?vid=335bd2e4-d778-465e-8392-7659726a15ef"},"vehicle_type_id":"4","last_reported":1701756611,"current_range_meters":23600,"station_id":"ce4bgr92rcd13ifvqc6g","pricing_plan_id":"free"},{"bike_id":"ff9f49a8-7cd0-4bbf-a87a-af7489536e88","system_id":"levelo_inurba_marseille","lat":43.313391,"lon":5.36706,"is_reserved":false,"is_disabled":false,"rental_uris":{"android":"levelo://app?vid=ff9f49a8-7cd0-4bbf-a87a-af7489536e88","ios":"levelo://app?vid=ff9f49a8-7cd0-4bbf-a87a-af7489536e88"},"vehicle_type_id":"4","last_reported":1701756611,"current_range_meters":26800,"station_id":"ce4bgr92rcd13ifvqc6g","pricing_plan_id":"free"},{"bike_id":"c90c4f56-179f-47c0-b367-8237d5be2f6f","system_id":"levelo_inurba_marseille","lat":43.313551,"lon":5.366892,"is_reserved":false,"is_disabled":false,"rental_uris":{"android":"levelo://app?vid=c90c4f56-179f-47c0-b367-8237d5be2f6f","ios":"levelo://app?vid=c90c4f56-179f-47c0-b367-8237d5be2f6f"},"vehicle_type_id":"4","last_reported":1701756611,"current_range_meters":23200,"station_id":"","pricing_plan_id":"free"},{"bike_id":"80e889a8-1b30-4e14-b04f-6189504dd268","system_id":"levelo_inurba_marseille","lat":43.313391,"lon":5.36706,"is_reserved":false,"is_disabled":false,"rental_uris":{"android":"levelo://app?vid=80e889a8-1b30-4e14-b04f-6189504dd268","ios":"levelo://app?vid=80e889a8-1b30-4e14-b04f-6189504dd268"},"vehicle_type_id":"4","last_reported":1701756611,"current_range_meters":26400,"station_id":"ce4bgr92rcd13ifvqc6g","pricing_plan_id":"free"},{"bike_id":"3af4778c-e083-41a0-bf99-c31407d70eba","system_id":"levelo_inurba_marseille","lat":43.312239,"lon":5.368562,"is_reserved":false,"is_disabled":false,"rental_uris":{"android":"levelo://app?vid=3af4778c-e083-41a0-bf99-c31407d70eba","ios":"levelo://app?vid=3af4778c-e083-41a0-bf99-c31407d70eba"},"vehicle_type_id":"4","last_reported":1701756611,"current_range_meters":31200,"station_id":"ce4bgl92rcd13ifvqbq0","pricing_plan_id":"free"},{"bike_id":"9106e675-9645-411e-a327-dde3bfc6433c","system_id":"levelo_inurba_marseille","lat":43.312239,"lon":5.368562,"is_reserved":false,"is_disabled":false,"rental_uris":{"android":"levelo://app?vid=9106e675-9645-411e-a327-dde3bfc6433c","ios":"levelo://app?vid=9106e675-9645-411e-a327-dde3bfc6433c"},"vehicle_type_id":"4","last_reported":1701756611,"current_range_meters":31200,"station_id":"ce4bgl92rcd13ifvqbq0","pricing_plan_id":"free"},{"bike_id":"ec5c6422-ce13-4ac4-bdfb-eb3510f685d8","system_id":"levelo_inurba_marseille","lat":43.312239,"lon":5.368562,"is_reserved":false,"is_disabled":false,"rental_uris":{"android":"levelo://app?vid=ec5c6422-ce13-4ac4-bdfb-eb3510f685d8","ios":"levelo://app?vid=ec5c6422-ce13-4ac4-bdfb-eb3510f685d8"},"vehicle_type_id":"4","last_reported":1701756611,"current_range_meters":30800,"station_id":"ce4bgl92rcd13ifvqbq0","pricing_plan_id":"free"},{"bike_id":"38af6d24-cd7d-4903-9bf8-33b455bf1aaa","system_id":"levelo_inurba_marseille","lat":43.312239,"lon":5.368562,"is_reserved":false,"is_disabled":false,"rental_uris":{"android":"levelo://app?vid=38af6d24-cd7d-4903-9bf8-33b455bf1aaa","ios":"levelo://app?vid=38af6d24-cd7d-4903-9bf8-33b455bf1aaa"},"vehicle_type_id":"4","last_reported":1701756611,"current_range_meters":31200,"station_id":"ce4bgl92rcd13ifvqbq0","pricing_plan_id":"free"},{"bike_id":"4167b9f2-99d5-4760-a9a1-6d91aacce329","system_id":"levelo_inurba_marseille","lat":43.313391,"lon":5.36706,"is_reserved":false,"is_disabled":false,"rental_uris":{"android":"levelo://app?vid=4167b9f2-99d5-4760-a9a1-6d91aacce329","ios":"levelo://app?vid=4167b9f2-99d5-4760-a9a1-6d91aacce329"},"vehicle_type_id":"4","last_reported":1701756611,"current_range_meters":20800,"station_id":"ce4bgr92rcd13ifvqc6g","pricing_plan_id":"free"},{"bike_id":"f13883fd-3f61-45bf-801c-370467d5a26c","system_id":"levelo_inurba_marseille","lat":43.312239,"lon":5.368562,"is_reserved":false,"is_disabled":false,"rental_uris":{"android":"levelo://app?vid=f13883fd-3f61-45bf-801c-370467d5a26c","ios":"levelo://app?vid=f13883fd-3f61-45bf-801c-370467d5a26c"},"vehicle_type_id":"4","last_reported":1701756611,"current_range_meters":26000,"station_id":"ce4bgl92rcd13ifvqbq0","pricing_plan_id":"free"},{"bike_id":"db024042-301d-4ccb-bf33-a0b783c55d8c","system_id":"levelo_inurba_marseille","lat":43.312239,"lon":5.368562,"is_reserved":false,"is_disabled":false,"rental_uris":{"android":"levelo://app?vid=db024042-301d-4ccb-bf33-a0b783c55d8c","ios":"levelo://app?vid=db024042-301d-4ccb-bf33-a0b783c55d8c"},"vehicle_type_id":"4","last_reported":1701756611,"current_range_meters":26800,"station_id":"ce4bgl92rcd13ifvqbq0","pricing_plan_id":"free"},{"bike_id":"888b3ae7-162e-46a4-aeef-fa1de88537d4","system_id":"levelo_inurba_marseille","lat":43.312239,"lon":5.368562,"is_reserved":false,"is_disabled":false,"rental_uris":{"android":"levelo://app?vid=888b3ae7-162e-46a4-aeef-fa1de88537d4","ios":"levelo://app?vid=888b3ae7-162e-46a4-aeef-fa1de88537d4"},"vehicle_type_id":"4","last_reported":1701756611,"current_range_meters":30400,"station_id":"ce4bgl92rcd13ifvqbq0","pricing_plan_id":"free"},{"bike_id":"a9890350-a094-4b96-bd5e-25aac51bb642","system_id":"levelo_inurba_marseille","lat":43.312239,"lon":5.368562,"is_reserved":false,"is_disabled":false,"rental_uris":{"android":"levelo://app?vid=a9890350-a094-4b96-bd5e-25aac51bb642","ios":"levelo://app?vid=a9890350-a094-4b96-bd5e-25aac51bb642"},"vehicle_type_id":"4","last_reported":1701756611,"current_range_meters":28000,"station_id":"ce4bgl92rcd13ifvqbq0","pricing_plan_id":"free"},{"bike_id":"3a8260d3-3070-4842-9cbe-be5673b04773","system_id":"levelo_inurba_marseille","lat":43.309076,"lon":5.368465,"is_reserved":false,"is_disabled":false,"rental_uris":{"android":"levelo://app?vid=3a8260d3-3070-4842-9cbe-be5673b04773","ios":"levelo://app?vid=3a8260d3-3070-4842-9cbe-be5673b04773"},"vehicle_type_id":"4","last_reported":1701756611,"current_range_meters":31200,"station_id":"ce4bgn92rcd13ifvqbvg","pricing_plan_id":"free"},{"bike_id":"197bf83f-8893-42af-a10d-19978972d3a6","system_id":"levelo_inurba_marseille","lat":43.314811,"lon":5.373104,"is_reserved":false,"is_disabled":false,"rental_uris":{"android":"levelo://app?vid=197bf83f-8893-42af-a10d-19978972d3a6","ios":"levelo://app?vid=197bf83f-8893-42af-a10d-19978972d3a6"},"vehicle_type_id":"4","last_reported":1701756611,"current_range_meters":26400,"station_id":"ce4bgt12rcd13ifvqcd0","pricing_plan_id":"free"},{"bike_id":"33ec66da-f674-4551-b631-67b01d83989f","system_id":"levelo_inurba_marseille","lat":43.309039,"lon":5.371797,"is_reserved":false,"is_disabled":false,"rental_uris":{"android":"levelo://app?vid=33ec66da-f674-4551-b631-67b01d83989f","ios":"levelo://app?vid=33ec66da-f674-4551-b631-67b01d83989f"},"vehicle_type_id":"4","last_reported":1701756611,"current_range_meters":17200,"station_id":"ce4bguh2rcd13ifvqckg","pricing_plan_id":"free"},{"bike_id":"6d1d7326-94d9-457e-b384-9f9c22691725","system_id":"levelo_inurba_marseille","lat":43.305501,"lon":5.365456,"is_reserved":false,"is_disabled":false,"rental_uris":{"android":"levelo://app?vid=6d1d7326-94d9-457e-b384-9f9c22691725","ios":"levelo://app?vid=6d1d7326-94d9-457e-b384-9f9c22691725"},"vehicle_type_id":"4","last_reported":1701756611,"current_range_meters":4400,"station_id":"ce4bgs12rcd13ifvqcag","pricing_plan_id":"free"},{"bike_id":"7c7e19ce-c4bc-4301-8f4c-098b8f6f4e18","system_id":"levelo_inurba_marseille","lat":43.305482,"lon":5.365439,"is_reserved":false,"is_disabled":false,"rental_uris":{"android":"levelo://app?vid=7c7e19ce-c4bc-4301-8f4c-098b8f6f4e18","ios":"levelo://app?vid=7c7e19ce-c4bc-4301-8f4c-098b8f6f4e18"},"vehicle_type_id":"4","last_reported":1701756611,"current_range_meters":21600,"station_id":"ce4bgs12rcd13ifvqcag","pricing_plan_id":"free"},{"bike_id":"d05eed6e-8d31-4d0b-950a-f4d8e7fe4c79","system_id":"levelo_inurba_marseille","lat":43.305714,"lon":5.365633,"is_reserved":false,"is_disabled":false,"rental_uris":{"android":"levelo://app?vid=d05eed6e-8d31-4d0b-950a-f4d8e7fe4c79","ios":"levelo://app?vid=d05eed6e-8d31-4d0b-950a-f4d8e7fe4c79"},"vehicle_type_id":"4","last_reported":1701756611,"current_range_meters":30000,"station_id":"ce4bgs12rcd13ifvqcag","pricing_plan_id":"free"},{"bike_id":"8fa38ece-1367-42e9-a5f2-f5515618036e","system_id":"levelo_inurba_marseille","lat":43.305714,"lon":5.365633,"is_reserved":false,"is_disabled":false,"rental_uris":{"android":"levelo://app?vid=8fa38ece-1367-42e9-a5f2-f5515618036e","ios":"levelo://app?vid=8fa38ece-1367-42e9-a5f2-f5515618036e"},"vehicle_type_id":"4","last_reported":1701756611,"current_range_meters":31600,"station_id":"ce4bgs12rcd13ifvqcag","pricing_plan_id":"free"},{"bike_id":"0671dc0f-9adf-4a3e-aa7d-6b734255e364","system_id":"levelo_inurba_marseille","lat":43.305714,"lon":5.365633,"is_reserved":false,"is_disabled":false,"rental_uris":{"android":"levelo://app?vid=0671dc0f-9adf-4a3e-aa7d-6b734255e364","ios":"levelo://app?vid=0671dc0f-9adf-4a3e-aa7d-6b734255e364"},"vehicle_type_id":"4","last_reported":1701756611,"current_range_meters":25600,"station_id":"ce4bgs12rcd13ifvqcag","pricing_plan_id":"free"},{"bike_id":"78b28495-9d0f-46b8-b29b-184745488189","system_id":"levelo_inurba_marseille","lat":43.305706,"lon":5.365654,"is_reserved":false,"is_disabled":false,"rental_uris":{"android":"levelo://app?vid=78b28495-9d0f-46b8-b29b-184745488189","ios":"levelo://app?vid=78b28495-9d0f-46b8-b29b-184745488189"},"vehicle_type_id":"4","last_reported":1701756611,"current_range_meters":0,"station_id":"ce4bgs12rcd13ifvqcag","pricing_plan_id":"free"},{"bike_id":"a1068b90-53e5-4f98-a2f1-326cc328f214","system_id":"levelo_inurba_marseille","lat":43.305706,"lon":5.365654,"is_reserved":false,"is_disabled":false,"rental_uris":{"android":"levelo://app?vid=a1068b90-53e5-4f98-a2f1-326cc328f214","ios":"levelo://app?vid=a1068b90-53e5-4f98-a2f1-326cc328f214"},"vehicle_type_id":"4","last_reported":1701756611,"current_range_meters":30800,"station_id":"ce4bgs12rcd13ifvqcag","pricing_plan_id":"free"},{"bike_id":"c0000822-0af9-49de-af26-46616f7adf10","system_id":"levelo_inurba_marseille","lat":43.305706,"lon":5.365654,"is_reserved":false,"is_disabled":false,"rental_uris":{"android":"levelo://app?vid=c0000822-0af9-49de-af26-46616f7adf10","ios":"levelo://app?vid=c0000822-0af9-49de-af26-46616f7adf10"},"vehicle_type_id":"4","last_reported":1701756611,"current_range_meters":26800,"station_id":"ce4bgs12rcd13ifvqcag","pricing_plan_id":"free"},{"bike_id":"b065b12a-ef87-47d8-8ac6-a38844050d40","system_id":"levelo_inurba_marseille","lat":43.319349,"lon":5.372923,"is_reserved":false,"is_disabled":false,"rental_uris":{"android":"levelo://app?vid=b065b12a-ef87-47d8-8ac6-a38844050d40","ios":"levelo://app?vid=b065b12a-ef87-47d8-8ac6-a38844050d40"},"vehicle_type_id":"4","last_reported":1701756611,"current_range_meters":0,"station_id":"","pricing_plan_id":"free"},{"bike_id":"c0799d16-c8a8-4cee-9b0a-69ef1a765b40","system_id":"levelo_inurba_marseille","lat":43.308201,"lon":5.376592,"is_reserved":false,"is_disabled":false,"rental_uris":{"android":"levelo://app?vid=c0799d16-c8a8-4cee-9b0a-69ef1a765b40","ios":"levelo://app?vid=c0799d16-c8a8-4cee-9b0a-69ef1a765b40"},"vehicle_type_id":"4","last_reported":1701756611,"current_range_meters":26000,"station_id":"ce4bgv92rcd13ifvqcq0","pricing_plan_id":"free"},{"bike_id":"fb6fd937-527b-4585-9058-0dfdc6436ac8","system_id":"levelo_inurba_marseille","lat":43.31351,"lon":5.37909,"is_reserved":false,"is_disabled":false,"rental_uris":{"android":"levelo://app?vid=fb6fd937-527b-4585-9058-0dfdc6436ac8","ios":"levelo://app?vid=fb6fd937-527b-4585-9058-0dfdc6436ac8"},"vehicle_type_id":"4","last_reported":1701756611,"current_range_meters":11200,"station_id":"","pricing_plan_id":"free"},{"bike_id":"f3e1fed0-2929-40d2-991c-7e3cd1acbea6","system_id":"levelo_inurba_marseille","lat":43.303046,"lon":5.368981,"is_reserved":false,"is_disabled":false,"rental_uris":{"android":"levelo://app?vid=f3e1fed0-2929-40d2-991c-7e3cd1acbea6","ios":"levelo://app?vid=f3e1fed0-2929-40d2-991c-7e3cd1acbea6"},"vehicle_type_id":"4","last_reported":1701756611,"current_range_meters":30400,"station_id":"ce4bgqh2rcd13ifvqc5g","pricing_plan_id":"free"},{"bike_id":"f5b64e9f-258c-4ab4-8963-65b0cf4119e6","system_id":"levelo_inurba_marseille","lat":43.31527,"lon":5.38033,"is_reserved":false,"is_disabled":false,"rental_uris":{"android":"levelo://app?vid=f5b64e9f-258c-4ab4-8963-65b0cf4119e6","ios":"levelo://app?vid=f5b64e9f-258c-4ab4-8963-65b0cf4119e6"},"vehicle_type_id":"4","last_reported":1701756611,"current_range_meters":26400,"station_id":"ce4bhsp2rcd13ifvqi50","pricing_plan_id":"free"},{"bike_id":"9e5f749f-93aa-4d31-a4d8-ef0ea8efdb77","system_id":"levelo_inurba_marseille","lat":43.3154,"lon":5.38031,"is_reserved":false,"is_disabled":false,"rental_uris":{"android":"levelo://app?vid=9e5f749f-93aa-4d31-a4d8-ef0ea8efdb77","ios":"levelo://app?vid=9e5f749f-93aa-4d31-a4d8-ef0ea8efdb77"},"vehicle_type_id":"4","last_reported":1701756611,"current_range_meters":17200,"station_id":"ce4bhsp2rcd13ifvqi50","pricing_plan_id":"free"},{"bike_id":"caaa1123-72de-4228-80fd-6019817000aa","system_id":"levelo_inurba_marseille","lat":43.31533,"lon":5.38036,"is_reserved":false,"is_disabled":false,"rental_uris":{"android":"levelo://app?vid=caaa1123-72de-4228-80fd-6019817000aa","ios":"levelo://app?vid=caaa1123-72de-4228-80fd-6019817000aa"},"vehicle_type_id":"4","last_reported":1701756611,"current_range_meters":14800,"station_id":"ce4bhsp2rcd13ifvqi50","pricing_plan_id":"free"},{"bike_id":"65eef9a7-b05d-4ebf-8764-6082b201479f","system_id":"levelo_inurba_marseille","lat":43.301939,"lon":5.366286,"is_reserved":false,"is_disabled":false,"rental_uris":{"android":"levelo://app?vid=65eef9a7-b05d-4ebf-8764-6082b201479f","ios":"levelo://app?vid=65eef9a7-b05d-4ebf-8764-6082b201479f"},"vehicle_type_id":"4","last_reported":1701756611,"current_range_meters":26400,"station_id":"ce4bgrh2rcd13ifvqc8g","pricing_plan_id":"free"},{"bike_id":"0a6c5872-7dfe-42d2-a22a-5339ace2a539","system_id":"levelo_inurba_marseille","lat":43.304606,"lon":5.379026,"is_reserved":false,"is_disabled":false,"rental_uris":{"android":"levelo://app?vid=0a6c5872-7dfe-42d2-a22a-5339ace2a539","ios":"levelo://app?vid=0a6c5872-7dfe-42d2-a22a-5339ace2a539"},"vehicle_type_id":"4","last_reported":1701756611,"current_range_meters":17600,"station_id":"ce4bgup2rcd13ifvqcn0","pricing_plan_id":"free"},{"bike_id":"14285bd8-095a-41cc-8776-98d722b8adfb","system_id":"levelo_inurba_marseille","lat":43.304606,"lon":5.379026,"is_reserved":false,"is_disabled":false,"rental_uris":{"android":"levelo://app?vid=14285bd8-095a-41cc-8776-98d722b8adfb","ios":"levelo://app?vid=14285bd8-095a-41cc-8776-98d722b8adfb"},"vehicle_type_id":"4","last_reported":1701756611,"current_range_meters":31600,"station_id":"ce4bgup2rcd13ifvqcn0","pricing_plan_id":"free"},{"bike_id":"3df1fdd0-284d-44e2-b0b9-986689826583","system_id":"levelo_inurba_marseille","lat":43.304606,"lon":5.379026,"is_reserved":false,"is_disabled":false,"rental_uris":{"android":"levelo://app?vid=3df1fdd0-284d-44e2-b0b9-986689826583","ios":"levelo://app?vid=3df1fdd0-284d-44e2-b0b9-986689826583"},"vehicle_type_id":"4","last_reported":1701756611,"current_range_meters":23600,"station_id":"ce4bgup2rcd13ifvqcn0","pricing_plan_id":"free"},{"bike_id":"a6bb13bd-65d5-43cd-b83c-3c5fbacb1f26","system_id":"levelo_inurba_marseille","lat":43.304606,"lon":5.379026,"is_reserved":false,"is_disabled":false,"rental_uris":{"android":"levelo://app?vid=a6bb13bd-65d5-43cd-b83c-3c5fbacb1f26","ios":"levelo://app?vid=a6bb13bd-65d5-43cd-b83c-3c5fbacb1f26"},"vehicle_type_id":"4","last_reported":1701756611,"current_range_meters":16000,"station_id":"ce4bgup2rcd13ifvqcn0","pricing_plan_id":"free"},{"bike_id":"5554d5c4-a37d-42cf-931d-5d6b25ffad3c","system_id":"levelo_inurba_marseille","lat":43.304606,"lon":5.379026,"is_reserved":false,"is_disabled":false,"rental_uris":{"android":"levelo://app?vid=5554d5c4-a37d-42cf-931d-5d6b25ffad3c","ios":"levelo://app?vid=5554d5c4-a37d-42cf-931d-5d6b25ffad3c"},"vehicle_type_id":"4","last_reported":1701756611,"current_range_meters":24800,"station_id":"ce4bgup2rcd13ifvqcn0","pricing_plan_id":"free"},{"bike_id":"0828c529-8fad-452f-a1dc-588d56f4c4a9","system_id":"levelo_inurba_marseille","lat":43.304606,"lon":5.379026,"is_reserved":false,"is_disabled":false,"rental_uris":{"android":"levelo://app?vid=0828c529-8fad-452f-a1dc-588d56f4c4a9","ios":"levelo://app?vid=0828c529-8fad-452f-a1dc-588d56f4c4a9"},"vehicle_type_id":"4","last_reported":1701756611,"current_range_meters":24800,"station_id":"ce4bgup2rcd13ifvqcn0","pricing_plan_id":"free"},{"bike_id":"0c2afe19-c21e-4bf4-835e-540adad3fecb","system_id":"levelo_inurba_marseille","lat":43.304606,"lon":5.379026,"is_reserved":false,"is_disabled":false,"rental_uris":{"android":"levelo://app?vid=0c2afe19-c21e-4bf4-835e-540adad3fecb","ios":"levelo://app?vid=0c2afe19-c21e-4bf4-835e-540adad3fecb"},"vehicle_type_id":"4","last_reported":1701756611,"current_range_meters":21600,"station_id":"ce4bgup2rcd13ifvqcn0","pricing_plan_id":"free"},{"bike_id":"f46be887-bbab-4396-8f4f-c841aaec34b7","system_id":"levelo_inurba_marseille","lat":43.304606,"lon":5.379026,"is_reserved":false,"is_disabled":false,"rental_uris":{"android":"levelo://app?vid=f46be887-bbab-4396-8f4f-c841aaec34b7","ios":"levelo://app?vid=f46be887-bbab-4396-8f4f-c841aaec34b7"},"vehicle_type_id":"4","last_reported":1701756611,"current_range_meters":22400,"station_id":"ce4bgup2rcd13ifvqcn0","pricing_plan_id":"free"},{"bike_id":"d648dfd6-8abf-46cd-b211-79f104c620a3","system_id":"levelo_inurba_marseille","lat":43.304606,"lon":5.379026,"is_reserved":false,"is_disabled":false,"rental_uris":{"android":"levelo://app?vid=d648dfd6-8abf-46cd-b211-79f104c620a3","ios":"levelo://app?vid=d648dfd6-8abf-46cd-b211-79f104c620a3"},"vehicle_type_id":"4","last_reported":1701756611,"current_range_meters":25600,"station_id":"ce4bgup2rcd13ifvqcn0","pricing_plan_id":"free"},{"bike_id":"bfe8e2d8-5b66-4889-8d51-c8b059e03aea","system_id":"levelo_inurba_marseille","lat":43.304606,"lon":5.379026,"is_reserved":false,"is_disabled":false,"rental_uris":{"android":"levelo://app?vid=bfe8e2d8-5b66-4889-8d51-c8b059e03aea","ios":"levelo://app?vid=bfe8e2d8-5b66-4889-8d51-c8b059e03aea"},"vehicle_type_id":"4","last_reported":1701756611,"current_range_meters":20400,"station_id":"ce4bgup2rcd13ifvqcn0","pricing_plan_id":"free"},{"bike_id":"6343ab1c-d6d9-423d-9981-5f200188b024","system_id":"levelo_inurba_marseille","lat":43.3046,"lon":5.37902,"is_reserved":false,"is_disabled":false,"rental_uris":{"android":"levelo://app?vid=6343ab1c-d6d9-423d-9981-5f200188b024","ios":"levelo://app?vid=6343ab1c-d6d9-423d-9981-5f200188b024"},"vehicle_type_id":"4","last_reported":1701756611,"current_range_meters":23600,"station_id":"ce4bgup2rcd13ifvqcn0","pricing_plan_id":"free"},{"bike_id":"c5975025-0067-4ed8-bf48-1be2f975c0b5","system_id":"levelo_inurba_marseille","lat":43.304623,"lon":5.379057,"is_reserved":false,"is_disabled":false,"rental_uris":{"android":"levelo://app?vid=c5975025-0067-4ed8-bf48-1be2f975c0b5","ios":"levelo://app?vid=c5975025-0067-4ed8-bf48-1be2f975c0b5"},"vehicle_type_id":"4","last_reported":1701756611,"current_range_meters":17600,"station_id":"ce4bgup2rcd13ifvqcn0","pricing_plan_id":"free"},{"bike_id":"1a0e01fc-3fb2-486d-95ca-69f4834fc4c9","system_id":"levelo_inurba_marseille","lat":43.304606,"lon":5.379026,"is_reserved":false,"is_disabled":false,"rental_uris":{"android":"levelo://app?vid=1a0e01fc-3fb2-486d-95ca-69f4834fc4c9","ios":"levelo://app?vid=1a0e01fc-3fb2-486d-95ca-69f4834fc4c9"},"vehicle_type_id":"4","last_reported":1701756611,"current_range_meters":24800,"station_id":"ce4bgup2rcd13ifvqcn0","pricing_plan_id":"free"},{"bike_id":"c31aa7bd-ee98-4dec-8623-0a450bb613cc","system_id":"levelo_inurba_marseille","lat":43.30455,"lon":5.37897,"is_reserved":false,"is_disabled":false,"rental_uris":{"android":"levelo://app?vid=c31aa7bd-ee98-4dec-8623-0a450bb613cc","ios":"levelo://app?vid=c31aa7bd-ee98-4dec-8623-0a450bb613cc"},"vehicle_type_id":"4","last_reported":1701756611,"current_range_meters":21600,"station_id":"ce4bgup2rcd13ifvqcn0","pricing_plan_id":"free"},{"bike_id":"e5f1c7ce-2cdc-4a48-ba8b-32ee17351b68","system_id":"levelo_inurba_marseille","lat":43.304606,"lon":5.379026,"is_reserved":false,"is_disabled":false,"rental_uris":{"android":"levelo://app?vid=e5f1c7ce-2cdc-4a48-ba8b-32ee17351b68","ios":"levelo://app?vid=e5f1c7ce-2cdc-4a48-ba8b-32ee17351b68"},"vehicle_type_id":"4","last_reported":1701756611,"current_range_meters":19600,"station_id":"ce4bgup2rcd13ifvqcn0","pricing_plan_id":"free"},{"bike_id":"1c225f5e-04d5-4714-b7b9-bc9e13f0580f","system_id":"levelo_inurba_marseille","lat":43.304606,"lon":5.379026,"is_reserved":false,"is_disabled":false,"rental_uris":{"android":"levelo://app?vid=1c225f5e-04d5-4714-b7b9-bc9e13f0580f","ios":"levelo://app?vid=1c225f5e-04d5-4714-b7b9-bc9e13f0580f"},"vehicle_type_id":"4","last_reported":1701756611,"current_range_meters":26800,"station_id":"ce4bgup2rcd13ifvqcn0","pricing_plan_id":"free"},{"bike_id":"75e1525b-5295-4601-b8ed-63f28d08e0bf","system_id":"levelo_inurba_marseille","lat":43.304606,"lon":5.379026,"is_reserved":false,"is_disabled":false,"rental_uris":{"android":"levelo://app?vid=75e1525b-5295-4601-b8ed-63f28d08e0bf","ios":"levelo://app?vid=75e1525b-5295-4601-b8ed-63f28d08e0bf"},"vehicle_type_id":"4","last_reported":1701756611,"current_range_meters":17200,"station_id":"ce4bgup2rcd13ifvqcn0","pricing_plan_id":"free"},{"bike_id":"8f5b025c-38b4-4577-9968-cacc42ca2220","system_id":"levelo_inurba_marseille","lat":43.304606,"lon":5.379026,"is_reserved":false,"is_disabled":false,"rental_uris":{"android":"levelo://app?vid=8f5b025c-38b4-4577-9968-cacc42ca2220","ios":"levelo://app?vid=8f5b025c-38b4-4577-9968-cacc42ca2220"},"vehicle_type_id":"4","last_reported":1701756611,"current_range_meters":17200,"station_id":"ce4bgup2rcd13ifvqcn0","pricing_plan_id":"free"},{"bike_id":"b140d55f-38f4-4ab0-9dc3-7333fa29c68f","system_id":"levelo_inurba_marseille","lat":43.304606,"lon":5.379026,"is_reserved":false,"is_disabled":false,"rental_uris":{"android":"levelo://app?vid=b140d55f-38f4-4ab0-9dc3-7333fa29c68f","ios":"levelo://app?vid=b140d55f-38f4-4ab0-9dc3-7333fa29c68f"},"vehicle_type_id":"4","last_reported":1701756611,"current_range_meters":19600,"station_id":"ce4bgup2rcd13ifvqcn0","pricing_plan_id":"free"},{"bike_id":"8105cef5-7bbf-4f79-b6cc-218606d98d71","system_id":"levelo_inurba_marseille","lat":43.304606,"lon":5.379026,"is_reserved":false,"is_disabled":false,"rental_uris":{"android":"levelo://app?vid=8105cef5-7bbf-4f79-b6cc-218606d98d71","ios":"levelo://app?vid=8105cef5-7bbf-4f79-b6cc-218606d98d71"},"vehicle_type_id":"4","last_reported":1701756611,"current_range_meters":18000,"station_id":"ce4bgup2rcd13ifvqcn0","pricing_plan_id":"free"},{"bike_id":"1b8d860e-051f-4ab2-855e-10667bf1ee03","system_id":"levelo_inurba_marseille","lat":43.304606,"lon":5.379026,"is_reserved":false,"is_disabled":false,"rental_uris":{"android":"levelo://app?vid=1b8d860e-051f-4ab2-855e-10667bf1ee03","ios":"levelo://app?vid=1b8d860e-051f-4ab2-855e-10667bf1ee03"},"vehicle_type_id":"4","last_reported":1701756611,"current_range_meters":22800,"station_id":"ce4bgup2rcd13ifvqcn0","pricing_plan_id":"free"},{"bike_id":"2b909408-9e2f-4141-9eb6-d4dd48f74cf5","system_id":"levelo_inurba_marseille","lat":43.304606,"lon":5.379026,"is_reserved":false,"is_disabled":false,"rental_uris":{"android":"levelo://app?vid=2b909408-9e2f-4141-9eb6-d4dd48f74cf5","ios":"levelo://app?vid=2b909408-9e2f-4141-9eb6-d4dd48f74cf5"},"vehicle_type_id":"4","last_reported":1701756611,"current_range_meters":14800,"station_id":"ce4bgup2rcd13ifvqcn0","pricing_plan_id":"free"},{"bike_id":"88298b05-e26b-4c3f-b3fe-4a4d23c3f933","system_id":"levelo_inurba_marseille","lat":43.304606,"lon":5.379026,"is_reserved":false,"is_disabled":false,"rental_uris":{"android":"levelo://app?vid=88298b05-e26b-4c3f-b3fe-4a4d23c3f933","ios":"levelo://app?vid=88298b05-e26b-4c3f-b3fe-4a4d23c3f933"},"vehicle_type_id":"4","last_reported":1701756611,"current_range_meters":27200,"station_id":"ce4bgup2rcd13ifvqcn0","pricing_plan_id":"free"},{"bike_id":"349dfaee-3ed5-42be-8292-0ab2ba4552e5","system_id":"levelo_inurba_marseille","lat":43.324771,"lon":5.36557,"is_reserved":false,"is_disabled":false,"rental_uris":{"android":"levelo://app?vid=349dfaee-3ed5-42be-8292-0ab2ba4552e5","ios":"levelo://app?vid=349dfaee-3ed5-42be-8292-0ab2ba4552e5"},"vehicle_type_id":"4","last_reported":1701756611,"current_range_meters":29200,"station_id":"ce4bhs12rcd13ifvqhvg","pricing_plan_id":"free"},{"bike_id":"2d22649b-11fa-4007-9d29-f654f778f238","system_id":"levelo_inurba_marseille","lat":43.304606,"lon":5.379026,"is_reserved":false,"is_disabled":false,"rental_uris":{"android":"levelo://app?vid=2d22649b-11fa-4007-9d29-f654f778f238","ios":"levelo://app?vid=2d22649b-11fa-4007-9d29-f654f778f238"},"vehicle_type_id":"4","last_reported":1701756611,"current_range_meters":20800,"station_id":"ce4bgup2rcd13ifvqcn0","pricing_plan_id":"free"},{"bike_id":"ab542b0a-b258-4b62-baed-c4ff4b3a7961","system_id":"levelo_inurba_marseille","lat":43.32484,"lon":5.365713,"is_reserved":false,"is_disabled":false,"rental_uris":{"android":"levelo://app?vid=ab542b0a-b258-4b62-baed-c4ff4b3a7961","ios":"levelo://app?vid=ab542b0a-b258-4b62-baed-c4ff4b3a7961"},"vehicle_type_id":"4","last_reported":1701756611,"current_range_meters":14400,"station_id":"ce4bhs12rcd13ifvqhvg","pricing_plan_id":"free"},{"bike_id":"0246231f-99a3-4d0c-9dc6-1c01075a863e","system_id":"levelo_inurba_marseille","lat":43.301429,"lon":5.37413,"is_reserved":false,"is_disabled":false,"rental_uris":{"android":"levelo://app?vid=0246231f-99a3-4d0c-9dc6-1c01075a863e","ios":"levelo://app?vid=0246231f-99a3-4d0c-9dc6-1c01075a863e"},"vehicle_type_id":"4","last_reported":1701756611,"current_range_meters":26400,"station_id":"ce4bgs92rcd13ifvqcc0","pricing_plan_id":"free"},{"bike_id":"8164aaca-961b-4e4e-9ddf-b9ffaba16620","system_id":"levelo_inurba_marseille","lat":43.301429,"lon":5.37413,"is_reserved":false,"is_disabled":false,"rental_uris":{"android":"levelo://app?vid=8164aaca-961b-4e4e-9ddf-b9ffaba16620","ios":"levelo://app?vid=8164aaca-961b-4e4e-9ddf-b9ffaba16620"},"vehicle_type_id":"4","last_reported":1701756611,"current_range_meters":30000,"station_id":"ce4bgs92rcd13ifvqcc0","pricing_plan_id":"free"},{"bike_id":"b325d0aa-62f5-4d21-aafd-c0c605052336","system_id":"levelo_inurba_marseille","lat":43.299361,"lon":5.365608,"is_reserved":false,"is_disabled":false,"rental_uris":{"android":"levelo://app?vid=b325d0aa-62f5-4d21-aafd-c0c605052336","ios":"levelo://app?vid=b325d0aa-62f5-4d21-aafd-c0c605052336"},"vehicle_type_id":"4","last_reported":1701756611,"current_range_meters":18800,"station_id":"ce4bgm92rcd13ifvqbr0","pricing_plan_id":"free"},{"bike_id":"e93f7b69-2488-48b3-9e5b-eaf014e853c2","system_id":"levelo_inurba_marseille","lat":43.305364,"lon":5.384119,"is_reserved":false,"is_disabled":false,"rental_uris":{"android":"levelo://app?vid=e93f7b69-2488-48b3-9e5b-eaf014e853c2","ios":"levelo://app?vid=e93f7b69-2488-48b3-9e5b-eaf014e853c2"},"vehicle_type_id":"4","last_reported":1701756611,"current_range_meters":27200,"station_id":"ce4bgg92rcd13ifvqb30","pricing_plan_id":"free"},{"bike_id":"ec2e3117-aade-42b0-9019-53c0384adea9","system_id":"levelo_inurba_marseille","lat":43.298433,"lon":5.362774,"is_reserved":false,"is_disabled":false,"rental_uris":{"android":"levelo://app?vid=ec2e3117-aade-42b0-9019-53c0384adea9","ios":"levelo://app?vid=ec2e3117-aade-42b0-9019-53c0384adea9"},"vehicle_type_id":"4","last_reported":1701756611,"current_range_meters":27200,"station_id":"ce4bgpp2rcd13ifvqc3g","pricing_plan_id":"free"},{"bike_id":"273df213-851f-4e1a-98e6-236cea7e7fcb","system_id":"levelo_inurba_marseille","lat":43.29792,"lon":5.37096,"is_reserved":false,"is_disabled":false,"rental_uris":{"android":"levelo://app?vid=273df213-851f-4e1a-98e6-236cea7e7fcb","ios":"levelo://app?vid=273df213-851f-4e1a-98e6-236cea7e7fcb"},"vehicle_type_id":"4","last_reported":1701756611,"current_range_meters":30000,"station_id":"ce4bgop2rcd13ifvqc1g","pricing_plan_id":"free"},{"bike_id":"cb8f4c3a-456c-4d50-8ea3-298e057d608b","system_id":"levelo_inurba_marseille","lat":43.322872,"lon":5.382756,"is_reserved":false,"is_disabled":false,"rental_uris":{"android":"levelo://app?vid=cb8f4c3a-456c-4d50-8ea3-298e057d608b","ios":"levelo://app?vid=cb8f4c3a-456c-4d50-8ea3-298e057d608b"},"vehicle_type_id":"4","last_reported":1701756611,"current_range_meters":30400,"station_id":"ce4bhr12rcd13ifvqhqg","pricing_plan_id":"free"},{"bike_id":"b4879a0b-f87c-476b-ba9f-57011b8686d8","system_id":"levelo_inurba_marseille","lat":43.298218,"lon":5.374416,"is_reserved":false,"is_disabled":false,"rental_uris":{"android":"levelo://app?vid=b4879a0b-f87c-476b-ba9f-57011b8686d8","ios":"levelo://app?vid=b4879a0b-f87c-476b-ba9f-57011b8686d8"},"vehicle_type_id":"4","last_reported":1701756611,"current_range_meters":18800,"station_id":"","pricing_plan_id":"free"},{"bike_id":"f8284d70-c5e7-490d-9c5a-74a62dd38512","system_id":"levelo_inurba_marseille","lat":43.32827,"lon":5.36673,"is_reserved":false,"is_disabled":false,"rental_uris":{"android":"levelo://app?vid=f8284d70-c5e7-490d-9c5a-74a62dd38512","ios":"levelo://app?vid=f8284d70-c5e7-490d-9c5a-74a62dd38512"},"vehicle_type_id":"4","last_reported":1701756611,"current_range_meters":30400,"station_id":"ce4bhs92rcd13ifvqi0g","pricing_plan_id":"free"},{"bike_id":"c6ce3b8f-2076-4eb8-b7d5-d674dca50e8e","system_id":"levelo_inurba_marseille","lat":43.328277,"lon":5.366747,"is_reserved":false,"is_disabled":false,"rental_uris":{"android":"levelo://app?vid=c6ce3b8f-2076-4eb8-b7d5-d674dca50e8e","ios":"levelo://app?vid=c6ce3b8f-2076-4eb8-b7d5-d674dca50e8e"},"vehicle_type_id":"4","last_reported":1701756611,"current_range_meters":31200,"station_id":"ce4bhs92rcd13ifvqi0g","pricing_plan_id":"free"},{"bike_id":"92862562-b240-4732-b487-fff0f7a628b1","system_id":"levelo_inurba_marseille","lat":43.297163,"lon":5.365866,"is_reserved":false,"is_disabled":false,"rental_uris":{"android":"levelo://app?vid=92862562-b240-4732-b487-fff0f7a628b1","ios":"levelo://app?vid=92862562-b240-4732-b487-fff0f7a628b1"},"vehicle_type_id":"4","last_reported":1701756611,"current_range_meters":31200,"station_id":"ce4bgn12rcd13ifvqbt0","pricing_plan_id":"free"},{"bike_id":"d1cdac5f-f3d9-4e36-8862-ed36696f3dba","system_id":"levelo_inurba_marseille","lat":43.29624,"lon":5.37038,"is_reserved":false,"is_disabled":false,"rental_uris":{"android":"levelo://app?vid=d1cdac5f-f3d9-4e36-8862-ed36696f3dba","ios":"levelo://app?vid=d1cdac5f-f3d9-4e36-8862-ed36696f3dba"},"vehicle_type_id":"4","last_reported":1701756611,"current_range_meters":24400,"station_id":"","pricing_plan_id":"free"},{"bike_id":"eb6e7f47-d703-40d3-b365-ef330215af35","system_id":"levelo_inurba_marseille","lat":43.295968,"lon":5.368034,"is_reserved":false,"is_disabled":false,"rental_uris":{"android":"levelo://app?vid=eb6e7f47-d703-40d3-b365-ef330215af35","ios":"levelo://app?vid=eb6e7f47-d703-40d3-b365-ef330215af35"},"vehicle_type_id":"4","last_reported":1701756611,"current_range_meters":26000,"station_id":"","pricing_plan_id":"free"},{"bike_id":"eaa0e7e7-2390-47fa-909b-7b240952cbef","system_id":"levelo_inurba_marseille","lat":43.316538,"lon":5.38954,"is_reserved":false,"is_disabled":false,"rental_uris":{"android":"levelo://app?vid=eaa0e7e7-2390-47fa-909b-7b240952cbef","ios":"levelo://app?vid=eaa0e7e7-2390-47fa-909b-7b240952cbef"},"vehicle_type_id":"4","last_reported":1701756611,"current_range_meters":14400,"station_id":"","pricing_plan_id":"free"},{"bike_id":"1e942f33-5d3f-45d9-85f7-2150fac6ef3d","system_id":"levelo_inurba_marseille","lat":43.299028,"lon":5.381509,"is_reserved":false,"is_disabled":false,"rental_uris":{"android":"levelo://app?vid=1e942f33-5d3f-45d9-85f7-2150fac6ef3d","ios":"levelo://app?vid=1e942f33-5d3f-45d9-85f7-2150fac6ef3d"},"vehicle_type_id":"4","last_reported":1701756611,"current_range_meters":30400,"station_id":"ce4bgj12rcd13ifvqbc0","pricing_plan_id":"free"},{"bike_id":"1fd32647-2ae8-40e6-b39f-09b46bfcb5f7","system_id":"levelo_inurba_marseille","lat":43.317653,"lon":5.390089,"is_reserved":false,"is_disabled":false,"rental_uris":{"android":"levelo://app?vid=1fd32647-2ae8-40e6-b39f-09b46bfcb5f7","ios":"levelo://app?vid=1fd32647-2ae8-40e6-b39f-09b46bfcb5f7"},"vehicle_type_id":"4","last_reported":1701756611,"current_range_meters":12400,"station_id":"","pricing_plan_id":"free"},{"bike_id":"70c33660-bf74-403c-a0ae-384880103157","system_id":"levelo_inurba_marseille","lat":43.317557,"lon":5.390173,"is_reserved":false,"is_disabled":false,"rental_uris":{"android":"levelo://app?vid=70c33660-bf74-403c-a0ae-384880103157","ios":"levelo://app?vid=70c33660-bf74-403c-a0ae-384880103157"},"vehicle_type_id":"4","last_reported":1701756611,"current_range_meters":31200,"station_id":"ce4bhqp2rcd13ifvqhng","pricing_plan_id":"free"},{"bike_id":"ba56007f-9a72-4563-801c-1a936cc6bc3c","system_id":"levelo_inurba_marseille","lat":43.317557,"lon":5.390173,"is_reserved":false,"is_disabled":false,"rental_uris":{"android":"levelo://app?vid=ba56007f-9a72-4563-801c-1a936cc6bc3c","ios":"levelo://app?vid=ba56007f-9a72-4563-801c-1a936cc6bc3c"},"vehicle_type_id":"4","last_reported":1701756611,"current_range_meters":22800,"station_id":"ce4bhqp2rcd13ifvqhng","pricing_plan_id":"free"},{"bike_id":"b51fdc1b-ab99-45a5-b4e7-d3adaed7df60","system_id":"levelo_inurba_marseille","lat":43.317557,"lon":5.390173,"is_reserved":false,"is_disabled":false,"rental_uris":{"android":"levelo://app?vid=b51fdc1b-ab99-45a5-b4e7-d3adaed7df60","ios":"levelo://app?vid=b51fdc1b-ab99-45a5-b4e7-d3adaed7df60"},"vehicle_type_id":"4","last_reported":1701756611,"current_range_meters":28400,"station_id":"ce4bhqp2rcd13ifvqhng","pricing_plan_id":"free"},{"bike_id":"cbdb1b26-1b7b-4316-9220-24d1960a98cf","system_id":"levelo_inurba_marseille","lat":43.317562,"lon":5.390176,"is_reserved":false,"is_disabled":false,"rental_uris":{"android":"levelo://app?vid=cbdb1b26-1b7b-4316-9220-24d1960a98cf","ios":"levelo://app?vid=cbdb1b26-1b7b-4316-9220-24d1960a98cf"},"vehicle_type_id":"4","last_reported":1701756611,"current_range_meters":30800,"station_id":"ce4bhqp2rcd13ifvqhng","pricing_plan_id":"free"},{"bike_id":"c6c5acc0-3971-43b9-ba4d-33c881a5a76e","system_id":"levelo_inurba_marseille","lat":43.31748,"lon":5.39026,"is_reserved":false,"is_disabled":false,"rental_uris":{"android":"levelo://app?vid=c6c5acc0-3971-43b9-ba4d-33c881a5a76e","ios":"levelo://app?vid=c6c5acc0-3971-43b9-ba4d-33c881a5a76e"},"vehicle_type_id":"4","last_reported":1701756611,"current_range_meters":28000,"station_id":"ce4bhqp2rcd13ifvqhng","pricing_plan_id":"free"},{"bike_id":"f6fcc9e0-fad1-4765-8be2-dd378c148933","system_id":"levelo_inurba_marseille","lat":43.317508,"lon":5.390298,"is_reserved":false,"is_disabled":false,"rental_uris":{"android":"levelo://app?vid=f6fcc9e0-fad1-4765-8be2-dd378c148933","ios":"levelo://app?vid=f6fcc9e0-fad1-4765-8be2-dd378c148933"},"vehicle_type_id":"4","last_reported":1701756611,"current_range_meters":20400,"station_id":"ce4bhqp2rcd13ifvqhng","pricing_plan_id":"free"},{"bike_id":"f7f36efe-3007-4ded-a1a8-4086c2239b39","system_id":"levelo_inurba_marseille","lat":43.298037,"lon":5.381066,"is_reserved":false,"is_disabled":false,"rental_uris":{"android":"levelo://app?vid=f7f36efe-3007-4ded-a1a8-4086c2239b39","ios":"levelo://app?vid=f7f36efe-3007-4ded-a1a8-4086c2239b39"},"vehicle_type_id":"4","last_reported":1701756611,"current_range_meters":30000,"station_id":"ce4bgip2rcd13ifvqbb0","pricing_plan_id":"free"},{"bike_id":"d7f383c6-c58c-4b2e-bce3-a6c0d8163323","system_id":"levelo_inurba_marseille","lat":43.304274,"lon":5.388873,"is_reserved":false,"is_disabled":false,"rental_uris":{"android":"levelo://app?vid=d7f383c6-c58c-4b2e-bce3-a6c0d8163323","ios":"levelo://app?vid=d7f383c6-c58c-4b2e-bce3-a6c0d8163323"},"vehicle_type_id":"4","last_reported":1701756611,"current_range_meters":14800,"station_id":"ce4bgk12rcd13ifvqbi0","pricing_plan_id":"free"},{"bike_id":"bb7f9b3d-ac61-4d5d-aa45-5d3b4585c663","system_id":"levelo_inurba_marseille","lat":43.296263,"lon":5.377094,"is_reserved":false,"is_disabled":false,"rental_uris":{"android":"levelo://app?vid=bb7f9b3d-ac61-4d5d-aa45-5d3b4585c663","ios":"levelo://app?vid=bb7f9b3d-ac61-4d5d-aa45-5d3b4585c663"},"vehicle_type_id":"4","last_reported":1701756611,"current_range_meters":26400,"station_id":"ce4bgi92rcd13ifvqb90","pricing_plan_id":"free"},{"bike_id":"32b0777b-0030-488a-9d6d-aa6e64db2f5a","system_id":"levelo_inurba_marseille","lat":43.295748,"lon":5.37522,"is_reserved":false,"is_disabled":false,"rental_uris":{"android":"levelo://app?vid=32b0777b-0030-488a-9d6d-aa6e64db2f5a","ios":"levelo://app?vid=32b0777b-0030-488a-9d6d-aa6e64db2f5a"},"vehicle_type_id":"4","last_reported":1701756611,"current_range_meters":28400,"station_id":"ce4bgh92rcd13ifvqb50","pricing_plan_id":"free"},{"bike_id":"d90b428d-3651-4356-8474-1911b1d4fd46","system_id":"levelo_inurba_marseille","lat":43.296263,"lon":5.377094,"is_reserved":false,"is_disabled":false,"rental_uris":{"android":"levelo://app?vid=d90b428d-3651-4356-8474-1911b1d4fd46","ios":"levelo://app?vid=d90b428d-3651-4356-8474-1911b1d4fd46"},"vehicle_type_id":"4","last_reported":1701756611,"current_range_meters":22800,"station_id":"ce4bgi92rcd13ifvqb90","pricing_plan_id":"free"},{"bike_id":"d3f1fba5-2f1c-44ed-8885-ac6a8bd9a98d","system_id":"levelo_inurba_marseille","lat":43.32362,"lon":5.3888,"is_reserved":false,"is_disabled":false,"rental_uris":{"android":"levelo://app?vid=d3f1fba5-2f1c-44ed-8885-ac6a8bd9a98d","ios":"levelo://app?vid=d3f1fba5-2f1c-44ed-8885-ac6a8bd9a98d"},"vehicle_type_id":"4","last_reported":1701756611,"current_range_meters":31200,"station_id":"ce4bhqp2rcd13ifvqhog","pricing_plan_id":"free"},{"bike_id":"31307a27-90db-4c9f-9f99-95880bc6b240","system_id":"levelo_inurba_marseille","lat":43.32368,"lon":5.388876,"is_reserved":false,"is_disabled":false,"rental_uris":{"android":"levelo://app?vid=31307a27-90db-4c9f-9f99-95880bc6b240","ios":"levelo://app?vid=31307a27-90db-4c9f-9f99-95880bc6b240"},"vehicle_type_id":"4","last_reported":1701756611,"current_range_meters":30800,"station_id":"ce4bhqp2rcd13ifvqhog","pricing_plan_id":"free"},{"bike_id":"9677ec68-203e-49ed-b829-f89805b96409","system_id":"levelo_inurba_marseille","lat":43.29601,"lon":5.381084,"is_reserved":false,"is_disabled":false,"rental_uris":{"android":"levelo://app?vid=9677ec68-203e-49ed-b829-f89805b96409","ios":"levelo://app?vid=9677ec68-203e-49ed-b829-f89805b96409"},"vehicle_type_id":"4","last_reported":1701756611,"current_range_meters":6800,"station_id":"ce4bgl12rcd13ifvqbo0","pricing_plan_id":"free"},{"bike_id":"f58dd9ba-7ff8-48ae-8566-b584da068089","system_id":"levelo_inurba_marseille","lat":43.293009,"lon":5.374584,"is_reserved":false,"is_disabled":false,"rental_uris":{"android":"levelo://app?vid=f58dd9ba-7ff8-48ae-8566-b584da068089","ios":"levelo://app?vid=f58dd9ba-7ff8-48ae-8566-b584da068089"},"vehicle_type_id":"4","last_reported":1701756611,"current_range_meters":19200,"station_id":"ce4bgi12rcd13ifvqb70","pricing_plan_id":"free"},{"bike_id":"84843d09-a1d0-4b3b-b454-ed0ee80cee7d","system_id":"levelo_inurba_marseille","lat":43.29356,"lon":5.37859,"is_reserved":false,"is_disabled":false,"rental_uris":{"android":"levelo://app?vid=84843d09-a1d0-4b3b-b454-ed0ee80cee7d","ios":"levelo://app?vid=84843d09-a1d0-4b3b-b454-ed0ee80cee7d"},"vehicle_type_id":"4","last_reported":1701756611,"current_range_meters":26400,"station_id":"ce4bgjh2rcd13ifvqbf0","pricing_plan_id":"free"},{"bike_id":"7735f43e-079a-4e77-a669-935db1f47303","system_id":"levelo_inurba_marseille","lat":43.292311,"lon":5.360731,"is_reserved":false,"is_disabled":false,"rental_uris":{"android":"levelo://app?vid=7735f43e-079a-4e77-a669-935db1f47303","ios":"levelo://app?vid=7735f43e-079a-4e77-a669-935db1f47303"},"vehicle_type_id":"4","last_reported":1701756611,"current_range_meters":26800,"station_id":"ce4bhbh2rcd13ifvqeqg","pricing_plan_id":"free"},{"bike_id":"817a6a8e-8622-4c8f-829d-0e572dcf0223","system_id":"levelo_inurba_marseille","lat":43.298675,"lon":5.38907,"is_reserved":false,"is_disabled":false,"rental_uris":{"android":"levelo://app?vid=817a6a8e-8622-4c8f-829d-0e572dcf0223","ios":"levelo://app?vid=817a6a8e-8622-4c8f-829d-0e572dcf0223"},"vehicle_type_id":"4","last_reported":1701756611,"current_range_meters":16800,"station_id":"ce4bh392rcd13ifvqdl0","pricing_plan_id":"free"},{"bike_id":"32a878b2-dd3d-4c40-aa5a-8513930b94e4","system_id":"levelo_inurba_marseille","lat":43.313505,"lon":5.39638,"is_reserved":false,"is_disabled":false,"rental_uris":{"android":"levelo://app?vid=32a878b2-dd3d-4c40-aa5a-8513930b94e4","ios":"levelo://app?vid=32a878b2-dd3d-4c40-aa5a-8513930b94e4"},"vehicle_type_id":"4","last_reported":1701756611,"current_range_meters":31200,"station_id":"","pricing_plan_id":"free"},{"bike_id":"5de4684d-7472-4afc-994a-cc8c78a6a9e5","system_id":"levelo_inurba_marseille","lat":43.309047,"lon":5.396551,"is_reserved":false,"is_disabled":false,"rental_uris":{"android":"levelo://app?vid=5de4684d-7472-4afc-994a-cc8c78a6a9e5","ios":"levelo://app?vid=5de4684d-7472-4afc-994a-cc8c78a6a9e5"},"vehicle_type_id":"4","last_reported":1701756611,"current_range_meters":21200,"station_id":"ce4bh012rcd13ifvqcv0","pricing_plan_id":"free"},{"bike_id":"d6aadfac-d267-4a6b-b3ef-364b999267b3","system_id":"levelo_inurba_marseille","lat":43.309047,"lon":5.396551,"is_reserved":false,"is_disabled":false,"rental_uris":{"android":"levelo://app?vid=d6aadfac-d267-4a6b-b3ef-364b999267b3","ios":"levelo://app?vid=d6aadfac-d267-4a6b-b3ef-364b999267b3"},"vehicle_type_id":"4","last_reported":1701756611,"current_range_meters":28000,"station_id":"ce4bh012rcd13ifvqcv0","pricing_plan_id":"free"},{"bike_id":"191a7774-cf16-47b2-abfa-5049722c78c6","system_id":"levelo_inurba_marseille","lat":43.308795,"lon":5.396381,"is_reserved":false,"is_disabled":false,"rental_uris":{"android":"levelo://app?vid=191a7774-cf16-47b2-abfa-5049722c78c6","ios":"levelo://app?vid=191a7774-cf16-47b2-abfa-5049722c78c6"},"vehicle_type_id":"4","last_reported":1701756611,"current_range_meters":16400,"station_id":"ce4bh012rcd13ifvqcv0","pricing_plan_id":"free"},{"bike_id":"dfabbaf4-a870-473d-816c-1943083f2de2","system_id":"levelo_inurba_marseille","lat":43.308809,"lon":5.396411,"is_reserved":false,"is_disabled":false,"rental_uris":{"android":"levelo://app?vid=dfabbaf4-a870-473d-816c-1943083f2de2","ios":"levelo://app?vid=dfabbaf4-a870-473d-816c-1943083f2de2"},"vehicle_type_id":"4","last_reported":1701756611,"current_range_meters":20400,"station_id":"ce4bh012rcd13ifvqcv0","pricing_plan_id":"free"},{"bike_id":"76aec414-cc29-4815-850b-4164447a72db","system_id":"levelo_inurba_marseille","lat":43.308841,"lon":5.396425,"is_reserved":false,"is_disabled":false,"rental_uris":{"android":"levelo://app?vid=76aec414-cc29-4815-850b-4164447a72db","ios":"levelo://app?vid=76aec414-cc29-4815-850b-4164447a72db"},"vehicle_type_id":"4","last_reported":1701756611,"current_range_meters":26400,"station_id":"ce4bh012rcd13ifvqcv0","pricing_plan_id":"free"},{"bike_id":"38bfc64c-e407-472e-a143-8499a0f98f4b","system_id":"levelo_inurba_marseille","lat":43.309047,"lon":5.396551,"is_reserved":false,"is_disabled":false,"rental_uris":{"android":"levelo://app?vid=38bfc64c-e407-472e-a143-8499a0f98f4b","ios":"levelo://app?vid=38bfc64c-e407-472e-a143-8499a0f98f4b"},"vehicle_type_id":"4","last_reported":1701756611,"current_range_meters":31600,"station_id":"ce4bh012rcd13ifvqcv0","pricing_plan_id":"free"},{"bike_id":"5c7fbe37-874b-4e68-bfbb-5e06c304c2ce","system_id":"levelo_inurba_marseille","lat":43.313298,"lon":5.39701,"is_reserved":false,"is_disabled":false,"rental_uris":{"android":"levelo://app?vid=5c7fbe37-874b-4e68-bfbb-5e06c304c2ce","ios":"levelo://app?vid=5c7fbe37-874b-4e68-bfbb-5e06c304c2ce"},"vehicle_type_id":"4","last_reported":1701756611,"current_range_meters":31200,"station_id":"ce4bgvp2rcd13ifvqcu0","pricing_plan_id":"free"},{"bike_id":"bbc2a6ef-3d3d-4ce2-b1a2-5f9b6773529e","system_id":"levelo_inurba_marseille","lat":43.28941,"lon":5.36625,"is_reserved":false,"is_disabled":false,"rental_uris":{"android":"levelo://app?vid=bbc2a6ef-3d3d-4ce2-b1a2-5f9b6773529e","ios":"levelo://app?vid=bbc2a6ef-3d3d-4ce2-b1a2-5f9b6773529e"},"vehicle_type_id":"4","last_reported":1701756611,"current_range_meters":0,"station_id":"ce4bhap2rcd13ifvqek0","pricing_plan_id":"free"},{"bike_id":"b6dfea13-26f9-4eda-a0e7-4b2b54f2fd2d","system_id":"levelo_inurba_marseille","lat":43.290327,"lon":5.375711,"is_reserved":false,"is_disabled":false,"rental_uris":{"android":"levelo://app?vid=b6dfea13-26f9-4eda-a0e7-4b2b54f2fd2d","ios":"levelo://app?vid=b6dfea13-26f9-4eda-a0e7-4b2b54f2fd2d"},"vehicle_type_id":"4","last_reported":1701756611,"current_range_meters":26000,"station_id":"ce4bh692rcd13ifvqe90","pricing_plan_id":"free"},{"bike_id":"7f749e51-5b80-4970-8e85-be17fc07251f","system_id":"levelo_inurba_marseille","lat":43.289468,"lon":5.363719,"is_reserved":false,"is_disabled":false,"rental_uris":{"android":"levelo://app?vid=7f749e51-5b80-4970-8e85-be17fc07251f","ios":"levelo://app?vid=7f749e51-5b80-4970-8e85-be17fc07251f"},"vehicle_type_id":"4","last_reported":1701756611,"current_range_meters":24400,"station_id":"ce4bhc92rcd13ifvqetg","pricing_plan_id":"free"},{"bike_id":"befa3c5e-4c83-43a0-8311-03e7e93de56a","system_id":"levelo_inurba_marseille","lat":43.2941,"lon":5.38638,"is_reserved":false,"is_disabled":false,"rental_uris":{"android":"levelo://app?vid=befa3c5e-4c83-43a0-8311-03e7e93de56a","ios":"levelo://app?vid=befa3c5e-4c83-43a0-8311-03e7e93de56a"},"vehicle_type_id":"4","last_reported":1701756611,"current_range_meters":25200,"station_id":"ce4bh2h2rcd13ifvqdh0","pricing_plan_id":"free"},{"bike_id":"65138353-ee87-499d-8fd3-76df586b396f","system_id":"levelo_inurba_marseille","lat":43.289184,"lon":5.366408,"is_reserved":false,"is_disabled":false,"rental_uris":{"android":"levelo://app?vid=65138353-ee87-499d-8fd3-76df586b396f","ios":"levelo://app?vid=65138353-ee87-499d-8fd3-76df586b396f"},"vehicle_type_id":"4","last_reported":1701756611,"current_range_meters":23200,"station_id":"ce4bhap2rcd13ifvqek0","pricing_plan_id":"free"},{"bike_id":"13dca715-8744-4d06-b451-d6686626d9ea","system_id":"levelo_inurba_marseille","lat":43.289281,"lon":5.363919,"is_reserved":false,"is_disabled":false,"rental_uris":{"android":"levelo://app?vid=13dca715-8744-4d06-b451-d6686626d9ea","ios":"levelo://app?vid=13dca715-8744-4d06-b451-d6686626d9ea"},"vehicle_type_id":"4","last_reported":1701756611,"current_range_meters":29600,"station_id":"ce4bhc92rcd13ifvqetg","pricing_plan_id":"free"},{"bike_id":"f68e2c8b-de08-4ad7-b342-74483183b5be","system_id":"levelo_inurba_marseille","lat":43.33047,"lon":5.38912,"is_reserved":false,"is_disabled":false,"rental_uris":{"android":"levelo://app?vid=f68e2c8b-de08-4ad7-b342-74483183b5be","ios":"levelo://app?vid=f68e2c8b-de08-4ad7-b342-74483183b5be"},"vehicle_type_id":"4","last_reported":1701756611,"current_range_meters":31200,"station_id":"ce4bhr92rcd13ifvqhrg","pricing_plan_id":"free"},{"bike_id":"d2f450ec-f6c1-43c2-bbb2-b5392dd91d08","system_id":"levelo_inurba_marseille","lat":43.289743,"lon":5.378304,"is_reserved":false,"is_disabled":false,"rental_uris":{"android":"levelo://app?vid=d2f450ec-f6c1-43c2-bbb2-b5392dd91d08","ios":"levelo://app?vid=d2f450ec-f6c1-43c2-bbb2-b5392dd91d08"},"vehicle_type_id":"4","last_reported":1701756611,"current_range_meters":13600,"station_id":"ce4bh9p2rcd13ifvqed0","pricing_plan_id":"free"},{"bike_id":"d7f484c2-66bd-465f-b106-85374e6c1ddc","system_id":"levelo_inurba_marseille","lat":43.289743,"lon":5.378304,"is_reserved":false,"is_disabled":false,"rental_uris":{"android":"levelo://app?vid=d7f484c2-66bd-465f-b106-85374e6c1ddc","ios":"levelo://app?vid=d7f484c2-66bd-465f-b106-85374e6c1ddc"},"vehicle_type_id":"4","last_reported":1701756611,"current_range_meters":28000,"station_id":"ce4bh9p2rcd13ifvqed0","pricing_plan_id":"free"},{"bike_id":"a398b773-d3bc-4f3a-8754-7c54d54ac9af","system_id":"levelo_inurba_marseille","lat":43.273125,"lon":5.390731,"is_reserved":false,"is_disabled":false,"rental_uris":{"android":"levelo://app?vid=a398b773-d3bc-4f3a-8754-7c54d54ac9af","ios":"levelo://app?vid=a398b773-d3bc-4f3a-8754-7c54d54ac9af"},"vehicle_type_id":"4","last_reported":1701756611,"current_range_meters":25600,"station_id":"ce4bhgp2rcd13ifvqfe0","pricing_plan_id":"free"},{"bike_id":"45278979-3d35-4cf8-afa4-740305960434","system_id":"levelo_inurba_marseille","lat":43.312788,"lon":5.401618,"is_reserved":false,"is_disabled":false,"rental_uris":{"android":"levelo://app?vid=45278979-3d35-4cf8-afa4-740305960434","ios":"levelo://app?vid=45278979-3d35-4cf8-afa4-740305960434"},"vehicle_type_id":"4","last_reported":1701756611,"current_range_meters":30000,"station_id":"ce4bh092rcd13ifvqd30","pricing_plan_id":"free"},{"bike_id":"799c0d1d-4dbb-441f-8418-b8e953994f7d","system_id":"levelo_inurba_marseille","lat":43.312609,"lon":5.401662,"is_reserved":false,"is_disabled":false,"rental_uris":{"android":"levelo://app?vid=799c0d1d-4dbb-441f-8418-b8e953994f7d","ios":"levelo://app?vid=799c0d1d-4dbb-441f-8418-b8e953994f7d"},"vehicle_type_id":"4","last_reported":1701756611,"current_range_meters":23600,"station_id":"ce4bh092rcd13ifvqd30","pricing_plan_id":"free"},{"bike_id":"30b4ab6e-fd20-493b-ab85-0642f4b8b8b0","system_id":"levelo_inurba_marseille","lat":43.30932,"lon":5.40141,"is_reserved":false,"is_disabled":false,"rental_uris":{"android":"levelo://app?vid=30b4ab6e-fd20-493b-ab85-0642f4b8b8b0","ios":"levelo://app?vid=30b4ab6e-fd20-493b-ab85-0642f4b8b8b0"},"vehicle_type_id":"4","last_reported":1701756611,"current_range_meters":25200,"station_id":"ce4bgvp2rcd13ifvqct0","pricing_plan_id":"free"},{"bike_id":"777da234-5c08-4d18-bc53-ff5b3fbe2a72","system_id":"levelo_inurba_marseille","lat":43.33752,"lon":5.37435,"is_reserved":false,"is_disabled":false,"rental_uris":{"android":"levelo://app?vid=777da234-5c08-4d18-bc53-ff5b3fbe2a72","ios":"levelo://app?vid=777da234-5c08-4d18-bc53-ff5b3fbe2a72"},"vehicle_type_id":"4","last_reported":1701756611,"current_range_meters":27200,"station_id":"","pricing_plan_id":"free"},{"bike_id":"b1da507f-59bc-4bfa-9de7-dd18b0d37739","system_id":"levelo_inurba_marseille","lat":43.337509,"lon":5.374529,"is_reserved":false,"is_disabled":false,"rental_uris":{"android":"levelo://app?vid=b1da507f-59bc-4bfa-9de7-dd18b0d37739","ios":"levelo://app?vid=b1da507f-59bc-4bfa-9de7-dd18b0d37739"},"vehicle_type_id":"4","last_reported":1701756611,"current_range_meters":31200,"station_id":"","pricing_plan_id":"free"},{"bike_id":"2fbea006-0d22-445c-bfc1-d379dcddc1c1","system_id":"levelo_inurba_marseille","lat":43.337483,"lon":5.374741,"is_reserved":false,"is_disabled":false,"rental_uris":{"android":"levelo://app?vid=2fbea006-0d22-445c-bfc1-d379dcddc1c1","ios":"levelo://app?vid=2fbea006-0d22-445c-bfc1-d379dcddc1c1"},"vehicle_type_id":"4","last_reported":1701756611,"current_range_meters":30000,"station_id":"","pricing_plan_id":"free"},{"bike_id":"61e94894-252e-4e6e-9735-b09eceabfad5","system_id":"levelo_inurba_marseille","lat":43.337493,"lon":5.374721,"is_reserved":false,"is_disabled":false,"rental_uris":{"android":"levelo://app?vid=61e94894-252e-4e6e-9735-b09eceabfad5","ios":"levelo://app?vid=61e94894-252e-4e6e-9735-b09eceabfad5"},"vehicle_type_id":"4","last_reported":1701756611,"current_range_meters":30800,"station_id":"","pricing_plan_id":"free"},{"bike_id":"d7bb8ee7-5620-4ac2-8c2a-daf92ebb438b","system_id":"levelo_inurba_marseille","lat":43.306412,"lon":5.401035,"is_reserved":false,"is_disabled":false,"rental_uris":{"android":"levelo://app?vid=d7bb8ee7-5620-4ac2-8c2a-daf92ebb438b","ios":"levelo://app?vid=d7bb8ee7-5620-4ac2-8c2a-daf92ebb438b"},"vehicle_type_id":"4","last_reported":1701756611,"current_range_meters":24800,"station_id":"ce4bh112rcd13ifvqda0","pricing_plan_id":"free"},{"bike_id":"4afc425b-2cb4-4ed6-98f1-14e3da44a827","system_id":"levelo_inurba_marseille","lat":43.28727,"lon":5.36078,"is_reserved":false,"is_disabled":false,"rental_uris":{"android":"levelo://app?vid=4afc425b-2cb4-4ed6-98f1-14e3da44a827","ios":"levelo://app?vid=4afc425b-2cb4-4ed6-98f1-14e3da44a827"},"vehicle_type_id":"4","last_reported":1701756611,"current_range_meters":30000,"station_id":"cki0cbj6b192h4jlfktg","pricing_plan_id":"free"},{"bike_id":"d44c07e6-6fbf-437c-bb0a-e5ded7bffab2","system_id":"levelo_inurba_marseille","lat":43.28727,"lon":5.36078,"is_reserved":false,"is_disabled":false,"rental_uris":{"android":"levelo://app?vid=d44c07e6-6fbf-437c-bb0a-e5ded7bffab2","ios":"levelo://app?vid=d44c07e6-6fbf-437c-bb0a-e5ded7bffab2"},"vehicle_type_id":"4","last_reported":1701756611,"current_range_meters":30400,"station_id":"cki0cbj6b192h4jlfktg","pricing_plan_id":"free"},{"bike_id":"8ebda87e-5002-4c98-92ac-f7f34c3f1718","system_id":"levelo_inurba_marseille","lat":43.28727,"lon":5.36078,"is_reserved":false,"is_disabled":false,"rental_uris":{"android":"levelo://app?vid=8ebda87e-5002-4c98-92ac-f7f34c3f1718","ios":"levelo://app?vid=8ebda87e-5002-4c98-92ac-f7f34c3f1718"},"vehicle_type_id":"4","last_reported":1701756611,"current_range_meters":31200,"station_id":"cki0cbj6b192h4jlfktg","pricing_plan_id":"free"},{"bike_id":"c6fbb811-c40a-4722-8847-e94e18fd9530","system_id":"levelo_inurba_marseille","lat":43.286961,"lon":5.373785,"is_reserved":false,"is_disabled":false,"rental_uris":{"android":"levelo://app?vid=c6fbb811-c40a-4722-8847-e94e18fd9530","ios":"levelo://app?vid=c6fbb811-c40a-4722-8847-e94e18fd9530"},"vehicle_type_id":"4","last_reported":1701756611,"current_range_meters":27200,"station_id":"ce4bh3p2rcd13ifvqdq0","pricing_plan_id":"free"},{"bike_id":"8c8a9dc8-e0b6-481d-a164-a89970830747","system_id":"levelo_inurba_marseille","lat":43.29025,"lon":5.3864,"is_reserved":false,"is_disabled":false,"rental_uris":{"android":"levelo://app?vid=8c8a9dc8-e0b6-481d-a164-a89970830747","ios":"levelo://app?vid=8c8a9dc8-e0b6-481d-a164-a89970830747"},"vehicle_type_id":"4","last_reported":1701756611,"current_range_meters":23600,"station_id":"ce4bh4p2rcd13ifvqe0g","pricing_plan_id":"free"},{"bike_id":"b0937df3-6a56-4e12-a1a6-56251082b14e","system_id":"levelo_inurba_marseille","lat":43.286039,"lon":5.370679,"is_reserved":false,"is_disabled":false,"rental_uris":{"android":"levelo://app?vid=b0937df3-6a56-4e12-a1a6-56251082b14e","ios":"levelo://app?vid=b0937df3-6a56-4e12-a1a6-56251082b14e"},"vehicle_type_id":"4","last_reported":1701756611,"current_range_meters":28000,"station_id":"ce4bht12rcd13ifvqi60","pricing_plan_id":"free"},{"bike_id":"cebc581c-d768-4d70-9a38-1a47c44e063e","system_id":"levelo_inurba_marseille","lat":43.286039,"lon":5.370679,"is_reserved":false,"is_disabled":false,"rental_uris":{"android":"levelo://app?vid=cebc581c-d768-4d70-9a38-1a47c44e063e","ios":"levelo://app?vid=cebc581c-d768-4d70-9a38-1a47c44e063e"},"vehicle_type_id":"4","last_reported":1701756611,"current_range_meters":30400,"station_id":"ce4bht12rcd13ifvqi60","pricing_plan_id":"free"},{"bike_id":"dc24ef84-1bf5-4a16-a3fd-2181d2408726","system_id":"levelo_inurba_marseille","lat":43.31649,"lon":5.40434,"is_reserved":false,"is_disabled":false,"rental_uris":{"android":"levelo://app?vid=dc24ef84-1bf5-4a16-a3fd-2181d2408726","ios":"levelo://app?vid=dc24ef84-1bf5-4a16-a3fd-2181d2408726"},"vehicle_type_id":"4","last_reported":1701756611,"current_range_meters":10800,"station_id":"ce4bh012rcd13ifvqd00","pricing_plan_id":"free"},{"bike_id":"9bab4f44-3c98-451c-b321-0dcf90b11efd","system_id":"levelo_inurba_marseille","lat":43.316496,"lon":5.404451,"is_reserved":false,"is_disabled":false,"rental_uris":{"android":"levelo://app?vid=9bab4f44-3c98-451c-b321-0dcf90b11efd","ios":"levelo://app?vid=9bab4f44-3c98-451c-b321-0dcf90b11efd"},"vehicle_type_id":"4","last_reported":1701756611,"current_range_meters":30000,"station_id":"ce4bh012rcd13ifvqd00","pricing_plan_id":"free"},{"bike_id":"f4b5151a-97bd-49c2-be13-26e748213dde","system_id":"levelo_inurba_marseille","lat":43.284534,"lon":5.358662,"is_reserved":false,"is_disabled":false,"rental_uris":{"android":"levelo://app?vid=f4b5151a-97bd-49c2-be13-26e748213dde","ios":"levelo://app?vid=f4b5151a-97bd-49c2-be13-26e748213dde"},"vehicle_type_id":"4","last_reported":1701756611,"current_range_meters":29200,"station_id":"ce4bhah2rcd13ifvqei0","pricing_plan_id":"free"},{"bike_id":"39e9b74d-bee2-46ed-a350-90415a20b41a","system_id":"levelo_inurba_marseille","lat":43.285856,"lon":5.350771,"is_reserved":false,"is_disabled":false,"rental_uris":{"android":"levelo://app?vid=39e9b74d-bee2-46ed-a350-90415a20b41a","ios":"levelo://app?vid=39e9b74d-bee2-46ed-a350-90415a20b41a"},"vehicle_type_id":"4","last_reported":1701756611,"current_range_meters":400,"station_id":"ce4bhch2rcd13ifvqeug","pricing_plan_id":"free"},{"bike_id":"8c9d1716-3fd0-4559-9e75-969d7b769d14","system_id":"levelo_inurba_marseille","lat":43.286197,"lon":5.351047,"is_reserved":false,"is_disabled":false,"rental_uris":{"android":"levelo://app?vid=8c9d1716-3fd0-4559-9e75-969d7b769d14","ios":"levelo://app?vid=8c9d1716-3fd0-4559-9e75-969d7b769d14"},"vehicle_type_id":"4","last_reported":1701756611,"current_range_meters":26000,"station_id":"ce4bhch2rcd13ifvqeug","pricing_plan_id":"free"},{"bike_id":"18c02c14-36c0-4cf5-b980-7dd3dcf817cf","system_id":"levelo_inurba_marseille","lat":43.286188,"lon":5.351059,"is_reserved":false,"is_disabled":false,"rental_uris":{"android":"levelo://app?vid=18c02c14-36c0-4cf5-b980-7dd3dcf817cf","ios":"levelo://app?vid=18c02c14-36c0-4cf5-b980-7dd3dcf817cf"},"vehicle_type_id":"4","last_reported":1701756611,"current_range_meters":17600,"station_id":"ce4bhch2rcd13ifvqeug","pricing_plan_id":"free"},{"bike_id":"169c6444-b60b-49f0-b7a2-c93e30dfdc65","system_id":"levelo_inurba_marseille","lat":43.286188,"lon":5.351013,"is_reserved":false,"is_disabled":false,"rental_uris":{"android":"levelo://app?vid=169c6444-b60b-49f0-b7a2-c93e30dfdc65","ios":"levelo://app?vid=169c6444-b60b-49f0-b7a2-c93e30dfdc65"},"vehicle_type_id":"4","last_reported":1701756611,"current_range_meters":18800,"station_id":"ce4bhch2rcd13ifvqeug","pricing_plan_id":"free"},{"bike_id":"2933ab71-7a5a-48a9-8ff1-3f3616ca8f32","system_id":"levelo_inurba_marseille","lat":43.285856,"lon":5.350771,"is_reserved":false,"is_disabled":false,"rental_uris":{"android":"levelo://app?vid=2933ab71-7a5a-48a9-8ff1-3f3616ca8f32","ios":"levelo://app?vid=2933ab71-7a5a-48a9-8ff1-3f3616ca8f32"},"vehicle_type_id":"4","last_reported":1701756611,"current_range_meters":24800,"station_id":"ce4bhch2rcd13ifvqeug","pricing_plan_id":"free"},{"bike_id":"cedcaa43-9542-42e2-ab88-d3d53f689079","system_id":"levelo_inurba_marseille","lat":43.283998,"lon":5.375062,"is_reserved":false,"is_disabled":false,"rental_uris":{"android":"levelo://app?vid=cedcaa43-9542-42e2-ab88-d3d53f689079","ios":"levelo://app?vid=cedcaa43-9542-42e2-ab88-d3d53f689079"},"vehicle_type_id":"4","last_reported":1701756611,"current_range_meters":20000,"station_id":"ce4bh412rcd13ifvqds0","pricing_plan_id":"free"},{"bike_id":"944910aa-7379-458f-a739-93fdeecdff23","system_id":"levelo_inurba_marseille","lat":43.283998,"lon":5.375062,"is_reserved":false,"is_disabled":false,"rental_uris":{"android":"levelo://app?vid=944910aa-7379-458f-a739-93fdeecdff23","ios":"levelo://app?vid=944910aa-7379-458f-a739-93fdeecdff23"},"vehicle_type_id":"4","last_reported":1701756611,"current_range_meters":800,"station_id":"ce4bh412rcd13ifvqds0","pricing_plan_id":"free"},{"bike_id":"93852024-5247-4ef4-9d70-aaa5c1544139","system_id":"levelo_inurba_marseille","lat":43.2957,"lon":5.39975,"is_reserved":false,"is_disabled":false,"rental_uris":{"android":"levelo://app?vid=93852024-5247-4ef4-9d70-aaa5c1544139","ios":"levelo://app?vid=93852024-5247-4ef4-9d70-aaa5c1544139"},"vehicle_type_id":"4","last_reported":1701756611,"current_range_meters":27600,"station_id":"ce4bh312rcd13ifvqdj0","pricing_plan_id":"free"},{"bike_id":"8762c6c7-7c7e-445e-96a7-1bfa5d1bf4a2","system_id":"levelo_inurba_marseille","lat":43.286595,"lon":5.386795,"is_reserved":false,"is_disabled":false,"rental_uris":{"android":"levelo://app?vid=8762c6c7-7c7e-445e-96a7-1bfa5d1bf4a2","ios":"levelo://app?vid=8762c6c7-7c7e-445e-96a7-1bfa5d1bf4a2"},"vehicle_type_id":"4","last_reported":1701756611,"current_range_meters":28000,"station_id":"ce4bh492rcd13ifvqdug","pricing_plan_id":"free"},{"bike_id":"3aaa766c-12c1-4485-850d-b495677f1267","system_id":"levelo_inurba_marseille","lat":43.319179,"lon":5.407725,"is_reserved":false,"is_disabled":false,"rental_uris":{"android":"levelo://app?vid=3aaa766c-12c1-4485-850d-b495677f1267","ios":"levelo://app?vid=3aaa766c-12c1-4485-850d-b495677f1267"},"vehicle_type_id":"4","last_reported":1701756611,"current_range_meters":30000,"station_id":"ce4bhq12rcd13ifvqhig","pricing_plan_id":"free"},{"bike_id":"37637d11-0d2c-4d6c-8684-6f3fad115197","system_id":"levelo_inurba_marseille","lat":43.323464,"lon":5.406297,"is_reserved":false,"is_disabled":false,"rental_uris":{"android":"levelo://app?vid=37637d11-0d2c-4d6c-8684-6f3fad115197","ios":"levelo://app?vid=37637d11-0d2c-4d6c-8684-6f3fad115197"},"vehicle_type_id":"4","last_reported":1701756611,"current_range_meters":31200,"station_id":"ce4bhq92rcd13ifvqhjg","pricing_plan_id":"free"},{"bike_id":"60e8c703-d82c-49c9-bc5f-f7e8deb1ac94","system_id":"levelo_inurba_marseille","lat":43.323464,"lon":5.406297,"is_reserved":false,"is_disabled":false,"rental_uris":{"android":"levelo://app?vid=60e8c703-d82c-49c9-bc5f-f7e8deb1ac94","ios":"levelo://app?vid=60e8c703-d82c-49c9-bc5f-f7e8deb1ac94"},"vehicle_type_id":"4","last_reported":1701756611,"current_range_meters":31200,"station_id":"ce4bhq92rcd13ifvqhjg","pricing_plan_id":"free"},{"bike_id":"aa14360c-c056-4ae5-930e-01d87266e046","system_id":"levelo_inurba_marseille","lat":43.323464,"lon":5.406297,"is_reserved":false,"is_disabled":false,"rental_uris":{"android":"levelo://app?vid=aa14360c-c056-4ae5-930e-01d87266e046","ios":"levelo://app?vid=aa14360c-c056-4ae5-930e-01d87266e046"},"vehicle_type_id":"4","last_reported":1701756611,"current_range_meters":27600,"station_id":"ce4bhq92rcd13ifvqhjg","pricing_plan_id":"free"},{"bike_id":"bc6e89c3-ca9d-42ff-8f93-b34275f1dcdd","system_id":"levelo_inurba_marseille","lat":43.284793,"lon":5.384113,"is_reserved":false,"is_disabled":false,"rental_uris":{"android":"levelo://app?vid=bc6e89c3-ca9d-42ff-8f93-b34275f1dcdd","ios":"levelo://app?vid=bc6e89c3-ca9d-42ff-8f93-b34275f1dcdd"},"vehicle_type_id":"4","last_reported":1701756611,"current_range_meters":31200,"station_id":"ce4bh512rcd13ifvqe3g","pricing_plan_id":"free"},{"bike_id":"309122c1-0d59-46a1-9e5b-901ca019ef83","system_id":"levelo_inurba_marseille","lat":43.288501,"lon":5.393087,"is_reserved":false,"is_disabled":false,"rental_uris":{"android":"levelo://app?vid=309122c1-0d59-46a1-9e5b-901ca019ef83","ios":"levelo://app?vid=309122c1-0d59-46a1-9e5b-901ca019ef83"},"vehicle_type_id":"4","last_reported":1701756611,"current_range_meters":27200,"station_id":"ce4bh2p2rcd13ifvqdi0","pricing_plan_id":"free"},{"bike_id":"d58314f1-eceb-4068-b21c-c7c3312f3888","system_id":"levelo_inurba_marseille","lat":43.284219,"lon":5.3497,"is_reserved":false,"is_disabled":false,"rental_uris":{"android":"levelo://app?vid=d58314f1-eceb-4068-b21c-c7c3312f3888","ios":"levelo://app?vid=d58314f1-eceb-4068-b21c-c7c3312f3888"},"vehicle_type_id":"4","last_reported":1701756611,"current_range_meters":24000,"station_id":"ce4bhbh2rcd13ifvqepg","pricing_plan_id":"free"},{"bike_id":"899010a4-2c52-44b5-8656-214d956ef4e4","system_id":"levelo_inurba_marseille","lat":43.2927,"lon":5.4012,"is_reserved":false,"is_disabled":false,"rental_uris":{"android":"levelo://app?vid=899010a4-2c52-44b5-8656-214d956ef4e4","ios":"levelo://app?vid=899010a4-2c52-44b5-8656-214d956ef4e4"},"vehicle_type_id":"4","last_reported":1701756611,"current_range_meters":14800,"station_id":"ce4bh312rcd13ifvqdk0","pricing_plan_id":"free"},{"bike_id":"25ab3021-f5f7-4d09-a76b-2be2a7177dfb","system_id":"levelo_inurba_marseille","lat":43.282744,"lon":5.350533,"is_reserved":false,"is_disabled":false,"rental_uris":{"android":"levelo://app?vid=25ab3021-f5f7-4d09-a76b-2be2a7177dfb","ios":"levelo://app?vid=25ab3021-f5f7-4d09-a76b-2be2a7177dfb"},"vehicle_type_id":"4","last_reported":1701756611,"current_range_meters":28800,"station_id":"ce4bhbp2rcd13ifvqerg","pricing_plan_id":"free"},{"bike_id":"2b7c98c9-f0d4-49c5-8761-90281ac7c526","system_id":"levelo_inurba_marseille","lat":43.283502,"lon":5.386471,"is_reserved":false,"is_disabled":false,"rental_uris":{"android":"levelo://app?vid=2b7c98c9-f0d4-49c5-8761-90281ac7c526","ios":"levelo://app?vid=2b7c98c9-f0d4-49c5-8761-90281ac7c526"},"vehicle_type_id":"4","last_reported":1701756611,"current_range_meters":28400,"station_id":"ce4bh492rcd13ifvqdvg","pricing_plan_id":"free"},{"bike_id":"052c7fc7-ace5-456c-a6c3-741f73450385","system_id":"levelo_inurba_marseille","lat":43.28039,"lon":5.369297,"is_reserved":false,"is_disabled":false,"rental_uris":{"android":"levelo://app?vid=052c7fc7-ace5-456c-a6c3-741f73450385","ios":"levelo://app?vid=052c7fc7-ace5-456c-a6c3-741f73450385"},"vehicle_type_id":"4","last_reported":1701756611,"current_range_meters":31200,"station_id":"ce4bha12rcd13ifvqef0","pricing_plan_id":"free"},{"bike_id":"dd3edbec-e53d-4db9-9a2b-757cc47bce65","system_id":"levelo_inurba_marseille","lat":43.28039,"lon":5.369297,"is_reserved":false,"is_disabled":false,"rental_uris":{"android":"levelo://app?vid=dd3edbec-e53d-4db9-9a2b-757cc47bce65","ios":"levelo://app?vid=dd3edbec-e53d-4db9-9a2b-757cc47bce65"},"vehicle_type_id":"4","last_reported":1701756611,"current_range_meters":29600,"station_id":"ce4bha12rcd13ifvqef0","pricing_plan_id":"free"},{"bike_id":"a988fa12-7444-415f-bedd-fa7ab0120f31","system_id":"levelo_inurba_marseille","lat":43.280382,"lon":5.369291,"is_reserved":false,"is_disabled":false,"rental_uris":{"android":"levelo://app?vid=a988fa12-7444-415f-bedd-fa7ab0120f31","ios":"levelo://app?vid=a988fa12-7444-415f-bedd-fa7ab0120f31"},"vehicle_type_id":"4","last_reported":1701756611,"current_range_meters":27200,"station_id":"ce4bha12rcd13ifvqef0","pricing_plan_id":"free"},{"bike_id":"378e06e1-57f0-47f1-a348-dd7d576fe732","system_id":"levelo_inurba_marseille","lat":43.280382,"lon":5.369291,"is_reserved":false,"is_disabled":false,"rental_uris":{"android":"levelo://app?vid=378e06e1-57f0-47f1-a348-dd7d576fe732","ios":"levelo://app?vid=378e06e1-57f0-47f1-a348-dd7d576fe732"},"vehicle_type_id":"4","last_reported":1701756611,"current_range_meters":31200,"station_id":"ce4bha12rcd13ifvqef0","pricing_plan_id":"free"},{"bike_id":"f23235c2-e3ab-417e-b9e8-1d0ae6d124bb","system_id":"levelo_inurba_marseille","lat":43.281044,"lon":5.378308,"is_reserved":false,"is_disabled":false,"rental_uris":{"android":"levelo://app?vid=f23235c2-e3ab-417e-b9e8-1d0ae6d124bb","ios":"levelo://app?vid=f23235c2-e3ab-417e-b9e8-1d0ae6d124bb"},"vehicle_type_id":"4","last_reported":1701756611,"current_range_meters":31600,"station_id":"ce4bha12rcd13ifvqee0","pricing_plan_id":"free"},{"bike_id":"03abf90b-e319-4f6f-b30a-09e8216c98fa","system_id":"levelo_inurba_marseille","lat":43.281044,"lon":5.378308,"is_reserved":false,"is_disabled":false,"rental_uris":{"android":"levelo://app?vid=03abf90b-e319-4f6f-b30a-09e8216c98fa","ios":"levelo://app?vid=03abf90b-e319-4f6f-b30a-09e8216c98fa"},"vehicle_type_id":"4","last_reported":1701756611,"current_range_meters":10800,"station_id":"ce4bha12rcd13ifvqee0","pricing_plan_id":"free"},{"bike_id":"01cd0cbb-ee6a-412a-b70b-1208d0cab111","system_id":"levelo_inurba_marseille","lat":43.281044,"lon":5.378308,"is_reserved":false,"is_disabled":false,"rental_uris":{"android":"levelo://app?vid=01cd0cbb-ee6a-412a-b70b-1208d0cab111","ios":"levelo://app?vid=01cd0cbb-ee6a-412a-b70b-1208d0cab111"},"vehicle_type_id":"4","last_reported":1701756611,"current_range_meters":21600,"station_id":"ce4bha12rcd13ifvqee0","pricing_plan_id":"free"},{"bike_id":"25784563-9146-4597-8edd-4a1e9ceccd18","system_id":"levelo_inurba_marseille","lat":43.296263,"lon":5.40601,"is_reserved":false,"is_disabled":false,"rental_uris":{"android":"levelo://app?vid=25784563-9146-4597-8edd-4a1e9ceccd18","ios":"levelo://app?vid=25784563-9146-4597-8edd-4a1e9ceccd18"},"vehicle_type_id":"4","last_reported":1701756611,"current_range_meters":29600,"station_id":"ce4bh0h2rcd13ifvqd60","pricing_plan_id":"free"},{"bike_id":"0ed1ca16-cb00-4f09-acbd-555506dba99b","system_id":"levelo_inurba_marseille","lat":43.284427,"lon":5.39205,"is_reserved":false,"is_disabled":false,"rental_uris":{"android":"levelo://app?vid=0ed1ca16-cb00-4f09-acbd-555506dba99b","ios":"levelo://app?vid=0ed1ca16-cb00-4f09-acbd-555506dba99b"},"vehicle_type_id":"4","last_reported":1701756611,"current_range_meters":26000,"station_id":"ce4bhoh2rcd13ifvqh5g","pricing_plan_id":"free"},{"bike_id":"f71c3e4b-56cc-4b56-8ba6-eea098969b60","system_id":"levelo_inurba_marseille","lat":43.326605,"lon":5.409903,"is_reserved":false,"is_disabled":false,"rental_uris":{"android":"levelo://app?vid=f71c3e4b-56cc-4b56-8ba6-eea098969b60","ios":"levelo://app?vid=f71c3e4b-56cc-4b56-8ba6-eea098969b60"},"vehicle_type_id":"4","last_reported":1701756611,"current_range_meters":26800,"station_id":"ce4bhpp2rcd13ifvqhgg","pricing_plan_id":"free"},{"bike_id":"efb5fe83-e3e3-4add-8540-6e61e1a847bb","system_id":"levelo_inurba_marseille","lat":43.326619,"lon":5.409869,"is_reserved":false,"is_disabled":false,"rental_uris":{"android":"levelo://app?vid=efb5fe83-e3e3-4add-8540-6e61e1a847bb","ios":"levelo://app?vid=efb5fe83-e3e3-4add-8540-6e61e1a847bb"},"vehicle_type_id":"4","last_reported":1701756611,"current_range_meters":25600,"station_id":"ce4bhpp2rcd13ifvqhgg","pricing_plan_id":"free"},{"bike_id":"a80ed89f-3589-45cf-80ca-3459072dfb32","system_id":"levelo_inurba_marseille","lat":43.304145,"lon":5.412828,"is_reserved":false,"is_disabled":false,"rental_uris":{"android":"levelo://app?vid=a80ed89f-3589-45cf-80ca-3459072dfb32","ios":"levelo://app?vid=a80ed89f-3589-45cf-80ca-3459072dfb32"},"vehicle_type_id":"4","last_reported":1701756611,"current_range_meters":23200,"station_id":"ce4bhop2rcd13ifvqh8g","pricing_plan_id":"free"},{"bike_id":"bd21c7ec-215f-4653-bafe-20f78ed8cf64","system_id":"levelo_inurba_marseille","lat":43.304188,"lon":5.412904,"is_reserved":false,"is_disabled":false,"rental_uris":{"android":"levelo://app?vid=bd21c7ec-215f-4653-bafe-20f78ed8cf64","ios":"levelo://app?vid=bd21c7ec-215f-4653-bafe-20f78ed8cf64"},"vehicle_type_id":"4","last_reported":1701756611,"current_range_meters":31600,"station_id":"ce4bhop2rcd13ifvqh8g","pricing_plan_id":"free"},{"bike_id":"a9b2653d-42e7-49b2-bf82-ec0a5f54a5d4","system_id":"levelo_inurba_marseille","lat":43.279087,"lon":5.380114,"is_reserved":false,"is_disabled":false,"rental_uris":{"android":"levelo://app?vid=a9b2653d-42e7-49b2-bf82-ec0a5f54a5d4","ios":"levelo://app?vid=a9b2653d-42e7-49b2-bf82-ec0a5f54a5d4"},"vehicle_type_id":"4","last_reported":1701756611,"current_range_meters":27600,"station_id":"ce4bhf92rcd13ifvqf50","pricing_plan_id":"free"},{"bike_id":"766b6997-1ef1-4ea4-9578-d92bd8f24a2f","system_id":"levelo_inurba_marseille","lat":43.299579,"lon":5.413255,"is_reserved":false,"is_disabled":false,"rental_uris":{"android":"levelo://app?vid=766b6997-1ef1-4ea4-9578-d92bd8f24a2f","ios":"levelo://app?vid=766b6997-1ef1-4ea4-9578-d92bd8f24a2f"},"vehicle_type_id":"4","last_reported":1701756611,"current_range_meters":28400,"station_id":"ce4bhp12rcd13ifvqh9g","pricing_plan_id":"free"},{"bike_id":"3dd03658-d02a-45c1-a9ba-09c2f0a429c1","system_id":"levelo_inurba_marseille","lat":43.320045,"lon":5.415046,"is_reserved":false,"is_disabled":false,"rental_uris":{"android":"levelo://app?vid=3dd03658-d02a-45c1-a9ba-09c2f0a429c1","ios":"levelo://app?vid=3dd03658-d02a-45c1-a9ba-09c2f0a429c1"},"vehicle_type_id":"4","last_reported":1701756611,"current_range_meters":27200,"station_id":"ce4bhq92rcd13ifvqhkg","pricing_plan_id":"free"},{"bike_id":"856435bf-f6b6-4f93-b5fc-97f652f757e0","system_id":"levelo_inurba_marseille","lat":43.279742,"lon":5.38744,"is_reserved":false,"is_disabled":false,"rental_uris":{"android":"levelo://app?vid=856435bf-f6b6-4f93-b5fc-97f652f757e0","ios":"levelo://app?vid=856435bf-f6b6-4f93-b5fc-97f652f757e0"},"vehicle_type_id":"4","last_reported":1701756611,"current_range_meters":31200,"station_id":"ce4bhg12rcd13ifvqf80","pricing_plan_id":"free"},{"bike_id":"c1f235e0-cd02-4989-b893-0c77012f0d4a","system_id":"levelo_inurba_marseille","lat":43.276142,"lon":5.361177,"is_reserved":false,"is_disabled":false,"rental_uris":{"android":"levelo://app?vid=c1f235e0-cd02-4989-b893-0c77012f0d4a","ios":"levelo://app?vid=c1f235e0-cd02-4989-b893-0c77012f0d4a"},"vehicle_type_id":"4","last_reported":1701756611,"current_range_meters":11600,"station_id":"","pricing_plan_id":"free"},{"bike_id":"e9581d9c-efce-4f66-bb8b-913a40cd6b35","system_id":"levelo_inurba_marseille","lat":43.278401,"lon":5.392152,"is_reserved":false,"is_disabled":false,"rental_uris":{"android":"levelo://app?vid=e9581d9c-efce-4f66-bb8b-913a40cd6b35","ios":"levelo://app?vid=e9581d9c-efce-4f66-bb8b-913a40cd6b35"},"vehicle_type_id":"4","last_reported":1701756611,"current_range_meters":27600,"station_id":"ce4bhjp2rcd13ifvqga0","pricing_plan_id":"free"},{"bike_id":"10f10f2d-aec0-4798-a089-8ffafc7ef6a0","system_id":"levelo_inurba_marseille","lat":43.33612,"lon":5.410321,"is_reserved":false,"is_disabled":false,"rental_uris":{"android":"levelo://app?vid=10f10f2d-aec0-4798-a089-8ffafc7ef6a0","ios":"levelo://app?vid=10f10f2d-aec0-4798-a089-8ffafc7ef6a0"},"vehicle_type_id":"4","last_reported":1701756611,"current_range_meters":15600,"station_id":"ce4bhqh2rcd13ifvqhmg","pricing_plan_id":"free"},{"bike_id":"1258299f-d7e4-429c-a530-9c376d622f15","system_id":"levelo_inurba_marseille","lat":43.33612,"lon":5.410321,"is_reserved":false,"is_disabled":false,"rental_uris":{"android":"levelo://app?vid=1258299f-d7e4-429c-a530-9c376d622f15","ios":"levelo://app?vid=1258299f-d7e4-429c-a530-9c376d622f15"},"vehicle_type_id":"4","last_reported":1701756611,"current_range_meters":31600,"station_id":"ce4bhqh2rcd13ifvqhmg","pricing_plan_id":"free"},{"bike_id":"8b9725a9-ead2-4b9b-b9dc-d92095406de7","system_id":"levelo_inurba_marseille","lat":43.336148,"lon":5.410349,"is_reserved":false,"is_disabled":false,"rental_uris":{"android":"levelo://app?vid=8b9725a9-ead2-4b9b-b9dc-d92095406de7","ios":"levelo://app?vid=8b9725a9-ead2-4b9b-b9dc-d92095406de7"},"vehicle_type_id":"4","last_reported":1701756611,"current_range_meters":29600,"station_id":"ce4bhqh2rcd13ifvqhmg","pricing_plan_id":"free"},{"bike_id":"faf55bbe-f5c0-4dc6-afde-2de7efdac4da","system_id":"levelo_inurba_marseille","lat":43.33612,"lon":5.410321,"is_reserved":false,"is_disabled":false,"rental_uris":{"android":"levelo://app?vid=faf55bbe-f5c0-4dc6-afde-2de7efdac4da","ios":"levelo://app?vid=faf55bbe-f5c0-4dc6-afde-2de7efdac4da"},"vehicle_type_id":"4","last_reported":1701756611,"current_range_meters":20400,"station_id":"ce4bhqh2rcd13ifvqhmg","pricing_plan_id":"free"},{"bike_id":"671fb5f1-2a82-4780-a5b0-30c24b7c7c9c","system_id":"levelo_inurba_marseille","lat":43.33612,"lon":5.410321,"is_reserved":false,"is_disabled":false,"rental_uris":{"android":"levelo://app?vid=671fb5f1-2a82-4780-a5b0-30c24b7c7c9c","ios":"levelo://app?vid=671fb5f1-2a82-4780-a5b0-30c24b7c7c9c"},"vehicle_type_id":"4","last_reported":1701756611,"current_range_meters":31600,"station_id":"ce4bhqh2rcd13ifvqhmg","pricing_plan_id":"free"},{"bike_id":"502feb3a-2ccb-4cfe-9d56-9e94c6b630e7","system_id":"levelo_inurba_marseille","lat":43.33612,"lon":5.410321,"is_reserved":false,"is_disabled":false,"rental_uris":{"android":"levelo://app?vid=502feb3a-2ccb-4cfe-9d56-9e94c6b630e7","ios":"levelo://app?vid=502feb3a-2ccb-4cfe-9d56-9e94c6b630e7"},"vehicle_type_id":"4","last_reported":1701756611,"current_range_meters":18000,"station_id":"ce4bhqh2rcd13ifvqhmg","pricing_plan_id":"free"},{"bike_id":"6dee21f9-0077-4751-a68d-f121846d4b85","system_id":"levelo_inurba_marseille","lat":43.336134,"lon":5.410341,"is_reserved":false,"is_disabled":false,"rental_uris":{"android":"levelo://app?vid=6dee21f9-0077-4751-a68d-f121846d4b85","ios":"levelo://app?vid=6dee21f9-0077-4751-a68d-f121846d4b85"},"vehicle_type_id":"4","last_reported":1701756611,"current_range_meters":11600,"station_id":"ce4bhqh2rcd13ifvqhmg","pricing_plan_id":"free"},{"bike_id":"650086f7-a4cd-447e-816d-d905cd9236c5","system_id":"levelo_inurba_marseille","lat":43.336134,"lon":5.410341,"is_reserved":false,"is_disabled":false,"rental_uris":{"android":"levelo://app?vid=650086f7-a4cd-447e-816d-d905cd9236c5","ios":"levelo://app?vid=650086f7-a4cd-447e-816d-d905cd9236c5"},"vehicle_type_id":"4","last_reported":1701756611,"current_range_meters":28400,"station_id":"ce4bhqh2rcd13ifvqhmg","pricing_plan_id":"free"},{"bike_id":"f915442d-388e-49eb-ad8f-2ed51769f785","system_id":"levelo_inurba_marseille","lat":43.28005,"lon":5.40001,"is_reserved":false,"is_disabled":false,"rental_uris":{"android":"levelo://app?vid=f915442d-388e-49eb-ad8f-2ed51769f785","ios":"levelo://app?vid=f915442d-388e-49eb-ad8f-2ed51769f785"},"vehicle_type_id":"4","last_reported":1701756611,"current_range_meters":30000,"station_id":"","pricing_plan_id":"free"},{"bike_id":"5f3f65df-c08a-48bd-9c38-56c6eb8de133","system_id":"levelo_inurba_marseille","lat":43.279975,"lon":5.40009,"is_reserved":false,"is_disabled":false,"rental_uris":{"android":"levelo://app?vid=5f3f65df-c08a-48bd-9c38-56c6eb8de133","ios":"levelo://app?vid=5f3f65df-c08a-48bd-9c38-56c6eb8de133"},"vehicle_type_id":"4","last_reported":1701756611,"current_range_meters":27600,"station_id":"ce4bho92rcd13ifvqh4g","pricing_plan_id":"free"},{"bike_id":"1cfc9c10-b769-4622-8b17-c929c7638b3b","system_id":"levelo_inurba_marseille","lat":43.279952,"lon":5.400085,"is_reserved":false,"is_disabled":false,"rental_uris":{"android":"levelo://app?vid=1cfc9c10-b769-4622-8b17-c929c7638b3b","ios":"levelo://app?vid=1cfc9c10-b769-4622-8b17-c929c7638b3b"},"vehicle_type_id":"4","last_reported":1701756611,"current_range_meters":24800,"station_id":"ce4bho92rcd13ifvqh4g","pricing_plan_id":"free"},{"bike_id":"a3aef011-b611-4e5e-bf0b-b705e09a22b1","system_id":"levelo_inurba_marseille","lat":43.317121,"lon":5.423936,"is_reserved":false,"is_disabled":false,"rental_uris":{"android":"levelo://app?vid=a3aef011-b611-4e5e-bf0b-b705e09a22b1","ios":"levelo://app?vid=a3aef011-b611-4e5e-bf0b-b705e09a22b1"},"vehicle_type_id":"4","last_reported":1701756611,"current_range_meters":27600,"station_id":"ce4bhp92rcd13ifvqhbg","pricing_plan_id":"free"},{"bike_id":"49d03b61-ccf2-4434-94f9-b61e327e1f7c","system_id":"levelo_inurba_marseille","lat":43.317121,"lon":5.423936,"is_reserved":false,"is_disabled":false,"rental_uris":{"android":"levelo://app?vid=49d03b61-ccf2-4434-94f9-b61e327e1f7c","ios":"levelo://app?vid=49d03b61-ccf2-4434-94f9-b61e327e1f7c"},"vehicle_type_id":"4","last_reported":1701756611,"current_range_meters":28000,"station_id":"ce4bhp92rcd13ifvqhbg","pricing_plan_id":"free"},{"bike_id":"3279ab10-c559-4255-80ce-132e262777da","system_id":"levelo_inurba_marseille","lat":43.27625,"lon":5.39493,"is_reserved":false,"is_disabled":false,"rental_uris":{"android":"levelo://app?vid=3279ab10-c559-4255-80ce-132e262777da","ios":"levelo://app?vid=3279ab10-c559-4255-80ce-132e262777da"},"vehicle_type_id":"4","last_reported":1701756611,"current_range_meters":20400,"station_id":"","pricing_plan_id":"free"},{"bike_id":"e8996239-bac7-4ee1-815d-f1a52210aefa","system_id":"levelo_inurba_marseille","lat":43.317121,"lon":5.423936,"is_reserved":false,"is_disabled":false,"rental_uris":{"android":"levelo://app?vid=e8996239-bac7-4ee1-815d-f1a52210aefa","ios":"levelo://app?vid=e8996239-bac7-4ee1-815d-f1a52210aefa"},"vehicle_type_id":"4","last_reported":1701756611,"current_range_meters":30400,"station_id":"ce4bhp92rcd13ifvqhbg","pricing_plan_id":"free"},{"bike_id":"fb7b11b6-2e5c-4a6c-b668-e3de222703b6","system_id":"levelo_inurba_marseille","lat":43.310785,"lon":5.424305,"is_reserved":false,"is_disabled":false,"rental_uris":{"android":"levelo://app?vid=fb7b11b6-2e5c-4a6c-b668-e3de222703b6","ios":"levelo://app?vid=fb7b11b6-2e5c-4a6c-b668-e3de222703b6"},"vehicle_type_id":"4","last_reported":1701756611,"current_range_meters":27600,"station_id":"ce4bhp92rcd13ifvqhag","pricing_plan_id":"free"},{"bike_id":"4f4e5d52-124e-4276-8af2-2d2503944d2e","system_id":"levelo_inurba_marseille","lat":43.340804,"lon":5.410219,"is_reserved":false,"is_disabled":false,"rental_uris":{"android":"levelo://app?vid=4f4e5d52-124e-4276-8af2-2d2503944d2e","ios":"levelo://app?vid=4f4e5d52-124e-4276-8af2-2d2503944d2e"},"vehicle_type_id":"4","last_reported":1701756611,"current_range_meters":29200,"station_id":"ce4bhqh2rcd13ifvqhlg","pricing_plan_id":"free"},{"bike_id":"910fd3aa-d2e0-4553-894a-6161d41c7fcd","system_id":"levelo_inurba_marseille","lat":43.275773,"lon":5.395303,"is_reserved":false,"is_disabled":false,"rental_uris":{"android":"levelo://app?vid=910fd3aa-d2e0-4553-894a-6161d41c7fcd","ios":"levelo://app?vid=910fd3aa-d2e0-4553-894a-6161d41c7fcd"},"vehicle_type_id":"4","last_reported":1701756611,"current_range_meters":7200,"station_id":"","pricing_plan_id":"free"},{"bike_id":"17db11e9-ff6b-4265-a772-9fca0f8a787a","system_id":"levelo_inurba_marseille","lat":43.28416,"lon":5.41031,"is_reserved":false,"is_disabled":false,"rental_uris":{"android":"levelo://app?vid=17db11e9-ff6b-4265-a772-9fca0f8a787a","ios":"levelo://app?vid=17db11e9-ff6b-4265-a772-9fca0f8a787a"},"vehicle_type_id":"4","last_reported":1701756611,"current_range_meters":13600,"station_id":"","pricing_plan_id":"free"},{"bike_id":"719c96fd-cbaf-4302-8ee1-bacd622624b7","system_id":"levelo_inurba_marseille","lat":43.295511,"lon":5.422926,"is_reserved":false,"is_disabled":false,"rental_uris":{"android":"levelo://app?vid=719c96fd-cbaf-4302-8ee1-bacd622624b7","ios":"levelo://app?vid=719c96fd-cbaf-4302-8ee1-bacd622624b7"},"vehicle_type_id":"4","last_reported":1701756611,"current_range_meters":30000,"station_id":"ce4bhph2rcd13ifvqhdg","pricing_plan_id":"free"},{"bike_id":"4d227eb7-d36a-425e-8f14-420e16d126ca","system_id":"levelo_inurba_marseille","lat":43.272083,"lon":5.392507,"is_reserved":false,"is_disabled":false,"rental_uris":{"android":"levelo://app?vid=4d227eb7-d36a-425e-8f14-420e16d126ca","ios":"levelo://app?vid=4d227eb7-d36a-425e-8f14-420e16d126ca"},"vehicle_type_id":"4","last_reported":1701756611,"current_range_meters":22800,"station_id":"","pricing_plan_id":"free"},{"bike_id":"77e1b16a-b057-42f0-940a-e4f493319ff3","system_id":"levelo_inurba_marseille","lat":43.27818,"lon":5.40705,"is_reserved":false,"is_disabled":false,"rental_uris":{"android":"levelo://app?vid=77e1b16a-b057-42f0-940a-e4f493319ff3","ios":"levelo://app?vid=77e1b16a-b057-42f0-940a-e4f493319ff3"},"vehicle_type_id":"4","last_reported":1701756611,"current_range_meters":29600,"station_id":"ce4bhnh2rcd13ifvqgtg","pricing_plan_id":"free"},{"bike_id":"3318d069-295b-4dfa-b9fb-69de068c2dae","system_id":"levelo_inurba_marseille","lat":43.278158,"lon":5.407074,"is_reserved":false,"is_disabled":false,"rental_uris":{"android":"levelo://app?vid=3318d069-295b-4dfa-b9fb-69de068c2dae","ios":"levelo://app?vid=3318d069-295b-4dfa-b9fb-69de068c2dae"},"vehicle_type_id":"4","last_reported":1701756611,"current_range_meters":27600,"station_id":"ce4bhnh2rcd13ifvqgtg","pricing_plan_id":"free"},{"bike_id":"1212c2c1-349b-4da8-a22b-a470229a9b19","system_id":"levelo_inurba_marseille","lat":43.27815,"lon":5.407066,"is_reserved":false,"is_disabled":false,"rental_uris":{"android":"levelo://app?vid=1212c2c1-349b-4da8-a22b-a470229a9b19","ios":"levelo://app?vid=1212c2c1-349b-4da8-a22b-a470229a9b19"},"vehicle_type_id":"4","last_reported":1701756611,"current_range_meters":28400,"station_id":"ce4bhnh2rcd13ifvqgtg","pricing_plan_id":"free"},{"bike_id":"903cfa4a-32ee-4a67-9af2-578aaa00edb8","system_id":"levelo_inurba_marseille","lat":43.278128,"lon":5.407195,"is_reserved":false,"is_disabled":false,"rental_uris":{"android":"levelo://app?vid=903cfa4a-32ee-4a67-9af2-578aaa00edb8","ios":"levelo://app?vid=903cfa4a-32ee-4a67-9af2-578aaa00edb8"},"vehicle_type_id":"4","last_reported":1701756611,"current_range_meters":31600,"station_id":"ce4bhnh2rcd13ifvqgtg","pricing_plan_id":"free"},{"bike_id":"e9556114-db65-4d9b-9e5f-f0337ad415a0","system_id":"levelo_inurba_marseille","lat":43.278128,"lon":5.407195,"is_reserved":false,"is_disabled":false,"rental_uris":{"android":"levelo://app?vid=e9556114-db65-4d9b-9e5f-f0337ad415a0","ios":"levelo://app?vid=e9556114-db65-4d9b-9e5f-f0337ad415a0"},"vehicle_type_id":"4","last_reported":1701756611,"current_range_meters":26800,"station_id":"ce4bhnh2rcd13ifvqgtg","pricing_plan_id":"free"},{"bike_id":"f6c9747c-d603-4edd-bae6-504ef60d0756","system_id":"levelo_inurba_marseille","lat":43.278128,"lon":5.407195,"is_reserved":false,"is_disabled":false,"rental_uris":{"android":"levelo://app?vid=f6c9747c-d603-4edd-bae6-504ef60d0756","ios":"levelo://app?vid=f6c9747c-d603-4edd-bae6-504ef60d0756"},"vehicle_type_id":"4","last_reported":1701756611,"current_range_meters":27600,"station_id":"ce4bhnh2rcd13ifvqgtg","pricing_plan_id":"free"},{"bike_id":"dff9c113-7fa3-489b-ba88-b9f4ef6a5789","system_id":"levelo_inurba_marseille","lat":43.269534,"lon":5.386324,"is_reserved":false,"is_disabled":false,"rental_uris":{"android":"levelo://app?vid=dff9c113-7fa3-489b-ba88-b9f4ef6a5789","ios":"levelo://app?vid=dff9c113-7fa3-489b-ba88-b9f4ef6a5789"},"vehicle_type_id":"4","last_reported":1701756611,"current_range_meters":0,"station_id":"","pricing_plan_id":"free"},{"bike_id":"492877f8-6ffd-4a1f-8092-39c6171a829a","system_id":"levelo_inurba_marseille","lat":43.26681,"lon":5.382694,"is_reserved":false,"is_disabled":false,"rental_uris":{"android":"levelo://app?vid=492877f8-6ffd-4a1f-8092-39c6171a829a","ios":"levelo://app?vid=492877f8-6ffd-4a1f-8092-39c6171a829a"},"vehicle_type_id":"4","last_reported":1701756611,"current_range_meters":28000,"station_id":"ce4bhg92rcd13ifvqf90","pricing_plan_id":"free"},{"bike_id":"e96163bb-9d57-4e99-bb5e-bca5afccddbb","system_id":"levelo_inurba_marseille","lat":43.27996,"lon":5.416624,"is_reserved":false,"is_disabled":false,"rental_uris":{"android":"levelo://app?vid=e96163bb-9d57-4e99-bb5e-bca5afccddbb","ios":"levelo://app?vid=e96163bb-9d57-4e99-bb5e-bca5afccddbb"},"vehicle_type_id":"4","last_reported":1701756611,"current_range_meters":31600,"station_id":"ce4bho12rcd13ifvqh1g","pricing_plan_id":"free"},{"bike_id":"a773058a-7473-4c31-9ba0-22be817ddf94","system_id":"levelo_inurba_marseille","lat":43.27996,"lon":5.416624,"is_reserved":false,"is_disabled":false,"rental_uris":{"android":"levelo://app?vid=a773058a-7473-4c31-9ba0-22be817ddf94","ios":"levelo://app?vid=a773058a-7473-4c31-9ba0-22be817ddf94"},"vehicle_type_id":"4","last_reported":1701756611,"current_range_meters":28000,"station_id":"ce4bho12rcd13ifvqh1g","pricing_plan_id":"free"},{"bike_id":"35927572-ca20-47f0-b637-ccbc8542361a","system_id":"levelo_inurba_marseille","lat":43.27996,"lon":5.416624,"is_reserved":false,"is_disabled":false,"rental_uris":{"android":"levelo://app?vid=35927572-ca20-47f0-b637-ccbc8542361a","ios":"levelo://app?vid=35927572-ca20-47f0-b637-ccbc8542361a"},"vehicle_type_id":"4","last_reported":1701756611,"current_range_meters":31600,"station_id":"ce4bho12rcd13ifvqh1g","pricing_plan_id":"free"},{"bike_id":"553bb604-a265-4169-8af7-beb30c590cb0","system_id":"levelo_inurba_marseille","lat":43.27996,"lon":5.416624,"is_reserved":false,"is_disabled":false,"rental_uris":{"android":"levelo://app?vid=553bb604-a265-4169-8af7-beb30c590cb0","ios":"levelo://app?vid=553bb604-a265-4169-8af7-beb30c590cb0"},"vehicle_type_id":"4","last_reported":1701756611,"current_range_meters":26400,"station_id":"ce4bho12rcd13ifvqh1g","pricing_plan_id":"free"},{"bike_id":"4b979769-cedc-4d71-a661-0df881497abd","system_id":"levelo_inurba_marseille","lat":43.265714,"lon":5.372891,"is_reserved":false,"is_disabled":false,"rental_uris":{"android":"levelo://app?vid=4b979769-cedc-4d71-a661-0df881497abd","ios":"levelo://app?vid=4b979769-cedc-4d71-a661-0df881497abd"},"vehicle_type_id":"4","last_reported":1701756611,"current_range_meters":28800,"station_id":"ce4bhg12rcd13ifvqf70","pricing_plan_id":"free"},{"bike_id":"4f3f744e-0ade-45ae-9c07-f49a6392110f","system_id":"levelo_inurba_marseille","lat":43.267966,"lon":5.393976,"is_reserved":false,"is_disabled":false,"rental_uris":{"android":"levelo://app?vid=4f3f744e-0ade-45ae-9c07-f49a6392110f","ios":"levelo://app?vid=4f3f744e-0ade-45ae-9c07-f49a6392110f"},"vehicle_type_id":"4","last_reported":1701756611,"current_range_meters":29600,"station_id":"ce4bhh12rcd13ifvqfg0","pricing_plan_id":"free"},{"bike_id":"d0be4bb0-cf4b-413d-b079-b894e243e3db","system_id":"levelo_inurba_marseille","lat":43.265714,"lon":5.372891,"is_reserved":false,"is_disabled":false,"rental_uris":{"android":"levelo://app?vid=d0be4bb0-cf4b-413d-b079-b894e243e3db","ios":"levelo://app?vid=d0be4bb0-cf4b-413d-b079-b894e243e3db"},"vehicle_type_id":"4","last_reported":1701756611,"current_range_meters":30000,"station_id":"ce4bhg12rcd13ifvqf70","pricing_plan_id":"free"},{"bike_id":"079612b7-c411-4c85-b112-19016f95b22f","system_id":"levelo_inurba_marseille","lat":43.267966,"lon":5.393976,"is_reserved":false,"is_disabled":false,"rental_uris":{"android":"levelo://app?vid=079612b7-c411-4c85-b112-19016f95b22f","ios":"levelo://app?vid=079612b7-c411-4c85-b112-19016f95b22f"},"vehicle_type_id":"4","last_reported":1701756611,"current_range_meters":29200,"station_id":"ce4bhh12rcd13ifvqfg0","pricing_plan_id":"free"},{"bike_id":"4f139264-e3cb-4259-837d-97b3f894e511","system_id":"levelo_inurba_marseille","lat":43.267966,"lon":5.393976,"is_reserved":false,"is_disabled":false,"rental_uris":{"android":"levelo://app?vid=4f139264-e3cb-4259-837d-97b3f894e511","ios":"levelo://app?vid=4f139264-e3cb-4259-837d-97b3f894e511"},"vehicle_type_id":"4","last_reported":1701756611,"current_range_meters":27600,"station_id":"ce4bhh12rcd13ifvqfg0","pricing_plan_id":"free"},{"bike_id":"73841288-790f-4f1e-bc0b-4e0cd6bb71d3","system_id":"levelo_inurba_marseille","lat":43.26949,"lon":5.40262,"is_reserved":false,"is_disabled":false,"rental_uris":{"android":"levelo://app?vid=73841288-790f-4f1e-bc0b-4e0cd6bb71d3","ios":"levelo://app?vid=73841288-790f-4f1e-bc0b-4e0cd6bb71d3"},"vehicle_type_id":"4","last_reported":1701756611,"current_range_meters":14400,"station_id":"cjm6bp8fraef2m0cb0m0","pricing_plan_id":"free"},{"bike_id":"dc665957-b5a8-4a38-97b1-b566d30bb99a","system_id":"levelo_inurba_marseille","lat":43.269403,"lon":5.402498,"is_reserved":false,"is_disabled":false,"rental_uris":{"android":"levelo://app?vid=dc665957-b5a8-4a38-97b1-b566d30bb99a","ios":"levelo://app?vid=dc665957-b5a8-4a38-97b1-b566d30bb99a"},"vehicle_type_id":"4","last_reported":1701756611,"current_range_meters":25600,"station_id":"cjm6bp8fraef2m0cb0m0","pricing_plan_id":"free"},{"bike_id":"c603ebe0-7bba-4739-9538-1f0044e728ca","system_id":"levelo_inurba_marseille","lat":43.317158,"lon":5.437054,"is_reserved":false,"is_disabled":false,"rental_uris":{"android":"levelo://app?vid=c603ebe0-7bba-4739-9538-1f0044e728ca","ios":"levelo://app?vid=c603ebe0-7bba-4739-9538-1f0044e728ca"},"vehicle_type_id":"4","last_reported":1701756611,"current_range_meters":24800,"station_id":"ce4bhp92rcd13ifvqhcg","pricing_plan_id":"free"},{"bike_id":"aba7b5f2-95e8-4839-86a4-7cff47d840c8","system_id":"levelo_inurba_marseille","lat":43.271368,"lon":5.40928,"is_reserved":false,"is_disabled":false,"rental_uris":{"android":"levelo://app?vid=aba7b5f2-95e8-4839-86a4-7cff47d840c8","ios":"levelo://app?vid=aba7b5f2-95e8-4839-86a4-7cff47d840c8"},"vehicle_type_id":"4","last_reported":1701756611,"current_range_meters":31600,"station_id":"ce4bhl12rcd13ifvqgf0","pricing_plan_id":"free"},{"bike_id":"451311be-0efb-406b-b50e-5788a4116090","system_id":"levelo_inurba_marseille","lat":43.271368,"lon":5.40928,"is_reserved":false,"is_disabled":false,"rental_uris":{"android":"levelo://app?vid=451311be-0efb-406b-b50e-5788a4116090","ios":"levelo://app?vid=451311be-0efb-406b-b50e-5788a4116090"},"vehicle_type_id":"4","last_reported":1701756611,"current_range_meters":17200,"station_id":"ce4bhl12rcd13ifvqgf0","pricing_plan_id":"free"},{"bike_id":"1074b912-6888-48a3-a725-7daee73d6728","system_id":"levelo_inurba_marseille","lat":43.271812,"lon":5.409936,"is_reserved":false,"is_disabled":false,"rental_uris":{"android":"levelo://app?vid=1074b912-6888-48a3-a725-7daee73d6728","ios":"levelo://app?vid=1074b912-6888-48a3-a725-7daee73d6728"},"vehicle_type_id":"4","last_reported":1701756611,"current_range_meters":17600,"station_id":"ce4bhl12rcd13ifvqgf0","pricing_plan_id":"free"},{"bike_id":"a959e5e9-fa4a-46b4-861f-df429abd67e0","system_id":"levelo_inurba_marseille","lat":43.27176,"lon":5.40992,"is_reserved":false,"is_disabled":false,"rental_uris":{"android":"levelo://app?vid=a959e5e9-fa4a-46b4-861f-df429abd67e0","ios":"levelo://app?vid=a959e5e9-fa4a-46b4-861f-df429abd67e0"},"vehicle_type_id":"4","last_reported":1701756611,"current_range_meters":22000,"station_id":"ce4bhl12rcd13ifvqgf0","pricing_plan_id":"free"},{"bike_id":"9bb2ab38-b524-43ce-80c2-4441064383e4","system_id":"levelo_inurba_marseille","lat":43.27169,"lon":5.40994,"is_reserved":false,"is_disabled":false,"rental_uris":{"android":"levelo://app?vid=9bb2ab38-b524-43ce-80c2-4441064383e4","ios":"levelo://app?vid=9bb2ab38-b524-43ce-80c2-4441064383e4"},"vehicle_type_id":"4","last_reported":1701756611,"current_range_meters":27600,"station_id":"ce4bhl12rcd13ifvqgf0","pricing_plan_id":"free"},{"bike_id":"21696287-8bc6-493f-a856-ae98911f37d3","system_id":"levelo_inurba_marseille","lat":43.298768,"lon":5.43643,"is_reserved":false,"is_disabled":false,"rental_uris":{"android":"levelo://app?vid=21696287-8bc6-493f-a856-ae98911f37d3","ios":"levelo://app?vid=21696287-8bc6-493f-a856-ae98911f37d3"},"vehicle_type_id":"4","last_reported":1701756611,"current_range_meters":26800,"station_id":"ce4bhpp2rcd13ifvqhfg","pricing_plan_id":"free"},{"bike_id":"357580b8-9797-40d0-8f69-92d4a32f5f83","system_id":"levelo_inurba_marseille","lat":43.281548,"lon":5.42643,"is_reserved":false,"is_disabled":false,"rental_uris":{"android":"levelo://app?vid=357580b8-9797-40d0-8f69-92d4a32f5f83","ios":"levelo://app?vid=357580b8-9797-40d0-8f69-92d4a32f5f83"},"vehicle_type_id":"4","last_reported":1701756611,"current_range_meters":31200,"station_id":"ce4bhnh2rcd13ifvqgug","pricing_plan_id":"free"},{"bike_id":"9c8f1c98-d14b-4c13-b6ad-aa78a0eae0d3","system_id":"levelo_inurba_marseille","lat":43.275028,"lon":5.424534,"is_reserved":false,"is_disabled":false,"rental_uris":{"android":"levelo://app?vid=9c8f1c98-d14b-4c13-b6ad-aa78a0eae0d3","ios":"levelo://app?vid=9c8f1c98-d14b-4c13-b6ad-aa78a0eae0d3"},"vehicle_type_id":"4","last_reported":1701756611,"current_range_meters":30000,"station_id":"ce4bhn92rcd13ifvqgrg","pricing_plan_id":"free"},{"bike_id":"ba91dcd1-74e7-4d77-91b8-a3885e5c779b","system_id":"levelo_inurba_marseille","lat":43.255811,"lon":5.382394,"is_reserved":false,"is_disabled":false,"rental_uris":{"android":"levelo://app?vid=ba91dcd1-74e7-4d77-91b8-a3885e5c779b","ios":"levelo://app?vid=ba91dcd1-74e7-4d77-91b8-a3885e5c779b"},"vehicle_type_id":"4","last_reported":1701756611,"current_range_meters":28000,"station_id":"ce4bhih2rcd13ifvqfs0","pricing_plan_id":"free"},{"bike_id":"ba8e43cb-bd74-4f1e-b5f4-009c3504132d","system_id":"levelo_inurba_marseille","lat":43.258224,"lon":5.394369,"is_reserved":false,"is_disabled":false,"rental_uris":{"android":"levelo://app?vid=ba8e43cb-bd74-4f1e-b5f4-009c3504132d","ios":"levelo://app?vid=ba8e43cb-bd74-4f1e-b5f4-009c3504132d"},"vehicle_type_id":"4","last_reported":1701756611,"current_range_meters":28000,"station_id":"ce4bhip2rcd13ifvqft0","pricing_plan_id":"free"},{"bike_id":"ec813f21-9667-47e7-bba4-7fc295aac3f7","system_id":"levelo_inurba_marseille","lat":43.270721,"lon":5.422764,"is_reserved":false,"is_disabled":false,"rental_uris":{"android":"levelo://app?vid=ec813f21-9667-47e7-bba4-7fc295aac3f7","ios":"levelo://app?vid=ec813f21-9667-47e7-bba4-7fc295aac3f7"},"vehicle_type_id":"4","last_reported":1701756611,"current_range_meters":27200,"station_id":"ce4bhk92rcd13ifvqgb0","pricing_plan_id":"free"},{"bike_id":"23e5ff1f-b20a-4b96-950d-fd6efb151d76","system_id":"levelo_inurba_marseille","lat":43.27066,"lon":5.42274,"is_reserved":false,"is_disabled":false,"rental_uris":{"android":"levelo://app?vid=23e5ff1f-b20a-4b96-950d-fd6efb151d76","ios":"levelo://app?vid=23e5ff1f-b20a-4b96-950d-fd6efb151d76"},"vehicle_type_id":"4","last_reported":1701756611,"current_range_meters":16000,"station_id":"ce4bhk92rcd13ifvqgb0","pricing_plan_id":"free"},{"bike_id":"b5302ae3-478a-4b1b-9641-4a725a9f0de3","system_id":"levelo_inurba_marseille","lat":43.270721,"lon":5.422764,"is_reserved":false,"is_disabled":false,"rental_uris":{"android":"levelo://app?vid=b5302ae3-478a-4b1b-9641-4a725a9f0de3","ios":"levelo://app?vid=b5302ae3-478a-4b1b-9641-4a725a9f0de3"},"vehicle_type_id":"4","last_reported":1701756611,"current_range_meters":28800,"station_id":"ce4bhk92rcd13ifvqgb0","pricing_plan_id":"free"},{"bike_id":"7449e4d6-cc7d-4075-8c63-cc2159d85116","system_id":"levelo_inurba_marseille","lat":43.258658,"lon":5.398935,"is_reserved":false,"is_disabled":false,"rental_uris":{"android":"levelo://app?vid=7449e4d6-cc7d-4075-8c63-cc2159d85116","ios":"levelo://app?vid=7449e4d6-cc7d-4075-8c63-cc2159d85116"},"vehicle_type_id":"4","last_reported":1701756611,"current_range_meters":23600,"station_id":"ce4bhl92rcd13ifvqghg","pricing_plan_id":"free"},{"bike_id":"01034a8f-e737-4887-80f7-ed7c6fbdb149","system_id":"levelo_inurba_marseille","lat":43.250009,"lon":5.389195,"is_reserved":false,"is_disabled":false,"rental_uris":{"android":"levelo://app?vid=01034a8f-e737-4887-80f7-ed7c6fbdb149","ios":"levelo://app?vid=01034a8f-e737-4887-80f7-ed7c6fbdb149"},"vehicle_type_id":"4","last_reported":1701756611,"current_range_meters":27200,"station_id":"ce4bhgp2rcd13ifvqfd0","pricing_plan_id":"free"},{"bike_id":"fbf4d356-d4bd-493c-9171-b23e8af8b26d","system_id":"levelo_inurba_marseille","lat":43.250009,"lon":5.389195,"is_reserved":false,"is_disabled":false,"rental_uris":{"android":"levelo://app?vid=fbf4d356-d4bd-493c-9171-b23e8af8b26d","ios":"levelo://app?vid=fbf4d356-d4bd-493c-9171-b23e8af8b26d"},"vehicle_type_id":"4","last_reported":1701756611,"current_range_meters":30400,"station_id":"ce4bhgp2rcd13ifvqfd0","pricing_plan_id":"free"},{"bike_id":"b20b35dd-bda4-4cac-8e5b-e09585af6bd0","system_id":"levelo_inurba_marseille","lat":43.250023,"lon":5.38919,"is_reserved":false,"is_disabled":false,"rental_uris":{"android":"levelo://app?vid=b20b35dd-bda4-4cac-8e5b-e09585af6bd0","ios":"levelo://app?vid=b20b35dd-bda4-4cac-8e5b-e09585af6bd0"},"vehicle_type_id":"4","last_reported":1701756611,"current_range_meters":24000,"station_id":"ce4bhgp2rcd13ifvqfd0","pricing_plan_id":"free"},{"bike_id":"f154b583-1c21-4cfd-aba1-b8255a388802","system_id":"levelo_inurba_marseille","lat":43.2479,"lon":5.374457,"is_reserved":false,"is_disabled":false,"rental_uris":{"android":"levelo://app?vid=f154b583-1c21-4cfd-aba1-b8255a388802","ios":"levelo://app?vid=f154b583-1c21-4cfd-aba1-b8255a388802"},"vehicle_type_id":"4","last_reported":1701756611,"current_range_meters":30000,"station_id":"ce4bhgh2rcd13ifvqfb0","pricing_plan_id":"free"},{"bike_id":"2498a0ab-81fa-443f-9ebd-6ee93f52327f","system_id":"levelo_inurba_marseille","lat":43.250908,"lon":5.395102,"is_reserved":false,"is_disabled":false,"rental_uris":{"android":"levelo://app?vid=2498a0ab-81fa-443f-9ebd-6ee93f52327f","ios":"levelo://app?vid=2498a0ab-81fa-443f-9ebd-6ee93f52327f"},