{"last_updated":1726132157,"ttl":30,"version":"2.2","data":{"bikes":[{"bike_id":"61cb553e-f45a-43a2-aaeb-c759faa4adb0","system_id":"levelo_inurba_marseille","lat":43.25951,"lon":5.40935,"is_reserved":false,"is_disabled":false,"rental_uris":{"android":"levelo://app?vid=61cb553e-f45a-43a2-aaeb-c759faa4adb0","ios":"levelo://app?vid=61cb553e-f45a-43a2-aaeb-c759faa4adb0"},"vehicle_type_id":"4","last_reported":1726132157,"current_range_meters":24800,"station_id":"ce4bhm92rcd13ifvqglg","pricing_plan_id":"cebpf4jnsgd1na2vs0mg"},{"bike_id":"7219d244-d7da-4d5c-91a1-31df0bf6ce61","system_id":"levelo_inurba_marseille","lat":43.29683,"lon":5.37287,"is_reserved":false,"is_disabled":false,"rental_uris":{"android":"levelo://app?vid=7219d244-d7da-4d5c-91a1-31df0bf6ce61","ios":"levelo://app?vid=7219d244-d7da-4d5c-91a1-31df0bf6ce61"},"vehicle_type_id":"4","last_reported":1726132157,"current_range_meters":33600,"station_id":"ce4bgk12rcd13ifvqbj0","pricing_plan_id":"cebpf4jnsgd1na2vs0mg"},{"bike_id":"0870e536-f7e5-4204-bca9-e32257189a6d","system_id":"levelo_inurba_marseille","lat":43.26775,"lon":5.39425,"is_reserved":false,"is_disabled":false,"rental_uris":{"android":"levelo://app?vid=0870e536-f7e5-4204-bca9-e32257189a6d","ios":"levelo://app?vid=0870e536-f7e5-4204-bca9-e32257189a6d"},"vehicle_type_id":"4","last_reported":1726132157,"current_range_meters":11200,"station_id":"ce4bhh12rcd13ifvqfg0","pricing_plan_id":"cebpf4jnsgd1na2vs0mg"},{"bike_id":"f72ede0a-438e-4eb2-9ccd-07c552028339","system_id":"levelo_inurba_marseille","lat":43.24393,"lon":5.37055,"is_reserved":false,"is_disabled":false,"rental_uris":{"android":"levelo://app?vid=f72ede0a-438e-4eb2-9ccd-07c552028339","ios":"levelo://app?vid=f72ede0a-438e-4eb2-9ccd-07c552028339"},"vehicle_type_id":"4","last_reported":1726132157,"current_range_meters":34800,"station_id":"ce4bhhh2rcd13ifvqfk0","pricing_plan_id":"cebpf4jnsgd1na2vs0mg"},{"bike_id":"816fe14d-0347-48d9-9827-5d91338967f7","system_id":"levelo_inurba_marseille","lat":43.28858,"lon":5.39318,"is_reserved":false,"is_disabled":false,"rental_uris":{"android":"levelo://app?vid=816fe14d-0347-48d9-9827-5d91338967f7","ios":"levelo://app?vid=816fe14d-0347-48d9-9827-5d91338967f7"},"vehicle_type_id":"4","last_reported":1726132157,"current_range_meters":8800,"station_id":"ce4bh2p2rcd13ifvqdi0","pricing_plan_id":"cebpf4jnsgd1na2vs0mg"},{"bike_id":"6ac7e527-2923-423d-a2c8-afd44907786c","system_id":"levelo_inurba_marseille","lat":43.24088,"lon":5.37757,"is_reserved":false,"is_disabled":false,"rental_uris":{"android":"levelo://app?vid=6ac7e527-2923-423d-a2c8-afd44907786c","ios":"levelo://app?vid=6ac7e527-2923-423d-a2c8-afd44907786c"},"vehicle_type_id":"4","last_reported":1726132157,"current_range_meters":23200,"station_id":"ce4bhnp2rcd13ifvqgvg","pricing_plan_id":"cebpf4jnsgd1na2vs0mg"},{"bike_id":"d3d0bf1e-8766-4413-be09-513aa812b8d5","system_id":"levelo_inurba_marseille","lat":43.24077,"lon":5.37755,"is_reserved":false,"is_disabled":false,"rental_uris":{"android":"levelo://app?vid=d3d0bf1e-8766-4413-be09-513aa812b8d5","ios":"levelo://app?vid=d3d0bf1e-8766-4413-be09-513aa812b8d5"},"vehicle_type_id":"4","last_reported":1726132157,"current_range_meters":35200,"station_id":"ce4bhnp2rcd13ifvqgvg","pricing_plan_id":"cebpf4jnsgd1na2vs0mg"},{"bike_id":"c5c3bd44-3118-4ce0-afbd-fd0c81275852","system_id":"levelo_inurba_marseille","lat":43.31084,"lon":5.42426,"is_reserved":false,"is_disabled":false,"rental_uris":{"android":"levelo://app?vid=c5c3bd44-3118-4ce0-afbd-fd0c81275852","ios":"levelo://app?vid=c5c3bd44-3118-4ce0-afbd-fd0c81275852"},"vehicle_type_id":"4","last_reported":1726132157,"current_range_meters":24800,"station_id":"ce4bhp92rcd13ifvqhag","pricing_plan_id":"cebpf4jnsgd1na2vs0mg"},{"bike_id":"456c5403-ebe0-4316-9960-1125ab4993e1","system_id":"levelo_inurba_marseille","lat":43.23063,"lon":5.35493,"is_reserved":false,"is_disabled":false,"rental_uris":{"android":"levelo://app?vid=456c5403-ebe0-4316-9960-1125ab4993e1","ios":"levelo://app?vid=456c5403-ebe0-4316-9960-1125ab4993e1"},"vehicle_type_id":"4","last_reported":1726132157,"current_range_meters":35600,"station_id":"cpo3342slgdg3j2ifvpg","pricing_plan_id":"cebpf4jnsgd1na2vs0mg"},{"bike_id":"f7a57b3f-dae7-4d73-851a-7666ebe0f701","system_id":"levelo_inurba_marseille","lat":43.29942,"lon":5.36542,"is_reserved":false,"is_disabled":false,"rental_uris":{"android":"levelo://app?vid=f7a57b3f-dae7-4d73-851a-7666ebe0f701","ios":"levelo://app?vid=f7a57b3f-dae7-4d73-851a-7666ebe0f701"},"vehicle_type_id":"4","last_reported":1726132157,"current_range_meters":5600,"station_id":"ce4bgm92rcd13ifvqbr0","pricing_plan_id":"cebpf4jnsgd1na2vs0mg"},{"bike_id":"032cca34-153b-4a2a-88a7-b47b5003aec0","system_id":"levelo_inurba_marseille","lat":43.30915,"lon":5.36859,"is_reserved":false,"is_disabled":false,"rental_uris":{"android":"levelo://app?vid=032cca34-153b-4a2a-88a7-b47b5003aec0","ios":"levelo://app?vid=032cca34-153b-4a2a-88a7-b47b5003aec0"},"vehicle_type_id":"4","last_reported":1726132157,"current_range_meters":38800,"station_id":"ce4bgn92rcd13ifvqbvg","pricing_plan_id":"cebpf4jnsgd1na2vs0mg"},{"bike_id":"daa049a8-d1e2-4006-a971-470e03d14693","system_id":"levelo_inurba_marseille","lat":43.28464,"lon":5.35897,"is_reserved":false,"is_disabled":false,"rental_uris":{"android":"levelo://app?vid=daa049a8-d1e2-4006-a971-470e03d14693","ios":"levelo://app?vid=daa049a8-d1e2-4006-a971-470e03d14693"},"vehicle_type_id":"4","last_reported":1726132157,"current_range_meters":24000,"station_id":"ce4bhah2rcd13ifvqei0","pricing_plan_id":"cebpf4jnsgd1na2vs0mg"},{"bike_id":"765b4fe0-1711-4f89-9b01-cbc0adb86c30","system_id":"levelo_inurba_marseille","lat":43.26682,"lon":5.38267,"is_reserved":false,"is_disabled":false,"rental_uris":{"android":"levelo://app?vid=765b4fe0-1711-4f89-9b01-cbc0adb86c30","ios":"levelo://app?vid=765b4fe0-1711-4f89-9b01-cbc0adb86c30"},"vehicle_type_id":"4","last_reported":1726132157,"current_range_meters":22000,"station_id":"ce4bhg92rcd13ifvqf90","pricing_plan_id":"cebpf4jnsgd1na2vs0mg"},{"bike_id":"10d4c428-e318-42ae-8126-5211f249afd6","system_id":"levelo_inurba_marseille","lat":43.30562,"lon":5.36533,"is_reserved":false,"is_disabled":false,"rental_uris":{"android":"levelo://app?vid=10d4c428-e318-42ae-8126-5211f249afd6","ios":"levelo://app?vid=10d4c428-e318-42ae-8126-5211f249afd6"},"vehicle_type_id":"4","last_reported":1726132157,"current_range_meters":12400,"station_id":"ce4bgs12rcd13ifvqcag","pricing_plan_id":"cebpf4jnsgd1na2vs0mg"},{"bike_id":"0a241134-04aa-4043-ab3e-a677c5de1ce6","system_id":"levelo_inurba_marseille","lat":43.30911,"lon":5.36858,"is_reserved":false,"is_disabled":false,"rental_uris":{"android":"levelo://app?vid=0a241134-04aa-4043-ab3e-a677c5de1ce6","ios":"levelo://app?vid=0a241134-04aa-4043-ab3e-a677c5de1ce6"},"vehicle_type_id":"4","last_reported":1726132157,"current_range_meters":38800,"station_id":"ce4bgn92rcd13ifvqbvg","pricing_plan_id":"cebpf4jnsgd1na2vs0mg"},{"bike_id":"d90bd34e-4e68-4c59-9b4e-7f5a13d8d838","system_id":"levelo_inurba_marseille","lat":43.29275,"lon":5.36853,"is_reserved":false,"is_disabled":false,"rental_uris":{"android":"levelo://app?vid=d90bd34e-4e68-4c59-9b4e-7f5a13d8d838","ios":"levelo://app?vid=d90bd34e-4e68-4c59-9b4e-7f5a13d8d838"},"vehicle_type_id":"4","last_reported":1726132157,"current_range_meters":25600,"station_id":"ce4bhbp2rcd13ifvqesg","pricing_plan_id":"cebpf4jnsgd1na2vs0mg"},{"bike_id":"acb7a154-2c4a-4a8c-8b78-d20c225e7a06","system_id":"levelo_inurba_marseille","lat":43.30548,"lon":5.36708,"is_reserved":false,"is_disabled":false,"rental_uris":{"android":"levelo://app?vid=acb7a154-2c4a-4a8c-8b78-d20c225e7a06","ios":"levelo://app?vid=acb7a154-2c4a-4a8c-8b78-d20c225e7a06"},"vehicle_type_id":"4","last_reported":1726132157,"current_range_meters":25200,"station_id":"ce4bgrp2rcd13ifvqc9g","pricing_plan_id":"cebpf4jnsgd1na2vs0mg"},{"bike_id":"13ec4916-f0ea-4897-8afc-596425b42c42","system_id":"levelo_inurba_marseille","lat":43.23187,"lon":5.35557,"is_reserved":false,"is_disabled":false,"rental_uris":{"android":"levelo://app?vid=13ec4916-f0ea-4897-8afc-596425b42c42","ios":"levelo://app?vid=13ec4916-f0ea-4897-8afc-596425b42c42"},"vehicle_type_id":"4","last_reported":1726132157,"current_range_meters":35600,"station_id":"ce4bhu92rcd13ifvqi70","pricing_plan_id":"cebpf4jnsgd1na2vs0mg"},{"bike_id":"395039a6-087d-4414-bf4c-5b17b0b60d8f","system_id":"levelo_inurba_marseille","lat":43.29523,"lon":5.37494,"is_reserved":false,"is_disabled":false,"rental_uris":{"android":"levelo://app?vid=395039a6-087d-4414-bf4c-5b17b0b60d8f","ios":"levelo://app?vid=395039a6-087d-4414-bf4c-5b17b0b60d8f"},"vehicle_type_id":"4","last_reported":1726132157,"current_range_meters":7200,"station_id":"ce4bgkp2rcd13ifvqbmg","pricing_plan_id":"cebpf4jnsgd1na2vs0mg"},{"bike_id":"456c41c7-f41f-4bc7-97f6-a3711e077994","system_id":"levelo_inurba_marseille","lat":43.26036,"lon":5.37539,"is_reserved":false,"is_disabled":false,"rental_uris":{"android":"levelo://app?vid=456c41c7-f41f-4bc7-97f6-a3711e077994","ios":"levelo://app?vid=456c41c7-f41f-4bc7-97f6-a3711e077994"},"vehicle_type_id":"4","last_reported":1726132157,"current_range_meters":18000,"station_id":"ce4bhgh2rcd13ifvqfa0","pricing_plan_id":"cebpf4jnsgd1na2vs0mg"},{"bike_id":"a68df08b-f9fa-4991-9775-134d012f2510","system_id":"levelo_inurba_marseille","lat":43.23064,"lon":5.35487,"is_reserved":false,"is_disabled":false,"rental_uris":{"android":"levelo://app?vid=a68df08b-f9fa-4991-9775-134d012f2510","ios":"levelo://app?vid=a68df08b-f9fa-4991-9775-134d012f2510"},"vehicle_type_id":"4","last_reported":1726132157,"current_range_meters":16800,"station_id":"cpo3342slgdg3j2ifvpg","pricing_plan_id":"cebpf4jnsgd1na2vs0mg"},{"bike_id":"a053b8fb-e8ac-474f-8a4e-4da0d15250b1","system_id":"levelo_inurba_marseille","lat":43.30545,"lon":5.36535,"is_reserved":false,"is_disabled":false,"rental_uris":{"android":"levelo://app?vid=a053b8fb-e8ac-474f-8a4e-4da0d15250b1","ios":"levelo://app?vid=a053b8fb-e8ac-474f-8a4e-4da0d15250b1"},"vehicle_type_id":"4","last_reported":1726132157,"current_range_meters":10000,"station_id":"ce4bgs12rcd13ifvqcag","pricing_plan_id":"cebpf4jnsgd1na2vs0mg"},{"bike_id":"0f91d877-641e-414e-a620-6dbaf08191c2","system_id":"levelo_inurba_marseille","lat":43.26206,"lon":5.37923,"is_reserved":false,"is_disabled":false,"rental_uris":{"android":"levelo://app?vid=0f91d877-641e-414e-a620-6dbaf08191c2","ios":"levelo://app?vid=0f91d877-641e-414e-a620-6dbaf08191c2"},"vehicle_type_id":"4","last_reported":1726132157,"current_range_meters":36800,"station_id":"ce4bhjp2rcd13ifvqg90","pricing_plan_id":"cebpf4jnsgd1na2vs0mg"},{"bike_id":"f0c3d3f5-6e56-48c0-b6e4-4e0b8919e7cb","system_id":"levelo_inurba_marseille","lat":43.2872,"lon":5.3794,"is_reserved":false,"is_disabled":false,"rental_uris":{"android":"levelo://app?vid=f0c3d3f5-6e56-48c0-b6e4-4e0b8919e7cb","ios":"levelo://app?vid=f0c3d3f5-6e56-48c0-b6e4-4e0b8919e7cb"},"vehicle_type_id":"4","last_reported":1726132157,"current_range_meters":25200,"station_id":"ce4bh9p2rcd13ifvqec0","pricing_plan_id":"cebpf4jnsgd1na2vs0mg"},{"bike_id":"c256d493-dda1-479a-8ad2-83688251c968","system_id":"levelo_inurba_marseille","lat":43.292147,"lon":5.359201,"is_reserved":false,"is_disabled":false,"rental_uris":{"android":"levelo://app?vid=c256d493-dda1-479a-8ad2-83688251c968","ios":"levelo://app?vid=c256d493-dda1-479a-8ad2-83688251c968"},"vehicle_type_id":"4","last_reported":1726132157,"current_range_meters":3600,"station_id":"","pricing_plan_id":"cebpf4jnsgd1na2vs0mg"},{"bike_id":"80a6c1c7-17ef-4a10-b866-719e736d8134","system_id":"levelo_inurba_marseille","lat":43.24086,"lon":5.37756,"is_reserved":false,"is_disabled":false,"rental_uris":{"android":"levelo://app?vid=80a6c1c7-17ef-4a10-b866-719e736d8134","ios":"levelo://app?vid=80a6c1c7-17ef-4a10-b866-719e736d8134"},"vehicle_type_id":"4","last_reported":1726132157,"current_range_meters":34000,"station_id":"ce4bhnp2rcd13ifvqgvg","pricing_plan_id":"cebpf4jnsgd1na2vs0mg"},{"bike_id":"74c67d55-8a5f-40c9-8066-d68354718f8c","system_id":"levelo_inurba_marseille","lat":43.23194,"lon":5.35563,"is_reserved":false,"is_disabled":false,"rental_uris":{"android":"levelo://app?vid=74c67d55-8a5f-40c9-8066-d68354718f8c","ios":"levelo://app?vid=74c67d55-8a5f-40c9-8066-d68354718f8c"},"vehicle_type_id":"4","last_reported":1726132157,"current_range_meters":32400,"station_id":"ce4bhu92rcd13ifvqi70","pricing_plan_id":"cebpf4jnsgd1na2vs0mg"},{"bike_id":"8c778480-3aec-4905-9f95-39ffc7f00a7f","system_id":"levelo_inurba_marseille","lat":43.32481,"lon":5.36575,"is_reserved":false,"is_disabled":false,"rental_uris":{"android":"levelo://app?vid=8c778480-3aec-4905-9f95-39ffc7f00a7f","ios":"levelo://app?vid=8c778480-3aec-4905-9f95-39ffc7f00a7f"},"vehicle_type_id":"4","last_reported":1726132157,"current_range_meters":28800,"station_id":"ce4bhs12rcd13ifvqhvg","pricing_plan_id":"cebpf4jnsgd1na2vs0mg"},{"bike_id":"cb1f3f5d-ef80-460b-a7b4-ffd596007895","system_id":"levelo_inurba_marseille","lat":43.2985,"lon":5.3627,"is_reserved":false,"is_disabled":false,"rental_uris":{"android":"levelo://app?vid=cb1f3f5d-ef80-460b-a7b4-ffd596007895","ios":"levelo://app?vid=cb1f3f5d-ef80-460b-a7b4-ffd596007895"},"vehicle_type_id":"4","last_reported":1726132157,"current_range_meters":29600,"station_id":"ce4bgpp2rcd13ifvqc3g","pricing_plan_id":"cebpf4jnsgd1na2vs0mg"},{"bike_id":"f26c1504-1d02-4a96-9cce-a8d8d09650ab","system_id":"levelo_inurba_marseille","lat":43.31222,"lon":5.36877,"is_reserved":false,"is_disabled":false,"rental_uris":{"android":"levelo://app?vid=f26c1504-1d02-4a96-9cce-a8d8d09650ab","ios":"levelo://app?vid=f26c1504-1d02-4a96-9cce-a8d8d09650ab"},"vehicle_type_id":"4","last_reported":1726132157,"current_range_meters":40000,"station_id":"ce4bgl92rcd13ifvqbq0","pricing_plan_id":"cebpf4jnsgd1na2vs0mg"},{"bike_id":"eb685eeb-f508-4424-9ea7-a6e3d7e8091e","system_id":"levelo_inurba_marseille","lat":43.25933,"lon":5.40912,"is_reserved":false,"is_disabled":false,"rental_uris":{"android":"levelo://app?vid=eb685eeb-f508-4424-9ea7-a6e3d7e8091e","ios":"levelo://app?vid=eb685eeb-f508-4424-9ea7-a6e3d7e8091e"},"vehicle_type_id":"4","last_reported":1726132157,"current_range_meters":29600,"station_id":"ce4bhm92rcd13ifvqglg","pricing_plan_id":"cebpf4jnsgd1na2vs0mg"},{"bike_id":"40d15be7-2e0e-4279-a536-38c292f9bbf4","system_id":"levelo_inurba_marseille","lat":43.2315,"lon":5.43729,"is_reserved":false,"is_disabled":false,"rental_uris":{"android":"levelo://app?vid=40d15be7-2e0e-4279-a536-38c292f9bbf4","ios":"levelo://app?vid=40d15be7-2e0e-4279-a536-38c292f9bbf4"},"vehicle_type_id":"4","last_reported":1726132157,"current_range_meters":1600,"station_id":"ce4bhmp2rcd13ifvqgog","pricing_plan_id":"cebpf4jnsgd1na2vs0mg"},{"bike_id":"7e65e00f-4345-437e-bc98-b1199abc1ea1","system_id":"levelo_inurba_marseille","lat":43.337444,"lon":5.374475,"is_reserved":false,"is_disabled":false,"rental_uris":{"android":"levelo://app?vid=7e65e00f-4345-437e-bc98-b1199abc1ea1","ios":"levelo://app?vid=7e65e00f-4345-437e-bc98-b1199abc1ea1"},"vehicle_type_id":"4","last_reported":1726132157,"current_range_meters":10000,"station_id":"","pricing_plan_id":"cebpf4jnsgd1na2vs0mg"},{"bike_id":"f069f4ee-ed32-414b-89aa-b0db232aece2","system_id":"levelo_inurba_marseille","lat":43.29843,"lon":5.36264,"is_reserved":false,"is_disabled":false,"rental_uris":{"android":"levelo://app?vid=f069f4ee-ed32-414b-89aa-b0db232aece2","ios":"levelo://app?vid=f069f4ee-ed32-414b-89aa-b0db232aece2"},"vehicle_type_id":"4","last_reported":1726132157,"current_range_meters":17600,"station_id":"ce4bgpp2rcd13ifvqc3g","pricing_plan_id":"cebpf4jnsgd1na2vs0mg"},{"bike_id":"4ac7d9cf-87af-4520-808f-51401e432325","system_id":"levelo_inurba_marseille","lat":43.32549,"lon":5.41438,"is_reserved":false,"is_disabled":false,"rental_uris":{"android":"levelo://app?vid=4ac7d9cf-87af-4520-808f-51401e432325","ios":"levelo://app?vid=4ac7d9cf-87af-4520-808f-51401e432325"},"vehicle_type_id":"4","last_reported":1726132157,"current_range_meters":16800,"station_id":"ce4bhq12rcd13ifvqhhg","pricing_plan_id":"cebpf4jnsgd1na2vs0mg"},{"bike_id":"8b3a98fe-a428-4311-a1cd-a7f11f45c1eb","system_id":"levelo_inurba_marseille","lat":43.23155,"lon":5.43709,"is_reserved":false,"is_disabled":false,"rental_uris":{"android":"levelo://app?vid=8b3a98fe-a428-4311-a1cd-a7f11f45c1eb","ios":"levelo://app?vid=8b3a98fe-a428-4311-a1cd-a7f11f45c1eb"},"vehicle_type_id":"4","last_reported":1726132157,"current_range_meters":8000,"station_id":"ce4bhmp2rcd13ifvqgog","pricing_plan_id":"cebpf4jnsgd1na2vs0mg"},{"bike_id":"286b7ced-97f5-44da-942a-5b007929bb7f","system_id":"levelo_inurba_marseille","lat":43.31487,"lon":5.37305,"is_reserved":false,"is_disabled":false,"rental_uris":{"android":"levelo://app?vid=286b7ced-97f5-44da-942a-5b007929bb7f","ios":"levelo://app?vid=286b7ced-97f5-44da-942a-5b007929bb7f"},"vehicle_type_id":"4","last_reported":1726132157,"current_range_meters":36800,"station_id":"ce4bgt12rcd13ifvqcd0","pricing_plan_id":"cebpf4jnsgd1na2vs0mg"},{"bike_id":"11944b44-cc54-4fe0-896f-7b982db000ce","system_id":"levelo_inurba_marseille","lat":43.24086,"lon":5.37749,"is_reserved":false,"is_disabled":false,"rental_uris":{"android":"levelo://app?vid=11944b44-cc54-4fe0-896f-7b982db000ce","ios":"levelo://app?vid=11944b44-cc54-4fe0-896f-7b982db000ce"},"vehicle_type_id":"4","last_reported":1726132157,"current_range_meters":34000,"station_id":"ce4bhnp2rcd13ifvqgvg","pricing_plan_id":"cebpf4jnsgd1na2vs0mg"},{"bike_id":"f3e9fb72-97c1-4ee2-b1d1-e2d99af572a4","system_id":"levelo_inurba_marseille","lat":43.32538,"lon":5.41444,"is_reserved":false,"is_disabled":false,"rental_uris":{"android":"levelo://app?vid=f3e9fb72-97c1-4ee2-b1d1-e2d99af572a4","ios":"levelo://app?vid=f3e9fb72-97c1-4ee2-b1d1-e2d99af572a4"},"vehicle_type_id":"4","last_reported":1726132157,"current_range_meters":40000,"station_id":"ce4bhq12rcd13ifvqhhg","pricing_plan_id":"cebpf4jnsgd1na2vs0mg"},{"bike_id":"399e11e5-05e9-413c-9d9f-0f6fa5bc8030","system_id":"levelo_inurba_marseille","lat":43.30564,"lon":5.36534,"is_reserved":false,"is_disabled":false,"rental_uris":{"android":"levelo://app?vid=399e11e5-05e9-413c-9d9f-0f6fa5bc8030","ios":"levelo://app?vid=399e11e5-05e9-413c-9d9f-0f6fa5bc8030"},"vehicle_type_id":"4","last_reported":1726132157,"current_range_meters":14400,"station_id":"ce4bgs12rcd13ifvqcag","pricing_plan_id":"cebpf4jnsgd1na2vs0mg"},{"bike_id":"f0dbcb79-f813-46bb-a082-491c47f04f44","system_id":"levelo_inurba_marseille","lat":43.306021,"lon":5.372516,"is_reserved":false,"is_disabled":false,"rental_uris":{"android":"levelo://app?vid=f0dbcb79-f813-46bb-a082-491c47f04f44","ios":"levelo://app?vid=f0dbcb79-f813-46bb-a082-491c47f04f44"},"vehicle_type_id":"4","last_reported":1726132157,"current_range_meters":20000,"station_id":"ce4bgqh2rcd13ifvqc4g","pricing_plan_id":"cebpf4jnsgd1na2vs0mg"},{"bike_id":"3203158c-ba5a-4569-8d5d-a3eeab16fc77","system_id":"levelo_inurba_marseille","lat":43.295609,"lon":5.422868,"is_reserved":false,"is_disabled":false,"rental_uris":{"android":"levelo://app?vid=3203158c-ba5a-4569-8d5d-a3eeab16fc77","ios":"levelo://app?vid=3203158c-ba5a-4569-8d5d-a3eeab16fc77"},"vehicle_type_id":"4","last_reported":1726132157,"current_range_meters":36800,"station_id":"ce4bhph2rcd13ifvqhdg","pricing_plan_id":"cebpf4jnsgd1na2vs0mg"},{"bike_id":"04a086f7-156f-4f51-8498-c7c1b7a0d101","system_id":"levelo_inurba_marseille","lat":43.30148,"lon":5.37421,"is_reserved":false,"is_disabled":false,"rental_uris":{"android":"levelo://app?vid=04a086f7-156f-4f51-8498-c7c1b7a0d101","ios":"levelo://app?vid=04a086f7-156f-4f51-8498-c7c1b7a0d101"},"vehicle_type_id":"4","last_reported":1726132157,"current_range_meters":39200,"station_id":"ce4bgs92rcd13ifvqcc0","pricing_plan_id":"cebpf4jnsgd1na2vs0mg"},{"bike_id":"c3a84de0-e074-45d2-96a4-3ff17abba9fe","system_id":"levelo_inurba_marseille","lat":43.24088,"lon":5.37743,"is_reserved":false,"is_disabled":false,"rental_uris":{"android":"levelo://app?vid=c3a84de0-e074-45d2-96a4-3ff17abba9fe","ios":"levelo://app?vid=c3a84de0-e074-45d2-96a4-3ff17abba9fe"},"vehicle_type_id":"4","last_reported":1726132157,"current_range_meters":10000,"station_id":"ce4bhnp2rcd13ifvqgvg","pricing_plan_id":"cebpf4jnsgd1na2vs0mg"},{"bike_id":"604381c5-5957-49c3-b0ea-2f851c449917","system_id":"levelo_inurba_marseille","lat":43.27214,"lon":5.39192,"is_reserved":false,"is_disabled":false,"rental_uris":{"android":"levelo://app?vid=604381c5-5957-49c3-b0ea-2f851c449917","ios":"levelo://app?vid=604381c5-5957-49c3-b0ea-2f851c449917"},"vehicle_type_id":"4","last_reported":1726132157,"current_range_meters":14400,"station_id":"ce4bhhp2rcd13ifvqfm0","pricing_plan_id":"cebpf4jnsgd1na2vs0mg"},{"bike_id":"e06fa896-dd06-42d7-b340-a22a3b6b3ac8","system_id":"levelo_inurba_marseille","lat":43.26695,"lon":5.38271,"is_reserved":false,"is_disabled":false,"rental_uris":{"android":"levelo://app?vid=e06fa896-dd06-42d7-b340-a22a3b6b3ac8","ios":"levelo://app?vid=e06fa896-dd06-42d7-b340-a22a3b6b3ac8"},"vehicle_type_id":"4","last_reported":1726132157,"current_range_meters":27200,"station_id":"ce4bhg92rcd13ifvqf90","pricing_plan_id":"cebpf4jnsgd1na2vs0mg"},{"bike_id":"bf2d2172-be9c-4d8b-b2a9-e8472749e9f2","system_id":"levelo_inurba_marseille","lat":43.24547,"lon":5.39529,"is_reserved":false,"is_disabled":false,"rental_uris":{"android":"levelo://app?vid=bf2d2172-be9c-4d8b-b2a9-e8472749e9f2","ios":"levelo://app?vid=bf2d2172-be9c-4d8b-b2a9-e8472749e9f2"},"vehicle_type_id":"4","last_reported":1726132157,"current_range_meters":28400,"station_id":"ce4bhlp2rcd13ifvqgjg","pricing_plan_id":"cebpf4jnsgd1na2vs0mg"},{"bike_id":"0a1f63c4-8197-4edd-9c0f-886e05340093","system_id":"levelo_inurba_marseille","lat":43.26214,"lon":5.37442,"is_reserved":false,"is_disabled":false,"rental_uris":{"android":"levelo://app?vid=0a1f63c4-8197-4edd-9c0f-886e05340093","ios":"levelo://app?vid=0a1f63c4-8197-4edd-9c0f-886e05340093"},"vehicle_type_id":"4","last_reported":1726132157,"current_range_meters":36800,"station_id":"ce4bhgp2rcd13ifvqfc0","pricing_plan_id":"cebpf4jnsgd1na2vs0mg"},{"bike_id":"624f2997-7950-4f88-890d-69691381e331","system_id":"levelo_inurba_marseille","lat":43.29032,"lon":5.39966,"is_reserved":false,"is_disabled":false,"rental_uris":{"android":"levelo://app?vid=624f2997-7950-4f88-890d-69691381e331","ios":"levelo://app?vid=624f2997-7950-4f88-890d-69691381e331"},"vehicle_type_id":"4","last_reported":1726132157,"current_range_meters":17200,"station_id":"ce4bh392rcd13ifvqdm0","pricing_plan_id":"cebpf4jnsgd1na2vs0mg"},{"bike_id":"fe54d2c4-eff0-4540-9bb2-07f1b144e817","system_id":"levelo_inurba_marseille","lat":43.29847,"lon":5.36269,"is_reserved":false,"is_disabled":false,"rental_uris":{"android":"levelo://app?vid=fe54d2c4-eff0-4540-9bb2-07f1b144e817","ios":"levelo://app?vid=fe54d2c4-eff0-4540-9bb2-07f1b144e817"},"vehicle_type_id":"4","last_reported":1726132157,"current_range_meters":39200,"station_id":"ce4bgpp2rcd13ifvqc3g","pricing_plan_id":"cebpf4jnsgd1na2vs0mg"},{"bike_id":"011d832d-6088-4d62-b594-3506dd705920","system_id":"levelo_inurba_marseille","lat":43.30809,"lon":5.38152,"is_reserved":false,"is_disabled":false,"rental_uris":{"android":"levelo://app?vid=011d832d-6088-4d62-b594-3506dd705920","ios":"levelo://app?vid=011d832d-6088-4d62-b594-3506dd705920"},"vehicle_type_id":"4","last_reported":1726132157,"current_range_meters":39200,"station_id":"ce4bgt12rcd13ifvqce0","pricing_plan_id":"cebpf4jnsgd1na2vs0mg"},{"bike_id":"721fa92c-defe-4678-b6eb-96834f836f63","system_id":"levelo_inurba_marseille","lat":43.30547,"lon":5.36526,"is_reserved":false,"is_disabled":false,"rental_uris":{"android":"levelo://app?vid=721fa92c-defe-4678-b6eb-96834f836f63","ios":"levelo://app?vid=721fa92c-defe-4678-b6eb-96834f836f63"},"vehicle_type_id":"4","last_reported":1726132157,"current_range_meters":36800,"station_id":"ce4bgs12rcd13ifvqcag","pricing_plan_id":"cebpf4jnsgd1na2vs0mg"},{"bike_id":"603ae7c3-fefc-4b49-aadb-f4baf642c313","system_id":"levelo_inurba_marseille","lat":43.31095,"lon":5.37697,"is_reserved":false,"is_disabled":false,"rental_uris":{"android":"levelo://app?vid=603ae7c3-fefc-4b49-aadb-f4baf642c313","ios":"levelo://app?vid=603ae7c3-fefc-4b49-aadb-f4baf642c313"},"vehicle_type_id":"4","last_reported":1726132157,"current_range_meters":30800,"station_id":"","pricing_plan_id":"cebpf4jnsgd1na2vs0mg"},{"bike_id":"a52ae3d9-58a5-4929-a1fa-7958ae557e7d","system_id":"levelo_inurba_marseille","lat":43.25939,"lon":5.40904,"is_reserved":false,"is_disabled":false,"rental_uris":{"android":"levelo://app?vid=a52ae3d9-58a5-4929-a1fa-7958ae557e7d","ios":"levelo://app?vid=a52ae3d9-58a5-4929-a1fa-7958ae557e7d"},"vehicle_type_id":"4","last_reported":1726132157,"current_range_meters":14400,"station_id":"ce4bhm92rcd13ifvqglg","pricing_plan_id":"cebpf4jnsgd1na2vs0mg"},{"bike_id":"554beb7c-19ba-440e-a211-532f35657004","system_id":"levelo_inurba_marseille","lat":43.29562,"lon":5.42292,"is_reserved":false,"is_disabled":false,"rental_uris":{"android":"levelo://app?vid=554beb7c-19ba-440e-a211-532f35657004","ios":"levelo://app?vid=554beb7c-19ba-440e-a211-532f35657004"},"vehicle_type_id":"4","last_reported":1726132157,"current_range_meters":22400,"station_id":"ce4bhph2rcd13ifvqhdg","pricing_plan_id":"cebpf4jnsgd1na2vs0mg"},{"bike_id":"cf95ea5a-f8a8-4373-b191-ee96147bc2d4","system_id":"levelo_inurba_marseille","lat":43.29552,"lon":5.4229,"is_reserved":false,"is_disabled":false,"rental_uris":{"android":"levelo://app?vid=cf95ea5a-f8a8-4373-b191-ee96147bc2d4","ios":"levelo://app?vid=cf95ea5a-f8a8-4373-b191-ee96147bc2d4"},"vehicle_type_id":"4","last_reported":1726132157,"current_range_meters":26000,"station_id":"ce4bhph2rcd13ifvqhdg","pricing_plan_id":"cebpf4jnsgd1na2vs0mg"},{"bike_id":"c07d9cfb-a36c-4f68-8f63-1240164180b8","system_id":"levelo_inurba_marseille","lat":43.30486,"lon":5.37914,"is_reserved":false,"is_disabled":false,"rental_uris":{"android":"levelo://app?vid=c07d9cfb-a36c-4f68-8f63-1240164180b8","ios":"levelo://app?vid=c07d9cfb-a36c-4f68-8f63-1240164180b8"},"vehicle_type_id":"4","last_reported":1726132157,"current_range_meters":32000,"station_id":"ce4bgup2rcd13ifvqcn0","pricing_plan_id":"cebpf4jnsgd1na2vs0mg"},{"bike_id":"352085d8-a232-4bdb-94c4-7e4bc5d644a1","system_id":"levelo_inurba_marseille","lat":43.25933,"lon":5.40911,"is_reserved":false,"is_disabled":false,"rental_uris":{"android":"levelo://app?vid=352085d8-a232-4bdb-94c4-7e4bc5d644a1","ios":"levelo://app?vid=352085d8-a232-4bdb-94c4-7e4bc5d644a1"},"vehicle_type_id":"4","last_reported":1726132157,"current_range_meters":29600,"station_id":"ce4bhm92rcd13ifvqglg","pricing_plan_id":"cebpf4jnsgd1na2vs0mg"},{"bike_id":"dd3307d5-5fde-44c8-8ba2-705995b08a33","system_id":"levelo_inurba_marseille","lat":43.30138,"lon":5.3987,"is_reserved":false,"is_disabled":false,"rental_uris":{"android":"levelo://app?vid=dd3307d5-5fde-44c8-8ba2-705995b08a33","ios":"levelo://app?vid=dd3307d5-5fde-44c8-8ba2-705995b08a33"},"vehicle_type_id":"4","last_reported":1726132157,"current_range_meters":15200,"station_id":"ce4bh0h2rcd13ifvqd40","pricing_plan_id":"cebpf4jnsgd1na2vs0mg"},{"bike_id":"cf5a6d6a-12c1-45cd-b415-051d5156920d","system_id":"levelo_inurba_marseille","lat":43.33614,"lon":5.41026,"is_reserved":false,"is_disabled":false,"rental_uris":{"android":"levelo://app?vid=cf5a6d6a-12c1-45cd-b415-051d5156920d","ios":"levelo://app?vid=cf5a6d6a-12c1-45cd-b415-051d5156920d"},"vehicle_type_id":"4","last_reported":1726132157,"current_range_meters":32000,"station_id":"ce4bhqh2rcd13ifvqhmg","pricing_plan_id":"cebpf4jnsgd1na2vs0mg"},{"bike_id":"a17ee117-2277-4cd8-88a8-a3ccf531c645","system_id":"levelo_inurba_marseille","lat":43.27907,"lon":5.38018,"is_reserved":false,"is_disabled":false,"rental_uris":{"android":"levelo://app?vid=a17ee117-2277-4cd8-88a8-a3ccf531c645","ios":"levelo://app?vid=a17ee117-2277-4cd8-88a8-a3ccf531c645"},"vehicle_type_id":"4","last_reported":1726132157,"current_range_meters":4400,"station_id":"ce4bhf92rcd13ifvqf50","pricing_plan_id":"cebpf4jnsgd1na2vs0mg"},{"bike_id":"a36a6131-7175-4d21-afcf-16a3b952996a","system_id":"levelo_inurba_marseille","lat":43.30816,"lon":5.37645,"is_reserved":false,"is_disabled":false,"rental_uris":{"android":"levelo://app?vid=a36a6131-7175-4d21-afcf-16a3b952996a","ios":"levelo://app?vid=a36a6131-7175-4d21-afcf-16a3b952996a"},"vehicle_type_id":"4","last_reported":1726132157,"current_range_meters":6000,"station_id":"ce4bgv92rcd13ifvqcq0","pricing_plan_id":"cebpf4jnsgd1na2vs0mg"},{"bike_id":"4f1be73c-c40f-4b67-96ff-517c2a133d5d","system_id":"levelo_inurba_marseille","lat":43.30485,"lon":5.37906,"is_reserved":false,"is_disabled":false,"rental_uris":{"android":"levelo://app?vid=4f1be73c-c40f-4b67-96ff-517c2a133d5d","ios":"levelo://app?vid=4f1be73c-c40f-4b67-96ff-517c2a133d5d"},"vehicle_type_id":"4","last_reported":1726132157,"current_range_meters":39200,"station_id":"ce4bgup2rcd13ifvqcn0","pricing_plan_id":"cebpf4jnsgd1na2vs0mg"},{"bike_id":"ef423b08-7e28-4a7e-bdb8-5d2d125f7b5c","system_id":"levelo_inurba_marseille","lat":43.240901,"lon":5.366223,"is_reserved":false,"is_disabled":false,"rental_uris":{"android":"levelo://app?vid=ef423b08-7e28-4a7e-bdb8-5d2d125f7b5c","ios":"levelo://app?vid=ef423b08-7e28-4a7e-bdb8-5d2d125f7b5c"},"vehicle_type_id":"4","last_reported":1726132157,"current_range_meters":24000,"station_id":"ce4bhi12rcd13ifvqfp0","pricing_plan_id":"cebpf4jnsgd1na2vs0mg"},{"bike_id":"dd6313df-d56d-4aab-9b2a-ea8492734cb7","system_id":"levelo_inurba_marseille","lat":43.26194,"lon":5.37452,"is_reserved":false,"is_disabled":false,"rental_uris":{"android":"levelo://app?vid=dd6313df-d56d-4aab-9b2a-ea8492734cb7","ios":"levelo://app?vid=dd6313df-d56d-4aab-9b2a-ea8492734cb7"},"vehicle_type_id":"4","last_reported":1726132157,"current_range_meters":36800,"station_id":"ce4bhgp2rcd13ifvqfc0","pricing_plan_id":"cebpf4jnsgd1na2vs0mg"},{"bike_id":"18133a1b-df7b-42d0-89d1-ccdedf5f5524","system_id":"levelo_inurba_marseille","lat":43.30544,"lon":5.36546,"is_reserved":false,"is_disabled":false,"rental_uris":{"android":"levelo://app?vid=18133a1b-df7b-42d0-89d1-ccdedf5f5524","ios":"levelo://app?vid=18133a1b-df7b-42d0-89d1-ccdedf5f5524"},"vehicle_type_id":"4","last_reported":1726132157,"current_range_meters":37600,"station_id":"ce4bgs12rcd13ifvqcag","pricing_plan_id":"cebpf4jnsgd1na2vs0mg"},{"bike_id":"df4b2802-380e-4294-83b5-1679afb45ac3","system_id":"levelo_inurba_marseille","lat":43.30464,"lon":5.37911,"is_reserved":false,"is_disabled":false,"rental_uris":{"android":"levelo://app?vid=df4b2802-380e-4294-83b5-1679afb45ac3","ios":"levelo://app?vid=df4b2802-380e-4294-83b5-1679afb45ac3"},"vehicle_type_id":"4","last_reported":1726132157,"current_range_meters":40000,"station_id":"ce4bgup2rcd13ifvqcn0","pricing_plan_id":"cebpf4jnsgd1na2vs0mg"},{"bike_id":"eeee3010-20e0-4172-b206-589c45b086a8","system_id":"levelo_inurba_marseille","lat":43.30534,"lon":5.3669,"is_reserved":false,"is_disabled":false,"rental_uris":{"android":"levelo://app?vid=eeee3010-20e0-4172-b206-589c45b086a8","ios":"levelo://app?vid=eeee3010-20e0-4172-b206-589c45b086a8"},"vehicle_type_id":"4","last_reported":1726132157,"current_range_meters":39200,"station_id":"ce4bgrp2rcd13ifvqc9g","pricing_plan_id":"cebpf4jnsgd1na2vs0mg"},{"bike_id":"521ac9eb-aeb3-4716-a5c7-40c1c5dfc1ab","system_id":"levelo_inurba_marseille","lat":43.28034,"lon":5.36949,"is_reserved":false,"is_disabled":false,"rental_uris":{"android":"levelo://app?vid=521ac9eb-aeb3-4716-a5c7-40c1c5dfc1ab","ios":"levelo://app?vid=521ac9eb-aeb3-4716-a5c7-40c1c5dfc1ab"},"vehicle_type_id":"4","last_reported":1726132157,"current_range_meters":38800,"station_id":"ce4bha12rcd13ifvqef0","pricing_plan_id":"cebpf4jnsgd1na2vs0mg"},{"bike_id":"2e8be033-0f30-4e45-8860-99070234de00","system_id":"levelo_inurba_marseille","lat":43.29843,"lon":5.36266,"is_reserved":false,"is_disabled":false,"rental_uris":{"android":"levelo://app?vid=2e8be033-0f30-4e45-8860-99070234de00","ios":"levelo://app?vid=2e8be033-0f30-4e45-8860-99070234de00"},"vehicle_type_id":"4","last_reported":1726132157,"current_range_meters":7200,"station_id":"ce4bgpp2rcd13ifvqc3g","pricing_plan_id":"cebpf4jnsgd1na2vs0mg"},{"bike_id":"b413d41f-7993-42f5-a3cc-daaaeaf22886","system_id":"levelo_inurba_marseille","lat":43.32489,"lon":5.36557,"is_reserved":false,"is_disabled":false,"rental_uris":{"android":"levelo://app?vid=b413d41f-7993-42f5-a3cc-daaaeaf22886","ios":"levelo://app?vid=b413d41f-7993-42f5-a3cc-daaaeaf22886"},"vehicle_type_id":"4","last_reported":1726132157,"current_range_meters":28000,"station_id":"ce4bhs12rcd13ifvqhvg","pricing_plan_id":"cebpf4jnsgd1na2vs0mg"},{"bike_id":"8f7bec94-909a-4e48-b6ea-4be677c78e3f","system_id":"levelo_inurba_marseille","lat":43.29209,"lon":5.35811,"is_reserved":false,"is_disabled":false,"rental_uris":{"android":"levelo://app?vid=8f7bec94-909a-4e48-b6ea-4be677c78e3f","ios":"levelo://app?vid=8f7bec94-909a-4e48-b6ea-4be677c78e3f"},"vehicle_type_id":"4","last_reported":1726132157,"current_range_meters":35200,"station_id":"ce4bhb12rcd13ifvqel0","pricing_plan_id":"cebpf4jnsgd1na2vs0mg"},{"bike_id":"9bfd078c-4837-4909-816b-4c885130ad91","system_id":"levelo_inurba_marseille","lat":43.28705,"lon":5.39988,"is_reserved":false,"is_disabled":false,"rental_uris":{"android":"levelo://app?vid=9bfd078c-4837-4909-816b-4c885130ad91","ios":"levelo://app?vid=9bfd078c-4837-4909-816b-4c885130ad91"},"vehicle_type_id":"4","last_reported":1726132157,"current_range_meters":22800,"station_id":"ce4bho92rcd13ifvqh3g","pricing_plan_id":"cebpf4jnsgd1na2vs0mg"},{"bike_id":"ce436c74-8382-49a0-9037-30b6397e19af","system_id":"levelo_inurba_marseille","lat":43.2409,"lon":5.37747,"is_reserved":false,"is_disabled":false,"rental_uris":{"android":"levelo://app?vid=ce436c74-8382-49a0-9037-30b6397e19af","ios":"levelo://app?vid=ce436c74-8382-49a0-9037-30b6397e19af"},"vehicle_type_id":"4","last_reported":1726132157,"current_range_meters":30800,"station_id":"ce4bhnp2rcd13ifvqgvg","pricing_plan_id":"cebpf4jnsgd1na2vs0mg"},{"bike_id":"36f1b8ec-0bfe-4b1b-ace9-e26308dc78a6","system_id":"levelo_inurba_marseille","lat":43.23157,"lon":5.43724,"is_reserved":false,"is_disabled":false,"rental_uris":{"android":"levelo://app?vid=36f1b8ec-0bfe-4b1b-ace9-e26308dc78a6","ios":"levelo://app?vid=36f1b8ec-0bfe-4b1b-ace9-e26308dc78a6"},"vehicle_type_id":"4","last_reported":1726132157,"current_range_meters":4400,"station_id":"ce4bhmp2rcd13ifvqgog","pricing_plan_id":"cebpf4jnsgd1na2vs0mg"},{"bike_id":"77f1ab2c-8a7c-4f00-b4ee-cc2e57918d2d","system_id":"levelo_inurba_marseille","lat":43.23154,"lon":5.43719,"is_reserved":false,"is_disabled":false,"rental_uris":{"android":"levelo://app?vid=77f1ab2c-8a7c-4f00-b4ee-cc2e57918d2d","ios":"levelo://app?vid=77f1ab2c-8a7c-4f00-b4ee-cc2e57918d2d"},"vehicle_type_id":"4","last_reported":1726132157,"current_range_meters":9200,"station_id":"ce4bhmp2rcd13ifvqgog","pricing_plan_id":"cebpf4jnsgd1na2vs0mg"},{"bike_id":"763ce531-4554-4ce4-91de-402eab6cb9bb","system_id":"levelo_inurba_marseille","lat":43.25,"lon":5.38923,"is_reserved":false,"is_disabled":false,"rental_uris":{"android":"levelo://app?vid=763ce531-4554-4ce4-91de-402eab6cb9bb","ios":"levelo://app?vid=763ce531-4554-4ce4-91de-402eab6cb9bb"},"vehicle_type_id":"4","last_reported":1726132157,"current_range_meters":24000,"station_id":"ce4bhgp2rcd13ifvqfd0","pricing_plan_id":"cebpf4jnsgd1na2vs0mg"},{"bike_id":"ae3ad6c7-b322-42bb-bf54-fd91ef0db7c7","system_id":"levelo_inurba_marseille","lat":43.24083,"lon":5.37742,"is_reserved":false,"is_disabled":false,"rental_uris":{"android":"levelo://app?vid=ae3ad6c7-b322-42bb-bf54-fd91ef0db7c7","ios":"levelo://app?vid=ae3ad6c7-b322-42bb-bf54-fd91ef0db7c7"},"vehicle_type_id":"4","last_reported":1726132157,"current_range_meters":35600,"station_id":"ce4bhnp2rcd13ifvqgvg","pricing_plan_id":"cebpf4jnsgd1na2vs0mg"},{"bike_id":"ca33d2bf-c9f2-4944-aec8-d1b6204ec37b","system_id":"levelo_inurba_marseille","lat":43.29548,"lon":5.42281,"is_reserved":false,"is_disabled":false,"rental_uris":{"android":"levelo://app?vid=ca33d2bf-c9f2-4944-aec8-d1b6204ec37b","ios":"levelo://app?vid=ca33d2bf-c9f2-4944-aec8-d1b6204ec37b"},"vehicle_type_id":"4","last_reported":1726132157,"current_range_meters":24800,"station_id":"ce4bhph2rcd13ifvqhdg","pricing_plan_id":"cebpf4jnsgd1na2vs0mg"},{"bike_id":"89697812-612a-4075-be97-7b90fbade5ea","system_id":"levelo_inurba_marseille","lat":43.25001,"lon":5.38936,"is_reserved":false,"is_disabled":false,"rental_uris":{"android":"levelo://app?vid=89697812-612a-4075-be97-7b90fbade5ea","ios":"levelo://app?vid=89697812-612a-4075-be97-7b90fbade5ea"},"vehicle_type_id":"4","last_reported":1726132157,"current_range_meters":33200,"station_id":"ce4bhgp2rcd13ifvqfd0","pricing_plan_id":"cebpf4jnsgd1na2vs0mg"},{"bike_id":"e4a5e406-b72a-4f07-9791-f4133102a158","system_id":"levelo_inurba_marseille","lat":43.3248,"lon":5.36573,"is_reserved":false,"is_disabled":false,"rental_uris":{"android":"levelo://app?vid=e4a5e406-b72a-4f07-9791-f4133102a158","ios":"levelo://app?vid=e4a5e406-b72a-4f07-9791-f4133102a158"},"vehicle_type_id":"4","last_reported":1726132157,"current_range_meters":14000,"station_id":"ce4bhs12rcd13ifvqhvg","pricing_plan_id":"cebpf4jnsgd1na2vs0mg"},{"bike_id":"1b1097ad-39d2-4ac3-ade9-0b46c7cbcd51","system_id":"levelo_inurba_marseille","lat":43.30827,"lon":5.36877,"is_reserved":false,"is_disabled":false,"rental_uris":{"android":"levelo://app?vid=1b1097ad-39d2-4ac3-ade9-0b46c7cbcd51","ios":"levelo://app?vid=1b1097ad-39d2-4ac3-ade9-0b46c7cbcd51"},"vehicle_type_id":"4","last_reported":1726132157,"current_range_meters":38000,"station_id":"","pricing_plan_id":"cebpf4jnsgd1na2vs0mg"},{"bike_id":"25d751f7-8dda-4903-bdc2-e23d4d494216","system_id":"levelo_inurba_marseille","lat":43.23153,"lon":5.43715,"is_reserved":false,"is_disabled":false,"rental_uris":{"android":"levelo://app?vid=25d751f7-8dda-4903-bdc2-e23d4d494216","ios":"levelo://app?vid=25d751f7-8dda-4903-bdc2-e23d4d494216"},"vehicle_type_id":"4","last_reported":1726132157,"current_range_meters":3200,"station_id":"ce4bhmp2rcd13ifvqgog","pricing_plan_id":"cebpf4jnsgd1na2vs0mg"},{"bike_id":"81f07673-dfe5-435a-a081-ff73a26a9256","system_id":"levelo_inurba_marseille","lat":43.2409,"lon":5.37761,"is_reserved":false,"is_disabled":false,"rental_uris":{"android":"levelo://app?vid=81f07673-dfe5-435a-a081-ff73a26a9256","ios":"levelo://app?vid=81f07673-dfe5-435a-a081-ff73a26a9256"},"vehicle_type_id":"4","last_reported":1726132157,"current_range_meters":11200,"station_id":"ce4bhnp2rcd13ifvqgvg","pricing_plan_id":"cebpf4jnsgd1na2vs0mg"},{"bike_id":"7ce587b3-eff6-4385-aed2-96acfc8e123a","system_id":"levelo_inurba_marseille","lat":43.30913,"lon":5.36852,"is_reserved":false,"is_disabled":false,"rental_uris":{"android":"levelo://app?vid=7ce587b3-eff6-4385-aed2-96acfc8e123a","ios":"levelo://app?vid=7ce587b3-eff6-4385-aed2-96acfc8e123a"},"vehicle_type_id":"4","last_reported":1726132157,"current_range_meters":35600,"station_id":"ce4bgn92rcd13ifvqbvg","pricing_plan_id":"cebpf4jnsgd1na2vs0mg"},{"bike_id":"fba8f175-7328-4134-90d1-1bb559f8afa7","system_id":"levelo_inurba_marseille","lat":43.33773,"lon":5.37438,"is_reserved":false,"is_disabled":false,"rental_uris":{"android":"levelo://app?vid=fba8f175-7328-4134-90d1-1bb559f8afa7","ios":"levelo://app?vid=fba8f175-7328-4134-90d1-1bb559f8afa7"},"vehicle_type_id":"4","last_reported":1726132157,"current_range_meters":35600,"station_id":"","pricing_plan_id":"cebpf4jnsgd1na2vs0mg"},{"bike_id":"a129a5a6-0a9c-49ce-b1d8-a4e70918d792","system_id":"levelo_inurba_marseille","lat":43.30891,"lon":5.39643,"is_reserved":false,"is_disabled":false,"rental_uris":{"android":"levelo://app?vid=a129a5a6-0a9c-49ce-b1d8-a4e70918d792","ios":"levelo://app?vid=a129a5a6-0a9c-49ce-b1d8-a4e70918d792"},"vehicle_type_id":"4","last_reported":1726132157,"current_range_meters":24000,"station_id":"ce4bh012rcd13ifvqcv0","pricing_plan_id":"cebpf4jnsgd1na2vs0mg"},{"bike_id":"2f51a789-eea0-44dd-98f7-aa48c80747d9","system_id":"levelo_inurba_marseille","lat":43.27205,"lon":5.39194,"is_reserved":false,"is_disabled":false,"rental_uris":{"android":"levelo://app?vid=2f51a789-eea0-44dd-98f7-aa48c80747d9","ios":"levelo://app?vid=2f51a789-eea0-44dd-98f7-aa48c80747d9"},"vehicle_type_id":"4","last_reported":1726132157,"current_range_meters":27200,"station_id":"ce4bhhp2rcd13ifvqfm0","pricing_plan_id":"cebpf4jnsgd1na2vs0mg"},{"bike_id":"bf54e0c4-9ee2-4974-bdfb-c62dacc062a8","system_id":"levelo_inurba_marseille","lat":43.26939,"lon":5.38922,"is_reserved":false,"is_disabled":false,"rental_uris":{"android":"levelo://app?vid=bf54e0c4-9ee2-4974-bdfb-c62dacc062a8","ios":"levelo://app?vid=bf54e0c4-9ee2-4974-bdfb-c62dacc062a8"},"vehicle_type_id":"4","last_reported":1726132157,"current_range_meters":7200,"station_id":"ce4bhhh2rcd13ifvqfl0","pricing_plan_id":"cebpf4jnsgd1na2vs0mg"},{"bike_id":"53ebaa0e-ac89-4925-bb1f-3449ad168899","system_id":"levelo_inurba_marseille","lat":43.30147,"lon":5.37426,"is_reserved":false,"is_disabled":false,"rental_uris":{"android":"levelo://app?vid=53ebaa0e-ac89-4925-bb1f-3449ad168899","ios":"levelo://app?vid=53ebaa0e-ac89-4925-bb1f-3449ad168899"},"vehicle_type_id":"4","last_reported":1726132157,"current_range_meters":39200,"station_id":"ce4bgs92rcd13ifvqcc0","pricing_plan_id":"cebpf4jnsgd1na2vs0mg"},{"bike_id":"cfdd0e5d-34af-414f-999a-c01c6f568ccf","system_id":"levelo_inurba_marseille","lat":43.2455,"lon":5.39516,"is_reserved":false,"is_disabled":false,"rental_uris":{"android":"levelo://app?vid=cfdd0e5d-34af-414f-999a-c01c6f568ccf","ios":"levelo://app?vid=cfdd0e5d-34af-414f-999a-c01c6f568ccf"},"vehicle_type_id":"4","last_reported":1726132157,"current_range_meters":4800,"station_id":"ce4bhlp2rcd13ifvqgjg","pricing_plan_id":"cebpf4jnsgd1na2vs0mg"},{"bike_id":"2c4577b3-3689-495e-a3c3-a78eafd4dc43","system_id":"levelo_inurba_marseille","lat":43.26555,"lon":5.37286,"is_reserved":false,"is_disabled":false,"rental_uris":{"android":"levelo://app?vid=2c4577b3-3689-495e-a3c3-a78eafd4dc43","ios":"levelo://app?vid=2c4577b3-3689-495e-a3c3-a78eafd4dc43"},"vehicle_type_id":"4","last_reported":1726132157,"current_range_meters":27600,"station_id":"ce4bhg12rcd13ifvqf70","pricing_plan_id":"cebpf4jnsgd1na2vs0mg"},{"bike_id":"dc015658-d53f-47a4-b68d-0c6ca08211bb","system_id":"levelo_inurba_marseille","lat":43.231501,"lon":5.436994,"is_reserved":false,"is_disabled":false,"rental_uris":{"android":"levelo://app?vid=dc015658-d53f-47a4-b68d-0c6ca08211bb","ios":"levelo://app?vid=dc015658-d53f-47a4-b68d-0c6ca08211bb"},"vehicle_type_id":"4","last_reported":1726132157,"current_range_meters":6000,"station_id":"ce4bhmp2rcd13ifvqgog","pricing_plan_id":"cebpf4jnsgd1na2vs0mg"},{"bike_id":"c3baa9f4-1a80-441e-aae4-6876a6aba553","system_id":"levelo_inurba_marseille","lat":43.32294,"lon":5.38274,"is_reserved":false,"is_disabled":false,"rental_uris":{"android":"levelo://app?vid=c3baa9f4-1a80-441e-aae4-6876a6aba553","ios":"levelo://app?vid=c3baa9f4-1a80-441e-aae4-6876a6aba553"},"vehicle_type_id":"4","last_reported":1726132157,"current_range_meters":35600,"station_id":"ce4bhr12rcd13ifvqhqg","pricing_plan_id":"cebpf4jnsgd1na2vs0mg"},{"bike_id":"23bd3d86-63c7-42b5-a092-7d3c80361062","system_id":"levelo_inurba_marseille","lat":43.30914,"lon":5.36857,"is_reserved":false,"is_disabled":false,"rental_uris":{"android":"levelo://app?vid=23bd3d86-63c7-42b5-a092-7d3c80361062","ios":"levelo://app?vid=23bd3d86-63c7-42b5-a092-7d3c80361062"},"vehicle_type_id":"4","last_reported":1726132157,"current_range_meters":16800,"station_id":"ce4bgn92rcd13ifvqbvg","pricing_plan_id":"cebpf4jnsgd1na2vs0mg"},{"bike_id":"63c8ef1b-e414-4be5-8157-63c30170851f","system_id":"levelo_inurba_marseille","lat":43.26943,"lon":5.40254,"is_reserved":false,"is_disabled":false,"rental_uris":{"android":"levelo://app?vid=63c8ef1b-e414-4be5-8157-63c30170851f","ios":"levelo://app?vid=63c8ef1b-e414-4be5-8157-63c30170851f"},"vehicle_type_id":"4","last_reported":1726132157,"current_range_meters":14800,"station_id":"cjm6bp8fraef2m0cb0m0","pricing_plan_id":"cebpf4jnsgd1na2vs0mg"},{"bike_id":"f4a873cc-c14a-4509-a081-7a03b0444484","system_id":"levelo_inurba_marseille","lat":43.28544,"lon":5.37375,"is_reserved":false,"is_disabled":false,"rental_uris":{"android":"levelo://app?vid=f4a873cc-c14a-4509-a081-7a03b0444484","ios":"levelo://app?vid=f4a873cc-c14a-4509-a081-7a03b0444484"},"vehicle_type_id":"4","last_reported":1726132157,"current_range_meters":13600,"station_id":"ce4bh412rcd13ifvqds0","pricing_plan_id":"cebpf4jnsgd1na2vs0mg"},{"bike_id":"ea4acde7-7679-4d14-a055-43e52bc7fd5b","system_id":"levelo_inurba_marseille","lat":43.2816,"lon":5.42655,"is_reserved":false,"is_disabled":false,"rental_uris":{"android":"levelo://app?vid=ea4acde7-7679-4d14-a055-43e52bc7fd5b","ios":"levelo://app?vid=ea4acde7-7679-4d14-a055-43e52bc7fd5b"},"vehicle_type_id":"4","last_reported":1726132157,"current_range_meters":17600,"station_id":"ce4bhnh2rcd13ifvqgug","pricing_plan_id":"cebpf4jnsgd1na2vs0mg"},{"bike_id":"d970b38c-7387-43bd-989f-d6f74d17f57e","system_id":"levelo_inurba_marseille","lat":43.30547,"lon":5.36544,"is_reserved":false,"is_disabled":false,"rental_uris":{"android":"levelo://app?vid=d970b38c-7387-43bd-989f-d6f74d17f57e","ios":"levelo://app?vid=d970b38c-7387-43bd-989f-d6f74d17f57e"},"vehicle_type_id":"4","last_reported":1726132157,"current_range_meters":40000,"station_id":"ce4bgs12rcd13ifvqcag","pricing_plan_id":"cebpf4jnsgd1na2vs0mg"},{"bike_id":"8e6ba7fb-d1eb-4b20-86cf-c338d9091623","system_id":"levelo_inurba_marseille","lat":43.26215,"lon":5.3794,"is_reserved":false,"is_disabled":false,"rental_uris":{"android":"levelo://app?vid=8e6ba7fb-d1eb-4b20-86cf-c338d9091623","ios":"levelo://app?vid=8e6ba7fb-d1eb-4b20-86cf-c338d9091623"},"vehicle_type_id":"4","last_reported":1726132157,"current_range_meters":33600,"station_id":"ce4bhjp2rcd13ifvqg90","pricing_plan_id":"cebpf4jnsgd1na2vs0mg"},{"bike_id":"5e581808-211e-428c-a958-5c9400e97260","system_id":"levelo_inurba_marseille","lat":43.27487,"lon":5.42473,"is_reserved":false,"is_disabled":false,"rental_uris":{"android":"levelo://app?vid=5e581808-211e-428c-a958-5c9400e97260","ios":"levelo://app?vid=5e581808-211e-428c-a958-5c9400e97260"},"vehicle_type_id":"4","last_reported":1726132157,"current_range_meters":3200,"station_id":"ce4bhn92rcd13ifvqgrg","pricing_plan_id":"cebpf4jnsgd1na2vs0mg"},{"bike_id":"1cfcd81f-73d1-4160-981c-c651a55215eb","system_id":"levelo_inurba_marseille","lat":43.25826,"lon":5.39429,"is_reserved":false,"is_disabled":false,"rental_uris":{"android":"levelo://app?vid=1cfcd81f-73d1-4160-981c-c651a55215eb","ios":"levelo://app?vid=1cfcd81f-73d1-4160-981c-c651a55215eb"},"vehicle_type_id":"4","last_reported":1726132157,"current_range_meters":2800,"station_id":"ce4bhip2rcd13ifvqft0","pricing_plan_id":"cebpf4jnsgd1na2vs0mg"},{"bike_id":"f8891ded-e9c6-4143-b577-9e7b14e71218","system_id":"levelo_inurba_marseille","lat":43.28854,"lon":5.35849,"is_reserved":false,"is_disabled":false,"rental_uris":{"android":"levelo://app?vid=f8891ded-e9c6-4143-b577-9e7b14e71218","ios":"levelo://app?vid=f8891ded-e9c6-4143-b577-9e7b14e71218"},"vehicle_type_id":"4","last_reported":1726132157,"current_range_meters":26000,"station_id":"ce4bhb12rcd13ifvqem0","pricing_plan_id":"cebpf4jnsgd1na2vs0mg"},{"bike_id":"ac61b3d5-4a9a-4e8e-8909-e3b91f61a358","system_id":"levelo_inurba_marseille","lat":43.30282,"lon":5.37695,"is_reserved":false,"is_disabled":false,"rental_uris":{"android":"levelo://app?vid=ac61b3d5-4a9a-4e8e-8909-e3b91f61a358","ios":"levelo://app?vid=ac61b3d5-4a9a-4e8e-8909-e3b91f61a358"},"vehicle_type_id":"4","last_reported":1726132157,"current_range_meters":31200,"station_id":"ce4bguh2rcd13ifvqcj0","pricing_plan_id":"cebpf4jnsgd1na2vs0mg"},{"bike_id":"dd99ab3d-cb76-4b60-b553-275a65eef40e","system_id":"levelo_inurba_marseille","lat":43.25936,"lon":5.40908,"is_reserved":false,"is_disabled":false,"rental_uris":{"android":"levelo://app?vid=dd99ab3d-cb76-4b60-b553-275a65eef40e","ios":"levelo://app?vid=dd99ab3d-cb76-4b60-b553-275a65eef40e"},"vehicle_type_id":"4","last_reported":1726132157,"current_range_meters":33600,"station_id":"ce4bhm92rcd13ifvqglg","pricing_plan_id":"cebpf4jnsgd1na2vs0mg"},{"bike_id":"a794bbd9-e83e-4910-83a4-566ea7e762eb","system_id":"levelo_inurba_marseille","lat":43.24995,"lon":5.38935,"is_reserved":false,"is_disabled":false,"rental_uris":{"android":"levelo://app?vid=a794bbd9-e83e-4910-83a4-566ea7e762eb","ios":"levelo://app?vid=a794bbd9-e83e-4910-83a4-566ea7e762eb"},"vehicle_type_id":"4","last_reported":1726132157,"current_range_meters":7200,"station_id":"ce4bhgp2rcd13ifvqfd0","pricing_plan_id":"cebpf4jnsgd1na2vs0mg"},{"bike_id":"69d8f1ce-ef52-4962-9d2a-9eaaaccd9da1","system_id":"levelo_inurba_marseille","lat":43.25864,"lon":5.39908,"is_reserved":false,"is_disabled":false,"rental_uris":{"android":"levelo://app?vid=69d8f1ce-ef52-4962-9d2a-9eaaaccd9da1","ios":"levelo://app?vid=69d8f1ce-ef52-4962-9d2a-9eaaaccd9da1"},"vehicle_type_id":"4","last_reported":1726132157,"current_range_meters":14800,"station_id":"ce4bhl92rcd13ifvqghg","pricing_plan_id":"cebpf4jnsgd1na2vs0mg"},{"bike_id":"fd8cf3d5-8926-4e30-a41c-437787acb9b6","system_id":"levelo_inurba_marseille","lat":43.30883,"lon":5.39635,"is_reserved":false,"is_disabled":false,"rental_uris":{"android":"levelo://app?vid=fd8cf3d5-8926-4e30-a41c-437787acb9b6","ios":"levelo://app?vid=fd8cf3d5-8926-4e30-a41c-437787acb9b6"},"vehicle_type_id":"4","last_reported":1726132157,"current_range_meters":12400,"station_id":"ce4bh012rcd13ifvqcv0","pricing_plan_id":"cebpf4jnsgd1na2vs0mg"},{"bike_id":"61dc4eae-f9e9-4124-ae38-99ac00f06e9b","system_id":"levelo_inurba_marseille","lat":43.24085,"lon":5.37743,"is_reserved":false,"is_disabled":false,"rental_uris":{"android":"levelo://app?vid=61dc4eae-f9e9-4124-ae38-99ac00f06e9b","ios":"levelo://app?vid=61dc4eae-f9e9-4124-ae38-99ac00f06e9b"},"vehicle_type_id":"4","last_reported":1726132157,"current_range_meters":32000,"station_id":"ce4bhnp2rcd13ifvqgvg","pricing_plan_id":"cebpf4jnsgd1na2vs0mg"},{"bike_id":"c7afcc44-548d-4bdb-8897-3f0f92773efa","system_id":"levelo_inurba_marseille","lat":43.29278,"lon":5.36841,"is_reserved":false,"is_disabled":false,"rental_uris":{"android":"levelo://app?vid=c7afcc44-548d-4bdb-8897-3f0f92773efa","ios":"levelo://app?vid=c7afcc44-548d-4bdb-8897-3f0f92773efa"},"vehicle_type_id":"4","last_reported":1726132157,"current_range_meters":38800,"station_id":"ce4bhbp2rcd13ifvqesg","pricing_plan_id":"cebpf4jnsgd1na2vs0mg"},{"bike_id":"10e7e032-ccbd-46cd-b9a4-50be4d18ac8b","system_id":"levelo_inurba_marseille","lat":43.24666,"lon":5.38161,"is_reserved":false,"is_disabled":false,"rental_uris":{"android":"levelo://app?vid=10e7e032-ccbd-46cd-b9a4-50be4d18ac8b","ios":"levelo://app?vid=10e7e032-ccbd-46cd-b9a4-50be4d18ac8b"},"vehicle_type_id":"4","last_reported":1726132157,"current_range_meters":31200,"station_id":"ce4bhih2rcd13ifvqfr0","pricing_plan_id":"cebpf4jnsgd1na2vs0mg"},{"bike_id":"cb16290f-1b68-4ac4-897a-62170d60528d","system_id":"levelo_inurba_marseille","lat":43.33755,"lon":5.37429,"is_reserved":false,"is_disabled":false,"rental_uris":{"android":"levelo://app?vid=cb16290f-1b68-4ac4-897a-62170d60528d","ios":"levelo://app?vid=cb16290f-1b68-4ac4-897a-62170d60528d"},"vehicle_type_id":"4","last_reported":1726132157,"current_range_meters":32000,"station_id":"","pricing_plan_id":"cebpf4jnsgd1na2vs0mg"},{"bike_id":"9f3066bd-94ad-4b6a-b0f8-8a46517297de","system_id":"levelo_inurba_marseille","lat":43.30605,"lon":5.37241,"is_reserved":false,"is_disabled":false,"rental_uris":{"android":"levelo://app?vid=9f3066bd-94ad-4b6a-b0f8-8a46517297de","ios":"levelo://app?vid=9f3066bd-94ad-4b6a-b0f8-8a46517297de"},"vehicle_type_id":"4","last_reported":1726132157,"current_range_meters":36000,"station_id":"ce4bgqh2rcd13ifvqc4g","pricing_plan_id":"cebpf4jnsgd1na2vs0mg"},{"bike_id":"b279d8db-d104-4fc0-b94c-7e2dd0443742","system_id":"levelo_inurba_marseille","lat":43.32542,"lon":5.4145,"is_reserved":false,"is_disabled":false,"rental_uris":{"android":"levelo://app?vid=b279d8db-d104-4fc0-b94c-7e2dd0443742","ios":"levelo://app?vid=b279d8db-d104-4fc0-b94c-7e2dd0443742"},"vehicle_type_id":"4","last_reported":1726132157,"current_range_meters":11200,"station_id":"ce4bhq12rcd13ifvqhhg","pricing_plan_id":"cebpf4jnsgd1na2vs0mg"},{"bike_id":"e43aa60c-1314-4d9e-ab0a-d4cc3c0584a4","system_id":"levelo_inurba_marseille","lat":43.24081,"lon":5.37751,"is_reserved":false,"is_disabled":false,"rental_uris":{"android":"levelo://app?vid=e43aa60c-1314-4d9e-ab0a-d4cc3c0584a4","ios":"levelo://app?vid=e43aa60c-1314-4d9e-ab0a-d4cc3c0584a4"},"vehicle_type_id":"4","last_reported":1726132157,"current_range_meters":38000,"station_id":"ce4bhnp2rcd13ifvqgvg","pricing_plan_id":"cebpf4jnsgd1na2vs0mg"},{"bike_id":"c8d291f1-0c46-4e09-8e79-c7c2d106ea12","system_id":"levelo_inurba_marseille","lat":43.30474,"lon":5.379,"is_reserved":false,"is_disabled":false,"rental_uris":{"android":"levelo://app?vid=c8d291f1-0c46-4e09-8e79-c7c2d106ea12","ios":"levelo://app?vid=c8d291f1-0c46-4e09-8e79-c7c2d106ea12"},"vehicle_type_id":"4","last_reported":1726132157,"current_range_meters":20800,"station_id":"ce4bgup2rcd13ifvqcn0","pricing_plan_id":"cebpf4jnsgd1na2vs0mg"},{"bike_id":"42f4c576-b9c9-451e-bb09-e9ba24f78231","system_id":"levelo_inurba_marseille","lat":43.24076,"lon":5.37756,"is_reserved":false,"is_disabled":false,"rental_uris":{"android":"levelo://app?vid=42f4c576-b9c9-451e-bb09-e9ba24f78231","ios":"levelo://app?vid=42f4c576-b9c9-451e-bb09-e9ba24f78231"},"vehicle_type_id":"4","last_reported":1726132157,"current_range_meters":35200,"station_id":"ce4bhnp2rcd13ifvqgvg","pricing_plan_id":"cebpf4jnsgd1na2vs0mg"},{"bike_id":"170ae1e9-caab-40a0-8305-76d0bd386af3","system_id":"levelo_inurba_marseille","lat":43.29231,"lon":5.36072,"is_reserved":false,"is_disabled":false,"rental_uris":{"android":"levelo://app?vid=170ae1e9-caab-40a0-8305-76d0bd386af3","ios":"levelo://app?vid=170ae1e9-caab-40a0-8305-76d0bd386af3"},"vehicle_type_id":"4","last_reported":1726132157,"current_range_meters":18800,"station_id":"ce4bhbh2rcd13ifvqeqg","pricing_plan_id":"cebpf4jnsgd1na2vs0mg"},{"bike_id":"dfd604c4-221b-442d-8f0c-5524a0446526","system_id":"levelo_inurba_marseille","lat":43.30282,"lon":5.37695,"is_reserved":false,"is_disabled":false,"rental_uris":{"android":"levelo://app?vid=dfd604c4-221b-442d-8f0c-5524a0446526","ios":"levelo://app?vid=dfd604c4-221b-442d-8f0c-5524a0446526"},"vehicle_type_id":"4","last_reported":1726132157,"current_range_meters":40000,"station_id":"ce4bguh2rcd13ifvqcj0","pricing_plan_id":"cebpf4jnsgd1na2vs0mg"},{"bike_id":"7d348dd9-aba5-4535-bda9-b52ada6017ef","system_id":"levelo_inurba_marseille","lat":43.26191,"lon":5.37446,"is_reserved":false,"is_disabled":false,"rental_uris":{"android":"levelo://app?vid=7d348dd9-aba5-4535-bda9-b52ada6017ef","ios":"levelo://app?vid=7d348dd9-aba5-4535-bda9-b52ada6017ef"},"vehicle_type_id":"4","last_reported":1726132157,"current_range_meters":37600,"station_id":"ce4bhgp2rcd13ifvqfc0","pricing_plan_id":"cebpf4jnsgd1na2vs0mg"},{"bike_id":"9f7ee0be-e9c7-4974-9a33-f647d44b45df","system_id":"levelo_inurba_marseille","lat":43.31232,"lon":5.3688,"is_reserved":false,"is_disabled":false,"rental_uris":{"android":"levelo://app?vid=9f7ee0be-e9c7-4974-9a33-f647d44b45df","ios":"levelo://app?vid=9f7ee0be-e9c7-4974-9a33-f647d44b45df"},"vehicle_type_id":"4","last_reported":1726132157,"current_range_meters":32000,"station_id":"ce4bgl92rcd13ifvqbq0","pricing_plan_id":"cebpf4jnsgd1na2vs0mg"},{"bike_id":"665be21c-e0a7-4fb9-810b-286169028cef","system_id":"levelo_inurba_marseille","lat":43.24083,"lon":5.37752,"is_reserved":false,"is_disabled":false,"rental_uris":{"android":"levelo://app?vid=665be21c-e0a7-4fb9-810b-286169028cef","ios":"levelo://app?vid=665be21c-e0a7-4fb9-810b-286169028cef"},"vehicle_type_id":"4","last_reported":1726132157,"current_range_meters":35600,"station_id":"ce4bhnp2rcd13ifvqgvg","pricing_plan_id":"cebpf4jnsgd1na2vs0mg"},{"bike_id":"59c63ac3-c7c2-492d-8faf-09af45f74270","system_id":"levelo_inurba_marseille","lat":43.24807,"lon":5.37456,"is_reserved":false,"is_disabled":false,"rental_uris":{"android":"levelo://app?vid=59c63ac3-c7c2-492d-8faf-09af45f74270","ios":"levelo://app?vid=59c63ac3-c7c2-492d-8faf-09af45f74270"},"vehicle_type_id":"4","last_reported":1726132157,"current_range_meters":16400,"station_id":"ce4bhgh2rcd13ifvqfb0","pricing_plan_id":"cebpf4jnsgd1na2vs0mg"},{"bike_id":"02964caf-f190-471e-a530-d0fefedd8874","system_id":"levelo_inurba_marseille","lat":43.25947,"lon":5.40909,"is_reserved":false,"is_disabled":false,"rental_uris":{"android":"levelo://app?vid=02964caf-f190-471e-a530-d0fefedd8874","ios":"levelo://app?vid=02964caf-f190-471e-a530-d0fefedd8874"},"vehicle_type_id":"4","last_reported":1726132157,"current_range_meters":27600,"station_id":"ce4bhm92rcd13ifvqglg","pricing_plan_id":"cebpf4jnsgd1na2vs0mg"},{"bike_id":"d80a18ab-6133-4a03-a768-892713633ebd","system_id":"levelo_inurba_marseille","lat":43.29735,"lon":5.37701,"is_reserved":false,"is_disabled":false,"rental_uris":{"android":"levelo://app?vid=d80a18ab-6133-4a03-a768-892713633ebd","ios":"levelo://app?vid=d80a18ab-6133-4a03-a768-892713633ebd"},"vehicle_type_id":"4","last_reported":1726132157,"current_range_meters":28800,"station_id":"ce4bgkh2rcd13ifvqbl0","pricing_plan_id":"cebpf4jnsgd1na2vs0mg"},{"bike_id":"cd2104e9-fe8f-4a8d-a2d7-15eafb601787","system_id":"levelo_inurba_marseille","lat":43.3123,"lon":5.36854,"is_reserved":false,"is_disabled":false,"rental_uris":{"android":"levelo://app?vid=cd2104e9-fe8f-4a8d-a2d7-15eafb601787","ios":"levelo://app?vid=cd2104e9-fe8f-4a8d-a2d7-15eafb601787"},"vehicle_type_id":"4","last_reported":1726132157,"current_range_meters":38800,"station_id":"ce4bgl92rcd13ifvqbq0","pricing_plan_id":"cebpf4jnsgd1na2vs0mg"},{"bike_id":"6adac3d4-3047-4e8b-b1ba-2335da10405c","system_id":"levelo_inurba_marseille","lat":43.26069,"lon":5.39397,"is_reserved":false,"is_disabled":false,"rental_uris":{"android":"levelo://app?vid=6adac3d4-3047-4e8b-b1ba-2335da10405c","ios":"levelo://app?vid=6adac3d4-3047-4e8b-b1ba-2335da10405c"},"vehicle_type_id":"4","last_reported":1726132157,"current_range_meters":36400,"station_id":"ce4bhh92rcd13ifvqfj0","pricing_plan_id":"cebpf4jnsgd1na2vs0mg"},{"bike_id":"e2765759-4e07-4974-b8a4-c45e517a9dd8","system_id":"levelo_inurba_marseille","lat":43.26214,"lon":5.37441,"is_reserved":false,"is_disabled":false,"rental_uris":{"android":"levelo://app?vid=e2765759-4e07-4974-b8a4-c45e517a9dd8","ios":"levelo://app?vid=e2765759-4e07-4974-b8a4-c45e517a9dd8"},"vehicle_type_id":"4","last_reported":1726132157,"current_range_meters":35600,"station_id":"ce4bhgp2rcd13ifvqfc0","pricing_plan_id":"cebpf4jnsgd1na2vs0mg"},{"bike_id":"ad293842-a5c3-4176-af30-c4c13092745b","system_id":"levelo_inurba_marseille","lat":43.28155,"lon":5.42638,"is_reserved":false,"is_disabled":false,"rental_uris":{"android":"levelo://app?vid=ad293842-a5c3-4176-af30-c4c13092745b","ios":"levelo://app?vid=ad293842-a5c3-4176-af30-c4c13092745b"},"vehicle_type_id":"4","last_reported":1726132157,"current_range_meters":28400,"station_id":"ce4bhnh2rcd13ifvqgug","pricing_plan_id":"cebpf4jnsgd1na2vs0mg"},{"bike_id":"deaeb920-23ab-4b51-a90a-3a4d369b9959","system_id":"levelo_inurba_marseille","lat":43.26557,"lon":5.37289,"is_reserved":false,"is_disabled":false,"rental_uris":{"android":"levelo://app?vid=deaeb920-23ab-4b51-a90a-3a4d369b9959","ios":"levelo://app?vid=deaeb920-23ab-4b51-a90a-3a4d369b9959"},"vehicle_type_id":"4","last_reported":1726132157,"current_range_meters":13600,"station_id":"ce4bhg12rcd13ifvqf70","pricing_plan_id":"cebpf4jnsgd1na2vs0mg"},{"bike_id":"89add689-98d3-4a14-ba75-a2f8a1f0e4bd","system_id":"levelo_inurba_marseille","lat":43.24995,"lon":5.38939,"is_reserved":false,"is_disabled":false,"rental_uris":{"android":"levelo://app?vid=89add689-98d3-4a14-ba75-a2f8a1f0e4bd","ios":"levelo://app?vid=89add689-98d3-4a14-ba75-a2f8a1f0e4bd"},"vehicle_type_id":"4","last_reported":1726132157,"current_range_meters":19200,"station_id":"ce4bhgp2rcd13ifvqfd0","pricing_plan_id":"cebpf4jnsgd1na2vs0mg"},{"bike_id":"b32a9a4d-2708-4b1a-907a-90b577567e4c","system_id":"levelo_inurba_marseille","lat":43.30881,"lon":5.39643,"is_reserved":false,"is_disabled":false,"rental_uris":{"android":"levelo://app?vid=b32a9a4d-2708-4b1a-907a-90b577567e4c","ios":"levelo://app?vid=b32a9a4d-2708-4b1a-907a-90b577567e4c"},"vehicle_type_id":"4","last_reported":1726132157,"current_range_meters":27200,"station_id":"ce4bh012rcd13ifvqcv0","pricing_plan_id":"cebpf4jnsgd1na2vs0mg"},{"bike_id":"fc13766f-b902-40e7-8a20-6d02842a3ec2","system_id":"levelo_inurba_marseille","lat":43.2928,"lon":5.36849,"is_reserved":false,"is_disabled":false,"rental_uris":{"android":"levelo://app?vid=fc13766f-b902-40e7-8a20-6d02842a3ec2","ios":"levelo://app?vid=fc13766f-b902-40e7-8a20-6d02842a3ec2"},"vehicle_type_id":"4","last_reported":1726132157,"current_range_meters":6400,"station_id":"ce4bhbp2rcd13ifvqesg","pricing_plan_id":"cebpf4jnsgd1na2vs0mg"},{"bike_id":"3e2f07a3-034a-46fa-88b1-fda8e90092a3","system_id":"levelo_inurba_marseille","lat":43.337444,"lon":5.374475,"is_reserved":false,"is_disabled":false,"rental_uris":{"android":"levelo://app?vid=3e2f07a3-034a-46fa-88b1-fda8e90092a3","ios":"levelo://app?vid=3e2f07a3-034a-46fa-88b1-fda8e90092a3"},"vehicle_type_id":"4","last_reported":1726132157,"current_range_meters":28800,"station_id":"","pricing_plan_id":"cebpf4jnsgd1na2vs0mg"},{"bike_id":"c1142c8d-e336-4538-9544-b15b7b40b9ec","system_id":"levelo_inurba_marseille","lat":43.30949,"lon":5.39041,"is_reserved":false,"is_disabled":false,"rental_uris":{"android":"levelo://app?vid=c1142c8d-e336-4538-9544-b15b7b40b9ec","ios":"levelo://app?vid=c1142c8d-e336-4538-9544-b15b7b40b9ec"},"vehicle_type_id":"4","last_reported":1726132157,"current_range_meters":6400,"station_id":"ce4bgup2rcd13ifvqco0","pricing_plan_id":"cebpf4jnsgd1na2vs0mg"},{"bike_id":"ba72e858-571b-4d91-a29b-a577f810152e","system_id":"levelo_inurba_marseille","lat":43.25728,"lon":5.41116,"is_reserved":false,"is_disabled":false,"rental_uris":{"android":"levelo://app?vid=ba72e858-571b-4d91-a29b-a577f810152e","ios":"levelo://app?vid=ba72e858-571b-4d91-a29b-a577f810152e"},"vehicle_type_id":"4","last_reported":1726132157,"current_range_meters":23200,"station_id":"ce4bhkp2rcd13ifvqgd0","pricing_plan_id":"cebpf4jnsgd1na2vs0mg"},{"bike_id":"8dbdcd08-5777-4453-9969-b641ace2027d","system_id":"levelo_inurba_marseille","lat":43.26786,"lon":5.39411,"is_reserved":false,"is_disabled":false,"rental_uris":{"android":"levelo://app?vid=8dbdcd08-5777-4453-9969-b641ace2027d","ios":"levelo://app?vid=8dbdcd08-5777-4453-9969-b641ace2027d"},"vehicle_type_id":"4","last_reported":1726132157,"current_range_meters":39200,"station_id":"ce4bhh12rcd13ifvqfg0","pricing_plan_id":"cebpf4jnsgd1na2vs0mg"},{"bike_id":"5b447c57-133e-42cd-827f-e526e0bfeef2","system_id":"levelo_inurba_marseille","lat":43.31365,"lon":5.36723,"is_reserved":false,"is_disabled":false,"rental_uris":{"android":"levelo://app?vid=5b447c57-133e-42cd-827f-e526e0bfeef2","ios":"levelo://app?vid=5b447c57-133e-42cd-827f-e526e0bfeef2"},"vehicle_type_id":"4","last_reported":1726132157,"current_range_meters":40000,"station_id":"ce4bgr92rcd13ifvqc6g","pricing_plan_id":"cebpf4jnsgd1na2vs0mg"},{"bike_id":"b339ada7-e3c9-4078-8ab9-62d2173286d7","system_id":"levelo_inurba_marseille","lat":43.30536,"lon":5.36549,"is_reserved":false,"is_disabled":false,"rental_uris":{"android":"levelo://app?vid=b339ada7-e3c9-4078-8ab9-62d2173286d7","ios":"levelo://app?vid=b339ada7-e3c9-4078-8ab9-62d2173286d7"},"vehicle_type_id":"4","last_reported":1726132157,"current_range_meters":25200,"station_id":"ce4bgs12rcd13ifvqcag","pricing_plan_id":"cebpf4jnsgd1na2vs0mg"},{"bike_id":"9d49211d-ae11-4ac3-96bf-dd3b41a37474","system_id":"levelo_inurba_marseille","lat":43.33753,"lon":5.37436,"is_reserved":false,"is_disabled":false,"rental_uris":{"android":"levelo://app?vid=9d49211d-ae11-4ac3-96bf-dd3b41a37474","ios":"levelo://app?vid=9d49211d-ae11-4ac3-96bf-dd3b41a37474"},"vehicle_type_id":"4","last_reported":1726132157,"current_range_meters":9600,"station_id":"","pricing_plan_id":"cebpf4jnsgd1na2vs0mg"},{"bike_id":"7a9db6cc-034f-4ca0-a824-db851afb7f24","system_id":"levelo_inurba_marseille","lat":43.31241,"lon":5.36859,"is_reserved":false,"is_disabled":false,"rental_uris":{"android":"levelo://app?vid=7a9db6cc-034f-4ca0-a824-db851afb7f24","ios":"levelo://app?vid=7a9db6cc-034f-4ca0-a824-db851afb7f24"},"vehicle_type_id":"4","last_reported":1726132157,"current_range_meters":28400,"station_id":"ce4bgl92rcd13ifvqbq0","pricing_plan_id":"cebpf4jnsgd1na2vs0mg"},{"bike_id":"8e53a3db-5c9b-4ac0-be14-c84953c51b50","system_id":"levelo_inurba_marseille","lat":43.28352,"lon":5.38109,"is_reserved":false,"is_disabled":false,"rental_uris":{"android":"levelo://app?vid=8e53a3db-5c9b-4ac0-be14-c84953c51b50","ios":"levelo://app?vid=8e53a3db-5c9b-4ac0-be14-c84953c51b50"},"vehicle_type_id":"4","last_reported":1726132157,"current_range_meters":30000,"station_id":"ce4bh412rcd13ifvqdr0","pricing_plan_id":"cebpf4jnsgd1na2vs0mg"},{"bike_id":"a78102a0-bfeb-4bfd-a176-51b3099f4535","system_id":"levelo_inurba_marseille","lat":43.24083,"lon":5.37762,"is_reserved":false,"is_disabled":false,"rental_uris":{"android":"levelo://app?vid=a78102a0-bfeb-4bfd-a176-51b3099f4535","ios":"levelo://app?vid=a78102a0-bfeb-4bfd-a176-51b3099f4535"},"vehicle_type_id":"4","last_reported":1726132157,"current_range_meters":26800,"station_id":"ce4bhnp2rcd13ifvqgvg","pricing_plan_id":"cebpf4jnsgd1na2vs0mg"},{"bike_id":"b3e31451-b409-4829-89f1-b5cfe9fb7e02","system_id":"levelo_inurba_marseille","lat":43.33615,"lon":5.41028,"is_reserved":false,"is_disabled":false,"rental_uris":{"android":"levelo://app?vid=b3e31451-b409-4829-89f1-b5cfe9fb7e02","ios":"levelo://app?vid=b3e31451-b409-4829-89f1-b5cfe9fb7e02"},"vehicle_type_id":"4","last_reported":1726132157,"current_range_meters":36400,"station_id":"ce4bhqh2rcd13ifvqhmg","pricing_plan_id":"cebpf4jnsgd1na2vs0mg"},{"bike_id":"614beba6-d97a-4fdf-b745-944c926f65a6","system_id":"levelo_inurba_marseille","lat":43.29228,"lon":5.36053,"is_reserved":false,"is_disabled":false,"rental_uris":{"android":"levelo://app?vid=614beba6-d97a-4fdf-b745-944c926f65a6","ios":"levelo://app?vid=614beba6-d97a-4fdf-b745-944c926f65a6"},"vehicle_type_id":"4","last_reported":1726132157,"current_range_meters":8400,"station_id":"ce4bhbh2rcd13ifvqeqg","pricing_plan_id":"cebpf4jnsgd1na2vs0mg"},{"bike_id":"58400d57-3788-4e93-ad6b-8b4295e6e804","system_id":"levelo_inurba_marseille","lat":43.25867,"lon":5.39905,"is_reserved":false,"is_disabled":false,"rental_uris":{"android":"levelo://app?vid=58400d57-3788-4e93-ad6b-8b4295e6e804","ios":"levelo://app?vid=58400d57-3788-4e93-ad6b-8b4295e6e804"},"vehicle_type_id":"4","last_reported":1726132157,"current_range_meters":32800,"station_id":"ce4bhl92rcd13ifvqghg","pricing_plan_id":"cebpf4jnsgd1na2vs0mg"},{"bike_id":"c45eece6-266b-4ac3-948c-78fa647870d7","system_id":"levelo_inurba_marseille","lat":43.26074,"lon":5.3939,"is_reserved":false,"is_disabled":false,"rental_uris":{"android":"levelo://app?vid=c45eece6-266b-4ac3-948c-78fa647870d7","ios":"levelo://app?vid=c45eece6-266b-4ac3-948c-78fa647870d7"},"vehicle_type_id":"4","last_reported":1726132157,"current_range_meters":24800,"station_id":"ce4bhh92rcd13ifvqfj0","pricing_plan_id":"cebpf4jnsgd1na2vs0mg"},{"bike_id":"b5c74026-88c8-4590-abdf-fc90ab245935","system_id":"levelo_inurba_marseille","lat":43.31489,"lon":5.37306,"is_reserved":false,"is_disabled":false,"rental_uris":{"android":"levelo://app?vid=b5c74026-88c8-4590-abdf-fc90ab245935","ios":"levelo://app?vid=b5c74026-88c8-4590-abdf-fc90ab245935"},"vehicle_type_id":"4","last_reported":1726132157,"current_range_meters":33200,"station_id":"ce4bgt12rcd13ifvqcd0","pricing_plan_id":"cebpf4jnsgd1na2vs0mg"},{"bike_id":"a39886c0-e9c8-48c0-9ee6-358325778526","system_id":"levelo_inurba_marseille","lat":43.26566,"lon":5.39007,"is_reserved":false,"is_disabled":false,"rental_uris":{"android":"levelo://app?vid=a39886c0-e9c8-48c0-9ee6-358325778526","ios":"levelo://app?vid=a39886c0-e9c8-48c0-9ee6-358325778526"},"vehicle_type_id":"4","last_reported":1726132157,"current_range_meters":18000,"station_id":"ce4bhe12rcd13ifvqf30","pricing_plan_id":"cebpf4jnsgd1na2vs0mg"},{"bike_id":"898f248f-bed4-4f07-af87-c3bf97932698","system_id":"levelo_inurba_marseille","lat":43.29844,"lon":5.36255,"is_reserved":false,"is_disabled":false,"rental_uris":{"android":"levelo://app?vid=898f248f-bed4-4f07-af87-c3bf97932698","ios":"levelo://app?vid=898f248f-bed4-4f07-af87-c3bf97932698"},"vehicle_type_id":"4","last_reported":1726132157,"current_range_meters":31200,"station_id":"ce4bgpp2rcd13ifvqc3g","pricing_plan_id":"cebpf4jnsgd1na2vs0mg"},{"bike_id":"7467638d-e69b-486f-a102-30f19d08fa1f","system_id":"levelo_inurba_marseille","lat":43.2985,"lon":5.36263,"is_reserved":false,"is_disabled":false,"rental_uris":{"android":"levelo://app?vid=7467638d-e69b-486f-a102-30f19d08fa1f","ios":"levelo://app?vid=7467638d-e69b-486f-a102-30f19d08fa1f"},"vehicle_type_id":"4","last_reported":1726132157,"current_range_meters":25200,"station_id":"ce4bgpp2rcd13ifvqc3g","pricing_plan_id":"cebpf4jnsgd1na2vs0mg"},{"bike_id":"e8df1a4f-47f1-4522-909d-2113943ddc1e","system_id":"levelo_inurba_marseille","lat":43.30954,"lon":5.39055,"is_reserved":false,"is_disabled":false,"rental_uris":{"android":"levelo://app?vid=e8df1a4f-47f1-4522-909d-2113943ddc1e","ios":"levelo://app?vid=e8df1a4f-47f1-4522-909d-2113943ddc1e"},"vehicle_type_id":"4","last_reported":1726132157,"current_range_meters":34000,"station_id":"ce4bgup2rcd13ifvqco0","pricing_plan_id":"cebpf4jnsgd1na2vs0mg"},{"bike_id":"00d633d2-dada-4498-8cec-529b6481d305","system_id":"levelo_inurba_marseille","lat":43.26934,"lon":5.3891,"is_reserved":false,"is_disabled":false,"rental_uris":{"android":"levelo://app?vid=00d633d2-dada-4498-8cec-529b6481d305","ios":"levelo://app?vid=00d633d2-dada-4498-8cec-529b6481d305"},"vehicle_type_id":"4","last_reported":1726132157,"current_range_meters":28800,"station_id":"ce4bhhh2rcd13ifvqfl0","pricing_plan_id":"cebpf4jnsgd1na2vs0mg"},{"bike_id":"8dff30ed-bea6-490f-9a43-12ef94fb32fc","system_id":"levelo_inurba_marseille","lat":43.29854,"lon":5.3629,"is_reserved":false,"is_disabled":false,"rental_uris":{"android":"levelo://app?vid=8dff30ed-bea6-490f-9a43-12ef94fb32fc","ios":"levelo://app?vid=8dff30ed-bea6-490f-9a43-12ef94fb32fc"},"vehicle_type_id":"4","last_reported":1726132157,"current_range_meters":22400,"station_id":"ce4bgpp2rcd13ifvqc3g","pricing_plan_id":"cebpf4jnsgd1na2vs0mg"},{"bike_id":"2efe19d8-d411-42cd-aac8-19d00c64dea2","system_id":"levelo_inurba_marseille","lat":43.26683,"lon":5.38272,"is_reserved":false,"is_disabled":false,"rental_uris":{"android":"levelo://app?vid=2efe19d8-d411-42cd-aac8-19d00c64dea2","ios":"levelo://app?vid=2efe19d8-d411-42cd-aac8-19d00c64dea2"},"vehicle_type_id":"4","last_reported":1726132157,"current_range_meters":15200,"station_id":"ce4bhg92rcd13ifvqf90","pricing_plan_id":"cebpf4jnsgd1na2vs0mg"},{"bike_id":"dd2d66a6-976d-43e6-83be-d6211ff78acc","system_id":"levelo_inurba_marseille","lat":43.33732,"lon":5.39172,"is_reserved":false,"is_disabled":false,"rental_uris":{"android":"levelo://app?vid=dd2d66a6-976d-43e6-83be-d6211ff78acc","ios":"levelo://app?vid=dd2d66a6-976d-43e6-83be-d6211ff78acc"},"vehicle_type_id":"4","last_reported":1726132157,"current_range_meters":12400,"station_id":"ce4bhr92rcd13ifvqhsg","pricing_plan_id":"cebpf4jnsgd1na2vs0mg"},{"bike_id":"ad08391e-afd4-4a43-b8ed-69db504ec1d5","system_id":"levelo_inurba_marseille","lat":43.29555,"lon":5.42278,"is_reserved":false,"is_disabled":false,"rental_uris":{"android":"levelo://app?vid=ad08391e-afd4-4a43-b8ed-69db504ec1d5","ios":"levelo://app?vid=ad08391e-afd4-4a43-b8ed-69db504ec1d5"},"vehicle_type_id":"4","last_reported":1726132157,"current_range_meters":14400,"station_id":"ce4bhph2rcd13ifvqhdg","pricing_plan_id":"cebpf4jnsgd1na2vs0mg"},{"bike_id":"5c4b94be-90f1-4d6b-9805-b8fd99438498","system_id":"levelo_inurba_marseille","lat":43.295234,"lon":5.393976,"is_reserved":false,"is_disabled":false,"rental_uris":{"android":"levelo://app?vid=5c4b94be-90f1-4d6b-9805-b8fd99438498","ios":"levelo://app?vid=5c4b94be-90f1-4d6b-9805-b8fd99438498"},"vehicle_type_id":"4","last_reported":1726132157,"current_range_meters":8000,"station_id":"ce4bh292rcd13ifvqdf0","pricing_plan_id":"cebpf4jnsgd1na2vs0mg"},{"bike_id":"aefe4269-3d1c-498f-93b0-dded8b035811","system_id":"levelo_inurba_marseille","lat":43.27494,"lon":5.42459,"is_reserved":false,"is_disabled":false,"rental_uris":{"android":"levelo://app?vid=aefe4269-3d1c-498f-93b0-dded8b035811","ios":"levelo://app?vid=aefe4269-3d1c-498f-93b0-dded8b035811"},"vehicle_type_id":"4","last_reported":1726132157,"current_range_meters":9600,"station_id":"ce4bhn92rcd13ifvqgrg","pricing_plan_id":"cebpf4jnsgd1na2vs0mg"},{"bike_id":"a4f01b8b-d347-48b7-b3da-11ced5b95847","system_id":"levelo_inurba_marseille","lat":43.31215,"lon":5.3687,"is_reserved":false,"is_disabled":false,"rental_uris":{"android":"levelo://app?vid=a4f01b8b-d347-48b7-b3da-11ced5b95847","ios":"levelo://app?vid=a4f01b8b-d347-48b7-b3da-11ced5b95847"},"vehicle_type_id":"4","last_reported":1726132157,"current_range_meters":6000,"station_id":"ce4bgl92rcd13ifvqbq0","pricing_plan_id":"cebpf4jnsgd1na2vs0mg"},{"bike_id":"d77ab7fd-9bd3-427d-992f-fc0984b68be8","system_id":"levelo_inurba_marseille","lat":43.27071,"lon":5.42276,"is_reserved":false,"is_disabled":false,"rental_uris":{"android":"levelo://app?vid=d77ab7fd-9bd3-427d-992f-fc0984b68be8","ios":"levelo://app?vid=d77ab7fd-9bd3-427d-992f-fc0984b68be8"},"vehicle_type_id":"4","last_reported":1726132157,"current_range_meters":11200,"station_id":"ce4bhk92rcd13ifvqgb0","pricing_plan_id":"cebpf4jnsgd1na2vs0mg"},{"bike_id":"f0ad4b5b-89f2-4007-8ea9-27a07d8ebcbb","system_id":"levelo_inurba_marseille","lat":43.27983,"lon":5.38751,"is_reserved":false,"is_disabled":false,"rental_uris":{"android":"levelo://app?vid=f0ad4b5b-89f2-4007-8ea9-27a07d8ebcbb","ios":"levelo://app?vid=f0ad4b5b-89f2-4007-8ea9-27a07d8ebcbb"},"vehicle_type_id":"4","last_reported":1726132157,"current_range_meters":800,"station_id":"ce4bhg12rcd13ifvqf80","pricing_plan_id":"cebpf4jnsgd1na2vs0mg"},{"bike_id":"642d5151-2cc7-44a3-aaf9-47fba9a5505a","system_id":"levelo_inurba_marseille","lat":43.26789,"lon":5.3942,"is_reserved":false,"is_disabled":false,"rental_uris":{"android":"levelo://app?vid=642d5151-2cc7-44a3-aaf9-47fba9a5505a","ios":"levelo://app?vid=642d5151-2cc7-44a3-aaf9-47fba9a5505a"},"vehicle_type_id":"4","last_reported":1726132157,"current_range_meters":40000,"station_id":"ce4bhh12rcd13ifvqfg0","pricing_plan_id":"cebpf4jnsgd1na2vs0mg"},{"bike_id":"80dcdf49-e157-41e8-a211-f229ba182581","system_id":"levelo_inurba_marseille","lat":43.27212,"lon":5.39177,"is_reserved":false,"is_disabled":false,"rental_uris":{"android":"levelo://app?vid=80dcdf49-e157-41e8-a211-f229ba182581","ios":"levelo://app?vid=80dcdf49-e157-41e8-a211-f229ba182581"},"vehicle_type_id":"4","last_reported":1726132157,"current_range_meters":36000,"station_id":"ce4bhhp2rcd13ifvqfm0","pricing_plan_id":"cebpf4jnsgd1na2vs0mg"},{"bike_id":"d32c8681-5c25-4caa-8515-f43cd3d9d0d7","system_id":"levelo_inurba_marseille","lat":43.2409,"lon":5.37752,"is_reserved":false,"is_disabled":false,"rental_uris":{"android":"levelo://app?vid=d32c8681-5c25-4caa-8515-f43cd3d9d0d7","ios":"levelo://app?vid=d32c8681-5c25-4caa-8515-f43cd3d9d0d7"},"vehicle_type_id":"4","last_reported":1726132157,"current_range_meters":26800,"station_id":"ce4bhnp2rcd13ifvqgvg","pricing_plan_id":"cebpf4jnsgd1na2vs0mg"},{"bike_id":"6bdd5edb-41b1-493d-b28b-cd85c3b4335d","system_id":"levelo_inurba_marseille","lat":43.27381,"lon":5.36259,"is_reserved":false,"is_disabled":false,"rental_uris":{"android":"levelo://app?vid=6bdd5edb-41b1-493d-b28b-cd85c3b4335d","ios":"levelo://app?vid=6bdd5edb-41b1-493d-b28b-cd85c3b4335d"},"vehicle_type_id":"4","last_reported":1726132157,"current_range_meters":26000,"station_id":"ce4bhbh2rcd13ifvqeo0","pricing_plan_id":"cebpf4jnsgd1na2vs0mg"},{"bike_id":"908558fc-af51-49be-a019-0e16afa07ae8","system_id":"levelo_inurba_marseille","lat":43.27489,"lon":5.42459,"is_reserved":false,"is_disabled":false,"rental_uris":{"android":"levelo://app?vid=908558fc-af51-49be-a019-0e16afa07ae8","ios":"levelo://app?vid=908558fc-af51-49be-a019-0e16afa07ae8"},"vehicle_type_id":"4","last_reported":1726132157,"current_range_meters":9200,"station_id":"ce4bhn92rcd13ifvqgrg","pricing_plan_id":"cebpf4jnsgd1na2vs0mg"},{"bike_id":"ea089342-7e5a-4518-9e1c-0475d2f9e19e","system_id":"levelo_inurba_marseille","lat":43.30563,"lon":5.36533,"is_reserved":false,"is_disabled":false,"rental_uris":{"android":"levelo://app?vid=ea089342-7e5a-4518-9e1c-0475d2f9e19e","ios":"levelo://app?vid=ea089342-7e5a-4518-9e1c-0475d2f9e19e"},"vehicle_type_id":"4","last_reported":1726132157,"current_range_meters":24400,"station_id":"ce4bgs12rcd13ifvqcag","pricing_plan_id":"cebpf4jnsgd1na2vs0mg"},{"bike_id":"a7d93a31-6c57-4b55-8b32-55e3bf2ba30e","system_id":"levelo_inurba_marseille","lat":43.27495,"lon":5.42459,"is_reserved":false,"is_disabled":false,"rental_uris":{"android":"levelo://app?vid=a7d93a31-6c57-4b55-8b32-55e3bf2ba30e","ios":"levelo://app?vid=a7d93a31-6c57-4b55-8b32-55e3bf2ba30e"},"vehicle_type_id":"4","last_reported":1726132157,"current_range_meters":8800,"station_id":"ce4bhn92rcd13ifvqgrg","pricing_plan_id":"cebpf4jnsgd1na2vs0mg"},{"bike_id":"8c2900ff-896a-4004-bf6e-2b32ae5553f3","system_id":"levelo_inurba_marseille","lat":43.26193,"lon":5.37451,"is_reserved":false,"is_disabled":false,"rental_uris":{"android":"levelo://app?vid=8c2900ff-896a-4004-bf6e-2b32ae5553f3","ios":"levelo://app?vid=8c2900ff-896a-4004-bf6e-2b32ae5553f3"},"vehicle_type_id":"4","last_reported":1726132157,"current_range_meters":34800,"station_id":"ce4bhgp2rcd13ifvqfc0","pricing_plan_id":"cebpf4jnsgd1na2vs0mg"},{"bike_id":"dccadc39-7e75-4ff6-801e-d97b0e1812f2","system_id":"levelo_inurba_marseille","lat":43.33023,"lon":5.39036,"is_reserved":false,"is_disabled":false,"rental_uris":{"android":"levelo://app?vid=dccadc39-7e75-4ff6-801e-d97b0e1812f2","ios":"levelo://app?vid=dccadc39-7e75-4ff6-801e-d97b0e1812f2"},"vehicle_type_id":"4","last_reported":1726132157,"current_range_meters":29600,"station_id":"ce4bhr92rcd13ifvqhrg","pricing_plan_id":"cebpf4jnsgd1na2vs0mg"},{"bike_id":"37dad1d5-2702-40a4-b9bd-5663412b94c4","system_id":"levelo_inurba_marseille","lat":43.27668,"lon":5.38879,"is_reserved":false,"is_disabled":false,"rental_uris":{"android":"levelo://app?vid=37dad1d5-2702-40a4-b9bd-5663412b94c4","ios":"levelo://app?vid=37dad1d5-2702-40a4-b9bd-5663412b94c4"},"vehicle_type_id":"4","last_reported":1726132157,"current_range_meters":33200,"station_id":"ce4bhi12rcd13ifvqfo0","pricing_plan_id":"cebpf4jnsgd1na2vs0mg"},{"bike_id":"703c5b25-1435-45b2-8c89-d7647aa322b9","system_id":"levelo_inurba_marseille","lat":43.31316,"lon":5.36745,"is_reserved":false,"is_disabled":false,"rental_uris":{"android":"levelo://app?vid=703c5b25-1435-45b2-8c89-d7647aa322b9","ios":"levelo://app?vid=703c5b25-1435-45b2-8c89-d7647aa322b9"},"vehicle_type_id":"4","last_reported":1726132157,"current_range_meters":31200,"station_id":"ce4bgr92rcd13ifvqc6g","pricing_plan_id":"cebpf4jnsgd1na2vs0mg"},{"bike_id":"4b02a7e9-8265-4f92-8a5b-523194dc96fe","system_id":"levelo_inurba_marseille","lat":43.25829,"lon":5.39431,"is_reserved":false,"is_disabled":false,"rental_uris":{"android":"levelo://app?vid=4b02a7e9-8265-4f92-8a5b-523194dc96fe","ios":"levelo://app?vid=4b02a7e9-8265-4f92-8a5b-523194dc96fe"},"vehicle_type_id":"4","last_reported":1726132157,"current_range_meters":28400,"station_id":"ce4bhip2rcd13ifvqft0","pricing_plan_id":"cebpf4jnsgd1na2vs0mg"},{"bike_id":"07c5ca23-898b-4c34-bd22-a2473ea55f5e","system_id":"levelo_inurba_marseille","lat":43.30537,"lon":5.36559,"is_reserved":false,"is_disabled":false,"rental_uris":{"android":"levelo://app?vid=07c5ca23-898b-4c34-bd22-a2473ea55f5e","ios":"levelo://app?vid=07c5ca23-898b-4c34-bd22-a2473ea55f5e"},"vehicle_type_id":"4","last_reported":1726132157,"current_range_meters":33200,"station_id":"ce4bgs12rcd13ifvqcag","pricing_plan_id":"cebpf4jnsgd1na2vs0mg"},{"bike_id":"dd3fecec-0a50-4eb9-8dfc-5c61faf672e9","system_id":"levelo_inurba_marseille","lat":43.23158,"lon":5.43713,"is_reserved":false,"is_disabled":false,"rental_uris":{"android":"levelo://app?vid=dd3fecec-0a50-4eb9-8dfc-5c61faf672e9","ios":"levelo://app?vid=dd3fecec-0a50-4eb9-8dfc-5c61faf672e9"},"vehicle_type_id":"4","last_reported":1726132157,"current_range_meters":38400,"station_id":"ce4bhmp2rcd13ifvqgog","pricing_plan_id":"cebpf4jnsgd1na2vs0mg"},{"bike_id":"0ae4c82d-7bf7-4f75-9cfc-82f2792f9ace","system_id":"levelo_inurba_marseille","lat":43.30905,"lon":5.36857,"is_reserved":false,"is_disabled":false,"rental_uris":{"android":"levelo://app?vid=0ae4c82d-7bf7-4f75-9cfc-82f2792f9ace","ios":"levelo://app?vid=0ae4c82d-7bf7-4f75-9cfc-82f2792f9ace"},"vehicle_type_id":"4","last_reported":1726132157,"current_range_meters":16800,"station_id":"ce4bgn92rcd13ifvqbvg","pricing_plan_id":"cebpf4jnsgd1na2vs0mg"},{"bike_id":"7551d42d-8659-416d-896d-f767a7f37efa","system_id":"levelo_inurba_marseille","lat":43.24546,"lon":5.39519,"is_reserved":false,"is_disabled":false,"rental_uris":{"android":"levelo://app?vid=7551d42d-8659-416d-896d-f767a7f37efa","ios":"levelo://app?vid=7551d42d-8659-416d-896d-f767a7f37efa"},"vehicle_type_id":"4","last_reported":1726132157,"current_range_meters":38000,"station_id":"ce4bhlp2rcd13ifvqgjg","pricing_plan_id":"cebpf4jnsgd1na2vs0mg"},{"bike_id":"fad4f480-5e72-4610-8cac-b1ec2b4dc92e","system_id":"levelo_inurba_marseille","lat":43.33776,"lon":5.37438,"is_reserved":false,"is_disabled":false,"rental_uris":{"android":"levelo://app?vid=fad4f480-5e72-4610-8cac-b1ec2b4dc92e","ios":"levelo://app?vid=fad4f480-5e72-4610-8cac-b1ec2b4dc92e"},"vehicle_type_id":"4","last_reported":1726132157,"current_range_meters":16800,"station_id":"","pricing_plan_id":"cebpf4jnsgd1na2vs0mg"},{"bike_id":"717a44e5-5866-4b81-bcae-b6180eea60f9","system_id":"levelo_inurba_marseille","lat":43.30957,"lon":5.39031,"is_reserved":false,"is_disabled":false,"rental_uris":{"android":"levelo://app?vid=717a44e5-5866-4b81-bcae-b6180eea60f9","ios":"levelo://app?vid=717a44e5-5866-4b81-bcae-b6180eea60f9"},"vehicle_type_id":"4","last_reported":1726132157,"current_range_meters":5600,"station_id":"ce4bguh2rcd13ifvqckg","pricing_plan_id":"cebpf4jnsgd1na2vs0mg"},{"bike_id":"a4d82ac2-ddef-4a70-a6a7-e4fb6318229d","system_id":"levelo_inurba_marseille","lat":43.29575,"lon":5.37528,"is_reserved":false,"is_disabled":false,"rental_uris":{"android":"levelo://app?vid=a4d82ac2-ddef-4a70-a6a7-e4fb6318229d","ios":"levelo://app?vid=a4d82ac2-ddef-4a70-a6a7-e4fb6318229d"},"vehicle_type_id":"4","last_reported":1726132157,"current_range_meters":20800,"station_id":"ce4bgh92rcd13ifvqb50","pricing_plan_id":"cebpf4jnsgd1na2vs0mg"},{"bike_id":"1f7aa34f-4131-4098-acf3-c8a4a0ace2fc","system_id":"levelo_inurba_marseille","lat":43.29261,"lon":5.40897,"is_reserved":false,"is_disabled":false,"rental_uris":{"android":"levelo://app?vid=1f7aa34f-4131-4098-acf3-c8a4a0ace2fc","ios":"levelo://app?vid=1f7aa34f-4131-4098-acf3-c8a4a0ace2fc"},"vehicle_type_id":"4","last_reported":1726132157,"current_range_meters":9200,"station_id":"ce4bh192rcd13ifvqdc0","pricing_plan_id":"cebpf4jnsgd1na2vs0mg"},{"bike_id":"b1da5ca5-bc44-4be6-bfac-1a534c4229d9","system_id":"levelo_inurba_marseille","lat":43.26566,"lon":5.39016,"is_reserved":false,"is_disabled":false,"rental_uris":{"android":"levelo://app?vid=b1da5ca5-bc44-4be6-bfac-1a534c4229d9","ios":"levelo://app?vid=b1da5ca5-bc44-4be6-bfac-1a534c4229d9"},"vehicle_type_id":"4","last_reported":1726132157,"current_range_meters":23200,"station_id":"ce4bhe12rcd13ifvqf30","pricing_plan_id":"cebpf4jnsgd1na2vs0mg"},{"bike_id":"5d130ef8-b966-4f7c-8186-9bbba050a262","system_id":"levelo_inurba_marseille","lat":43.24076,"lon":5.37756,"is_reserved":false,"is_disabled":false,"rental_uris":{"android":"levelo://app?vid=5d130ef8-b966-4f7c-8186-9bbba050a262","ios":"levelo://app?vid=5d130ef8-b966-4f7c-8186-9bbba050a262"},"vehicle_type_id":"4","last_reported":1726132157,"current_range_meters":28400,"station_id":"ce4bhnp2rcd13ifvqgvg","pricing_plan_id":"cebpf4jnsgd1na2vs0mg"},{"bike_id":"5c910826-d918-4ca3-b937-8c88f58ea365","system_id":"levelo_inurba_marseille","lat":43.27056,"lon":5.40261,"is_reserved":false,"is_disabled":false,"rental_uris":{"android":"levelo://app?vid=5c910826-d918-4ca3-b937-8c88f58ea365","ios":"levelo://app?vid=5c910826-d918-4ca3-b937-8c88f58ea365"},"vehicle_type_id":"4","last_reported":1726132157,"current_range_meters":33600,"station_id":"ce4bhk92rcd13ifvqgc0","pricing_plan_id":"cebpf4jnsgd1na2vs0mg"},{"bike_id":"31cd3ddb-8b47-47b9-a37b-a7215b50f173","system_id":"levelo_inurba_marseille","lat":43.29198,"lon":5.39325,"is_reserved":false,"is_disabled":false,"rental_uris":{"android":"levelo://app?vid=31cd3ddb-8b47-47b9-a37b-a7215b50f173","ios":"levelo://app?vid=31cd3ddb-8b47-47b9-a37b-a7215b50f173"},"vehicle_type_id":"4","last_reported":1726132157,"current_range_meters":4800,"station_id":"ce4bh192rcd13ifvqdd0","pricing_plan_id":"cebpf4jnsgd1na2vs0mg"},{"bike_id":"bdabe23d-83ad-4a20-849d-27fb0a8cfa45","system_id":"levelo_inurba_marseille","lat":43.3029,"lon":5.37698,"is_reserved":false,"is_disabled":false,"rental_uris":{"android":"levelo://app?vid=bdabe23d-83ad-4a20-849d-27fb0a8cfa45","ios":"levelo://app?vid=bdabe23d-83ad-4a20-849d-27fb0a8cfa45"},"vehicle_type_id":"4","last_reported":1726132157,"current_range_meters":39200,"station_id":"ce4bguh2rcd13ifvqcj0","pricing_plan_id":"cebpf4jnsgd1na2vs0mg"},{"bike_id":"3c51cbb9-4e46-4e56-8647-db01c8c52176","system_id":"levelo_inurba_marseille","lat":43.24169,"lon":5.39748,"is_reserved":false,"is_disabled":false,"rental_uris":{"android":"levelo://app?vid=3c51cbb9-4e46-4e56-8647-db01c8c52176","ios":"levelo://app?vid=3c51cbb9-4e46-4e56-8647-db01c8c52176"},"vehicle_type_id":"4","last_reported":1726132157,"current_range_meters":27600,"station_id":"ce4bhn12rcd13ifvqgpg","pricing_plan_id":"cebpf4jnsgd1na2vs0mg"},{"bike_id":"0292918b-8c82-46eb-be9e-69e99fb9ae17","system_id":"levelo_inurba_marseille","lat":43.287,"lon":5.37387,"is_reserved":false,"is_disabled":false,"rental_uris":{"android":"levelo://app?vid=0292918b-8c82-46eb-be9e-69e99fb9ae17","ios":"levelo://app?vid=0292918b-8c82-46eb-be9e-69e99fb9ae17"},"vehicle_type_id":"4","last_reported":1726132157,"current_range_meters":29600,"station_id":"ce4bh3p2rcd13ifvqdq0","pricing_plan_id":"cebpf4jnsgd1na2vs0mg"},{"bike_id":"35e327a1-1955-4d12-a070-7da01b3f8826","system_id":"levelo_inurba_marseille","lat":43.30914,"lon":5.36846,"is_reserved":false,"is_disabled":false,"rental_uris":{"android":"levelo://app?vid=35e327a1-1955-4d12-a070-7da01b3f8826","ios":"levelo://app?vid=35e327a1-1955-4d12-a070-7da01b3f8826"},"vehicle_type_id":"4","last_reported":1726132157,"current_range_meters":32000,"station_id":"ce4bgn92rcd13ifvqbvg","pricing_plan_id":"cebpf4jnsgd1na2vs0mg"},{"bike_id":"522ce341-0abe-40c5-8aee-032d23d7344a","system_id":"levelo_inurba_marseille","lat":43.26571,"lon":5.39021,"is_reserved":false,"is_disabled":false,"rental_uris":{"android":"levelo://app?vid=522ce341-0abe-40c5-8aee-032d23d7344a","ios":"levelo://app?vid=522ce341-0abe-40c5-8aee-032d23d7344a"},"vehicle_type_id":"4","last_reported":1726132157,"current_range_meters":21600,"station_id":"ce4bhe12rcd13ifvqf30","pricing_plan_id":"cebpf4jnsgd1na2vs0mg"},{"bike_id":"cd4ecec2-24c2-4b1b-b56b-1f713e99a93e","system_id":"levelo_inurba_marseille","lat":43.29625,"lon":5.37156,"is_reserved":false,"is_disabled":false,"rental_uris":{"android":"levelo://app?vid=cd4ecec2-24c2-4b1b-b56b-1f713e99a93e","ios":"levelo://app?vid=cd4ecec2-24c2-4b1b-b56b-1f713e99a93e"},"vehicle_type_id":"4","last_reported":1726132157,"current_range_meters":12000,"station_id":"ce4bgnh2rcd13ifvqc0g","pricing_plan_id":"cebpf4jnsgd1na2vs0mg"},{"bike_id":"aa19fc99-f16a-4819-a418-d51a1a9bdec5","system_id":"levelo_inurba_marseille","lat":43.25506,"lon":5.37643,"is_reserved":false,"is_disabled":false,"rental_uris":{"android":"levelo://app?vid=aa19fc99-f16a-4819-a418-d51a1a9bdec5","ios":"levelo://app?vid=aa19fc99-f16a-4819-a418-d51a1a9bdec5"},"vehicle_type_id":"4","last_reported":1726132157,"current_range_meters":38400,"station_id":"ce4bhh12rcd13ifvqff0","pricing_plan_id":"cebpf4jnsgd1na2vs0mg"},{"bike_id":"e74371d2-992f-4eff-a867-24d8c9f79f52","system_id":"levelo_inurba_marseille","lat":43.33614,"lon":5.41058,"is_reserved":false,"is_disabled":false,"rental_uris":{"android":"levelo://app?vid=e74371d2-992f-4eff-a867-24d8c9f79f52","ios":"levelo://app?vid=e74371d2-992f-4eff-a867-24d8c9f79f52"},"vehicle_type_id":"4","last_reported":1726132157,"current_range_meters":22800,"station_id":"ce4bhqh2rcd13ifvqhmg","pricing_plan_id":"cebpf4jnsgd1na2vs0mg"},{"bike_id":"5330d3e0-0ea7-433a-a6aa-756d0786a518","system_id":"levelo_inurba_marseille","lat":43.26066,"lon":5.39395,"is_reserved":false,"is_disabled":false,"rental_uris":{"android":"levelo://app?vid=5330d3e0-0ea7-433a-a6aa-756d0786a518","ios":"levelo://app?vid=5330d3e0-0ea7-433a-a6aa-756d0786a518"},"vehicle_type_id":"4","last_reported":1726132157,"current_range_meters":4000,"station_id":"ce4bhh92rcd13ifvqfj0","pricing_plan_id":"cebpf4jnsgd1na2vs0mg"},{"bike_id":"7bca7a3d-5138-49be-ac0b-a9c8e5e57044","system_id":"levelo_inurba_marseille","lat":43.27995,"lon":5.40021,"is_reserved":false,"is_disabled":false,"rental_uris":{"android":"levelo://app?vid=7bca7a3d-5138-49be-ac0b-a9c8e5e57044","ios":"levelo://app?vid=7bca7a3d-5138-49be-ac0b-a9c8e5e57044"},"vehicle_type_id":"4","last_reported":1726132157,"current_range_meters":11600,"station_id":"ce4bho92rcd13ifvqh4g","pricing_plan_id":"cebpf4jnsgd1na2vs0mg"},{"bike_id":"f0ab1e44-8ac5-4033-a7ac-b3e3da389903","system_id":"levelo_inurba_marseille","lat":43.27078,"lon":5.42283,"is_reserved":false,"is_disabled":false,"rental_uris":{"android":"levelo://app?vid=f0ab1e44-8ac5-4033-a7ac-b3e3da389903","ios":"levelo://app?vid=f0ab1e44-8ac5-4033-a7ac-b3e3da389903"},"vehicle_type_id":"4","last_reported":1726132157,"current_range_meters":40000,"station_id":"ce4bhk92rcd13ifvqgb0","pricing_plan_id":"cebpf4jnsgd1na2vs0mg"},{"bike_id":"343bf51a-5a51-4580-8c54-015177ae4071","system_id":"levelo_inurba_marseille","lat":43.323334,"lon":5.365082,"is_reserved":false,"is_disabled":false,"rental_uris":{"android":"levelo://app?vid=343bf51a-5a51-4580-8c54-015177ae4071","ios":"levelo://app?vid=343bf51a-5a51-4580-8c54-015177ae4071"},"vehicle_type_id":"4","last_reported":1726132157,"current_range_meters":6000,"station_id":"ce4bhs12rcd13ifvqhvg","pricing_plan_id":"cebpf4jnsgd1na2vs0mg"},{"bike_id":"52e22a5b-3df9-4473-b947-08c5665ae282","system_id":"levelo_inurba_marseille","lat":43.2931,"lon":5.37468,"is_reserved":false,"is_disabled":false,"rental_uris":{"android":"levelo://app?vid=52e22a5b-3df9-4473-b947-08c5665ae282","ios":"levelo://app?vid=52e22a5b-3df9-4473-b947-08c5665ae282"},"vehicle_type_id":"4","last_reported":1726132157,"current_range_meters":38800,"station_id":"ce4bgi12rcd13ifvqb70","pricing_plan_id":"cebpf4jnsgd1na2vs0mg"},{"bike_id":"c248a8fa-2ec3-4a96-b092-ca9b6d727b48","system_id":"levelo_inurba_marseille","lat":43.27207,"lon":5.3918,"is_reserved":false,"is_disabled":false,"rental_uris":{"android":"levelo://app?vid=c248a8fa-2ec3-4a96-b092-ca9b6d727b48","ios":"levelo://app?vid=c248a8fa-2ec3-4a96-b092-ca9b6d727b48"},"vehicle_type_id":"4","last_reported":1726132157,"current_range_meters":20400,"station_id":"ce4bhhp2rcd13ifvqfm0","pricing_plan_id":"cebpf4jnsgd1na2vs0mg"},{"bike_id":"f960e4c5-fe0b-4655-91d8-1cf2b8deb1da","system_id":"levelo_inurba_marseille","lat":43.337444,"lon":5.374475,"is_reserved":false,"is_disabled":false,"rental_uris":{"android":"levelo://app?vid=f960e4c5-fe0b-4655-91d8-1cf2b8deb1da","ios":"levelo://app?vid=f960e4c5-fe0b-4655-91d8-1cf2b8deb1da"},"vehicle_type_id":"4","last_reported":1726132157,"current_range_meters":34800,"station_id":"ce4bh192rcd13ifvqdb0","pricing_plan_id":"cebpf4jnsgd1na2vs0mg"},{"bike_id":"0812723c-bd87-43d9-ba80-42e1368ee507","system_id":"levelo_inurba_marseille","lat":43.25937,"lon":5.409,"is_reserved":false,"is_disabled":false,"rental_uris":{"android":"levelo://app?vid=0812723c-bd87-43d9-ba80-42e1368ee507","ios":"levelo://app?vid=0812723c-bd87-43d9-ba80-42e1368ee507"},"vehicle_type_id":"4","last_reported":1726132157,"current_range_meters":25600,"station_id":"ce4bhm92rcd13ifvqglg","pricing_plan_id":"cebpf4jnsgd1na2vs0mg"},{"bike_id":"534f6dc7-b587-4c11-a5f0-51babe099f5c","system_id":"levelo_inurba_marseille","lat":43.26684,"lon":5.38276,"is_reserved":false,"is_disabled":false,"rental_uris":{"android":"levelo://app?vid=534f6dc7-b587-4c11-a5f0-51babe099f5c","ios":"levelo://app?vid=534f6dc7-b587-4c11-a5f0-51babe099f5c"},"vehicle_type_id":"4","last_reported":1726132157,"current_range_meters":11600,"station_id":"ce4bhg92rcd13ifvqf90","pricing_plan_id":"cebpf4jnsgd1na2vs0mg"},{"bike_id":"bc00bff1-e0b4-4559-8fc5-4ad72b06ffb0","system_id":"levelo_inurba_marseille","lat":43.25572,"lon":5.38247,"is_reserved":false,"is_disabled":false,"rental_uris":{"android":"levelo://app?vid=bc00bff1-e0b4-4559-8fc5-4ad72b06ffb0","ios":"levelo://app?vid=bc00bff1-e0b4-4559-8fc5-4ad72b06ffb0"},"vehicle_type_id":"4","last_reported":1726132157,"current_range_meters":24000,"station_id":"ce4bhih2rcd13ifvqfs0","pricing_plan_id":"cebpf4jnsgd1na2vs0mg"},{"bike_id":"80080152-1a83-40ae-b754-a18a075c6b36","system_id":"levelo_inurba_marseille","lat":43.3056,"lon":5.36533,"is_reserved":false,"is_disabled":false,"rental_uris":{"android":"levelo://app?vid=80080152-1a83-40ae-b754-a18a075c6b36","ios":"levelo://app?vid=80080152-1a83-40ae-b754-a18a075c6b36"},"vehicle_type_id":"4","last_reported":1726132157,"current_range_meters":34000,"station_id":"ce4bgs12rcd13ifvqcag","pricing_plan_id":"cebpf4jnsgd1na2vs0mg"},{"bike_id":"579641ed-2c24-4796-a1d8-c864c4daf845","system_id":"levelo_inurba_marseille","lat":43.3303,"lon":5.39036,"is_reserved":false,"is_disabled":false,"rental_uris":{"android":"levelo://app?vid=579641ed-2c24-4796-a1d8-c864c4daf845","ios":"levelo://app?vid=579641ed-2c24-4796-a1d8-c864c4daf845"},"vehicle_type_id":"4","last_reported":1726132157,"current_range_meters":8000,"station_id":"ce4bhr92rcd13ifvqhrg","pricing_plan_id":"cebpf4jnsgd1na2vs0mg"},{"bike_id":"35715524-14b0-4a8c-af85-28e32c6af954","system_id":"levelo_inurba_marseille","lat":43.2481,"lon":5.37449,"is_reserved":false,"is_disabled":false,"rental_uris":{"android":"levelo://app?vid=35715524-14b0-4a8c-af85-28e32c6af954","ios":"levelo://app?vid=35715524-14b0-4a8c-af85-28e32c6af954"},"vehicle_type_id":"4","last_reported":1726132157,"current_range_meters":16400,"station_id":"ce4bhgh2rcd13ifvqfb0","pricing_plan_id":"cebpf4jnsgd1na2vs0mg"},{"bike_id":"e62d6517-3896-49d9-9c39-1b8177a5b72b","system_id":"levelo_inurba_marseille","lat":43.32542,"lon":5.41454,"is_reserved":false,"is_disabled":false,"rental_uris":{"android":"levelo://app?vid=e62d6517-3896-49d9-9c39-1b8177a5b72b","ios":"levelo://app?vid=e62d6517-3896-49d9-9c39-1b8177a5b72b"},"vehicle_type_id":"4","last_reported":1726132157,"current_range_meters":28800,"station_id":"ce4bhq12rcd13ifvqhhg","pricing_plan_id":"cebpf4jnsgd1na2vs0mg"},{"bike_id":"00c71482-f75f-430c-acd2-8a2ea8fd3dd0","system_id":"levelo_inurba_marseille","lat":43.3047,"lon":5.37899,"is_reserved":false,"is_disabled":false,"rental_uris":{"android":"levelo://app?vid=00c71482-f75f-430c-acd2-8a2ea8fd3dd0","ios":"levelo://app?vid=00c71482-f75f-430c-acd2-8a2ea8fd3dd0"},"vehicle_type_id":"4","last_reported":1726132157,"current_range_meters":28800,"station_id":"ce4bgup2rcd13ifvqcn0","pricing_plan_id":"cebpf4jnsgd1na2vs0mg"},{"bike_id":"f7383583-f6d9-4a1f-9651-744703bbb837","system_id":"levelo_inurba_marseille","lat":43.30808,"lon":5.4353,"is_reserved":false,"is_disabled":false,"rental_uris":{"android":"levelo://app?vid=f7383583-f6d9-4a1f-9651-744703bbb837","ios":"levelo://app?vid=f7383583-f6d9-4a1f-9651-744703bbb837"},"vehicle_type_id":"4","last_reported":1726132157,"current_range_meters":8400,"station_id":"ce4bhph2rcd13ifvqheg","pricing_plan_id":"cebpf4jnsgd1na2vs0mg"},{"bike_id":"ede89c32-1694-463d-9b36-96b674437f24","system_id":"levelo_inurba_marseille","lat":43.29927,"lon":5.38147,"is_reserved":false,"is_disabled":false,"rental_uris":{"android":"levelo://app?vid=ede89c32-1694-463d-9b36-96b674437f24","ios":"levelo://app?vid=ede89c32-1694-463d-9b36-96b674437f24"},"vehicle_type_id":"4","last_reported":1726132157,"current_range_meters":5600,"station_id":"ce4bgj12rcd13ifvqbc0","pricing_plan_id":"cebpf4jnsgd1na2vs0mg"},{"bike_id":"429b8040-fede-4277-a8b8-480a97fd3c08","system_id":"levelo_inurba_marseille","lat":43.26215,"lon":5.37442,"is_reserved":false,"is_disabled":false,"rental_uris":{"android":"levelo://app?vid=429b8040-fede-4277-a8b8-480a97fd3c08","ios":"levelo://app?vid=429b8040-fede-4277-a8b8-480a97fd3c08"},"vehicle_type_id":"4","last_reported":1726132157,"current_range_meters":30800,"station_id":"ce4bhgp2rcd13ifvqfc0","pricing_plan_id":"cebpf4jnsgd1na2vs0mg"},{"bike_id":"0654d806-ec31-44c9-88ba-07887ec5e437","system_id":"levelo_inurba_marseille","lat":43.29277,"lon":5.3685,"is_reserved":false,"is_disabled":false,"rental_uris":{"android":"levelo://app?vid=0654d806-ec31-44c9-88ba-07887ec5e437","ios":"levelo://app?vid=0654d806-ec31-44c9-88ba-07887ec5e437"},"vehicle_type_id":"4","last_reported":1726132157,"current_range_meters":18000,"station_id":"ce4bhbp2rcd13ifvqesg","pricing_plan_id":"cebpf4jnsgd1na2vs0mg"},{"bike_id":"2cf6c505-4850-445d-aa79-fecfcf094308","system_id":"levelo_inurba_marseille","lat":43.34169,"lon":5.40899,"is_reserved":false,"is_disabled":false,"rental_uris":{"android":"levelo://app?vid=2cf6c505-4850-445d-aa79-fecfcf094308","ios":"levelo://app?vid=2cf6c505-4850-445d-aa79-fecfcf094308"},"vehicle_type_id":"4","last_reported":1726132157,"current_range_meters":36400,"station_id":"ce4bhqh2rcd13ifvqhlg","pricing_plan_id":"cebpf4jnsgd1na2vs0mg"},{"bike_id":"37fd32e7-54b0-400a-a496-9b0455d3fb6b","system_id":"levelo_inurba_marseille","lat":43.28701,"lon":5.37393,"is_reserved":false,"is_disabled":false,"rental_uris":{"android":"levelo://app?vid=37fd32e7-54b0-400a-a496-9b0455d3fb6b","ios":"levelo://app?vid=37fd32e7-54b0-400a-a496-9b0455d3fb6b"},"vehicle_type_id":"4","last_reported":1726132157,"current_range_meters":32800,"station_id":"ce4bh3p2rcd13ifvqdq0","pricing_plan_id":"cebpf4jnsgd1na2vs0mg"},{"bike_id":"9ea056c9-28a3-42c0-a5e7-90ba9360dae4","system_id":"levelo_inurba_marseille","lat":43.29321,"lon":5.37472,"is_reserved":false,"is_disabled":false,"rental_uris":{"android":"levelo://app?vid=9ea056c9-28a3-42c0-a5e7-90ba9360dae4","ios":"levelo://app?vid=9ea056c9-28a3-42c0-a5e7-90ba9360dae4"},"vehicle_type_id":"4","last_reported":1726132157,"current_range_meters":30800,"station_id":"ce4bgi12rcd13ifvqb70","pricing_plan_id":"cebpf4jnsgd1na2vs0mg"},{"bike_id":"ca67b363-fb8e-4b7b-8058-52b7e75e6e73","system_id":"levelo_inurba_marseille","lat":43.30545,"lon":5.36542,"is_reserved":false,"is_disabled":false,"rental_uris":{"android":"levelo://app?vid=ca67b363-fb8e-4b7b-8058-52b7e75e6e73","ios":"levelo://app?vid=ca67b363-fb8e-4b7b-8058-52b7e75e6e73"},"vehicle_type_id":"4","last_reported":1726132157,"current_range_meters":40000,"station_id":"ce4bgs12rcd13ifvqcag","pricing_plan_id":"cebpf4jnsgd1na2vs0mg"},{"bike_id":"f4a94560-b74f-49e2-aaa1-40adb5c41a8d","system_id":"levelo_inurba_marseille","lat":43.31235,"lon":5.36839,"is_reserved":false,"is_disabled":false,"rental_uris":{"android":"levelo://app?vid=f4a94560-b74f-49e2-aaa1-40adb5c41a8d","ios":"levelo://app?vid=f4a94560-b74f-49e2-aaa1-40adb5c41a8d"},"vehicle_type_id":"4","last_reported":1726132157,"current_range_meters":27200,"station_id":"ce4bgl92rcd13ifvqbq0","pricing_plan_id":"cebpf4jnsgd1na2vs0mg"},{"bike_id":"dc346b80-33dd-4e8d-bd17-85fcf95d706f","system_id":"levelo_inurba_marseille","lat":43.33624,"lon":5.41029,"is_reserved":false,"is_disabled":false,"rental_uris":{"android":"levelo://app?vid=dc346b80-33dd-4e8d-bd17-85fcf95d706f","ios":"levelo://app?vid=dc346b80-33dd-4e8d-bd17-85fcf95d706f"},"vehicle_type_id":"4","last_reported":1726132157,"current_range_meters":24800,"station_id":"ce4bhqh2rcd13ifvqhmg","pricing_plan_id":"cebpf4jnsgd1na2vs0mg"},