{"last_updated":1726916804,"ttl":30,"version":"2.2","data":{"bikes":[{"bike_id":"0bbee90f-8502-443f-ba84-24be626a4a28","system_id":"levelo_inurba_marseille","lat":43.28149,"lon":5.42648,"is_reserved":false,"is_disabled":false,"rental_uris":{"android":"levelo://app?vid=0bbee90f-8502-443f-ba84-24be626a4a28","ios":"levelo://app?vid=0bbee90f-8502-443f-ba84-24be626a4a28"},"vehicle_type_id":"4","last_reported":1726916805,"current_range_meters":19600,"station_id":"ce4bhnh2rcd13ifvqgug","pricing_plan_id":"cebpf4jnsgd1na2vs0mg"},{"bike_id":"09e6cd88-ad5a-4727-b92b-1b62b62b7ec1","system_id":"levelo_inurba_marseille","lat":43.27993,"lon":5.40029,"is_reserved":false,"is_disabled":false,"rental_uris":{"android":"levelo://app?vid=09e6cd88-ad5a-4727-b92b-1b62b62b7ec1","ios":"levelo://app?vid=09e6cd88-ad5a-4727-b92b-1b62b62b7ec1"},"vehicle_type_id":"4","last_reported":1726916805,"current_range_meters":38800,"station_id":"ce4bho92rcd13ifvqh4g","pricing_plan_id":"cebpf4jnsgd1na2vs0mg"},{"bike_id":"9b521226-1222-420c-85eb-7da1ff3a9204","system_id":"levelo_inurba_marseille","lat":43.22934,"lon":5.35377,"is_reserved":false,"is_disabled":false,"rental_uris":{"android":"levelo://app?vid=9b521226-1222-420c-85eb-7da1ff3a9204","ios":"levelo://app?vid=9b521226-1222-420c-85eb-7da1ff3a9204"},"vehicle_type_id":"4","last_reported":1726916805,"current_range_meters":32000,"station_id":"cpo3532slgdg3j2ikp40","pricing_plan_id":"cebpf4jnsgd1na2vs0mg"},{"bike_id":"edeacd13-2389-4c6c-a794-571e373dced3","system_id":"levelo_inurba_marseille","lat":43.27707,"lon":5.41843,"is_reserved":false,"is_disabled":false,"rental_uris":{"android":"levelo://app?vid=edeacd13-2389-4c6c-a794-571e373dced3","ios":"levelo://app?vid=edeacd13-2389-4c6c-a794-571e373dced3"},"vehicle_type_id":"4","last_reported":1726916805,"current_range_meters":20400,"station_id":"","pricing_plan_id":"cebpf4jnsgd1na2vs0mg"},{"bike_id":"c943e2f3-933e-4efb-97de-45246d483f08","system_id":"levelo_inurba_marseille","lat":43.26555,"lon":5.37286,"is_reserved":false,"is_disabled":false,"rental_uris":{"android":"levelo://app?vid=c943e2f3-933e-4efb-97de-45246d483f08","ios":"levelo://app?vid=c943e2f3-933e-4efb-97de-45246d483f08"},"vehicle_type_id":"4","last_reported":1726916805,"current_range_meters":7200,"station_id":"ce4bhg12rcd13ifvqf70","pricing_plan_id":"cebpf4jnsgd1na2vs0mg"},{"bike_id":"caeb01e1-f6ca-4785-8d66-d5a031a43aa7","system_id":"levelo_inurba_marseille","lat":43.2509,"lon":5.3951,"is_reserved":false,"is_disabled":false,"rental_uris":{"android":"levelo://app?vid=caeb01e1-f6ca-4785-8d66-d5a031a43aa7","ios":"levelo://app?vid=caeb01e1-f6ca-4785-8d66-d5a031a43aa7"},"vehicle_type_id":"4","last_reported":1726916805,"current_range_meters":31200,"station_id":"ce4bhm12rcd13ifvqgkg","pricing_plan_id":"cebpf4jnsgd1na2vs0mg"},{"bike_id":"e7cd47e5-6f97-4fa9-90d0-f566eb560bd1","system_id":"levelo_inurba_marseille","lat":43.231506,"lon":5.437201,"is_reserved":false,"is_disabled":false,"rental_uris":{"android":"levelo://app?vid=e7cd47e5-6f97-4fa9-90d0-f566eb560bd1","ios":"levelo://app?vid=e7cd47e5-6f97-4fa9-90d0-f566eb560bd1"},"vehicle_type_id":"4","last_reported":1726916805,"current_range_meters":18000,"station_id":"ce4bhmp2rcd13ifvqgog","pricing_plan_id":"cebpf4jnsgd1na2vs0mg"},{"bike_id":"9d95eaee-1b8f-4432-9468-f53a3ad762ec","system_id":"levelo_inurba_marseille","lat":43.31268,"lon":5.40169,"is_reserved":false,"is_disabled":false,"rental_uris":{"android":"levelo://app?vid=9d95eaee-1b8f-4432-9468-f53a3ad762ec","ios":"levelo://app?vid=9d95eaee-1b8f-4432-9468-f53a3ad762ec"},"vehicle_type_id":"4","last_reported":1726916805,"current_range_meters":9200,"station_id":"ce4bh092rcd13ifvqd30","pricing_plan_id":"cebpf4jnsgd1na2vs0mg"},{"bike_id":"cb96a90e-a737-4516-af9c-595534c83be5","system_id":"levelo_inurba_marseille","lat":43.33024,"lon":5.3904,"is_reserved":false,"is_disabled":false,"rental_uris":{"android":"levelo://app?vid=cb96a90e-a737-4516-af9c-595534c83be5","ios":"levelo://app?vid=cb96a90e-a737-4516-af9c-595534c83be5"},"vehicle_type_id":"4","last_reported":1726916805,"current_range_meters":29600,"station_id":"ce4bhr92rcd13ifvqhrg","pricing_plan_id":"cebpf4jnsgd1na2vs0mg"},{"bike_id":"170e64e0-f336-4f13-8081-91398bab2868","system_id":"levelo_inurba_marseille","lat":43.33606,"lon":5.41034,"is_reserved":false,"is_disabled":false,"rental_uris":{"android":"levelo://app?vid=170e64e0-f336-4f13-8081-91398bab2868","ios":"levelo://app?vid=170e64e0-f336-4f13-8081-91398bab2868"},"vehicle_type_id":"4","last_reported":1726916805,"current_range_meters":20000,"station_id":"ce4bhqh2rcd13ifvqhmg","pricing_plan_id":"cebpf4jnsgd1na2vs0mg"},{"bike_id":"987d3f73-44e5-4b49-84e9-87bcfffeb69c","system_id":"levelo_inurba_marseille","lat":43.25732,"lon":5.41104,"is_reserved":false,"is_disabled":false,"rental_uris":{"android":"levelo://app?vid=987d3f73-44e5-4b49-84e9-87bcfffeb69c","ios":"levelo://app?vid=987d3f73-44e5-4b49-84e9-87bcfffeb69c"},"vehicle_type_id":"4","last_reported":1726916805,"current_range_meters":37600,"station_id":"ce4bhkp2rcd13ifvqgd0","pricing_plan_id":"cebpf4jnsgd1na2vs0mg"},{"bike_id":"f4e75830-f7ec-4979-bb97-c56846eefcee","system_id":"levelo_inurba_marseille","lat":43.29708,"lon":5.36607,"is_reserved":false,"is_disabled":false,"rental_uris":{"android":"levelo://app?vid=f4e75830-f7ec-4979-bb97-c56846eefcee","ios":"levelo://app?vid=f4e75830-f7ec-4979-bb97-c56846eefcee"},"vehicle_type_id":"4","last_reported":1726916805,"current_range_meters":16400,"station_id":"ce4bgn12rcd13ifvqbt0","pricing_plan_id":"cebpf4jnsgd1na2vs0mg"},{"bike_id":"5f3f2703-e50a-4bcd-94e9-7b782bdf49ca","system_id":"levelo_inurba_marseille","lat":43.25939,"lon":5.40894,"is_reserved":false,"is_disabled":false,"rental_uris":{"android":"levelo://app?vid=5f3f2703-e50a-4bcd-94e9-7b782bdf49ca","ios":"levelo://app?vid=5f3f2703-e50a-4bcd-94e9-7b782bdf49ca"},"vehicle_type_id":"4","last_reported":1726916805,"current_range_meters":37600,"station_id":"ce4bhm92rcd13ifvqglg","pricing_plan_id":"cebpf4jnsgd1na2vs0mg"},{"bike_id":"952727d5-10c0-49c8-a6ee-a4efa34b8c23","system_id":"levelo_inurba_marseille","lat":43.23959,"lon":5.36637,"is_reserved":false,"is_disabled":false,"rental_uris":{"android":"levelo://app?vid=952727d5-10c0-49c8-a6ee-a4efa34b8c23","ios":"levelo://app?vid=952727d5-10c0-49c8-a6ee-a4efa34b8c23"},"vehicle_type_id":"4","last_reported":1726916805,"current_range_meters":38800,"station_id":"ce4bhi12rcd13ifvqfp0","pricing_plan_id":"cebpf4jnsgd1na2vs0mg"},{"bike_id":"4bc03e97-c1e5-4c67-a26c-5ce1ab99d654","system_id":"levelo_inurba_marseille","lat":43.29908,"lon":5.37473,"is_reserved":false,"is_disabled":false,"rental_uris":{"android":"levelo://app?vid=4bc03e97-c1e5-4c67-a26c-5ce1ab99d654","ios":"levelo://app?vid=4bc03e97-c1e5-4c67-a26c-5ce1ab99d654"},"vehicle_type_id":"4","last_reported":1726916805,"current_range_meters":9600,"station_id":"ce4bgjh2rcd13ifvqbg0","pricing_plan_id":"cebpf4jnsgd1na2vs0mg"},{"bike_id":"c5b0f1bc-8ba6-4f12-8bcf-c2744be09b48","system_id":"levelo_inurba_marseille","lat":43.291046,"lon":5.382518,"is_reserved":false,"is_disabled":false,"rental_uris":{"android":"levelo://app?vid=c5b0f1bc-8ba6-4f12-8bcf-c2744be09b48","ios":"levelo://app?vid=c5b0f1bc-8ba6-4f12-8bcf-c2744be09b48"},"vehicle_type_id":"4","last_reported":1726916805,"current_range_meters":28400,"station_id":"ce4bgqh2rcd13ifvqc4g","pricing_plan_id":"cebpf4jnsgd1na2vs0mg"},{"bike_id":"8175746f-5f46-466d-af07-cc8a466620f2","system_id":"levelo_inurba_marseille","lat":43.25492,"lon":5.37645,"is_reserved":false,"is_disabled":false,"rental_uris":{"android":"levelo://app?vid=8175746f-5f46-466d-af07-cc8a466620f2","ios":"levelo://app?vid=8175746f-5f46-466d-af07-cc8a466620f2"},"vehicle_type_id":"4","last_reported":1726916805,"current_range_meters":20400,"station_id":"ce4bhh12rcd13ifvqff0","pricing_plan_id":"cebpf4jnsgd1na2vs0mg"},{"bike_id":"e22352b5-e9a0-4afb-bba7-1fffc50d9e43","system_id":"levelo_inurba_marseille","lat":43.23067,"lon":5.35487,"is_reserved":false,"is_disabled":false,"rental_uris":{"android":"levelo://app?vid=e22352b5-e9a0-4afb-bba7-1fffc50d9e43","ios":"levelo://app?vid=e22352b5-e9a0-4afb-bba7-1fffc50d9e43"},"vehicle_type_id":"4","last_reported":1726916805,"current_range_meters":8400,"station_id":"cpo3342slgdg3j2ifvpg","pricing_plan_id":"cebpf4jnsgd1na2vs0mg"},{"bike_id":"787888e2-6206-46d5-a768-f37fbf332ec0","system_id":"levelo_inurba_marseille","lat":43.2511,"lon":5.4031,"is_reserved":false,"is_disabled":false,"rental_uris":{"android":"levelo://app?vid=787888e2-6206-46d5-a768-f37fbf332ec0","ios":"levelo://app?vid=787888e2-6206-46d5-a768-f37fbf332ec0"},"vehicle_type_id":"4","last_reported":1726916805,"current_range_meters":27600,"station_id":"ce4bhlh2rcd13ifvqgig","pricing_plan_id":"cebpf4jnsgd1na2vs0mg"},{"bike_id":"3cea86a1-9a58-478d-b244-957f4139aef0","system_id":"levelo_inurba_marseille","lat":43.33602,"lon":5.41028,"is_reserved":false,"is_disabled":false,"rental_uris":{"android":"levelo://app?vid=3cea86a1-9a58-478d-b244-957f4139aef0","ios":"levelo://app?vid=3cea86a1-9a58-478d-b244-957f4139aef0"},"vehicle_type_id":"4","last_reported":1726916805,"current_range_meters":39200,"station_id":"ce4bhqh2rcd13ifvqhmg","pricing_plan_id":"cebpf4jnsgd1na2vs0mg"},{"bike_id":"8bdb5b38-fe08-4cc9-a298-7cb72a04d72e","system_id":"levelo_inurba_marseille","lat":43.29349,"lon":5.37863,"is_reserved":false,"is_disabled":false,"rental_uris":{"android":"levelo://app?vid=8bdb5b38-fe08-4cc9-a298-7cb72a04d72e","ios":"levelo://app?vid=8bdb5b38-fe08-4cc9-a298-7cb72a04d72e"},"vehicle_type_id":"4","last_reported":1726916805,"current_range_meters":35600,"station_id":"ce4bgjh2rcd13ifvqbf0","pricing_plan_id":"cebpf4jnsgd1na2vs0mg"},{"bike_id":"b30db46c-a7f7-4c1e-b3e2-a8cb6d374c17","system_id":"levelo_inurba_marseille","lat":43.23189,"lon":5.3998,"is_reserved":false,"is_disabled":false,"rental_uris":{"android":"levelo://app?vid=b30db46c-a7f7-4c1e-b3e2-a8cb6d374c17","ios":"levelo://app?vid=b30db46c-a7f7-4c1e-b3e2-a8cb6d374c17"},"vehicle_type_id":"4","last_reported":1726916805,"current_range_meters":36400,"station_id":"ce4bhn12rcd13ifvqgqg","pricing_plan_id":"cebpf4jnsgd1na2vs0mg"},{"bike_id":"7305e097-fa56-4e8c-b7c3-772deb6569c0","system_id":"levelo_inurba_marseille","lat":43.25578,"lon":5.38228,"is_reserved":false,"is_disabled":false,"rental_uris":{"android":"levelo://app?vid=7305e097-fa56-4e8c-b7c3-772deb6569c0","ios":"levelo://app?vid=7305e097-fa56-4e8c-b7c3-772deb6569c0"},"vehicle_type_id":"4","last_reported":1726916805,"current_range_meters":30000,"station_id":"ce4bhih2rcd13ifvqfs0","pricing_plan_id":"cebpf4jnsgd1na2vs0mg"},{"bike_id":"fa520986-39e7-4e30-bd0c-782c813be45b","system_id":"levelo_inurba_marseille","lat":43.30464,"lon":5.37891,"is_reserved":false,"is_disabled":false,"rental_uris":{"android":"levelo://app?vid=fa520986-39e7-4e30-bd0c-782c813be45b","ios":"levelo://app?vid=fa520986-39e7-4e30-bd0c-782c813be45b"},"vehicle_type_id":"4","last_reported":1726916805,"current_range_meters":36800,"station_id":"ce4bgup2rcd13ifvqcn0","pricing_plan_id":"cebpf4jnsgd1na2vs0mg"},{"bike_id":"a5bd931d-34ec-4667-a336-75f628c3cf83","system_id":"levelo_inurba_marseille","lat":43.24809,"lon":5.37453,"is_reserved":false,"is_disabled":false,"rental_uris":{"android":"levelo://app?vid=a5bd931d-34ec-4667-a336-75f628c3cf83","ios":"levelo://app?vid=a5bd931d-34ec-4667-a336-75f628c3cf83"},"vehicle_type_id":"4","last_reported":1726916805,"current_range_meters":2000,"station_id":"ce4bhgh2rcd13ifvqfb0","pricing_plan_id":"cebpf4jnsgd1na2vs0mg"},{"bike_id":"635193cf-bb5a-4f57-aa73-b585b11ca4fe","system_id":"levelo_inurba_marseille","lat":43.24069,"lon":5.37763,"is_reserved":false,"is_disabled":false,"rental_uris":{"android":"levelo://app?vid=635193cf-bb5a-4f57-aa73-b585b11ca4fe","ios":"levelo://app?vid=635193cf-bb5a-4f57-aa73-b585b11ca4fe"},"vehicle_type_id":"4","last_reported":1726916805,"current_range_meters":22800,"station_id":"ce4bhnp2rcd13ifvqgvg","pricing_plan_id":"cebpf4jnsgd1na2vs0mg"},{"bike_id":"df63e28f-cd57-48d1-89d0-dbc144c9c1f9","system_id":"levelo_inurba_marseille","lat":43.23188,"lon":5.39985,"is_reserved":false,"is_disabled":false,"rental_uris":{"android":"levelo://app?vid=df63e28f-cd57-48d1-89d0-dbc144c9c1f9","ios":"levelo://app?vid=df63e28f-cd57-48d1-89d0-dbc144c9c1f9"},"vehicle_type_id":"4","last_reported":1726916805,"current_range_meters":18000,"station_id":"ce4bhn12rcd13ifvqgqg","pricing_plan_id":"cebpf4jnsgd1na2vs0mg"},{"bike_id":"75d05abd-e2c7-4bd1-9138-a4e7d7076f4f","system_id":"levelo_inurba_marseille","lat":43.25111,"lon":5.40325,"is_reserved":false,"is_disabled":false,"rental_uris":{"android":"levelo://app?vid=75d05abd-e2c7-4bd1-9138-a4e7d7076f4f","ios":"levelo://app?vid=75d05abd-e2c7-4bd1-9138-a4e7d7076f4f"},"vehicle_type_id":"4","last_reported":1726916805,"current_range_meters":24800,"station_id":"ce4bhlh2rcd13ifvqgig","pricing_plan_id":"cebpf4jnsgd1na2vs0mg"},{"bike_id":"a4d4f5e6-a6e7-4588-ae73-51ff4f2487fb","system_id":"levelo_inurba_marseille","lat":43.29913,"lon":5.37467,"is_reserved":false,"is_disabled":false,"rental_uris":{"android":"levelo://app?vid=a4d4f5e6-a6e7-4588-ae73-51ff4f2487fb","ios":"levelo://app?vid=a4d4f5e6-a6e7-4588-ae73-51ff4f2487fb"},"vehicle_type_id":"4","last_reported":1726916805,"current_range_meters":38800,"station_id":"ce4bgjh2rcd13ifvqbg0","pricing_plan_id":"cebpf4jnsgd1na2vs0mg"},{"bike_id":"96fdf3c6-c71e-431e-9c6b-0f8e5f527178","system_id":"levelo_inurba_marseille","lat":43.27558,"lon":5.38421,"is_reserved":false,"is_disabled":false,"rental_uris":{"android":"levelo://app?vid=96fdf3c6-c71e-431e-9c6b-0f8e5f527178","ios":"levelo://app?vid=96fdf3c6-c71e-431e-9c6b-0f8e5f527178"},"vehicle_type_id":"4","last_reported":1726916805,"current_range_meters":28000,"station_id":"ce4bhh92rcd13ifvqfi0","pricing_plan_id":"cebpf4jnsgd1na2vs0mg"},{"bike_id":"ed7039a2-36d3-4695-8b70-cbbfaf2aab21","system_id":"levelo_inurba_marseille","lat":43.292328,"lon":5.361842,"is_reserved":false,"is_disabled":false,"rental_uris":{"android":"levelo://app?vid=ed7039a2-36d3-4695-8b70-cbbfaf2aab21","ios":"levelo://app?vid=ed7039a2-36d3-4695-8b70-cbbfaf2aab21"},"vehicle_type_id":"4","last_reported":1726916805,"current_range_meters":18000,"station_id":"","pricing_plan_id":"cebpf4jnsgd1na2vs0mg"},{"bike_id":"444b5f32-c84e-4f70-a247-81336f8e666d","system_id":"levelo_inurba_marseille","lat":43.29219,"lon":5.36052,"is_reserved":false,"is_disabled":false,"rental_uris":{"android":"levelo://app?vid=444b5f32-c84e-4f70-a247-81336f8e666d","ios":"levelo://app?vid=444b5f32-c84e-4f70-a247-81336f8e666d"},"vehicle_type_id":"4","last_reported":1726916805,"current_range_meters":38400,"station_id":"ce4bhbh2rcd13ifvqeqg","pricing_plan_id":"cebpf4jnsgd1na2vs0mg"},{"bike_id":"889e28e2-6f1c-4ea5-b22c-b546f4c54f82","system_id":"levelo_inurba_marseille","lat":43.28613,"lon":5.35105,"is_reserved":false,"is_disabled":false,"rental_uris":{"android":"levelo://app?vid=889e28e2-6f1c-4ea5-b22c-b546f4c54f82","ios":"levelo://app?vid=889e28e2-6f1c-4ea5-b22c-b546f4c54f82"},"vehicle_type_id":"4","last_reported":1726916805,"current_range_meters":26000,"station_id":"ce4bhch2rcd13ifvqeug","pricing_plan_id":"cebpf4jnsgd1na2vs0mg"},{"bike_id":"758b44bc-b7b4-4f37-9645-6407ee72731e","system_id":"levelo_inurba_marseille","lat":43.30948,"lon":5.39032,"is_reserved":false,"is_disabled":false,"rental_uris":{"android":"levelo://app?vid=758b44bc-b7b4-4f37-9645-6407ee72731e","ios":"levelo://app?vid=758b44bc-b7b4-4f37-9645-6407ee72731e"},"vehicle_type_id":"4","last_reported":1726916805,"current_range_meters":5600,"station_id":"ce4bgup2rcd13ifvqco0","pricing_plan_id":"cebpf4jnsgd1na2vs0mg"},{"bike_id":"ce3eda21-a745-4e60-bef8-9a61cade82f4","system_id":"levelo_inurba_marseille","lat":43.29004,"lon":5.35609,"is_reserved":false,"is_disabled":false,"rental_uris":{"android":"levelo://app?vid=ce3eda21-a745-4e60-bef8-9a61cade82f4","ios":"levelo://app?vid=ce3eda21-a745-4e60-bef8-9a61cade82f4"},"vehicle_type_id":"4","last_reported":1726916805,"current_range_meters":23200,"station_id":"ce4bhb92rcd13ifvqen0","pricing_plan_id":"cebpf4jnsgd1na2vs0mg"},{"bike_id":"f2fdefcd-a050-4065-a802-75d2680309bd","system_id":"levelo_inurba_marseille","lat":43.2319,"lon":5.39984,"is_reserved":false,"is_disabled":false,"rental_uris":{"android":"levelo://app?vid=f2fdefcd-a050-4065-a802-75d2680309bd","ios":"levelo://app?vid=f2fdefcd-a050-4065-a802-75d2680309bd"},"vehicle_type_id":"4","last_reported":1726916805,"current_range_meters":23200,"station_id":"ce4bhn12rcd13ifvqgqg","pricing_plan_id":"cebpf4jnsgd1na2vs0mg"},{"bike_id":"14cba0ea-4932-4120-ba2f-1e13201aa231","system_id":"levelo_inurba_marseille","lat":43.33775,"lon":5.37422,"is_reserved":false,"is_disabled":false,"rental_uris":{"android":"levelo://app?vid=14cba0ea-4932-4120-ba2f-1e13201aa231","ios":"levelo://app?vid=14cba0ea-4932-4120-ba2f-1e13201aa231"},"vehicle_type_id":"4","last_reported":1726916805,"current_range_meters":36800,"station_id":"","pricing_plan_id":"cebpf4jnsgd1na2vs0mg"},{"bike_id":"a433909b-1639-43fc-9fc1-2bafb2f6ed96","system_id":"levelo_inurba_marseille","lat":43.27202,"lon":5.39188,"is_reserved":false,"is_disabled":false,"rental_uris":{"android":"levelo://app?vid=a433909b-1639-43fc-9fc1-2bafb2f6ed96","ios":"levelo://app?vid=a433909b-1639-43fc-9fc1-2bafb2f6ed96"},"vehicle_type_id":"4","last_reported":1726916805,"current_range_meters":25600,"station_id":"ce4bhhp2rcd13ifvqfm0","pricing_plan_id":"cebpf4jnsgd1na2vs0mg"},{"bike_id":"f925ae7c-9bf5-4c18-9ef0-2d30f3becb9a","system_id":"levelo_inurba_marseille","lat":43.31366,"lon":5.38497,"is_reserved":false,"is_disabled":false,"rental_uris":{"android":"levelo://app?vid=f925ae7c-9bf5-4c18-9ef0-2d30f3becb9a","ios":"levelo://app?vid=f925ae7c-9bf5-4c18-9ef0-2d30f3becb9a"},"vehicle_type_id":"4","last_reported":1726916805,"current_range_meters":33200,"station_id":"ce4bgt92rcd13ifvqcf0","pricing_plan_id":"cebpf4jnsgd1na2vs0mg"},{"bike_id":"2a7db943-6265-4479-9604-043d344eb7a6","system_id":"levelo_inurba_marseille","lat":43.30277,"lon":5.38395,"is_reserved":false,"is_disabled":false,"rental_uris":{"android":"levelo://app?vid=2a7db943-6265-4479-9604-043d344eb7a6","ios":"levelo://app?vid=2a7db943-6265-4479-9604-043d344eb7a6"},"vehicle_type_id":"4","last_reported":1726916805,"current_range_meters":23200,"station_id":"","pricing_plan_id":"cebpf4jnsgd1na2vs0mg"},{"bike_id":"074f0df3-abdf-4a22-aa4f-44af1b69c277","system_id":"levelo_inurba_marseille","lat":43.30451,"lon":5.37907,"is_reserved":false,"is_disabled":false,"rental_uris":{"android":"levelo://app?vid=074f0df3-abdf-4a22-aa4f-44af1b69c277","ios":"levelo://app?vid=074f0df3-abdf-4a22-aa4f-44af1b69c277"},"vehicle_type_id":"4","last_reported":1726916805,"current_range_meters":37600,"station_id":"ce4bgup2rcd13ifvqcn0","pricing_plan_id":"cebpf4jnsgd1na2vs0mg"},{"bike_id":"feef65fd-70ed-4c2a-ab1c-62060f564852","system_id":"levelo_inurba_marseille","lat":43.26688,"lon":5.3827,"is_reserved":false,"is_disabled":false,"rental_uris":{"android":"levelo://app?vid=feef65fd-70ed-4c2a-ab1c-62060f564852","ios":"levelo://app?vid=feef65fd-70ed-4c2a-ab1c-62060f564852"},"vehicle_type_id":"4","last_reported":1726916805,"current_range_meters":26000,"station_id":"ce4bhg92rcd13ifvqf90","pricing_plan_id":"cebpf4jnsgd1na2vs0mg"},{"bike_id":"1ac0a20c-401d-4777-af73-d334affd0e09","system_id":"levelo_inurba_marseille","lat":43.25091,"lon":5.39516,"is_reserved":false,"is_disabled":false,"rental_uris":{"android":"levelo://app?vid=1ac0a20c-401d-4777-af73-d334affd0e09","ios":"levelo://app?vid=1ac0a20c-401d-4777-af73-d334affd0e09"},"vehicle_type_id":"4","last_reported":1726916805,"current_range_meters":38000,"station_id":"ce4bhm12rcd13ifvqgkg","pricing_plan_id":"cebpf4jnsgd1na2vs0mg"},{"bike_id":"b8afe22f-c0f3-483c-bb5f-6071483e5e25","system_id":"levelo_inurba_marseille","lat":43.25944,"lon":5.40896,"is_reserved":false,"is_disabled":false,"rental_uris":{"android":"levelo://app?vid=b8afe22f-c0f3-483c-bb5f-6071483e5e25","ios":"levelo://app?vid=b8afe22f-c0f3-483c-bb5f-6071483e5e25"},"vehicle_type_id":"4","last_reported":1726916805,"current_range_meters":30800,"station_id":"ce4bhm92rcd13ifvqglg","pricing_plan_id":"cebpf4jnsgd1na2vs0mg"},{"bike_id":"f4c93eaf-313d-4d01-b8ee-887ab0bea986","system_id":"levelo_inurba_marseille","lat":43.25127,"lon":5.40315,"is_reserved":false,"is_disabled":false,"rental_uris":{"android":"levelo://app?vid=f4c93eaf-313d-4d01-b8ee-887ab0bea986","ios":"levelo://app?vid=f4c93eaf-313d-4d01-b8ee-887ab0bea986"},"vehicle_type_id":"4","last_reported":1726916805,"current_range_meters":32400,"station_id":"ce4bhlh2rcd13ifvqgig","pricing_plan_id":"cebpf4jnsgd1na2vs0mg"},{"bike_id":"b8c4fb30-143a-40da-a94d-ac106aff7dd4","system_id":"levelo_inurba_marseille","lat":43.31275,"lon":5.40165,"is_reserved":false,"is_disabled":false,"rental_uris":{"android":"levelo://app?vid=b8c4fb30-143a-40da-a94d-ac106aff7dd4","ios":"levelo://app?vid=b8c4fb30-143a-40da-a94d-ac106aff7dd4"},"vehicle_type_id":"4","last_reported":1726916805,"current_range_meters":4000,"station_id":"ce4bh092rcd13ifvqd30","pricing_plan_id":"cebpf4jnsgd1na2vs0mg"},{"bike_id":"edfb1ff5-b81b-4225-8da9-100a9115b1e3","system_id":"levelo_inurba_marseille","lat":43.29735,"lon":5.36561,"is_reserved":false,"is_disabled":false,"rental_uris":{"android":"levelo://app?vid=edfb1ff5-b81b-4225-8da9-100a9115b1e3","ios":"levelo://app?vid=edfb1ff5-b81b-4225-8da9-100a9115b1e3"},"vehicle_type_id":"4","last_reported":1726916805,"current_range_meters":8800,"station_id":"","pricing_plan_id":"cebpf4jnsgd1na2vs0mg"},{"bike_id":"8d60c768-1f9b-4fc7-af6b-b1ff85b1d52f","system_id":"levelo_inurba_marseille","lat":43.30947,"lon":5.39044,"is_reserved":false,"is_disabled":false,"rental_uris":{"android":"levelo://app?vid=8d60c768-1f9b-4fc7-af6b-b1ff85b1d52f","ios":"levelo://app?vid=8d60c768-1f9b-4fc7-af6b-b1ff85b1d52f"},"vehicle_type_id":"4","last_reported":1726916805,"current_range_meters":20400,"station_id":"ce4bgup2rcd13ifvqco0","pricing_plan_id":"cebpf4jnsgd1na2vs0mg"},{"bike_id":"0df805ca-5348-4169-979d-f0b036f1fe02","system_id":"levelo_inurba_marseille","lat":43.31997,"lon":5.38149,"is_reserved":false,"is_disabled":false,"rental_uris":{"android":"levelo://app?vid=0df805ca-5348-4169-979d-f0b036f1fe02","ios":"levelo://app?vid=0df805ca-5348-4169-979d-f0b036f1fe02"},"vehicle_type_id":"4","last_reported":1726916805,"current_range_meters":17600,"station_id":"ce4bhr12rcd13ifvqhpg","pricing_plan_id":"cebpf4jnsgd1na2vs0mg"},{"bike_id":"da5b329a-bf77-463c-ba49-240bf20c7c02","system_id":"levelo_inurba_marseille","lat":43.28452,"lon":5.35889,"is_reserved":false,"is_disabled":false,"rental_uris":{"android":"levelo://app?vid=da5b329a-bf77-463c-ba49-240bf20c7c02","ios":"levelo://app?vid=da5b329a-bf77-463c-ba49-240bf20c7c02"},"vehicle_type_id":"4","last_reported":1726916805,"current_range_meters":36000,"station_id":"ce4bhah2rcd13ifvqei0","pricing_plan_id":"cebpf4jnsgd1na2vs0mg"},{"bike_id":"f9014e53-68ea-4656-9a94-21083e422281","system_id":"levelo_inurba_marseille","lat":43.29043,"lon":5.37551,"is_reserved":false,"is_disabled":false,"rental_uris":{"android":"levelo://app?vid=f9014e53-68ea-4656-9a94-21083e422281","ios":"levelo://app?vid=f9014e53-68ea-4656-9a94-21083e422281"},"vehicle_type_id":"4","last_reported":1726916805,"current_range_meters":18800,"station_id":"ce4bh692rcd13ifvqe90","pricing_plan_id":"cebpf4jnsgd1na2vs0mg"},{"bike_id":"6ce6658d-8cb1-4e9f-b55b-819dcfec1be3","system_id":"levelo_inurba_marseille","lat":43.28616,"lon":5.35106,"is_reserved":false,"is_disabled":false,"rental_uris":{"android":"levelo://app?vid=6ce6658d-8cb1-4e9f-b55b-819dcfec1be3","ios":"levelo://app?vid=6ce6658d-8cb1-4e9f-b55b-819dcfec1be3"},"vehicle_type_id":"4","last_reported":1726916805,"current_range_meters":6400,"station_id":"ce4bhch2rcd13ifvqeug","pricing_plan_id":"cebpf4jnsgd1na2vs0mg"},{"bike_id":"408a88f4-006a-444d-82ce-de0556284811","system_id":"levelo_inurba_marseille","lat":43.28661,"lon":5.3868,"is_reserved":false,"is_disabled":false,"rental_uris":{"android":"levelo://app?vid=408a88f4-006a-444d-82ce-de0556284811","ios":"levelo://app?vid=408a88f4-006a-444d-82ce-de0556284811"},"vehicle_type_id":"4","last_reported":1726916805,"current_range_meters":33600,"station_id":"ce4bh492rcd13ifvqdug","pricing_plan_id":"cebpf4jnsgd1na2vs0mg"},{"bike_id":"72964c67-6aed-4707-911d-186df8a12b64","system_id":"levelo_inurba_marseille","lat":43.31697,"lon":5.40468,"is_reserved":false,"is_disabled":false,"rental_uris":{"android":"levelo://app?vid=72964c67-6aed-4707-911d-186df8a12b64","ios":"levelo://app?vid=72964c67-6aed-4707-911d-186df8a12b64"},"vehicle_type_id":"4","last_reported":1726916805,"current_range_meters":38800,"station_id":"ce4bh012rcd13ifvqd00","pricing_plan_id":"cebpf4jnsgd1na2vs0mg"},{"bike_id":"84c511e9-db56-4526-8d00-a5de248e1a83","system_id":"levelo_inurba_marseille","lat":43.23186,"lon":5.39978,"is_reserved":false,"is_disabled":false,"rental_uris":{"android":"levelo://app?vid=84c511e9-db56-4526-8d00-a5de248e1a83","ios":"levelo://app?vid=84c511e9-db56-4526-8d00-a5de248e1a83"},"vehicle_type_id":"4","last_reported":1726916805,"current_range_meters":38800,"station_id":"ce4bhn12rcd13ifvqgqg","pricing_plan_id":"cebpf4jnsgd1na2vs0mg"},{"bike_id":"b4d8cc2f-08fa-447c-98aa-3fb508700768","system_id":"levelo_inurba_marseille","lat":43.28967,"lon":5.35778,"is_reserved":false,"is_disabled":false,"rental_uris":{"android":"levelo://app?vid=b4d8cc2f-08fa-447c-98aa-3fb508700768","ios":"levelo://app?vid=b4d8cc2f-08fa-447c-98aa-3fb508700768"},"vehicle_type_id":"4","last_reported":1726916805,"current_range_meters":3600,"station_id":"","pricing_plan_id":"cebpf4jnsgd1na2vs0mg"},{"bike_id":"bd6456aa-7882-4ecb-b6d6-c1e08b9e8174","system_id":"levelo_inurba_marseille","lat":43.25577,"lon":5.38235,"is_reserved":false,"is_disabled":false,"rental_uris":{"android":"levelo://app?vid=bd6456aa-7882-4ecb-b6d6-c1e08b9e8174","ios":"levelo://app?vid=bd6456aa-7882-4ecb-b6d6-c1e08b9e8174"},"vehicle_type_id":"4","last_reported":1726916805,"current_range_meters":26800,"station_id":"ce4bhih2rcd13ifvqfs0","pricing_plan_id":"cebpf4jnsgd1na2vs0mg"},{"bike_id":"8fd70697-883c-4670-8851-8ec60548abbc","system_id":"levelo_inurba_marseille","lat":43.2293,"lon":5.35376,"is_reserved":false,"is_disabled":false,"rental_uris":{"android":"levelo://app?vid=8fd70697-883c-4670-8851-8ec60548abbc","ios":"levelo://app?vid=8fd70697-883c-4670-8851-8ec60548abbc"},"vehicle_type_id":"4","last_reported":1726916805,"current_range_meters":20800,"station_id":"cpo3532slgdg3j2ikp40","pricing_plan_id":"cebpf4jnsgd1na2vs0mg"},{"bike_id":"bcd9d067-b093-4910-baae-4106d4c6d258","system_id":"levelo_inurba_marseille","lat":43.29219,"lon":5.36054,"is_reserved":false,"is_disabled":false,"rental_uris":{"android":"levelo://app?vid=bcd9d067-b093-4910-baae-4106d4c6d258","ios":"levelo://app?vid=bcd9d067-b093-4910-baae-4106d4c6d258"},"vehicle_type_id":"4","last_reported":1726916805,"current_range_meters":37600,"station_id":"ce4bhbh2rcd13ifvqeqg","pricing_plan_id":"cebpf4jnsgd1na2vs0mg"},{"bike_id":"cafea559-6c20-499e-a34d-47126ef437b4","system_id":"levelo_inurba_marseille","lat":43.29414,"lon":5.38621,"is_reserved":false,"is_disabled":false,"rental_uris":{"android":"levelo://app?vid=cafea559-6c20-499e-a34d-47126ef437b4","ios":"levelo://app?vid=cafea559-6c20-499e-a34d-47126ef437b4"},"vehicle_type_id":"4","last_reported":1726916805,"current_range_meters":19200,"station_id":"ce4bh2h2rcd13ifvqdh0","pricing_plan_id":"cebpf4jnsgd1na2vs0mg"},{"bike_id":"ae736cb6-c25f-4200-a574-819f5c7f8fb4","system_id":"levelo_inurba_marseille","lat":43.24163,"lon":5.36395,"is_reserved":false,"is_disabled":false,"rental_uris":{"android":"levelo://app?vid=ae736cb6-c25f-4200-a574-819f5c7f8fb4","ios":"levelo://app?vid=ae736cb6-c25f-4200-a574-819f5c7f8fb4"},"vehicle_type_id":"4","last_reported":1726916805,"current_range_meters":28400,"station_id":"cpo36qri1sfpv3e86is0","pricing_plan_id":"cebpf4jnsgd1na2vs0mg"},{"bike_id":"bf03865e-9944-4f40-bf02-6028a7d0a9c4","system_id":"levelo_inurba_marseille","lat":43.28285,"lon":5.3509,"is_reserved":false,"is_disabled":false,"rental_uris":{"android":"levelo://app?vid=bf03865e-9944-4f40-bf02-6028a7d0a9c4","ios":"levelo://app?vid=bf03865e-9944-4f40-bf02-6028a7d0a9c4"},"vehicle_type_id":"4","last_reported":1726916805,"current_range_meters":27600,"station_id":"ce4bhbp2rcd13ifvqerg","pricing_plan_id":"cebpf4jnsgd1na2vs0mg"},{"bike_id":"7e4db4af-e2d1-44a5-aabe-192cf242013a","system_id":"levelo_inurba_marseille","lat":43.29785,"lon":5.37107,"is_reserved":false,"is_disabled":false,"rental_uris":{"android":"levelo://app?vid=7e4db4af-e2d1-44a5-aabe-192cf242013a","ios":"levelo://app?vid=7e4db4af-e2d1-44a5-aabe-192cf242013a"},"vehicle_type_id":"4","last_reported":1726916805,"current_range_meters":37600,"station_id":"ce4bgop2rcd13ifvqc1g","pricing_plan_id":"cebpf4jnsgd1na2vs0mg"},{"bike_id":"f7ad2e7a-a575-4361-994a-0ff95a85d018","system_id":"levelo_inurba_marseille","lat":43.30648,"lon":5.37186,"is_reserved":false,"is_disabled":false,"rental_uris":{"android":"levelo://app?vid=f7ad2e7a-a575-4361-994a-0ff95a85d018","ios":"levelo://app?vid=f7ad2e7a-a575-4361-994a-0ff95a85d018"},"vehicle_type_id":"4","last_reported":1726916805,"current_range_meters":38800,"station_id":"","pricing_plan_id":"cebpf4jnsgd1na2vs0mg"},{"bike_id":"73e8b086-9fc3-46b4-989f-a6356f56c52c","system_id":"levelo_inurba_marseille","lat":43.29902,"lon":5.4367,"is_reserved":false,"is_disabled":false,"rental_uris":{"android":"levelo://app?vid=73e8b086-9fc3-46b4-989f-a6356f56c52c","ios":"levelo://app?vid=73e8b086-9fc3-46b4-989f-a6356f56c52c"},"vehicle_type_id":"4","last_reported":1726916805,"current_range_meters":30800,"station_id":"ce4bhpp2rcd13ifvqhfg","pricing_plan_id":"cebpf4jnsgd1na2vs0mg"},{"bike_id":"2e65dc64-630b-491f-8969-e3830d69efc6","system_id":"levelo_inurba_marseille","lat":43.29301,"lon":5.37169,"is_reserved":false,"is_disabled":false,"rental_uris":{"android":"levelo://app?vid=2e65dc64-630b-491f-8969-e3830d69efc6","ios":"levelo://app?vid=2e65dc64-630b-491f-8969-e3830d69efc6"},"vehicle_type_id":"4","last_reported":1726916805,"current_range_meters":6000,"station_id":"ce4bgh92rcd13ifvqb40","pricing_plan_id":"cebpf4jnsgd1na2vs0mg"},{"bike_id":"c839c5b6-c700-4148-9427-6f6c3691baa7","system_id":"levelo_inurba_marseille","lat":43.23966,"lon":5.36636,"is_reserved":false,"is_disabled":false,"rental_uris":{"android":"levelo://app?vid=c839c5b6-c700-4148-9427-6f6c3691baa7","ios":"levelo://app?vid=c839c5b6-c700-4148-9427-6f6c3691baa7"},"vehicle_type_id":"4","last_reported":1726916805,"current_range_meters":25600,"station_id":"ce4bhi12rcd13ifvqfp0","pricing_plan_id":"cebpf4jnsgd1na2vs0mg"},{"bike_id":"b0c5931b-5c7b-4644-bd7f-0ca3ee9a56e1","system_id":"levelo_inurba_marseille","lat":43.272125,"lon":5.391788,"is_reserved":false,"is_disabled":false,"rental_uris":{"android":"levelo://app?vid=b0c5931b-5c7b-4644-bd7f-0ca3ee9a56e1","ios":"levelo://app?vid=b0c5931b-5c7b-4644-bd7f-0ca3ee9a56e1"},"vehicle_type_id":"4","last_reported":1726916805,"current_range_meters":4800,"station_id":"ce4bhhp2rcd13ifvqfm0","pricing_plan_id":"cebpf4jnsgd1na2vs0mg"},{"bike_id":"5840a821-7b4a-4179-8856-92a74917e83c","system_id":"levelo_inurba_marseille","lat":43.25005,"lon":5.38922,"is_reserved":false,"is_disabled":false,"rental_uris":{"android":"levelo://app?vid=5840a821-7b4a-4179-8856-92a74917e83c","ios":"levelo://app?vid=5840a821-7b4a-4179-8856-92a74917e83c"},"vehicle_type_id":"4","last_reported":1726916805,"current_range_meters":39200,"station_id":"ce4bhgp2rcd13ifvqfd0","pricing_plan_id":"cebpf4jnsgd1na2vs0mg"},{"bike_id":"c159f332-836d-48d3-9532-58bb27f7842c","system_id":"levelo_inurba_marseille","lat":43.31232,"lon":5.36837,"is_reserved":false,"is_disabled":false,"rental_uris":{"android":"levelo://app?vid=c159f332-836d-48d3-9532-58bb27f7842c","ios":"levelo://app?vid=c159f332-836d-48d3-9532-58bb27f7842c"},"vehicle_type_id":"4","last_reported":1726916805,"current_range_meters":36400,"station_id":"ce4bgl92rcd13ifvqbq0","pricing_plan_id":"cebpf4jnsgd1na2vs0mg"},{"bike_id":"6a904f86-3194-4a15-8d50-c9e396397db9","system_id":"levelo_inurba_marseille","lat":43.29008,"lon":5.35607,"is_reserved":false,"is_disabled":false,"rental_uris":{"android":"levelo://app?vid=6a904f86-3194-4a15-8d50-c9e396397db9","ios":"levelo://app?vid=6a904f86-3194-4a15-8d50-c9e396397db9"},"vehicle_type_id":"4","last_reported":1726916805,"current_range_meters":25600,"station_id":"ce4bhb92rcd13ifvqen0","pricing_plan_id":"cebpf4jnsgd1na2vs0mg"},{"bike_id":"5419b1bf-d37c-4076-a34c-52ede101758e","system_id":"levelo_inurba_marseille","lat":43.337444,"lon":5.374475,"is_reserved":false,"is_disabled":false,"rental_uris":{"android":"levelo://app?vid=5419b1bf-d37c-4076-a34c-52ede101758e","ios":"levelo://app?vid=5419b1bf-d37c-4076-a34c-52ede101758e"},"vehicle_type_id":"4","last_reported":1726916805,"current_range_meters":32800,"station_id":"","pricing_plan_id":"cebpf4jnsgd1na2vs0mg"},{"bike_id":"4eef0d21-d850-40fa-a5d8-1d28e2cbd99e","system_id":"levelo_inurba_marseille","lat":43.23962,"lon":5.36635,"is_reserved":false,"is_disabled":false,"rental_uris":{"android":"levelo://app?vid=4eef0d21-d850-40fa-a5d8-1d28e2cbd99e","ios":"levelo://app?vid=4eef0d21-d850-40fa-a5d8-1d28e2cbd99e"},"vehicle_type_id":"4","last_reported":1726916805,"current_range_meters":33200,"station_id":"ce4bhi12rcd13ifvqfp0","pricing_plan_id":"cebpf4jnsgd1na2vs0mg"},{"bike_id":"f55d82a5-a2f1-4a59-a6a0-790c179f4953","system_id":"levelo_inurba_marseille","lat":43.29903,"lon":5.43667,"is_reserved":false,"is_disabled":false,"rental_uris":{"android":"levelo://app?vid=f55d82a5-a2f1-4a59-a6a0-790c179f4953","ios":"levelo://app?vid=f55d82a5-a2f1-4a59-a6a0-790c179f4953"},"vehicle_type_id":"4","last_reported":1726916805,"current_range_meters":38800,"station_id":"ce4bhpp2rcd13ifvqhfg","pricing_plan_id":"cebpf4jnsgd1na2vs0mg"},{"bike_id":"a020a923-89fb-4175-829b-bdb01d885f9c","system_id":"levelo_inurba_marseille","lat":43.23054,"lon":5.35493,"is_reserved":false,"is_disabled":false,"rental_uris":{"android":"levelo://app?vid=a020a923-89fb-4175-829b-bdb01d885f9c","ios":"levelo://app?vid=a020a923-89fb-4175-829b-bdb01d885f9c"},"vehicle_type_id":"4","last_reported":1726916805,"current_range_meters":30000,"station_id":"cpo3342slgdg3j2ifvpg","pricing_plan_id":"cebpf4jnsgd1na2vs0mg"},{"bike_id":"9171400b-ae8b-4039-ab58-523903ddb2b9","system_id":"levelo_inurba_marseille","lat":43.29902,"lon":5.37471,"is_reserved":false,"is_disabled":false,"rental_uris":{"android":"levelo://app?vid=9171400b-ae8b-4039-ab58-523903ddb2b9","ios":"levelo://app?vid=9171400b-ae8b-4039-ab58-523903ddb2b9"},"vehicle_type_id":"4","last_reported":1726916805,"current_range_meters":38800,"station_id":"ce4bgjh2rcd13ifvqbg0","pricing_plan_id":"cebpf4jnsgd1na2vs0mg"},{"bike_id":"f07c738f-64b7-4b12-9acd-387f3c4d2596","system_id":"levelo_inurba_marseille","lat":43.27207,"lon":5.39172,"is_reserved":false,"is_disabled":false,"rental_uris":{"android":"levelo://app?vid=f07c738f-64b7-4b12-9acd-387f3c4d2596","ios":"levelo://app?vid=f07c738f-64b7-4b12-9acd-387f3c4d2596"},"vehicle_type_id":"4","last_reported":1726916805,"current_range_meters":39200,"station_id":"ce4bhhp2rcd13ifvqfm0","pricing_plan_id":"cebpf4jnsgd1na2vs0mg"},{"bike_id":"6e2fd8fb-799c-468d-a60b-38d2bf81aa37","system_id":"levelo_inurba_marseille","lat":43.23958,"lon":5.36626,"is_reserved":false,"is_disabled":false,"rental_uris":{"android":"levelo://app?vid=6e2fd8fb-799c-468d-a60b-38d2bf81aa37","ios":"levelo://app?vid=6e2fd8fb-799c-468d-a60b-38d2bf81aa37"},"vehicle_type_id":"4","last_reported":1726916805,"current_range_meters":3200,"station_id":"ce4bhi12rcd13ifvqfp0","pricing_plan_id":"cebpf4jnsgd1na2vs0mg"},{"bike_id":"4b0af6ee-b3d5-4880-8111-7153e2e1e1e8","system_id":"levelo_inurba_marseille","lat":43.24166,"lon":5.36391,"is_reserved":false,"is_disabled":false,"rental_uris":{"android":"levelo://app?vid=4b0af6ee-b3d5-4880-8111-7153e2e1e1e8","ios":"levelo://app?vid=4b0af6ee-b3d5-4880-8111-7153e2e1e1e8"},"vehicle_type_id":"4","last_reported":1726916805,"current_range_meters":12800,"station_id":"cpo36qri1sfpv3e86is0","pricing_plan_id":"cebpf4jnsgd1na2vs0mg"},{"bike_id":"7ccc499f-63f1-4a72-b7c8-4b3b2437d268","system_id":"levelo_inurba_marseille","lat":43.25005,"lon":5.38912,"is_reserved":false,"is_disabled":false,"rental_uris":{"android":"levelo://app?vid=7ccc499f-63f1-4a72-b7c8-4b3b2437d268","ios":"levelo://app?vid=7ccc499f-63f1-4a72-b7c8-4b3b2437d268"},"vehicle_type_id":"4","last_reported":1726916805,"current_range_meters":28400,"station_id":"ce4bhgp2rcd13ifvqfd0","pricing_plan_id":"cebpf4jnsgd1na2vs0mg"},{"bike_id":"e2fa27a0-800b-4751-960e-5c960595b31b","system_id":"levelo_inurba_marseille","lat":43.31537,"lon":5.372841,"is_reserved":false,"is_disabled":false,"rental_uris":{"android":"levelo://app?vid=e2fa27a0-800b-4751-960e-5c960595b31b","ios":"levelo://app?vid=e2fa27a0-800b-4751-960e-5c960595b31b"},"vehicle_type_id":"4","last_reported":1726916805,"current_range_meters":6400,"station_id":"ce4bgt12rcd13ifvqcd0","pricing_plan_id":"cebpf4jnsgd1na2vs0mg"},{"bike_id":"a929310c-f4b4-4374-84b1-ef91be8c9135","system_id":"levelo_inurba_marseille","lat":43.268038,"lon":5.402666,"is_reserved":false,"is_disabled":false,"rental_uris":{"android":"levelo://app?vid=a929310c-f4b4-4374-84b1-ef91be8c9135","ios":"levelo://app?vid=a929310c-f4b4-4374-84b1-ef91be8c9135"},"vehicle_type_id":"4","last_reported":1726916805,"current_range_meters":2000,"station_id":"ce501612rcd8frsf0b60","pricing_plan_id":"cebpf4jnsgd1na2vs0mg"},{"bike_id":"2b9037e6-c457-49bd-96ba-d4428882aa58","system_id":"levelo_inurba_marseille","lat":43.26483,"lon":5.39552,"is_reserved":false,"is_disabled":false,"rental_uris":{"android":"levelo://app?vid=2b9037e6-c457-49bd-96ba-d4428882aa58","ios":"levelo://app?vid=2b9037e6-c457-49bd-96ba-d4428882aa58"},"vehicle_type_id":"4","last_reported":1726916805,"current_range_meters":38400,"station_id":"ce4bhi12rcd13ifvqfq0","pricing_plan_id":"cebpf4jnsgd1na2vs0mg"},{"bike_id":"769c7585-8d86-451d-8ea9-90dafff7709c","system_id":"levelo_inurba_marseille","lat":43.29602,"lon":5.38094,"is_reserved":false,"is_disabled":false,"rental_uris":{"android":"levelo://app?vid=769c7585-8d86-451d-8ea9-90dafff7709c","ios":"levelo://app?vid=769c7585-8d86-451d-8ea9-90dafff7709c"},"vehicle_type_id":"4","last_reported":1726916805,"current_range_meters":28400,"station_id":"ce4bgl12rcd13ifvqbo0","pricing_plan_id":"cebpf4jnsgd1na2vs0mg"},{"bike_id":"149779fc-bc45-458a-857f-33707eedaf6a","system_id":"levelo_inurba_marseille","lat":43.23186,"lon":5.35557,"is_reserved":false,"is_disabled":false,"rental_uris":{"android":"levelo://app?vid=149779fc-bc45-458a-857f-33707eedaf6a","ios":"levelo://app?vid=149779fc-bc45-458a-857f-33707eedaf6a"},"vehicle_type_id":"4","last_reported":1726916805,"current_range_meters":21600,"station_id":"ce4bhu92rcd13ifvqi70","pricing_plan_id":"cebpf4jnsgd1na2vs0mg"},{"bike_id":"df9b1c9e-0ed6-4804-941c-22e2aebb94dd","system_id":"levelo_inurba_marseille","lat":43.23153,"lon":5.43713,"is_reserved":false,"is_disabled":false,"rental_uris":{"android":"levelo://app?vid=df9b1c9e-0ed6-4804-941c-22e2aebb94dd","ios":"levelo://app?vid=df9b1c9e-0ed6-4804-941c-22e2aebb94dd"},"vehicle_type_id":"4","last_reported":1726916805,"current_range_meters":38800,"station_id":"ce4bhmp2rcd13ifvqgog","pricing_plan_id":"cebpf4jnsgd1na2vs0mg"},{"bike_id":"06e03377-0fef-4c9b-ac21-e4b29cb27ba9","system_id":"levelo_inurba_marseille","lat":43.30542,"lon":5.36537,"is_reserved":false,"is_disabled":false,"rental_uris":{"android":"levelo://app?vid=06e03377-0fef-4c9b-ac21-e4b29cb27ba9","ios":"levelo://app?vid=06e03377-0fef-4c9b-ac21-e4b29cb27ba9"},"vehicle_type_id":"4","last_reported":1726916805,"current_range_meters":14800,"station_id":"ce4bgs12rcd13ifvqcag","pricing_plan_id":"cebpf4jnsgd1na2vs0mg"},{"bike_id":"50a80d2d-849c-408c-864f-11c9ceb052fb","system_id":"levelo_inurba_marseille","lat":43.26191,"lon":5.3745,"is_reserved":false,"is_disabled":false,"rental_uris":{"android":"levelo://app?vid=50a80d2d-849c-408c-864f-11c9ceb052fb","ios":"levelo://app?vid=50a80d2d-849c-408c-864f-11c9ceb052fb"},"vehicle_type_id":"4","last_reported":1726916805,"current_range_meters":22800,"station_id":"ce4bhgp2rcd13ifvqfc0","pricing_plan_id":"cebpf4jnsgd1na2vs0mg"},{"bike_id":"f9d6ebef-08e6-4ee3-af18-856bff18afeb","system_id":"levelo_inurba_marseille","lat":43.30536,"lon":5.36705,"is_reserved":false,"is_disabled":false,"rental_uris":{"android":"levelo://app?vid=f9d6ebef-08e6-4ee3-af18-856bff18afeb","ios":"levelo://app?vid=f9d6ebef-08e6-4ee3-af18-856bff18afeb"},"vehicle_type_id":"4","last_reported":1726916805,"current_range_meters":31200,"station_id":"ce4bgrp2rcd13ifvqc9g","pricing_plan_id":"cebpf4jnsgd1na2vs0mg"},{"bike_id":"b1e4a6db-d9e6-447d-9b6f-1fd8b052c38f","system_id":"levelo_inurba_marseille","lat":43.25497,"lon":5.37648,"is_reserved":false,"is_disabled":false,"rental_uris":{"android":"levelo://app?vid=b1e4a6db-d9e6-447d-9b6f-1fd8b052c38f","ios":"levelo://app?vid=b1e4a6db-d9e6-447d-9b6f-1fd8b052c38f"},"vehicle_type_id":"4","last_reported":1726916805,"current_range_meters":36000,"station_id":"ce4bhh12rcd13ifvqff0","pricing_plan_id":"cebpf4jnsgd1na2vs0mg"},{"bike_id":"31081c68-f8ca-4d77-b5eb-12243a679260","system_id":"levelo_inurba_marseille","lat":43.324824,"lon":5.365641,"is_reserved":false,"is_disabled":false,"rental_uris":{"android":"levelo://app?vid=31081c68-f8ca-4d77-b5eb-12243a679260","ios":"levelo://app?vid=31081c68-f8ca-4d77-b5eb-12243a679260"},"vehicle_type_id":"4","last_reported":1726916805,"current_range_meters":16800,"station_id":"ce4bhs12rcd13ifvqhvg","pricing_plan_id":"cebpf4jnsgd1na2vs0mg"},{"bike_id":"c9ebe121-ed51-4355-85f1-cde4d41a37af","system_id":"levelo_inurba_marseille","lat":43.30556,"lon":5.36551,"is_reserved":false,"is_disabled":false,"rental_uris":{"android":"levelo://app?vid=c9ebe121-ed51-4355-85f1-cde4d41a37af","ios":"levelo://app?vid=c9ebe121-ed51-4355-85f1-cde4d41a37af"},"vehicle_type_id":"4","last_reported":1726916805,"current_range_meters":22000,"station_id":"ce4bgs12rcd13ifvqcag","pricing_plan_id":"cebpf4jnsgd1na2vs0mg"},{"bike_id":"604c9531-be4f-4974-bfe2-bd7828d7386f","system_id":"levelo_inurba_marseille","lat":43.299,"lon":5.43674,"is_reserved":false,"is_disabled":false,"rental_uris":{"android":"levelo://app?vid=604c9531-be4f-4974-bfe2-bd7828d7386f","ios":"levelo://app?vid=604c9531-be4f-4974-bfe2-bd7828d7386f"},"vehicle_type_id":"4","last_reported":1726916805,"current_range_meters":24400,"station_id":"ce4bhpp2rcd13ifvqhfg","pricing_plan_id":"cebpf4jnsgd1na2vs0mg"},{"bike_id":"fa2aaa9c-a59a-4bf9-a63d-cebe926583f8","system_id":"levelo_inurba_marseille","lat":43.29969,"lon":5.38495,"is_reserved":false,"is_disabled":false,"rental_uris":{"android":"levelo://app?vid=fa2aaa9c-a59a-4bf9-a63d-cebe926583f8","ios":"levelo://app?vid=fa2aaa9c-a59a-4bf9-a63d-cebe926583f8"},"vehicle_type_id":"4","last_reported":1726916805,"current_range_meters":34800,"station_id":"ce4bgj92rcd13ifvqbd0","pricing_plan_id":"cebpf4jnsgd1na2vs0mg"},{"bike_id":"217ef1e6-255c-4998-83d2-821ac1a80098","system_id":"levelo_inurba_marseille","lat":43.27206,"lon":5.39182,"is_reserved":false,"is_disabled":false,"rental_uris":{"android":"levelo://app?vid=217ef1e6-255c-4998-83d2-821ac1a80098","ios":"levelo://app?vid=217ef1e6-255c-4998-83d2-821ac1a80098"},"vehicle_type_id":"4","last_reported":1726916805,"current_range_meters":4800,"station_id":"ce4bhhp2rcd13ifvqfm0","pricing_plan_id":"cebpf4jnsgd1na2vs0mg"},{"bike_id":"360370d9-8715-46bd-b037-b999034a42d5","system_id":"levelo_inurba_marseille","lat":43.294098,"lon":5.386114,"is_reserved":false,"is_disabled":false,"rental_uris":{"android":"levelo://app?vid=360370d9-8715-46bd-b037-b999034a42d5","ios":"levelo://app?vid=360370d9-8715-46bd-b037-b999034a42d5"},"vehicle_type_id":"4","last_reported":1726916805,"current_range_meters":9200,"station_id":"ce4bhbp2rcd13ifvqerg","pricing_plan_id":"cebpf4jnsgd1na2vs0mg"},{"bike_id":"befeed7e-733e-4612-a26d-5f16d4836b99","system_id":"levelo_inurba_marseille","lat":43.23193,"lon":5.35554,"is_reserved":false,"is_disabled":false,"rental_uris":{"android":"levelo://app?vid=befeed7e-733e-4612-a26d-5f16d4836b99","ios":"levelo://app?vid=befeed7e-733e-4612-a26d-5f16d4836b99"},"vehicle_type_id":"4","last_reported":1726916805,"current_range_meters":22000,"station_id":"ce4bhu92rcd13ifvqi70","pricing_plan_id":"cebpf4jnsgd1na2vs0mg"},{"bike_id":"e3c7bd1a-9ccc-4b4e-8e4a-2ca600ee7f59","system_id":"levelo_inurba_marseille","lat":43.25486,"lon":5.37657,"is_reserved":false,"is_disabled":false,"rental_uris":{"android":"levelo://app?vid=e3c7bd1a-9ccc-4b4e-8e4a-2ca600ee7f59","ios":"levelo://app?vid=e3c7bd1a-9ccc-4b4e-8e4a-2ca600ee7f59"},"vehicle_type_id":"4","last_reported":1726916805,"current_range_meters":8000,"station_id":"ce4bhh12rcd13ifvqff0","pricing_plan_id":"cebpf4jnsgd1na2vs0mg"},{"bike_id":"e3b7a308-b12e-420b-bb78-686999c4f043","system_id":"levelo_inurba_marseille","lat":43.29063,"lon":5.37146,"is_reserved":false,"is_disabled":false,"rental_uris":{"android":"levelo://app?vid=e3b7a308-b12e-420b-bb78-686999c4f043","ios":"levelo://app?vid=e3b7a308-b12e-420b-bb78-686999c4f043"},"vehicle_type_id":"4","last_reported":1726916805,"current_range_meters":24000,"station_id":"ce4bh5p2rcd13ifvqe4g","pricing_plan_id":"cebpf4jnsgd1na2vs0mg"},{"bike_id":"377e8f4c-a0e4-4356-a6ce-59a73dc325c3","system_id":"levelo_inurba_marseille","lat":43.2997,"lon":5.36947,"is_reserved":false,"is_disabled":false,"rental_uris":{"android":"levelo://app?vid=377e8f4c-a0e4-4356-a6ce-59a73dc325c3","ios":"levelo://app?vid=377e8f4c-a0e4-4356-a6ce-59a73dc325c3"},"vehicle_type_id":"4","last_reported":1726916805,"current_range_meters":2000,"station_id":"","pricing_plan_id":"cebpf4jnsgd1na2vs0mg"},{"bike_id":"e9f714fa-1d05-42df-9ecd-4171744ee136","system_id":"levelo_inurba_marseille","lat":43.28416,"lon":5.3499,"is_reserved":false,"is_disabled":false,"rental_uris":{"android":"levelo://app?vid=e9f714fa-1d05-42df-9ecd-4171744ee136","ios":"levelo://app?vid=e9f714fa-1d05-42df-9ecd-4171744ee136"},"vehicle_type_id":"4","last_reported":1726916805,"current_range_meters":30000,"station_id":"ce4bhbh2rcd13ifvqepg","pricing_plan_id":"cebpf4jnsgd1na2vs0mg"},{"bike_id":"c33b7e74-13a0-489e-9c6d-c8a07a9877c4","system_id":"levelo_inurba_marseille","lat":43.30467,"lon":5.37912,"is_reserved":false,"is_disabled":false,"rental_uris":{"android":"levelo://app?vid=c33b7e74-13a0-489e-9c6d-c8a07a9877c4","ios":"levelo://app?vid=c33b7e74-13a0-489e-9c6d-c8a07a9877c4"},"vehicle_type_id":"4","last_reported":1726916805,"current_range_meters":22800,"station_id":"ce4bgup2rcd13ifvqcn0","pricing_plan_id":"cebpf4jnsgd1na2vs0mg"},{"bike_id":"d3be6522-a28a-4622-b9ac-5d07c4436f03","system_id":"levelo_inurba_marseille","lat":43.26816,"lon":5.3942,"is_reserved":false,"is_disabled":false,"rental_uris":{"android":"levelo://app?vid=d3be6522-a28a-4622-b9ac-5d07c4436f03","ios":"levelo://app?vid=d3be6522-a28a-4622-b9ac-5d07c4436f03"},"vehicle_type_id":"4","last_reported":1726916805,"current_range_meters":38000,"station_id":"ce4bhh12rcd13ifvqfg0","pricing_plan_id":"cebpf4jnsgd1na2vs0mg"},{"bike_id":"542e2c69-6cd2-413d-9cfd-2c5f9a60a140","system_id":"levelo_inurba_marseille","lat":43.24076,"lon":5.37756,"is_reserved":false,"is_disabled":false,"rental_uris":{"android":"levelo://app?vid=542e2c69-6cd2-413d-9cfd-2c5f9a60a140","ios":"levelo://app?vid=542e2c69-6cd2-413d-9cfd-2c5f9a60a140"},"vehicle_type_id":"4","last_reported":1726916805,"current_range_meters":9600,"station_id":"ce4bhnp2rcd13ifvqgvg","pricing_plan_id":"cebpf4jnsgd1na2vs0mg"},{"bike_id":"b7ff0e8b-4fe5-463a-936d-31cfb5c62a13","system_id":"levelo_inurba_marseille","lat":43.29972,"lon":5.41293,"is_reserved":false,"is_disabled":false,"rental_uris":{"android":"levelo://app?vid=b7ff0e8b-4fe5-463a-936d-31cfb5c62a13","ios":"levelo://app?vid=b7ff0e8b-4fe5-463a-936d-31cfb5c62a13"},"vehicle_type_id":"4","last_reported":1726916805,"current_range_meters":39200,"station_id":"ce4bhp12rcd13ifvqh9g","pricing_plan_id":"cebpf4jnsgd1na2vs0mg"},{"bike_id":"ed6a2d27-decb-4217-98ed-2534b8c0e601","system_id":"levelo_inurba_marseille","lat":43.23177,"lon":5.39991,"is_reserved":false,"is_disabled":false,"rental_uris":{"android":"levelo://app?vid=ed6a2d27-decb-4217-98ed-2534b8c0e601","ios":"levelo://app?vid=ed6a2d27-decb-4217-98ed-2534b8c0e601"},"vehicle_type_id":"4","last_reported":1726916805,"current_range_meters":39200,"station_id":"ce4bhn12rcd13ifvqgqg","pricing_plan_id":"cebpf4jnsgd1na2vs0mg"},{"bike_id":"9c92648a-f006-4167-bb4c-b3ce8835b4ad","system_id":"levelo_inurba_marseille","lat":43.31713,"lon":5.43706,"is_reserved":false,"is_disabled":false,"rental_uris":{"android":"levelo://app?vid=9c92648a-f006-4167-bb4c-b3ce8835b4ad","ios":"levelo://app?vid=9c92648a-f006-4167-bb4c-b3ce8835b4ad"},"vehicle_type_id":"4","last_reported":1726916805,"current_range_meters":38000,"station_id":"ce4bhp92rcd13ifvqhcg","pricing_plan_id":"cebpf4jnsgd1na2vs0mg"},{"bike_id":"b3c5e918-b4fe-4ed1-9a63-5db419d9dd2b","system_id":"levelo_inurba_marseille","lat":43.30462,"lon":5.37906,"is_reserved":false,"is_disabled":false,"rental_uris":{"android":"levelo://app?vid=b3c5e918-b4fe-4ed1-9a63-5db419d9dd2b","ios":"levelo://app?vid=b3c5e918-b4fe-4ed1-9a63-5db419d9dd2b"},"vehicle_type_id":"4","last_reported":1726916805,"current_range_meters":33600,"station_id":"ce4bgup2rcd13ifvqcn0","pricing_plan_id":"cebpf4jnsgd1na2vs0mg"},{"bike_id":"fe61791c-21d9-4b25-a0b8-c74c8e3b9350","system_id":"levelo_inurba_marseille","lat":43.22933,"lon":5.35377,"is_reserved":false,"is_disabled":false,"rental_uris":{"android":"levelo://app?vid=fe61791c-21d9-4b25-a0b8-c74c8e3b9350","ios":"levelo://app?vid=fe61791c-21d9-4b25-a0b8-c74c8e3b9350"},"vehicle_type_id":"4","last_reported":1726916805,"current_range_meters":30000,"station_id":"cpo3532slgdg3j2ikp40","pricing_plan_id":"cebpf4jnsgd1na2vs0mg"},{"bike_id":"e08dc13c-27f2-432d-a24e-1ed1b7808b88","system_id":"levelo_inurba_marseille","lat":43.293632,"lon":5.378453,"is_reserved":false,"is_disabled":false,"rental_uris":{"android":"levelo://app?vid=e08dc13c-27f2-432d-a24e-1ed1b7808b88","ios":"levelo://app?vid=e08dc13c-27f2-432d-a24e-1ed1b7808b88"},"vehicle_type_id":"4","last_reported":1726916805,"current_range_meters":33600,"station_id":"ce4bgjh2rcd13ifvqbf0","pricing_plan_id":"cebpf4jnsgd1na2vs0mg"},{"bike_id":"42fac7e5-89b5-43a0-86e0-6d691ed14493","system_id":"levelo_inurba_marseille","lat":43.31275,"lon":5.40172,"is_reserved":false,"is_disabled":false,"rental_uris":{"android":"levelo://app?vid=42fac7e5-89b5-43a0-86e0-6d691ed14493","ios":"levelo://app?vid=42fac7e5-89b5-43a0-86e0-6d691ed14493"},"vehicle_type_id":"4","last_reported":1726916805,"current_range_meters":26800,"station_id":"ce4bh092rcd13ifvqd30","pricing_plan_id":"cebpf4jnsgd1na2vs0mg"},{"bike_id":"0f095951-83e2-4482-bea5-76ef753c85e4","system_id":"levelo_inurba_marseille","lat":43.29856,"lon":5.36284,"is_reserved":false,"is_disabled":false,"rental_uris":{"android":"levelo://app?vid=0f095951-83e2-4482-bea5-76ef753c85e4","ios":"levelo://app?vid=0f095951-83e2-4482-bea5-76ef753c85e4"},"vehicle_type_id":"4","last_reported":1726916805,"current_range_meters":24400,"station_id":"ce4bgpp2rcd13ifvqc3g","pricing_plan_id":"cebpf4jnsgd1na2vs0mg"},{"bike_id":"d8735d04-1346-47fe-93ce-b68bb58f093a","system_id":"levelo_inurba_marseille","lat":43.2861,"lon":5.35103,"is_reserved":false,"is_disabled":false,"rental_uris":{"android":"levelo://app?vid=d8735d04-1346-47fe-93ce-b68bb58f093a","ios":"levelo://app?vid=d8735d04-1346-47fe-93ce-b68bb58f093a"},"vehicle_type_id":"4","last_reported":1726916805,"current_range_meters":33600,"station_id":"ce4bhch2rcd13ifvqeug","pricing_plan_id":"cebpf4jnsgd1na2vs0mg"},{"bike_id":"7db34aab-bb83-4943-a5a0-93955f52a4ec","system_id":"levelo_inurba_marseille","lat":43.33724,"lon":5.39177,"is_reserved":false,"is_disabled":false,"rental_uris":{"android":"levelo://app?vid=7db34aab-bb83-4943-a5a0-93955f52a4ec","ios":"levelo://app?vid=7db34aab-bb83-4943-a5a0-93955f52a4ec"},"vehicle_type_id":"4","last_reported":1726916805,"current_range_meters":38000,"station_id":"ce4bhr92rcd13ifvqhsg","pricing_plan_id":"cebpf4jnsgd1na2vs0mg"},{"bike_id":"eaa25d6c-98c8-4c06-b92a-0aeec82da413","system_id":"levelo_inurba_marseille","lat":43.29173,"lon":5.3716,"is_reserved":false,"is_disabled":false,"rental_uris":{"android":"levelo://app?vid=eaa25d6c-98c8-4c06-b92a-0aeec82da413","ios":"levelo://app?vid=eaa25d6c-98c8-4c06-b92a-0aeec82da413"},"vehicle_type_id":"4","last_reported":1726916805,"current_range_meters":13600,"station_id":"ce4bha92rcd13ifvqeh0","pricing_plan_id":"cebpf4jnsgd1na2vs0mg"},{"bike_id":"6e59b167-0133-4081-8949-f3db86a60998","system_id":"levelo_inurba_marseille","lat":43.33749,"lon":5.37471,"is_reserved":false,"is_disabled":false,"rental_uris":{"android":"levelo://app?vid=6e59b167-0133-4081-8949-f3db86a60998","ios":"levelo://app?vid=6e59b167-0133-4081-8949-f3db86a60998"},"vehicle_type_id":"4","last_reported":1726916805,"current_range_meters":0,"station_id":"","pricing_plan_id":"cebpf4jnsgd1na2vs0mg"},{"bike_id":"fb241eac-00a8-4de4-9ac2-8a5d33a630b6","system_id":"levelo_inurba_marseille","lat":43.23961,"lon":5.36628,"is_reserved":false,"is_disabled":false,"rental_uris":{"android":"levelo://app?vid=fb241eac-00a8-4de4-9ac2-8a5d33a630b6","ios":"levelo://app?vid=fb241eac-00a8-4de4-9ac2-8a5d33a630b6"},"vehicle_type_id":"4","last_reported":1726916805,"current_range_meters":27600,"station_id":"ce4bhi12rcd13ifvqfp0","pricing_plan_id":"cebpf4jnsgd1na2vs0mg"},{"bike_id":"7b7cf89d-5325-4d4a-8061-5cf0c5bab16f","system_id":"levelo_inurba_marseille","lat":43.26189,"lon":5.37447,"is_reserved":false,"is_disabled":false,"rental_uris":{"android":"levelo://app?vid=7b7cf89d-5325-4d4a-8061-5cf0c5bab16f","ios":"levelo://app?vid=7b7cf89d-5325-4d4a-8061-5cf0c5bab16f"},"vehicle_type_id":"4","last_reported":1726916805,"current_range_meters":30800,"station_id":"","pricing_plan_id":"cebpf4jnsgd1na2vs0mg"},{"bike_id":"7cb7503c-1122-4759-b6e8-c5f643748990","system_id":"levelo_inurba_marseille","lat":43.261814,"lon":5.393428,"is_reserved":false,"is_disabled":false,"rental_uris":{"android":"levelo://app?vid=7cb7503c-1122-4759-b6e8-c5f643748990","ios":"levelo://app?vid=7cb7503c-1122-4759-b6e8-c5f643748990"},"vehicle_type_id":"4","last_reported":1726916805,"current_range_meters":28800,"station_id":"ce4bhh92rcd13ifvqfj0","pricing_plan_id":"cebpf4jnsgd1na2vs0mg"},{"bike_id":"fe02eabb-a2b4-4ea9-918d-8498504a82a3","system_id":"levelo_inurba_marseille","lat":43.26193,"lon":5.37445,"is_reserved":false,"is_disabled":false,"rental_uris":{"android":"levelo://app?vid=fe02eabb-a2b4-4ea9-918d-8498504a82a3","ios":"levelo://app?vid=fe02eabb-a2b4-4ea9-918d-8498504a82a3"},"vehicle_type_id":"4","last_reported":1726916805,"current_range_meters":14000,"station_id":"ce4bhgp2rcd13ifvqfc0","pricing_plan_id":"cebpf4jnsgd1na2vs0mg"},{"bike_id":"23e5fcf4-4fac-4b05-9a6c-be73f5a6d743","system_id":"levelo_inurba_marseille","lat":43.28151,"lon":5.42671,"is_reserved":false,"is_disabled":false,"rental_uris":{"android":"levelo://app?vid=23e5fcf4-4fac-4b05-9a6c-be73f5a6d743","ios":"levelo://app?vid=23e5fcf4-4fac-4b05-9a6c-be73f5a6d743"},"vehicle_type_id":"4","last_reported":1726916805,"current_range_meters":18800,"station_id":"ce4bhnh2rcd13ifvqgug","pricing_plan_id":"cebpf4jnsgd1na2vs0mg"},{"bike_id":"afaab830-46a4-4c2c-9890-6708827d00b5","system_id":"levelo_inurba_marseille","lat":43.28425,"lon":5.3499,"is_reserved":false,"is_disabled":false,"rental_uris":{"android":"levelo://app?vid=afaab830-46a4-4c2c-9890-6708827d00b5","ios":"levelo://app?vid=afaab830-46a4-4c2c-9890-6708827d00b5"},"vehicle_type_id":"4","last_reported":1726916805,"current_range_meters":25200,"station_id":"ce4bhbh2rcd13ifvqepg","pricing_plan_id":"cebpf4jnsgd1na2vs0mg"},{"bike_id":"9455a10c-c08f-4c95-bb85-e08f847ecbc5","system_id":"levelo_inurba_marseille","lat":43.24079,"lon":5.3775,"is_reserved":false,"is_disabled":false,"rental_uris":{"android":"levelo://app?vid=9455a10c-c08f-4c95-bb85-e08f847ecbc5","ios":"levelo://app?vid=9455a10c-c08f-4c95-bb85-e08f847ecbc5"},"vehicle_type_id":"4","last_reported":1726916805,"current_range_meters":8400,"station_id":"ce4bhnp2rcd13ifvqgvg","pricing_plan_id":"cebpf4jnsgd1na2vs0mg"},{"bike_id":"bddff95a-19c2-4fd3-bdbe-da5d658cfae4","system_id":"levelo_inurba_marseille","lat":43.2499,"lon":5.38935,"is_reserved":false,"is_disabled":false,"rental_uris":{"android":"levelo://app?vid=bddff95a-19c2-4fd3-bdbe-da5d658cfae4","ios":"levelo://app?vid=bddff95a-19c2-4fd3-bdbe-da5d658cfae4"},"vehicle_type_id":"4","last_reported":1726916805,"current_range_meters":24800,"station_id":"ce4bhgp2rcd13ifvqfd0","pricing_plan_id":"cebpf4jnsgd1na2vs0mg"},{"bike_id":"146ac5f2-7c1e-46d5-9347-54e9005d3585","system_id":"levelo_inurba_marseille","lat":43.26938,"lon":5.40249,"is_reserved":false,"is_disabled":false,"rental_uris":{"android":"levelo://app?vid=146ac5f2-7c1e-46d5-9347-54e9005d3585","ios":"levelo://app?vid=146ac5f2-7c1e-46d5-9347-54e9005d3585"},"vehicle_type_id":"4","last_reported":1726916805,"current_range_meters":38800,"station_id":"cjm6bp8fraef2m0cb0m0","pricing_plan_id":"cebpf4jnsgd1na2vs0mg"},{"bike_id":"7b9dd459-340b-4978-bfb0-6c163a5263e8","system_id":"levelo_inurba_marseille","lat":43.23192,"lon":5.35549,"is_reserved":false,"is_disabled":false,"rental_uris":{"android":"levelo://app?vid=7b9dd459-340b-4978-bfb0-6c163a5263e8","ios":"levelo://app?vid=7b9dd459-340b-4978-bfb0-6c163a5263e8"},"vehicle_type_id":"4","last_reported":1726916805,"current_range_meters":39200,"station_id":"ce4bhu92rcd13ifvqi70","pricing_plan_id":"cebpf4jnsgd1na2vs0mg"},{"bike_id":"e61cc9eb-495c-44ae-9a17-a1c7ac598e87","system_id":"levelo_inurba_marseille","lat":43.285,"lon":5.38561,"is_reserved":false,"is_disabled":false,"rental_uris":{"android":"levelo://app?vid=e61cc9eb-495c-44ae-9a17-a1c7ac598e87","ios":"levelo://app?vid=e61cc9eb-495c-44ae-9a17-a1c7ac598e87"},"vehicle_type_id":"4","last_reported":1726916805,"current_range_meters":38400,"station_id":"ce4bh8p2rcd13ifvqeb0","pricing_plan_id":"cebpf4jnsgd1na2vs0mg"},{"bike_id":"3e1c3abc-bcc0-4829-8ea5-ec588bffc8b1","system_id":"levelo_inurba_marseille","lat":43.25497,"lon":5.37648,"is_reserved":false,"is_disabled":false,"rental_uris":{"android":"levelo://app?vid=3e1c3abc-bcc0-4829-8ea5-ec588bffc8b1","ios":"levelo://app?vid=3e1c3abc-bcc0-4829-8ea5-ec588bffc8b1"},"vehicle_type_id":"4","last_reported":1726916805,"current_range_meters":33200,"station_id":"ce4bhh12rcd13ifvqff0","pricing_plan_id":"cebpf4jnsgd1na2vs0mg"},{"bike_id":"1409bd11-b908-4cb6-af30-4e2a4dd422cd","system_id":"levelo_inurba_marseille","lat":43.30474,"lon":5.37903,"is_reserved":false,"is_disabled":false,"rental_uris":{"android":"levelo://app?vid=1409bd11-b908-4cb6-af30-4e2a4dd422cd","ios":"levelo://app?vid=1409bd11-b908-4cb6-af30-4e2a4dd422cd"},"vehicle_type_id":"4","last_reported":1726916805,"current_range_meters":39200,"station_id":"ce4bgup2rcd13ifvqcn0","pricing_plan_id":"cebpf4jnsgd1na2vs0mg"},{"bike_id":"71aa8592-ddf7-4343-aed4-c00d3433340f","system_id":"levelo_inurba_marseille","lat":43.337444,"lon":5.374475,"is_reserved":false,"is_disabled":false,"rental_uris":{"android":"levelo://app?vid=71aa8592-ddf7-4343-aed4-c00d3433340f","ios":"levelo://app?vid=71aa8592-ddf7-4343-aed4-c00d3433340f"},"vehicle_type_id":"4","last_reported":1726916805,"current_range_meters":36400,"station_id":"","pricing_plan_id":"cebpf4jnsgd1na2vs0mg"},{"bike_id":"3740c6df-06cd-419b-9ae6-b8d9e5eff548","system_id":"levelo_inurba_marseille","lat":43.2753,"lon":5.40935,"is_reserved":false,"is_disabled":false,"rental_uris":{"android":"levelo://app?vid=3740c6df-06cd-419b-9ae6-b8d9e5eff548","ios":"levelo://app?vid=3740c6df-06cd-419b-9ae6-b8d9e5eff548"},"vehicle_type_id":"4","last_reported":1726916805,"current_range_meters":18000,"station_id":"","pricing_plan_id":"cebpf4jnsgd1na2vs0mg"},{"bike_id":"c7b1cc96-5607-4787-8979-0d523415b8d3","system_id":"levelo_inurba_marseille","lat":43.25502,"lon":5.37648,"is_reserved":false,"is_disabled":false,"rental_uris":{"android":"levelo://app?vid=c7b1cc96-5607-4787-8979-0d523415b8d3","ios":"levelo://app?vid=c7b1cc96-5607-4787-8979-0d523415b8d3"},"vehicle_type_id":"4","last_reported":1726916805,"current_range_meters":8400,"station_id":"ce4bhh12rcd13ifvqff0","pricing_plan_id":"cebpf4jnsgd1na2vs0mg"},{"bike_id":"fb8d5711-d1cf-489c-836c-1bc6f5c3b747","system_id":"levelo_inurba_marseille","lat":43.2315,"lon":5.43705,"is_reserved":false,"is_disabled":false,"rental_uris":{"android":"levelo://app?vid=fb8d5711-d1cf-489c-836c-1bc6f5c3b747","ios":"levelo://app?vid=fb8d5711-d1cf-489c-836c-1bc6f5c3b747"},"vehicle_type_id":"4","last_reported":1726916805,"current_range_meters":38800,"station_id":"ce4bhmp2rcd13ifvqgog","pricing_plan_id":"cebpf4jnsgd1na2vs0mg"},{"bike_id":"c6a5b1c0-1ce2-46f3-8262-a62ae2cf80bf","system_id":"levelo_inurba_marseille","lat":43.32661,"lon":5.40987,"is_reserved":false,"is_disabled":false,"rental_uris":{"android":"levelo://app?vid=c6a5b1c0-1ce2-46f3-8262-a62ae2cf80bf","ios":"levelo://app?vid=c6a5b1c0-1ce2-46f3-8262-a62ae2cf80bf"},"vehicle_type_id":"4","last_reported":1726916805,"current_range_meters":36800,"station_id":"ce4bhpp2rcd13ifvqhgg","pricing_plan_id":"cebpf4jnsgd1na2vs0mg"},{"bike_id":"cbd6d8ad-05dd-4ae8-8e79-5d5bd81cde11","system_id":"levelo_inurba_marseille","lat":43.26951,"lon":5.38626,"is_reserved":false,"is_disabled":false,"rental_uris":{"android":"levelo://app?vid=cbd6d8ad-05dd-4ae8-8e79-5d5bd81cde11","ios":"levelo://app?vid=cbd6d8ad-05dd-4ae8-8e79-5d5bd81cde11"},"vehicle_type_id":"4","last_reported":1726916805,"current_range_meters":30000,"station_id":"ce4bhh92rcd13ifvqfh0","pricing_plan_id":"cebpf4jnsgd1na2vs0mg"},{"bike_id":"bf521f59-8cc4-4f57-bed0-be21bfbeeb05","system_id":"levelo_inurba_marseille","lat":43.31687,"lon":5.40475,"is_reserved":false,"is_disabled":false,"rental_uris":{"android":"levelo://app?vid=bf521f59-8cc4-4f57-bed0-be21bfbeeb05","ios":"levelo://app?vid=bf521f59-8cc4-4f57-bed0-be21bfbeeb05"},"vehicle_type_id":"4","last_reported":1726916805,"current_range_meters":20400,"station_id":"ce4bh012rcd13ifvqd00","pricing_plan_id":"cebpf4jnsgd1na2vs0mg"},{"bike_id":"95e12bae-b40f-47ae-b502-50ef40e67a86","system_id":"levelo_inurba_marseille","lat":43.28707,"lon":5.37383,"is_reserved":false,"is_disabled":false,"rental_uris":{"android":"levelo://app?vid=95e12bae-b40f-47ae-b502-50ef40e67a86","ios":"levelo://app?vid=95e12bae-b40f-47ae-b502-50ef40e67a86"},"vehicle_type_id":"4","last_reported":1726916805,"current_range_meters":35200,"station_id":"ce4bh3p2rcd13ifvqdq0","pricing_plan_id":"cebpf4jnsgd1na2vs0mg"},{"bike_id":"566004ed-fd59-430f-89f2-1aa59950dc17","system_id":"levelo_inurba_marseille","lat":43.24387,"lon":5.37058,"is_reserved":false,"is_disabled":false,"rental_uris":{"android":"levelo://app?vid=566004ed-fd59-430f-89f2-1aa59950dc17","ios":"levelo://app?vid=566004ed-fd59-430f-89f2-1aa59950dc17"},"vehicle_type_id":"4","last_reported":1726916805,"current_range_meters":28800,"station_id":"ce4bhhh2rcd13ifvqfk0","pricing_plan_id":"cebpf4jnsgd1na2vs0mg"},{"bike_id":"183eb22f-76d4-4d15-9b3f-4751c806e2b1","system_id":"levelo_inurba_marseille","lat":43.30155,"lon":5.38075,"is_reserved":false,"is_disabled":false,"rental_uris":{"android":"levelo://app?vid=183eb22f-76d4-4d15-9b3f-4751c806e2b1","ios":"levelo://app?vid=183eb22f-76d4-4d15-9b3f-4751c806e2b1"},"vehicle_type_id":"4","last_reported":1726916805,"current_range_meters":34800,"station_id":"ce4bgjp2rcd13ifvqbh0","pricing_plan_id":"cebpf4jnsgd1na2vs0mg"},{"bike_id":"36bc6669-316a-4bf1-816a-6b742d8f09ab","system_id":"levelo_inurba_marseille","lat":43.260685,"lon":5.394003,"is_reserved":false,"is_disabled":false,"rental_uris":{"android":"levelo://app?vid=36bc6669-316a-4bf1-816a-6b742d8f09ab","ios":"levelo://app?vid=36bc6669-316a-4bf1-816a-6b742d8f09ab"},"vehicle_type_id":"4","last_reported":1726916805,"current_range_meters":21600,"station_id":"ce4bhh92rcd13ifvqfj0","pricing_plan_id":"cebpf4jnsgd1na2vs0mg"},{"bike_id":"bb77777d-90bb-42a8-bb53-86e3a00001ad","system_id":"levelo_inurba_marseille","lat":43.337444,"lon":5.374475,"is_reserved":false,"is_disabled":false,"rental_uris":{"android":"levelo://app?vid=bb77777d-90bb-42a8-bb53-86e3a00001ad","ios":"levelo://app?vid=bb77777d-90bb-42a8-bb53-86e3a00001ad"},"vehicle_type_id":"4","last_reported":1726916805,"current_range_meters":38400,"station_id":"ce4bhmp2rcd13ifvqgog","pricing_plan_id":"cebpf4jnsgd1na2vs0mg"},{"bike_id":"681b23de-ffdd-45aa-9a3a-af77373afa48","system_id":"levelo_inurba_marseille","lat":43.28424,"lon":5.34998,"is_reserved":false,"is_disabled":false,"rental_uris":{"android":"levelo://app?vid=681b23de-ffdd-45aa-9a3a-af77373afa48","ios":"levelo://app?vid=681b23de-ffdd-45aa-9a3a-af77373afa48"},"vehicle_type_id":"4","last_reported":1726916805,"current_range_meters":10800,"station_id":"ce4bhbh2rcd13ifvqepg","pricing_plan_id":"cebpf4jnsgd1na2vs0mg"},{"bike_id":"68186b5c-3c70-4b57-b5e6-e2b23d0c8727","system_id":"levelo_inurba_marseille","lat":43.30465,"lon":5.37909,"is_reserved":false,"is_disabled":false,"rental_uris":{"android":"levelo://app?vid=68186b5c-3c70-4b57-b5e6-e2b23d0c8727","ios":"levelo://app?vid=68186b5c-3c70-4b57-b5e6-e2b23d0c8727"},"vehicle_type_id":"4","last_reported":1726916805,"current_range_meters":27600,"station_id":"ce4bgup2rcd13ifvqcn0","pricing_plan_id":"cebpf4jnsgd1na2vs0mg"},{"bike_id":"d65cbc32-3a83-4b2e-90d3-f60b7e66b84a","system_id":"levelo_inurba_marseille","lat":43.29552,"lon":5.42281,"is_reserved":false,"is_disabled":false,"rental_uris":{"android":"levelo://app?vid=d65cbc32-3a83-4b2e-90d3-f60b7e66b84a","ios":"levelo://app?vid=d65cbc32-3a83-4b2e-90d3-f60b7e66b84a"},"vehicle_type_id":"4","last_reported":1726916805,"current_range_meters":38400,"station_id":"ce4bhph2rcd13ifvqhdg","pricing_plan_id":"cebpf4jnsgd1na2vs0mg"},{"bike_id":"e0be1d6f-1e5f-4327-a034-2bedc46415cd","system_id":"levelo_inurba_marseille","lat":43.304352,"lon":5.38894,"is_reserved":false,"is_disabled":false,"rental_uris":{"android":"levelo://app?vid=e0be1d6f-1e5f-4327-a034-2bedc46415cd","ios":"levelo://app?vid=e0be1d6f-1e5f-4327-a034-2bedc46415cd"},"vehicle_type_id":"4","last_reported":1726916805,"current_range_meters":12400,"station_id":"ce4bgk12rcd13ifvqbi0","pricing_plan_id":"cebpf4jnsgd1na2vs0mg"},{"bike_id":"ad623618-5771-4254-816f-843856aafd1b","system_id":"levelo_inurba_marseille","lat":43.28278,"lon":5.35077,"is_reserved":false,"is_disabled":false,"rental_uris":{"android":"levelo://app?vid=ad623618-5771-4254-816f-843856aafd1b","ios":"levelo://app?vid=ad623618-5771-4254-816f-843856aafd1b"},"vehicle_type_id":"4","last_reported":1726916805,"current_range_meters":22000,"station_id":"ce4bhbp2rcd13ifvqerg","pricing_plan_id":"cebpf4jnsgd1na2vs0mg"},{"bike_id":"f11769c5-1088-4967-acdc-479056c6c58f","system_id":"levelo_inurba_marseille","lat":43.25495,"lon":5.37648,"is_reserved":false,"is_disabled":false,"rental_uris":{"android":"levelo://app?vid=f11769c5-1088-4967-acdc-479056c6c58f","ios":"levelo://app?vid=f11769c5-1088-4967-acdc-479056c6c58f"},"vehicle_type_id":"4","last_reported":1726916805,"current_range_meters":33200,"station_id":"ce4bhh12rcd13ifvqff0","pricing_plan_id":"cebpf4jnsgd1na2vs0mg"},{"bike_id":"424dadb1-a2a2-4955-be28-fe93dcf5b99c","system_id":"levelo_inurba_marseille","lat":43.26212,"lon":5.37441,"is_reserved":false,"is_disabled":false,"rental_uris":{"android":"levelo://app?vid=424dadb1-a2a2-4955-be28-fe93dcf5b99c","ios":"levelo://app?vid=424dadb1-a2a2-4955-be28-fe93dcf5b99c"},"vehicle_type_id":"4","last_reported":1726916805,"current_range_meters":22400,"station_id":"ce4bhgp2rcd13ifvqfc0","pricing_plan_id":"cebpf4jnsgd1na2vs0mg"},{"bike_id":"1e1c92ea-4100-48a4-80e0-a529141b8530","system_id":"levelo_inurba_marseille","lat":43.30663,"lon":5.40089,"is_reserved":false,"is_disabled":false,"rental_uris":{"android":"levelo://app?vid=1e1c92ea-4100-48a4-80e0-a529141b8530","ios":"levelo://app?vid=1e1c92ea-4100-48a4-80e0-a529141b8530"},"vehicle_type_id":"4","last_reported":1726916805,"current_range_meters":23200,"station_id":"ce4bh112rcd13ifvqda0","pricing_plan_id":"cebpf4jnsgd1na2vs0mg"},{"bike_id":"8af8c321-de1a-48b7-85ee-6b8f84590c25","system_id":"levelo_inurba_marseille","lat":43.27192,"lon":5.40987,"is_reserved":false,"is_disabled":false,"rental_uris":{"android":"levelo://app?vid=8af8c321-de1a-48b7-85ee-6b8f84590c25","ios":"levelo://app?vid=8af8c321-de1a-48b7-85ee-6b8f84590c25"},"vehicle_type_id":"4","last_reported":1726916805,"current_range_meters":36400,"station_id":"ce4bhl12rcd13ifvqgf0","pricing_plan_id":"cebpf4jnsgd1na2vs0mg"},{"bike_id":"e72af419-bddf-4dd2-b0e5-7b8bbef99bae","system_id":"levelo_inurba_marseille","lat":43.33024,"lon":5.39038,"is_reserved":false,"is_disabled":false,"rental_uris":{"android":"levelo://app?vid=e72af419-bddf-4dd2-b0e5-7b8bbef99bae","ios":"levelo://app?vid=e72af419-bddf-4dd2-b0e5-7b8bbef99bae"},"vehicle_type_id":"4","last_reported":1726916805,"current_range_meters":12400,"station_id":"ce4bhr92rcd13ifvqhrg","pricing_plan_id":"cebpf4jnsgd1na2vs0mg"},{"bike_id":"2068f5f2-9a22-4f54-80d7-abd4ae935b11","system_id":"levelo_inurba_marseille","lat":43.28967,"lon":5.37841,"is_reserved":false,"is_disabled":false,"rental_uris":{"android":"levelo://app?vid=2068f5f2-9a22-4f54-80d7-abd4ae935b11","ios":"levelo://app?vid=2068f5f2-9a22-4f54-80d7-abd4ae935b11"},"vehicle_type_id":"4","last_reported":1726916805,"current_range_meters":38800,"station_id":"ce4bh9p2rcd13ifvqed0","pricing_plan_id":"cebpf4jnsgd1na2vs0mg"},{"bike_id":"e2b2a1d4-21d5-48d2-aac5-477f3e281f51","system_id":"levelo_inurba_marseille","lat":43.29615,"lon":5.37728,"is_reserved":false,"is_disabled":false,"rental_uris":{"android":"levelo://app?vid=e2b2a1d4-21d5-48d2-aac5-477f3e281f51","ios":"levelo://app?vid=e2b2a1d4-21d5-48d2-aac5-477f3e281f51"},"vehicle_type_id":"4","last_reported":1726916805,"current_range_meters":27600,"station_id":"ce4bgi92rcd13ifvqb90","pricing_plan_id":"cebpf4jnsgd1na2vs0mg"},{"bike_id":"4f6cd953-65f5-4d4f-a052-70118d864e1d","system_id":"levelo_inurba_marseille","lat":43.29897,"lon":5.43671,"is_reserved":false,"is_disabled":false,"rental_uris":{"android":"levelo://app?vid=4f6cd953-65f5-4d4f-a052-70118d864e1d","ios":"levelo://app?vid=4f6cd953-65f5-4d4f-a052-70118d864e1d"},"vehicle_type_id":"4","last_reported":1726916805,"current_range_meters":8800,"station_id":"ce4bhpp2rcd13ifvqhfg","pricing_plan_id":"cebpf4jnsgd1na2vs0mg"},{"bike_id":"559fbaf9-3144-4b9a-af53-ba8c83483c4e","system_id":"levelo_inurba_marseille","lat":43.29,"lon":5.35613,"is_reserved":false,"is_disabled":false,"rental_uris":{"android":"levelo://app?vid=559fbaf9-3144-4b9a-af53-ba8c83483c4e","ios":"levelo://app?vid=559fbaf9-3144-4b9a-af53-ba8c83483c4e"},"vehicle_type_id":"4","last_reported":1726916805,"current_range_meters":26000,"station_id":"ce4bhb92rcd13ifvqen0","pricing_plan_id":"cebpf4jnsgd1na2vs0mg"},{"bike_id":"83023d83-3cf9-4e85-87d2-c26757c73fa2","system_id":"levelo_inurba_marseille","lat":43.29546,"lon":5.36518,"is_reserved":false,"is_disabled":false,"rental_uris":{"android":"levelo://app?vid=83023d83-3cf9-4e85-87d2-c26757c73fa2","ios":"levelo://app?vid=83023d83-3cf9-4e85-87d2-c26757c73fa2"},"vehicle_type_id":"4","last_reported":1726916805,"current_range_meters":3600,"station_id":"ce4bgvp2rcd13ifvqcu0","pricing_plan_id":"cebpf4jnsgd1na2vs0mg"},{"bike_id":"2c576f56-ceae-4741-9463-480c3736a867","system_id":"levelo_inurba_marseille","lat":43.26926,"lon":5.3892,"is_reserved":false,"is_disabled":false,"rental_uris":{"android":"levelo://app?vid=2c576f56-ceae-4741-9463-480c3736a867","ios":"levelo://app?vid=2c576f56-ceae-4741-9463-480c3736a867"},"vehicle_type_id":"4","last_reported":1726916805,"current_range_meters":27600,"station_id":"ce4bhhh2rcd13ifvqfl0","pricing_plan_id":"cebpf4jnsgd1na2vs0mg"},{"bike_id":"41619586-6583-4429-8b45-cf7ed871f79d","system_id":"levelo_inurba_marseille","lat":43.31279,"lon":5.40173,"is_reserved":false,"is_disabled":false,"rental_uris":{"android":"levelo://app?vid=41619586-6583-4429-8b45-cf7ed871f79d","ios":"levelo://app?vid=41619586-6583-4429-8b45-cf7ed871f79d"},"vehicle_type_id":"4","last_reported":1726916805,"current_range_meters":10800,"station_id":"ce4bh092rcd13ifvqd30","pricing_plan_id":"cebpf4jnsgd1na2vs0mg"},{"bike_id":"b2008bbc-4134-49da-bd82-74421e20b784","system_id":"levelo_inurba_marseille","lat":43.29625,"lon":5.37162,"is_reserved":false,"is_disabled":false,"rental_uris":{"android":"levelo://app?vid=b2008bbc-4134-49da-bd82-74421e20b784","ios":"levelo://app?vid=b2008bbc-4134-49da-bd82-74421e20b784"},"vehicle_type_id":"4","last_reported":1726916805,"current_range_meters":14400,"station_id":"ce4bgnh2rcd13ifvqc0g","pricing_plan_id":"cebpf4jnsgd1na2vs0mg"},{"bike_id":"ad777cb6-e29a-4972-8cea-f83a82fb7f8d","system_id":"levelo_inurba_marseille","lat":43.28978,"lon":5.3783,"is_reserved":false,"is_disabled":false,"rental_uris":{"android":"levelo://app?vid=ad777cb6-e29a-4972-8cea-f83a82fb7f8d","ios":"levelo://app?vid=ad777cb6-e29a-4972-8cea-f83a82fb7f8d"},"vehicle_type_id":"4","last_reported":1726916805,"current_range_meters":6400,"station_id":"ce4bh9p2rcd13ifvqed0","pricing_plan_id":"cebpf4jnsgd1na2vs0mg"},{"bike_id":"54c9d1f1-f9fb-4d4e-8185-6fb646890270","system_id":"levelo_inurba_marseille","lat":43.31277,"lon":5.40171,"is_reserved":false,"is_disabled":false,"rental_uris":{"android":"levelo://app?vid=54c9d1f1-f9fb-4d4e-8185-6fb646890270","ios":"levelo://app?vid=54c9d1f1-f9fb-4d4e-8185-6fb646890270"},"vehicle_type_id":"4","last_reported":1726916805,"current_range_meters":8400,"station_id":"ce4bh092rcd13ifvqd30","pricing_plan_id":"cebpf4jnsgd1na2vs0mg"},{"bike_id":"c919cd9a-c9fb-4572-ac0c-97f80a66c128","system_id":"levelo_inurba_marseille","lat":43.22928,"lon":5.35376,"is_reserved":false,"is_disabled":false,"rental_uris":{"android":"levelo://app?vid=c919cd9a-c9fb-4572-ac0c-97f80a66c128","ios":"levelo://app?vid=c919cd9a-c9fb-4572-ac0c-97f80a66c128"},"vehicle_type_id":"4","last_reported":1726916805,"current_range_meters":6400,"station_id":"cpo3532slgdg3j2ikp40","pricing_plan_id":"cebpf4jnsgd1na2vs0mg"},{"bike_id":"2984139c-ec57-495c-a880-5c3c2cc2e48f","system_id":"levelo_inurba_marseille","lat":43.30781,"lon":5.37646,"is_reserved":false,"is_disabled":false,"rental_uris":{"android":"levelo://app?vid=2984139c-ec57-495c-a880-5c3c2cc2e48f","ios":"levelo://app?vid=2984139c-ec57-495c-a880-5c3c2cc2e48f"},"vehicle_type_id":"4","last_reported":1726916805,"current_range_meters":9600,"station_id":"ce4bgv92rcd13ifvqcq0","pricing_plan_id":"cebpf4jnsgd1na2vs0mg"},{"bike_id":"065de60a-8ac4-491c-9129-a89a002ca73e","system_id":"levelo_inurba_marseille","lat":43.27814,"lon":5.40707,"is_reserved":false,"is_disabled":false,"rental_uris":{"android":"levelo://app?vid=065de60a-8ac4-491c-9129-a89a002ca73e","ios":"levelo://app?vid=065de60a-8ac4-491c-9129-a89a002ca73e"},"vehicle_type_id":"4","last_reported":1726916805,"current_range_meters":32800,"station_id":"ce4bhnh2rcd13ifvqgtg","pricing_plan_id":"cebpf4jnsgd1na2vs0mg"},{"bike_id":"284f3c47-c269-4f04-a9b8-bd27a8c13c07","system_id":"levelo_inurba_marseille","lat":43.26493,"lon":5.39544,"is_reserved":false,"is_disabled":false,"rental_uris":{"android":"levelo://app?vid=284f3c47-c269-4f04-a9b8-bd27a8c13c07","ios":"levelo://app?vid=284f3c47-c269-4f04-a9b8-bd27a8c13c07"},"vehicle_type_id":"4","last_reported":1726916805,"current_range_meters":38800,"station_id":"ce4bhi12rcd13ifvqfq0","pricing_plan_id":"cebpf4jnsgd1na2vs0mg"},{"bike_id":"0ac4be92-d700-4bff-aa7a-8bfcd7e6c34c","system_id":"levelo_inurba_marseille","lat":43.2606,"lon":5.39397,"is_reserved":false,"is_disabled":false,"rental_uris":{"android":"levelo://app?vid=0ac4be92-d700-4bff-aa7a-8bfcd7e6c34c","ios":"levelo://app?vid=0ac4be92-d700-4bff-aa7a-8bfcd7e6c34c"},"vehicle_type_id":"4","last_reported":1726916805,"current_range_meters":12400,"station_id":"ce4bhh92rcd13ifvqfj0","pricing_plan_id":"cebpf4jnsgd1na2vs0mg"},{"bike_id":"48b97daf-31ca-44e0-b736-305888d06fbd","system_id":"levelo_inurba_marseille","lat":43.29609,"lon":5.37068,"is_reserved":false,"is_disabled":false,"rental_uris":{"android":"levelo://app?vid=48b97daf-31ca-44e0-b736-305888d06fbd","ios":"levelo://app?vid=48b97daf-31ca-44e0-b736-305888d06fbd"},"vehicle_type_id":"4","last_reported":1726916805,"current_range_meters":38000,"station_id":"ce4bgnh2rcd13ifvqc0g","pricing_plan_id":"cebpf4jnsgd1na2vs0mg"},{"bike_id":"38aaa993-e8d1-4b04-80cb-bbd288f56ad5","system_id":"levelo_inurba_marseille","lat":43.262,"lon":5.37928,"is_reserved":false,"is_disabled":false,"rental_uris":{"android":"levelo://app?vid=38aaa993-e8d1-4b04-80cb-bbd288f56ad5","ios":"levelo://app?vid=38aaa993-e8d1-4b04-80cb-bbd288f56ad5"},"vehicle_type_id":"4","last_reported":1726916805,"current_range_meters":24000,"station_id":"ce4bhjp2rcd13ifvqg90","pricing_plan_id":"cebpf4jnsgd1na2vs0mg"},{"bike_id":"58014cc6-4f39-4119-a8a0-cdc0e2507820","system_id":"levelo_inurba_marseille","lat":43.32285,"lon":5.38276,"is_reserved":false,"is_disabled":false,"rental_uris":{"android":"levelo://app?vid=58014cc6-4f39-4119-a8a0-cdc0e2507820","ios":"levelo://app?vid=58014cc6-4f39-4119-a8a0-cdc0e2507820"},"vehicle_type_id":"4","last_reported":1726916805,"current_range_meters":39200,"station_id":"ce4bhr12rcd13ifvqhqg","pricing_plan_id":"cebpf4jnsgd1na2vs0mg"},{"bike_id":"99eeafe6-366f-429a-b8f8-8a504a89203b","system_id":"levelo_inurba_marseille","lat":43.28505,"lon":5.356,"is_reserved":false,"is_disabled":false,"rental_uris":{"android":"levelo://app?vid=99eeafe6-366f-429a-b8f8-8a504a89203b","ios":"levelo://app?vid=99eeafe6-366f-429a-b8f8-8a504a89203b"},"vehicle_type_id":"4","last_reported":1726916805,"current_range_meters":32800,"station_id":"","pricing_plan_id":"cebpf4jnsgd1na2vs0mg"},{"bike_id":"d33947f1-f932-44f2-b587-5b9d877a68ad","system_id":"levelo_inurba_marseille","lat":43.28418,"lon":5.3499,"is_reserved":false,"is_disabled":false,"rental_uris":{"android":"levelo://app?vid=d33947f1-f932-44f2-b587-5b9d877a68ad","ios":"levelo://app?vid=d33947f1-f932-44f2-b587-5b9d877a68ad"},"vehicle_type_id":"4","last_reported":1726916805,"current_range_meters":11200,"station_id":"ce4bhbh2rcd13ifvqepg","pricing_plan_id":"cebpf4jnsgd1na2vs0mg"},{"bike_id":"29058ff5-4d24-4c57-9c80-3c616b905bac","system_id":"levelo_inurba_marseille","lat":43.29547,"lon":5.42282,"is_reserved":false,"is_disabled":false,"rental_uris":{"android":"levelo://app?vid=29058ff5-4d24-4c57-9c80-3c616b905bac","ios":"levelo://app?vid=29058ff5-4d24-4c57-9c80-3c616b905bac"},"vehicle_type_id":"4","last_reported":1726916805,"current_range_meters":38000,"station_id":"ce4bhph2rcd13ifvqhdg","pricing_plan_id":"cebpf4jnsgd1na2vs0mg"},{"bike_id":"ebbfb9e4-e3da-4b77-abdf-c23580edaeba","system_id":"levelo_inurba_marseille","lat":43.26194,"lon":5.37448,"is_reserved":false,"is_disabled":false,"rental_uris":{"android":"levelo://app?vid=ebbfb9e4-e3da-4b77-abdf-c23580edaeba","ios":"levelo://app?vid=ebbfb9e4-e3da-4b77-abdf-c23580edaeba"},"vehicle_type_id":"4","last_reported":1726916805,"current_range_meters":26800,"station_id":"ce4bhgp2rcd13ifvqfc0","pricing_plan_id":"cebpf4jnsgd1na2vs0mg"},{"bike_id":"8365cc17-b378-43de-b441-ee86d8c2e0e2","system_id":"levelo_inurba_marseille","lat":43.309479,"lon":5.390309,"is_reserved":false,"is_disabled":false,"rental_uris":{"android":"levelo://app?vid=8365cc17-b378-43de-b441-ee86d8c2e0e2","ios":"levelo://app?vid=8365cc17-b378-43de-b441-ee86d8c2e0e2"},"vehicle_type_id":"4","last_reported":1726916805,"current_range_meters":12000,"station_id":"ce4bgup2rcd13ifvqco0","pricing_plan_id":"cebpf4jnsgd1na2vs0mg"},{"bike_id":"dca816d1-93f0-4e24-b686-c2a330c25bb9","system_id":"levelo_inurba_marseille","lat":43.306172,"lon":5.393339,"is_reserved":false,"is_disabled":false,"rental_uris":{"android":"levelo://app?vid=dca816d1-93f0-4e24-b686-c2a330c25bb9","ios":"levelo://app?vid=dca816d1-93f0-4e24-b686-c2a330c25bb9"},"vehicle_type_id":"4","last_reported":1726916805,"current_range_meters":8400,"station_id":"ce4bgv12rcd13ifvqcp0","pricing_plan_id":"cebpf4jnsgd1na2vs0mg"},{"bike_id":"82a90fec-9a84-44cd-9e7e-488ca9af1085","system_id":"levelo_inurba_marseille","lat":43.30949,"lon":5.39039,"is_reserved":false,"is_disabled":false,"rental_uris":{"android":"levelo://app?vid=82a90fec-9a84-44cd-9e7e-488ca9af1085","ios":"levelo://app?vid=82a90fec-9a84-44cd-9e7e-488ca9af1085"},"vehicle_type_id":"4","last_reported":1726916805,"current_range_meters":38400,"station_id":"ce4bgup2rcd13ifvqco0","pricing_plan_id":"cebpf4jnsgd1na2vs0mg"},{"bike_id":"bce83964-771d-421d-a795-c2b376c5b9dc","system_id":"levelo_inurba_marseille","lat":43.23189,"lon":5.35544,"is_reserved":false,"is_disabled":false,"rental_uris":{"android":"levelo://app?vid=bce83964-771d-421d-a795-c2b376c5b9dc","ios":"levelo://app?vid=bce83964-771d-421d-a795-c2b376c5b9dc"},"vehicle_type_id":"4","last_reported":1726916805,"current_range_meters":18800,"station_id":"ce4bhu92rcd13ifvqi70","pricing_plan_id":"cebpf4jnsgd1na2vs0mg"},{"bike_id":"a959b33f-c829-4241-9caf-4a3f3ccca013","system_id":"levelo_inurba_marseille","lat":43.29595,"lon":5.3809,"is_reserved":false,"is_disabled":false,"rental_uris":{"android":"levelo://app?vid=a959b33f-c829-4241-9caf-4a3f3ccca013","ios":"levelo://app?vid=a959b33f-c829-4241-9caf-4a3f3ccca013"},"vehicle_type_id":"4","last_reported":1726916805,"current_range_meters":38400,"station_id":"ce4bgl12rcd13ifvqbo0","pricing_plan_id":"cebpf4jnsgd1na2vs0mg"},{"bike_id":"f90a267b-7bda-4dfc-a104-d10e13a82276","system_id":"levelo_inurba_marseille","lat":43.240744,"lon":5.377404,"is_reserved":false,"is_disabled":false,"rental_uris":{"android":"levelo://app?vid=f90a267b-7bda-4dfc-a104-d10e13a82276","ios":"levelo://app?vid=f90a267b-7bda-4dfc-a104-d10e13a82276"},"vehicle_type_id":"4","last_reported":1726916805,"current_range_meters":38800,"station_id":"ce4bhnp2rcd13ifvqgvg","pricing_plan_id":"cebpf4jnsgd1na2vs0mg"},{"bike_id":"9ad1871c-6ed3-4243-9f14-125727136405","system_id":"levelo_inurba_marseille","lat":43.28278,"lon":5.35073,"is_reserved":false,"is_disabled":false,"rental_uris":{"android":"levelo://app?vid=9ad1871c-6ed3-4243-9f14-125727136405","ios":"levelo://app?vid=9ad1871c-6ed3-4243-9f14-125727136405"},"vehicle_type_id":"4","last_reported":1726916805,"current_range_meters":28800,"station_id":"ce4bhbp2rcd13ifvqerg","pricing_plan_id":"cebpf4jnsgd1na2vs0mg"},{"bike_id":"5c3b4169-5f09-44bc-96fe-7febab535173","system_id":"levelo_inurba_marseille","lat":43.30326,"lon":5.40441,"is_reserved":false,"is_disabled":false,"rental_uris":{"android":"levelo://app?vid=5c3b4169-5f09-44bc-96fe-7febab535173","ios":"levelo://app?vid=5c3b4169-5f09-44bc-96fe-7febab535173"},"vehicle_type_id":"4","last_reported":1726916805,"current_range_meters":24000,"station_id":"ce4bh012rcd13ifvqd10","pricing_plan_id":"cebpf4jnsgd1na2vs0mg"},{"bike_id":"c83cc2de-008a-445a-83ed-9aa985193b4f","system_id":"levelo_inurba_marseille","lat":43.2927,"lon":5.36837,"is_reserved":false,"is_disabled":false,"rental_uris":{"android":"levelo://app?vid=c83cc2de-008a-445a-83ed-9aa985193b4f","ios":"levelo://app?vid=c83cc2de-008a-445a-83ed-9aa985193b4f"},"vehicle_type_id":"4","last_reported":1726916805,"current_range_meters":30800,"station_id":"ce4bhbp2rcd13ifvqesg","pricing_plan_id":"cebpf4jnsgd1na2vs0mg"},{"bike_id":"abf4fccb-4a12-45df-9476-0c32343036ad","system_id":"levelo_inurba_marseille","lat":43.26681,"lon":5.38266,"is_reserved":false,"is_disabled":false,"rental_uris":{"android":"levelo://app?vid=abf4fccb-4a12-45df-9476-0c32343036ad","ios":"levelo://app?vid=abf4fccb-4a12-45df-9476-0c32343036ad"},"vehicle_type_id":"4","last_reported":1726916805,"current_range_meters":28400,"station_id":"ce4bhg92rcd13ifvqf90","pricing_plan_id":"cebpf4jnsgd1na2vs0mg"},{"bike_id":"da4508dc-41c0-4202-9324-2a4c11586e5c","system_id":"levelo_inurba_marseille","lat":43.23194,"lon":5.35556,"is_reserved":false,"is_disabled":false,"rental_uris":{"android":"levelo://app?vid=da4508dc-41c0-4202-9324-2a4c11586e5c","ios":"levelo://app?vid=da4508dc-41c0-4202-9324-2a4c11586e5c"},"vehicle_type_id":"4","last_reported":1726916805,"current_range_meters":30800,"station_id":"ce4bhu92rcd13ifvqi70","pricing_plan_id":"cebpf4jnsgd1na2vs0mg"},{"bike_id":"1aa92000-bea7-4138-8cc4-99c224ba4d8e","system_id":"levelo_inurba_marseille","lat":43.27994,"lon":5.40031,"is_reserved":false,"is_disabled":false,"rental_uris":{"android":"levelo://app?vid=1aa92000-bea7-4138-8cc4-99c224ba4d8e","ios":"levelo://app?vid=1aa92000-bea7-4138-8cc4-99c224ba4d8e"},"vehicle_type_id":"4","last_reported":1726916805,"current_range_meters":4400,"station_id":"ce4bho92rcd13ifvqh4g","pricing_plan_id":"cebpf4jnsgd1na2vs0mg"},{"bike_id":"66890cf7-0d79-4112-8dce-5a2aef7e6cf4","system_id":"levelo_inurba_marseille","lat":43.27493,"lon":5.42449,"is_reserved":false,"is_disabled":false,"rental_uris":{"android":"levelo://app?vid=66890cf7-0d79-4112-8dce-5a2aef7e6cf4","ios":"levelo://app?vid=66890cf7-0d79-4112-8dce-5a2aef7e6cf4"},"vehicle_type_id":"4","last_reported":1726916805,"current_range_meters":5600,"station_id":"ce4bhn92rcd13ifvqgrg","pricing_plan_id":"cebpf4jnsgd1na2vs0mg"},{"bike_id":"9d35445f-bf2c-4b6f-a219-706e2001d1cb","system_id":"levelo_inurba_marseille","lat":43.30547,"lon":5.38444,"is_reserved":false,"is_disabled":false,"rental_uris":{"android":"levelo://app?vid=9d35445f-bf2c-4b6f-a219-706e2001d1cb","ios":"levelo://app?vid=9d35445f-bf2c-4b6f-a219-706e2001d1cb"},"vehicle_type_id":"4","last_reported":1726916805,"current_range_meters":4000,"station_id":"ce4bgg92rcd13ifvqb30","pricing_plan_id":"cebpf4jnsgd1na2vs0mg"},{"bike_id":"3a9ba5a4-63a8-4377-b5aa-8ece999ffb3a","system_id":"levelo_inurba_marseille","lat":43.26934,"lon":5.38915,"is_reserved":false,"is_disabled":false,"rental_uris":{"android":"levelo://app?vid=3a9ba5a4-63a8-4377-b5aa-8ece999ffb3a","ios":"levelo://app?vid=3a9ba5a4-63a8-4377-b5aa-8ece999ffb3a"},"vehicle_type_id":"4","last_reported":1726916805,"current_range_meters":38000,"station_id":"ce4bhhh2rcd13ifvqfl0","pricing_plan_id":"cebpf4jnsgd1na2vs0mg"},{"bike_id":"96f49d04-3ba0-4c70-b395-ac91f6796d0d","system_id":"levelo_inurba_marseille","lat":43.29975,"lon":5.37183,"is_reserved":false,"is_disabled":false,"rental_uris":{"android":"levelo://app?vid=96f49d04-3ba0-4c70-b395-ac91f6796d0d","ios":"levelo://app?vid=96f49d04-3ba0-4c70-b395-ac91f6796d0d"},"vehicle_type_id":"4","last_reported":1726916805,"current_range_meters":36000,"station_id":"ce4bgr92rcd13ifvqc7g","pricing_plan_id":"cebpf4jnsgd1na2vs0mg"},{"bike_id":"fb2b63d9-4a26-4602-9a57-d2caab531ee7","system_id":"levelo_inurba_marseille","lat":43.33722,"lon":5.39178,"is_reserved":false,"is_disabled":false,"rental_uris":{"android":"levelo://app?vid=fb2b63d9-4a26-4602-9a57-d2caab531ee7","ios":"levelo://app?vid=fb2b63d9-4a26-4602-9a57-d2caab531ee7"},"vehicle_type_id":"4","last_reported":1726916805,"current_range_meters":38800,"station_id":"ce4bhr92rcd13ifvqhsg","pricing_plan_id":"cebpf4jnsgd1na2vs0mg"},{"bike_id":"ee615e7a-964d-4640-bac8-7221d523fdb3","system_id":"levelo_inurba_marseille","lat":43.24649,"lon":5.38889,"is_reserved":false,"is_disabled":false,"rental_uris":{"android":"levelo://app?vid=ee615e7a-964d-4640-bac8-7221d523fdb3","ios":"levelo://app?vid=ee615e7a-964d-4640-bac8-7221d523fdb3"},"vehicle_type_id":"4","last_reported":1726916805,"current_range_meters":38400,"station_id":"ce4bhg12rcd13ifvqf60","pricing_plan_id":"cebpf4jnsgd1na2vs0mg"},{"bike_id":"193e73e0-8f7f-47cc-b04f-168862da309e","system_id":"levelo_inurba_marseille","lat":43.296,"lon":5.38097,"is_reserved":false,"is_disabled":false,"rental_uris":{"android":"levelo://app?vid=193e73e0-8f7f-47cc-b04f-168862da309e","ios":"levelo://app?vid=193e73e0-8f7f-47cc-b04f-168862da309e"},"vehicle_type_id":"4","last_reported":1726916805,"current_range_meters":35600,"station_id":"ce4bgl12rcd13ifvqbo0","pricing_plan_id":"cebpf4jnsgd1na2vs0mg"},{"bike_id":"96f9a91d-428e-493e-b8c0-fcd22d3c14f4","system_id":"levelo_inurba_marseille","lat":43.23186,"lon":5.39983,"is_reserved":false,"is_disabled":false,"rental_uris":{"android":"levelo://app?vid=96f9a91d-428e-493e-b8c0-fcd22d3c14f4","ios":"levelo://app?vid=96f9a91d-428e-493e-b8c0-fcd22d3c14f4"},"vehicle_type_id":"4","last_reported":1726916805,"current_range_meters":39200,"station_id":"ce4bhn12rcd13ifvqgqg","pricing_plan_id":"cebpf4jnsgd1na2vs0mg"},{"bike_id":"8a82df45-865b-4da1-95c1-9fdaeebf84f9","system_id":"levelo_inurba_marseille","lat":43.31686,"lon":5.40465,"is_reserved":false,"is_disabled":false,"rental_uris":{"android":"levelo://app?vid=8a82df45-865b-4da1-95c1-9fdaeebf84f9","ios":"levelo://app?vid=8a82df45-865b-4da1-95c1-9fdaeebf84f9"},"vehicle_type_id":"4","last_reported":1726916805,"current_range_meters":38400,"station_id":"ce4bh012rcd13ifvqd00","pricing_plan_id":"cebpf4jnsgd1na2vs0mg"},{"bike_id":"b869f1ae-f37d-464a-8d18-0fd8cd3f314c","system_id":"levelo_inurba_marseille","lat":43.29163,"lon":5.40655,"is_reserved":false,"is_disabled":false,"rental_uris":{"android":"levelo://app?vid=b869f1ae-f37d-464a-8d18-0fd8cd3f314c","ios":"levelo://app?vid=b869f1ae-f37d-464a-8d18-0fd8cd3f314c"},"vehicle_type_id":"4","last_reported":1726916805,"current_range_meters":4000,"station_id":"","pricing_plan_id":"cebpf4jnsgd1na2vs0mg"},{"bike_id":"7c1bb7bd-82ab-4f98-a5b3-7fe446bde41f","system_id":"levelo_inurba_marseille","lat":43.22928,"lon":5.35374,"is_reserved":false,"is_disabled":false,"rental_uris":{"android":"levelo://app?vid=7c1bb7bd-82ab-4f98-a5b3-7fe446bde41f","ios":"levelo://app?vid=7c1bb7bd-82ab-4f98-a5b3-7fe446bde41f"},"vehicle_type_id":"4","last_reported":1726916805,"current_range_meters":8000,"station_id":"cpo3532slgdg3j2ikp40","pricing_plan_id":"cebpf4jnsgd1na2vs0mg"},{"bike_id":"fa690805-233a-4a70-a9f3-33f1b67cdb1f","system_id":"levelo_inurba_marseille","lat":43.32288,"lon":5.38262,"is_reserved":false,"is_disabled":false,"rental_uris":{"android":"levelo://app?vid=fa690805-233a-4a70-a9f3-33f1b67cdb1f","ios":"levelo://app?vid=fa690805-233a-4a70-a9f3-33f1b67cdb1f"},"vehicle_type_id":"4","last_reported":1726916805,"current_range_meters":12800,"station_id":"ce4bhr12rcd13ifvqhqg","pricing_plan_id":"cebpf4jnsgd1na2vs0mg"},{"bike_id":"3a4e0040-1462-430c-9f01-f3d13145c344","system_id":"levelo_inurba_marseille","lat":43.33754,"lon":5.37446,"is_reserved":false,"is_disabled":false,"rental_uris":{"android":"levelo://app?vid=3a4e0040-1462-430c-9f01-f3d13145c344","ios":"levelo://app?vid=3a4e0040-1462-430c-9f01-f3d13145c344"},"vehicle_type_id":"4","last_reported":1726916805,"current_range_meters":36800,"station_id":"","pricing_plan_id":"cebpf4jnsgd1na2vs0mg"},{"bike_id":"e6e94b3c-3884-4ce1-aa97-ac67511e53d2","system_id":"levelo_inurba_marseille","lat":43.28269,"lon":5.3507,"is_reserved":false,"is_disabled":false,"rental_uris":{"android":"levelo://app?vid=e6e94b3c-3884-4ce1-aa97-ac67511e53d2","ios":"levelo://app?vid=e6e94b3c-3884-4ce1-aa97-ac67511e53d2"},"vehicle_type_id":"4","last_reported":1726916805,"current_range_meters":38800,"station_id":"ce4bhbp2rcd13ifvqerg","pricing_plan_id":"cebpf4jnsgd1na2vs0mg"},{"bike_id":"58928c39-f40f-4d14-8df5-fd3d58f85d25","system_id":"levelo_inurba_marseille","lat":43.28151,"lon":5.4264,"is_reserved":false,"is_disabled":false,"rental_uris":{"android":"levelo://app?vid=58928c39-f40f-4d14-8df5-fd3d58f85d25","ios":"levelo://app?vid=58928c39-f40f-4d14-8df5-fd3d58f85d25"},"vehicle_type_id":"4","last_reported":1726916805,"current_range_meters":34000,"station_id":"ce4bhnh2rcd13ifvqgug","pricing_plan_id":"cebpf4jnsgd1na2vs0mg"},{"bike_id":"7e3571e7-d499-4677-ad33-f5d3d01a2a81","system_id":"levelo_inurba_marseille","lat":43.25006,"lon":5.3893,"is_reserved":false,"is_disabled":false,"rental_uris":{"android":"levelo://app?vid=7e3571e7-d499-4677-ad33-f5d3d01a2a81","ios":"levelo://app?vid=7e3571e7-d499-4677-ad33-f5d3d01a2a81"},"vehicle_type_id":"4","last_reported":1726916805,"current_range_meters":39200,"station_id":"ce4bhgp2rcd13ifvqfd0","pricing_plan_id":"cebpf4jnsgd1na2vs0mg"},{"bike_id":"fdcba28f-463b-44a6-be33-ea79d7c441d8","system_id":"levelo_inurba_marseille","lat":43.284182,"lon":5.349755,"is_reserved":false,"is_disabled":false,"rental_uris":{"android":"levelo://app?vid=fdcba28f-463b-44a6-be33-ea79d7c441d8","ios":"levelo://app?vid=fdcba28f-463b-44a6-be33-ea79d7c441d8"},"vehicle_type_id":"4","last_reported":1726916805,"current_range_meters":6800,"station_id":"ce4bhbh2rcd13ifvqepg","pricing_plan_id":"cebpf4jnsgd1na2vs0mg"},{"bike_id":"7a69a206-59d7-4338-b1fb-7a4c9f69082f","system_id":"levelo_inurba_marseille","lat":43.2396,"lon":5.36636,"is_reserved":false,"is_disabled":false,"rental_uris":{"android":"levelo://app?vid=7a69a206-59d7-4338-b1fb-7a4c9f69082f","ios":"levelo://app?vid=7a69a206-59d7-4338-b1fb-7a4c9f69082f"},"vehicle_type_id":"4","last_reported":1726916805,"current_range_meters":14000,"station_id":"ce4bhi12rcd13ifvqfp0","pricing_plan_id":"cebpf4jnsgd1na2vs0mg"},{"bike_id":"5538791c-46ef-4dd6-bb61-9569d67885c3","system_id":"levelo_inurba_marseille","lat":43.284119,"lon":5.349822,"is_reserved":false,"is_disabled":false,"rental_uris":{"android":"levelo://app?vid=5538791c-46ef-4dd6-bb61-9569d67885c3","ios":"levelo://app?vid=5538791c-46ef-4dd6-bb61-9569d67885c3"},"vehicle_type_id":"4","last_reported":1726916805,"current_range_meters":19600,"station_id":"ce4bhbh2rcd13ifvqepg","pricing_plan_id":"cebpf4jnsgd1na2vs0mg"},{"bike_id":"9a31fbf3-06b4-4ad1-9a5d-f9259973980c","system_id":"levelo_inurba_marseille","lat":43.32534,"lon":5.4144,"is_reserved":false,"is_disabled":false,"rental_uris":{"android":"levelo://app?vid=9a31fbf3-06b4-4ad1-9a5d-f9259973980c","ios":"levelo://app?vid=9a31fbf3-06b4-4ad1-9a5d-f9259973980c"},"vehicle_type_id":"4","last_reported":1726916805,"current_range_meters":37600,"station_id":"ce4bhq12rcd13ifvqhhg","pricing_plan_id":"cebpf4jnsgd1na2vs0mg"},{"bike_id":"b2763354-ec6c-4733-8de6-6c4493759ae9","system_id":"levelo_inurba_marseille","lat":43.29081,"lon":5.40117,"is_reserved":false,"is_disabled":false,"rental_uris":{"android":"levelo://app?vid=b2763354-ec6c-4733-8de6-6c4493759ae9","ios":"levelo://app?vid=b2763354-ec6c-4733-8de6-6c4493759ae9"},"vehicle_type_id":"4","last_reported":1726916805,"current_range_meters":14800,"station_id":"","pricing_plan_id":"cebpf4jnsgd1na2vs0mg"},{"bike_id":"68f1ea92-8503-4fa6-b0c4-f17e09f4ab12","system_id":"levelo_inurba_marseille","lat":43.29903,"lon":5.37487,"is_reserved":false,"is_disabled":false,"rental_uris":{"android":"levelo://app?vid=68f1ea92-8503-4fa6-b0c4-f17e09f4ab12","ios":"levelo://app?vid=68f1ea92-8503-4fa6-b0c4-f17e09f4ab12"},"vehicle_type_id":"4","last_reported":1726916805,"current_range_meters":14000,"station_id":"ce4bgjh2rcd13ifvqbg0","pricing_plan_id":"cebpf4jnsgd1na2vs0mg"},{"bike_id":"68138f84-0b3c-4ab2-a43a-bf940dc06daa","system_id":"levelo_inurba_marseille","lat":43.24394,"lon":5.37059,"is_reserved":false,"is_disabled":false,"rental_uris":{"android":"levelo://app?vid=68138f84-0b3c-4ab2-a43a-bf940dc06daa","ios":"levelo://app?vid=68138f84-0b3c-4ab2-a43a-bf940dc06daa"},"vehicle_type_id":"4","last_reported":1726916805,"current_range_meters":27600,"station_id":"ce4bhhh2rcd13ifvqfk0","pricing_plan_id":"cebpf4jnsgd1na2vs0mg"},{"bike_id":"52bb183e-a819-4b05-af9a-59ea4f7b9ba7","system_id":"levelo_inurba_marseille","lat":43.28113,"lon":5.37828,"is_reserved":false,"is_disabled":false,"rental_uris":{"android":"levelo://app?vid=52bb183e-a819-4b05-af9a-59ea4f7b9ba7","ios":"levelo://app?vid=52bb183e-a819-4b05-af9a-59ea4f7b9ba7"},"vehicle_type_id":"4","last_reported":1726916805,"current_range_meters":37600,"station_id":"ce4bha12rcd13ifvqee0","pricing_plan_id":"cebpf4jnsgd1na2vs0mg"},{"bike_id":"7992da7f-bb5a-4414-8874-cd917d75f26b","system_id":"levelo_inurba_marseille","lat":43.23152,"lon":5.43715,"is_reserved":false,"is_disabled":false,"rental_uris":{"android":"levelo://app?vid=7992da7f-bb5a-4414-8874-cd917d75f26b","ios":"levelo://app?vid=7992da7f-bb5a-4414-8874-cd917d75f26b"},"vehicle_type_id":"4","last_reported":1726916805,"current_range_meters":38800,"station_id":"ce4bhmp2rcd13ifvqgog","pricing_plan_id":"cebpf4jnsgd1na2vs0mg"},{"bike_id":"3bfe2686-e5f6-492a-a2fd-d0f13f6be62c","system_id":"levelo_inurba_marseille","lat":43.30145,"lon":5.38079,"is_reserved":false,"is_disabled":false,"rental_uris":{"android":"levelo://app?vid=3bfe2686-e5f6-492a-a2fd-d0f13f6be62c","ios":"levelo://app?vid=3bfe2686-e5f6-492a-a2fd-d0f13f6be62c"},"vehicle_type_id":"4","last_reported":1726916805,"current_range_meters":38800,"station_id":"ce4bgjp2rcd13ifvqbh0","pricing_plan_id":"cebpf4jnsgd1na2vs0mg"},{"bike_id":"64e640da-ebd0-429a-a9e6-b897800ba367","system_id":"levelo_inurba_marseille","lat":43.32286,"lon":5.38257,"is_reserved":false,"is_disabled":false,"rental_uris":{"android":"levelo://app?vid=64e640da-ebd0-429a-a9e6-b897800ba367","ios":"levelo://app?vid=64e640da-ebd0-429a-a9e6-b897800ba367"},"vehicle_type_id":"4","last_reported":1726916805,"current_range_meters":36800,"station_id":"ce4bhr12rcd13ifvqhqg","pricing_plan_id":"cebpf4jnsgd1na2vs0mg"},{"bike_id":"c2c9a555-6ec8-4b92-b33e-073571605c93","system_id":"levelo_inurba_marseille","lat":43.23194,"lon":5.35547,"is_reserved":false,"is_disabled":false,"rental_uris":{"android":"levelo://app?vid=c2c9a555-6ec8-4b92-b33e-073571605c93","ios":"levelo://app?vid=c2c9a555-6ec8-4b92-b33e-073571605c93"},"vehicle_type_id":"4","last_reported":1726916805,"current_range_meters":22400,"station_id":"ce4bhu92rcd13ifvqi70","pricing_plan_id":"cebpf4jnsgd1na2vs0mg"},{"bike_id":"4da606b6-8e35-43b1-90a2-a0fb009ac363","system_id":"levelo_inurba_marseille","lat":43.23179,"lon":5.39988,"is_reserved":false,"is_disabled":false,"rental_uris":{"android":"levelo://app?vid=4da606b6-8e35-43b1-90a2-a0fb009ac363","ios":"levelo://app?vid=4da606b6-8e35-43b1-90a2-a0fb009ac363"},"vehicle_type_id":"4","last_reported":1726916805,"current_range_meters":6800,"station_id":"ce4bhn12rcd13ifvqgqg","pricing_plan_id":"cebpf4jnsgd1na2vs0mg"},{"bike_id":"3c0c5ece-f13f-41bb-ad5c-22ec03b6c35e","system_id":"levelo_inurba_marseille","lat":43.23184,"lon":5.39985,"is_reserved":false,"is_disabled":false,"rental_uris":{"android":"levelo://app?vid=3c0c5ece-f13f-41bb-ad5c-22ec03b6c35e","ios":"levelo://app?vid=3c0c5ece-f13f-41bb-ad5c-22ec03b6c35e"},"vehicle_type_id":"4","last_reported":1726916805,"current_range_meters":12800,"station_id":"ce4bhn12rcd13ifvqgqg","pricing_plan_id":"cebpf4jnsgd1na2vs0mg"},{"bike_id":"ab066c37-67e4-4c55-9347-577df82b8b14","system_id":"levelo_inurba_marseille","lat":43.30309,"lon":5.39207,"is_reserved":false,"is_disabled":false,"rental_uris":{"android":"levelo://app?vid=ab066c37-67e4-4c55-9347-577df82b8b14","ios":"levelo://app?vid=ab066c37-67e4-4c55-9347-577df82b8b14"},"vehicle_type_id":"4","last_reported":1726916805,"current_range_meters":32000,"station_id":"ce4bgkh2rcd13ifvqbk0","pricing_plan_id":"cebpf4jnsgd1na2vs0mg"},{"bike_id":"209a8176-a8a1-4786-abc2-396b8d5eb5ad","system_id":"levelo_inurba_marseille","lat":43.29017,"lon":5.38131,"is_reserved":false,"is_disabled":false,"rental_uris":{"android":"levelo://app?vid=209a8176-a8a1-4786-abc2-396b8d5eb5ad","ios":"levelo://app?vid=209a8176-a8a1-4786-abc2-396b8d5eb5ad"},"vehicle_type_id":"4","last_reported":1726916805,"current_range_meters":18800,"station_id":"ce4bh4p2rcd13ifvqe1g","pricing_plan_id":"cebpf4jnsgd1na2vs0mg"},{"bike_id":"524c2d8f-1a1e-47bb-ba90-4067c02f5325","system_id":"levelo_inurba_marseille","lat":43.26509,"lon":5.3955,"is_reserved":false,"is_disabled":false,"rental_uris":{"android":"levelo://app?vid=524c2d8f-1a1e-47bb-ba90-4067c02f5325","ios":"levelo://app?vid=524c2d8f-1a1e-47bb-ba90-4067c02f5325"},"vehicle_type_id":"4","last_reported":1726916805,"current_range_meters":32000,"station_id":"ce4bhi12rcd13ifvqfq0","pricing_plan_id":"cebpf4jnsgd1na2vs0mg"},{"bike_id":"9e52443d-992b-4bb1-9756-b1a8a0fa934e","system_id":"levelo_inurba_marseille","lat":43.30801,"lon":5.38156,"is_reserved":false,"is_disabled":false,"rental_uris":{"android":"levelo://app?vid=9e52443d-992b-4bb1-9756-b1a8a0fa934e","ios":"levelo://app?vid=9e52443d-992b-4bb1-9756-b1a8a0fa934e"},"vehicle_type_id":"4","last_reported":1726916805,"current_range_meters":14000,"station_id":"ce4bgt12rcd13ifvqce0","pricing_plan_id":"cebpf4jnsgd1na2vs0mg"},