{"last_updated":1762110394,"ttl":60,"version":"2.2","data":{"bikes":[{"bike_id":"b9d041d5-108f-480b-9364-b688353c3548","system_id":"levelo_inurba_marseille","lat":43.298706,"lon":5.397298,"is_reserved":false,"is_disabled":false,"rental_uris":{"android":"levelo://app?vid=b9d041d5-108f-480b-9364-b688353c3548","ios":"levelo://app?vid=b9d041d5-108f-480b-9364-b688353c3548"},"vehicle_type_id":"4","last_reported":1762110395,"current_range_meters":2800,"station_id":"ce4bh0h2rcd13ifvqd50","pricing_plan_id":"cebpf4jnsgd1na2vs0mg"},{"bike_id":"6db9cb9d-d526-4072-a993-2b71d98f1aa5","system_id":"levelo_inurba_marseille","lat":43.270587,"lon":5.383105,"is_reserved":false,"is_disabled":false,"rental_uris":{"android":"levelo://app?vid=6db9cb9d-d526-4072-a993-2b71d98f1aa5","ios":"levelo://app?vid=6db9cb9d-d526-4072-a993-2b71d98f1aa5"},"vehicle_type_id":"4","last_reported":1762110395,"current_range_meters":3200,"station_id":"st_d3n2fo6cfp8s73cte1j0","pricing_plan_id":"cebpf4jnsgd1na2vs0mg"},{"bike_id":"a4dac4fa-66e6-48be-a654-6e17cdc7ca0b","system_id":"levelo_inurba_marseille","lat":43.337571,"lon":5.374323,"is_reserved":false,"is_disabled":false,"rental_uris":{"android":"levelo://app?vid=a4dac4fa-66e6-48be-a654-6e17cdc7ca0b","ios":"levelo://app?vid=a4dac4fa-66e6-48be-a654-6e17cdc7ca0b"},"vehicle_type_id":"4","last_reported":1762110395,"current_range_meters":3600,"station_id":"","pricing_plan_id":"cebpf4jnsgd1na2vs0mg"},{"bike_id":"27abc7d1-dd85-495f-9415-aa00cef4846e","system_id":"levelo_inurba_marseille","lat":43.27783,"lon":5.39538,"is_reserved":false,"is_disabled":false,"rental_uris":{"android":"levelo://app?vid=27abc7d1-dd85-495f-9415-aa00cef4846e","ios":"levelo://app?vid=27abc7d1-dd85-495f-9415-aa00cef4846e"},"vehicle_type_id":"4","last_reported":1762110395,"current_range_meters":3600,"station_id":"","pricing_plan_id":"cebpf4jnsgd1na2vs0mg"},{"bike_id":"35af7c81-b710-4936-b4c5-24868307ff0c","system_id":"levelo_inurba_marseille","lat":43.316885,"lon":5.404773,"is_reserved":false,"is_disabled":false,"rental_uris":{"android":"levelo://app?vid=35af7c81-b710-4936-b4c5-24868307ff0c","ios":"levelo://app?vid=35af7c81-b710-4936-b4c5-24868307ff0c"},"vehicle_type_id":"4","last_reported":1762110395,"current_range_meters":3600,"station_id":"ce4bh012rcd13ifvqd00","pricing_plan_id":"cebpf4jnsgd1na2vs0mg"},{"bike_id":"5d5e0931-9561-49dd-bcbc-9af16b375df7","system_id":"levelo_inurba_marseille","lat":43.24542,"lon":5.39522,"is_reserved":false,"is_disabled":false,"rental_uris":{"android":"levelo://app?vid=5d5e0931-9561-49dd-bcbc-9af16b375df7","ios":"levelo://app?vid=5d5e0931-9561-49dd-bcbc-9af16b375df7"},"vehicle_type_id":"4","last_reported":1762110395,"current_range_meters":4000,"station_id":"ce4bhlp2rcd13ifvqgjg","pricing_plan_id":"cebpf4jnsgd1na2vs0mg"},{"bike_id":"52b117f2-4c01-4f66-887d-006722496528","system_id":"levelo_inurba_marseille","lat":43.30837,"lon":5.37161,"is_reserved":false,"is_disabled":false,"rental_uris":{"android":"levelo://app?vid=52b117f2-4c01-4f66-887d-006722496528","ios":"levelo://app?vid=52b117f2-4c01-4f66-887d-006722496528"},"vehicle_type_id":"4","last_reported":1762110395,"current_range_meters":4400,"station_id":"","pricing_plan_id":"cebpf4jnsgd1na2vs0mg"},{"bike_id":"bd712def-d6f2-46fe-a83c-849c86387dbb","system_id":"levelo_inurba_marseille","lat":43.30895,"lon":5.39653,"is_reserved":false,"is_disabled":false,"rental_uris":{"android":"levelo://app?vid=bd712def-d6f2-46fe-a83c-849c86387dbb","ios":"levelo://app?vid=bd712def-d6f2-46fe-a83c-849c86387dbb"},"vehicle_type_id":"4","last_reported":1762110395,"current_range_meters":4800,"station_id":"ce4bh012rcd13ifvqcv0","pricing_plan_id":"cebpf4jnsgd1na2vs0mg"},{"bike_id":"17dc5fa8-3418-4be2-b799-a6a836d89af3","system_id":"levelo_inurba_marseille","lat":43.307949,"lon":5.381589,"is_reserved":false,"is_disabled":false,"rental_uris":{"android":"levelo://app?vid=17dc5fa8-3418-4be2-b799-a6a836d89af3","ios":"levelo://app?vid=17dc5fa8-3418-4be2-b799-a6a836d89af3"},"vehicle_type_id":"4","last_reported":1762110395,"current_range_meters":4800,"station_id":"ce4bgt12rcd13ifvqce0","pricing_plan_id":"cebpf4jnsgd1na2vs0mg"},{"bike_id":"fca252be-68c3-40cc-92d4-0eb23191f310","system_id":"levelo_inurba_marseille","lat":43.3189,"lon":5.40736,"is_reserved":false,"is_disabled":false,"rental_uris":{"android":"levelo://app?vid=fca252be-68c3-40cc-92d4-0eb23191f310","ios":"levelo://app?vid=fca252be-68c3-40cc-92d4-0eb23191f310"},"vehicle_type_id":"4","last_reported":1762110395,"current_range_meters":4800,"station_id":"ce4bhq12rcd13ifvqhig","pricing_plan_id":"cebpf4jnsgd1na2vs0mg"},{"bike_id":"dcb5f4d6-a57a-45ea-b185-de3fe952058c","system_id":"levelo_inurba_marseille","lat":43.281,"lon":5.37843,"is_reserved":false,"is_disabled":true,"rental_uris":{"android":"levelo://app?vid=dcb5f4d6-a57a-45ea-b185-de3fe952058c","ios":"levelo://app?vid=dcb5f4d6-a57a-45ea-b185-de3fe952058c"},"vehicle_type_id":"4","last_reported":1762110395,"current_range_meters":5600,"station_id":"ce4bha12rcd13ifvqee0","pricing_plan_id":"cebpf4jnsgd1na2vs0mg"},{"bike_id":"11b2f3ee-9bac-4497-9abf-d2e855cfc89e","system_id":"levelo_inurba_marseille","lat":43.2572,"lon":5.41105,"is_reserved":false,"is_disabled":false,"rental_uris":{"android":"levelo://app?vid=11b2f3ee-9bac-4497-9abf-d2e855cfc89e","ios":"levelo://app?vid=11b2f3ee-9bac-4497-9abf-d2e855cfc89e"},"vehicle_type_id":"4","last_reported":1762110395,"current_range_meters":5600,"station_id":"ce4bhkp2rcd13ifvqgd0","pricing_plan_id":"cebpf4jnsgd1na2vs0mg"},{"bike_id":"a827c7f0-96b3-44c7-84ee-ca3d9c0dc585","system_id":"levelo_inurba_marseille","lat":43.2495,"lon":5.40482,"is_reserved":false,"is_disabled":false,"rental_uris":{"android":"levelo://app?vid=a827c7f0-96b3-44c7-84ee-ca3d9c0dc585","ios":"levelo://app?vid=a827c7f0-96b3-44c7-84ee-ca3d9c0dc585"},"vehicle_type_id":"4","last_reported":1762110395,"current_range_meters":5600,"station_id":"st_d2ngiaodas8pm72gd1h0","pricing_plan_id":"cebpf4jnsgd1na2vs0mg"},{"bike_id":"f3aa2b01-0a4c-4939-9943-856a2be759f0","system_id":"levelo_inurba_marseille","lat":43.21744,"lon":5.34594,"is_reserved":false,"is_disabled":false,"rental_uris":{"android":"levelo://app?vid=f3aa2b01-0a4c-4939-9943-856a2be759f0","ios":"levelo://app?vid=f3aa2b01-0a4c-4939-9943-856a2be759f0"},"vehicle_type_id":"4","last_reported":1762110395,"current_range_meters":6000,"station_id":"st_cvj6r9ubvosntc0bgbag","pricing_plan_id":"cebpf4jnsgd1na2vs0mg"},{"bike_id":"31cd2970-d77d-491d-850c-53bb4adca98a","system_id":"levelo_inurba_marseille","lat":43.2847,"lon":5.38414,"is_reserved":false,"is_disabled":false,"rental_uris":{"android":"levelo://app?vid=31cd2970-d77d-491d-850c-53bb4adca98a","ios":"levelo://app?vid=31cd2970-d77d-491d-850c-53bb4adca98a"},"vehicle_type_id":"4","last_reported":1762110395,"current_range_meters":6000,"station_id":"ce4bh512rcd13ifvqe3g","pricing_plan_id":"cebpf4jnsgd1na2vs0mg"},{"bike_id":"b1e81361-2b17-4ef1-8a58-6def5753471b","system_id":"levelo_inurba_marseille","lat":43.33753,"lon":5.37484,"is_reserved":false,"is_disabled":false,"rental_uris":{"android":"levelo://app?vid=b1e81361-2b17-4ef1-8a58-6def5753471b","ios":"levelo://app?vid=b1e81361-2b17-4ef1-8a58-6def5753471b"},"vehicle_type_id":"4","last_reported":1762110395,"current_range_meters":6400,"station_id":"","pricing_plan_id":"cebpf4jnsgd1na2vs0mg"},{"bike_id":"25a2599c-133b-449e-8a9c-9f29b20c9607","system_id":"levelo_inurba_marseille","lat":43.29781,"lon":5.37889,"is_reserved":false,"is_disabled":false,"rental_uris":{"android":"levelo://app?vid=25a2599c-133b-449e-8a9c-9f29b20c9607","ios":"levelo://app?vid=25a2599c-133b-449e-8a9c-9f29b20c9607"},"vehicle_type_id":"4","last_reported":1762110395,"current_range_meters":6400,"station_id":"","pricing_plan_id":"cebpf4jnsgd1na2vs0mg"},{"bike_id":"fe211fee-df04-4312-bc0a-d625bf6086ab","system_id":"levelo_inurba_marseille","lat":43.291485,"lon":5.402764,"is_reserved":false,"is_disabled":true,"rental_uris":{"android":"levelo://app?vid=fe211fee-df04-4312-bc0a-d625bf6086ab","ios":"levelo://app?vid=fe211fee-df04-4312-bc0a-d625bf6086ab"},"vehicle_type_id":"4","last_reported":1762110395,"current_range_meters":6400,"station_id":"","pricing_plan_id":"cebpf4jnsgd1na2vs0mg"},{"bike_id":"8a759722-19f7-4a56-9646-2c26a5e7e25d","system_id":"levelo_inurba_marseille","lat":43.279815,"lon":5.387393,"is_reserved":false,"is_disabled":true,"rental_uris":{"android":"levelo://app?vid=8a759722-19f7-4a56-9646-2c26a5e7e25d","ios":"levelo://app?vid=8a759722-19f7-4a56-9646-2c26a5e7e25d"},"vehicle_type_id":"4","last_reported":1762110395,"current_range_meters":6800,"station_id":"ce4bhg12rcd13ifvqf80","pricing_plan_id":"cebpf4jnsgd1na2vs0mg"},{"bike_id":"ed890a36-02ef-4914-b497-b0b60f616f2a","system_id":"levelo_inurba_marseille","lat":43.28141,"lon":5.42627,"is_reserved":false,"is_disabled":false,"rental_uris":{"android":"levelo://app?vid=ed890a36-02ef-4914-b497-b0b60f616f2a","ios":"levelo://app?vid=ed890a36-02ef-4914-b497-b0b60f616f2a"},"vehicle_type_id":"4","last_reported":1762110395,"current_range_meters":6800,"station_id":"ce4bhnh2rcd13ifvqgug","pricing_plan_id":"cebpf4jnsgd1na2vs0mg"},{"bike_id":"5c28a17f-4818-493d-8e58-d115f72af272","system_id":"levelo_inurba_marseille","lat":43.30308,"lon":5.36897,"is_reserved":false,"is_disabled":false,"rental_uris":{"android":"levelo://app?vid=5c28a17f-4818-493d-8e58-d115f72af272","ios":"levelo://app?vid=5c28a17f-4818-493d-8e58-d115f72af272"},"vehicle_type_id":"4","last_reported":1762110395,"current_range_meters":6800,"station_id":"ce4bgqh2rcd13ifvqc5g","pricing_plan_id":"cebpf4jnsgd1na2vs0mg"},{"bike_id":"f564afa9-6d95-4537-ad41-be764f035fe4","system_id":"levelo_inurba_marseille","lat":43.29284,"lon":5.40109,"is_reserved":false,"is_disabled":true,"rental_uris":{"android":"levelo://app?vid=f564afa9-6d95-4537-ad41-be764f035fe4","ios":"levelo://app?vid=f564afa9-6d95-4537-ad41-be764f035fe4"},"vehicle_type_id":"4","last_reported":1762110395,"current_range_meters":6800,"station_id":"ce4bh312rcd13ifvqdk0","pricing_plan_id":"cebpf4jnsgd1na2vs0mg"},{"bike_id":"603f84c7-55e1-4d19-8f37-178ddadc668f","system_id":"levelo_inurba_marseille","lat":43.212,"lon":5.35073,"is_reserved":false,"is_disabled":false,"rental_uris":{"android":"levelo://app?vid=603f84c7-55e1-4d19-8f37-178ddadc668f","ios":"levelo://app?vid=603f84c7-55e1-4d19-8f37-178ddadc668f"},"vehicle_type_id":"4","last_reported":1762110395,"current_range_meters":7200,"station_id":"st_cvj6sg6p6f1abm77japg","pricing_plan_id":"cebpf4jnsgd1na2vs0mg"},{"bike_id":"1da56141-654f-442c-b20c-6c2bd52c2965","system_id":"levelo_inurba_marseille","lat":43.31261,"lon":5.38194,"is_reserved":false,"is_disabled":true,"rental_uris":{"android":"levelo://app?vid=1da56141-654f-442c-b20c-6c2bd52c2965","ios":"levelo://app?vid=1da56141-654f-442c-b20c-6c2bd52c2965"},"vehicle_type_id":"4","last_reported":1762110395,"current_range_meters":7200,"station_id":"","pricing_plan_id":"cebpf4jnsgd1na2vs0mg"},{"bike_id":"7aec6a47-ba31-4135-ae0b-7051d5593433","system_id":"levelo_inurba_marseille","lat":43.28196,"lon":5.42639,"is_reserved":false,"is_disabled":false,"rental_uris":{"android":"levelo://app?vid=7aec6a47-ba31-4135-ae0b-7051d5593433","ios":"levelo://app?vid=7aec6a47-ba31-4135-ae0b-7051d5593433"},"vehicle_type_id":"4","last_reported":1762110395,"current_range_meters":7200,"station_id":"ce4bhnh2rcd13ifvqgug","pricing_plan_id":"cebpf4jnsgd1na2vs0mg"},{"bike_id":"a8c37853-0b1d-4686-a393-5126f07eea8e","system_id":"levelo_inurba_marseille","lat":43.288147,"lon":5.391652,"is_reserved":false,"is_disabled":false,"rental_uris":{"android":"levelo://app?vid=a8c37853-0b1d-4686-a393-5126f07eea8e","ios":"levelo://app?vid=a8c37853-0b1d-4686-a393-5126f07eea8e"},"vehicle_type_id":"4","last_reported":1762110395,"current_range_meters":7200,"station_id":"","pricing_plan_id":"cebpf4jnsgd1na2vs0mg"},{"bike_id":"48254dec-c7f5-4ed0-9d75-9cd273db9b06","system_id":"levelo_inurba_marseille","lat":43.32657,"lon":5.4099,"is_reserved":false,"is_disabled":false,"rental_uris":{"android":"levelo://app?vid=48254dec-c7f5-4ed0-9d75-9cd273db9b06","ios":"levelo://app?vid=48254dec-c7f5-4ed0-9d75-9cd273db9b06"},"vehicle_type_id":"4","last_reported":1762110395,"current_range_meters":7200,"station_id":"ce4bhpp2rcd13ifvqhgg","pricing_plan_id":"cebpf4jnsgd1na2vs0mg"},{"bike_id":"f0620558-d859-46bd-b13c-294a3832d776","system_id":"levelo_inurba_marseille","lat":43.31696,"lon":5.40464,"is_reserved":false,"is_disabled":false,"rental_uris":{"android":"levelo://app?vid=f0620558-d859-46bd-b13c-294a3832d776","ios":"levelo://app?vid=f0620558-d859-46bd-b13c-294a3832d776"},"vehicle_type_id":"4","last_reported":1762110395,"current_range_meters":8000,"station_id":"ce4bh012rcd13ifvqd00","pricing_plan_id":"cebpf4jnsgd1na2vs0mg"},{"bike_id":"4e879c6d-c4f5-4eaa-8dca-80109b1d6525","system_id":"levelo_inurba_marseille","lat":43.2711,"lon":5.42264,"is_reserved":false,"is_disabled":false,"rental_uris":{"android":"levelo://app?vid=4e879c6d-c4f5-4eaa-8dca-80109b1d6525","ios":"levelo://app?vid=4e879c6d-c4f5-4eaa-8dca-80109b1d6525"},"vehicle_type_id":"4","last_reported":1762110395,"current_range_meters":8000,"station_id":"ce4bhk92rcd13ifvqgb0","pricing_plan_id":"cebpf4jnsgd1na2vs0mg"},{"bike_id":"d58718b8-19d9-4120-a14b-f26f76d88a36","system_id":"levelo_inurba_marseille","lat":43.29789,"lon":5.38087,"is_reserved":false,"is_disabled":false,"rental_uris":{"android":"levelo://app?vid=d58718b8-19d9-4120-a14b-f26f76d88a36","ios":"levelo://app?vid=d58718b8-19d9-4120-a14b-f26f76d88a36"},"vehicle_type_id":"4","last_reported":1762110395,"current_range_meters":8000,"station_id":"ce4bgip2rcd13ifvqbb0","pricing_plan_id":"cebpf4jnsgd1na2vs0mg"},{"bike_id":"31ccdc16-b6aa-4268-8610-3a0153f78faa","system_id":"levelo_inurba_marseille","lat":43.30924,"lon":5.40149,"is_reserved":false,"is_disabled":false,"rental_uris":{"android":"levelo://app?vid=31ccdc16-b6aa-4268-8610-3a0153f78faa","ios":"levelo://app?vid=31ccdc16-b6aa-4268-8610-3a0153f78faa"},"vehicle_type_id":"4","last_reported":1762110395,"current_range_meters":8000,"station_id":"ce4bgvp2rcd13ifvqct0","pricing_plan_id":"cebpf4jnsgd1na2vs0mg"},{"bike_id":"30ff92fc-b0fd-4e28-a064-702810b1ef0e","system_id":"levelo_inurba_marseille","lat":43.279868,"lon":5.41658,"is_reserved":false,"is_disabled":false,"rental_uris":{"android":"levelo://app?vid=30ff92fc-b0fd-4e28-a064-702810b1ef0e","ios":"levelo://app?vid=30ff92fc-b0fd-4e28-a064-702810b1ef0e"},"vehicle_type_id":"4","last_reported":1762110395,"current_range_meters":8000,"station_id":"ce4bho12rcd13ifvqh1g","pricing_plan_id":"cebpf4jnsgd1na2vs0mg"},{"bike_id":"5b499331-d6cf-4d04-bda5-fe6ee74a8c25","system_id":"levelo_inurba_marseille","lat":43.30752,"lon":5.4018,"is_reserved":false,"is_disabled":false,"rental_uris":{"android":"levelo://app?vid=5b499331-d6cf-4d04-bda5-fe6ee74a8c25","ios":"levelo://app?vid=5b499331-d6cf-4d04-bda5-fe6ee74a8c25"},"vehicle_type_id":"4","last_reported":1762110395,"current_range_meters":8400,"station_id":"","pricing_plan_id":"cebpf4jnsgd1na2vs0mg"},{"bike_id":"233f4e48-5e5e-498b-931d-d71cc785f9b4","system_id":"levelo_inurba_marseille","lat":43.26494,"lon":5.39529,"is_reserved":false,"is_disabled":false,"rental_uris":{"android":"levelo://app?vid=233f4e48-5e5e-498b-931d-d71cc785f9b4","ios":"levelo://app?vid=233f4e48-5e5e-498b-931d-d71cc785f9b4"},"vehicle_type_id":"4","last_reported":1762110395,"current_range_meters":8800,"station_id":"ce4bhi12rcd13ifvqfq0","pricing_plan_id":"cebpf4jnsgd1na2vs0mg"},{"bike_id":"6d768b99-3981-46fd-a50a-8cfd3efbbe28","system_id":"levelo_inurba_marseille","lat":43.29203,"lon":5.39322,"is_reserved":false,"is_disabled":false,"rental_uris":{"android":"levelo://app?vid=6d768b99-3981-46fd-a50a-8cfd3efbbe28","ios":"levelo://app?vid=6d768b99-3981-46fd-a50a-8cfd3efbbe28"},"vehicle_type_id":"4","last_reported":1762110395,"current_range_meters":8800,"station_id":"ce4bh192rcd13ifvqdd0","pricing_plan_id":"cebpf4jnsgd1na2vs0mg"},{"bike_id":"f757c012-e649-41f4-863e-92e93297c708","system_id":"levelo_inurba_marseille","lat":43.26496,"lon":5.39532,"is_reserved":false,"is_disabled":false,"rental_uris":{"android":"levelo://app?vid=f757c012-e649-41f4-863e-92e93297c708","ios":"levelo://app?vid=f757c012-e649-41f4-863e-92e93297c708"},"vehicle_type_id":"4","last_reported":1762110395,"current_range_meters":8800,"station_id":"ce4bhi12rcd13ifvqfq0","pricing_plan_id":"cebpf4jnsgd1na2vs0mg"},{"bike_id":"44031305-5bc4-434f-8999-cc5704cf4d0b","system_id":"levelo_inurba_marseille","lat":43.264949,"lon":5.395245,"is_reserved":false,"is_disabled":false,"rental_uris":{"android":"levelo://app?vid=44031305-5bc4-434f-8999-cc5704cf4d0b","ios":"levelo://app?vid=44031305-5bc4-434f-8999-cc5704cf4d0b"},"vehicle_type_id":"4","last_reported":1762110395,"current_range_meters":8800,"station_id":"ce4bhi12rcd13ifvqfq0","pricing_plan_id":"cebpf4jnsgd1na2vs0mg"},{"bike_id":"65ab059e-5dc0-491f-b8d3-306e86b24e63","system_id":"levelo_inurba_marseille","lat":43.28036,"lon":5.36952,"is_reserved":false,"is_disabled":false,"rental_uris":{"android":"levelo://app?vid=65ab059e-5dc0-491f-b8d3-306e86b24e63","ios":"levelo://app?vid=65ab059e-5dc0-491f-b8d3-306e86b24e63"},"vehicle_type_id":"4","last_reported":1762110395,"current_range_meters":8800,"station_id":"ce4bha12rcd13ifvqef0","pricing_plan_id":"cebpf4jnsgd1na2vs0mg"},{"bike_id":"dc2acba4-bd76-41ed-9998-719b7670dd2a","system_id":"levelo_inurba_marseille","lat":43.284088,"lon":5.375048,"is_reserved":false,"is_disabled":false,"rental_uris":{"android":"levelo://app?vid=dc2acba4-bd76-41ed-9998-719b7670dd2a","ios":"levelo://app?vid=dc2acba4-bd76-41ed-9998-719b7670dd2a"},"vehicle_type_id":"4","last_reported":1762110395,"current_range_meters":9200,"station_id":"ce4bh412rcd13ifvqds0","pricing_plan_id":"cebpf4jnsgd1na2vs0mg"},{"bike_id":"1d29646a-da1f-4f66-b008-0838ffb2fa84","system_id":"levelo_inurba_marseille","lat":43.29985,"lon":5.372275,"is_reserved":false,"is_disabled":false,"rental_uris":{"android":"levelo://app?vid=1d29646a-da1f-4f66-b008-0838ffb2fa84","ios":"levelo://app?vid=1d29646a-da1f-4f66-b008-0838ffb2fa84"},"vehicle_type_id":"4","last_reported":1762110395,"current_range_meters":9200,"station_id":"ce4bgr92rcd13ifvqc7g","pricing_plan_id":"cebpf4jnsgd1na2vs0mg"},{"bike_id":"ccbb9b89-ebba-4c6c-b9fe-acafe29ddb47","system_id":"levelo_inurba_marseille","lat":43.33513,"lon":5.42805,"is_reserved":false,"is_disabled":false,"rental_uris":{"android":"levelo://app?vid=ccbb9b89-ebba-4c6c-b9fe-acafe29ddb47","ios":"levelo://app?vid=ccbb9b89-ebba-4c6c-b9fe-acafe29ddb47"},"vehicle_type_id":"4","last_reported":1762110395,"current_range_meters":9600,"station_id":"","pricing_plan_id":"cebpf4jnsgd1na2vs0mg"},{"bike_id":"92454add-19f4-4aa3-85fc-a7c943eed08a","system_id":"levelo_inurba_marseille","lat":43.2955,"lon":5.42282,"is_reserved":false,"is_disabled":false,"rental_uris":{"android":"levelo://app?vid=92454add-19f4-4aa3-85fc-a7c943eed08a","ios":"levelo://app?vid=92454add-19f4-4aa3-85fc-a7c943eed08a"},"vehicle_type_id":"4","last_reported":1762110395,"current_range_meters":9600,"station_id":"ce4bhph2rcd13ifvqhdg","pricing_plan_id":"cebpf4jnsgd1na2vs0mg"},{"bike_id":"12c24c1a-5f34-4e4f-b6c0-f07cd6755b8d","system_id":"levelo_inurba_marseille","lat":43.24929,"lon":5.40465,"is_reserved":false,"is_disabled":false,"rental_uris":{"android":"levelo://app?vid=12c24c1a-5f34-4e4f-b6c0-f07cd6755b8d","ios":"levelo://app?vid=12c24c1a-5f34-4e4f-b6c0-f07cd6755b8d"},"vehicle_type_id":"4","last_reported":1762110395,"current_range_meters":9600,"station_id":"st_d2ngiaodas8pm72gd1h0","pricing_plan_id":"cebpf4jnsgd1na2vs0mg"},{"bike_id":"71ac7427-5e99-4da0-b09e-145d429775a3","system_id":"levelo_inurba_marseille","lat":43.24627,"lon":5.43145,"is_reserved":false,"is_disabled":false,"rental_uris":{"android":"levelo://app?vid=71ac7427-5e99-4da0-b09e-145d429775a3","ios":"levelo://app?vid=71ac7427-5e99-4da0-b09e-145d429775a3"},"vehicle_type_id":"4","last_reported":1762110395,"current_range_meters":9600,"station_id":"st_d2m6c4gdas8pm72e190g","pricing_plan_id":"cebpf4jnsgd1na2vs0mg"},{"bike_id":"4910d7c4-d705-49db-9cc8-a10f1ea5e134","system_id":"levelo_inurba_marseille","lat":43.30152,"lon":5.385,"is_reserved":false,"is_disabled":false,"rental_uris":{"android":"levelo://app?vid=4910d7c4-d705-49db-9cc8-a10f1ea5e134","ios":"levelo://app?vid=4910d7c4-d705-49db-9cc8-a10f1ea5e134"},"vehicle_type_id":"4","last_reported":1762110395,"current_range_meters":10000,"station_id":"","pricing_plan_id":"cebpf4jnsgd1na2vs0mg"},{"bike_id":"f556ad88-b0ef-4d15-8048-f36fbe8e026c","system_id":"levelo_inurba_marseille","lat":43.28558,"lon":5.44114,"is_reserved":false,"is_disabled":false,"rental_uris":{"android":"levelo://app?vid=f556ad88-b0ef-4d15-8048-f36fbe8e026c","ios":"levelo://app?vid=f556ad88-b0ef-4d15-8048-f36fbe8e026c"},"vehicle_type_id":"4","last_reported":1762110395,"current_range_meters":10000,"station_id":"st_d3j3df2ikq2c7380ej80","pricing_plan_id":"cebpf4jnsgd1na2vs0mg"},{"bike_id":"7c7ece0d-72d8-46aa-82bd-e024a849df57","system_id":"levelo_inurba_marseille","lat":43.24947,"lon":5.40488,"is_reserved":false,"is_disabled":false,"rental_uris":{"android":"levelo://app?vid=7c7ece0d-72d8-46aa-82bd-e024a849df57","ios":"levelo://app?vid=7c7ece0d-72d8-46aa-82bd-e024a849df57"},"vehicle_type_id":"4","last_reported":1762110395,"current_range_meters":10000,"station_id":"st_d2ngiaodas8pm72gd1h0","pricing_plan_id":"cebpf4jnsgd1na2vs0mg"},{"bike_id":"c4c5d540-caac-4903-aba8-275aa7fb9054","system_id":"levelo_inurba_marseille","lat":43.26596,"lon":5.39859,"is_reserved":false,"is_disabled":false,"rental_uris":{"android":"levelo://app?vid=c4c5d540-caac-4903-aba8-275aa7fb9054","ios":"levelo://app?vid=c4c5d540-caac-4903-aba8-275aa7fb9054"},"vehicle_type_id":"4","last_reported":1762110395,"current_range_meters":10000,"station_id":"","pricing_plan_id":"cebpf4jnsgd1na2vs0mg"},{"bike_id":"6e1f3060-5bcc-49b9-b4de-5141d705fb3d","system_id":"levelo_inurba_marseille","lat":43.30941,"lon":5.40127,"is_reserved":false,"is_disabled":false,"rental_uris":{"android":"levelo://app?vid=6e1f3060-5bcc-49b9-b4de-5141d705fb3d","ios":"levelo://app?vid=6e1f3060-5bcc-49b9-b4de-5141d705fb3d"},"vehicle_type_id":"4","last_reported":1762110395,"current_range_meters":10000,"station_id":"ce4bgvp2rcd13ifvqct0","pricing_plan_id":"cebpf4jnsgd1na2vs0mg"},{"bike_id":"0e7741a8-906f-4ab7-a68a-77c3e6e5e2da","system_id":"levelo_inurba_marseille","lat":43.241772,"lon":5.396986,"is_reserved":false,"is_disabled":false,"rental_uris":{"android":"levelo://app?vid=0e7741a8-906f-4ab7-a68a-77c3e6e5e2da","ios":"levelo://app?vid=0e7741a8-906f-4ab7-a68a-77c3e6e5e2da"},"vehicle_type_id":"4","last_reported":1762110395,"current_range_meters":10000,"station_id":"ce4bhn12rcd13ifvqgpg","pricing_plan_id":"cebpf4jnsgd1na2vs0mg"},{"bike_id":"3215137c-f236-4cc4-b31c-0996faebebac","system_id":"levelo_inurba_marseille","lat":43.241758,"lon":5.378687,"is_reserved":false,"is_disabled":false,"rental_uris":{"android":"levelo://app?vid=3215137c-f236-4cc4-b31c-0996faebebac","ios":"levelo://app?vid=3215137c-f236-4cc4-b31c-0996faebebac"},"vehicle_type_id":"4","last_reported":1762110395,"current_range_meters":10000,"station_id":"ce4bhnp2rcd13ifvqgvg","pricing_plan_id":"cebpf4jnsgd1na2vs0mg"},{"bike_id":"f91ca58f-300d-4e17-9935-c8d329001979","system_id":"levelo_inurba_marseille","lat":43.28152,"lon":5.42645,"is_reserved":false,"is_disabled":false,"rental_uris":{"android":"levelo://app?vid=f91ca58f-300d-4e17-9935-c8d329001979","ios":"levelo://app?vid=f91ca58f-300d-4e17-9935-c8d329001979"},"vehicle_type_id":"4","last_reported":1762110395,"current_range_meters":10000,"station_id":"ce4bhnh2rcd13ifvqgug","pricing_plan_id":"cebpf4jnsgd1na2vs0mg"},{"bike_id":"4aa010b4-a6e3-4404-8b43-6fcd7ac4c6dd","system_id":"levelo_inurba_marseille","lat":43.29304,"lon":5.37456,"is_reserved":false,"is_disabled":false,"rental_uris":{"android":"levelo://app?vid=4aa010b4-a6e3-4404-8b43-6fcd7ac4c6dd","ios":"levelo://app?vid=4aa010b4-a6e3-4404-8b43-6fcd7ac4c6dd"},"vehicle_type_id":"4","last_reported":1762110395,"current_range_meters":10800,"station_id":"ce4bgi12rcd13ifvqb70","pricing_plan_id":"cebpf4jnsgd1na2vs0mg"},{"bike_id":"6fe8defd-7365-4870-9fd8-a61adc4c20bd","system_id":"levelo_inurba_marseille","lat":43.29877,"lon":5.39729,"is_reserved":false,"is_disabled":true,"rental_uris":{"android":"levelo://app?vid=6fe8defd-7365-4870-9fd8-a61adc4c20bd","ios":"levelo://app?vid=6fe8defd-7365-4870-9fd8-a61adc4c20bd"},"vehicle_type_id":"4","last_reported":1762110395,"current_range_meters":10800,"station_id":"ce4bh0h2rcd13ifvqd50","pricing_plan_id":"cebpf4jnsgd1na2vs0mg"},{"bike_id":"c4f2ef56-a448-4bb1-9320-6136c50246c9","system_id":"levelo_inurba_marseille","lat":43.247991,"lon":5.374495,"is_reserved":false,"is_disabled":true,"rental_uris":{"android":"levelo://app?vid=c4f2ef56-a448-4bb1-9320-6136c50246c9","ios":"levelo://app?vid=c4f2ef56-a448-4bb1-9320-6136c50246c9"},"vehicle_type_id":"4","last_reported":1762110395,"current_range_meters":10800,"station_id":"ce4bhgh2rcd13ifvqfb0","pricing_plan_id":"cebpf4jnsgd1na2vs0mg"},{"bike_id":"41598790-345d-414f-9e87-720cb432f278","system_id":"levelo_inurba_marseille","lat":43.29477,"lon":5.36227,"is_reserved":false,"is_disabled":false,"rental_uris":{"android":"levelo://app?vid=41598790-345d-414f-9e87-720cb432f278","ios":"levelo://app?vid=41598790-345d-414f-9e87-720cb432f278"},"vehicle_type_id":"4","last_reported":1762110395,"current_range_meters":10800,"station_id":"","pricing_plan_id":"cebpf4jnsgd1na2vs0mg"},{"bike_id":"f032dcd8-9da5-4d43-9733-2e1aaa8ea167","system_id":"levelo_inurba_marseille","lat":43.253359,"lon":5.421773,"is_reserved":false,"is_disabled":false,"rental_uris":{"android":"levelo://app?vid=f032dcd8-9da5-4d43-9733-2e1aaa8ea167","ios":"levelo://app?vid=f032dcd8-9da5-4d43-9733-2e1aaa8ea167"},"vehicle_type_id":"4","last_reported":1762110395,"current_range_meters":11200,"station_id":"","pricing_plan_id":"cebpf4jnsgd1na2vs0mg"},{"bike_id":"de0ca7a8-116a-46c8-8c50-6b445a473423","system_id":"levelo_inurba_marseille","lat":43.288625,"lon":5.425306,"is_reserved":false,"is_disabled":false,"rental_uris":{"android":"levelo://app?vid=de0ca7a8-116a-46c8-8c50-6b445a473423","ios":"levelo://app?vid=de0ca7a8-116a-46c8-8c50-6b445a473423"},"vehicle_type_id":"4","last_reported":1762110395,"current_range_meters":11200,"station_id":"st_d3b462108ojc7389ooeg","pricing_plan_id":"cebpf4jnsgd1na2vs0mg"},{"bike_id":"7f4ea1c9-e771-489a-82b2-fae7d0c0a729","system_id":"levelo_inurba_marseille","lat":43.29783,"lon":5.3934,"is_reserved":false,"is_disabled":true,"rental_uris":{"android":"levelo://app?vid=7f4ea1c9-e771-489a-82b2-fae7d0c0a729","ios":"levelo://app?vid=7f4ea1c9-e771-489a-82b2-fae7d0c0a729"},"vehicle_type_id":"4","last_reported":1762110395,"current_range_meters":11200,"station_id":"chh1huq6cuj3fo74tm60","pricing_plan_id":"cebpf4jnsgd1na2vs0mg"},{"bike_id":"84f1bfac-8d21-499b-b8e1-fdc8049e10ac","system_id":"levelo_inurba_marseille","lat":43.312687,"lon":5.377699,"is_reserved":false,"is_disabled":false,"rental_uris":{"android":"levelo://app?vid=84f1bfac-8d21-499b-b8e1-fdc8049e10ac","ios":"levelo://app?vid=84f1bfac-8d21-499b-b8e1-fdc8049e10ac"},"vehicle_type_id":"4","last_reported":1762110395,"current_range_meters":11200,"station_id":"","pricing_plan_id":"cebpf4jnsgd1na2vs0mg"},{"bike_id":"af79d3f1-ea9f-4c0b-9a2d-782b39386671","system_id":"levelo_inurba_marseille","lat":43.21762,"lon":5.34591,"is_reserved":false,"is_disabled":true,"rental_uris":{"android":"levelo://app?vid=af79d3f1-ea9f-4c0b-9a2d-782b39386671","ios":"levelo://app?vid=af79d3f1-ea9f-4c0b-9a2d-782b39386671"},"vehicle_type_id":"4","last_reported":1762110395,"current_range_meters":11200,"station_id":"st_cvj6r9ubvosntc0bgbag","pricing_plan_id":"cebpf4jnsgd1na2vs0mg"},{"bike_id":"0f583a9b-84b4-45e2-a280-f0ff1282968e","system_id":"levelo_inurba_marseille","lat":43.27658,"lon":5.38911,"is_reserved":false,"is_disabled":true,"rental_uris":{"android":"levelo://app?vid=0f583a9b-84b4-45e2-a280-f0ff1282968e","ios":"levelo://app?vid=0f583a9b-84b4-45e2-a280-f0ff1282968e"},"vehicle_type_id":"4","last_reported":1762110395,"current_range_meters":11200,"station_id":"ce4bhi12rcd13ifvqfo0","pricing_plan_id":"cebpf4jnsgd1na2vs0mg"},{"bike_id":"99ad06f3-10f7-4df7-b150-1e793fc38f4c","system_id":"levelo_inurba_marseille","lat":43.3122,"lon":5.36854,"is_reserved":false,"is_disabled":false,"rental_uris":{"android":"levelo://app?vid=99ad06f3-10f7-4df7-b150-1e793fc38f4c","ios":"levelo://app?vid=99ad06f3-10f7-4df7-b150-1e793fc38f4c"},"vehicle_type_id":"4","last_reported":1762110395,"current_range_meters":11200,"station_id":"ce4bgl92rcd13ifvqbq0","pricing_plan_id":"cebpf4jnsgd1na2vs0mg"},{"bike_id":"8fcd260f-16b3-4c1d-9613-2d206079f071","system_id":"levelo_inurba_marseille","lat":43.29601,"lon":5.38661,"is_reserved":false,"is_disabled":false,"rental_uris":{"android":"levelo://app?vid=8fcd260f-16b3-4c1d-9613-2d206079f071","ios":"levelo://app?vid=8fcd260f-16b3-4c1d-9613-2d206079f071"},"vehicle_type_id":"4","last_reported":1762110395,"current_range_meters":11200,"station_id":"","pricing_plan_id":"cebpf4jnsgd1na2vs0mg"},{"bike_id":"da2cc2c7-e93c-44a9-900c-55c5bc9280c8","system_id":"levelo_inurba_marseille","lat":43.22937,"lon":5.35362,"is_reserved":false,"is_disabled":false,"rental_uris":{"android":"levelo://app?vid=da2cc2c7-e93c-44a9-900c-55c5bc9280c8","ios":"levelo://app?vid=da2cc2c7-e93c-44a9-900c-55c5bc9280c8"},"vehicle_type_id":"4","last_reported":1762110395,"current_range_meters":11200,"station_id":"cpo3532slgdg3j2ikp40","pricing_plan_id":"cebpf4jnsgd1na2vs0mg"},{"bike_id":"ba541a52-7e4e-4241-9791-ae6f1fb03dcd","system_id":"levelo_inurba_marseille","lat":43.320043,"lon":5.415947,"is_reserved":false,"is_disabled":false,"rental_uris":{"android":"levelo://app?vid=ba541a52-7e4e-4241-9791-ae6f1fb03dcd","ios":"levelo://app?vid=ba541a52-7e4e-4241-9791-ae6f1fb03dcd"},"vehicle_type_id":"4","last_reported":1762110395,"current_range_meters":11200,"station_id":"","pricing_plan_id":"cebpf4jnsgd1na2vs0mg"},{"bike_id":"e202eee5-6b7d-4d76-8132-ef92c43a3915","system_id":"levelo_inurba_marseille","lat":43.30097,"lon":5.39078,"is_reserved":false,"is_disabled":false,"rental_uris":{"android":"levelo://app?vid=e202eee5-6b7d-4d76-8132-ef92c43a3915","ios":"levelo://app?vid=e202eee5-6b7d-4d76-8132-ef92c43a3915"},"vehicle_type_id":"4","last_reported":1762110395,"current_range_meters":11600,"station_id":"ce4bh192rcd13ifvqdb0","pricing_plan_id":"cebpf4jnsgd1na2vs0mg"},{"bike_id":"d87e8435-a903-4228-b33e-bd6d66e6673b","system_id":"levelo_inurba_marseille","lat":43.2465,"lon":5.43116,"is_reserved":false,"is_disabled":false,"rental_uris":{"android":"levelo://app?vid=d87e8435-a903-4228-b33e-bd6d66e6673b","ios":"levelo://app?vid=d87e8435-a903-4228-b33e-bd6d66e6673b"},"vehicle_type_id":"4","last_reported":1762110395,"current_range_meters":11600,"station_id":"st_d2m6c4gdas8pm72e190g","pricing_plan_id":"cebpf4jnsgd1na2vs0mg"},{"bike_id":"26451360-c1c8-464f-a7bf-bc2a31850d65","system_id":"levelo_inurba_marseille","lat":43.22534,"lon":5.34836,"is_reserved":false,"is_disabled":false,"rental_uris":{"android":"levelo://app?vid=26451360-c1c8-464f-a7bf-bc2a31850d65","ios":"levelo://app?vid=26451360-c1c8-464f-a7bf-bc2a31850d65"},"vehicle_type_id":"4","last_reported":1762110395,"current_range_meters":12000,"station_id":"","pricing_plan_id":"cebpf4jnsgd1na2vs0mg"},{"bike_id":"ebf85bdb-1a2b-49af-a88d-03e90d4c31b8","system_id":"levelo_inurba_marseille","lat":43.23945,"lon":5.3664,"is_reserved":false,"is_disabled":true,"rental_uris":{"android":"levelo://app?vid=ebf85bdb-1a2b-49af-a88d-03e90d4c31b8","ios":"levelo://app?vid=ebf85bdb-1a2b-49af-a88d-03e90d4c31b8"},"vehicle_type_id":"4","last_reported":1762110395,"current_range_meters":12000,"station_id":"ce4bhi12rcd13ifvqfp0","pricing_plan_id":"cebpf4jnsgd1na2vs0mg"},{"bike_id":"77679107-31f6-4769-888c-bfa8b6d2bccd","system_id":"levelo_inurba_marseille","lat":43.28858,"lon":5.42527,"is_reserved":false,"is_disabled":false,"rental_uris":{"android":"levelo://app?vid=77679107-31f6-4769-888c-bfa8b6d2bccd","ios":"levelo://app?vid=77679107-31f6-4769-888c-bfa8b6d2bccd"},"vehicle_type_id":"4","last_reported":1762110395,"current_range_meters":12000,"station_id":"st_d3b462108ojc7389ooeg","pricing_plan_id":"cebpf4jnsgd1na2vs0mg"},{"bike_id":"8adef542-af60-4b61-8a5b-4b604c3bcfe4","system_id":"levelo_inurba_marseille","lat":43.2464,"lon":5.431479,"is_reserved":false,"is_disabled":false,"rental_uris":{"android":"levelo://app?vid=8adef542-af60-4b61-8a5b-4b604c3bcfe4","ios":"levelo://app?vid=8adef542-af60-4b61-8a5b-4b604c3bcfe4"},"vehicle_type_id":"4","last_reported":1762110395,"current_range_meters":12000,"station_id":"st_d2m6c4gdas8pm72e190g","pricing_plan_id":"cebpf4jnsgd1na2vs0mg"},{"bike_id":"43e3ecd1-898f-4108-bf4a-8945c9c88541","system_id":"levelo_inurba_marseille","lat":43.28023,"lon":5.36948,"is_reserved":false,"is_disabled":false,"rental_uris":{"android":"levelo://app?vid=43e3ecd1-898f-4108-bf4a-8945c9c88541","ios":"levelo://app?vid=43e3ecd1-898f-4108-bf4a-8945c9c88541"},"vehicle_type_id":"4","last_reported":1762110395,"current_range_meters":12000,"station_id":"ce4bha12rcd13ifvqef0","pricing_plan_id":"cebpf4jnsgd1na2vs0mg"},{"bike_id":"47481a7f-1ce2-4f44-b88d-ce69ffa7731c","system_id":"levelo_inurba_marseille","lat":43.27956,"lon":5.41042,"is_reserved":false,"is_disabled":false,"rental_uris":{"android":"levelo://app?vid=47481a7f-1ce2-4f44-b88d-ce69ffa7731c","ios":"levelo://app?vid=47481a7f-1ce2-4f44-b88d-ce69ffa7731c"},"vehicle_type_id":"4","last_reported":1762110395,"current_range_meters":12000,"station_id":"ce4bhnp2rcd13ifvqh0g","pricing_plan_id":"cebpf4jnsgd1na2vs0mg"},{"bike_id":"bebae95e-1e51-4e89-9f8b-f413cb5a56ac","system_id":"levelo_inurba_marseille","lat":43.27371,"lon":5.3626,"is_reserved":false,"is_disabled":false,"rental_uris":{"android":"levelo://app?vid=bebae95e-1e51-4e89-9f8b-f413cb5a56ac","ios":"levelo://app?vid=bebae95e-1e51-4e89-9f8b-f413cb5a56ac"},"vehicle_type_id":"4","last_reported":1762110395,"current_range_meters":12000,"station_id":"ce4bhbh2rcd13ifvqeo0","pricing_plan_id":"cebpf4jnsgd1na2vs0mg"},{"bike_id":"09a91cc4-b4ab-428e-8b44-699a2c8bf38b","system_id":"levelo_inurba_marseille","lat":43.30933,"lon":5.40138,"is_reserved":false,"is_disabled":false,"rental_uris":{"android":"levelo://app?vid=09a91cc4-b4ab-428e-8b44-699a2c8bf38b","ios":"levelo://app?vid=09a91cc4-b4ab-428e-8b44-699a2c8bf38b"},"vehicle_type_id":"4","last_reported":1762110395,"current_range_meters":12000,"station_id":"ce4bgvp2rcd13ifvqct0","pricing_plan_id":"cebpf4jnsgd1na2vs0mg"},{"bike_id":"8f195238-61fb-4b99-ab1e-f7025bbd6d81","system_id":"levelo_inurba_marseille","lat":43.24078,"lon":5.37754,"is_reserved":false,"is_disabled":false,"rental_uris":{"android":"levelo://app?vid=8f195238-61fb-4b99-ab1e-f7025bbd6d81","ios":"levelo://app?vid=8f195238-61fb-4b99-ab1e-f7025bbd6d81"},"vehicle_type_id":"4","last_reported":1762110395,"current_range_meters":12400,"station_id":"ce4bhnp2rcd13ifvqgvg","pricing_plan_id":"cebpf4jnsgd1na2vs0mg"},{"bike_id":"079d2352-ba60-4c63-b7a4-6ec0ccf76dcc","system_id":"levelo_inurba_marseille","lat":43.25727,"lon":5.41067,"is_reserved":false,"is_disabled":false,"rental_uris":{"android":"levelo://app?vid=079d2352-ba60-4c63-b7a4-6ec0ccf76dcc","ios":"levelo://app?vid=079d2352-ba60-4c63-b7a4-6ec0ccf76dcc"},"vehicle_type_id":"4","last_reported":1762110395,"current_range_meters":12400,"station_id":"ce4bhkp2rcd13ifvqgd0","pricing_plan_id":"cebpf4jnsgd1na2vs0mg"},{"bike_id":"8f71930c-c20a-48d0-b7bf-91516b48ea54","system_id":"levelo_inurba_marseille","lat":43.30138,"lon":5.38776,"is_reserved":false,"is_disabled":false,"rental_uris":{"android":"levelo://app?vid=8f71930c-c20a-48d0-b7bf-91516b48ea54","ios":"levelo://app?vid=8f71930c-c20a-48d0-b7bf-91516b48ea54"},"vehicle_type_id":"4","last_reported":1762110395,"current_range_meters":12400,"station_id":"ce4bghh2rcd13ifvqb60","pricing_plan_id":"cebpf4jnsgd1na2vs0mg"},{"bike_id":"8f37d7b9-05da-4937-8327-280e878574fe","system_id":"levelo_inurba_marseille","lat":43.30423,"lon":5.397558,"is_reserved":false,"is_disabled":true,"rental_uris":{"android":"levelo://app?vid=8f37d7b9-05da-4937-8327-280e878574fe","ios":"levelo://app?vid=8f37d7b9-05da-4937-8327-280e878574fe"},"vehicle_type_id":"4","last_reported":1762110395,"current_range_meters":12400,"station_id":"","pricing_plan_id":"cebpf4jnsgd1na2vs0mg"},{"bike_id":"6a599560-1868-4048-a5b7-d6d721742c3f","system_id":"levelo_inurba_marseille","lat":43.28409,"lon":5.37514,"is_reserved":false,"is_disabled":false,"rental_uris":{"android":"levelo://app?vid=6a599560-1868-4048-a5b7-d6d721742c3f","ios":"levelo://app?vid=6a599560-1868-4048-a5b7-d6d721742c3f"},"vehicle_type_id":"4","last_reported":1762110395,"current_range_meters":12400,"station_id":"ce4bh412rcd13ifvqds0","pricing_plan_id":"cebpf4jnsgd1na2vs0mg"},{"bike_id":"a2cea255-6e6c-410c-9f4c-f6bf18cdc7fd","system_id":"levelo_inurba_marseille","lat":43.290316,"lon":5.386522,"is_reserved":false,"is_disabled":false,"rental_uris":{"android":"levelo://app?vid=a2cea255-6e6c-410c-9f4c-f6bf18cdc7fd","ios":"levelo://app?vid=a2cea255-6e6c-410c-9f4c-f6bf18cdc7fd"},"vehicle_type_id":"4","last_reported":1762110395,"current_range_meters":12400,"station_id":"","pricing_plan_id":"cebpf4jnsgd1na2vs0mg"},{"bike_id":"14b92a7a-0805-475a-abfd-8c979184b42b","system_id":"levelo_inurba_marseille","lat":43.31002,"lon":5.37004,"is_reserved":false,"is_disabled":false,"rental_uris":{"android":"levelo://app?vid=14b92a7a-0805-475a-abfd-8c979184b42b","ios":"levelo://app?vid=14b92a7a-0805-475a-abfd-8c979184b42b"},"vehicle_type_id":"4","last_reported":1762110395,"current_range_meters":12800,"station_id":"","pricing_plan_id":"cebpf4jnsgd1na2vs0mg"},{"bike_id":"25b8b9c6-92a5-43d3-8767-0700e7c7de1c","system_id":"levelo_inurba_marseille","lat":43.33764,"lon":5.37343,"is_reserved":false,"is_disabled":false,"rental_uris":{"android":"levelo://app?vid=25b8b9c6-92a5-43d3-8767-0700e7c7de1c","ios":"levelo://app?vid=25b8b9c6-92a5-43d3-8767-0700e7c7de1c"},"vehicle_type_id":"4","last_reported":1762110395,"current_range_meters":12800,"station_id":"","pricing_plan_id":"cebpf4jnsgd1na2vs0mg"},{"bike_id":"066ede02-47a2-4c83-bcb1-7eb633a370fb","system_id":"levelo_inurba_marseille","lat":43.3127,"lon":5.37757,"is_reserved":false,"is_disabled":false,"rental_uris":{"android":"levelo://app?vid=066ede02-47a2-4c83-bcb1-7eb633a370fb","ios":"levelo://app?vid=066ede02-47a2-4c83-bcb1-7eb633a370fb"},"vehicle_type_id":"4","last_reported":1762110395,"current_range_meters":13600,"station_id":"","pricing_plan_id":"cebpf4jnsgd1na2vs0mg"},{"bike_id":"423802bb-722e-4533-9018-c0f75cce34a6","system_id":"levelo_inurba_marseille","lat":43.30657,"lon":5.38184,"is_reserved":false,"is_disabled":false,"rental_uris":{"android":"levelo://app?vid=423802bb-722e-4533-9018-c0f75cce34a6","ios":"levelo://app?vid=423802bb-722e-4533-9018-c0f75cce34a6"},"vehicle_type_id":"4","last_reported":1762110395,"current_range_meters":13600,"station_id":"","pricing_plan_id":"cebpf4jnsgd1na2vs0mg"},{"bike_id":"9a8800fa-24be-4848-a250-19e32415acb4","system_id":"levelo_inurba_marseille","lat":43.21207,"lon":5.35032,"is_reserved":false,"is_disabled":false,"rental_uris":{"android":"levelo://app?vid=9a8800fa-24be-4848-a250-19e32415acb4","ios":"levelo://app?vid=9a8800fa-24be-4848-a250-19e32415acb4"},"vehicle_type_id":"4","last_reported":1762110395,"current_range_meters":13600,"station_id":"","pricing_plan_id":"cebpf4jnsgd1na2vs0mg"},{"bike_id":"41a0e05b-05bf-4f74-92d2-741c85fb6fe4","system_id":"levelo_inurba_marseille","lat":43.25532,"lon":5.37647,"is_reserved":false,"is_disabled":true,"rental_uris":{"android":"levelo://app?vid=41a0e05b-05bf-4f74-92d2-741c85fb6fe4","ios":"levelo://app?vid=41a0e05b-05bf-4f74-92d2-741c85fb6fe4"},"vehicle_type_id":"4","last_reported":1762110395,"current_range_meters":13600,"station_id":"ce4bhh12rcd13ifvqff0","pricing_plan_id":"cebpf4jnsgd1na2vs0mg"},{"bike_id":"aad6a064-c048-4ba9-a156-1745b89548aa","system_id":"levelo_inurba_marseille","lat":43.283098,"lon":5.411009,"is_reserved":false,"is_disabled":false,"rental_uris":{"android":"levelo://app?vid=aad6a064-c048-4ba9-a156-1745b89548aa","ios":"levelo://app?vid=aad6a064-c048-4ba9-a156-1745b89548aa"},"vehicle_type_id":"4","last_reported":1762110395,"current_range_meters":13600,"station_id":"","pricing_plan_id":"cebpf4jnsgd1na2vs0mg"},{"bike_id":"098d7ae5-5b2b-4d49-ad2f-d14f29937957","system_id":"levelo_inurba_marseille","lat":43.289669,"lon":5.378348,"is_reserved":false,"is_disabled":true,"rental_uris":{"android":"levelo://app?vid=098d7ae5-5b2b-4d49-ad2f-d14f29937957","ios":"levelo://app?vid=098d7ae5-5b2b-4d49-ad2f-d14f29937957"},"vehicle_type_id":"4","last_reported":1762110395,"current_range_meters":13600,"station_id":"ce4bh9p2rcd13ifvqed0","pricing_plan_id":"cebpf4jnsgd1na2vs0mg"},{"bike_id":"2ff20ab9-b52b-4e51-beea-738711729e0e","system_id":"levelo_inurba_marseille","lat":43.21199,"lon":5.3507,"is_reserved":false,"is_disabled":false,"rental_uris":{"android":"levelo://app?vid=2ff20ab9-b52b-4e51-beea-738711729e0e","ios":"levelo://app?vid=2ff20ab9-b52b-4e51-beea-738711729e0e"},"vehicle_type_id":"4","last_reported":1762110395,"current_range_meters":13600,"station_id":"st_cvj6sg6p6f1abm77japg","pricing_plan_id":"cebpf4jnsgd1na2vs0mg"},{"bike_id":"db9fdf1a-9d54-4439-88d6-3b1d7a820920","system_id":"levelo_inurba_marseille","lat":43.30932,"lon":5.40137,"is_reserved":false,"is_disabled":false,"rental_uris":{"android":"levelo://app?vid=db9fdf1a-9d54-4439-88d6-3b1d7a820920","ios":"levelo://app?vid=db9fdf1a-9d54-4439-88d6-3b1d7a820920"},"vehicle_type_id":"4","last_reported":1762110395,"current_range_meters":13600,"station_id":"ce4bgvp2rcd13ifvqct0","pricing_plan_id":"cebpf4jnsgd1na2vs0mg"},{"bike_id":"b53ff486-849c-4668-84f1-30d27196f827","system_id":"levelo_inurba_marseille","lat":43.2841,"lon":5.37502,"is_reserved":false,"is_disabled":true,"rental_uris":{"android":"levelo://app?vid=b53ff486-849c-4668-84f1-30d27196f827","ios":"levelo://app?vid=b53ff486-849c-4668-84f1-30d27196f827"},"vehicle_type_id":"4","last_reported":1762110395,"current_range_meters":14000,"station_id":"ce4bh412rcd13ifvqds0","pricing_plan_id":"cebpf4jnsgd1na2vs0mg"},{"bike_id":"aef75ae5-d606-43b6-8ba5-d53a35c16de5","system_id":"levelo_inurba_marseille","lat":43.27443,"lon":5.39405,"is_reserved":false,"is_disabled":true,"rental_uris":{"android":"levelo://app?vid=aef75ae5-d606-43b6-8ba5-d53a35c16de5","ios":"levelo://app?vid=aef75ae5-d606-43b6-8ba5-d53a35c16de5"},"vehicle_type_id":"4","last_reported":1762110395,"current_range_meters":14000,"station_id":"ce4bhdp2rcd13ifvqf20","pricing_plan_id":"cebpf4jnsgd1na2vs0mg"},{"bike_id":"f5752451-b4c6-42b7-aeae-3bb4d7f3e01c","system_id":"levelo_inurba_marseille","lat":43.302575,"lon":5.400747,"is_reserved":false,"is_disabled":false,"rental_uris":{"android":"levelo://app?vid=f5752451-b4c6-42b7-aeae-3bb4d7f3e01c","ios":"levelo://app?vid=f5752451-b4c6-42b7-aeae-3bb4d7f3e01c"},"vehicle_type_id":"4","last_reported":1762110395,"current_range_meters":14000,"station_id":"ce4bgvh2rcd13ifvqcs0","pricing_plan_id":"cebpf4jnsgd1na2vs0mg"},{"bike_id":"01d2b4b8-457a-4e2c-ae8d-0c42fa5f9d99","system_id":"levelo_inurba_marseille","lat":43.28111,"lon":5.37848,"is_reserved":false,"is_disabled":false,"rental_uris":{"android":"levelo://app?vid=01d2b4b8-457a-4e2c-ae8d-0c42fa5f9d99","ios":"levelo://app?vid=01d2b4b8-457a-4e2c-ae8d-0c42fa5f9d99"},"vehicle_type_id":"4","last_reported":1762110395,"current_range_meters":14000,"station_id":"ce4bha12rcd13ifvqee0","pricing_plan_id":"cebpf4jnsgd1na2vs0mg"},{"bike_id":"defdb3c1-03e5-4111-85e3-0fcf6a4154b6","system_id":"levelo_inurba_marseille","lat":43.28462,"lon":5.38417,"is_reserved":false,"is_disabled":true,"rental_uris":{"android":"levelo://app?vid=defdb3c1-03e5-4111-85e3-0fcf6a4154b6","ios":"levelo://app?vid=defdb3c1-03e5-4111-85e3-0fcf6a4154b6"},"vehicle_type_id":"4","last_reported":1762110395,"current_range_meters":14000,"station_id":"ce4bh512rcd13ifvqe3g","pricing_plan_id":"cebpf4jnsgd1na2vs0mg"},{"bike_id":"c1d16fdc-11d5-4bd5-971c-57ede0ef4ac2","system_id":"levelo_inurba_marseille","lat":43.24074,"lon":5.37728,"is_reserved":false,"is_disabled":false,"rental_uris":{"android":"levelo://app?vid=c1d16fdc-11d5-4bd5-971c-57ede0ef4ac2","ios":"levelo://app?vid=c1d16fdc-11d5-4bd5-971c-57ede0ef4ac2"},"vehicle_type_id":"4","last_reported":1762110395,"current_range_meters":14000,"station_id":"ce4bhnp2rcd13ifvqgvg","pricing_plan_id":"cebpf4jnsgd1na2vs0mg"},{"bike_id":"55995f4c-7bf8-4711-854d-49679f6f09ae","system_id":"levelo_inurba_marseille","lat":43.292025,"lon":5.393312,"is_reserved":false,"is_disabled":false,"rental_uris":{"android":"levelo://app?vid=55995f4c-7bf8-4711-854d-49679f6f09ae","ios":"levelo://app?vid=55995f4c-7bf8-4711-854d-49679f6f09ae"},"vehicle_type_id":"4","last_reported":1762110395,"current_range_meters":14400,"station_id":"ce4bh192rcd13ifvqdd0","pricing_plan_id":"cebpf4jnsgd1na2vs0mg"},{"bike_id":"1c7e9560-2754-4a88-b1cb-cdee38fc1289","system_id":"levelo_inurba_marseille","lat":43.26945,"lon":5.40266,"is_reserved":false,"is_disabled":true,"rental_uris":{"android":"levelo://app?vid=1c7e9560-2754-4a88-b1cb-cdee38fc1289","ios":"levelo://app?vid=1c7e9560-2754-4a88-b1cb-cdee38fc1289"},"vehicle_type_id":"4","last_reported":1762110395,"current_range_meters":14400,"station_id":"cjm6bp8fraef2m0cb0m0","pricing_plan_id":"cebpf4jnsgd1na2vs0mg"},{"bike_id":"1935b476-791e-4766-ad44-49d8bd1202ff","system_id":"levelo_inurba_marseille","lat":43.29255,"lon":5.38426,"is_reserved":false,"is_disabled":false,"rental_uris":{"android":"levelo://app?vid=1935b476-791e-4766-ad44-49d8bd1202ff","ios":"levelo://app?vid=1935b476-791e-4766-ad44-49d8bd1202ff"},"vehicle_type_id":"4","last_reported":1762110395,"current_range_meters":14400,"station_id":"ce4bh692rcd13ifvqea0","pricing_plan_id":"cebpf4jnsgd1na2vs0mg"},{"bike_id":"fe2272ea-7316-4280-b90c-d8c4db7bc73e","system_id":"levelo_inurba_marseille","lat":43.27973,"lon":5.39305,"is_reserved":false,"is_disabled":false,"rental_uris":{"android":"levelo://app?vid=fe2272ea-7316-4280-b90c-d8c4db7bc73e","ios":"levelo://app?vid=fe2272ea-7316-4280-b90c-d8c4db7bc73e"},"vehicle_type_id":"4","last_reported":1762110395,"current_range_meters":14400,"station_id":"","pricing_plan_id":"cebpf4jnsgd1na2vs0mg"},{"bike_id":"e445a356-a1bc-442a-8b4c-85422c1261bd","system_id":"levelo_inurba_marseille","lat":43.244636,"lon":5.427336,"is_reserved":false,"is_disabled":false,"rental_uris":{"android":"levelo://app?vid=e445a356-a1bc-442a-8b4c-85422c1261bd","ios":"levelo://app?vid=e445a356-a1bc-442a-8b4c-85422c1261bd"},"vehicle_type_id":"4","last_reported":1762110395,"current_range_meters":14400,"station_id":"","pricing_plan_id":"cebpf4jnsgd1na2vs0mg"},{"bike_id":"02ab0480-1393-487e-95a2-314141ae01bf","system_id":"levelo_inurba_marseille","lat":43.28167,"lon":5.42639,"is_reserved":false,"is_disabled":false,"rental_uris":{"android":"levelo://app?vid=02ab0480-1393-487e-95a2-314141ae01bf","ios":"levelo://app?vid=02ab0480-1393-487e-95a2-314141ae01bf"},"vehicle_type_id":"4","last_reported":1762110395,"current_range_meters":14800,"station_id":"ce4bhnh2rcd13ifvqgug","pricing_plan_id":"cebpf4jnsgd1na2vs0mg"},{"bike_id":"be50ec00-a3aa-401c-a69c-3ab79009158b","system_id":"levelo_inurba_marseille","lat":43.2977,"lon":5.37673,"is_reserved":false,"is_disabled":false,"rental_uris":{"android":"levelo://app?vid=be50ec00-a3aa-401c-a69c-3ab79009158b","ios":"levelo://app?vid=be50ec00-a3aa-401c-a69c-3ab79009158b"},"vehicle_type_id":"4","last_reported":1762110395,"current_range_meters":14800,"station_id":"","pricing_plan_id":"cebpf4jnsgd1na2vs0mg"},{"bike_id":"82be859b-7f27-43e5-953f-37856e5d9bdb","system_id":"levelo_inurba_marseille","lat":43.25722,"lon":5.41108,"is_reserved":false,"is_disabled":false,"rental_uris":{"android":"levelo://app?vid=82be859b-7f27-43e5-953f-37856e5d9bdb","ios":"levelo://app?vid=82be859b-7f27-43e5-953f-37856e5d9bdb"},"vehicle_type_id":"4","last_reported":1762110395,"current_range_meters":14800,"station_id":"ce4bhkp2rcd13ifvqgd0","pricing_plan_id":"cebpf4jnsgd1na2vs0mg"},{"bike_id":"85d8043d-b929-43f8-9188-ad421047c360","system_id":"levelo_inurba_marseille","lat":43.253395,"lon":5.421694,"is_reserved":false,"is_disabled":false,"rental_uris":{"android":"levelo://app?vid=85d8043d-b929-43f8-9188-ad421047c360","ios":"levelo://app?vid=85d8043d-b929-43f8-9188-ad421047c360"},"vehicle_type_id":"4","last_reported":1762110395,"current_range_meters":14800,"station_id":"st_d2m65c5bi1j21697t3ng","pricing_plan_id":"cebpf4jnsgd1na2vs0mg"},{"bike_id":"c6168c60-d52b-4953-a44c-924307c69abb","system_id":"levelo_inurba_marseille","lat":43.31986,"lon":5.38162,"is_reserved":false,"is_disabled":false,"rental_uris":{"android":"levelo://app?vid=c6168c60-d52b-4953-a44c-924307c69abb","ios":"levelo://app?vid=c6168c60-d52b-4953-a44c-924307c69abb"},"vehicle_type_id":"4","last_reported":1762110395,"current_range_meters":14800,"station_id":"ce4bhr12rcd13ifvqhpg","pricing_plan_id":"cebpf4jnsgd1na2vs0mg"},{"bike_id":"fdf57937-f062-4aa1-bf95-8a663ff37031","system_id":"levelo_inurba_marseille","lat":43.2926,"lon":5.38441,"is_reserved":false,"is_disabled":false,"rental_uris":{"android":"levelo://app?vid=fdf57937-f062-4aa1-bf95-8a663ff37031","ios":"levelo://app?vid=fdf57937-f062-4aa1-bf95-8a663ff37031"},"vehicle_type_id":"4","last_reported":1762110395,"current_range_meters":14800,"station_id":"ce4bh692rcd13ifvqea0","pricing_plan_id":"cebpf4jnsgd1na2vs0mg"},{"bike_id":"af4f7b47-7d8e-4840-b717-1f79462c0609","system_id":"levelo_inurba_marseille","lat":43.29788,"lon":5.37857,"is_reserved":false,"is_disabled":false,"rental_uris":{"android":"levelo://app?vid=af4f7b47-7d8e-4840-b717-1f79462c0609","ios":"levelo://app?vid=af4f7b47-7d8e-4840-b717-1f79462c0609"},"vehicle_type_id":"4","last_reported":1762110395,"current_range_meters":14800,"station_id":"","pricing_plan_id":"cebpf4jnsgd1na2vs0mg"},{"bike_id":"6dbae8fb-b558-4de5-931e-260b80081062","system_id":"levelo_inurba_marseille","lat":43.29918,"lon":5.43642,"is_reserved":false,"is_disabled":false,"rental_uris":{"android":"levelo://app?vid=6dbae8fb-b558-4de5-931e-260b80081062","ios":"levelo://app?vid=6dbae8fb-b558-4de5-931e-260b80081062"},"vehicle_type_id":"4","last_reported":1762110395,"current_range_meters":14800,"station_id":"ce4bhpp2rcd13ifvqhfg","pricing_plan_id":"cebpf4jnsgd1na2vs0mg"},{"bike_id":"6eb523a4-350d-4959-ac5e-1335d8f70954","system_id":"levelo_inurba_marseille","lat":43.315717,"lon":5.406423,"is_reserved":false,"is_disabled":false,"rental_uris":{"android":"levelo://app?vid=6eb523a4-350d-4959-ac5e-1335d8f70954","ios":"levelo://app?vid=6eb523a4-350d-4959-ac5e-1335d8f70954"},"vehicle_type_id":"4","last_reported":1762110395,"current_range_meters":14800,"station_id":"","pricing_plan_id":"cebpf4jnsgd1na2vs0mg"},{"bike_id":"62f9cf62-5d06-4dd6-b282-7b747589a777","system_id":"levelo_inurba_marseille","lat":43.28731,"lon":5.39992,"is_reserved":false,"is_disabled":true,"rental_uris":{"android":"levelo://app?vid=62f9cf62-5d06-4dd6-b282-7b747589a777","ios":"levelo://app?vid=62f9cf62-5d06-4dd6-b282-7b747589a777"},"vehicle_type_id":"4","last_reported":1762110395,"current_range_meters":14800,"station_id":"ce4bho92rcd13ifvqh3g","pricing_plan_id":"cebpf4jnsgd1na2vs0mg"},{"bike_id":"32f39dc2-4120-495e-9bb9-44e54fe36d38","system_id":"levelo_inurba_marseille","lat":43.293682,"lon":5.378506,"is_reserved":false,"is_disabled":false,"rental_uris":{"android":"levelo://app?vid=32f39dc2-4120-495e-9bb9-44e54fe36d38","ios":"levelo://app?vid=32f39dc2-4120-495e-9bb9-44e54fe36d38"},"vehicle_type_id":"4","last_reported":1762110395,"current_range_meters":14800,"station_id":"ce4bgjh2rcd13ifvqbf0","pricing_plan_id":"cebpf4jnsgd1na2vs0mg"},{"bike_id":"7cba3efd-c187-49cb-ac3e-0ed784ba8d60","system_id":"levelo_inurba_marseille","lat":43.30314,"lon":5.369,"is_reserved":false,"is_disabled":false,"rental_uris":{"android":"levelo://app?vid=7cba3efd-c187-49cb-ac3e-0ed784ba8d60","ios":"levelo://app?vid=7cba3efd-c187-49cb-ac3e-0ed784ba8d60"},"vehicle_type_id":"4","last_reported":1762110395,"current_range_meters":14800,"station_id":"ce4bgqh2rcd13ifvqc5g","pricing_plan_id":"cebpf4jnsgd1na2vs0mg"},{"bike_id":"825657ab-0ace-437f-b4ef-8d1a13356869","system_id":"levelo_inurba_marseille","lat":43.31481,"lon":5.37295,"is_reserved":false,"is_disabled":false,"rental_uris":{"android":"levelo://app?vid=825657ab-0ace-437f-b4ef-8d1a13356869","ios":"levelo://app?vid=825657ab-0ace-437f-b4ef-8d1a13356869"},"vehicle_type_id":"4","last_reported":1762110395,"current_range_meters":14800,"station_id":"ce4bgt12rcd13ifvqcd0","pricing_plan_id":"cebpf4jnsgd1na2vs0mg"},{"bike_id":"15ce7f19-11bd-488f-be5c-246e24181052","system_id":"levelo_inurba_marseille","lat":43.27989,"lon":5.41676,"is_reserved":false,"is_disabled":false,"rental_uris":{"android":"levelo://app?vid=15ce7f19-11bd-488f-be5c-246e24181052","ios":"levelo://app?vid=15ce7f19-11bd-488f-be5c-246e24181052"},"vehicle_type_id":"4","last_reported":1762110395,"current_range_meters":15200,"station_id":"ce4bho12rcd13ifvqh1g","pricing_plan_id":"cebpf4jnsgd1na2vs0mg"},{"bike_id":"76f05baa-3bab-4e8f-87a9-a2b43b3f81e8","system_id":"levelo_inurba_marseille","lat":43.29251,"lon":5.37613,"is_reserved":false,"is_disabled":false,"rental_uris":{"android":"levelo://app?vid=76f05baa-3bab-4e8f-87a9-a2b43b3f81e8","ios":"levelo://app?vid=76f05baa-3bab-4e8f-87a9-a2b43b3f81e8"},"vehicle_type_id":"4","last_reported":1762110395,"current_range_meters":15200,"station_id":"ce4bgi12rcd13ifvqb80","pricing_plan_id":"cebpf4jnsgd1na2vs0mg"},{"bike_id":"13a51692-bb03-4699-88e9-a5878c7ea667","system_id":"levelo_inurba_marseille","lat":43.29109,"lon":5.38152,"is_reserved":false,"is_disabled":false,"rental_uris":{"android":"levelo://app?vid=13a51692-bb03-4699-88e9-a5878c7ea667","ios":"levelo://app?vid=13a51692-bb03-4699-88e9-a5878c7ea667"},"vehicle_type_id":"4","last_reported":1762110395,"current_range_meters":15200,"station_id":"ce4bh512rcd13ifvqe2g","pricing_plan_id":"cebpf4jnsgd1na2vs0mg"},{"bike_id":"aa56963e-5f6a-4043-b1c7-23e4d9f05d8c","system_id":"levelo_inurba_marseille","lat":43.313499,"lon":5.379119,"is_reserved":false,"is_disabled":false,"rental_uris":{"android":"levelo://app?vid=aa56963e-5f6a-4043-b1c7-23e4d9f05d8c","ios":"levelo://app?vid=aa56963e-5f6a-4043-b1c7-23e4d9f05d8c"},"vehicle_type_id":"4","last_reported":1762110395,"current_range_meters":15200,"station_id":"","pricing_plan_id":"cebpf4jnsgd1na2vs0mg"},{"bike_id":"6e37efd6-0aa0-4894-90c9-7822ba62366a","system_id":"levelo_inurba_marseille","lat":43.312756,"lon":5.401677,"is_reserved":false,"is_disabled":false,"rental_uris":{"android":"levelo://app?vid=6e37efd6-0aa0-4894-90c9-7822ba62366a","ios":"levelo://app?vid=6e37efd6-0aa0-4894-90c9-7822ba62366a"},"vehicle_type_id":"4","last_reported":1762110395,"current_range_meters":15200,"station_id":"ce4bh092rcd13ifvqd30","pricing_plan_id":"cebpf4jnsgd1na2vs0mg"},{"bike_id":"0a54d18f-fe43-4be5-a009-461a89594788","system_id":"levelo_inurba_marseille","lat":43.28282,"lon":5.35053,"is_reserved":false,"is_disabled":true,"rental_uris":{"android":"levelo://app?vid=0a54d18f-fe43-4be5-a009-461a89594788","ios":"levelo://app?vid=0a54d18f-fe43-4be5-a009-461a89594788"},"vehicle_type_id":"4","last_reported":1762110395,"current_range_meters":16000,"station_id":"ce4bhbp2rcd13ifvqerg","pricing_plan_id":"cebpf4jnsgd1na2vs0mg"},{"bike_id":"24905811-f9ad-494d-8e18-ca5626363886","system_id":"levelo_inurba_marseille","lat":43.27917,"lon":5.39573,"is_reserved":false,"is_disabled":false,"rental_uris":{"android":"levelo://app?vid=24905811-f9ad-494d-8e18-ca5626363886","ios":"levelo://app?vid=24905811-f9ad-494d-8e18-ca5626363886"},"vehicle_type_id":"4","last_reported":1762110395,"current_range_meters":16000,"station_id":"ce4bhf92rcd13ifvqf40","pricing_plan_id":"cebpf4jnsgd1na2vs0mg"},{"bike_id":"65959e76-2dec-43d3-b15c-b4e7433182fd","system_id":"levelo_inurba_marseille","lat":43.293631,"lon":5.371955,"is_reserved":false,"is_disabled":false,"rental_uris":{"android":"levelo://app?vid=65959e76-2dec-43d3-b15c-b4e7433182fd","ios":"levelo://app?vid=65959e76-2dec-43d3-b15c-b4e7433182fd"},"vehicle_type_id":"4","last_reported":1762110395,"current_range_meters":16000,"station_id":"","pricing_plan_id":"cebpf4jnsgd1na2vs0mg"},{"bike_id":"f10c1fd0-819c-4bcb-a779-837cb537741a","system_id":"levelo_inurba_marseille","lat":43.29486,"lon":5.37466,"is_reserved":false,"is_disabled":false,"rental_uris":{"android":"levelo://app?vid=f10c1fd0-819c-4bcb-a779-837cb537741a","ios":"levelo://app?vid=f10c1fd0-819c-4bcb-a779-837cb537741a"},"vehicle_type_id":"4","last_reported":1762110395,"current_range_meters":16000,"station_id":"","pricing_plan_id":"cebpf4jnsgd1na2vs0mg"},{"bike_id":"67e62bdb-273a-46c4-9e3b-4c9a587a74df","system_id":"levelo_inurba_marseille","lat":43.279923,"lon":5.416647,"is_reserved":false,"is_disabled":false,"rental_uris":{"android":"levelo://app?vid=67e62bdb-273a-46c4-9e3b-4c9a587a74df","ios":"levelo://app?vid=67e62bdb-273a-46c4-9e3b-4c9a587a74df"},"vehicle_type_id":"4","last_reported":1762110395,"current_range_meters":16000,"station_id":"ce4bho12rcd13ifvqh1g","pricing_plan_id":"cebpf4jnsgd1na2vs0mg"},{"bike_id":"62aab6d1-483a-4b5e-a25b-779d1f560c13","system_id":"levelo_inurba_marseille","lat":43.28477,"lon":5.37514,"is_reserved":false,"is_disabled":false,"rental_uris":{"android":"levelo://app?vid=62aab6d1-483a-4b5e-a25b-779d1f560c13","ios":"levelo://app?vid=62aab6d1-483a-4b5e-a25b-779d1f560c13"},"vehicle_type_id":"4","last_reported":1762110395,"current_range_meters":16000,"station_id":"","pricing_plan_id":"cebpf4jnsgd1na2vs0mg"},{"bike_id":"34018df0-6cee-4de9-bf8e-758b24b04ddf","system_id":"levelo_inurba_marseille","lat":43.3173,"lon":5.40449,"is_reserved":false,"is_disabled":false,"rental_uris":{"android":"levelo://app?vid=34018df0-6cee-4de9-bf8e-758b24b04ddf","ios":"levelo://app?vid=34018df0-6cee-4de9-bf8e-758b24b04ddf"},"vehicle_type_id":"4","last_reported":1762110395,"current_range_meters":16400,"station_id":"","pricing_plan_id":"cebpf4jnsgd1na2vs0mg"},{"bike_id":"c0a4ec99-6aea-4196-a099-9caf7245f600","system_id":"levelo_inurba_marseille","lat":43.273155,"lon":5.39058,"is_reserved":false,"is_disabled":false,"rental_uris":{"android":"levelo://app?vid=c0a4ec99-6aea-4196-a099-9caf7245f600","ios":"levelo://app?vid=c0a4ec99-6aea-4196-a099-9caf7245f600"},"vehicle_type_id":"4","last_reported":1762110395,"current_range_meters":16400,"station_id":"ce4bhmh2rcd13ifvqgmg","pricing_plan_id":"cebpf4jnsgd1na2vs0mg"},{"bike_id":"bbfaa054-3bde-4aa6-8d40-ce2fd793f9c3","system_id":"levelo_inurba_marseille","lat":43.24172,"lon":5.36406,"is_reserved":false,"is_disabled":true,"rental_uris":{"android":"levelo://app?vid=bbfaa054-3bde-4aa6-8d40-ce2fd793f9c3","ios":"levelo://app?vid=bbfaa054-3bde-4aa6-8d40-ce2fd793f9c3"},"vehicle_type_id":"4","last_reported":1762110395,"current_range_meters":16400,"station_id":"cpo36qri1sfpv3e86is0","pricing_plan_id":"cebpf4jnsgd1na2vs0mg"},{"bike_id":"9a0c4bd7-9710-4ee9-bc03-1b9f52259716","system_id":"levelo_inurba_marseille","lat":43.286971,"lon":5.373759,"is_reserved":false,"is_disabled":false,"rental_uris":{"android":"levelo://app?vid=9a0c4bd7-9710-4ee9-bc03-1b9f52259716","ios":"levelo://app?vid=9a0c4bd7-9710-4ee9-bc03-1b9f52259716"},"vehicle_type_id":"4","last_reported":1762110395,"current_range_meters":16400,"station_id":"ce4bh3p2rcd13ifvqdq0","pricing_plan_id":"cebpf4jnsgd1na2vs0mg"},{"bike_id":"609aa62b-6b42-43fc-b33d-a59982117e81","system_id":"levelo_inurba_marseille","lat":43.27419,"lon":5.39415,"is_reserved":false,"is_disabled":true,"rental_uris":{"android":"levelo://app?vid=609aa62b-6b42-43fc-b33d-a59982117e81","ios":"levelo://app?vid=609aa62b-6b42-43fc-b33d-a59982117e81"},"vehicle_type_id":"4","last_reported":1762110395,"current_range_meters":16400,"station_id":"ce4bhdp2rcd13ifvqf20","pricing_plan_id":"cebpf4jnsgd1na2vs0mg"},{"bike_id":"a86e4117-515a-45fd-a9ae-9bf165d5c212","system_id":"levelo_inurba_marseille","lat":43.31249,"lon":5.37834,"is_reserved":false,"is_disabled":false,"rental_uris":{"android":"levelo://app?vid=a86e4117-515a-45fd-a9ae-9bf165d5c212","ios":"levelo://app?vid=a86e4117-515a-45fd-a9ae-9bf165d5c212"},"vehicle_type_id":"4","last_reported":1762110395,"current_range_meters":16400,"station_id":"","pricing_plan_id":"cebpf4jnsgd1na2vs0mg"},{"bike_id":"cb6c36c2-4646-44ee-b9d1-9f2d0dee0a1f","system_id":"levelo_inurba_marseille","lat":43.24077,"lon":5.37766,"is_reserved":false,"is_disabled":false,"rental_uris":{"android":"levelo://app?vid=cb6c36c2-4646-44ee-b9d1-9f2d0dee0a1f","ios":"levelo://app?vid=cb6c36c2-4646-44ee-b9d1-9f2d0dee0a1f"},"vehicle_type_id":"4","last_reported":1762110395,"current_range_meters":16400,"station_id":"ce4bhnp2rcd13ifvqgvg","pricing_plan_id":"cebpf4jnsgd1na2vs0mg"},{"bike_id":"51b6fb2b-ecf5-4684-a61a-30593f3e0908","system_id":"levelo_inurba_marseille","lat":43.299129,"lon":5.389072,"is_reserved":false,"is_disabled":false,"rental_uris":{"android":"levelo://app?vid=51b6fb2b-ecf5-4684-a61a-30593f3e0908","ios":"levelo://app?vid=51b6fb2b-ecf5-4684-a61a-30593f3e0908"},"vehicle_type_id":"4","last_reported":1762110395,"current_range_meters":16400,"station_id":"ce4bh392rcd13ifvqdl0","pricing_plan_id":"cebpf4jnsgd1na2vs0mg"},{"bike_id":"c5643ca0-289e-4da8-b215-96a1f1e78271","system_id":"levelo_inurba_marseille","lat":43.30412,"lon":5.41276,"is_reserved":false,"is_disabled":false,"rental_uris":{"android":"levelo://app?vid=c5643ca0-289e-4da8-b215-96a1f1e78271","ios":"levelo://app?vid=c5643ca0-289e-4da8-b215-96a1f1e78271"},"vehicle_type_id":"4","last_reported":1762110395,"current_range_meters":16400,"station_id":"ce4bhop2rcd13ifvqh8g","pricing_plan_id":"cebpf4jnsgd1na2vs0mg"},{"bike_id":"0cbd7e00-f8cf-4511-93af-2975585ddc1c","system_id":"levelo_inurba_marseille","lat":43.27905,"lon":5.39572,"is_reserved":false,"is_disabled":false,"rental_uris":{"android":"levelo://app?vid=0cbd7e00-f8cf-4511-93af-2975585ddc1c","ios":"levelo://app?vid=0cbd7e00-f8cf-4511-93af-2975585ddc1c"},"vehicle_type_id":"4","last_reported":1762110395,"current_range_meters":16800,"station_id":"ce4bhf92rcd13ifvqf40","pricing_plan_id":"cebpf4jnsgd1na2vs0mg"},{"bike_id":"1f4bf620-5a86-4131-b1aa-491aa828d1ad","system_id":"levelo_inurba_marseille","lat":43.25089,"lon":5.3951,"is_reserved":false,"is_disabled":false,"rental_uris":{"android":"levelo://app?vid=1f4bf620-5a86-4131-b1aa-491aa828d1ad","ios":"levelo://app?vid=1f4bf620-5a86-4131-b1aa-491aa828d1ad"},"vehicle_type_id":"4","last_reported":1762110395,"current_range_meters":16800,"station_id":"ce4bhm12rcd13ifvqgkg","pricing_plan_id":"cebpf4jnsgd1na2vs0mg"},{"bike_id":"373c6d9d-9e1b-408f-b189-6f835c287b7a","system_id":"levelo_inurba_marseille","lat":43.23187,"lon":5.35549,"is_reserved":false,"is_disabled":false,"rental_uris":{"android":"levelo://app?vid=373c6d9d-9e1b-408f-b189-6f835c287b7a","ios":"levelo://app?vid=373c6d9d-9e1b-408f-b189-6f835c287b7a"},"vehicle_type_id":"4","last_reported":1762110395,"current_range_meters":16800,"station_id":"ce4bhu92rcd13ifvqi70","pricing_plan_id":"cebpf4jnsgd1na2vs0mg"},{"bike_id":"b2514755-0f11-4833-b225-7d1f8289efa4","system_id":"levelo_inurba_marseille","lat":43.22928,"lon":5.35374,"is_reserved":false,"is_disabled":false,"rental_uris":{"android":"levelo://app?vid=b2514755-0f11-4833-b225-7d1f8289efa4","ios":"levelo://app?vid=b2514755-0f11-4833-b225-7d1f8289efa4"},"vehicle_type_id":"4","last_reported":1762110395,"current_range_meters":16800,"station_id":"cpo3532slgdg3j2ikp40","pricing_plan_id":"cebpf4jnsgd1na2vs0mg"},{"bike_id":"ac6fb5ab-2bf5-4938-b19e-f037b143495c","system_id":"levelo_inurba_marseille","lat":43.27071,"lon":5.42269,"is_reserved":false,"is_disabled":false,"rental_uris":{"android":"levelo://app?vid=ac6fb5ab-2bf5-4938-b19e-f037b143495c","ios":"levelo://app?vid=ac6fb5ab-2bf5-4938-b19e-f037b143495c"},"vehicle_type_id":"4","last_reported":1762110395,"current_range_meters":16800,"station_id":"ce4bhk92rcd13ifvqgb0","pricing_plan_id":"cebpf4jnsgd1na2vs0mg"},{"bike_id":"811cadb3-08db-45b6-9c83-645d9316f787","system_id":"levelo_inurba_marseille","lat":43.26498,"lon":5.39542,"is_reserved":false,"is_disabled":false,"rental_uris":{"android":"levelo://app?vid=811cadb3-08db-45b6-9c83-645d9316f787","ios":"levelo://app?vid=811cadb3-08db-45b6-9c83-645d9316f787"},"vehicle_type_id":"4","last_reported":1762110395,"current_range_meters":16800,"station_id":"ce4bhi12rcd13ifvqfq0","pricing_plan_id":"cebpf4jnsgd1na2vs0mg"},{"bike_id":"4316ebb6-af9e-414e-ba87-072103d4da75","system_id":"levelo_inurba_marseille","lat":43.33526,"lon":5.39755,"is_reserved":false,"is_disabled":false,"rental_uris":{"android":"levelo://app?vid=4316ebb6-af9e-414e-ba87-072103d4da75","ios":"levelo://app?vid=4316ebb6-af9e-414e-ba87-072103d4da75"},"vehicle_type_id":"4","last_reported":1762110395,"current_range_meters":16800,"station_id":"","pricing_plan_id":"cebpf4jnsgd1na2vs0mg"},{"bike_id":"36459938-6c95-4b4c-a1a2-3e0f1fc043f2","system_id":"levelo_inurba_marseille","lat":43.2927,"lon":5.40941,"is_reserved":false,"is_disabled":false,"rental_uris":{"android":"levelo://app?vid=36459938-6c95-4b4c-a1a2-3e0f1fc043f2","ios":"levelo://app?vid=36459938-6c95-4b4c-a1a2-3e0f1fc043f2"},"vehicle_type_id":"4","last_reported":1762110395,"current_range_meters":16800,"station_id":"ce4bh192rcd13ifvqdc0","pricing_plan_id":"cebpf4jnsgd1na2vs0mg"},{"bike_id":"28f5c609-94bd-4f1d-9186-f66e4c2140b5","system_id":"levelo_inurba_marseille","lat":43.30731,"lon":5.42451,"is_reserved":false,"is_disabled":false,"rental_uris":{"android":"levelo://app?vid=28f5c609-94bd-4f1d-9186-f66e4c2140b5","ios":"levelo://app?vid=28f5c609-94bd-4f1d-9186-f66e4c2140b5"},"vehicle_type_id":"4","last_reported":1762110395,"current_range_meters":16800,"station_id":"st_cvj6ca6bvosntc0bfgr0","pricing_plan_id":"cebpf4jnsgd1na2vs0mg"},{"bike_id":"bc97e72b-f479-4cfb-ba90-458ce1432bd8","system_id":"levelo_inurba_marseille","lat":43.30278,"lon":5.37679,"is_reserved":false,"is_disabled":true,"rental_uris":{"android":"levelo://app?vid=bc97e72b-f479-4cfb-ba90-458ce1432bd8","ios":"levelo://app?vid=bc97e72b-f479-4cfb-ba90-458ce1432bd8"},"vehicle_type_id":"4","last_reported":1762110395,"current_range_meters":16800,"station_id":"ce4bguh2rcd13ifvqcj0","pricing_plan_id":"cebpf4jnsgd1na2vs0mg"},{"bike_id":"23413dbf-868a-402f-92b9-fb58799f2e13","system_id":"levelo_inurba_marseille","lat":43.28414,"lon":5.37504,"is_reserved":false,"is_disabled":false,"rental_uris":{"android":"levelo://app?vid=23413dbf-868a-402f-92b9-fb58799f2e13","ios":"levelo://app?vid=23413dbf-868a-402f-92b9-fb58799f2e13"},"vehicle_type_id":"4","last_reported":1762110395,"current_range_meters":16800,"station_id":"ce4bh412rcd13ifvqds0","pricing_plan_id":"cebpf4jnsgd1na2vs0mg"},{"bike_id":"fa26f30c-f4d8-4ef3-973f-f6b6f33bca8a","system_id":"levelo_inurba_marseille","lat":43.330283,"lon":5.403724,"is_reserved":false,"is_disabled":false,"rental_uris":{"android":"levelo://app?vid=fa26f30c-f4d8-4ef3-973f-f6b6f33bca8a","ios":"levelo://app?vid=fa26f30c-f4d8-4ef3-973f-f6b6f33bca8a"},"vehicle_type_id":"4","last_reported":1762110395,"current_range_meters":16800,"station_id":"","pricing_plan_id":"cebpf4jnsgd1na2vs0mg"},{"bike_id":"d1b7e294-8ae6-48ef-89d0-e05e23f9f8e0","system_id":"levelo_inurba_marseille","lat":43.29538,"lon":5.36124,"is_reserved":false,"is_disabled":true,"rental_uris":{"android":"levelo://app?vid=d1b7e294-8ae6-48ef-89d0-e05e23f9f8e0","ios":"levelo://app?vid=d1b7e294-8ae6-48ef-89d0-e05e23f9f8e0"},"vehicle_type_id":"4","last_reported":1762110395,"current_range_meters":16800,"station_id":"","pricing_plan_id":"cebpf4jnsgd1na2vs0mg"},{"bike_id":"d93a364c-0201-4c44-8965-3c5ae6bb2485","system_id":"levelo_inurba_marseille","lat":43.2407,"lon":5.37757,"is_reserved":false,"is_disabled":false,"rental_uris":{"android":"levelo://app?vid=d93a364c-0201-4c44-8965-3c5ae6bb2485","ios":"levelo://app?vid=d93a364c-0201-4c44-8965-3c5ae6bb2485"},"vehicle_type_id":"4","last_reported":1762110395,"current_range_meters":16800,"station_id":"ce4bhnp2rcd13ifvqgvg","pricing_plan_id":"cebpf4jnsgd1na2vs0mg"},{"bike_id":"ca5dc2d8-eaf8-4fcd-83d2-7ca20866ce5c","system_id":"levelo_inurba_marseille","lat":43.32618,"lon":5.42885,"is_reserved":false,"is_disabled":false,"rental_uris":{"android":"levelo://app?vid=ca5dc2d8-eaf8-4fcd-83d2-7ca20866ce5c","ios":"levelo://app?vid=ca5dc2d8-eaf8-4fcd-83d2-7ca20866ce5c"},"vehicle_type_id":"4","last_reported":1762110395,"current_range_meters":16800,"station_id":"","pricing_plan_id":"cebpf4jnsgd1na2vs0mg"},{"bike_id":"dd1f93a4-21c5-48fe-b3c3-8cdaf4e75d9e","system_id":"levelo_inurba_marseille","lat":43.275591,"lon":5.384226,"is_reserved":false,"is_disabled":false,"rental_uris":{"android":"levelo://app?vid=dd1f93a4-21c5-48fe-b3c3-8cdaf4e75d9e","ios":"levelo://app?vid=dd1f93a4-21c5-48fe-b3c3-8cdaf4e75d9e"},"vehicle_type_id":"4","last_reported":1762110395,"current_range_meters":17200,"station_id":"ce4bhh92rcd13ifvqfi0","pricing_plan_id":"cebpf4jnsgd1na2vs0mg"},{"bike_id":"eb37c568-c2ee-4632-9af3-8a2aea623250","system_id":"levelo_inurba_marseille","lat":43.248078,"lon":5.374583,"is_reserved":false,"is_disabled":false,"rental_uris":{"android":"levelo://app?vid=eb37c568-c2ee-4632-9af3-8a2aea623250","ios":"levelo://app?vid=eb37c568-c2ee-4632-9af3-8a2aea623250"},"vehicle_type_id":"4","last_reported":1762110395,"current_range_meters":17200,"station_id":"ce4bhgh2rcd13ifvqfb0","pricing_plan_id":"cebpf4jnsgd1na2vs0mg"},{"bike_id":"cfc27691-61f7-4b7d-9c2b-fa331c214f26","system_id":"levelo_inurba_marseille","lat":43.280335,"lon":5.369477,"is_reserved":false,"is_disabled":false,"rental_uris":{"android":"levelo://app?vid=cfc27691-61f7-4b7d-9c2b-fa331c214f26","ios":"levelo://app?vid=cfc27691-61f7-4b7d-9c2b-fa331c214f26"},"vehicle_type_id":"4","last_reported":1762110395,"current_range_meters":17200,"station_id":"ce4bha12rcd13ifvqef0","pricing_plan_id":"cebpf4jnsgd1na2vs0mg"},{"bike_id":"ef3051ac-87a4-400e-a432-5bfc2a83a3e3","system_id":"levelo_inurba_marseille","lat":43.324425,"lon":5.365348,"is_reserved":false,"is_disabled":false,"rental_uris":{"android":"levelo://app?vid=ef3051ac-87a4-400e-a432-5bfc2a83a3e3","ios":"levelo://app?vid=ef3051ac-87a4-400e-a432-5bfc2a83a3e3"},"vehicle_type_id":"4","last_reported":1762110395,"current_range_meters":17200,"station_id":"ce4bhs12rcd13ifvqhvg","pricing_plan_id":"cebpf4jnsgd1na2vs0mg"},{"bike_id":"054e5513-a18a-4fec-bab2-96a168188b7d","system_id":"levelo_inurba_marseille","lat":43.31178,"lon":5.3737,"is_reserved":false,"is_disabled":false,"rental_uris":{"android":"levelo://app?vid=054e5513-a18a-4fec-bab2-96a168188b7d","ios":"levelo://app?vid=054e5513-a18a-4fec-bab2-96a168188b7d"},"vehicle_type_id":"4","last_reported":1762110395,"current_range_meters":17200,"station_id":"","pricing_plan_id":"cebpf4jnsgd1na2vs0mg"},{"bike_id":"ba8b4c9a-b12c-4a72-9794-a260a35ff235","system_id":"levelo_inurba_marseille","lat":43.2399,"lon":5.36623,"is_reserved":false,"is_disabled":false,"rental_uris":{"android":"levelo://app?vid=ba8b4c9a-b12c-4a72-9794-a260a35ff235","ios":"levelo://app?vid=ba8b4c9a-b12c-4a72-9794-a260a35ff235"},"vehicle_type_id":"4","last_reported":1762110395,"current_range_meters":17200,"station_id":"ce4bhi12rcd13ifvqfp0","pricing_plan_id":"cebpf4jnsgd1na2vs0mg"},{"bike_id":"1a9255c3-f809-427d-b153-cdb99d824189","system_id":"levelo_inurba_marseille","lat":43.24948,"lon":5.40502,"is_reserved":false,"is_disabled":false,"rental_uris":{"android":"levelo://app?vid=1a9255c3-f809-427d-b153-cdb99d824189","ios":"levelo://app?vid=1a9255c3-f809-427d-b153-cdb99d824189"},"vehicle_type_id":"4","last_reported":1762110395,"current_range_meters":17200,"station_id":"st_d2ngiaodas8pm72gd1h0","pricing_plan_id":"cebpf4jnsgd1na2vs0mg"},{"bike_id":"c5257073-791a-4a26-8036-44792c9891b8","system_id":"levelo_inurba_marseille","lat":43.31298,"lon":5.40162,"is_reserved":false,"is_disabled":false,"rental_uris":{"android":"levelo://app?vid=c5257073-791a-4a26-8036-44792c9891b8","ios":"levelo://app?vid=c5257073-791a-4a26-8036-44792c9891b8"},"vehicle_type_id":"4","last_reported":1762110395,"current_range_meters":17200,"station_id":"ce4bh092rcd13ifvqd30","pricing_plan_id":"cebpf4jnsgd1na2vs0mg"},{"bike_id":"daaf667f-c312-420c-9e55-642e33321d7c","system_id":"levelo_inurba_marseille","lat":43.30558,"lon":5.36521,"is_reserved":false,"is_disabled":false,"rental_uris":{"android":"levelo://app?vid=daaf667f-c312-420c-9e55-642e33321d7c","ios":"levelo://app?vid=daaf667f-c312-420c-9e55-642e33321d7c"},"vehicle_type_id":"4","last_reported":1762110395,"current_range_meters":17600,"station_id":"ce4bgs12rcd13ifvqcag","pricing_plan_id":"cebpf4jnsgd1na2vs0mg"},{"bike_id":"2457a6da-e737-4e7a-9c85-e9723cf378b9","system_id":"levelo_inurba_marseille","lat":43.27197,"lon":5.40997,"is_reserved":false,"is_disabled":false,"rental_uris":{"android":"levelo://app?vid=2457a6da-e737-4e7a-9c85-e9723cf378b9","ios":"levelo://app?vid=2457a6da-e737-4e7a-9c85-e9723cf378b9"},"vehicle_type_id":"4","last_reported":1762110395,"current_range_meters":17600,"station_id":"ce4bhl12rcd13ifvqgf0","pricing_plan_id":"cebpf4jnsgd1na2vs0mg"},{"bike_id":"441f0d7a-2204-4fc9-9d5e-c4773293e788","system_id":"levelo_inurba_marseille","lat":43.30905,"lon":5.36837,"is_reserved":false,"is_disabled":false,"rental_uris":{"android":"levelo://app?vid=441f0d7a-2204-4fc9-9d5e-c4773293e788","ios":"levelo://app?vid=441f0d7a-2204-4fc9-9d5e-c4773293e788"},"vehicle_type_id":"4","last_reported":1762110395,"current_range_meters":17600,"station_id":"ce4bgn92rcd13ifvqbvg","pricing_plan_id":"cebpf4jnsgd1na2vs0mg"},{"bike_id":"06756d68-f601-4313-a049-fec54d37d722","system_id":"levelo_inurba_marseille","lat":43.336107,"lon":5.410388,"is_reserved":false,"is_disabled":false,"rental_uris":{"android":"levelo://app?vid=06756d68-f601-4313-a049-fec54d37d722","ios":"levelo://app?vid=06756d68-f601-4313-a049-fec54d37d722"},"vehicle_type_id":"4","last_reported":1762110395,"current_range_meters":17600,"station_id":"ce4bhq92rcd13ifvqhkg","pricing_plan_id":"cebpf4jnsgd1na2vs0mg"},{"bike_id":"1b1e71cc-c221-4e91-89c8-2d987f944d9c","system_id":"levelo_inurba_marseille","lat":43.241677,"lon":5.364076,"is_reserved":false,"is_disabled":true,"rental_uris":{"android":"levelo://app?vid=1b1e71cc-c221-4e91-89c8-2d987f944d9c","ios":"levelo://app?vid=1b1e71cc-c221-4e91-89c8-2d987f944d9c"},"vehicle_type_id":"4","last_reported":1762110395,"current_range_meters":17600,"station_id":"cpo36qri1sfpv3e86is0","pricing_plan_id":"cebpf4jnsgd1na2vs0mg"},{"bike_id":"45178dd9-b960-4161-871b-52bd5ff2bc66","system_id":"levelo_inurba_marseille","lat":43.25532,"lon":5.37665,"is_reserved":false,"is_disabled":false,"rental_uris":{"android":"levelo://app?vid=45178dd9-b960-4161-871b-52bd5ff2bc66","ios":"levelo://app?vid=45178dd9-b960-4161-871b-52bd5ff2bc66"},"vehicle_type_id":"4","last_reported":1762110395,"current_range_meters":17600,"station_id":"ce4bhh12rcd13ifvqff0","pricing_plan_id":"cebpf4jnsgd1na2vs0mg"},{"bike_id":"9cf7e28f-7b0d-4c2c-a2b9-f3633fadfc11","system_id":"levelo_inurba_marseille","lat":43.31913,"lon":5.40729,"is_reserved":false,"is_disabled":false,"rental_uris":{"android":"levelo://app?vid=9cf7e28f-7b0d-4c2c-a2b9-f3633fadfc11","ios":"levelo://app?vid=9cf7e28f-7b0d-4c2c-a2b9-f3633fadfc11"},"vehicle_type_id":"4","last_reported":1762110395,"current_range_meters":17600,"station_id":"ce4bhq12rcd13ifvqhig","pricing_plan_id":"cebpf4jnsgd1na2vs0mg"},{"bike_id":"88a37c3f-2822-4e65-9019-f92712cd5915","system_id":"levelo_inurba_marseille","lat":43.21218,"lon":5.35058,"is_reserved":false,"is_disabled":true,"rental_uris":{"android":"levelo://app?vid=88a37c3f-2822-4e65-9019-f92712cd5915","ios":"levelo://app?vid=88a37c3f-2822-4e65-9019-f92712cd5915"},"vehicle_type_id":"4","last_reported":1762110395,"current_range_meters":17600,"station_id":"st_cvj6sg6p6f1abm77japg","pricing_plan_id":"cebpf4jnsgd1na2vs0mg"},{"bike_id":"9a8d2278-1d65-477b-998f-ae9ab69ae5ff","system_id":"levelo_inurba_marseille","lat":43.292554,"lon":5.384217,"is_reserved":false,"is_disabled":false,"rental_uris":{"android":"levelo://app?vid=9a8d2278-1d65-477b-998f-ae9ab69ae5ff","ios":"levelo://app?vid=9a8d2278-1d65-477b-998f-ae9ab69ae5ff"},"vehicle_type_id":"4","last_reported":1762110395,"current_range_meters":17600,"station_id":"ce4bh692rcd13ifvqea0","pricing_plan_id":"cebpf4jnsgd1na2vs0mg"},{"bike_id":"238e5387-9a21-4ac0-a8e7-668d58955516","system_id":"levelo_inurba_marseille","lat":43.308,"lon":5.37658,"is_reserved":false,"is_disabled":false,"rental_uris":{"android":"levelo://app?vid=238e5387-9a21-4ac0-a8e7-668d58955516","ios":"levelo://app?vid=238e5387-9a21-4ac0-a8e7-668d58955516"},"vehicle_type_id":"4","last_reported":1762110395,"current_range_meters":18000,"station_id":"ce4bgv92rcd13ifvqcq0","pricing_plan_id":"cebpf4jnsgd1na2vs0mg"},{"bike_id":"32d4a401-7eac-4706-9e22-d4c2a7e55b17","system_id":"levelo_inurba_marseille","lat":43.2465,"lon":5.43138,"is_reserved":false,"is_disabled":false,"rental_uris":{"android":"levelo://app?vid=32d4a401-7eac-4706-9e22-d4c2a7e55b17","ios":"levelo://app?vid=32d4a401-7eac-4706-9e22-d4c2a7e55b17"},"vehicle_type_id":"4","last_reported":1762110395,"current_range_meters":18000,"station_id":"st_d2m6c4gdas8pm72e190g","pricing_plan_id":"cebpf4jnsgd1na2vs0mg"},{"bike_id":"14e0fcd6-488b-4da1-b9ec-2f06247e9652","system_id":"levelo_inurba_marseille","lat":43.307325,"lon":5.424466,"is_reserved":false,"is_disabled":false,"rental_uris":{"android":"levelo://app?vid=14e0fcd6-488b-4da1-b9ec-2f06247e9652","ios":"levelo://app?vid=14e0fcd6-488b-4da1-b9ec-2f06247e9652"},"vehicle_type_id":"4","last_reported":1762110395,"current_range_meters":18000,"station_id":"st_cvj6ca6bvosntc0bfgr0","pricing_plan_id":"cebpf4jnsgd1na2vs0mg"},{"bike_id":"4c4b8bcf-4ef8-4551-8b0c-0892f8af6559","system_id":"levelo_inurba_marseille","lat":43.22526,"lon":5.41517,"is_reserved":false,"is_disabled":false,"rental_uris":{"android":"levelo://app?vid=4c4b8bcf-4ef8-4551-8b0c-0892f8af6559","ios":"levelo://app?vid=4c4b8bcf-4ef8-4551-8b0c-0892f8af6559"},"vehicle_type_id":"4","last_reported":1762110395,"current_range_meters":18000,"station_id":"","pricing_plan_id":"cebpf4jnsgd1na2vs0mg"},{"bike_id":"7273bb4c-7b97-46c2-a633-6e5e1fe1f98b","system_id":"levelo_inurba_marseille","lat":43.2856,"lon":5.44072,"is_reserved":false,"is_disabled":false,"rental_uris":{"android":"levelo://app?vid=7273bb4c-7b97-46c2-a633-6e5e1fe1f98b","ios":"levelo://app?vid=7273bb4c-7b97-46c2-a633-6e5e1fe1f98b"},"vehicle_type_id":"4","last_reported":1762110395,"current_range_meters":18000,"station_id":"st_d3j3df2ikq2c7380ej80","pricing_plan_id":"cebpf4jnsgd1na2vs0mg"},{"bike_id":"5b39d28a-4942-43ed-9a76-031023dae19e","system_id":"levelo_inurba_marseille","lat":43.29557,"lon":5.42287,"is_reserved":false,"is_disabled":false,"rental_uris":{"android":"levelo://app?vid=5b39d28a-4942-43ed-9a76-031023dae19e","ios":"levelo://app?vid=5b39d28a-4942-43ed-9a76-031023dae19e"},"vehicle_type_id":"4","last_reported":1762110395,"current_range_meters":18000,"station_id":"ce4bhph2rcd13ifvqhdg","pricing_plan_id":"cebpf4jnsgd1na2vs0mg"},{"bike_id":"17ef1335-63de-494a-b1de-b4ebcd5dd674","system_id":"levelo_inurba_marseille","lat":43.32515,"lon":5.41476,"is_reserved":false,"is_disabled":false,"rental_uris":{"android":"levelo://app?vid=17ef1335-63de-494a-b1de-b4ebcd5dd674","ios":"levelo://app?vid=17ef1335-63de-494a-b1de-b4ebcd5dd674"},"vehicle_type_id":"4","last_reported":1762110395,"current_range_meters":18000,"station_id":"ce4bhq12rcd13ifvqhhg","pricing_plan_id":"cebpf4jnsgd1na2vs0mg"},{"bike_id":"006187f7-d567-4d10-b521-707a329d8ab6","system_id":"levelo_inurba_marseille","lat":43.24545,"lon":5.39524,"is_reserved":false,"is_disabled":false,"rental_uris":{"android":"levelo://app?vid=006187f7-d567-4d10-b521-707a329d8ab6","ios":"levelo://app?vid=006187f7-d567-4d10-b521-707a329d8ab6"},"vehicle_type_id":"4","last_reported":1762110395,"current_range_meters":18000,"station_id":"ce4bhlp2rcd13ifvqgjg","pricing_plan_id":"cebpf4jnsgd1na2vs0mg"},{"bike_id":"03518348-a473-43a5-aebe-4dbf2f87920e","system_id":"levelo_inurba_marseille","lat":43.28488,"lon":5.37877,"is_reserved":false,"is_disabled":false,"rental_uris":{"android":"levelo://app?vid=03518348-a473-43a5-aebe-4dbf2f87920e","ios":"levelo://app?vid=03518348-a473-43a5-aebe-4dbf2f87920e"},"vehicle_type_id":"4","last_reported":1762110395,"current_range_meters":18000,"station_id":"","pricing_plan_id":"cebpf4jnsgd1na2vs0mg"},{"bike_id":"bc3ca228-974a-4837-bfd3-55355b1bf68b","system_id":"levelo_inurba_marseille","lat":43.31062,"lon":5.38339,"is_reserved":false,"is_disabled":false,"rental_uris":{"android":"levelo://app?vid=bc3ca228-974a-4837-bfd3-55355b1bf68b","ios":"levelo://app?vid=bc3ca228-974a-4837-bfd3-55355b1bf68b"},"vehicle_type_id":"4","last_reported":1762110395,"current_range_meters":18000,"station_id":"ce4bgv92rcd13ifvqcr0","pricing_plan_id":"cebpf4jnsgd1na2vs0mg"},{"bike_id":"a8ec203b-d616-4825-acb4-ec9a8037e9f2","system_id":"levelo_inurba_marseille","lat":43.28137,"lon":5.38307,"is_reserved":false,"is_disabled":false,"rental_uris":{"android":"levelo://app?vid=a8ec203b-d616-4825-acb4-ec9a8037e9f2","ios":"levelo://app?vid=a8ec203b-d616-4825-acb4-ec9a8037e9f2"},"vehicle_type_id":"4","last_reported":1762110395,"current_range_meters":18000,"station_id":"","pricing_plan_id":"cebpf4jnsgd1na2vs0mg"},{"bike_id":"48cbcb88-f3bb-4d0e-8825-d7b8249e94dd","system_id":"levelo_inurba_marseille","lat":43.24648,"lon":5.38894,"is_reserved":false,"is_disabled":false,"rental_uris":{"android":"levelo://app?vid=48cbcb88-f3bb-4d0e-8825-d7b8249e94dd","ios":"levelo://app?vid=48cbcb88-f3bb-4d0e-8825-d7b8249e94dd"},"vehicle_type_id":"4","last_reported":1762110395,"current_range_meters":18800,"station_id":"ce4bhg12rcd13ifvqf60","pricing_plan_id":"cebpf4jnsgd1na2vs0mg"},{"bike_id":"4bc33cbd-cadc-47e3-9fd0-4612ddd0ac0a","system_id":"levelo_inurba_marseille","lat":43.308938,"lon":5.396637,"is_reserved":false,"is_disabled":false,"rental_uris":{"android":"levelo://app?vid=4bc33cbd-cadc-47e3-9fd0-4612ddd0ac0a","ios":"levelo://app?vid=4bc33cbd-cadc-47e3-9fd0-4612ddd0ac0a"},"vehicle_type_id":"4","last_reported":1762110395,"current_range_meters":18800,"station_id":"ce4bh012rcd13ifvqcv0","pricing_plan_id":"cebpf4jnsgd1na2vs0mg"},{"bike_id":"5a96cc8c-7aea-4f8c-941f-8c7122bd9517","system_id":"levelo_inurba_marseille","lat":43.28478,"lon":5.48388,"is_reserved":false,"is_disabled":false,"rental_uris":{"android":"levelo://app?vid=5a96cc8c-7aea-4f8c-941f-8c7122bd9517","ios":"levelo://app?vid=5a96cc8c-7aea-4f8c-941f-8c7122bd9517"},"vehicle_type_id":"4","last_reported":1762110395,"current_range_meters":18800,"station_id":"st_d3svhcjqgbts73a3dn0g","pricing_plan_id":"cebpf4jnsgd1na2vs0mg"},{"bike_id":"61f31a94-9442-43d9-b1a4-7839824c9aca","system_id":"levelo_inurba_marseille","lat":43.29822,"lon":5.39351,"is_reserved":false,"is_disabled":false,"rental_uris":{"android":"levelo://app?vid=61f31a94-9442-43d9-b1a4-7839824c9aca","ios":"levelo://app?vid=61f31a94-9442-43d9-b1a4-7839824c9aca"},"vehicle_type_id":"4","last_reported":1762110395,"current_range_meters":18800,"station_id":"chh1huq6cuj3fo74tm60","pricing_plan_id":"cebpf4jnsgd1na2vs0mg"},{"bike_id":"e35f9b7d-ab33-43a6-bc47-d6ee33381c1a","system_id":"levelo_inurba_marseille","lat":43.30619,"lon":5.37198,"is_reserved":false,"is_disabled":false,"rental_uris":{"android":"levelo://app?vid=e35f9b7d-ab33-43a6-bc47-d6ee33381c1a","ios":"levelo://app?vid=e35f9b7d-ab33-43a6-bc47-d6ee33381c1a"},"vehicle_type_id":"4","last_reported":1762110395,"current_range_meters":18800,"station_id":"ce4bgqh2rcd13ifvqc4g","pricing_plan_id":"cebpf4jnsgd1na2vs0mg"},{"bike_id":"7aef1029-9880-4ac1-bc62-5df1ae769dad","system_id":"levelo_inurba_marseille","lat":43.31041,"lon":5.37031,"is_reserved":false,"is_disabled":false,"rental_uris":{"android":"levelo://app?vid=7aef1029-9880-4ac1-bc62-5df1ae769dad","ios":"levelo://app?vid=7aef1029-9880-4ac1-bc62-5df1ae769dad"},"vehicle_type_id":"4","last_reported":1762110395,"current_range_meters":18800,"station_id":"","pricing_plan_id":"cebpf4jnsgd1na2vs0mg"},{"bike_id":"05d6a3f7-b83a-4da1-9593-ef5015b8f8ec","system_id":"levelo_inurba_marseille","lat":43.27974,"lon":5.39941,"is_reserved":false,"is_disabled":false,"rental_uris":{"android":"levelo://app?vid=05d6a3f7-b83a-4da1-9593-ef5015b8f8ec","ios":"levelo://app?vid=05d6a3f7-b83a-4da1-9593-ef5015b8f8ec"},"vehicle_type_id":"4","last_reported":1762110395,"current_range_meters":18800,"station_id":"","pricing_plan_id":"cebpf4jnsgd1na2vs0mg"},{"bike_id":"e7f5bc6d-4c00-409e-904d-e5b750d916a9","system_id":"levelo_inurba_marseille","lat":43.28533,"lon":5.44096,"is_reserved":false,"is_disabled":false,"rental_uris":{"android":"levelo://app?vid=e7f5bc6d-4c00-409e-904d-e5b750d916a9","ios":"levelo://app?vid=e7f5bc6d-4c00-409e-904d-e5b750d916a9"},"vehicle_type_id":"4","last_reported":1762110395,"current_range_meters":19200,"station_id":"st_d3j3df2ikq2c7380ej80","pricing_plan_id":"cebpf4jnsgd1na2vs0mg"},{"bike_id":"f06e911b-6b0a-408e-9f94-bff0cd3134cc","system_id":"levelo_inurba_marseille","lat":43.26498,"lon":5.39545,"is_reserved":false,"is_disabled":false,"rental_uris":{"android":"levelo://app?vid=f06e911b-6b0a-408e-9f94-bff0cd3134cc","ios":"levelo://app?vid=f06e911b-6b0a-408e-9f94-bff0cd3134cc"},"vehicle_type_id":"4","last_reported":1762110395,"current_range_meters":19200,"station_id":"ce4bhi12rcd13ifvqfq0","pricing_plan_id":"cebpf4jnsgd1na2vs0mg"},{"bike_id":"600594a6-be69-4e43-ad17-c2d891da9a62","system_id":"levelo_inurba_marseille","lat":43.290324,"lon":5.381415,"is_reserved":false,"is_disabled":true,"rental_uris":{"android":"levelo://app?vid=600594a6-be69-4e43-ad17-c2d891da9a62","ios":"levelo://app?vid=600594a6-be69-4e43-ad17-c2d891da9a62"},"vehicle_type_id":"4","last_reported":1762110395,"current_range_meters":19200,"station_id":"ce4bh4p2rcd13ifvqe1g","pricing_plan_id":"cebpf4jnsgd1na2vs0mg"},{"bike_id":"782a02c9-f51b-4b61-89b2-ec2ecf7d0e40","system_id":"levelo_inurba_marseille","lat":43.24952,"lon":5.40496,"is_reserved":false,"is_disabled":false,"rental_uris":{"android":"levelo://app?vid=782a02c9-f51b-4b61-89b2-ec2ecf7d0e40","ios":"levelo://app?vid=782a02c9-f51b-4b61-89b2-ec2ecf7d0e40"},"vehicle_type_id":"4","last_reported":1762110395,"current_range_meters":19200,"station_id":"st_d2ngiaodas8pm72gd1h0","pricing_plan_id":"cebpf4jnsgd1na2vs0mg"},{"bike_id":"5eee67bb-3614-4f3b-ab22-554d031d3012","system_id":"levelo_inurba_marseille","lat":43.25717,"lon":5.41121,"is_reserved":false,"is_disabled":false,"rental_uris":{"android":"levelo://app?vid=5eee67bb-3614-4f3b-ab22-554d031d3012","ios":"levelo://app?vid=5eee67bb-3614-4f3b-ab22-554d031d3012"},"vehicle_type_id":"4","last_reported":1762110395,"current_range_meters":19200,"station_id":"ce4bhkp2rcd13ifvqgd0","pricing_plan_id":"cebpf4jnsgd1na2vs0mg"},{"bike_id":"145adec1-02ad-4d16-a5dd-42bf80721343","system_id":"levelo_inurba_marseille","lat":43.30114,"lon":5.38417,"is_reserved":false,"is_disabled":false,"rental_uris":{"android":"levelo://app?vid=145adec1-02ad-4d16-a5dd-42bf80721343","ios":"levelo://app?vid=145adec1-02ad-4d16-a5dd-42bf80721343"},"vehicle_type_id":"4","last_reported":1762110395,"current_range_meters":19200,"station_id":"","pricing_plan_id":"cebpf4jnsgd1na2vs0mg"},{"bike_id":"5eb9db26-abf8-4b3a-a40c-77af04cc957e","system_id":"levelo_inurba_marseille","lat":43.24182,"lon":5.36396,"is_reserved":false,"is_disabled":false,"rental_uris":{"android":"levelo://app?vid=5eb9db26-abf8-4b3a-a40c-77af04cc957e","ios":"levelo://app?vid=5eb9db26-abf8-4b3a-a40c-77af04cc957e"},"vehicle_type_id":"4","last_reported":1762110395,"current_range_meters":19200,"station_id":"cpo36qri1sfpv3e86is0","pricing_plan_id":"cebpf4jnsgd1na2vs0mg"},{"bike_id":"10922c2d-f3be-4752-adda-cfc1be0e4b2c","system_id":"levelo_inurba_marseille","lat":43.2694,"lon":5.40248,"is_reserved":false,"is_disabled":false,"rental_uris":{"android":"levelo://app?vid=10922c2d-f3be-4752-adda-cfc1be0e4b2c","ios":"levelo://app?vid=10922c2d-f3be-4752-adda-cfc1be0e4b2c"},"vehicle_type_id":"4","last_reported":1762110395,"current_range_meters":19200,"station_id":"cjm6bp8fraef2m0cb0m0","pricing_plan_id":"cebpf4jnsgd1na2vs0mg"},{"bike_id":"0a8707f9-b345-4199-91e6-a38fa06d39f9","system_id":"levelo_inurba_marseille","lat":43.31338,"lon":5.39701,"is_reserved":false,"is_disabled":false,"rental_uris":{"android":"levelo://app?vid=0a8707f9-b345-4199-91e6-a38fa06d39f9","ios":"levelo://app?vid=0a8707f9-b345-4199-91e6-a38fa06d39f9"},"vehicle_type_id":"4","last_reported":1762110395,"current_range_meters":19200,"station_id":"ce4bgvp2rcd13ifvqcu0","pricing_plan_id":"cebpf4jnsgd1na2vs0mg"},{"bike_id":"78fd86d5-da4c-4278-affd-7283f0275d72","system_id":"levelo_inurba_marseille","lat":43.278065,"lon":5.407193,"is_reserved":false,"is_disabled":false,"rental_uris":{"android":"levelo://app?vid=78fd86d5-da4c-4278-affd-7283f0275d72","ios":"levelo://app?vid=78fd86d5-da4c-4278-affd-7283f0275d72"},"vehicle_type_id":"4","last_reported":1762110395,"current_range_meters":19200,"station_id":"ce4bhnh2rcd13ifvqgtg","pricing_plan_id":"cebpf4jnsgd1na2vs0mg"},{"bike_id":"2919fe27-cd0f-4d33-a0d5-c120c66c283e","system_id":"levelo_inurba_marseille","lat":43.297887,"lon":5.381085,"is_reserved":false,"is_disabled":false,"rental_uris":{"android":"levelo://app?vid=2919fe27-cd0f-4d33-a0d5-c120c66c283e","ios":"levelo://app?vid=2919fe27-cd0f-4d33-a0d5-c120c66c283e"},"vehicle_type_id":"4","last_reported":1762110395,"current_range_meters":19200,"station_id":"ce4bgip2rcd13ifvqbb0","pricing_plan_id":"cebpf4jnsgd1na2vs0mg"},{"bike_id":"ac2f2e0c-7f3a-4615-95a9-755ddbeafcff","system_id":"levelo_inurba_marseille","lat":43.273797,"lon":5.362511,"is_reserved":false,"is_disabled":true,"rental_uris":{"android":"levelo://app?vid=ac2f2e0c-7f3a-4615-95a9-755ddbeafcff","ios":"levelo://app?vid=ac2f2e0c-7f3a-4615-95a9-755ddbeafcff"},"vehicle_type_id":"4","last_reported":1762110395,"current_range_meters":19200,"station_id":"ce4bhbh2rcd13ifvqeo0","pricing_plan_id":"cebpf4jnsgd1na2vs0mg"},{"bike_id":"4589f378-d3af-45fc-9026-97874bba668c","system_id":"levelo_inurba_marseille","lat":43.262452,"lon":5.374612,"is_reserved":false,"is_disabled":false,"rental_uris":{"android":"levelo://app?vid=4589f378-d3af-45fc-9026-97874bba668c","ios":"levelo://app?vid=4589f378-d3af-45fc-9026-97874bba668c"},"vehicle_type_id":"4","last_reported":1762110395,"current_range_meters":19200,"station_id":"ce4bhgh2rcd13ifvqfa0","pricing_plan_id":"cebpf4jnsgd1na2vs0mg"},{"bike_id":"a8d0be4c-3e38-4247-b462-6e35f9043fea","system_id":"levelo_inurba_marseille","lat":43.25727,"lon":5.41062,"is_reserved":false,"is_disabled":true,"rental_uris":{"android":"levelo://app?vid=a8d0be4c-3e38-4247-b462-6e35f9043fea","ios":"levelo://app?vid=a8d0be4c-3e38-4247-b462-6e35f9043fea"},"vehicle_type_id":"4","last_reported":1762110395,"current_range_meters":19200,"station_id":"ce4bhkp2rcd13ifvqgd0","pricing_plan_id":"cebpf4jnsgd1na2vs0mg"},{"bike_id":"bb50bd2a-e9d2-4da1-ba78-7e5b23b1a722","system_id":"levelo_inurba_marseille","lat":43.29973,"lon":5.37188,"is_reserved":false,"is_disabled":false,"rental_uris":{"android":"levelo://app?vid=bb50bd2a-e9d2-4da1-ba78-7e5b23b1a722","ios":"levelo://app?vid=bb50bd2a-e9d2-4da1-ba78-7e5b23b1a722"},"vehicle_type_id":"4","last_reported":1762110395,"current_range_meters":19600,"station_id":"ce4bgr92rcd13ifvqc7g","pricing_plan_id":"cebpf4jnsgd1na2vs0mg"},{"bike_id":"7697f83b-11c1-4978-89f1-e9d9aca50ac7","system_id":"levelo_inurba_marseille","lat":43.24669,"lon":5.38154,"is_reserved":false,"is_disabled":true,"rental_uris":{"android":"levelo://app?vid=7697f83b-11c1-4978-89f1-e9d9aca50ac7","ios":"levelo://app?vid=7697f83b-11c1-4978-89f1-e9d9aca50ac7"},"vehicle_type_id":"4","last_reported":1762110395,"current_range_meters":19600,"station_id":"ce4bhih2rcd13ifvqfr0","pricing_plan_id":"cebpf4jnsgd1na2vs0mg"},{"bike_id":"c88172d8-b006-416c-bb90-899694f666d2","system_id":"levelo_inurba_marseille","lat":43.29022,"lon":5.38138,"is_reserved":false,"is_disabled":false,"rental_uris":{"android":"levelo://app?vid=c88172d8-b006-416c-bb90-899694f666d2","ios":"levelo://app?vid=c88172d8-b006-416c-bb90-899694f666d2"},"vehicle_type_id":"4","last_reported":1762110395,"current_range_meters":19600,"station_id":"ce4bh4p2rcd13ifvqe1g","pricing_plan_id":"cebpf4jnsgd1na2vs0mg"},{"bike_id":"e8b28a79-d960-431b-99a8-00e81e08fcb5","system_id":"levelo_inurba_marseille","lat":43.24652,"lon":5.43143,"is_reserved":false,"is_disabled":false,"rental_uris":{"android":"levelo://app?vid=e8b28a79-d960-431b-99a8-00e81e08fcb5","ios":"levelo://app?vid=e8b28a79-d960-431b-99a8-00e81e08fcb5"},"vehicle_type_id":"4","last_reported":1762110395,"current_range_meters":19600,"station_id":"st_d2m6c4gdas8pm72e190g","pricing_plan_id":"cebpf4jnsgd1na2vs0mg"},{"bike_id":"3bfc21dd-7202-4f60-8180-c91b8cade2d1","system_id":"levelo_inurba_marseille","lat":43.298798,"lon":5.389043,"is_reserved":false,"is_disabled":false,"rental_uris":{"android":"levelo://app?vid=3bfc21dd-7202-4f60-8180-c91b8cade2d1","ios":"levelo://app?vid=3bfc21dd-7202-4f60-8180-c91b8cade2d1"},"vehicle_type_id":"4","last_reported":1762110395,"current_range_meters":19600,"station_id":"ce4bh392rcd13ifvqdl0","pricing_plan_id":"cebpf4jnsgd1na2vs0mg"},{"bike_id":"f234ad47-0901-40bf-a06a-e46adc6b907e","system_id":"levelo_inurba_marseille","lat":43.23186,"lon":5.3554,"is_reserved":false,"is_disabled":true,"rental_uris":{"android":"levelo://app?vid=f234ad47-0901-40bf-a06a-e46adc6b907e","ios":"levelo://app?vid=f234ad47-0901-40bf-a06a-e46adc6b907e"},"vehicle_type_id":"4","last_reported":1762110395,"current_range_meters":19600,"station_id":"ce4bhu92rcd13ifvqi70","pricing_plan_id":"cebpf4jnsgd1na2vs0mg"},{"bike_id":"89e67e52-25e1-4ad0-9de3-7b36d82ea77a","system_id":"levelo_inurba_marseille","lat":43.29528,"lon":5.39411,"is_reserved":false,"is_disabled":false,"rental_uris":{"android":"levelo://app?vid=89e67e52-25e1-4ad0-9de3-7b36d82ea77a","ios":"levelo://app?vid=89e67e52-25e1-4ad0-9de3-7b36d82ea77a"},"vehicle_type_id":"4","last_reported":1762110395,"current_range_meters":19600,"station_id":"ce4bh292rcd13ifvqdf0","pricing_plan_id":"cebpf4jnsgd1na2vs0mg"},{"bike_id":"ddcdec3e-aee8-42c5-8006-a7c8138b34e5","system_id":"levelo_inurba_marseille","lat":43.302946,"lon":5.401146,"is_reserved":false,"is_disabled":false,"rental_uris":{"android":"levelo://app?vid=ddcdec3e-aee8-42c5-8006-a7c8138b34e5","ios":"levelo://app?vid=ddcdec3e-aee8-42c5-8006-a7c8138b34e5"},"vehicle_type_id":"4","last_reported":1762110395,"current_range_meters":19600,"station_id":"ce4bhop2rcd13ifvqh8g","pricing_plan_id":"cebpf4jnsgd1na2vs0mg"},{"bike_id":"51bf3cb7-470c-477e-9e73-8c565aae20cb","system_id":"levelo_inurba_marseille","lat":43.29741,"lon":5.42689,"is_reserved":false,"is_disabled":false,"rental_uris":{"android":"levelo://app?vid=51bf3cb7-470c-477e-9e73-8c565aae20cb","ios":"levelo://app?vid=51bf3cb7-470c-477e-9e73-8c565aae20cb"},"vehicle_type_id":"4","last_reported":1762110395,"current_range_meters":20000,"station_id":"","pricing_plan_id":"cebpf4jnsgd1na2vs0mg"},{"bike_id":"258d165a-449f-4925-b56e-beae8f481fb2","system_id":"levelo_inurba_marseille","lat":43.284004,"lon":5.349923,"is_reserved":false,"is_disabled":true,"rental_uris":{"android":"levelo://app?vid=258d165a-449f-4925-b56e-beae8f481fb2","ios":"levelo://app?vid=258d165a-449f-4925-b56e-beae8f481fb2"},"vehicle_type_id":"4","last_reported":1762110395,"current_range_meters":20000,"station_id":"","pricing_plan_id":"cebpf4jnsgd1na2vs0mg"},{"bike_id":"7b3ada81-0ff3-49e9-8471-eb10e4c9b7f2","system_id":"levelo_inurba_marseille","lat":43.290189,"lon":5.381331,"is_reserved":false,"is_disabled":false,"rental_uris":{"android":"levelo://app?vid=7b3ada81-0ff3-49e9-8471-eb10e4c9b7f2","ios":"levelo://app?vid=7b3ada81-0ff3-49e9-8471-eb10e4c9b7f2"},"vehicle_type_id":"4","last_reported":1762110395,"current_range_meters":20000,"station_id":"ce4bh4p2rcd13ifvqe1g","pricing_plan_id":"cebpf4jnsgd1na2vs0mg"},{"bike_id":"e8adea7e-0a90-49fd-b3a2-32134cae9db0","system_id":"levelo_inurba_marseille","lat":43.21211,"lon":5.35073,"is_reserved":false,"is_disabled":false,"rental_uris":{"android":"levelo://app?vid=e8adea7e-0a90-49fd-b3a2-32134cae9db0","ios":"levelo://app?vid=e8adea7e-0a90-49fd-b3a2-32134cae9db0"},"vehicle_type_id":"4","last_reported":1762110395,"current_range_meters":20000,"station_id":"","pricing_plan_id":"cebpf4jnsgd1na2vs0mg"},{"bike_id":"10af86d6-fd34-4f8d-98a4-3b54e5ba6156","system_id":"levelo_inurba_marseille","lat":43.28482,"lon":5.38419,"is_reserved":false,"is_disabled":false,"rental_uris":{"android":"levelo://app?vid=10af86d6-fd34-4f8d-98a4-3b54e5ba6156","ios":"levelo://app?vid=10af86d6-fd34-4f8d-98a4-3b54e5ba6156"},"vehicle_type_id":"4","last_reported":1762110395,"current_range_meters":20000,"station_id":"ce4bh512rcd13ifvqe3g","pricing_plan_id":"cebpf4jnsgd1na2vs0mg"},{"bike_id":"0b0c3ccd-c9f7-42c0-aa5e-7e6469ec820c","system_id":"levelo_inurba_marseille","lat":43.25511,"lon":5.37652,"is_reserved":false,"is_disabled":false,"rental_uris":{"android":"levelo://app?vid=0b0c3ccd-c9f7-42c0-aa5e-7e6469ec820c","ios":"levelo://app?vid=0b0c3ccd-c9f7-42c0-aa5e-7e6469ec820c"},"vehicle_type_id":"4","last_reported":1762110395,"current_range_meters":20000,"station_id":"ce4bhh12rcd13ifvqff0","pricing_plan_id":"cebpf4jnsgd1na2vs0mg"},{"bike_id":"03fb121a-ef4f-423c-9354-65aa0b6c3950","system_id":"levelo_inurba_marseille","lat":43.29603,"lon":5.3808,"is_reserved":false,"is_disabled":false,"rental_uris":{"android":"levelo://app?vid=03fb121a-ef4f-423c-9354-65aa0b6c3950","ios":"levelo://app?vid=03fb121a-ef4f-423c-9354-65aa0b6c3950"},"vehicle_type_id":"4","last_reported":1762110395,"current_range_meters":20000,"station_id":"ce4bgl12rcd13ifvqbo0","pricing_plan_id":"cebpf4jnsgd1na2vs0mg"},{"bike_id":"7266ed46-2381-404a-9c13-a92f05fa953b","system_id":"levelo_inurba_marseille","lat":43.337608,"lon":5.374329,"is_reserved":false,"is_disabled":false,"rental_uris":{"android":"levelo://app?vid=7266ed46-2381-404a-9c13-a92f05fa953b","ios":"levelo://app?vid=7266ed46-2381-404a-9c13-a92f05fa953b"},"vehicle_type_id":"4","last_reported":1762110395,"current_range_meters":20000,"station_id":"","pricing_plan_id":"cebpf4jnsgd1na2vs0mg"},{"bike_id":"870d017a-8d05-47ae-93fa-4f583fdb98f3","system_id":"levelo_inurba_marseille","lat":43.26481,"lon":5.39542,"is_reserved":false,"is_disabled":false,"rental_uris":{"android":"levelo://app?vid=870d017a-8d05-47ae-93fa-4f583fdb98f3","ios":"levelo://app?vid=870d017a-8d05-47ae-93fa-4f583fdb98f3"},"vehicle_type_id":"4","last_reported":1762110395,"current_range_meters":20000,"station_id":"ce4bhi12rcd13ifvqfq0","pricing_plan_id":"cebpf4jnsgd1na2vs0mg"},{"bike_id":"7ee96323-da9c-4c60-bbe4-d1054018acab","system_id":"levelo_inurba_marseille","lat":43.30596,"lon":5.36689,"is_reserved":false,"is_disabled":true,"rental_uris":{"android":"levelo://app?vid=7ee96323-da9c-4c60-bbe4-d1054018acab","ios":"levelo://app?vid=7ee96323-da9c-4c60-bbe4-d1054018acab"},"vehicle_type_id":"4","last_reported":1762110395,"current_range_meters":20000,"station_id":"","pricing_plan_id":"cebpf4jnsgd1na2vs0mg"},{"bike_id":"f9be3c42-7c1d-4f56-aef5-d360ab65ccd7","system_id":"levelo_inurba_marseille","lat":43.29798,"lon":5.380991,"is_reserved":false,"is_disabled":false,"rental_uris":{"android":"levelo://app?vid=f9be3c42-7c1d-4f56-aef5-d360ab65ccd7","ios":"levelo://app?vid=f9be3c42-7c1d-4f56-aef5-d360ab65ccd7"},"vehicle_type_id":"4","last_reported":1762110395,"current_range_meters":20400,"station_id":"ce4bgip2rcd13ifvqbb0","pricing_plan_id":"cebpf4jnsgd1na2vs0mg"},{"bike_id":"3c21cab0-cd21-4b1e-8ca9-ba2a3bd07ea5","system_id":"levelo_inurba_marseille","lat":43.2783,"lon":5.40721,"is_reserved":false,"is_disabled":false,"rental_uris":{"android":"levelo://app?vid=3c21cab0-cd21-4b1e-8ca9-ba2a3bd07ea5","ios":"levelo://app?vid=3c21cab0-cd21-4b1e-8ca9-ba2a3bd07ea5"},"vehicle_type_id":"4","last_reported":1762110395,"current_range_meters":20400,"station_id":"ce4bhnh2rcd13ifvqgtg","pricing_plan_id":"cebpf4jnsgd1na2vs0mg"},{"bike_id":"4bc8fde1-c993-419c-b583-a5f32051e3af","system_id":"levelo_inurba_marseille","lat":43.2603,"lon":5.3755,"is_reserved":false,"is_disabled":false,"rental_uris":{"android":"levelo://app?vid=4bc8fde1-c993-419c-b583-a5f32051e3af","ios":"levelo://app?vid=4bc8fde1-c993-419c-b583-a5f32051e3af"},