{"last_updated":1729343636,"ttl":60,"version":"2.2","data":{"bikes":[{"bike_id":"f8b233b8-d3ff-415f-9219-3b5494a78fe5","system_id":"levelo_inurba_marseille","lat":43.27293,"lon":5.362795,"is_reserved":false,"is_disabled":false,"rental_uris":{"android":"levelo://app?vid=f8b233b8-d3ff-415f-9219-3b5494a78fe5","ios":"levelo://app?vid=f8b233b8-d3ff-415f-9219-3b5494a78fe5"},"vehicle_type_id":"4","last_reported":1729343637,"current_range_meters":6000,"station_id":"ce4bhbh2rcd13ifvqeo0","pricing_plan_id":"cebpf4jnsgd1na2vs0mg"},{"bike_id":"ef47d04a-d623-4923-9ac4-d8403fc9a216","system_id":"levelo_inurba_marseille","lat":43.33721,"lon":5.39184,"is_reserved":false,"is_disabled":false,"rental_uris":{"android":"levelo://app?vid=ef47d04a-d623-4923-9ac4-d8403fc9a216","ios":"levelo://app?vid=ef47d04a-d623-4923-9ac4-d8403fc9a216"},"vehicle_type_id":"4","last_reported":1729343637,"current_range_meters":38800,"station_id":"ce4bhr92rcd13ifvqhsg","pricing_plan_id":"cebpf4jnsgd1na2vs0mg"},{"bike_id":"10a9ece6-ff34-482d-8185-60ac6265c523","system_id":"levelo_inurba_marseille","lat":43.31068,"lon":5.37817,"is_reserved":false,"is_disabled":false,"rental_uris":{"android":"levelo://app?vid=10a9ece6-ff34-482d-8185-60ac6265c523","ios":"levelo://app?vid=10a9ece6-ff34-482d-8185-60ac6265c523"},"vehicle_type_id":"4","last_reported":1729343637,"current_range_meters":20800,"station_id":"ce4bgt92rcd13ifvqcg0","pricing_plan_id":"cebpf4jnsgd1na2vs0mg"},{"bike_id":"afdeea0a-a56e-4979-b223-aa0bb4ff3e94","system_id":"levelo_inurba_marseille","lat":43.26553,"lon":5.3729,"is_reserved":false,"is_disabled":false,"rental_uris":{"android":"levelo://app?vid=afdeea0a-a56e-4979-b223-aa0bb4ff3e94","ios":"levelo://app?vid=afdeea0a-a56e-4979-b223-aa0bb4ff3e94"},"vehicle_type_id":"4","last_reported":1729343637,"current_range_meters":23200,"station_id":"ce4bhg12rcd13ifvqf70","pricing_plan_id":"cebpf4jnsgd1na2vs0mg"},{"bike_id":"a191078d-3b42-4798-a68c-6fcf9e88572d","system_id":"levelo_inurba_marseille","lat":43.31714,"lon":5.4371,"is_reserved":false,"is_disabled":false,"rental_uris":{"android":"levelo://app?vid=a191078d-3b42-4798-a68c-6fcf9e88572d","ios":"levelo://app?vid=a191078d-3b42-4798-a68c-6fcf9e88572d"},"vehicle_type_id":"4","last_reported":1729343637,"current_range_meters":38000,"station_id":"ce4bhp92rcd13ifvqhcg","pricing_plan_id":"cebpf4jnsgd1na2vs0mg"},{"bike_id":"7695e951-fe49-466c-b1f2-4e44e5b9e14c","system_id":"levelo_inurba_marseille","lat":43.30794,"lon":5.43535,"is_reserved":false,"is_disabled":false,"rental_uris":{"android":"levelo://app?vid=7695e951-fe49-466c-b1f2-4e44e5b9e14c","ios":"levelo://app?vid=7695e951-fe49-466c-b1f2-4e44e5b9e14c"},"vehicle_type_id":"4","last_reported":1729343637,"current_range_meters":38000,"station_id":"ce4bhph2rcd13ifvqheg","pricing_plan_id":"cebpf4jnsgd1na2vs0mg"},{"bike_id":"50f5811e-88e0-4264-a057-31815b833aba","system_id":"levelo_inurba_marseille","lat":43.302452,"lon":5.376963,"is_reserved":false,"is_disabled":false,"rental_uris":{"android":"levelo://app?vid=50f5811e-88e0-4264-a057-31815b833aba","ios":"levelo://app?vid=50f5811e-88e0-4264-a057-31815b833aba"},"vehicle_type_id":"4","last_reported":1729343637,"current_range_meters":35600,"station_id":"ce4bguh2rcd13ifvqcj0","pricing_plan_id":"cebpf4jnsgd1na2vs0mg"},{"bike_id":"82bfd829-e47e-40b0-8dc3-14b23802a3eb","system_id":"levelo_inurba_marseille","lat":43.30547,"lon":5.3655,"is_reserved":false,"is_disabled":false,"rental_uris":{"android":"levelo://app?vid=82bfd829-e47e-40b0-8dc3-14b23802a3eb","ios":"levelo://app?vid=82bfd829-e47e-40b0-8dc3-14b23802a3eb"},"vehicle_type_id":"4","last_reported":1729343637,"current_range_meters":38000,"station_id":"ce4bgs12rcd13ifvqcag","pricing_plan_id":"cebpf4jnsgd1na2vs0mg"},{"bike_id":"66c71971-b324-4c0b-8f1b-28bf949b58b3","system_id":"levelo_inurba_marseille","lat":43.29258,"lon":5.38448,"is_reserved":false,"is_disabled":false,"rental_uris":{"android":"levelo://app?vid=66c71971-b324-4c0b-8f1b-28bf949b58b3","ios":"levelo://app?vid=66c71971-b324-4c0b-8f1b-28bf949b58b3"},"vehicle_type_id":"4","last_reported":1729343637,"current_range_meters":4800,"station_id":"","pricing_plan_id":"cebpf4jnsgd1na2vs0mg"},{"bike_id":"4dd78387-69b0-4f40-93ee-8c3fb82439f9","system_id":"levelo_inurba_marseille","lat":43.29588,"lon":5.36748,"is_reserved":false,"is_disabled":false,"rental_uris":{"android":"levelo://app?vid=4dd78387-69b0-4f40-93ee-8c3fb82439f9","ios":"levelo://app?vid=4dd78387-69b0-4f40-93ee-8c3fb82439f9"},"vehicle_type_id":"4","last_reported":1729343637,"current_range_meters":11200,"station_id":"ce4bgph2rcd13ifvqc2g","pricing_plan_id":"cebpf4jnsgd1na2vs0mg"},{"bike_id":"73c76ee5-7ddc-4450-aa74-9fff97df5c35","system_id":"levelo_inurba_marseille","lat":43.297119,"lon":5.37693,"is_reserved":false,"is_disabled":false,"rental_uris":{"android":"levelo://app?vid=73c76ee5-7ddc-4450-aa74-9fff97df5c35","ios":"levelo://app?vid=73c76ee5-7ddc-4450-aa74-9fff97df5c35"},"vehicle_type_id":"4","last_reported":1729343637,"current_range_meters":11600,"station_id":"ce4bgkh2rcd13ifvqbl0","pricing_plan_id":"cebpf4jnsgd1na2vs0mg"},{"bike_id":"3c42b0b4-9385-4eef-8b57-a941d8e21902","system_id":"levelo_inurba_marseille","lat":43.298014,"lon":5.403487,"is_reserved":false,"is_disabled":false,"rental_uris":{"android":"levelo://app?vid=3c42b0b4-9385-4eef-8b57-a941d8e21902","ios":"levelo://app?vid=3c42b0b4-9385-4eef-8b57-a941d8e21902"},"vehicle_type_id":"4","last_reported":1729343637,"current_range_meters":26800,"station_id":"ce4bh112rcd13ifvqd90","pricing_plan_id":"cebpf4jnsgd1na2vs0mg"},{"bike_id":"e0879c3f-10eb-4d3b-8053-605cb1c6310c","system_id":"levelo_inurba_marseille","lat":43.26068,"lon":5.39395,"is_reserved":false,"is_disabled":false,"rental_uris":{"android":"levelo://app?vid=e0879c3f-10eb-4d3b-8053-605cb1c6310c","ios":"levelo://app?vid=e0879c3f-10eb-4d3b-8053-605cb1c6310c"},"vehicle_type_id":"4","last_reported":1729343637,"current_range_meters":26800,"station_id":"ce4bhh92rcd13ifvqfj0","pricing_plan_id":"cebpf4jnsgd1na2vs0mg"},{"bike_id":"0c203b8f-52fe-4966-9981-951e05917abd","system_id":"levelo_inurba_marseille","lat":43.30594,"lon":5.39359,"is_reserved":false,"is_disabled":false,"rental_uris":{"android":"levelo://app?vid=0c203b8f-52fe-4966-9981-951e05917abd","ios":"levelo://app?vid=0c203b8f-52fe-4966-9981-951e05917abd"},"vehicle_type_id":"4","last_reported":1729343637,"current_range_meters":28400,"station_id":"ce4bh0p2rcd13ifvqd80","pricing_plan_id":"cebpf4jnsgd1na2vs0mg"},{"bike_id":"56197ed8-42cb-44e5-ab69-e8c8a70bee2a","system_id":"levelo_inurba_marseille","lat":43.3045,"lon":5.37908,"is_reserved":false,"is_disabled":false,"rental_uris":{"android":"levelo://app?vid=56197ed8-42cb-44e5-ab69-e8c8a70bee2a","ios":"levelo://app?vid=56197ed8-42cb-44e5-ab69-e8c8a70bee2a"},"vehicle_type_id":"4","last_reported":1729343637,"current_range_meters":38800,"station_id":"ce4bgup2rcd13ifvqcn0","pricing_plan_id":"cebpf4jnsgd1na2vs0mg"},{"bike_id":"c46ea838-8764-45bd-9eb3-9e7162381a77","system_id":"levelo_inurba_marseille","lat":43.31076,"lon":5.38352,"is_reserved":false,"is_disabled":false,"rental_uris":{"android":"levelo://app?vid=c46ea838-8764-45bd-9eb3-9e7162381a77","ios":"levelo://app?vid=c46ea838-8764-45bd-9eb3-9e7162381a77"},"vehicle_type_id":"4","last_reported":1729343637,"current_range_meters":34000,"station_id":"ce4bgv92rcd13ifvqcr0","pricing_plan_id":"cebpf4jnsgd1na2vs0mg"},{"bike_id":"939d56ee-4255-4d70-8a42-7774c1206c22","system_id":"levelo_inurba_marseille","lat":43.28932,"lon":5.36631,"is_reserved":false,"is_disabled":false,"rental_uris":{"android":"levelo://app?vid=939d56ee-4255-4d70-8a42-7774c1206c22","ios":"levelo://app?vid=939d56ee-4255-4d70-8a42-7774c1206c22"},"vehicle_type_id":"4","last_reported":1729343637,"current_range_meters":8000,"station_id":"ce4bhap2rcd13ifvqek0","pricing_plan_id":"cebpf4jnsgd1na2vs0mg"},{"bike_id":"7b622fb2-ac11-42dd-ac75-27f37365c3d8","system_id":"levelo_inurba_marseille","lat":43.29933,"lon":5.36526,"is_reserved":false,"is_disabled":false,"rental_uris":{"android":"levelo://app?vid=7b622fb2-ac11-42dd-ac75-27f37365c3d8","ios":"levelo://app?vid=7b622fb2-ac11-42dd-ac75-27f37365c3d8"},"vehicle_type_id":"4","last_reported":1729343637,"current_range_meters":35200,"station_id":"ce4bgm92rcd13ifvqbr0","pricing_plan_id":"cebpf4jnsgd1na2vs0mg"},{"bike_id":"006ddbf4-82cb-41c3-a643-0f3a1c8bb945","system_id":"levelo_inurba_marseille","lat":43.27069,"lon":5.42275,"is_reserved":false,"is_disabled":false,"rental_uris":{"android":"levelo://app?vid=006ddbf4-82cb-41c3-a643-0f3a1c8bb945","ios":"levelo://app?vid=006ddbf4-82cb-41c3-a643-0f3a1c8bb945"},"vehicle_type_id":"4","last_reported":1729343637,"current_range_meters":39200,"station_id":"ce4bhk92rcd13ifvqgb0","pricing_plan_id":"cebpf4jnsgd1na2vs0mg"},{"bike_id":"317d7818-96ed-4b00-a33f-364ecbb090a9","system_id":"levelo_inurba_marseille","lat":43.29847,"lon":5.36267,"is_reserved":false,"is_disabled":false,"rental_uris":{"android":"levelo://app?vid=317d7818-96ed-4b00-a33f-364ecbb090a9","ios":"levelo://app?vid=317d7818-96ed-4b00-a33f-364ecbb090a9"},"vehicle_type_id":"4","last_reported":1729343637,"current_range_meters":36000,"station_id":"ce4bgpp2rcd13ifvqc3g","pricing_plan_id":"cebpf4jnsgd1na2vs0mg"},{"bike_id":"fd744da4-87de-4a3f-99b6-f7e5f09b7c22","system_id":"levelo_inurba_marseille","lat":43.337444,"lon":5.374475,"is_reserved":false,"is_disabled":false,"rental_uris":{"android":"levelo://app?vid=fd744da4-87de-4a3f-99b6-f7e5f09b7c22","ios":"levelo://app?vid=fd744da4-87de-4a3f-99b6-f7e5f09b7c22"},"vehicle_type_id":"4","last_reported":1729343637,"current_range_meters":38800,"station_id":"ce4bh0p2rcd13ifvqd70","pricing_plan_id":"cebpf4jnsgd1na2vs0mg"},{"bike_id":"ebafd738-511a-4fa3-8cd6-6be4ef2aec98","system_id":"levelo_inurba_marseille","lat":43.30547,"lon":5.3654,"is_reserved":false,"is_disabled":false,"rental_uris":{"android":"levelo://app?vid=ebafd738-511a-4fa3-8cd6-6be4ef2aec98","ios":"levelo://app?vid=ebafd738-511a-4fa3-8cd6-6be4ef2aec98"},"vehicle_type_id":"4","last_reported":1729343637,"current_range_meters":20400,"station_id":"ce4bgs12rcd13ifvqcag","pricing_plan_id":"cebpf4jnsgd1na2vs0mg"},{"bike_id":"9e833968-4b5b-4a32-a96b-8431979de98c","system_id":"levelo_inurba_marseille","lat":43.25725,"lon":5.41109,"is_reserved":false,"is_disabled":false,"rental_uris":{"android":"levelo://app?vid=9e833968-4b5b-4a32-a96b-8431979de98c","ios":"levelo://app?vid=9e833968-4b5b-4a32-a96b-8431979de98c"},"vehicle_type_id":"4","last_reported":1729343637,"current_range_meters":27200,"station_id":"ce4bhkp2rcd13ifvqgd0","pricing_plan_id":"cebpf4jnsgd1na2vs0mg"},{"bike_id":"60bdae86-6faa-43f4-ae5c-ad8ce19c9d34","system_id":"levelo_inurba_marseille","lat":43.29626,"lon":5.37153,"is_reserved":false,"is_disabled":false,"rental_uris":{"android":"levelo://app?vid=60bdae86-6faa-43f4-ae5c-ad8ce19c9d34","ios":"levelo://app?vid=60bdae86-6faa-43f4-ae5c-ad8ce19c9d34"},"vehicle_type_id":"4","last_reported":1729343637,"current_range_meters":38800,"station_id":"ce4bgnh2rcd13ifvqc0g","pricing_plan_id":"cebpf4jnsgd1na2vs0mg"},{"bike_id":"c1d5acc4-88c2-4e3c-b5aa-7f6e55eab4c1","system_id":"levelo_inurba_marseille","lat":43.25861,"lon":5.39905,"is_reserved":false,"is_disabled":false,"rental_uris":{"android":"levelo://app?vid=c1d5acc4-88c2-4e3c-b5aa-7f6e55eab4c1","ios":"levelo://app?vid=c1d5acc4-88c2-4e3c-b5aa-7f6e55eab4c1"},"vehicle_type_id":"4","last_reported":1729343637,"current_range_meters":2000,"station_id":"ce4bhl92rcd13ifvqghg","pricing_plan_id":"cebpf4jnsgd1na2vs0mg"},{"bike_id":"4971fcd4-2a43-499a-909b-8ce0b63b9329","system_id":"levelo_inurba_marseille","lat":43.33719,"lon":5.39188,"is_reserved":false,"is_disabled":false,"rental_uris":{"android":"levelo://app?vid=4971fcd4-2a43-499a-909b-8ce0b63b9329","ios":"levelo://app?vid=4971fcd4-2a43-499a-909b-8ce0b63b9329"},"vehicle_type_id":"4","last_reported":1729343637,"current_range_meters":8000,"station_id":"ce4bhr92rcd13ifvqhsg","pricing_plan_id":"cebpf4jnsgd1na2vs0mg"},{"bike_id":"3ea1c621-5e28-4f03-89b0-4942a2e7b54b","system_id":"levelo_inurba_marseille","lat":43.27622,"lon":5.36106,"is_reserved":false,"is_disabled":false,"rental_uris":{"android":"levelo://app?vid=3ea1c621-5e28-4f03-89b0-4942a2e7b54b","ios":"levelo://app?vid=3ea1c621-5e28-4f03-89b0-4942a2e7b54b"},"vehicle_type_id":"4","last_reported":1729343637,"current_range_meters":3600,"station_id":"ce4bgj92rcd13ifvqbe0","pricing_plan_id":"cebpf4jnsgd1na2vs0mg"},{"bike_id":"874dbab0-2f32-4e5c-a3d5-6bdf980d941d","system_id":"levelo_inurba_marseille","lat":43.28415,"lon":5.35,"is_reserved":false,"is_disabled":false,"rental_uris":{"android":"levelo://app?vid=874dbab0-2f32-4e5c-a3d5-6bdf980d941d","ios":"levelo://app?vid=874dbab0-2f32-4e5c-a3d5-6bdf980d941d"},"vehicle_type_id":"4","last_reported":1729343637,"current_range_meters":38400,"station_id":"ce4bhbh2rcd13ifvqepg","pricing_plan_id":"cebpf4jnsgd1na2vs0mg"},{"bike_id":"37275312-3aa8-499a-8732-09e18a111cfd","system_id":"levelo_inurba_marseille","lat":43.25583,"lon":5.38236,"is_reserved":false,"is_disabled":false,"rental_uris":{"android":"levelo://app?vid=37275312-3aa8-499a-8732-09e18a111cfd","ios":"levelo://app?vid=37275312-3aa8-499a-8732-09e18a111cfd"},"vehicle_type_id":"4","last_reported":1729343637,"current_range_meters":22800,"station_id":"ce4bhih2rcd13ifvqfs0","pricing_plan_id":"cebpf4jnsgd1na2vs0mg"},{"bike_id":"61a04cb9-be4f-4cf5-b789-0758f7c54444","system_id":"levelo_inurba_marseille","lat":43.232,"lon":5.3556,"is_reserved":false,"is_disabled":false,"rental_uris":{"android":"levelo://app?vid=61a04cb9-be4f-4cf5-b789-0758f7c54444","ios":"levelo://app?vid=61a04cb9-be4f-4cf5-b789-0758f7c54444"},"vehicle_type_id":"4","last_reported":1729343637,"current_range_meters":19200,"station_id":"ce4bhu92rcd13ifvqi70","pricing_plan_id":"cebpf4jnsgd1na2vs0mg"},{"bike_id":"ac816658-bedb-4eb4-9f0d-894adb3b1953","system_id":"levelo_inurba_marseille","lat":43.25499,"lon":5.37653,"is_reserved":false,"is_disabled":false,"rental_uris":{"android":"levelo://app?vid=ac816658-bedb-4eb4-9f0d-894adb3b1953","ios":"levelo://app?vid=ac816658-bedb-4eb4-9f0d-894adb3b1953"},"vehicle_type_id":"4","last_reported":1729343637,"current_range_meters":8400,"station_id":"ce4bhh12rcd13ifvqff0","pricing_plan_id":"cebpf4jnsgd1na2vs0mg"},{"bike_id":"d010bf09-451b-44ba-8c78-34493d6c85f0","system_id":"levelo_inurba_marseille","lat":43.29862,"lon":5.36295,"is_reserved":false,"is_disabled":false,"rental_uris":{"android":"levelo://app?vid=d010bf09-451b-44ba-8c78-34493d6c85f0","ios":"levelo://app?vid=d010bf09-451b-44ba-8c78-34493d6c85f0"},"vehicle_type_id":"4","last_reported":1729343637,"current_range_meters":38800,"station_id":"ce4bgpp2rcd13ifvqc3g","pricing_plan_id":"cebpf4jnsgd1na2vs0mg"},{"bike_id":"86e7190e-8807-481d-83df-1eec0e3452b3","system_id":"levelo_inurba_marseille","lat":43.2407,"lon":5.3777,"is_reserved":false,"is_disabled":false,"rental_uris":{"android":"levelo://app?vid=86e7190e-8807-481d-83df-1eec0e3452b3","ios":"levelo://app?vid=86e7190e-8807-481d-83df-1eec0e3452b3"},"vehicle_type_id":"4","last_reported":1729343637,"current_range_meters":30000,"station_id":"ce4bhnp2rcd13ifvqgvg","pricing_plan_id":"cebpf4jnsgd1na2vs0mg"},{"bike_id":"c746da30-0175-4c63-8cc4-f4d0284e8127","system_id":"levelo_inurba_marseille","lat":43.23971,"lon":5.36635,"is_reserved":false,"is_disabled":false,"rental_uris":{"android":"levelo://app?vid=c746da30-0175-4c63-8cc4-f4d0284e8127","ios":"levelo://app?vid=c746da30-0175-4c63-8cc4-f4d0284e8127"},"vehicle_type_id":"4","last_reported":1729343637,"current_range_meters":16000,"station_id":"ce4bhi12rcd13ifvqfp0","pricing_plan_id":"cebpf4jnsgd1na2vs0mg"},{"bike_id":"0e577dc1-2021-4542-81dd-08e4eb64fe7e","system_id":"levelo_inurba_marseille","lat":43.23962,"lon":5.36632,"is_reserved":false,"is_disabled":false,"rental_uris":{"android":"levelo://app?vid=0e577dc1-2021-4542-81dd-08e4eb64fe7e","ios":"levelo://app?vid=0e577dc1-2021-4542-81dd-08e4eb64fe7e"},"vehicle_type_id":"4","last_reported":1729343637,"current_range_meters":38800,"station_id":"ce4bhi12rcd13ifvqfp0","pricing_plan_id":"cebpf4jnsgd1na2vs0mg"},{"bike_id":"1ea4ff61-14be-4d15-858d-8e9932480267","system_id":"levelo_inurba_marseille","lat":43.29013,"lon":5.35605,"is_reserved":false,"is_disabled":false,"rental_uris":{"android":"levelo://app?vid=1ea4ff61-14be-4d15-858d-8e9932480267","ios":"levelo://app?vid=1ea4ff61-14be-4d15-858d-8e9932480267"},"vehicle_type_id":"4","last_reported":1729343637,"current_range_meters":32000,"station_id":"ce4bhb92rcd13ifvqen0","pricing_plan_id":"cebpf4jnsgd1na2vs0mg"},{"bike_id":"d0572c30-13bf-4746-a29b-111549056bfa","system_id":"levelo_inurba_marseille","lat":43.25939,"lon":5.40908,"is_reserved":false,"is_disabled":false,"rental_uris":{"android":"levelo://app?vid=d0572c30-13bf-4746-a29b-111549056bfa","ios":"levelo://app?vid=d0572c30-13bf-4746-a29b-111549056bfa"},"vehicle_type_id":"4","last_reported":1729343637,"current_range_meters":12800,"station_id":"ce4bhm92rcd13ifvqglg","pricing_plan_id":"cebpf4jnsgd1na2vs0mg"},{"bike_id":"7588a213-e3b8-4965-979e-d6dddfac1da4","system_id":"levelo_inurba_marseille","lat":43.22934,"lon":5.35382,"is_reserved":false,"is_disabled":false,"rental_uris":{"android":"levelo://app?vid=7588a213-e3b8-4965-979e-d6dddfac1da4","ios":"levelo://app?vid=7588a213-e3b8-4965-979e-d6dddfac1da4"},"vehicle_type_id":"4","last_reported":1729343637,"current_range_meters":13600,"station_id":"cpo3532slgdg3j2ikp40","pricing_plan_id":"cebpf4jnsgd1na2vs0mg"},{"bike_id":"fc6e513b-da81-4d34-a427-493e42edd768","system_id":"levelo_inurba_marseille","lat":43.2954,"lon":5.3924,"is_reserved":false,"is_disabled":false,"rental_uris":{"android":"levelo://app?vid=fc6e513b-da81-4d34-a427-493e42edd768","ios":"levelo://app?vid=fc6e513b-da81-4d34-a427-493e42edd768"},"vehicle_type_id":"4","last_reported":1729343637,"current_range_meters":22000,"station_id":"","pricing_plan_id":"cebpf4jnsgd1na2vs0mg"},{"bike_id":"ac231a2e-1def-435c-8990-198f2e08ac8d","system_id":"levelo_inurba_marseille","lat":43.23052,"lon":5.35494,"is_reserved":false,"is_disabled":false,"rental_uris":{"android":"levelo://app?vid=ac231a2e-1def-435c-8990-198f2e08ac8d","ios":"levelo://app?vid=ac231a2e-1def-435c-8990-198f2e08ac8d"},"vehicle_type_id":"4","last_reported":1729343637,"current_range_meters":14400,"station_id":"cpo3342slgdg3j2ifvpg","pricing_plan_id":"cebpf4jnsgd1na2vs0mg"},{"bike_id":"6694d2c2-a3fe-4eff-8374-b44780bc17df","system_id":"levelo_inurba_marseille","lat":43.29905,"lon":5.3815,"is_reserved":false,"is_disabled":false,"rental_uris":{"android":"levelo://app?vid=6694d2c2-a3fe-4eff-8374-b44780bc17df","ios":"levelo://app?vid=6694d2c2-a3fe-4eff-8374-b44780bc17df"},"vehicle_type_id":"4","last_reported":1729343637,"current_range_meters":35600,"station_id":"ce4bgj12rcd13ifvqbc0","pricing_plan_id":"cebpf4jnsgd1na2vs0mg"},{"bike_id":"7942b4d2-ec2e-45b4-a706-96b5d3064043","system_id":"levelo_inurba_marseille","lat":43.30195,"lon":5.36621,"is_reserved":false,"is_disabled":false,"rental_uris":{"android":"levelo://app?vid=7942b4d2-ec2e-45b4-a706-96b5d3064043","ios":"levelo://app?vid=7942b4d2-ec2e-45b4-a706-96b5d3064043"},"vehicle_type_id":"4","last_reported":1729343637,"current_range_meters":38800,"station_id":"ce4bgrh2rcd13ifvqc8g","pricing_plan_id":"cebpf4jnsgd1na2vs0mg"},{"bike_id":"ef662406-7033-48df-b9f1-8089075c488f","system_id":"levelo_inurba_marseille","lat":43.25863,"lon":5.39912,"is_reserved":false,"is_disabled":false,"rental_uris":{"android":"levelo://app?vid=ef662406-7033-48df-b9f1-8089075c488f","ios":"levelo://app?vid=ef662406-7033-48df-b9f1-8089075c488f"},"vehicle_type_id":"4","last_reported":1729343637,"current_range_meters":28800,"station_id":"ce4bhl92rcd13ifvqghg","pricing_plan_id":"cebpf4jnsgd1na2vs0mg"},{"bike_id":"f30e5bb2-e070-4b31-8b6f-805306d443a1","system_id":"levelo_inurba_marseille","lat":43.24074,"lon":5.3776,"is_reserved":false,"is_disabled":false,"rental_uris":{"android":"levelo://app?vid=f30e5bb2-e070-4b31-8b6f-805306d443a1","ios":"levelo://app?vid=f30e5bb2-e070-4b31-8b6f-805306d443a1"},"vehicle_type_id":"4","last_reported":1729343637,"current_range_meters":38800,"station_id":"ce4bhnp2rcd13ifvqgvg","pricing_plan_id":"cebpf4jnsgd1na2vs0mg"},{"bike_id":"57dd0012-e7c2-43e3-90a1-087125ac63fa","system_id":"levelo_inurba_marseille","lat":43.33759,"lon":5.37474,"is_reserved":false,"is_disabled":false,"rental_uris":{"android":"levelo://app?vid=57dd0012-e7c2-43e3-90a1-087125ac63fa","ios":"levelo://app?vid=57dd0012-e7c2-43e3-90a1-087125ac63fa"},"vehicle_type_id":"4","last_reported":1729343637,"current_range_meters":38000,"station_id":"","pricing_plan_id":"cebpf4jnsgd1na2vs0mg"},{"bike_id":"a7551cd3-eeb0-4b46-9496-737020a18aeb","system_id":"levelo_inurba_marseille","lat":43.28265,"lon":5.35073,"is_reserved":false,"is_disabled":false,"rental_uris":{"android":"levelo://app?vid=a7551cd3-eeb0-4b46-9496-737020a18aeb","ios":"levelo://app?vid=a7551cd3-eeb0-4b46-9496-737020a18aeb"},"vehicle_type_id":"4","last_reported":1729343637,"current_range_meters":38000,"station_id":"ce4bhbp2rcd13ifvqerg","pricing_plan_id":"cebpf4jnsgd1na2vs0mg"},{"bike_id":"9755f4e0-8354-4cd2-a672-0e5c29ec1e3f","system_id":"levelo_inurba_marseille","lat":43.22935,"lon":5.35384,"is_reserved":false,"is_disabled":false,"rental_uris":{"android":"levelo://app?vid=9755f4e0-8354-4cd2-a672-0e5c29ec1e3f","ios":"levelo://app?vid=9755f4e0-8354-4cd2-a672-0e5c29ec1e3f"},"vehicle_type_id":"4","last_reported":1729343637,"current_range_meters":36800,"station_id":"cpo3532slgdg3j2ikp40","pricing_plan_id":"cebpf4jnsgd1na2vs0mg"},{"bike_id":"e9cac722-cb5a-4d38-9492-8cf828e387a3","system_id":"levelo_inurba_marseille","lat":43.23195,"lon":5.39993,"is_reserved":false,"is_disabled":false,"rental_uris":{"android":"levelo://app?vid=e9cac722-cb5a-4d38-9492-8cf828e387a3","ios":"levelo://app?vid=e9cac722-cb5a-4d38-9492-8cf828e387a3"},"vehicle_type_id":"4","last_reported":1729343637,"current_range_meters":3600,"station_id":"ce4bhn12rcd13ifvqgqg","pricing_plan_id":"cebpf4jnsgd1na2vs0mg"},{"bike_id":"efe96721-07d4-4d0e-a039-64111c5eb33b","system_id":"levelo_inurba_marseille","lat":43.2737,"lon":5.36259,"is_reserved":false,"is_disabled":false,"rental_uris":{"android":"levelo://app?vid=efe96721-07d4-4d0e-a039-64111c5eb33b","ios":"levelo://app?vid=efe96721-07d4-4d0e-a039-64111c5eb33b"},"vehicle_type_id":"4","last_reported":1729343637,"current_range_meters":18000,"station_id":"ce4bhbh2rcd13ifvqeo0","pricing_plan_id":"cebpf4jnsgd1na2vs0mg"},{"bike_id":"3d7546d0-4dba-4212-88c9-dfe9a2032237","system_id":"levelo_inurba_marseille","lat":43.24174,"lon":5.36389,"is_reserved":false,"is_disabled":false,"rental_uris":{"android":"levelo://app?vid=3d7546d0-4dba-4212-88c9-dfe9a2032237","ios":"levelo://app?vid=3d7546d0-4dba-4212-88c9-dfe9a2032237"},"vehicle_type_id":"4","last_reported":1729343637,"current_range_meters":33200,"station_id":"cpo36qri1sfpv3e86is0","pricing_plan_id":"cebpf4jnsgd1na2vs0mg"},{"bike_id":"8c870a0b-d2da-4259-b624-2b2806a3de5f","system_id":"levelo_inurba_marseille","lat":43.26939,"lon":5.38638,"is_reserved":false,"is_disabled":false,"rental_uris":{"android":"levelo://app?vid=8c870a0b-d2da-4259-b624-2b2806a3de5f","ios":"levelo://app?vid=8c870a0b-d2da-4259-b624-2b2806a3de5f"},"vehicle_type_id":"4","last_reported":1729343637,"current_range_meters":14000,"station_id":"ce4bhh92rcd13ifvqfh0","pricing_plan_id":"cebpf4jnsgd1na2vs0mg"},{"bike_id":"8b10c252-b32b-40ef-b8da-9d1c9158f577","system_id":"levelo_inurba_marseille","lat":43.26033,"lon":5.37549,"is_reserved":false,"is_disabled":false,"rental_uris":{"android":"levelo://app?vid=8b10c252-b32b-40ef-b8da-9d1c9158f577","ios":"levelo://app?vid=8b10c252-b32b-40ef-b8da-9d1c9158f577"},"vehicle_type_id":"4","last_reported":1729343637,"current_range_meters":38800,"station_id":"ce4bhgh2rcd13ifvqfa0","pricing_plan_id":"cebpf4jnsgd1na2vs0mg"},{"bike_id":"32ce68a3-3fc7-4257-974f-ab657619c295","system_id":"levelo_inurba_marseille","lat":43.33739,"lon":5.37457,"is_reserved":false,"is_disabled":false,"rental_uris":{"android":"levelo://app?vid=32ce68a3-3fc7-4257-974f-ab657619c295","ios":"levelo://app?vid=32ce68a3-3fc7-4257-974f-ab657619c295"},"vehicle_type_id":"4","last_reported":1729343637,"current_range_meters":6000,"station_id":"","pricing_plan_id":"cebpf4jnsgd1na2vs0mg"},{"bike_id":"8ae6262c-4a8e-46a3-877c-8a9428098d89","system_id":"levelo_inurba_marseille","lat":43.2681,"lon":5.4027,"is_reserved":false,"is_disabled":false,"rental_uris":{"android":"levelo://app?vid=8ae6262c-4a8e-46a3-877c-8a9428098d89","ios":"levelo://app?vid=8ae6262c-4a8e-46a3-877c-8a9428098d89"},"vehicle_type_id":"4","last_reported":1729343637,"current_range_meters":37600,"station_id":"ce501612rcd8frsf0b60","pricing_plan_id":"cebpf4jnsgd1na2vs0mg"},{"bike_id":"f2561c00-dd23-42fc-a56c-c8ab7baec6f0","system_id":"levelo_inurba_marseille","lat":43.29517,"lon":5.39399,"is_reserved":false,"is_disabled":false,"rental_uris":{"android":"levelo://app?vid=f2561c00-dd23-42fc-a56c-c8ab7baec6f0","ios":"levelo://app?vid=f2561c00-dd23-42fc-a56c-c8ab7baec6f0"},"vehicle_type_id":"4","last_reported":1729343637,"current_range_meters":8000,"station_id":"ce4bh292rcd13ifvqdf0","pricing_plan_id":"cebpf4jnsgd1na2vs0mg"},{"bike_id":"319e285c-82b5-439b-a7b4-0550bf15a6bf","system_id":"levelo_inurba_marseille","lat":43.24995,"lon":5.38937,"is_reserved":false,"is_disabled":false,"rental_uris":{"android":"levelo://app?vid=319e285c-82b5-439b-a7b4-0550bf15a6bf","ios":"levelo://app?vid=319e285c-82b5-439b-a7b4-0550bf15a6bf"},"vehicle_type_id":"4","last_reported":1729343637,"current_range_meters":27200,"station_id":"ce4bhgp2rcd13ifvqfd0","pricing_plan_id":"cebpf4jnsgd1na2vs0mg"},{"bike_id":"d8756bab-c0ee-4e81-916a-a4452bf8c1ac","system_id":"levelo_inurba_marseille","lat":43.25682,"lon":5.39792,"is_reserved":false,"is_disabled":false,"rental_uris":{"android":"levelo://app?vid=d8756bab-c0ee-4e81-916a-a4452bf8c1ac","ios":"levelo://app?vid=d8756bab-c0ee-4e81-916a-a4452bf8c1ac"},"vehicle_type_id":"4","last_reported":1729343637,"current_range_meters":19600,"station_id":"ce4bhn12rcd13ifvqgpg","pricing_plan_id":"cebpf4jnsgd1na2vs0mg"},{"bike_id":"9fd98e94-e795-4ae5-ba8f-8e26efc1e22c","system_id":"levelo_inurba_marseille","lat":43.27498,"lon":5.42457,"is_reserved":false,"is_disabled":false,"rental_uris":{"android":"levelo://app?vid=9fd98e94-e795-4ae5-ba8f-8e26efc1e22c","ios":"levelo://app?vid=9fd98e94-e795-4ae5-ba8f-8e26efc1e22c"},"vehicle_type_id":"4","last_reported":1729343637,"current_range_meters":38800,"station_id":"ce4bhn92rcd13ifvqgrg","pricing_plan_id":"cebpf4jnsgd1na2vs0mg"},{"bike_id":"9e8bce22-3bc5-463a-9a89-57ed7c0b4b48","system_id":"levelo_inurba_marseille","lat":43.25002,"lon":5.38933,"is_reserved":false,"is_disabled":false,"rental_uris":{"android":"levelo://app?vid=9e8bce22-3bc5-463a-9a89-57ed7c0b4b48","ios":"levelo://app?vid=9e8bce22-3bc5-463a-9a89-57ed7c0b4b48"},"vehicle_type_id":"4","last_reported":1729343637,"current_range_meters":38400,"station_id":"ce4bhgp2rcd13ifvqfd0","pricing_plan_id":"cebpf4jnsgd1na2vs0mg"},{"bike_id":"de533415-0cf7-412a-984e-fd917d737264","system_id":"levelo_inurba_marseille","lat":43.25085,"lon":5.3952,"is_reserved":false,"is_disabled":false,"rental_uris":{"android":"levelo://app?vid=de533415-0cf7-412a-984e-fd917d737264","ios":"levelo://app?vid=de533415-0cf7-412a-984e-fd917d737264"},"vehicle_type_id":"4","last_reported":1729343637,"current_range_meters":39200,"station_id":"ce4bhm12rcd13ifvqgkg","pricing_plan_id":"cebpf4jnsgd1na2vs0mg"},{"bike_id":"60d0a362-f01f-4c86-ada0-8de263ecdd31","system_id":"levelo_inurba_marseille","lat":43.2969,"lon":5.37278,"is_reserved":false,"is_disabled":false,"rental_uris":{"android":"levelo://app?vid=60d0a362-f01f-4c86-ada0-8de263ecdd31","ios":"levelo://app?vid=60d0a362-f01f-4c86-ada0-8de263ecdd31"},"vehicle_type_id":"4","last_reported":1729343637,"current_range_meters":28400,"station_id":"ce4bgk12rcd13ifvqbj0","pricing_plan_id":"cebpf4jnsgd1na2vs0mg"},{"bike_id":"5ad45944-f1a9-4659-baa9-60cfd8843656","system_id":"levelo_inurba_marseille","lat":43.23191,"lon":5.35552,"is_reserved":false,"is_disabled":false,"rental_uris":{"android":"levelo://app?vid=5ad45944-f1a9-4659-baa9-60cfd8843656","ios":"levelo://app?vid=5ad45944-f1a9-4659-baa9-60cfd8843656"},"vehicle_type_id":"4","last_reported":1729343637,"current_range_meters":13600,"station_id":"ce4bhu92rcd13ifvqi70","pricing_plan_id":"cebpf4jnsgd1na2vs0mg"},{"bike_id":"638ece7f-b170-4c18-afbb-22041616ab90","system_id":"levelo_inurba_marseille","lat":43.30543,"lon":5.36527,"is_reserved":false,"is_disabled":false,"rental_uris":{"android":"levelo://app?vid=638ece7f-b170-4c18-afbb-22041616ab90","ios":"levelo://app?vid=638ece7f-b170-4c18-afbb-22041616ab90"},"vehicle_type_id":"4","last_reported":1729343637,"current_range_meters":28000,"station_id":"ce4bgs12rcd13ifvqcag","pricing_plan_id":"cebpf4jnsgd1na2vs0mg"},{"bike_id":"56a5afb8-444a-4786-9b49-523fbfaf6d8b","system_id":"levelo_inurba_marseille","lat":43.23191,"lon":5.39983,"is_reserved":false,"is_disabled":false,"rental_uris":{"android":"levelo://app?vid=56a5afb8-444a-4786-9b49-523fbfaf6d8b","ios":"levelo://app?vid=56a5afb8-444a-4786-9b49-523fbfaf6d8b"},"vehicle_type_id":"4","last_reported":1729343637,"current_range_meters":2800,"station_id":"ce4bhn12rcd13ifvqgqg","pricing_plan_id":"cebpf4jnsgd1na2vs0mg"},{"bike_id":"c11a5ce9-d454-42ba-894e-10ef811b990d","system_id":"levelo_inurba_marseille","lat":43.32474,"lon":5.36561,"is_reserved":false,"is_disabled":false,"rental_uris":{"android":"levelo://app?vid=c11a5ce9-d454-42ba-894e-10ef811b990d","ios":"levelo://app?vid=c11a5ce9-d454-42ba-894e-10ef811b990d"},"vehicle_type_id":"4","last_reported":1729343637,"current_range_meters":32000,"station_id":"ce4bhs12rcd13ifvqhvg","pricing_plan_id":"cebpf4jnsgd1na2vs0mg"},{"bike_id":"cfe78fd2-5ebc-40fb-858b-89aa9fc29771","system_id":"levelo_inurba_marseille","lat":43.29405,"lon":5.37803,"is_reserved":false,"is_disabled":false,"rental_uris":{"android":"levelo://app?vid=cfe78fd2-5ebc-40fb-858b-89aa9fc29771","ios":"levelo://app?vid=cfe78fd2-5ebc-40fb-858b-89aa9fc29771"},"vehicle_type_id":"4","last_reported":1729343637,"current_range_meters":19600,"station_id":"","pricing_plan_id":"cebpf4jnsgd1na2vs0mg"},{"bike_id":"fce56a43-24a2-46c2-b63b-01add27b8ab6","system_id":"levelo_inurba_marseille","lat":43.26143,"lon":5.37929,"is_reserved":false,"is_disabled":false,"rental_uris":{"android":"levelo://app?vid=fce56a43-24a2-46c2-b63b-01add27b8ab6","ios":"levelo://app?vid=fce56a43-24a2-46c2-b63b-01add27b8ab6"},"vehicle_type_id":"4","last_reported":1729343637,"current_range_meters":33600,"station_id":"","pricing_plan_id":"cebpf4jnsgd1na2vs0mg"},{"bike_id":"3b539b95-4118-4a64-9102-60cfaf6ad6d7","system_id":"levelo_inurba_marseille","lat":43.26193,"lon":5.37463,"is_reserved":false,"is_disabled":false,"rental_uris":{"android":"levelo://app?vid=3b539b95-4118-4a64-9102-60cfaf6ad6d7","ios":"levelo://app?vid=3b539b95-4118-4a64-9102-60cfaf6ad6d7"},"vehicle_type_id":"4","last_reported":1729343637,"current_range_meters":24400,"station_id":"ce4bhgp2rcd13ifvqfc0","pricing_plan_id":"cebpf4jnsgd1na2vs0mg"},{"bike_id":"cc200779-b0ab-472e-8e4c-a492949d5888","system_id":"levelo_inurba_marseille","lat":43.28152,"lon":5.42647,"is_reserved":false,"is_disabled":false,"rental_uris":{"android":"levelo://app?vid=cc200779-b0ab-472e-8e4c-a492949d5888","ios":"levelo://app?vid=cc200779-b0ab-472e-8e4c-a492949d5888"},"vehicle_type_id":"4","last_reported":1729343637,"current_range_meters":16000,"station_id":"ce4bhnh2rcd13ifvqgug","pricing_plan_id":"cebpf4jnsgd1na2vs0mg"},{"bike_id":"85638a3d-3bc0-4ba5-a0c2-fd5a1454fee6","system_id":"levelo_inurba_marseille","lat":43.22931,"lon":5.35378,"is_reserved":false,"is_disabled":false,"rental_uris":{"android":"levelo://app?vid=85638a3d-3bc0-4ba5-a0c2-fd5a1454fee6","ios":"levelo://app?vid=85638a3d-3bc0-4ba5-a0c2-fd5a1454fee6"},"vehicle_type_id":"4","last_reported":1729343637,"current_range_meters":19600,"station_id":"cpo3532slgdg3j2ikp40","pricing_plan_id":"cebpf4jnsgd1na2vs0mg"},{"bike_id":"95f1e246-49e5-46e5-a1b7-4abb3963bd38","system_id":"levelo_inurba_marseille","lat":43.29838,"lon":5.36276,"is_reserved":false,"is_disabled":false,"rental_uris":{"android":"levelo://app?vid=95f1e246-49e5-46e5-a1b7-4abb3963bd38","ios":"levelo://app?vid=95f1e246-49e5-46e5-a1b7-4abb3963bd38"},"vehicle_type_id":"4","last_reported":1729343637,"current_range_meters":30000,"station_id":"ce4bgpp2rcd13ifvqc3g","pricing_plan_id":"cebpf4jnsgd1na2vs0mg"},{"bike_id":"22d4bb12-d9cb-4524-8b56-432c4e684dc2","system_id":"levelo_inurba_marseille","lat":43.24082,"lon":5.37761,"is_reserved":false,"is_disabled":false,"rental_uris":{"android":"levelo://app?vid=22d4bb12-d9cb-4524-8b56-432c4e684dc2","ios":"levelo://app?vid=22d4bb12-d9cb-4524-8b56-432c4e684dc2"},"vehicle_type_id":"4","last_reported":1729343637,"current_range_meters":26000,"station_id":"ce4bhnp2rcd13ifvqgvg","pricing_plan_id":"cebpf4jnsgd1na2vs0mg"},{"bike_id":"34f5a0ba-6da6-40a3-b11f-052e9cb74962","system_id":"levelo_inurba_marseille","lat":43.31119,"lon":5.37766,"is_reserved":false,"is_disabled":false,"rental_uris":{"android":"levelo://app?vid=34f5a0ba-6da6-40a3-b11f-052e9cb74962","ios":"levelo://app?vid=34f5a0ba-6da6-40a3-b11f-052e9cb74962"},"vehicle_type_id":"4","last_reported":1729343637,"current_range_meters":32400,"station_id":"ce4bgt92rcd13ifvqcg0","pricing_plan_id":"cebpf4jnsgd1na2vs0mg"},{"bike_id":"b1bab76a-2377-4f81-aede-3d1c61b2d9a9","system_id":"levelo_inurba_marseille","lat":43.29032,"lon":5.39974,"is_reserved":false,"is_disabled":false,"rental_uris":{"android":"levelo://app?vid=b1bab76a-2377-4f81-aede-3d1c61b2d9a9","ios":"levelo://app?vid=b1bab76a-2377-4f81-aede-3d1c61b2d9a9"},"vehicle_type_id":"4","last_reported":1729343637,"current_range_meters":37600,"station_id":"ce4bh392rcd13ifvqdm0","pricing_plan_id":"cebpf4jnsgd1na2vs0mg"},{"bike_id":"1ca03514-3479-49e3-b362-e4d949df8821","system_id":"levelo_inurba_marseille","lat":43.276994,"lon":5.388911,"is_reserved":false,"is_disabled":false,"rental_uris":{"android":"levelo://app?vid=1ca03514-3479-49e3-b362-e4d949df8821","ios":"levelo://app?vid=1ca03514-3479-49e3-b362-e4d949df8821"},"vehicle_type_id":"4","last_reported":1729343637,"current_range_meters":2800,"station_id":"ce4bhi12rcd13ifvqfo0","pricing_plan_id":"cebpf4jnsgd1na2vs0mg"},{"bike_id":"b8aad1f1-cd6d-43fa-9fea-c98f609f5f77","system_id":"levelo_inurba_marseille","lat":43.33763,"lon":5.37444,"is_reserved":false,"is_disabled":false,"rental_uris":{"android":"levelo://app?vid=b8aad1f1-cd6d-43fa-9fea-c98f609f5f77","ios":"levelo://app?vid=b8aad1f1-cd6d-43fa-9fea-c98f609f5f77"},"vehicle_type_id":"4","last_reported":1729343637,"current_range_meters":36400,"station_id":"","pricing_plan_id":"cebpf4jnsgd1na2vs0mg"},{"bike_id":"ae0dc45f-3a03-4f2d-8af6-336b8c36473d","system_id":"levelo_inurba_marseille","lat":43.3376,"lon":5.37428,"is_reserved":false,"is_disabled":false,"rental_uris":{"android":"levelo://app?vid=ae0dc45f-3a03-4f2d-8af6-336b8c36473d","ios":"levelo://app?vid=ae0dc45f-3a03-4f2d-8af6-336b8c36473d"},"vehicle_type_id":"4","last_reported":1729343637,"current_range_meters":37600,"station_id":"","pricing_plan_id":"cebpf4jnsgd1na2vs0mg"},{"bike_id":"19f4c8bd-9374-42c0-b27b-7228ffdf8e80","system_id":"levelo_inurba_marseille","lat":43.28417,"lon":5.35001,"is_reserved":false,"is_disabled":false,"rental_uris":{"android":"levelo://app?vid=19f4c8bd-9374-42c0-b27b-7228ffdf8e80","ios":"levelo://app?vid=19f4c8bd-9374-42c0-b27b-7228ffdf8e80"},"vehicle_type_id":"4","last_reported":1729343637,"current_range_meters":35600,"station_id":"ce4bhbh2rcd13ifvqepg","pricing_plan_id":"cebpf4jnsgd1na2vs0mg"},{"bike_id":"2323f60b-c701-4c05-a3bd-2680ee390f55","system_id":"levelo_inurba_marseille","lat":43.28696,"lon":5.3998,"is_reserved":false,"is_disabled":false,"rental_uris":{"android":"levelo://app?vid=2323f60b-c701-4c05-a3bd-2680ee390f55","ios":"levelo://app?vid=2323f60b-c701-4c05-a3bd-2680ee390f55"},"vehicle_type_id":"4","last_reported":1729343637,"current_range_meters":20000,"station_id":"ce4bho92rcd13ifvqh3g","pricing_plan_id":"cebpf4jnsgd1na2vs0mg"},{"bike_id":"0994d7f0-fa2e-480f-b967-2b1e1b476b78","system_id":"levelo_inurba_marseille","lat":43.23192,"lon":5.35562,"is_reserved":false,"is_disabled":false,"rental_uris":{"android":"levelo://app?vid=0994d7f0-fa2e-480f-b967-2b1e1b476b78","ios":"levelo://app?vid=0994d7f0-fa2e-480f-b967-2b1e1b476b78"},"vehicle_type_id":"4","last_reported":1729343637,"current_range_meters":2800,"station_id":"ce4bhu92rcd13ifvqi70","pricing_plan_id":"cebpf4jnsgd1na2vs0mg"},{"bike_id":"30a8876c-d958-4edb-a186-b9fa8c16eb2c","system_id":"levelo_inurba_marseille","lat":43.25721,"lon":5.41116,"is_reserved":false,"is_disabled":false,"rental_uris":{"android":"levelo://app?vid=30a8876c-d958-4edb-a186-b9fa8c16eb2c","ios":"levelo://app?vid=30a8876c-d958-4edb-a186-b9fa8c16eb2c"},"vehicle_type_id":"4","last_reported":1729343637,"current_range_meters":38000,"station_id":"ce4bhkp2rcd13ifvqgd0","pricing_plan_id":"cebpf4jnsgd1na2vs0mg"},{"bike_id":"3d43e968-2d88-4d58-a80d-93887019dbf1","system_id":"levelo_inurba_marseille","lat":43.30188,"lon":5.36612,"is_reserved":false,"is_disabled":false,"rental_uris":{"android":"levelo://app?vid=3d43e968-2d88-4d58-a80d-93887019dbf1","ios":"levelo://app?vid=3d43e968-2d88-4d58-a80d-93887019dbf1"},"vehicle_type_id":"4","last_reported":1729343637,"current_range_meters":15200,"station_id":"ce4bgrh2rcd13ifvqc8g","pricing_plan_id":"cebpf4jnsgd1na2vs0mg"},{"bike_id":"75b160c5-c535-4559-8fdf-964bf4f61be0","system_id":"levelo_inurba_marseille","lat":43.27209,"lon":5.39185,"is_reserved":false,"is_disabled":false,"rental_uris":{"android":"levelo://app?vid=75b160c5-c535-4559-8fdf-964bf4f61be0","ios":"levelo://app?vid=75b160c5-c535-4559-8fdf-964bf4f61be0"},"vehicle_type_id":"4","last_reported":1729343637,"current_range_meters":30800,"station_id":"ce4bhhp2rcd13ifvqfm0","pricing_plan_id":"cebpf4jnsgd1na2vs0mg"},{"bike_id":"3c37c935-9336-45bb-a617-1eaf95aebeaa","system_id":"levelo_inurba_marseille","lat":43.29051,"lon":5.37554,"is_reserved":false,"is_disabled":false,"rental_uris":{"android":"levelo://app?vid=3c37c935-9336-45bb-a617-1eaf95aebeaa","ios":"levelo://app?vid=3c37c935-9336-45bb-a617-1eaf95aebeaa"},"vehicle_type_id":"4","last_reported":1729343637,"current_range_meters":16800,"station_id":"ce4bh692rcd13ifvqe90","pricing_plan_id":"cebpf4jnsgd1na2vs0mg"},{"bike_id":"47b0677d-f1ea-44b9-ad27-95f55e4f3816","system_id":"levelo_inurba_marseille","lat":43.23963,"lon":5.36644,"is_reserved":false,"is_disabled":false,"rental_uris":{"android":"levelo://app?vid=47b0677d-f1ea-44b9-ad27-95f55e4f3816","ios":"levelo://app?vid=47b0677d-f1ea-44b9-ad27-95f55e4f3816"},"vehicle_type_id":"4","last_reported":1729343637,"current_range_meters":40000,"station_id":"ce4bhi12rcd13ifvqfp0","pricing_plan_id":"cebpf4jnsgd1na2vs0mg"},{"bike_id":"fb1ff2bc-71b4-435f-b61a-68f4d51d5a35","system_id":"levelo_inurba_marseille","lat":43.24164,"lon":5.36395,"is_reserved":false,"is_disabled":false,"rental_uris":{"android":"levelo://app?vid=fb1ff2bc-71b4-435f-b61a-68f4d51d5a35","ios":"levelo://app?vid=fb1ff2bc-71b4-435f-b61a-68f4d51d5a35"},"vehicle_type_id":"4","last_reported":1729343637,"current_range_meters":24000,"station_id":"cpo36qri1sfpv3e86is0","pricing_plan_id":"cebpf4jnsgd1na2vs0mg"},{"bike_id":"80d987e6-fd91-4f6e-a445-66fbd84eada1","system_id":"levelo_inurba_marseille","lat":43.279022,"lon":5.380091,"is_reserved":false,"is_disabled":false,"rental_uris":{"android":"levelo://app?vid=80d987e6-fd91-4f6e-a445-66fbd84eada1","ios":"levelo://app?vid=80d987e6-fd91-4f6e-a445-66fbd84eada1"},"vehicle_type_id":"4","last_reported":1729343637,"current_range_meters":24800,"station_id":"ce4bhf92rcd13ifvqf50","pricing_plan_id":"cebpf4jnsgd1na2vs0mg"},{"bike_id":"b6330585-dddc-4cc9-adf4-816fe9ab609f","system_id":"levelo_inurba_marseille","lat":43.23183,"lon":5.39992,"is_reserved":false,"is_disabled":false,"rental_uris":{"android":"levelo://app?vid=b6330585-dddc-4cc9-adf4-816fe9ab609f","ios":"levelo://app?vid=b6330585-dddc-4cc9-adf4-816fe9ab609f"},"vehicle_type_id":"4","last_reported":1729343637,"current_range_meters":16000,"station_id":"ce4bhn12rcd13ifvqgqg","pricing_plan_id":"cebpf4jnsgd1na2vs0mg"},{"bike_id":"8e51a74e-fd45-4aab-80de-8a95db523984","system_id":"levelo_inurba_marseille","lat":43.24067,"lon":5.37762,"is_reserved":false,"is_disabled":false,"rental_uris":{"android":"levelo://app?vid=8e51a74e-fd45-4aab-80de-8a95db523984","ios":"levelo://app?vid=8e51a74e-fd45-4aab-80de-8a95db523984"},"vehicle_type_id":"4","last_reported":1729343637,"current_range_meters":31200,"station_id":"ce4bhnp2rcd13ifvqgvg","pricing_plan_id":"cebpf4jnsgd1na2vs0mg"},{"bike_id":"9ece7319-f410-4a1c-869b-c313ba0a907f","system_id":"levelo_inurba_marseille","lat":43.33607,"lon":5.41015,"is_reserved":false,"is_disabled":false,"rental_uris":{"android":"levelo://app?vid=9ece7319-f410-4a1c-869b-c313ba0a907f","ios":"levelo://app?vid=9ece7319-f410-4a1c-869b-c313ba0a907f"},"vehicle_type_id":"4","last_reported":1729343637,"current_range_meters":38800,"station_id":"ce4bhqh2rcd13ifvqhmg","pricing_plan_id":"cebpf4jnsgd1na2vs0mg"},{"bike_id":"907d90e2-7e08-4846-bbc2-01977b54a9bd","system_id":"levelo_inurba_marseille","lat":43.24173,"lon":5.36389,"is_reserved":false,"is_disabled":false,"rental_uris":{"android":"levelo://app?vid=907d90e2-7e08-4846-bbc2-01977b54a9bd","ios":"levelo://app?vid=907d90e2-7e08-4846-bbc2-01977b54a9bd"},"vehicle_type_id":"4","last_reported":1729343637,"current_range_meters":13600,"station_id":"cpo36qri1sfpv3e86is0","pricing_plan_id":"cebpf4jnsgd1na2vs0mg"},{"bike_id":"89390abd-c244-44fc-92d1-ed760ceccf7c","system_id":"levelo_inurba_marseille","lat":43.2827,"lon":5.3506,"is_reserved":false,"is_disabled":false,"rental_uris":{"android":"levelo://app?vid=89390abd-c244-44fc-92d1-ed760ceccf7c","ios":"levelo://app?vid=89390abd-c244-44fc-92d1-ed760ceccf7c"},"vehicle_type_id":"4","last_reported":1729343637,"current_range_meters":38000,"station_id":"ce4bhbp2rcd13ifvqerg","pricing_plan_id":"cebpf4jnsgd1na2vs0mg"},{"bike_id":"9491d20d-7be9-4f16-857c-c6053f72d9d5","system_id":"levelo_inurba_marseille","lat":43.26559,"lon":5.37285,"is_reserved":false,"is_disabled":false,"rental_uris":{"android":"levelo://app?vid=9491d20d-7be9-4f16-857c-c6053f72d9d5","ios":"levelo://app?vid=9491d20d-7be9-4f16-857c-c6053f72d9d5"},"vehicle_type_id":"4","last_reported":1729343637,"current_range_meters":17200,"station_id":"ce4bhg12rcd13ifvqf70","pricing_plan_id":"cebpf4jnsgd1na2vs0mg"},{"bike_id":"3e46c327-c230-4df5-b2fc-852a8e558d9d","system_id":"levelo_inurba_marseille","lat":43.2293,"lon":5.35385,"is_reserved":false,"is_disabled":false,"rental_uris":{"android":"levelo://app?vid=3e46c327-c230-4df5-b2fc-852a8e558d9d","ios":"levelo://app?vid=3e46c327-c230-4df5-b2fc-852a8e558d9d"},"vehicle_type_id":"4","last_reported":1729343637,"current_range_meters":26000,"station_id":"cpo3532slgdg3j2ikp40","pricing_plan_id":"cebpf4jnsgd1na2vs0mg"},{"bike_id":"54ac56ba-302a-4d28-904d-b9986326af31","system_id":"levelo_inurba_marseille","lat":43.2573,"lon":5.41113,"is_reserved":false,"is_disabled":false,"rental_uris":{"android":"levelo://app?vid=54ac56ba-302a-4d28-904d-b9986326af31","ios":"levelo://app?vid=54ac56ba-302a-4d28-904d-b9986326af31"},"vehicle_type_id":"4","last_reported":1729343637,"current_range_meters":4800,"station_id":"ce4bhkp2rcd13ifvqgd0","pricing_plan_id":"cebpf4jnsgd1na2vs0mg"},{"bike_id":"3fa27c9d-0dd7-4109-9b5e-4db95c2c6b61","system_id":"levelo_inurba_marseille","lat":43.2971,"lon":5.3661,"is_reserved":false,"is_disabled":false,"rental_uris":{"android":"levelo://app?vid=3fa27c9d-0dd7-4109-9b5e-4db95c2c6b61","ios":"levelo://app?vid=3fa27c9d-0dd7-4109-9b5e-4db95c2c6b61"},"vehicle_type_id":"4","last_reported":1729343637,"current_range_meters":32800,"station_id":"ce4bgn12rcd13ifvqbt0","pricing_plan_id":"cebpf4jnsgd1na2vs0mg"},{"bike_id":"64232e16-c44d-4399-9730-0a39f777769d","system_id":"levelo_inurba_marseille","lat":43.29581,"lon":5.36744,"is_reserved":false,"is_disabled":false,"rental_uris":{"android":"levelo://app?vid=64232e16-c44d-4399-9730-0a39f777769d","ios":"levelo://app?vid=64232e16-c44d-4399-9730-0a39f777769d"},"vehicle_type_id":"4","last_reported":1729343637,"current_range_meters":10000,"station_id":"ce4bgph2rcd13ifvqc2g","pricing_plan_id":"cebpf4jnsgd1na2vs0mg"},{"bike_id":"85f057e4-b3eb-40b5-a9aa-5a75d16d0070","system_id":"levelo_inurba_marseille","lat":43.23194,"lon":5.35552,"is_reserved":false,"is_disabled":false,"rental_uris":{"android":"levelo://app?vid=85f057e4-b3eb-40b5-a9aa-5a75d16d0070","ios":"levelo://app?vid=85f057e4-b3eb-40b5-a9aa-5a75d16d0070"},"vehicle_type_id":"4","last_reported":1729343637,"current_range_meters":24800,"station_id":"ce4bhu92rcd13ifvqi70","pricing_plan_id":"cebpf4jnsgd1na2vs0mg"},{"bike_id":"55ad8eaf-ddbb-40d6-a79a-ccaaecffde3e","system_id":"levelo_inurba_marseille","lat":43.28266,"lon":5.35059,"is_reserved":false,"is_disabled":false,"rental_uris":{"android":"levelo://app?vid=55ad8eaf-ddbb-40d6-a79a-ccaaecffde3e","ios":"levelo://app?vid=55ad8eaf-ddbb-40d6-a79a-ccaaecffde3e"},"vehicle_type_id":"4","last_reported":1729343637,"current_range_meters":2800,"station_id":"ce4bhbp2rcd13ifvqerg","pricing_plan_id":"cebpf4jnsgd1na2vs0mg"},{"bike_id":"9ed66892-1d5d-44f2-a0fb-41e18ceaf1f8","system_id":"levelo_inurba_marseille","lat":43.22938,"lon":5.35381,"is_reserved":false,"is_disabled":false,"rental_uris":{"android":"levelo://app?vid=9ed66892-1d5d-44f2-a0fb-41e18ceaf1f8","ios":"levelo://app?vid=9ed66892-1d5d-44f2-a0fb-41e18ceaf1f8"},"vehicle_type_id":"4","last_reported":1729343637,"current_range_meters":38400,"station_id":"cpo3532slgdg3j2ikp40","pricing_plan_id":"cebpf4jnsgd1na2vs0mg"},{"bike_id":"f7d0761c-1cd4-454b-85fb-ec7282447251","system_id":"levelo_inurba_marseille","lat":43.22936,"lon":5.35381,"is_reserved":false,"is_disabled":false,"rental_uris":{"android":"levelo://app?vid=f7d0761c-1cd4-454b-85fb-ec7282447251","ios":"levelo://app?vid=f7d0761c-1cd4-454b-85fb-ec7282447251"},"vehicle_type_id":"4","last_reported":1729343637,"current_range_meters":6000,"station_id":"cpo3532slgdg3j2ikp40","pricing_plan_id":"cebpf4jnsgd1na2vs0mg"},{"bike_id":"c1a1a335-46e9-478d-9cfb-90e689de6f3f","system_id":"levelo_inurba_marseille","lat":43.23958,"lon":5.36637,"is_reserved":false,"is_disabled":false,"rental_uris":{"android":"levelo://app?vid=c1a1a335-46e9-478d-9cfb-90e689de6f3f","ios":"levelo://app?vid=c1a1a335-46e9-478d-9cfb-90e689de6f3f"},"vehicle_type_id":"4","last_reported":1729343637,"current_range_meters":20000,"station_id":"ce4bhi12rcd13ifvqfp0","pricing_plan_id":"cebpf4jnsgd1na2vs0mg"},{"bike_id":"60e527f7-3d5b-4082-9e2d-c169703a3022","system_id":"levelo_inurba_marseille","lat":43.25828,"lon":5.39437,"is_reserved":false,"is_disabled":false,"rental_uris":{"android":"levelo://app?vid=60e527f7-3d5b-4082-9e2d-c169703a3022","ios":"levelo://app?vid=60e527f7-3d5b-4082-9e2d-c169703a3022"},"vehicle_type_id":"4","last_reported":1729343637,"current_range_meters":32400,"station_id":"ce4bhip2rcd13ifvqft0","pricing_plan_id":"cebpf4jnsgd1na2vs0mg"},{"bike_id":"a19bbf99-57ee-4fe3-9c12-f13d9eb440e3","system_id":"levelo_inurba_marseille","lat":43.29833,"lon":5.36272,"is_reserved":false,"is_disabled":false,"rental_uris":{"android":"levelo://app?vid=a19bbf99-57ee-4fe3-9c12-f13d9eb440e3","ios":"levelo://app?vid=a19bbf99-57ee-4fe3-9c12-f13d9eb440e3"},"vehicle_type_id":"4","last_reported":1729343637,"current_range_meters":39200,"station_id":"ce4bgpp2rcd13ifvqc3g","pricing_plan_id":"cebpf4jnsgd1na2vs0mg"},{"bike_id":"dd9307fb-a903-4696-857c-e556a5e3b34e","system_id":"levelo_inurba_marseille","lat":43.24545,"lon":5.39523,"is_reserved":false,"is_disabled":false,"rental_uris":{"android":"levelo://app?vid=dd9307fb-a903-4696-857c-e556a5e3b34e","ios":"levelo://app?vid=dd9307fb-a903-4696-857c-e556a5e3b34e"},"vehicle_type_id":"4","last_reported":1729343637,"current_range_meters":37600,"station_id":"ce4bhlp2rcd13ifvqgjg","pricing_plan_id":"cebpf4jnsgd1na2vs0mg"},{"bike_id":"2140b6a3-5118-4150-823e-9225aeb56201","system_id":"levelo_inurba_marseille","lat":43.23195,"lon":5.355457,"is_reserved":false,"is_disabled":false,"rental_uris":{"android":"levelo://app?vid=2140b6a3-5118-4150-823e-9225aeb56201","ios":"levelo://app?vid=2140b6a3-5118-4150-823e-9225aeb56201"},"vehicle_type_id":"4","last_reported":1729343637,"current_range_meters":27600,"station_id":"ce4bhu92rcd13ifvqi70","pricing_plan_id":"cebpf4jnsgd1na2vs0mg"},{"bike_id":"ab9066e6-360d-4b19-a55c-92ad107781e6","system_id":"levelo_inurba_marseille","lat":43.2928,"lon":5.4011,"is_reserved":false,"is_disabled":false,"rental_uris":{"android":"levelo://app?vid=ab9066e6-360d-4b19-a55c-92ad107781e6","ios":"levelo://app?vid=ab9066e6-360d-4b19-a55c-92ad107781e6"},"vehicle_type_id":"4","last_reported":1729343637,"current_range_meters":12800,"station_id":"ce4bh312rcd13ifvqdk0","pricing_plan_id":"cebpf4jnsgd1na2vs0mg"},{"bike_id":"c544977c-8b57-44a0-ab76-f9f60a80a73d","system_id":"levelo_inurba_marseille","lat":43.32364,"lon":5.38883,"is_reserved":false,"is_disabled":false,"rental_uris":{"android":"levelo://app?vid=c544977c-8b57-44a0-ab76-f9f60a80a73d","ios":"levelo://app?vid=c544977c-8b57-44a0-ab76-f9f60a80a73d"},"vehicle_type_id":"4","last_reported":1729343637,"current_range_meters":24000,"station_id":"ce4bhqp2rcd13ifvqhog","pricing_plan_id":"cebpf4jnsgd1na2vs0mg"},{"bike_id":"c10a7158-c496-4f1f-b513-6d8773b378df","system_id":"levelo_inurba_marseille","lat":43.28267,"lon":5.3507,"is_reserved":false,"is_disabled":false,"rental_uris":{"android":"levelo://app?vid=c10a7158-c496-4f1f-b513-6d8773b378df","ios":"levelo://app?vid=c10a7158-c496-4f1f-b513-6d8773b378df"},"vehicle_type_id":"4","last_reported":1729343637,"current_range_meters":36400,"station_id":"ce4bhbp2rcd13ifvqerg","pricing_plan_id":"cebpf4jnsgd1na2vs0mg"},{"bike_id":"d8cbaa91-355e-41be-833b-8dcca84815d3","system_id":"levelo_inurba_marseille","lat":43.2958,"lon":5.36751,"is_reserved":false,"is_disabled":false,"rental_uris":{"android":"levelo://app?vid=d8cbaa91-355e-41be-833b-8dcca84815d3","ios":"levelo://app?vid=d8cbaa91-355e-41be-833b-8dcca84815d3"},"vehicle_type_id":"4","last_reported":1729343637,"current_range_meters":10800,"station_id":"ce4bgph2rcd13ifvqc2g","pricing_plan_id":"cebpf4jnsgd1na2vs0mg"},{"bike_id":"6e706dcb-6e41-41b6-a172-73765c66fdaa","system_id":"levelo_inurba_marseille","lat":43.26248,"lon":5.37591,"is_reserved":false,"is_disabled":false,"rental_uris":{"android":"levelo://app?vid=6e706dcb-6e41-41b6-a172-73765c66fdaa","ios":"levelo://app?vid=6e706dcb-6e41-41b6-a172-73765c66fdaa"},"vehicle_type_id":"4","last_reported":1729343637,"current_range_meters":38000,"station_id":"ce4bhhp2rcd13ifvqfm0","pricing_plan_id":"cebpf4jnsgd1na2vs0mg"},{"bike_id":"6cb7a3ce-6d5f-4dc0-ab7f-5cafce2cff2e","system_id":"levelo_inurba_marseille","lat":43.29584,"lon":5.36739,"is_reserved":false,"is_disabled":false,"rental_uris":{"android":"levelo://app?vid=6cb7a3ce-6d5f-4dc0-ab7f-5cafce2cff2e","ios":"levelo://app?vid=6cb7a3ce-6d5f-4dc0-ab7f-5cafce2cff2e"},"vehicle_type_id":"4","last_reported":1729343637,"current_range_meters":32000,"station_id":"ce4bgph2rcd13ifvqc2g","pricing_plan_id":"cebpf4jnsgd1na2vs0mg"},{"bike_id":"35cd31d0-e834-4434-a949-35cf2fbd1d2c","system_id":"levelo_inurba_marseille","lat":43.22937,"lon":5.35381,"is_reserved":false,"is_disabled":false,"rental_uris":{"android":"levelo://app?vid=35cd31d0-e834-4434-a949-35cf2fbd1d2c","ios":"levelo://app?vid=35cd31d0-e834-4434-a949-35cf2fbd1d2c"},"vehicle_type_id":"4","last_reported":1729343637,"current_range_meters":16800,"station_id":"cpo3532slgdg3j2ikp40","pricing_plan_id":"cebpf4jnsgd1na2vs0mg"},{"bike_id":"4697ab5e-d67f-42f0-89a5-25127673842c","system_id":"levelo_inurba_marseille","lat":43.330231,"lon":5.39038,"is_reserved":false,"is_disabled":false,"rental_uris":{"android":"levelo://app?vid=4697ab5e-d67f-42f0-89a5-25127673842c","ios":"levelo://app?vid=4697ab5e-d67f-42f0-89a5-25127673842c"},"vehicle_type_id":"4","last_reported":1729343637,"current_range_meters":22800,"station_id":"ce4bhr92rcd13ifvqhrg","pricing_plan_id":"cebpf4jnsgd1na2vs0mg"},{"bike_id":"f7dbb753-64d6-4f69-ac53-9caea2c12f94","system_id":"levelo_inurba_marseille","lat":43.29842,"lon":5.36271,"is_reserved":false,"is_disabled":false,"rental_uris":{"android":"levelo://app?vid=f7dbb753-64d6-4f69-ac53-9caea2c12f94","ios":"levelo://app?vid=f7dbb753-64d6-4f69-ac53-9caea2c12f94"},"vehicle_type_id":"4","last_reported":1729343637,"current_range_meters":38800,"station_id":"ce4bgpp2rcd13ifvqc3g","pricing_plan_id":"cebpf4jnsgd1na2vs0mg"},{"bike_id":"ce14538c-8a0a-4115-8fd5-cf83ef63f830","system_id":"levelo_inurba_marseille","lat":43.26201,"lon":5.37931,"is_reserved":false,"is_disabled":false,"rental_uris":{"android":"levelo://app?vid=ce14538c-8a0a-4115-8fd5-cf83ef63f830","ios":"levelo://app?vid=ce14538c-8a0a-4115-8fd5-cf83ef63f830"},"vehicle_type_id":"4","last_reported":1729343637,"current_range_meters":10800,"station_id":"ce4bhjp2rcd13ifvqg90","pricing_plan_id":"cebpf4jnsgd1na2vs0mg"},{"bike_id":"65fdbf14-3665-48ea-b685-ab949cfed703","system_id":"levelo_inurba_marseille","lat":43.26028,"lon":5.3755,"is_reserved":false,"is_disabled":false,"rental_uris":{"android":"levelo://app?vid=65fdbf14-3665-48ea-b685-ab949cfed703","ios":"levelo://app?vid=65fdbf14-3665-48ea-b685-ab949cfed703"},"vehicle_type_id":"4","last_reported":1729343637,"current_range_meters":28800,"station_id":"ce4bhgh2rcd13ifvqfa0","pricing_plan_id":"cebpf4jnsgd1na2vs0mg"},{"bike_id":"7772d39f-5e28-445c-af91-069b0cf63793","system_id":"levelo_inurba_marseille","lat":43.33765,"lon":5.37438,"is_reserved":false,"is_disabled":false,"rental_uris":{"android":"levelo://app?vid=7772d39f-5e28-445c-af91-069b0cf63793","ios":"levelo://app?vid=7772d39f-5e28-445c-af91-069b0cf63793"},"vehicle_type_id":"4","last_reported":1729343637,"current_range_meters":8800,"station_id":"","pricing_plan_id":"cebpf4jnsgd1na2vs0mg"},{"bike_id":"f2e7cfcd-cee3-4d79-bbe2-8d7c26012253","system_id":"levelo_inurba_marseille","lat":43.23063,"lon":5.35496,"is_reserved":false,"is_disabled":false,"rental_uris":{"android":"levelo://app?vid=f2e7cfcd-cee3-4d79-bbe2-8d7c26012253","ios":"levelo://app?vid=f2e7cfcd-cee3-4d79-bbe2-8d7c26012253"},"vehicle_type_id":"4","last_reported":1729343637,"current_range_meters":8000,"station_id":"cpo3342slgdg3j2ifvpg","pricing_plan_id":"cebpf4jnsgd1na2vs0mg"},{"bike_id":"48376d10-fe56-48b9-8a68-84925bdf0a7c","system_id":"levelo_inurba_marseille","lat":43.324931,"lon":5.365633,"is_reserved":false,"is_disabled":false,"rental_uris":{"android":"levelo://app?vid=48376d10-fe56-48b9-8a68-84925bdf0a7c","ios":"levelo://app?vid=48376d10-fe56-48b9-8a68-84925bdf0a7c"},"vehicle_type_id":"4","last_reported":1729343637,"current_range_meters":33600,"station_id":"ce4bhs12rcd13ifvqhvg","pricing_plan_id":"cebpf4jnsgd1na2vs0mg"},{"bike_id":"3213665e-989c-4d22-9f5a-31c8522597dd","system_id":"levelo_inurba_marseille","lat":43.296,"lon":5.36142,"is_reserved":false,"is_disabled":false,"rental_uris":{"android":"levelo://app?vid=3213665e-989c-4d22-9f5a-31c8522597dd","ios":"levelo://app?vid=3213665e-989c-4d22-9f5a-31c8522597dd"},"vehicle_type_id":"4","last_reported":1729343637,"current_range_meters":19600,"station_id":"","pricing_plan_id":"cebpf4jnsgd1na2vs0mg"},{"bike_id":"2f5b81e2-c55c-4b9b-85b7-3cd67f4c2d18","system_id":"levelo_inurba_marseille","lat":43.25822,"lon":5.39432,"is_reserved":false,"is_disabled":false,"rental_uris":{"android":"levelo://app?vid=2f5b81e2-c55c-4b9b-85b7-3cd67f4c2d18","ios":"levelo://app?vid=2f5b81e2-c55c-4b9b-85b7-3cd67f4c2d18"},"vehicle_type_id":"4","last_reported":1729343637,"current_range_meters":27200,"station_id":"ce4bhip2rcd13ifvqft0","pricing_plan_id":"cebpf4jnsgd1na2vs0mg"},{"bike_id":"8fc775f6-1654-417d-8533-3e484dade701","system_id":"levelo_inurba_marseille","lat":43.31326,"lon":5.39695,"is_reserved":false,"is_disabled":false,"rental_uris":{"android":"levelo://app?vid=8fc775f6-1654-417d-8533-3e484dade701","ios":"levelo://app?vid=8fc775f6-1654-417d-8533-3e484dade701"},"vehicle_type_id":"4","last_reported":1729343637,"current_range_meters":38400,"station_id":"ce4bgvp2rcd13ifvqcu0","pricing_plan_id":"cebpf4jnsgd1na2vs0mg"},{"bike_id":"57b209a6-076f-4fe9-9e50-8d35d1d4533f","system_id":"levelo_inurba_marseille","lat":43.28153,"lon":5.42646,"is_reserved":false,"is_disabled":false,"rental_uris":{"android":"levelo://app?vid=57b209a6-076f-4fe9-9e50-8d35d1d4533f","ios":"levelo://app?vid=57b209a6-076f-4fe9-9e50-8d35d1d4533f"},"vehicle_type_id":"4","last_reported":1729343637,"current_range_meters":33600,"station_id":"ce4bhnh2rcd13ifvqgug","pricing_plan_id":"cebpf4jnsgd1na2vs0mg"},{"bike_id":"85978b2d-96a1-4496-a15d-3917a97b0613","system_id":"levelo_inurba_marseille","lat":43.32385,"lon":5.38978,"is_reserved":false,"is_disabled":false,"rental_uris":{"android":"levelo://app?vid=85978b2d-96a1-4496-a15d-3917a97b0613","ios":"levelo://app?vid=85978b2d-96a1-4496-a15d-3917a97b0613"},"vehicle_type_id":"4","last_reported":1729343637,"current_range_meters":37600,"station_id":"","pricing_plan_id":"cebpf4jnsgd1na2vs0mg"},{"bike_id":"eb8e5b67-5a03-464a-bc8d-7f266dd1dbf0","system_id":"levelo_inurba_marseille","lat":43.26558,"lon":5.37286,"is_reserved":false,"is_disabled":false,"rental_uris":{"android":"levelo://app?vid=eb8e5b67-5a03-464a-bc8d-7f266dd1dbf0","ios":"levelo://app?vid=eb8e5b67-5a03-464a-bc8d-7f266dd1dbf0"},"vehicle_type_id":"4","last_reported":1729343637,"current_range_meters":17200,"station_id":"ce4bhg12rcd13ifvqf70","pricing_plan_id":"cebpf4jnsgd1na2vs0mg"},{"bike_id":"2f0fd4af-d56c-44a3-a587-74913990dd70","system_id":"levelo_inurba_marseille","lat":43.30543,"lon":5.36535,"is_reserved":false,"is_disabled":false,"rental_uris":{"android":"levelo://app?vid=2f0fd4af-d56c-44a3-a587-74913990dd70","ios":"levelo://app?vid=2f0fd4af-d56c-44a3-a587-74913990dd70"},"vehicle_type_id":"4","last_reported":1729343637,"current_range_meters":28000,"station_id":"ce4bgs12rcd13ifvqcag","pricing_plan_id":"cebpf4jnsgd1na2vs0mg"},{"bike_id":"02005f77-0cb5-483a-9051-2cbe5659bedb","system_id":"levelo_inurba_marseille","lat":43.28266,"lon":5.35061,"is_reserved":false,"is_disabled":false,"rental_uris":{"android":"levelo://app?vid=02005f77-0cb5-483a-9051-2cbe5659bedb","ios":"levelo://app?vid=02005f77-0cb5-483a-9051-2cbe5659bedb"},"vehicle_type_id":"4","last_reported":1729343637,"current_range_meters":9600,"station_id":"ce4bhbp2rcd13ifvqerg","pricing_plan_id":"cebpf4jnsgd1na2vs0mg"},{"bike_id":"c61b7775-bc4b-4149-a673-4c75c7e80f18","system_id":"levelo_inurba_marseille","lat":43.30435,"lon":5.3889,"is_reserved":false,"is_disabled":false,"rental_uris":{"android":"levelo://app?vid=c61b7775-bc4b-4149-a673-4c75c7e80f18","ios":"levelo://app?vid=c61b7775-bc4b-4149-a673-4c75c7e80f18"},"vehicle_type_id":"4","last_reported":1729343637,"current_range_meters":4800,"station_id":"ce4bgk12rcd13ifvqbi0","pricing_plan_id":"cebpf4jnsgd1na2vs0mg"},{"bike_id":"0cb2ff1d-75b8-48e9-8163-d51e41677760","system_id":"levelo_inurba_marseille","lat":43.23068,"lon":5.35493,"is_reserved":false,"is_disabled":false,"rental_uris":{"android":"levelo://app?vid=0cb2ff1d-75b8-48e9-8163-d51e41677760","ios":"levelo://app?vid=0cb2ff1d-75b8-48e9-8163-d51e41677760"},"vehicle_type_id":"4","last_reported":1729343637,"current_range_meters":10800,"station_id":"cpo3342slgdg3j2ifvpg","pricing_plan_id":"cebpf4jnsgd1na2vs0mg"},{"bike_id":"fd7dd124-a4f1-48c0-8fa4-6d6d83f59907","system_id":"levelo_inurba_marseille","lat":43.260223,"lon":5.375526,"is_reserved":false,"is_disabled":false,"rental_uris":{"android":"levelo://app?vid=fd7dd124-a4f1-48c0-8fa4-6d6d83f59907","ios":"levelo://app?vid=fd7dd124-a4f1-48c0-8fa4-6d6d83f59907"},"vehicle_type_id":"4","last_reported":1729343637,"current_range_meters":14400,"station_id":"ce4bhgh2rcd13ifvqfa0","pricing_plan_id":"cebpf4jnsgd1na2vs0mg"},{"bike_id":"6a1e31b6-d029-4b53-901f-4bdc7b2141ad","system_id":"levelo_inurba_marseille","lat":43.33026,"lon":5.39036,"is_reserved":false,"is_disabled":false,"rental_uris":{"android":"levelo://app?vid=6a1e31b6-d029-4b53-901f-4bdc7b2141ad","ios":"levelo://app?vid=6a1e31b6-d029-4b53-901f-4bdc7b2141ad"},"vehicle_type_id":"4","last_reported":1729343637,"current_range_meters":24800,"station_id":"ce4bhr92rcd13ifvqhrg","pricing_plan_id":"cebpf4jnsgd1na2vs0mg"},{"bike_id":"e78b617d-375d-43c8-adb3-6f4b45c69c54","system_id":"levelo_inurba_marseille","lat":43.28155,"lon":5.42644,"is_reserved":false,"is_disabled":false,"rental_uris":{"android":"levelo://app?vid=e78b617d-375d-43c8-adb3-6f4b45c69c54","ios":"levelo://app?vid=e78b617d-375d-43c8-adb3-6f4b45c69c54"},"vehicle_type_id":"4","last_reported":1729343637,"current_range_meters":14800,"station_id":"ce4bhnh2rcd13ifvqgug","pricing_plan_id":"cebpf4jnsgd1na2vs0mg"},{"bike_id":"60e5d882-0396-4567-9dd1-7257b842a7e3","system_id":"levelo_inurba_marseille","lat":43.29851,"lon":5.36282,"is_reserved":false,"is_disabled":false,"rental_uris":{"android":"levelo://app?vid=60e5d882-0396-4567-9dd1-7257b842a7e3","ios":"levelo://app?vid=60e5d882-0396-4567-9dd1-7257b842a7e3"},"vehicle_type_id":"4","last_reported":1729343637,"current_range_meters":38800,"station_id":"ce4bgpp2rcd13ifvqc3g","pricing_plan_id":"cebpf4jnsgd1na2vs0mg"},{"bike_id":"62679cc5-0d2d-4ace-abc4-366c100478ff","system_id":"levelo_inurba_marseille","lat":43.31713,"lon":5.43717,"is_reserved":false,"is_disabled":false,"rental_uris":{"android":"levelo://app?vid=62679cc5-0d2d-4ace-abc4-366c100478ff","ios":"levelo://app?vid=62679cc5-0d2d-4ace-abc4-366c100478ff"},"vehicle_type_id":"4","last_reported":1729343637,"current_range_meters":38400,"station_id":"ce4bhp92rcd13ifvqhcg","pricing_plan_id":"cebpf4jnsgd1na2vs0mg"},{"bike_id":"e0969943-1274-46e8-b737-c8169b66bb25","system_id":"levelo_inurba_marseille","lat":43.29007,"lon":5.35613,"is_reserved":false,"is_disabled":false,"rental_uris":{"android":"levelo://app?vid=e0969943-1274-46e8-b737-c8169b66bb25","ios":"levelo://app?vid=e0969943-1274-46e8-b737-c8169b66bb25"},"vehicle_type_id":"4","last_reported":1729343637,"current_range_meters":36800,"station_id":"ce4bhb92rcd13ifvqen0","pricing_plan_id":"cebpf4jnsgd1na2vs0mg"},{"bike_id":"c43004dd-5df4-467d-9308-ce61b419d6aa","system_id":"levelo_inurba_marseille","lat":43.267798,"lon":5.394216,"is_reserved":false,"is_disabled":false,"rental_uris":{"android":"levelo://app?vid=c43004dd-5df4-467d-9308-ce61b419d6aa","ios":"levelo://app?vid=c43004dd-5df4-467d-9308-ce61b419d6aa"},"vehicle_type_id":"4","last_reported":1729343637,"current_range_meters":38000,"station_id":"ce4bhh12rcd13ifvqfg0","pricing_plan_id":"cebpf4jnsgd1na2vs0mg"},{"bike_id":"f7a24b2f-5943-4824-83d0-3767d391605f","system_id":"levelo_inurba_marseille","lat":43.29846,"lon":5.36272,"is_reserved":false,"is_disabled":false,"rental_uris":{"android":"levelo://app?vid=f7a24b2f-5943-4824-83d0-3767d391605f","ios":"levelo://app?vid=f7a24b2f-5943-4824-83d0-3767d391605f"},"vehicle_type_id":"4","last_reported":1729343637,"current_range_meters":38400,"station_id":"ce4bgpp2rcd13ifvqc3g","pricing_plan_id":"cebpf4jnsgd1na2vs0mg"},{"bike_id":"4cb1319e-a0ec-4d86-b600-2f59597f823d","system_id":"levelo_inurba_marseille","lat":43.28926,"lon":5.38402,"is_reserved":false,"is_disabled":false,"rental_uris":{"android":"levelo://app?vid=4cb1319e-a0ec-4d86-b600-2f59597f823d","ios":"levelo://app?vid=4cb1319e-a0ec-4d86-b600-2f59597f823d"},"vehicle_type_id":"4","last_reported":1729343637,"current_range_meters":38800,"station_id":"ce4bh612rcd13ifvqe6g","pricing_plan_id":"cebpf4jnsgd1na2vs0mg"},{"bike_id":"375f02ef-4905-4da0-aa98-04d9c6c8f603","system_id":"levelo_inurba_marseille","lat":43.23068,"lon":5.35496,"is_reserved":false,"is_disabled":false,"rental_uris":{"android":"levelo://app?vid=375f02ef-4905-4da0-aa98-04d9c6c8f603","ios":"levelo://app?vid=375f02ef-4905-4da0-aa98-04d9c6c8f603"},"vehicle_type_id":"4","last_reported":1729343637,"current_range_meters":10800,"station_id":"cpo3342slgdg3j2ifvpg","pricing_plan_id":"cebpf4jnsgd1na2vs0mg"},{"bike_id":"70199388-fcff-42e7-b1ec-9c179ae2180d","system_id":"levelo_inurba_marseille","lat":43.24991,"lon":5.38933,"is_reserved":false,"is_disabled":false,"rental_uris":{"android":"levelo://app?vid=70199388-fcff-42e7-b1ec-9c179ae2180d","ios":"levelo://app?vid=70199388-fcff-42e7-b1ec-9c179ae2180d"},"vehicle_type_id":"4","last_reported":1729343637,"current_range_meters":25600,"station_id":"ce4bhgp2rcd13ifvqfd0","pricing_plan_id":"cebpf4jnsgd1na2vs0mg"},{"bike_id":"067193b3-5c80-4bd0-bba0-f83eb46c9371","system_id":"levelo_inurba_marseille","lat":43.23195,"lon":5.35556,"is_reserved":false,"is_disabled":false,"rental_uris":{"android":"levelo://app?vid=067193b3-5c80-4bd0-bba0-f83eb46c9371","ios":"levelo://app?vid=067193b3-5c80-4bd0-bba0-f83eb46c9371"},"vehicle_type_id":"4","last_reported":1729343637,"current_range_meters":32400,"station_id":"ce4bhu92rcd13ifvqi70","pricing_plan_id":"cebpf4jnsgd1na2vs0mg"},{"bike_id":"5c8bbd84-8758-4a25-9ade-cf9d994fe2df","system_id":"levelo_inurba_marseille","lat":43.29581,"lon":5.36739,"is_reserved":false,"is_disabled":false,"rental_uris":{"android":"levelo://app?vid=5c8bbd84-8758-4a25-9ade-cf9d994fe2df","ios":"levelo://app?vid=5c8bbd84-8758-4a25-9ade-cf9d994fe2df"},"vehicle_type_id":"4","last_reported":1729343637,"current_range_meters":24000,"station_id":"ce4bgph2rcd13ifvqc2g","pricing_plan_id":"cebpf4jnsgd1na2vs0mg"},{"bike_id":"edc7fe0f-e87d-47d9-9540-6ac86afc7f91","system_id":"levelo_inurba_marseille","lat":43.3028,"lon":5.37699,"is_reserved":false,"is_disabled":false,"rental_uris":{"android":"levelo://app?vid=edc7fe0f-e87d-47d9-9540-6ac86afc7f91","ios":"levelo://app?vid=edc7fe0f-e87d-47d9-9540-6ac86afc7f91"},"vehicle_type_id":"4","last_reported":1729343637,"current_range_meters":38800,"station_id":"ce4bguh2rcd13ifvqcj0","pricing_plan_id":"cebpf4jnsgd1na2vs0mg"},{"bike_id":"a4af220e-34d6-4598-8db6-c194a4e5676e","system_id":"levelo_inurba_marseille","lat":43.33022,"lon":5.39042,"is_reserved":false,"is_disabled":false,"rental_uris":{"android":"levelo://app?vid=a4af220e-34d6-4598-8db6-c194a4e5676e","ios":"levelo://app?vid=a4af220e-34d6-4598-8db6-c194a4e5676e"},"vehicle_type_id":"4","last_reported":1729343637,"current_range_meters":19200,"station_id":"ce4bhr92rcd13ifvqhrg","pricing_plan_id":"cebpf4jnsgd1na2vs0mg"},{"bike_id":"006bbfd0-294d-4716-b026-030ad88cf679","system_id":"levelo_inurba_marseille","lat":43.24392,"lon":5.37056,"is_reserved":false,"is_disabled":false,"rental_uris":{"android":"levelo://app?vid=006bbfd0-294d-4716-b026-030ad88cf679","ios":"levelo://app?vid=006bbfd0-294d-4716-b026-030ad88cf679"},"vehicle_type_id":"4","last_reported":1729343637,"current_range_meters":38800,"station_id":"ce4bhhh2rcd13ifvqfk0","pricing_plan_id":"cebpf4jnsgd1na2vs0mg"},{"bike_id":"dc6f7af1-b704-4c92-8848-09bc68babcaf","system_id":"levelo_inurba_marseille","lat":43.28155,"lon":5.42638,"is_reserved":false,"is_disabled":false,"rental_uris":{"android":"levelo://app?vid=dc6f7af1-b704-4c92-8848-09bc68babcaf","ios":"levelo://app?vid=dc6f7af1-b704-4c92-8848-09bc68babcaf"},"vehicle_type_id":"4","last_reported":1729343637,"current_range_meters":36800,"station_id":"ce4bhnh2rcd13ifvqgug","pricing_plan_id":"cebpf4jnsgd1na2vs0mg"},{"bike_id":"5a046862-8708-4d6b-bcd5-cf56de2cabe6","system_id":"levelo_inurba_marseille","lat":43.29553,"lon":5.42295,"is_reserved":false,"is_disabled":false,"rental_uris":{"android":"levelo://app?vid=5a046862-8708-4d6b-bcd5-cf56de2cabe6","ios":"levelo://app?vid=5a046862-8708-4d6b-bcd5-cf56de2cabe6"},"vehicle_type_id":"4","last_reported":1729343637,"current_range_meters":15200,"station_id":"ce4bhph2rcd13ifvqhdg","pricing_plan_id":"cebpf4jnsgd1na2vs0mg"},{"bike_id":"7b5164b4-90cc-41bc-a797-681402c746de","system_id":"levelo_inurba_marseille","lat":43.25003,"lon":5.38934,"is_reserved":false,"is_disabled":false,"rental_uris":{"android":"levelo://app?vid=7b5164b4-90cc-41bc-a797-681402c746de","ios":"levelo://app?vid=7b5164b4-90cc-41bc-a797-681402c746de"},"vehicle_type_id":"4","last_reported":1729343637,"current_range_meters":39200,"station_id":"ce4bhgp2rcd13ifvqfd0","pricing_plan_id":"cebpf4jnsgd1na2vs0mg"},{"bike_id":"dac8cba7-5de1-474c-a699-b3a18991abf2","system_id":"levelo_inurba_marseille","lat":43.27619,"lon":5.3611,"is_reserved":false,"is_disabled":false,"rental_uris":{"android":"levelo://app?vid=dac8cba7-5de1-474c-a699-b3a18991abf2","ios":"levelo://app?vid=dac8cba7-5de1-474c-a699-b3a18991abf2"},"vehicle_type_id":"4","last_reported":1729343637,"current_range_meters":19600,"station_id":"ce4bgj92rcd13ifvqbe0","pricing_plan_id":"cebpf4jnsgd1na2vs0mg"},{"bike_id":"dd36401a-83be-4ce2-851c-12296c074af5","system_id":"levelo_inurba_marseille","lat":43.25506,"lon":5.37654,"is_reserved":false,"is_disabled":false,"rental_uris":{"android":"levelo://app?vid=dd36401a-83be-4ce2-851c-12296c074af5","ios":"levelo://app?vid=dd36401a-83be-4ce2-851c-12296c074af5"},"vehicle_type_id":"4","last_reported":1729343637,"current_range_meters":22000,"station_id":"ce4bhh12rcd13ifvqff0","pricing_plan_id":"cebpf4jnsgd1na2vs0mg"},{"bike_id":"8a5ef6ec-6dd2-486d-adea-6ca772dfe62d","system_id":"levelo_inurba_marseille","lat":43.26193,"lon":5.37456,"is_reserved":false,"is_disabled":false,"rental_uris":{"android":"levelo://app?vid=8a5ef6ec-6dd2-486d-adea-6ca772dfe62d","ios":"levelo://app?vid=8a5ef6ec-6dd2-486d-adea-6ca772dfe62d"},"vehicle_type_id":"4","last_reported":1729343637,"current_range_meters":24400,"station_id":"ce4bhgp2rcd13ifvqfc0","pricing_plan_id":"cebpf4jnsgd1na2vs0mg"},{"bike_id":"8683078b-3afb-4200-8b43-809160bd0be7","system_id":"levelo_inurba_marseille","lat":43.29009,"lon":5.35617,"is_reserved":false,"is_disabled":false,"rental_uris":{"android":"levelo://app?vid=8683078b-3afb-4200-8b43-809160bd0be7","ios":"levelo://app?vid=8683078b-3afb-4200-8b43-809160bd0be7"},"vehicle_type_id":"4","last_reported":1729343637,"current_range_meters":10000,"station_id":"ce4bhb92rcd13ifvqen0","pricing_plan_id":"cebpf4jnsgd1na2vs0mg"},{"bike_id":"723e6171-f0c2-4d86-9524-4220ac9fcc01","system_id":"levelo_inurba_marseille","lat":43.25581,"lon":5.38245,"is_reserved":false,"is_disabled":false,"rental_uris":{"android":"levelo://app?vid=723e6171-f0c2-4d86-9524-4220ac9fcc01","ios":"levelo://app?vid=723e6171-f0c2-4d86-9524-4220ac9fcc01"},"vehicle_type_id":"4","last_reported":1729343637,"current_range_meters":24800,"station_id":"ce4bhih2rcd13ifvqfs0","pricing_plan_id":"cebpf4jnsgd1na2vs0mg"},{"bike_id":"28e49236-44e7-4e90-b493-7aa54871f440","system_id":"levelo_inurba_marseille","lat":43.29624,"lon":5.37157,"is_reserved":false,"is_disabled":false,"rental_uris":{"android":"levelo://app?vid=28e49236-44e7-4e90-b493-7aa54871f440","ios":"levelo://app?vid=28e49236-44e7-4e90-b493-7aa54871f440"},"vehicle_type_id":"4","last_reported":1729343637,"current_range_meters":38800,"station_id":"ce4bgnh2rcd13ifvqc0g","pricing_plan_id":"cebpf4jnsgd1na2vs0mg"},{"bike_id":"97282f93-164b-4bf8-ac29-26342bab03dc","system_id":"levelo_inurba_marseille","lat":43.26491,"lon":5.39547,"is_reserved":false,"is_disabled":false,"rental_uris":{"android":"levelo://app?vid=97282f93-164b-4bf8-ac29-26342bab03dc","ios":"levelo://app?vid=97282f93-164b-4bf8-ac29-26342bab03dc"},"vehicle_type_id":"4","last_reported":1729343637,"current_range_meters":38000,"station_id":"ce4bhi12rcd13ifvqfq0","pricing_plan_id":"cebpf4jnsgd1na2vs0mg"},{"bike_id":"4e75b40e-a7bf-4b9a-887d-11ce9440a48e","system_id":"levelo_inurba_marseille","lat":43.24082,"lon":5.37747,"is_reserved":false,"is_disabled":false,"rental_uris":{"android":"levelo://app?vid=4e75b40e-a7bf-4b9a-887d-11ce9440a48e","ios":"levelo://app?vid=4e75b40e-a7bf-4b9a-887d-11ce9440a48e"},"vehicle_type_id":"4","last_reported":1729343637,"current_range_meters":35600,"station_id":"ce4bhnp2rcd13ifvqgvg","pricing_plan_id":"cebpf4jnsgd1na2vs0mg"},{"bike_id":"be2bbaa1-f672-4dc8-a1c0-85466066b76d","system_id":"levelo_inurba_marseille","lat":43.23194,"lon":5.35558,"is_reserved":false,"is_disabled":false,"rental_uris":{"android":"levelo://app?vid=be2bbaa1-f672-4dc8-a1c0-85466066b76d","ios":"levelo://app?vid=be2bbaa1-f672-4dc8-a1c0-85466066b76d"},"vehicle_type_id":"4","last_reported":1729343637,"current_range_meters":24000,"station_id":"ce4bhu92rcd13ifvqi70","pricing_plan_id":"cebpf4jnsgd1na2vs0mg"},{"bike_id":"29a0a587-2b2b-4513-82ab-02ccb16f8c78","system_id":"levelo_inurba_marseille","lat":43.29845,"lon":5.36278,"is_reserved":false,"is_disabled":false,"rental_uris":{"android":"levelo://app?vid=29a0a587-2b2b-4513-82ab-02ccb16f8c78","ios":"levelo://app?vid=29a0a587-2b2b-4513-82ab-02ccb16f8c78"},"vehicle_type_id":"4","last_reported":1729343637,"current_range_meters":8400,"station_id":"ce4bgpp2rcd13ifvqc3g","pricing_plan_id":"cebpf4jnsgd1na2vs0mg"},{"bike_id":"5715e832-098d-4c62-8619-ea0204aa01d5","system_id":"levelo_inurba_marseille","lat":43.27073,"lon":5.42283,"is_reserved":false,"is_disabled":false,"rental_uris":{"android":"levelo://app?vid=5715e832-098d-4c62-8619-ea0204aa01d5","ios":"levelo://app?vid=5715e832-098d-4c62-8619-ea0204aa01d5"},"vehicle_type_id":"4","last_reported":1729343637,"current_range_meters":30000,"station_id":"ce4bhk92rcd13ifvqgb0","pricing_plan_id":"cebpf4jnsgd1na2vs0mg"},{"bike_id":"ff8541b5-ba1a-4a6a-8d3b-1e31cd7843e0","system_id":"levelo_inurba_marseille","lat":43.29011,"lon":5.35606,"is_reserved":false,"is_disabled":false,"rental_uris":{"android":"levelo://app?vid=ff8541b5-ba1a-4a6a-8d3b-1e31cd7843e0","ios":"levelo://app?vid=ff8541b5-ba1a-4a6a-8d3b-1e31cd7843e0"},"vehicle_type_id":"4","last_reported":1729343637,"current_range_meters":21600,"station_id":"ce4bhb92rcd13ifvqen0","pricing_plan_id":"cebpf4jnsgd1na2vs0mg"},{"bike_id":"1ba3c57d-fe8a-4cbb-b7ac-5af8e752d070","system_id":"levelo_inurba_marseille","lat":43.29836,"lon":5.36262,"is_reserved":false,"is_disabled":false,"rental_uris":{"android":"levelo://app?vid=1ba3c57d-fe8a-4cbb-b7ac-5af8e752d070","ios":"levelo://app?vid=1ba3c57d-fe8a-4cbb-b7ac-5af8e752d070"},"vehicle_type_id":"4","last_reported":1729343637,"current_range_meters":39200,"station_id":"ce4bgpp2rcd13ifvqc3g","pricing_plan_id":"cebpf4jnsgd1na2vs0mg"},{"bike_id":"42f1e79a-76e8-477b-bb82-5117010fd2d8","system_id":"levelo_inurba_marseille","lat":43.28851,"lon":5.39316,"is_reserved":false,"is_disabled":false,"rental_uris":{"android":"levelo://app?vid=42f1e79a-76e8-477b-bb82-5117010fd2d8","ios":"levelo://app?vid=42f1e79a-76e8-477b-bb82-5117010fd2d8"},"vehicle_type_id":"4","last_reported":1729343637,"current_range_meters":26000,"station_id":"ce4bh2p2rcd13ifvqdi0","pricing_plan_id":"cebpf4jnsgd1na2vs0mg"},{"bike_id":"653344d8-2cf3-46ef-845c-7a41bd4051bc","system_id":"levelo_inurba_marseille","lat":43.28154,"lon":5.42632,"is_reserved":false,"is_disabled":false,"rental_uris":{"android":"levelo://app?vid=653344d8-2cf3-46ef-845c-7a41bd4051bc","ios":"levelo://app?vid=653344d8-2cf3-46ef-845c-7a41bd4051bc"},"vehicle_type_id":"4","last_reported":1729343637,"current_range_meters":20000,"station_id":"ce4bhnh2rcd13ifvqgug","pricing_plan_id":"cebpf4jnsgd1na2vs0mg"},{"bike_id":"26566c09-0df2-4150-94f3-90ff44e30382","system_id":"levelo_inurba_marseille","lat":43.31338,"lon":5.36715,"is_reserved":false,"is_disabled":false,"rental_uris":{"android":"levelo://app?vid=26566c09-0df2-4150-94f3-90ff44e30382","ios":"levelo://app?vid=26566c09-0df2-4150-94f3-90ff44e30382"},"vehicle_type_id":"4","last_reported":1729343637,"current_range_meters":34000,"station_id":"ce4bgr92rcd13ifvqc6g","pricing_plan_id":"cebpf4jnsgd1na2vs0mg"},{"bike_id":"cfc041f6-d5ed-439e-9d21-ba2dcde406c9","system_id":"levelo_inurba_marseille","lat":43.28037,"lon":5.36942,"is_reserved":false,"is_disabled":false,"rental_uris":{"android":"levelo://app?vid=cfc041f6-d5ed-439e-9d21-ba2dcde406c9","ios":"levelo://app?vid=cfc041f6-d5ed-439e-9d21-ba2dcde406c9"},"vehicle_type_id":"4","last_reported":1729343637,"current_range_meters":31200,"station_id":"ce4bha12rcd13ifvqef0","pricing_plan_id":"cebpf4jnsgd1na2vs0mg"},{"bike_id":"d132410d-74e9-4e0d-9759-b467e0a2d6ad","system_id":"levelo_inurba_marseille","lat":43.2306,"lon":5.35493,"is_reserved":false,"is_disabled":false,"rental_uris":{"android":"levelo://app?vid=d132410d-74e9-4e0d-9759-b467e0a2d6ad","ios":"levelo://app?vid=d132410d-74e9-4e0d-9759-b467e0a2d6ad"},"vehicle_type_id":"4","last_reported":1729343637,"current_range_meters":6800,"station_id":"cpo3342slgdg3j2ifvpg","pricing_plan_id":"cebpf4jnsgd1na2vs0mg"},{"bike_id":"b5eb90b1-5337-4044-ba14-38b280563deb","system_id":"levelo_inurba_marseille","lat":43.290073,"lon":5.356118,"is_reserved":false,"is_disabled":false,"rental_uris":{"android":"levelo://app?vid=b5eb90b1-5337-4044-ba14-38b280563deb","ios":"levelo://app?vid=b5eb90b1-5337-4044-ba14-38b280563deb"},"vehicle_type_id":"4","last_reported":1729343637,"current_range_meters":33200,"station_id":"ce4bhb92rcd13ifvqen0","pricing_plan_id":"cebpf4jnsgd1na2vs0mg"},{"bike_id":"a9d80141-cb04-4f88-bcc5-9763572e3517","system_id":"levelo_inurba_marseille","lat":43.23191,"lon":5.35546,"is_reserved":false,"is_disabled":false,"rental_uris":{"android":"levelo://app?vid=a9d80141-cb04-4f88-bcc5-9763572e3517","ios":"levelo://app?vid=a9d80141-cb04-4f88-bcc5-9763572e3517"},"vehicle_type_id":"4","last_reported":1729343637,"current_range_meters":24400,"station_id":"ce4bhu92rcd13ifvqi70","pricing_plan_id":"cebpf4jnsgd1na2vs0mg"},{"bike_id":"6bb6eaea-6464-4250-8b65-6f9c52c53a3f","system_id":"levelo_inurba_marseille","lat":43.31728,"lon":5.42395,"is_reserved":false,"is_disabled":false,"rental_uris":{"android":"levelo://app?vid=6bb6eaea-6464-4250-8b65-6f9c52c53a3f","ios":"levelo://app?vid=6bb6eaea-6464-4250-8b65-6f9c52c53a3f"},"vehicle_type_id":"4","last_reported":1729343637,"current_range_meters":38000,"station_id":"ce4bhp92rcd13ifvqhbg","pricing_plan_id":"cebpf4jnsgd1na2vs0mg"},{"bike_id":"92ff8359-5c7f-4f3e-9ee9-02895e762538","system_id":"levelo_inurba_marseille","lat":43.24169,"lon":5.36395,"is_reserved":false,"is_disabled":false,"rental_uris":{"android":"levelo://app?vid=92ff8359-5c7f-4f3e-9ee9-02895e762538","ios":"levelo://app?vid=92ff8359-5c7f-4f3e-9ee9-02895e762538"},"vehicle_type_id":"4","last_reported":1729343637,"current_range_meters":24400,"station_id":"cpo36qri1sfpv3e86is0","pricing_plan_id":"cebpf4jnsgd1na2vs0mg"},{"bike_id":"36a0cdb0-c033-4f9e-9fd4-1910a5064b1c","system_id":"levelo_inurba_marseille","lat":43.28275,"lon":5.35066,"is_reserved":false,"is_disabled":false,"rental_uris":{"android":"levelo://app?vid=36a0cdb0-c033-4f9e-9fd4-1910a5064b1c","ios":"levelo://app?vid=36a0cdb0-c033-4f9e-9fd4-1910a5064b1c"},"vehicle_type_id":"4","last_reported":1729343637,"current_range_meters":27600,"station_id":"ce4bhbp2rcd13ifvqerg","pricing_plan_id":"cebpf4jnsgd1na2vs0mg"},{"bike_id":"c9bf36b3-0190-480f-9d47-ca55ed1ea5cb","system_id":"levelo_inurba_marseille","lat":43.32142,"lon":5.3701,"is_reserved":false,"is_disabled":false,"rental_uris":{"android":"levelo://app?vid=c9bf36b3-0190-480f-9d47-ca55ed1ea5cb","ios":"levelo://app?vid=c9bf36b3-0190-480f-9d47-ca55ed1ea5cb"},"vehicle_type_id":"4","last_reported":1729343637,"current_range_meters":24400,"station_id":"","pricing_plan_id":"cebpf4jnsgd1na2vs0mg"},{"bike_id":"41d3dff4-f03e-44ed-9b07-50726a9f0955","system_id":"levelo_inurba_marseille","lat":43.2418,"lon":5.39729,"is_reserved":false,"is_disabled":false,"rental_uris":{"android":"levelo://app?vid=41d3dff4-f03e-44ed-9b07-50726a9f0955","ios":"levelo://app?vid=41d3dff4-f03e-44ed-9b07-50726a9f0955"},"vehicle_type_id":"4","last_reported":1729343637,"current_range_meters":22800,"station_id":"ce4bhn12rcd13ifvqgpg","pricing_plan_id":"cebpf4jnsgd1na2vs0mg"},{"bike_id":"67f3a430-a435-476c-9f14-03933430901e","system_id":"levelo_inurba_marseille","lat":43.23067,"lon":5.3549,"is_reserved":false,"is_disabled":false,"rental_uris":{"android":"levelo://app?vid=67f3a430-a435-476c-9f14-03933430901e","ios":"levelo://app?vid=67f3a430-a435-476c-9f14-03933430901e"},"vehicle_type_id":"4","last_reported":1729343637,"current_range_meters":30400,"station_id":"cpo3342slgdg3j2ifvpg","pricing_plan_id":"cebpf4jnsgd1na2vs0mg"},{"bike_id":"cb06135c-570e-4ece-8fe7-190391cb20d8","system_id":"levelo_inurba_marseille","lat":43.30545,"lon":5.36536,"is_reserved":false,"is_disabled":false,"rental_uris":{"android":"levelo://app?vid=cb06135c-570e-4ece-8fe7-190391cb20d8","ios":"levelo://app?vid=cb06135c-570e-4ece-8fe7-190391cb20d8"},"vehicle_type_id":"4","last_reported":1729343637,"current_range_meters":15200,"station_id":"ce4bgs12rcd13ifvqcag","pricing_plan_id":"cebpf4jnsgd1na2vs0mg"},{"bike_id":"1bb83af2-2df1-4792-aa34-1a9604d2291a","system_id":"levelo_inurba_marseille","lat":43.31084,"lon":5.42432,"is_reserved":false,"is_disabled":false,"rental_uris":{"android":"levelo://app?vid=1bb83af2-2df1-4792-aa34-1a9604d2291a","ios":"levelo://app?vid=1bb83af2-2df1-4792-aa34-1a9604d2291a"},"vehicle_type_id":"4","last_reported":1729343637,"current_range_meters":36800,"station_id":"ce4bhp92rcd13ifvqhag","pricing_plan_id":"cebpf4jnsgd1na2vs0mg"},{"bike_id":"6067e8cd-af4a-4a52-9cad-bbd43bbc565c","system_id":"levelo_inurba_marseille","lat":43.29172,"lon":5.3716,"is_reserved":false,"is_disabled":false,"rental_uris":{"android":"levelo://app?vid=6067e8cd-af4a-4a52-9cad-bbd43bbc565c","ios":"levelo://app?vid=6067e8cd-af4a-4a52-9cad-bbd43bbc565c"},"vehicle_type_id":"4","last_reported":1729343637,"current_range_meters":22800,"station_id":"ce4bha92rcd13ifvqeh0","pricing_plan_id":"cebpf4jnsgd1na2vs0mg"},{"bike_id":"f3d0ef62-57fe-4747-b5d9-53f8067753ae","system_id":"levelo_inurba_marseille","lat":43.30603,"lon":5.372381,"is_reserved":false,"is_disabled":false,"rental_uris":{"android":"levelo://app?vid=f3d0ef62-57fe-4747-b5d9-53f8067753ae","ios":"levelo://app?vid=f3d0ef62-57fe-4747-b5d9-53f8067753ae"},"vehicle_type_id":"4","last_reported":1729343637,"current_range_meters":24400,"station_id":"ce4bgqh2rcd13ifvqc4g","pricing_plan_id":"cebpf4jnsgd1na2vs0mg"},{"bike_id":"c4628d1d-3334-4f38-bcbd-549508c06198","system_id":"levelo_inurba_marseille","lat":43.320313,"lon":5.415412,"is_reserved":false,"is_disabled":false,"rental_uris":{"android":"levelo://app?vid=c4628d1d-3334-4f38-bcbd-549508c06198","ios":"levelo://app?vid=c4628d1d-3334-4f38-bcbd-549508c06198"},"vehicle_type_id":"4","last_reported":1729343637,"current_range_meters":37600,"station_id":"ce4bhq92rcd13ifvqhkg","pricing_plan_id":"cebpf4jnsgd1na2vs0mg"},{"bike_id":"2661bf78-d577-495a-b92c-a669ea67dff8","system_id":"levelo_inurba_marseille","lat":43.28263,"lon":5.35071,"is_reserved":false,"is_disabled":false,"rental_uris":{"android":"levelo://app?vid=2661bf78-d577-495a-b92c-a669ea67dff8","ios":"levelo://app?vid=2661bf78-d577-495a-b92c-a669ea67dff8"},"vehicle_type_id":"4","last_reported":1729343637,"current_range_meters":16000,"station_id":"ce4bhbp2rcd13ifvqerg","pricing_plan_id":"cebpf4jnsgd1na2vs0mg"},{"bike_id":"ed640bbe-af46-4cfa-83d6-b073983e5545","system_id":"levelo_inurba_marseille","lat":43.2984,"lon":5.36277,"is_reserved":false,"is_disabled":false,"rental_uris":{"android":"levelo://app?vid=ed640bbe-af46-4cfa-83d6-b073983e5545","ios":"levelo://app?vid=ed640bbe-af46-4cfa-83d6-b073983e5545"},"vehicle_type_id":"4","last_reported":1729343637,"current_range_meters":26000,"station_id":"ce4bgpp2rcd13ifvqc3g","pricing_plan_id":"cebpf4jnsgd1na2vs0mg"},{"bike_id":"f3a96a4d-bc6d-460f-a415-db98973047b8","system_id":"levelo_inurba_marseille","lat":43.29891,"lon":5.43668,"is_reserved":false,"is_disabled":false,"rental_uris":{"android":"levelo://app?vid=f3a96a4d-bc6d-460f-a415-db98973047b8","ios":"levelo://app?vid=f3a96a4d-bc6d-460f-a415-db98973047b8"},"vehicle_type_id":"4","last_reported":1729343637,"current_range_meters":39200,"station_id":"ce4bhpp2rcd13ifvqhfg","pricing_plan_id":"cebpf4jnsgd1na2vs0mg"},{"bike_id":"9fe8db15-0111-408d-8e77-5936a9d06147","system_id":"levelo_inurba_marseille","lat":43.23963,"lon":5.36642,"is_reserved":false,"is_disabled":false,"rental_uris":{"android":"levelo://app?vid=9fe8db15-0111-408d-8e77-5936a9d06147","ios":"levelo://app?vid=9fe8db15-0111-408d-8e77-5936a9d06147"},"vehicle_type_id":"4","last_reported":1729343637,"current_range_meters":31200,"station_id":"ce4bhi12rcd13ifvqfp0","pricing_plan_id":"cebpf4jnsgd1na2vs0mg"},{"bike_id":"1346ea84-ccfa-4dca-85a7-8858d05dcb2f","system_id":"levelo_inurba_marseille","lat":43.23192,"lon":5.39989,"is_reserved":false,"is_disabled":false,"rental_uris":{"android":"levelo://app?vid=1346ea84-ccfa-4dca-85a7-8858d05dcb2f","ios":"levelo://app?vid=1346ea84-ccfa-4dca-85a7-8858d05dcb2f"},"vehicle_type_id":"4","last_reported":1729343637,"current_range_meters":36400,"station_id":"ce4bhn12rcd13ifvqgqg","pricing_plan_id":"cebpf4jnsgd1na2vs0mg"},{"bike_id":"29d0a68b-99f5-478e-b535-79a7dafc8a61","system_id":"levelo_inurba_marseille","lat":43.28968,"lon":5.36842,"is_reserved":false,"is_disabled":false,"rental_uris":{"android":"levelo://app?vid=29d0a68b-99f5-478e-b535-79a7dafc8a61","ios":"levelo://app?vid=29d0a68b-99f5-478e-b535-79a7dafc8a61"},"vehicle_type_id":"4","last_reported":1729343637,"current_range_meters":14800,"station_id":"ce4bh512rcd13ifvqe2g","pricing_plan_id":"cebpf4jnsgd1na2vs0mg"},{"bike_id":"2e90fbaf-dba3-4988-ab6d-55c1e3e07ce6","system_id":"levelo_inurba_marseille","lat":43.3133,"lon":5.39701,"is_reserved":false,"is_disabled":false,"rental_uris":{"android":"levelo://app?vid=2e90fbaf-dba3-4988-ab6d-55c1e3e07ce6","ios":"levelo://app?vid=2e90fbaf-dba3-4988-ab6d-55c1e3e07ce6"},"vehicle_type_id":"4","last_reported":1729343637,"current_range_meters":38800,"station_id":"ce4bgvp2rcd13ifvqcu0","pricing_plan_id":"cebpf4jnsgd1na2vs0mg"},{"bike_id":"ef9c8e8a-1611-47d0-9040-86581a83e7cd","system_id":"levelo_inurba_marseille","lat":43.25581,"lon":5.3824,"is_reserved":false,"is_disabled":false,"rental_uris":{"android":"levelo://app?vid=ef9c8e8a-1611-47d0-9040-86581a83e7cd","ios":"levelo://app?vid=ef9c8e8a-1611-47d0-9040-86581a83e7cd"},"vehicle_type_id":"4","last_reported":1729343637,"current_range_meters":23200,"station_id":"ce4bhih2rcd13ifvqfs0","pricing_plan_id":"cebpf4jnsgd1na2vs0mg"},{"bike_id":"3377df9c-2a74-47ce-aa0a-0655bfa33b29","system_id":"levelo_inurba_marseille","lat":43.30179,"lon":5.36602,"is_reserved":false,"is_disabled":false,"rental_uris":{"android":"levelo://app?vid=3377df9c-2a74-47ce-aa0a-0655bfa33b29","ios":"levelo://app?vid=3377df9c-2a74-47ce-aa0a-0655bfa33b29"},"vehicle_type_id":"4","last_reported":1729343637,"current_range_meters":38800,"station_id":"ce4bgrh2rcd13ifvqc8g","pricing_plan_id":"cebpf4jnsgd1na2vs0mg"},{"bike_id":"e2adbfcf-cfe2-4333-a8b6-318c99e79291","system_id":"levelo_inurba_marseille","lat":43.3016,"lon":5.39224,"is_reserved":false,"is_disabled":false,"rental_uris":{"android":"levelo://app?vid=e2adbfcf-cfe2-4333-a8b6-318c99e79291","ios":"levelo://app?vid=e2adbfcf-cfe2-4333-a8b6-318c99e79291"},"vehicle_type_id":"4","last_reported":1729343637,"current_range_meters":32400,"station_id":"","pricing_plan_id":"cebpf4jnsgd1na2vs0mg"},{"bike_id":"8a61b0d3-96ba-49fc-af75-dd8176297036","system_id":"levelo_inurba_marseille","lat":43.23957,"lon":5.36644,"is_reserved":false,"is_disabled":false,"rental_uris":{"android":"levelo://app?vid=8a61b0d3-96ba-49fc-af75-dd8176297036","ios":"levelo://app?vid=8a61b0d3-96ba-49fc-af75-dd8176297036"},"vehicle_type_id":"4","last_reported":1729343637,"current_range_meters":16000,"station_id":"ce4bhi12rcd13ifvqfp0","pricing_plan_id":"cebpf4jnsgd1na2vs0mg"},{"bike_id":"07cf4eba-50b0-4283-ae2a-cc90dfe43a3a","system_id":"levelo_inurba_marseille","lat":43.30529,"lon":5.36556,"is_reserved":false,"is_disabled":false,"rental_uris":{"android":"levelo://app?vid=07cf4eba-50b0-4283-ae2a-cc90dfe43a3a","ios":"levelo://app?vid=07cf4eba-50b0-4283-ae2a-cc90dfe43a3a"},"vehicle_type_id":"4","last_reported":1729343637,"current_range_meters":34000,"station_id":"ce4bgs12rcd13ifvqcag","pricing_plan_id":"cebpf4jnsgd1na2vs0mg"},{"bike_id":"4411742c-e4a0-464d-9251-cb80401b2850","system_id":"levelo_inurba_marseille","lat":43.27075,"lon":5.42283,"is_reserved":false,"is_disabled":false,"rental_uris":{"android":"levelo://app?vid=4411742c-e4a0-464d-9251-cb80401b2850","ios":"levelo://app?vid=4411742c-e4a0-464d-9251-cb80401b2850"},"vehicle_type_id":"4","last_reported":1729343637,"current_range_meters":12800,"station_id":"ce4bhk92rcd13ifvqgb0","pricing_plan_id":"cebpf4jnsgd1na2vs0mg"},{"bike_id":"117ee8b3-b5e2-4e87-a5f7-420c68bf7509","system_id":"levelo_inurba_marseille","lat":43.25861,"lon":5.39911,"is_reserved":false,"is_disabled":false,"rental_uris":{"android":"levelo://app?vid=117ee8b3-b5e2-4e87-a5f7-420c68bf7509","ios":"levelo://app?vid=117ee8b3-b5e2-4e87-a5f7-420c68bf7509"},"vehicle_type_id":"4","last_reported":1729343637,"current_range_meters":36800,"station_id":"ce4bhl92rcd13ifvqghg","pricing_plan_id":"cebpf4jnsgd1na2vs0mg"},{"bike_id":"b655f0e5-9f54-4337-9f8f-e40c329da075","system_id":"levelo_inurba_marseille","lat":43.29323,"lon":5.37501,"is_reserved":false,"is_disabled":false,"rental_uris":{"android":"levelo://app?vid=b655f0e5-9f54-4337-9f8f-e40c329da075","ios":"levelo://app?vid=b655f0e5-9f54-4337-9f8f-e40c329da075"},"vehicle_type_id":"4","last_reported":1729343637,"current_range_meters":7200,"station_id":"ce4bgi12rcd13ifvqb70","pricing_plan_id":"cebpf4jnsgd1na2vs0mg"},{"bike_id":"7acb9047-f26a-4ec2-8117-080be1c67067","system_id":"levelo_inurba_marseille","lat":43.26205,"lon":5.37928,"is_reserved":false,"is_disabled":false,"rental_uris":{"android":"levelo://app?vid=7acb9047-f26a-4ec2-8117-080be1c67067","ios":"levelo://app?vid=7acb9047-f26a-4ec2-8117-080be1c67067"},"vehicle_type_id":"4","last_reported":1729343637,"current_range_meters":38800,"station_id":"ce4bhjp2rcd13ifvqg90","pricing_plan_id":"cebpf4jnsgd1na2vs0mg"},{"bike_id":"5cc7e9b9-85de-46d0-81b3-f6bf8d219e67","system_id":"levelo_inurba_marseille","lat":43.24083,"lon":5.37763,"is_reserved":false,"is_disabled":false,"rental_uris":{"android":"levelo://app?vid=5cc7e9b9-85de-46d0-81b3-f6bf8d219e67","ios":"levelo://app?vid=5cc7e9b9-85de-46d0-81b3-f6bf8d219e67"},"vehicle_type_id":"4","last_reported":1729343637,"current_range_meters":38800,"station_id":"ce4bhnp2rcd13ifvqgvg","pricing_plan_id":"cebpf4jnsgd1na2vs0mg"},{"bike_id":"7b8f967f-c2b6-43e0-bada-17343d9a6f11","system_id":"levelo_inurba_marseille","lat":43.2827,"lon":5.35075,"is_reserved":false,"is_disabled":false,"rental_uris":{"android":"levelo://app?vid=7b8f967f-c2b6-43e0-bada-17343d9a6f11","ios":"levelo://app?vid=7b8f967f-c2b6-43e0-bada-17343d9a6f11"},"vehicle_type_id":"4","last_reported":1729343637,"current_range_meters":38800,"station_id":"ce4bhbp2rcd13ifvqerg","pricing_plan_id":"cebpf4jnsgd1na2vs0mg"},{"bike_id":"15d743ac-163a-4209-8a1e-895366d0e41f","system_id":"levelo_inurba_marseille","lat":43.31333,"lon":5.3971,"is_reserved":false,"is_disabled":false,"rental_uris":{"android":"levelo://app?vid=15d743ac-163a-4209-8a1e-895366d0e41f","ios":"levelo://app?vid=15d743ac-163a-4209-8a1e-895366d0e41f"},"vehicle_type_id":"4","last_reported":1729343637,"current_range_meters":25600,"station_id":"ce4bgvp2rcd13ifvqcu0","pricing_plan_id":"cebpf4jnsgd1na2vs0mg"},{"bike_id":"74e23940-1fdc-4567-8335-82d317d6265a","system_id":"levelo_inurba_marseille","lat":43.2894,"lon":5.39625,"is_reserved":false,"is_disabled":false,"rental_uris":{"android":"levelo://app?vid=74e23940-1fdc-4567-8335-82d317d6265a","ios":"levelo://app?vid=74e23940-1fdc-4567-8335-82d317d6265a"},"vehicle_type_id":"4","last_reported":1729343637,"current_range_meters":1600,"station_id":"ce4bh3h2rcd13ifvqdn0","pricing_plan_id":"cebpf4jnsgd1na2vs0mg"},{"bike_id":"9b78167b-ae5a-47c9-9d1b-58b45505fd1c","system_id":"levelo_inurba_marseille","lat":43.24165,"lon":5.36413,"is_reserved":false,"is_disabled":false,"rental_uris":{"android":"levelo://app?vid=9b78167b-ae5a-47c9-9d1b-58b45505fd1c","ios":"levelo://app?vid=9b78167b-ae5a-47c9-9d1b-58b45505fd1c"},"vehicle_type_id":"4","last_reported":1729343637,"current_range_meters":36000,"station_id":"cpo36qri1sfpv3e86is0","pricing_plan_id":"cebpf4jnsgd1na2vs0mg"},{"bike_id":"15dd3ef0-8d6f-4e1b-b24e-920ada6eaf79","system_id":"levelo_inurba_marseille","lat":43.29625,"lon":5.37159,"is_reserved":false,"is_disabled":false,"rental_uris":{"android":"levelo://app?vid=15dd3ef0-8d6f-4e1b-b24e-920ada6eaf79","ios":"levelo://app?vid=15dd3ef0-8d6f-4e1b-b24e-920ada6eaf79"},"vehicle_type_id":"4","last_reported":1729343637,"current_range_meters":38800,"station_id":"ce4bgnh2rcd13ifvqc0g","pricing_plan_id":"cebpf4jnsgd1na2vs0mg"},{"bike_id":"96c45d21-03ea-46ea-afa5-0c108eeb81d1","system_id":"levelo_inurba_marseille","lat":43.24993,"lon":5.38942,"is_reserved":false,"is_disabled":false,"rental_uris":{"android":"levelo://app?vid=96c45d21-03ea-46ea-afa5-0c108eeb81d1","ios":"levelo://app?vid=96c45d21-03ea-46ea-afa5-0c108eeb81d1"},"vehicle_type_id":"4","last_reported":1729343637,"current_range_meters":4000,"station_id":"ce4bhgp2rcd13ifvqfd0","pricing_plan_id":"cebpf4jnsgd1na2vs0mg"},{"bike_id":"8a470b71-46b1-4f9b-b0a4-5ea237d08554","system_id":"levelo_inurba_marseille","lat":43.26946,"lon":5.40248,"is_reserved":false,"is_disabled":false,"rental_uris":{"android":"levelo://app?vid=8a470b71-46b1-4f9b-b0a4-5ea237d08554","ios":"levelo://app?vid=8a470b71-46b1-4f9b-b0a4-5ea237d08554"},"vehicle_type_id":"4","last_reported":1729343637,"current_range_meters":31200,"station_id":"cjm6bp8fraef2m0cb0m0","pricing_plan_id":"cebpf4jnsgd1na2vs0mg"},{"bike_id":"4abd684e-2272-4a73-b8da-11dc8d30d8d5","system_id":"levelo_inurba_marseille","lat":43.25578,"lon":5.38248,"is_reserved":false,"is_disabled":false,"rental_uris":{"android":"levelo://app?vid=4abd684e-2272-4a73-b8da-11dc8d30d8d5","ios":"levelo://app?vid=4abd684e-2272-4a73-b8da-11dc8d30d8d5"},"vehicle_type_id":"4","last_reported":1729343637,"current_range_meters":36800,"station_id":"ce4bhih2rcd13ifvqfs0","pricing_plan_id":"cebpf4jnsgd1na2vs0mg"},{"bike_id":"c8fa6f39-e07d-463d-8d01-7ccf9e86f944","system_id":"levelo_inurba_marseille","lat":43.23196,"lon":5.35544,"is_reserved":false,"is_disabled":false,"rental_uris":{"android":"levelo://app?vid=c8fa6f39-e07d-463d-8d01-7ccf9e86f944","ios":"levelo://app?vid=c8fa6f39-e07d-463d-8d01-7ccf9e86f944"},"vehicle_type_id":"4","last_reported":1729343637,"current_range_meters":17200,"station_id":"ce4bhu92rcd13ifvqi70","pricing_plan_id":"cebpf4jnsgd1na2vs0mg"},{"bike_id":"6e099ce7-6b7d-45fb-9ad5-e5f3d80e03f1","system_id":"levelo_inurba_marseille","lat":43.23964,"lon":5.36651,"is_reserved":false,"is_disabled":false,"rental_uris":{"android":"levelo://app?vid=6e099ce7-6b7d-45fb-9ad5-e5f3d80e03f1","ios":"levelo://app?vid=6e099ce7-6b7d-45fb-9ad5-e5f3d80e03f1"},"vehicle_type_id":"4","last_reported":1729343637,"current_range_meters":18000,"station_id":"ce4bhi12rcd13ifvqfp0","pricing_plan_id":"cebpf4jnsgd1na2vs0mg"},{"bike_id":"e3c7990c-b1b9-48f2-b75b-b000808b508a","system_id":"levelo_inurba_marseille","lat":43.23066,"lon":5.35493,"is_reserved":false,"is_disabled":false,"rental_uris":{"android":"levelo://app?vid=e3c7990c-b1b9-48f2-b75b-b000808b508a","ios":"levelo://app?vid=e3c7990c-b1b9-48f2-b75b-b000808b508a"},"vehicle_type_id":"4","last_reported":1729343637,"current_range_meters":14400,"station_id":"cpo3342slgdg3j2ifvpg","pricing_plan_id":"cebpf4jnsgd1na2vs0mg"},{"bike_id":"a7c79b0a-b04e-498c-bad1-a534150fff0f","system_id":"levelo_inurba_marseille","lat":43.29282,"lon":5.4012,"is_reserved":false,"is_disabled":false,"rental_uris":{"android":"levelo://app?vid=a7c79b0a-b04e-498c-bad1-a534150fff0f","ios":"levelo://app?vid=a7c79b0a-b04e-498c-bad1-a534150fff0f"},"vehicle_type_id":"4","last_reported":1729343637,"current_range_meters":35600,"station_id":"ce4bh312rcd13ifvqdk0","pricing_plan_id":"cebpf4jnsgd1na2vs0mg"},{"bike_id":"58e168b1-fded-400b-a274-ded80cf69f5e","system_id":"levelo_inurba_marseille","lat":43.24998,"lon":5.38938,"is_reserved":false,"is_disabled":false,"rental_uris":{"android":"levelo://app?vid=58e168b1-fded-400b-a274-ded80cf69f5e","ios":"levelo://app?vid=58e168b1-fded-400b-a274-ded80cf69f5e"},"vehicle_type_id":"4","last_reported":1729343637,"current_range_meters":28000,"station_id":"ce4bhgp2rcd13ifvqfd0","pricing_plan_id":"cebpf4jnsgd1na2vs0mg"},{"bike_id":"681ed7e2-7c90-4e4a-892a-67adc5d5a6bf","system_id":"levelo_inurba_marseille","lat":43.2397,"lon":5.36632,"is_reserved":false,"is_disabled":false,"rental_uris":{"android":"levelo://app?vid=681ed7e2-7c90-4e4a-892a-67adc5d5a6bf","ios":"levelo://app?vid=681ed7e2-7c90-4e4a-892a-67adc5d5a6bf"},"vehicle_type_id":"4","last_reported":1729343637,"current_range_meters":35200,"station_id":"ce4bhi12rcd13ifvqfp0","pricing_plan_id":"cebpf4jnsgd1na2vs0mg"},{"bike_id":"cfacd117-3021-4950-b1b1-2aed9cc3872e","system_id":"levelo_inurba_marseille","lat":43.31051,"lon":5.40059,"is_reserved":false,"is_disabled":false,"rental_uris":{"android":"levelo://app?vid=cfacd117-3021-4950-b1b1-2aed9cc3872e","ios":"levelo://app?vid=cfacd117-3021-4950-b1b1-2aed9cc3872e"},"vehicle_type_id":"4","last_reported":1729343637,"current_range_meters":38800,"station_id":"","pricing_plan_id":"cebpf4jnsgd1na2vs0mg"},{"bike_id":"d33f7b32-2f46-4883-b880-164313242e0c","system_id":"levelo_inurba_marseille","lat":43.279318,"lon":5.387786,"is_reserved":false,"is_disabled":false,"rental_uris":{"android":"levelo://app?vid=d33f7b32-2f46-4883-b880-164313242e0c","ios":"levelo://app?vid=d33f7b32-2f46-4883-b880-164313242e0c"},"vehicle_type_id":"4","last_reported":1729343637,"current_range_meters":8400,"station_id":"","pricing_plan_id":"cebpf4jnsgd1na2vs0mg"},{"bike_id":"7108c534-2799-491f-9dd7-8007e2c0af91","system_id":"levelo_inurba_marseille","lat":43.25579,"lon":5.38241,"is_reserved":false,"is_disabled":false,"rental_uris":{"android":"levelo://app?vid=7108c534-2799-491f-9dd7-8007e2c0af91","ios":"levelo://app?vid=7108c534-2799-491f-9dd7-8007e2c0af91"},"vehicle_type_id":"4","last_reported":1729343637,"current_range_meters":38800,"station_id":"ce4bhih2rcd13ifvqfs0","pricing_plan_id":"cebpf4jnsgd1na2vs0mg"},{"bike_id":"4cbe56c0-a157-4566-ab6b-647dcc960147","system_id":"levelo_inurba_marseille","lat":43.29889,"lon":5.38896,"is_reserved":false,"is_disabled":false,"rental_uris":{"android":"levelo://app?vid=4cbe56c0-a157-4566-ab6b-647dcc960147","ios":"levelo://app?vid=4cbe56c0-a157-4566-ab6b-647dcc960147"},"vehicle_type_id":"4","last_reported":1729343637,"current_range_meters":34800,"station_id":"ce4bh392rcd13ifvqdl0","pricing_plan_id":"cebpf4jnsgd1na2vs0mg"},{"bike_id":"9d58dbd8-6654-4faa-8b9a-f1ce593ba85e","system_id":"levelo_inurba_marseille","lat":43.22934,"lon":5.35377,"is_reserved":false,"is_disabled":false,"rental_uris":{"android":"levelo://app?vid=9d58dbd8-6654-4faa-8b9a-f1ce593ba85e","ios":"levelo://app?vid=9d58dbd8-6654-4faa-8b9a-f1ce593ba85e"},"vehicle_type_id":"4","last_reported":1729343637,"current_range_meters":36400,"station_id":"cpo3532slgdg3j2ikp40","pricing_plan_id":"cebpf4jnsgd1na2vs0mg"},{"bike_id":"f42893aa-737b-4a55-9128-310d73383639","system_id":"levelo_inurba_marseille","lat":43.24389,"lon":5.37063,"is_reserved":false,"is_disabled":false,"rental_uris":{"android":"levelo://app?vid=f42893aa-737b-4a55-9128-310d73383639","ios":"levelo://app?vid=f42893aa-737b-4a55-9128-310d73383639"},"vehicle_type_id":"4","last_reported":1729343637,"current_range_meters":8000,"station_id":"ce4bhhh2rcd13ifvqfk0","pricing_plan_id":"cebpf4jnsgd1na2vs0mg"},{"bike_id":"c8d2ded1-a76e-4ad8-adde-5f7374336637","system_id":"levelo_inurba_marseille","lat":43.316982,"lon":5.404903,"is_reserved":false,"is_disabled":false,"rental_uris":{"android":"levelo://app?vid=c8d2ded1-a76e-4ad8-adde-5f7374336637","ios":"levelo://app?vid=c8d2ded1-a76e-4ad8-adde-5f7374336637"},"vehicle_type_id":"4","last_reported":1729343637,"current_range_meters":38800,"station_id":"ce4bh012rcd13ifvqd00","pricing_plan_id":"cebpf4jnsgd1na2vs0mg"},{"bike_id":"53dbc4b8-ba09-4832-80f0-940bb323189f","system_id":"levelo_inurba_marseille","lat":43.22928,"lon":5.3538,"is_reserved":false,"is_disabled":false,"rental_uris":{"android":"levelo://app?vid=53dbc4b8-ba09-4832-80f0-940bb323189f","ios":"levelo://app?vid=53dbc4b8-ba09-4832-80f0-940bb323189f"},"vehicle_type_id":"4","last_reported":1729343637,"current_range_meters":27200,"station_id":"cpo3532slgdg3j2ikp40","pricing_plan_id":"cebpf4jnsgd1na2vs0mg"},