{"last_updated":1739344171,"ttl":60,"version":"2.2","data":{"bikes":[{"bike_id":"5cda301b-bce8-41d3-abea-2e981f99524e","system_id":"levelo_inurba_marseille","lat":43.2985,"lon":5.36285,"is_reserved":false,"is_disabled":false,"rental_uris":{"android":"levelo://app?vid=5cda301b-bce8-41d3-abea-2e981f99524e","ios":"levelo://app?vid=5cda301b-bce8-41d3-abea-2e981f99524e"},"vehicle_type_id":"4","last_reported":1739344171,"current_range_meters":20800,"station_id":"ce4bgpp2rcd13ifvqc3g","pricing_plan_id":"cebpf4jnsgd1na2vs0mg"},{"bike_id":"28eaabb6-ab07-4849-bd9f-32ff01b93536","system_id":"levelo_inurba_marseille","lat":43.30436,"lon":5.39757,"is_reserved":false,"is_disabled":false,"rental_uris":{"android":"levelo://app?vid=28eaabb6-ab07-4849-bd9f-32ff01b93536","ios":"levelo://app?vid=28eaabb6-ab07-4849-bd9f-32ff01b93536"},"vehicle_type_id":"4","last_reported":1739344171,"current_range_meters":36800,"station_id":"ce4bh092rcd13ifvqd20","pricing_plan_id":"cebpf4jnsgd1na2vs0mg"},{"bike_id":"af82c687-d595-4b0a-919c-198b47efbc0c","system_id":"levelo_inurba_marseille","lat":43.28609,"lon":5.35118,"is_reserved":false,"is_disabled":false,"rental_uris":{"android":"levelo://app?vid=af82c687-d595-4b0a-919c-198b47efbc0c","ios":"levelo://app?vid=af82c687-d595-4b0a-919c-198b47efbc0c"},"vehicle_type_id":"4","last_reported":1739344171,"current_range_meters":19600,"station_id":"ce4bhch2rcd13ifvqeug","pricing_plan_id":"cebpf4jnsgd1na2vs0mg"},{"bike_id":"a173b609-6f6c-45fd-922e-a3a0e329e57c","system_id":"levelo_inurba_marseille","lat":43.24064,"lon":5.3777,"is_reserved":false,"is_disabled":false,"rental_uris":{"android":"levelo://app?vid=a173b609-6f6c-45fd-922e-a3a0e329e57c","ios":"levelo://app?vid=a173b609-6f6c-45fd-922e-a3a0e329e57c"},"vehicle_type_id":"4","last_reported":1739344171,"current_range_meters":12000,"station_id":"ce4bhnp2rcd13ifvqgvg","pricing_plan_id":"cebpf4jnsgd1na2vs0mg"},{"bike_id":"77fc8b4c-94e7-413f-ba24-49239e361f9a","system_id":"levelo_inurba_marseille","lat":43.28389,"lon":5.37532,"is_reserved":false,"is_disabled":false,"rental_uris":{"android":"levelo://app?vid=77fc8b4c-94e7-413f-ba24-49239e361f9a","ios":"levelo://app?vid=77fc8b4c-94e7-413f-ba24-49239e361f9a"},"vehicle_type_id":"4","last_reported":1739344171,"current_range_meters":28000,"station_id":"ce4bh412rcd13ifvqds0","pricing_plan_id":"cebpf4jnsgd1na2vs0mg"},{"bike_id":"39831059-630b-44a6-b460-3394c2f589e9","system_id":"levelo_inurba_marseille","lat":43.313631,"lon":5.384937,"is_reserved":false,"is_disabled":false,"rental_uris":{"android":"levelo://app?vid=39831059-630b-44a6-b460-3394c2f589e9","ios":"levelo://app?vid=39831059-630b-44a6-b460-3394c2f589e9"},"vehicle_type_id":"4","last_reported":1739344171,"current_range_meters":38400,"station_id":"ce4bgt92rcd13ifvqcf0","pricing_plan_id":"cebpf4jnsgd1na2vs0mg"},{"bike_id":"337ca30f-1ad7-4ee7-bda5-c59b87d3e85e","system_id":"levelo_inurba_marseille","lat":43.30137,"lon":5.38066,"is_reserved":false,"is_disabled":false,"rental_uris":{"android":"levelo://app?vid=337ca30f-1ad7-4ee7-bda5-c59b87d3e85e","ios":"levelo://app?vid=337ca30f-1ad7-4ee7-bda5-c59b87d3e85e"},"vehicle_type_id":"4","last_reported":1739344171,"current_range_meters":39200,"station_id":"ce4bgjp2rcd13ifvqbh0","pricing_plan_id":"cebpf4jnsgd1na2vs0mg"},{"bike_id":"321656ce-fafb-42eb-96e8-a2750a28cd33","system_id":"levelo_inurba_marseille","lat":43.265037,"lon":5.395435,"is_reserved":false,"is_disabled":false,"rental_uris":{"android":"levelo://app?vid=321656ce-fafb-42eb-96e8-a2750a28cd33","ios":"levelo://app?vid=321656ce-fafb-42eb-96e8-a2750a28cd33"},"vehicle_type_id":"4","last_reported":1739344171,"current_range_meters":36000,"station_id":"ce4bhi12rcd13ifvqfq0","pricing_plan_id":"cebpf4jnsgd1na2vs0mg"},{"bike_id":"20ff866e-f247-480a-bcfa-812e984a844d","system_id":"levelo_inurba_marseille","lat":43.28752,"lon":5.36039,"is_reserved":false,"is_disabled":false,"rental_uris":{"android":"levelo://app?vid=20ff866e-f247-480a-bcfa-812e984a844d","ios":"levelo://app?vid=20ff866e-f247-480a-bcfa-812e984a844d"},"vehicle_type_id":"4","last_reported":1739344171,"current_range_meters":38800,"station_id":"cki0cbj6b192h4jlfktg","pricing_plan_id":"cebpf4jnsgd1na2vs0mg"},{"bike_id":"f6ef4f9a-c914-4d4b-a06e-00485b64285e","system_id":"levelo_inurba_marseille","lat":43.32483,"lon":5.36565,"is_reserved":false,"is_disabled":false,"rental_uris":{"android":"levelo://app?vid=f6ef4f9a-c914-4d4b-a06e-00485b64285e","ios":"levelo://app?vid=f6ef4f9a-c914-4d4b-a06e-00485b64285e"},"vehicle_type_id":"4","last_reported":1739344171,"current_range_meters":39200,"station_id":"ce4bhs12rcd13ifvqhvg","pricing_plan_id":"cebpf4jnsgd1na2vs0mg"},{"bike_id":"69226ee4-0193-40b8-90c6-6d84ea7e1c1a","system_id":"levelo_inurba_marseille","lat":43.30481,"lon":5.37922,"is_reserved":false,"is_disabled":false,"rental_uris":{"android":"levelo://app?vid=69226ee4-0193-40b8-90c6-6d84ea7e1c1a","ios":"levelo://app?vid=69226ee4-0193-40b8-90c6-6d84ea7e1c1a"},"vehicle_type_id":"4","last_reported":1739344171,"current_range_meters":38800,"station_id":"ce4bgup2rcd13ifvqcn0","pricing_plan_id":"cebpf4jnsgd1na2vs0mg"},{"bike_id":"af504956-82cb-4866-924b-ce8ee8a9f63b","system_id":"levelo_inurba_marseille","lat":43.30892,"lon":5.37193,"is_reserved":false,"is_disabled":false,"rental_uris":{"android":"levelo://app?vid=af504956-82cb-4866-924b-ce8ee8a9f63b","ios":"levelo://app?vid=af504956-82cb-4866-924b-ce8ee8a9f63b"},"vehicle_type_id":"4","last_reported":1739344171,"current_range_meters":36800,"station_id":"ce4bguh2rcd13ifvqckg","pricing_plan_id":"cebpf4jnsgd1na2vs0mg"},{"bike_id":"f711750d-fe6b-4e97-a163-0212ddabd620","system_id":"levelo_inurba_marseille","lat":43.3047,"lon":5.37907,"is_reserved":false,"is_disabled":false,"rental_uris":{"android":"levelo://app?vid=f711750d-fe6b-4e97-a163-0212ddabd620","ios":"levelo://app?vid=f711750d-fe6b-4e97-a163-0212ddabd620"},"vehicle_type_id":"4","last_reported":1739344171,"current_range_meters":19200,"station_id":"ce4bgup2rcd13ifvqcn0","pricing_plan_id":"cebpf4jnsgd1na2vs0mg"},{"bike_id":"0497d784-c056-45f5-a997-c997e3fb1a75","system_id":"levelo_inurba_marseille","lat":43.31731,"lon":5.40465,"is_reserved":false,"is_disabled":true,"rental_uris":{"android":"levelo://app?vid=0497d784-c056-45f5-a997-c997e3fb1a75","ios":"levelo://app?vid=0497d784-c056-45f5-a997-c997e3fb1a75"},"vehicle_type_id":"4","last_reported":1739344171,"current_range_meters":36000,"station_id":"ce4bh012rcd13ifvqd00","pricing_plan_id":"cebpf4jnsgd1na2vs0mg"},{"bike_id":"9e4564f0-0519-46c9-beea-73f529a3ce6a","system_id":"levelo_inurba_marseille","lat":43.248151,"lon":5.374559,"is_reserved":false,"is_disabled":false,"rental_uris":{"android":"levelo://app?vid=9e4564f0-0519-46c9-beea-73f529a3ce6a","ios":"levelo://app?vid=9e4564f0-0519-46c9-beea-73f529a3ce6a"},"vehicle_type_id":"4","last_reported":1739344171,"current_range_meters":29600,"station_id":"ce4bhgh2rcd13ifvqfb0","pricing_plan_id":"cebpf4jnsgd1na2vs0mg"},{"bike_id":"e8b98b7c-5d68-4a57-8bb7-0cc04267f30a","system_id":"levelo_inurba_marseille","lat":43.28011,"lon":5.40002,"is_reserved":false,"is_disabled":false,"rental_uris":{"android":"levelo://app?vid=e8b98b7c-5d68-4a57-8bb7-0cc04267f30a","ios":"levelo://app?vid=e8b98b7c-5d68-4a57-8bb7-0cc04267f30a"},"vehicle_type_id":"4","last_reported":1739344171,"current_range_meters":24800,"station_id":"ce4bho92rcd13ifvqh4g","pricing_plan_id":"cebpf4jnsgd1na2vs0mg"},{"bike_id":"a94d2018-f678-4713-bf2d-5da0b28f3e59","system_id":"levelo_inurba_marseille","lat":43.29763,"lon":5.37121,"is_reserved":false,"is_disabled":false,"rental_uris":{"android":"levelo://app?vid=a94d2018-f678-4713-bf2d-5da0b28f3e59","ios":"levelo://app?vid=a94d2018-f678-4713-bf2d-5da0b28f3e59"},"vehicle_type_id":"4","last_reported":1739344171,"current_range_meters":35200,"station_id":"ce4bgop2rcd13ifvqc1g","pricing_plan_id":"cebpf4jnsgd1na2vs0mg"},{"bike_id":"50023471-2485-4431-9a38-341aaddf1654","system_id":"levelo_inurba_marseille","lat":43.26952,"lon":5.38631,"is_reserved":false,"is_disabled":false,"rental_uris":{"android":"levelo://app?vid=50023471-2485-4431-9a38-341aaddf1654","ios":"levelo://app?vid=50023471-2485-4431-9a38-341aaddf1654"},"vehicle_type_id":"4","last_reported":1739344171,"current_range_meters":10800,"station_id":"ce4bhh92rcd13ifvqfh0","pricing_plan_id":"cebpf4jnsgd1na2vs0mg"},{"bike_id":"3df3041b-27b7-4def-8d60-99d6191bfdce","system_id":"levelo_inurba_marseille","lat":43.27498,"lon":5.42453,"is_reserved":false,"is_disabled":false,"rental_uris":{"android":"levelo://app?vid=3df3041b-27b7-4def-8d60-99d6191bfdce","ios":"levelo://app?vid=3df3041b-27b7-4def-8d60-99d6191bfdce"},"vehicle_type_id":"4","last_reported":1739344171,"current_range_meters":38800,"station_id":"ce4bhn92rcd13ifvqgrg","pricing_plan_id":"cebpf4jnsgd1na2vs0mg"},{"bike_id":"3557e281-7344-4c56-b643-42ea2f500ef3","system_id":"levelo_inurba_marseille","lat":43.27919,"lon":5.41686,"is_reserved":false,"is_disabled":false,"rental_uris":{"android":"levelo://app?vid=3557e281-7344-4c56-b643-42ea2f500ef3","ios":"levelo://app?vid=3557e281-7344-4c56-b643-42ea2f500ef3"},"vehicle_type_id":"4","last_reported":1739344171,"current_range_meters":24000,"station_id":"","pricing_plan_id":"cebpf4jnsgd1na2vs0mg"},{"bike_id":"b00cd1fe-6986-4a4a-9e4b-6dd0afa33530","system_id":"levelo_inurba_marseille","lat":43.29716,"lon":5.36606,"is_reserved":false,"is_disabled":false,"rental_uris":{"android":"levelo://app?vid=b00cd1fe-6986-4a4a-9e4b-6dd0afa33530","ios":"levelo://app?vid=b00cd1fe-6986-4a4a-9e4b-6dd0afa33530"},"vehicle_type_id":"4","last_reported":1739344171,"current_range_meters":38800,"station_id":"ce4bgn12rcd13ifvqbt0","pricing_plan_id":"cebpf4jnsgd1na2vs0mg"},{"bike_id":"8258c8e4-7775-45b7-a1f1-6659658d08a6","system_id":"levelo_inurba_marseille","lat":43.265605,"lon":5.372844,"is_reserved":false,"is_disabled":false,"rental_uris":{"android":"levelo://app?vid=8258c8e4-7775-45b7-a1f1-6659658d08a6","ios":"levelo://app?vid=8258c8e4-7775-45b7-a1f1-6659658d08a6"},"vehicle_type_id":"4","last_reported":1739344171,"current_range_meters":38000,"station_id":"ce4bhg12rcd13ifvqf70","pricing_plan_id":"cebpf4jnsgd1na2vs0mg"},{"bike_id":"03e763eb-2ea5-4191-8380-138ad06f19b1","system_id":"levelo_inurba_marseille","lat":43.32478,"lon":5.36551,"is_reserved":false,"is_disabled":false,"rental_uris":{"android":"levelo://app?vid=03e763eb-2ea5-4191-8380-138ad06f19b1","ios":"levelo://app?vid=03e763eb-2ea5-4191-8380-138ad06f19b1"},"vehicle_type_id":"4","last_reported":1739344171,"current_range_meters":27600,"station_id":"ce4bhs12rcd13ifvqhvg","pricing_plan_id":"cebpf4jnsgd1na2vs0mg"},{"bike_id":"253bfb42-d057-4d7d-bd7b-cdfa51848a3a","system_id":"levelo_inurba_marseille","lat":43.29225,"lon":5.3606,"is_reserved":false,"is_disabled":false,"rental_uris":{"android":"levelo://app?vid=253bfb42-d057-4d7d-bd7b-cdfa51848a3a","ios":"levelo://app?vid=253bfb42-d057-4d7d-bd7b-cdfa51848a3a"},"vehicle_type_id":"4","last_reported":1739344171,"current_range_meters":8800,"station_id":"ce4bhbh2rcd13ifvqeqg","pricing_plan_id":"cebpf4jnsgd1na2vs0mg"},{"bike_id":"26c79ef5-6f5f-49d9-b4aa-17fb6a7df4bb","system_id":"levelo_inurba_marseille","lat":43.29848,"lon":5.3628,"is_reserved":false,"is_disabled":false,"rental_uris":{"android":"levelo://app?vid=26c79ef5-6f5f-49d9-b4aa-17fb6a7df4bb","ios":"levelo://app?vid=26c79ef5-6f5f-49d9-b4aa-17fb6a7df4bb"},"vehicle_type_id":"4","last_reported":1739344171,"current_range_meters":39200,"station_id":"ce4bgpp2rcd13ifvqc3g","pricing_plan_id":"cebpf4jnsgd1na2vs0mg"},{"bike_id":"39e55a90-fe76-4904-bf9c-9841fe168f13","system_id":"levelo_inurba_marseille","lat":43.3373,"lon":5.39183,"is_reserved":false,"is_disabled":false,"rental_uris":{"android":"levelo://app?vid=39e55a90-fe76-4904-bf9c-9841fe168f13","ios":"levelo://app?vid=39e55a90-fe76-4904-bf9c-9841fe168f13"},"vehicle_type_id":"4","last_reported":1739344171,"current_range_meters":39200,"station_id":"ce4bhr92rcd13ifvqhsg","pricing_plan_id":"cebpf4jnsgd1na2vs0mg"},{"bike_id":"d4fc1778-e500-4fd8-bc92-38f2721f2fc6","system_id":"levelo_inurba_marseille","lat":43.29791,"lon":5.38109,"is_reserved":false,"is_disabled":false,"rental_uris":{"android":"levelo://app?vid=d4fc1778-e500-4fd8-bc92-38f2721f2fc6","ios":"levelo://app?vid=d4fc1778-e500-4fd8-bc92-38f2721f2fc6"},"vehicle_type_id":"4","last_reported":1739344171,"current_range_meters":34800,"station_id":"ce4bgip2rcd13ifvqbb0","pricing_plan_id":"cebpf4jnsgd1na2vs0mg"},{"bike_id":"f798cbc4-a869-471f-bce8-f64397eebe81","system_id":"levelo_inurba_marseille","lat":43.23943,"lon":5.36637,"is_reserved":false,"is_disabled":false,"rental_uris":{"android":"levelo://app?vid=f798cbc4-a869-471f-bce8-f64397eebe81","ios":"levelo://app?vid=f798cbc4-a869-471f-bce8-f64397eebe81"},"vehicle_type_id":"4","last_reported":1739344171,"current_range_meters":18800,"station_id":"ce4bhi12rcd13ifvqfp0","pricing_plan_id":"cebpf4jnsgd1na2vs0mg"},{"bike_id":"5917b50e-263d-44f0-bc92-9b811108e42d","system_id":"levelo_inurba_marseille","lat":43.30284,"lon":5.37696,"is_reserved":false,"is_disabled":false,"rental_uris":{"android":"levelo://app?vid=5917b50e-263d-44f0-bc92-9b811108e42d","ios":"levelo://app?vid=5917b50e-263d-44f0-bc92-9b811108e42d"},"vehicle_type_id":"4","last_reported":1739344171,"current_range_meters":27600,"station_id":"ce4bguh2rcd13ifvqcj0","pricing_plan_id":"cebpf4jnsgd1na2vs0mg"},{"bike_id":"28413155-a714-4c6f-956c-f41cd00ef255","system_id":"levelo_inurba_marseille","lat":43.30424,"lon":5.39767,"is_reserved":false,"is_disabled":false,"rental_uris":{"android":"levelo://app?vid=28413155-a714-4c6f-956c-f41cd00ef255","ios":"levelo://app?vid=28413155-a714-4c6f-956c-f41cd00ef255"},"vehicle_type_id":"4","last_reported":1739344171,"current_range_meters":38800,"station_id":"ce4bh092rcd13ifvqd20","pricing_plan_id":"cebpf4jnsgd1na2vs0mg"},{"bike_id":"30e15755-4421-4ffd-b252-ccac53c81cda","system_id":"levelo_inurba_marseille","lat":43.27897,"lon":5.37993,"is_reserved":false,"is_disabled":false,"rental_uris":{"android":"levelo://app?vid=30e15755-4421-4ffd-b252-ccac53c81cda","ios":"levelo://app?vid=30e15755-4421-4ffd-b252-ccac53c81cda"},"vehicle_type_id":"4","last_reported":1739344171,"current_range_meters":27600,"station_id":"ce4bhf92rcd13ifvqf50","pricing_plan_id":"cebpf4jnsgd1na2vs0mg"},{"bike_id":"aaa35567-58f1-49fb-ab62-1e92082b27a9","system_id":"levelo_inurba_marseille","lat":43.29964,"lon":5.38494,"is_reserved":false,"is_disabled":false,"rental_uris":{"android":"levelo://app?vid=aaa35567-58f1-49fb-ab62-1e92082b27a9","ios":"levelo://app?vid=aaa35567-58f1-49fb-ab62-1e92082b27a9"},"vehicle_type_id":"4","last_reported":1739344171,"current_range_meters":38800,"station_id":"ce4bgj92rcd13ifvqbd0","pricing_plan_id":"cebpf4jnsgd1na2vs0mg"},{"bike_id":"4c983eb9-0181-4f94-9f85-22e23aa30ce0","system_id":"levelo_inurba_marseille","lat":43.30428,"lon":5.39754,"is_reserved":false,"is_disabled":false,"rental_uris":{"android":"levelo://app?vid=4c983eb9-0181-4f94-9f85-22e23aa30ce0","ios":"levelo://app?vid=4c983eb9-0181-4f94-9f85-22e23aa30ce0"},"vehicle_type_id":"4","last_reported":1739344171,"current_range_meters":35600,"station_id":"ce4bh092rcd13ifvqd20","pricing_plan_id":"cebpf4jnsgd1na2vs0mg"},{"bike_id":"bf8cd02e-ccdc-4523-894a-3fce83d782e3","system_id":"levelo_inurba_marseille","lat":43.33734,"lon":5.39179,"is_reserved":false,"is_disabled":false,"rental_uris":{"android":"levelo://app?vid=bf8cd02e-ccdc-4523-894a-3fce83d782e3","ios":"levelo://app?vid=bf8cd02e-ccdc-4523-894a-3fce83d782e3"},"vehicle_type_id":"4","last_reported":1739344171,"current_range_meters":39200,"station_id":"ce4bhr92rcd13ifvqhsg","pricing_plan_id":"cebpf4jnsgd1na2vs0mg"},{"bike_id":"b737ae82-c86e-4ede-80b2-31fc6f755e14","system_id":"levelo_inurba_marseille","lat":43.2953,"lon":5.38541,"is_reserved":false,"is_disabled":true,"rental_uris":{"android":"levelo://app?vid=b737ae82-c86e-4ede-80b2-31fc6f755e14","ios":"levelo://app?vid=b737ae82-c86e-4ede-80b2-31fc6f755e14"},"vehicle_type_id":"4","last_reported":1739344171,"current_range_meters":38800,"station_id":"ce4bgih2rcd13ifvqba0","pricing_plan_id":"cebpf4jnsgd1na2vs0mg"},{"bike_id":"bf8e0073-3935-4e32-86d0-9614b299b0c3","system_id":"levelo_inurba_marseille","lat":43.306416,"lon":5.400716,"is_reserved":false,"is_disabled":false,"rental_uris":{"android":"levelo://app?vid=bf8e0073-3935-4e32-86d0-9614b299b0c3","ios":"levelo://app?vid=bf8e0073-3935-4e32-86d0-9614b299b0c3"},"vehicle_type_id":"4","last_reported":1739344171,"current_range_meters":38800,"station_id":"ce4bh112rcd13ifvqda0","pricing_plan_id":"cebpf4jnsgd1na2vs0mg"},{"bike_id":"4baa1943-377b-43a0-a8e8-389a2e584c67","system_id":"levelo_inurba_marseille","lat":43.28731,"lon":5.36121,"is_reserved":false,"is_disabled":true,"rental_uris":{"android":"levelo://app?vid=4baa1943-377b-43a0-a8e8-389a2e584c67","ios":"levelo://app?vid=4baa1943-377b-43a0-a8e8-389a2e584c67"},"vehicle_type_id":"4","last_reported":1739344171,"current_range_meters":35600,"station_id":"cki0cbj6b192h4jlfktg","pricing_plan_id":"cebpf4jnsgd1na2vs0mg"},{"bike_id":"82009fe5-d83a-49a0-9bf7-6cbc7025fb80","system_id":"levelo_inurba_marseille","lat":43.30466,"lon":5.37922,"is_reserved":false,"is_disabled":false,"rental_uris":{"android":"levelo://app?vid=82009fe5-d83a-49a0-9bf7-6cbc7025fb80","ios":"levelo://app?vid=82009fe5-d83a-49a0-9bf7-6cbc7025fb80"},"vehicle_type_id":"4","last_reported":1739344171,"current_range_meters":17600,"station_id":"ce4bgup2rcd13ifvqcn0","pricing_plan_id":"cebpf4jnsgd1na2vs0mg"},{"bike_id":"c44cdabe-cd2b-4c13-8786-65b6a7e54c63","system_id":"levelo_inurba_marseille","lat":43.25862,"lon":5.39893,"is_reserved":false,"is_disabled":false,"rental_uris":{"android":"levelo://app?vid=c44cdabe-cd2b-4c13-8786-65b6a7e54c63","ios":"levelo://app?vid=c44cdabe-cd2b-4c13-8786-65b6a7e54c63"},"vehicle_type_id":"4","last_reported":1739344171,"current_range_meters":39200,"station_id":"ce4bhl92rcd13ifvqghg","pricing_plan_id":"cebpf4jnsgd1na2vs0mg"},{"bike_id":"e96824e9-86eb-4eda-b79f-29b3890e615e","system_id":"levelo_inurba_marseille","lat":43.29044,"lon":5.39961,"is_reserved":false,"is_disabled":false,"rental_uris":{"android":"levelo://app?vid=e96824e9-86eb-4eda-b79f-29b3890e615e","ios":"levelo://app?vid=e96824e9-86eb-4eda-b79f-29b3890e615e"},"vehicle_type_id":"4","last_reported":1739344171,"current_range_meters":35600,"station_id":"ce4bh392rcd13ifvqdm0","pricing_plan_id":"cebpf4jnsgd1na2vs0mg"},{"bike_id":"c179f179-1614-4d6a-9586-627695823c73","system_id":"levelo_inurba_marseille","lat":43.2682,"lon":5.4026,"is_reserved":false,"is_disabled":false,"rental_uris":{"android":"levelo://app?vid=c179f179-1614-4d6a-9586-627695823c73","ios":"levelo://app?vid=c179f179-1614-4d6a-9586-627695823c73"},"vehicle_type_id":"4","last_reported":1739344171,"current_range_meters":27200,"station_id":"ce501612rcd8frsf0b60","pricing_plan_id":"cebpf4jnsgd1na2vs0mg"},{"bike_id":"c573048d-b0bb-4a11-b456-07d3f804372d","system_id":"levelo_inurba_marseille","lat":43.288493,"lon":5.393289,"is_reserved":false,"is_disabled":false,"rental_uris":{"android":"levelo://app?vid=c573048d-b0bb-4a11-b456-07d3f804372d","ios":"levelo://app?vid=c573048d-b0bb-4a11-b456-07d3f804372d"},"vehicle_type_id":"4","last_reported":1739344171,"current_range_meters":30000,"station_id":"ce4bh2p2rcd13ifvqdi0","pricing_plan_id":"cebpf4jnsgd1na2vs0mg"},{"bike_id":"542c162a-2c01-4221-88ba-bc0cf2c81047","system_id":"levelo_inurba_marseille","lat":43.26803,"lon":5.40291,"is_reserved":false,"is_disabled":false,"rental_uris":{"android":"levelo://app?vid=542c162a-2c01-4221-88ba-bc0cf2c81047","ios":"levelo://app?vid=542c162a-2c01-4221-88ba-bc0cf2c81047"},"vehicle_type_id":"4","last_reported":1739344171,"current_range_meters":38800,"station_id":"ce501612rcd8frsf0b60","pricing_plan_id":"cebpf4jnsgd1na2vs0mg"},{"bike_id":"856b0bec-f600-4186-9ede-184660241ce9","system_id":"levelo_inurba_marseille","lat":43.2558,"lon":5.38239,"is_reserved":false,"is_disabled":false,"rental_uris":{"android":"levelo://app?vid=856b0bec-f600-4186-9ede-184660241ce9","ios":"levelo://app?vid=856b0bec-f600-4186-9ede-184660241ce9"},"vehicle_type_id":"4","last_reported":1739344171,"current_range_meters":39200,"station_id":"ce4bhih2rcd13ifvqfs0","pricing_plan_id":"cebpf4jnsgd1na2vs0mg"},{"bike_id":"87f29faa-759a-425a-824e-ac3220e83fd2","system_id":"levelo_inurba_marseille","lat":43.30795,"lon":5.37687,"is_reserved":false,"is_disabled":false,"rental_uris":{"android":"levelo://app?vid=87f29faa-759a-425a-824e-ac3220e83fd2","ios":"levelo://app?vid=87f29faa-759a-425a-824e-ac3220e83fd2"},"vehicle_type_id":"4","last_reported":1739344171,"current_range_meters":38800,"station_id":"ce4bgv92rcd13ifvqcq0","pricing_plan_id":"cebpf4jnsgd1na2vs0mg"},{"bike_id":"0946e1d0-cc5c-4db2-a494-cafba877eb11","system_id":"levelo_inurba_marseille","lat":43.30469,"lon":5.37903,"is_reserved":false,"is_disabled":false,"rental_uris":{"android":"levelo://app?vid=0946e1d0-cc5c-4db2-a494-cafba877eb11","ios":"levelo://app?vid=0946e1d0-cc5c-4db2-a494-cafba877eb11"},"vehicle_type_id":"4","last_reported":1739344171,"current_range_meters":6400,"station_id":"ce4bgup2rcd13ifvqcn0","pricing_plan_id":"cebpf4jnsgd1na2vs0mg"},{"bike_id":"e72583ac-0842-4a86-8c9f-49c0d823f1e9","system_id":"levelo_inurba_marseille","lat":43.29643,"lon":5.40619,"is_reserved":false,"is_disabled":false,"rental_uris":{"android":"levelo://app?vid=e72583ac-0842-4a86-8c9f-49c0d823f1e9","ios":"levelo://app?vid=e72583ac-0842-4a86-8c9f-49c0d823f1e9"},"vehicle_type_id":"4","last_reported":1739344171,"current_range_meters":10000,"station_id":"ce4bh0h2rcd13ifvqd60","pricing_plan_id":"cebpf4jnsgd1na2vs0mg"},{"bike_id":"2ea1c1de-8d83-4d91-894e-7b8d1455f25e","system_id":"levelo_inurba_marseille","lat":43.30157,"lon":5.38099,"is_reserved":false,"is_disabled":false,"rental_uris":{"android":"levelo://app?vid=2ea1c1de-8d83-4d91-894e-7b8d1455f25e","ios":"levelo://app?vid=2ea1c1de-8d83-4d91-894e-7b8d1455f25e"},"vehicle_type_id":"4","last_reported":1739344171,"current_range_meters":28400,"station_id":"ce4bgjp2rcd13ifvqbh0","pricing_plan_id":"cebpf4jnsgd1na2vs0mg"},{"bike_id":"8dc60ba6-d690-49b8-8adf-a6261b5bfebb","system_id":"levelo_inurba_marseille","lat":43.2438,"lon":5.3706,"is_reserved":false,"is_disabled":false,"rental_uris":{"android":"levelo://app?vid=8dc60ba6-d690-49b8-8adf-a6261b5bfebb","ios":"levelo://app?vid=8dc60ba6-d690-49b8-8adf-a6261b5bfebb"},"vehicle_type_id":"4","last_reported":1739344171,"current_range_meters":30000,"station_id":"ce4bhhh2rcd13ifvqfk0","pricing_plan_id":"cebpf4jnsgd1na2vs0mg"},{"bike_id":"022bfa62-7cd3-460d-bff2-01870edd9da6","system_id":"levelo_inurba_marseille","lat":43.28721,"lon":5.36119,"is_reserved":false,"is_disabled":false,"rental_uris":{"android":"levelo://app?vid=022bfa62-7cd3-460d-bff2-01870edd9da6","ios":"levelo://app?vid=022bfa62-7cd3-460d-bff2-01870edd9da6"},"vehicle_type_id":"4","last_reported":1739344171,"current_range_meters":34800,"station_id":"cki0cbj6b192h4jlfktg","pricing_plan_id":"cebpf4jnsgd1na2vs0mg"},{"bike_id":"8a7bd441-3f99-4d50-b32c-2e4ef736875e","system_id":"levelo_inurba_marseille","lat":43.25011,"lon":5.38985,"is_reserved":false,"is_disabled":false,"rental_uris":{"android":"levelo://app?vid=8a7bd441-3f99-4d50-b32c-2e4ef736875e","ios":"levelo://app?vid=8a7bd441-3f99-4d50-b32c-2e4ef736875e"},"vehicle_type_id":"4","last_reported":1739344171,"current_range_meters":35200,"station_id":"","pricing_plan_id":"cebpf4jnsgd1na2vs0mg"},{"bike_id":"d6e53530-3cc7-4db9-8a0d-93dc58983b28","system_id":"levelo_inurba_marseille","lat":43.29706,"lon":5.366,"is_reserved":false,"is_disabled":false,"rental_uris":{"android":"levelo://app?vid=d6e53530-3cc7-4db9-8a0d-93dc58983b28","ios":"levelo://app?vid=d6e53530-3cc7-4db9-8a0d-93dc58983b28"},"vehicle_type_id":"4","last_reported":1739344171,"current_range_meters":38800,"station_id":"ce4bgn12rcd13ifvqbt0","pricing_plan_id":"cebpf4jnsgd1na2vs0mg"},{"bike_id":"2ccaebba-3560-415e-816d-dd75899cbbd4","system_id":"levelo_inurba_marseille","lat":43.255816,"lon":5.382323,"is_reserved":false,"is_disabled":true,"rental_uris":{"android":"levelo://app?vid=2ccaebba-3560-415e-816d-dd75899cbbd4","ios":"levelo://app?vid=2ccaebba-3560-415e-816d-dd75899cbbd4"},"vehicle_type_id":"4","last_reported":1739344171,"current_range_meters":0,"station_id":"ce4bhih2rcd13ifvqfs0","pricing_plan_id":"cebpf4jnsgd1na2vs0mg"},{"bike_id":"e169a236-33c1-4557-8a4d-0eca73ad1806","system_id":"levelo_inurba_marseille","lat":43.28008,"lon":5.39992,"is_reserved":false,"is_disabled":false,"rental_uris":{"android":"levelo://app?vid=e169a236-33c1-4557-8a4d-0eca73ad1806","ios":"levelo://app?vid=e169a236-33c1-4557-8a4d-0eca73ad1806"},"vehicle_type_id":"4","last_reported":1739344171,"current_range_meters":23200,"station_id":"ce4bho92rcd13ifvqh4g","pricing_plan_id":"cebpf4jnsgd1na2vs0mg"},{"bike_id":"6bef5661-98f3-427d-9fe9-ace76ea423c3","system_id":"levelo_inurba_marseille","lat":43.290051,"lon":5.356176,"is_reserved":false,"is_disabled":false,"rental_uris":{"android":"levelo://app?vid=6bef5661-98f3-427d-9fe9-ace76ea423c3","ios":"levelo://app?vid=6bef5661-98f3-427d-9fe9-ace76ea423c3"},"vehicle_type_id":"4","last_reported":1739344171,"current_range_meters":35600,"station_id":"","pricing_plan_id":"cebpf4jnsgd1na2vs0mg"},{"bike_id":"4ee0464e-e9f1-4c9d-b3f3-275397ffd141","system_id":"levelo_inurba_marseille","lat":43.255819,"lon":5.38233,"is_reserved":false,"is_disabled":false,"rental_uris":{"android":"levelo://app?vid=4ee0464e-e9f1-4c9d-b3f3-275397ffd141","ios":"levelo://app?vid=4ee0464e-e9f1-4c9d-b3f3-275397ffd141"},"vehicle_type_id":"4","last_reported":1739344171,"current_range_meters":39200,"station_id":"ce4bhih2rcd13ifvqfs0","pricing_plan_id":"cebpf4jnsgd1na2vs0mg"},{"bike_id":"cbc82297-31cb-4dbc-84af-c6961c99532a","system_id":"levelo_inurba_marseille","lat":43.30461,"lon":5.37899,"is_reserved":false,"is_disabled":false,"rental_uris":{"android":"levelo://app?vid=cbc82297-31cb-4dbc-84af-c6961c99532a","ios":"levelo://app?vid=cbc82297-31cb-4dbc-84af-c6961c99532a"},"vehicle_type_id":"4","last_reported":1739344171,"current_range_meters":32800,"station_id":"ce4bgup2rcd13ifvqcn0","pricing_plan_id":"cebpf4jnsgd1na2vs0mg"},{"bike_id":"ab27ba9e-3fb3-41b1-a802-4cdc50ceeacd","system_id":"levelo_inurba_marseille","lat":43.32343,"lon":5.40637,"is_reserved":false,"is_disabled":false,"rental_uris":{"android":"levelo://app?vid=ab27ba9e-3fb3-41b1-a802-4cdc50ceeacd","ios":"levelo://app?vid=ab27ba9e-3fb3-41b1-a802-4cdc50ceeacd"},"vehicle_type_id":"4","last_reported":1739344171,"current_range_meters":38800,"station_id":"ce4bhq92rcd13ifvqhjg","pricing_plan_id":"cebpf4jnsgd1na2vs0mg"},{"bike_id":"76ebc75d-2fe5-45e0-9f44-dea2f5f86814","system_id":"levelo_inurba_marseille","lat":43.243905,"lon":5.370523,"is_reserved":false,"is_disabled":false,"rental_uris":{"android":"levelo://app?vid=76ebc75d-2fe5-45e0-9f44-dea2f5f86814","ios":"levelo://app?vid=76ebc75d-2fe5-45e0-9f44-dea2f5f86814"},"vehicle_type_id":"4","last_reported":1739344171,"current_range_meters":29600,"station_id":"ce4bhhh2rcd13ifvqfk0","pricing_plan_id":"cebpf4jnsgd1na2vs0mg"},{"bike_id":"76305925-afef-4e0d-9960-6de968abbadf","system_id":"levelo_inurba_marseille","lat":43.24808,"lon":5.37458,"is_reserved":false,"is_disabled":false,"rental_uris":{"android":"levelo://app?vid=76305925-afef-4e0d-9960-6de968abbadf","ios":"levelo://app?vid=76305925-afef-4e0d-9960-6de968abbadf"},"vehicle_type_id":"4","last_reported":1739344171,"current_range_meters":35600,"station_id":"ce4bhgh2rcd13ifvqfb0","pricing_plan_id":"cebpf4jnsgd1na2vs0mg"},{"bike_id":"1fb1a03a-258b-416a-92dc-66b98dcbe7d9","system_id":"levelo_inurba_marseille","lat":43.33718,"lon":5.39194,"is_reserved":false,"is_disabled":false,"rental_uris":{"android":"levelo://app?vid=1fb1a03a-258b-416a-92dc-66b98dcbe7d9","ios":"levelo://app?vid=1fb1a03a-258b-416a-92dc-66b98dcbe7d9"},"vehicle_type_id":"4","last_reported":1739344171,"current_range_meters":39200,"station_id":"ce4bhr92rcd13ifvqhsg","pricing_plan_id":"cebpf4jnsgd1na2vs0mg"},{"bike_id":"80b55b9b-3311-4f84-bd1e-e3b2f430b33c","system_id":"levelo_inurba_marseille","lat":43.30537,"lon":5.36698,"is_reserved":false,"is_disabled":false,"rental_uris":{"android":"levelo://app?vid=80b55b9b-3311-4f84-bd1e-e3b2f430b33c","ios":"levelo://app?vid=80b55b9b-3311-4f84-bd1e-e3b2f430b33c"},"vehicle_type_id":"4","last_reported":1739344171,"current_range_meters":39200,"station_id":"ce4bgrp2rcd13ifvqc9g","pricing_plan_id":"cebpf4jnsgd1na2vs0mg"},{"bike_id":"51ab7186-5043-4bed-baca-73708608a302","system_id":"levelo_inurba_marseille","lat":43.29584,"lon":5.37026,"is_reserved":false,"is_disabled":true,"rental_uris":{"android":"levelo://app?vid=51ab7186-5043-4bed-baca-73708608a302","ios":"levelo://app?vid=51ab7186-5043-4bed-baca-73708608a302"},"vehicle_type_id":"4","last_reported":1739344171,"current_range_meters":4000,"station_id":"","pricing_plan_id":"cebpf4jnsgd1na2vs0mg"},{"bike_id":"337b1c35-8ea7-4241-8b1e-14e60ebc65b9","system_id":"levelo_inurba_marseille","lat":43.28713,"lon":5.37402,"is_reserved":false,"is_disabled":false,"rental_uris":{"android":"levelo://app?vid=337b1c35-8ea7-4241-8b1e-14e60ebc65b9","ios":"levelo://app?vid=337b1c35-8ea7-4241-8b1e-14e60ebc65b9"},"vehicle_type_id":"4","last_reported":1739344171,"current_range_meters":37600,"station_id":"ce4bh3p2rcd13ifvqdq0","pricing_plan_id":"cebpf4jnsgd1na2vs0mg"},{"bike_id":"305c0be0-b3c0-43da-902e-3857932ec086","system_id":"levelo_inurba_marseille","lat":43.28505,"lon":5.38583,"is_reserved":false,"is_disabled":false,"rental_uris":{"android":"levelo://app?vid=305c0be0-b3c0-43da-902e-3857932ec086","ios":"levelo://app?vid=305c0be0-b3c0-43da-902e-3857932ec086"},"vehicle_type_id":"4","last_reported":1739344171,"current_range_meters":38000,"station_id":"ce4bh8p2rcd13ifvqeb0","pricing_plan_id":"cebpf4jnsgd1na2vs0mg"},{"bike_id":"c93d2f3b-3e0a-470e-8d47-d4f05728e6ad","system_id":"levelo_inurba_marseille","lat":43.29013,"lon":5.38133,"is_reserved":false,"is_disabled":false,"rental_uris":{"android":"levelo://app?vid=c93d2f3b-3e0a-470e-8d47-d4f05728e6ad","ios":"levelo://app?vid=c93d2f3b-3e0a-470e-8d47-d4f05728e6ad"},"vehicle_type_id":"4","last_reported":1739344171,"current_range_meters":38000,"station_id":"ce4bh4p2rcd13ifvqe1g","pricing_plan_id":"cebpf4jnsgd1na2vs0mg"},{"bike_id":"7263b1f0-c8c5-4fd4-b6de-91daf2ffabf3","system_id":"levelo_inurba_marseille","lat":43.29032,"lon":5.39961,"is_reserved":false,"is_disabled":false,"rental_uris":{"android":"levelo://app?vid=7263b1f0-c8c5-4fd4-b6de-91daf2ffabf3","ios":"levelo://app?vid=7263b1f0-c8c5-4fd4-b6de-91daf2ffabf3"},"vehicle_type_id":"4","last_reported":1739344171,"current_range_meters":28400,"station_id":"ce4bh392rcd13ifvqdm0","pricing_plan_id":"cebpf4jnsgd1na2vs0mg"},{"bike_id":"20a48ecc-be84-4a19-af41-d4d79c7ee9f1","system_id":"levelo_inurba_marseille","lat":43.29501,"lon":5.39058,"is_reserved":false,"is_disabled":false,"rental_uris":{"android":"levelo://app?vid=20a48ecc-be84-4a19-af41-d4d79c7ee9f1","ios":"levelo://app?vid=20a48ecc-be84-4a19-af41-d4d79c7ee9f1"},"vehicle_type_id":"4","last_reported":1739344171,"current_range_meters":30800,"station_id":"ce4bh3p2rcd13ifvqdp0","pricing_plan_id":"cebpf4jnsgd1na2vs0mg"},{"bike_id":"2553c908-dc12-427f-abef-c594d033e197","system_id":"levelo_inurba_marseille","lat":43.29533,"lon":5.39045,"is_reserved":false,"is_disabled":false,"rental_uris":{"android":"levelo://app?vid=2553c908-dc12-427f-abef-c594d033e197","ios":"levelo://app?vid=2553c908-dc12-427f-abef-c594d033e197"},"vehicle_type_id":"4","last_reported":1739344171,"current_range_meters":38800,"station_id":"ce4bh3p2rcd13ifvqdp0","pricing_plan_id":"cebpf4jnsgd1na2vs0mg"},{"bike_id":"a9b142c9-8146-4cd2-9929-de6fa12b9ff4","system_id":"levelo_inurba_marseille","lat":43.29808,"lon":5.40423,"is_reserved":false,"is_disabled":false,"rental_uris":{"android":"levelo://app?vid=a9b142c9-8146-4cd2-9929-de6fa12b9ff4","ios":"levelo://app?vid=a9b142c9-8146-4cd2-9929-de6fa12b9ff4"},"vehicle_type_id":"4","last_reported":1739344171,"current_range_meters":38800,"station_id":"ce4bh112rcd13ifvqd90","pricing_plan_id":"cebpf4jnsgd1na2vs0mg"},{"bike_id":"3022a390-1c44-4221-b627-b981bb6953c7","system_id":"levelo_inurba_marseille","lat":43.28003,"lon":5.40003,"is_reserved":false,"is_disabled":false,"rental_uris":{"android":"levelo://app?vid=3022a390-1c44-4221-b627-b981bb6953c7","ios":"levelo://app?vid=3022a390-1c44-4221-b627-b981bb6953c7"},"vehicle_type_id":"4","last_reported":1739344171,"current_range_meters":25600,"station_id":"ce4bho92rcd13ifvqh4g","pricing_plan_id":"cebpf4jnsgd1na2vs0mg"},{"bike_id":"f9fcd84c-9a0b-4471-a4a8-56349dc37728","system_id":"levelo_inurba_marseille","lat":43.27321,"lon":5.39095,"is_reserved":false,"is_disabled":false,"rental_uris":{"android":"levelo://app?vid=f9fcd84c-9a0b-4471-a4a8-56349dc37728","ios":"levelo://app?vid=f9fcd84c-9a0b-4471-a4a8-56349dc37728"},"vehicle_type_id":"4","last_reported":1739344171,"current_range_meters":27600,"station_id":"ce4bhgp2rcd13ifvqfe0","pricing_plan_id":"cebpf4jnsgd1na2vs0mg"},{"bike_id":"10dce821-bd6f-48b5-a755-f2a3c840842c","system_id":"levelo_inurba_marseille","lat":43.231529,"lon":5.437225,"is_reserved":false,"is_disabled":false,"rental_uris":{"android":"levelo://app?vid=10dce821-bd6f-48b5-a755-f2a3c840842c","ios":"levelo://app?vid=10dce821-bd6f-48b5-a755-f2a3c840842c"},"vehicle_type_id":"4","last_reported":1739344171,"current_range_meters":8400,"station_id":"ce4bhmp2rcd13ifvqgog","pricing_plan_id":"cebpf4jnsgd1na2vs0mg"},{"bike_id":"4b6a43e1-59ee-455d-a868-09ef3b0a4c33","system_id":"levelo_inurba_marseille","lat":43.29027,"lon":5.39979,"is_reserved":false,"is_disabled":false,"rental_uris":{"android":"levelo://app?vid=4b6a43e1-59ee-455d-a868-09ef3b0a4c33","ios":"levelo://app?vid=4b6a43e1-59ee-455d-a868-09ef3b0a4c33"},"vehicle_type_id":"4","last_reported":1739344171,"current_range_meters":24800,"station_id":"ce4bh392rcd13ifvqdm0","pricing_plan_id":"cebpf4jnsgd1na2vs0mg"},{"bike_id":"de77abfa-6f74-40e9-8131-b7884eda37eb","system_id":"levelo_inurba_marseille","lat":43.299421,"lon":5.394034,"is_reserved":false,"is_disabled":false,"rental_uris":{"android":"levelo://app?vid=de77abfa-6f74-40e9-8131-b7884eda37eb","ios":"levelo://app?vid=de77abfa-6f74-40e9-8131-b7884eda37eb"},"vehicle_type_id":"4","last_reported":1739344171,"current_range_meters":26800,"station_id":"","pricing_plan_id":"cebpf4jnsgd1na2vs0mg"},{"bike_id":"73e22411-53b5-4cd8-85c6-eb2465766898","system_id":"levelo_inurba_marseille","lat":43.284673,"lon":5.358877,"is_reserved":false,"is_disabled":false,"rental_uris":{"android":"levelo://app?vid=73e22411-53b5-4cd8-85c6-eb2465766898","ios":"levelo://app?vid=73e22411-53b5-4cd8-85c6-eb2465766898"},"vehicle_type_id":"4","last_reported":1739344171,"current_range_meters":7200,"station_id":"ce4bhah2rcd13ifvqei0","pricing_plan_id":"cebpf4jnsgd1na2vs0mg"},{"bike_id":"aa081435-b5f9-4834-b16c-7f35c836b33a","system_id":"levelo_inurba_marseille","lat":43.3015,"lon":5.37429,"is_reserved":false,"is_disabled":false,"rental_uris":{"android":"levelo://app?vid=aa081435-b5f9-4834-b16c-7f35c836b33a","ios":"levelo://app?vid=aa081435-b5f9-4834-b16c-7f35c836b33a"},"vehicle_type_id":"4","last_reported":1739344171,"current_range_meters":37600,"station_id":"ce4bgs92rcd13ifvqcc0","pricing_plan_id":"cebpf4jnsgd1na2vs0mg"},{"bike_id":"ee079ffa-4416-4a91-bc98-3bd665acea3b","system_id":"levelo_inurba_marseille","lat":43.337294,"lon":5.391821,"is_reserved":false,"is_disabled":false,"rental_uris":{"android":"levelo://app?vid=ee079ffa-4416-4a91-bc98-3bd665acea3b","ios":"levelo://app?vid=ee079ffa-4416-4a91-bc98-3bd665acea3b"},"vehicle_type_id":"4","last_reported":1739344171,"current_range_meters":39200,"station_id":"ce4bhr92rcd13ifvqhsg","pricing_plan_id":"cebpf4jnsgd1na2vs0mg"},{"bike_id":"1fa82dc6-47d4-4356-bbca-393bf4461726","system_id":"levelo_inurba_marseille","lat":43.23959,"lon":5.36618,"is_reserved":false,"is_disabled":false,"rental_uris":{"android":"levelo://app?vid=1fa82dc6-47d4-4356-bbca-393bf4461726","ios":"levelo://app?vid=1fa82dc6-47d4-4356-bbca-393bf4461726"},"vehicle_type_id":"4","last_reported":1739344171,"current_range_meters":17200,"station_id":"ce4bhi12rcd13ifvqfp0","pricing_plan_id":"cebpf4jnsgd1na2vs0mg"},{"bike_id":"8f27805b-e45e-482f-800b-3745204b0141","system_id":"levelo_inurba_marseille","lat":43.24676,"lon":5.38148,"is_reserved":false,"is_disabled":false,"rental_uris":{"android":"levelo://app?vid=8f27805b-e45e-482f-800b-3745204b0141","ios":"levelo://app?vid=8f27805b-e45e-482f-800b-3745204b0141"},"vehicle_type_id":"4","last_reported":1739344171,"current_range_meters":25200,"station_id":"ce4bhih2rcd13ifvqfr0","pricing_plan_id":"cebpf4jnsgd1na2vs0mg"},{"bike_id":"9f99ab5f-0fe5-4085-b6b7-477d8944d558","system_id":"levelo_inurba_marseille","lat":43.28125,"lon":5.42641,"is_reserved":false,"is_disabled":false,"rental_uris":{"android":"levelo://app?vid=9f99ab5f-0fe5-4085-b6b7-477d8944d558","ios":"levelo://app?vid=9f99ab5f-0fe5-4085-b6b7-477d8944d558"},"vehicle_type_id":"4","last_reported":1739344171,"current_range_meters":38800,"station_id":"ce4bhnh2rcd13ifvqgug","pricing_plan_id":"cebpf4jnsgd1na2vs0mg"},{"bike_id":"bcb645d7-c598-4777-888d-2e2637a0a4f2","system_id":"levelo_inurba_marseille","lat":43.279044,"lon":5.380034,"is_reserved":false,"is_disabled":false,"rental_uris":{"android":"levelo://app?vid=bcb645d7-c598-4777-888d-2e2637a0a4f2","ios":"levelo://app?vid=bcb645d7-c598-4777-888d-2e2637a0a4f2"},"vehicle_type_id":"4","last_reported":1739344171,"current_range_meters":30400,"station_id":"ce4bhf92rcd13ifvqf50","pricing_plan_id":"cebpf4jnsgd1na2vs0mg"},{"bike_id":"43d9c899-b698-4010-980b-b17004dc2d7c","system_id":"levelo_inurba_marseille","lat":43.299825,"lon":5.371748,"is_reserved":false,"is_disabled":false,"rental_uris":{"android":"levelo://app?vid=43d9c899-b698-4010-980b-b17004dc2d7c","ios":"levelo://app?vid=43d9c899-b698-4010-980b-b17004dc2d7c"},"vehicle_type_id":"4","last_reported":1739344171,"current_range_meters":38800,"station_id":"ce4bgr92rcd13ifvqc7g","pricing_plan_id":"cebpf4jnsgd1na2vs0mg"},{"bike_id":"bc9b283e-d1e3-4ecc-baae-e649ca388761","system_id":"levelo_inurba_marseille","lat":43.30159,"lon":5.37412,"is_reserved":false,"is_disabled":false,"rental_uris":{"android":"levelo://app?vid=bc9b283e-d1e3-4ecc-baae-e649ca388761","ios":"levelo://app?vid=bc9b283e-d1e3-4ecc-baae-e649ca388761"},"vehicle_type_id":"4","last_reported":1739344171,"current_range_meters":30000,"station_id":"ce4bgs92rcd13ifvqcc0","pricing_plan_id":"cebpf4jnsgd1na2vs0mg"},{"bike_id":"3adb6699-f719-4456-92ab-1968693e97fb","system_id":"levelo_inurba_marseille","lat":43.24164,"lon":5.36396,"is_reserved":false,"is_disabled":false,"rental_uris":{"android":"levelo://app?vid=3adb6699-f719-4456-92ab-1968693e97fb","ios":"levelo://app?vid=3adb6699-f719-4456-92ab-1968693e97fb"},"vehicle_type_id":"4","last_reported":1739344171,"current_range_meters":24000,"station_id":"cpo36qri1sfpv3e86is0","pricing_plan_id":"cebpf4jnsgd1na2vs0mg"},{"bike_id":"47e0f5df-3ffc-443a-8e3a-326299068a40","system_id":"levelo_inurba_marseille","lat":43.28014,"lon":5.40006,"is_reserved":false,"is_disabled":false,"rental_uris":{"android":"levelo://app?vid=47e0f5df-3ffc-443a-8e3a-326299068a40","ios":"levelo://app?vid=47e0f5df-3ffc-443a-8e3a-326299068a40"},"vehicle_type_id":"4","last_reported":1739344171,"current_range_meters":26800,"station_id":"ce4bho92rcd13ifvqh4g","pricing_plan_id":"cebpf4jnsgd1na2vs0mg"},{"bike_id":"496fa2ad-a547-4095-b8b9-a29f1a78ab4b","system_id":"levelo_inurba_marseille","lat":43.27848,"lon":5.4067,"is_reserved":false,"is_disabled":false,"rental_uris":{"android":"levelo://app?vid=496fa2ad-a547-4095-b8b9-a29f1a78ab4b","ios":"levelo://app?vid=496fa2ad-a547-4095-b8b9-a29f1a78ab4b"},"vehicle_type_id":"4","last_reported":1739344171,"current_range_meters":33600,"station_id":"ce4bhnh2rcd13ifvqgtg","pricing_plan_id":"cebpf4jnsgd1na2vs0mg"},{"bike_id":"9649a713-2d30-413d-81a4-845b20eaf753","system_id":"levelo_inurba_marseille","lat":43.29421,"lon":5.39764,"is_reserved":false,"is_disabled":true,"rental_uris":{"android":"levelo://app?vid=9649a713-2d30-413d-81a4-845b20eaf753","ios":"levelo://app?vid=9649a713-2d30-413d-81a4-845b20eaf753"},"vehicle_type_id":"4","last_reported":1739344171,"current_range_meters":28400,"station_id":"ce4bh3h2rcd13ifvqdo0","pricing_plan_id":"cebpf4jnsgd1na2vs0mg"},{"bike_id":"3db29e58-0383-464f-82dd-fb2e9d4db242","system_id":"levelo_inurba_marseille","lat":43.28103,"lon":5.37837,"is_reserved":false,"is_disabled":false,"rental_uris":{"android":"levelo://app?vid=3db29e58-0383-464f-82dd-fb2e9d4db242","ios":"levelo://app?vid=3db29e58-0383-464f-82dd-fb2e9d4db242"},"vehicle_type_id":"4","last_reported":1739344171,"current_range_meters":28800,"station_id":"ce4bha12rcd13ifvqee0","pricing_plan_id":"cebpf4jnsgd1na2vs0mg"},{"bike_id":"05f6ac8f-0127-4e39-bd11-d53a74225ef8","system_id":"levelo_inurba_marseille","lat":43.27874,"lon":5.40597,"is_reserved":false,"is_disabled":true,"rental_uris":{"android":"levelo://app?vid=05f6ac8f-0127-4e39-bd11-d53a74225ef8","ios":"levelo://app?vid=05f6ac8f-0127-4e39-bd11-d53a74225ef8"},"vehicle_type_id":"4","last_reported":1739344171,"current_range_meters":0,"station_id":"","pricing_plan_id":"cebpf4jnsgd1na2vs0mg"},{"bike_id":"74a3a18b-4a2c-4cf9-918a-bd0dee5df25f","system_id":"levelo_inurba_marseille","lat":43.25143,"lon":5.4035,"is_reserved":false,"is_disabled":false,"rental_uris":{"android":"levelo://app?vid=74a3a18b-4a2c-4cf9-918a-bd0dee5df25f","ios":"levelo://app?vid=74a3a18b-4a2c-4cf9-918a-bd0dee5df25f"},"vehicle_type_id":"4","last_reported":1739344171,"current_range_meters":27200,"station_id":"ce4bhlh2rcd13ifvqgig","pricing_plan_id":"cebpf4jnsgd1na2vs0mg"},{"bike_id":"d5aff76b-8afe-4642-9794-552d69dd1f55","system_id":"levelo_inurba_marseille","lat":43.25492,"lon":5.37655,"is_reserved":false,"is_disabled":false,"rental_uris":{"android":"levelo://app?vid=d5aff76b-8afe-4642-9794-552d69dd1f55","ios":"levelo://app?vid=d5aff76b-8afe-4642-9794-552d69dd1f55"},"vehicle_type_id":"4","last_reported":1739344171,"current_range_meters":36400,"station_id":"ce4bhh12rcd13ifvqff0","pricing_plan_id":"cebpf4jnsgd1na2vs0mg"},{"bike_id":"3aeb5cdf-f333-43fd-9c06-e99bd36b32d2","system_id":"levelo_inurba_marseille","lat":43.299632,"lon":5.413134,"is_reserved":false,"is_disabled":false,"rental_uris":{"android":"levelo://app?vid=3aeb5cdf-f333-43fd-9c06-e99bd36b32d2","ios":"levelo://app?vid=3aeb5cdf-f333-43fd-9c06-e99bd36b32d2"},"vehicle_type_id":"4","last_reported":1739344171,"current_range_meters":38000,"station_id":"ce4bhp12rcd13ifvqh9g","pricing_plan_id":"cebpf4jnsgd1na2vs0mg"},{"bike_id":"aadaf4bd-d503-4fa8-8fba-48c219f7a5ca","system_id":"levelo_inurba_marseille","lat":43.25584,"lon":5.38235,"is_reserved":false,"is_disabled":false,"rental_uris":{"android":"levelo://app?vid=aadaf4bd-d503-4fa8-8fba-48c219f7a5ca","ios":"levelo://app?vid=aadaf4bd-d503-4fa8-8fba-48c219f7a5ca"},"vehicle_type_id":"4","last_reported":1739344171,"current_range_meters":6800,"station_id":"ce4bhih2rcd13ifvqfs0","pricing_plan_id":"cebpf4jnsgd1na2vs0mg"},{"bike_id":"90f13af0-9da4-4d02-82ad-8b2ef0f8ca45","system_id":"levelo_inurba_marseille","lat":43.32002,"lon":5.3815,"is_reserved":false,"is_disabled":false,"rental_uris":{"android":"levelo://app?vid=90f13af0-9da4-4d02-82ad-8b2ef0f8ca45","ios":"levelo://app?vid=90f13af0-9da4-4d02-82ad-8b2ef0f8ca45"},"vehicle_type_id":"4","last_reported":1739344171,"current_range_meters":38400,"station_id":"ce4bhr12rcd13ifvqhpg","pricing_plan_id":"cebpf4jnsgd1na2vs0mg"},{"bike_id":"3d01ee57-be5d-4165-815d-c5b06c8be331","system_id":"levelo_inurba_marseille","lat":43.2501,"lon":5.38933,"is_reserved":false,"is_disabled":false,"rental_uris":{"android":"levelo://app?vid=3d01ee57-be5d-4165-815d-c5b06c8be331","ios":"levelo://app?vid=3d01ee57-be5d-4165-815d-c5b06c8be331"},"vehicle_type_id":"4","last_reported":1739344171,"current_range_meters":38800,"station_id":"ce4bhgp2rcd13ifvqfd0","pricing_plan_id":"cebpf4jnsgd1na2vs0mg"},{"bike_id":"cce64dc4-6862-4a45-9dfe-61b6dbda13f9","system_id":"levelo_inurba_marseille","lat":43.3414,"lon":5.40907,"is_reserved":false,"is_disabled":false,"rental_uris":{"android":"levelo://app?vid=cce64dc4-6862-4a45-9dfe-61b6dbda13f9","ios":"levelo://app?vid=cce64dc4-6862-4a45-9dfe-61b6dbda13f9"},"vehicle_type_id":"4","last_reported":1739344171,"current_range_meters":30400,"station_id":"ce4bhqh2rcd13ifvqhlg","pricing_plan_id":"cebpf4jnsgd1na2vs0mg"},{"bike_id":"51620b26-19de-4403-be68-cecc23178a04","system_id":"levelo_inurba_marseille","lat":43.30895,"lon":5.37187,"is_reserved":false,"is_disabled":false,"rental_uris":{"android":"levelo://app?vid=51620b26-19de-4403-be68-cecc23178a04","ios":"levelo://app?vid=51620b26-19de-4403-be68-cecc23178a04"},"vehicle_type_id":"4","last_reported":1739344171,"current_range_meters":37600,"station_id":"ce4bguh2rcd13ifvqckg","pricing_plan_id":"cebpf4jnsgd1na2vs0mg"},{"bike_id":"721f5fb6-7349-49b7-a109-77ff84c72bdd","system_id":"levelo_inurba_marseille","lat":43.30195,"lon":5.39507,"is_reserved":false,"is_disabled":false,"rental_uris":{"android":"levelo://app?vid=721f5fb6-7349-49b7-a109-77ff84c72bdd","ios":"levelo://app?vid=721f5fb6-7349-49b7-a109-77ff84c72bdd"},"vehicle_type_id":"4","last_reported":1739344171,"current_range_meters":38800,"station_id":"ce4bh0p2rcd13ifvqd70","pricing_plan_id":"cebpf4jnsgd1na2vs0mg"},{"bike_id":"c07ffd3b-1b45-4f4f-af96-2b31373f9d65","system_id":"levelo_inurba_marseille","lat":43.241268,"lon":5.36436,"is_reserved":false,"is_disabled":false,"rental_uris":{"android":"levelo://app?vid=c07ffd3b-1b45-4f4f-af96-2b31373f9d65","ios":"levelo://app?vid=c07ffd3b-1b45-4f4f-af96-2b31373f9d65"},"vehicle_type_id":"4","last_reported":1739344171,"current_range_meters":27600,"station_id":"","pricing_plan_id":"cebpf4jnsgd1na2vs0mg"},{"bike_id":"76ed4e97-7fa9-4836-bcd3-e52753ef31b4","system_id":"levelo_inurba_marseille","lat":43.298444,"lon":5.362753,"is_reserved":false,"is_disabled":false,"rental_uris":{"android":"levelo://app?vid=76ed4e97-7fa9-4836-bcd3-e52753ef31b4","ios":"levelo://app?vid=76ed4e97-7fa9-4836-bcd3-e52753ef31b4"},"vehicle_type_id":"4","last_reported":1739344171,"current_range_meters":38000,"station_id":"ce4bgpp2rcd13ifvqc3g","pricing_plan_id":"cebpf4jnsgd1na2vs0mg"},{"bike_id":"fd7cd6eb-8023-4160-9061-39fa556cf25c","system_id":"levelo_inurba_marseille","lat":43.30333,"lon":5.40454,"is_reserved":false,"is_disabled":true,"rental_uris":{"android":"levelo://app?vid=fd7cd6eb-8023-4160-9061-39fa556cf25c","ios":"levelo://app?vid=fd7cd6eb-8023-4160-9061-39fa556cf25c"},"vehicle_type_id":"4","last_reported":1739344171,"current_range_meters":26000,"station_id":"ce4bh012rcd13ifvqd10","pricing_plan_id":"cebpf4jnsgd1na2vs0mg"},{"bike_id":"47d2e11d-3012-4fe8-a8bd-c37437c4af91","system_id":"levelo_inurba_marseille","lat":43.33602,"lon":5.4104,"is_reserved":false,"is_disabled":false,"rental_uris":{"android":"levelo://app?vid=47d2e11d-3012-4fe8-a8bd-c37437c4af91","ios":"levelo://app?vid=47d2e11d-3012-4fe8-a8bd-c37437c4af91"},"vehicle_type_id":"4","last_reported":1739344171,"current_range_meters":27600,"station_id":"ce4bhqh2rcd13ifvqhmg","pricing_plan_id":"cebpf4jnsgd1na2vs0mg"},{"bike_id":"d32849cf-4c14-4032-9063-172d06d3f04f","system_id":"levelo_inurba_marseille","lat":43.23199,"lon":5.35541,"is_reserved":false,"is_disabled":false,"rental_uris":{"android":"levelo://app?vid=d32849cf-4c14-4032-9063-172d06d3f04f","ios":"levelo://app?vid=d32849cf-4c14-4032-9063-172d06d3f04f"},"vehicle_type_id":"4","last_reported":1739344171,"current_range_meters":32000,"station_id":"ce4bhu92rcd13ifvqi70","pricing_plan_id":"cebpf4jnsgd1na2vs0mg"},{"bike_id":"a4eaaa69-6c5f-4bbb-8db1-625e149d651e","system_id":"levelo_inurba_marseille","lat":43.29528,"lon":5.39044,"is_reserved":false,"is_disabled":false,"rental_uris":{"android":"levelo://app?vid=a4eaaa69-6c5f-4bbb-8db1-625e149d651e","ios":"levelo://app?vid=a4eaaa69-6c5f-4bbb-8db1-625e149d651e"},"vehicle_type_id":"4","last_reported":1739344171,"current_range_meters":38800,"station_id":"ce4bh3p2rcd13ifvqdp0","pricing_plan_id":"cebpf4jnsgd1na2vs0mg"},{"bike_id":"4bb4af83-e61e-4f75-9787-d8bfa4ce6d16","system_id":"levelo_inurba_marseille","lat":43.30961,"lon":5.39047,"is_reserved":false,"is_disabled":false,"rental_uris":{"android":"levelo://app?vid=4bb4af83-e61e-4f75-9787-d8bfa4ce6d16","ios":"levelo://app?vid=4bb4af83-e61e-4f75-9787-d8bfa4ce6d16"},"vehicle_type_id":"4","last_reported":1739344171,"current_range_meters":38800,"station_id":"ce4bgup2rcd13ifvqco0","pricing_plan_id":"cebpf4jnsgd1na2vs0mg"},{"bike_id":"09a31e22-31a3-4a8b-a8f3-c6b84a9cc357","system_id":"levelo_inurba_marseille","lat":43.27593,"lon":5.38437,"is_reserved":false,"is_disabled":false,"rental_uris":{"android":"levelo://app?vid=09a31e22-31a3-4a8b-a8f3-c6b84a9cc357","ios":"levelo://app?vid=09a31e22-31a3-4a8b-a8f3-c6b84a9cc357"},"vehicle_type_id":"4","last_reported":1739344171,"current_range_meters":24800,"station_id":"ce4bhh92rcd13ifvqfi0","pricing_plan_id":"cebpf4jnsgd1na2vs0mg"},{"bike_id":"b7cfafc0-fba3-47fa-8c3d-d96c6bee1f7a","system_id":"levelo_inurba_marseille","lat":43.24395,"lon":5.37058,"is_reserved":false,"is_disabled":false,"rental_uris":{"android":"levelo://app?vid=b7cfafc0-fba3-47fa-8c3d-d96c6bee1f7a","ios":"levelo://app?vid=b7cfafc0-fba3-47fa-8c3d-d96c6bee1f7a"},"vehicle_type_id":"4","last_reported":1739344171,"current_range_meters":30800,"station_id":"ce4bhhh2rcd13ifvqfk0","pricing_plan_id":"cebpf4jnsgd1na2vs0mg"},{"bike_id":"9ba133ba-7b58-4607-8737-7fb5bce66e58","system_id":"levelo_inurba_marseille","lat":43.2439,"lon":5.37072,"is_reserved":false,"is_disabled":false,"rental_uris":{"android":"levelo://app?vid=9ba133ba-7b58-4607-8737-7fb5bce66e58","ios":"levelo://app?vid=9ba133ba-7b58-4607-8737-7fb5bce66e58"},"vehicle_type_id":"4","last_reported":1739344171,"current_range_meters":38800,"station_id":"ce4bhhh2rcd13ifvqfk0","pricing_plan_id":"cebpf4jnsgd1na2vs0mg"},{"bike_id":"24d2a29b-fa24-4c85-a726-541b11d56bc0","system_id":"levelo_inurba_marseille","lat":43.313483,"lon":5.36713,"is_reserved":false,"is_disabled":false,"rental_uris":{"android":"levelo://app?vid=24d2a29b-fa24-4c85-a726-541b11d56bc0","ios":"levelo://app?vid=24d2a29b-fa24-4c85-a726-541b11d56bc0"},"vehicle_type_id":"4","last_reported":1739344171,"current_range_meters":15200,"station_id":"ce4bgr92rcd13ifvqc6g","pricing_plan_id":"cebpf4jnsgd1na2vs0mg"},{"bike_id":"f6e41f32-e235-432e-b657-0d4bc89c9b05","system_id":"levelo_inurba_marseille","lat":43.26565,"lon":5.3729,"is_reserved":false,"is_disabled":false,"rental_uris":{"android":"levelo://app?vid=f6e41f32-e235-432e-b657-0d4bc89c9b05","ios":"levelo://app?vid=f6e41f32-e235-432e-b657-0d4bc89c9b05"},"vehicle_type_id":"4","last_reported":1739344171,"current_range_meters":35600,"station_id":"ce4bhg12rcd13ifvqf70","pricing_plan_id":"cebpf4jnsgd1na2vs0mg"},{"bike_id":"14b2070b-6ddc-42e3-b1e8-9c0cbc081f72","system_id":"levelo_inurba_marseille","lat":43.33738,"lon":5.39197,"is_reserved":false,"is_disabled":false,"rental_uris":{"android":"levelo://app?vid=14b2070b-6ddc-42e3-b1e8-9c0cbc081f72","ios":"levelo://app?vid=14b2070b-6ddc-42e3-b1e8-9c0cbc081f72"},"vehicle_type_id":"4","last_reported":1739344171,"current_range_meters":38800,"station_id":"ce4bhr92rcd13ifvqhsg","pricing_plan_id":"cebpf4jnsgd1na2vs0mg"},{"bike_id":"3ad78980-d954-4439-b88d-56e0dcfe7b89","system_id":"levelo_inurba_marseille","lat":43.23962,"lon":5.36641,"is_reserved":false,"is_disabled":false,"rental_uris":{"android":"levelo://app?vid=3ad78980-d954-4439-b88d-56e0dcfe7b89","ios":"levelo://app?vid=3ad78980-d954-4439-b88d-56e0dcfe7b89"},"vehicle_type_id":"4","last_reported":1739344171,"current_range_meters":7200,"station_id":"ce4bhi12rcd13ifvqfp0","pricing_plan_id":"cebpf4jnsgd1na2vs0mg"},{"bike_id":"37574b32-5f95-401f-b2e8-26935021f3fa","system_id":"levelo_inurba_marseille","lat":43.29217,"lon":5.36065,"is_reserved":false,"is_disabled":false,"rental_uris":{"android":"levelo://app?vid=37574b32-5f95-401f-b2e8-26935021f3fa","ios":"levelo://app?vid=37574b32-5f95-401f-b2e8-26935021f3fa"},"vehicle_type_id":"4","last_reported":1739344171,"current_range_meters":24000,"station_id":"ce4bhbh2rcd13ifvqeqg","pricing_plan_id":"cebpf4jnsgd1na2vs0mg"},{"bike_id":"43b1ecc5-d107-4d1b-b054-0d8524909927","system_id":"levelo_inurba_marseille","lat":43.28676,"lon":5.38664,"is_reserved":false,"is_disabled":false,"rental_uris":{"android":"levelo://app?vid=43b1ecc5-d107-4d1b-b054-0d8524909927","ios":"levelo://app?vid=43b1ecc5-d107-4d1b-b054-0d8524909927"},"vehicle_type_id":"4","last_reported":1739344171,"current_range_meters":27600,"station_id":"ce4bh492rcd13ifvqdug","pricing_plan_id":"cebpf4jnsgd1na2vs0mg"},{"bike_id":"72dcdbd8-6454-45d9-a70f-b140c9e866d2","system_id":"levelo_inurba_marseille","lat":43.298953,"lon":5.4366,"is_reserved":false,"is_disabled":false,"rental_uris":{"android":"levelo://app?vid=72dcdbd8-6454-45d9-a70f-b140c9e866d2","ios":"levelo://app?vid=72dcdbd8-6454-45d9-a70f-b140c9e866d2"},"vehicle_type_id":"4","last_reported":1739344171,"current_range_meters":38800,"station_id":"ce4bhpp2rcd13ifvqhfg","pricing_plan_id":"cebpf4jnsgd1na2vs0mg"},{"bike_id":"652123cb-3721-44be-8710-a2f825a76e71","system_id":"levelo_inurba_marseille","lat":43.23187,"lon":5.39986,"is_reserved":false,"is_disabled":false,"rental_uris":{"android":"levelo://app?vid=652123cb-3721-44be-8710-a2f825a76e71","ios":"levelo://app?vid=652123cb-3721-44be-8710-a2f825a76e71"},"vehicle_type_id":"4","last_reported":1739344171,"current_range_meters":5600,"station_id":"ce4bhn12rcd13ifvqgqg","pricing_plan_id":"cebpf4jnsgd1na2vs0mg"},{"bike_id":"a44105aa-fc32-4a22-833c-afdd70d81b1f","system_id":"levelo_inurba_marseille","lat":43.2971,"lon":5.37751,"is_reserved":false,"is_disabled":false,"rental_uris":{"android":"levelo://app?vid=a44105aa-fc32-4a22-833c-afdd70d81b1f","ios":"levelo://app?vid=a44105aa-fc32-4a22-833c-afdd70d81b1f"},"vehicle_type_id":"4","last_reported":1739344171,"current_range_meters":39200,"station_id":"ce4bgkh2rcd13ifvqbl0","pricing_plan_id":"cebpf4jnsgd1na2vs0mg"},{"bike_id":"8b3dba3f-5de8-455b-8ad7-d817a08bdb0c","system_id":"levelo_inurba_marseille","lat":43.308895,"lon":5.371963,"is_reserved":false,"is_disabled":false,"rental_uris":{"android":"levelo://app?vid=8b3dba3f-5de8-455b-8ad7-d817a08bdb0c","ios":"levelo://app?vid=8b3dba3f-5de8-455b-8ad7-d817a08bdb0c"},"vehicle_type_id":"4","last_reported":1739344171,"current_range_meters":37600,"station_id":"ce4bguh2rcd13ifvqckg","pricing_plan_id":"cebpf4jnsgd1na2vs0mg"},{"bike_id":"fb2c916d-110b-4178-ae54-20a447d0a865","system_id":"levelo_inurba_marseille","lat":43.31372,"lon":5.3849,"is_reserved":false,"is_disabled":false,"rental_uris":{"android":"levelo://app?vid=fb2c916d-110b-4178-ae54-20a447d0a865","ios":"levelo://app?vid=fb2c916d-110b-4178-ae54-20a447d0a865"},"vehicle_type_id":"4","last_reported":1739344171,"current_range_meters":38800,"station_id":"ce4bgt92rcd13ifvqcf0","pricing_plan_id":"cebpf4jnsgd1na2vs0mg"},{"bike_id":"b7093d96-5e28-44c2-87d1-baed01f4cb25","system_id":"levelo_inurba_marseille","lat":43.27988,"lon":5.38745,"is_reserved":false,"is_disabled":false,"rental_uris":{"android":"levelo://app?vid=b7093d96-5e28-44c2-87d1-baed01f4cb25","ios":"levelo://app?vid=b7093d96-5e28-44c2-87d1-baed01f4cb25"},"vehicle_type_id":"4","last_reported":1739344171,"current_range_meters":38000,"station_id":"ce4bhg12rcd13ifvqf80","pricing_plan_id":"cebpf4jnsgd1na2vs0mg"},{"bike_id":"201b14f4-65c7-45ff-8010-fe136e6675ac","system_id":"levelo_inurba_marseille","lat":43.24146,"lon":5.39734,"is_reserved":false,"is_disabled":false,"rental_uris":{"android":"levelo://app?vid=201b14f4-65c7-45ff-8010-fe136e6675ac","ios":"levelo://app?vid=201b14f4-65c7-45ff-8010-fe136e6675ac"},"vehicle_type_id":"4","last_reported":1739344171,"current_range_meters":22000,"station_id":"ce4bhn12rcd13ifvqgpg","pricing_plan_id":"cebpf4jnsgd1na2vs0mg"},{"bike_id":"f4379ffa-d405-4bc5-bc54-4ecf2b401aef","system_id":"levelo_inurba_marseille","lat":43.3095,"lon":5.39018,"is_reserved":false,"is_disabled":false,"rental_uris":{"android":"levelo://app?vid=f4379ffa-d405-4bc5-bc54-4ecf2b401aef","ios":"levelo://app?vid=f4379ffa-d405-4bc5-bc54-4ecf2b401aef"},"vehicle_type_id":"4","last_reported":1739344171,"current_range_meters":38800,"station_id":"","pricing_plan_id":"cebpf4jnsgd1na2vs0mg"},{"bike_id":"9207b0f3-9707-4707-b4f6-b2339a5ec8ff","system_id":"levelo_inurba_marseille","lat":43.28124,"lon":5.42624,"is_reserved":false,"is_disabled":false,"rental_uris":{"android":"levelo://app?vid=9207b0f3-9707-4707-b4f6-b2339a5ec8ff","ios":"levelo://app?vid=9207b0f3-9707-4707-b4f6-b2339a5ec8ff"},"vehicle_type_id":"4","last_reported":1739344171,"current_range_meters":37600,"station_id":"ce4bhnh2rcd13ifvqgug","pricing_plan_id":"cebpf4jnsgd1na2vs0mg"},{"bike_id":"2550662b-5c2a-41ed-9f77-e5c02053bdf1","system_id":"levelo_inurba_marseille","lat":43.28403,"lon":5.37532,"is_reserved":false,"is_disabled":false,"rental_uris":{"android":"levelo://app?vid=2550662b-5c2a-41ed-9f77-e5c02053bdf1","ios":"levelo://app?vid=2550662b-5c2a-41ed-9f77-e5c02053bdf1"},"vehicle_type_id":"4","last_reported":1739344171,"current_range_meters":32800,"station_id":"ce4bh412rcd13ifvqds0","pricing_plan_id":"cebpf4jnsgd1na2vs0mg"},{"bike_id":"80af509e-2c60-42b8-a7fc-6aebf1bb06c1","system_id":"levelo_inurba_marseille","lat":43.25743,"lon":5.41081,"is_reserved":false,"is_disabled":false,"rental_uris":{"android":"levelo://app?vid=80af509e-2c60-42b8-a7fc-6aebf1bb06c1","ios":"levelo://app?vid=80af509e-2c60-42b8-a7fc-6aebf1bb06c1"},"vehicle_type_id":"4","last_reported":1739344171,"current_range_meters":31200,"station_id":"ce4bhkp2rcd13ifvqgd0","pricing_plan_id":"cebpf4jnsgd1na2vs0mg"},{"bike_id":"7c71ad91-930b-4856-a3a6-b776fe0ad731","system_id":"levelo_inurba_marseille","lat":43.297119,"lon":5.366107,"is_reserved":false,"is_disabled":false,"rental_uris":{"android":"levelo://app?vid=7c71ad91-930b-4856-a3a6-b776fe0ad731","ios":"levelo://app?vid=7c71ad91-930b-4856-a3a6-b776fe0ad731"},"vehicle_type_id":"4","last_reported":1739344171,"current_range_meters":38800,"station_id":"ce4bgn12rcd13ifvqbt0","pricing_plan_id":"cebpf4jnsgd1na2vs0mg"},{"bike_id":"ddbfc913-16cf-4d9f-a892-35d08e1e6767","system_id":"levelo_inurba_marseille","lat":43.295887,"lon":5.367366,"is_reserved":false,"is_disabled":false,"rental_uris":{"android":"levelo://app?vid=ddbfc913-16cf-4d9f-a892-35d08e1e6767","ios":"levelo://app?vid=ddbfc913-16cf-4d9f-a892-35d08e1e6767"},"vehicle_type_id":"4","last_reported":1739344171,"current_range_meters":12000,"station_id":"ce4bgph2rcd13ifvqc2g","pricing_plan_id":"cebpf4jnsgd1na2vs0mg"},{"bike_id":"0a77f424-9d7d-4010-bd33-1687a2ffd57e","system_id":"levelo_inurba_marseille","lat":43.24803,"lon":5.37471,"is_reserved":false,"is_disabled":false,"rental_uris":{"android":"levelo://app?vid=0a77f424-9d7d-4010-bd33-1687a2ffd57e","ios":"levelo://app?vid=0a77f424-9d7d-4010-bd33-1687a2ffd57e"},"vehicle_type_id":"4","last_reported":1739344171,"current_range_meters":10800,"station_id":"ce4bhgh2rcd13ifvqfb0","pricing_plan_id":"cebpf4jnsgd1na2vs0mg"},{"bike_id":"15c8d317-fbc9-41d6-8e07-f6f8c9ef394a","system_id":"levelo_inurba_marseille","lat":43.28447,"lon":5.38496,"is_reserved":false,"is_disabled":false,"rental_uris":{"android":"levelo://app?vid=15c8d317-fbc9-41d6-8e07-f6f8c9ef394a","ios":"levelo://app?vid=15c8d317-fbc9-41d6-8e07-f6f8c9ef394a"},"vehicle_type_id":"4","last_reported":1739344171,"current_range_meters":38800,"station_id":"","pricing_plan_id":"cebpf4jnsgd1na2vs0mg"},{"bike_id":"2fd7d38a-0d7a-464c-9124-a8bfeb84b736","system_id":"levelo_inurba_marseille","lat":43.299168,"lon":5.380348,"is_reserved":false,"is_disabled":false,"rental_uris":{"android":"levelo://app?vid=2fd7d38a-0d7a-464c-9124-a8bfeb84b736","ios":"levelo://app?vid=2fd7d38a-0d7a-464c-9124-a8bfeb84b736"},"vehicle_type_id":"4","last_reported":1739344171,"current_range_meters":32400,"station_id":"ce4bgjh2rcd13ifvqbg0","pricing_plan_id":"cebpf4jnsgd1na2vs0mg"},{"bike_id":"c2250f20-2283-4e17-b7ce-382f2f740aa1","system_id":"levelo_inurba_marseille","lat":43.24808,"lon":5.37458,"is_reserved":false,"is_disabled":false,"rental_uris":{"android":"levelo://app?vid=c2250f20-2283-4e17-b7ce-382f2f740aa1","ios":"levelo://app?vid=c2250f20-2283-4e17-b7ce-382f2f740aa1"},"vehicle_type_id":"4","last_reported":1739344171,"current_range_meters":38800,"station_id":"ce4bhgh2rcd13ifvqfb0","pricing_plan_id":"cebpf4jnsgd1na2vs0mg"},{"bike_id":"762daed5-0513-41bc-965d-2d3013961229","system_id":"levelo_inurba_marseille","lat":43.29969,"lon":5.38493,"is_reserved":false,"is_disabled":false,"rental_uris":{"android":"levelo://app?vid=762daed5-0513-41bc-965d-2d3013961229","ios":"levelo://app?vid=762daed5-0513-41bc-965d-2d3013961229"},"vehicle_type_id":"4","last_reported":1739344171,"current_range_meters":33200,"station_id":"ce4bgj92rcd13ifvqbd0","pricing_plan_id":"cebpf4jnsgd1na2vs0mg"},{"bike_id":"d52467fa-3015-4742-aee2-f7ab48c12d28","system_id":"levelo_inurba_marseille","lat":43.30308,"lon":5.36893,"is_reserved":false,"is_disabled":false,"rental_uris":{"android":"levelo://app?vid=d52467fa-3015-4742-aee2-f7ab48c12d28","ios":"levelo://app?vid=d52467fa-3015-4742-aee2-f7ab48c12d28"},"vehicle_type_id":"4","last_reported":1739344171,"current_range_meters":16400,"station_id":"ce4bgqh2rcd13ifvqc5g","pricing_plan_id":"cebpf4jnsgd1na2vs0mg"},{"bike_id":"f6024ce0-93b9-484e-803e-a14959ae4bc0","system_id":"levelo_inurba_marseille","lat":43.30149,"lon":5.38088,"is_reserved":false,"is_disabled":false,"rental_uris":{"android":"levelo://app?vid=f6024ce0-93b9-484e-803e-a14959ae4bc0","ios":"levelo://app?vid=f6024ce0-93b9-484e-803e-a14959ae4bc0"},"vehicle_type_id":"4","last_reported":1739344171,"current_range_meters":34800,"station_id":"ce4bgjp2rcd13ifvqbh0","pricing_plan_id":"cebpf4jnsgd1na2vs0mg"},{"bike_id":"a5c8d6b9-db75-471f-9015-10144bb13020","system_id":"levelo_inurba_marseille","lat":43.25706,"lon":5.41134,"is_reserved":false,"is_disabled":false,"rental_uris":{"android":"levelo://app?vid=a5c8d6b9-db75-471f-9015-10144bb13020","ios":"levelo://app?vid=a5c8d6b9-db75-471f-9015-10144bb13020"},"vehicle_type_id":"4","last_reported":1739344171,"current_range_meters":38800,"station_id":"ce4bhkp2rcd13ifvqgd0","pricing_plan_id":"cebpf4jnsgd1na2vs0mg"},{"bike_id":"a3c8e50a-9da9-4b45-8e30-2a10a638adc8","system_id":"levelo_inurba_marseille","lat":43.3093,"lon":5.40143,"is_reserved":false,"is_disabled":true,"rental_uris":{"android":"levelo://app?vid=a3c8e50a-9da9-4b45-8e30-2a10a638adc8","ios":"levelo://app?vid=a3c8e50a-9da9-4b45-8e30-2a10a638adc8"},"vehicle_type_id":"4","last_reported":1739344171,"current_range_meters":0,"station_id":"ce4bgvp2rcd13ifvqct0","pricing_plan_id":"cebpf4jnsgd1na2vs0mg"},{"bike_id":"8aaacf93-7a76-463b-82dc-340e7efb76fd","system_id":"levelo_inurba_marseille","lat":43.29783,"lon":5.40405,"is_reserved":false,"is_disabled":false,"rental_uris":{"android":"levelo://app?vid=8aaacf93-7a76-463b-82dc-340e7efb76fd","ios":"levelo://app?vid=8aaacf93-7a76-463b-82dc-340e7efb76fd"},"vehicle_type_id":"4","last_reported":1739344171,"current_range_meters":38800,"station_id":"ce4bh112rcd13ifvqd90","pricing_plan_id":"cebpf4jnsgd1na2vs0mg"},{"bike_id":"f85fd452-5bde-4296-ab83-dac7111c9b77","system_id":"levelo_inurba_marseille","lat":43.325504,"lon":5.414494,"is_reserved":false,"is_disabled":false,"rental_uris":{"android":"levelo://app?vid=f85fd452-5bde-4296-ab83-dac7111c9b77","ios":"levelo://app?vid=f85fd452-5bde-4296-ab83-dac7111c9b77"},"vehicle_type_id":"4","last_reported":1739344171,"current_range_meters":36800,"station_id":"ce4bhq12rcd13ifvqhhg","pricing_plan_id":"cebpf4jnsgd1na2vs0mg"},{"bike_id":"d3b58dda-3b0c-4227-b0cb-8890146ef189","system_id":"levelo_inurba_marseille","lat":43.30536,"lon":5.36542,"is_reserved":false,"is_disabled":false,"rental_uris":{"android":"levelo://app?vid=d3b58dda-3b0c-4227-b0cb-8890146ef189","ios":"levelo://app?vid=d3b58dda-3b0c-4227-b0cb-8890146ef189"},"vehicle_type_id":"4","last_reported":1739344171,"current_range_meters":3600,"station_id":"ce4bgs12rcd13ifvqcag","pricing_plan_id":"cebpf4jnsgd1na2vs0mg"},{"bike_id":"30b76049-e41b-4adb-862f-755fe2524e05","system_id":"levelo_inurba_marseille","lat":43.288513,"lon":5.393247,"is_reserved":false,"is_disabled":false,"rental_uris":{"android":"levelo://app?vid=30b76049-e41b-4adb-862f-755fe2524e05","ios":"levelo://app?vid=30b76049-e41b-4adb-862f-755fe2524e05"},"vehicle_type_id":"4","last_reported":1739344171,"current_range_meters":37600,"station_id":"","pricing_plan_id":"cebpf4jnsgd1na2vs0mg"},{"bike_id":"635543fe-6114-4369-91d2-b63a5133d0a1","system_id":"levelo_inurba_marseille","lat":43.27952,"lon":5.41045,"is_reserved":false,"is_disabled":false,"rental_uris":{"android":"levelo://app?vid=635543fe-6114-4369-91d2-b63a5133d0a1","ios":"levelo://app?vid=635543fe-6114-4369-91d2-b63a5133d0a1"},"vehicle_type_id":"4","last_reported":1739344171,"current_range_meters":7200,"station_id":"ce4bhnp2rcd13ifvqh0g","pricing_plan_id":"cebpf4jnsgd1na2vs0mg"},{"bike_id":"e8721934-70d8-4d39-b5e9-81f1f35de4ba","system_id":"levelo_inurba_marseille","lat":43.29722,"lon":5.3773,"is_reserved":false,"is_disabled":false,"rental_uris":{"android":"levelo://app?vid=e8721934-70d8-4d39-b5e9-81f1f35de4ba","ios":"levelo://app?vid=e8721934-70d8-4d39-b5e9-81f1f35de4ba"},"vehicle_type_id":"4","last_reported":1739344171,"current_range_meters":17200,"station_id":"ce4bgkh2rcd13ifvqbl0","pricing_plan_id":"cebpf4jnsgd1na2vs0mg"},{"bike_id":"c2fb2851-8dd6-42de-8e46-669751cf4751","system_id":"levelo_inurba_marseille","lat":43.30506,"lon":5.36706,"is_reserved":false,"is_disabled":false,"rental_uris":{"android":"levelo://app?vid=c2fb2851-8dd6-42de-8e46-669751cf4751","ios":"levelo://app?vid=c2fb2851-8dd6-42de-8e46-669751cf4751"},"vehicle_type_id":"4","last_reported":1739344171,"current_range_meters":20800,"station_id":"ce4bgrp2rcd13ifvqc9g","pricing_plan_id":"cebpf4jnsgd1na2vs0mg"},{"bike_id":"f908766d-cb2b-431b-a24d-e58d576f769b","system_id":"levelo_inurba_marseille","lat":43.30154,"lon":5.38073,"is_reserved":false,"is_disabled":false,"rental_uris":{"android":"levelo://app?vid=f908766d-cb2b-431b-a24d-e58d576f769b","ios":"levelo://app?vid=f908766d-cb2b-431b-a24d-e58d576f769b"},"vehicle_type_id":"4","last_reported":1739344171,"current_range_meters":39200,"station_id":"ce4bgjp2rcd13ifvqbh0","pricing_plan_id":"cebpf4jnsgd1na2vs0mg"},{"bike_id":"861aed4c-893e-4b16-ad69-4dfb51ba3a05","system_id":"levelo_inurba_marseille","lat":43.28742,"lon":5.36096,"is_reserved":false,"is_disabled":false,"rental_uris":{"android":"levelo://app?vid=861aed4c-893e-4b16-ad69-4dfb51ba3a05","ios":"levelo://app?vid=861aed4c-893e-4b16-ad69-4dfb51ba3a05"},"vehicle_type_id":"4","last_reported":1739344171,"current_range_meters":28400,"station_id":"cki0cbj6b192h4jlfktg","pricing_plan_id":"cebpf4jnsgd1na2vs0mg"},{"bike_id":"64387a61-7414-453e-8131-28fa15536541","system_id":"levelo_inurba_marseille","lat":43.25856,"lon":5.39909,"is_reserved":false,"is_disabled":false,"rental_uris":{"android":"levelo://app?vid=64387a61-7414-453e-8131-28fa15536541","ios":"levelo://app?vid=64387a61-7414-453e-8131-28fa15536541"},"vehicle_type_id":"4","last_reported":1739344171,"current_range_meters":8000,"station_id":"ce4bhl92rcd13ifvqghg","pricing_plan_id":"cebpf4jnsgd1na2vs0mg"},{"bike_id":"1d2000e3-6e82-4c8d-9a0a-5d8181e36eb3","system_id":"levelo_inurba_marseille","lat":43.25031,"lon":5.38896,"is_reserved":false,"is_disabled":false,"rental_uris":{"android":"levelo://app?vid=1d2000e3-6e82-4c8d-9a0a-5d8181e36eb3","ios":"levelo://app?vid=1d2000e3-6e82-4c8d-9a0a-5d8181e36eb3"},"vehicle_type_id":"4","last_reported":1739344171,"current_range_meters":37600,"station_id":"ce4bhgp2rcd13ifvqfd0","pricing_plan_id":"cebpf4jnsgd1na2vs0mg"},{"bike_id":"a69e567e-3774-43da-9871-c9cd59263ec8","system_id":"levelo_inurba_marseille","lat":43.288488,"lon":5.393233,"is_reserved":false,"is_disabled":true,"rental_uris":{"android":"levelo://app?vid=a69e567e-3774-43da-9871-c9cd59263ec8","ios":"levelo://app?vid=a69e567e-3774-43da-9871-c9cd59263ec8"},"vehicle_type_id":"4","last_reported":1739344171,"current_range_meters":30800,"station_id":"ce4bh2p2rcd13ifvqdi0","pricing_plan_id":"cebpf4jnsgd1na2vs0mg"},{"bike_id":"c38fb035-efa3-4aa0-bdd4-9215cbbf93bb","system_id":"levelo_inurba_marseille","lat":43.30607,"lon":5.37192,"is_reserved":false,"is_disabled":false,"rental_uris":{"android":"levelo://app?vid=c38fb035-efa3-4aa0-bdd4-9215cbbf93bb","ios":"levelo://app?vid=c38fb035-efa3-4aa0-bdd4-9215cbbf93bb"},"vehicle_type_id":"4","last_reported":1739344171,"current_range_meters":39200,"station_id":"ce4bgqh2rcd13ifvqc4g","pricing_plan_id":"cebpf4jnsgd1na2vs0mg"},{"bike_id":"799c55c2-1e76-4409-82fe-e1417f2eccf3","system_id":"levelo_inurba_marseille","lat":43.31377,"lon":5.38495,"is_reserved":false,"is_disabled":false,"rental_uris":{"android":"levelo://app?vid=799c55c2-1e76-4409-82fe-e1417f2eccf3","ios":"levelo://app?vid=799c55c2-1e76-4409-82fe-e1417f2eccf3"},"vehicle_type_id":"4","last_reported":1739344171,"current_range_meters":38800,"station_id":"ce4bgt92rcd13ifvqcf0","pricing_plan_id":"cebpf4jnsgd1na2vs0mg"},{"bike_id":"450437f7-f152-4a04-b325-03f3ed3d779b","system_id":"levelo_inurba_marseille","lat":43.231921,"lon":5.399751,"is_reserved":false,"is_disabled":false,"rental_uris":{"android":"levelo://app?vid=450437f7-f152-4a04-b325-03f3ed3d779b","ios":"levelo://app?vid=450437f7-f152-4a04-b325-03f3ed3d779b"},"vehicle_type_id":"4","last_reported":1739344171,"current_range_meters":27600,"station_id":"ce4bhn12rcd13ifvqgqg","pricing_plan_id":"cebpf4jnsgd1na2vs0mg"},{"bike_id":"21b0c502-fd63-49e2-994e-aea282d5bf53","system_id":"levelo_inurba_marseille","lat":43.28719,"lon":5.40005,"is_reserved":false,"is_disabled":false,"rental_uris":{"android":"levelo://app?vid=21b0c502-fd63-49e2-994e-aea282d5bf53","ios":"levelo://app?vid=21b0c502-fd63-49e2-994e-aea282d5bf53"},"vehicle_type_id":"4","last_reported":1739344171,"current_range_meters":11600,"station_id":"ce4bho92rcd13ifvqh3g","pricing_plan_id":"cebpf4jnsgd1na2vs0mg"},{"bike_id":"4894643c-7cbc-44b9-8d75-69292261da04","system_id":"levelo_inurba_marseille","lat":43.29048,"lon":5.39925,"is_reserved":false,"is_disabled":true,"rental_uris":{"android":"levelo://app?vid=4894643c-7cbc-44b9-8d75-69292261da04","ios":"levelo://app?vid=4894643c-7cbc-44b9-8d75-69292261da04"},"vehicle_type_id":"4","last_reported":1739344171,"current_range_meters":38800,"station_id":"ce4bh392rcd13ifvqdm0","pricing_plan_id":"cebpf4jnsgd1na2vs0mg"},{"bike_id":"8f958795-1d0e-4a72-96cf-46fac3cf00bf","system_id":"levelo_inurba_marseille","lat":43.25528,"lon":5.39422,"is_reserved":false,"is_disabled":false,"rental_uris":{"android":"levelo://app?vid=8f958795-1d0e-4a72-96cf-46fac3cf00bf","ios":"levelo://app?vid=8f958795-1d0e-4a72-96cf-46fac3cf00bf"},"vehicle_type_id":"4","last_reported":1739344171,"current_range_meters":24800,"station_id":"","pricing_plan_id":"cebpf4jnsgd1na2vs0mg"},{"bike_id":"ff07d45b-56e7-453a-ac00-d312d62f7592","system_id":"levelo_inurba_marseille","lat":43.30155,"lon":5.38087,"is_reserved":false,"is_disabled":false,"rental_uris":{"android":"levelo://app?vid=ff07d45b-56e7-453a-ac00-d312d62f7592","ios":"levelo://app?vid=ff07d45b-56e7-453a-ac00-d312d62f7592"},"vehicle_type_id":"4","last_reported":1739344171,"current_range_meters":33200,"station_id":"ce4bgjp2rcd13ifvqbh0","pricing_plan_id":"cebpf4jnsgd1na2vs0mg"},{"bike_id":"7d53cd04-03c8-428a-b4fb-0e771333a4f5","system_id":"levelo_inurba_marseille","lat":43.24811,"lon":5.37453,"is_reserved":false,"is_disabled":false,"rental_uris":{"android":"levelo://app?vid=7d53cd04-03c8-428a-b4fb-0e771333a4f5","ios":"levelo://app?vid=7d53cd04-03c8-428a-b4fb-0e771333a4f5"},"vehicle_type_id":"4","last_reported":1739344171,"current_range_meters":38000,"station_id":"ce4bhgh2rcd13ifvqfb0","pricing_plan_id":"cebpf4jnsgd1na2vs0mg"},{"bike_id":"04d4b8ab-1d4d-44ab-9d49-e10f569c0553","system_id":"levelo_inurba_marseille","lat":43.2985,"lon":5.3627,"is_reserved":false,"is_disabled":false,"rental_uris":{"android":"levelo://app?vid=04d4b8ab-1d4d-44ab-9d49-e10f569c0553","ios":"levelo://app?vid=04d4b8ab-1d4d-44ab-9d49-e10f569c0553"},"vehicle_type_id":"4","last_reported":1739344171,"current_range_meters":35600,"station_id":"ce4bgpp2rcd13ifvqc3g","pricing_plan_id":"cebpf4jnsgd1na2vs0mg"},{"bike_id":"f13bd585-2521-4ced-abec-3eff62b2dd0d","system_id":"levelo_inurba_marseille","lat":43.3095,"lon":5.39036,"is_reserved":false,"is_disabled":false,"rental_uris":{"android":"levelo://app?vid=f13bd585-2521-4ced-abec-3eff62b2dd0d","ios":"levelo://app?vid=f13bd585-2521-4ced-abec-3eff62b2dd0d"},"vehicle_type_id":"4","last_reported":1739344171,"current_range_meters":36400,"station_id":"ce4bgup2rcd13ifvqco0","pricing_plan_id":"cebpf4jnsgd1na2vs0mg"},{"bike_id":"31ef7217-bcfe-43ce-b994-2ac5b1fe87c2","system_id":"levelo_inurba_marseille","lat":43.25714,"lon":5.41105,"is_reserved":false,"is_disabled":true,"rental_uris":{"android":"levelo://app?vid=31ef7217-bcfe-43ce-b994-2ac5b1fe87c2","ios":"levelo://app?vid=31ef7217-bcfe-43ce-b994-2ac5b1fe87c2"},"vehicle_type_id":"4","last_reported":1739344171,"current_range_meters":37600,"station_id":"ce4bhkp2rcd13ifvqgd0","pricing_plan_id":"cebpf4jnsgd1na2vs0mg"},{"bike_id":"90037e4a-a934-46fa-8514-6ab0532a1c0b","system_id":"levelo_inurba_marseille","lat":43.279331,"lon":5.411961,"is_reserved":false,"is_disabled":false,"rental_uris":{"android":"levelo://app?vid=90037e4a-a934-46fa-8514-6ab0532a1c0b","ios":"levelo://app?vid=90037e4a-a934-46fa-8514-6ab0532a1c0b"},"vehicle_type_id":"4","last_reported":1739344171,"current_range_meters":37600,"station_id":"","pricing_plan_id":"cebpf4jnsgd1na2vs0mg"},{"bike_id":"c4813b27-4250-43ea-8be5-ccd7321d2af3","system_id":"levelo_inurba_marseille","lat":43.282239,"lon":5.369881,"is_reserved":false,"is_disabled":false,"rental_uris":{"android":"levelo://app?vid=c4813b27-4250-43ea-8be5-ccd7321d2af3","ios":"levelo://app?vid=c4813b27-4250-43ea-8be5-ccd7321d2af3"},"vehicle_type_id":"4","last_reported":1739344171,"current_range_meters":18800,"station_id":"","pricing_plan_id":"cebpf4jnsgd1na2vs0mg"},{"bike_id":"39c04fa6-094f-45eb-a251-29ae4df5c1ec","system_id":"levelo_inurba_marseille","lat":43.28418,"lon":5.3498,"is_reserved":false,"is_disabled":false,"rental_uris":{"android":"levelo://app?vid=39c04fa6-094f-45eb-a251-29ae4df5c1ec","ios":"levelo://app?vid=39c04fa6-094f-45eb-a251-29ae4df5c1ec"},"vehicle_type_id":"4","last_reported":1739344171,"current_range_meters":10800,"station_id":"ce4bhbh2rcd13ifvqepg","pricing_plan_id":"cebpf4jnsgd1na2vs0mg"},{"bike_id":"1737bedc-cff5-4e9d-9b2b-7b17b13ab041","system_id":"levelo_inurba_marseille","lat":43.27322,"lon":5.39073,"is_reserved":false,"is_disabled":false,"rental_uris":{"android":"levelo://app?vid=1737bedc-cff5-4e9d-9b2b-7b17b13ab041","ios":"levelo://app?vid=1737bedc-cff5-4e9d-9b2b-7b17b13ab041"},"vehicle_type_id":"4","last_reported":1739344171,"current_range_meters":38000,"station_id":"ce4bhgp2rcd13ifvqfe0","pricing_plan_id":"cebpf4jnsgd1na2vs0mg"},{"bike_id":"42f49824-5dbd-4245-b0ef-e9b83256b3c9","system_id":"levelo_inurba_marseille","lat":43.27983,"lon":5.41057,"is_reserved":false,"is_disabled":true,"rental_uris":{"android":"levelo://app?vid=42f49824-5dbd-4245-b0ef-e9b83256b3c9","ios":"levelo://app?vid=42f49824-5dbd-4245-b0ef-e9b83256b3c9"},"vehicle_type_id":"4","last_reported":1739344171,"current_range_meters":19600,"station_id":"ce4bhnp2rcd13ifvqh0g","pricing_plan_id":"cebpf4jnsgd1na2vs0mg"},{"bike_id":"6ab8cfb4-b77b-4c33-955d-411e7ee0ee85","system_id":"levelo_inurba_marseille","lat":43.31894,"lon":5.40737,"is_reserved":false,"is_disabled":false,"rental_uris":{"android":"levelo://app?vid=6ab8cfb4-b77b-4c33-955d-411e7ee0ee85","ios":"levelo://app?vid=6ab8cfb4-b77b-4c33-955d-411e7ee0ee85"},"vehicle_type_id":"4","last_reported":1739344171,"current_range_meters":14400,"station_id":"ce4bhq12rcd13ifvqhig","pricing_plan_id":"cebpf4jnsgd1na2vs0mg"},{"bike_id":"5004b4eb-4e57-42dc-89c6-50e19d917c35","system_id":"levelo_inurba_marseille","lat":43.30813,"lon":5.38166,"is_reserved":false,"is_disabled":false,"rental_uris":{"android":"levelo://app?vid=5004b4eb-4e57-42dc-89c6-50e19d917c35","ios":"levelo://app?vid=5004b4eb-4e57-42dc-89c6-50e19d917c35"},"vehicle_type_id":"4","last_reported":1739344171,"current_range_meters":3200,"station_id":"ce4bgt12rcd13ifvqce0","pricing_plan_id":"cebpf4jnsgd1na2vs0mg"},{"bike_id":"36ff92ad-ebc1-4fd8-8dd7-e924b8bea389","system_id":"levelo_inurba_marseille","lat":43.30475,"lon":5.37895,"is_reserved":false,"is_disabled":true,"rental_uris":{"android":"levelo://app?vid=36ff92ad-ebc1-4fd8-8dd7-e924b8bea389","ios":"levelo://app?vid=36ff92ad-ebc1-4fd8-8dd7-e924b8bea389"},"vehicle_type_id":"4","last_reported":1739344171,"current_range_meters":18800,"station_id":"ce4bho92rcd13ifvqh3g","pricing_plan_id":"cebpf4jnsgd1na2vs0mg"},{"bike_id":"59051ceb-e601-4745-afeb-6a750b9c3c71","system_id":"levelo_inurba_marseille","lat":43.28955,"lon":5.39629,"is_reserved":false,"is_disabled":false,"rental_uris":{"android":"levelo://app?vid=59051ceb-e601-4745-afeb-6a750b9c3c71","ios":"levelo://app?vid=59051ceb-e601-4745-afeb-6a750b9c3c71"},"vehicle_type_id":"4","last_reported":1739344171,"current_range_meters":38800,"station_id":"ce4bh3h2rcd13ifvqdn0","pricing_plan_id":"cebpf4jnsgd1na2vs0mg"},{"bike_id":"84d7bb12-e4ae-4f43-9da9-f0fd5e7e3cf0","system_id":"levelo_inurba_marseille","lat":43.299776,"lon":5.384869,"is_reserved":false,"is_disabled":false,"rental_uris":{"android":"levelo://app?vid=84d7bb12-e4ae-4f43-9da9-f0fd5e7e3cf0","ios":"levelo://app?vid=84d7bb12-e4ae-4f43-9da9-f0fd5e7e3cf0"},"vehicle_type_id":"4","last_reported":1739344171,"current_range_meters":16800,"station_id":"ce4bgj92rcd13ifvqbd0","pricing_plan_id":"cebpf4jnsgd1na2vs0mg"},{"bike_id":"9996157f-25d4-4b42-b3b3-540e8965c829","system_id":"levelo_inurba_marseille","lat":43.28371,"lon":5.39879,"is_reserved":false,"is_disabled":true,"rental_uris":{"android":"levelo://app?vid=9996157f-25d4-4b42-b3b3-540e8965c829","ios":"levelo://app?vid=9996157f-25d4-4b42-b3b3-540e8965c829"},"vehicle_type_id":"4","last_reported":1739344171,"current_range_meters":1200,"station_id":"","pricing_plan_id":"cebpf4jnsgd1na2vs0mg"},{"bike_id":"260c9b34-4667-48ca-978a-f657f4740738","system_id":"levelo_inurba_marseille","lat":43.281531,"lon":5.426478,"is_reserved":false,"is_disabled":false,"rental_uris":{"android":"levelo://app?vid=260c9b34-4667-48ca-978a-f657f4740738","ios":"levelo://app?vid=260c9b34-4667-48ca-978a-f657f4740738"},"vehicle_type_id":"4","last_reported":1739344171,"current_range_meters":10000,"station_id":"ce4bhnh2rcd13ifvqgug","pricing_plan_id":"cebpf4jnsgd1na2vs0mg"},{"bike_id":"ddab53af-5db0-4aea-b239-596cbb71b92d","system_id":"levelo_inurba_marseille","lat":43.28713,"lon":5.39979,"is_reserved":false,"is_disabled":false,"rental_uris":{"android":"levelo://app?vid=ddab53af-5db0-4aea-b239-596cbb71b92d","ios":"levelo://app?vid=ddab53af-5db0-4aea-b239-596cbb71b92d"},"vehicle_type_id":"4","last_reported":1739344171,"current_range_meters":19600,"station_id":"ce4bho92rcd13ifvqh3g","pricing_plan_id":"cebpf4jnsgd1na2vs0mg"},{"bike_id":"30c0885a-ee3f-424b-8753-d2f0c1a6c3c4","system_id":"levelo_inurba_marseille","lat":43.317081,"lon":5.377715,"is_reserved":false,"is_disabled":false,"rental_uris":{"android":"levelo://app?vid=30c0885a-ee3f-424b-8753-d2f0c1a6c3c4","ios":"levelo://app?vid=30c0885a-ee3f-424b-8753-d2f0c1a6c3c4"},"vehicle_type_id":"4","last_reported":1739344171,"current_range_meters":38800,"station_id":"ce4bgth2rcd13ifvqch0","pricing_plan_id":"cebpf4jnsgd1na2vs0mg"},{"bike_id":"9861732d-be12-4148-a3d2-52bb547f5eef","system_id":"levelo_inurba_marseille","lat":43.31757,"lon":5.39019,"is_reserved":false,"is_disabled":false,"rental_uris":{"android":"levelo://app?vid=9861732d-be12-4148-a3d2-52bb547f5eef","ios":"levelo://app?vid=9861732d-be12-4148-a3d2-52bb547f5eef"},"vehicle_type_id":"4","last_reported":1739344171,"current_range_meters":39200,"station_id":"ce4bhqp2rcd13ifvqhng","pricing_plan_id":"cebpf4jnsgd1na2vs0mg"},{"bike_id":"c302a417-cf1e-421f-a1f9-6f52c2dcd81e","system_id":"levelo_inurba_marseille","lat":43.30638,"lon":5.37335,"is_reserved":false,"is_disabled":false,"rental_uris":{"android":"levelo://app?vid=c302a417-cf1e-421f-a1f9-6f52c2dcd81e","ios":"levelo://app?vid=c302a417-cf1e-421f-a1f9-6f52c2dcd81e"},"vehicle_type_id":"4","last_reported":1739344171,"current_range_meters":36800,"station_id":"","pricing_plan_id":"cebpf4jnsgd1na2vs0mg"},{"bike_id":"785bf725-3d6e-49fc-88f7-d89ccdd8bf0d","system_id":"levelo_inurba_marseille","lat":43.24649,"lon":5.3889,"is_reserved":false,"is_disabled":false,"rental_uris":{"android":"levelo://app?vid=785bf725-3d6e-49fc-88f7-d89ccdd8bf0d","ios":"levelo://app?vid=785bf725-3d6e-49fc-88f7-d89ccdd8bf0d"},"vehicle_type_id":"4","last_reported":1739344171,"current_range_meters":12800,"station_id":"ce4bhg12rcd13ifvqf60","pricing_plan_id":"cebpf4jnsgd1na2vs0mg"},{"bike_id":"1ec14052-2d33-4aa1-9ab8-58cc71db74d1","system_id":"levelo_inurba_marseille","lat":43.241655,"lon":5.364001,"is_reserved":false,"is_disabled":false,"rental_uris":{"android":"levelo://app?vid=1ec14052-2d33-4aa1-9ab8-58cc71db74d1","ios":"levelo://app?vid=1ec14052-2d33-4aa1-9ab8-58cc71db74d1"},"vehicle_type_id":"4","last_reported":1739344171,"current_range_meters":10800,"station_id":"cpo36qri1sfpv3e86is0","pricing_plan_id":"cebpf4jnsgd1na2vs0mg"},{"bike_id":"cc9863f8-1a05-4208-b84e-7b349cd299f2","system_id":"levelo_inurba_marseille","lat":43.26787,"lon":5.3943,"is_reserved":false,"is_disabled":false,"rental_uris":{"android":"levelo://app?vid=cc9863f8-1a05-4208-b84e-7b349cd299f2","ios":"levelo://app?vid=cc9863f8-1a05-4208-b84e-7b349cd299f2"},"vehicle_type_id":"4","last_reported":1739344171,"current_range_meters":38400,"station_id":"ce4bhh12rcd13ifvqfg0","pricing_plan_id":"cebpf4jnsgd1na2vs0mg"},{"bike_id":"b3b45130-4456-4f49-a726-9923bcb61db7","system_id":"levelo_inurba_marseille","lat":43.26957,"lon":5.38632,"is_reserved":false,"is_disabled":false,"rental_uris":{"android":"levelo://app?vid=b3b45130-4456-4f49-a726-9923bcb61db7","ios":"levelo://app?vid=b3b45130-4456-4f49-a726-9923bcb61db7"},"vehicle_type_id":"4","last_reported":1739344171,"current_range_meters":39200,"station_id":"ce4bhh92rcd13ifvqfh0","pricing_plan_id":"cebpf4jnsgd1na2vs0mg"},{"bike_id":"48ff1adf-3b7c-409e-b8e1-d9c9704f851d","system_id":"levelo_inurba_marseille","lat":43.28401,"lon":5.37518,"is_reserved":false,"is_disabled":false,"rental_uris":{"android":"levelo://app?vid=48ff1adf-3b7c-409e-b8e1-d9c9704f851d","ios":"levelo://app?vid=48ff1adf-3b7c-409e-b8e1-d9c9704f851d"},"vehicle_type_id":"4","last_reported":1739344171,"current_range_meters":15200,"station_id":"ce4bh412rcd13ifvqds0","pricing_plan_id":"cebpf4jnsgd1na2vs0mg"},{"bike_id":"a8fc6373-236b-4c06-9d3b-2a6dce076200","system_id":"levelo_inurba_marseille","lat":43.336103,"lon":5.410025,"is_reserved":false,"is_disabled":false,"rental_uris":{"android":"levelo://app?vid=a8fc6373-236b-4c06-9d3b-2a6dce076200","ios":"levelo://app?vid=a8fc6373-236b-4c06-9d3b-2a6dce076200"},"vehicle_type_id":"4","last_reported":1739344171,"current_range_meters":11600,"station_id":"ce4bhqh2rcd13ifvqhmg","pricing_plan_id":"cebpf4jnsgd1na2vs0mg"},{"bike_id":"e859d2f4-21a5-41bf-aa12-2604d8d6afc4","system_id":"levelo_inurba_marseille","lat":43.29967,"lon":5.38499,"is_reserved":false,"is_disabled":false,"rental_uris":{"android":"levelo://app?vid=e859d2f4-21a5-41bf-aa12-2604d8d6afc4","ios":"levelo://app?vid=e859d2f4-21a5-41bf-aa12-2604d8d6afc4"},"vehicle_type_id":"4","last_reported":1739344171,"current_range_meters":27200,"station_id":"ce4bgj92rcd13ifvqbd0","pricing_plan_id":"cebpf4jnsgd1na2vs0mg"},{"bike_id":"fc855d4e-cf92-48ad-b751-57eb2469a89a","system_id":"levelo_inurba_marseille","lat":43.32481,"lon":5.365637,"is_reserved":false,"is_disabled":false,"rental_uris":{"android":"levelo://app?vid=fc855d4e-cf92-48ad-b751-57eb2469a89a","ios":"levelo://app?vid=fc855d4e-cf92-48ad-b751-57eb2469a89a"},"vehicle_type_id":"4","last_reported":1739344171,"current_range_meters":38000,"station_id":"ce4bhs12rcd13ifvqhvg","pricing_plan_id":"cebpf4jnsgd1na2vs0mg"},{"bike_id":"79df8d93-a019-4f4d-ad9b-607d770a7910","system_id":"levelo_inurba_marseille","lat":43.29391,"lon":5.38901,"is_reserved":false,"is_disabled":false,"rental_uris":{"android":"levelo://app?vid=79df8d93-a019-4f4d-ad9b-607d770a7910","ios":"levelo://app?vid=79df8d93-a019-4f4d-ad9b-607d770a7910"},"vehicle_type_id":"4","last_reported":1739344171,"current_range_meters":22800,"station_id":"","pricing_plan_id":"cebpf4jnsgd1na2vs0mg"},{"bike_id":"fbb98623-bd6f-4427-9463-8f7fc3b3bd20","system_id":"levelo_inurba_marseille","lat":43.28037,"lon":5.36945,"is_reserved":false,"is_disabled":false,"rental_uris":{"android":"levelo://app?vid=fbb98623-bd6f-4427-9463-8f7fc3b3bd20","ios":"levelo://app?vid=fbb98623-bd6f-4427-9463-8f7fc3b3bd20"},"vehicle_type_id":"4","last_reported":1739344171,"current_range_meters":25600,"station_id":"ce4bha12rcd13ifvqef0","pricing_plan_id":"cebpf4jnsgd1na2vs0mg"},{"bike_id":"10a8a33b-62d6-4137-a5b2-ed208638ca88","system_id":"levelo_inurba_marseille","lat":43.297133,"lon":5.36591,"is_reserved":false,"is_disabled":false,"rental_uris":{"android":"levelo://app?vid=10a8a33b-62d6-4137-a5b2-ed208638ca88","ios":"levelo://app?vid=10a8a33b-62d6-4137-a5b2-ed208638ca88"},"vehicle_type_id":"4","last_reported":1739344171,"current_range_meters":38800,"station_id":"ce4bgn12rcd13ifvqbt0","pricing_plan_id":"cebpf4jnsgd1na2vs0mg"},{"bike_id":"edf99232-73e2-43a9-8757-ece396e4e4d6","system_id":"levelo_inurba_marseille","lat":43.28943,"lon":5.36638,"is_reserved":false,"is_disabled":false,"rental_uris":{"android":"levelo://app?vid=edf99232-73e2-43a9-8757-ece396e4e4d6","ios":"levelo://app?vid=edf99232-73e2-43a9-8757-ece396e4e4d6"},"vehicle_type_id":"4","last_reported":1739344171,"current_range_meters":37600,"station_id":"ce4bhap2rcd13ifvqek0","pricing_plan_id":"cebpf4jnsgd1na2vs0mg"},{"bike_id":"8e3d9685-a8bf-4a5d-ba58-02bc4dfd2de6","system_id":"levelo_inurba_marseille","lat":43.24073,"lon":5.37762,"is_reserved":false,"is_disabled":false,"rental_uris":{"android":"levelo://app?vid=8e3d9685-a8bf-4a5d-ba58-02bc4dfd2de6","ios":"levelo://app?vid=8e3d9685-a8bf-4a5d-ba58-02bc4dfd2de6"},"vehicle_type_id":"4","last_reported":1739344171,"current_range_meters":27200,"station_id":"ce4bhnp2rcd13ifvqgvg","pricing_plan_id":"cebpf4jnsgd1na2vs0mg"},{"bike_id":"fb25fb5f-a3e1-4456-9b70-bbdf2ca589bf","system_id":"levelo_inurba_marseille","lat":43.30463,"lon":5.37911,"is_reserved":false,"is_disabled":false,"rental_uris":{"android":"levelo://app?vid=fb25fb5f-a3e1-4456-9b70-bbdf2ca589bf","ios":"levelo://app?vid=fb25fb5f-a3e1-4456-9b70-bbdf2ca589bf"},"vehicle_type_id":"4","last_reported":1739344171,"current_range_meters":34800,"station_id":"ce4bgup2rcd13ifvqcn0","pricing_plan_id":"cebpf4jnsgd1na2vs0mg"},{"bike_id":"17cc61c9-3ea7-4cf0-9b61-954cddc77597","system_id":"levelo_inurba_marseille","lat":43.23962,"lon":5.36629,"is_reserved":false,"is_disabled":false,"rental_uris":{"android":"levelo://app?vid=17cc61c9-3ea7-4cf0-9b61-954cddc77597","ios":"levelo://app?vid=17cc61c9-3ea7-4cf0-9b61-954cddc77597"},"vehicle_type_id":"4","last_reported":1739344171,"current_range_meters":38000,"station_id":"ce4bhi12rcd13ifvqfp0","pricing_plan_id":"cebpf4jnsgd1na2vs0mg"},{"bike_id":"e74edd37-0ec7-4f56-b77f-e7249fd01314","system_id":"levelo_inurba_marseille","lat":43.305406,"lon":5.365154,"is_reserved":false,"is_disabled":false,"rental_uris":{"android":"levelo://app?vid=e74edd37-0ec7-4f56-b77f-e7249fd01314","ios":"levelo://app?vid=e74edd37-0ec7-4f56-b77f-e7249fd01314"},"vehicle_type_id":"4","last_reported":1739344171,"current_range_meters":9600,"station_id":"ce4bgs12rcd13ifvqcag","pricing_plan_id":"cebpf4jnsgd1na2vs0mg"},{"bike_id":"ea825ccc-4862-4dce-aa23-071f2b90643e","system_id":"levelo_inurba_marseille","lat":43.27992,"lon":5.4167,"is_reserved":false,"is_disabled":false,"rental_uris":{"android":"levelo://app?vid=ea825ccc-4862-4dce-aa23-071f2b90643e","ios":"levelo://app?vid=ea825ccc-4862-4dce-aa23-071f2b90643e"},"vehicle_type_id":"4","last_reported":1739344171,"current_range_meters":38800,"station_id":"ce4bho12rcd13ifvqh1g","pricing_plan_id":"cebpf4jnsgd1na2vs0mg"},{"bike_id":"79ee8282-fc96-4fee-9a51-16180205c799","system_id":"levelo_inurba_marseille","lat":43.28351,"lon":5.38645,"is_reserved":false,"is_disabled":false,"rental_uris":{"android":"levelo://app?vid=79ee8282-fc96-4fee-9a51-16180205c799","ios":"levelo://app?vid=79ee8282-fc96-4fee-9a51-16180205c799"},"vehicle_type_id":"4","last_reported":1739344171,"current_range_meters":22400,"station_id":"ce4bh492rcd13ifvqdvg","pricing_plan_id":"cebpf4jnsgd1na2vs0mg"},{"bike_id":"ca63d75f-d551-49cb-bec7-e060cadddd73","system_id":"levelo_inurba_marseille","lat":43.28098,"lon":5.441803,"is_reserved":false,"is_disabled":false,"rental_uris":{"android":"levelo://app?vid=ca63d75f-d551-49cb-bec7-e060cadddd73","ios":"levelo://app?vid=ca63d75f-d551-49cb-bec7-e060cadddd73"},"vehicle_type_id":"4","last_reported":1739344171,"current_range_meters":11200,"station_id":"","pricing_plan_id":"cebpf4jnsgd1na2vs0mg"},{"bike_id":"f7ae9a97-641a-4598-bcd7-5d3ae922b145","system_id":"levelo_inurba_marseille","lat":43.30411,"lon":5.39722,"is_reserved":false,"is_disabled":false,"rental_uris":{"android":"levelo://app?vid=f7ae9a97-641a-4598-bcd7-5d3ae922b145","ios":"levelo://app?vid=f7ae9a97-641a-4598-bcd7-5d3ae922b145"},"vehicle_type_id":"4","last_reported":1739344171,"current_range_meters":38800,"station_id":"ce4bh092rcd13ifvqd20","pricing_plan_id":"cebpf4jnsgd1na2vs0mg"},{"bike_id":"36ec0d9a-1bf5-4c23-96f6-19f00c6c3f19","system_id":"levelo_inurba_marseille","lat":43.30928,"lon":5.40149,"is_reserved":false,"is_disabled":false,"rental_uris":{"android":"levelo://app?vid=36ec0d9a-1bf5-4c23-96f6-19f00c6c3f19","ios":"levelo://app?vid=36ec0d9a-1bf5-4c23-96f6-19f00c6c3f19"},"vehicle_type_id":"4","last_reported":1739344171,"current_range_meters":28000,"station_id":"ce4bgvp2rcd13ifvqct0","pricing_plan_id":"cebpf4jnsgd1na2vs0mg"},{"bike_id":"dd7e4e2f-f2db-4c41-9b95-8e20b6da1267","system_id":"levelo_inurba_marseille","lat":43.32487,"lon":5.36574,"is_reserved":false,"is_disabled":false,"rental_uris":{"android":"levelo://app?vid=dd7e4e2f-f2db-4c41-9b95-8e20b6da1267","ios":"levelo://app?vid=dd7e4e2f-f2db-4c41-9b95-8e20b6da1267"},"vehicle_type_id":"4","last_reported":1739344171,"current_range_meters":13600,"station_id":"ce4bhs12rcd13ifvqhvg","pricing_plan_id":"cebpf4jnsgd1na2vs0mg"},{"bike_id":"d06b3b54-dc24-493e-97db-e54b37ab5416","system_id":"levelo_inurba_marseille","lat":43.305316,"lon":5.365361,"is_reserved":false,"is_disabled":false,"rental_uris":{"android":"levelo://app?vid=d06b3b54-dc24-493e-97db-e54b37ab5416","ios":"levelo://app?vid=d06b3b54-dc24-493e-97db-e54b37ab5416"},"vehicle_type_id":"4","last_reported":1739344171,"current_range_meters":27600,"station_id":"ce4bgs12rcd13ifvqcag","pricing_plan_id":"cebpf4jnsgd1na2vs0mg"},{"bike_id":"91f8274d-f215-4cef-97ab-b8259e58eb3d","system_id":"levelo_inurba_marseille","lat":43.30425,"lon":5.39762,"is_reserved":false,"is_disabled":false,"rental_uris":{"android":"levelo://app?vid=91f8274d-f215-4cef-97ab-b8259e58eb3d","ios":"levelo://app?vid=91f8274d-f215-4cef-97ab-b8259e58eb3d"},"vehicle_type_id":"4","last_reported":1739344171,"current_range_meters":38800,"station_id":"ce4bh092rcd13ifvqd20","pricing_plan_id":"cebpf4jnsgd1na2vs0mg"},{"bike_id":"69feaf72-26cf-4f4b-a85f-35d62adee41c","system_id":"levelo_inurba_marseille","lat":43.27058,"lon":5.40258,"is_reserved":false,"is_disabled":false,"rental_uris":{"android":"levelo://app?vid=69feaf72-26cf-4f4b-a85f-35d62adee41c","ios":"levelo://app?vid=69feaf72-26cf-4f4b-a85f-35d62adee41c"},"vehicle_type_id":"4","last_reported":1739344171,"current_range_meters":26000,"station_id":"ce4bhk92rcd13ifvqgc0","pricing_plan_id":"cebpf4jnsgd1na2vs0mg"},{"bike_id":"5a9f6758-3c18-4f6d-82f4-4d45d140410b","system_id":"levelo_inurba_marseille","lat":43.29227,"lon":5.36072,"is_reserved":false,"is_disabled":false,"rental_uris":{"android":"levelo://app?vid=5a9f6758-3c18-4f6d-82f4-4d45d140410b","ios":"levelo://app?vid=5a9f6758-3c18-4f6d-82f4-4d45d140410b"},"vehicle_type_id":"4","last_reported":1739344171,"current_range_meters":23200,"station_id":"ce4bhbh2rcd13ifvqeqg","pricing_plan_id":"cebpf4jnsgd1na2vs0mg"},{"bike_id":"15ee7139-10dc-4fac-a480-f569a3ba5357","system_id":"levelo_inurba_marseille","lat":43.30222,"lon":5.38182,"is_reserved":false,"is_disabled":false,"rental_uris":{"android":"levelo://app?vid=15ee7139-10dc-4fac-a480-f569a3ba5357","ios":"levelo://app?vid=15ee7139-10dc-4fac-a480-f569a3ba5357"},"vehicle_type_id":"4","last_reported":1739344171,"current_range_meters":38400,"station_id":"ce4bgjp2rcd13ifvqbh0","pricing_plan_id":"cebpf4jnsgd1na2vs0mg"},{"bike_id":"118acaa8-c377-4759-a8f9-c3303973ef34","system_id":"levelo_inurba_marseille","lat":43.2988,"lon":5.38922,"is_reserved":false,"is_disabled":false,"rental_uris":{"android":"levelo://app?vid=118acaa8-c377-4759-a8f9-c3303973ef34","ios":"levelo://app?vid=118acaa8-c377-4759-a8f9-c3303973ef34"},"vehicle_type_id":"4","last_reported":1739344171,"current_range_meters":20000,"station_id":"ce4bh392rcd13ifvqdl0","pricing_plan_id":"cebpf4jnsgd1na2vs0mg"},{"bike_id":"44860f8c-298d-457c-82f6-0ccd9b1c385a","system_id":"levelo_inurba_marseille","lat":43.3063,"lon":5.40095,"is_reserved":false,"is_disabled":false,"rental_uris":{"android":"levelo://app?vid=44860f8c-298d-457c-82f6-0ccd9b1c385a","ios":"levelo://app?vid=44860f8c-298d-457c-82f6-0ccd9b1c385a"},"vehicle_type_id":"4","last_reported":1739344171,"current_range_meters":8000,"station_id":"ce4bh112rcd13ifvqda0","pricing_plan_id":"cebpf4jnsgd1na2vs0mg"},{"bike_id":"dc1fef50-0520-4844-b6f7-273e8815de20","system_id":"levelo_inurba_marseille","lat":43.299862,"lon":5.385002,"is_reserved":false,"is_disabled":false,"rental_uris":{"android":"levelo://app?vid=dc1fef50-0520-4844-b6f7-273e8815de20","ios":"levelo://app?vid=dc1fef50-0520-4844-b6f7-273e8815de20"},"vehicle_type_id":"4","last_reported":1739344171,"current_range_meters":36400,"station_id":"ce4bgj92rcd13ifvqbd0","pricing_plan_id":"cebpf4jnsgd1na2vs0mg"},{"bike_id":"a1dced2c-dc94-4931-ba83-57d7eb4891cf","system_id":"levelo_inurba_marseille","lat":43.28154,"lon":5.42646,"is_reserved":false,"is_disabled":false,"rental_uris":{"android":"levelo://app?vid=a1dced2c-dc94-4931-ba83-57d7eb4891cf","ios":"levelo://app?vid=a1dced2c-dc94-4931-ba83-57d7eb4891cf"},"vehicle_type_id":"4","last_reported":1739344171,"current_range_meters":32000,"station_id":"ce4bhnh2rcd13ifvqgug","pricing_plan_id":"cebpf4jnsgd1na2vs0mg"},{"bike_id":"ceaa3ec4-806b-4000-92b4-e283e12b5282","system_id":"levelo_inurba_marseille","lat":43.24548,"lon":5.39541,"is_reserved":false,"is_disabled":false,"rental_uris":{"android":"levelo://app?vid=ceaa3ec4-806b-4000-92b4-e283e12b5282","ios":"levelo://app?vid=ceaa3ec4-806b-4000-92b4-e283e12b5282"},"vehicle_type_id":"4","last_reported":1739344171,"current_range_meters":39200,"station_id":"ce4bhlp2rcd13ifvqgjg","pricing_plan_id":"cebpf4jnsgd1na2vs0mg"},{"bike_id":"b0f70249-6360-4dc3-a83a-fd73a6b534c8","system_id":"levelo_inurba_marseille","lat":43.321545,"lon":5.384529,"is_reserved":false,"is_disabled":false,"rental_uris":{"android":"levelo://app?vid=b0f70249-6360-4dc3-a83a-fd73a6b534c8","ios":"levelo://app?vid=b0f70249-6360-4dc3-a83a-fd73a6b534c8"},"vehicle_type_id":"4","last_reported":1739344171,"current_range_meters":35200,"station_id":"","pricing_plan_id":"cebpf4jnsgd1na2vs0mg"},{"bike_id":"54ce597b-1ca1-4d62-923d-d4b29eec04b3","system_id":"levelo_inurba_marseille","lat":43.31131,"lon":5.38261,"is_reserved":false,"is_disabled":false,"rental_uris":{"android":"levelo://app?vid=54ce597b-1ca1-4d62-923d-d4b29eec04b3","ios":"levelo://app?vid=54ce597b-1ca1-4d62-923d-d4b29eec04b3"},"vehicle_type_id":"4","last_reported":1739344171,"current_range_meters":16800,"station_id":"","pricing_plan_id":"cebpf4jnsgd1na2vs0mg"},{"bike_id":"b4765ae2-b7fb-4718-bf68-ce7ba2c817f9","system_id":"levelo_inurba_marseille","lat":43.27057,"lon":5.42276,"is_reserved":false,"is_disabled":false,"rental_uris":{"android":"levelo://app?vid=b4765ae2-b7fb-4718-bf68-ce7ba2c817f9","ios":"levelo://app?vid=b4765ae2-b7fb-4718-bf68-ce7ba2c817f9"},"vehicle_type_id":"4","last_reported":1739344171,"current_range_meters":19200,"station_id":"ce4bhk92rcd13ifvqgb0","pricing_plan_id":"cebpf4jnsgd1na2vs0mg"},{"bike_id":"edd84751-cc35-48f5-aef5-2853e4ab6d41","system_id":"levelo_inurba_marseille","lat":43.26949,"lon":5.38637,"is_reserved":false,"is_disabled":false,"rental_uris":{"android":"levelo://app?vid=edd84751-cc35-48f5-aef5-2853e4ab6d41","ios":"levelo://app?vid=edd84751-cc35-48f5-aef5-2853e4ab6d41"},"vehicle_type_id":"4","last_reported":1739344171,"current_range_meters":12000,"station_id":"ce4bhh92rcd13ifvqfh0","pricing_plan_id":"cebpf4jnsgd1na2vs0mg"},{"bike_id":"173483d5-f610-45b2-99c2-25027960f009","system_id":"levelo_inurba_marseille","lat":43.30065,"lon":5.38666,"is_reserved":false,"is_disabled":false,"rental_uris":{"android":"levelo://app?vid=173483d5-f610-45b2-99c2-25027960f009","ios":"levelo://app?vid=173483d5-f610-45b2-99c2-25027960f009"},"vehicle_type_id":"4","last_reported":1739344171,"current_range_meters":38400,"station_id":"ce4bgj92rcd13ifvqbd0","pricing_plan_id":"cebpf4jnsgd1na2vs0mg"},{"bike_id":"5b68019f-6f68-491c-8b61-108eb69a44d9","system_id":"levelo_inurba_marseille","lat":43.29265,"lon":5.401426,"is_reserved":false,"is_disabled":false,"rental_uris":{"android":"levelo://app?vid=5b68019f-6f68-491c-8b61-108eb69a44d9","ios":"levelo://app?vid=5b68019f-6f68-491c-8b61-108eb69a44d9"},"vehicle_type_id":"4","last_reported":1739344171,"current_range_meters":24800,"station_id":"ce4bh312rcd13ifvqdk0","pricing_plan_id":"cebpf4jnsgd1na2vs0mg"},{"bike_id":"ebdf5ed2-92c2-475c-9023-b60035a50391","system_id":"levelo_inurba_marseille","lat":43.32119,"lon":5.36792,"is_reserved":false,"is_disabled":false,"rental_uris":{"android":"levelo://app?vid=ebdf5ed2-92c2-475c-9023-b60035a50391","ios":"levelo://app?vid=ebdf5ed2-92c2-475c-9023-b60035a50391"},"vehicle_type_id":"4","last_reported":1739344171,"current_range_meters":19200,"station_id":"ce4bhrh2rcd13ifvqhug","pricing_plan_id":"cebpf4jnsgd1na2vs0mg"},{"bike_id":"1816de7e-d993-47e9-af2b-6ccea723f2c8","system_id":"levelo_inurba_marseille","lat":43.309474,"lon":5.390277,"is_reserved":false,"is_disabled":false,"rental_uris":{"android":"levelo://app?vid=1816de7e-d993-47e9-af2b-6ccea723f2c8","ios":"levelo://app?vid=1816de7e-d993-47e9-af2b-6ccea723f2c8"},"vehicle_type_id":"4","last_reported":1739344171,"current_range_meters":29600,"station_id":"ce4bgup2rcd13ifvqco0","pricing_plan_id":"cebpf4jnsgd1na2vs0mg"},{"bike_id":"08731048-5747-4279-9516-b0bfffdb9156","system_id":"levelo_inurba_marseille","lat":43.28345,"lon":5.386313,"is_reserved":false,"is_disabled":false,"rental_uris":{"android":"levelo://app?vid=08731048-5747-4279-9516-b0bfffdb9156","ios":"levelo://app?vid=08731048-5747-4279-9516-b0bfffdb9156"},"vehicle_type_id":"4","last_reported":1739344171,"current_range_meters":12400,"station_id":"ce4bh492rcd13ifvqdvg","pricing_plan_id":"cebpf4jnsgd1na2vs0mg"},{"bike_id":"45084f6e-be45-4104-97a2-ad4aab9dce3e","system_id":"levelo_inurba_marseille","lat":43.30545,"lon":5.38433,"is_reserved":false,"is_disabled":false,"rental_uris":{"android":"levelo://app?vid=45084f6e-be45-4104-97a2-ad4aab9dce3e","ios":"levelo://app?vid=45084f6e-be45-4104-97a2-ad4aab9dce3e"},"vehicle_type_id":"4","last_reported":1739344171,"current_range_meters":38800,"station_id":"ce4bgg92rcd13ifvqb30","pricing_plan_id":"cebpf4jnsgd1na2vs0mg"},{"bike_id":"e9bd3df1-2ba5-4a9c-8114-dea03103e535","system_id":"levelo_inurba_marseille","lat":43.28595,"lon":5.35098,"is_reserved":false,"is_disabled":false,"rental_uris":{"android":"levelo://app?vid=e9bd3df1-2ba5-4a9c-8114-dea03103e535","ios":"levelo://app?vid=e9bd3df1-2ba5-4a9c-8114-dea03103e535"},"vehicle_type_id":"4","last_reported":1739344171,"current_range_meters":37600,"station_id":"ce4bhch2rcd13ifvqeug","pricing_plan_id":"cebpf4jnsgd1na2vs0mg"},