{"last_updated":1778783238,"ttl":60,"version":"2.2","data":{"bikes":[{"bike_id":"3d215bfb-6dad-4dfc-9af3-ab5f54d36d18","system_id":"levelo_inurba_marseille","lat":43.29847,"lon":5.36274,"is_reserved":false,"is_disabled":false,"rental_uris":{"android":"levelo://app?vid=3d215bfb-6dad-4dfc-9af3-ab5f54d36d18","ios":"levelo://app?vid=3d215bfb-6dad-4dfc-9af3-ab5f54d36d18"},"vehicle_type_id":"4","last_reported":1778783239,"current_range_meters":2800,"station_id":"ce4bgpp2rcd13ifvqc3g","pricing_plan_id":"cebpf4jnsgd1na2vs0mg"},{"bike_id":"48066121-841a-4b69-bb96-5a67813041e0","system_id":"levelo_inurba_marseille","lat":43.28726,"lon":5.46709,"is_reserved":false,"is_disabled":false,"rental_uris":{"android":"levelo://app?vid=48066121-841a-4b69-bb96-5a67813041e0","ios":"levelo://app?vid=48066121-841a-4b69-bb96-5a67813041e0"},"vehicle_type_id":"4","last_reported":1778783239,"current_range_meters":2800,"station_id":"st_d6tc3vkotcvc738tfjhg","pricing_plan_id":"cebpf4jnsgd1na2vs0mg"},{"bike_id":"bbc3c688-839a-4272-ba0f-bd3ff2fd5e51","system_id":"levelo_inurba_marseille","lat":43.29838,"lon":5.42182,"is_reserved":false,"is_disabled":false,"rental_uris":{"android":"levelo://app?vid=bbc3c688-839a-4272-ba0f-bd3ff2fd5e51","ios":"levelo://app?vid=bbc3c688-839a-4272-ba0f-bd3ff2fd5e51"},"vehicle_type_id":"4","last_reported":1778783239,"current_range_meters":2800,"station_id":"","pricing_plan_id":"cebpf4jnsgd1na2vs0mg"},{"bike_id":"95c02ffd-d429-4bb4-9cec-b7834d99f0f6","system_id":"levelo_inurba_marseille","lat":43.33155,"lon":5.37701,"is_reserved":false,"is_disabled":true,"rental_uris":{"android":"levelo://app?vid=95c02ffd-d429-4bb4-9cec-b7834d99f0f6","ios":"levelo://app?vid=95c02ffd-d429-4bb4-9cec-b7834d99f0f6"},"vehicle_type_id":"4","last_reported":1778783239,"current_range_meters":2800,"station_id":"st_d46cu089ee8s73dldbu0","pricing_plan_id":"cebpf4jnsgd1na2vs0mg"},{"bike_id":"09ac6739-e67b-4d54-9796-b9ad0dbfff37","system_id":"levelo_inurba_marseille","lat":43.29528,"lon":5.38557,"is_reserved":false,"is_disabled":false,"rental_uris":{"android":"levelo://app?vid=09ac6739-e67b-4d54-9796-b9ad0dbfff37","ios":"levelo://app?vid=09ac6739-e67b-4d54-9796-b9ad0dbfff37"},"vehicle_type_id":"4","last_reported":1778783239,"current_range_meters":2800,"station_id":"ce4bgih2rcd13ifvqba0","pricing_plan_id":"cebpf4jnsgd1na2vs0mg"},{"bike_id":"5de51473-e383-4985-b0d1-77ae13aa9203","system_id":"levelo_inurba_marseille","lat":43.29017,"lon":5.37805,"is_reserved":false,"is_disabled":false,"rental_uris":{"android":"levelo://app?vid=5de51473-e383-4985-b0d1-77ae13aa9203","ios":"levelo://app?vid=5de51473-e383-4985-b0d1-77ae13aa9203"},"vehicle_type_id":"4","last_reported":1778783239,"current_range_meters":2800,"station_id":"","pricing_plan_id":"cebpf4jnsgd1na2vs0mg"},{"bike_id":"0ddd1a44-6a20-4f20-87bb-54f6dbe51696","system_id":"levelo_inurba_marseille","lat":43.31739,"lon":5.402,"is_reserved":false,"is_disabled":false,"rental_uris":{"android":"levelo://app?vid=0ddd1a44-6a20-4f20-87bb-54f6dbe51696","ios":"levelo://app?vid=0ddd1a44-6a20-4f20-87bb-54f6dbe51696"},"vehicle_type_id":"4","last_reported":1778783239,"current_range_meters":2800,"station_id":"","pricing_plan_id":"cebpf4jnsgd1na2vs0mg"},{"bike_id":"53d1143f-0e28-4cf0-bfb9-fa94d28a54ca","system_id":"levelo_inurba_marseille","lat":43.26058,"lon":5.39393,"is_reserved":false,"is_disabled":false,"rental_uris":{"android":"levelo://app?vid=53d1143f-0e28-4cf0-bfb9-fa94d28a54ca","ios":"levelo://app?vid=53d1143f-0e28-4cf0-bfb9-fa94d28a54ca"},"vehicle_type_id":"4","last_reported":1778783239,"current_range_meters":2800,"station_id":"ce4bhh92rcd13ifvqfj0","pricing_plan_id":"cebpf4jnsgd1na2vs0mg"},{"bike_id":"46c101e8-1a59-41b2-b784-c61ab1c6912c","system_id":"levelo_inurba_marseille","lat":43.30296,"lon":5.39215,"is_reserved":false,"is_disabled":false,"rental_uris":{"android":"levelo://app?vid=46c101e8-1a59-41b2-b784-c61ab1c6912c","ios":"levelo://app?vid=46c101e8-1a59-41b2-b784-c61ab1c6912c"},"vehicle_type_id":"4","last_reported":1778783239,"current_range_meters":2800,"station_id":"ce4bgkh2rcd13ifvqbk0","pricing_plan_id":"cebpf4jnsgd1na2vs0mg"},{"bike_id":"1dee72ea-cbbb-4f0f-b373-7962e2bff9d2","system_id":"levelo_inurba_marseille","lat":43.24625,"lon":5.38982,"is_reserved":false,"is_disabled":false,"rental_uris":{"android":"levelo://app?vid=1dee72ea-cbbb-4f0f-b373-7962e2bff9d2","ios":"levelo://app?vid=1dee72ea-cbbb-4f0f-b373-7962e2bff9d2"},"vehicle_type_id":"4","last_reported":1778783239,"current_range_meters":2800,"station_id":"","pricing_plan_id":"cebpf4jnsgd1na2vs0mg"},{"bike_id":"31c7b76d-e3da-4352-bb78-e643be9ae0e5","system_id":"levelo_inurba_marseille","lat":43.27815,"lon":5.4071,"is_reserved":false,"is_disabled":false,"rental_uris":{"android":"levelo://app?vid=31c7b76d-e3da-4352-bb78-e643be9ae0e5","ios":"levelo://app?vid=31c7b76d-e3da-4352-bb78-e643be9ae0e5"},"vehicle_type_id":"4","last_reported":1778783239,"current_range_meters":3200,"station_id":"ce4bhnh2rcd13ifvqgtg","pricing_plan_id":"cebpf4jnsgd1na2vs0mg"},{"bike_id":"f87a800c-8f91-49ab-a45b-32b97f7e683e","system_id":"levelo_inurba_marseille","lat":43.2495,"lon":5.40492,"is_reserved":false,"is_disabled":false,"rental_uris":{"android":"levelo://app?vid=f87a800c-8f91-49ab-a45b-32b97f7e683e","ios":"levelo://app?vid=f87a800c-8f91-49ab-a45b-32b97f7e683e"},"vehicle_type_id":"4","last_reported":1778783239,"current_range_meters":3200,"station_id":"st_d2ngiaodas8pm72gd1h0","pricing_plan_id":"cebpf4jnsgd1na2vs0mg"},{"bike_id":"4e7a2ecb-fc51-4546-b703-16f8f763e394","system_id":"levelo_inurba_marseille","lat":43.27029,"lon":5.38726,"is_reserved":false,"is_disabled":false,"rental_uris":{"android":"levelo://app?vid=4e7a2ecb-fc51-4546-b703-16f8f763e394","ios":"levelo://app?vid=4e7a2ecb-fc51-4546-b703-16f8f763e394"},"vehicle_type_id":"4","last_reported":1778783239,"current_range_meters":3200,"station_id":"","pricing_plan_id":"cebpf4jnsgd1na2vs0mg"},{"bike_id":"2075b920-852f-46bf-9f8f-bcfa55fab1a9","system_id":"levelo_inurba_marseille","lat":43.30884,"lon":5.39637,"is_reserved":false,"is_disabled":false,"rental_uris":{"android":"levelo://app?vid=2075b920-852f-46bf-9f8f-bcfa55fab1a9","ios":"levelo://app?vid=2075b920-852f-46bf-9f8f-bcfa55fab1a9"},"vehicle_type_id":"4","last_reported":1778783239,"current_range_meters":3200,"station_id":"ce4bh012rcd13ifvqcv0","pricing_plan_id":"cebpf4jnsgd1na2vs0mg"},{"bike_id":"6d21e7ef-3ef9-4f0a-85e3-96eaf28ae7d3","system_id":"levelo_inurba_marseille","lat":43.22536,"lon":5.3483,"is_reserved":false,"is_disabled":true,"rental_uris":{"android":"levelo://app?vid=6d21e7ef-3ef9-4f0a-85e3-96eaf28ae7d3","ios":"levelo://app?vid=6d21e7ef-3ef9-4f0a-85e3-96eaf28ae7d3"},"vehicle_type_id":"4","last_reported":1778783239,"current_range_meters":3200,"station_id":"st_cvj5dfep6f1abm77gieg","pricing_plan_id":"cebpf4jnsgd1na2vs0mg"},{"bike_id":"5e68b7e5-f063-44b9-b358-0d40289d82a8","system_id":"levelo_inurba_marseille","lat":43.25821,"lon":5.39435,"is_reserved":false,"is_disabled":false,"rental_uris":{"android":"levelo://app?vid=5e68b7e5-f063-44b9-b358-0d40289d82a8","ios":"levelo://app?vid=5e68b7e5-f063-44b9-b358-0d40289d82a8"},"vehicle_type_id":"4","last_reported":1778783239,"current_range_meters":3200,"station_id":"ce4bhip2rcd13ifvqft0","pricing_plan_id":"cebpf4jnsgd1na2vs0mg"},{"bike_id":"29075f38-5810-486d-86dc-cac4a999b839","system_id":"levelo_inurba_marseille","lat":43.27979,"lon":5.38723,"is_reserved":false,"is_disabled":false,"rental_uris":{"android":"levelo://app?vid=29075f38-5810-486d-86dc-cac4a999b839","ios":"levelo://app?vid=29075f38-5810-486d-86dc-cac4a999b839"},"vehicle_type_id":"4","last_reported":1778783239,"current_range_meters":3200,"station_id":"ce4bhg12rcd13ifvqf80","pricing_plan_id":"cebpf4jnsgd1na2vs0mg"},{"bike_id":"f885dcc7-ccaa-4557-aa26-98ddbeff9c01","system_id":"levelo_inurba_marseille","lat":43.28477,"lon":5.3844,"is_reserved":false,"is_disabled":false,"rental_uris":{"android":"levelo://app?vid=f885dcc7-ccaa-4557-aa26-98ddbeff9c01","ios":"levelo://app?vid=f885dcc7-ccaa-4557-aa26-98ddbeff9c01"},"vehicle_type_id":"4","last_reported":1778783239,"current_range_meters":3200,"station_id":"ce4bh512rcd13ifvqe3g","pricing_plan_id":"cebpf4jnsgd1na2vs0mg"},{"bike_id":"31ece05a-75e8-496e-82f0-3b8d5b3a3ef3","system_id":"levelo_inurba_marseille","lat":43.28537,"lon":5.44108,"is_reserved":false,"is_disabled":false,"rental_uris":{"android":"levelo://app?vid=31ece05a-75e8-496e-82f0-3b8d5b3a3ef3","ios":"levelo://app?vid=31ece05a-75e8-496e-82f0-3b8d5b3a3ef3"},"vehicle_type_id":"4","last_reported":1778783239,"current_range_meters":3200,"station_id":"st_d3j3df2ikq2c7380ej80","pricing_plan_id":"cebpf4jnsgd1na2vs0mg"},{"bike_id":"a25fccba-9e68-479c-9ac1-81a44962ffbc","system_id":"levelo_inurba_marseille","lat":43.3121,"lon":5.37815,"is_reserved":false,"is_disabled":false,"rental_uris":{"android":"levelo://app?vid=a25fccba-9e68-479c-9ac1-81a44962ffbc","ios":"levelo://app?vid=a25fccba-9e68-479c-9ac1-81a44962ffbc"},"vehicle_type_id":"4","last_reported":1778783239,"current_range_meters":3600,"station_id":"","pricing_plan_id":"cebpf4jnsgd1na2vs0mg"},{"bike_id":"a69bbb17-e904-4bbe-b1a6-d8e7b08362c7","system_id":"levelo_inurba_marseille","lat":43.23987,"lon":5.39925,"is_reserved":false,"is_disabled":false,"rental_uris":{"android":"levelo://app?vid=a69bbb17-e904-4bbe-b1a6-d8e7b08362c7","ios":"levelo://app?vid=a69bbb17-e904-4bbe-b1a6-d8e7b08362c7"},"vehicle_type_id":"4","last_reported":1778783239,"current_range_meters":3600,"station_id":"","pricing_plan_id":"cebpf4jnsgd1na2vs0mg"},{"bike_id":"dc773163-25b1-4f0a-8a7b-d4eef3789e6f","system_id":"levelo_inurba_marseille","lat":43.26684,"lon":5.38259,"is_reserved":false,"is_disabled":false,"rental_uris":{"android":"levelo://app?vid=dc773163-25b1-4f0a-8a7b-d4eef3789e6f","ios":"levelo://app?vid=dc773163-25b1-4f0a-8a7b-d4eef3789e6f"},"vehicle_type_id":"4","last_reported":1778783239,"current_range_meters":3600,"station_id":"ce4bhg92rcd13ifvqf90","pricing_plan_id":"cebpf4jnsgd1na2vs0mg"},{"bike_id":"9c195be2-b95e-40da-a711-1b3776926b3c","system_id":"levelo_inurba_marseille","lat":43.24801,"lon":5.37462,"is_reserved":false,"is_disabled":false,"rental_uris":{"android":"levelo://app?vid=9c195be2-b95e-40da-a711-1b3776926b3c","ios":"levelo://app?vid=9c195be2-b95e-40da-a711-1b3776926b3c"},"vehicle_type_id":"4","last_reported":1778783239,"current_range_meters":3600,"station_id":"ce4bhgh2rcd13ifvqfb0","pricing_plan_id":"cebpf4jnsgd1na2vs0mg"},{"bike_id":"7493fdb6-7ba2-4b5a-b64f-a57d8e12d868","system_id":"levelo_inurba_marseille","lat":43.2843,"lon":5.35,"is_reserved":false,"is_disabled":true,"rental_uris":{"android":"levelo://app?vid=7493fdb6-7ba2-4b5a-b64f-a57d8e12d868","ios":"levelo://app?vid=7493fdb6-7ba2-4b5a-b64f-a57d8e12d868"},"vehicle_type_id":"4","last_reported":1778783239,"current_range_meters":3600,"station_id":"ce4bhbh2rcd13ifvqepg","pricing_plan_id":"cebpf4jnsgd1na2vs0mg"},{"bike_id":"68c5e1b1-6fe9-4cc9-9363-039a059c6688","system_id":"levelo_inurba_marseille","lat":43.26197,"lon":5.37931,"is_reserved":false,"is_disabled":false,"rental_uris":{"android":"levelo://app?vid=68c5e1b1-6fe9-4cc9-9363-039a059c6688","ios":"levelo://app?vid=68c5e1b1-6fe9-4cc9-9363-039a059c6688"},"vehicle_type_id":"4","last_reported":1778783239,"current_range_meters":3600,"station_id":"ce4bhjp2rcd13ifvqg90","pricing_plan_id":"cebpf4jnsgd1na2vs0mg"},{"bike_id":"adb84b81-83af-4b6f-a16b-fa780ab0c0f9","system_id":"levelo_inurba_marseille","lat":43.26247,"lon":5.40459,"is_reserved":false,"is_disabled":false,"rental_uris":{"android":"levelo://app?vid=adb84b81-83af-4b6f-a16b-fa780ab0c0f9","ios":"levelo://app?vid=adb84b81-83af-4b6f-a16b-fa780ab0c0f9"},"vehicle_type_id":"4","last_reported":1778783239,"current_range_meters":3600,"station_id":"ce4bhmh2rcd13ifvqgmg","pricing_plan_id":"cebpf4jnsgd1na2vs0mg"},{"bike_id":"50fb6a77-9b00-4b5e-bedc-9d74b728336e","system_id":"levelo_inurba_marseille","lat":43.22572,"lon":5.4162,"is_reserved":false,"is_disabled":false,"rental_uris":{"android":"levelo://app?vid=50fb6a77-9b00-4b5e-bedc-9d74b728336e","ios":"levelo://app?vid=50fb6a77-9b00-4b5e-bedc-9d74b728336e"},"vehicle_type_id":"4","last_reported":1778783239,"current_range_meters":3600,"station_id":"st_d2o4gvlbi1j2169b742g","pricing_plan_id":"cebpf4jnsgd1na2vs0mg"},{"bike_id":"f6d21dfc-e8f0-4273-8e77-9bfcd6fc540d","system_id":"levelo_inurba_marseille","lat":43.27377,"lon":5.36256,"is_reserved":false,"is_disabled":false,"rental_uris":{"android":"levelo://app?vid=f6d21dfc-e8f0-4273-8e77-9bfcd6fc540d","ios":"levelo://app?vid=f6d21dfc-e8f0-4273-8e77-9bfcd6fc540d"},"vehicle_type_id":"4","last_reported":1778783239,"current_range_meters":3600,"station_id":"ce4bhbh2rcd13ifvqeo0","pricing_plan_id":"cebpf4jnsgd1na2vs0mg"},{"bike_id":"e00c72e6-8ffd-468d-87f8-0551120b0f83","system_id":"levelo_inurba_marseille","lat":43.292633,"lon":5.384292,"is_reserved":false,"is_disabled":false,"rental_uris":{"android":"levelo://app?vid=e00c72e6-8ffd-468d-87f8-0551120b0f83","ios":"levelo://app?vid=e00c72e6-8ffd-468d-87f8-0551120b0f83"},"vehicle_type_id":"4","last_reported":1778783239,"current_range_meters":4000,"station_id":"ce4bh692rcd13ifvqea0","pricing_plan_id":"cebpf4jnsgd1na2vs0mg"},{"bike_id":"2cfca53c-505c-47c5-afeb-fc0dfe506919","system_id":"levelo_inurba_marseille","lat":43.32042,"lon":5.41537,"is_reserved":false,"is_disabled":false,"rental_uris":{"android":"levelo://app?vid=2cfca53c-505c-47c5-afeb-fc0dfe506919","ios":"levelo://app?vid=2cfca53c-505c-47c5-afeb-fc0dfe506919"},"vehicle_type_id":"4","last_reported":1778783239,"current_range_meters":4000,"station_id":"ce4bhq92rcd13ifvqhkg","pricing_plan_id":"cebpf4jnsgd1na2vs0mg"},{"bike_id":"526b972c-f1e0-4e26-946a-2609637b00ab","system_id":"levelo_inurba_marseille","lat":43.30448,"lon":5.38904,"is_reserved":false,"is_disabled":false,"rental_uris":{"android":"levelo://app?vid=526b972c-f1e0-4e26-946a-2609637b00ab","ios":"levelo://app?vid=526b972c-f1e0-4e26-946a-2609637b00ab"},"vehicle_type_id":"4","last_reported":1778783239,"current_range_meters":4000,"station_id":"ce4bgk12rcd13ifvqbi0","pricing_plan_id":"cebpf4jnsgd1na2vs0mg"},{"bike_id":"339c9f18-e8a9-4013-b0a1-1da45a13c042","system_id":"levelo_inurba_marseille","lat":43.30747,"lon":5.42414,"is_reserved":false,"is_disabled":false,"rental_uris":{"android":"levelo://app?vid=339c9f18-e8a9-4013-b0a1-1da45a13c042","ios":"levelo://app?vid=339c9f18-e8a9-4013-b0a1-1da45a13c042"},"vehicle_type_id":"4","last_reported":1778783239,"current_range_meters":4000,"station_id":"st_cvj6ca6bvosntc0bfgr0","pricing_plan_id":"cebpf4jnsgd1na2vs0mg"},{"bike_id":"d26b7c52-84a5-452c-84b8-640ff2160d6b","system_id":"levelo_inurba_marseille","lat":43.29799,"lon":5.38094,"is_reserved":false,"is_disabled":true,"rental_uris":{"android":"levelo://app?vid=d26b7c52-84a5-452c-84b8-640ff2160d6b","ios":"levelo://app?vid=d26b7c52-84a5-452c-84b8-640ff2160d6b"},"vehicle_type_id":"4","last_reported":1778783239,"current_range_meters":4000,"station_id":"ce4bgip2rcd13ifvqbb0","pricing_plan_id":"cebpf4jnsgd1na2vs0mg"},{"bike_id":"7b5fa3f8-b6ac-42c5-8643-4efff133d8c1","system_id":"levelo_inurba_marseille","lat":43.29568,"lon":5.39968,"is_reserved":false,"is_disabled":false,"rental_uris":{"android":"levelo://app?vid=7b5fa3f8-b6ac-42c5-8643-4efff133d8c1","ios":"levelo://app?vid=7b5fa3f8-b6ac-42c5-8643-4efff133d8c1"},"vehicle_type_id":"4","last_reported":1778783239,"current_range_meters":4000,"station_id":"ce4bh312rcd13ifvqdj0","pricing_plan_id":"cebpf4jnsgd1na2vs0mg"},{"bike_id":"1c8551e7-65a0-49fa-ba5d-23c46f24083e","system_id":"levelo_inurba_marseille","lat":43.2869,"lon":5.46676,"is_reserved":false,"is_disabled":false,"rental_uris":{"android":"levelo://app?vid=1c8551e7-65a0-49fa-ba5d-23c46f24083e","ios":"levelo://app?vid=1c8551e7-65a0-49fa-ba5d-23c46f24083e"},"vehicle_type_id":"4","last_reported":1778783239,"current_range_meters":4000,"station_id":"st_d6tc3vkotcvc738tfjhg","pricing_plan_id":"cebpf4jnsgd1na2vs0mg"},{"bike_id":"e6af4dfe-7a13-4929-ac71-9d3454a95813","system_id":"levelo_inurba_marseille","lat":43.272,"lon":5.39188,"is_reserved":false,"is_disabled":true,"rental_uris":{"android":"levelo://app?vid=e6af4dfe-7a13-4929-ac71-9d3454a95813","ios":"levelo://app?vid=e6af4dfe-7a13-4929-ac71-9d3454a95813"},"vehicle_type_id":"4","last_reported":1778783239,"current_range_meters":4000,"station_id":"ce4bhhp2rcd13ifvqfm0","pricing_plan_id":"cebpf4jnsgd1na2vs0mg"},{"bike_id":"76abce95-1fbb-457c-83c9-8be31c1ba964","system_id":"levelo_inurba_marseille","lat":43.23182,"lon":5.39987,"is_reserved":false,"is_disabled":false,"rental_uris":{"android":"levelo://app?vid=76abce95-1fbb-457c-83c9-8be31c1ba964","ios":"levelo://app?vid=76abce95-1fbb-457c-83c9-8be31c1ba964"},"vehicle_type_id":"4","last_reported":1778783239,"current_range_meters":4000,"station_id":"ce4bhn12rcd13ifvqgqg","pricing_plan_id":"cebpf4jnsgd1na2vs0mg"},{"bike_id":"663c1f76-dfb6-4c61-90ad-902a08f3d5e1","system_id":"levelo_inurba_marseille","lat":43.29901,"lon":5.38157,"is_reserved":false,"is_disabled":false,"rental_uris":{"android":"levelo://app?vid=663c1f76-dfb6-4c61-90ad-902a08f3d5e1","ios":"levelo://app?vid=663c1f76-dfb6-4c61-90ad-902a08f3d5e1"},"vehicle_type_id":"4","last_reported":1778783239,"current_range_meters":4000,"station_id":"ce4bgj12rcd13ifvqbc0","pricing_plan_id":"cebpf4jnsgd1na2vs0mg"},{"bike_id":"e8f99aa0-4a0b-4b04-a3bf-dbd8e595e9bf","system_id":"levelo_inurba_marseille","lat":43.299488,"lon":5.380757,"is_reserved":false,"is_disabled":false,"rental_uris":{"android":"levelo://app?vid=e8f99aa0-4a0b-4b04-a3bf-dbd8e595e9bf","ios":"levelo://app?vid=e8f99aa0-4a0b-4b04-a3bf-dbd8e595e9bf"},"vehicle_type_id":"4","last_reported":1778783239,"current_range_meters":4400,"station_id":"ce4bgjp2rcd13ifvqbh0","pricing_plan_id":"cebpf4jnsgd1na2vs0mg"},{"bike_id":"0e1804ca-dccb-4098-accf-62174948ed0a","system_id":"levelo_inurba_marseille","lat":43.29452,"lon":5.38208,"is_reserved":false,"is_disabled":false,"rental_uris":{"android":"levelo://app?vid=0e1804ca-dccb-4098-accf-62174948ed0a","ios":"levelo://app?vid=0e1804ca-dccb-4098-accf-62174948ed0a"},"vehicle_type_id":"4","last_reported":1778783239,"current_range_meters":4400,"station_id":"","pricing_plan_id":"cebpf4jnsgd1na2vs0mg"},{"bike_id":"eaa9162b-df1e-4cdf-86fa-1c242477da5f","system_id":"levelo_inurba_marseille","lat":43.24545,"lon":5.39529,"is_reserved":false,"is_disabled":false,"rental_uris":{"android":"levelo://app?vid=eaa9162b-df1e-4cdf-86fa-1c242477da5f","ios":"levelo://app?vid=eaa9162b-df1e-4cdf-86fa-1c242477da5f"},"vehicle_type_id":"4","last_reported":1778783239,"current_range_meters":4400,"station_id":"ce4bhlp2rcd13ifvqgjg","pricing_plan_id":"cebpf4jnsgd1na2vs0mg"},{"bike_id":"961ae3cb-3fb8-4279-8e42-ea1f7ab378e9","system_id":"levelo_inurba_marseille","lat":43.2318,"lon":5.39984,"is_reserved":false,"is_disabled":false,"rental_uris":{"android":"levelo://app?vid=961ae3cb-3fb8-4279-8e42-ea1f7ab378e9","ios":"levelo://app?vid=961ae3cb-3fb8-4279-8e42-ea1f7ab378e9"},"vehicle_type_id":"4","last_reported":1778783239,"current_range_meters":4400,"station_id":"ce4bhn12rcd13ifvqgqg","pricing_plan_id":"cebpf4jnsgd1na2vs0mg"},{"bike_id":"af973e23-1f6c-48d1-8480-8fe313a942d0","system_id":"levelo_inurba_marseille","lat":43.29917,"lon":5.39725,"is_reserved":false,"is_disabled":false,"rental_uris":{"android":"levelo://app?vid=af973e23-1f6c-48d1-8480-8fe313a942d0","ios":"levelo://app?vid=af973e23-1f6c-48d1-8480-8fe313a942d0"},"vehicle_type_id":"4","last_reported":1778783239,"current_range_meters":4400,"station_id":"","pricing_plan_id":"cebpf4jnsgd1na2vs0mg"},{"bike_id":"b1f85c10-3a72-4895-b4df-4b7782abd0b1","system_id":"levelo_inurba_marseille","lat":43.28526,"lon":5.44091,"is_reserved":false,"is_disabled":false,"rental_uris":{"android":"levelo://app?vid=b1f85c10-3a72-4895-b4df-4b7782abd0b1","ios":"levelo://app?vid=b1f85c10-3a72-4895-b4df-4b7782abd0b1"},"vehicle_type_id":"4","last_reported":1778783239,"current_range_meters":4400,"station_id":"st_d3j3df2ikq2c7380ej80","pricing_plan_id":"cebpf4jnsgd1na2vs0mg"},{"bike_id":"da621f7b-4517-4f9d-98db-62fbb503fae2","system_id":"levelo_inurba_marseille","lat":43.29977,"lon":5.37167,"is_reserved":false,"is_disabled":false,"rental_uris":{"android":"levelo://app?vid=da621f7b-4517-4f9d-98db-62fbb503fae2","ios":"levelo://app?vid=da621f7b-4517-4f9d-98db-62fbb503fae2"},"vehicle_type_id":"4","last_reported":1778783239,"current_range_meters":4400,"station_id":"ce4bgr92rcd13ifvqc7g","pricing_plan_id":"cebpf4jnsgd1na2vs0mg"},{"bike_id":"2b77ead4-ed85-4f8b-b0b9-a5a7f329a598","system_id":"levelo_inurba_marseille","lat":43.31376,"lon":5.38488,"is_reserved":false,"is_disabled":false,"rental_uris":{"android":"levelo://app?vid=2b77ead4-ed85-4f8b-b0b9-a5a7f329a598","ios":"levelo://app?vid=2b77ead4-ed85-4f8b-b0b9-a5a7f329a598"},"vehicle_type_id":"4","last_reported":1778783239,"current_range_meters":4400,"station_id":"ce4bgt92rcd13ifvqcf0","pricing_plan_id":"cebpf4jnsgd1na2vs0mg"},{"bike_id":"585a33d8-8710-45ea-9121-dfdc1df81aaa","system_id":"levelo_inurba_marseille","lat":43.3095,"lon":5.3904,"is_reserved":false,"is_disabled":false,"rental_uris":{"android":"levelo://app?vid=585a33d8-8710-45ea-9121-dfdc1df81aaa","ios":"levelo://app?vid=585a33d8-8710-45ea-9121-dfdc1df81aaa"},"vehicle_type_id":"4","last_reported":1778783239,"current_range_meters":4800,"station_id":"ce4bgup2rcd13ifvqco0","pricing_plan_id":"cebpf4jnsgd1na2vs0mg"},{"bike_id":"9f932436-e27d-4144-b58b-1e291723c107","system_id":"levelo_inurba_marseille","lat":43.31051,"lon":5.37169,"is_reserved":false,"is_disabled":false,"rental_uris":{"android":"levelo://app?vid=9f932436-e27d-4144-b58b-1e291723c107","ios":"levelo://app?vid=9f932436-e27d-4144-b58b-1e291723c107"},"vehicle_type_id":"4","last_reported":1778783239,"current_range_meters":4800,"station_id":"st_d4kl2rp97mjs73e7tdfg","pricing_plan_id":"cebpf4jnsgd1na2vs0mg"},{"bike_id":"05767840-e46d-4c3d-b8e5-cfc245de605e","system_id":"levelo_inurba_marseille","lat":43.31719,"lon":5.42389,"is_reserved":false,"is_disabled":false,"rental_uris":{"android":"levelo://app?vid=05767840-e46d-4c3d-b8e5-cfc245de605e","ios":"levelo://app?vid=05767840-e46d-4c3d-b8e5-cfc245de605e"},"vehicle_type_id":"4","last_reported":1778783239,"current_range_meters":4800,"station_id":"ce4bhp92rcd13ifvqhbg","pricing_plan_id":"cebpf4jnsgd1na2vs0mg"},{"bike_id":"5eb0b80a-cdad-4426-9a8a-07687e4cbd6b","system_id":"levelo_inurba_marseille","lat":43.26206,"lon":5.37445,"is_reserved":false,"is_disabled":false,"rental_uris":{"android":"levelo://app?vid=5eb0b80a-cdad-4426-9a8a-07687e4cbd6b","ios":"levelo://app?vid=5eb0b80a-cdad-4426-9a8a-07687e4cbd6b"},"vehicle_type_id":"4","last_reported":1778783239,"current_range_meters":4800,"station_id":"ce4bhgp2rcd13ifvqfc0","pricing_plan_id":"cebpf4jnsgd1na2vs0mg"},{"bike_id":"eae4d66b-9fc5-4224-ab99-8ab2b6292607","system_id":"levelo_inurba_marseille","lat":43.30596,"lon":5.39352,"is_reserved":false,"is_disabled":false,"rental_uris":{"android":"levelo://app?vid=eae4d66b-9fc5-4224-ab99-8ab2b6292607","ios":"levelo://app?vid=eae4d66b-9fc5-4224-ab99-8ab2b6292607"},"vehicle_type_id":"4","last_reported":1778783239,"current_range_meters":4800,"station_id":"ce4bh0p2rcd13ifvqd80","pricing_plan_id":"cebpf4jnsgd1na2vs0mg"},{"bike_id":"2ce2b78f-cb07-4347-8e93-d9c147825c70","system_id":"levelo_inurba_marseille","lat":43.269409,"lon":5.402479,"is_reserved":false,"is_disabled":false,"rental_uris":{"android":"levelo://app?vid=2ce2b78f-cb07-4347-8e93-d9c147825c70","ios":"levelo://app?vid=2ce2b78f-cb07-4347-8e93-d9c147825c70"},"vehicle_type_id":"4","last_reported":1778783239,"current_range_meters":4800,"station_id":"cjm6bp8fraef2m0cb0m0","pricing_plan_id":"cebpf4jnsgd1na2vs0mg"},{"bike_id":"18df3caf-e3cd-46b1-8a56-af0d8c09400e","system_id":"levelo_inurba_marseille","lat":43.24164,"lon":5.36402,"is_reserved":false,"is_disabled":false,"rental_uris":{"android":"levelo://app?vid=18df3caf-e3cd-46b1-8a56-af0d8c09400e","ios":"levelo://app?vid=18df3caf-e3cd-46b1-8a56-af0d8c09400e"},"vehicle_type_id":"4","last_reported":1778783239,"current_range_meters":4800,"station_id":"cpo36qri1sfpv3e86is0","pricing_plan_id":"cebpf4jnsgd1na2vs0mg"},{"bike_id":"dd6e3688-69b6-419c-884f-b8d3491eb736","system_id":"levelo_inurba_marseille","lat":43.2464,"lon":5.38886,"is_reserved":false,"is_disabled":true,"rental_uris":{"android":"levelo://app?vid=dd6e3688-69b6-419c-884f-b8d3491eb736","ios":"levelo://app?vid=dd6e3688-69b6-419c-884f-b8d3491eb736"},"vehicle_type_id":"4","last_reported":1778783239,"current_range_meters":4800,"station_id":"ce4bhg12rcd13ifvqf60","pricing_plan_id":"cebpf4jnsgd1na2vs0mg"},{"bike_id":"5f7b9412-e0cd-42f7-b0d0-9f4eef390491","system_id":"levelo_inurba_marseille","lat":43.27508,"lon":5.41597,"is_reserved":false,"is_disabled":false,"rental_uris":{"android":"levelo://app?vid=5f7b9412-e0cd-42f7-b0d0-9f4eef390491","ios":"levelo://app?vid=5f7b9412-e0cd-42f7-b0d0-9f4eef390491"},"vehicle_type_id":"4","last_reported":1778783239,"current_range_meters":4800,"station_id":"st_d6im8g6chgec73a5pndg","pricing_plan_id":"cebpf4jnsgd1na2vs0mg"},{"bike_id":"98f2fb05-70c7-4bcd-a8c2-166f46f2119f","system_id":"levelo_inurba_marseille","lat":43.29906,"lon":5.38142,"is_reserved":false,"is_disabled":false,"rental_uris":{"android":"levelo://app?vid=98f2fb05-70c7-4bcd-a8c2-166f46f2119f","ios":"levelo://app?vid=98f2fb05-70c7-4bcd-a8c2-166f46f2119f"},"vehicle_type_id":"4","last_reported":1778783239,"current_range_meters":4800,"station_id":"ce4bgj12rcd13ifvqbc0","pricing_plan_id":"cebpf4jnsgd1na2vs0mg"},{"bike_id":"b299766d-661b-4293-b516-1846fa5fb91f","system_id":"levelo_inurba_marseille","lat":43.28589,"lon":5.38615,"is_reserved":false,"is_disabled":false,"rental_uris":{"android":"levelo://app?vid=b299766d-661b-4293-b516-1846fa5fb91f","ios":"levelo://app?vid=b299766d-661b-4293-b516-1846fa5fb91f"},"vehicle_type_id":"4","last_reported":1778783239,"current_range_meters":4800,"station_id":"","pricing_plan_id":"cebpf4jnsgd1na2vs0mg"},{"bike_id":"1fb3460a-f778-4824-a2fa-86e9aadc9801","system_id":"levelo_inurba_marseille","lat":43.29276,"lon":5.40123,"is_reserved":false,"is_disabled":false,"rental_uris":{"android":"levelo://app?vid=1fb3460a-f778-4824-a2fa-86e9aadc9801","ios":"levelo://app?vid=1fb3460a-f778-4824-a2fa-86e9aadc9801"},"vehicle_type_id":"4","last_reported":1778783239,"current_range_meters":4800,"station_id":"ce4bh312rcd13ifvqdk0","pricing_plan_id":"cebpf4jnsgd1na2vs0mg"},{"bike_id":"9b42fa64-9a45-4fcc-a56e-8b25f71385ce","system_id":"levelo_inurba_marseille","lat":43.34138,"lon":5.40896,"is_reserved":false,"is_disabled":false,"rental_uris":{"android":"levelo://app?vid=9b42fa64-9a45-4fcc-a56e-8b25f71385ce","ios":"levelo://app?vid=9b42fa64-9a45-4fcc-a56e-8b25f71385ce"},"vehicle_type_id":"4","last_reported":1778783239,"current_range_meters":4800,"station_id":"ce4bhqh2rcd13ifvqhlg","pricing_plan_id":"cebpf4jnsgd1na2vs0mg"},{"bike_id":"32a7dfc8-58ef-4187-afb9-e7d1e73f3641","system_id":"levelo_inurba_marseille","lat":43.248166,"lon":5.374606,"is_reserved":false,"is_disabled":false,"rental_uris":{"android":"levelo://app?vid=32a7dfc8-58ef-4187-afb9-e7d1e73f3641","ios":"levelo://app?vid=32a7dfc8-58ef-4187-afb9-e7d1e73f3641"},"vehicle_type_id":"4","last_reported":1778783239,"current_range_meters":4800,"station_id":"ce4bhgh2rcd13ifvqfb0","pricing_plan_id":"cebpf4jnsgd1na2vs0mg"},{"bike_id":"4f2a1171-8507-418c-bae7-30a89e4c3235","system_id":"levelo_inurba_marseille","lat":43.2587,"lon":5.39894,"is_reserved":false,"is_disabled":false,"rental_uris":{"android":"levelo://app?vid=4f2a1171-8507-418c-bae7-30a89e4c3235","ios":"levelo://app?vid=4f2a1171-8507-418c-bae7-30a89e4c3235"},"vehicle_type_id":"4","last_reported":1778783239,"current_range_meters":5600,"station_id":"ce4bhl92rcd13ifvqghg","pricing_plan_id":"cebpf4jnsgd1na2vs0mg"},{"bike_id":"02deb199-6f68-4998-bc7a-1225ff6a8bd8","system_id":"levelo_inurba_marseille","lat":43.30877,"lon":5.38128,"is_reserved":false,"is_disabled":false,"rental_uris":{"android":"levelo://app?vid=02deb199-6f68-4998-bc7a-1225ff6a8bd8","ios":"levelo://app?vid=02deb199-6f68-4998-bc7a-1225ff6a8bd8"},"vehicle_type_id":"4","last_reported":1778783239,"current_range_meters":5600,"station_id":"","pricing_plan_id":"cebpf4jnsgd1na2vs0mg"},{"bike_id":"4066804f-6245-416c-a2b8-375581408be7","system_id":"levelo_inurba_marseille","lat":43.29133,"lon":5.42442,"is_reserved":false,"is_disabled":false,"rental_uris":{"android":"levelo://app?vid=4066804f-6245-416c-a2b8-375581408be7","ios":"levelo://app?vid=4066804f-6245-416c-a2b8-375581408be7"},"vehicle_type_id":"4","last_reported":1778783239,"current_range_meters":5600,"station_id":"","pricing_plan_id":"cebpf4jnsgd1na2vs0mg"},{"bike_id":"b463455a-86a4-4b8f-8b9c-82b94f5b942e","system_id":"levelo_inurba_marseille","lat":43.21759,"lon":5.34609,"is_reserved":false,"is_disabled":false,"rental_uris":{"android":"levelo://app?vid=b463455a-86a4-4b8f-8b9c-82b94f5b942e","ios":"levelo://app?vid=b463455a-86a4-4b8f-8b9c-82b94f5b942e"},"vehicle_type_id":"4","last_reported":1778783239,"current_range_meters":5600,"station_id":"st_cvj6r9ubvosntc0bgbag","pricing_plan_id":"cebpf4jnsgd1na2vs0mg"},{"bike_id":"72179d6d-4306-495c-979e-7fc83e24d3fc","system_id":"levelo_inurba_marseille","lat":43.30187,"lon":5.36562,"is_reserved":false,"is_disabled":false,"rental_uris":{"android":"levelo://app?vid=72179d6d-4306-495c-979e-7fc83e24d3fc","ios":"levelo://app?vid=72179d6d-4306-495c-979e-7fc83e24d3fc"},"vehicle_type_id":"4","last_reported":1778783239,"current_range_meters":5600,"station_id":"","pricing_plan_id":"cebpf4jnsgd1na2vs0mg"},{"bike_id":"28ef638d-9f7f-490b-b81e-fcbf3794c651","system_id":"levelo_inurba_marseille","lat":43.25576,"lon":5.3822,"is_reserved":false,"is_disabled":false,"rental_uris":{"android":"levelo://app?vid=28ef638d-9f7f-490b-b81e-fcbf3794c651","ios":"levelo://app?vid=28ef638d-9f7f-490b-b81e-fcbf3794c651"},"vehicle_type_id":"4","last_reported":1778783239,"current_range_meters":5600,"station_id":"ce4bhih2rcd13ifvqfs0","pricing_plan_id":"cebpf4jnsgd1na2vs0mg"},{"bike_id":"d42a7cf1-1fa2-40ee-b441-c73427ab11ef","system_id":"levelo_inurba_marseille","lat":43.23957,"lon":5.36647,"is_reserved":false,"is_disabled":false,"rental_uris":{"android":"levelo://app?vid=d42a7cf1-1fa2-40ee-b441-c73427ab11ef","ios":"levelo://app?vid=d42a7cf1-1fa2-40ee-b441-c73427ab11ef"},"vehicle_type_id":"4","last_reported":1778783239,"current_range_meters":5600,"station_id":"ce4bhi12rcd13ifvqfp0","pricing_plan_id":"cebpf4jnsgd1na2vs0mg"},{"bike_id":"b46acc34-7f59-4140-b631-19b816d3a683","system_id":"levelo_inurba_marseille","lat":43.284,"lon":5.34989,"is_reserved":false,"is_disabled":false,"rental_uris":{"android":"levelo://app?vid=b46acc34-7f59-4140-b631-19b816d3a683","ios":"levelo://app?vid=b46acc34-7f59-4140-b631-19b816d3a683"},"vehicle_type_id":"4","last_reported":1778783239,"current_range_meters":5600,"station_id":"ce4bhbh2rcd13ifvqepg","pricing_plan_id":"cebpf4jnsgd1na2vs0mg"},{"bike_id":"1708bcfb-6900-4ce4-8f2f-40e64297f7b6","system_id":"levelo_inurba_marseille","lat":43.23181,"lon":5.39982,"is_reserved":false,"is_disabled":false,"rental_uris":{"android":"levelo://app?vid=1708bcfb-6900-4ce4-8f2f-40e64297f7b6","ios":"levelo://app?vid=1708bcfb-6900-4ce4-8f2f-40e64297f7b6"},"vehicle_type_id":"4","last_reported":1778783239,"current_range_meters":5600,"station_id":"ce4bhn12rcd13ifvqgqg","pricing_plan_id":"cebpf4jnsgd1na2vs0mg"},{"bike_id":"684d3a38-8682-49d5-b534-cc932694c5b9","system_id":"levelo_inurba_marseille","lat":43.29563,"lon":5.37526,"is_reserved":false,"is_disabled":false,"rental_uris":{"android":"levelo://app?vid=684d3a38-8682-49d5-b534-cc932694c5b9","ios":"levelo://app?vid=684d3a38-8682-49d5-b534-cc932694c5b9"},"vehicle_type_id":"4","last_reported":1778783239,"current_range_meters":5600,"station_id":"ce4bgh92rcd13ifvqb50","pricing_plan_id":"cebpf4jnsgd1na2vs0mg"},{"bike_id":"859e0d8c-81ef-4f57-b364-b6bc87160b0c","system_id":"levelo_inurba_marseille","lat":43.28479,"lon":5.48387,"is_reserved":false,"is_disabled":false,"rental_uris":{"android":"levelo://app?vid=859e0d8c-81ef-4f57-b364-b6bc87160b0c","ios":"levelo://app?vid=859e0d8c-81ef-4f57-b364-b6bc87160b0c"},"vehicle_type_id":"4","last_reported":1778783239,"current_range_meters":5600,"station_id":"st_d3svhcjqgbts73a3dn0g","pricing_plan_id":"cebpf4jnsgd1na2vs0mg"},{"bike_id":"17cba2f2-4b15-47f0-8146-fb37731ada1d","system_id":"levelo_inurba_marseille","lat":43.30137,"lon":5.3987,"is_reserved":false,"is_disabled":false,"rental_uris":{"android":"levelo://app?vid=17cba2f2-4b15-47f0-8146-fb37731ada1d","ios":"levelo://app?vid=17cba2f2-4b15-47f0-8146-fb37731ada1d"},"vehicle_type_id":"4","last_reported":1778783239,"current_range_meters":5600,"station_id":"ce4bh0h2rcd13ifvqd40","pricing_plan_id":"cebpf4jnsgd1na2vs0mg"},{"bike_id":"1d967a78-e3bf-4e86-b291-203e3e0ad6df","system_id":"levelo_inurba_marseille","lat":43.27942,"lon":5.41037,"is_reserved":false,"is_disabled":false,"rental_uris":{"android":"levelo://app?vid=1d967a78-e3bf-4e86-b291-203e3e0ad6df","ios":"levelo://app?vid=1d967a78-e3bf-4e86-b291-203e3e0ad6df"},"vehicle_type_id":"4","last_reported":1778783239,"current_range_meters":5600,"station_id":"ce4bhnp2rcd13ifvqh0g","pricing_plan_id":"cebpf4jnsgd1na2vs0mg"},{"bike_id":"263b1eb4-4941-414e-94c5-ff7d7487af66","system_id":"levelo_inurba_marseille","lat":43.29272,"lon":5.38442,"is_reserved":false,"is_disabled":false,"rental_uris":{"android":"levelo://app?vid=263b1eb4-4941-414e-94c5-ff7d7487af66","ios":"levelo://app?vid=263b1eb4-4941-414e-94c5-ff7d7487af66"},"vehicle_type_id":"4","last_reported":1778783239,"current_range_meters":5600,"station_id":"ce4bh692rcd13ifvqea0","pricing_plan_id":"cebpf4jnsgd1na2vs0mg"},{"bike_id":"78e34c20-6d6b-4291-9b5b-89db03d5337a","system_id":"levelo_inurba_marseille","lat":43.30423,"lon":5.4242,"is_reserved":false,"is_disabled":false,"rental_uris":{"android":"levelo://app?vid=78e34c20-6d6b-4291-9b5b-89db03d5337a","ios":"levelo://app?vid=78e34c20-6d6b-4291-9b5b-89db03d5337a"},"vehicle_type_id":"4","last_reported":1778783239,"current_range_meters":5600,"station_id":"","pricing_plan_id":"cebpf4jnsgd1na2vs0mg"},{"bike_id":"22e972e2-e9eb-43fe-bbe7-54d311d8dfbf","system_id":"levelo_inurba_marseille","lat":43.29784,"lon":5.38109,"is_reserved":false,"is_disabled":false,"rental_uris":{"android":"levelo://app?vid=22e972e2-e9eb-43fe-bbe7-54d311d8dfbf","ios":"levelo://app?vid=22e972e2-e9eb-43fe-bbe7-54d311d8dfbf"},"vehicle_type_id":"4","last_reported":1778783239,"current_range_meters":6000,"station_id":"ce4bgip2rcd13ifvqbb0","pricing_plan_id":"cebpf4jnsgd1na2vs0mg"},{"bike_id":"9a692f79-8a09-4f23-b8ea-84237349bfe2","system_id":"levelo_inurba_marseille","lat":43.25579,"lon":5.38233,"is_reserved":false,"is_disabled":false,"rental_uris":{"android":"levelo://app?vid=9a692f79-8a09-4f23-b8ea-84237349bfe2","ios":"levelo://app?vid=9a692f79-8a09-4f23-b8ea-84237349bfe2"},"vehicle_type_id":"4","last_reported":1778783239,"current_range_meters":6000,"station_id":"ce4bhih2rcd13ifvqfs0","pricing_plan_id":"cebpf4jnsgd1na2vs0mg"},{"bike_id":"58bd3590-5e0d-46fd-9121-e7e16f349685","system_id":"levelo_inurba_marseille","lat":43.24403,"lon":5.37045,"is_reserved":false,"is_disabled":false,"rental_uris":{"android":"levelo://app?vid=58bd3590-5e0d-46fd-9121-e7e16f349685","ios":"levelo://app?vid=58bd3590-5e0d-46fd-9121-e7e16f349685"},"vehicle_type_id":"4","last_reported":1778783239,"current_range_meters":6000,"station_id":"ce4bhhh2rcd13ifvqfk0","pricing_plan_id":"cebpf4jnsgd1na2vs0mg"},{"bike_id":"cd3ca658-5f20-4b9d-9d09-59756e78e9fc","system_id":"levelo_inurba_marseille","lat":43.32949,"lon":5.37517,"is_reserved":false,"is_disabled":true,"rental_uris":{"android":"levelo://app?vid=cd3ca658-5f20-4b9d-9d09-59756e78e9fc","ios":"levelo://app?vid=cd3ca658-5f20-4b9d-9d09-59756e78e9fc"},"vehicle_type_id":"4","last_reported":1778783239,"current_range_meters":6000,"station_id":"","pricing_plan_id":"cebpf4jnsgd1na2vs0mg"},{"bike_id":"43dc5ec9-cce1-48fb-99af-2b40ca7b9483","system_id":"levelo_inurba_marseille","lat":43.21748,"lon":5.34591,"is_reserved":false,"is_disabled":false,"rental_uris":{"android":"levelo://app?vid=43dc5ec9-cce1-48fb-99af-2b40ca7b9483","ios":"levelo://app?vid=43dc5ec9-cce1-48fb-99af-2b40ca7b9483"},"vehicle_type_id":"4","last_reported":1778783239,"current_range_meters":6400,"station_id":"st_cvj6r9ubvosntc0bgbag","pricing_plan_id":"cebpf4jnsgd1na2vs0mg"},{"bike_id":"f009bb4b-625b-4482-8ff8-5aeca90a33f4","system_id":"levelo_inurba_marseille","lat":43.26221,"lon":5.37449,"is_reserved":false,"is_disabled":false,"rental_uris":{"android":"levelo://app?vid=f009bb4b-625b-4482-8ff8-5aeca90a33f4","ios":"levelo://app?vid=f009bb4b-625b-4482-8ff8-5aeca90a33f4"},"vehicle_type_id":"4","last_reported":1778783239,"current_range_meters":6400,"station_id":"ce4bhgp2rcd13ifvqfc0","pricing_plan_id":"cebpf4jnsgd1na2vs0mg"},{"bike_id":"b7aef511-a30b-48e6-924f-5b7ff92819c7","system_id":"levelo_inurba_marseille","lat":43.28154,"lon":5.42641,"is_reserved":false,"is_disabled":false,"rental_uris":{"android":"levelo://app?vid=b7aef511-a30b-48e6-924f-5b7ff92819c7","ios":"levelo://app?vid=b7aef511-a30b-48e6-924f-5b7ff92819c7"},"vehicle_type_id":"4","last_reported":1778783239,"current_range_meters":6400,"station_id":"ce4bhnh2rcd13ifvqgug","pricing_plan_id":"cebpf4jnsgd1na2vs0mg"},{"bike_id":"c630bb3e-6290-450d-9d40-2b36b335f9b8","system_id":"levelo_inurba_marseille","lat":43.30888,"lon":5.39655,"is_reserved":false,"is_disabled":false,"rental_uris":{"android":"levelo://app?vid=c630bb3e-6290-450d-9d40-2b36b335f9b8","ios":"levelo://app?vid=c630bb3e-6290-450d-9d40-2b36b335f9b8"},"vehicle_type_id":"4","last_reported":1778783239,"current_range_meters":6400,"station_id":"ce4bh012rcd13ifvqcv0","pricing_plan_id":"cebpf4jnsgd1na2vs0mg"},{"bike_id":"82913511-039f-4e4d-9000-49d891f4f2cb","system_id":"levelo_inurba_marseille","lat":43.30312,"lon":5.36901,"is_reserved":false,"is_disabled":false,"rental_uris":{"android":"levelo://app?vid=82913511-039f-4e4d-9000-49d891f4f2cb","ios":"levelo://app?vid=82913511-039f-4e4d-9000-49d891f4f2cb"},"vehicle_type_id":"4","last_reported":1778783239,"current_range_meters":6400,"station_id":"ce4bgqh2rcd13ifvqc5g","pricing_plan_id":"cebpf4jnsgd1na2vs0mg"},{"bike_id":"62d5ff16-c9cf-4cd0-bc75-db9cc8b39a24","system_id":"levelo_inurba_marseille","lat":43.303003,"lon":5.392096,"is_reserved":false,"is_disabled":false,"rental_uris":{"android":"levelo://app?vid=62d5ff16-c9cf-4cd0-bc75-db9cc8b39a24","ios":"levelo://app?vid=62d5ff16-c9cf-4cd0-bc75-db9cc8b39a24"},"vehicle_type_id":"4","last_reported":1778783239,"current_range_meters":6400,"station_id":"ce4bgkh2rcd13ifvqbk0","pricing_plan_id":"cebpf4jnsgd1na2vs0mg"},{"bike_id":"83f198f3-3512-4a4d-bc60-7d87f9ccf62e","system_id":"levelo_inurba_marseille","lat":43.29882,"lon":5.38894,"is_reserved":false,"is_disabled":false,"rental_uris":{"android":"levelo://app?vid=83f198f3-3512-4a4d-bc60-7d87f9ccf62e","ios":"levelo://app?vid=83f198f3-3512-4a4d-bc60-7d87f9ccf62e"},"vehicle_type_id":"4","last_reported":1778783239,"current_range_meters":6400,"station_id":"ce4bh392rcd13ifvqdl0","pricing_plan_id":"cebpf4jnsgd1na2vs0mg"},{"bike_id":"c535ec2c-19c1-44c4-a485-084a2cc5acd3","system_id":"levelo_inurba_marseille","lat":43.26568,"lon":5.39002,"is_reserved":false,"is_disabled":false,"rental_uris":{"android":"levelo://app?vid=c535ec2c-19c1-44c4-a485-084a2cc5acd3","ios":"levelo://app?vid=c535ec2c-19c1-44c4-a485-084a2cc5acd3"},"vehicle_type_id":"4","last_reported":1778783239,"current_range_meters":6400,"station_id":"ce4bhe12rcd13ifvqf30","pricing_plan_id":"cebpf4jnsgd1na2vs0mg"},{"bike_id":"126ea008-0a9b-4e2d-9f3f-05097040d9e5","system_id":"levelo_inurba_marseille","lat":43.28724,"lon":5.36077,"is_reserved":false,"is_disabled":false,"rental_uris":{"android":"levelo://app?vid=126ea008-0a9b-4e2d-9f3f-05097040d9e5","ios":"levelo://app?vid=126ea008-0a9b-4e2d-9f3f-05097040d9e5"},"vehicle_type_id":"4","last_reported":1778783239,"current_range_meters":6400,"station_id":"cki0cbj6b192h4jlfktg","pricing_plan_id":"cebpf4jnsgd1na2vs0mg"},{"bike_id":"f8297b1a-1ea5-44a1-bb38-6a4817fbc78a","system_id":"levelo_inurba_marseille","lat":43.31411,"lon":5.38467,"is_reserved":false,"is_disabled":false,"rental_uris":{"android":"levelo://app?vid=f8297b1a-1ea5-44a1-bb38-6a4817fbc78a","ios":"levelo://app?vid=f8297b1a-1ea5-44a1-bb38-6a4817fbc78a"},"vehicle_type_id":"4","last_reported":1778783239,"current_range_meters":6400,"station_id":"","pricing_plan_id":"cebpf4jnsgd1na2vs0mg"},{"bike_id":"3c9fd14c-8db8-479c-846c-f3dc1ab44fd4","system_id":"levelo_inurba_marseille","lat":43.24739,"lon":5.39288,"is_reserved":false,"is_disabled":false,"rental_uris":{"android":"levelo://app?vid=3c9fd14c-8db8-479c-846c-f3dc1ab44fd4","ios":"levelo://app?vid=3c9fd14c-8db8-479c-846c-f3dc1ab44fd4"},"vehicle_type_id":"4","last_reported":1778783239,"current_range_meters":6400,"station_id":"","pricing_plan_id":"cebpf4jnsgd1na2vs0mg"},{"bike_id":"49482f6a-6c93-40be-8172-57d1bbdd336e","system_id":"levelo_inurba_marseille","lat":43.29606,"lon":5.37713,"is_reserved":false,"is_disabled":false,"rental_uris":{"android":"levelo://app?vid=49482f6a-6c93-40be-8172-57d1bbdd336e","ios":"levelo://app?vid=49482f6a-6c93-40be-8172-57d1bbdd336e"},"vehicle_type_id":"4","last_reported":1778783239,"current_range_meters":6400,"station_id":"ce4bgi92rcd13ifvqb90","pricing_plan_id":"cebpf4jnsgd1na2vs0mg"},{"bike_id":"9ab268a0-a8ea-4091-be12-135023a9af46","system_id":"levelo_inurba_marseille","lat":43.30415,"lon":5.39734,"is_reserved":false,"is_disabled":false,"rental_uris":{"android":"levelo://app?vid=9ab268a0-a8ea-4091-be12-135023a9af46","ios":"levelo://app?vid=9ab268a0-a8ea-4091-be12-135023a9af46"},"vehicle_type_id":"4","last_reported":1778783239,"current_range_meters":6400,"station_id":"ce4bh092rcd13ifvqd20","pricing_plan_id":"cebpf4jnsgd1na2vs0mg"},{"bike_id":"7c8c6a72-c1d3-4637-9904-0daa192857e0","system_id":"levelo_inurba_marseille","lat":43.22926,"lon":5.35375,"is_reserved":false,"is_disabled":false,"rental_uris":{"android":"levelo://app?vid=7c8c6a72-c1d3-4637-9904-0daa192857e0","ios":"levelo://app?vid=7c8c6a72-c1d3-4637-9904-0daa192857e0"},"vehicle_type_id":"4","last_reported":1778783239,"current_range_meters":6400,"station_id":"cpo3532slgdg3j2ikp40","pricing_plan_id":"cebpf4jnsgd1na2vs0mg"},{"bike_id":"8a82c602-8883-44f0-957f-001da4dff368","system_id":"levelo_inurba_marseille","lat":43.26225,"lon":5.38761,"is_reserved":false,"is_disabled":false,"rental_uris":{"android":"levelo://app?vid=8a82c602-8883-44f0-957f-001da4dff368","ios":"levelo://app?vid=8a82c602-8883-44f0-957f-001da4dff368"},"vehicle_type_id":"4","last_reported":1778783239,"current_range_meters":6400,"station_id":"","pricing_plan_id":"cebpf4jnsgd1na2vs0mg"},{"bike_id":"bd146d7c-f381-491e-901c-7611da2ac369","system_id":"levelo_inurba_marseille","lat":43.28153,"lon":5.42664,"is_reserved":false,"is_disabled":false,"rental_uris":{"android":"levelo://app?vid=bd146d7c-f381-491e-901c-7611da2ac369","ios":"levelo://app?vid=bd146d7c-f381-491e-901c-7611da2ac369"},"vehicle_type_id":"4","last_reported":1778783239,"current_range_meters":6400,"station_id":"ce4bhnh2rcd13ifvqgug","pricing_plan_id":"cebpf4jnsgd1na2vs0mg"},{"bike_id":"3f85cc70-b449-4b3c-ae7c-49dd8f2c1b19","system_id":"levelo_inurba_marseille","lat":43.28403,"lon":5.37525,"is_reserved":false,"is_disabled":false,"rental_uris":{"android":"levelo://app?vid=3f85cc70-b449-4b3c-ae7c-49dd8f2c1b19","ios":"levelo://app?vid=3f85cc70-b449-4b3c-ae7c-49dd8f2c1b19"},"vehicle_type_id":"4","last_reported":1778783239,"current_range_meters":6400,"station_id":"ce4bh412rcd13ifvqds0","pricing_plan_id":"cebpf4jnsgd1na2vs0mg"},{"bike_id":"eec02f82-6a4d-4cb0-9d1d-f9de813abc74","system_id":"levelo_inurba_marseille","lat":43.30312,"lon":5.39221,"is_reserved":false,"is_disabled":false,"rental_uris":{"android":"levelo://app?vid=eec02f82-6a4d-4cb0-9d1d-f9de813abc74","ios":"levelo://app?vid=eec02f82-6a4d-4cb0-9d1d-f9de813abc74"},"vehicle_type_id":"4","last_reported":1778783239,"current_range_meters":6400,"station_id":"ce4bgkh2rcd13ifvqbk0","pricing_plan_id":"cebpf4jnsgd1na2vs0mg"},{"bike_id":"df71f8df-f01c-4408-8d5f-5efb2cb0d35e","system_id":"levelo_inurba_marseille","lat":43.26561,"lon":5.39022,"is_reserved":false,"is_disabled":false,"rental_uris":{"android":"levelo://app?vid=df71f8df-f01c-4408-8d5f-5efb2cb0d35e","ios":"levelo://app?vid=df71f8df-f01c-4408-8d5f-5efb2cb0d35e"},"vehicle_type_id":"4","last_reported":1778783239,"current_range_meters":6400,"station_id":"ce4bhe12rcd13ifvqf30","pricing_plan_id":"cebpf4jnsgd1na2vs0mg"},{"bike_id":"8a9a4736-7e57-4663-8ebc-45574b406190","system_id":"levelo_inurba_marseille","lat":43.29594,"lon":5.38106,"is_reserved":false,"is_disabled":false,"rental_uris":{"android":"levelo://app?vid=8a9a4736-7e57-4663-8ebc-45574b406190","ios":"levelo://app?vid=8a9a4736-7e57-4663-8ebc-45574b406190"},"vehicle_type_id":"4","last_reported":1778783239,"current_range_meters":6400,"station_id":"ce4bgl12rcd13ifvqbo0","pricing_plan_id":"cebpf4jnsgd1na2vs0mg"},{"bike_id":"4e92fe89-47b9-415c-89ab-3f23c4eb5032","system_id":"levelo_inurba_marseille","lat":43.311075,"lon":5.377722,"is_reserved":false,"is_disabled":false,"rental_uris":{"android":"levelo://app?vid=4e92fe89-47b9-415c-89ab-3f23c4eb5032","ios":"levelo://app?vid=4e92fe89-47b9-415c-89ab-3f23c4eb5032"},"vehicle_type_id":"4","last_reported":1778783239,"current_range_meters":6400,"station_id":"ce4bgt92rcd13ifvqcg0","pricing_plan_id":"cebpf4jnsgd1na2vs0mg"},{"bike_id":"d1be613e-085b-4259-9861-d62c7bd1b056","system_id":"levelo_inurba_marseille","lat":43.31913,"lon":5.36814,"is_reserved":false,"is_disabled":false,"rental_uris":{"android":"levelo://app?vid=d1be613e-085b-4259-9861-d62c7bd1b056","ios":"levelo://app?vid=d1be613e-085b-4259-9861-d62c7bd1b056"},"vehicle_type_id":"4","last_reported":1778783239,"current_range_meters":6400,"station_id":"st_d6o2h0d0559c73evc1b0","pricing_plan_id":"cebpf4jnsgd1na2vs0mg"},{"bike_id":"54b976b2-3d2f-4b82-bcd8-7af0b24a31f6","system_id":"levelo_inurba_marseille","lat":43.26941,"lon":5.4026,"is_reserved":false,"is_disabled":false,"rental_uris":{"android":"levelo://app?vid=54b976b2-3d2f-4b82-bcd8-7af0b24a31f6","ios":"levelo://app?vid=54b976b2-3d2f-4b82-bcd8-7af0b24a31f6"},"vehicle_type_id":"4","last_reported":1778783239,"current_range_meters":6400,"station_id":"cjm6bp8fraef2m0cb0m0","pricing_plan_id":"cebpf4jnsgd1na2vs0mg"},{"bike_id":"003baca3-1b51-47a6-bbf5-e479a5ad0ebd","system_id":"levelo_inurba_marseille","lat":43.33553,"lon":5.37474,"is_reserved":false,"is_disabled":false,"rental_uris":{"android":"levelo://app?vid=003baca3-1b51-47a6-bbf5-e479a5ad0ebd","ios":"levelo://app?vid=003baca3-1b51-47a6-bbf5-e479a5ad0ebd"},"vehicle_type_id":"4","last_reported":1778783239,"current_range_meters":6800,"station_id":"st_d46tts09ee8s73dlu43g","pricing_plan_id":"cebpf4jnsgd1na2vs0mg"},{"bike_id":"e04b7b09-5afe-434d-a175-339fdabcfc1f","system_id":"levelo_inurba_marseille","lat":43.28574,"lon":5.395,"is_reserved":false,"is_disabled":false,"rental_uris":{"android":"levelo://app?vid=e04b7b09-5afe-434d-a175-339fdabcfc1f","ios":"levelo://app?vid=e04b7b09-5afe-434d-a175-339fdabcfc1f"},"vehicle_type_id":"4","last_reported":1778783239,"current_range_meters":6800,"station_id":"ce4bh292rcd13ifvqdg0","pricing_plan_id":"cebpf4jnsgd1na2vs0mg"},{"bike_id":"403abfca-db03-47e4-b8c9-06a6b97b58d4","system_id":"levelo_inurba_marseille","lat":43.33218,"lon":5.43052,"is_reserved":false,"is_disabled":false,"rental_uris":{"android":"levelo://app?vid=403abfca-db03-47e4-b8c9-06a6b97b58d4","ios":"levelo://app?vid=403abfca-db03-47e4-b8c9-06a6b97b58d4"},"vehicle_type_id":"4","last_reported":1778783239,"current_range_meters":6800,"station_id":"","pricing_plan_id":"cebpf4jnsgd1na2vs0mg"},{"bike_id":"0799ffbc-bb27-4016-b9cf-72f11653058a","system_id":"levelo_inurba_marseille","lat":43.29549,"lon":5.37528,"is_reserved":false,"is_disabled":true,"rental_uris":{"android":"levelo://app?vid=0799ffbc-bb27-4016-b9cf-72f11653058a","ios":"levelo://app?vid=0799ffbc-bb27-4016-b9cf-72f11653058a"},"vehicle_type_id":"4","last_reported":1778783239,"current_range_meters":6800,"station_id":"ce4bgh92rcd13ifvqb50","pricing_plan_id":"cebpf4jnsgd1na2vs0mg"},{"bike_id":"d0fc607e-9c28-471a-aca5-170fa898f051","system_id":"levelo_inurba_marseille","lat":43.29799,"lon":5.3811,"is_reserved":false,"is_disabled":false,"rental_uris":{"android":"levelo://app?vid=d0fc607e-9c28-471a-aca5-170fa898f051","ios":"levelo://app?vid=d0fc607e-9c28-471a-aca5-170fa898f051"},"vehicle_type_id":"4","last_reported":1778783239,"current_range_meters":6800,"station_id":"ce4bgip2rcd13ifvqbb0","pricing_plan_id":"cebpf4jnsgd1na2vs0mg"},{"bike_id":"749a18d2-596c-4a03-97ba-d2b81784e6ea","system_id":"levelo_inurba_marseille","lat":43.299221,"lon":5.374657,"is_reserved":false,"is_disabled":false,"rental_uris":{"android":"levelo://app?vid=749a18d2-596c-4a03-97ba-d2b81784e6ea","ios":"levelo://app?vid=749a18d2-596c-4a03-97ba-d2b81784e6ea"},"vehicle_type_id":"4","last_reported":1778783239,"current_range_meters":6800,"station_id":"ce4bgjh2rcd13ifvqbg0","pricing_plan_id":"cebpf4jnsgd1na2vs0mg"},{"bike_id":"59ce20e6-0fed-4098-a70a-f441a25f5c2a","system_id":"levelo_inurba_marseille","lat":43.30093,"lon":5.3909,"is_reserved":false,"is_disabled":false,"rental_uris":{"android":"levelo://app?vid=59ce20e6-0fed-4098-a70a-f441a25f5c2a","ios":"levelo://app?vid=59ce20e6-0fed-4098-a70a-f441a25f5c2a"},"vehicle_type_id":"4","last_reported":1778783239,"current_range_meters":6800,"station_id":"ce4bh192rcd13ifvqdb0","pricing_plan_id":"cebpf4jnsgd1na2vs0mg"},{"bike_id":"af705914-bb9c-47f1-9802-e7ff0d2548f0","system_id":"levelo_inurba_marseille","lat":43.25472,"lon":5.37639,"is_reserved":false,"is_disabled":false,"rental_uris":{"android":"levelo://app?vid=af705914-bb9c-47f1-9802-e7ff0d2548f0","ios":"levelo://app?vid=af705914-bb9c-47f1-9802-e7ff0d2548f0"},"vehicle_type_id":"4","last_reported":1778783239,"current_range_meters":6800,"station_id":"ce4bhh12rcd13ifvqff0","pricing_plan_id":"cebpf4jnsgd1na2vs0mg"},{"bike_id":"8de721ee-dc1a-4428-89d4-4036f8e90296","system_id":"levelo_inurba_marseille","lat":43.32094,"lon":5.36774,"is_reserved":false,"is_disabled":false,"rental_uris":{"android":"levelo://app?vid=8de721ee-dc1a-4428-89d4-4036f8e90296","ios":"levelo://app?vid=8de721ee-dc1a-4428-89d4-4036f8e90296"},"vehicle_type_id":"4","last_reported":1778783239,"current_range_meters":6800,"station_id":"ce4bhrh2rcd13ifvqhug","pricing_plan_id":"cebpf4jnsgd1na2vs0mg"},{"bike_id":"f2f38740-4232-40a1-b251-8b6e6be3a547","system_id":"levelo_inurba_marseille","lat":43.286165,"lon":5.350951,"is_reserved":false,"is_disabled":false,"rental_uris":{"android":"levelo://app?vid=f2f38740-4232-40a1-b251-8b6e6be3a547","ios":"levelo://app?vid=f2f38740-4232-40a1-b251-8b6e6be3a547"},"vehicle_type_id":"4","last_reported":1778783239,"current_range_meters":6800,"station_id":"ce4bhch2rcd13ifvqeug","pricing_plan_id":"cebpf4jnsgd1na2vs0mg"},{"bike_id":"fa5cc865-27c0-4eff-a13a-2198b1912d62","system_id":"levelo_inurba_marseille","lat":43.2822,"lon":5.39038,"is_reserved":false,"is_disabled":false,"rental_uris":{"android":"levelo://app?vid=fa5cc865-27c0-4eff-a13a-2198b1912d62","ios":"levelo://app?vid=fa5cc865-27c0-4eff-a13a-2198b1912d62"},"vehicle_type_id":"4","last_reported":1778783239,"current_range_meters":6800,"station_id":"ce4bhn92rcd13ifvqgsg","pricing_plan_id":"cebpf4jnsgd1na2vs0mg"},{"bike_id":"52928e5c-7dff-4a20-89ed-37d0f30fe442","system_id":"levelo_inurba_marseille","lat":43.29455,"lon":5.38635,"is_reserved":false,"is_disabled":false,"rental_uris":{"android":"levelo://app?vid=52928e5c-7dff-4a20-89ed-37d0f30fe442","ios":"levelo://app?vid=52928e5c-7dff-4a20-89ed-37d0f30fe442"},"vehicle_type_id":"4","last_reported":1778783239,"current_range_meters":6800,"station_id":"","pricing_plan_id":"cebpf4jnsgd1na2vs0mg"},{"bike_id":"1d840a3e-6dd6-4d2b-85ce-dce4ef1cb912","system_id":"levelo_inurba_marseille","lat":43.28921,"lon":5.36393,"is_reserved":false,"is_disabled":false,"rental_uris":{"android":"levelo://app?vid=1d840a3e-6dd6-4d2b-85ce-dce4ef1cb912","ios":"levelo://app?vid=1d840a3e-6dd6-4d2b-85ce-dce4ef1cb912"},"vehicle_type_id":"4","last_reported":1778783239,"current_range_meters":6800,"station_id":"ce4bhc92rcd13ifvqetg","pricing_plan_id":"cebpf4jnsgd1na2vs0mg"},{"bike_id":"b2b4314a-5925-4700-bab3-038d34f53a7d","system_id":"levelo_inurba_marseille","lat":43.28703,"lon":5.46676,"is_reserved":false,"is_disabled":false,"rental_uris":{"android":"levelo://app?vid=b2b4314a-5925-4700-bab3-038d34f53a7d","ios":"levelo://app?vid=b2b4314a-5925-4700-bab3-038d34f53a7d"},"vehicle_type_id":"4","last_reported":1778783239,"current_range_meters":7200,"station_id":"st_d6tc3vkotcvc738tfjhg","pricing_plan_id":"cebpf4jnsgd1na2vs0mg"},{"bike_id":"249a07cb-1c5d-4dd6-a29a-0f7a8cc2de2b","system_id":"levelo_inurba_marseille","lat":43.29716,"lon":5.36633,"is_reserved":false,"is_disabled":false,"rental_uris":{"android":"levelo://app?vid=249a07cb-1c5d-4dd6-a29a-0f7a8cc2de2b","ios":"levelo://app?vid=249a07cb-1c5d-4dd6-a29a-0f7a8cc2de2b"},"vehicle_type_id":"4","last_reported":1778783239,"current_range_meters":7200,"station_id":"ce4bgn12rcd13ifvqbt0","pricing_plan_id":"cebpf4jnsgd1na2vs0mg"},{"bike_id":"11bfc38c-9d4c-45ee-b922-1948cd421490","system_id":"levelo_inurba_marseille","lat":43.24821,"lon":5.37435,"is_reserved":false,"is_disabled":false,"rental_uris":{"android":"levelo://app?vid=11bfc38c-9d4c-45ee-b922-1948cd421490","ios":"levelo://app?vid=11bfc38c-9d4c-45ee-b922-1948cd421490"},"vehicle_type_id":"4","last_reported":1778783239,"current_range_meters":7200,"station_id":"ce4bhgh2rcd13ifvqfb0","pricing_plan_id":"cebpf4jnsgd1na2vs0mg"},{"bike_id":"45fc671d-af66-4d62-92fc-b06bbfe5d962","system_id":"levelo_inurba_marseille","lat":43.30134,"lon":5.38757,"is_reserved":false,"is_disabled":false,"rental_uris":{"android":"levelo://app?vid=45fc671d-af66-4d62-92fc-b06bbfe5d962","ios":"levelo://app?vid=45fc671d-af66-4d62-92fc-b06bbfe5d962"},"vehicle_type_id":"4","last_reported":1778783239,"current_range_meters":7200,"station_id":"ce4bghh2rcd13ifvqb60","pricing_plan_id":"cebpf4jnsgd1na2vs0mg"},{"bike_id":"a805dd41-a9d9-4ba0-b517-cd11edd5e755","system_id":"levelo_inurba_marseille","lat":43.28527,"lon":5.4409,"is_reserved":false,"is_disabled":false,"rental_uris":{"android":"levelo://app?vid=a805dd41-a9d9-4ba0-b517-cd11edd5e755","ios":"levelo://app?vid=a805dd41-a9d9-4ba0-b517-cd11edd5e755"},"vehicle_type_id":"4","last_reported":1778783239,"current_range_meters":7200,"station_id":"st_d3j3df2ikq2c7380ej80","pricing_plan_id":"cebpf4jnsgd1na2vs0mg"},{"bike_id":"66bc938e-aa98-4c7e-bf53-92238253981b","system_id":"levelo_inurba_marseille","lat":43.30953,"lon":5.3692,"is_reserved":false,"is_disabled":false,"rental_uris":{"android":"levelo://app?vid=66bc938e-aa98-4c7e-bf53-92238253981b","ios":"levelo://app?vid=66bc938e-aa98-4c7e-bf53-92238253981b"},"vehicle_type_id":"4","last_reported":1778783239,"current_range_meters":7200,"station_id":"","pricing_plan_id":"cebpf4jnsgd1na2vs0mg"},{"bike_id":"df1280df-d6c6-4479-a82c-7f3bd80f7823","system_id":"levelo_inurba_marseille","lat":43.26058,"lon":5.39378,"is_reserved":false,"is_disabled":false,"rental_uris":{"android":"levelo://app?vid=df1280df-d6c6-4479-a82c-7f3bd80f7823","ios":"levelo://app?vid=df1280df-d6c6-4479-a82c-7f3bd80f7823"},"vehicle_type_id":"4","last_reported":1778783239,"current_range_meters":7200,"station_id":"ce4bhh92rcd13ifvqfj0","pricing_plan_id":"cebpf4jnsgd1na2vs0mg"},{"bike_id":"b1aeb62c-99d7-42de-90eb-0e40a0a34789","system_id":"levelo_inurba_marseille","lat":43.31421,"lon":5.38471,"is_reserved":false,"is_disabled":false,"rental_uris":{"android":"levelo://app?vid=b1aeb62c-99d7-42de-90eb-0e40a0a34789","ios":"levelo://app?vid=b1aeb62c-99d7-42de-90eb-0e40a0a34789"},"vehicle_type_id":"4","last_reported":1778783239,"current_range_meters":7200,"station_id":"","pricing_plan_id":"cebpf4jnsgd1na2vs0mg"},{"bike_id":"ef177c26-6847-405e-8041-8dba91c23ec7","system_id":"levelo_inurba_marseille","lat":43.26568,"lon":5.39025,"is_reserved":false,"is_disabled":false,"rental_uris":{"android":"levelo://app?vid=ef177c26-6847-405e-8041-8dba91c23ec7","ios":"levelo://app?vid=ef177c26-6847-405e-8041-8dba91c23ec7"},"vehicle_type_id":"4","last_reported":1778783239,"current_range_meters":7200,"station_id":"ce4bhe12rcd13ifvqf30","pricing_plan_id":"cebpf4jnsgd1na2vs0mg"},{"bike_id":"806f1d5a-8642-41c3-84bf-075ba090db12","system_id":"levelo_inurba_marseille","lat":43.29906,"lon":5.38141,"is_reserved":false,"is_disabled":false,"rental_uris":{"android":"levelo://app?vid=806f1d5a-8642-41c3-84bf-075ba090db12","ios":"levelo://app?vid=806f1d5a-8642-41c3-84bf-075ba090db12"},"vehicle_type_id":"4","last_reported":1778783239,"current_range_meters":7200,"station_id":"ce4bgj12rcd13ifvqbc0","pricing_plan_id":"cebpf4jnsgd1na2vs0mg"},{"bike_id":"9062255f-0238-4e6e-b972-b53f3708ba09","system_id":"levelo_inurba_marseille","lat":43.25339,"lon":5.4217,"is_reserved":false,"is_disabled":false,"rental_uris":{"android":"levelo://app?vid=9062255f-0238-4e6e-b972-b53f3708ba09","ios":"levelo://app?vid=9062255f-0238-4e6e-b972-b53f3708ba09"},"vehicle_type_id":"4","last_reported":1778783239,"current_range_meters":7200,"station_id":"st_d2m65c5bi1j21697t3ng","pricing_plan_id":"cebpf4jnsgd1na2vs0mg"},{"bike_id":"3eb17ea7-504c-4154-a442-3f77f9eb2f74","system_id":"levelo_inurba_marseille","lat":43.25493,"lon":5.37648,"is_reserved":false,"is_disabled":false,"rental_uris":{"android":"levelo://app?vid=3eb17ea7-504c-4154-a442-3f77f9eb2f74","ios":"levelo://app?vid=3eb17ea7-504c-4154-a442-3f77f9eb2f74"},"vehicle_type_id":"4","last_reported":1778783239,"current_range_meters":7200,"station_id":"ce4bhh12rcd13ifvqff0","pricing_plan_id":"cebpf4jnsgd1na2vs0mg"},{"bike_id":"11474f34-fb38-4fcd-9362-533b6f3c3c1f","system_id":"levelo_inurba_marseille","lat":43.26014,"lon":5.37545,"is_reserved":false,"is_disabled":false,"rental_uris":{"android":"levelo://app?vid=11474f34-fb38-4fcd-9362-533b6f3c3c1f","ios":"levelo://app?vid=11474f34-fb38-4fcd-9362-533b6f3c3c1f"},"vehicle_type_id":"4","last_reported":1778783239,"current_range_meters":7200,"station_id":"ce4bhgh2rcd13ifvqfa0","pricing_plan_id":"cebpf4jnsgd1na2vs0mg"},{"bike_id":"c1aea499-d26f-49bf-8367-447ce7aec604","system_id":"levelo_inurba_marseille","lat":43.25346,"lon":5.42169,"is_reserved":false,"is_disabled":false,"rental_uris":{"android":"levelo://app?vid=c1aea499-d26f-49bf-8367-447ce7aec604","ios":"levelo://app?vid=c1aea499-d26f-49bf-8367-447ce7aec604"},"vehicle_type_id":"4","last_reported":1778783239,"current_range_meters":7200,"station_id":"st_d2m65c5bi1j21697t3ng","pricing_plan_id":"cebpf4jnsgd1na2vs0mg"},{"bike_id":"93874ed8-c72d-4022-b266-0c654c1d580d","system_id":"levelo_inurba_marseille","lat":43.27557,"lon":5.3954,"is_reserved":false,"is_disabled":false,"rental_uris":{"android":"levelo://app?vid=93874ed8-c72d-4022-b266-0c654c1d580d","ios":"levelo://app?vid=93874ed8-c72d-4022-b266-0c654c1d580d"},"vehicle_type_id":"4","last_reported":1778783239,"current_range_meters":7200,"station_id":"","pricing_plan_id":"cebpf4jnsgd1na2vs0mg"},{"bike_id":"fbaa5d80-a3cf-4ecb-853d-f3295b71439b","system_id":"levelo_inurba_marseille","lat":43.26212,"lon":5.3744,"is_reserved":false,"is_disabled":false,"rental_uris":{"android":"levelo://app?vid=fbaa5d80-a3cf-4ecb-853d-f3295b71439b","ios":"levelo://app?vid=fbaa5d80-a3cf-4ecb-853d-f3295b71439b"},"vehicle_type_id":"4","last_reported":1778783239,"current_range_meters":7200,"station_id":"ce4bhgp2rcd13ifvqfc0","pricing_plan_id":"cebpf4jnsgd1na2vs0mg"},{"bike_id":"56f10c3c-5d40-4146-aea1-bd5b16dc8ee8","system_id":"levelo_inurba_marseille","lat":43.33186,"lon":5.40658,"is_reserved":false,"is_disabled":false,"rental_uris":{"android":"levelo://app?vid=56f10c3c-5d40-4146-aea1-bd5b16dc8ee8","ios":"levelo://app?vid=56f10c3c-5d40-4146-aea1-bd5b16dc8ee8"},"vehicle_type_id":"4","last_reported":1778783239,"current_range_meters":7200,"station_id":"","pricing_plan_id":"cebpf4jnsgd1na2vs0mg"},{"bike_id":"f688244d-99ab-4a7c-a82f-a7c034c5e560","system_id":"levelo_inurba_marseille","lat":43.30167,"lon":5.39633,"is_reserved":false,"is_disabled":false,"rental_uris":{"android":"levelo://app?vid=f688244d-99ab-4a7c-a82f-a7c034c5e560","ios":"levelo://app?vid=f688244d-99ab-4a7c-a82f-a7c034c5e560"},"vehicle_type_id":"4","last_reported":1778783239,"current_range_meters":7200,"station_id":"","pricing_plan_id":"cebpf4jnsgd1na2vs0mg"},{"bike_id":"5ea16ace-200a-4769-a572-a6b6c11c33c9","system_id":"levelo_inurba_marseille","lat":43.2959,"lon":5.38118,"is_reserved":false,"is_disabled":false,"rental_uris":{"android":"levelo://app?vid=5ea16ace-200a-4769-a572-a6b6c11c33c9","ios":"levelo://app?vid=5ea16ace-200a-4769-a572-a6b6c11c33c9"},"vehicle_type_id":"4","last_reported":1778783239,"current_range_meters":7200,"station_id":"ce4bgl12rcd13ifvqbo0","pricing_plan_id":"cebpf4jnsgd1na2vs0mg"},{"bike_id":"330761c9-7c2c-4c25-91b7-7fb56a13fb74","system_id":"levelo_inurba_marseille","lat":43.26792,"lon":5.39411,"is_reserved":false,"is_disabled":false,"rental_uris":{"android":"levelo://app?vid=330761c9-7c2c-4c25-91b7-7fb56a13fb74","ios":"levelo://app?vid=330761c9-7c2c-4c25-91b7-7fb56a13fb74"},"vehicle_type_id":"4","last_reported":1778783239,"current_range_meters":7200,"station_id":"ce4bhh12rcd13ifvqfg0","pricing_plan_id":"cebpf4jnsgd1na2vs0mg"},{"bike_id":"fb6a4e03-6a4e-4ff2-aa3f-8e60f26d6bc9","system_id":"levelo_inurba_marseille","lat":43.28833,"lon":5.35839,"is_reserved":false,"is_disabled":false,"rental_uris":{"android":"levelo://app?vid=fb6a4e03-6a4e-4ff2-aa3f-8e60f26d6bc9","ios":"levelo://app?vid=fb6a4e03-6a4e-4ff2-aa3f-8e60f26d6bc9"},"vehicle_type_id":"4","last_reported":1778783239,"current_range_meters":7200,"station_id":"ce4bhb12rcd13ifvqem0","pricing_plan_id":"cebpf4jnsgd1na2vs0mg"},{"bike_id":"68daaae5-71f7-485d-8ef2-e5ea29ae2c11","system_id":"levelo_inurba_marseille","lat":43.33149,"lon":5.37674,"is_reserved":false,"is_disabled":false,"rental_uris":{"android":"levelo://app?vid=68daaae5-71f7-485d-8ef2-e5ea29ae2c11","ios":"levelo://app?vid=68daaae5-71f7-485d-8ef2-e5ea29ae2c11"},"vehicle_type_id":"4","last_reported":1778783239,"current_range_meters":7200,"station_id":"st_d46cu089ee8s73dldbu0","pricing_plan_id":"cebpf4jnsgd1na2vs0mg"},{"bike_id":"8af38655-e65c-465e-83e2-1c3ed295a51f","system_id":"levelo_inurba_marseille","lat":43.24426,"lon":5.4251,"is_reserved":false,"is_disabled":false,"rental_uris":{"android":"levelo://app?vid=8af38655-e65c-465e-83e2-1c3ed295a51f","ios":"levelo://app?vid=8af38655-e65c-465e-83e2-1c3ed295a51f"},"vehicle_type_id":"4","last_reported":1778783239,"current_range_meters":8000,"station_id":"","pricing_plan_id":"cebpf4jnsgd1na2vs0mg"},{"bike_id":"5cd841ab-3136-4c77-8b6c-d810436f4d70","system_id":"levelo_inurba_marseille","lat":43.28695,"lon":5.37395,"is_reserved":false,"is_disabled":false,"rental_uris":{"android":"levelo://app?vid=5cd841ab-3136-4c77-8b6c-d810436f4d70","ios":"levelo://app?vid=5cd841ab-3136-4c77-8b6c-d810436f4d70"},"vehicle_type_id":"4","last_reported":1778783239,"current_range_meters":8000,"station_id":"ce4bh3p2rcd13ifvqdq0","pricing_plan_id":"cebpf4jnsgd1na2vs0mg"},{"bike_id":"bb1b101c-ac36-488b-8d45-73946554b566","system_id":"levelo_inurba_marseille","lat":43.26285,"lon":5.41105,"is_reserved":false,"is_disabled":false,"rental_uris":{"android":"levelo://app?vid=bb1b101c-ac36-488b-8d45-73946554b566","ios":"levelo://app?vid=bb1b101c-ac36-488b-8d45-73946554b566"},"vehicle_type_id":"4","last_reported":1778783239,"current_range_meters":8000,"station_id":"st_d4e5ca6na9uc73bfl5fg","pricing_plan_id":"cebpf4jnsgd1na2vs0mg"},{"bike_id":"b827b39f-017e-4738-8645-9ce1b1b5080f","system_id":"levelo_inurba_marseille","lat":43.23967,"lon":5.3663,"is_reserved":false,"is_disabled":false,"rental_uris":{"android":"levelo://app?vid=b827b39f-017e-4738-8645-9ce1b1b5080f","ios":"levelo://app?vid=b827b39f-017e-4738-8645-9ce1b1b5080f"},"vehicle_type_id":"4","last_reported":1778783239,"current_range_meters":8000,"station_id":"ce4bhi12rcd13ifvqfp0","pricing_plan_id":"cebpf4jnsgd1na2vs0mg"},{"bike_id":"5e37cae9-109e-43de-8cc5-07234775561b","system_id":"levelo_inurba_marseille","lat":43.28636,"lon":5.35111,"is_reserved":false,"is_disabled":false,"rental_uris":{"android":"levelo://app?vid=5e37cae9-109e-43de-8cc5-07234775561b","ios":"levelo://app?vid=5e37cae9-109e-43de-8cc5-07234775561b"},"vehicle_type_id":"4","last_reported":1778783239,"current_range_meters":8000,"station_id":"ce4bhch2rcd13ifvqeug","pricing_plan_id":"cebpf4jnsgd1na2vs0mg"},{"bike_id":"1dca4bee-e819-43e2-ad84-7d34b2d8b393","system_id":"levelo_inurba_marseille","lat":43.30785,"lon":5.38177,"is_reserved":false,"is_disabled":false,"rental_uris":{"android":"levelo://app?vid=1dca4bee-e819-43e2-ad84-7d34b2d8b393","ios":"levelo://app?vid=1dca4bee-e819-43e2-ad84-7d34b2d8b393"},"vehicle_type_id":"4","last_reported":1778783239,"current_range_meters":8000,"station_id":"ce4bgt12rcd13ifvqce0","pricing_plan_id":"cebpf4jnsgd1na2vs0mg"},{"bike_id":"a9ffd795-2efd-4e75-828d-d200463d8fc7","system_id":"levelo_inurba_marseille","lat":43.30006,"lon":5.36466,"is_reserved":false,"is_disabled":false,"rental_uris":{"android":"levelo://app?vid=a9ffd795-2efd-4e75-828d-d200463d8fc7","ios":"levelo://app?vid=a9ffd795-2efd-4e75-828d-d200463d8fc7"},"vehicle_type_id":"4","last_reported":1778783239,"current_range_meters":8000,"station_id":"","pricing_plan_id":"cebpf4jnsgd1na2vs0mg"},{"bike_id":"bffb634c-91ba-4f4a-b2db-6ccba08ac42e","system_id":"levelo_inurba_marseille","lat":43.29874,"lon":5.38905,"is_reserved":false,"is_disabled":true,"rental_uris":{"android":"levelo://app?vid=bffb634c-91ba-4f4a-b2db-6ccba08ac42e","ios":"levelo://app?vid=bffb634c-91ba-4f4a-b2db-6ccba08ac42e"},"vehicle_type_id":"4","last_reported":1778783239,"current_range_meters":8000,"station_id":"ce4bh392rcd13ifvqdl0","pricing_plan_id":"cebpf4jnsgd1na2vs0mg"},{"bike_id":"31957251-d5a4-4347-b393-c47e28fd0419","system_id":"levelo_inurba_marseille","lat":43.24686,"lon":5.38144,"is_reserved":false,"is_disabled":false,"rental_uris":{"android":"levelo://app?vid=31957251-d5a4-4347-b393-c47e28fd0419","ios":"levelo://app?vid=31957251-d5a4-4347-b393-c47e28fd0419"},"vehicle_type_id":"4","last_reported":1778783239,"current_range_meters":8000,"station_id":"ce4bhih2rcd13ifvqfr0","pricing_plan_id":"cebpf4jnsgd1na2vs0mg"},{"bike_id":"fdc968d5-d519-472e-8d45-07bbe411a55c","system_id":"levelo_inurba_marseille","lat":43.24814,"lon":5.37461,"is_reserved":false,"is_disabled":false,"rental_uris":{"android":"levelo://app?vid=fdc968d5-d519-472e-8d45-07bbe411a55c","ios":"levelo://app?vid=fdc968d5-d519-472e-8d45-07bbe411a55c"},"vehicle_type_id":"4","last_reported":1778783239,"current_range_meters":8000,"station_id":"ce4bhgh2rcd13ifvqfb0","pricing_plan_id":"cebpf4jnsgd1na2vs0mg"},{"bike_id":"7ab4ae67-6681-42d6-ba71-37cc55561d1c","system_id":"levelo_inurba_marseille","lat":43.30474,"lon":5.37943,"is_reserved":false,"is_disabled":false,"rental_uris":{"android":"levelo://app?vid=7ab4ae67-6681-42d6-ba71-37cc55561d1c","ios":"levelo://app?vid=7ab4ae67-6681-42d6-ba71-37cc55561d1c"},"vehicle_type_id":"4","last_reported":1778783239,"current_range_meters":8000,"station_id":"ce4bgup2rcd13ifvqcn0","pricing_plan_id":"cebpf4jnsgd1na2vs0mg"},{"bike_id":"97584df1-b6f6-4d5b-a233-f0962dc7cb39","system_id":"levelo_inurba_marseille","lat":43.26024,"lon":5.37554,"is_reserved":false,"is_disabled":false,"rental_uris":{"android":"levelo://app?vid=97584df1-b6f6-4d5b-a233-f0962dc7cb39","ios":"levelo://app?vid=97584df1-b6f6-4d5b-a233-f0962dc7cb39"},"vehicle_type_id":"4","last_reported":1778783239,"current_range_meters":8000,"station_id":"ce4bhgh2rcd13ifvqfa0","pricing_plan_id":"cebpf4jnsgd1na2vs0mg"},{"bike_id":"d6adf282-33cc-4281-99d4-4a05d704eed4","system_id":"levelo_inurba_marseille","lat":43.25488,"lon":5.37645,"is_reserved":false,"is_disabled":false,"rental_uris":{"android":"levelo://app?vid=d6adf282-33cc-4281-99d4-4a05d704eed4","ios":"levelo://app?vid=d6adf282-33cc-4281-99d4-4a05d704eed4"},"vehicle_type_id":"4","last_reported":1778783239,"current_range_meters":8000,"station_id":"ce4bhh12rcd13ifvqff0","pricing_plan_id":"cebpf4jnsgd1na2vs0mg"},{"bike_id":"67c33de1-d483-4d00-89f7-aaa72dae46fe","system_id":"levelo_inurba_marseille","lat":43.29594,"lon":5.37505,"is_reserved":false,"is_disabled":false,"rental_uris":{"android":"levelo://app?vid=67c33de1-d483-4d00-89f7-aaa72dae46fe","ios":"levelo://app?vid=67c33de1-d483-4d00-89f7-aaa72dae46fe"},"vehicle_type_id":"4","last_reported":1778783239,"current_range_meters":8000,"station_id":"ce4bgh92rcd13ifvqb50","pricing_plan_id":"cebpf4jnsgd1na2vs0mg"},{"bike_id":"793614a0-4a6f-4843-b8fe-153398d9bdc0","system_id":"levelo_inurba_marseille","lat":43.26179,"lon":5.37509,"is_reserved":false,"is_disabled":false,"rental_uris":{"android":"levelo://app?vid=793614a0-4a6f-4843-b8fe-153398d9bdc0","ios":"levelo://app?vid=793614a0-4a6f-4843-b8fe-153398d9bdc0"},"vehicle_type_id":"4","last_reported":1778783239,"current_range_meters":8000,"station_id":"ce4bhgp2rcd13ifvqfc0","pricing_plan_id":"cebpf4jnsgd1na2vs0mg"},{"bike_id":"303dcdaa-2f90-4812-a93e-2ceaa2c3cdb7","system_id":"levelo_inurba_marseille","lat":43.29808,"lon":5.38091,"is_reserved":false,"is_disabled":false,"rental_uris":{"android":"levelo://app?vid=303dcdaa-2f90-4812-a93e-2ceaa2c3cdb7","ios":"levelo://app?vid=303dcdaa-2f90-4812-a93e-2ceaa2c3cdb7"},"vehicle_type_id":"4","last_reported":1778783239,"current_range_meters":8000,"station_id":"ce4bgip2rcd13ifvqbb0","pricing_plan_id":"cebpf4jnsgd1na2vs0mg"},{"bike_id":"5e360434-c987-4796-baac-a41f6d54bfe8","system_id":"levelo_inurba_marseille","lat":43.25076,"lon":5.41212,"is_reserved":false,"is_disabled":false,"rental_uris":{"android":"levelo://app?vid=5e360434-c987-4796-baac-a41f6d54bfe8","ios":"levelo://app?vid=5e360434-c987-4796-baac-a41f6d54bfe8"},"vehicle_type_id":"4","last_reported":1778783239,"current_range_meters":8000,"station_id":"","pricing_plan_id":"cebpf4jnsgd1na2vs0mg"},{"bike_id":"1daf7321-7267-490f-b510-d317a2d79da3","system_id":"levelo_inurba_marseille","lat":43.31276,"lon":5.37796,"is_reserved":false,"is_disabled":false,"rental_uris":{"android":"levelo://app?vid=1daf7321-7267-490f-b510-d317a2d79da3","ios":"levelo://app?vid=1daf7321-7267-490f-b510-d317a2d79da3"},"vehicle_type_id":"4","last_reported":1778783239,"current_range_meters":8000,"station_id":"","pricing_plan_id":"cebpf4jnsgd1na2vs0mg"},{"bike_id":"df9143cd-9819-4dcc-a78a-2100efc91ad4","system_id":"levelo_inurba_marseille","lat":43.27069,"lon":5.42279,"is_reserved":false,"is_disabled":false,"rental_uris":{"android":"levelo://app?vid=df9143cd-9819-4dcc-a78a-2100efc91ad4","ios":"levelo://app?vid=df9143cd-9819-4dcc-a78a-2100efc91ad4"},"vehicle_type_id":"4","last_reported":1778783239,"current_range_meters":8000,"station_id":"ce4bhk92rcd13ifvqgb0","pricing_plan_id":"cebpf4jnsgd1na2vs0mg"},{"bike_id":"e7365b89-771e-4889-9455-4c181aad029a","system_id":"levelo_inurba_marseille","lat":43.2587,"lon":5.39897,"is_reserved":false,"is_disabled":false,"rental_uris":{"android":"levelo://app?vid=e7365b89-771e-4889-9455-4c181aad029a","ios":"levelo://app?vid=e7365b89-771e-4889-9455-4c181aad029a"},"vehicle_type_id":"4","last_reported":1778783239,"current_range_meters":8000,"station_id":"ce4bhl92rcd13ifvqghg","pricing_plan_id":"cebpf4jnsgd1na2vs0mg"},{"bike_id":"1d02edc8-0afa-4a55-b8a7-edaae5a47512","system_id":"levelo_inurba_marseille","lat":43.28681,"lon":5.42689,"is_reserved":false,"is_disabled":false,"rental_uris":{"android":"levelo://app?vid=1d02edc8-0afa-4a55-b8a7-edaae5a47512","ios":"levelo://app?vid=1d02edc8-0afa-4a55-b8a7-edaae5a47512"},"vehicle_type_id":"4","last_reported":1778783239,"current_range_meters":8000,"station_id":"","pricing_plan_id":"cebpf4jnsgd1na2vs0mg"},{"bike_id":"06c5c633-4ada-48bf-9cae-c19b737e5652","system_id":"levelo_inurba_marseille","lat":43.29842,"lon":5.38006,"is_reserved":false,"is_disabled":false,"rental_uris":{"android":"levelo://app?vid=06c5c633-4ada-48bf-9cae-c19b737e5652","ios":"levelo://app?vid=06c5c633-4ada-48bf-9cae-c19b737e5652"},"vehicle_type_id":"4","last_reported":1778783239,"current_range_meters":8400,"station_id":"","pricing_plan_id":"cebpf4jnsgd1na2vs0mg"},{"bike_id":"22bdc30c-7938-4a52-b7db-c3d9ca0a03b4","system_id":"levelo_inurba_marseille","lat":43.29054,"lon":5.39991,"is_reserved":false,"is_disabled":false,"rental_uris":{"android":"levelo://app?vid=22bdc30c-7938-4a52-b7db-c3d9ca0a03b4","ios":"levelo://app?vid=22bdc30c-7938-4a52-b7db-c3d9ca0a03b4"},"vehicle_type_id":"4","last_reported":1778783239,"current_range_meters":8400,"station_id":"ce4bh392rcd13ifvqdm0","pricing_plan_id":"cebpf4jnsgd1na2vs0mg"},{"bike_id":"0d1caba6-30f2-4854-b6ad-c86b6635f5e6","system_id":"levelo_inurba_marseille","lat":43.27503,"lon":5.41573,"is_reserved":false,"is_disabled":false,"rental_uris":{"android":"levelo://app?vid=0d1caba6-30f2-4854-b6ad-c86b6635f5e6","ios":"levelo://app?vid=0d1caba6-30f2-4854-b6ad-c86b6635f5e6"},"vehicle_type_id":"4","last_reported":1778783239,"current_range_meters":8400,"station_id":"st_d6im8g6chgec73a5pndg","pricing_plan_id":"cebpf4jnsgd1na2vs0mg"},{"bike_id":"7510ff45-67cf-4fe1-ab5e-cd52fea4ec6c","system_id":"levelo_inurba_marseille","lat":43.2998,"lon":5.38482,"is_reserved":false,"is_disabled":false,"rental_uris":{"android":"levelo://app?vid=7510ff45-67cf-4fe1-ab5e-cd52fea4ec6c","ios":"levelo://app?vid=7510ff45-67cf-4fe1-ab5e-cd52fea4ec6c"},"vehicle_type_id":"4","last_reported":1778783239,"current_range_meters":8400,"station_id":"ce4bgj92rcd13ifvqbd0","pricing_plan_id":"cebpf4jnsgd1na2vs0mg"},{"bike_id":"dbc630f8-571b-4e41-9f51-f45344c31209","system_id":"levelo_inurba_marseille","lat":43.29294,"lon":5.3745,"is_reserved":false,"is_disabled":false,"rental_uris":{"android":"levelo://app?vid=dbc630f8-571b-4e41-9f51-f45344c31209","ios":"levelo://app?vid=dbc630f8-571b-4e41-9f51-f45344c31209"},"vehicle_type_id":"4","last_reported":1778783239,"current_range_meters":8400,"station_id":"ce4bgi12rcd13ifvqb70","pricing_plan_id":"cebpf4jnsgd1na2vs0mg"},{"bike_id":"37970aa0-f7cd-4960-a944-b5d7e25f49f5","system_id":"levelo_inurba_marseille","lat":43.28632,"lon":5.36099,"is_reserved":false,"is_disabled":false,"rental_uris":{"android":"levelo://app?vid=37970aa0-f7cd-4960-a944-b5d7e25f49f5","ios":"levelo://app?vid=37970aa0-f7cd-4960-a944-b5d7e25f49f5"},"vehicle_type_id":"4","last_reported":1778783239,"current_range_meters":8400,"station_id":"","pricing_plan_id":"cebpf4jnsgd1na2vs0mg"},{"bike_id":"78f7e847-6df2-4d4a-90a0-eed9b092b4f2","system_id":"levelo_inurba_marseille","lat":43.27978,"lon":5.38751,"is_reserved":false,"is_disabled":false,"rental_uris":{"android":"levelo://app?vid=78f7e847-6df2-4d4a-90a0-eed9b092b4f2","ios":"levelo://app?vid=78f7e847-6df2-4d4a-90a0-eed9b092b4f2"},"vehicle_type_id":"4","last_reported":1778783239,"current_range_meters":8400,"station_id":"ce4bhg12rcd13ifvqf80","pricing_plan_id":"cebpf4jnsgd1na2vs0mg"},{"bike_id":"be5ec2e3-e51c-450e-b635-2e2a7b9f299b","system_id":"levelo_inurba_marseille","lat":43.24394,"lon":5.37054,"is_reserved":false,"is_disabled":false,"rental_uris":{"android":"levelo://app?vid=be5ec2e3-e51c-450e-b635-2e2a7b9f299b","ios":"levelo://app?vid=be5ec2e3-e51c-450e-b635-2e2a7b9f299b"},"vehicle_type_id":"4","last_reported":1778783239,"current_range_meters":8400,"station_id":"ce4bhhh2rcd13ifvqfk0","pricing_plan_id":"cebpf4jnsgd1na2vs0mg"},{"bike_id":"080ccc5a-c88a-4be2-9abf-38b6efc55654","system_id":"levelo_inurba_marseille","lat":43.30553,"lon":5.36559,"is_reserved":false,"is_disabled":false,"rental_uris":{"android":"levelo://app?vid=080ccc5a-c88a-4be2-9abf-38b6efc55654","ios":"levelo://app?vid=080ccc5a-c88a-4be2-9abf-38b6efc55654"},"vehicle_type_id":"4","last_reported":1778783239,"current_range_meters":8400,"station_id":"ce4bgs12rcd13ifvqcag","pricing_plan_id":"cebpf4jnsgd1na2vs0mg"},{"bike_id":"c27cfeeb-6b99-405f-b763-0832684bb734","system_id":"levelo_inurba_marseille","lat":43.26545,"lon":5.39035,"is_reserved":false,"is_disabled":false,"rental_uris":{"android":"levelo://app?vid=c27cfeeb-6b99-405f-b763-0832684bb734","ios":"levelo://app?vid=c27cfeeb-6b99-405f-b763-0832684bb734"},"vehicle_type_id":"4","last_reported":1778783239,"current_range_meters":8400,"station_id":"ce4bhe12rcd13ifvqf30","pricing_plan_id":"cebpf4jnsgd1na2vs0mg"},{"bike_id":"ccfefa36-b865-4a36-bab6-79213f961c34","system_id":"levelo_inurba_marseille","lat":43.29582,"lon":5.38684,"is_reserved":false,"is_disabled":false,"rental_uris":{"android":"levelo://app?vid=ccfefa36-b865-4a36-bab6-79213f961c34","ios":"levelo://app?vid=ccfefa36-b865-4a36-bab6-79213f961c34"},"vehicle_type_id":"4","last_reported":1778783239,"current_range_meters":8400,"station_id":"ce4bgih2rcd13ifvqba0","pricing_plan_id":"cebpf4jnsgd1na2vs0mg"},{"bike_id":"3faa0215-ee28-4a72-bf07-b0bdbaced98a","system_id":"levelo_inurba_marseille","lat":43.27329,"lon":5.39083,"is_reserved":false,"is_disabled":false,"rental_uris":{"android":"levelo://app?vid=3faa0215-ee28-4a72-bf07-b0bdbaced98a","ios":"levelo://app?vid=3faa0215-ee28-4a72-bf07-b0bdbaced98a"},"vehicle_type_id":"4","last_reported":1778783239,"current_range_meters":8400,"station_id":"ce4bhgp2rcd13ifvqfe0","pricing_plan_id":"cebpf4jnsgd1na2vs0mg"},{"bike_id":"17a81189-c077-4085-9b8d-61cdeb02252c","system_id":"levelo_inurba_marseille","lat":43.28478,"lon":5.48407,"is_reserved":false,"is_disabled":false,"rental_uris":{"android":"levelo://app?vid=17a81189-c077-4085-9b8d-61cdeb02252c","ios":"levelo://app?vid=17a81189-c077-4085-9b8d-61cdeb02252c"},"vehicle_type_id":"4","last_reported":1778783239,"current_range_meters":8400,"station_id":"st_d3svhcjqgbts73a3dn0g","pricing_plan_id":"cebpf4jnsgd1na2vs0mg"},{"bike_id":"bdc1e4a6-6881-445e-add5-bdbe16bdea85","system_id":"levelo_inurba_marseille","lat":43.30544,"lon":5.36533,"is_reserved":false,"is_disabled":false,"rental_uris":{"android":"levelo://app?vid=bdc1e4a6-6881-445e-add5-bdbe16bdea85","ios":"levelo://app?vid=bdc1e4a6-6881-445e-add5-bdbe16bdea85"},"vehicle_type_id":"4","last_reported":1778783239,"current_range_meters":8400,"station_id":"ce4bgs12rcd13ifvqcag","pricing_plan_id":"cebpf4jnsgd1na2vs0mg"},{"bike_id":"f787ed63-1f03-4ce4-9c4b-a322a210c198","system_id":"levelo_inurba_marseille","lat":43.27203,"lon":5.39186,"is_reserved":false,"is_disabled":false,"rental_uris":{"android":"levelo://app?vid=f787ed63-1f03-4ce4-9c4b-a322a210c198","ios":"levelo://app?vid=f787ed63-1f03-4ce4-9c4b-a322a210c198"},"vehicle_type_id":"4","last_reported":1778783239,"current_range_meters":8400,"station_id":"ce4bhhp2rcd13ifvqfm0","pricing_plan_id":"cebpf4jnsgd1na2vs0mg"},{"bike_id":"94170a3d-45a8-4c4c-a4be-0da487b88390","system_id":"levelo_inurba_marseille","lat":43.31033,"lon":5.37164,"is_reserved":false,"is_disabled":false,"rental_uris":{"android":"levelo://app?vid=94170a3d-45a8-4c4c-a4be-0da487b88390","ios":"levelo://app?vid=94170a3d-45a8-4c4c-a4be-0da487b88390"},"vehicle_type_id":"4","last_reported":1778783239,"current_range_meters":8400,"station_id":"st_d4kl2rp97mjs73e7tdfg","pricing_plan_id":"cebpf4jnsgd1na2vs0mg"},{"bike_id":"f0fddcf7-5d98-4d8a-9bda-e27dac14a45c","system_id":"levelo_inurba_marseille","lat":43.33484,"lon":5.37487,"is_reserved":false,"is_disabled":false,"rental_uris":{"android":"levelo://app?vid=f0fddcf7-5d98-4d8a-9bda-e27dac14a45c","ios":"levelo://app?vid=f0fddcf7-5d98-4d8a-9bda-e27dac14a45c"},"vehicle_type_id":"4","last_reported":1778783239,"current_range_meters":8400,"station_id":"st_d46tts09ee8s73dlu43g","pricing_plan_id":"cebpf4jnsgd1na2vs0mg"},{"bike_id":"7ffc04e0-4fac-483e-baeb-6c3bd73155be","system_id":"levelo_inurba_marseille","lat":43.30148,"lon":5.38091,"is_reserved":false,"is_disabled":false,"rental_uris":{"android":"levelo://app?vid=7ffc04e0-4fac-483e-baeb-6c3bd73155be","ios":"levelo://app?vid=7ffc04e0-4fac-483e-baeb-6c3bd73155be"},"vehicle_type_id":"4","last_reported":1778783239,"current_range_meters":8400,"station_id":"ce4bgjp2rcd13ifvqbh0","pricing_plan_id":"cebpf4jnsgd1na2vs0mg"},{"bike_id":"52aa5820-35e5-4a94-b6f2-0aa234a1dbc0","system_id":"levelo_inurba_marseille","lat":43.29308,"lon":5.37444,"is_reserved":false,"is_disabled":false,"rental_uris":{"android":"levelo://app?vid=52aa5820-35e5-4a94-b6f2-0aa234a1dbc0","ios":"levelo://app?vid=52aa5820-35e5-4a94-b6f2-0aa234a1dbc0"},"vehicle_type_id":"4","last_reported":1778783239,"current_range_meters":8400,"station_id":"ce4bgi12rcd13ifvqb70","pricing_plan_id":"cebpf4jnsgd1na2vs0mg"},{"bike_id":"f411166a-aaa1-4194-850b-c4523f467ba0","system_id":"levelo_inurba_marseille","lat":43.30652,"lon":5.40075,"is_reserved":false,"is_disabled":false,"rental_uris":{"android":"levelo://app?vid=f411166a-aaa1-4194-850b-c4523f467ba0","ios":"levelo://app?vid=f411166a-aaa1-4194-850b-c4523f467ba0"},"vehicle_type_id":"4","last_reported":1778783239,"current_range_meters":8400,"station_id":"ce4bh112rcd13ifvqda0","pricing_plan_id":"cebpf4jnsgd1na2vs0mg"},{"bike_id":"6171fa24-5cbb-4dd4-8a11-21768112000d","system_id":"levelo_inurba_marseille","lat":43.28525,"lon":5.44084,"is_reserved":false,"is_disabled":false,"rental_uris":{"android":"levelo://app?vid=6171fa24-5cbb-4dd4-8a11-21768112000d","ios":"levelo://app?vid=6171fa24-5cbb-4dd4-8a11-21768112000d"},"vehicle_type_id":"4","last_reported":1778783239,"current_range_meters":8400,"station_id":"st_d3j3df2ikq2c7380ej80","pricing_plan_id":"cebpf4jnsgd1na2vs0mg"},{"bike_id":"95a2fae1-c05a-4dc6-ae51-de7c541bfe35","system_id":"levelo_inurba_marseille","lat":43.2535,"lon":5.42183,"is_reserved":false,"is_disabled":false,"rental_uris":{"android":"levelo://app?vid=95a2fae1-c05a-4dc6-ae51-de7c541bfe35","ios":"levelo://app?vid=95a2fae1-c05a-4dc6-ae51-de7c541bfe35"},"vehicle_type_id":"4","last_reported":1778783239,"current_range_meters":8400,"station_id":"st_d2m65c5bi1j21697t3ng","pricing_plan_id":"cebpf4jnsgd1na2vs0mg"},{"bike_id":"005586a9-04ed-47cd-8232-60330130c130","system_id":"levelo_inurba_marseille","lat":43.295261,"lon":5.390665,"is_reserved":false,"is_disabled":false,"rental_uris":{"android":"levelo://app?vid=005586a9-04ed-47cd-8232-60330130c130","ios":"levelo://app?vid=005586a9-04ed-47cd-8232-60330130c130"},"vehicle_type_id":"4","last_reported":1778783239,"current_range_meters":8400,"station_id":"ce4bh3p2rcd13ifvqdp0","pricing_plan_id":"cebpf4jnsgd1na2vs0mg"},{"bike_id":"60d50934-d309-4b32-85dd-5a969a030fa9","system_id":"levelo_inurba_marseille","lat":43.29885,"lon":5.38898,"is_reserved":false,"is_disabled":false,"rental_uris":{"android":"levelo://app?vid=60d50934-d309-4b32-85dd-5a969a030fa9","ios":"levelo://app?vid=60d50934-d309-4b32-85dd-5a969a030fa9"},"vehicle_type_id":"4","last_reported":1778783239,"current_range_meters":8400,"station_id":"ce4bh392rcd13ifvqdl0","pricing_plan_id":"cebpf4jnsgd1na2vs0mg"},{"bike_id":"fd926cd8-f3e7-4ea0-9811-e5d39a863ccd","system_id":"levelo_inurba_marseille","lat":43.29055,"lon":5.40092,"is_reserved":false,"is_disabled":true,"rental_uris":{"android":"levelo://app?vid=fd926cd8-f3e7-4ea0-9811-e5d39a863ccd","ios":"levelo://app?vid=fd926cd8-f3e7-4ea0-9811-e5d39a863ccd"},"vehicle_type_id":"4","last_reported":1778783239,"current_range_meters":8400,"station_id":"","pricing_plan_id":"cebpf4jnsgd1na2vs0mg"},{"bike_id":"65f085c3-c6c4-4292-8e70-a68d3c5728d7","system_id":"levelo_inurba_marseille","lat":43.240723,"lon":5.377606,"is_reserved":false,"is_disabled":false,"rental_uris":{"android":"levelo://app?vid=65f085c3-c6c4-4292-8e70-a68d3c5728d7","ios":"levelo://app?vid=65f085c3-c6c4-4292-8e70-a68d3c5728d7"},"vehicle_type_id":"4","last_reported":1778783239,"current_range_meters":8400,"station_id":"ce4bhnp2rcd13ifvqgvg","pricing_plan_id":"cebpf4jnsgd1na2vs0mg"},{"bike_id":"a749aa3e-52e5-43f2-aef2-449bb7bb45e8","system_id":"levelo_inurba_marseille","lat":43.31232,"lon":5.38475,"is_reserved":false,"is_disabled":false,"rental_uris":{"android":"levelo://app?vid=a749aa3e-52e5-43f2-aef2-449bb7bb45e8","ios":"levelo://app?vid=a749aa3e-52e5-43f2-aef2-449bb7bb45e8"},"vehicle_type_id":"4","last_reported":1778783239,"current_range_meters":8800,"station_id":"","pricing_plan_id":"cebpf4jnsgd1na2vs0mg"},{"bike_id":"a66433d4-467a-4331-947f-0bbe64c40c68","system_id":"levelo_inurba_marseille","lat":43.29003,"lon":5.35611,"is_reserved":false,"is_disabled":false,"rental_uris":{"android":"levelo://app?vid=a66433d4-467a-4331-947f-0bbe64c40c68","ios":"levelo://app?vid=a66433d4-467a-4331-947f-0bbe64c40c68"},"vehicle_type_id":"4","last_reported":1778783239,"current_range_meters":8800,"station_id":"ce4bhb92rcd13ifvqen0","pricing_plan_id":"cebpf4jnsgd1na2vs0mg"},{"bike_id":"49ac9ab0-63ad-464e-834f-718b6f150b38","system_id":"levelo_inurba_marseille","lat":43.25646,"lon":5.38518,"is_reserved":false,"is_disabled":false,"rental_uris":{"android":"levelo://app?vid=49ac9ab0-63ad-464e-834f-718b6f150b38","ios":"levelo://app?vid=49ac9ab0-63ad-464e-834f-718b6f150b38"},"vehicle_type_id":"4","last_reported":1778783239,"current_range_meters":8800,"station_id":"","pricing_plan_id":"cebpf4jnsgd1na2vs0mg"},{"bike_id":"e75ea773-5ccf-462b-8985-665d9c64622e","system_id":"levelo_inurba_marseille","lat":43.29526,"lon":5.37537,"is_reserved":false,"is_disabled":false,"rental_uris":{"android":"levelo://app?vid=e75ea773-5ccf-462b-8985-665d9c64622e","ios":"levelo://app?vid=e75ea773-5ccf-462b-8985-665d9c64622e"},"vehicle_type_id":"4","last_reported":1778783239,"current_range_meters":8800,"station_id":"ce4bgkp2rcd13ifvqbmg","pricing_plan_id":"cebpf4jnsgd1na2vs0mg"},{"bike_id":"0264d785-e3e3-4548-8143-3a77f9230f01","system_id":"levelo_inurba_marseille","lat":43.26055,"lon":5.39394,"is_reserved":false,"is_disabled":false,"rental_uris":{"android":"levelo://app?vid=0264d785-e3e3-4548-8143-3a77f9230f01","ios":"levelo://app?vid=0264d785-e3e3-4548-8143-3a77f9230f01"},"vehicle_type_id":"4","last_reported":1778783239,"current_range_meters":8800,"station_id":"ce4bhh92rcd13ifvqfj0","pricing_plan_id":"cebpf4jnsgd1na2vs0mg"},{"bike_id":"bad213e1-775c-4526-9199-e07ee68bfd65","system_id":"levelo_inurba_marseille","lat":43.29217,"lon":5.36018,"is_reserved":false,"is_disabled":false,"rental_uris":{"android":"levelo://app?vid=bad213e1-775c-4526-9199-e07ee68bfd65","ios":"levelo://app?vid=bad213e1-775c-4526-9199-e07ee68bfd65"},"vehicle_type_id":"4","last_reported":1778783239,"current_range_meters":8800,"station_id":"ce4bhbh2rcd13ifvqeqg","pricing_plan_id":"cebpf4jnsgd1na2vs0mg"},{"bike_id":"199aff18-7bf3-4b5f-a786-739bc9a3c6ac","system_id":"levelo_inurba_marseille","lat":43.26224,"lon":5.38763,"is_reserved":false,"is_disabled":false,"rental_uris":{"android":"levelo://app?vid=199aff18-7bf3-4b5f-a786-739bc9a3c6ac","ios":"levelo://app?vid=199aff18-7bf3-4b5f-a786-739bc9a3c6ac"},"vehicle_type_id":"4","last_reported":1778783239,"current_range_meters":8800,"station_id":"","pricing_plan_id":"cebpf4jnsgd1na2vs0mg"},{"bike_id":"0d637d0d-5212-419a-b7d8-b124648d3455","system_id":"levelo_inurba_marseille","lat":43.27912,"lon":5.39575,"is_reserved":false,"is_disabled":false,"rental_uris":{"android":"levelo://app?vid=0d637d0d-5212-419a-b7d8-b124648d3455","ios":"levelo://app?vid=0d637d0d-5212-419a-b7d8-b124648d3455"},"vehicle_type_id":"4","last_reported":1778783239,"current_range_meters":8800,"station_id":"ce4bhf92rcd13ifvqf40","pricing_plan_id":"cebpf4jnsgd1na2vs0mg"},{"bike_id":"b35b42df-1e5c-4e3c-be7f-d5351e008fb3","system_id":"levelo_inurba_marseille","lat":43.33544,"lon":5.3747,"is_reserved":false,"is_disabled":false,"rental_uris":{"android":"levelo://app?vid=b35b42df-1e5c-4e3c-be7f-d5351e008fb3","ios":"levelo://app?vid=b35b42df-1e5c-4e3c-be7f-d5351e008fb3"},"vehicle_type_id":"4","last_reported":1778783239,"current_range_meters":8800,"station_id":"st_d46tts09ee8s73dlu43g","pricing_plan_id":"cebpf4jnsgd1na2vs0mg"},{"bike_id":"c06fc706-b5df-47ea-8b65-7733d0546627","system_id":"levelo_inurba_marseille","lat":43.284109,"lon":5.349851,"is_reserved":false,"is_disabled":false,"rental_uris":{"android":"levelo://app?vid=c06fc706-b5df-47ea-8b65-7733d0546627","ios":"levelo://app?vid=c06fc706-b5df-47ea-8b65-7733d0546627"},"vehicle_type_id":"4","last_reported":1778783239,"current_range_meters":8800,"station_id":"ce4bhbh2rcd13ifvqepg","pricing_plan_id":"cebpf4jnsgd1na2vs0mg"},{"bike_id":"1e7a8520-155a-48db-867b-585057a73233","system_id":"levelo_inurba_marseille","lat":43.30178,"lon":5.38036,"is_reserved":false,"is_disabled":false,"rental_uris":{"android":"levelo://app?vid=1e7a8520-155a-48db-867b-585057a73233","ios":"levelo://app?vid=1e7a8520-155a-48db-867b-585057a73233"},"vehicle_type_id":"4","last_reported":1778783239,"current_range_meters":8800,"station_id":"","pricing_plan_id":"cebpf4jnsgd1na2vs0mg"},{"bike_id":"c3f467cc-d915-4946-88b3-c3f9194ed3b1","system_id":"levelo_inurba_marseille","lat":43.22559,"lon":5.4163,"is_reserved":false,"is_disabled":false,"rental_uris":{"android":"levelo://app?vid=c3f467cc-d915-4946-88b3-c3f9194ed3b1","ios":"levelo://app?vid=c3f467cc-d915-4946-88b3-c3f9194ed3b1"},"vehicle_type_id":"4","last_reported":1778783239,"current_range_meters":8800,"station_id":"st_d2o4gvlbi1j2169b742g","pricing_plan_id":"cebpf4jnsgd1na2vs0mg"},{"bike_id":"3f14f179-5931-49ed-b573-69feb29b515e","system_id":"levelo_inurba_marseille","lat":43.27368,"lon":5.36244,"is_reserved":false,"is_disabled":false,"rental_uris":{"android":"levelo://app?vid=3f14f179-5931-49ed-b573-69feb29b515e","ios":"levelo://app?vid=3f14f179-5931-49ed-b573-69feb29b515e"},"vehicle_type_id":"4","last_reported":1778783239,"current_range_meters":8800,"station_id":"ce4bhbh2rcd13ifvqeo0","pricing_plan_id":"cebpf4jnsgd1na2vs0mg"},{"bike_id":"a8b55d6f-977b-4cfa-a9dc-bbb3b59e05ad","system_id":"levelo_inurba_marseille","lat":43.27938,"lon":5.38468,"is_reserved":false,"is_disabled":false,"rental_uris":{"android":"levelo://app?vid=a8b55d6f-977b-4cfa-a9dc-bbb3b59e05ad","ios":"levelo://app?vid=a8b55d6f-977b-4cfa-a9dc-bbb3b59e05ad"},"vehicle_type_id":"4","last_reported":1778783239,"current_range_meters":8800,"station_id":"","pricing_plan_id":"cebpf4jnsgd1na2vs0mg"},{"bike_id":"8d3f65dc-a597-45d1-befb-23bb7d8f49f5","system_id":"levelo_inurba_marseille","lat":43.31349,"lon":5.38485,"is_reserved":false,"is_disabled":false,"rental_uris":{"android":"levelo://app?vid=8d3f65dc-a597-45d1-befb-23bb7d8f49f5","ios":"levelo://app?vid=8d3f65dc-a597-45d1-befb-23bb7d8f49f5"},"vehicle_type_id":"4","last_reported":1778783239,"current_range_meters":8800,"station_id":"ce4bgt92rcd13ifvqcf0","pricing_plan_id":"cebpf4jnsgd1na2vs0mg"},{"bike_id":"443e8d2c-b047-4aab-ac43-8013af5a22fe","system_id":"levelo_inurba_marseille","lat":43.2987,"lon":5.38911,"is_reserved":false,"is_disabled":false,"rental_uris":{"android":"levelo://app?vid=443e8d2c-b047-4aab-ac43-8013af5a22fe","ios":"levelo://app?vid=443e8d2c-b047-4aab-ac43-8013af5a22fe"},"vehicle_type_id":"4","last_reported":1778783239,"current_range_meters":8800,"station_id":"ce4bh392rcd13ifvqdl0","pricing_plan_id":"cebpf4jnsgd1na2vs0mg"},{"bike_id":"eb3b9e20-096a-4a09-a656-b99e31bc43ef","system_id":"levelo_inurba_marseille","lat":43.31373,"lon":5.38505,"is_reserved":false,"is_disabled":false,"rental_uris":{"android":"levelo://app?vid=eb3b9e20-096a-4a09-a656-b99e31bc43ef","ios":"levelo://app?vid=eb3b9e20-096a-4a09-a656-b99e31bc43ef"},"vehicle_type_id":"4","last_reported":1778783239,"current_range_meters":8800,"station_id":"ce4bgt92rcd13ifvqcf0","pricing_plan_id":"cebpf4jnsgd1na2vs0mg"},{"bike_id":"4b116638-67d5-4baf-a145-594506b96acb","system_id":"levelo_inurba_marseille","lat":43.28701,"lon":5.46682,"is_reserved":false,"is_disabled":false,"rental_uris":{"android":"levelo://app?vid=4b116638-67d5-4baf-a145-594506b96acb","ios":"levelo://app?vid=4b116638-67d5-4baf-a145-594506b96acb"},"vehicle_type_id":"4","last_reported":1778783239,"current_range_meters":8800,"station_id":"st_d6tc3vkotcvc738tfjhg","pricing_plan_id":"cebpf4jnsgd1na2vs0mg"},{"bike_id":"c8ad20d5-9b09-4e78-8ea2-ae4d61e8e6fe","system_id":"levelo_inurba_marseille","lat":43.30477,"lon":5.3791,"is_reserved":false,"is_disabled":false,"rental_uris":{"android":"levelo://app?vid=c8ad20d5-9b09-4e78-8ea2-ae4d61e8e6fe","ios":"levelo://app?vid=c8ad20d5-9b09-4e78-8ea2-ae4d61e8e6fe"},"vehicle_type_id":"4","last_reported":1778783239,"current_range_meters":8800,"station_id":"ce4bgup2rcd13ifvqcn0","pricing_plan_id":"cebpf4jnsgd1na2vs0mg"},{"bike_id":"111390c2-b711-460b-8437-bd49adb3615f","system_id":"levelo_inurba_marseille","lat":43.26558,"lon":5.39017,"is_reserved":false,"is_disabled":false,"rental_uris":{"android":"levelo://app?vid=111390c2-b711-460b-8437-bd49adb3615f","ios":"levelo://app?vid=111390c2-b711-460b-8437-bd49adb3615f"},"vehicle_type_id":"4","last_reported":1778783239,"current_range_meters":8800,"station_id":"ce4bhe12rcd13ifvqf30","pricing_plan_id":"cebpf4jnsgd1na2vs0mg"},{"bike_id":"ca3ff5ba-beb0-4730-ae3b-017407a047db","system_id":"levelo_inurba_marseille","lat":43.26378,"lon":5.40304,"is_reserved":false,"is_disabled":false,"rental_uris":{"android":"levelo://app?vid=ca3ff5ba-beb0-4730-ae3b-017407a047db","ios":"levelo://app?vid=ca3ff5ba-beb0-4730-ae3b-017407a047db"},"vehicle_type_id":"4","last_reported":1778783239,"current_range_meters":8800,"station_id":"","pricing_plan_id":"cebpf4jnsgd1na2vs0mg"},{"bike_id":"1b0e18cc-ca28-403c-a272-2afcd9b6100d","system_id":"levelo_inurba_marseille","lat":43.29941,"lon":5.38694,"is_reserved":false,"is_disabled":false,"rental_uris":{"android":"levelo://app?vid=1b0e18cc-ca28-403c-a272-2afcd9b6100d","ios":"levelo://app?vid=1b0e18cc-ca28-403c-a272-2afcd9b6100d"},"vehicle_type_id":"4","last_reported":1778783239,"current_range_meters":8800,"station_id":"","pricing_plan_id":"cebpf4jnsgd1na2vs0mg"},{"bike_id":"05ddadef-3851-47f0-b783-87a6ef77449e","system_id":"levelo_inurba_marseille","lat":43.29565,"lon":5.37502,"is_reserved":false,"is_disabled":false,"rental_uris":{"android":"levelo://app?vid=05ddadef-3851-47f0-b783-87a6ef77449e","ios":"levelo://app?vid=05ddadef-3851-47f0-b783-87a6ef77449e"},"vehicle_type_id":"4","last_reported":1778783239,"current_range_meters":8800,"station_id":"ce4bgh92rcd13ifvqb50","pricing_plan_id":"cebpf4jnsgd1na2vs0mg"},{"bike_id":"76d54235-f674-4c31-a555-6326d178a22e","system_id":"levelo_inurba_marseille","lat":43.28405,"lon":5.34988,"is_reserved":false,"is_disabled":false,"rental_uris":{"android":"levelo://app?vid=76d54235-f674-4c31-a555-6326d178a22e","ios":"levelo://app?vid=76d54235-f674-4c31-a555-6326d178a22e"},"vehicle_type_id":"4","last_reported":1778783239,"current_range_meters":8800,"station_id":"ce4bhbh2rcd13ifvqepg","pricing_plan_id":"cebpf4jnsgd1na2vs0mg"},{"bike_id":"d56229f8-1b77-40a0-a84e-d677ef1ce5ba","system_id":"levelo_inurba_marseille","lat":43.29975,"lon":5.3717,"is_reserved":false,"is_disabled":false,"rental_uris":{"android":"levelo://app?vid=d56229f8-1b77-40a0-a84e-d677ef1ce5ba","ios":"levelo://app?vid=d56229f8-1b77-40a0-a84e-d677ef1ce5ba"},"vehicle_type_id":"4","last_reported":1778783239,"current_range_meters":8800,"station_id":"ce4bgr92rcd13ifvqc7g","pricing_plan_id":"cebpf4jnsgd1na2vs0mg"},{"bike_id":"3fea393f-4614-4d0f-8e48-e47a9cee848b","system_id":"levelo_inurba_marseille","lat":43.28449,"lon":5.3842,"is_reserved":false,"is_disabled":false,"rental_uris":{"android":"levelo://app?vid=3fea393f-4614-4d0f-8e48-e47a9cee848b","ios":"levelo://app?vid=3fea393f-4614-4d0f-8e48-e47a9cee848b"},"vehicle_type_id":"4","last_reported":1778783239,"current_range_meters":8800,"station_id":"ce4bh512rcd13ifvqe3g","pricing_plan_id":"cebpf4jnsgd1na2vs0mg"},{"bike_id":"0df9fbae-3ec9-4cc5-a2e1-3a27f2b6f14b","system_id":"levelo_inurba_marseille","lat":43.28696,"lon":5.4668,"is_reserved":false,"is_disabled":false,"rental_uris":{"android":"levelo://app?vid=0df9fbae-3ec9-4cc5-a2e1-3a27f2b6f14b","ios":"levelo://app?vid=0df9fbae-3ec9-4cc5-a2e1-3a27f2b6f14b"},"vehicle_type_id":"4","last_reported":1778783239,"current_range_meters":8800,"station_id":"st_d6tc3vkotcvc738tfjhg","pricing_plan_id":"cebpf4jnsgd1na2vs0mg"},{"bike_id":"99504aac-1fb1-42be-9031-13a3385d54c7","system_id":"levelo_inurba_marseille","lat":43.26537,"lon":5.39054,"is_reserved":false,"is_disabled":false,"rental_uris":{"android":"levelo://app?vid=99504aac-1fb1-42be-9031-13a3385d54c7","ios":"levelo://app?vid=99504aac-1fb1-42be-9031-13a3385d54c7"},"vehicle_type_id":"4","last_reported":1778783239,"current_range_meters":8800,"station_id":"ce4bhe12rcd13ifvqf30","pricing_plan_id":"cebpf4jnsgd1na2vs0mg"},{"bike_id":"a511cc4f-c5a8-47ce-afd7-bd12f1d73f77","system_id":"levelo_inurba_marseille","lat":43.29547,"lon":5.38523,"is_reserved":false,"is_disabled":false,"rental_uris":{"android":"levelo://app?vid=a511cc4f-c5a8-47ce-afd7-bd12f1d73f77","ios":"levelo://app?vid=a511cc4f-c5a8-47ce-afd7-bd12f1d73f77"},"vehicle_type_id":"4","last_reported":1778783239,"current_range_meters":9200,"station_id":"ce4bgih2rcd13ifvqba0","pricing_plan_id":"cebpf4jnsgd1na2vs0mg"},{"bike_id":"3559bf05-342f-4394-a9ce-27e73e2cf224","system_id":"levelo_inurba_marseille","lat":43.30292,"lon":5.39216,"is_reserved":false,"is_disabled":false,"rental_uris":{"android":"levelo://app?vid=3559bf05-342f-4394-a9ce-27e73e2cf224","ios":"levelo://app?vid=3559bf05-342f-4394-a9ce-27e73e2cf224"},"vehicle_type_id":"4","last_reported":1778783239,"current_range_meters":9200,"station_id":"ce4bgkh2rcd13ifvqbk0","pricing_plan_id":"cebpf4jnsgd1na2vs0mg"},{"bike_id":"7420d6b7-cb9f-4f8d-bf69-df3d319a8e38","system_id":"levelo_inurba_marseille","lat":43.29523,"lon":5.39041,"is_reserved":false,"is_disabled":false,"rental_uris":{"android":"levelo://app?vid=7420d6b7-cb9f-4f8d-bf69-df3d319a8e38","ios":"levelo://app?vid=7420d6b7-cb9f-4f8d-bf69-df3d319a8e38"},"vehicle_type_id":"4","last_reported":1778783239,"current_range_meters":9200,"station_id":"ce4bh3p2rcd13ifvqdp0","pricing_plan_id":"cebpf4jnsgd1na2vs0mg"},{"bike_id":"6a7f7f25-1cbc-40d6-8f51-4894f22e6712","system_id":"levelo_inurba_marseille","lat":43.29799,"lon":5.40393,"is_reserved":false,"is_disabled":false,"rental_uris":{"android":"levelo://app?vid=6a7f7f25-1cbc-40d6-8f51-4894f22e6712","ios":"levelo://app?vid=6a7f7f25-1cbc-40d6-8f51-4894f22e6712"},"vehicle_type_id":"4","last_reported":1778783239,"current_range_meters":9200,"station_id":"ce4bh112rcd13ifvqd90","pricing_plan_id":"cebpf4jnsgd1na2vs0mg"},{"bike_id":"dd3e89dd-3526-4e00-b99f-e1d4210bd311","system_id":"levelo_inurba_marseille","lat":43.29222,"lon":5.36076,"is_reserved":false,"is_disabled":false,"rental_uris":{"android":"levelo://app?vid=dd3e89dd-3526-4e00-b99f-e1d4210bd311","ios":"levelo://app?vid=dd3e89dd-3526-4e00-b99f-e1d4210bd311"},"vehicle_type_id":"4","last_reported":1778783239,"current_range_meters":9200,"station_id":"ce4bhbh2rcd13ifvqeqg","pricing_plan_id":"cebpf4jnsgd1na2vs0mg"},{"bike_id":"c56af03d-3797-4ee3-a318-919027a80687","system_id":"levelo_inurba_marseille","lat":43.28852,"lon":5.39312,"is_reserved":false,"is_disabled":false,"rental_uris":{"android":"levelo://app?vid=c56af03d-3797-4ee3-a318-919027a80687","ios":"levelo://app?vid=c56af03d-3797-4ee3-a318-919027a80687"},"vehicle_type_id":"4","last_reported":1778783239,"current_range_meters":9200,"station_id":"ce4bh2p2rcd13ifvqdi0","pricing_plan_id":"cebpf4jnsgd1na2vs0mg"},{"bike_id":"85639c82-0d83-4e20-bcc1-db06e70bef4f","system_id":"levelo_inurba_marseille","lat":43.30914,"lon":5.36835,"is_reserved":false,"is_disabled":false,"rental_uris":{"android":"levelo://app?vid=85639c82-0d83-4e20-bcc1-db06e70bef4f","ios":"levelo://app?vid=85639c82-0d83-4e20-bcc1-db06e70bef4f"},"vehicle_type_id":"4","last_reported":1778783239,"current_range_meters":9200,"station_id":"ce4bgn92rcd13ifvqbvg","pricing_plan_id":"cebpf4jnsgd1na2vs0mg"},{"bike_id":"e205ee23-b3d6-4354-9338-555181d8a820","system_id":"levelo_inurba_marseille","lat":43.27932,"lon":5.39555,"is_reserved":false,"is_disabled":false,"rental_uris":{"android":"levelo://app?vid=e205ee23-b3d6-4354-9338-555181d8a820","ios":"levelo://app?vid=e205ee23-b3d6-4354-9338-555181d8a820"},"vehicle_type_id":"4","last_reported":1778783239,"current_range_meters":9200,"station_id":"ce4bhf92rcd13ifvqf40","pricing_plan_id":"cebpf4jnsgd1na2vs0mg"},{"bike_id":"a76be67c-ed20-4003-9861-97e7c513a0d1","system_id":"levelo_inurba_marseille","lat":43.29852,"lon":5.36286,"is_reserved":false,"is_disabled":false,"rental_uris":{"android":"levelo://app?vid=a76be67c-ed20-4003-9861-97e7c513a0d1","ios":"levelo://app?vid=a76be67c-ed20-4003-9861-97e7c513a0d1"},