{"last_updated":1758025200,"ttl":60,"version":"2.2","data":{"bikes":[{"bike_id":"d2c2f1d0-8b01-4e08-9dff-706d88363fef","system_id":"levelo_inurba_marseille","lat":43.29048,"lon":5.37609,"is_reserved":false,"is_disabled":false,"rental_uris":{"android":"levelo://app?vid=d2c2f1d0-8b01-4e08-9dff-706d88363fef","ios":"levelo://app?vid=d2c2f1d0-8b01-4e08-9dff-706d88363fef"},"vehicle_type_id":"4","last_reported":1758025200,"current_range_meters":2800,"station_id":"ce4bh692rcd13ifvqe90","pricing_plan_id":"cebpf4jnsgd1na2vs0mg"},{"bike_id":"92328f20-9c61-4621-aefd-c280af7d31a0","system_id":"levelo_inurba_marseille","lat":43.28854,"lon":5.4252,"is_reserved":false,"is_disabled":false,"rental_uris":{"android":"levelo://app?vid=92328f20-9c61-4621-aefd-c280af7d31a0","ios":"levelo://app?vid=92328f20-9c61-4621-aefd-c280af7d31a0"},"vehicle_type_id":"4","last_reported":1758025200,"current_range_meters":2800,"station_id":"","pricing_plan_id":"cebpf4jnsgd1na2vs0mg"},{"bike_id":"67d20d46-2608-47e3-99ff-a1874144ae46","system_id":"levelo_inurba_marseille","lat":43.30243,"lon":5.40073,"is_reserved":false,"is_disabled":false,"rental_uris":{"android":"levelo://app?vid=67d20d46-2608-47e3-99ff-a1874144ae46","ios":"levelo://app?vid=67d20d46-2608-47e3-99ff-a1874144ae46"},"vehicle_type_id":"4","last_reported":1758025200,"current_range_meters":2800,"station_id":"ce4bgvh2rcd13ifvqcs0","pricing_plan_id":"cebpf4jnsgd1na2vs0mg"},{"bike_id":"03809294-3a3e-4efa-afda-0ac11dcf72fc","system_id":"levelo_inurba_marseille","lat":43.33736,"lon":5.3745,"is_reserved":false,"is_disabled":false,"rental_uris":{"android":"levelo://app?vid=03809294-3a3e-4efa-afda-0ac11dcf72fc","ios":"levelo://app?vid=03809294-3a3e-4efa-afda-0ac11dcf72fc"},"vehicle_type_id":"4","last_reported":1758025200,"current_range_meters":2800,"station_id":"","pricing_plan_id":"cebpf4jnsgd1na2vs0mg"},{"bike_id":"d765e876-dc94-417e-ad8c-0ac49bf5261a","system_id":"levelo_inurba_marseille","lat":43.33211,"lon":5.36309,"is_reserved":false,"is_disabled":false,"rental_uris":{"android":"levelo://app?vid=d765e876-dc94-417e-ad8c-0ac49bf5261a","ios":"levelo://app?vid=d765e876-dc94-417e-ad8c-0ac49bf5261a"},"vehicle_type_id":"4","last_reported":1758025200,"current_range_meters":3200,"station_id":"","pricing_plan_id":"cebpf4jnsgd1na2vs0mg"},{"bike_id":"4f9bd625-ea72-423e-9234-f59f397dfa3c","system_id":"levelo_inurba_marseille","lat":43.2119,"lon":5.35094,"is_reserved":false,"is_disabled":false,"rental_uris":{"android":"levelo://app?vid=4f9bd625-ea72-423e-9234-f59f397dfa3c","ios":"levelo://app?vid=4f9bd625-ea72-423e-9234-f59f397dfa3c"},"vehicle_type_id":"4","last_reported":1758025200,"current_range_meters":3200,"station_id":"st_cvj6sg6p6f1abm77japg","pricing_plan_id":"cebpf4jnsgd1na2vs0mg"},{"bike_id":"c37933c6-f301-4e72-ae28-b86236887c46","system_id":"levelo_inurba_marseille","lat":43.225329,"lon":5.348362,"is_reserved":false,"is_disabled":false,"rental_uris":{"android":"levelo://app?vid=c37933c6-f301-4e72-ae28-b86236887c46","ios":"levelo://app?vid=c37933c6-f301-4e72-ae28-b86236887c46"},"vehicle_type_id":"4","last_reported":1758025200,"current_range_meters":3600,"station_id":"","pricing_plan_id":"cebpf4jnsgd1na2vs0mg"},{"bike_id":"4ec115f7-70e2-44a0-950b-cc56db458600","system_id":"levelo_inurba_marseille","lat":43.21751,"lon":5.34611,"is_reserved":false,"is_disabled":true,"rental_uris":{"android":"levelo://app?vid=4ec115f7-70e2-44a0-950b-cc56db458600","ios":"levelo://app?vid=4ec115f7-70e2-44a0-950b-cc56db458600"},"vehicle_type_id":"4","last_reported":1758025200,"current_range_meters":3600,"station_id":"st_cvj6r9ubvosntc0bgbag","pricing_plan_id":"cebpf4jnsgd1na2vs0mg"},{"bike_id":"6b5b3c8e-1efc-443e-8d65-f1b5bb18a3da","system_id":"levelo_inurba_marseille","lat":43.26868,"lon":5.39575,"is_reserved":false,"is_disabled":false,"rental_uris":{"android":"levelo://app?vid=6b5b3c8e-1efc-443e-8d65-f1b5bb18a3da","ios":"levelo://app?vid=6b5b3c8e-1efc-443e-8d65-f1b5bb18a3da"},"vehicle_type_id":"4","last_reported":1758025200,"current_range_meters":3600,"station_id":"","pricing_plan_id":"cebpf4jnsgd1na2vs0mg"},{"bike_id":"81c72061-e3e0-4841-9238-b49556c90cf1","system_id":"levelo_inurba_marseille","lat":43.30452,"lon":5.37918,"is_reserved":false,"is_disabled":false,"rental_uris":{"android":"levelo://app?vid=81c72061-e3e0-4841-9238-b49556c90cf1","ios":"levelo://app?vid=81c72061-e3e0-4841-9238-b49556c90cf1"},"vehicle_type_id":"4","last_reported":1758025200,"current_range_meters":3600,"station_id":"ce4bgup2rcd13ifvqcn0","pricing_plan_id":"cebpf4jnsgd1na2vs0mg"},{"bike_id":"ecceb88a-091e-45ef-8e4f-6f443b492a75","system_id":"levelo_inurba_marseille","lat":43.28269,"lon":5.35081,"is_reserved":false,"is_disabled":false,"rental_uris":{"android":"levelo://app?vid=ecceb88a-091e-45ef-8e4f-6f443b492a75","ios":"levelo://app?vid=ecceb88a-091e-45ef-8e4f-6f443b492a75"},"vehicle_type_id":"4","last_reported":1758025200,"current_range_meters":4000,"station_id":"ce4bhbp2rcd13ifvqerg","pricing_plan_id":"cebpf4jnsgd1na2vs0mg"},{"bike_id":"ff45201d-8270-4e23-a8cf-1749c7e6ffdf","system_id":"levelo_inurba_marseille","lat":43.297815,"lon":5.393353,"is_reserved":false,"is_disabled":false,"rental_uris":{"android":"levelo://app?vid=ff45201d-8270-4e23-a8cf-1749c7e6ffdf","ios":"levelo://app?vid=ff45201d-8270-4e23-a8cf-1749c7e6ffdf"},"vehicle_type_id":"4","last_reported":1758025200,"current_range_meters":4000,"station_id":"chh1huq6cuj3fo74tm60","pricing_plan_id":"cebpf4jnsgd1na2vs0mg"},{"bike_id":"c56c8630-a911-4ff7-b820-d01ac420a896","system_id":"levelo_inurba_marseille","lat":43.28461,"lon":5.35894,"is_reserved":false,"is_disabled":false,"rental_uris":{"android":"levelo://app?vid=c56c8630-a911-4ff7-b820-d01ac420a896","ios":"levelo://app?vid=c56c8630-a911-4ff7-b820-d01ac420a896"},"vehicle_type_id":"4","last_reported":1758025200,"current_range_meters":4000,"station_id":"ce4bhah2rcd13ifvqei0","pricing_plan_id":"cebpf4jnsgd1na2vs0mg"},{"bike_id":"b982f00c-34a9-4ed3-b17f-5c48d0cb70b9","system_id":"levelo_inurba_marseille","lat":43.23689,"lon":5.36069,"is_reserved":false,"is_disabled":false,"rental_uris":{"android":"levelo://app?vid=b982f00c-34a9-4ed3-b17f-5c48d0cb70b9","ios":"levelo://app?vid=b982f00c-34a9-4ed3-b17f-5c48d0cb70b9"},"vehicle_type_id":"4","last_reported":1758025200,"current_range_meters":4000,"station_id":"","pricing_plan_id":"cebpf4jnsgd1na2vs0mg"},{"bike_id":"fb7074da-8cf7-4ece-9829-63c7e8f23fd4","system_id":"levelo_inurba_marseille","lat":43.2668,"lon":5.38272,"is_reserved":false,"is_disabled":false,"rental_uris":{"android":"levelo://app?vid=fb7074da-8cf7-4ece-9829-63c7e8f23fd4","ios":"levelo://app?vid=fb7074da-8cf7-4ece-9829-63c7e8f23fd4"},"vehicle_type_id":"4","last_reported":1758025200,"current_range_meters":4400,"station_id":"ce4bhg92rcd13ifvqf90","pricing_plan_id":"cebpf4jnsgd1na2vs0mg"},{"bike_id":"3bd79661-6def-43c8-b210-869fd67a5981","system_id":"levelo_inurba_marseille","lat":43.30907,"lon":5.3685,"is_reserved":false,"is_disabled":false,"rental_uris":{"android":"levelo://app?vid=3bd79661-6def-43c8-b210-869fd67a5981","ios":"levelo://app?vid=3bd79661-6def-43c8-b210-869fd67a5981"},"vehicle_type_id":"4","last_reported":1758025200,"current_range_meters":4400,"station_id":"ce4bgn92rcd13ifvqbvg","pricing_plan_id":"cebpf4jnsgd1na2vs0mg"},{"bike_id":"aed64295-a8c2-4996-8182-d9145342e7f3","system_id":"levelo_inurba_marseille","lat":43.29272,"lon":5.36852,"is_reserved":false,"is_disabled":false,"rental_uris":{"android":"levelo://app?vid=aed64295-a8c2-4996-8182-d9145342e7f3","ios":"levelo://app?vid=aed64295-a8c2-4996-8182-d9145342e7f3"},"vehicle_type_id":"4","last_reported":1758025200,"current_range_meters":4800,"station_id":"ce4bhbp2rcd13ifvqesg","pricing_plan_id":"cebpf4jnsgd1na2vs0mg"},{"bike_id":"178fa568-1c50-462f-a706-8cc286b5fa97","system_id":"levelo_inurba_marseille","lat":43.30904,"lon":5.36841,"is_reserved":false,"is_disabled":false,"rental_uris":{"android":"levelo://app?vid=178fa568-1c50-462f-a706-8cc286b5fa97","ios":"levelo://app?vid=178fa568-1c50-462f-a706-8cc286b5fa97"},"vehicle_type_id":"4","last_reported":1758025200,"current_range_meters":4800,"station_id":"ce4bgn92rcd13ifvqbvg","pricing_plan_id":"cebpf4jnsgd1na2vs0mg"},{"bike_id":"f7ac85a9-20be-4d2a-881e-cf6f9829206c","system_id":"levelo_inurba_marseille","lat":43.28969,"lon":5.357,"is_reserved":false,"is_disabled":false,"rental_uris":{"android":"levelo://app?vid=f7ac85a9-20be-4d2a-881e-cf6f9829206c","ios":"levelo://app?vid=f7ac85a9-20be-4d2a-881e-cf6f9829206c"},"vehicle_type_id":"4","last_reported":1758025200,"current_range_meters":4800,"station_id":"","pricing_plan_id":"cebpf4jnsgd1na2vs0mg"},{"bike_id":"80929e0f-3d7a-47ff-b08a-19b0b2713c01","system_id":"levelo_inurba_marseille","lat":43.28628,"lon":5.35086,"is_reserved":false,"is_disabled":false,"rental_uris":{"android":"levelo://app?vid=80929e0f-3d7a-47ff-b08a-19b0b2713c01","ios":"levelo://app?vid=80929e0f-3d7a-47ff-b08a-19b0b2713c01"},"vehicle_type_id":"4","last_reported":1758025200,"current_range_meters":4800,"station_id":"ce4bhch2rcd13ifvqeug","pricing_plan_id":"cebpf4jnsgd1na2vs0mg"},{"bike_id":"a234c8d6-1e23-409a-95bc-672a869cb12e","system_id":"levelo_inurba_marseille","lat":43.3269,"lon":5.4029,"is_reserved":false,"is_disabled":false,"rental_uris":{"android":"levelo://app?vid=a234c8d6-1e23-409a-95bc-672a869cb12e","ios":"levelo://app?vid=a234c8d6-1e23-409a-95bc-672a869cb12e"},"vehicle_type_id":"4","last_reported":1758025200,"current_range_meters":4800,"station_id":"","pricing_plan_id":"cebpf4jnsgd1na2vs0mg"},{"bike_id":"8be4edf1-6304-4340-9a11-ee3b226d6122","system_id":"levelo_inurba_marseille","lat":43.28106,"lon":5.37838,"is_reserved":false,"is_disabled":false,"rental_uris":{"android":"levelo://app?vid=8be4edf1-6304-4340-9a11-ee3b226d6122","ios":"levelo://app?vid=8be4edf1-6304-4340-9a11-ee3b226d6122"},"vehicle_type_id":"4","last_reported":1758025200,"current_range_meters":5600,"station_id":"ce4bha12rcd13ifvqee0","pricing_plan_id":"cebpf4jnsgd1na2vs0mg"},{"bike_id":"dd32f779-e928-424d-999f-b730cf475fa7","system_id":"levelo_inurba_marseille","lat":43.22399,"lon":5.34657,"is_reserved":false,"is_disabled":false,"rental_uris":{"android":"levelo://app?vid=dd32f779-e928-424d-999f-b730cf475fa7","ios":"levelo://app?vid=dd32f779-e928-424d-999f-b730cf475fa7"},"vehicle_type_id":"4","last_reported":1758025200,"current_range_meters":6000,"station_id":"","pricing_plan_id":"cebpf4jnsgd1na2vs0mg"},{"bike_id":"f486b983-1283-47b1-ba08-b052ee0b6784","system_id":"levelo_inurba_marseille","lat":43.217488,"lon":5.346037,"is_reserved":false,"is_disabled":false,"rental_uris":{"android":"levelo://app?vid=f486b983-1283-47b1-ba08-b052ee0b6784","ios":"levelo://app?vid=f486b983-1283-47b1-ba08-b052ee0b6784"},"vehicle_type_id":"4","last_reported":1758025200,"current_range_meters":5600,"station_id":"st_cvj6r9ubvosntc0bgbag","pricing_plan_id":"cebpf4jnsgd1na2vs0mg"},{"bike_id":"83cacbd4-5b74-4c4f-9023-496eb4f5b6ca","system_id":"levelo_inurba_marseille","lat":43.24372,"lon":5.37077,"is_reserved":false,"is_disabled":false,"rental_uris":{"android":"levelo://app?vid=83cacbd4-5b74-4c4f-9023-496eb4f5b6ca","ios":"levelo://app?vid=83cacbd4-5b74-4c4f-9023-496eb4f5b6ca"},"vehicle_type_id":"4","last_reported":1758025200,"current_range_meters":5600,"station_id":"ce4bhhh2rcd13ifvqfk0","pricing_plan_id":"cebpf4jnsgd1na2vs0mg"},{"bike_id":"06e82b4e-0a92-4a68-846c-d61edaa41b08","system_id":"levelo_inurba_marseille","lat":43.27372,"lon":5.36256,"is_reserved":false,"is_disabled":false,"rental_uris":{"android":"levelo://app?vid=06e82b4e-0a92-4a68-846c-d61edaa41b08","ios":"levelo://app?vid=06e82b4e-0a92-4a68-846c-d61edaa41b08"},"vehicle_type_id":"4","last_reported":1758025200,"current_range_meters":6000,"station_id":"ce4bhbh2rcd13ifvqeo0","pricing_plan_id":"cebpf4jnsgd1na2vs0mg"},{"bike_id":"6c3ae6bf-6c44-45cd-bbd7-6c73aed9b4e3","system_id":"levelo_inurba_marseille","lat":43.33601,"lon":5.41027,"is_reserved":false,"is_disabled":false,"rental_uris":{"android":"levelo://app?vid=6c3ae6bf-6c44-45cd-bbd7-6c73aed9b4e3","ios":"levelo://app?vid=6c3ae6bf-6c44-45cd-bbd7-6c73aed9b4e3"},"vehicle_type_id":"4","last_reported":1758025200,"current_range_meters":6000,"station_id":"ce4bhqh2rcd13ifvqhmg","pricing_plan_id":"cebpf4jnsgd1na2vs0mg"},{"bike_id":"de5c5e32-fdec-446f-b519-ccf2243c1a8b","system_id":"levelo_inurba_marseille","lat":43.29197,"lon":5.39312,"is_reserved":false,"is_disabled":false,"rental_uris":{"android":"levelo://app?vid=de5c5e32-fdec-446f-b519-ccf2243c1a8b","ios":"levelo://app?vid=de5c5e32-fdec-446f-b519-ccf2243c1a8b"},"vehicle_type_id":"4","last_reported":1758025200,"current_range_meters":5600,"station_id":"ce4bh192rcd13ifvqdd0","pricing_plan_id":"cebpf4jnsgd1na2vs0mg"},{"bike_id":"a29d9c7d-1634-4abc-a8ae-4db46d5032da","system_id":"levelo_inurba_marseille","lat":43.29195,"lon":5.39331,"is_reserved":false,"is_disabled":false,"rental_uris":{"android":"levelo://app?vid=a29d9c7d-1634-4abc-a8ae-4db46d5032da","ios":"levelo://app?vid=a29d9c7d-1634-4abc-a8ae-4db46d5032da"},"vehicle_type_id":"4","last_reported":1758025200,"current_range_meters":6000,"station_id":"ce4bh192rcd13ifvqdd0","pricing_plan_id":"cebpf4jnsgd1na2vs0mg"},{"bike_id":"0a15ba0d-25a8-4aec-8a5a-aa8bd4284804","system_id":"levelo_inurba_marseille","lat":43.24166,"lon":5.36395,"is_reserved":false,"is_disabled":false,"rental_uris":{"android":"levelo://app?vid=0a15ba0d-25a8-4aec-8a5a-aa8bd4284804","ios":"levelo://app?vid=0a15ba0d-25a8-4aec-8a5a-aa8bd4284804"},"vehicle_type_id":"4","last_reported":1758025200,"current_range_meters":6400,"station_id":"cpo36qri1sfpv3e86is0","pricing_plan_id":"cebpf4jnsgd1na2vs0mg"},{"bike_id":"f7cfce6f-0ebd-4efa-a1b9-fee0836b54f0","system_id":"levelo_inurba_marseille","lat":43.28419,"lon":5.34982,"is_reserved":false,"is_disabled":false,"rental_uris":{"android":"levelo://app?vid=f7cfce6f-0ebd-4efa-a1b9-fee0836b54f0","ios":"levelo://app?vid=f7cfce6f-0ebd-4efa-a1b9-fee0836b54f0"},"vehicle_type_id":"4","last_reported":1758025200,"current_range_meters":6400,"station_id":"ce4bhbh2rcd13ifvqepg","pricing_plan_id":"cebpf4jnsgd1na2vs0mg"},{"bike_id":"fe6cbc6d-2c86-425b-b36b-553f9b684a3a","system_id":"levelo_inurba_marseille","lat":43.27565,"lon":5.38427,"is_reserved":false,"is_disabled":false,"rental_uris":{"android":"levelo://app?vid=fe6cbc6d-2c86-425b-b36b-553f9b684a3a","ios":"levelo://app?vid=fe6cbc6d-2c86-425b-b36b-553f9b684a3a"},"vehicle_type_id":"4","last_reported":1758025200,"current_range_meters":6400,"station_id":"ce4bhh92rcd13ifvqfi0","pricing_plan_id":"cebpf4jnsgd1na2vs0mg"},{"bike_id":"a4136780-451a-41d2-be50-fba27a38edd7","system_id":"levelo_inurba_marseille","lat":43.2916,"lon":5.37156,"is_reserved":false,"is_disabled":false,"rental_uris":{"android":"levelo://app?vid=a4136780-451a-41d2-be50-fba27a38edd7","ios":"levelo://app?vid=a4136780-451a-41d2-be50-fba27a38edd7"},"vehicle_type_id":"4","last_reported":1758025200,"current_range_meters":6400,"station_id":"ce4bha92rcd13ifvqeh0","pricing_plan_id":"cebpf4jnsgd1na2vs0mg"},{"bike_id":"d6ed9793-3ecb-43f1-a394-fef0a9592577","system_id":"levelo_inurba_marseille","lat":43.31347,"lon":5.36703,"is_reserved":false,"is_disabled":false,"rental_uris":{"android":"levelo://app?vid=d6ed9793-3ecb-43f1-a394-fef0a9592577","ios":"levelo://app?vid=d6ed9793-3ecb-43f1-a394-fef0a9592577"},"vehicle_type_id":"4","last_reported":1758025200,"current_range_meters":6400,"station_id":"ce4bgr92rcd13ifvqc6g","pricing_plan_id":"cebpf4jnsgd1na2vs0mg"},{"bike_id":"8b01cb9d-990f-4e9a-be22-10013c8b7e86","system_id":"levelo_inurba_marseille","lat":43.29326,"lon":5.41173,"is_reserved":false,"is_disabled":false,"rental_uris":{"android":"levelo://app?vid=8b01cb9d-990f-4e9a-be22-10013c8b7e86","ios":"levelo://app?vid=8b01cb9d-990f-4e9a-be22-10013c8b7e86"},"vehicle_type_id":"4","last_reported":1758025200,"current_range_meters":6400,"station_id":"","pricing_plan_id":"cebpf4jnsgd1na2vs0mg"},{"bike_id":"9d186f7f-33bf-4854-a3c4-537347d64e9f","system_id":"levelo_inurba_marseille","lat":43.231513,"lon":5.437243,"is_reserved":false,"is_disabled":false,"rental_uris":{"android":"levelo://app?vid=9d186f7f-33bf-4854-a3c4-537347d64e9f","ios":"levelo://app?vid=9d186f7f-33bf-4854-a3c4-537347d64e9f"},"vehicle_type_id":"4","last_reported":1758025200,"current_range_meters":6800,"station_id":"ce4bhmp2rcd13ifvqgog","pricing_plan_id":"cebpf4jnsgd1na2vs0mg"},{"bike_id":"eba97333-b320-46cd-9751-4d42a3044b0c","system_id":"levelo_inurba_marseille","lat":43.29618,"lon":5.37727,"is_reserved":false,"is_disabled":false,"rental_uris":{"android":"levelo://app?vid=eba97333-b320-46cd-9751-4d42a3044b0c","ios":"levelo://app?vid=eba97333-b320-46cd-9751-4d42a3044b0c"},"vehicle_type_id":"4","last_reported":1758025200,"current_range_meters":2800,"station_id":"ce4bgi92rcd13ifvqb90","pricing_plan_id":"cebpf4jnsgd1na2vs0mg"},{"bike_id":"33a660e2-0c89-448f-9e0c-bbacca0ecf46","system_id":"levelo_inurba_marseille","lat":43.24075,"lon":5.37762,"is_reserved":false,"is_disabled":false,"rental_uris":{"android":"levelo://app?vid=33a660e2-0c89-448f-9e0c-bbacca0ecf46","ios":"levelo://app?vid=33a660e2-0c89-448f-9e0c-bbacca0ecf46"},"vehicle_type_id":"4","last_reported":1758025200,"current_range_meters":6800,"station_id":"ce4bhnp2rcd13ifvqgvg","pricing_plan_id":"cebpf4jnsgd1na2vs0mg"},{"bike_id":"27bc6b0c-c22e-494b-ab92-4e390584592b","system_id":"levelo_inurba_marseille","lat":43.337542,"lon":5.374627,"is_reserved":false,"is_disabled":false,"rental_uris":{"android":"levelo://app?vid=27bc6b0c-c22e-494b-ab92-4e390584592b","ios":"levelo://app?vid=27bc6b0c-c22e-494b-ab92-4e390584592b"},"vehicle_type_id":"4","last_reported":1758025200,"current_range_meters":6800,"station_id":"","pricing_plan_id":"cebpf4jnsgd1na2vs0mg"},{"bike_id":"7e35631e-b59e-4a9e-8f6b-829cc42d7a80","system_id":"levelo_inurba_marseille","lat":43.26203,"lon":5.37929,"is_reserved":false,"is_disabled":false,"rental_uris":{"android":"levelo://app?vid=7e35631e-b59e-4a9e-8f6b-829cc42d7a80","ios":"levelo://app?vid=7e35631e-b59e-4a9e-8f6b-829cc42d7a80"},"vehicle_type_id":"4","last_reported":1758025200,"current_range_meters":7200,"station_id":"ce4bhjp2rcd13ifvqg90","pricing_plan_id":"cebpf4jnsgd1na2vs0mg"},{"bike_id":"57127154-7e15-4346-89ed-ab9d76ef9c2c","system_id":"levelo_inurba_marseille","lat":43.28838,"lon":5.36326,"is_reserved":false,"is_disabled":false,"rental_uris":{"android":"levelo://app?vid=57127154-7e15-4346-89ed-ab9d76ef9c2c","ios":"levelo://app?vid=57127154-7e15-4346-89ed-ab9d76ef9c2c"},"vehicle_type_id":"4","last_reported":1758025200,"current_range_meters":7200,"station_id":"","pricing_plan_id":"cebpf4jnsgd1na2vs0mg"},{"bike_id":"49470411-68e1-493c-b02a-f62883c190e9","system_id":"levelo_inurba_marseille","lat":43.28267,"lon":5.35078,"is_reserved":false,"is_disabled":false,"rental_uris":{"android":"levelo://app?vid=49470411-68e1-493c-b02a-f62883c190e9","ios":"levelo://app?vid=49470411-68e1-493c-b02a-f62883c190e9"},"vehicle_type_id":"4","last_reported":1758025200,"current_range_meters":8000,"station_id":"ce4bhbp2rcd13ifvqerg","pricing_plan_id":"cebpf4jnsgd1na2vs0mg"},{"bike_id":"c01302db-a39f-4660-be9a-b18f44c84266","system_id":"levelo_inurba_marseille","lat":43.24062,"lon":5.37769,"is_reserved":false,"is_disabled":false,"rental_uris":{"android":"levelo://app?vid=c01302db-a39f-4660-be9a-b18f44c84266","ios":"levelo://app?vid=c01302db-a39f-4660-be9a-b18f44c84266"},"vehicle_type_id":"4","last_reported":1758025200,"current_range_meters":8000,"station_id":"ce4bhnp2rcd13ifvqgvg","pricing_plan_id":"cebpf4jnsgd1na2vs0mg"},{"bike_id":"e7a329bd-ed66-4ac7-aaba-63f2810ddd86","system_id":"levelo_inurba_marseille","lat":43.31859,"lon":5.37206,"is_reserved":false,"is_disabled":false,"rental_uris":{"android":"levelo://app?vid=e7a329bd-ed66-4ac7-aaba-63f2810ddd86","ios":"levelo://app?vid=e7a329bd-ed66-4ac7-aaba-63f2810ddd86"},"vehicle_type_id":"4","last_reported":1758025200,"current_range_meters":8000,"station_id":"","pricing_plan_id":"cebpf4jnsgd1na2vs0mg"},{"bike_id":"99ddd021-b081-4c55-b76b-6ee2334dea2c","system_id":"levelo_inurba_marseille","lat":43.2862,"lon":5.35093,"is_reserved":false,"is_disabled":false,"rental_uris":{"android":"levelo://app?vid=99ddd021-b081-4c55-b76b-6ee2334dea2c","ios":"levelo://app?vid=99ddd021-b081-4c55-b76b-6ee2334dea2c"},"vehicle_type_id":"4","last_reported":1758025200,"current_range_meters":8000,"station_id":"ce4bhch2rcd13ifvqeug","pricing_plan_id":"cebpf4jnsgd1na2vs0mg"},{"bike_id":"3497e7a2-d1ac-45c8-b73f-5afe1dfc9c24","system_id":"levelo_inurba_marseille","lat":43.28622,"lon":5.37052,"is_reserved":false,"is_disabled":false,"rental_uris":{"android":"levelo://app?vid=3497e7a2-d1ac-45c8-b73f-5afe1dfc9c24","ios":"levelo://app?vid=3497e7a2-d1ac-45c8-b73f-5afe1dfc9c24"},"vehicle_type_id":"4","last_reported":1758025200,"current_range_meters":8000,"station_id":"ce4bht12rcd13ifvqi60","pricing_plan_id":"cebpf4jnsgd1na2vs0mg"},{"bike_id":"4da91a3c-13ea-4269-8611-c5bf87e7418b","system_id":"levelo_inurba_marseille","lat":43.28273,"lon":5.35095,"is_reserved":false,"is_disabled":false,"rental_uris":{"android":"levelo://app?vid=4da91a3c-13ea-4269-8611-c5bf87e7418b","ios":"levelo://app?vid=4da91a3c-13ea-4269-8611-c5bf87e7418b"},"vehicle_type_id":"4","last_reported":1758025200,"current_range_meters":8000,"station_id":"ce4bhbp2rcd13ifvqerg","pricing_plan_id":"cebpf4jnsgd1na2vs0mg"},{"bike_id":"33bb1785-d459-4f3b-9518-672a188c6a87","system_id":"levelo_inurba_marseille","lat":43.337444,"lon":5.374475,"is_reserved":false,"is_disabled":false,"rental_uris":{"android":"levelo://app?vid=33bb1785-d459-4f3b-9518-672a188c6a87","ios":"levelo://app?vid=33bb1785-d459-4f3b-9518-672a188c6a87"},"vehicle_type_id":"4","last_reported":1758025200,"current_range_meters":8000,"station_id":"","pricing_plan_id":"cebpf4jnsgd1na2vs0mg"},{"bike_id":"3535e05e-148c-4466-9fbb-dda637e0c1ee","system_id":"levelo_inurba_marseille","lat":43.28106,"lon":5.39283,"is_reserved":false,"is_disabled":false,"rental_uris":{"android":"levelo://app?vid=3535e05e-148c-4466-9fbb-dda637e0c1ee","ios":"levelo://app?vid=3535e05e-148c-4466-9fbb-dda637e0c1ee"},"vehicle_type_id":"4","last_reported":1758025200,"current_range_meters":8000,"station_id":"","pricing_plan_id":"cebpf4jnsgd1na2vs0mg"},{"bike_id":"8ff30fb7-38d3-41e0-97e7-456d15add69c","system_id":"levelo_inurba_marseille","lat":43.32353,"lon":5.36755,"is_reserved":false,"is_disabled":false,"rental_uris":{"android":"levelo://app?vid=8ff30fb7-38d3-41e0-97e7-456d15add69c","ios":"levelo://app?vid=8ff30fb7-38d3-41e0-97e7-456d15add69c"},"vehicle_type_id":"4","last_reported":1758025200,"current_range_meters":8400,"station_id":"ce4bhsh2rcd13ifvqi2g","pricing_plan_id":"cebpf4jnsgd1na2vs0mg"},{"bike_id":"642d689d-56db-445e-8d0f-7706f2866210","system_id":"levelo_inurba_marseille","lat":43.262,"lon":5.37934,"is_reserved":false,"is_disabled":false,"rental_uris":{"android":"levelo://app?vid=642d689d-56db-445e-8d0f-7706f2866210","ios":"levelo://app?vid=642d689d-56db-445e-8d0f-7706f2866210"},"vehicle_type_id":"4","last_reported":1758025200,"current_range_meters":8400,"station_id":"ce4bhjp2rcd13ifvqg90","pricing_plan_id":"cebpf4jnsgd1na2vs0mg"},{"bike_id":"f7825ce6-de89-45bf-831f-3599d0d91c3c","system_id":"levelo_inurba_marseille","lat":43.30521,"lon":5.36697,"is_reserved":false,"is_disabled":false,"rental_uris":{"android":"levelo://app?vid=f7825ce6-de89-45bf-831f-3599d0d91c3c","ios":"levelo://app?vid=f7825ce6-de89-45bf-831f-3599d0d91c3c"},"vehicle_type_id":"4","last_reported":1758025200,"current_range_meters":8400,"station_id":"ce4bgrp2rcd13ifvqc9g","pricing_plan_id":"cebpf4jnsgd1na2vs0mg"},{"bike_id":"1a84b21a-d1e4-4133-90cf-940c8877cb47","system_id":"levelo_inurba_marseille","lat":43.31333,"lon":5.36715,"is_reserved":false,"is_disabled":false,"rental_uris":{"android":"levelo://app?vid=1a84b21a-d1e4-4133-90cf-940c8877cb47","ios":"levelo://app?vid=1a84b21a-d1e4-4133-90cf-940c8877cb47"},"vehicle_type_id":"4","last_reported":1758025200,"current_range_meters":8400,"station_id":"ce4bgr92rcd13ifvqc6g","pricing_plan_id":"cebpf4jnsgd1na2vs0mg"},{"bike_id":"38c07d89-6294-4cf3-aa98-72aad84f8ab9","system_id":"levelo_inurba_marseille","lat":43.30905,"lon":5.36846,"is_reserved":false,"is_disabled":false,"rental_uris":{"android":"levelo://app?vid=38c07d89-6294-4cf3-aa98-72aad84f8ab9","ios":"levelo://app?vid=38c07d89-6294-4cf3-aa98-72aad84f8ab9"},"vehicle_type_id":"4","last_reported":1758025200,"current_range_meters":8400,"station_id":"ce4bgn92rcd13ifvqbvg","pricing_plan_id":"cebpf4jnsgd1na2vs0mg"},{"bike_id":"7f2a8108-7def-422d-8177-e1b386edeefa","system_id":"levelo_inurba_marseille","lat":43.29934,"lon":5.36529,"is_reserved":false,"is_disabled":false,"rental_uris":{"android":"levelo://app?vid=7f2a8108-7def-422d-8177-e1b386edeefa","ios":"levelo://app?vid=7f2a8108-7def-422d-8177-e1b386edeefa"},"vehicle_type_id":"4","last_reported":1758025200,"current_range_meters":8400,"station_id":"ce4bgm92rcd13ifvqbr0","pricing_plan_id":"cebpf4jnsgd1na2vs0mg"},{"bike_id":"df02ed83-0386-4ca0-a413-d879bb917ef8","system_id":"levelo_inurba_marseille","lat":43.24068,"lon":5.37762,"is_reserved":false,"is_disabled":false,"rental_uris":{"android":"levelo://app?vid=df02ed83-0386-4ca0-a413-d879bb917ef8","ios":"levelo://app?vid=df02ed83-0386-4ca0-a413-d879bb917ef8"},"vehicle_type_id":"4","last_reported":1758025200,"current_range_meters":8400,"station_id":"ce4bhnp2rcd13ifvqgvg","pricing_plan_id":"cebpf4jnsgd1na2vs0mg"},{"bike_id":"322c1f5a-85db-4ef6-bcd4-1b5c417c8ee0","system_id":"levelo_inurba_marseille","lat":43.3377,"lon":5.37488,"is_reserved":false,"is_disabled":false,"rental_uris":{"android":"levelo://app?vid=322c1f5a-85db-4ef6-bcd4-1b5c417c8ee0","ios":"levelo://app?vid=322c1f5a-85db-4ef6-bcd4-1b5c417c8ee0"},"vehicle_type_id":"4","last_reported":1758025200,"current_range_meters":8800,"station_id":"","pricing_plan_id":"cebpf4jnsgd1na2vs0mg"},{"bike_id":"b6c52ac3-42ba-4938-843f-babd7103a8ac","system_id":"levelo_inurba_marseille","lat":43.29169,"lon":5.37155,"is_reserved":false,"is_disabled":false,"rental_uris":{"android":"levelo://app?vid=b6c52ac3-42ba-4938-843f-babd7103a8ac","ios":"levelo://app?vid=b6c52ac3-42ba-4938-843f-babd7103a8ac"},"vehicle_type_id":"4","last_reported":1758025200,"current_range_meters":8800,"station_id":"ce4bha92rcd13ifvqeh0","pricing_plan_id":"cebpf4jnsgd1na2vs0mg"},{"bike_id":"d5a9b994-9876-4c5b-b3fe-a560bfabc7d1","system_id":"levelo_inurba_marseille","lat":43.28417,"lon":5.3498,"is_reserved":false,"is_disabled":false,"rental_uris":{"android":"levelo://app?vid=d5a9b994-9876-4c5b-b3fe-a560bfabc7d1","ios":"levelo://app?vid=d5a9b994-9876-4c5b-b3fe-a560bfabc7d1"},"vehicle_type_id":"4","last_reported":1758025200,"current_range_meters":9200,"station_id":"ce4bhbh2rcd13ifvqepg","pricing_plan_id":"cebpf4jnsgd1na2vs0mg"},{"bike_id":"37abc81a-b181-459a-a84e-2063292ff650","system_id":"levelo_inurba_marseille","lat":43.28407,"lon":5.37525,"is_reserved":false,"is_disabled":true,"rental_uris":{"android":"levelo://app?vid=37abc81a-b181-459a-a84e-2063292ff650","ios":"levelo://app?vid=37abc81a-b181-459a-a84e-2063292ff650"},"vehicle_type_id":"4","last_reported":1758025200,"current_range_meters":9200,"station_id":"ce4bh412rcd13ifvqds0","pricing_plan_id":"cebpf4jnsgd1na2vs0mg"},{"bike_id":"098e6885-8c9e-4de0-a146-607647c3e677","system_id":"levelo_inurba_marseille","lat":43.292737,"lon":5.401186,"is_reserved":false,"is_disabled":false,"rental_uris":{"android":"levelo://app?vid=098e6885-8c9e-4de0-a146-607647c3e677","ios":"levelo://app?vid=098e6885-8c9e-4de0-a146-607647c3e677"},"vehicle_type_id":"4","last_reported":1758025200,"current_range_meters":9200,"station_id":"ce4bh312rcd13ifvqdk0","pricing_plan_id":"cebpf4jnsgd1na2vs0mg"},{"bike_id":"4caf5ae7-dc49-42b5-8c21-c5bc7aaf862c","system_id":"levelo_inurba_marseille","lat":43.28704,"lon":5.39987,"is_reserved":false,"is_disabled":false,"rental_uris":{"android":"levelo://app?vid=4caf5ae7-dc49-42b5-8c21-c5bc7aaf862c","ios":"levelo://app?vid=4caf5ae7-dc49-42b5-8c21-c5bc7aaf862c"},"vehicle_type_id":"4","last_reported":1758025200,"current_range_meters":9200,"station_id":"ce4bho92rcd13ifvqh3g","pricing_plan_id":"cebpf4jnsgd1na2vs0mg"},{"bike_id":"34539d66-9bce-4d1c-8b94-78e2e11c6e1a","system_id":"levelo_inurba_marseille","lat":43.288557,"lon":5.425133,"is_reserved":false,"is_disabled":false,"rental_uris":{"android":"levelo://app?vid=34539d66-9bce-4d1c-8b94-78e2e11c6e1a","ios":"levelo://app?vid=34539d66-9bce-4d1c-8b94-78e2e11c6e1a"},"vehicle_type_id":"4","last_reported":1758025200,"current_range_meters":9200,"station_id":"","pricing_plan_id":"cebpf4jnsgd1na2vs0mg"},{"bike_id":"d2033fe7-4abc-49a4-a0dd-aafb1ef8116c","system_id":"levelo_inurba_marseille","lat":43.29618,"lon":5.37713,"is_reserved":false,"is_disabled":false,"rental_uris":{"android":"levelo://app?vid=d2033fe7-4abc-49a4-a0dd-aafb1ef8116c","ios":"levelo://app?vid=d2033fe7-4abc-49a4-a0dd-aafb1ef8116c"},"vehicle_type_id":"4","last_reported":1758025200,"current_range_meters":9200,"station_id":"ce4bgi92rcd13ifvqb90","pricing_plan_id":"cebpf4jnsgd1na2vs0mg"},{"bike_id":"63dc1384-fc6c-4684-975f-38f6a5793898","system_id":"levelo_inurba_marseille","lat":43.30545,"lon":5.36552,"is_reserved":false,"is_disabled":false,"rental_uris":{"android":"levelo://app?vid=63dc1384-fc6c-4684-975f-38f6a5793898","ios":"levelo://app?vid=63dc1384-fc6c-4684-975f-38f6a5793898"},"vehicle_type_id":"4","last_reported":1758025200,"current_range_meters":9200,"station_id":"ce4bgs12rcd13ifvqcag","pricing_plan_id":"cebpf4jnsgd1na2vs0mg"},{"bike_id":"86729533-93f3-4c7e-8df1-2b3bb20a6999","system_id":"levelo_inurba_marseille","lat":43.2827,"lon":5.35061,"is_reserved":false,"is_disabled":true,"rental_uris":{"android":"levelo://app?vid=86729533-93f3-4c7e-8df1-2b3bb20a6999","ios":"levelo://app?vid=86729533-93f3-4c7e-8df1-2b3bb20a6999"},"vehicle_type_id":"4","last_reported":1758025200,"current_range_meters":9200,"station_id":"ce4bhbp2rcd13ifvqerg","pricing_plan_id":"cebpf4jnsgd1na2vs0mg"},{"bike_id":"d73ebff0-d957-41dc-a638-29b88edc4926","system_id":"levelo_inurba_marseille","lat":43.22581,"lon":5.41606,"is_reserved":false,"is_disabled":false,"rental_uris":{"android":"levelo://app?vid=d73ebff0-d957-41dc-a638-29b88edc4926","ios":"levelo://app?vid=d73ebff0-d957-41dc-a638-29b88edc4926"},"vehicle_type_id":"4","last_reported":1758025200,"current_range_meters":9600,"station_id":"st_d2o4gvlbi1j2169b742g","pricing_plan_id":"cebpf4jnsgd1na2vs0mg"},{"bike_id":"c42c0241-c811-427c-a3e9-85217b3597a6","system_id":"levelo_inurba_marseille","lat":43.30949,"lon":5.39036,"is_reserved":false,"is_disabled":false,"rental_uris":{"android":"levelo://app?vid=c42c0241-c811-427c-a3e9-85217b3597a6","ios":"levelo://app?vid=c42c0241-c811-427c-a3e9-85217b3597a6"},"vehicle_type_id":"4","last_reported":1758025200,"current_range_meters":9600,"station_id":"ce4bgup2rcd13ifvqco0","pricing_plan_id":"cebpf4jnsgd1na2vs0mg"},{"bike_id":"a155e67d-bec0-4326-ae57-c035ef5e1c81","system_id":"levelo_inurba_marseille","lat":43.29883,"lon":5.43651,"is_reserved":false,"is_disabled":false,"rental_uris":{"android":"levelo://app?vid=a155e67d-bec0-4326-ae57-c035ef5e1c81","ios":"levelo://app?vid=a155e67d-bec0-4326-ae57-c035ef5e1c81"},"vehicle_type_id":"4","last_reported":1758025200,"current_range_meters":9600,"station_id":"ce4bhpp2rcd13ifvqhfg","pricing_plan_id":"cebpf4jnsgd1na2vs0mg"},{"bike_id":"5f99b60a-4c8c-4407-85a6-ee31e75f563c","system_id":"levelo_inurba_marseille","lat":43.245774,"lon":5.374967,"is_reserved":false,"is_disabled":false,"rental_uris":{"android":"levelo://app?vid=5f99b60a-4c8c-4407-85a6-ee31e75f563c","ios":"levelo://app?vid=5f99b60a-4c8c-4407-85a6-ee31e75f563c"},"vehicle_type_id":"4","last_reported":1758025200,"current_range_meters":9600,"station_id":"ce4bhnp2rcd13ifvqgvg","pricing_plan_id":"cebpf4jnsgd1na2vs0mg"},{"bike_id":"9cfcc0ce-59ab-4cfb-8e8d-b9c09aa3bb38","system_id":"levelo_inurba_marseille","lat":43.271748,"lon":5.409903,"is_reserved":false,"is_disabled":false,"rental_uris":{"android":"levelo://app?vid=9cfcc0ce-59ab-4cfb-8e8d-b9c09aa3bb38","ios":"levelo://app?vid=9cfcc0ce-59ab-4cfb-8e8d-b9c09aa3bb38"},"vehicle_type_id":"4","last_reported":1758025200,"current_range_meters":9600,"station_id":"ce4bhl12rcd13ifvqgf0","pricing_plan_id":"cebpf4jnsgd1na2vs0mg"},{"bike_id":"6a02db07-4c61-4ba0-8b83-b5290dec3c33","system_id":"levelo_inurba_marseille","lat":43.26492,"lon":5.39544,"is_reserved":false,"is_disabled":false,"rental_uris":{"android":"levelo://app?vid=6a02db07-4c61-4ba0-8b83-b5290dec3c33","ios":"levelo://app?vid=6a02db07-4c61-4ba0-8b83-b5290dec3c33"},"vehicle_type_id":"4","last_reported":1758025200,"current_range_meters":9200,"station_id":"ce4bhi12rcd13ifvqfq0","pricing_plan_id":"cebpf4jnsgd1na2vs0mg"},{"bike_id":"336c74d9-d9c9-46d7-a94b-134b36ad023a","system_id":"levelo_inurba_marseille","lat":43.298506,"lon":5.378419,"is_reserved":false,"is_disabled":false,"rental_uris":{"android":"levelo://app?vid=336c74d9-d9c9-46d7-a94b-134b36ad023a","ios":"levelo://app?vid=336c74d9-d9c9-46d7-a94b-134b36ad023a"},"vehicle_type_id":"4","last_reported":1758025200,"current_range_meters":9600,"station_id":"","pricing_plan_id":"cebpf4jnsgd1na2vs0mg"},{"bike_id":"de137a07-fcde-4db7-828b-6570aab431ca","system_id":"levelo_inurba_marseille","lat":43.258419,"lon":5.394343,"is_reserved":false,"is_disabled":false,"rental_uris":{"android":"levelo://app?vid=de137a07-fcde-4db7-828b-6570aab431ca","ios":"levelo://app?vid=de137a07-fcde-4db7-828b-6570aab431ca"},"vehicle_type_id":"4","last_reported":1758025200,"current_range_meters":9600,"station_id":"ce4bhip2rcd13ifvqft0","pricing_plan_id":"cebpf4jnsgd1na2vs0mg"},{"bike_id":"bd8932c1-e473-455f-88a5-438d7051f278","system_id":"levelo_inurba_marseille","lat":43.28103,"lon":5.37838,"is_reserved":false,"is_disabled":false,"rental_uris":{"android":"levelo://app?vid=bd8932c1-e473-455f-88a5-438d7051f278","ios":"levelo://app?vid=bd8932c1-e473-455f-88a5-438d7051f278"},"vehicle_type_id":"4","last_reported":1758025200,"current_range_meters":9600,"station_id":"ce4bha12rcd13ifvqee0","pricing_plan_id":"cebpf4jnsgd1na2vs0mg"},{"bike_id":"272eb323-ef08-43be-9b4c-c981dddec45c","system_id":"levelo_inurba_marseille","lat":43.28942,"lon":5.36641,"is_reserved":false,"is_disabled":false,"rental_uris":{"android":"levelo://app?vid=272eb323-ef08-43be-9b4c-c981dddec45c","ios":"levelo://app?vid=272eb323-ef08-43be-9b4c-c981dddec45c"},"vehicle_type_id":"4","last_reported":1758025200,"current_range_meters":9600,"station_id":"ce4bhap2rcd13ifvqek0","pricing_plan_id":"cebpf4jnsgd1na2vs0mg"},{"bike_id":"c07e7a2d-d8a6-4efd-8723-e965be4d1a74","system_id":"levelo_inurba_marseille","lat":43.22533,"lon":5.348367,"is_reserved":false,"is_disabled":false,"rental_uris":{"android":"levelo://app?vid=c07e7a2d-d8a6-4efd-8723-e965be4d1a74","ios":"levelo://app?vid=c07e7a2d-d8a6-4efd-8723-e965be4d1a74"},"vehicle_type_id":"4","last_reported":1758025200,"current_range_meters":10000,"station_id":"","pricing_plan_id":"cebpf4jnsgd1na2vs0mg"},{"bike_id":"68657626-417f-4a6a-b6a9-68ab1b2f5726","system_id":"levelo_inurba_marseille","lat":43.29854,"lon":5.3626,"is_reserved":false,"is_disabled":false,"rental_uris":{"android":"levelo://app?vid=68657626-417f-4a6a-b6a9-68ab1b2f5726","ios":"levelo://app?vid=68657626-417f-4a6a-b6a9-68ab1b2f5726"},"vehicle_type_id":"4","last_reported":1758025200,"current_range_meters":10000,"station_id":"ce4bgpp2rcd13ifvqc3g","pricing_plan_id":"cebpf4jnsgd1na2vs0mg"},{"bike_id":"82c78522-4277-4f47-872b-83378c519913","system_id":"levelo_inurba_marseille","lat":43.27942,"lon":5.41052,"is_reserved":false,"is_disabled":false,"rental_uris":{"android":"levelo://app?vid=82c78522-4277-4f47-872b-83378c519913","ios":"levelo://app?vid=82c78522-4277-4f47-872b-83378c519913"},"vehicle_type_id":"4","last_reported":1758025200,"current_range_meters":10000,"station_id":"ce4bhnp2rcd13ifvqh0g","pricing_plan_id":"cebpf4jnsgd1na2vs0mg"},{"bike_id":"1ee7f789-8f4e-4802-b2af-6c15245dc63a","system_id":"levelo_inurba_marseille","lat":43.284513,"lon":5.349669,"is_reserved":false,"is_disabled":false,"rental_uris":{"android":"levelo://app?vid=1ee7f789-8f4e-4802-b2af-6c15245dc63a","ios":"levelo://app?vid=1ee7f789-8f4e-4802-b2af-6c15245dc63a"},"vehicle_type_id":"4","last_reported":1758025200,"current_range_meters":10800,"station_id":"ce4bhbh2rcd13ifvqepg","pricing_plan_id":"cebpf4jnsgd1na2vs0mg"},{"bike_id":"8ef8bf7d-8a91-4724-8c2e-ddeef723e28a","system_id":"levelo_inurba_marseille","lat":43.27038,"lon":5.3792,"is_reserved":false,"is_disabled":false,"rental_uris":{"android":"levelo://app?vid=8ef8bf7d-8a91-4724-8c2e-ddeef723e28a","ios":"levelo://app?vid=8ef8bf7d-8a91-4724-8c2e-ddeef723e28a"},"vehicle_type_id":"4","last_reported":1758025200,"current_range_meters":10800,"station_id":"","pricing_plan_id":"cebpf4jnsgd1na2vs0mg"},{"bike_id":"9a803f31-b31d-4901-b111-ec7e8c97d5e6","system_id":"levelo_inurba_marseille","lat":43.24074,"lon":5.37761,"is_reserved":false,"is_disabled":false,"rental_uris":{"android":"levelo://app?vid=9a803f31-b31d-4901-b111-ec7e8c97d5e6","ios":"levelo://app?vid=9a803f31-b31d-4901-b111-ec7e8c97d5e6"},"vehicle_type_id":"4","last_reported":1758025200,"current_range_meters":10800,"station_id":"ce4bhnp2rcd13ifvqgvg","pricing_plan_id":"cebpf4jnsgd1na2vs0mg"},{"bike_id":"cd02c080-8936-4e2b-af4d-301cbe8eb8f1","system_id":"levelo_inurba_marseille","lat":43.30066,"lon":5.40357,"is_reserved":false,"is_disabled":false,"rental_uris":{"android":"levelo://app?vid=cd02c080-8936-4e2b-af4d-301cbe8eb8f1","ios":"levelo://app?vid=cd02c080-8936-4e2b-af4d-301cbe8eb8f1"},"vehicle_type_id":"4","last_reported":1758025200,"current_range_meters":10800,"station_id":"","pricing_plan_id":"cebpf4jnsgd1na2vs0mg"},{"bike_id":"77246e06-46b3-406d-9b69-b9b3e2cbdee1","system_id":"levelo_inurba_marseille","lat":43.28066,"lon":5.386682,"is_reserved":false,"is_disabled":false,"rental_uris":{"android":"levelo://app?vid=77246e06-46b3-406d-9b69-b9b3e2cbdee1","ios":"levelo://app?vid=77246e06-46b3-406d-9b69-b9b3e2cbdee1"},"vehicle_type_id":"4","last_reported":1758025200,"current_range_meters":10800,"station_id":"","pricing_plan_id":"cebpf4jnsgd1na2vs0mg"},{"bike_id":"e5c0f9fa-aa79-401b-ac6b-a846850c5345","system_id":"levelo_inurba_marseille","lat":43.27843,"lon":5.38513,"is_reserved":false,"is_disabled":false,"rental_uris":{"android":"levelo://app?vid=e5c0f9fa-aa79-401b-ac6b-a846850c5345","ios":"levelo://app?vid=e5c0f9fa-aa79-401b-ac6b-a846850c5345"},"vehicle_type_id":"4","last_reported":1758025200,"current_range_meters":10800,"station_id":"","pricing_plan_id":"cebpf4jnsgd1na2vs0mg"},{"bike_id":"e824d254-16a6-4ae4-983a-05af083f4c81","system_id":"levelo_inurba_marseille","lat":43.21753,"lon":5.34607,"is_reserved":false,"is_disabled":false,"rental_uris":{"android":"levelo://app?vid=e824d254-16a6-4ae4-983a-05af083f4c81","ios":"levelo://app?vid=e824d254-16a6-4ae4-983a-05af083f4c81"},"vehicle_type_id":"4","last_reported":1758025200,"current_range_meters":11200,"station_id":"","pricing_plan_id":"cebpf4jnsgd1na2vs0mg"},{"bike_id":"33211439-4c1d-49d1-8c80-6f86ae54dfb9","system_id":"levelo_inurba_marseille","lat":43.29074,"lon":5.37161,"is_reserved":false,"is_disabled":false,"rental_uris":{"android":"levelo://app?vid=33211439-4c1d-49d1-8c80-6f86ae54dfb9","ios":"levelo://app?vid=33211439-4c1d-49d1-8c80-6f86ae54dfb9"},"vehicle_type_id":"4","last_reported":1758025200,"current_range_meters":11200,"station_id":"ce4bh5p2rcd13ifvqe4g","pricing_plan_id":"cebpf4jnsgd1na2vs0mg"},{"bike_id":"fdd83176-5108-4460-8e4c-a83087a260a3","system_id":"levelo_inurba_marseille","lat":43.290726,"lon":5.371622,"is_reserved":false,"is_disabled":false,"rental_uris":{"android":"levelo://app?vid=fdd83176-5108-4460-8e4c-a83087a260a3","ios":"levelo://app?vid=fdd83176-5108-4460-8e4c-a83087a260a3"},"vehicle_type_id":"4","last_reported":1758025200,"current_range_meters":11200,"station_id":"ce4bh5p2rcd13ifvqe4g","pricing_plan_id":"cebpf4jnsgd1na2vs0mg"},{"bike_id":"a44b7d9c-7d7f-4649-9e3e-bc97747000c5","system_id":"levelo_inurba_marseille","lat":43.305507,"lon":5.365663,"is_reserved":false,"is_disabled":false,"rental_uris":{"android":"levelo://app?vid=a44b7d9c-7d7f-4649-9e3e-bc97747000c5","ios":"levelo://app?vid=a44b7d9c-7d7f-4649-9e3e-bc97747000c5"},"vehicle_type_id":"4","last_reported":1758025200,"current_range_meters":11200,"station_id":"ce4bgs12rcd13ifvqcag","pricing_plan_id":"cebpf4jnsgd1na2vs0mg"},{"bike_id":"02d56be7-a682-4563-9ee2-79054ee7d3d9","system_id":"levelo_inurba_marseille","lat":43.344655,"lon":5.431187,"is_reserved":false,"is_disabled":false,"rental_uris":{"android":"levelo://app?vid=02d56be7-a682-4563-9ee2-79054ee7d3d9","ios":"levelo://app?vid=02d56be7-a682-4563-9ee2-79054ee7d3d9"},"vehicle_type_id":"4","last_reported":1758025200,"current_range_meters":11200,"station_id":"","pricing_plan_id":"cebpf4jnsgd1na2vs0mg"},{"bike_id":"3468df82-d21c-4467-9dad-0840097912f9","system_id":"levelo_inurba_marseille","lat":43.25501,"lon":5.37655,"is_reserved":false,"is_disabled":false,"rental_uris":{"android":"levelo://app?vid=3468df82-d21c-4467-9dad-0840097912f9","ios":"levelo://app?vid=3468df82-d21c-4467-9dad-0840097912f9"},"vehicle_type_id":"4","last_reported":1758025200,"current_range_meters":11200,"station_id":"ce4bhh12rcd13ifvqff0","pricing_plan_id":"cebpf4jnsgd1na2vs0mg"},{"bike_id":"784388ef-ddc4-4415-ad5e-6329b1c251eb","system_id":"levelo_inurba_marseille","lat":43.25501,"lon":5.37651,"is_reserved":false,"is_disabled":false,"rental_uris":{"android":"levelo://app?vid=784388ef-ddc4-4415-ad5e-6329b1c251eb","ios":"levelo://app?vid=784388ef-ddc4-4415-ad5e-6329b1c251eb"},"vehicle_type_id":"4","last_reported":1758025200,"current_range_meters":11200,"station_id":"ce4bhh12rcd13ifvqff0","pricing_plan_id":"cebpf4jnsgd1na2vs0mg"},{"bike_id":"b6198fc8-b85a-4231-befa-f3c87a5b77d5","system_id":"levelo_inurba_marseille","lat":43.28482,"lon":5.38541,"is_reserved":false,"is_disabled":false,"rental_uris":{"android":"levelo://app?vid=b6198fc8-b85a-4231-befa-f3c87a5b77d5","ios":"levelo://app?vid=b6198fc8-b85a-4231-befa-f3c87a5b77d5"},"vehicle_type_id":"4","last_reported":1758025200,"current_range_meters":11200,"station_id":"ce4bh8p2rcd13ifvqeb0","pricing_plan_id":"cebpf4jnsgd1na2vs0mg"},{"bike_id":"56845f81-93df-439a-87bf-94c54f1b6884","system_id":"levelo_inurba_marseille","lat":43.273706,"lon":5.362577,"is_reserved":false,"is_disabled":false,"rental_uris":{"android":"levelo://app?vid=56845f81-93df-439a-87bf-94c54f1b6884","ios":"levelo://app?vid=56845f81-93df-439a-87bf-94c54f1b6884"},"vehicle_type_id":"4","last_reported":1758025200,"current_range_meters":11200,"station_id":"ce4bhbh2rcd13ifvqeo0","pricing_plan_id":"cebpf4jnsgd1na2vs0mg"},{"bike_id":"4e60060b-3d15-4e27-9c83-dbc2a3ebf29c","system_id":"levelo_inurba_marseille","lat":43.31752,"lon":5.39018,"is_reserved":false,"is_disabled":false,"rental_uris":{"android":"levelo://app?vid=4e60060b-3d15-4e27-9c83-dbc2a3ebf29c","ios":"levelo://app?vid=4e60060b-3d15-4e27-9c83-dbc2a3ebf29c"},"vehicle_type_id":"4","last_reported":1758025200,"current_range_meters":11600,"station_id":"ce4bhqp2rcd13ifvqhng","pricing_plan_id":"cebpf4jnsgd1na2vs0mg"},{"bike_id":"95e70730-277b-4231-9c86-eae2e6943999","system_id":"levelo_inurba_marseille","lat":43.301367,"lon":5.374143,"is_reserved":false,"is_disabled":false,"rental_uris":{"android":"levelo://app?vid=95e70730-277b-4231-9c86-eae2e6943999","ios":"levelo://app?vid=95e70730-277b-4231-9c86-eae2e6943999"},"vehicle_type_id":"4","last_reported":1758025200,"current_range_meters":11600,"station_id":"ce4bgs92rcd13ifvqcc0","pricing_plan_id":"cebpf4jnsgd1na2vs0mg"},{"bike_id":"37651add-4052-43d9-bdff-01341493f68f","system_id":"levelo_inurba_marseille","lat":43.30907,"lon":5.36851,"is_reserved":false,"is_disabled":false,"rental_uris":{"android":"levelo://app?vid=37651add-4052-43d9-bdff-01341493f68f","ios":"levelo://app?vid=37651add-4052-43d9-bdff-01341493f68f"},"vehicle_type_id":"4","last_reported":1758025200,"current_range_meters":11600,"station_id":"ce4bgn92rcd13ifvqbvg","pricing_plan_id":"cebpf4jnsgd1na2vs0mg"},{"bike_id":"3a3c19d5-d14e-4423-8db4-34416ea35cc2","system_id":"levelo_inurba_marseille","lat":43.2707,"lon":5.42282,"is_reserved":false,"is_disabled":false,"rental_uris":{"android":"levelo://app?vid=3a3c19d5-d14e-4423-8db4-34416ea35cc2","ios":"levelo://app?vid=3a3c19d5-d14e-4423-8db4-34416ea35cc2"},"vehicle_type_id":"4","last_reported":1758025200,"current_range_meters":11600,"station_id":"ce4bhk92rcd13ifvqgb0","pricing_plan_id":"cebpf4jnsgd1na2vs0mg"},{"bike_id":"8eb5991f-aa9d-4c3f-aadc-c8951b190a1a","system_id":"levelo_inurba_marseille","lat":43.27914,"lon":5.395709,"is_reserved":false,"is_disabled":false,"rental_uris":{"android":"levelo://app?vid=8eb5991f-aa9d-4c3f-aadc-c8951b190a1a","ios":"levelo://app?vid=8eb5991f-aa9d-4c3f-aadc-c8951b190a1a"},"vehicle_type_id":"4","last_reported":1758025200,"current_range_meters":11600,"station_id":"ce4bhf92rcd13ifvqf40","pricing_plan_id":"cebpf4jnsgd1na2vs0mg"},{"bike_id":"ac340abf-24c3-418f-9e97-0eb4212ba73f","system_id":"levelo_inurba_marseille","lat":43.30913,"lon":5.3685,"is_reserved":false,"is_disabled":false,"rental_uris":{"android":"levelo://app?vid=ac340abf-24c3-418f-9e97-0eb4212ba73f","ios":"levelo://app?vid=ac340abf-24c3-418f-9e97-0eb4212ba73f"},"vehicle_type_id":"4","last_reported":1758025200,"current_range_meters":12000,"station_id":"ce4bgn92rcd13ifvqbvg","pricing_plan_id":"cebpf4jnsgd1na2vs0mg"},{"bike_id":"8c803a2d-68d8-48a9-95fd-a0f5d9012a27","system_id":"levelo_inurba_marseille","lat":43.28942,"lon":5.36397,"is_reserved":false,"is_disabled":false,"rental_uris":{"android":"levelo://app?vid=8c803a2d-68d8-48a9-95fd-a0f5d9012a27","ios":"levelo://app?vid=8c803a2d-68d8-48a9-95fd-a0f5d9012a27"},"vehicle_type_id":"4","last_reported":1758025200,"current_range_meters":12000,"station_id":"ce4bhc92rcd13ifvqetg","pricing_plan_id":"cebpf4jnsgd1na2vs0mg"},{"bike_id":"532628d9-eac6-417b-9d37-f9d29eec171a","system_id":"levelo_inurba_marseille","lat":43.302515,"lon":5.400881,"is_reserved":false,"is_disabled":false,"rental_uris":{"android":"levelo://app?vid=532628d9-eac6-417b-9d37-f9d29eec171a","ios":"levelo://app?vid=532628d9-eac6-417b-9d37-f9d29eec171a"},"vehicle_type_id":"4","last_reported":1758025200,"current_range_meters":12000,"station_id":"ce4bgvh2rcd13ifvqcs0","pricing_plan_id":"cebpf4jnsgd1na2vs0mg"},{"bike_id":"4d9785ea-13de-4210-bc0d-f170841019c0","system_id":"levelo_inurba_marseille","lat":43.23199,"lon":5.35546,"is_reserved":false,"is_disabled":false,"rental_uris":{"android":"levelo://app?vid=4d9785ea-13de-4210-bc0d-f170841019c0","ios":"levelo://app?vid=4d9785ea-13de-4210-bc0d-f170841019c0"},"vehicle_type_id":"4","last_reported":1758025200,"current_range_meters":12000,"station_id":"ce4bhu92rcd13ifvqi70","pricing_plan_id":"cebpf4jnsgd1na2vs0mg"},{"bike_id":"b1925e44-c73a-42f1-9faa-5f8f370e3b1b","system_id":"levelo_inurba_marseille","lat":43.24537,"lon":5.39526,"is_reserved":false,"is_disabled":false,"rental_uris":{"android":"levelo://app?vid=b1925e44-c73a-42f1-9faa-5f8f370e3b1b","ios":"levelo://app?vid=b1925e44-c73a-42f1-9faa-5f8f370e3b1b"},"vehicle_type_id":"4","last_reported":1758025200,"current_range_meters":12400,"station_id":"ce4bhlp2rcd13ifvqgjg","pricing_plan_id":"cebpf4jnsgd1na2vs0mg"},{"bike_id":"1b3855d1-3f7b-492a-b57b-7d5039858a5b","system_id":"levelo_inurba_marseille","lat":43.29518,"lon":5.39038,"is_reserved":false,"is_disabled":false,"rental_uris":{"android":"levelo://app?vid=1b3855d1-3f7b-492a-b57b-7d5039858a5b","ios":"levelo://app?vid=1b3855d1-3f7b-492a-b57b-7d5039858a5b"},"vehicle_type_id":"4","last_reported":1758025200,"current_range_meters":12400,"station_id":"ce4bh3p2rcd13ifvqdp0","pricing_plan_id":"cebpf4jnsgd1na2vs0mg"},{"bike_id":"92cd9730-8b87-4a1f-a491-678836e35a15","system_id":"levelo_inurba_marseille","lat":43.28933,"lon":5.36402,"is_reserved":false,"is_disabled":false,"rental_uris":{"android":"levelo://app?vid=92cd9730-8b87-4a1f-a491-678836e35a15","ios":"levelo://app?vid=92cd9730-8b87-4a1f-a491-678836e35a15"},"vehicle_type_id":"4","last_reported":1758025200,"current_range_meters":12400,"station_id":"ce4bhc92rcd13ifvqetg","pricing_plan_id":"cebpf4jnsgd1na2vs0mg"},{"bike_id":"8f9bd6a6-df4c-421c-ab89-c2c186ee48ab","system_id":"levelo_inurba_marseille","lat":43.296229,"lon":5.376965,"is_reserved":false,"is_disabled":false,"rental_uris":{"android":"levelo://app?vid=8f9bd6a6-df4c-421c-ab89-c2c186ee48ab","ios":"levelo://app?vid=8f9bd6a6-df4c-421c-ab89-c2c186ee48ab"},"vehicle_type_id":"4","last_reported":1758025200,"current_range_meters":12800,"station_id":"ce4bgi92rcd13ifvqb90","pricing_plan_id":"cebpf4jnsgd1na2vs0mg"},{"bike_id":"6a0d1e88-e59f-4b4b-bf47-c1a25def6105","system_id":"levelo_inurba_marseille","lat":43.28939,"lon":5.38397,"is_reserved":false,"is_disabled":false,"rental_uris":{"android":"levelo://app?vid=6a0d1e88-e59f-4b4b-bf47-c1a25def6105","ios":"levelo://app?vid=6a0d1e88-e59f-4b4b-bf47-c1a25def6105"},"vehicle_type_id":"4","last_reported":1758025200,"current_range_meters":12800,"station_id":"ce4bh612rcd13ifvqe6g","pricing_plan_id":"cebpf4jnsgd1na2vs0mg"},{"bike_id":"034bc163-6283-40e0-826b-2748a9c75d00","system_id":"levelo_inurba_marseille","lat":43.28991,"lon":5.35624,"is_reserved":false,"is_disabled":false,"rental_uris":{"android":"levelo://app?vid=034bc163-6283-40e0-826b-2748a9c75d00","ios":"levelo://app?vid=034bc163-6283-40e0-826b-2748a9c75d00"},"vehicle_type_id":"4","last_reported":1758025200,"current_range_meters":12800,"station_id":"ce4bhb92rcd13ifvqen0","pricing_plan_id":"cebpf4jnsgd1na2vs0mg"},{"bike_id":"44901073-5ec2-46de-a391-71ba17862cc5","system_id":"levelo_inurba_marseille","lat":43.2986,"lon":5.3974,"is_reserved":false,"is_disabled":false,"rental_uris":{"android":"levelo://app?vid=44901073-5ec2-46de-a391-71ba17862cc5","ios":"levelo://app?vid=44901073-5ec2-46de-a391-71ba17862cc5"},"vehicle_type_id":"4","last_reported":1758025200,"current_range_meters":12800,"station_id":"ce4bh0h2rcd13ifvqd50","pricing_plan_id":"cebpf4jnsgd1na2vs0mg"},{"bike_id":"fbf68d05-5125-49dc-91fb-265fd58ee496","system_id":"levelo_inurba_marseille","lat":43.24083,"lon":5.37762,"is_reserved":false,"is_disabled":false,"rental_uris":{"android":"levelo://app?vid=fbf68d05-5125-49dc-91fb-265fd58ee496","ios":"levelo://app?vid=fbf68d05-5125-49dc-91fb-265fd58ee496"},"vehicle_type_id":"4","last_reported":1758025200,"current_range_meters":13600,"station_id":"ce4bhnp2rcd13ifvqgvg","pricing_plan_id":"cebpf4jnsgd1na2vs0mg"},{"bike_id":"94ace362-7544-4926-93a9-9f748dc14e30","system_id":"levelo_inurba_marseille","lat":43.26793,"lon":5.39412,"is_reserved":false,"is_disabled":false,"rental_uris":{"android":"levelo://app?vid=94ace362-7544-4926-93a9-9f748dc14e30","ios":"levelo://app?vid=94ace362-7544-4926-93a9-9f748dc14e30"},"vehicle_type_id":"4","last_reported":1758025200,"current_range_meters":13600,"station_id":"ce4bhh12rcd13ifvqfg0","pricing_plan_id":"cebpf4jnsgd1na2vs0mg"},{"bike_id":"cd2513dc-3627-4964-a0b1-d4c9260c4c8e","system_id":"levelo_inurba_marseille","lat":43.24084,"lon":5.37752,"is_reserved":false,"is_disabled":false,"rental_uris":{"android":"levelo://app?vid=cd2513dc-3627-4964-a0b1-d4c9260c4c8e","ios":"levelo://app?vid=cd2513dc-3627-4964-a0b1-d4c9260c4c8e"},"vehicle_type_id":"4","last_reported":1758025200,"current_range_meters":13600,"station_id":"ce4bhnp2rcd13ifvqgvg","pricing_plan_id":"cebpf4jnsgd1na2vs0mg"},{"bike_id":"fb351b77-39b9-4407-912a-c1008fce46ae","system_id":"levelo_inurba_marseille","lat":43.31343,"lon":5.36722,"is_reserved":false,"is_disabled":false,"rental_uris":{"android":"levelo://app?vid=fb351b77-39b9-4407-912a-c1008fce46ae","ios":"levelo://app?vid=fb351b77-39b9-4407-912a-c1008fce46ae"},"vehicle_type_id":"4","last_reported":1758025200,"current_range_meters":13600,"station_id":"ce4bgr92rcd13ifvqc6g","pricing_plan_id":"cebpf4jnsgd1na2vs0mg"},{"bike_id":"8e39e603-6d26-44dc-ba83-90967d9dedc1","system_id":"levelo_inurba_marseille","lat":43.28263,"lon":5.35062,"is_reserved":false,"is_disabled":false,"rental_uris":{"android":"levelo://app?vid=8e39e603-6d26-44dc-ba83-90967d9dedc1","ios":"levelo://app?vid=8e39e603-6d26-44dc-ba83-90967d9dedc1"},"vehicle_type_id":"4","last_reported":1758025200,"current_range_meters":14000,"station_id":"ce4bhbp2rcd13ifvqerg","pricing_plan_id":"cebpf4jnsgd1na2vs0mg"},{"bike_id":"dc9ad3f8-8150-4371-9d74-e3b50648bea4","system_id":"levelo_inurba_marseille","lat":43.3042,"lon":5.38895,"is_reserved":false,"is_disabled":false,"rental_uris":{"android":"levelo://app?vid=dc9ad3f8-8150-4371-9d74-e3b50648bea4","ios":"levelo://app?vid=dc9ad3f8-8150-4371-9d74-e3b50648bea4"},"vehicle_type_id":"4","last_reported":1758025200,"current_range_meters":14000,"station_id":"ce4bgk12rcd13ifvqbi0","pricing_plan_id":"cebpf4jnsgd1na2vs0mg"},{"bike_id":"7401f904-c7a5-4420-9a38-b32c76084c39","system_id":"levelo_inurba_marseille","lat":43.28276,"lon":5.3506,"is_reserved":false,"is_disabled":false,"rental_uris":{"android":"levelo://app?vid=7401f904-c7a5-4420-9a38-b32c76084c39","ios":"levelo://app?vid=7401f904-c7a5-4420-9a38-b32c76084c39"},"vehicle_type_id":"4","last_reported":1758025200,"current_range_meters":14000,"station_id":"ce4bhbp2rcd13ifvqerg","pricing_plan_id":"cebpf4jnsgd1na2vs0mg"},{"bike_id":"3b26aa0d-3679-4b4c-9b55-1096f6d08a9d","system_id":"levelo_inurba_marseille","lat":43.31309,"lon":5.39394,"is_reserved":false,"is_disabled":false,"rental_uris":{"android":"levelo://app?vid=3b26aa0d-3679-4b4c-9b55-1096f6d08a9d","ios":"levelo://app?vid=3b26aa0d-3679-4b4c-9b55-1096f6d08a9d"},"vehicle_type_id":"4","last_reported":1758025200,"current_range_meters":14000,"station_id":"","pricing_plan_id":"cebpf4jnsgd1na2vs0mg"},{"bike_id":"f5eca083-ec69-453e-ade1-461e9e28e798","system_id":"levelo_inurba_marseille","lat":43.24097,"lon":5.37776,"is_reserved":false,"is_disabled":false,"rental_uris":{"android":"levelo://app?vid=f5eca083-ec69-453e-ade1-461e9e28e798","ios":"levelo://app?vid=f5eca083-ec69-453e-ade1-461e9e28e798"},"vehicle_type_id":"4","last_reported":1758025200,"current_range_meters":14000,"station_id":"ce4bhnp2rcd13ifvqgvg","pricing_plan_id":"cebpf4jnsgd1na2vs0mg"},{"bike_id":"9c740e69-761d-4034-b327-63addcf5f7f3","system_id":"levelo_inurba_marseille","lat":43.282749,"lon":5.350656,"is_reserved":false,"is_disabled":false,"rental_uris":{"android":"levelo://app?vid=9c740e69-761d-4034-b327-63addcf5f7f3","ios":"levelo://app?vid=9c740e69-761d-4034-b327-63addcf5f7f3"},"vehicle_type_id":"4","last_reported":1758025200,"current_range_meters":14000,"station_id":"ce4bhbp2rcd13ifvqerg","pricing_plan_id":"cebpf4jnsgd1na2vs0mg"},{"bike_id":"f8b55e6f-fc3d-4219-a744-334ff9e3907f","system_id":"levelo_inurba_marseille","lat":43.31357,"lon":5.36695,"is_reserved":false,"is_disabled":false,"rental_uris":{"android":"levelo://app?vid=f8b55e6f-fc3d-4219-a744-334ff9e3907f","ios":"levelo://app?vid=f8b55e6f-fc3d-4219-a744-334ff9e3907f"},"vehicle_type_id":"4","last_reported":1758025200,"current_range_meters":14000,"station_id":"ce4bgr92rcd13ifvqc6g","pricing_plan_id":"cebpf4jnsgd1na2vs0mg"},{"bike_id":"2ba6d751-735d-4f3f-b471-7e3f5bc5e1b1","system_id":"levelo_inurba_marseille","lat":43.32095,"lon":5.36765,"is_reserved":false,"is_disabled":false,"rental_uris":{"android":"levelo://app?vid=2ba6d751-735d-4f3f-b471-7e3f5bc5e1b1","ios":"levelo://app?vid=2ba6d751-735d-4f3f-b471-7e3f5bc5e1b1"},"vehicle_type_id":"4","last_reported":1758025200,"current_range_meters":14000,"station_id":"ce4bhrh2rcd13ifvqhug","pricing_plan_id":"cebpf4jnsgd1na2vs0mg"},{"bike_id":"03ef693f-c532-4e7c-8d02-51c4cf73c821","system_id":"levelo_inurba_marseille","lat":43.31072,"lon":5.38358,"is_reserved":false,"is_disabled":false,"rental_uris":{"android":"levelo://app?vid=03ef693f-c532-4e7c-8d02-51c4cf73c821","ios":"levelo://app?vid=03ef693f-c532-4e7c-8d02-51c4cf73c821"},"vehicle_type_id":"4","last_reported":1758025200,"current_range_meters":14400,"station_id":"ce4bgv92rcd13ifvqcr0","pricing_plan_id":"cebpf4jnsgd1na2vs0mg"},{"bike_id":"0049acfe-97a7-4c73-afbf-6c0e3d2fdff3","system_id":"levelo_inurba_marseille","lat":43.284876,"lon":5.385559,"is_reserved":false,"is_disabled":true,"rental_uris":{"android":"levelo://app?vid=0049acfe-97a7-4c73-afbf-6c0e3d2fdff3","ios":"levelo://app?vid=0049acfe-97a7-4c73-afbf-6c0e3d2fdff3"},"vehicle_type_id":"4","last_reported":1758025200,"current_range_meters":14400,"station_id":"ce4bh8p2rcd13ifvqeb0","pricing_plan_id":"cebpf4jnsgd1na2vs0mg"},{"bike_id":"4c42b1b8-2051-4007-8888-f6b621a827e6","system_id":"levelo_inurba_marseille","lat":43.27376,"lon":5.36264,"is_reserved":false,"is_disabled":false,"rental_uris":{"android":"levelo://app?vid=4c42b1b8-2051-4007-8888-f6b621a827e6","ios":"levelo://app?vid=4c42b1b8-2051-4007-8888-f6b621a827e6"},"vehicle_type_id":"4","last_reported":1758025200,"current_range_meters":14400,"station_id":"ce4bhbh2rcd13ifvqeo0","pricing_plan_id":"cebpf4jnsgd1na2vs0mg"},{"bike_id":"0ede21be-37d9-4495-b672-80274a6292be","system_id":"levelo_inurba_marseille","lat":43.35056,"lon":5.34068,"is_reserved":false,"is_disabled":false,"rental_uris":{"android":"levelo://app?vid=0ede21be-37d9-4495-b672-80274a6292be","ios":"levelo://app?vid=0ede21be-37d9-4495-b672-80274a6292be"},"vehicle_type_id":"4","last_reported":1758025200,"current_range_meters":14400,"station_id":"","pricing_plan_id":"cebpf4jnsgd1na2vs0mg"},{"bike_id":"08bfd278-cd3f-4e7c-8426-50d38ee1e12f","system_id":"levelo_inurba_marseille","lat":43.24073,"lon":5.3776,"is_reserved":false,"is_disabled":false,"rental_uris":{"android":"levelo://app?vid=08bfd278-cd3f-4e7c-8426-50d38ee1e12f","ios":"levelo://app?vid=08bfd278-cd3f-4e7c-8426-50d38ee1e12f"},"vehicle_type_id":"4","last_reported":1758025200,"current_range_meters":14400,"station_id":"ce4bhnp2rcd13ifvqgvg","pricing_plan_id":"cebpf4jnsgd1na2vs0mg"},{"bike_id":"ece07351-e21d-4c48-bd8e-d6076d0d6379","system_id":"levelo_inurba_marseille","lat":43.28485,"lon":5.3749,"is_reserved":false,"is_disabled":false,"rental_uris":{"android":"levelo://app?vid=ece07351-e21d-4c48-bd8e-d6076d0d6379","ios":"levelo://app?vid=ece07351-e21d-4c48-bd8e-d6076d0d6379"},"vehicle_type_id":"4","last_reported":1758025200,"current_range_meters":14800,"station_id":"","pricing_plan_id":"cebpf4jnsgd1na2vs0mg"},{"bike_id":"c5bcce9e-abc8-4f53-903d-db69a5bc6aa1","system_id":"levelo_inurba_marseille","lat":43.231552,"lon":5.437097,"is_reserved":false,"is_disabled":false,"rental_uris":{"android":"levelo://app?vid=c5bcce9e-abc8-4f53-903d-db69a5bc6aa1","ios":"levelo://app?vid=c5bcce9e-abc8-4f53-903d-db69a5bc6aa1"},"vehicle_type_id":"4","last_reported":1758025200,"current_range_meters":14800,"station_id":"ce4bhmp2rcd13ifvqgog","pricing_plan_id":"cebpf4jnsgd1na2vs0mg"},{"bike_id":"819acd2d-1fa5-4830-afb3-48b5185776e3","system_id":"levelo_inurba_marseille","lat":43.29894,"lon":5.43669,"is_reserved":false,"is_disabled":false,"rental_uris":{"android":"levelo://app?vid=819acd2d-1fa5-4830-afb3-48b5185776e3","ios":"levelo://app?vid=819acd2d-1fa5-4830-afb3-48b5185776e3"},"vehicle_type_id":"4","last_reported":1758025200,"current_range_meters":14800,"station_id":"ce4bhpp2rcd13ifvqhfg","pricing_plan_id":"cebpf4jnsgd1na2vs0mg"},{"bike_id":"c5db8956-5cb9-45c3-98ae-2d5ca5a164f9","system_id":"levelo_inurba_marseille","lat":43.30544,"lon":5.367258,"is_reserved":false,"is_disabled":false,"rental_uris":{"android":"levelo://app?vid=c5db8956-5cb9-45c3-98ae-2d5ca5a164f9","ios":"levelo://app?vid=c5db8956-5cb9-45c3-98ae-2d5ca5a164f9"},"vehicle_type_id":"4","last_reported":1758025200,"current_range_meters":14800,"station_id":"ce4bgrp2rcd13ifvqc9g","pricing_plan_id":"cebpf4jnsgd1na2vs0mg"},{"bike_id":"a233fd34-6838-42a2-943f-f1f026b5e317","system_id":"levelo_inurba_marseille","lat":43.28418,"lon":5.34984,"is_reserved":false,"is_disabled":false,"rental_uris":{"android":"levelo://app?vid=a233fd34-6838-42a2-943f-f1f026b5e317","ios":"levelo://app?vid=a233fd34-6838-42a2-943f-f1f026b5e317"},"vehicle_type_id":"4","last_reported":1758025200,"current_range_meters":14800,"station_id":"ce4bhbh2rcd13ifvqepg","pricing_plan_id":"cebpf4jnsgd1na2vs0mg"},{"bike_id":"5972023b-ffaa-4796-ab87-c66d57b77bb1","system_id":"levelo_inurba_marseille","lat":43.292111,"lon":5.359216,"is_reserved":false,"is_disabled":false,"rental_uris":{"android":"levelo://app?vid=5972023b-ffaa-4796-ab87-c66d57b77bb1","ios":"levelo://app?vid=5972023b-ffaa-4796-ab87-c66d57b77bb1"},"vehicle_type_id":"4","last_reported":1758025200,"current_range_meters":14800,"station_id":"ce4bhb12rcd13ifvqel0","pricing_plan_id":"cebpf4jnsgd1na2vs0mg"},{"bike_id":"62473aca-5d60-4f9b-8d0a-e6ce0ea7fc2f","system_id":"levelo_inurba_marseille","lat":43.303469,"lon":5.366117,"is_reserved":false,"is_disabled":false,"rental_uris":{"android":"levelo://app?vid=62473aca-5d60-4f9b-8d0a-e6ce0ea7fc2f","ios":"levelo://app?vid=62473aca-5d60-4f9b-8d0a-e6ce0ea7fc2f"},"vehicle_type_id":"4","last_reported":1758025200,"current_range_meters":15200,"station_id":"","pricing_plan_id":"cebpf4jnsgd1na2vs0mg"},{"bike_id":"6378e16d-f6dd-442d-bb2b-c75afe715674","system_id":"levelo_inurba_marseille","lat":43.26203,"lon":5.37931,"is_reserved":false,"is_disabled":false,"rental_uris":{"android":"levelo://app?vid=6378e16d-f6dd-442d-bb2b-c75afe715674","ios":"levelo://app?vid=6378e16d-f6dd-442d-bb2b-c75afe715674"},"vehicle_type_id":"4","last_reported":1758025200,"current_range_meters":14800,"station_id":"ce4bhjp2rcd13ifvqg90","pricing_plan_id":"cebpf4jnsgd1na2vs0mg"},{"bike_id":"18b12373-dc87-4089-8465-f816279e5431","system_id":"levelo_inurba_marseille","lat":43.24954,"lon":5.40498,"is_reserved":false,"is_disabled":false,"rental_uris":{"android":"levelo://app?vid=18b12373-dc87-4089-8465-f816279e5431","ios":"levelo://app?vid=18b12373-dc87-4089-8465-f816279e5431"},"vehicle_type_id":"4","last_reported":1758025200,"current_range_meters":15200,"station_id":"st_d2ngiaodas8pm72gd1h0","pricing_plan_id":"cebpf4jnsgd1na2vs0mg"},{"bike_id":"11555ead-152a-4e2f-ac3e-7aaa852c50e5","system_id":"levelo_inurba_marseille","lat":43.225326,"lon":5.348358,"is_reserved":false,"is_disabled":false,"rental_uris":{"android":"levelo://app?vid=11555ead-152a-4e2f-ac3e-7aaa852c50e5","ios":"levelo://app?vid=11555ead-152a-4e2f-ac3e-7aaa852c50e5"},"vehicle_type_id":"4","last_reported":1758025200,"current_range_meters":15200,"station_id":"","pricing_plan_id":"cebpf4jnsgd1na2vs0mg"},{"bike_id":"ac1b4e10-d97b-41a1-9ba2-b5ce67b231a7","system_id":"levelo_inurba_marseille","lat":43.28578,"lon":5.39498,"is_reserved":false,"is_disabled":false,"rental_uris":{"android":"levelo://app?vid=ac1b4e10-d97b-41a1-9ba2-b5ce67b231a7","ios":"levelo://app?vid=ac1b4e10-d97b-41a1-9ba2-b5ce67b231a7"},"vehicle_type_id":"4","last_reported":1758025200,"current_range_meters":15200,"station_id":"ce4bh292rcd13ifvqdg0","pricing_plan_id":"cebpf4jnsgd1na2vs0mg"},{"bike_id":"d2fba06b-8ae3-4ce5-8997-e1592183411d","system_id":"levelo_inurba_marseille","lat":43.29783,"lon":5.39329,"is_reserved":false,"is_disabled":false,"rental_uris":{"android":"levelo://app?vid=d2fba06b-8ae3-4ce5-8997-e1592183411d","ios":"levelo://app?vid=d2fba06b-8ae3-4ce5-8997-e1592183411d"},"vehicle_type_id":"4","last_reported":1758025200,"current_range_meters":15200,"station_id":"chh1huq6cuj3fo74tm60","pricing_plan_id":"cebpf4jnsgd1na2vs0mg"},{"bike_id":"bbfe1af8-79a2-4818-8211-e91f2baa69bc","system_id":"levelo_inurba_marseille","lat":43.30088,"lon":5.3908,"is_reserved":false,"is_disabled":false,"rental_uris":{"android":"levelo://app?vid=bbfe1af8-79a2-4818-8211-e91f2baa69bc","ios":"levelo://app?vid=bbfe1af8-79a2-4818-8211-e91f2baa69bc"},"vehicle_type_id":"4","last_reported":1758025200,"current_range_meters":15200,"station_id":"ce4bh192rcd13ifvqdb0","pricing_plan_id":"cebpf4jnsgd1na2vs0mg"},{"bike_id":"c8144899-9b41-4fd4-84a4-755117cb116d","system_id":"levelo_inurba_marseille","lat":43.284722,"lon":5.384208,"is_reserved":false,"is_disabled":false,"rental_uris":{"android":"levelo://app?vid=c8144899-9b41-4fd4-84a4-755117cb116d","ios":"levelo://app?vid=c8144899-9b41-4fd4-84a4-755117cb116d"},"vehicle_type_id":"4","last_reported":1758025200,"current_range_meters":15200,"station_id":"","pricing_plan_id":"cebpf4jnsgd1na2vs0mg"},{"bike_id":"a97dce15-ef2b-4843-886c-a0e930f4cb19","system_id":"levelo_inurba_marseille","lat":43.27375,"lon":5.36255,"is_reserved":false,"is_disabled":false,"rental_uris":{"android":"levelo://app?vid=a97dce15-ef2b-4843-886c-a0e930f4cb19","ios":"levelo://app?vid=a97dce15-ef2b-4843-886c-a0e930f4cb19"},"vehicle_type_id":"4","last_reported":1758025200,"current_range_meters":15200,"station_id":"ce4bhbh2rcd13ifvqeo0","pricing_plan_id":"cebpf4jnsgd1na2vs0mg"},{"bike_id":"af855c88-100f-429f-ba0c-3dad51b30928","system_id":"levelo_inurba_marseille","lat":43.21193,"lon":5.35082,"is_reserved":false,"is_disabled":false,"rental_uris":{"android":"levelo://app?vid=af855c88-100f-429f-ba0c-3dad51b30928","ios":"levelo://app?vid=af855c88-100f-429f-ba0c-3dad51b30928"},"vehicle_type_id":"4","last_reported":1758025200,"current_range_meters":16000,"station_id":"st_cvj6sg6p6f1abm77japg","pricing_plan_id":"cebpf4jnsgd1na2vs0mg"},{"bike_id":"a05fdb49-e038-4a84-8ea1-52f3eaaf07b1","system_id":"levelo_inurba_marseille","lat":43.22534,"lon":5.41658,"is_reserved":false,"is_disabled":false,"rental_uris":{"android":"levelo://app?vid=a05fdb49-e038-4a84-8ea1-52f3eaaf07b1","ios":"levelo://app?vid=a05fdb49-e038-4a84-8ea1-52f3eaaf07b1"},"vehicle_type_id":"4","last_reported":1758025200,"current_range_meters":16000,"station_id":"st_d2o4gvlbi1j2169b742g","pricing_plan_id":"cebpf4jnsgd1na2vs0mg"},{"bike_id":"88a8a850-d513-47ec-8870-e7210ef51b52","system_id":"levelo_inurba_marseille","lat":43.29929,"lon":5.38523,"is_reserved":false,"is_disabled":false,"rental_uris":{"android":"levelo://app?vid=88a8a850-d513-47ec-8870-e7210ef51b52","ios":"levelo://app?vid=88a8a850-d513-47ec-8870-e7210ef51b52"},"vehicle_type_id":"4","last_reported":1758025200,"current_range_meters":16000,"station_id":"","pricing_plan_id":"cebpf4jnsgd1na2vs0mg"},{"bike_id":"242722d1-a969-4e20-997e-2bdba813f35a","system_id":"levelo_inurba_marseille","lat":43.32338,"lon":5.40619,"is_reserved":false,"is_disabled":false,"rental_uris":{"android":"levelo://app?vid=242722d1-a969-4e20-997e-2bdba813f35a","ios":"levelo://app?vid=242722d1-a969-4e20-997e-2bdba813f35a"},"vehicle_type_id":"4","last_reported":1758025200,"current_range_meters":16000,"station_id":"ce4bhq92rcd13ifvqhjg","pricing_plan_id":"cebpf4jnsgd1na2vs0mg"},{"bike_id":"17fdbd14-5693-4c39-a10f-b3fe0fffa242","system_id":"levelo_inurba_marseille","lat":43.29545,"lon":5.37541,"is_reserved":false,"is_disabled":false,"rental_uris":{"android":"levelo://app?vid=17fdbd14-5693-4c39-a10f-b3fe0fffa242","ios":"levelo://app?vid=17fdbd14-5693-4c39-a10f-b3fe0fffa242"},"vehicle_type_id":"4","last_reported":1758025200,"current_range_meters":16000,"station_id":"ce4bgkp2rcd13ifvqbmg","pricing_plan_id":"cebpf4jnsgd1na2vs0mg"},{"bike_id":"ac8741e9-54a8-43a7-8c26-828ed9fb9a03","system_id":"levelo_inurba_marseille","lat":43.303847,"lon":5.424116,"is_reserved":false,"is_disabled":false,"rental_uris":{"android":"levelo://app?vid=ac8741e9-54a8-43a7-8c26-828ed9fb9a03","ios":"levelo://app?vid=ac8741e9-54a8-43a7-8c26-828ed9fb9a03"},"vehicle_type_id":"4","last_reported":1758025200,"current_range_meters":16000,"station_id":"ce4bghh2rcd13ifvqb60","pricing_plan_id":"cebpf4jnsgd1na2vs0mg"},{"bike_id":"91fa28d6-3901-4300-b478-be86cb90165a","system_id":"levelo_inurba_marseille","lat":43.276333,"lon":5.361202,"is_reserved":false,"is_disabled":false,"rental_uris":{"android":"levelo://app?vid=91fa28d6-3901-4300-b478-be86cb90165a","ios":"levelo://app?vid=91fa28d6-3901-4300-b478-be86cb90165a"},"vehicle_type_id":"4","last_reported":1758025200,"current_range_meters":16000,"station_id":"ce4bgj92rcd13ifvqbe0","pricing_plan_id":"cebpf4jnsgd1na2vs0mg"},{"bike_id":"40495e59-b743-486e-987c-cb0c3ab2f191","system_id":"levelo_inurba_marseille","lat":43.33309,"lon":5.4126,"is_reserved":false,"is_disabled":false,"rental_uris":{"android":"levelo://app?vid=40495e59-b743-486e-987c-cb0c3ab2f191","ios":"levelo://app?vid=40495e59-b743-486e-987c-cb0c3ab2f191"},"vehicle_type_id":"4","last_reported":1758025200,"current_range_meters":16000,"station_id":"","pricing_plan_id":"cebpf4jnsgd1na2vs0mg"},{"bike_id":"46a49489-92ea-4c0b-918a-1f7092497e67","system_id":"levelo_inurba_marseille","lat":43.212,"lon":5.35079,"is_reserved":false,"is_disabled":false,"rental_uris":{"android":"levelo://app?vid=46a49489-92ea-4c0b-918a-1f7092497e67","ios":"levelo://app?vid=46a49489-92ea-4c0b-918a-1f7092497e67"},"vehicle_type_id":"4","last_reported":1758025200,"current_range_meters":16000,"station_id":"st_cvj6sg6p6f1abm77japg","pricing_plan_id":"cebpf4jnsgd1na2vs0mg"},{"bike_id":"8ad3dab9-1d2d-4ac0-a622-2705413043f8","system_id":"levelo_inurba_marseille","lat":43.24649,"lon":5.43123,"is_reserved":false,"is_disabled":false,"rental_uris":{"android":"levelo://app?vid=8ad3dab9-1d2d-4ac0-a622-2705413043f8","ios":"levelo://app?vid=8ad3dab9-1d2d-4ac0-a622-2705413043f8"},"vehicle_type_id":"4","last_reported":1758025200,"current_range_meters":16000,"station_id":"st_d2m6c4gdas8pm72e190g","pricing_plan_id":"cebpf4jnsgd1na2vs0mg"},{"bike_id":"c90b53f2-ffb7-445d-88ba-3fbf20ae9860","system_id":"levelo_inurba_marseille","lat":43.27505,"lon":5.4246,"is_reserved":false,"is_disabled":true,"rental_uris":{"android":"levelo://app?vid=c90b53f2-ffb7-445d-88ba-3fbf20ae9860","ios":"levelo://app?vid=c90b53f2-ffb7-445d-88ba-3fbf20ae9860"},"vehicle_type_id":"4","last_reported":1758025200,"current_range_meters":16000,"station_id":"ce4bhn92rcd13ifvqgrg","pricing_plan_id":"cebpf4jnsgd1na2vs0mg"},{"bike_id":"651b92a1-55ce-46d8-9660-ab85569226ef","system_id":"levelo_inurba_marseille","lat":43.311759,"lon":5.387233,"is_reserved":false,"is_disabled":false,"rental_uris":{"android":"levelo://app?vid=651b92a1-55ce-46d8-9660-ab85569226ef","ios":"levelo://app?vid=651b92a1-55ce-46d8-9660-ab85569226ef"},"vehicle_type_id":"4","last_reported":1758025200,"current_range_meters":16000,"station_id":"ce4bgv12rcd13ifvqcp0","pricing_plan_id":"cebpf4jnsgd1na2vs0mg"},{"bike_id":"7ea2e797-6f69-4428-b96f-cc817c100923","system_id":"levelo_inurba_marseille","lat":43.29958,"lon":5.38486,"is_reserved":false,"is_disabled":false,"rental_uris":{"android":"levelo://app?vid=7ea2e797-6f69-4428-b96f-cc817c100923","ios":"levelo://app?vid=7ea2e797-6f69-4428-b96f-cc817c100923"},"vehicle_type_id":"4","last_reported":1758025200,"current_range_meters":16000,"station_id":"ce4bgj92rcd13ifvqbd0","pricing_plan_id":"cebpf4jnsgd1na2vs0mg"},{"bike_id":"003515e8-8117-44bb-979d-5f47e8d50fda","system_id":"levelo_inurba_marseille","lat":43.3064,"lon":5.37572,"is_reserved":false,"is_disabled":false,"rental_uris":{"android":"levelo://app?vid=003515e8-8117-44bb-979d-5f47e8d50fda","ios":"levelo://app?vid=003515e8-8117-44bb-979d-5f47e8d50fda"},"vehicle_type_id":"4","last_reported":1758025200,"current_range_meters":16400,"station_id":"","pricing_plan_id":"cebpf4jnsgd1na2vs0mg"},{"bike_id":"844ff873-135b-4b82-8c97-817973212d6a","system_id":"levelo_inurba_marseille","lat":43.33606,"lon":5.41032,"is_reserved":false,"is_disabled":false,"rental_uris":{"android":"levelo://app?vid=844ff873-135b-4b82-8c97-817973212d6a","ios":"levelo://app?vid=844ff873-135b-4b82-8c97-817973212d6a"},"vehicle_type_id":"4","last_reported":1758025200,"current_range_meters":16400,"station_id":"ce4bhqh2rcd13ifvqhmg","pricing_plan_id":"cebpf4jnsgd1na2vs0mg"},{"bike_id":"80930b1b-4d33-432c-b1ac-c3da94c6fab9","system_id":"levelo_inurba_marseille","lat":43.24386,"lon":5.37052,"is_reserved":false,"is_disabled":false,"rental_uris":{"android":"levelo://app?vid=80930b1b-4d33-432c-b1ac-c3da94c6fab9","ios":"levelo://app?vid=80930b1b-4d33-432c-b1ac-c3da94c6fab9"},"vehicle_type_id":"4","last_reported":1758025200,"current_range_meters":16400,"station_id":"ce4bhhh2rcd13ifvqfk0","pricing_plan_id":"cebpf4jnsgd1na2vs0mg"},{"bike_id":"82e0bfcc-bba2-4c2c-9484-d3ca3b13a18b","system_id":"levelo_inurba_marseille","lat":43.29466,"lon":5.37536,"is_reserved":false,"is_disabled":false,"rental_uris":{"android":"levelo://app?vid=82e0bfcc-bba2-4c2c-9484-d3ca3b13a18b","ios":"levelo://app?vid=82e0bfcc-bba2-4c2c-9484-d3ca3b13a18b"},"vehicle_type_id":"4","last_reported":1758025200,"current_range_meters":16400,"station_id":"","pricing_plan_id":"cebpf4jnsgd1na2vs0mg"},{"bike_id":"96644ae3-2807-4f95-a981-fef4ac2b0e69","system_id":"levelo_inurba_marseille","lat":43.225329,"lon":5.34835,"is_reserved":false,"is_disabled":false,"rental_uris":{"android":"levelo://app?vid=96644ae3-2807-4f95-a981-fef4ac2b0e69","ios":"levelo://app?vid=96644ae3-2807-4f95-a981-fef4ac2b0e69"},"vehicle_type_id":"4","last_reported":1758025200,"current_range_meters":16400,"station_id":"","pricing_plan_id":"cebpf4jnsgd1na2vs0mg"},{"bike_id":"453a2908-3680-455f-bda7-00a342891b64","system_id":"levelo_inurba_marseille","lat":43.2256,"lon":5.41628,"is_reserved":false,"is_disabled":false,"rental_uris":{"android":"levelo://app?vid=453a2908-3680-455f-bda7-00a342891b64","ios":"levelo://app?vid=453a2908-3680-455f-bda7-00a342891b64"},"vehicle_type_id":"4","last_reported":1758025200,"current_range_meters":16400,"station_id":"st_d2o4gvlbi1j2169b742g","pricing_plan_id":"cebpf4jnsgd1na2vs0mg"},{"bike_id":"fd3b4146-0073-4a79-82a9-bfaee63ff612","system_id":"levelo_inurba_marseille","lat":43.29407,"lon":5.38598,"is_reserved":false,"is_disabled":false,"rental_uris":{"android":"levelo://app?vid=fd3b4146-0073-4a79-82a9-bfaee63ff612","ios":"levelo://app?vid=fd3b4146-0073-4a79-82a9-bfaee63ff612"},"vehicle_type_id":"4","last_reported":1758025200,"current_range_meters":16400,"station_id":"","pricing_plan_id":"cebpf4jnsgd1na2vs0mg"},{"bike_id":"f5538dd9-94c3-433e-ada5-fc5d10ad63b0","system_id":"levelo_inurba_marseille","lat":43.3091,"lon":5.36849,"is_reserved":false,"is_disabled":false,"rental_uris":{"android":"levelo://app?vid=f5538dd9-94c3-433e-ada5-fc5d10ad63b0","ios":"levelo://app?vid=f5538dd9-94c3-433e-ada5-fc5d10ad63b0"},"vehicle_type_id":"4","last_reported":1758025200,"current_range_meters":16400,"station_id":"ce4bgn92rcd13ifvqbvg","pricing_plan_id":"cebpf4jnsgd1na2vs0mg"},{"bike_id":"20b55fc7-55c9-4b33-98a2-109605dfc668","system_id":"levelo_inurba_marseille","lat":43.30109,"lon":5.39191,"is_reserved":false,"is_disabled":false,"rental_uris":{"android":"levelo://app?vid=20b55fc7-55c9-4b33-98a2-109605dfc668","ios":"levelo://app?vid=20b55fc7-55c9-4b33-98a2-109605dfc668"},"vehicle_type_id":"4","last_reported":1758025200,"current_range_meters":16400,"station_id":"","pricing_plan_id":"cebpf4jnsgd1na2vs0mg"},{"bike_id":"e475e9f0-91d5-4f8c-a272-09b31ed2056d","system_id":"levelo_inurba_marseille","lat":43.23148,"lon":5.43706,"is_reserved":false,"is_disabled":false,"rental_uris":{"android":"levelo://app?vid=e475e9f0-91d5-4f8c-a272-09b31ed2056d","ios":"levelo://app?vid=e475e9f0-91d5-4f8c-a272-09b31ed2056d"},"vehicle_type_id":"4","last_reported":1758025200,"current_range_meters":16400,"station_id":"ce4bhmp2rcd13ifvqgog","pricing_plan_id":"cebpf4jnsgd1na2vs0mg"},{"bike_id":"5c0b2341-c41a-4f62-9e5f-92e6a593fad9","system_id":"levelo_inurba_marseille","lat":43.33769,"lon":5.3741,"is_reserved":false,"is_disabled":false,"rental_uris":{"android":"levelo://app?vid=5c0b2341-c41a-4f62-9e5f-92e6a593fad9","ios":"levelo://app?vid=5c0b2341-c41a-4f62-9e5f-92e6a593fad9"},"vehicle_type_id":"4","last_reported":1758025200,"current_range_meters":16800,"station_id":"","pricing_plan_id":"cebpf4jnsgd1na2vs0mg"},{"bike_id":"5468743a-d065-4569-944f-260b4bcb1af3","system_id":"levelo_inurba_marseille","lat":43.25934,"lon":5.40887,"is_reserved":false,"is_disabled":false,"rental_uris":{"android":"levelo://app?vid=5468743a-d065-4569-944f-260b4bcb1af3","ios":"levelo://app?vid=5468743a-d065-4569-944f-260b4bcb1af3"},"vehicle_type_id":"4","last_reported":1758025200,"current_range_meters":16800,"station_id":"ce4bhm92rcd13ifvqglg","pricing_plan_id":"cebpf4jnsgd1na2vs0mg"},{"bike_id":"708b923b-b1f5-41cc-afd8-a0fd73ec990e","system_id":"levelo_inurba_marseille","lat":43.245442,"lon":5.395251,"is_reserved":false,"is_disabled":false,"rental_uris":{"android":"levelo://app?vid=708b923b-b1f5-41cc-afd8-a0fd73ec990e","ios":"levelo://app?vid=708b923b-b1f5-41cc-afd8-a0fd73ec990e"},"vehicle_type_id":"4","last_reported":1758025200,"current_range_meters":16800,"station_id":"ce4bhlp2rcd13ifvqgjg","pricing_plan_id":"cebpf4jnsgd1na2vs0mg"},{"bike_id":"237ff8c3-18a9-4403-94a8-15862296b062","system_id":"levelo_inurba_marseille","lat":43.23148,"lon":5.43701,"is_reserved":false,"is_disabled":false,"rental_uris":{"android":"levelo://app?vid=237ff8c3-18a9-4403-94a8-15862296b062","ios":"levelo://app?vid=237ff8c3-18a9-4403-94a8-15862296b062"},"vehicle_type_id":"4","last_reported":1758025200,"current_range_meters":16800,"station_id":"ce4bhmp2rcd13ifvqgog","pricing_plan_id":"cebpf4jnsgd1na2vs0mg"},{"bike_id":"ca5a1340-d41e-49f3-95f8-599734e0a36c","system_id":"levelo_inurba_marseille","lat":43.225336,"lon":5.348339,"is_reserved":false,"is_disabled":false,"rental_uris":{"android":"levelo://app?vid=ca5a1340-d41e-49f3-95f8-599734e0a36c","ios":"levelo://app?vid=ca5a1340-d41e-49f3-95f8-599734e0a36c"},"vehicle_type_id":"4","last_reported":1758025200,"current_range_meters":16800,"station_id":"","pricing_plan_id":"cebpf4jnsgd1na2vs0mg"},{"bike_id":"18c64b31-21a3-4fc9-abb7-deb0889a8d41","system_id":"levelo_inurba_marseille","lat":43.27619,"lon":5.36107,"is_reserved":false,"is_disabled":false,"rental_uris":{"android":"levelo://app?vid=18c64b31-21a3-4fc9-abb7-deb0889a8d41","ios":"levelo://app?vid=18c64b31-21a3-4fc9-abb7-deb0889a8d41"},"vehicle_type_id":"4","last_reported":1758025200,"current_range_meters":16800,"station_id":"ce4bgj92rcd13ifvqbe0","pricing_plan_id":"cebpf4jnsgd1na2vs0mg"},{"bike_id":"5dbca62f-7019-41e0-bb60-cbaa2e477dc8","system_id":"levelo_inurba_marseille","lat":43.30956,"lon":5.36899,"is_reserved":false,"is_disabled":false,"rental_uris":{"android":"levelo://app?vid=5dbca62f-7019-41e0-bb60-cbaa2e477dc8","ios":"levelo://app?vid=5dbca62f-7019-41e0-bb60-cbaa2e477dc8"},"vehicle_type_id":"4","last_reported":1758025200,"current_range_meters":16800,"station_id":"","pricing_plan_id":"cebpf4jnsgd1na2vs0mg"},{"bike_id":"0898ef6b-8f40-4957-93ea-6e0210adb3e6","system_id":"levelo_inurba_marseille","lat":43.30322,"lon":5.4044,"is_reserved":false,"is_disabled":false,"rental_uris":{"android":"levelo://app?vid=0898ef6b-8f40-4957-93ea-6e0210adb3e6","ios":"levelo://app?vid=0898ef6b-8f40-4957-93ea-6e0210adb3e6"},"vehicle_type_id":"4","last_reported":1758025200,"current_range_meters":16800,"station_id":"ce4bh012rcd13ifvqd10","pricing_plan_id":"cebpf4jnsgd1na2vs0mg"},{"bike_id":"4c090053-9a61-4189-8a57-967870365223","system_id":"levelo_inurba_marseille","lat":43.31355,"lon":5.36709,"is_reserved":false,"is_disabled":false,"rental_uris":{"android":"levelo://app?vid=4c090053-9a61-4189-8a57-967870365223","ios":"levelo://app?vid=4c090053-9a61-4189-8a57-967870365223"},"vehicle_type_id":"4","last_reported":1758025200,"current_range_meters":16800,"station_id":"ce4bgr92rcd13ifvqc6g","pricing_plan_id":"cebpf4jnsgd1na2vs0mg"},{"bike_id":"8ad7bd32-b06f-47e8-9e76-232f27fd0167","system_id":"levelo_inurba_marseille","lat":43.316839,"lon":5.404814,"is_reserved":false,"is_disabled":false,"rental_uris":{"android":"levelo://app?vid=8ad7bd32-b06f-47e8-9e76-232f27fd0167","ios":"levelo://app?vid=8ad7bd32-b06f-47e8-9e76-232f27fd0167"},"vehicle_type_id":"4","last_reported":1758025200,"current_range_meters":16800,"station_id":"ce4bh012rcd13ifvqd00","pricing_plan_id":"cebpf4jnsgd1na2vs0mg"},{"bike_id":"e5f10588-8c1f-4ab3-8ce6-7c12e608e99f","system_id":"levelo_inurba_marseille","lat":43.291699,"lon":5.371518,"is_reserved":false,"is_disabled":false,"rental_uris":{"android":"levelo://app?vid=e5f10588-8c1f-4ab3-8ce6-7c12e608e99f","ios":"levelo://app?vid=e5f10588-8c1f-4ab3-8ce6-7c12e608e99f"},"vehicle_type_id":"4","last_reported":1758025200,"current_range_meters":16800,"station_id":"","pricing_plan_id":"cebpf4jnsgd1na2vs0mg"},{"bike_id":"8994da1b-622c-4bb2-bfe8-5ca5d4854b7e","system_id":"levelo_inurba_marseille","lat":43.29909,"lon":5.39759,"is_reserved":false,"is_disabled":false,"rental_uris":{"android":"levelo://app?vid=8994da1b-622c-4bb2-bfe8-5ca5d4854b7e","ios":"levelo://app?vid=8994da1b-622c-4bb2-bfe8-5ca5d4854b7e"},"vehicle_type_id":"4","last_reported":1758025200,"current_range_meters":16800,"station_id":"ce4bh0h2rcd13ifvqd50","pricing_plan_id":"cebpf4jnsgd1na2vs0mg"},{"bike_id":"eef903ec-fda2-4d7c-ab67-b22e1b495c99","system_id":"levelo_inurba_marseille","lat":43.25963,"lon":5.4089,"is_reserved":false,"is_disabled":false,"rental_uris":{"android":"levelo://app?vid=eef903ec-fda2-4d7c-ab67-b22e1b495c99","ios":"levelo://app?vid=eef903ec-fda2-4d7c-ab67-b22e1b495c99"},"vehicle_type_id":"4","last_reported":1758025200,"current_range_meters":17200,"station_id":"ce4bhm92rcd13ifvqglg","pricing_plan_id":"cebpf4jnsgd1na2vs0mg"},{"bike_id":"23e1572e-7ccb-4eea-8020-599035749c9e","system_id":"levelo_inurba_marseille","lat":43.23843,"lon":5.36517,"is_reserved":false,"is_disabled":false,"rental_uris":{"android":"levelo://app?vid=23e1572e-7ccb-4eea-8020-599035749c9e","ios":"levelo://app?vid=23e1572e-7ccb-4eea-8020-599035749c9e"},"vehicle_type_id":"4","last_reported":1758025200,"current_range_meters":17200,"station_id":"","pricing_plan_id":"cebpf4jnsgd1na2vs0mg"},{"bike_id":"d28c30f7-d993-418e-b279-e6e75970549b","system_id":"levelo_inurba_marseille","lat":43.29622,"lon":5.37719,"is_reserved":false,"is_disabled":false,"rental_uris":{"android":"levelo://app?vid=d28c30f7-d993-418e-b279-e6e75970549b","ios":"levelo://app?vid=d28c30f7-d993-418e-b279-e6e75970549b"},"vehicle_type_id":"4","last_reported":1758025200,"current_range_meters":17200,"station_id":"ce4bgi92rcd13ifvqb90","pricing_plan_id":"cebpf4jnsgd1na2vs0mg"},{"bike_id":"fcd56ccc-f0ab-49ef-a538-8c498b5ecd49","system_id":"levelo_inurba_marseille","lat":43.22555,"lon":5.41648,"is_reserved":false,"is_disabled":false,"rental_uris":{"android":"levelo://app?vid=fcd56ccc-f0ab-49ef-a538-8c498b5ecd49","ios":"levelo://app?vid=fcd56ccc-f0ab-49ef-a538-8c498b5ecd49"},"vehicle_type_id":"4","last_reported":1758025200,"current_range_meters":17200,"station_id":"st_d2o4gvlbi1j2169b742g","pricing_plan_id":"cebpf4jnsgd1na2vs0mg"},{"bike_id":"b730872c-944f-439c-915a-fe170090d0c4","system_id":"levelo_inurba_marseille","lat":43.2842,"lon":5.3498,"is_reserved":false,"is_disabled":false,"rental_uris":{"android":"levelo://app?vid=b730872c-944f-439c-915a-fe170090d0c4","ios":"levelo://app?vid=b730872c-944f-439c-915a-fe170090d0c4"},"vehicle_type_id":"4","last_reported":1758025200,"current_range_meters":17200,"station_id":"ce4bhbh2rcd13ifvqepg","pricing_plan_id":"cebpf4jnsgd1na2vs0mg"},{"bike_id":"78e1a55e-86e9-482a-abd9-036694975e7c","system_id":"levelo_inurba_marseille","lat":43.3204,"lon":5.41585,"is_reserved":false,"is_disabled":false,"rental_uris":{"android":"levelo://app?vid=78e1a55e-86e9-482a-abd9-036694975e7c","ios":"levelo://app?vid=78e1a55e-86e9-482a-abd9-036694975e7c"},"vehicle_type_id":"4","last_reported":1758025200,"current_range_meters":17200,"station_id":"ce4bhq92rcd13ifvqhkg","pricing_plan_id":"cebpf4jnsgd1na2vs0mg"},{"bike_id":"d1788760-0706-4b90-8999-db00a9e42210","system_id":"levelo_inurba_marseille","lat":43.32659,"lon":5.41005,"is_reserved":false,"is_disabled":true,"rental_uris":{"android":"levelo://app?vid=d1788760-0706-4b90-8999-db00a9e42210","ios":"levelo://app?vid=d1788760-0706-4b90-8999-db00a9e42210"},"vehicle_type_id":"4","last_reported":1758025200,"current_range_meters":17200,"station_id":"","pricing_plan_id":"cebpf4jnsgd1na2vs0mg"},{"bike_id":"22f0687d-25d3-4094-9c4a-293a61e189a6","system_id":"levelo_inurba_marseille","lat":43.240577,"lon":5.406874,"is_reserved":false,"is_disabled":false,"rental_uris":{"android":"levelo://app?vid=22f0687d-25d3-4094-9c4a-293a61e189a6","ios":"levelo://app?vid=22f0687d-25d3-4094-9c4a-293a61e189a6"},"vehicle_type_id":"4","last_reported":1758025200,"current_range_meters":17200,"station_id":"","pricing_plan_id":"cebpf4jnsgd1na2vs0mg"},{"bike_id":"328f4ed1-e2b6-4222-8054-4ecd7f52a2aa","system_id":"levelo_inurba_marseille","lat":43.24544,"lon":5.39524,"is_reserved":false,"is_disabled":false,"rental_uris":{"android":"levelo://app?vid=328f4ed1-e2b6-4222-8054-4ecd7f52a2aa","ios":"levelo://app?vid=328f4ed1-e2b6-4222-8054-4ecd7f52a2aa"},"vehicle_type_id":"4","last_reported":1758025200,"current_range_meters":17200,"station_id":"ce4bhlp2rcd13ifvqgjg","pricing_plan_id":"cebpf4jnsgd1na2vs0mg"},{"bike_id":"23e5124a-9638-46f5-bcde-ea6b3be17faa","system_id":"levelo_inurba_marseille","lat":43.24952,"lon":5.40483,"is_reserved":false,"is_disabled":false,"rental_uris":{"android":"levelo://app?vid=23e5124a-9638-46f5-bcde-ea6b3be17faa","ios":"levelo://app?vid=23e5124a-9638-46f5-bcde-ea6b3be17faa"},"vehicle_type_id":"4","last_reported":1758025200,"current_range_meters":17600,"station_id":"st_d2ngiaodas8pm72gd1h0","pricing_plan_id":"cebpf4jnsgd1na2vs0mg"},{"bike_id":"88a4bc06-6261-4921-890d-d133aa4606a8","system_id":"levelo_inurba_marseille","lat":43.337444,"lon":5.374475,"is_reserved":false,"is_disabled":true,"rental_uris":{"android":"levelo://app?vid=88a4bc06-6261-4921-890d-d133aa4606a8","ios":"levelo://app?vid=88a4bc06-6261-4921-890d-d133aa4606a8"},"vehicle_type_id":"4","last_reported":1758025200,"current_range_meters":17600,"station_id":"","pricing_plan_id":"cebpf4jnsgd1na2vs0mg"},{"bike_id":"eb6cbeef-bc92-4528-a915-7b01f98754fe","system_id":"levelo_inurba_marseille","lat":43.30301,"lon":5.37429,"is_reserved":false,"is_disabled":false,"rental_uris":{"android":"levelo://app?vid=eb6cbeef-bc92-4528-a915-7b01f98754fe","ios":"levelo://app?vid=eb6cbeef-bc92-4528-a915-7b01f98754fe"},"vehicle_type_id":"4","last_reported":1758025200,"current_range_meters":17600,"station_id":"","pricing_plan_id":"cebpf4jnsgd1na2vs0mg"},{"bike_id":"508031f8-bf6a-4bfe-aeae-adf3ce513b76","system_id":"levelo_inurba_marseille","lat":43.25925,"lon":5.40871,"is_reserved":false,"is_disabled":false,"rental_uris":{"android":"levelo://app?vid=508031f8-bf6a-4bfe-aeae-adf3ce513b76","ios":"levelo://app?vid=508031f8-bf6a-4bfe-aeae-adf3ce513b76"},"vehicle_type_id":"4","last_reported":1758025200,"current_range_meters":17600,"station_id":"ce4bhm92rcd13ifvqglg","pricing_plan_id":"cebpf4jnsgd1na2vs0mg"},{"bike_id":"d66079b8-e1e6-49f6-8513-918b3ce83cf8","system_id":"levelo_inurba_marseille","lat":43.26219,"lon":5.40471,"is_reserved":false,"is_disabled":false,"rental_uris":{"android":"levelo://app?vid=d66079b8-e1e6-49f6-8513-918b3ce83cf8","ios":"levelo://app?vid=d66079b8-e1e6-49f6-8513-918b3ce83cf8"},"vehicle_type_id":"4","last_reported":1758025200,"current_range_meters":17600,"station_id":"ce4bhmh2rcd13ifvqgmg","pricing_plan_id":"cebpf4jnsgd1na2vs0mg"},{"bike_id":"5129e005-2452-471a-a768-673c73b41b5f","system_id":"levelo_inurba_marseille","lat":43.33599,"lon":5.41031,"is_reserved":false,"is_disabled":false,"rental_uris":{"android":"levelo://app?vid=5129e005-2452-471a-a768-673c73b41b5f","ios":"levelo://app?vid=5129e005-2452-471a-a768-673c73b41b5f"},"vehicle_type_id":"4","last_reported":1758025200,"current_range_meters":17600,"station_id":"ce4bhqh2rcd13ifvqhmg","pricing_plan_id":"cebpf4jnsgd1na2vs0mg"},{"bike_id":"b288ec8c-0799-430e-a763-d368b722b608","system_id":"levelo_inurba_marseille","lat":43.293,"lon":5.37458,"is_reserved":false,"is_disabled":false,"rental_uris":{"android":"levelo://app?vid=b288ec8c-0799-430e-a763-d368b722b608","ios":"levelo://app?vid=b288ec8c-0799-430e-a763-d368b722b608"},"vehicle_type_id":"4","last_reported":1758025200,"current_range_meters":17600,"station_id":"ce4bgi12rcd13ifvqb70","pricing_plan_id":"cebpf4jnsgd1na2vs0mg"},{"bike_id":"4d428ea9-1dcb-4a75-b622-5cb7b20a1dad","system_id":"levelo_inurba_marseille","lat":43.32365,"lon":5.36767,"is_reserved":false,"is_disabled":false,"rental_uris":{"android":"levelo://app?vid=4d428ea9-1dcb-4a75-b622-5cb7b20a1dad","ios":"levelo://app?vid=4d428ea9-1dcb-4a75-b622-5cb7b20a1dad"},"vehicle_type_id":"4","last_reported":1758025200,"current_range_meters":18000,"station_id":"ce4bhsh2rcd13ifvqi2g","pricing_plan_id":"cebpf4jnsgd1na2vs0mg"},{"bike_id":"8c515bb4-8ba8-4225-8caf-37e0634882c6","system_id":"levelo_inurba_marseille","lat":43.30299,"lon":5.38635,"is_reserved":false,"is_disabled":false,"rental_uris":{"android":"levelo://app?vid=8c515bb4-8ba8-4225-8caf-37e0634882c6","ios":"levelo://app?vid=8c515bb4-8ba8-4225-8caf-37e0634882c6"},"vehicle_type_id":"4","last_reported":1758025200,"current_range_meters":18000,"station_id":"","pricing_plan_id":"cebpf4jnsgd1na2vs0mg"},{"bike_id":"46cbcee3-845b-447b-a395-16f85ed6d743","system_id":"levelo_inurba_marseille","lat":43.305612,"lon":5.366959,"is_reserved":false,"is_disabled":false,"rental_uris":{"android":"levelo://app?vid=46cbcee3-845b-447b-a395-16f85ed6d743","ios":"levelo://app?vid=46cbcee3-845b-447b-a395-16f85ed6d743"},"vehicle_type_id":"4","last_reported":1758025200,"current_range_meters":18000,"station_id":"ce4bgrp2rcd13ifvqc9g","pricing_plan_id":"cebpf4jnsgd1na2vs0mg"},{"bike_id":"64b1deee-ef02-45e9-a66a-3e5e20b8d612","system_id":"levelo_inurba_marseille","lat":43.299284,"lon":5.385203,"is_reserved":false,"is_disabled":false,"rental_uris":{"android":"levelo://app?vid=64b1deee-ef02-45e9-a66a-3e5e20b8d612","ios":"levelo://app?vid=64b1deee-ef02-45e9-a66a-3e5e20b8d612"},"vehicle_type_id":"4","last_reported":1758025200,"current_range_meters":18000,"station_id":"ce4bgop2rcd13ifvqc1g","pricing_plan_id":"cebpf4jnsgd1na2vs0mg"},{"bike_id":"17d2e23f-2e4e-4271-a94a-92e2b9352a8c","system_id":"levelo_inurba_marseille","lat":43.33602,"lon":5.41021,"is_reserved":false,"is_disabled":false,"rental_uris":{"android":"levelo://app?vid=17d2e23f-2e4e-4271-a94a-92e2b9352a8c","ios":"levelo://app?vid=17d2e23f-2e4e-4271-a94a-92e2b9352a8c"},"vehicle_type_id":"4","last_reported":1758025200,"current_range_meters":18000,"station_id":"ce4bhqh2rcd13ifvqhmg","pricing_plan_id":"cebpf4jnsgd1na2vs0mg"},{"bike_id":"b2b3f118-f930-4549-8d49-265a30e53939","system_id":"levelo_inurba_marseille","lat":43.24175,"lon":5.36384,"is_reserved":false,"is_disabled":false,"rental_uris":{"android":"levelo://app?vid=b2b3f118-f930-4549-8d49-265a30e53939","ios":"levelo://app?vid=b2b3f118-f930-4549-8d49-265a30e53939"},"vehicle_type_id":"4","last_reported":1758025200,"current_range_meters":18000,"station_id":"cpo36qri1sfpv3e86is0","pricing_plan_id":"cebpf4jnsgd1na2vs0mg"},{"bike_id":"c8a7dee6-2332-4a84-a508-681234669df9","system_id":"levelo_inurba_marseille","lat":43.25923,"lon":5.40894,"is_reserved":false,"is_disabled":false,"rental_uris":{"android":"levelo://app?vid=c8a7dee6-2332-4a84-a508-681234669df9","ios":"levelo://app?vid=c8a7dee6-2332-4a84-a508-681234669df9"},"vehicle_type_id":"4","last_reported":1758025200,"current_range_meters":18800,"station_id":"ce4bhm92rcd13ifvqglg","pricing_plan_id":"cebpf4jnsgd1na2vs0mg"},{"bike_id":"c4706891-6ce1-4440-91ff-a3ecf2ff007e","system_id":"levelo_inurba_marseille","lat":43.24382,"lon":5.37479,"is_reserved":false,"is_disabled":false,"rental_uris":{"android":"levelo://app?vid=c4706891-6ce1-4440-91ff-a3ecf2ff007e","ios":"levelo://app?vid=c4706891-6ce1-4440-91ff-a3ecf2ff007e"},"vehicle_type_id":"4","last_reported":1758025200,"current_range_meters":19200,"station_id":"","pricing_plan_id":"cebpf4jnsgd1na2vs0mg"},{"bike_id":"499cd471-d93a-4813-ab76-bbad34e9aae3","system_id":"levelo_inurba_marseille","lat":43.29907,"lon":5.38138,"is_reserved":false,"is_disabled":false,"rental_uris":{"android":"levelo://app?vid=499cd471-d93a-4813-ab76-bbad34e9aae3","ios":"levelo://app?vid=499cd471-d93a-4813-ab76-bbad34e9aae3"},"vehicle_type_id":"4","last_reported":1758025200,"current_range_meters":18800,"station_id":"ce4bgj12rcd13ifvqbc0","pricing_plan_id":"cebpf4jnsgd1na2vs0mg"},{"bike_id":"26d32f40-abd9-41e8-ad33-e16c33cbf788","system_id":"levelo_inurba_marseille","lat":43.2994,"lon":5.37741,"is_reserved":false,"is_disabled":false,"rental_uris":{"android":"levelo://app?vid=26d32f40-abd9-41e8-ad33-e16c33cbf788","ios":"levelo://app?vid=26d32f40-abd9-41e8-ad33-e16c33cbf788"},"vehicle_type_id":"4","last_reported":1758025200,"current_range_meters":18800,"station_id":"","pricing_plan_id":"cebpf4jnsgd1na2vs0mg"},{"bike_id":"f06e31de-6cc8-4af1-93be-e90c4d43c2b4","system_id":"levelo_inurba_marseille","lat":43.30899,"lon":5.37187,"is_reserved":false,"is_disabled":false,"rental_uris":{"android":"levelo://app?vid=f06e31de-6cc8-4af1-93be-e90c4d43c2b4","ios":"levelo://app?vid=f06e31de-6cc8-4af1-93be-e90c4d43c2b4"},"vehicle_type_id":"4","last_reported":1758025200,"current_range_meters":18800,"station_id":"ce4bguh2rcd13ifvqckg","pricing_plan_id":"cebpf4jnsgd1na2vs0mg"},{"bike_id":"c2a02b0c-0400-47d0-814e-3740047e19dc","system_id":"levelo_inurba_marseille","lat":43.22562,"lon":5.4163,"is_reserved":false,"is_disabled":false,"rental_uris":{"android":"levelo://app?vid=c2a02b0c-0400-47d0-814e-3740047e19dc","ios":"levelo://app?vid=c2a02b0c-0400-47d0-814e-3740047e19dc"},"vehicle_type_id":"4","last_reported":1758025200,"current_range_meters":18800,"station_id":"st_d2o4gvlbi1j2169b742g","pricing_plan_id":"cebpf4jnsgd1na2vs0mg"},{"bike_id":"797d594a-91b3-4375-ad0d-bc637135bfd1","system_id":"levelo_inurba_marseille","lat":43.313479,"lon":5.371304,"is_reserved":false,"is_disabled":false,"rental_uris":{"android":"levelo://app?vid=797d594a-91b3-4375-ad0d-bc637135bfd1","ios":"levelo://app?vid=797d594a-91b3-4375-ad0d-bc637135bfd1"},"vehicle_type_id":"4","last_reported":1758025200,"current_range_meters":18800,"station_id":"","pricing_plan_id":"cebpf4jnsgd1na2vs0mg"},{"bike_id":"5701fe9c-3e98-4b9f-a910-5eb395d4e5d3","system_id":"levelo_inurba_marseille","lat":43.305389,"lon":5.384223,"is_reserved":false,"is_disabled":false,"rental_uris":{"android":"levelo://app?vid=5701fe9c-3e98-4b9f-a910-5eb395d4e5d3","ios":"levelo://app?vid=5701fe9c-3e98-4b9f-a910-5eb395d4e5d3"},"vehicle_type_id":"4","last_reported":1758025200,"current_range_meters":18800,"station_id":"","pricing_plan_id":"cebpf4jnsgd1na2vs0mg"},{"bike_id":"0df66cc3-82e3-4206-94aa-d5562b6f2957","system_id":"levelo_inurba_marseille","lat":43.26057,"lon":5.39402,"is_reserved":false,"is_disabled":false,"rental_uris":{"android":"levelo://app?vid=0df66cc3-82e3-4206-94aa-d5562b6f2957","ios":"levelo://app?vid=0df66cc3-82e3-4206-94aa-d5562b6f2957"},"vehicle_type_id":"4","last_reported":1758025200,"current_range_meters":18800,"station_id":"ce4bhh92rcd13ifvqfj0","pricing_plan_id":"cebpf4jnsgd1na2vs0mg"},{"bike_id":"2098e9cb-557c-4f53-85f2-265df9ccd555","system_id":"levelo_inurba_marseille","lat":43.31242,"lon":5.36869,"is_reserved":false,"is_disabled":false,"rental_uris":{"android":"levelo://app?vid=2098e9cb-557c-4f53-85f2-265df9ccd555","ios":"levelo://app?vid=2098e9cb-557c-4f53-85f2-265df9ccd555"},"vehicle_type_id":"4","last_reported":1758025200,"current_range_meters":18800,"station_id":"ce4bgl92rcd13ifvqbq0","pricing_plan_id":"cebpf4jnsgd1na2vs0mg"},{"bike_id":"779d6370-eac6-416a-a1fb-8c709e0f6053","system_id":"levelo_inurba_marseille","lat":43.25719,"lon":5.41112,"is_reserved":false,"is_disabled":false,"rental_uris":{"android":"levelo://app?vid=779d6370-eac6-416a-a1fb-8c709e0f6053","ios":"levelo://app?vid=779d6370-eac6-416a-a1fb-8c709e0f6053"},"vehicle_type_id":"4","last_reported":1758025200,"current_range_meters":18800,"station_id":"ce4bhkp2rcd13ifvqgd0","pricing_plan_id":"cebpf4jnsgd1na2vs0mg"},{"bike_id":"7b985957-4809-4263-86de-42437fd08acf","system_id":"levelo_inurba_marseille","lat":43.28667,"lon":5.36358,"is_reserved":false,"is_disabled":false,"rental_uris":{"android":"levelo://app?vid=7b985957-4809-4263-86de-42437fd08acf","ios":"levelo://app?vid=7b985957-4809-4263-86de-42437fd08acf"},"vehicle_type_id":"4","last_reported":1758025200,"current_range_meters":18800,"station_id":"ce4bhah2rcd13ifvqej0","pricing_plan_id":"cebpf4jnsgd1na2vs0mg"},{"bike_id":"d16d25b0-e15e-472f-9b86-3b8202686d4e","system_id":"levelo_inurba_marseille","lat":43.290085,"lon":5.356045,"is_reserved":false,"is_disabled":false,"rental_uris":{"android":"levelo://app?vid=d16d25b0-e15e-472f-9b86-3b8202686d4e","ios":"levelo://app?vid=d16d25b0-e15e-472f-9b86-3b8202686d4e"},"vehicle_type_id":"4","last_reported":1758025200,"current_range_meters":18800,"station_id":"ce4bhb92rcd13ifvqen0","pricing_plan_id":"cebpf4jnsgd1na2vs0mg"},{"bike_id":"63bf0516-513e-4b7a-b74d-baaae3dfe5a5","system_id":"levelo_inurba_marseille","lat":43.26557,"lon":5.37288,"is_reserved":false,"is_disabled":false,"rental_uris":{"android":"levelo://app?vid=63bf0516-513e-4b7a-b74d-baaae3dfe5a5","ios":"levelo://app?vid=63bf0516-513e-4b7a-b74d-baaae3dfe5a5"},"vehicle_type_id":"4","last_reported":1758025200,"current_range_meters":19200,"station_id":"ce4bhg12rcd13ifvqf70","pricing_plan_id":"cebpf4jnsgd1na2vs0mg"},{"bike_id":"7bc981e2-9b37-4f57-a238-db58aaaa0f1e","system_id":"levelo_inurba_marseille","lat":43.24637,"lon":5.43146,"is_reserved":false,"is_disabled":false,"rental_uris":{"android":"levelo://app?vid=7bc981e2-9b37-4f57-a238-db58aaaa0f1e","ios":"levelo://app?vid=7bc981e2-9b37-4f57-a238-db58aaaa0f1e"},"vehicle_type_id":"4","last_reported":1758025200,"current_range_meters":19200,"station_id":"st_d2m6c4gdas8pm72e190g","pricing_plan_id":"cebpf4jnsgd1na2vs0mg"},{"bike_id":"ca586d3a-f254-48f8-a0da-7a5b5535e6fb","system_id":"levelo_inurba_marseille","lat":43.25957,"lon":5.40905,"is_reserved":false,"is_disabled":false,"rental_uris":{"android":"levelo://app?vid=ca586d3a-f254-48f8-a0da-7a5b5535e6fb","ios":"levelo://app?vid=ca586d3a-f254-48f8-a0da-7a5b5535e6fb"},"vehicle_type_id":"4","last_reported":1758025200,"current_range_meters":19200,"station_id":"ce4bhm92rcd13ifvqglg","pricing_plan_id":"cebpf4jnsgd1na2vs0mg"},{"bike_id":"4770f9da-c194-4762-960f-06b4af31db7a","system_id":"levelo_inurba_marseille","lat":43.29883,"lon":5.39732,"is_reserved":false,"is_disabled":false,"rental_uris":{"android":"levelo://app?vid=4770f9da-c194-4762-960f-06b4af31db7a","ios":"levelo://app?vid=4770f9da-c194-4762-960f-06b4af31db7a"},"vehicle_type_id":"4","last_reported":1758025200,"current_range_meters":19200,"station_id":"ce4bh0h2rcd13ifvqd50","pricing_plan_id":"cebpf4jnsgd1na2vs0mg"},{"bike_id":"c4571aa2-032a-404c-bb13-298300fefc0d","system_id":"levelo_inurba_marseille","lat":43.29093,"lon":5.38133,"is_reserved":false,"is_disabled":false,"rental_uris":{"android":"levelo://app?vid=c4571aa2-032a-404c-bb13-298300fefc0d","ios":"levelo://app?vid=c4571aa2-032a-404c-bb13-298300fefc0d"},"vehicle_type_id":"4","last_reported":1758025200,"current_range_meters":19200,"station_id":"ce4bh512rcd13ifvqe2g","pricing_plan_id":"cebpf4jnsgd1na2vs0mg"},{"bike_id":"6b8a951d-1ca5-40c5-acf2-fde74134ed5b","system_id":"levelo_inurba_marseille","lat":43.30899,"lon":5.36842,"is_reserved":false,"is_disabled":false,"rental_uris":{"android":"levelo://app?vid=6b8a951d-1ca5-40c5-acf2-fde74134ed5b","ios":"levelo://app?vid=6b8a951d-1ca5-40c5-acf2-fde74134ed5b"},"vehicle_type_id":"4","last_reported":1758025200,"current_range_meters":19200,"station_id":"ce4bgn92rcd13ifvqbvg","pricing_plan_id":"cebpf4jnsgd1na2vs0mg"},{"bike_id":"c183356e-995c-4cea-b60c-f096bb367918","system_id":"levelo_inurba_marseille","lat":43.26964,"lon":5.38632,"is_reserved":false,"is_disabled":false,"rental_uris":{"android":"levelo://app?vid=c183356e-995c-4cea-b60c-f096bb367918","ios":"levelo://app?vid=c183356e-995c-4cea-b60c-f096bb367918"},"vehicle_type_id":"4","last_reported":1758025200,"current_range_meters":19200,"station_id":"ce4bhh92rcd13ifvqfh0","pricing_plan_id":"cebpf4jnsgd1na2vs0mg"},{"bike_id":"dc59e01e-dc0e-4536-b8f9-51ae33d711b1","system_id":"levelo_inurba_marseille","lat":43.304624,"lon":5.379134,"is_reserved":false,"is_disabled":false,"rental_uris":{"android":"levelo://app?vid=dc59e01e-dc0e-4536-b8f9-51ae33d711b1","ios":"levelo://app?vid=dc59e01e-dc0e-4536-b8f9-51ae33d711b1"},"vehicle_type_id":"4","last_reported":1758025200,"current_range_meters":19600,"station_id":"ce4bgup2rcd13ifvqcn0","pricing_plan_id":"cebpf4jnsgd1na2vs0mg"},{"bike_id":"819f7f85-a8a1-4f38-a24e-7e2c7ed85678","system_id":"levelo_inurba_marseille","lat":43.30198,"lon":5.39468,"is_reserved":false,"is_disabled":false,"rental_uris":{"android":"levelo://app?vid=819f7f85-a8a1-4f38-a24e-7e2c7ed85678","ios":"levelo://app?vid=819f7f85-a8a1-4f38-a24e-7e2c7ed85678"},