{"last_updated":1723331292,"ttl":30,"version":"2.2","data":{"bikes":[{"bike_id":"a5b59cdd-1dae-4f34-8fe4-28f57f1c5ee9","system_id":"levelo_inurba_marseille","lat":43.31341,"lon":5.367098,"is_reserved":false,"is_disabled":false,"rental_uris":{"android":"levelo://app?vid=a5b59cdd-1dae-4f34-8fe4-28f57f1c5ee9","ios":"levelo://app?vid=a5b59cdd-1dae-4f34-8fe4-28f57f1c5ee9"},"vehicle_type_id":"4","last_reported":1723331292,"current_range_meters":17200,"station_id":"ce4bgr92rcd13ifvqc6g","pricing_plan_id":"cebpf4jnsgd1na2vs0mg"},{"bike_id":"f83b16bd-d544-4b12-aafb-c8ce5dad7c7a","system_id":"levelo_inurba_marseille","lat":43.313391,"lon":5.36706,"is_reserved":false,"is_disabled":false,"rental_uris":{"android":"levelo://app?vid=f83b16bd-d544-4b12-aafb-c8ce5dad7c7a","ios":"levelo://app?vid=f83b16bd-d544-4b12-aafb-c8ce5dad7c7a"},"vehicle_type_id":"4","last_reported":1723331292,"current_range_meters":28000,"station_id":"ce4bgr92rcd13ifvqc6g","pricing_plan_id":"cebpf4jnsgd1na2vs0mg"},{"bike_id":"bba7cfe5-d228-4335-8aa5-3ac8c47a1412","system_id":"levelo_inurba_marseille","lat":43.312239,"lon":5.368562,"is_reserved":false,"is_disabled":false,"rental_uris":{"android":"levelo://app?vid=bba7cfe5-d228-4335-8aa5-3ac8c47a1412","ios":"levelo://app?vid=bba7cfe5-d228-4335-8aa5-3ac8c47a1412"},"vehicle_type_id":"4","last_reported":1723331292,"current_range_meters":10000,"station_id":"ce4bgl92rcd13ifvqbq0","pricing_plan_id":"cebpf4jnsgd1na2vs0mg"},{"bike_id":"1d8cd8ae-7f98-4be9-8378-a49954575452","system_id":"levelo_inurba_marseille","lat":43.31306,"lon":5.36924,"is_reserved":false,"is_disabled":false,"rental_uris":{"android":"levelo://app?vid=1d8cd8ae-7f98-4be9-8378-a49954575452","ios":"levelo://app?vid=1d8cd8ae-7f98-4be9-8378-a49954575452"},"vehicle_type_id":"4","last_reported":1723331292,"current_range_meters":9200,"station_id":"","pricing_plan_id":"cebpf4jnsgd1na2vs0mg"},{"bike_id":"64c3e70c-1092-4c85-a0f0-3961aa022e62","system_id":"levelo_inurba_marseille","lat":43.314811,"lon":5.373103,"is_reserved":false,"is_disabled":false,"rental_uris":{"android":"levelo://app?vid=64c3e70c-1092-4c85-a0f0-3961aa022e62","ios":"levelo://app?vid=64c3e70c-1092-4c85-a0f0-3961aa022e62"},"vehicle_type_id":"4","last_reported":1723331292,"current_range_meters":30000,"station_id":"ce4bgt12rcd13ifvqcd0","pricing_plan_id":"cebpf4jnsgd1na2vs0mg"},{"bike_id":"9f2c0050-6fe7-466b-88d0-f3425eba67db","system_id":"levelo_inurba_marseille","lat":43.314811,"lon":5.373103,"is_reserved":false,"is_disabled":false,"rental_uris":{"android":"levelo://app?vid=9f2c0050-6fe7-466b-88d0-f3425eba67db","ios":"levelo://app?vid=9f2c0050-6fe7-466b-88d0-f3425eba67db"},"vehicle_type_id":"4","last_reported":1723331292,"current_range_meters":18000,"station_id":"ce4bgt12rcd13ifvqcd0","pricing_plan_id":"cebpf4jnsgd1na2vs0mg"},{"bike_id":"de74bec8-6eaa-461a-8eeb-4cd4e6f9475c","system_id":"levelo_inurba_marseille","lat":43.314811,"lon":5.373103,"is_reserved":false,"is_disabled":false,"rental_uris":{"android":"levelo://app?vid=de74bec8-6eaa-461a-8eeb-4cd4e6f9475c","ios":"levelo://app?vid=de74bec8-6eaa-461a-8eeb-4cd4e6f9475c"},"vehicle_type_id":"4","last_reported":1723331292,"current_range_meters":13200,"station_id":"ce4bgt12rcd13ifvqcd0","pricing_plan_id":"cebpf4jnsgd1na2vs0mg"},{"bike_id":"821e3804-0044-4747-9978-40955290dc2f","system_id":"levelo_inurba_marseille","lat":43.314811,"lon":5.373104,"is_reserved":false,"is_disabled":false,"rental_uris":{"android":"levelo://app?vid=821e3804-0044-4747-9978-40955290dc2f","ios":"levelo://app?vid=821e3804-0044-4747-9978-40955290dc2f"},"vehicle_type_id":"4","last_reported":1723331292,"current_range_meters":5200,"station_id":"ce4bgt12rcd13ifvqcd0","pricing_plan_id":"cebpf4jnsgd1na2vs0mg"},{"bike_id":"e66f10eb-df1b-489f-8968-0a278cb22477","system_id":"levelo_inurba_marseille","lat":43.31491,"lon":5.37308,"is_reserved":false,"is_disabled":false,"rental_uris":{"android":"levelo://app?vid=e66f10eb-df1b-489f-8968-0a278cb22477","ios":"levelo://app?vid=e66f10eb-df1b-489f-8968-0a278cb22477"},"vehicle_type_id":"4","last_reported":1723331292,"current_range_meters":400,"station_id":"ce4bgt12rcd13ifvqcd0","pricing_plan_id":"cebpf4jnsgd1na2vs0mg"},{"bike_id":"a444b099-89fc-4e8c-bf11-ffc5045e54d1","system_id":"levelo_inurba_marseille","lat":43.314811,"lon":5.373104,"is_reserved":false,"is_disabled":false,"rental_uris":{"android":"levelo://app?vid=a444b099-89fc-4e8c-bf11-ffc5045e54d1","ios":"levelo://app?vid=a444b099-89fc-4e8c-bf11-ffc5045e54d1"},"vehicle_type_id":"4","last_reported":1723331292,"current_range_meters":16400,"station_id":"ce4bgt12rcd13ifvqcd0","pricing_plan_id":"cebpf4jnsgd1na2vs0mg"},{"bike_id":"9266ad83-6ca8-4387-80e0-b0b8fe59bc2a","system_id":"levelo_inurba_marseille","lat":43.314811,"lon":5.373104,"is_reserved":false,"is_disabled":false,"rental_uris":{"android":"levelo://app?vid=9266ad83-6ca8-4387-80e0-b0b8fe59bc2a","ios":"levelo://app?vid=9266ad83-6ca8-4387-80e0-b0b8fe59bc2a"},"vehicle_type_id":"4","last_reported":1723331292,"current_range_meters":3600,"station_id":"ce4bgt12rcd13ifvqcd0","pricing_plan_id":"cebpf4jnsgd1na2vs0mg"},{"bike_id":"91270b1f-2854-4fd4-94e4-b44d886442c6","system_id":"levelo_inurba_marseille","lat":43.314811,"lon":5.373104,"is_reserved":false,"is_disabled":false,"rental_uris":{"android":"levelo://app?vid=91270b1f-2854-4fd4-94e4-b44d886442c6","ios":"levelo://app?vid=91270b1f-2854-4fd4-94e4-b44d886442c6"},"vehicle_type_id":"4","last_reported":1723331292,"current_range_meters":7200,"station_id":"ce4bgt12rcd13ifvqcd0","pricing_plan_id":"cebpf4jnsgd1na2vs0mg"},{"bike_id":"dcb426c5-a9db-4cda-948f-f6e3b56d41be","system_id":"levelo_inurba_marseille","lat":43.314811,"lon":5.373104,"is_reserved":false,"is_disabled":false,"rental_uris":{"android":"levelo://app?vid=dcb426c5-a9db-4cda-948f-f6e3b56d41be","ios":"levelo://app?vid=dcb426c5-a9db-4cda-948f-f6e3b56d41be"},"vehicle_type_id":"4","last_reported":1723331292,"current_range_meters":20800,"station_id":"ce4bgt12rcd13ifvqcd0","pricing_plan_id":"cebpf4jnsgd1na2vs0mg"},{"bike_id":"fd94ce99-9d27-4f2a-a3cd-0d91b503ae97","system_id":"levelo_inurba_marseille","lat":43.309039,"lon":5.371797,"is_reserved":false,"is_disabled":false,"rental_uris":{"android":"levelo://app?vid=fd94ce99-9d27-4f2a-a3cd-0d91b503ae97","ios":"levelo://app?vid=fd94ce99-9d27-4f2a-a3cd-0d91b503ae97"},"vehicle_type_id":"4","last_reported":1723331292,"current_range_meters":22400,"station_id":"ce4bguh2rcd13ifvqckg","pricing_plan_id":"cebpf4jnsgd1na2vs0mg"},{"bike_id":"d9747aa9-7792-4ff0-9dd4-650e651cfc93","system_id":"levelo_inurba_marseille","lat":43.3146,"lon":5.37375,"is_reserved":false,"is_disabled":false,"rental_uris":{"android":"levelo://app?vid=d9747aa9-7792-4ff0-9dd4-650e651cfc93","ios":"levelo://app?vid=d9747aa9-7792-4ff0-9dd4-650e651cfc93"},"vehicle_type_id":"4","last_reported":1723331292,"current_range_meters":28800,"station_id":"","pricing_plan_id":"cebpf4jnsgd1na2vs0mg"},{"bike_id":"61525132-8bf4-44d4-b00a-bb4ff47d48cf","system_id":"levelo_inurba_marseille","lat":43.309039,"lon":5.371797,"is_reserved":false,"is_disabled":false,"rental_uris":{"android":"levelo://app?vid=61525132-8bf4-44d4-b00a-bb4ff47d48cf","ios":"levelo://app?vid=61525132-8bf4-44d4-b00a-bb4ff47d48cf"},"vehicle_type_id":"4","last_reported":1723331292,"current_range_meters":17200,"station_id":"ce4bguh2rcd13ifvqckg","pricing_plan_id":"cebpf4jnsgd1na2vs0mg"},{"bike_id":"60a8123f-8d9f-4c76-b0cb-dd432f8600c2","system_id":"levelo_inurba_marseille","lat":43.309039,"lon":5.371797,"is_reserved":false,"is_disabled":false,"rental_uris":{"android":"levelo://app?vid=60a8123f-8d9f-4c76-b0cb-dd432f8600c2","ios":"levelo://app?vid=60a8123f-8d9f-4c76-b0cb-dd432f8600c2"},"vehicle_type_id":"4","last_reported":1723331292,"current_range_meters":31600,"station_id":"ce4bguh2rcd13ifvqckg","pricing_plan_id":"cebpf4jnsgd1na2vs0mg"},{"bike_id":"51ef46f6-3b48-432d-a1ef-3caae8a90a08","system_id":"levelo_inurba_marseille","lat":43.305989,"lon":5.37225,"is_reserved":false,"is_disabled":false,"rental_uris":{"android":"levelo://app?vid=51ef46f6-3b48-432d-a1ef-3caae8a90a08","ios":"levelo://app?vid=51ef46f6-3b48-432d-a1ef-3caae8a90a08"},"vehicle_type_id":"4","last_reported":1723331292,"current_range_meters":25600,"station_id":"ce4bgqh2rcd13ifvqc4g","pricing_plan_id":"cebpf4jnsgd1na2vs0mg"},{"bike_id":"196ed060-ee52-4720-bece-482d64b3ac92","system_id":"levelo_inurba_marseille","lat":43.301429,"lon":5.37413,"is_reserved":false,"is_disabled":false,"rental_uris":{"android":"levelo://app?vid=196ed060-ee52-4720-bece-482d64b3ac92","ios":"levelo://app?vid=196ed060-ee52-4720-bece-482d64b3ac92"},"vehicle_type_id":"4","last_reported":1723331292,"current_range_meters":27600,"station_id":"ce4bgs92rcd13ifvqcc0","pricing_plan_id":"cebpf4jnsgd1na2vs0mg"},{"bike_id":"fe4f07e0-a3ee-43c2-b0b7-d0e6e8e43789","system_id":"levelo_inurba_marseille","lat":43.304935,"lon":5.369445,"is_reserved":false,"is_disabled":false,"rental_uris":{"android":"levelo://app?vid=fe4f07e0-a3ee-43c2-b0b7-d0e6e8e43789","ios":"levelo://app?vid=fe4f07e0-a3ee-43c2-b0b7-d0e6e8e43789"},"vehicle_type_id":"4","last_reported":1723331292,"current_range_meters":17200,"station_id":"","pricing_plan_id":"cebpf4jnsgd1na2vs0mg"},{"bike_id":"3252ad18-d187-4c56-85d2-3eaad8bacf31","system_id":"levelo_inurba_marseille","lat":43.31121,"lon":5.37776,"is_reserved":false,"is_disabled":false,"rental_uris":{"android":"levelo://app?vid=3252ad18-d187-4c56-85d2-3eaad8bacf31","ios":"levelo://app?vid=3252ad18-d187-4c56-85d2-3eaad8bacf31"},"vehicle_type_id":"4","last_reported":1723331292,"current_range_meters":14000,"station_id":"ce4bgt92rcd13ifvqcg0","pricing_plan_id":"cebpf4jnsgd1na2vs0mg"},{"bike_id":"9ce007b8-0b46-40e0-9ad5-e35b08d5adbe","system_id":"levelo_inurba_marseille","lat":43.31113,"lon":5.37776,"is_reserved":false,"is_disabled":false,"rental_uris":{"android":"levelo://app?vid=9ce007b8-0b46-40e0-9ad5-e35b08d5adbe","ios":"levelo://app?vid=9ce007b8-0b46-40e0-9ad5-e35b08d5adbe"},"vehicle_type_id":"4","last_reported":1723331292,"current_range_meters":29200,"station_id":"ce4bgt92rcd13ifvqcg0","pricing_plan_id":"cebpf4jnsgd1na2vs0mg"},{"bike_id":"4735c366-4f57-4e99-8076-1c9cd16f5d07","system_id":"levelo_inurba_marseille","lat":43.307945,"lon":5.376487,"is_reserved":false,"is_disabled":false,"rental_uris":{"android":"levelo://app?vid=4735c366-4f57-4e99-8076-1c9cd16f5d07","ios":"levelo://app?vid=4735c366-4f57-4e99-8076-1c9cd16f5d07"},"vehicle_type_id":"4","last_reported":1723331292,"current_range_meters":21200,"station_id":"ce4bgv92rcd13ifvqcq0","pricing_plan_id":"cebpf4jnsgd1na2vs0mg"},{"bike_id":"92acbd87-4a04-4486-a6bc-5031a1e6cdd6","system_id":"levelo_inurba_marseille","lat":43.307945,"lon":5.376487,"is_reserved":false,"is_disabled":false,"rental_uris":{"android":"levelo://app?vid=92acbd87-4a04-4486-a6bc-5031a1e6cdd6","ios":"levelo://app?vid=92acbd87-4a04-4486-a6bc-5031a1e6cdd6"},"vehicle_type_id":"4","last_reported":1723331292,"current_range_meters":19200,"station_id":"ce4bgv92rcd13ifvqcq0","pricing_plan_id":"cebpf4jnsgd1na2vs0mg"},{"bike_id":"d0a3ab1c-a08f-4ba4-806c-e71766fb2af5","system_id":"levelo_inurba_marseille","lat":43.307945,"lon":5.376487,"is_reserved":false,"is_disabled":false,"rental_uris":{"android":"levelo://app?vid=d0a3ab1c-a08f-4ba4-806c-e71766fb2af5","ios":"levelo://app?vid=d0a3ab1c-a08f-4ba4-806c-e71766fb2af5"},"vehicle_type_id":"4","last_reported":1723331292,"current_range_meters":13600,"station_id":"ce4bgv92rcd13ifvqcq0","pricing_plan_id":"cebpf4jnsgd1na2vs0mg"},{"bike_id":"93352def-8152-451c-a82f-97cf5235f06d","system_id":"levelo_inurba_marseille","lat":43.307945,"lon":5.376487,"is_reserved":false,"is_disabled":false,"rental_uris":{"android":"levelo://app?vid=93352def-8152-451c-a82f-97cf5235f06d","ios":"levelo://app?vid=93352def-8152-451c-a82f-97cf5235f06d"},"vehicle_type_id":"4","last_reported":1723331292,"current_range_meters":15200,"station_id":"ce4bgv92rcd13ifvqcq0","pricing_plan_id":"cebpf4jnsgd1na2vs0mg"},{"bike_id":"20d85518-efbc-47ab-ae90-2908c9b9ec9c","system_id":"levelo_inurba_marseille","lat":43.307945,"lon":5.376487,"is_reserved":false,"is_disabled":false,"rental_uris":{"android":"levelo://app?vid=20d85518-efbc-47ab-ae90-2908c9b9ec9c","ios":"levelo://app?vid=20d85518-efbc-47ab-ae90-2908c9b9ec9c"},"vehicle_type_id":"4","last_reported":1723331292,"current_range_meters":18000,"station_id":"ce4bgv92rcd13ifvqcq0","pricing_plan_id":"cebpf4jnsgd1na2vs0mg"},{"bike_id":"f0427ece-42a1-479c-95f3-63e91234fed4","system_id":"levelo_inurba_marseille","lat":43.315289,"lon":5.380349,"is_reserved":false,"is_disabled":false,"rental_uris":{"android":"levelo://app?vid=f0427ece-42a1-479c-95f3-63e91234fed4","ios":"levelo://app?vid=f0427ece-42a1-479c-95f3-63e91234fed4"},"vehicle_type_id":"4","last_reported":1723331292,"current_range_meters":18000,"station_id":"ce4bhsp2rcd13ifvqi50","pricing_plan_id":"cebpf4jnsgd1na2vs0mg"},{"bike_id":"68d76b6e-b8b0-437c-80a8-b0cc039d8bf2","system_id":"levelo_inurba_marseille","lat":43.30348,"lon":5.36506,"is_reserved":false,"is_disabled":false,"rental_uris":{"android":"levelo://app?vid=68d76b6e-b8b0-437c-80a8-b0cc039d8bf2","ios":"levelo://app?vid=68d76b6e-b8b0-437c-80a8-b0cc039d8bf2"},"vehicle_type_id":"4","last_reported":1723331292,"current_range_meters":0,"station_id":"","pricing_plan_id":"cebpf4jnsgd1na2vs0mg"},{"bike_id":"af654b9d-74ce-454c-a057-a3cd4035d8d3","system_id":"levelo_inurba_marseille","lat":43.315289,"lon":5.380349,"is_reserved":false,"is_disabled":false,"rental_uris":{"android":"levelo://app?vid=af654b9d-74ce-454c-a057-a3cd4035d8d3","ios":"levelo://app?vid=af654b9d-74ce-454c-a057-a3cd4035d8d3"},"vehicle_type_id":"4","last_reported":1723331292,"current_range_meters":10400,"station_id":"ce4bhsp2rcd13ifvqi50","pricing_plan_id":"cebpf4jnsgd1na2vs0mg"},{"bike_id":"8427f34c-9cb4-4b92-a84d-6fef6e6c04d8","system_id":"levelo_inurba_marseille","lat":43.315289,"lon":5.380349,"is_reserved":false,"is_disabled":false,"rental_uris":{"android":"levelo://app?vid=8427f34c-9cb4-4b92-a84d-6fef6e6c04d8","ios":"levelo://app?vid=8427f34c-9cb4-4b92-a84d-6fef6e6c04d8"},"vehicle_type_id":"4","last_reported":1723331292,"current_range_meters":15200,"station_id":"ce4bhsp2rcd13ifvqi50","pricing_plan_id":"cebpf4jnsgd1na2vs0mg"},{"bike_id":"e7fd84e6-a1fe-4cb4-a7c4-f1158329cb37","system_id":"levelo_inurba_marseille","lat":43.301939,"lon":5.366286,"is_reserved":false,"is_disabled":false,"rental_uris":{"android":"levelo://app?vid=e7fd84e6-a1fe-4cb4-a7c4-f1158329cb37","ios":"levelo://app?vid=e7fd84e6-a1fe-4cb4-a7c4-f1158329cb37"},"vehicle_type_id":"4","last_reported":1723331292,"current_range_meters":22800,"station_id":"ce4bgrh2rcd13ifvqc8g","pricing_plan_id":"cebpf4jnsgd1na2vs0mg"},{"bike_id":"10c173e6-036a-46bf-b30c-06f55f5c0c83","system_id":"levelo_inurba_marseille","lat":43.308012,"lon":5.381511,"is_reserved":false,"is_disabled":false,"rental_uris":{"android":"levelo://app?vid=10c173e6-036a-46bf-b30c-06f55f5c0c83","ios":"levelo://app?vid=10c173e6-036a-46bf-b30c-06f55f5c0c83"},"vehicle_type_id":"4","last_reported":1723331292,"current_range_meters":22400,"station_id":"ce4bgt12rcd13ifvqce0","pricing_plan_id":"cebpf4jnsgd1na2vs0mg"},{"bike_id":"b9bbfd9a-7179-41fe-bbfd-3b56e21b8a08","system_id":"levelo_inurba_marseille","lat":43.308012,"lon":5.381511,"is_reserved":false,"is_disabled":false,"rental_uris":{"android":"levelo://app?vid=b9bbfd9a-7179-41fe-bbfd-3b56e21b8a08","ios":"levelo://app?vid=b9bbfd9a-7179-41fe-bbfd-3b56e21b8a08"},"vehicle_type_id":"4","last_reported":1723331292,"current_range_meters":28400,"station_id":"ce4bgt12rcd13ifvqce0","pricing_plan_id":"cebpf4jnsgd1na2vs0mg"},{"bike_id":"eb625dc9-aa86-458b-afeb-b16535c39ae3","system_id":"levelo_inurba_marseille","lat":43.308012,"lon":5.381511,"is_reserved":false,"is_disabled":false,"rental_uris":{"android":"levelo://app?vid=eb625dc9-aa86-458b-afeb-b16535c39ae3","ios":"levelo://app?vid=eb625dc9-aa86-458b-afeb-b16535c39ae3"},"vehicle_type_id":"4","last_reported":1723331292,"current_range_meters":13200,"station_id":"ce4bgt12rcd13ifvqce0","pricing_plan_id":"cebpf4jnsgd1na2vs0mg"},{"bike_id":"4e421d7a-7fa6-47e7-8adf-bd6131bfc75e","system_id":"levelo_inurba_marseille","lat":43.308012,"lon":5.381511,"is_reserved":false,"is_disabled":false,"rental_uris":{"android":"levelo://app?vid=4e421d7a-7fa6-47e7-8adf-bd6131bfc75e","ios":"levelo://app?vid=4e421d7a-7fa6-47e7-8adf-bd6131bfc75e"},"vehicle_type_id":"4","last_reported":1723331292,"current_range_meters":10800,"station_id":"ce4bgt12rcd13ifvqce0","pricing_plan_id":"cebpf4jnsgd1na2vs0mg"},{"bike_id":"1bfe6b30-c08a-453f-8ed8-cd5ce86c1aa8","system_id":"levelo_inurba_marseille","lat":43.30807,"lon":5.381552,"is_reserved":false,"is_disabled":false,"rental_uris":{"android":"levelo://app?vid=1bfe6b30-c08a-453f-8ed8-cd5ce86c1aa8","ios":"levelo://app?vid=1bfe6b30-c08a-453f-8ed8-cd5ce86c1aa8"},"vehicle_type_id":"4","last_reported":1723331292,"current_range_meters":20000,"station_id":"ce4bgt12rcd13ifvqce0","pricing_plan_id":"cebpf4jnsgd1na2vs0mg"},{"bike_id":"26a3c868-30d6-47ef-84cc-23dcd92ff5d8","system_id":"levelo_inurba_marseille","lat":43.30804,"lon":5.38162,"is_reserved":false,"is_disabled":false,"rental_uris":{"android":"levelo://app?vid=26a3c868-30d6-47ef-84cc-23dcd92ff5d8","ios":"levelo://app?vid=26a3c868-30d6-47ef-84cc-23dcd92ff5d8"},"vehicle_type_id":"4","last_reported":1723331292,"current_range_meters":29600,"station_id":"ce4bgt12rcd13ifvqce0","pricing_plan_id":"cebpf4jnsgd1na2vs0mg"},{"bike_id":"589ec096-f49e-4aca-82eb-1b2c4e9b3725","system_id":"levelo_inurba_marseille","lat":43.308,"lon":5.38163,"is_reserved":false,"is_disabled":false,"rental_uris":{"android":"levelo://app?vid=589ec096-f49e-4aca-82eb-1b2c4e9b3725","ios":"levelo://app?vid=589ec096-f49e-4aca-82eb-1b2c4e9b3725"},"vehicle_type_id":"4","last_reported":1723331292,"current_range_meters":20400,"station_id":"ce4bgt12rcd13ifvqce0","pricing_plan_id":"cebpf4jnsgd1na2vs0mg"},{"bike_id":"32678e03-01c8-4048-a6b0-1217e2df80f3","system_id":"levelo_inurba_marseille","lat":43.30806,"lon":5.38169,"is_reserved":false,"is_disabled":false,"rental_uris":{"android":"levelo://app?vid=32678e03-01c8-4048-a6b0-1217e2df80f3","ios":"levelo://app?vid=32678e03-01c8-4048-a6b0-1217e2df80f3"},"vehicle_type_id":"4","last_reported":1723331292,"current_range_meters":17200,"station_id":"ce4bgt12rcd13ifvqce0","pricing_plan_id":"cebpf4jnsgd1na2vs0mg"},{"bike_id":"90b4a4ba-cf3e-4e9c-8ce0-7e329fb919b4","system_id":"levelo_inurba_marseille","lat":43.304606,"lon":5.379026,"is_reserved":false,"is_disabled":false,"rental_uris":{"android":"levelo://app?vid=90b4a4ba-cf3e-4e9c-8ce0-7e329fb919b4","ios":"levelo://app?vid=90b4a4ba-cf3e-4e9c-8ce0-7e329fb919b4"},"vehicle_type_id":"4","last_reported":1723331292,"current_range_meters":6000,"station_id":"ce4bgup2rcd13ifvqcn0","pricing_plan_id":"cebpf4jnsgd1na2vs0mg"},{"bike_id":"282d51ff-06a5-4a00-a1e3-da97bfa009e6","system_id":"levelo_inurba_marseille","lat":43.308012,"lon":5.381511,"is_reserved":false,"is_disabled":false,"rental_uris":{"android":"levelo://app?vid=282d51ff-06a5-4a00-a1e3-da97bfa009e6","ios":"levelo://app?vid=282d51ff-06a5-4a00-a1e3-da97bfa009e6"},"vehicle_type_id":"4","last_reported":1723331292,"current_range_meters":29600,"station_id":"ce4bgt12rcd13ifvqce0","pricing_plan_id":"cebpf4jnsgd1na2vs0mg"},{"bike_id":"a7107ef9-55f0-477a-b52b-a987c265ac12","system_id":"levelo_inurba_marseille","lat":43.324771,"lon":5.36557,"is_reserved":false,"is_disabled":false,"rental_uris":{"android":"levelo://app?vid=a7107ef9-55f0-477a-b52b-a987c265ac12","ios":"levelo://app?vid=a7107ef9-55f0-477a-b52b-a987c265ac12"},"vehicle_type_id":"4","last_reported":1723331292,"current_range_meters":13600,"station_id":"ce4bhs12rcd13ifvqhvg","pricing_plan_id":"cebpf4jnsgd1na2vs0mg"},{"bike_id":"e808a47c-f1ab-49c8-9868-162ce164be9e","system_id":"levelo_inurba_marseille","lat":43.324771,"lon":5.36557,"is_reserved":false,"is_disabled":false,"rental_uris":{"android":"levelo://app?vid=e808a47c-f1ab-49c8-9868-162ce164be9e","ios":"levelo://app?vid=e808a47c-f1ab-49c8-9868-162ce164be9e"},"vehicle_type_id":"4","last_reported":1723331292,"current_range_meters":18400,"station_id":"ce4bhs12rcd13ifvqhvg","pricing_plan_id":"cebpf4jnsgd1na2vs0mg"},{"bike_id":"75a43ee6-e251-4740-af8e-bff42a826b72","system_id":"levelo_inurba_marseille","lat":43.324771,"lon":5.36557,"is_reserved":false,"is_disabled":false,"rental_uris":{"android":"levelo://app?vid=75a43ee6-e251-4740-af8e-bff42a826b72","ios":"levelo://app?vid=75a43ee6-e251-4740-af8e-bff42a826b72"},"vehicle_type_id":"4","last_reported":1723331292,"current_range_meters":10000,"station_id":"ce4bhs12rcd13ifvqhvg","pricing_plan_id":"cebpf4jnsgd1na2vs0mg"},{"bike_id":"f509acdd-4e2b-4412-ba87-b355900b35f8","system_id":"levelo_inurba_marseille","lat":43.324771,"lon":5.36557,"is_reserved":false,"is_disabled":false,"rental_uris":{"android":"levelo://app?vid=f509acdd-4e2b-4412-ba87-b355900b35f8","ios":"levelo://app?vid=f509acdd-4e2b-4412-ba87-b355900b35f8"},"vehicle_type_id":"4","last_reported":1723331292,"current_range_meters":29600,"station_id":"ce4bhs12rcd13ifvqhvg","pricing_plan_id":"cebpf4jnsgd1na2vs0mg"},{"bike_id":"b7c7470e-d02c-4f72-8b9d-2fd75489c834","system_id":"levelo_inurba_marseille","lat":43.324771,"lon":5.36557,"is_reserved":false,"is_disabled":false,"rental_uris":{"android":"levelo://app?vid=b7c7470e-d02c-4f72-8b9d-2fd75489c834","ios":"levelo://app?vid=b7c7470e-d02c-4f72-8b9d-2fd75489c834"},"vehicle_type_id":"4","last_reported":1723331292,"current_range_meters":31200,"station_id":"ce4bhs12rcd13ifvqhvg","pricing_plan_id":"cebpf4jnsgd1na2vs0mg"},{"bike_id":"8d62cf42-ded4-40b6-a339-928240cb973a","system_id":"levelo_inurba_marseille","lat":43.324771,"lon":5.36557,"is_reserved":false,"is_disabled":false,"rental_uris":{"android":"levelo://app?vid=8d62cf42-ded4-40b6-a339-928240cb973a","ios":"levelo://app?vid=8d62cf42-ded4-40b6-a339-928240cb973a"},"vehicle_type_id":"4","last_reported":1723331292,"current_range_meters":31200,"station_id":"ce4bhs12rcd13ifvqhvg","pricing_plan_id":"cebpf4jnsgd1na2vs0mg"},{"bike_id":"0c46650d-acbb-452c-8551-83b678600d8e","system_id":"levelo_inurba_marseille","lat":43.324771,"lon":5.36557,"is_reserved":false,"is_disabled":false,"rental_uris":{"android":"levelo://app?vid=0c46650d-acbb-452c-8551-83b678600d8e","ios":"levelo://app?vid=0c46650d-acbb-452c-8551-83b678600d8e"},"vehicle_type_id":"4","last_reported":1723331292,"current_range_meters":21200,"station_id":"ce4bhs12rcd13ifvqhvg","pricing_plan_id":"cebpf4jnsgd1na2vs0mg"},{"bike_id":"717ad590-270b-47cb-ad0b-54077cbf7e53","system_id":"levelo_inurba_marseille","lat":43.324771,"lon":5.36557,"is_reserved":false,"is_disabled":false,"rental_uris":{"android":"levelo://app?vid=717ad590-270b-47cb-ad0b-54077cbf7e53","ios":"levelo://app?vid=717ad590-270b-47cb-ad0b-54077cbf7e53"},"vehicle_type_id":"4","last_reported":1723331292,"current_range_meters":28000,"station_id":"ce4bhs12rcd13ifvqhvg","pricing_plan_id":"cebpf4jnsgd1na2vs0mg"},{"bike_id":"fc590896-1ef2-4d20-aa58-87c2f9cc0567","system_id":"levelo_inurba_marseille","lat":43.324771,"lon":5.36557,"is_reserved":false,"is_disabled":false,"rental_uris":{"android":"levelo://app?vid=fc590896-1ef2-4d20-aa58-87c2f9cc0567","ios":"levelo://app?vid=fc590896-1ef2-4d20-aa58-87c2f9cc0567"},"vehicle_type_id":"4","last_reported":1723331292,"current_range_meters":31200,"station_id":"ce4bhs12rcd13ifvqhvg","pricing_plan_id":"cebpf4jnsgd1na2vs0mg"},{"bike_id":"b1733948-b5b9-45d7-af58-2f52b42c90cd","system_id":"levelo_inurba_marseille","lat":43.324849,"lon":5.365641,"is_reserved":false,"is_disabled":false,"rental_uris":{"android":"levelo://app?vid=b1733948-b5b9-45d7-af58-2f52b42c90cd","ios":"levelo://app?vid=b1733948-b5b9-45d7-af58-2f52b42c90cd"},"vehicle_type_id":"4","last_reported":1723331292,"current_range_meters":13600,"station_id":"ce4bhs12rcd13ifvqhvg","pricing_plan_id":"cebpf4jnsgd1na2vs0mg"},{"bike_id":"e5000063-db07-4064-adf1-e6b77f0e18ee","system_id":"levelo_inurba_marseille","lat":43.324771,"lon":5.36557,"is_reserved":false,"is_disabled":false,"rental_uris":{"android":"levelo://app?vid=e5000063-db07-4064-adf1-e6b77f0e18ee","ios":"levelo://app?vid=e5000063-db07-4064-adf1-e6b77f0e18ee"},"vehicle_type_id":"4","last_reported":1723331292,"current_range_meters":22800,"station_id":"ce4bhs12rcd13ifvqhvg","pricing_plan_id":"cebpf4jnsgd1na2vs0mg"},{"bike_id":"d03a9350-f047-491b-9a33-80f2e30b0294","system_id":"levelo_inurba_marseille","lat":43.310804,"lon":5.38359,"is_reserved":false,"is_disabled":false,"rental_uris":{"android":"levelo://app?vid=d03a9350-f047-491b-9a33-80f2e30b0294","ios":"levelo://app?vid=d03a9350-f047-491b-9a33-80f2e30b0294"},"vehicle_type_id":"4","last_reported":1723331292,"current_range_meters":24400,"station_id":"ce4bgv92rcd13ifvqcr0","pricing_plan_id":"cebpf4jnsgd1na2vs0mg"},{"bike_id":"76436274-bfb3-4ec8-ba78-d4d266a1eb0d","system_id":"levelo_inurba_marseille","lat":43.310804,"lon":5.38359,"is_reserved":false,"is_disabled":false,"rental_uris":{"android":"levelo://app?vid=76436274-bfb3-4ec8-ba78-d4d266a1eb0d","ios":"levelo://app?vid=76436274-bfb3-4ec8-ba78-d4d266a1eb0d"},"vehicle_type_id":"4","last_reported":1723331292,"current_range_meters":12000,"station_id":"ce4bgv92rcd13ifvqcr0","pricing_plan_id":"cebpf4jnsgd1na2vs0mg"},{"bike_id":"6a246a79-3a96-4dc5-bdee-280e49b2dffc","system_id":"levelo_inurba_marseille","lat":43.310804,"lon":5.38359,"is_reserved":false,"is_disabled":false,"rental_uris":{"android":"levelo://app?vid=6a246a79-3a96-4dc5-bdee-280e49b2dffc","ios":"levelo://app?vid=6a246a79-3a96-4dc5-bdee-280e49b2dffc"},"vehicle_type_id":"4","last_reported":1723331292,"current_range_meters":4800,"station_id":"ce4bgv92rcd13ifvqcr0","pricing_plan_id":"cebpf4jnsgd1na2vs0mg"},{"bike_id":"5fc0d868-3327-4e5f-a8aa-7409c11b9642","system_id":"levelo_inurba_marseille","lat":43.310804,"lon":5.38359,"is_reserved":false,"is_disabled":false,"rental_uris":{"android":"levelo://app?vid=5fc0d868-3327-4e5f-a8aa-7409c11b9642","ios":"levelo://app?vid=5fc0d868-3327-4e5f-a8aa-7409c11b9642"},"vehicle_type_id":"4","last_reported":1723331292,"current_range_meters":8000,"station_id":"ce4bgv92rcd13ifvqcr0","pricing_plan_id":"cebpf4jnsgd1na2vs0mg"},{"bike_id":"620cf760-93c2-46b1-88bb-9a12e066140d","system_id":"levelo_inurba_marseille","lat":43.310804,"lon":5.38359,"is_reserved":false,"is_disabled":false,"rental_uris":{"android":"levelo://app?vid=620cf760-93c2-46b1-88bb-9a12e066140d","ios":"levelo://app?vid=620cf760-93c2-46b1-88bb-9a12e066140d"},"vehicle_type_id":"4","last_reported":1723331292,"current_range_meters":11200,"station_id":"ce4bgv92rcd13ifvqcr0","pricing_plan_id":"cebpf4jnsgd1na2vs0mg"},{"bike_id":"44d5ee01-17cf-4298-b152-f9324636a5f3","system_id":"levelo_inurba_marseille","lat":43.310804,"lon":5.38359,"is_reserved":false,"is_disabled":false,"rental_uris":{"android":"levelo://app?vid=44d5ee01-17cf-4298-b152-f9324636a5f3","ios":"levelo://app?vid=44d5ee01-17cf-4298-b152-f9324636a5f3"},"vehicle_type_id":"4","last_reported":1723331292,"current_range_meters":26000,"station_id":"ce4bgv92rcd13ifvqcr0","pricing_plan_id":"cebpf4jnsgd1na2vs0mg"},{"bike_id":"a9d1e9f1-0b6d-441a-8eb0-d22e2b806d21","system_id":"levelo_inurba_marseille","lat":43.310804,"lon":5.38359,"is_reserved":false,"is_disabled":false,"rental_uris":{"android":"levelo://app?vid=a9d1e9f1-0b6d-441a-8eb0-d22e2b806d21","ios":"levelo://app?vid=a9d1e9f1-0b6d-441a-8eb0-d22e2b806d21"},"vehicle_type_id":"4","last_reported":1723331292,"current_range_meters":0,"station_id":"ce4bgv92rcd13ifvqcr0","pricing_plan_id":"cebpf4jnsgd1na2vs0mg"},{"bike_id":"816b9cea-8a5b-4e72-ad10-398271f2ad88","system_id":"levelo_inurba_marseille","lat":43.310804,"lon":5.38359,"is_reserved":false,"is_disabled":false,"rental_uris":{"android":"levelo://app?vid=816b9cea-8a5b-4e72-ad10-398271f2ad88","ios":"levelo://app?vid=816b9cea-8a5b-4e72-ad10-398271f2ad88"},"vehicle_type_id":"4","last_reported":1723331292,"current_range_meters":12400,"station_id":"ce4bgv92rcd13ifvqcr0","pricing_plan_id":"cebpf4jnsgd1na2vs0mg"},{"bike_id":"50db3534-9c0b-445a-afa7-aeab88b6ea21","system_id":"levelo_inurba_marseille","lat":43.31072,"lon":5.38357,"is_reserved":false,"is_disabled":false,"rental_uris":{"android":"levelo://app?vid=50db3534-9c0b-445a-afa7-aeab88b6ea21","ios":"levelo://app?vid=50db3534-9c0b-445a-afa7-aeab88b6ea21"},"vehicle_type_id":"4","last_reported":1723331292,"current_range_meters":0,"station_id":"ce4bgv92rcd13ifvqcr0","pricing_plan_id":"cebpf4jnsgd1na2vs0mg"},{"bike_id":"8347cc31-c3cf-4cb6-9f60-eadbb35009f7","system_id":"levelo_inurba_marseille","lat":43.310804,"lon":5.38359,"is_reserved":false,"is_disabled":false,"rental_uris":{"android":"levelo://app?vid=8347cc31-c3cf-4cb6-9f60-eadbb35009f7","ios":"levelo://app?vid=8347cc31-c3cf-4cb6-9f60-eadbb35009f7"},"vehicle_type_id":"4","last_reported":1723331292,"current_range_meters":11200,"station_id":"ce4bgv92rcd13ifvqcr0","pricing_plan_id":"cebpf4jnsgd1na2vs0mg"},{"bike_id":"fae7f3ea-5a6c-4daf-a994-b531a0a706b1","system_id":"levelo_inurba_marseille","lat":43.31075,"lon":5.38359,"is_reserved":false,"is_disabled":false,"rental_uris":{"android":"levelo://app?vid=fae7f3ea-5a6c-4daf-a994-b531a0a706b1","ios":"levelo://app?vid=fae7f3ea-5a6c-4daf-a994-b531a0a706b1"},"vehicle_type_id":"4","last_reported":1723331292,"current_range_meters":10000,"station_id":"ce4bgv92rcd13ifvqcr0","pricing_plan_id":"cebpf4jnsgd1na2vs0mg"},{"bike_id":"9cb29d02-7a43-4c80-95fc-e88a5b07f6db","system_id":"levelo_inurba_marseille","lat":43.310804,"lon":5.38359,"is_reserved":false,"is_disabled":false,"rental_uris":{"android":"levelo://app?vid=9cb29d02-7a43-4c80-95fc-e88a5b07f6db","ios":"levelo://app?vid=9cb29d02-7a43-4c80-95fc-e88a5b07f6db"},"vehicle_type_id":"4","last_reported":1723331292,"current_range_meters":18800,"station_id":"ce4bgv92rcd13ifvqcr0","pricing_plan_id":"cebpf4jnsgd1na2vs0mg"},{"bike_id":"ee6e5194-f532-496d-8048-e1d13d47fc58","system_id":"levelo_inurba_marseille","lat":43.310804,"lon":5.38359,"is_reserved":false,"is_disabled":false,"rental_uris":{"android":"levelo://app?vid=ee6e5194-f532-496d-8048-e1d13d47fc58","ios":"levelo://app?vid=ee6e5194-f532-496d-8048-e1d13d47fc58"},"vehicle_type_id":"4","last_reported":1723331292,"current_range_meters":28400,"station_id":"ce4bgv92rcd13ifvqcr0","pricing_plan_id":"cebpf4jnsgd1na2vs0mg"},{"bike_id":"2b418b33-522e-436c-839c-8c724f789d8e","system_id":"levelo_inurba_marseille","lat":43.310804,"lon":5.38359,"is_reserved":false,"is_disabled":false,"rental_uris":{"android":"levelo://app?vid=2b418b33-522e-436c-839c-8c724f789d8e","ios":"levelo://app?vid=2b418b33-522e-436c-839c-8c724f789d8e"},"vehicle_type_id":"4","last_reported":1723331292,"current_range_meters":23600,"station_id":"ce4bgv92rcd13ifvqcr0","pricing_plan_id":"cebpf4jnsgd1na2vs0mg"},{"bike_id":"f9e5303c-7ddd-4fcb-9fca-b3ae6c975122","system_id":"levelo_inurba_marseille","lat":43.310804,"lon":5.38359,"is_reserved":false,"is_disabled":false,"rental_uris":{"android":"levelo://app?vid=f9e5303c-7ddd-4fcb-9fca-b3ae6c975122","ios":"levelo://app?vid=f9e5303c-7ddd-4fcb-9fca-b3ae6c975122"},"vehicle_type_id":"4","last_reported":1723331292,"current_range_meters":16000,"station_id":"ce4bgv92rcd13ifvqcr0","pricing_plan_id":"cebpf4jnsgd1na2vs0mg"},{"bike_id":"e0facb38-3368-476b-b795-e1823a5f98a1","system_id":"levelo_inurba_marseille","lat":43.310804,"lon":5.38359,"is_reserved":false,"is_disabled":false,"rental_uris":{"android":"levelo://app?vid=e0facb38-3368-476b-b795-e1823a5f98a1","ios":"levelo://app?vid=e0facb38-3368-476b-b795-e1823a5f98a1"},"vehicle_type_id":"4","last_reported":1723331292,"current_range_meters":23200,"station_id":"ce4bgv92rcd13ifvqcr0","pricing_plan_id":"cebpf4jnsgd1na2vs0mg"},{"bike_id":"d3f49ccc-a650-4779-ac6d-c3f2baefb8cd","system_id":"levelo_inurba_marseille","lat":43.31069,"lon":5.38363,"is_reserved":false,"is_disabled":false,"rental_uris":{"android":"levelo://app?vid=d3f49ccc-a650-4779-ac6d-c3f2baefb8cd","ios":"levelo://app?vid=d3f49ccc-a650-4779-ac6d-c3f2baefb8cd"},"vehicle_type_id":"4","last_reported":1723331292,"current_range_meters":11200,"station_id":"ce4bgv92rcd13ifvqcr0","pricing_plan_id":"cebpf4jnsgd1na2vs0mg"},{"bike_id":"985bc1eb-d768-45f3-bdc4-2e2302ffbb50","system_id":"levelo_inurba_marseille","lat":43.310804,"lon":5.38359,"is_reserved":false,"is_disabled":false,"rental_uris":{"android":"levelo://app?vid=985bc1eb-d768-45f3-bdc4-2e2302ffbb50","ios":"levelo://app?vid=985bc1eb-d768-45f3-bdc4-2e2302ffbb50"},"vehicle_type_id":"4","last_reported":1723331292,"current_range_meters":15600,"station_id":"ce4bgv92rcd13ifvqcr0","pricing_plan_id":"cebpf4jnsgd1na2vs0mg"},{"bike_id":"41920917-569e-400c-80fe-198df0d97485","system_id":"levelo_inurba_marseille","lat":43.30143,"lon":5.37413,"is_reserved":false,"is_disabled":false,"rental_uris":{"android":"levelo://app?vid=41920917-569e-400c-80fe-198df0d97485","ios":"levelo://app?vid=41920917-569e-400c-80fe-198df0d97485"},"vehicle_type_id":"4","last_reported":1723331292,"current_range_meters":30400,"station_id":"ce4bgs92rcd13ifvqcc0","pricing_plan_id":"cebpf4jnsgd1na2vs0mg"},{"bike_id":"8ae5e7ac-001d-4d72-9f5b-d26aefe4f408","system_id":"levelo_inurba_marseille","lat":43.30137,"lon":5.37432,"is_reserved":false,"is_disabled":false,"rental_uris":{"android":"levelo://app?vid=8ae5e7ac-001d-4d72-9f5b-d26aefe4f408","ios":"levelo://app?vid=8ae5e7ac-001d-4d72-9f5b-d26aefe4f408"},"vehicle_type_id":"4","last_reported":1723331292,"current_range_meters":0,"station_id":"ce4bgs92rcd13ifvqcc0","pricing_plan_id":"cebpf4jnsgd1na2vs0mg"},{"bike_id":"b4a9172d-27bb-47be-9892-5fca7a05f397","system_id":"levelo_inurba_marseille","lat":43.319935,"lon":5.381699,"is_reserved":false,"is_disabled":false,"rental_uris":{"android":"levelo://app?vid=b4a9172d-27bb-47be-9892-5fca7a05f397","ios":"levelo://app?vid=b4a9172d-27bb-47be-9892-5fca7a05f397"},"vehicle_type_id":"4","last_reported":1723331292,"current_range_meters":24800,"station_id":"ce4bhr12rcd13ifvqhpg","pricing_plan_id":"cebpf4jnsgd1na2vs0mg"},{"bike_id":"41598aff-7486-4b78-b5b0-f67a76fc3110","system_id":"levelo_inurba_marseille","lat":43.319935,"lon":5.381699,"is_reserved":false,"is_disabled":false,"rental_uris":{"android":"levelo://app?vid=41598aff-7486-4b78-b5b0-f67a76fc3110","ios":"levelo://app?vid=41598aff-7486-4b78-b5b0-f67a76fc3110"},"vehicle_type_id":"4","last_reported":1723331292,"current_range_meters":31600,"station_id":"ce4bhr12rcd13ifvqhpg","pricing_plan_id":"cebpf4jnsgd1na2vs0mg"},{"bike_id":"697ebc78-9884-4219-9309-172f0c36792c","system_id":"levelo_inurba_marseille","lat":43.319935,"lon":5.381699,"is_reserved":false,"is_disabled":false,"rental_uris":{"android":"levelo://app?vid=697ebc78-9884-4219-9309-172f0c36792c","ios":"levelo://app?vid=697ebc78-9884-4219-9309-172f0c36792c"},"vehicle_type_id":"4","last_reported":1723331292,"current_range_meters":5600,"station_id":"ce4bhr12rcd13ifvqhpg","pricing_plan_id":"cebpf4jnsgd1na2vs0mg"},{"bike_id":"ff39d0c8-ba61-4ae1-abef-c721ee1fd9c8","system_id":"levelo_inurba_marseille","lat":43.313827,"lon":5.384592,"is_reserved":false,"is_disabled":false,"rental_uris":{"android":"levelo://app?vid=ff39d0c8-ba61-4ae1-abef-c721ee1fd9c8","ios":"levelo://app?vid=ff39d0c8-ba61-4ae1-abef-c721ee1fd9c8"},"vehicle_type_id":"4","last_reported":1723331292,"current_range_meters":11600,"station_id":"ce4bgt92rcd13ifvqcf0","pricing_plan_id":"cebpf4jnsgd1na2vs0mg"},{"bike_id":"ee5a7eff-3a88-4a17-a613-e76a589d4344","system_id":"levelo_inurba_marseille","lat":43.313571,"lon":5.384829,"is_reserved":false,"is_disabled":false,"rental_uris":{"android":"levelo://app?vid=ee5a7eff-3a88-4a17-a613-e76a589d4344","ios":"levelo://app?vid=ee5a7eff-3a88-4a17-a613-e76a589d4344"},"vehicle_type_id":"4","last_reported":1723331292,"current_range_meters":15600,"station_id":"ce4bgt92rcd13ifvqcf0","pricing_plan_id":"cebpf4jnsgd1na2vs0mg"},{"bike_id":"d0a0135e-fe0a-41ec-ad74-c05ab58b1668","system_id":"levelo_inurba_marseille","lat":43.313571,"lon":5.384829,"is_reserved":false,"is_disabled":false,"rental_uris":{"android":"levelo://app?vid=d0a0135e-fe0a-41ec-ad74-c05ab58b1668","ios":"levelo://app?vid=d0a0135e-fe0a-41ec-ad74-c05ab58b1668"},"vehicle_type_id":"4","last_reported":1723331292,"current_range_meters":18800,"station_id":"ce4bgt92rcd13ifvqcf0","pricing_plan_id":"cebpf4jnsgd1na2vs0mg"},{"bike_id":"ef8a5548-2e3e-4cc7-ab54-a2f3446da035","system_id":"levelo_inurba_marseille","lat":43.313571,"lon":5.384829,"is_reserved":false,"is_disabled":false,"rental_uris":{"android":"levelo://app?vid=ef8a5548-2e3e-4cc7-ab54-a2f3446da035","ios":"levelo://app?vid=ef8a5548-2e3e-4cc7-ab54-a2f3446da035"},"vehicle_type_id":"4","last_reported":1723331292,"current_range_meters":12400,"station_id":"ce4bgt92rcd13ifvqcf0","pricing_plan_id":"cebpf4jnsgd1na2vs0mg"},{"bike_id":"6a70f459-275d-46f9-be50-7836023741f7","system_id":"levelo_inurba_marseille","lat":43.313571,"lon":5.384829,"is_reserved":false,"is_disabled":false,"rental_uris":{"android":"levelo://app?vid=6a70f459-275d-46f9-be50-7836023741f7","ios":"levelo://app?vid=6a70f459-275d-46f9-be50-7836023741f7"},"vehicle_type_id":"4","last_reported":1723331292,"current_range_meters":8000,"station_id":"ce4bgt92rcd13ifvqcf0","pricing_plan_id":"cebpf4jnsgd1na2vs0mg"},{"bike_id":"409a9348-42e6-4fdc-aef0-711525c2045f","system_id":"levelo_inurba_marseille","lat":43.313571,"lon":5.384829,"is_reserved":false,"is_disabled":false,"rental_uris":{"android":"levelo://app?vid=409a9348-42e6-4fdc-aef0-711525c2045f","ios":"levelo://app?vid=409a9348-42e6-4fdc-aef0-711525c2045f"},"vehicle_type_id":"4","last_reported":1723331292,"current_range_meters":24400,"station_id":"ce4bgt92rcd13ifvqcf0","pricing_plan_id":"cebpf4jnsgd1na2vs0mg"},{"bike_id":"af813829-6e3e-4e84-8a52-c841c22cd3e7","system_id":"levelo_inurba_marseille","lat":43.313571,"lon":5.384829,"is_reserved":false,"is_disabled":false,"rental_uris":{"android":"levelo://app?vid=af813829-6e3e-4e84-8a52-c841c22cd3e7","ios":"levelo://app?vid=af813829-6e3e-4e84-8a52-c841c22cd3e7"},"vehicle_type_id":"4","last_reported":1723331292,"current_range_meters":27200,"station_id":"ce4bgt92rcd13ifvqcf0","pricing_plan_id":"cebpf4jnsgd1na2vs0mg"},{"bike_id":"403018b8-48b2-461f-85b4-1fa837144b32","system_id":"levelo_inurba_marseille","lat":43.313571,"lon":5.384829,"is_reserved":false,"is_disabled":false,"rental_uris":{"android":"levelo://app?vid=403018b8-48b2-461f-85b4-1fa837144b32","ios":"levelo://app?vid=403018b8-48b2-461f-85b4-1fa837144b32"},"vehicle_type_id":"4","last_reported":1723331292,"current_range_meters":23200,"station_id":"ce4bgt92rcd13ifvqcf0","pricing_plan_id":"cebpf4jnsgd1na2vs0mg"},{"bike_id":"ec0d832b-844e-439d-b9f8-3cbe464a7612","system_id":"levelo_inurba_marseille","lat":43.313571,"lon":5.384829,"is_reserved":false,"is_disabled":false,"rental_uris":{"android":"levelo://app?vid=ec0d832b-844e-439d-b9f8-3cbe464a7612","ios":"levelo://app?vid=ec0d832b-844e-439d-b9f8-3cbe464a7612"},"vehicle_type_id":"4","last_reported":1723331292,"current_range_meters":6000,"station_id":"ce4bgt92rcd13ifvqcf0","pricing_plan_id":"cebpf4jnsgd1na2vs0mg"},{"bike_id":"5080b465-a7cd-4a52-9072-1d729a211905","system_id":"levelo_inurba_marseille","lat":43.313571,"lon":5.384829,"is_reserved":false,"is_disabled":false,"rental_uris":{"android":"levelo://app?vid=5080b465-a7cd-4a52-9072-1d729a211905","ios":"levelo://app?vid=5080b465-a7cd-4a52-9072-1d729a211905"},"vehicle_type_id":"4","last_reported":1723331292,"current_range_meters":14400,"station_id":"ce4bgt92rcd13ifvqcf0","pricing_plan_id":"cebpf4jnsgd1na2vs0mg"},{"bike_id":"61dd1e01-45a0-479d-8707-eeb45b4c44c7","system_id":"levelo_inurba_marseille","lat":43.313571,"lon":5.384829,"is_reserved":false,"is_disabled":false,"rental_uris":{"android":"levelo://app?vid=61dd1e01-45a0-479d-8707-eeb45b4c44c7","ios":"levelo://app?vid=61dd1e01-45a0-479d-8707-eeb45b4c44c7"},"vehicle_type_id":"4","last_reported":1723331292,"current_range_meters":0,"station_id":"ce4bgt92rcd13ifvqcf0","pricing_plan_id":"cebpf4jnsgd1na2vs0mg"},{"bike_id":"ef5123d3-8b0c-42ef-999d-7f2c4f3323e2","system_id":"levelo_inurba_marseille","lat":43.313571,"lon":5.384829,"is_reserved":false,"is_disabled":false,"rental_uris":{"android":"levelo://app?vid=ef5123d3-8b0c-42ef-999d-7f2c4f3323e2","ios":"levelo://app?vid=ef5123d3-8b0c-42ef-999d-7f2c4f3323e2"},"vehicle_type_id":"4","last_reported":1723331292,"current_range_meters":6400,"station_id":"ce4bgt92rcd13ifvqcf0","pricing_plan_id":"cebpf4jnsgd1na2vs0mg"},{"bike_id":"16653490-21fe-40ea-be65-e1daa0e0d5ed","system_id":"levelo_inurba_marseille","lat":43.313571,"lon":5.384829,"is_reserved":false,"is_disabled":false,"rental_uris":{"android":"levelo://app?vid=16653490-21fe-40ea-be65-e1daa0e0d5ed","ios":"levelo://app?vid=16653490-21fe-40ea-be65-e1daa0e0d5ed"},"vehicle_type_id":"4","last_reported":1723331292,"current_range_meters":5600,"station_id":"ce4bgt92rcd13ifvqcf0","pricing_plan_id":"cebpf4jnsgd1na2vs0mg"},{"bike_id":"65ff51ce-c011-4b2d-b49e-5842a6b1e44b","system_id":"levelo_inurba_marseille","lat":43.313571,"lon":5.384829,"is_reserved":false,"is_disabled":false,"rental_uris":{"android":"levelo://app?vid=65ff51ce-c011-4b2d-b49e-5842a6b1e44b","ios":"levelo://app?vid=65ff51ce-c011-4b2d-b49e-5842a6b1e44b"},"vehicle_type_id":"4","last_reported":1723331292,"current_range_meters":22400,"station_id":"ce4bgt92rcd13ifvqcf0","pricing_plan_id":"cebpf4jnsgd1na2vs0mg"},{"bike_id":"ecff5150-8451-423d-b235-215b9c0b2ff6","system_id":"levelo_inurba_marseille","lat":43.313571,"lon":5.384829,"is_reserved":false,"is_disabled":false,"rental_uris":{"android":"levelo://app?vid=ecff5150-8451-423d-b235-215b9c0b2ff6","ios":"levelo://app?vid=ecff5150-8451-423d-b235-215b9c0b2ff6"},"vehicle_type_id":"4","last_reported":1723331292,"current_range_meters":7200,"station_id":"ce4bgt92rcd13ifvqcf0","pricing_plan_id":"cebpf4jnsgd1na2vs0mg"},{"bike_id":"d6362ea9-ac1d-4202-aee1-eecf892cce6e","system_id":"levelo_inurba_marseille","lat":43.313571,"lon":5.384829,"is_reserved":false,"is_disabled":false,"rental_uris":{"android":"levelo://app?vid=d6362ea9-ac1d-4202-aee1-eecf892cce6e","ios":"levelo://app?vid=d6362ea9-ac1d-4202-aee1-eecf892cce6e"},"vehicle_type_id":"4","last_reported":1723331292,"current_range_meters":18400,"station_id":"ce4bgt92rcd13ifvqcf0","pricing_plan_id":"cebpf4jnsgd1na2vs0mg"},{"bike_id":"747ca38d-de40-4111-8446-a10f70e9855b","system_id":"levelo_inurba_marseille","lat":43.313571,"lon":5.384829,"is_reserved":false,"is_disabled":false,"rental_uris":{"android":"levelo://app?vid=747ca38d-de40-4111-8446-a10f70e9855b","ios":"levelo://app?vid=747ca38d-de40-4111-8446-a10f70e9855b"},"vehicle_type_id":"4","last_reported":1723331292,"current_range_meters":25600,"station_id":"ce4bgt92rcd13ifvqcf0","pricing_plan_id":"cebpf4jnsgd1na2vs0mg"},{"bike_id":"2845d926-96c8-4b7a-9b88-20a09371c93f","system_id":"levelo_inurba_marseille","lat":43.313571,"lon":5.384829,"is_reserved":false,"is_disabled":false,"rental_uris":{"android":"levelo://app?vid=2845d926-96c8-4b7a-9b88-20a09371c93f","ios":"levelo://app?vid=2845d926-96c8-4b7a-9b88-20a09371c93f"},"vehicle_type_id":"4","last_reported":1723331292,"current_range_meters":18800,"station_id":"ce4bgt92rcd13ifvqcf0","pricing_plan_id":"cebpf4jnsgd1na2vs0mg"},{"bike_id":"50b1a689-9eb2-435e-b64a-2bead12076c1","system_id":"levelo_inurba_marseille","lat":43.3137,"lon":5.38499,"is_reserved":false,"is_disabled":false,"rental_uris":{"android":"levelo://app?vid=50b1a689-9eb2-435e-b64a-2bead12076c1","ios":"levelo://app?vid=50b1a689-9eb2-435e-b64a-2bead12076c1"},"vehicle_type_id":"4","last_reported":1723331292,"current_range_meters":16800,"station_id":"ce4bgt92rcd13ifvqcf0","pricing_plan_id":"cebpf4jnsgd1na2vs0mg"},{"bike_id":"2f6270c1-7bb2-42da-9bca-2cf2e2dc24f8","system_id":"levelo_inurba_marseille","lat":43.313571,"lon":5.384829,"is_reserved":false,"is_disabled":false,"rental_uris":{"android":"levelo://app?vid=2f6270c1-7bb2-42da-9bca-2cf2e2dc24f8","ios":"levelo://app?vid=2f6270c1-7bb2-42da-9bca-2cf2e2dc24f8"},"vehicle_type_id":"4","last_reported":1723331292,"current_range_meters":20800,"station_id":"ce4bgt92rcd13ifvqcf0","pricing_plan_id":"cebpf4jnsgd1na2vs0mg"},{"bike_id":"2543aaa6-80fb-4ef2-a360-39c6c4acfa3b","system_id":"levelo_inurba_marseille","lat":43.313571,"lon":5.384829,"is_reserved":false,"is_disabled":false,"rental_uris":{"android":"levelo://app?vid=2543aaa6-80fb-4ef2-a360-39c6c4acfa3b","ios":"levelo://app?vid=2543aaa6-80fb-4ef2-a360-39c6c4acfa3b"},"vehicle_type_id":"4","last_reported":1723331292,"current_range_meters":28400,"station_id":"ce4bgt92rcd13ifvqcf0","pricing_plan_id":"cebpf4jnsgd1na2vs0mg"},{"bike_id":"74c874c4-1f3e-4461-aa30-23842bbbf4ea","system_id":"levelo_inurba_marseille","lat":43.313571,"lon":5.384829,"is_reserved":false,"is_disabled":false,"rental_uris":{"android":"levelo://app?vid=74c874c4-1f3e-4461-aa30-23842bbbf4ea","ios":"levelo://app?vid=74c874c4-1f3e-4461-aa30-23842bbbf4ea"},"vehicle_type_id":"4","last_reported":1723331292,"current_range_meters":30400,"station_id":"ce4bgt92rcd13ifvqcf0","pricing_plan_id":"cebpf4jnsgd1na2vs0mg"},{"bike_id":"0048b502-7e39-4153-a20a-ef3fa5dba468","system_id":"levelo_inurba_marseille","lat":43.313571,"lon":5.384829,"is_reserved":false,"is_disabled":false,"rental_uris":{"android":"levelo://app?vid=0048b502-7e39-4153-a20a-ef3fa5dba468","ios":"levelo://app?vid=0048b502-7e39-4153-a20a-ef3fa5dba468"},"vehicle_type_id":"4","last_reported":1723331292,"current_range_meters":16800,"station_id":"ce4bgt92rcd13ifvqcf0","pricing_plan_id":"cebpf4jnsgd1na2vs0mg"},{"bike_id":"0dc8309a-6d0a-4d5b-8c71-d4e71dac74f4","system_id":"levelo_inurba_marseille","lat":43.313571,"lon":5.384829,"is_reserved":false,"is_disabled":false,"rental_uris":{"android":"levelo://app?vid=0dc8309a-6d0a-4d5b-8c71-d4e71dac74f4","ios":"levelo://app?vid=0dc8309a-6d0a-4d5b-8c71-d4e71dac74f4"},"vehicle_type_id":"4","last_reported":1723331292,"current_range_meters":4800,"station_id":"ce4bgt92rcd13ifvqcf0","pricing_plan_id":"cebpf4jnsgd1na2vs0mg"},{"bike_id":"e0b2aa96-9397-469d-8381-b36a766aff71","system_id":"levelo_inurba_marseille","lat":43.313646,"lon":5.385039,"is_reserved":false,"is_disabled":false,"rental_uris":{"android":"levelo://app?vid=e0b2aa96-9397-469d-8381-b36a766aff71","ios":"levelo://app?vid=e0b2aa96-9397-469d-8381-b36a766aff71"},"vehicle_type_id":"4","last_reported":1723331292,"current_range_meters":0,"station_id":"ce4bgt92rcd13ifvqcf0","pricing_plan_id":"cebpf4jnsgd1na2vs0mg"},{"bike_id":"ab3b9a3d-29e9-44f6-8b5e-9211de5f17bf","system_id":"levelo_inurba_marseille","lat":43.313571,"lon":5.384829,"is_reserved":false,"is_disabled":false,"rental_uris":{"android":"levelo://app?vid=ab3b9a3d-29e9-44f6-8b5e-9211de5f17bf","ios":"levelo://app?vid=ab3b9a3d-29e9-44f6-8b5e-9211de5f17bf"},"vehicle_type_id":"4","last_reported":1723331292,"current_range_meters":29200,"station_id":"ce4bgt92rcd13ifvqcf0","pricing_plan_id":"cebpf4jnsgd1na2vs0mg"},{"bike_id":"5a4eee09-da0c-4a63-af74-134208aa88ad","system_id":"levelo_inurba_marseille","lat":43.313576,"lon":5.385063,"is_reserved":false,"is_disabled":false,"rental_uris":{"android":"levelo://app?vid=5a4eee09-da0c-4a63-af74-134208aa88ad","ios":"levelo://app?vid=5a4eee09-da0c-4a63-af74-134208aa88ad"},"vehicle_type_id":"4","last_reported":1723331292,"current_range_meters":10800,"station_id":"ce4bgt92rcd13ifvqcf0","pricing_plan_id":"cebpf4jnsgd1na2vs0mg"},{"bike_id":"4e5af353-7672-4802-8ae9-edc4f68957c6","system_id":"levelo_inurba_marseille","lat":43.313571,"lon":5.384829,"is_reserved":false,"is_disabled":false,"rental_uris":{"android":"levelo://app?vid=4e5af353-7672-4802-8ae9-edc4f68957c6","ios":"levelo://app?vid=4e5af353-7672-4802-8ae9-edc4f68957c6"},"vehicle_type_id":"4","last_reported":1723331292,"current_range_meters":12800,"station_id":"ce4bgt92rcd13ifvqcf0","pricing_plan_id":"cebpf4jnsgd1na2vs0mg"},{"bike_id":"62d22cfe-b1cb-4800-a7f1-35177b9d0164","system_id":"levelo_inurba_marseille","lat":43.313571,"lon":5.384829,"is_reserved":false,"is_disabled":false,"rental_uris":{"android":"levelo://app?vid=62d22cfe-b1cb-4800-a7f1-35177b9d0164","ios":"levelo://app?vid=62d22cfe-b1cb-4800-a7f1-35177b9d0164"},"vehicle_type_id":"4","last_reported":1723331292,"current_range_meters":26000,"station_id":"ce4bgt92rcd13ifvqcf0","pricing_plan_id":"cebpf4jnsgd1na2vs0mg"},{"bike_id":"9ab58eba-1d57-473c-84ad-0c1f3320d1f1","system_id":"levelo_inurba_marseille","lat":43.299222,"lon":5.365554,"is_reserved":false,"is_disabled":false,"rental_uris":{"android":"levelo://app?vid=9ab58eba-1d57-473c-84ad-0c1f3320d1f1","ios":"levelo://app?vid=9ab58eba-1d57-473c-84ad-0c1f3320d1f1"},"vehicle_type_id":"4","last_reported":1723331292,"current_range_meters":0,"station_id":"ce4bgm92rcd13ifvqbr0","pricing_plan_id":"cebpf4jnsgd1na2vs0mg"},{"bike_id":"72ebe35d-c608-4d39-8382-deb0efd96f8c","system_id":"levelo_inurba_marseille","lat":43.299724,"lon":5.371829,"is_reserved":false,"is_disabled":false,"rental_uris":{"android":"levelo://app?vid=72ebe35d-c608-4d39-8382-deb0efd96f8c","ios":"levelo://app?vid=72ebe35d-c608-4d39-8382-deb0efd96f8c"},"vehicle_type_id":"4","last_reported":1723331292,"current_range_meters":17600,"station_id":"ce4bgr92rcd13ifvqc7g","pricing_plan_id":"cebpf4jnsgd1na2vs0mg"},{"bike_id":"d0108487-842d-44b7-a72d-d5acab255894","system_id":"levelo_inurba_marseille","lat":43.311722,"lon":5.387247,"is_reserved":false,"is_disabled":false,"rental_uris":{"android":"levelo://app?vid=d0108487-842d-44b7-a72d-d5acab255894","ios":"levelo://app?vid=d0108487-842d-44b7-a72d-d5acab255894"},"vehicle_type_id":"4","last_reported":1723331292,"current_range_meters":26000,"station_id":"ce4bgv12rcd13ifvqcp0","pricing_plan_id":"cebpf4jnsgd1na2vs0mg"},{"bike_id":"18ddecb1-4ee4-41f0-9ba8-4e2923bfe4bb","system_id":"levelo_inurba_marseille","lat":43.311722,"lon":5.387247,"is_reserved":false,"is_disabled":false,"rental_uris":{"android":"levelo://app?vid=18ddecb1-4ee4-41f0-9ba8-4e2923bfe4bb","ios":"levelo://app?vid=18ddecb1-4ee4-41f0-9ba8-4e2923bfe4bb"},"vehicle_type_id":"4","last_reported":1723331292,"current_range_meters":12800,"station_id":"ce4bgv12rcd13ifvqcp0","pricing_plan_id":"cebpf4jnsgd1na2vs0mg"},{"bike_id":"954a1a9e-04ab-4224-9588-13b8f91d540c","system_id":"levelo_inurba_marseille","lat":43.311722,"lon":5.387247,"is_reserved":false,"is_disabled":false,"rental_uris":{"android":"levelo://app?vid=954a1a9e-04ab-4224-9588-13b8f91d540c","ios":"levelo://app?vid=954a1a9e-04ab-4224-9588-13b8f91d540c"},"vehicle_type_id":"4","last_reported":1723331292,"current_range_meters":5200,"station_id":"ce4bgv12rcd13ifvqcp0","pricing_plan_id":"cebpf4jnsgd1na2vs0mg"},{"bike_id":"052876fd-1978-4a8b-a2dd-9a198c9f6d8d","system_id":"levelo_inurba_marseille","lat":43.299123,"lon":5.374713,"is_reserved":false,"is_disabled":false,"rental_uris":{"android":"levelo://app?vid=052876fd-1978-4a8b-a2dd-9a198c9f6d8d","ios":"levelo://app?vid=052876fd-1978-4a8b-a2dd-9a198c9f6d8d"},"vehicle_type_id":"4","last_reported":1723331292,"current_range_meters":14400,"station_id":"ce4bgjh2rcd13ifvqbg0","pricing_plan_id":"cebpf4jnsgd1na2vs0mg"},{"bike_id":"6b4c78d7-c503-4bda-898c-9a446ddc5f17","system_id":"levelo_inurba_marseille","lat":43.311722,"lon":5.387247,"is_reserved":false,"is_disabled":false,"rental_uris":{"android":"levelo://app?vid=6b4c78d7-c503-4bda-898c-9a446ddc5f17","ios":"levelo://app?vid=6b4c78d7-c503-4bda-898c-9a446ddc5f17"},"vehicle_type_id":"4","last_reported":1723331292,"current_range_meters":30400,"station_id":"ce4bgv12rcd13ifvqcp0","pricing_plan_id":"cebpf4jnsgd1na2vs0mg"},{"bike_id":"5d18d0e2-a5cd-4c9a-b6d1-5ad37dbb37b5","system_id":"levelo_inurba_marseille","lat":43.299243,"lon":5.374807,"is_reserved":false,"is_disabled":false,"rental_uris":{"android":"levelo://app?vid=5d18d0e2-a5cd-4c9a-b6d1-5ad37dbb37b5","ios":"levelo://app?vid=5d18d0e2-a5cd-4c9a-b6d1-5ad37dbb37b5"},"vehicle_type_id":"4","last_reported":1723331292,"current_range_meters":20000,"station_id":"ce4bgjh2rcd13ifvqbg0","pricing_plan_id":"cebpf4jnsgd1na2vs0mg"},{"bike_id":"72bf7360-4164-4396-8703-c902740fb157","system_id":"levelo_inurba_marseille","lat":43.311722,"lon":5.387247,"is_reserved":false,"is_disabled":false,"rental_uris":{"android":"levelo://app?vid=72bf7360-4164-4396-8703-c902740fb157","ios":"levelo://app?vid=72bf7360-4164-4396-8703-c902740fb157"},"vehicle_type_id":"4","last_reported":1723331292,"current_range_meters":9200,"station_id":"ce4bgv12rcd13ifvqcp0","pricing_plan_id":"cebpf4jnsgd1na2vs0mg"},{"bike_id":"544e3545-eccf-44db-8984-e8b150b2c7d6","system_id":"levelo_inurba_marseille","lat":43.31171,"lon":5.38719,"is_reserved":false,"is_disabled":false,"rental_uris":{"android":"levelo://app?vid=544e3545-eccf-44db-8984-e8b150b2c7d6","ios":"levelo://app?vid=544e3545-eccf-44db-8984-e8b150b2c7d6"},"vehicle_type_id":"4","last_reported":1723331292,"current_range_meters":19600,"station_id":"ce4bgv12rcd13ifvqcp0","pricing_plan_id":"cebpf4jnsgd1na2vs0mg"},{"bike_id":"f3bd3792-e68b-4b55-bad4-042021e6aab1","system_id":"levelo_inurba_marseille","lat":43.311722,"lon":5.387247,"is_reserved":false,"is_disabled":false,"rental_uris":{"android":"levelo://app?vid=f3bd3792-e68b-4b55-bad4-042021e6aab1","ios":"levelo://app?vid=f3bd3792-e68b-4b55-bad4-042021e6aab1"},"vehicle_type_id":"4","last_reported":1723331292,"current_range_meters":24400,"station_id":"ce4bgv12rcd13ifvqcp0","pricing_plan_id":"cebpf4jnsgd1na2vs0mg"},{"bike_id":"aa03883a-5e5f-4b3d-8cce-5bb057649b4e","system_id":"levelo_inurba_marseille","lat":43.311722,"lon":5.387247,"is_reserved":false,"is_disabled":false,"rental_uris":{"android":"levelo://app?vid=aa03883a-5e5f-4b3d-8cce-5bb057649b4e","ios":"levelo://app?vid=aa03883a-5e5f-4b3d-8cce-5bb057649b4e"},"vehicle_type_id":"4","last_reported":1723331292,"current_range_meters":12400,"station_id":"ce4bgv12rcd13ifvqcp0","pricing_plan_id":"cebpf4jnsgd1na2vs0mg"},{"bike_id":"f97e2b0f-cceb-45e0-a774-b8e0d8a264ba","system_id":"levelo_inurba_marseille","lat":43.311722,"lon":5.387247,"is_reserved":false,"is_disabled":false,"rental_uris":{"android":"levelo://app?vid=f97e2b0f-cceb-45e0-a774-b8e0d8a264ba","ios":"levelo://app?vid=f97e2b0f-cceb-45e0-a774-b8e0d8a264ba"},"vehicle_type_id":"4","last_reported":1723331292,"current_range_meters":30000,"station_id":"ce4bgv12rcd13ifvqcp0","pricing_plan_id":"cebpf4jnsgd1na2vs0mg"},{"bike_id":"e714ef41-7000-4915-9340-07626c3c09f1","system_id":"levelo_inurba_marseille","lat":43.311722,"lon":5.387247,"is_reserved":false,"is_disabled":false,"rental_uris":{"android":"levelo://app?vid=e714ef41-7000-4915-9340-07626c3c09f1","ios":"levelo://app?vid=e714ef41-7000-4915-9340-07626c3c09f1"},"vehicle_type_id":"4","last_reported":1723331292,"current_range_meters":8000,"station_id":"ce4bgv12rcd13ifvqcp0","pricing_plan_id":"cebpf4jnsgd1na2vs0mg"},{"bike_id":"22f0fedc-38ab-43df-b6bd-355d45ee7764","system_id":"levelo_inurba_marseille","lat":43.311722,"lon":5.387247,"is_reserved":false,"is_disabled":false,"rental_uris":{"android":"levelo://app?vid=22f0fedc-38ab-43df-b6bd-355d45ee7764","ios":"levelo://app?vid=22f0fedc-38ab-43df-b6bd-355d45ee7764"},"vehicle_type_id":"4","last_reported":1723331292,"current_range_meters":16400,"station_id":"ce4bgv12rcd13ifvqcp0","pricing_plan_id":"cebpf4jnsgd1na2vs0mg"},{"bike_id":"cfd91b79-7f6f-4369-9fcd-f69233fb1d35","system_id":"levelo_inurba_marseille","lat":43.311722,"lon":5.387247,"is_reserved":false,"is_disabled":false,"rental_uris":{"android":"levelo://app?vid=cfd91b79-7f6f-4369-9fcd-f69233fb1d35","ios":"levelo://app?vid=cfd91b79-7f6f-4369-9fcd-f69233fb1d35"},"vehicle_type_id":"4","last_reported":1723331292,"current_range_meters":14000,"station_id":"ce4bgv12rcd13ifvqcp0","pricing_plan_id":"cebpf4jnsgd1na2vs0mg"},{"bike_id":"f548f45e-7ddb-4ee1-a58c-c4193ac4d053","system_id":"levelo_inurba_marseille","lat":43.31164,"lon":5.38729,"is_reserved":false,"is_disabled":false,"rental_uris":{"android":"levelo://app?vid=f548f45e-7ddb-4ee1-a58c-c4193ac4d053","ios":"levelo://app?vid=f548f45e-7ddb-4ee1-a58c-c4193ac4d053"},"vehicle_type_id":"4","last_reported":1723331292,"current_range_meters":6000,"station_id":"ce4bgv12rcd13ifvqcp0","pricing_plan_id":"cebpf4jnsgd1na2vs0mg"},{"bike_id":"454128d8-6c71-48a0-b13d-ad5d81ab0178","system_id":"levelo_inurba_marseille","lat":43.311722,"lon":5.387247,"is_reserved":false,"is_disabled":false,"rental_uris":{"android":"levelo://app?vid=454128d8-6c71-48a0-b13d-ad5d81ab0178","ios":"levelo://app?vid=454128d8-6c71-48a0-b13d-ad5d81ab0178"},"vehicle_type_id":"4","last_reported":1723331292,"current_range_meters":10000,"station_id":"ce4bgv12rcd13ifvqcp0","pricing_plan_id":"cebpf4jnsgd1na2vs0mg"},{"bike_id":"d9de6cf1-f9e1-4c8b-a443-5dcd59a46220","system_id":"levelo_inurba_marseille","lat":43.301849,"lon":5.381508,"is_reserved":false,"is_disabled":false,"rental_uris":{"android":"levelo://app?vid=d9de6cf1-f9e1-4c8b-a443-5dcd59a46220","ios":"levelo://app?vid=d9de6cf1-f9e1-4c8b-a443-5dcd59a46220"},"vehicle_type_id":"4","last_reported":1723331292,"current_range_meters":25200,"station_id":"","pricing_plan_id":"cebpf4jnsgd1na2vs0mg"},{"bike_id":"65b86faf-1ac1-47a1-ab89-f0d26f7b7b77","system_id":"levelo_inurba_marseille","lat":43.30222,"lon":5.38206,"is_reserved":false,"is_disabled":false,"rental_uris":{"android":"levelo://app?vid=65b86faf-1ac1-47a1-ab89-f0d26f7b7b77","ios":"levelo://app?vid=65b86faf-1ac1-47a1-ab89-f0d26f7b7b77"},"vehicle_type_id":"4","last_reported":1723331292,"current_range_meters":30800,"station_id":"","pricing_plan_id":"cebpf4jnsgd1na2vs0mg"},{"bike_id":"216240ef-238f-48ba-bd26-5d1c9cf540df","system_id":"levelo_inurba_marseille","lat":43.31456,"lon":5.38784,"is_reserved":false,"is_disabled":false,"rental_uris":{"android":"levelo://app?vid=216240ef-238f-48ba-bd26-5d1c9cf540df","ios":"levelo://app?vid=216240ef-238f-48ba-bd26-5d1c9cf540df"},"vehicle_type_id":"4","last_reported":1723331292,"current_range_meters":0,"station_id":"","pricing_plan_id":"cebpf4jnsgd1na2vs0mg"},{"bike_id":"82aec771-099c-4f6a-9cfd-1dcc914314e3","system_id":"levelo_inurba_marseille","lat":43.322872,"lon":5.382756,"is_reserved":false,"is_disabled":false,"rental_uris":{"android":"levelo://app?vid=82aec771-099c-4f6a-9cfd-1dcc914314e3","ios":"levelo://app?vid=82aec771-099c-4f6a-9cfd-1dcc914314e3"},"vehicle_type_id":"4","last_reported":1723331292,"current_range_meters":17600,"station_id":"ce4bhr12rcd13ifvqhqg","pricing_plan_id":"cebpf4jnsgd1na2vs0mg"},{"bike_id":"e780ddd8-b2c6-4415-9134-478f685f5874","system_id":"levelo_inurba_marseille","lat":43.29723,"lon":5.36233,"is_reserved":false,"is_disabled":false,"rental_uris":{"android":"levelo://app?vid=e780ddd8-b2c6-4415-9134-478f685f5874","ios":"levelo://app?vid=e780ddd8-b2c6-4415-9134-478f685f5874"},"vehicle_type_id":"4","last_reported":1723331292,"current_range_meters":29200,"station_id":"","pricing_plan_id":"cebpf4jnsgd1na2vs0mg"},{"bike_id":"1328f1ea-03c5-4c13-a668-21e74583960b","system_id":"levelo_inurba_marseille","lat":43.297105,"lon":5.370835,"is_reserved":false,"is_disabled":false,"rental_uris":{"android":"levelo://app?vid=1328f1ea-03c5-4c13-a668-21e74583960b","ios":"levelo://app?vid=1328f1ea-03c5-4c13-a668-21e74583960b"},"vehicle_type_id":"4","last_reported":1723331292,"current_range_meters":800,"station_id":"","pricing_plan_id":"cebpf4jnsgd1na2vs0mg"},{"bike_id":"295d32d3-2fbf-482d-8792-1b8b71848df2","system_id":"levelo_inurba_marseille","lat":43.296131,"lon":5.370791,"is_reserved":false,"is_disabled":false,"rental_uris":{"android":"levelo://app?vid=295d32d3-2fbf-482d-8792-1b8b71848df2","ios":"levelo://app?vid=295d32d3-2fbf-482d-8792-1b8b71848df2"},"vehicle_type_id":"4","last_reported":1723331292,"current_range_meters":20000,"station_id":"ce4bgnh2rcd13ifvqc0g","pricing_plan_id":"cebpf4jnsgd1na2vs0mg"},{"bike_id":"cc06fefa-94ce-4fb6-8b9f-9a015d996e6d","system_id":"levelo_inurba_marseille","lat":43.299028,"lon":5.381509,"is_reserved":false,"is_disabled":false,"rental_uris":{"android":"levelo://app?vid=cc06fefa-94ce-4fb6-8b9f-9a015d996e6d","ios":"levelo://app?vid=cc06fefa-94ce-4fb6-8b9f-9a015d996e6d"},"vehicle_type_id":"4","last_reported":1723331292,"current_range_meters":28400,"station_id":"ce4bgj12rcd13ifvqbc0","pricing_plan_id":"cebpf4jnsgd1na2vs0mg"},{"bike_id":"c568f253-f437-40d7-91e0-8a0c20115011","system_id":"levelo_inurba_marseille","lat":43.321516,"lon":5.387226,"is_reserved":false,"is_disabled":false,"rental_uris":{"android":"levelo://app?vid=c568f253-f437-40d7-91e0-8a0c20115011","ios":"levelo://app?vid=c568f253-f437-40d7-91e0-8a0c20115011"},"vehicle_type_id":"4","last_reported":1723331292,"current_range_meters":13600,"station_id":"","pricing_plan_id":"cebpf4jnsgd1na2vs0mg"},{"bike_id":"56752a5b-603f-494b-b529-50b381a137c9","system_id":"levelo_inurba_marseille","lat":43.29916,"lon":5.38148,"is_reserved":false,"is_disabled":false,"rental_uris":{"android":"levelo://app?vid=56752a5b-603f-494b-b529-50b381a137c9","ios":"levelo://app?vid=56752a5b-603f-494b-b529-50b381a137c9"},"vehicle_type_id":"4","last_reported":1723331292,"current_range_meters":31200,"station_id":"","pricing_plan_id":"cebpf4jnsgd1na2vs0mg"},{"bike_id":"b252d18a-9ef5-4c59-a7a3-1d4ad052a8d5","system_id":"levelo_inurba_marseille","lat":43.309589,"lon":5.390258,"is_reserved":false,"is_disabled":false,"rental_uris":{"android":"levelo://app?vid=b252d18a-9ef5-4c59-a7a3-1d4ad052a8d5","ios":"levelo://app?vid=b252d18a-9ef5-4c59-a7a3-1d4ad052a8d5"},"vehicle_type_id":"4","last_reported":1723331292,"current_range_meters":31200,"station_id":"ce4bgup2rcd13ifvqco0","pricing_plan_id":"cebpf4jnsgd1na2vs0mg"},{"bike_id":"5ab85cd4-5dcb-48a8-8eb6-df11ce148b4e","system_id":"levelo_inurba_marseille","lat":43.2961,"lon":5.36035,"is_reserved":false,"is_disabled":false,"rental_uris":{"android":"levelo://app?vid=5ab85cd4-5dcb-48a8-8eb6-df11ce148b4e","ios":"levelo://app?vid=5ab85cd4-5dcb-48a8-8eb6-df11ce148b4e"},"vehicle_type_id":"4","last_reported":1723331292,"current_range_meters":16800,"station_id":"","pricing_plan_id":"cebpf4jnsgd1na2vs0mg"},{"bike_id":"e7ff8d0d-b46d-455b-9c8b-d60aaecb2f75","system_id":"levelo_inurba_marseille","lat":43.309589,"lon":5.390258,"is_reserved":false,"is_disabled":false,"rental_uris":{"android":"levelo://app?vid=e7ff8d0d-b46d-455b-9c8b-d60aaecb2f75","ios":"levelo://app?vid=e7ff8d0d-b46d-455b-9c8b-d60aaecb2f75"},"vehicle_type_id":"4","last_reported":1723331292,"current_range_meters":30000,"station_id":"ce4bgup2rcd13ifvqco0","pricing_plan_id":"cebpf4jnsgd1na2vs0mg"},{"bike_id":"007a9af1-9292-4b5f-99fc-66a6761809cb","system_id":"levelo_inurba_marseille","lat":43.309589,"lon":5.390258,"is_reserved":false,"is_disabled":false,"rental_uris":{"android":"levelo://app?vid=007a9af1-9292-4b5f-99fc-66a6761809cb","ios":"levelo://app?vid=007a9af1-9292-4b5f-99fc-66a6761809cb"},"vehicle_type_id":"4","last_reported":1723331292,"current_range_meters":400,"station_id":"ce4bgup2rcd13ifvqco0","pricing_plan_id":"cebpf4jnsgd1na2vs0mg"},{"bike_id":"e45cd997-6365-4259-8418-6ba3166e4266","system_id":"levelo_inurba_marseille","lat":43.299,"lon":5.38154,"is_reserved":false,"is_disabled":false,"rental_uris":{"android":"levelo://app?vid=e45cd997-6365-4259-8418-6ba3166e4266","ios":"levelo://app?vid=e45cd997-6365-4259-8418-6ba3166e4266"},"vehicle_type_id":"4","last_reported":1723331292,"current_range_meters":24000,"station_id":"","pricing_plan_id":"cebpf4jnsgd1na2vs0mg"},{"bike_id":"a526fc31-7959-462d-a49e-cec5cb8c44e6","system_id":"levelo_inurba_marseille","lat":43.29901,"lon":5.38158,"is_reserved":false,"is_disabled":false,"rental_uris":{"android":"levelo://app?vid=a526fc31-7959-462d-a49e-cec5cb8c44e6","ios":"levelo://app?vid=a526fc31-7959-462d-a49e-cec5cb8c44e6"},"vehicle_type_id":"4","last_reported":1723331292,"current_range_meters":23200,"station_id":"ce4bgj12rcd13ifvqbc0","pricing_plan_id":"cebpf4jnsgd1na2vs0mg"},{"bike_id":"4ce94e67-70a1-4867-96a1-41d82b3dcfc8","system_id":"levelo_inurba_marseille","lat":43.31754,"lon":5.39007,"is_reserved":false,"is_disabled":false,"rental_uris":{"android":"levelo://app?vid=4ce94e67-70a1-4867-96a1-41d82b3dcfc8","ios":"levelo://app?vid=4ce94e67-70a1-4867-96a1-41d82b3dcfc8"},"vehicle_type_id":"4","last_reported":1723331292,"current_range_meters":18400,"station_id":"ce4bhqp2rcd13ifvqhng","pricing_plan_id":"cebpf4jnsgd1na2vs0mg"},{"bike_id":"23122c95-2c84-47e9-b652-836c29f900a0","system_id":"levelo_inurba_marseille","lat":43.317525,"lon":5.390175,"is_reserved":false,"is_disabled":false,"rental_uris":{"android":"levelo://app?vid=23122c95-2c84-47e9-b652-836c29f900a0","ios":"levelo://app?vid=23122c95-2c84-47e9-b652-836c29f900a0"},"vehicle_type_id":"4","last_reported":1723331292,"current_range_meters":15600,"station_id":"ce4bhqp2rcd13ifvqhng","pricing_plan_id":"cebpf4jnsgd1na2vs0mg"},{"bike_id":"94c9006a-98ec-4e5c-ba7b-bf39b6a5854a","system_id":"levelo_inurba_marseille","lat":43.297911,"lon":5.380678,"is_reserved":false,"is_disabled":false,"rental_uris":{"android":"levelo://app?vid=94c9006a-98ec-4e5c-ba7b-bf39b6a5854a","ios":"levelo://app?vid=94c9006a-98ec-4e5c-ba7b-bf39b6a5854a"},"vehicle_type_id":"4","last_reported":1723331292,"current_range_meters":0,"station_id":"","pricing_plan_id":"cebpf4jnsgd1na2vs0mg"},{"bike_id":"80f9f110-4ffc-4297-bf57-2bf2a710da39","system_id":"levelo_inurba_marseille","lat":43.321579,"lon":5.388321,"is_reserved":false,"is_disabled":false,"rental_uris":{"android":"levelo://app?vid=80f9f110-4ffc-4297-bf57-2bf2a710da39","ios":"levelo://app?vid=80f9f110-4ffc-4297-bf57-2bf2a710da39"},"vehicle_type_id":"4","last_reported":1723331292,"current_range_meters":14000,"station_id":"","pricing_plan_id":"cebpf4jnsgd1na2vs0mg"},{"bike_id":"cfb6a074-8d1b-4656-9f62-a32a85651c7f","system_id":"levelo_inurba_marseille","lat":43.304274,"lon":5.388873,"is_reserved":false,"is_disabled":false,"rental_uris":{"android":"levelo://app?vid=cfb6a074-8d1b-4656-9f62-a32a85651c7f","ios":"levelo://app?vid=cfb6a074-8d1b-4656-9f62-a32a85651c7f"},"vehicle_type_id":"4","last_reported":1723331292,"current_range_meters":15200,"station_id":"ce4bgk12rcd13ifvqbi0","pricing_plan_id":"cebpf4jnsgd1na2vs0mg"},{"bike_id":"664e049c-be49-44d4-9c63-4e302562b11c","system_id":"levelo_inurba_marseille","lat":43.296263,"lon":5.377094,"is_reserved":false,"is_disabled":false,"rental_uris":{"android":"levelo://app?vid=664e049c-be49-44d4-9c63-4e302562b11c","ios":"levelo://app?vid=664e049c-be49-44d4-9c63-4e302562b11c"},"vehicle_type_id":"4","last_reported":1723331292,"current_range_meters":26000,"station_id":"ce4bgi92rcd13ifvqb90","pricing_plan_id":"cebpf4jnsgd1na2vs0mg"},{"bike_id":"dace2c8a-0c27-4358-9604-e7bdc5835256","system_id":"levelo_inurba_marseille","lat":43.299707,"lon":5.384859,"is_reserved":false,"is_disabled":false,"rental_uris":{"android":"levelo://app?vid=dace2c8a-0c27-4358-9604-e7bdc5835256","ios":"levelo://app?vid=dace2c8a-0c27-4358-9604-e7bdc5835256"},"vehicle_type_id":"4","last_reported":1723331292,"current_range_meters":0,"station_id":"ce4bgj92rcd13ifvqbd0","pricing_plan_id":"cebpf4jnsgd1na2vs0mg"},{"bike_id":"5cd570d7-f712-4be5-aedd-521e58d40e66","system_id":"levelo_inurba_marseille","lat":43.299717,"lon":5.384845,"is_reserved":false,"is_disabled":false,"rental_uris":{"android":"levelo://app?vid=5cd570d7-f712-4be5-aedd-521e58d40e66","ios":"levelo://app?vid=5cd570d7-f712-4be5-aedd-521e58d40e66"},"vehicle_type_id":"4","last_reported":1723331292,"current_range_meters":23200,"station_id":"ce4bgj92rcd13ifvqbd0","pricing_plan_id":"cebpf4jnsgd1na2vs0mg"},{"bike_id":"c34e1657-8a3b-4418-9f3e-6b2ce9da416d","system_id":"levelo_inurba_marseille","lat":43.301396,"lon":5.387812,"is_reserved":false,"is_disabled":false,"rental_uris":{"android":"levelo://app?vid=c34e1657-8a3b-4418-9f3e-6b2ce9da416d","ios":"levelo://app?vid=c34e1657-8a3b-4418-9f3e-6b2ce9da416d"},"vehicle_type_id":"4","last_reported":1723331292,"current_range_meters":23200,"station_id":"ce4bghh2rcd13ifvqb60","pricing_plan_id":"cebpf4jnsgd1na2vs0mg"},{"bike_id":"c1604f82-1130-41b9-84f9-d1c2742e05ec","system_id":"levelo_inurba_marseille","lat":43.3236,"lon":5.38881,"is_reserved":false,"is_disabled":false,"rental_uris":{"android":"levelo://app?vid=c1604f82-1130-41b9-84f9-d1c2742e05ec","ios":"levelo://app?vid=c1604f82-1130-41b9-84f9-d1c2742e05ec"},"vehicle_type_id":"4","last_reported":1723331292,"current_range_meters":12400,"station_id":"ce4bhqp2rcd13ifvqhog","pricing_plan_id":"cebpf4jnsgd1na2vs0mg"},{"bike_id":"f57dac92-b2b9-49e0-bd0a-e7f405720d9d","system_id":"levelo_inurba_marseille","lat":43.32362,"lon":5.38884,"is_reserved":false,"is_disabled":false,"rental_uris":{"android":"levelo://app?vid=f57dac92-b2b9-49e0-bd0a-e7f405720d9d","ios":"levelo://app?vid=f57dac92-b2b9-49e0-bd0a-e7f405720d9d"},"vehicle_type_id":"4","last_reported":1723331292,"current_range_meters":400,"station_id":"ce4bhqp2rcd13ifvqhog","pricing_plan_id":"cebpf4jnsgd1na2vs0mg"},{"bike_id":"df7496e0-21de-4f25-b3a0-35095825935c","system_id":"levelo_inurba_marseille","lat":43.32367,"lon":5.388836,"is_reserved":false,"is_disabled":false,"rental_uris":{"android":"levelo://app?vid=df7496e0-21de-4f25-b3a0-35095825935c","ios":"levelo://app?vid=df7496e0-21de-4f25-b3a0-35095825935c"},"vehicle_type_id":"4","last_reported":1723331292,"current_range_meters":3600,"station_id":"ce4bhqp2rcd13ifvqhog","pricing_plan_id":"cebpf4jnsgd1na2vs0mg"},{"bike_id":"1549410c-77e4-49ce-8d77-0fa592b89430","system_id":"levelo_inurba_marseille","lat":43.32367,"lon":5.388836,"is_reserved":false,"is_disabled":false,"rental_uris":{"android":"levelo://app?vid=1549410c-77e4-49ce-8d77-0fa592b89430","ios":"levelo://app?vid=1549410c-77e4-49ce-8d77-0fa592b89430"},"vehicle_type_id":"4","last_reported":1723331292,"current_range_meters":17200,"station_id":"ce4bhqp2rcd13ifvqhog","pricing_plan_id":"cebpf4jnsgd1na2vs0mg"},{"bike_id":"9d4bebdf-753b-44d2-b2aa-e0cddcefff8c","system_id":"levelo_inurba_marseille","lat":43.32367,"lon":5.388836,"is_reserved":false,"is_disabled":false,"rental_uris":{"android":"levelo://app?vid=9d4bebdf-753b-44d2-b2aa-e0cddcefff8c","ios":"levelo://app?vid=9d4bebdf-753b-44d2-b2aa-e0cddcefff8c"},"vehicle_type_id":"4","last_reported":1723331292,"current_range_meters":23600,"station_id":"ce4bhqp2rcd13ifvqhog","pricing_plan_id":"cebpf4jnsgd1na2vs0mg"},{"bike_id":"7f5db8f7-d21e-4f45-a211-477ce47516f7","system_id":"levelo_inurba_marseille","lat":43.32367,"lon":5.388836,"is_reserved":false,"is_disabled":false,"rental_uris":{"android":"levelo://app?vid=7f5db8f7-d21e-4f45-a211-477ce47516f7","ios":"levelo://app?vid=7f5db8f7-d21e-4f45-a211-477ce47516f7"},"vehicle_type_id":"4","last_reported":1723331292,"current_range_meters":800,"station_id":"ce4bhqp2rcd13ifvqhog","pricing_plan_id":"cebpf4jnsgd1na2vs0mg"},{"bike_id":"acd261f3-8833-4dc1-97b7-4b547b59db3d","system_id":"levelo_inurba_marseille","lat":43.32367,"lon":5.388836,"is_reserved":false,"is_disabled":false,"rental_uris":{"android":"levelo://app?vid=acd261f3-8833-4dc1-97b7-4b547b59db3d","ios":"levelo://app?vid=acd261f3-8833-4dc1-97b7-4b547b59db3d"},"vehicle_type_id":"4","last_reported":1723331292,"current_range_meters":26000,"station_id":"ce4bhqp2rcd13ifvqhog","pricing_plan_id":"cebpf4jnsgd1na2vs0mg"},{"bike_id":"1693facf-ebcc-48f9-aec2-caec8867c653","system_id":"levelo_inurba_marseille","lat":43.292749,"lon":5.368402,"is_reserved":false,"is_disabled":false,"rental_uris":{"android":"levelo://app?vid=1693facf-ebcc-48f9-aec2-caec8867c653","ios":"levelo://app?vid=1693facf-ebcc-48f9-aec2-caec8867c653"},"vehicle_type_id":"4","last_reported":1723331292,"current_range_meters":17600,"station_id":"ce4bhbp2rcd13ifvqesg","pricing_plan_id":"cebpf4jnsgd1na2vs0mg"},{"bike_id":"4778d0ed-0016-4bd8-a06e-57bee0f3544c","system_id":"levelo_inurba_marseille","lat":43.293259,"lon":5.371586,"is_reserved":false,"is_disabled":false,"rental_uris":{"android":"levelo://app?vid=4778d0ed-0016-4bd8-a06e-57bee0f3544c","ios":"levelo://app?vid=4778d0ed-0016-4bd8-a06e-57bee0f3544c"},"vehicle_type_id":"4","last_reported":1723331292,"current_range_meters":18400,"station_id":"ce4bgh92rcd13ifvqb40","pricing_plan_id":"cebpf4jnsgd1na2vs0mg"},{"bike_id":"586de25c-6f11-4f9c-b893-8b50ea03bfca","system_id":"levelo_inurba_marseille","lat":43.292749,"lon":5.368402,"is_reserved":false,"is_disabled":false,"rental_uris":{"android":"levelo://app?vid=586de25c-6f11-4f9c-b893-8b50ea03bfca","ios":"levelo://app?vid=586de25c-6f11-4f9c-b893-8b50ea03bfca"},"vehicle_type_id":"4","last_reported":1723331292,"current_range_meters":19600,"station_id":"ce4bhbp2rcd13ifvqesg","pricing_plan_id":"cebpf4jnsgd1na2vs0mg"},{"bike_id":"59c72c1c-8ed6-4107-bab3-4a5e3925b631","system_id":"levelo_inurba_marseille","lat":43.292749,"lon":5.368402,"is_reserved":false,"is_disabled":false,"rental_uris":{"android":"levelo://app?vid=59c72c1c-8ed6-4107-bab3-4a5e3925b631","ios":"levelo://app?vid=59c72c1c-8ed6-4107-bab3-4a5e3925b631"},"vehicle_type_id":"4","last_reported":1723331292,"current_range_meters":27200,"station_id":"ce4bhbp2rcd13ifvqesg","pricing_plan_id":"cebpf4jnsgd1na2vs0mg"},{"bike_id":"b0ea895b-4e53-43f2-ba6a-36e573dc1706","system_id":"levelo_inurba_marseille","lat":43.293259,"lon":5.371586,"is_reserved":false,"is_disabled":false,"rental_uris":{"android":"levelo://app?vid=b0ea895b-4e53-43f2-ba6a-36e573dc1706","ios":"levelo://app?vid=b0ea895b-4e53-43f2-ba6a-36e573dc1706"},"vehicle_type_id":"4","last_reported":1723331292,"current_range_meters":24400,"station_id":"ce4bgh92rcd13ifvqb40","pricing_plan_id":"cebpf4jnsgd1na2vs0mg"},{"bike_id":"45634f5a-6891-4c53-ad2b-85f0522bdc66","system_id":"levelo_inurba_marseille","lat":43.292749,"lon":5.368402,"is_reserved":false,"is_disabled":false,"rental_uris":{"android":"levelo://app?vid=45634f5a-6891-4c53-ad2b-85f0522bdc66","ios":"levelo://app?vid=45634f5a-6891-4c53-ad2b-85f0522bdc66"},"vehicle_type_id":"4","last_reported":1723331292,"current_range_meters":5200,"station_id":"ce4bhbp2rcd13ifvqesg","pricing_plan_id":"cebpf4jnsgd1na2vs0mg"},{"bike_id":"be2e9787-0747-4a8d-8440-058286bee07b","system_id":"levelo_inurba_marseille","lat":43.292749,"lon":5.368402,"is_reserved":false,"is_disabled":false,"rental_uris":{"android":"levelo://app?vid=be2e9787-0747-4a8d-8440-058286bee07b","ios":"levelo://app?vid=be2e9787-0747-4a8d-8440-058286bee07b"},"vehicle_type_id":"4","last_reported":1723331292,"current_range_meters":26800,"station_id":"ce4bhbp2rcd13ifvqesg","pricing_plan_id":"cebpf4jnsgd1na2vs0mg"},{"bike_id":"37720cf5-57ef-4747-8a75-40b0020cec93","system_id":"levelo_inurba_marseille","lat":43.33276,"lon":5.3644,"is_reserved":false,"is_disabled":false,"rental_uris":{"android":"levelo://app?vid=37720cf5-57ef-4747-8a75-40b0020cec93","ios":"levelo://app?vid=37720cf5-57ef-4747-8a75-40b0020cec93"},"vehicle_type_id":"4","last_reported":1723331292,"current_range_meters":12400,"station_id":"","pricing_plan_id":"cebpf4jnsgd1na2vs0mg"},{"bike_id":"5ece8942-8bcd-45a7-adbe-2d36139faf17","system_id":"levelo_inurba_marseille","lat":43.305994,"lon":5.393687,"is_reserved":false,"is_disabled":false,"rental_uris":{"android":"levelo://app?vid=5ece8942-8bcd-45a7-adbe-2d36139faf17","ios":"levelo://app?vid=5ece8942-8bcd-45a7-adbe-2d36139faf17"},"vehicle_type_id":"4","last_reported":1723331292,"current_range_meters":16800,"station_id":"ce4bh0p2rcd13ifvqd80","pricing_plan_id":"cebpf4jnsgd1na2vs0mg"},{"bike_id":"42e1912c-892a-4c36-bc5f-d762a0720af9","system_id":"levelo_inurba_marseille","lat":43.305994,"lon":5.393687,"is_reserved":false,"is_disabled":false,"rental_uris":{"android":"levelo://app?vid=42e1912c-892a-4c36-bc5f-d762a0720af9","ios":"levelo://app?vid=42e1912c-892a-4c36-bc5f-d762a0720af9"},"vehicle_type_id":"4","last_reported":1723331292,"current_range_meters":8800,"station_id":"ce4bh0p2rcd13ifvqd80","pricing_plan_id":"cebpf4jnsgd1na2vs0mg"},{"bike_id":"a8af96b7-26a4-4454-959e-729e7a0f7cc0","system_id":"levelo_inurba_marseille","lat":43.305994,"lon":5.393687,"is_reserved":false,"is_disabled":false,"rental_uris":{"android":"levelo://app?vid=a8af96b7-26a4-4454-959e-729e7a0f7cc0","ios":"levelo://app?vid=a8af96b7-26a4-4454-959e-729e7a0f7cc0"},"vehicle_type_id":"4","last_reported":1723331292,"current_range_meters":32000,"station_id":"ce4bh0p2rcd13ifvqd80","pricing_plan_id":"cebpf4jnsgd1na2vs0mg"},{"bike_id":"8e4c4067-e102-4216-88b6-1775c9e0ca00","system_id":"levelo_inurba_marseille","lat":43.305994,"lon":5.393687,"is_reserved":false,"is_disabled":false,"rental_uris":{"android":"levelo://app?vid=8e4c4067-e102-4216-88b6-1775c9e0ca00","ios":"levelo://app?vid=8e4c4067-e102-4216-88b6-1775c9e0ca00"},"vehicle_type_id":"4","last_reported":1723331292,"current_range_meters":11200,"station_id":"ce4bh0p2rcd13ifvqd80","pricing_plan_id":"cebpf4jnsgd1na2vs0mg"},{"bike_id":"f507e327-280e-42f7-baeb-831d6d2f8e33","system_id":"levelo_inurba_marseille","lat":43.305994,"lon":5.393687,"is_reserved":false,"is_disabled":false,"rental_uris":{"android":"levelo://app?vid=f507e327-280e-42f7-baeb-831d6d2f8e33","ios":"levelo://app?vid=f507e327-280e-42f7-baeb-831d6d2f8e33"},"vehicle_type_id":"4","last_reported":1723331292,"current_range_meters":1600,"station_id":"ce4bh0p2rcd13ifvqd80","pricing_plan_id":"cebpf4jnsgd1na2vs0mg"},{"bike_id":"5e808917-a296-4a20-9b63-5c5d75c9a28b","system_id":"levelo_inurba_marseille","lat":43.305994,"lon":5.393687,"is_reserved":false,"is_disabled":false,"rental_uris":{"android":"levelo://app?vid=5e808917-a296-4a20-9b63-5c5d75c9a28b","ios":"levelo://app?vid=5e808917-a296-4a20-9b63-5c5d75c9a28b"},"vehicle_type_id":"4","last_reported":1723331292,"current_range_meters":6800,"station_id":"ce4bh0p2rcd13ifvqd80","pricing_plan_id":"cebpf4jnsgd1na2vs0mg"},{"bike_id":"8d37495d-9961-45f8-ba67-ee81725ae3ae","system_id":"levelo_inurba_marseille","lat":43.29228,"lon":5.36363,"is_reserved":false,"is_disabled":false,"rental_uris":{"android":"levelo://app?vid=8d37495d-9961-45f8-ba67-ee81725ae3ae","ios":"levelo://app?vid=8d37495d-9961-45f8-ba67-ee81725ae3ae"},"vehicle_type_id":"4","last_reported":1723331292,"current_range_meters":7200,"station_id":"","pricing_plan_id":"cebpf4jnsgd1na2vs0mg"},{"bike_id":"3e8e44cb-9ea1-4c12-abb8-bc77bae84125","system_id":"levelo_inurba_marseille","lat":43.303002,"lon":5.392142,"is_reserved":false,"is_disabled":false,"rental_uris":{"android":"levelo://app?vid=3e8e44cb-9ea1-4c12-abb8-bc77bae84125","ios":"levelo://app?vid=3e8e44cb-9ea1-4c12-abb8-bc77bae84125"},"vehicle_type_id":"4","last_reported":1723331292,"current_range_meters":30400,"station_id":"ce4bgkh2rcd13ifvqbk0","pricing_plan_id":"cebpf4jnsgd1na2vs0mg"},{"bike_id":"fa9118fb-3a79-429b-b6ad-889c5798bcf5","system_id":"levelo_inurba_marseille","lat":43.292311,"lon":5.360731,"is_reserved":false,"is_disabled":false,"rental_uris":{"android":"levelo://app?vid=fa9118fb-3a79-429b-b6ad-889c5798bcf5","ios":"levelo://app?vid=fa9118fb-3a79-429b-b6ad-889c5798bcf5"},"vehicle_type_id":"4","last_reported":1723331292,"current_range_meters":15200,"station_id":"ce4bhbh2rcd13ifvqeqg","pricing_plan_id":"cebpf4jnsgd1na2vs0mg"},{"bike_id":"4330a1ca-c46c-42e1-accc-cd9e0811b5b4","system_id":"levelo_inurba_marseille","lat":43.303002,"lon":5.392142,"is_reserved":false,"is_disabled":false,"rental_uris":{"android":"levelo://app?vid=4330a1ca-c46c-42e1-accc-cd9e0811b5b4","ios":"levelo://app?vid=4330a1ca-c46c-42e1-accc-cd9e0811b5b4"},"vehicle_type_id":"4","last_reported":1723331292,"current_range_meters":5600,"station_id":"ce4bgkh2rcd13ifvqbk0","pricing_plan_id":"cebpf4jnsgd1na2vs0mg"},{"bike_id":"24814136-a458-45d5-94a5-79e8af24afa1","system_id":"levelo_inurba_marseille","lat":43.29228,"lon":5.36062,"is_reserved":false,"is_disabled":false,"rental_uris":{"android":"levelo://app?vid=24814136-a458-45d5-94a5-79e8af24afa1","ios":"levelo://app?vid=24814136-a458-45d5-94a5-79e8af24afa1"},"vehicle_type_id":"4","last_reported":1723331292,"current_range_meters":30400,"station_id":"ce4bhbh2rcd13ifvqeqg","pricing_plan_id":"cebpf4jnsgd1na2vs0mg"},{"bike_id":"45e3dac2-1f34-42d4-9628-94efa8260566","system_id":"levelo_inurba_marseille","lat":43.298764,"lon":5.388973,"is_reserved":false,"is_disabled":false,"rental_uris":{"android":"levelo://app?vid=45e3dac2-1f34-42d4-9628-94efa8260566","ios":"levelo://app?vid=45e3dac2-1f34-42d4-9628-94efa8260566"},"vehicle_type_id":"4","last_reported":1723331292,"current_range_meters":3600,"station_id":"ce4bh392rcd13ifvqdl0","pricing_plan_id":"cebpf4jnsgd1na2vs0mg"},{"bike_id":"7de71c17-1272-4591-9e12-606f8849e3a5","system_id":"levelo_inurba_marseille","lat":43.298764,"lon":5.388973,"is_reserved":false,"is_disabled":false,"rental_uris":{"android":"levelo://app?vid=7de71c17-1272-4591-9e12-606f8849e3a5","ios":"levelo://app?vid=7de71c17-1272-4591-9e12-606f8849e3a5"},"vehicle_type_id":"4","last_reported":1723331292,"current_range_meters":24000,"station_id":"ce4bh392rcd13ifvqdl0","pricing_plan_id":"cebpf4jnsgd1na2vs0mg"},{"bike_id":"8669c215-f64f-4991-918a-38e605b47e3d","system_id":"levelo_inurba_marseille","lat":43.29286,"lon":5.355519,"is_reserved":false,"is_disabled":false,"rental_uris":{"android":"levelo://app?vid=8669c215-f64f-4991-918a-38e605b47e3d","ios":"levelo://app?vid=8669c215-f64f-4991-918a-38e605b47e3d"},"vehicle_type_id":"4","last_reported":1723331292,"current_range_meters":6000,"station_id":"","pricing_plan_id":"cebpf4jnsgd1na2vs0mg"},{"bike_id":"5492a69c-e456-40ef-b30c-6d8cfc4b6f68","system_id":"levelo_inurba_marseille","lat":43.309038,"lon":5.396546,"is_reserved":false,"is_disabled":false,"rental_uris":{"android":"levelo://app?vid=5492a69c-e456-40ef-b30c-6d8cfc4b6f68","ios":"levelo://app?vid=5492a69c-e456-40ef-b30c-6d8cfc4b6f68"},"vehicle_type_id":"4","last_reported":1723331292,"current_range_meters":22000,"station_id":"ce4bh012rcd13ifvqcv0","pricing_plan_id":"cebpf4jnsgd1na2vs0mg"},{"bike_id":"9d4b68a5-c93f-4844-a235-5ff4a055b660","system_id":"levelo_inurba_marseille","lat":43.292385,"lon":5.37767,"is_reserved":false,"is_disabled":false,"rental_uris":{"android":"levelo://app?vid=9d4b68a5-c93f-4844-a235-5ff4a055b660","ios":"levelo://app?vid=9d4b68a5-c93f-4844-a235-5ff4a055b660"},"vehicle_type_id":"4","last_reported":1723331292,"current_range_meters":10400,"station_id":"","pricing_plan_id":"cebpf4jnsgd1na2vs0mg"},{"bike_id":"060f8cfe-5c47-4429-a3d8-ac78677ac06a","system_id":"levelo_inurba_marseille","lat":43.3133,"lon":5.39693,"is_reserved":false,"is_disabled":false,"rental_uris":{"android":"levelo://app?vid=060f8cfe-5c47-4429-a3d8-ac78677ac06a","ios":"levelo://app?vid=060f8cfe-5c47-4429-a3d8-ac78677ac06a"},"vehicle_type_id":"4","last_reported":1723331292,"current_range_meters":27200,"station_id":"ce4bgvp2rcd13ifvqcu0","pricing_plan_id":"cebpf4jnsgd1na2vs0mg"},{"bike_id":"7c65c7db-69b1-4e97-b6a9-194f6e9d0a16","system_id":"levelo_inurba_marseille","lat":43.313291,"lon":5.396838,"is_reserved":false,"is_disabled":false,"rental_uris":{"android":"levelo://app?vid=7c65c7db-69b1-4e97-b6a9-194f6e9d0a16","ios":"levelo://app?vid=7c65c7db-69b1-4e97-b6a9-194f6e9d0a16"},"vehicle_type_id":"4","last_reported":1723331292,"current_range_meters":26800,"station_id":"ce4bgvp2rcd13ifvqcu0","pricing_plan_id":"cebpf4jnsgd1na2vs0mg"},{"bike_id":"b317f18b-44b9-4d40-b81b-649d3c3bdd5a","system_id":"levelo_inurba_marseille","lat":43.31324,"lon":5.39697,"is_reserved":false,"is_disabled":false,"rental_uris":{"android":"levelo://app?vid=b317f18b-44b9-4d40-b81b-649d3c3bdd5a","ios":"levelo://app?vid=b317f18b-44b9-4d40-b81b-649d3c3bdd5a"},"vehicle_type_id":"4","last_reported":1723331292,"current_range_meters":16400,"station_id":"ce4bgvp2rcd13ifvqcu0","pricing_plan_id":"cebpf4jnsgd1na2vs0mg"},{"bike_id":"cb065c9b-a672-4326-8da4-0c43ffb5581a","system_id":"levelo_inurba_marseille","lat":43.31331,"lon":5.39697,"is_reserved":false,"is_disabled":false,"rental_uris":{"android":"levelo://app?vid=cb065c9b-a672-4326-8da4-0c43ffb5581a","ios":"levelo://app?vid=cb065c9b-a672-4326-8da4-0c43ffb5581a"},"vehicle_type_id":"4","last_reported":1723331292,"current_range_meters":18400,"station_id":"ce4bgvp2rcd13ifvqcu0","pricing_plan_id":"cebpf4jnsgd1na2vs0mg"},{"bike_id":"79eaf1c0-6392-4164-8baa-10e1b8ba75dd","system_id":"levelo_inurba_marseille","lat":43.309038,"lon":5.396546,"is_reserved":false,"is_disabled":false,"rental_uris":{"android":"levelo://app?vid=79eaf1c0-6392-4164-8baa-10e1b8ba75dd","ios":"levelo://app?vid=79eaf1c0-6392-4164-8baa-10e1b8ba75dd"},"vehicle_type_id":"4","last_reported":1723331292,"current_range_meters":28400,"station_id":"ce4bh012rcd13ifvqcv0","pricing_plan_id":"cebpf4jnsgd1na2vs0mg"},{"bike_id":"487275e0-98c1-4647-942c-f10f6541f3d0","system_id":"levelo_inurba_marseille","lat":43.309038,"lon":5.396546,"is_reserved":false,"is_disabled":false,"rental_uris":{"android":"levelo://app?vid=487275e0-98c1-4647-942c-f10f6541f3d0","ios":"levelo://app?vid=487275e0-98c1-4647-942c-f10f6541f3d0"},"vehicle_type_id":"4","last_reported":1723331292,"current_range_meters":17200,"station_id":"ce4bh012rcd13ifvqcv0","pricing_plan_id":"cebpf4jnsgd1na2vs0mg"},{"bike_id":"b3a028b0-9a5c-44b4-8c9a-812021101a33","system_id":"levelo_inurba_marseille","lat":43.309047,"lon":5.396551,"is_reserved":false,"is_disabled":false,"rental_uris":{"android":"levelo://app?vid=b3a028b0-9a5c-44b4-8c9a-812021101a33","ios":"levelo://app?vid=b3a028b0-9a5c-44b4-8c9a-812021101a33"},"vehicle_type_id":"4","last_reported":1723331292,"current_range_meters":14800,"station_id":"ce4bh012rcd13ifvqcv0","pricing_plan_id":"cebpf4jnsgd1na2vs0mg"},{"bike_id":"9357bd1d-bade-45af-9dcf-51b79d9dda85","system_id":"levelo_inurba_marseille","lat":43.309047,"lon":5.396551,"is_reserved":false,"is_disabled":false,"rental_uris":{"android":"levelo://app?vid=9357bd1d-bade-45af-9dcf-51b79d9dda85","ios":"levelo://app?vid=9357bd1d-bade-45af-9dcf-51b79d9dda85"},"vehicle_type_id":"4","last_reported":1723331292,"current_range_meters":800,"station_id":"ce4bh012rcd13ifvqcv0","pricing_plan_id":"cebpf4jnsgd1na2vs0mg"},{"bike_id":"6e5fd4de-0b55-451f-9d6d-6f22811a29bc","system_id":"levelo_inurba_marseille","lat":43.29539,"lon":5.38554,"is_reserved":false,"is_disabled":false,"rental_uris":{"android":"levelo://app?vid=6e5fd4de-0b55-451f-9d6d-6f22811a29bc","ios":"levelo://app?vid=6e5fd4de-0b55-451f-9d6d-6f22811a29bc"},"vehicle_type_id":"4","last_reported":1723331292,"current_range_meters":0,"station_id":"ce4bgih2rcd13ifvqba0","pricing_plan_id":"cebpf4jnsgd1na2vs0mg"},{"bike_id":"f239752c-0323-48d6-83d4-b7966082ae5e","system_id":"levelo_inurba_marseille","lat":43.290974,"lon":5.371598,"is_reserved":false,"is_disabled":false,"rental_uris":{"android":"levelo://app?vid=f239752c-0323-48d6-83d4-b7966082ae5e","ios":"levelo://app?vid=f239752c-0323-48d6-83d4-b7966082ae5e"},"vehicle_type_id":"4","last_reported":1723331292,"current_range_meters":0,"station_id":"","pricing_plan_id":"cebpf4jnsgd1na2vs0mg"},{"bike_id":"6cfd67a2-456f-4f4b-bf03-8143733c14fb","system_id":"levelo_inurba_marseille","lat":43.290779,"lon":5.371482,"is_reserved":false,"is_disabled":false,"rental_uris":{"android":"levelo://app?vid=6cfd67a2-456f-4f4b-bf03-8143733c14fb","ios":"levelo://app?vid=6cfd67a2-456f-4f4b-bf03-8143733c14fb"},"vehicle_type_id":"4","last_reported":1723331292,"current_range_meters":16000,"station_id":"ce4bh5p2rcd13ifvqe4g","pricing_plan_id":"cebpf4jnsgd1na2vs0mg"},{"bike_id":"48844f95-429a-4414-9bc4-ebdaf58c869a","system_id":"levelo_inurba_marseille","lat":43.29072,"lon":5.37168,"is_reserved":false,"is_disabled":false,"rental_uris":{"android":"levelo://app?vid=48844f95-429a-4414-9bc4-ebdaf58c869a","ios":"levelo://app?vid=48844f95-429a-4414-9bc4-ebdaf58c869a"},"vehicle_type_id":"4","last_reported":1723331292,"current_range_meters":0,"station_id":"ce4bh5p2rcd13ifvqe4g","pricing_plan_id":"cebpf4jnsgd1na2vs0mg"},{"bike_id":"b05706f3-2fb9-4358-8fb0-1530930e4ad6","system_id":"levelo_inurba_marseille","lat":43.289468,"lon":5.363719,"is_reserved":false,"is_disabled":false,"rental_uris":{"android":"levelo://app?vid=b05706f3-2fb9-4358-8fb0-1530930e4ad6","ios":"levelo://app?vid=b05706f3-2fb9-4358-8fb0-1530930e4ad6"},"vehicle_type_id":"4","last_reported":1723331292,"current_range_meters":7600,"station_id":"ce4bhc92rcd13ifvqetg","pricing_plan_id":"cebpf4jnsgd1na2vs0mg"},{"bike_id":"b24938de-4bb8-40f9-b8ba-7eba257aa9e3","system_id":"levelo_inurba_marseille","lat":43.29422,"lon":5.3862,"is_reserved":false,"is_disabled":false,"rental_uris":{"android":"levelo://app?vid=b24938de-4bb8-40f9-b8ba-7eba257aa9e3","ios":"levelo://app?vid=b24938de-4bb8-40f9-b8ba-7eba257aa9e3"},"vehicle_type_id":"4","last_reported":1723331292,"current_range_meters":0,"station_id":"ce4bh2h2rcd13ifvqdh0","pricing_plan_id":"cebpf4jnsgd1na2vs0mg"},{"bike_id":"110df6f8-b649-427e-8c73-512cb0a0dc4f","system_id":"levelo_inurba_marseille","lat":43.294153,"lon":5.386305,"is_reserved":false,"is_disabled":false,"rental_uris":{"android":"levelo://app?vid=110df6f8-b649-427e-8c73-512cb0a0dc4f","ios":"levelo://app?vid=110df6f8-b649-427e-8c73-512cb0a0dc4f"},"vehicle_type_id":"4","last_reported":1723331292,"current_range_meters":4800,"station_id":"ce4bh2h2rcd13ifvqdh0","pricing_plan_id":"cebpf4jnsgd1na2vs0mg"},{"bike_id":"c520a08a-d820-4f95-980f-0f5ff2e8c1d0","system_id":"levelo_inurba_marseille","lat":43.294162,"lon":5.386292,"is_reserved":false,"is_disabled":false,"rental_uris":{"android":"levelo://app?vid=c520a08a-d820-4f95-980f-0f5ff2e8c1d0","ios":"levelo://app?vid=c520a08a-d820-4f95-980f-0f5ff2e8c1d0"},"vehicle_type_id":"4","last_reported":1723331292,"current_range_meters":28000,"station_id":"ce4bh2h2rcd13ifvqdh0","pricing_plan_id":"cebpf4jnsgd1na2vs0mg"},{"bike_id":"c3014806-e2b1-4008-adb4-8d39806f2c1e","system_id":"levelo_inurba_marseille","lat":43.29424,"lon":5.38634,"is_reserved":false,"is_disabled":false,"rental_uris":{"android":"levelo://app?vid=c3014806-e2b1-4008-adb4-8d39806f2c1e","ios":"levelo://app?vid=c3014806-e2b1-4008-adb4-8d39806f2c1e"},"vehicle_type_id":"4","last_reported":1723331292,"current_range_meters":0,"station_id":"ce4bh2h2rcd13ifvqdh0","pricing_plan_id":"cebpf4jnsgd1na2vs0mg"},{"bike_id":"5ce56f90-a8f4-4dfa-8249-5098ce6cc9f5","system_id":"levelo_inurba_marseille","lat":43.289468,"lon":5.363719,"is_reserved":false,"is_disabled":false,"rental_uris":{"android":"levelo://app?vid=5ce56f90-a8f4-4dfa-8249-5098ce6cc9f5","ios":"levelo://app?vid=5ce56f90-a8f4-4dfa-8249-5098ce6cc9f5"},"vehicle_type_id":"4","last_reported":1723331292,"current_range_meters":0,"station_id":"ce4bhc92rcd13ifvqetg","pricing_plan_id":"cebpf4jnsgd1na2vs0mg"},{"bike_id":"10ea9d6a-0c63-4c79-8f81-1104a4b392d9","system_id":"levelo_inurba_marseille","lat":43.28917,"lon":5.36402,"is_reserved":false,"is_disabled":false,"rental_uris":{"android":"levelo://app?vid=10ea9d6a-0c63-4c79-8f81-1104a4b392d9","ios":"levelo://app?vid=10ea9d6a-0c63-4c79-8f81-1104a4b392d9"},"vehicle_type_id":"4","last_reported":1723331292,"current_range_meters":0,"station_id":"ce4bhc92rcd13ifvqetg","pricing_plan_id":"cebpf4jnsgd1na2vs0mg"},{"bike_id":"e94bca86-e6b7-48d5-bfc9-de003ca21950","system_id":"levelo_inurba_marseille","lat":43.304274,"lon":5.397513,"is_reserved":false,"is_disabled":false,"rental_uris":{"android":"levelo://app?vid=e94bca86-e6b7-48d5-bfc9-de003ca21950","ios":"levelo://app?vid=e94bca86-e6b7-48d5-bfc9-de003ca21950"},"vehicle_type_id":"4","last_reported":1723331292,"current_range_meters":7200,"station_id":"ce4bh092rcd13ifvqd20","pricing_plan_id":"cebpf4jnsgd1na2vs0mg"},{"bike_id":"eeb71710-0df7-4543-bb3e-030642bccb51","system_id":"levelo_inurba_marseille","lat":43.304296,"lon":5.397513,"is_reserved":false,"is_disabled":false,"rental_uris":{"android":"levelo://app?vid=eeb71710-0df7-4543-bb3e-030642bccb51","ios":"levelo://app?vid=eeb71710-0df7-4543-bb3e-030642bccb51"},"vehicle_type_id":"4","last_reported":1723331292,"current_range_meters":4400,"station_id":"ce4bh092rcd13ifvqd20","pricing_plan_id":"cebpf4jnsgd1na2vs0mg"},{"bike_id":"10053b48-9400-4823-b544-fa7f086d7548","system_id":"levelo_inurba_marseille","lat":43.2926,"lon":5.38437,"is_reserved":false,"is_disabled":false,"rental_uris":{"android":"levelo://app?vid=10053b48-9400-4823-b544-fa7f086d7548","ios":"levelo://app?vid=10053b48-9400-4823-b544-fa7f086d7548"},"vehicle_type_id":"4","last_reported":1723331292,"current_range_meters":0,"station_id":"ce4bh692rcd13ifvqea0","pricing_plan_id":"cebpf4jnsgd1na2vs0mg"},{"bike_id":"524405c6-3f6e-40b9-8786-154ae9479ee9","system_id":"levelo_inurba_marseille","lat":43.292574,"lon":5.38439,"is_reserved":false,"is_disabled":false,"rental_uris":{"android":"levelo://app?vid=524405c6-3f6e-40b9-8786-154ae9479ee9","ios":"levelo://app?vid=524405c6-3f6e-40b9-8786-154ae9479ee9"},"vehicle_type_id":"4","last_reported":1723331292,"current_range_meters":0,"station_id":"ce4bh692rcd13ifvqea0","pricing_plan_id":"cebpf4jnsgd1na2vs0mg"},{"bike_id":"40d8b94a-a4a7-463a-aaa0-a9a241288356","system_id":"levelo_inurba_marseille","lat":43.292644,"lon":5.384257,"is_reserved":false,"is_disabled":false,"rental_uris":{"android":"levelo://app?vid=40d8b94a-a4a7-463a-aaa0-a9a241288356","ios":"levelo://app?vid=40d8b94a-a4a7-463a-aaa0-a9a241288356"},"vehicle_type_id":"4","last_reported":1723331292,"current_range_meters":0,"station_id":"ce4bh692rcd13ifvqea0","pricing_plan_id":"cebpf4jnsgd1na2vs0mg"},{"bike_id":"828b3546-f590-4b6e-b599-211d53c0758d","system_id":"levelo_inurba_marseille","lat":43.290103,"lon":5.356114,"is_reserved":false,"is_disabled":false,"rental_uris":{"android":"levelo://app?vid=828b3546-f590-4b6e-b599-211d53c0758d","ios":"levelo://app?vid=828b3546-f590-4b6e-b599-211d53c0758d"},"vehicle_type_id":"4","last_reported":1723331292,"current_range_meters":18400,"station_id":"ce4bhb92rcd13ifvqen0","pricing_plan_id":"cebpf4jnsgd1na2vs0mg"},{"bike_id":"f47a5630-3b38-4c76-8ea3-1a5fbd510897","system_id":"levelo_inurba_marseille","lat":43.29111,"lon":5.38162,"is_reserved":false,"is_disabled":false,"rental_uris":{"android":"levelo://app?vid=f47a5630-3b38-4c76-8ea3-1a5fbd510897","ios":"levelo://app?vid=f47a5630-3b38-4c76-8ea3-1a5fbd510897"},"vehicle_type_id":"4","last_reported":1723331292,"current_range_meters":30400,"station_id":"ce4bh512rcd13ifvqe2g","pricing_plan_id":"cebpf4jnsgd1na2vs0mg"},{"bike_id":"b92a26ec-5928-45b1-bd45-a550b1522010","system_id":"levelo_inurba_marseille","lat":43.29576,"lon":5.39053,"is_reserved":false,"is_disabled":false,"rental_uris":{"android":"levelo://app?vid=b92a26ec-5928-45b1-bd45-a550b1522010","ios":"levelo://app?vid=b92a26ec-5928-45b1-bd45-a550b1522010"},"vehicle_type_id":"4","last_reported":1723331292,"current_range_meters":10000,"station_id":"","pricing_plan_id":"cebpf4jnsgd1na2vs0mg"},{"bike_id":"88ea836f-a125-4ff1-a08c-b5a41056a4fc","system_id":"levelo_inurba_marseille","lat":43.29576,"lon":5.39057,"is_reserved":false,"is_disabled":false,"rental_uris":{"android":"levelo://app?vid=88ea836f-a125-4ff1-a08c-b5a41056a4fc","ios":"levelo://app?vid=88ea836f-a125-4ff1-a08c-b5a41056a4fc"},"vehicle_type_id":"4","last_reported":1723331292,"current_range_meters":18000,"station_id":"","pricing_plan_id":"cebpf4jnsgd1na2vs0mg"},{"bike_id":"084bc426-4712-4425-a450-8f5f6e6a5977","system_id":"levelo_inurba_marseille","lat":43.289741,"lon":5.378306,"is_reserved":false,"is_disabled":false,"rental_uris":{"android":"levelo://app?vid=084bc426-4712-4425-a450-8f5f6e6a5977","ios":"levelo://app?vid=084bc426-4712-4425-a450-8f5f6e6a5977"},"vehicle_type_id":"4","last_reported":1723331292,"current_range_meters":18800,"station_id":"ce4bh9p2rcd13ifvqed0","pricing_plan_id":"cebpf4jnsgd1na2vs0mg"},{"bike_id":"ed493bad-e9df-4b38-9c69-868230a52e64","system_id":"levelo_inurba_marseille","lat":43.297882,"lon":5.393358,"is_reserved":false,"is_disabled":false,"rental_uris":{"android":"levelo://app?vid=ed493bad-e9df-4b38-9c69-868230a52e64","ios":"levelo://app?vid=ed493bad-e9df-4b38-9c69-868230a52e64"},"vehicle_type_id":"4","last_reported":1723331292,"current_range_meters":20000,"station_id":"chh1huq6cuj3fo74tm60","pricing_plan_id":"cebpf4jnsgd1na2vs0mg"},{"bike_id":"2760a34d-ad69-49e6-a2fb-cfde8f0bd3fe","system_id":"levelo_inurba_marseille","lat":43.295385,"lon":5.390323,"is_reserved":false,"is_disabled":false,"rental_uris":{"android":"levelo://app?vid=2760a34d-ad69-49e6-a2fb-cfde8f0bd3fe","ios":"levelo://app?vid=2760a34d-ad69-49e6-a2fb-cfde8f0bd3fe"},"vehicle_type_id":"4","last_reported":1723331292,"current_range_meters":27600,"station_id":"ce4bh3p2rcd13ifvqdp0","pricing_plan_id":"cebpf4jnsgd1na2vs0mg"},{"bike_id":"41050680-833e-40ba-b888-b856d7833490","system_id":"levelo_inurba_marseille","lat":43.297915,"lon":5.393468,"is_reserved":false,"is_disabled":false,"rental_uris":{"android":"levelo://app?vid=41050680-833e-40ba-b888-b856d7833490","ios":"levelo://app?vid=41050680-833e-40ba-b888-b856d7833490"},"vehicle_type_id":"4","last_reported":1723331292,"current_range_meters":27200,"station_id":"chh1huq6cuj3fo74tm60","pricing_plan_id":"cebpf4jnsgd1na2vs0mg"},{"bike_id":"8ba903ee-9f69-444a-ba24-83b4e494ceb2","system_id":"levelo_inurba_marseille","lat":43.295169,"lon":5.390426,"is_reserved":false,"is_disabled":false,"rental_uris":{"android":"levelo://app?vid=8ba903ee-9f69-444a-ba24-83b4e494ceb2","ios":"levelo://app?vid=8ba903ee-9f69-444a-ba24-83b4e494ceb2"},"vehicle_type_id":"4","last_reported":1723331292,"current_range_meters":14800,"station_id":"ce4bh3p2rcd13ifvqdp0","pricing_plan_id":"cebpf4jnsgd1na2vs0mg"},{"bike_id":"dca6af63-c97b-4086-9edc-9aa79e456cf9","system_id":"levelo_inurba_marseille","lat":43.29781,"lon":5.39343,"is_reserved":false,"is_disabled":false,"rental_uris":{"android":"levelo://app?vid=dca6af63-c97b-4086-9edc-9aa79e456cf9","ios":"levelo://app?vid=dca6af63-c97b-4086-9edc-9aa79e456cf9"},"vehicle_type_id":"4","last_reported":1723331292,"current_range_meters":26800,"station_id":"chh1huq6cuj3fo74tm60","pricing_plan_id":"cebpf4jnsgd1na2vs0mg"},{"bike_id":"93c6d203-6d46-4aa3-9637-fd569e089d59","system_id":"levelo_inurba_marseille","lat":43.297807,"lon":5.393533,"is_reserved":false,"is_disabled":false,"rental_uris":{"android":"levelo://app?vid=93c6d203-6d46-4aa3-9637-fd569e089d59","ios":"levelo://app?vid=93c6d203-6d46-4aa3-9637-fd569e089d59"},"vehicle_type_id":"4","last_reported":1723331292,"current_range_meters":18800,"station_id":"chh1huq6cuj3fo74tm60","pricing_plan_id":"cebpf4jnsgd1na2vs0mg"},{"bike_id":"e4f2b5f6-a629-407f-9f2c-8f765b80b81b","system_id":"levelo_inurba_marseille","lat":43.297807,"lon":5.393533,"is_reserved":false,"is_disabled":false,"rental_uris":{"android":"levelo://app?vid=e4f2b5f6-a629-407f-9f2c-8f765b80b81b","ios":"levelo://app?vid=e4f2b5f6-a629-407f-9f2c-8f765b80b81b"},"vehicle_type_id":"4","last_reported":1723331292,"current_range_meters":10400,"station_id":"chh1huq6cuj3fo74tm60","pricing_plan_id":"cebpf4jnsgd1na2vs0mg"},{"bike_id":"22d16e92-7fe3-493a-a32b-fc2bbab2bbe4","system_id":"levelo_inurba_marseille","lat":43.330442,"lon":5.389148,"is_reserved":false,"is_disabled":false,"rental_uris":{"android":"levelo://app?vid=22d16e92-7fe3-493a-a32b-fc2bbab2bbe4","ios":"levelo://app?vid=22d16e92-7fe3-493a-a32b-fc2bbab2bbe4"},"vehicle_type_id":"4","last_reported":1723331292,"current_range_meters":31600,"station_id":"ce4bhr92rcd13ifvqhrg","pricing_plan_id":"cebpf4jnsgd1na2vs0mg"},{"bike_id":"549be350-0027-4912-ae79-db300700c855","system_id":"levelo_inurba_marseille","lat":43.295169,"lon":5.390426,"is_reserved":false,"is_disabled":false,"rental_uris":{"android":"levelo://app?vid=549be350-0027-4912-ae79-db300700c855","ios":"levelo://app?vid=549be350-0027-4912-ae79-db300700c855"},"vehicle_type_id":"4","last_reported":1723331292,"current_range_meters":30400,"station_id":"ce4bh3p2rcd13ifvqdp0","pricing_plan_id":"cebpf4jnsgd1na2vs0mg"},{"bike_id":"0b3026fb-8bfd-4b6c-8010-5b4207697d48","system_id":"levelo_inurba_marseille","lat":43.330442,"lon":5.389148,"is_reserved":false,"is_disabled":false,"rental_uris":{"android":"levelo://app?vid=0b3026fb-8bfd-4b6c-8010-5b4207697d48","ios":"levelo://app?vid=0b3026fb-8bfd-4b6c-8010-5b4207697d48"},"vehicle_type_id":"4","last_reported":1723331292,"current_range_meters":8800,"station_id":"ce4bhr92rcd13ifvqhrg","pricing_plan_id":"cebpf4jnsgd1na2vs0mg"},{"bike_id":"c7991355-17de-4db5-9c84-065edc9d4a4a","system_id":"levelo_inurba_marseille","lat":43.33027,"lon":5.3904,"is_reserved":false,"is_disabled":false,"rental_uris":{"android":"levelo://app?vid=c7991355-17de-4db5-9c84-065edc9d4a4a","ios":"levelo://app?vid=c7991355-17de-4db5-9c84-065edc9d4a4a"},"vehicle_type_id":"4","last_reported":1723331292,"current_range_meters":5200,"station_id":"ce4bhr92rcd13ifvqhrg","pricing_plan_id":"cebpf4jnsgd1na2vs0mg"},