{"last_updated":1728767301,"ttl":60,"version":"2.2","data":{"bikes":[{"bike_id":"36aeb9a0-146e-4853-b3de-3536c8a71bcb","system_id":"levelo_inurba_marseille","lat":43.30877,"lon":5.37185,"is_reserved":false,"is_disabled":false,"rental_uris":{"android":"levelo://app?vid=36aeb9a0-146e-4853-b3de-3536c8a71bcb","ios":"levelo://app?vid=36aeb9a0-146e-4853-b3de-3536c8a71bcb"},"vehicle_type_id":"4","last_reported":1728767301,"current_range_meters":38800,"station_id":"ce4bguh2rcd13ifvqckg","pricing_plan_id":"cebpf4jnsgd1na2vs0mg"},{"bike_id":"a88cc3d5-4214-4799-a463-c01d33dbb23e","system_id":"levelo_inurba_marseille","lat":43.25008,"lon":5.38913,"is_reserved":false,"is_disabled":false,"rental_uris":{"android":"levelo://app?vid=a88cc3d5-4214-4799-a463-c01d33dbb23e","ios":"levelo://app?vid=a88cc3d5-4214-4799-a463-c01d33dbb23e"},"vehicle_type_id":"4","last_reported":1728767301,"current_range_meters":19600,"station_id":"ce4bhgp2rcd13ifvqfd0","pricing_plan_id":"cebpf4jnsgd1na2vs0mg"},{"bike_id":"8a36bb65-dd05-437f-adaf-66c35c91f8ff","system_id":"levelo_inurba_marseille","lat":43.24167,"lon":5.36405,"is_reserved":false,"is_disabled":false,"rental_uris":{"android":"levelo://app?vid=8a36bb65-dd05-437f-adaf-66c35c91f8ff","ios":"levelo://app?vid=8a36bb65-dd05-437f-adaf-66c35c91f8ff"},"vehicle_type_id":"4","last_reported":1728767301,"current_range_meters":38000,"station_id":"cpo36qri1sfpv3e86is0","pricing_plan_id":"cebpf4jnsgd1na2vs0mg"},{"bike_id":"ef7ddb81-3706-47f5-bfb6-102d930901ba","system_id":"levelo_inurba_marseille","lat":43.2906,"lon":5.37152,"is_reserved":false,"is_disabled":false,"rental_uris":{"android":"levelo://app?vid=ef7ddb81-3706-47f5-bfb6-102d930901ba","ios":"levelo://app?vid=ef7ddb81-3706-47f5-bfb6-102d930901ba"},"vehicle_type_id":"4","last_reported":1728767301,"current_range_meters":4400,"station_id":"ce4bh5p2rcd13ifvqe4g","pricing_plan_id":"cebpf4jnsgd1na2vs0mg"},{"bike_id":"480c36bc-dd66-41df-b09a-76735c76211b","system_id":"levelo_inurba_marseille","lat":43.27993,"lon":5.41665,"is_reserved":false,"is_disabled":false,"rental_uris":{"android":"levelo://app?vid=480c36bc-dd66-41df-b09a-76735c76211b","ios":"levelo://app?vid=480c36bc-dd66-41df-b09a-76735c76211b"},"vehicle_type_id":"4","last_reported":1728767301,"current_range_meters":38800,"station_id":"ce4bho12rcd13ifvqh1g","pricing_plan_id":"cebpf4jnsgd1na2vs0mg"},{"bike_id":"1dae633f-4c9d-4ac0-b2a6-1648e6545bd4","system_id":"levelo_inurba_marseille","lat":43.29844,"lon":5.3628,"is_reserved":false,"is_disabled":false,"rental_uris":{"android":"levelo://app?vid=1dae633f-4c9d-4ac0-b2a6-1648e6545bd4","ios":"levelo://app?vid=1dae633f-4c9d-4ac0-b2a6-1648e6545bd4"},"vehicle_type_id":"4","last_reported":1728767301,"current_range_meters":38800,"station_id":"ce4bgpp2rcd13ifvqc3g","pricing_plan_id":"cebpf4jnsgd1na2vs0mg"},{"bike_id":"e4df68f4-a27d-4949-a0d7-dab74056138b","system_id":"levelo_inurba_marseille","lat":43.29528,"lon":5.38538,"is_reserved":false,"is_disabled":false,"rental_uris":{"android":"levelo://app?vid=e4df68f4-a27d-4949-a0d7-dab74056138b","ios":"levelo://app?vid=e4df68f4-a27d-4949-a0d7-dab74056138b"},"vehicle_type_id":"4","last_reported":1728767301,"current_range_meters":38000,"station_id":"ce4bgih2rcd13ifvqba0","pricing_plan_id":"cebpf4jnsgd1na2vs0mg"},{"bike_id":"03558eda-9824-4c85-9bd0-720804e16e39","system_id":"levelo_inurba_marseille","lat":43.30796,"lon":5.43523,"is_reserved":false,"is_disabled":false,"rental_uris":{"android":"levelo://app?vid=03558eda-9824-4c85-9bd0-720804e16e39","ios":"levelo://app?vid=03558eda-9824-4c85-9bd0-720804e16e39"},"vehicle_type_id":"4","last_reported":1728767301,"current_range_meters":38800,"station_id":"ce4bhph2rcd13ifvqheg","pricing_plan_id":"cebpf4jnsgd1na2vs0mg"},{"bike_id":"0f1a8a36-b14f-49fa-94d0-73f75ae97bfc","system_id":"levelo_inurba_marseille","lat":43.28274,"lon":5.35067,"is_reserved":false,"is_disabled":false,"rental_uris":{"android":"levelo://app?vid=0f1a8a36-b14f-49fa-94d0-73f75ae97bfc","ios":"levelo://app?vid=0f1a8a36-b14f-49fa-94d0-73f75ae97bfc"},"vehicle_type_id":"4","last_reported":1728767301,"current_range_meters":13600,"station_id":"ce4bhbp2rcd13ifvqerg","pricing_plan_id":"cebpf4jnsgd1na2vs0mg"},{"bike_id":"3ef42292-5f8b-43cb-a0ec-0de8543cadff","system_id":"levelo_inurba_marseille","lat":43.33025,"lon":5.39036,"is_reserved":false,"is_disabled":false,"rental_uris":{"android":"levelo://app?vid=3ef42292-5f8b-43cb-a0ec-0de8543cadff","ios":"levelo://app?vid=3ef42292-5f8b-43cb-a0ec-0de8543cadff"},"vehicle_type_id":"4","last_reported":1728767301,"current_range_meters":38800,"station_id":"ce4bhr92rcd13ifvqhrg","pricing_plan_id":"cebpf4jnsgd1na2vs0mg"},{"bike_id":"e49be7dd-1e95-4af1-8431-31f4173ce85d","system_id":"levelo_inurba_marseille","lat":43.32111,"lon":5.36764,"is_reserved":false,"is_disabled":false,"rental_uris":{"android":"levelo://app?vid=e49be7dd-1e95-4af1-8431-31f4173ce85d","ios":"levelo://app?vid=e49be7dd-1e95-4af1-8431-31f4173ce85d"},"vehicle_type_id":"4","last_reported":1728767301,"current_range_meters":38800,"station_id":"ce4bhrh2rcd13ifvqhug","pricing_plan_id":"cebpf4jnsgd1na2vs0mg"},{"bike_id":"6143dcf9-c681-4212-af02-af18735f4829","system_id":"levelo_inurba_marseille","lat":43.28408,"lon":5.37518,"is_reserved":false,"is_disabled":false,"rental_uris":{"android":"levelo://app?vid=6143dcf9-c681-4212-af02-af18735f4829","ios":"levelo://app?vid=6143dcf9-c681-4212-af02-af18735f4829"},"vehicle_type_id":"4","last_reported":1728767301,"current_range_meters":38800,"station_id":"ce4bh412rcd13ifvqds0","pricing_plan_id":"cebpf4jnsgd1na2vs0mg"},{"bike_id":"61432fa4-e69a-43e1-a752-60da459a1e2e","system_id":"levelo_inurba_marseille","lat":43.33724,"lon":5.39188,"is_reserved":false,"is_disabled":false,"rental_uris":{"android":"levelo://app?vid=61432fa4-e69a-43e1-a752-60da459a1e2e","ios":"levelo://app?vid=61432fa4-e69a-43e1-a752-60da459a1e2e"},"vehicle_type_id":"4","last_reported":1728767301,"current_range_meters":36000,"station_id":"ce4bhr92rcd13ifvqhsg","pricing_plan_id":"cebpf4jnsgd1na2vs0mg"},{"bike_id":"6dfa1c15-62e5-4156-9ffa-4e5064dfd4c4","system_id":"levelo_inurba_marseille","lat":43.25112,"lon":5.40322,"is_reserved":false,"is_disabled":false,"rental_uris":{"android":"levelo://app?vid=6dfa1c15-62e5-4156-9ffa-4e5064dfd4c4","ios":"levelo://app?vid=6dfa1c15-62e5-4156-9ffa-4e5064dfd4c4"},"vehicle_type_id":"4","last_reported":1728767301,"current_range_meters":36800,"station_id":"ce4bhlh2rcd13ifvqgig","pricing_plan_id":"cebpf4jnsgd1na2vs0mg"},{"bike_id":"b424ba4d-d1b3-4e4e-85df-0ef7cbd1234b","system_id":"levelo_inurba_marseille","lat":43.2984,"lon":5.36266,"is_reserved":false,"is_disabled":false,"rental_uris":{"android":"levelo://app?vid=b424ba4d-d1b3-4e4e-85df-0ef7cbd1234b","ios":"levelo://app?vid=b424ba4d-d1b3-4e4e-85df-0ef7cbd1234b"},"vehicle_type_id":"4","last_reported":1728767301,"current_range_meters":20400,"station_id":"ce4bgpp2rcd13ifvqc3g","pricing_plan_id":"cebpf4jnsgd1na2vs0mg"},{"bike_id":"1ac86634-ba8a-4ebb-a178-a73d44c52506","system_id":"levelo_inurba_marseille","lat":43.29525,"lon":5.38543,"is_reserved":false,"is_disabled":false,"rental_uris":{"android":"levelo://app?vid=1ac86634-ba8a-4ebb-a178-a73d44c52506","ios":"levelo://app?vid=1ac86634-ba8a-4ebb-a178-a73d44c52506"},"vehicle_type_id":"4","last_reported":1728767301,"current_range_meters":39200,"station_id":"ce4bgih2rcd13ifvqba0","pricing_plan_id":"cebpf4jnsgd1na2vs0mg"},{"bike_id":"72a3f55e-0bec-4383-9fbe-03495fd20ebe","system_id":"levelo_inurba_marseille","lat":43.232,"lon":5.3556,"is_reserved":false,"is_disabled":false,"rental_uris":{"android":"levelo://app?vid=72a3f55e-0bec-4383-9fbe-03495fd20ebe","ios":"levelo://app?vid=72a3f55e-0bec-4383-9fbe-03495fd20ebe"},"vehicle_type_id":"4","last_reported":1728767301,"current_range_meters":8400,"station_id":"ce4bh3p2rcd13ifvqdq0","pricing_plan_id":"cebpf4jnsgd1na2vs0mg"},{"bike_id":"aaec7671-c297-455f-bfe0-19c2a28bbab6","system_id":"levelo_inurba_marseille","lat":43.247586,"lon":5.392769,"is_reserved":false,"is_disabled":false,"rental_uris":{"android":"levelo://app?vid=aaec7671-c297-455f-bfe0-19c2a28bbab6","ios":"levelo://app?vid=aaec7671-c297-455f-bfe0-19c2a28bbab6"},"vehicle_type_id":"4","last_reported":1728767301,"current_range_meters":27200,"station_id":"ce4bhgp2rcd13ifvqfd0","pricing_plan_id":"cebpf4jnsgd1na2vs0mg"},{"bike_id":"c5c33660-077d-4f97-b2f0-40691ac09116","system_id":"levelo_inurba_marseille","lat":43.24393,"lon":5.3707,"is_reserved":false,"is_disabled":false,"rental_uris":{"android":"levelo://app?vid=c5c33660-077d-4f97-b2f0-40691ac09116","ios":"levelo://app?vid=c5c33660-077d-4f97-b2f0-40691ac09116"},"vehicle_type_id":"4","last_reported":1728767301,"current_range_meters":36400,"station_id":"ce4bhhh2rcd13ifvqfk0","pricing_plan_id":"cebpf4jnsgd1na2vs0mg"},{"bike_id":"931d1f9c-4cb2-40a2-a856-914a1c55fcf3","system_id":"levelo_inurba_marseille","lat":43.24571,"lon":5.41658,"is_reserved":false,"is_disabled":false,"rental_uris":{"android":"levelo://app?vid=931d1f9c-4cb2-40a2-a856-914a1c55fcf3","ios":"levelo://app?vid=931d1f9c-4cb2-40a2-a856-914a1c55fcf3"},"vehicle_type_id":"4","last_reported":1728767301,"current_range_meters":9600,"station_id":"","pricing_plan_id":"cebpf4jnsgd1na2vs0mg"},{"bike_id":"36ca0ca8-90a4-490c-8d77-4000acac3807","system_id":"levelo_inurba_marseille","lat":43.2845,"lon":5.39213,"is_reserved":false,"is_disabled":false,"rental_uris":{"android":"levelo://app?vid=36ca0ca8-90a4-490c-8d77-4000acac3807","ios":"levelo://app?vid=36ca0ca8-90a4-490c-8d77-4000acac3807"},"vehicle_type_id":"4","last_reported":1728767301,"current_range_meters":8000,"station_id":"ce4bhoh2rcd13ifvqh5g","pricing_plan_id":"cebpf4jnsgd1na2vs0mg"},{"bike_id":"0921d8f3-33c9-4091-ac98-53c85dd28a45","system_id":"levelo_inurba_marseille","lat":43.27071,"lon":5.42279,"is_reserved":false,"is_disabled":false,"rental_uris":{"android":"levelo://app?vid=0921d8f3-33c9-4091-ac98-53c85dd28a45","ios":"levelo://app?vid=0921d8f3-33c9-4091-ac98-53c85dd28a45"},"vehicle_type_id":"4","last_reported":1728767301,"current_range_meters":27600,"station_id":"ce4bhk92rcd13ifvqgb0","pricing_plan_id":"cebpf4jnsgd1na2vs0mg"},{"bike_id":"b239e39a-0d4f-4edd-87b1-8e40d3daeaca","system_id":"levelo_inurba_marseille","lat":43.29582,"lon":5.37526,"is_reserved":false,"is_disabled":false,"rental_uris":{"android":"levelo://app?vid=b239e39a-0d4f-4edd-87b1-8e40d3daeaca","ios":"levelo://app?vid=b239e39a-0d4f-4edd-87b1-8e40d3daeaca"},"vehicle_type_id":"4","last_reported":1728767301,"current_range_meters":16800,"station_id":"ce4bgh92rcd13ifvqb50","pricing_plan_id":"cebpf4jnsgd1na2vs0mg"},{"bike_id":"3ab72df3-c3ea-4a74-b7c7-f8fb2390496c","system_id":"levelo_inurba_marseille","lat":43.31076,"lon":5.3835,"is_reserved":false,"is_disabled":false,"rental_uris":{"android":"levelo://app?vid=3ab72df3-c3ea-4a74-b7c7-f8fb2390496c","ios":"levelo://app?vid=3ab72df3-c3ea-4a74-b7c7-f8fb2390496c"},"vehicle_type_id":"4","last_reported":1728767301,"current_range_meters":6800,"station_id":"ce4bgv92rcd13ifvqcr0","pricing_plan_id":"cebpf4jnsgd1na2vs0mg"},{"bike_id":"8af20607-32f8-434d-b6d0-aaa914005a4c","system_id":"levelo_inurba_marseille","lat":43.29846,"lon":5.36278,"is_reserved":false,"is_disabled":false,"rental_uris":{"android":"levelo://app?vid=8af20607-32f8-434d-b6d0-aaa914005a4c","ios":"levelo://app?vid=8af20607-32f8-434d-b6d0-aaa914005a4c"},"vehicle_type_id":"4","last_reported":1728767301,"current_range_meters":32000,"station_id":"ce4bgpp2rcd13ifvqc3g","pricing_plan_id":"cebpf4jnsgd1na2vs0mg"},{"bike_id":"c4015b68-d99c-4e60-9211-7512a632fa47","system_id":"levelo_inurba_marseille","lat":43.301,"lon":5.39075,"is_reserved":false,"is_disabled":false,"rental_uris":{"android":"levelo://app?vid=c4015b68-d99c-4e60-9211-7512a632fa47","ios":"levelo://app?vid=c4015b68-d99c-4e60-9211-7512a632fa47"},"vehicle_type_id":"4","last_reported":1728767301,"current_range_meters":38800,"station_id":"ce4bh192rcd13ifvqdb0","pricing_plan_id":"cebpf4jnsgd1na2vs0mg"},{"bike_id":"867f3f40-5931-445f-8081-385466db43ab","system_id":"levelo_inurba_marseille","lat":43.29836,"lon":5.3626,"is_reserved":false,"is_disabled":false,"rental_uris":{"android":"levelo://app?vid=867f3f40-5931-445f-8081-385466db43ab","ios":"levelo://app?vid=867f3f40-5931-445f-8081-385466db43ab"},"vehicle_type_id":"4","last_reported":1728767301,"current_range_meters":39200,"station_id":"ce4bgpp2rcd13ifvqc3g","pricing_plan_id":"cebpf4jnsgd1na2vs0mg"},{"bike_id":"0de0711e-04df-48ec-9be5-aa95798b911c","system_id":"levelo_inurba_marseille","lat":43.28937,"lon":5.36637,"is_reserved":false,"is_disabled":false,"rental_uris":{"android":"levelo://app?vid=0de0711e-04df-48ec-9be5-aa95798b911c","ios":"levelo://app?vid=0de0711e-04df-48ec-9be5-aa95798b911c"},"vehicle_type_id":"4","last_reported":1728767301,"current_range_meters":4400,"station_id":"ce4bhap2rcd13ifvqek0","pricing_plan_id":"cebpf4jnsgd1na2vs0mg"},{"bike_id":"0881cf05-9a97-43b1-894d-8969b6f9f294","system_id":"levelo_inurba_marseille","lat":43.31695,"lon":5.37741,"is_reserved":false,"is_disabled":false,"rental_uris":{"android":"levelo://app?vid=0881cf05-9a97-43b1-894d-8969b6f9f294","ios":"levelo://app?vid=0881cf05-9a97-43b1-894d-8969b6f9f294"},"vehicle_type_id":"4","last_reported":1728767301,"current_range_meters":2800,"station_id":"ce4bgth2rcd13ifvqch0","pricing_plan_id":"cebpf4jnsgd1na2vs0mg"},{"bike_id":"6b2daff3-9851-4dff-9081-e0ec010599e4","system_id":"levelo_inurba_marseille","lat":43.314515,"lon":5.37384,"is_reserved":false,"is_disabled":false,"rental_uris":{"android":"levelo://app?vid=6b2daff3-9851-4dff-9081-e0ec010599e4","ios":"levelo://app?vid=6b2daff3-9851-4dff-9081-e0ec010599e4"},"vehicle_type_id":"4","last_reported":1728767301,"current_range_meters":35600,"station_id":"","pricing_plan_id":"cebpf4jnsgd1na2vs0mg"},{"bike_id":"6f68d79b-bdbe-417d-a066-1075381457a2","system_id":"levelo_inurba_marseille","lat":43.24664,"lon":5.38159,"is_reserved":false,"is_disabled":false,"rental_uris":{"android":"levelo://app?vid=6f68d79b-bdbe-417d-a066-1075381457a2","ios":"levelo://app?vid=6f68d79b-bdbe-417d-a066-1075381457a2"},"vehicle_type_id":"4","last_reported":1728767301,"current_range_meters":16800,"station_id":"ce4bhih2rcd13ifvqfr0","pricing_plan_id":"cebpf4jnsgd1na2vs0mg"},{"bike_id":"f8fd929e-ef12-4998-8e1d-12522bd05de2","system_id":"levelo_inurba_marseille","lat":43.33024,"lon":5.3904,"is_reserved":false,"is_disabled":false,"rental_uris":{"android":"levelo://app?vid=f8fd929e-ef12-4998-8e1d-12522bd05de2","ios":"levelo://app?vid=f8fd929e-ef12-4998-8e1d-12522bd05de2"},"vehicle_type_id":"4","last_reported":1728767301,"current_range_meters":38800,"station_id":"ce4bhr92rcd13ifvqhrg","pricing_plan_id":"cebpf4jnsgd1na2vs0mg"},{"bike_id":"d432596f-4dce-47fb-95fe-139e821b1909","system_id":"levelo_inurba_marseille","lat":43.25001,"lon":5.38932,"is_reserved":false,"is_disabled":false,"rental_uris":{"android":"levelo://app?vid=d432596f-4dce-47fb-95fe-139e821b1909","ios":"levelo://app?vid=d432596f-4dce-47fb-95fe-139e821b1909"},"vehicle_type_id":"4","last_reported":1728767301,"current_range_meters":26000,"station_id":"ce4bhgp2rcd13ifvqfd0","pricing_plan_id":"cebpf4jnsgd1na2vs0mg"},{"bike_id":"3d56fd43-7f3a-478f-a81b-fba7289193d9","system_id":"levelo_inurba_marseille","lat":43.28001,"lon":5.41659,"is_reserved":false,"is_disabled":false,"rental_uris":{"android":"levelo://app?vid=3d56fd43-7f3a-478f-a81b-fba7289193d9","ios":"levelo://app?vid=3d56fd43-7f3a-478f-a81b-fba7289193d9"},"vehicle_type_id":"4","last_reported":1728767301,"current_range_meters":23200,"station_id":"ce4bho12rcd13ifvqh1g","pricing_plan_id":"cebpf4jnsgd1na2vs0mg"},{"bike_id":"fa08456f-0316-46ca-b497-6c7d63a7f841","system_id":"levelo_inurba_marseille","lat":43.23193,"lon":5.35545,"is_reserved":false,"is_disabled":false,"rental_uris":{"android":"levelo://app?vid=fa08456f-0316-46ca-b497-6c7d63a7f841","ios":"levelo://app?vid=fa08456f-0316-46ca-b497-6c7d63a7f841"},"vehicle_type_id":"4","last_reported":1728767301,"current_range_meters":37600,"station_id":"ce4bhu92rcd13ifvqi70","pricing_plan_id":"cebpf4jnsgd1na2vs0mg"},{"bike_id":"d9c1cb06-fbff-4073-85b2-e3a688296c34","system_id":"levelo_inurba_marseille","lat":43.30655,"lon":5.40089,"is_reserved":false,"is_disabled":false,"rental_uris":{"android":"levelo://app?vid=d9c1cb06-fbff-4073-85b2-e3a688296c34","ios":"levelo://app?vid=d9c1cb06-fbff-4073-85b2-e3a688296c34"},"vehicle_type_id":"4","last_reported":1728767301,"current_range_meters":38000,"station_id":"ce4bh112rcd13ifvqda0","pricing_plan_id":"cebpf4jnsgd1na2vs0mg"},{"bike_id":"af72dc5b-e02f-4efa-8cbd-41822bfef337","system_id":"levelo_inurba_marseille","lat":43.27997,"lon":5.40005,"is_reserved":false,"is_disabled":false,"rental_uris":{"android":"levelo://app?vid=af72dc5b-e02f-4efa-8cbd-41822bfef337","ios":"levelo://app?vid=af72dc5b-e02f-4efa-8cbd-41822bfef337"},"vehicle_type_id":"4","last_reported":1728767301,"current_range_meters":24800,"station_id":"ce4bho92rcd13ifvqh4g","pricing_plan_id":"cebpf4jnsgd1na2vs0mg"},{"bike_id":"45fa9e89-510b-4e3f-9562-3306f9f53874","system_id":"levelo_inurba_marseille","lat":43.29428,"lon":5.38619,"is_reserved":false,"is_disabled":false,"rental_uris":{"android":"levelo://app?vid=45fa9e89-510b-4e3f-9562-3306f9f53874","ios":"levelo://app?vid=45fa9e89-510b-4e3f-9562-3306f9f53874"},"vehicle_type_id":"4","last_reported":1728767301,"current_range_meters":24000,"station_id":"ce4bh412rcd13ifvqdr0","pricing_plan_id":"cebpf4jnsgd1na2vs0mg"},{"bike_id":"86851483-6460-4f2a-8d92-b3b47e5c55aa","system_id":"levelo_inurba_marseille","lat":43.23963,"lon":5.36644,"is_reserved":false,"is_disabled":false,"rental_uris":{"android":"levelo://app?vid=86851483-6460-4f2a-8d92-b3b47e5c55aa","ios":"levelo://app?vid=86851483-6460-4f2a-8d92-b3b47e5c55aa"},"vehicle_type_id":"4","last_reported":1728767301,"current_range_meters":38800,"station_id":"ce4bhi12rcd13ifvqfp0","pricing_plan_id":"cebpf4jnsgd1na2vs0mg"},{"bike_id":"969f0c9f-e24e-4c9e-a033-6bb183585ce3","system_id":"levelo_inurba_marseille","lat":43.30083,"lon":5.37851,"is_reserved":false,"is_disabled":false,"rental_uris":{"android":"levelo://app?vid=969f0c9f-e24e-4c9e-a033-6bb183585ce3","ios":"levelo://app?vid=969f0c9f-e24e-4c9e-a033-6bb183585ce3"},"vehicle_type_id":"4","last_reported":1728767301,"current_range_meters":9200,"station_id":"","pricing_plan_id":"cebpf4jnsgd1na2vs0mg"},{"bike_id":"900d410e-a263-4441-80a1-af67345a66d2","system_id":"levelo_inurba_marseille","lat":43.24395,"lon":5.37062,"is_reserved":false,"is_disabled":false,"rental_uris":{"android":"levelo://app?vid=900d410e-a263-4441-80a1-af67345a66d2","ios":"levelo://app?vid=900d410e-a263-4441-80a1-af67345a66d2"},"vehicle_type_id":"4","last_reported":1728767301,"current_range_meters":20000,"station_id":"ce4bhhh2rcd13ifvqfk0","pricing_plan_id":"cebpf4jnsgd1na2vs0mg"},{"bike_id":"4d1b0fcc-0e44-4e6e-8666-7657efed80b0","system_id":"levelo_inurba_marseille","lat":43.32484,"lon":5.3657,"is_reserved":false,"is_disabled":false,"rental_uris":{"android":"levelo://app?vid=4d1b0fcc-0e44-4e6e-8666-7657efed80b0","ios":"levelo://app?vid=4d1b0fcc-0e44-4e6e-8666-7657efed80b0"},"vehicle_type_id":"4","last_reported":1728767301,"current_range_meters":4000,"station_id":"ce4bhs12rcd13ifvqhvg","pricing_plan_id":"cebpf4jnsgd1na2vs0mg"},{"bike_id":"cf1dd8d7-64b4-41fd-9884-7d1287dc9392","system_id":"levelo_inurba_marseille","lat":43.27932,"lon":5.4104,"is_reserved":false,"is_disabled":false,"rental_uris":{"android":"levelo://app?vid=cf1dd8d7-64b4-41fd-9884-7d1287dc9392","ios":"levelo://app?vid=cf1dd8d7-64b4-41fd-9884-7d1287dc9392"},"vehicle_type_id":"4","last_reported":1728767301,"current_range_meters":32800,"station_id":"ce4bhnp2rcd13ifvqh0g","pricing_plan_id":"cebpf4jnsgd1na2vs0mg"},{"bike_id":"36f3bc3f-1878-4b58-ab33-1e7ea37d89a2","system_id":"levelo_inurba_marseille","lat":43.2926,"lon":5.38445,"is_reserved":false,"is_disabled":false,"rental_uris":{"android":"levelo://app?vid=36f3bc3f-1878-4b58-ab33-1e7ea37d89a2","ios":"levelo://app?vid=36f3bc3f-1878-4b58-ab33-1e7ea37d89a2"},"vehicle_type_id":"4","last_reported":1728767301,"current_range_meters":19200,"station_id":"ce4bh692rcd13ifvqea0","pricing_plan_id":"cebpf4jnsgd1na2vs0mg"},{"bike_id":"1d88376c-6674-4e5c-a3c5-0340c59f28ab","system_id":"levelo_inurba_marseille","lat":43.33603,"lon":5.4102,"is_reserved":false,"is_disabled":false,"rental_uris":{"android":"levelo://app?vid=1d88376c-6674-4e5c-a3c5-0340c59f28ab","ios":"levelo://app?vid=1d88376c-6674-4e5c-a3c5-0340c59f28ab"},"vehicle_type_id":"4","last_reported":1728767301,"current_range_meters":30400,"station_id":"ce4bhqh2rcd13ifvqhmg","pricing_plan_id":"cebpf4jnsgd1na2vs0mg"},{"bike_id":"334eb7c5-e537-4478-984a-f14151edc3e5","system_id":"levelo_inurba_marseille","lat":43.31263,"lon":5.40172,"is_reserved":false,"is_disabled":false,"rental_uris":{"android":"levelo://app?vid=334eb7c5-e537-4478-984a-f14151edc3e5","ios":"levelo://app?vid=334eb7c5-e537-4478-984a-f14151edc3e5"},"vehicle_type_id":"4","last_reported":1728767301,"current_range_meters":38800,"station_id":"ce4bh092rcd13ifvqd30","pricing_plan_id":"cebpf4jnsgd1na2vs0mg"},{"bike_id":"ee3d77b2-c4c3-417a-8170-d8edb7edeab8","system_id":"levelo_inurba_marseille","lat":43.22934,"lon":5.35381,"is_reserved":false,"is_disabled":false,"rental_uris":{"android":"levelo://app?vid=ee3d77b2-c4c3-417a-8170-d8edb7edeab8","ios":"levelo://app?vid=ee3d77b2-c4c3-417a-8170-d8edb7edeab8"},"vehicle_type_id":"4","last_reported":1728767301,"current_range_meters":10000,"station_id":"cpo3532slgdg3j2ikp40","pricing_plan_id":"cebpf4jnsgd1na2vs0mg"},{"bike_id":"5235ba02-7108-4e9b-b289-65bfe863b776","system_id":"levelo_inurba_marseille","lat":43.29297,"lon":5.37458,"is_reserved":false,"is_disabled":false,"rental_uris":{"android":"levelo://app?vid=5235ba02-7108-4e9b-b289-65bfe863b776","ios":"levelo://app?vid=5235ba02-7108-4e9b-b289-65bfe863b776"},"vehicle_type_id":"4","last_reported":1728767301,"current_range_meters":6800,"station_id":"ce4bgi12rcd13ifvqb70","pricing_plan_id":"cebpf4jnsgd1na2vs0mg"},{"bike_id":"861b5ca1-a0af-4d3b-a763-98dfcbdf66ec","system_id":"levelo_inurba_marseille","lat":43.29601,"lon":5.38093,"is_reserved":false,"is_disabled":false,"rental_uris":{"android":"levelo://app?vid=861b5ca1-a0af-4d3b-a763-98dfcbdf66ec","ios":"levelo://app?vid=861b5ca1-a0af-4d3b-a763-98dfcbdf66ec"},"vehicle_type_id":"4","last_reported":1728767301,"current_range_meters":22000,"station_id":"ce4bgl12rcd13ifvqbo0","pricing_plan_id":"cebpf4jnsgd1na2vs0mg"},{"bike_id":"67958920-36de-4f6e-9456-bc4aa9d17976","system_id":"levelo_inurba_marseille","lat":43.28275,"lon":5.35075,"is_reserved":false,"is_disabled":false,"rental_uris":{"android":"levelo://app?vid=67958920-36de-4f6e-9456-bc4aa9d17976","ios":"levelo://app?vid=67958920-36de-4f6e-9456-bc4aa9d17976"},"vehicle_type_id":"4","last_reported":1728767301,"current_range_meters":32000,"station_id":"ce4bhbp2rcd13ifvqerg","pricing_plan_id":"cebpf4jnsgd1na2vs0mg"},{"bike_id":"708c286f-1dee-4a18-b678-8f069689f57d","system_id":"levelo_inurba_marseille","lat":43.31222,"lon":5.36858,"is_reserved":false,"is_disabled":false,"rental_uris":{"android":"levelo://app?vid=708c286f-1dee-4a18-b678-8f069689f57d","ios":"levelo://app?vid=708c286f-1dee-4a18-b678-8f069689f57d"},"vehicle_type_id":"4","last_reported":1728767301,"current_range_meters":18800,"station_id":"ce4bgl92rcd13ifvqbq0","pricing_plan_id":"cebpf4jnsgd1na2vs0mg"},{"bike_id":"dd53497f-0b11-4f05-85dd-559f9fa697af","system_id":"levelo_inurba_marseille","lat":43.27948,"lon":5.4105,"is_reserved":false,"is_disabled":false,"rental_uris":{"android":"levelo://app?vid=dd53497f-0b11-4f05-85dd-559f9fa697af","ios":"levelo://app?vid=dd53497f-0b11-4f05-85dd-559f9fa697af"},"vehicle_type_id":"4","last_reported":1728767301,"current_range_meters":30400,"station_id":"ce4bhnp2rcd13ifvqh0g","pricing_plan_id":"cebpf4jnsgd1na2vs0mg"},{"bike_id":"fe343dc0-883c-41b8-8795-a9cdb3d5231e","system_id":"levelo_inurba_marseille","lat":43.29531,"lon":5.38539,"is_reserved":false,"is_disabled":false,"rental_uris":{"android":"levelo://app?vid=fe343dc0-883c-41b8-8795-a9cdb3d5231e","ios":"levelo://app?vid=fe343dc0-883c-41b8-8795-a9cdb3d5231e"},"vehicle_type_id":"4","last_reported":1728767301,"current_range_meters":36800,"station_id":"ce4bgih2rcd13ifvqba0","pricing_plan_id":"cebpf4jnsgd1na2vs0mg"},{"bike_id":"bc0f52d5-4b8d-4288-a3f2-8a743f110fe6","system_id":"levelo_inurba_marseille","lat":43.26574,"lon":5.39019,"is_reserved":false,"is_disabled":false,"rental_uris":{"android":"levelo://app?vid=bc0f52d5-4b8d-4288-a3f2-8a743f110fe6","ios":"levelo://app?vid=bc0f52d5-4b8d-4288-a3f2-8a743f110fe6"},"vehicle_type_id":"4","last_reported":1728767301,"current_range_meters":12400,"station_id":"ce4bhe12rcd13ifvqf30","pricing_plan_id":"cebpf4jnsgd1na2vs0mg"},{"bike_id":"11d2acba-9213-43b7-bee9-c635a3c3b21c","system_id":"levelo_inurba_marseille","lat":43.26552,"lon":5.37288,"is_reserved":false,"is_disabled":false,"rental_uris":{"android":"levelo://app?vid=11d2acba-9213-43b7-bee9-c635a3c3b21c","ios":"levelo://app?vid=11d2acba-9213-43b7-bee9-c635a3c3b21c"},"vehicle_type_id":"4","last_reported":1728767301,"current_range_meters":38400,"station_id":"ce4bhg12rcd13ifvqf70","pricing_plan_id":"cebpf4jnsgd1na2vs0mg"},{"bike_id":"683f70bb-8ede-4516-a8a4-3219da6c61b4","system_id":"levelo_inurba_marseille","lat":43.3112,"lon":5.37772,"is_reserved":false,"is_disabled":false,"rental_uris":{"android":"levelo://app?vid=683f70bb-8ede-4516-a8a4-3219da6c61b4","ios":"levelo://app?vid=683f70bb-8ede-4516-a8a4-3219da6c61b4"},"vehicle_type_id":"4","last_reported":1728767301,"current_range_meters":38000,"station_id":"ce4bgt92rcd13ifvqcg0","pricing_plan_id":"cebpf4jnsgd1na2vs0mg"},{"bike_id":"9cd1c00e-9717-4f9c-a899-ee6ab5836a94","system_id":"levelo_inurba_marseille","lat":43.28614,"lon":5.35101,"is_reserved":false,"is_disabled":false,"rental_uris":{"android":"levelo://app?vid=9cd1c00e-9717-4f9c-a899-ee6ab5836a94","ios":"levelo://app?vid=9cd1c00e-9717-4f9c-a899-ee6ab5836a94"},"vehicle_type_id":"4","last_reported":1728767301,"current_range_meters":24800,"station_id":"ce4bhch2rcd13ifvqeug","pricing_plan_id":"cebpf4jnsgd1na2vs0mg"},{"bike_id":"572a2b4c-b377-47e2-9a1d-46cf2a89a42b","system_id":"levelo_inurba_marseille","lat":43.283997,"lon":5.375242,"is_reserved":false,"is_disabled":false,"rental_uris":{"android":"levelo://app?vid=572a2b4c-b377-47e2-9a1d-46cf2a89a42b","ios":"levelo://app?vid=572a2b4c-b377-47e2-9a1d-46cf2a89a42b"},"vehicle_type_id":"4","last_reported":1728767301,"current_range_meters":31200,"station_id":"ce4bh412rcd13ifvqds0","pricing_plan_id":"cebpf4jnsgd1na2vs0mg"},{"bike_id":"a751214b-619f-4483-a2f5-200322f27979","system_id":"levelo_inurba_marseille","lat":43.29841,"lon":5.36266,"is_reserved":false,"is_disabled":false,"rental_uris":{"android":"levelo://app?vid=a751214b-619f-4483-a2f5-200322f27979","ios":"levelo://app?vid=a751214b-619f-4483-a2f5-200322f27979"},"vehicle_type_id":"4","last_reported":1728767301,"current_range_meters":14800,"station_id":"ce4bgpp2rcd13ifvqc3g","pricing_plan_id":"cebpf4jnsgd1na2vs0mg"},{"bike_id":"cec1e807-225d-4073-b5be-e6b643c96f31","system_id":"levelo_inurba_marseille","lat":43.25,"lon":5.38926,"is_reserved":false,"is_disabled":false,"rental_uris":{"android":"levelo://app?vid=cec1e807-225d-4073-b5be-e6b643c96f31","ios":"levelo://app?vid=cec1e807-225d-4073-b5be-e6b643c96f31"},"vehicle_type_id":"4","last_reported":1728767301,"current_range_meters":18000,"station_id":"ce4bhgp2rcd13ifvqfd0","pricing_plan_id":"cebpf4jnsgd1na2vs0mg"},{"bike_id":"7192b706-cb4e-4cee-90e9-9e93e065a345","system_id":"levelo_inurba_marseille","lat":43.27568,"lon":5.38435,"is_reserved":false,"is_disabled":false,"rental_uris":{"android":"levelo://app?vid=7192b706-cb4e-4cee-90e9-9e93e065a345","ios":"levelo://app?vid=7192b706-cb4e-4cee-90e9-9e93e065a345"},"vehicle_type_id":"4","last_reported":1728767301,"current_range_meters":26000,"station_id":"ce4bhh92rcd13ifvqfi0","pricing_plan_id":"cebpf4jnsgd1na2vs0mg"},{"bike_id":"b550d9a5-6d28-4849-919d-9ff3eacbcff1","system_id":"levelo_inurba_marseille","lat":43.31704,"lon":5.37761,"is_reserved":false,"is_disabled":false,"rental_uris":{"android":"levelo://app?vid=b550d9a5-6d28-4849-919d-9ff3eacbcff1","ios":"levelo://app?vid=b550d9a5-6d28-4849-919d-9ff3eacbcff1"},"vehicle_type_id":"4","last_reported":1728767301,"current_range_meters":26800,"station_id":"ce4bgth2rcd13ifvqch0","pricing_plan_id":"cebpf4jnsgd1na2vs0mg"},{"bike_id":"8a563887-6b06-45d7-80d2-0ebbd75385e8","system_id":"levelo_inurba_marseille","lat":43.31494,"lon":5.373,"is_reserved":false,"is_disabled":false,"rental_uris":{"android":"levelo://app?vid=8a563887-6b06-45d7-80d2-0ebbd75385e8","ios":"levelo://app?vid=8a563887-6b06-45d7-80d2-0ebbd75385e8"},"vehicle_type_id":"4","last_reported":1728767301,"current_range_meters":20400,"station_id":"ce4bgt12rcd13ifvqcd0","pricing_plan_id":"cebpf4jnsgd1na2vs0mg"},{"bike_id":"da9b31ee-43b4-4389-85de-211de3ba1c9a","system_id":"levelo_inurba_marseille","lat":43.24649,"lon":5.38891,"is_reserved":false,"is_disabled":false,"rental_uris":{"android":"levelo://app?vid=da9b31ee-43b4-4389-85de-211de3ba1c9a","ios":"levelo://app?vid=da9b31ee-43b4-4389-85de-211de3ba1c9a"},"vehicle_type_id":"4","last_reported":1728767301,"current_range_meters":27200,"station_id":"ce4bhg12rcd13ifvqf60","pricing_plan_id":"cebpf4jnsgd1na2vs0mg"},{"bike_id":"db5bc5ae-6bd4-4578-b248-795b698b8487","system_id":"levelo_inurba_marseille","lat":43.31074,"lon":5.38354,"is_reserved":false,"is_disabled":false,"rental_uris":{"android":"levelo://app?vid=db5bc5ae-6bd4-4578-b248-795b698b8487","ios":"levelo://app?vid=db5bc5ae-6bd4-4578-b248-795b698b8487"},"vehicle_type_id":"4","last_reported":1728767301,"current_range_meters":19600,"station_id":"ce4bgv92rcd13ifvqcr0","pricing_plan_id":"cebpf4jnsgd1na2vs0mg"},{"bike_id":"baf8ed53-e2c2-4ad3-aaa7-cc53b8bdc41d","system_id":"levelo_inurba_marseille","lat":43.30927,"lon":5.40149,"is_reserved":false,"is_disabled":false,"rental_uris":{"android":"levelo://app?vid=baf8ed53-e2c2-4ad3-aaa7-cc53b8bdc41d","ios":"levelo://app?vid=baf8ed53-e2c2-4ad3-aaa7-cc53b8bdc41d"},"vehicle_type_id":"4","last_reported":1728767301,"current_range_meters":30000,"station_id":"ce4bgvp2rcd13ifvqct0","pricing_plan_id":"cebpf4jnsgd1na2vs0mg"},{"bike_id":"3545951b-894d-4495-afdf-84cb7b3b25b3","system_id":"levelo_inurba_marseille","lat":43.23204,"lon":5.35555,"is_reserved":false,"is_disabled":false,"rental_uris":{"android":"levelo://app?vid=3545951b-894d-4495-afdf-84cb7b3b25b3","ios":"levelo://app?vid=3545951b-894d-4495-afdf-84cb7b3b25b3"},"vehicle_type_id":"4","last_reported":1728767301,"current_range_meters":33200,"station_id":"ce4bhu92rcd13ifvqi70","pricing_plan_id":"cebpf4jnsgd1na2vs0mg"},{"bike_id":"94b5b3e5-1466-4cd8-b5b3-d5cbebabce80","system_id":"levelo_inurba_marseille","lat":43.23965,"lon":5.36632,"is_reserved":false,"is_disabled":false,"rental_uris":{"android":"levelo://app?vid=94b5b3e5-1466-4cd8-b5b3-d5cbebabce80","ios":"levelo://app?vid=94b5b3e5-1466-4cd8-b5b3-d5cbebabce80"},"vehicle_type_id":"4","last_reported":1728767301,"current_range_meters":10000,"station_id":"ce4bhi12rcd13ifvqfp0","pricing_plan_id":"cebpf4jnsgd1na2vs0mg"},{"bike_id":"1e0ba4c2-c2b3-495c-b6a3-283edf3c2c86","system_id":"levelo_inurba_marseille","lat":43.3107,"lon":5.38352,"is_reserved":false,"is_disabled":false,"rental_uris":{"android":"levelo://app?vid=1e0ba4c2-c2b3-495c-b6a3-283edf3c2c86","ios":"levelo://app?vid=1e0ba4c2-c2b3-495c-b6a3-283edf3c2c86"},"vehicle_type_id":"4","last_reported":1728767301,"current_range_meters":24800,"station_id":"ce4bgv92rcd13ifvqcr0","pricing_plan_id":"cebpf4jnsgd1na2vs0mg"},{"bike_id":"6e86af6b-7805-47df-8017-4b4f14ccb8fc","system_id":"levelo_inurba_marseille","lat":43.2941,"lon":5.38624,"is_reserved":false,"is_disabled":false,"rental_uris":{"android":"levelo://app?vid=6e86af6b-7805-47df-8017-4b4f14ccb8fc","ios":"levelo://app?vid=6e86af6b-7805-47df-8017-4b4f14ccb8fc"},"vehicle_type_id":"4","last_reported":1728767301,"current_range_meters":38400,"station_id":"ce4bh2h2rcd13ifvqdh0","pricing_plan_id":"cebpf4jnsgd1na2vs0mg"},{"bike_id":"f78f0412-ee71-4a24-82a9-83d0770be959","system_id":"levelo_inurba_marseille","lat":43.28376,"lon":5.38634,"is_reserved":false,"is_disabled":false,"rental_uris":{"android":"levelo://app?vid=f78f0412-ee71-4a24-82a9-83d0770be959","ios":"levelo://app?vid=f78f0412-ee71-4a24-82a9-83d0770be959"},"vehicle_type_id":"4","last_reported":1728767301,"current_range_meters":27600,"station_id":"ce4bh492rcd13ifvqdvg","pricing_plan_id":"cebpf4jnsgd1na2vs0mg"},{"bike_id":"a0fe4a5d-7b08-4cc3-aba2-6979791d31cc","system_id":"levelo_inurba_marseille","lat":43.29629,"lon":5.40586,"is_reserved":false,"is_disabled":false,"rental_uris":{"android":"levelo://app?vid=a0fe4a5d-7b08-4cc3-aba2-6979791d31cc","ios":"levelo://app?vid=a0fe4a5d-7b08-4cc3-aba2-6979791d31cc"},"vehicle_type_id":"4","last_reported":1728767301,"current_range_meters":38400,"station_id":"ce4bh0h2rcd13ifvqd60","pricing_plan_id":"cebpf4jnsgd1na2vs0mg"},{"bike_id":"c81d98de-c1b6-4fcd-a0b0-e720900873bc","system_id":"levelo_inurba_marseille","lat":43.24807,"lon":5.37458,"is_reserved":false,"is_disabled":false,"rental_uris":{"android":"levelo://app?vid=c81d98de-c1b6-4fcd-a0b0-e720900873bc","ios":"levelo://app?vid=c81d98de-c1b6-4fcd-a0b0-e720900873bc"},"vehicle_type_id":"4","last_reported":1728767301,"current_range_meters":13600,"station_id":"ce4bhgh2rcd13ifvqfb0","pricing_plan_id":"cebpf4jnsgd1na2vs0mg"},{"bike_id":"2e4332d3-2239-45a2-8c0f-08f6cf4189b8","system_id":"levelo_inurba_marseille","lat":43.28702,"lon":5.37382,"is_reserved":false,"is_disabled":false,"rental_uris":{"android":"levelo://app?vid=2e4332d3-2239-45a2-8c0f-08f6cf4189b8","ios":"levelo://app?vid=2e4332d3-2239-45a2-8c0f-08f6cf4189b8"},"vehicle_type_id":"4","last_reported":1728767301,"current_range_meters":11200,"station_id":"ce4bh3p2rcd13ifvqdq0","pricing_plan_id":"cebpf4jnsgd1na2vs0mg"},{"bike_id":"e4e9b283-224d-49c9-82f1-f06c1d0b0864","system_id":"levelo_inurba_marseille","lat":43.251178,"lon":5.40328,"is_reserved":false,"is_disabled":false,"rental_uris":{"android":"levelo://app?vid=e4e9b283-224d-49c9-82f1-f06c1d0b0864","ios":"levelo://app?vid=e4e9b283-224d-49c9-82f1-f06c1d0b0864"},"vehicle_type_id":"4","last_reported":1728767301,"current_range_meters":20800,"station_id":"ce4bhlh2rcd13ifvqgig","pricing_plan_id":"cebpf4jnsgd1na2vs0mg"},{"bike_id":"37936ffb-1580-4336-a59c-f1ad23d7351d","system_id":"levelo_inurba_marseille","lat":43.24805,"lon":5.37452,"is_reserved":false,"is_disabled":false,"rental_uris":{"android":"levelo://app?vid=37936ffb-1580-4336-a59c-f1ad23d7351d","ios":"levelo://app?vid=37936ffb-1580-4336-a59c-f1ad23d7351d"},"vehicle_type_id":"4","last_reported":1728767301,"current_range_meters":33600,"station_id":"ce4bhgh2rcd13ifvqfb0","pricing_plan_id":"cebpf4jnsgd1na2vs0mg"},{"bike_id":"25ed2710-8c35-44e6-81fd-8fc7cf6b54a8","system_id":"levelo_inurba_marseille","lat":43.274948,"lon":5.424466,"is_reserved":false,"is_disabled":false,"rental_uris":{"android":"levelo://app?vid=25ed2710-8c35-44e6-81fd-8fc7cf6b54a8","ios":"levelo://app?vid=25ed2710-8c35-44e6-81fd-8fc7cf6b54a8"},"vehicle_type_id":"4","last_reported":1728767301,"current_range_meters":24400,"station_id":"ce4bhn92rcd13ifvqgrg","pricing_plan_id":"cebpf4jnsgd1na2vs0mg"},{"bike_id":"d19606bd-d60f-48b9-800d-392237277cb7","system_id":"levelo_inurba_marseille","lat":43.2908,"lon":5.37174,"is_reserved":false,"is_disabled":false,"rental_uris":{"android":"levelo://app?vid=d19606bd-d60f-48b9-800d-392237277cb7","ios":"levelo://app?vid=d19606bd-d60f-48b9-800d-392237277cb7"},"vehicle_type_id":"4","last_reported":1728767301,"current_range_meters":38800,"station_id":"ce4bh5p2rcd13ifvqe4g","pricing_plan_id":"cebpf4jnsgd1na2vs0mg"},{"bike_id":"38439ac3-de96-4b4b-89e8-7a74e5b188d2","system_id":"levelo_inurba_marseille","lat":43.29423,"lon":5.38629,"is_reserved":false,"is_disabled":false,"rental_uris":{"android":"levelo://app?vid=38439ac3-de96-4b4b-89e8-7a74e5b188d2","ios":"levelo://app?vid=38439ac3-de96-4b4b-89e8-7a74e5b188d2"},"vehicle_type_id":"4","last_reported":1728767301,"current_range_meters":38800,"station_id":"ce4bh2h2rcd13ifvqdh0","pricing_plan_id":"cebpf4jnsgd1na2vs0mg"},{"bike_id":"b614e227-aeb6-4793-9ea9-498a76e0384d","system_id":"levelo_inurba_marseille","lat":43.29028,"lon":5.38627,"is_reserved":false,"is_disabled":false,"rental_uris":{"android":"levelo://app?vid=b614e227-aeb6-4793-9ea9-498a76e0384d","ios":"levelo://app?vid=b614e227-aeb6-4793-9ea9-498a76e0384d"},"vehicle_type_id":"4","last_reported":1728767301,"current_range_meters":38800,"station_id":"ce4bh4p2rcd13ifvqe0g","pricing_plan_id":"cebpf4jnsgd1na2vs0mg"},{"bike_id":"2114f7ff-483e-4059-9d88-4aa497a89314","system_id":"levelo_inurba_marseille","lat":43.25094,"lon":5.39523,"is_reserved":false,"is_disabled":false,"rental_uris":{"android":"levelo://app?vid=2114f7ff-483e-4059-9d88-4aa497a89314","ios":"levelo://app?vid=2114f7ff-483e-4059-9d88-4aa497a89314"},"vehicle_type_id":"4","last_reported":1728767301,"current_range_meters":16000,"station_id":"ce4bhm12rcd13ifvqgkg","pricing_plan_id":"cebpf4jnsgd1na2vs0mg"},{"bike_id":"ee789adc-9b88-48d2-8524-82153746a61e","system_id":"levelo_inurba_marseille","lat":43.28701,"lon":5.37384,"is_reserved":false,"is_disabled":false,"rental_uris":{"android":"levelo://app?vid=ee789adc-9b88-48d2-8524-82153746a61e","ios":"levelo://app?vid=ee789adc-9b88-48d2-8524-82153746a61e"},"vehicle_type_id":"4","last_reported":1728767301,"current_range_meters":38800,"station_id":"ce4bh3p2rcd13ifvqdq0","pricing_plan_id":"cebpf4jnsgd1na2vs0mg"},{"bike_id":"252cdcdf-aa5e-4041-b08e-25e35421dd4a","system_id":"levelo_inurba_marseille","lat":43.29852,"lon":5.36273,"is_reserved":false,"is_disabled":false,"rental_uris":{"android":"levelo://app?vid=252cdcdf-aa5e-4041-b08e-25e35421dd4a","ios":"levelo://app?vid=252cdcdf-aa5e-4041-b08e-25e35421dd4a"},"vehicle_type_id":"4","last_reported":1728767301,"current_range_meters":38800,"station_id":"ce4bgpp2rcd13ifvqc3g","pricing_plan_id":"cebpf4jnsgd1na2vs0mg"},{"bike_id":"91c2678c-d7e5-4224-9b86-fc57a621b990","system_id":"levelo_inurba_marseille","lat":43.24808,"lon":5.37457,"is_reserved":false,"is_disabled":false,"rental_uris":{"android":"levelo://app?vid=91c2678c-d7e5-4224-9b86-fc57a621b990","ios":"levelo://app?vid=91c2678c-d7e5-4224-9b86-fc57a621b990"},"vehicle_type_id":"4","last_reported":1728767301,"current_range_meters":17200,"station_id":"ce4bhgh2rcd13ifvqfb0","pricing_plan_id":"cebpf4jnsgd1na2vs0mg"},{"bike_id":"0773638a-4c32-4c69-ba2f-fd7b2ceae4a0","system_id":"levelo_inurba_marseille","lat":43.2762,"lon":5.36111,"is_reserved":false,"is_disabled":false,"rental_uris":{"android":"levelo://app?vid=0773638a-4c32-4c69-ba2f-fd7b2ceae4a0","ios":"levelo://app?vid=0773638a-4c32-4c69-ba2f-fd7b2ceae4a0"},"vehicle_type_id":"4","last_reported":1728767301,"current_range_meters":2000,"station_id":"ce4bgj92rcd13ifvqbe0","pricing_plan_id":"cebpf4jnsgd1na2vs0mg"},{"bike_id":"0e93c01b-9e71-4227-9295-5a4a2f7a0689","system_id":"levelo_inurba_marseille","lat":43.32667,"lon":5.40991,"is_reserved":false,"is_disabled":false,"rental_uris":{"android":"levelo://app?vid=0e93c01b-9e71-4227-9295-5a4a2f7a0689","ios":"levelo://app?vid=0e93c01b-9e71-4227-9295-5a4a2f7a0689"},"vehicle_type_id":"4","last_reported":1728767301,"current_range_meters":29600,"station_id":"ce4bhpp2rcd13ifvqhgg","pricing_plan_id":"cebpf4jnsgd1na2vs0mg"},{"bike_id":"8a7c759e-bec8-4fd9-a13f-5d45080127dc","system_id":"levelo_inurba_marseille","lat":43.29852,"lon":5.36288,"is_reserved":false,"is_disabled":false,"rental_uris":{"android":"levelo://app?vid=8a7c759e-bec8-4fd9-a13f-5d45080127dc","ios":"levelo://app?vid=8a7c759e-bec8-4fd9-a13f-5d45080127dc"},"vehicle_type_id":"4","last_reported":1728767301,"current_range_meters":38800,"station_id":"ce4bgpp2rcd13ifvqc3g","pricing_plan_id":"cebpf4jnsgd1na2vs0mg"},{"bike_id":"12c16baa-fd96-4fd7-b545-6dd516b485e8","system_id":"levelo_inurba_marseille","lat":43.23167,"lon":5.39994,"is_reserved":false,"is_disabled":false,"rental_uris":{"android":"levelo://app?vid=12c16baa-fd96-4fd7-b545-6dd516b485e8","ios":"levelo://app?vid=12c16baa-fd96-4fd7-b545-6dd516b485e8"},"vehicle_type_id":"4","last_reported":1728767301,"current_range_meters":14800,"station_id":"ce4bhn12rcd13ifvqgqg","pricing_plan_id":"cebpf4jnsgd1na2vs0mg"},{"bike_id":"bb241cd0-3e84-4cf0-ab2e-874c4f938eff","system_id":"levelo_inurba_marseille","lat":43.31755,"lon":5.3902,"is_reserved":false,"is_disabled":false,"rental_uris":{"android":"levelo://app?vid=bb241cd0-3e84-4cf0-ab2e-874c4f938eff","ios":"levelo://app?vid=bb241cd0-3e84-4cf0-ab2e-874c4f938eff"},"vehicle_type_id":"4","last_reported":1728767301,"current_range_meters":10000,"station_id":"ce4bhqp2rcd13ifvqhng","pricing_plan_id":"cebpf4jnsgd1na2vs0mg"},{"bike_id":"e3cd8953-9e5a-44ad-a5cd-debf49a539ae","system_id":"levelo_inurba_marseille","lat":43.21256,"lon":5.35448,"is_reserved":false,"is_disabled":false,"rental_uris":{"android":"levelo://app?vid=e3cd8953-9e5a-44ad-a5cd-debf49a539ae","ios":"levelo://app?vid=e3cd8953-9e5a-44ad-a5cd-debf49a539ae"},"vehicle_type_id":"4","last_reported":1728767301,"current_range_meters":24800,"station_id":"","pricing_plan_id":"cebpf4jnsgd1na2vs0mg"},{"bike_id":"47d3d04e-9827-45c2-be83-981d774d4732","system_id":"levelo_inurba_marseille","lat":43.28107,"lon":5.37844,"is_reserved":false,"is_disabled":false,"rental_uris":{"android":"levelo://app?vid=47d3d04e-9827-45c2-be83-981d774d4732","ios":"levelo://app?vid=47d3d04e-9827-45c2-be83-981d774d4732"},"vehicle_type_id":"4","last_reported":1728767301,"current_range_meters":24800,"station_id":"ce4bha12rcd13ifvqee0","pricing_plan_id":"cebpf4jnsgd1na2vs0mg"},{"bike_id":"22242d5d-8f55-41d0-8bce-829526c6514e","system_id":"levelo_inurba_marseille","lat":43.30953,"lon":5.3904,"is_reserved":false,"is_disabled":false,"rental_uris":{"android":"levelo://app?vid=22242d5d-8f55-41d0-8bce-829526c6514e","ios":"levelo://app?vid=22242d5d-8f55-41d0-8bce-829526c6514e"},"vehicle_type_id":"4","last_reported":1728767301,"current_range_meters":24000,"station_id":"ce4bgup2rcd13ifvqco0","pricing_plan_id":"cebpf4jnsgd1na2vs0mg"},{"bike_id":"744d7d46-a030-452d-827a-600610e2a098","system_id":"levelo_inurba_marseille","lat":43.23186,"lon":5.39996,"is_reserved":false,"is_disabled":false,"rental_uris":{"android":"levelo://app?vid=744d7d46-a030-452d-827a-600610e2a098","ios":"levelo://app?vid=744d7d46-a030-452d-827a-600610e2a098"},"vehicle_type_id":"4","last_reported":1728767301,"current_range_meters":36800,"station_id":"ce4bhn12rcd13ifvqgqg","pricing_plan_id":"cebpf4jnsgd1na2vs0mg"},{"bike_id":"98f23933-0743-4813-895e-8d2629e680e6","system_id":"levelo_inurba_marseille","lat":43.27991,"lon":5.41652,"is_reserved":false,"is_disabled":false,"rental_uris":{"android":"levelo://app?vid=98f23933-0743-4813-895e-8d2629e680e6","ios":"levelo://app?vid=98f23933-0743-4813-895e-8d2629e680e6"},"vehicle_type_id":"4","last_reported":1728767301,"current_range_meters":5600,"station_id":"ce4bho12rcd13ifvqh1g","pricing_plan_id":"cebpf4jnsgd1na2vs0mg"},{"bike_id":"fd301c4f-88d0-470b-8444-02e732c4a052","system_id":"levelo_inurba_marseille","lat":43.24977,"lon":5.38094,"is_reserved":false,"is_disabled":false,"rental_uris":{"android":"levelo://app?vid=fd301c4f-88d0-470b-8444-02e732c4a052","ios":"levelo://app?vid=fd301c4f-88d0-470b-8444-02e732c4a052"},"vehicle_type_id":"4","last_reported":1728767301,"current_range_meters":27200,"station_id":"","pricing_plan_id":"cebpf4jnsgd1na2vs0mg"},{"bike_id":"88c7c71d-b561-408b-9073-87f24b859c61","system_id":"levelo_inurba_marseille","lat":43.3148,"lon":5.37308,"is_reserved":false,"is_disabled":false,"rental_uris":{"android":"levelo://app?vid=88c7c71d-b561-408b-9073-87f24b859c61","ios":"levelo://app?vid=88c7c71d-b561-408b-9073-87f24b859c61"},"vehicle_type_id":"4","last_reported":1728767301,"current_range_meters":2800,"station_id":"ce4bgt12rcd13ifvqcd0","pricing_plan_id":"cebpf4jnsgd1na2vs0mg"},{"bike_id":"54887b4f-fee3-474b-abbd-7336ddf1ae33","system_id":"levelo_inurba_marseille","lat":43.31689,"lon":5.40469,"is_reserved":false,"is_disabled":false,"rental_uris":{"android":"levelo://app?vid=54887b4f-fee3-474b-abbd-7336ddf1ae33","ios":"levelo://app?vid=54887b4f-fee3-474b-abbd-7336ddf1ae33"},"vehicle_type_id":"4","last_reported":1728767301,"current_range_meters":18000,"station_id":"ce4bh012rcd13ifvqd00","pricing_plan_id":"cebpf4jnsgd1na2vs0mg"},{"bike_id":"82b1ae91-5e6e-449f-97f5-199f0d9609fc","system_id":"levelo_inurba_marseille","lat":43.29849,"lon":5.36274,"is_reserved":false,"is_disabled":false,"rental_uris":{"android":"levelo://app?vid=82b1ae91-5e6e-449f-97f5-199f0d9609fc","ios":"levelo://app?vid=82b1ae91-5e6e-449f-97f5-199f0d9609fc"},"vehicle_type_id":"4","last_reported":1728767301,"current_range_meters":36400,"station_id":"ce4bgpp2rcd13ifvqc3g","pricing_plan_id":"cebpf4jnsgd1na2vs0mg"},{"bike_id":"1a90ad3a-447a-4014-8cf5-1bb8f629a10e","system_id":"levelo_inurba_marseille","lat":43.29584,"lon":5.36744,"is_reserved":false,"is_disabled":false,"rental_uris":{"android":"levelo://app?vid=1a90ad3a-447a-4014-8cf5-1bb8f629a10e","ios":"levelo://app?vid=1a90ad3a-447a-4014-8cf5-1bb8f629a10e"},"vehicle_type_id":"4","last_reported":1728767301,"current_range_meters":33200,"station_id":"ce4bgph2rcd13ifvqc2g","pricing_plan_id":"cebpf4jnsgd1na2vs0mg"},{"bike_id":"92c1af36-5649-40f5-84ed-a7b062884571","system_id":"levelo_inurba_marseille","lat":43.23964,"lon":5.36639,"is_reserved":false,"is_disabled":false,"rental_uris":{"android":"levelo://app?vid=92c1af36-5649-40f5-84ed-a7b062884571","ios":"levelo://app?vid=92c1af36-5649-40f5-84ed-a7b062884571"},"vehicle_type_id":"4","last_reported":1728767301,"current_range_meters":32400,"station_id":"ce4bhi12rcd13ifvqfp0","pricing_plan_id":"cebpf4jnsgd1na2vs0mg"},{"bike_id":"6cb5b02c-2401-484a-8b7d-b4d2106d6b08","system_id":"levelo_inurba_marseille","lat":43.2319,"lon":5.35557,"is_reserved":false,"is_disabled":false,"rental_uris":{"android":"levelo://app?vid=6cb5b02c-2401-484a-8b7d-b4d2106d6b08","ios":"levelo://app?vid=6cb5b02c-2401-484a-8b7d-b4d2106d6b08"},"vehicle_type_id":"4","last_reported":1728767301,"current_range_meters":30400,"station_id":"ce4bhu92rcd13ifvqi70","pricing_plan_id":"cebpf4jnsgd1na2vs0mg"},{"bike_id":"ea203679-8246-41bb-bc64-80edd7e095b0","system_id":"levelo_inurba_marseille","lat":43.3302,"lon":5.39043,"is_reserved":false,"is_disabled":false,"rental_uris":{"android":"levelo://app?vid=ea203679-8246-41bb-bc64-80edd7e095b0","ios":"levelo://app?vid=ea203679-8246-41bb-bc64-80edd7e095b0"},"vehicle_type_id":"4","last_reported":1728767301,"current_range_meters":20000,"station_id":"ce4bhr92rcd13ifvqhrg","pricing_plan_id":"cebpf4jnsgd1na2vs0mg"},{"bike_id":"f7dd1dc7-fa4b-4758-aac5-4419d54d56ad","system_id":"levelo_inurba_marseille","lat":43.31755,"lon":5.39016,"is_reserved":false,"is_disabled":false,"rental_uris":{"android":"levelo://app?vid=f7dd1dc7-fa4b-4758-aac5-4419d54d56ad","ios":"levelo://app?vid=f7dd1dc7-fa4b-4758-aac5-4419d54d56ad"},"vehicle_type_id":"4","last_reported":1728767301,"current_range_meters":38800,"station_id":"ce4bhqp2rcd13ifvqhng","pricing_plan_id":"cebpf4jnsgd1na2vs0mg"},{"bike_id":"9133e9d0-57a7-4dcd-909d-d0f53d3147a5","system_id":"levelo_inurba_marseille","lat":43.28613,"lon":5.35106,"is_reserved":false,"is_disabled":false,"rental_uris":{"android":"levelo://app?vid=9133e9d0-57a7-4dcd-909d-d0f53d3147a5","ios":"levelo://app?vid=9133e9d0-57a7-4dcd-909d-d0f53d3147a5"},"vehicle_type_id":"4","last_reported":1728767301,"current_range_meters":25600,"station_id":"ce4bhch2rcd13ifvqeug","pricing_plan_id":"cebpf4jnsgd1na2vs0mg"},{"bike_id":"2afd9ac5-2b20-4ec9-bfd7-743d53ab9437","system_id":"levelo_inurba_marseille","lat":43.29611,"lon":5.37723,"is_reserved":false,"is_disabled":false,"rental_uris":{"android":"levelo://app?vid=2afd9ac5-2b20-4ec9-bfd7-743d53ab9437","ios":"levelo://app?vid=2afd9ac5-2b20-4ec9-bfd7-743d53ab9437"},"vehicle_type_id":"4","last_reported":1728767301,"current_range_meters":17200,"station_id":"ce4bgi92rcd13ifvqb90","pricing_plan_id":"cebpf4jnsgd1na2vs0mg"},{"bike_id":"722f38b4-43d3-4d62-993a-aba6e907d3eb","system_id":"levelo_inurba_marseille","lat":43.29852,"lon":5.36283,"is_reserved":false,"is_disabled":false,"rental_uris":{"android":"levelo://app?vid=722f38b4-43d3-4d62-993a-aba6e907d3eb","ios":"levelo://app?vid=722f38b4-43d3-4d62-993a-aba6e907d3eb"},"vehicle_type_id":"4","last_reported":1728767301,"current_range_meters":36800,"station_id":"ce4bgpp2rcd13ifvqc3g","pricing_plan_id":"cebpf4jnsgd1na2vs0mg"},{"bike_id":"a8bdbf8d-b15f-49e7-ab22-db3b431ba59d","system_id":"levelo_inurba_marseille","lat":43.27073,"lon":5.42277,"is_reserved":false,"is_disabled":false,"rental_uris":{"android":"levelo://app?vid=a8bdbf8d-b15f-49e7-ab22-db3b431ba59d","ios":"levelo://app?vid=a8bdbf8d-b15f-49e7-ab22-db3b431ba59d"},"vehicle_type_id":"4","last_reported":1728767301,"current_range_meters":38400,"station_id":"ce4bhk92rcd13ifvqgb0","pricing_plan_id":"cebpf4jnsgd1na2vs0mg"},{"bike_id":"95469d92-fa90-42db-ab6c-da17e51905da","system_id":"levelo_inurba_marseille","lat":43.34143,"lon":5.40894,"is_reserved":false,"is_disabled":false,"rental_uris":{"android":"levelo://app?vid=95469d92-fa90-42db-ab6c-da17e51905da","ios":"levelo://app?vid=95469d92-fa90-42db-ab6c-da17e51905da"},"vehicle_type_id":"4","last_reported":1728767301,"current_range_meters":38800,"station_id":"ce4bhqh2rcd13ifvqhlg","pricing_plan_id":"cebpf4jnsgd1na2vs0mg"},{"bike_id":"27af1939-5647-4a83-ba32-3d9e6b92ddd3","system_id":"levelo_inurba_marseille","lat":43.29226,"lon":5.36074,"is_reserved":false,"is_disabled":false,"rental_uris":{"android":"levelo://app?vid=27af1939-5647-4a83-ba32-3d9e6b92ddd3","ios":"levelo://app?vid=27af1939-5647-4a83-ba32-3d9e6b92ddd3"},"vehicle_type_id":"4","last_reported":1728767301,"current_range_meters":22000,"station_id":"ce4bhbh2rcd13ifvqeqg","pricing_plan_id":"cebpf4jnsgd1na2vs0mg"},{"bike_id":"9918290f-2b14-46fa-b63a-39827b599a5a","system_id":"levelo_inurba_marseille","lat":43.2873,"lon":5.37936,"is_reserved":false,"is_disabled":false,"rental_uris":{"android":"levelo://app?vid=9918290f-2b14-46fa-b63a-39827b599a5a","ios":"levelo://app?vid=9918290f-2b14-46fa-b63a-39827b599a5a"},"vehicle_type_id":"4","last_reported":1728767301,"current_range_meters":37600,"station_id":"ce4bh9p2rcd13ifvqec0","pricing_plan_id":"cebpf4jnsgd1na2vs0mg"},{"bike_id":"9f83e5ce-da23-425f-a4a3-58fab8fd16c2","system_id":"levelo_inurba_marseille","lat":43.28915,"lon":5.384,"is_reserved":false,"is_disabled":false,"rental_uris":{"android":"levelo://app?vid=9f83e5ce-da23-425f-a4a3-58fab8fd16c2","ios":"levelo://app?vid=9f83e5ce-da23-425f-a4a3-58fab8fd16c2"},"vehicle_type_id":"4","last_reported":1728767301,"current_range_meters":20000,"station_id":"ce4bh612rcd13ifvqe6g","pricing_plan_id":"cebpf4jnsgd1na2vs0mg"},{"bike_id":"5aca8d9b-b732-4976-a6ba-22d4ca815f0d","system_id":"levelo_inurba_marseille","lat":43.30608,"lon":5.37245,"is_reserved":false,"is_disabled":false,"rental_uris":{"android":"levelo://app?vid=5aca8d9b-b732-4976-a6ba-22d4ca815f0d","ios":"levelo://app?vid=5aca8d9b-b732-4976-a6ba-22d4ca815f0d"},"vehicle_type_id":"4","last_reported":1728767301,"current_range_meters":19200,"station_id":"ce4bgqh2rcd13ifvqc4g","pricing_plan_id":"cebpf4jnsgd1na2vs0mg"},{"bike_id":"dec436c1-d01a-4e4e-a66d-a687a7901d68","system_id":"levelo_inurba_marseille","lat":43.25108,"lon":5.40321,"is_reserved":false,"is_disabled":false,"rental_uris":{"android":"levelo://app?vid=dec436c1-d01a-4e4e-a66d-a687a7901d68","ios":"levelo://app?vid=dec436c1-d01a-4e4e-a66d-a687a7901d68"},"vehicle_type_id":"4","last_reported":1728767301,"current_range_meters":38400,"station_id":"ce4bhlh2rcd13ifvqgig","pricing_plan_id":"cebpf4jnsgd1na2vs0mg"},{"bike_id":"24174b17-9a1a-42fc-b28d-ccdf79ae4c31","system_id":"levelo_inurba_marseille","lat":43.28154,"lon":5.42641,"is_reserved":false,"is_disabled":false,"rental_uris":{"android":"levelo://app?vid=24174b17-9a1a-42fc-b28d-ccdf79ae4c31","ios":"levelo://app?vid=24174b17-9a1a-42fc-b28d-ccdf79ae4c31"},"vehicle_type_id":"4","last_reported":1728767301,"current_range_meters":16000,"station_id":"ce4bhnh2rcd13ifvqgug","pricing_plan_id":"cebpf4jnsgd1na2vs0mg"},{"bike_id":"accb871e-a6d6-4416-b0e7-cca548384eeb","system_id":"levelo_inurba_marseille","lat":43.26552,"lon":5.37294,"is_reserved":false,"is_disabled":false,"rental_uris":{"android":"levelo://app?vid=accb871e-a6d6-4416-b0e7-cca548384eeb","ios":"levelo://app?vid=accb871e-a6d6-4416-b0e7-cca548384eeb"},"vehicle_type_id":"4","last_reported":1728767301,"current_range_meters":36400,"station_id":"ce4bhg12rcd13ifvqf70","pricing_plan_id":"cebpf4jnsgd1na2vs0mg"},{"bike_id":"3007dc77-68fe-48f0-9c9f-7319b5e9fc9b","system_id":"levelo_inurba_marseille","lat":43.28268,"lon":5.35073,"is_reserved":false,"is_disabled":false,"rental_uris":{"android":"levelo://app?vid=3007dc77-68fe-48f0-9c9f-7319b5e9fc9b","ios":"levelo://app?vid=3007dc77-68fe-48f0-9c9f-7319b5e9fc9b"},"vehicle_type_id":"4","last_reported":1728767301,"current_range_meters":19600,"station_id":"ce4bhbp2rcd13ifvqerg","pricing_plan_id":"cebpf4jnsgd1na2vs0mg"},{"bike_id":"0e53d81f-fe6d-4ca2-a820-6acfe30ee6ab","system_id":"levelo_inurba_marseille","lat":43.32659,"lon":5.40994,"is_reserved":false,"is_disabled":false,"rental_uris":{"android":"levelo://app?vid=0e53d81f-fe6d-4ca2-a820-6acfe30ee6ab","ios":"levelo://app?vid=0e53d81f-fe6d-4ca2-a820-6acfe30ee6ab"},"vehicle_type_id":"4","last_reported":1728767301,"current_range_meters":8800,"station_id":"ce4bhpp2rcd13ifvqhgg","pricing_plan_id":"cebpf4jnsgd1na2vs0mg"},{"bike_id":"f463bffd-395b-45c4-87b1-620a763388ae","system_id":"levelo_inurba_marseille","lat":43.25852,"lon":5.39904,"is_reserved":false,"is_disabled":false,"rental_uris":{"android":"levelo://app?vid=f463bffd-395b-45c4-87b1-620a763388ae","ios":"levelo://app?vid=f463bffd-395b-45c4-87b1-620a763388ae"},"vehicle_type_id":"4","last_reported":1728767301,"current_range_meters":35600,"station_id":"ce4bhl92rcd13ifvqghg","pricing_plan_id":"cebpf4jnsgd1na2vs0mg"},{"bike_id":"a4458590-2211-4195-a51c-b41dba258ed5","system_id":"levelo_inurba_marseille","lat":43.30642,"lon":5.40076,"is_reserved":false,"is_disabled":false,"rental_uris":{"android":"levelo://app?vid=a4458590-2211-4195-a51c-b41dba258ed5","ios":"levelo://app?vid=a4458590-2211-4195-a51c-b41dba258ed5"},"vehicle_type_id":"4","last_reported":1728767301,"current_range_meters":24800,"station_id":"ce4bh112rcd13ifvqda0","pricing_plan_id":"cebpf4jnsgd1na2vs0mg"},{"bike_id":"48ec983a-9fa7-4a67-ad9f-7172ae3d130d","system_id":"levelo_inurba_marseille","lat":43.2962,"lon":5.37175,"is_reserved":false,"is_disabled":false,"rental_uris":{"android":"levelo://app?vid=48ec983a-9fa7-4a67-ad9f-7172ae3d130d","ios":"levelo://app?vid=48ec983a-9fa7-4a67-ad9f-7172ae3d130d"},"vehicle_type_id":"4","last_reported":1728767301,"current_range_meters":35600,"station_id":"ce4bgnh2rcd13ifvqc0g","pricing_plan_id":"cebpf4jnsgd1na2vs0mg"},{"bike_id":"25e59862-8a09-482d-b3a5-7138deb4afc5","system_id":"levelo_inurba_marseille","lat":43.2306,"lon":5.35493,"is_reserved":false,"is_disabled":false,"rental_uris":{"android":"levelo://app?vid=25e59862-8a09-482d-b3a5-7138deb4afc5","ios":"levelo://app?vid=25e59862-8a09-482d-b3a5-7138deb4afc5"},"vehicle_type_id":"4","last_reported":1728767301,"current_range_meters":8400,"station_id":"cpo3342slgdg3j2ifvpg","pricing_plan_id":"cebpf4jnsgd1na2vs0mg"},{"bike_id":"40b26f46-6cfc-4a53-aa0e-2f842fddc308","system_id":"levelo_inurba_marseille","lat":43.30906,"lon":5.36845,"is_reserved":false,"is_disabled":false,"rental_uris":{"android":"levelo://app?vid=40b26f46-6cfc-4a53-aa0e-2f842fddc308","ios":"levelo://app?vid=40b26f46-6cfc-4a53-aa0e-2f842fddc308"},"vehicle_type_id":"4","last_reported":1728767301,"current_range_meters":10000,"station_id":"ce4bgn92rcd13ifvqbvg","pricing_plan_id":"cebpf4jnsgd1na2vs0mg"},{"bike_id":"b933402b-d1ca-49a8-bbf7-fb19281d941c","system_id":"levelo_inurba_marseille","lat":43.2319,"lon":5.35558,"is_reserved":false,"is_disabled":false,"rental_uris":{"android":"levelo://app?vid=b933402b-d1ca-49a8-bbf7-fb19281d941c","ios":"levelo://app?vid=b933402b-d1ca-49a8-bbf7-fb19281d941c"},"vehicle_type_id":"4","last_reported":1728767301,"current_range_meters":19200,"station_id":"ce4bhu92rcd13ifvqi70","pricing_plan_id":"cebpf4jnsgd1na2vs0mg"},{"bike_id":"1282fdea-34d4-43e0-b31c-86a3e15b6777","system_id":"levelo_inurba_marseille","lat":43.30182,"lon":5.36619,"is_reserved":false,"is_disabled":false,"rental_uris":{"android":"levelo://app?vid=1282fdea-34d4-43e0-b31c-86a3e15b6777","ios":"levelo://app?vid=1282fdea-34d4-43e0-b31c-86a3e15b6777"},"vehicle_type_id":"4","last_reported":1728767301,"current_range_meters":18800,"station_id":"ce4bgrh2rcd13ifvqc8g","pricing_plan_id":"cebpf4jnsgd1na2vs0mg"},{"bike_id":"d751b74f-afbb-4075-ac46-9547555eee0f","system_id":"levelo_inurba_marseille","lat":43.32369,"lon":5.38883,"is_reserved":false,"is_disabled":false,"rental_uris":{"android":"levelo://app?vid=d751b74f-afbb-4075-ac46-9547555eee0f","ios":"levelo://app?vid=d751b74f-afbb-4075-ac46-9547555eee0f"},"vehicle_type_id":"4","last_reported":1728767301,"current_range_meters":19200,"station_id":"ce4bhqp2rcd13ifvqhog","pricing_plan_id":"cebpf4jnsgd1na2vs0mg"},{"bike_id":"262ad37d-8ad8-447a-9929-14549db2fbc3","system_id":"levelo_inurba_marseille","lat":43.3054,"lon":5.38428,"is_reserved":false,"is_disabled":false,"rental_uris":{"android":"levelo://app?vid=262ad37d-8ad8-447a-9929-14549db2fbc3","ios":"levelo://app?vid=262ad37d-8ad8-447a-9929-14549db2fbc3"},"vehicle_type_id":"4","last_reported":1728767301,"current_range_meters":38000,"station_id":"ce4bgg92rcd13ifvqb30","pricing_plan_id":"cebpf4jnsgd1na2vs0mg"},{"bike_id":"51f915da-9be3-478d-a119-dc331c6cf5fd","system_id":"levelo_inurba_marseille","lat":43.30136,"lon":5.37417,"is_reserved":false,"is_disabled":false,"rental_uris":{"android":"levelo://app?vid=51f915da-9be3-478d-a119-dc331c6cf5fd","ios":"levelo://app?vid=51f915da-9be3-478d-a119-dc331c6cf5fd"},"vehicle_type_id":"4","last_reported":1728767301,"current_range_meters":36000,"station_id":"ce4bgs92rcd13ifvqcc0","pricing_plan_id":"cebpf4jnsgd1na2vs0mg"},{"bike_id":"f16ed747-6c39-41da-aa24-1019fb5634cf","system_id":"levelo_inurba_marseille","lat":43.28853,"lon":5.35861,"is_reserved":false,"is_disabled":false,"rental_uris":{"android":"levelo://app?vid=f16ed747-6c39-41da-aa24-1019fb5634cf","ios":"levelo://app?vid=f16ed747-6c39-41da-aa24-1019fb5634cf"},"vehicle_type_id":"4","last_reported":1728767301,"current_range_meters":13600,"station_id":"ce4bhb12rcd13ifvqem0","pricing_plan_id":"cebpf4jnsgd1na2vs0mg"},{"bike_id":"2f142d75-a766-4ba2-9e49-0906a3a833f9","system_id":"levelo_inurba_marseille","lat":43.285837,"lon":5.360121,"is_reserved":false,"is_disabled":false,"rental_uris":{"android":"levelo://app?vid=2f142d75-a766-4ba2-9e49-0906a3a833f9","ios":"levelo://app?vid=2f142d75-a766-4ba2-9e49-0906a3a833f9"},"vehicle_type_id":"4","last_reported":1728767301,"current_range_meters":14000,"station_id":"","pricing_plan_id":"cebpf4jnsgd1na2vs0mg"},{"bike_id":"dd488bb6-2002-40e1-9ea4-29c41547f763","system_id":"levelo_inurba_marseille","lat":43.2835,"lon":5.3863,"is_reserved":false,"is_disabled":false,"rental_uris":{"android":"levelo://app?vid=dd488bb6-2002-40e1-9ea4-29c41547f763","ios":"levelo://app?vid=dd488bb6-2002-40e1-9ea4-29c41547f763"},"vehicle_type_id":"4","last_reported":1728767301,"current_range_meters":38800,"station_id":"ce4bh492rcd13ifvqdvg","pricing_plan_id":"cebpf4jnsgd1na2vs0mg"},{"bike_id":"acbe997b-a9be-49ac-ad5e-d0e8fdd650d9","system_id":"levelo_inurba_marseille","lat":43.27815,"lon":5.39206,"is_reserved":false,"is_disabled":false,"rental_uris":{"android":"levelo://app?vid=acbe997b-a9be-49ac-ad5e-d0e8fdd650d9","ios":"levelo://app?vid=acbe997b-a9be-49ac-ad5e-d0e8fdd650d9"},"vehicle_type_id":"4","last_reported":1728767301,"current_range_meters":32400,"station_id":"ce4bhjp2rcd13ifvqga0","pricing_plan_id":"cebpf4jnsgd1na2vs0mg"},{"bike_id":"d4dd7cf9-d2df-48fc-b6ef-9e07f0daf7e4","system_id":"levelo_inurba_marseille","lat":43.2984,"lon":5.36279,"is_reserved":false,"is_disabled":false,"rental_uris":{"android":"levelo://app?vid=d4dd7cf9-d2df-48fc-b6ef-9e07f0daf7e4","ios":"levelo://app?vid=d4dd7cf9-d2df-48fc-b6ef-9e07f0daf7e4"},"vehicle_type_id":"4","last_reported":1728767301,"current_range_meters":32800,"station_id":"ce4bgpp2rcd13ifvqc3g","pricing_plan_id":"cebpf4jnsgd1na2vs0mg"},{"bike_id":"b5d71fcf-1dfb-4999-9499-f7f170ca339c","system_id":"levelo_inurba_marseille","lat":43.29849,"lon":5.3628,"is_reserved":false,"is_disabled":false,"rental_uris":{"android":"levelo://app?vid=b5d71fcf-1dfb-4999-9499-f7f170ca339c","ios":"levelo://app?vid=b5d71fcf-1dfb-4999-9499-f7f170ca339c"},"vehicle_type_id":"4","last_reported":1728767301,"current_range_meters":28000,"station_id":"ce4bgpp2rcd13ifvqc3g","pricing_plan_id":"cebpf4jnsgd1na2vs0mg"},{"bike_id":"922be445-130b-423a-97a6-dbeed6eb1c41","system_id":"levelo_inurba_marseille","lat":43.31695,"lon":5.37772,"is_reserved":false,"is_disabled":false,"rental_uris":{"android":"levelo://app?vid=922be445-130b-423a-97a6-dbeed6eb1c41","ios":"levelo://app?vid=922be445-130b-423a-97a6-dbeed6eb1c41"},"vehicle_type_id":"4","last_reported":1728767301,"current_range_meters":38800,"station_id":"ce4bgth2rcd13ifvqch0","pricing_plan_id":"cebpf4jnsgd1na2vs0mg"},{"bike_id":"6ff31e22-dbdf-494f-8326-d5712a233c5a","system_id":"levelo_inurba_marseille","lat":43.25822,"lon":5.39424,"is_reserved":false,"is_disabled":false,"rental_uris":{"android":"levelo://app?vid=6ff31e22-dbdf-494f-8326-d5712a233c5a","ios":"levelo://app?vid=6ff31e22-dbdf-494f-8326-d5712a233c5a"},"vehicle_type_id":"4","last_reported":1728767301,"current_range_meters":22000,"station_id":"ce4bhip2rcd13ifvqft0","pricing_plan_id":"cebpf4jnsgd1na2vs0mg"},{"bike_id":"4fff3cf8-c6ac-4933-8f5b-9ee3a18d0c00","system_id":"levelo_inurba_marseille","lat":43.2827,"lon":5.35074,"is_reserved":false,"is_disabled":false,"rental_uris":{"android":"levelo://app?vid=4fff3cf8-c6ac-4933-8f5b-9ee3a18d0c00","ios":"levelo://app?vid=4fff3cf8-c6ac-4933-8f5b-9ee3a18d0c00"},"vehicle_type_id":"4","last_reported":1728767301,"current_range_meters":12400,"station_id":"ce4bhbp2rcd13ifvqerg","pricing_plan_id":"cebpf4jnsgd1na2vs0mg"},{"bike_id":"3977a3ec-2952-4b42-9ce6-3d18a888c86b","system_id":"levelo_inurba_marseille","lat":43.27431,"lon":5.39421,"is_reserved":false,"is_disabled":false,"rental_uris":{"android":"levelo://app?vid=3977a3ec-2952-4b42-9ce6-3d18a888c86b","ios":"levelo://app?vid=3977a3ec-2952-4b42-9ce6-3d18a888c86b"},"vehicle_type_id":"4","last_reported":1728767301,"current_range_meters":30000,"station_id":"ce4bhdp2rcd13ifvqf20","pricing_plan_id":"cebpf4jnsgd1na2vs0mg"},{"bike_id":"e4f0f21e-0c3d-4d74-b01c-3addb8ce8acf","system_id":"levelo_inurba_marseille","lat":43.28342,"lon":5.381,"is_reserved":false,"is_disabled":false,"rental_uris":{"android":"levelo://app?vid=e4f0f21e-0c3d-4d74-b01c-3addb8ce8acf","ios":"levelo://app?vid=e4f0f21e-0c3d-4d74-b01c-3addb8ce8acf"},"vehicle_type_id":"4","last_reported":1728767301,"current_range_meters":6000,"station_id":"ce4bh412rcd13ifvqdr0","pricing_plan_id":"cebpf4jnsgd1na2vs0mg"},{"bike_id":"e6336660-e5d0-4336-aab6-9e2081b4b551","system_id":"levelo_inurba_marseille","lat":43.33731,"lon":5.39189,"is_reserved":false,"is_disabled":false,"rental_uris":{"android":"levelo://app?vid=e6336660-e5d0-4336-aab6-9e2081b4b551","ios":"levelo://app?vid=e6336660-e5d0-4336-aab6-9e2081b4b551"},"vehicle_type_id":"4","last_reported":1728767301,"current_range_meters":22000,"station_id":"ce4bhr92rcd13ifvqhsg","pricing_plan_id":"cebpf4jnsgd1na2vs0mg"},{"bike_id":"ab47664c-0450-4138-b005-9b8e1b8810bd","system_id":"levelo_inurba_marseille","lat":43.29577,"lon":5.36743,"is_reserved":false,"is_disabled":false,"rental_uris":{"android":"levelo://app?vid=ab47664c-0450-4138-b005-9b8e1b8810bd","ios":"levelo://app?vid=ab47664c-0450-4138-b005-9b8e1b8810bd"},"vehicle_type_id":"4","last_reported":1728767301,"current_range_meters":40000,"station_id":"ce4bgph2rcd13ifvqc2g","pricing_plan_id":"cebpf4jnsgd1na2vs0mg"},{"bike_id":"b2e9e370-9210-49f2-a2bc-03587913b57f","system_id":"levelo_inurba_marseille","lat":43.32485,"lon":5.36566,"is_reserved":false,"is_disabled":false,"rental_uris":{"android":"levelo://app?vid=b2e9e370-9210-49f2-a2bc-03587913b57f","ios":"levelo://app?vid=b2e9e370-9210-49f2-a2bc-03587913b57f"},"vehicle_type_id":"4","last_reported":1728767301,"current_range_meters":38800,"station_id":"ce4bhs12rcd13ifvqhvg","pricing_plan_id":"cebpf4jnsgd1na2vs0mg"},{"bike_id":"4ea83644-42f7-41f3-b589-fbcf318b2e4f","system_id":"levelo_inurba_marseille","lat":43.30614,"lon":5.3723,"is_reserved":false,"is_disabled":false,"rental_uris":{"android":"levelo://app?vid=4ea83644-42f7-41f3-b589-fbcf318b2e4f","ios":"levelo://app?vid=4ea83644-42f7-41f3-b589-fbcf318b2e4f"},"vehicle_type_id":"4","last_reported":1728767301,"current_range_meters":16400,"station_id":"ce4bgqh2rcd13ifvqc4g","pricing_plan_id":"cebpf4jnsgd1na2vs0mg"},{"bike_id":"55582e1e-1cd8-4e96-933c-025471d1c473","system_id":"levelo_inurba_marseille","lat":43.26932,"lon":5.38926,"is_reserved":false,"is_disabled":false,"rental_uris":{"android":"levelo://app?vid=55582e1e-1cd8-4e96-933c-025471d1c473","ios":"levelo://app?vid=55582e1e-1cd8-4e96-933c-025471d1c473"},"vehicle_type_id":"4","last_reported":1728767301,"current_range_meters":9600,"station_id":"ce4bhhh2rcd13ifvqfl0","pricing_plan_id":"cebpf4jnsgd1na2vs0mg"},{"bike_id":"e2bdcc9f-e106-4e3a-9ea6-a61f0e29c736","system_id":"levelo_inurba_marseille","lat":43.30795,"lon":5.38167,"is_reserved":false,"is_disabled":false,"rental_uris":{"android":"levelo://app?vid=e2bdcc9f-e106-4e3a-9ea6-a61f0e29c736","ios":"levelo://app?vid=e2bdcc9f-e106-4e3a-9ea6-a61f0e29c736"},"vehicle_type_id":"4","last_reported":1728767301,"current_range_meters":30400,"station_id":"ce4bgt12rcd13ifvqce0","pricing_plan_id":"cebpf4jnsgd1na2vs0mg"},{"bike_id":"959e4fa3-7477-4e8f-929d-073effc704a7","system_id":"levelo_inurba_marseille","lat":43.28662,"lon":5.36339,"is_reserved":false,"is_disabled":false,"rental_uris":{"android":"levelo://app?vid=959e4fa3-7477-4e8f-929d-073effc704a7","ios":"levelo://app?vid=959e4fa3-7477-4e8f-929d-073effc704a7"},"vehicle_type_id":"4","last_reported":1728767301,"current_range_meters":36400,"station_id":"ce4bhah2rcd13ifvqej0","pricing_plan_id":"cebpf4jnsgd1na2vs0mg"},{"bike_id":"98ee9e6c-a436-48c3-aa6d-74d566a0ee14","system_id":"levelo_inurba_marseille","lat":43.258525,"lon":5.394348,"is_reserved":false,"is_disabled":false,"rental_uris":{"android":"levelo://app?vid=98ee9e6c-a436-48c3-aa6d-74d566a0ee14","ios":"levelo://app?vid=98ee9e6c-a436-48c3-aa6d-74d566a0ee14"},"vehicle_type_id":"4","last_reported":1728767301,"current_range_meters":31200,"station_id":"ce4bhip2rcd13ifvqft0","pricing_plan_id":"cebpf4jnsgd1na2vs0mg"},{"bike_id":"e1f9486c-3843-42a6-aacd-4c828c67520a","system_id":"levelo_inurba_marseille","lat":43.23048,"lon":5.35499,"is_reserved":false,"is_disabled":false,"rental_uris":{"android":"levelo://app?vid=e1f9486c-3843-42a6-aacd-4c828c67520a","ios":"levelo://app?vid=e1f9486c-3843-42a6-aacd-4c828c67520a"},"vehicle_type_id":"4","last_reported":1728767301,"current_range_meters":34800,"station_id":"cpo3342slgdg3j2ifvpg","pricing_plan_id":"cebpf4jnsgd1na2vs0mg"},{"bike_id":"917f3d9e-93a3-436b-b3d9-0e12b7256939","system_id":"levelo_inurba_marseille","lat":43.29783,"lon":5.38112,"is_reserved":false,"is_disabled":false,"rental_uris":{"android":"levelo://app?vid=917f3d9e-93a3-436b-b3d9-0e12b7256939","ios":"levelo://app?vid=917f3d9e-93a3-436b-b3d9-0e12b7256939"},"vehicle_type_id":"4","last_reported":1728767301,"current_range_meters":37600,"station_id":"ce4bgip2rcd13ifvqbb0","pricing_plan_id":"cebpf4jnsgd1na2vs0mg"},{"bike_id":"17f0a58b-fa96-470d-a1b0-89c2a0c2bfbe","system_id":"levelo_inurba_marseille","lat":43.23196,"lon":5.35554,"is_reserved":false,"is_disabled":false,"rental_uris":{"android":"levelo://app?vid=17f0a58b-fa96-470d-a1b0-89c2a0c2bfbe","ios":"levelo://app?vid=17f0a58b-fa96-470d-a1b0-89c2a0c2bfbe"},"vehicle_type_id":"4","last_reported":1728767301,"current_range_meters":21600,"station_id":"ce4bhu92rcd13ifvqi70","pricing_plan_id":"cebpf4jnsgd1na2vs0mg"},{"bike_id":"a6346a84-eb58-4259-8f5c-834589e4bcec","system_id":"levelo_inurba_marseille","lat":43.32534,"lon":5.4145,"is_reserved":false,"is_disabled":false,"rental_uris":{"android":"levelo://app?vid=a6346a84-eb58-4259-8f5c-834589e4bcec","ios":"levelo://app?vid=a6346a84-eb58-4259-8f5c-834589e4bcec"},"vehicle_type_id":"4","last_reported":1728767301,"current_range_meters":36800,"station_id":"ce4bhq12rcd13ifvqhhg","pricing_plan_id":"cebpf4jnsgd1na2vs0mg"},{"bike_id":"0383fd16-e9b8-4410-b536-493a9708d1c6","system_id":"levelo_inurba_marseille","lat":43.33018,"lon":5.39047,"is_reserved":false,"is_disabled":false,"rental_uris":{"android":"levelo://app?vid=0383fd16-e9b8-4410-b536-493a9708d1c6","ios":"levelo://app?vid=0383fd16-e9b8-4410-b536-493a9708d1c6"},"vehicle_type_id":"4","last_reported":1728767301,"current_range_meters":30000,"station_id":"ce4bhr92rcd13ifvqhrg","pricing_plan_id":"cebpf4jnsgd1na2vs0mg"},{"bike_id":"b25409bc-df4d-476a-893e-c6a5838692b2","system_id":"levelo_inurba_marseille","lat":43.23197,"lon":5.35558,"is_reserved":false,"is_disabled":false,"rental_uris":{"android":"levelo://app?vid=b25409bc-df4d-476a-893e-c6a5838692b2","ios":"levelo://app?vid=b25409bc-df4d-476a-893e-c6a5838692b2"},"vehicle_type_id":"4","last_reported":1728767301,"current_range_meters":38800,"station_id":"ce4bhu92rcd13ifvqi70","pricing_plan_id":"cebpf4jnsgd1na2vs0mg"},{"bike_id":"887fedf8-944b-42a2-ab80-88181529dcf8","system_id":"levelo_inurba_marseille","lat":43.28056,"lon":5.40984,"is_reserved":false,"is_disabled":false,"rental_uris":{"android":"levelo://app?vid=887fedf8-944b-42a2-ab80-88181529dcf8","ios":"levelo://app?vid=887fedf8-944b-42a2-ab80-88181529dcf8"},"vehicle_type_id":"4","last_reported":1728767301,"current_range_meters":34800,"station_id":"","pricing_plan_id":"cebpf4jnsgd1na2vs0mg"},{"bike_id":"26c930a6-2b08-4dc9-b241-c60fbe1820fa","system_id":"levelo_inurba_marseille","lat":43.32366,"lon":5.38883,"is_reserved":false,"is_disabled":false,"rental_uris":{"android":"levelo://app?vid=26c930a6-2b08-4dc9-b241-c60fbe1820fa","ios":"levelo://app?vid=26c930a6-2b08-4dc9-b241-c60fbe1820fa"},"vehicle_type_id":"4","last_reported":1728767301,"current_range_meters":39200,"station_id":"ce4bhqp2rcd13ifvqhog","pricing_plan_id":"cebpf4jnsgd1na2vs0mg"},{"bike_id":"8fb2b431-bcb9-46ba-80fb-e26e84592fc5","system_id":"levelo_inurba_marseille","lat":43.23198,"lon":5.35555,"is_reserved":false,"is_disabled":false,"rental_uris":{"android":"levelo://app?vid=8fb2b431-bcb9-46ba-80fb-e26e84592fc5","ios":"levelo://app?vid=8fb2b431-bcb9-46ba-80fb-e26e84592fc5"},"vehicle_type_id":"4","last_reported":1728767301,"current_range_meters":30000,"station_id":"ce4bhu92rcd13ifvqi70","pricing_plan_id":"cebpf4jnsgd1na2vs0mg"},{"bike_id":"a3f8df2e-2fed-42f1-8b01-11375bb65951","system_id":"levelo_inurba_marseille","lat":43.2985,"lon":5.36288,"is_reserved":false,"is_disabled":false,"rental_uris":{"android":"levelo://app?vid=a3f8df2e-2fed-42f1-8b01-11375bb65951","ios":"levelo://app?vid=a3f8df2e-2fed-42f1-8b01-11375bb65951"},"vehicle_type_id":"4","last_reported":1728767301,"current_range_meters":11200,"station_id":"ce4bgpp2rcd13ifvqc3g","pricing_plan_id":"cebpf4jnsgd1na2vs0mg"},{"bike_id":"e2f25126-29b7-4581-a4fe-9e458716fb1d","system_id":"levelo_inurba_marseille","lat":43.2396,"lon":5.36638,"is_reserved":false,"is_disabled":false,"rental_uris":{"android":"levelo://app?vid=e2f25126-29b7-4581-a4fe-9e458716fb1d","ios":"levelo://app?vid=e2f25126-29b7-4581-a4fe-9e458716fb1d"},"vehicle_type_id":"4","last_reported":1728767301,"current_range_meters":27200,"station_id":"ce4bhi12rcd13ifvqfp0","pricing_plan_id":"cebpf4jnsgd1na2vs0mg"},{"bike_id":"e774d824-19f8-4f28-bbd4-72952485195e","system_id":"levelo_inurba_marseille","lat":43.28439,"lon":5.39182,"is_reserved":false,"is_disabled":false,"rental_uris":{"android":"levelo://app?vid=e774d824-19f8-4f28-bbd4-72952485195e","ios":"levelo://app?vid=e774d824-19f8-4f28-bbd4-72952485195e"},"vehicle_type_id":"4","last_reported":1728767301,"current_range_meters":32400,"station_id":"ce4bhoh2rcd13ifvqh5g","pricing_plan_id":"cebpf4jnsgd1na2vs0mg"},{"bike_id":"a5f1b4f4-bc5f-484d-9b8b-f53646c11223","system_id":"levelo_inurba_marseille","lat":43.29844,"lon":5.36285,"is_reserved":false,"is_disabled":false,"rental_uris":{"android":"levelo://app?vid=a5f1b4f4-bc5f-484d-9b8b-f53646c11223","ios":"levelo://app?vid=a5f1b4f4-bc5f-484d-9b8b-f53646c11223"},"vehicle_type_id":"4","last_reported":1728767301,"current_range_meters":38800,"station_id":"ce4bgpp2rcd13ifvqc3g","pricing_plan_id":"cebpf4jnsgd1na2vs0mg"},{"bike_id":"9326ae13-0e31-466e-9dd6-e7e382c6bf3a","system_id":"levelo_inurba_marseille","lat":43.27557,"lon":5.38416,"is_reserved":false,"is_disabled":false,"rental_uris":{"android":"levelo://app?vid=9326ae13-0e31-466e-9dd6-e7e382c6bf3a","ios":"levelo://app?vid=9326ae13-0e31-466e-9dd6-e7e382c6bf3a"},"vehicle_type_id":"4","last_reported":1728767301,"current_range_meters":38800,"station_id":"ce4bhh92rcd13ifvqfi0","pricing_plan_id":"cebpf4jnsgd1na2vs0mg"},{"bike_id":"972e1e50-2e1e-454f-8635-5ea35f00e6a7","system_id":"levelo_inurba_marseille","lat":43.304607,"lon":5.401819,"is_reserved":false,"is_disabled":false,"rental_uris":{"android":"levelo://app?vid=972e1e50-2e1e-454f-8635-5ea35f00e6a7","ios":"levelo://app?vid=972e1e50-2e1e-454f-8635-5ea35f00e6a7"},"vehicle_type_id":"4","last_reported":1728767301,"current_range_meters":36400,"station_id":"","pricing_plan_id":"cebpf4jnsgd1na2vs0mg"},{"bike_id":"efb2bcd1-c567-4d4b-8d3b-8a3d113eedad","system_id":"levelo_inurba_marseille","lat":43.29842,"lon":5.3628,"is_reserved":false,"is_disabled":false,"rental_uris":{"android":"levelo://app?vid=efb2bcd1-c567-4d4b-8d3b-8a3d113eedad","ios":"levelo://app?vid=efb2bcd1-c567-4d4b-8d3b-8a3d113eedad"},"vehicle_type_id":"4","last_reported":1728767301,"current_range_meters":12800,"station_id":"ce4bgpp2rcd13ifvqc3g","pricing_plan_id":"cebpf4jnsgd1na2vs0mg"},{"bike_id":"509c75f1-6dee-4835-b593-0a35aaec2b07","system_id":"levelo_inurba_marseille","lat":43.30875,"lon":5.39645,"is_reserved":false,"is_disabled":false,"rental_uris":{"android":"levelo://app?vid=509c75f1-6dee-4835-b593-0a35aaec2b07","ios":"levelo://app?vid=509c75f1-6dee-4835-b593-0a35aaec2b07"},"vehicle_type_id":"4","last_reported":1728767301,"current_range_meters":33200,"station_id":"ce4bh012rcd13ifvqcv0","pricing_plan_id":"cebpf4jnsgd1na2vs0mg"},{"bike_id":"8019261c-0002-4fd7-a929-313968ea2c77","system_id":"levelo_inurba_marseille","lat":43.24539,"lon":5.39524,"is_reserved":false,"is_disabled":false,"rental_uris":{"android":"levelo://app?vid=8019261c-0002-4fd7-a929-313968ea2c77","ios":"levelo://app?vid=8019261c-0002-4fd7-a929-313968ea2c77"},"vehicle_type_id":"4","last_reported":1728767301,"current_range_meters":12000,"station_id":"ce4bhlp2rcd13ifvqgjg","pricing_plan_id":"cebpf4jnsgd1na2vs0mg"},{"bike_id":"6f6aa75e-2312-4bd3-bf06-df20614f1ef1","system_id":"levelo_inurba_marseille","lat":43.23187,"lon":5.39999,"is_reserved":false,"is_disabled":false,"rental_uris":{"android":"levelo://app?vid=6f6aa75e-2312-4bd3-bf06-df20614f1ef1","ios":"levelo://app?vid=6f6aa75e-2312-4bd3-bf06-df20614f1ef1"},"vehicle_type_id":"4","last_reported":1728767301,"current_range_meters":7200,"station_id":"ce4bhn12rcd13ifvqgqg","pricing_plan_id":"cebpf4jnsgd1na2vs0mg"},{"bike_id":"e6049eb7-a913-4c30-b891-92576278de4c","system_id":"levelo_inurba_marseille","lat":43.24803,"lon":5.37451,"is_reserved":false,"is_disabled":false,"rental_uris":{"android":"levelo://app?vid=e6049eb7-a913-4c30-b891-92576278de4c","ios":"levelo://app?vid=e6049eb7-a913-4c30-b891-92576278de4c"},"vehicle_type_id":"4","last_reported":1728767301,"current_range_meters":32000,"station_id":"ce4bhgh2rcd13ifvqfb0","pricing_plan_id":"cebpf4jnsgd1na2vs0mg"},{"bike_id":"5b9033c7-8cad-414a-8d29-f05fdaafacd5","system_id":"levelo_inurba_marseille","lat":43.24664,"lon":5.38161,"is_reserved":false,"is_disabled":false,"rental_uris":{"android":"levelo://app?vid=5b9033c7-8cad-414a-8d29-f05fdaafacd5","ios":"levelo://app?vid=5b9033c7-8cad-414a-8d29-f05fdaafacd5"},"vehicle_type_id":"4","last_reported":1728767301,"current_range_meters":28000,"station_id":"ce4bhih2rcd13ifvqfr0","pricing_plan_id":"cebpf4jnsgd1na2vs0mg"},{"bike_id":"1f6da07d-6221-4aec-a348-09aa636acfd5","system_id":"levelo_inurba_marseille","lat":43.27186,"lon":5.40984,"is_reserved":false,"is_disabled":false,"rental_uris":{"android":"levelo://app?vid=1f6da07d-6221-4aec-a348-09aa636acfd5","ios":"levelo://app?vid=1f6da07d-6221-4aec-a348-09aa636acfd5"},"vehicle_type_id":"4","last_reported":1728767301,"current_range_meters":36000,"station_id":"ce4bhl12rcd13ifvqgf0","pricing_plan_id":"cebpf4jnsgd1na2vs0mg"},{"bike_id":"3958f917-74c8-406f-a4e0-d83e1f24aa73","system_id":"levelo_inurba_marseille","lat":43.302499,"lon":5.386823,"is_reserved":false,"is_disabled":false,"rental_uris":{"android":"levelo://app?vid=3958f917-74c8-406f-a4e0-d83e1f24aa73","ios":"levelo://app?vid=3958f917-74c8-406f-a4e0-d83e1f24aa73"},"vehicle_type_id":"4","last_reported":1728767301,"current_range_meters":32000,"station_id":"","pricing_plan_id":"cebpf4jnsgd1na2vs0mg"},{"bike_id":"5a94b4b9-d430-47fb-9ca8-ac46a3d24520","system_id":"levelo_inurba_marseille","lat":43.28435,"lon":5.39185,"is_reserved":false,"is_disabled":false,"rental_uris":{"android":"levelo://app?vid=5a94b4b9-d430-47fb-9ca8-ac46a3d24520","ios":"levelo://app?vid=5a94b4b9-d430-47fb-9ca8-ac46a3d24520"},"vehicle_type_id":"4","last_reported":1728767301,"current_range_meters":18000,"station_id":"ce4bhoh2rcd13ifvqh5g","pricing_plan_id":"cebpf4jnsgd1na2vs0mg"},{"bike_id":"19e0e40e-63be-4804-b3b8-2787230e9bca","system_id":"levelo_inurba_marseille","lat":43.29622,"lon":5.37164,"is_reserved":false,"is_disabled":false,"rental_uris":{"android":"levelo://app?vid=19e0e40e-63be-4804-b3b8-2787230e9bca","ios":"levelo://app?vid=19e0e40e-63be-4804-b3b8-2787230e9bca"},"vehicle_type_id":"4","last_reported":1728767301,"current_range_meters":38800,"station_id":"ce4bgnh2rcd13ifvqc0g","pricing_plan_id":"cebpf4jnsgd1na2vs0mg"},{"bike_id":"b9a64df2-122d-44d5-b6d8-c291946ea5f0","system_id":"levelo_inurba_marseille","lat":43.29231,"lon":5.36075,"is_reserved":false,"is_disabled":false,"rental_uris":{"android":"levelo://app?vid=b9a64df2-122d-44d5-b6d8-c291946ea5f0","ios":"levelo://app?vid=b9a64df2-122d-44d5-b6d8-c291946ea5f0"},"vehicle_type_id":"4","last_reported":1728767301,"current_range_meters":29600,"station_id":"ce4bhbh2rcd13ifvqeqg","pricing_plan_id":"cebpf4jnsgd1na2vs0mg"},{"bike_id":"6bf3f9e4-3a20-46a4-b417-660cc5c2ac87","system_id":"levelo_inurba_marseille","lat":43.31222,"lon":5.3686,"is_reserved":false,"is_disabled":false,"rental_uris":{"android":"levelo://app?vid=6bf3f9e4-3a20-46a4-b417-660cc5c2ac87","ios":"levelo://app?vid=6bf3f9e4-3a20-46a4-b417-660cc5c2ac87"},"vehicle_type_id":"4","last_reported":1728767301,"current_range_meters":22800,"station_id":"ce4bgl92rcd13ifvqbq0","pricing_plan_id":"cebpf4jnsgd1na2vs0mg"},{"bike_id":"3b2db9ff-b15e-434c-9484-230a465d9fe5","system_id":"levelo_inurba_marseille","lat":43.29843,"lon":5.36276,"is_reserved":false,"is_disabled":false,"rental_uris":{"android":"levelo://app?vid=3b2db9ff-b15e-434c-9484-230a465d9fe5","ios":"levelo://app?vid=3b2db9ff-b15e-434c-9484-230a465d9fe5"},"vehicle_type_id":"4","last_reported":1728767301,"current_range_meters":27200,"station_id":"ce4bgpp2rcd13ifvqc3g","pricing_plan_id":"cebpf4jnsgd1na2vs0mg"},{"bike_id":"a4217625-26b1-46c3-83cf-a9b3a5d673ce","system_id":"levelo_inurba_marseille","lat":43.310653,"lon":5.36887,"is_reserved":false,"is_disabled":false,"rental_uris":{"android":"levelo://app?vid=a4217625-26b1-46c3-83cf-a9b3a5d673ce","ios":"levelo://app?vid=a4217625-26b1-46c3-83cf-a9b3a5d673ce"},"vehicle_type_id":"4","last_reported":1728767301,"current_range_meters":34000,"station_id":"","pricing_plan_id":"cebpf4jnsgd1na2vs0mg"},{"bike_id":"d0bd3e91-81ba-405f-b7e3-a682fce6aab6","system_id":"levelo_inurba_marseille","lat":43.2318,"lon":5.39993,"is_reserved":false,"is_disabled":false,"rental_uris":{"android":"levelo://app?vid=d0bd3e91-81ba-405f-b7e3-a682fce6aab6","ios":"levelo://app?vid=d0bd3e91-81ba-405f-b7e3-a682fce6aab6"},"vehicle_type_id":"4","last_reported":1728767301,"current_range_meters":32800,"station_id":"ce4bhn12rcd13ifvqgqg","pricing_plan_id":"cebpf4jnsgd1na2vs0mg"},{"bike_id":"15b48a5b-327e-434c-ad1c-c0d7dee2654a","system_id":"levelo_inurba_marseille","lat":43.29536,"lon":5.38546,"is_reserved":false,"is_disabled":false,"rental_uris":{"android":"levelo://app?vid=15b48a5b-327e-434c-ad1c-c0d7dee2654a","ios":"levelo://app?vid=15b48a5b-327e-434c-ad1c-c0d7dee2654a"},"vehicle_type_id":"4","last_reported":1728767301,"current_range_meters":11600,"station_id":"ce4bgih2rcd13ifvqba0","pricing_plan_id":"cebpf4jnsgd1na2vs0mg"},{"bike_id":"e53d9dac-6d16-4334-ad56-d0d38fcf4eb7","system_id":"levelo_inurba_marseille","lat":43.27971,"lon":5.41826,"is_reserved":false,"is_disabled":false,"rental_uris":{"android":"levelo://app?vid=e53d9dac-6d16-4334-ad56-d0d38fcf4eb7","ios":"levelo://app?vid=e53d9dac-6d16-4334-ad56-d0d38fcf4eb7"},"vehicle_type_id":"4","last_reported":1728767301,"current_range_meters":27600,"station_id":"","pricing_plan_id":"cebpf4jnsgd1na2vs0mg"},{"bike_id":"204ae621-04fa-4ddf-bf52-c7c1dc1f1b18","system_id":"levelo_inurba_marseille","lat":43.28941,"lon":5.39631,"is_reserved":false,"is_disabled":false,"rental_uris":{"android":"levelo://app?vid=204ae621-04fa-4ddf-bf52-c7c1dc1f1b18","ios":"levelo://app?vid=204ae621-04fa-4ddf-bf52-c7c1dc1f1b18"},"vehicle_type_id":"4","last_reported":1728767301,"current_range_meters":25600,"station_id":"ce4bh3h2rcd13ifvqdn0","pricing_plan_id":"cebpf4jnsgd1na2vs0mg"},{"bike_id":"47e821b7-2ad5-45a6-8921-f44edc1af521","system_id":"levelo_inurba_marseille","lat":43.27621,"lon":5.36111,"is_reserved":false,"is_disabled":false,"rental_uris":{"android":"levelo://app?vid=47e821b7-2ad5-45a6-8921-f44edc1af521","ios":"levelo://app?vid=47e821b7-2ad5-45a6-8921-f44edc1af521"},"vehicle_type_id":"4","last_reported":1728767301,"current_range_meters":32800,"station_id":"ce4bgj92rcd13ifvqbe0","pricing_plan_id":"cebpf4jnsgd1na2vs0mg"},{"bike_id":"5ab70f1b-3f2c-4f8b-a0cc-cdba02fd83d4","system_id":"levelo_inurba_marseille","lat":43.3248,"lon":5.3656,"is_reserved":false,"is_disabled":false,"rental_uris":{"android":"levelo://app?vid=5ab70f1b-3f2c-4f8b-a0cc-cdba02fd83d4","ios":"levelo://app?vid=5ab70f1b-3f2c-4f8b-a0cc-cdba02fd83d4"},"vehicle_type_id":"4","last_reported":1728767301,"current_range_meters":35200,"station_id":"ce4bhs12rcd13ifvqhvg","pricing_plan_id":"cebpf4jnsgd1na2vs0mg"},{"bike_id":"7a5c0fd4-826e-492b-a66d-40c6f37e3c64","system_id":"levelo_inurba_marseille","lat":43.29535,"lon":5.38542,"is_reserved":false,"is_disabled":false,"rental_uris":{"android":"levelo://app?vid=7a5c0fd4-826e-492b-a66d-40c6f37e3c64","ios":"levelo://app?vid=7a5c0fd4-826e-492b-a66d-40c6f37e3c64"},"vehicle_type_id":"4","last_reported":1728767301,"current_range_meters":32800,"station_id":"ce4bgih2rcd13ifvqba0","pricing_plan_id":"cebpf4jnsgd1na2vs0mg"},{"bike_id":"78c6f538-af8c-4298-923a-e4f6616c49a2","system_id":"levelo_inurba_marseille","lat":43.29063,"lon":5.46294,"is_reserved":false,"is_disabled":false,"rental_uris":{"android":"levelo://app?vid=78c6f538-af8c-4298-923a-e4f6616c49a2","ios":"levelo://app?vid=78c6f538-af8c-4298-923a-e4f6616c49a2"},"vehicle_type_id":"4","last_reported":1728767301,"current_range_meters":12800,"station_id":"","pricing_plan_id":"cebpf4jnsgd1na2vs0mg"},{"bike_id":"050f873d-7804-4cea-883a-fc18bfb38f65","system_id":"levelo_inurba_marseille","lat":43.2955,"lon":5.42286,"is_reserved":false,"is_disabled":false,"rental_uris":{"android":"levelo://app?vid=050f873d-7804-4cea-883a-fc18bfb38f65","ios":"levelo://app?vid=050f873d-7804-4cea-883a-fc18bfb38f65"},"vehicle_type_id":"4","last_reported":1728767301,"current_range_meters":23200,"station_id":"ce4bhph2rcd13ifvqhdg","pricing_plan_id":"cebpf4jnsgd1na2vs0mg"},{"bike_id":"2c4c4fdd-4be3-40ba-ae9f-53b1d6165fc5","system_id":"levelo_inurba_marseille","lat":43.2886,"lon":5.35849,"is_reserved":false,"is_disabled":false,"rental_uris":{"android":"levelo://app?vid=2c4c4fdd-4be3-40ba-ae9f-53b1d6165fc5","ios":"levelo://app?vid=2c4c4fdd-4be3-40ba-ae9f-53b1d6165fc5"},"vehicle_type_id":"4","last_reported":1728767301,"current_range_meters":9600,"station_id":"ce4bhb12rcd13ifvqem0","pricing_plan_id":"cebpf4jnsgd1na2vs0mg"},{"bike_id":"4179fcc8-44a0-4a2f-97bf-491f35b47214","system_id":"levelo_inurba_marseille","lat":43.27179,"lon":5.40985,"is_reserved":false,"is_disabled":false,"rental_uris":{"android":"levelo://app?vid=4179fcc8-44a0-4a2f-97bf-491f35b47214","ios":"levelo://app?vid=4179fcc8-44a0-4a2f-97bf-491f35b47214"},"vehicle_type_id":"4","last_reported":1728767301,"current_range_meters":20400,"station_id":"ce4bhl12rcd13ifvqgf0","pricing_plan_id":"cebpf4jnsgd1na2vs0mg"},{"bike_id":"4caf24b3-7f65-430f-a3c0-c3268694432d","system_id":"levelo_inurba_marseille","lat":43.28615,"lon":5.35103,"is_reserved":false,"is_disabled":false,"rental_uris":{"android":"levelo://app?vid=4caf24b3-7f65-430f-a3c0-c3268694432d","ios":"levelo://app?vid=4caf24b3-7f65-430f-a3c0-c3268694432d"},"vehicle_type_id":"4","last_reported":1728767301,"current_range_meters":37600,"station_id":"ce4bhch2rcd13ifvqeug","pricing_plan_id":"cebpf4jnsgd1na2vs0mg"},{"bike_id":"9de4c5f9-f930-417d-af98-6aa3427f20ae","system_id":"levelo_inurba_marseille","lat":43.29845,"lon":5.36265,"is_reserved":false,"is_disabled":false,"rental_uris":{"android":"levelo://app?vid=9de4c5f9-f930-417d-af98-6aa3427f20ae","ios":"levelo://app?vid=9de4c5f9-f930-417d-af98-6aa3427f20ae"},"vehicle_type_id":"4","last_reported":1728767301,"current_range_meters":22000,"station_id":"ce4bgpp2rcd13ifvqc3g","pricing_plan_id":"cebpf4jnsgd1na2vs0mg"},{"bike_id":"b3aaaef3-1ecf-4a7a-b3bb-79a6e0c2b54e","system_id":"levelo_inurba_marseille","lat":43.28417,"lon":5.37515,"is_reserved":false,"is_disabled":false,"rental_uris":{"android":"levelo://app?vid=b3aaaef3-1ecf-4a7a-b3bb-79a6e0c2b54e","ios":"levelo://app?vid=b3aaaef3-1ecf-4a7a-b3bb-79a6e0c2b54e"},"vehicle_type_id":"4","last_reported":1728767301,"current_range_meters":27600,"station_id":"ce4bh412rcd13ifvqds0","pricing_plan_id":"cebpf4jnsgd1na2vs0mg"},{"bike_id":"49316722-f5ca-469e-b328-cdeaebfb0c7f","system_id":"levelo_inurba_marseille","lat":43.23966,"lon":5.36626,"is_reserved":false,"is_disabled":false,"rental_uris":{"android":"levelo://app?vid=49316722-f5ca-469e-b328-cdeaebfb0c7f","ios":"levelo://app?vid=49316722-f5ca-469e-b328-cdeaebfb0c7f"},"vehicle_type_id":"4","last_reported":1728767301,"current_range_meters":8800,"station_id":"ce4bhi12rcd13ifvqfp0","pricing_plan_id":"cebpf4jnsgd1na2vs0mg"},{"bike_id":"f1cdfb05-92b5-4b90-a67e-7e51782adcc0","system_id":"levelo_inurba_marseille","lat":43.3096,"lon":5.39045,"is_reserved":false,"is_disabled":false,"rental_uris":{"android":"levelo://app?vid=f1cdfb05-92b5-4b90-a67e-7e51782adcc0","ios":"levelo://app?vid=f1cdfb05-92b5-4b90-a67e-7e51782adcc0"},"vehicle_type_id":"4","last_reported":1728767301,"current_range_meters":22400,"station_id":"ce4bgup2rcd13ifvqco0","pricing_plan_id":"cebpf4jnsgd1na2vs0mg"},{"bike_id":"7f747687-a07f-4a31-ad9d-58f8707ffe6b","system_id":"levelo_inurba_marseille","lat":43.27921,"lon":5.39567,"is_reserved":false,"is_disabled":false,"rental_uris":{"android":"levelo://app?vid=7f747687-a07f-4a31-ad9d-58f8707ffe6b","ios":"levelo://app?vid=7f747687-a07f-4a31-ad9d-58f8707ffe6b"},"vehicle_type_id":"4","last_reported":1728767301,"current_range_meters":34000,"station_id":"ce4bhf92rcd13ifvqf40","pricing_plan_id":"cebpf4jnsgd1na2vs0mg"},{"bike_id":"2161a8ba-aa43-475e-8cf3-eb30ad070ad3","system_id":"levelo_inurba_marseille","lat":43.25498,"lon":5.37649,"is_reserved":false,"is_disabled":false,"rental_uris":{"android":"levelo://app?vid=2161a8ba-aa43-475e-8cf3-eb30ad070ad3","ios":"levelo://app?vid=2161a8ba-aa43-475e-8cf3-eb30ad070ad3"},"vehicle_type_id":"4","last_reported":1728767301,"current_range_meters":38800,"station_id":"ce4bhh12rcd13ifvqff0","pricing_plan_id":"cebpf4jnsgd1na2vs0mg"},{"bike_id":"c12cb0d6-db93-4418-b913-57eec8fad5ea","system_id":"levelo_inurba_marseille","lat":43.27939,"lon":5.4104,"is_reserved":false,"is_disabled":false,"rental_uris":{"android":"levelo://app?vid=c12cb0d6-db93-4418-b913-57eec8fad5ea","ios":"levelo://app?vid=c12cb0d6-db93-4418-b913-57eec8fad5ea"},"vehicle_type_id":"4","last_reported":1728767301,"current_range_meters":19200,"station_id":"ce4bhnp2rcd13ifvqh0g","pricing_plan_id":"cebpf4jnsgd1na2vs0mg"},{"bike_id":"8ad819da-54fa-49e0-ac1f-edf3769f3a80","system_id":"levelo_inurba_marseille","lat":43.30422,"lon":5.39749,"is_reserved":false,"is_disabled":false,"rental_uris":{"android":"levelo://app?vid=8ad819da-54fa-49e0-ac1f-edf3769f3a80","ios":"levelo://app?vid=8ad819da-54fa-49e0-ac1f-edf3769f3a80"},"vehicle_type_id":"4","last_reported":1728767301,"current_range_meters":10800,"station_id":"ce4bh092rcd13ifvqd20","pricing_plan_id":"cebpf4jnsgd1na2vs0mg"},{"bike_id":"3eda667c-6c6f-4961-8d29-37773ae60595","system_id":"levelo_inurba_marseille","lat":43.29788,"lon":5.40413,"is_reserved":false,"is_disabled":false,"rental_uris":{"android":"levelo://app?vid=3eda667c-6c6f-4961-8d29-37773ae60595","ios":"levelo://app?vid=3eda667c-6c6f-4961-8d29-37773ae60595"},"vehicle_type_id":"4","last_reported":1728767301,"current_range_meters":36400,"station_id":"ce4bh112rcd13ifvqd90","pricing_plan_id":"cebpf4jnsgd1na2vs0mg"},{"bike_id":"aad69708-28ac-43e6-945e-619f5a7c6bfd","system_id":"levelo_inurba_marseille","lat":43.33781,"lon":5.37443,"is_reserved":false,"is_disabled":false,"rental_uris":{"android":"levelo://app?vid=aad69708-28ac-43e6-945e-619f5a7c6bfd","ios":"levelo://app?vid=aad69708-28ac-43e6-945e-619f5a7c6bfd"},"vehicle_type_id":"4","last_reported":1728767301,"current_range_meters":36400,"station_id":"","pricing_plan_id":"cebpf4jnsgd1na2vs0mg"},{"bike_id":"5893f3dd-d2b3-4843-b482-b04d8c5fd667","system_id":"levelo_inurba_marseille","lat":43.29872,"lon":5.38902,"is_reserved":false,"is_disabled":false,"rental_uris":{"android":"levelo://app?vid=5893f3dd-d2b3-4843-b482-b04d8c5fd667","ios":"levelo://app?vid=5893f3dd-d2b3-4843-b482-b04d8c5fd667"},"vehicle_type_id":"4","last_reported":1728767301,"current_range_meters":26000,"station_id":"ce4bh392rcd13ifvqdl0","pricing_plan_id":"cebpf4jnsgd1na2vs0mg"},{"bike_id":"39a458cd-b171-4db4-845e-1b09793c026f","system_id":"levelo_inurba_marseille","lat":43.29063,"lon":5.3716,"is_reserved":false,"is_disabled":false,"rental_uris":{"android":"levelo://app?vid=39a458cd-b171-4db4-845e-1b09793c026f","ios":"levelo://app?vid=39a458cd-b171-4db4-845e-1b09793c026f"},"vehicle_type_id":"4","last_reported":1728767301,"current_range_meters":8400,"station_id":"ce4bh5p2rcd13ifvqe4g","pricing_plan_id":"cebpf4jnsgd1na2vs0mg"},{"bike_id":"40478cc5-082f-4858-bc12-0a5fd9fb9b22","system_id":"levelo_inurba_marseille","lat":43.2572,"lon":5.4111,"is_reserved":false,"is_disabled":false,"rental_uris":{"android":"levelo://app?vid=40478cc5-082f-4858-bc12-0a5fd9fb9b22","ios":"levelo://app?vid=40478cc5-082f-4858-bc12-0a5fd9fb9b22"},"vehicle_type_id":"4","last_reported":1728767301,"current_range_meters":9200,"station_id":"ce4bhkp2rcd13ifvqgd0","pricing_plan_id":"cebpf4jnsgd1na2vs0mg"},{"bike_id":"51e3b945-7963-447b-9621-5dac09ee7143","system_id":"levelo_inurba_marseille","lat":43.31173,"lon":5.38715,"is_reserved":false,"is_disabled":false,"rental_uris":{"android":"levelo://app?vid=51e3b945-7963-447b-9621-5dac09ee7143","ios":"levelo://app?vid=51e3b945-7963-447b-9621-5dac09ee7143"},"vehicle_type_id":"4","last_reported":1728767301,"current_range_meters":6800,"station_id":"ce4bgv12rcd13ifvqcp0","pricing_plan_id":"cebpf4jnsgd1na2vs0mg"},{"bike_id":"71cf7286-1207-48ea-9905-84e8b1d59926","system_id":"levelo_inurba_marseille","lat":43.23153,"lon":5.43695,"is_reserved":false,"is_disabled":false,"rental_uris":{"android":"levelo://app?vid=71cf7286-1207-48ea-9905-84e8b1d59926","ios":"levelo://app?vid=71cf7286-1207-48ea-9905-84e8b1d59926"},"vehicle_type_id":"4","last_reported":1728767301,"current_range_meters":36400,"station_id":"ce4bhmp2rcd13ifvqgog","pricing_plan_id":"cebpf4jnsgd1na2vs0mg"},{"bike_id":"7996ba8a-261a-4f8f-966d-b91d9fb2cb46","system_id":"levelo_inurba_marseille","lat":43.25494,"lon":5.37651,"is_reserved":false,"is_disabled":false,"rental_uris":{"android":"levelo://app?vid=7996ba8a-261a-4f8f-966d-b91d9fb2cb46","ios":"levelo://app?vid=7996ba8a-261a-4f8f-966d-b91d9fb2cb46"},"vehicle_type_id":"4","last_reported":1728767301,"current_range_meters":20000,"station_id":"ce4bhh12rcd13ifvqff0","pricing_plan_id":"cebpf4jnsgd1na2vs0mg"},{"bike_id":"29b7aa05-1133-4f6f-9837-c8ddf5a12815","system_id":"levelo_inurba_marseille","lat":43.29712,"lon":5.36614,"is_reserved":false,"is_disabled":false,"rental_uris":{"android":"levelo://app?vid=29b7aa05-1133-4f6f-9837-c8ddf5a12815","ios":"levelo://app?vid=29b7aa05-1133-4f6f-9837-c8ddf5a12815"},"vehicle_type_id":"4","last_reported":1728767301,"current_range_meters":37600,"station_id":"ce4bgn12rcd13ifvqbt0","pricing_plan_id":"cebpf4jnsgd1na2vs0mg"},{"bike_id":"14824876-7240-40a1-801e-d3ee70628152","system_id":"levelo_inurba_marseille","lat":43.32359,"lon":5.38885,"is_reserved":false,"is_disabled":false,"rental_uris":{"android":"levelo://app?vid=14824876-7240-40a1-801e-d3ee70628152","ios":"levelo://app?vid=14824876-7240-40a1-801e-d3ee70628152"},"vehicle_type_id":"4","last_reported":1728767301,"current_range_meters":39200,"station_id":"ce4bhqp2rcd13ifvqhog","pricing_plan_id":"cebpf4jnsgd1na2vs0mg"},{"bike_id":"dbc68946-c891-4683-a222-612ae931f5b8","system_id":"levelo_inurba_marseille","lat":43.2784,"lon":5.39207,"is_reserved":false,"is_disabled":false,"rental_uris":{"android":"levelo://app?vid=dbc68946-c891-4683-a222-612ae931f5b8","ios":"levelo://app?vid=dbc68946-c891-4683-a222-612ae931f5b8"},"vehicle_type_id":"4","last_reported":1728767301,"current_range_meters":35200,"station_id":"ce4bhjp2rcd13ifvqga0","pricing_plan_id":"cebpf4jnsgd1na2vs0mg"},{"bike_id":"fc7217c1-85d8-45c7-bd9c-4d6ff908f390","system_id":"levelo_inurba_marseille","lat":43.23194,"lon":5.35557,"is_reserved":false,"is_disabled":false,"rental_uris":{"android":"levelo://app?vid=fc7217c1-85d8-45c7-bd9c-4d6ff908f390","ios":"levelo://app?vid=fc7217c1-85d8-45c7-bd9c-4d6ff908f390"},"vehicle_type_id":"4","last_reported":1728767301,"current_range_meters":7200,"station_id":"ce4bhu92rcd13ifvqi70","pricing_plan_id":"cebpf4jnsgd1na2vs0mg"},{"bike_id":"8509fa5d-c6d9-4cb2-b4b1-4f2065b2666e","system_id":"levelo_inurba_marseille","lat":43.28337,"lon":5.4106,"is_reserved":false,"is_disabled":false,"rental_uris":{"android":"levelo://app?vid=8509fa5d-c6d9-4cb2-b4b1-4f2065b2666e","ios":"levelo://app?vid=8509fa5d-c6d9-4cb2-b4b1-4f2065b2666e"},"vehicle_type_id":"4","last_reported":1728767301,"current_range_meters":4400,"station_id":"","pricing_plan_id":"cebpf4jnsgd1na2vs0mg"},{"bike_id":"700d96f5-91cb-4ad0-9c81-ee64754dd03a","system_id":"levelo_inurba_marseille","lat":43.31225,"lon":5.36853,"is_reserved":false,"is_disabled":false,"rental_uris":{"android":"levelo://app?vid=700d96f5-91cb-4ad0-9c81-ee64754dd03a","ios":"levelo://app?vid=700d96f5-91cb-4ad0-9c81-ee64754dd03a"},"vehicle_type_id":"4","last_reported":1728767301,"current_range_meters":39200,"station_id":"ce4bgl92rcd13ifvqbq0","pricing_plan_id":"cebpf4jnsgd1na2vs0mg"},{"bike_id":"b658904b-2364-4060-8ac4-2a820d96e078","system_id":"levelo_inurba_marseille","lat":43.24071,"lon":5.3776,"is_reserved":false,"is_disabled":false,"rental_uris":{"android":"levelo://app?vid=b658904b-2364-4060-8ac4-2a820d96e078","ios":"levelo://app?vid=b658904b-2364-4060-8ac4-2a820d96e078"},"vehicle_type_id":"4","last_reported":1728767301,"current_range_meters":34800,"station_id":"ce4bhnp2rcd13ifvqgvg","pricing_plan_id":"cebpf4jnsgd1na2vs0mg"},{"bike_id":"d1822047-b0bb-483d-a419-c2f300fb3ac6","system_id":"levelo_inurba_marseille","lat":43.24065,"lon":5.37764,"is_reserved":false,"is_disabled":false,"rental_uris":{"android":"levelo://app?vid=d1822047-b0bb-483d-a419-c2f300fb3ac6","ios":"levelo://app?vid=d1822047-b0bb-483d-a419-c2f300fb3ac6"},"vehicle_type_id":"4","last_reported":1728767301,"current_range_meters":24000,"station_id":"ce4bhnp2rcd13ifvqgvg","pricing_plan_id":"cebpf4jnsgd1na2vs0mg"},{"bike_id":"33a8bec8-4046-4133-8a01-0d8f102a7f2c","system_id":"levelo_inurba_marseille","lat":43.295321,"lon":5.385453,"is_reserved":false,"is_disabled":false,"rental_uris":{"android":"levelo://app?vid=33a8bec8-4046-4133-8a01-0d8f102a7f2c","ios":"levelo://app?vid=33a8bec8-4046-4133-8a01-0d8f102a7f2c"},"vehicle_type_id":"4","last_reported":1728767301,"current_range_meters":8000,"station_id":"ce4bgih2rcd13ifvqba0","pricing_plan_id":"cebpf4jnsgd1na2vs0mg"},{"bike_id":"6960328a-4d93-409c-8b03-e5caa3f58698","system_id":"levelo_inurba_marseille","lat":43.32336,"lon":5.40618,"is_reserved":false,"is_disabled":false,"rental_uris":{"android":"levelo://app?vid=6960328a-4d93-409c-8b03-e5caa3f58698","ios":"levelo://app?vid=6960328a-4d93-409c-8b03-e5caa3f58698"},"vehicle_type_id":"4","last_reported":1728767301,"current_range_meters":32000,"station_id":"ce4bhq92rcd13ifvqhjg","pricing_plan_id":"cebpf4jnsgd1na2vs0mg"},{"bike_id":"ae34a6e6-333e-46b1-a226-360921699056","system_id":"levelo_inurba_marseille","lat":43.27074,"lon":5.422823,"is_reserved":false,"is_disabled":false,"rental_uris":{"android":"levelo://app?vid=ae34a6e6-333e-46b1-a226-360921699056","ios":"levelo://app?vid=ae34a6e6-333e-46b1-a226-360921699056"},"vehicle_type_id":"4","last_reported":1728767301,"current_range_meters":30800,"station_id":"ce4bhk92rcd13ifvqgb0","pricing_plan_id":"cebpf4jnsgd1na2vs0mg"},{"bike_id":"27311a75-ebb6-43d6-9fb5-f3ba72a10e0e","system_id":"levelo_inurba_marseille","lat":43.29899,"lon":5.43662,"is_reserved":false,"is_disabled":false,"rental_uris":{"android":"levelo://app?vid=27311a75-ebb6-43d6-9fb5-f3ba72a10e0e","ios":"levelo://app?vid=27311a75-ebb6-43d6-9fb5-f3ba72a10e0e"},"vehicle_type_id":"4","last_reported":1728767301,"current_range_meters":21600,"station_id":"ce4bhpp2rcd13ifvqhfg","pricing_plan_id":"cebpf4jnsgd1na2vs0mg"},{"bike_id":"e45a3f89-ad34-4dd3-bc94-a8c84ca2baab","system_id":"levelo_inurba_marseille","lat":43.29905,"lon":5.38153,"is_reserved":false,"is_disabled":false,"rental_uris":{"android":"levelo://app?vid=e45a3f89-ad34-4dd3-bc94-a8c84ca2baab","ios":"levelo://app?vid=e45a3f89-ad34-4dd3-bc94-a8c84ca2baab"},"vehicle_type_id":"4","last_reported":1728767301,"current_range_meters":38800,"station_id":"ce4bgj12rcd13ifvqbc0","pricing_plan_id":"cebpf4jnsgd1na2vs0mg"},{"bike_id":"4af868b7-aeb1-4f7b-9f00-a345982fba30","system_id":"levelo_inurba_marseille","lat":43.31428,"lon":5.39364,"is_reserved":false,"is_disabled":false,"rental_uris":{"android":"levelo://app?vid=4af868b7-aeb1-4f7b-9f00-a345982fba30","ios":"levelo://app?vid=4af868b7-aeb1-4f7b-9f00-a345982fba30"},"vehicle_type_id":"4","last_reported":1728767301,"current_range_meters":8400,"station_id":"","pricing_plan_id":"cebpf4jnsgd1na2vs0mg"},{"bike_id":"b02c7343-143a-40f6-97ff-3a8f8018c9b6","system_id":"levelo_inurba_marseille","lat":43.29418,"lon":5.38615,"is_reserved":false,"is_disabled":false,"rental_uris":{"android":"levelo://app?vid=b02c7343-143a-40f6-97ff-3a8f8018c9b6","ios":"levelo://app?vid=b02c7343-143a-40f6-97ff-3a8f8018c9b6"},"vehicle_type_id":"4","last_reported":1728767301,"current_range_meters":32800,"station_id":"ce4bh2h2rcd13ifvqdh0","pricing_plan_id":"cebpf4jnsgd1na2vs0mg"},{"bike_id":"5ce9b128-8e40-4353-aa78-1ce7983698b7","system_id":"levelo_inurba_marseille","lat":43.26935,"lon":5.3892,"is_reserved":false,"is_disabled":false,"rental_uris":{"android":"levelo://app?vid=5ce9b128-8e40-4353-aa78-1ce7983698b7","ios":"levelo://app?vid=5ce9b128-8e40-4353-aa78-1ce7983698b7"},"vehicle_type_id":"4","last_reported":1728767301,"current_range_meters":38000,"station_id":"ce4bhhh2rcd13ifvqfl0","pricing_plan_id":"cebpf4jnsgd1na2vs0mg"},