{"last_updated":1758323355,"ttl":60,"version":"2.2","data":{"bikes":[{"bike_id":"d4e42fed-b7d1-4743-b033-42e94790e119","system_id":"levelo_inurba_marseille","lat":43.24034,"lon":5.37681,"is_reserved":false,"is_disabled":false,"rental_uris":{"android":"levelo://app?vid=d4e42fed-b7d1-4743-b033-42e94790e119","ios":"levelo://app?vid=d4e42fed-b7d1-4743-b033-42e94790e119"},"vehicle_type_id":"4","last_reported":1758323355,"current_range_meters":2800,"station_id":"","pricing_plan_id":"cebpf4jnsgd1na2vs0mg"},{"bike_id":"56975eb0-de58-4eee-bb76-c1ecb40f5858","system_id":"levelo_inurba_marseille","lat":43.29543,"lon":5.39331,"is_reserved":false,"is_disabled":false,"rental_uris":{"android":"levelo://app?vid=56975eb0-de58-4eee-bb76-c1ecb40f5858","ios":"levelo://app?vid=56975eb0-de58-4eee-bb76-c1ecb40f5858"},"vehicle_type_id":"4","last_reported":1758323355,"current_range_meters":2800,"station_id":"","pricing_plan_id":"cebpf4jnsgd1na2vs0mg"},{"bike_id":"7363cac5-c2d6-405b-9368-943d1d47ce1b","system_id":"levelo_inurba_marseille","lat":43.30312,"lon":5.39208,"is_reserved":false,"is_disabled":false,"rental_uris":{"android":"levelo://app?vid=7363cac5-c2d6-405b-9368-943d1d47ce1b","ios":"levelo://app?vid=7363cac5-c2d6-405b-9368-943d1d47ce1b"},"vehicle_type_id":"4","last_reported":1758323355,"current_range_meters":3200,"station_id":"ce4bgkh2rcd13ifvqbk0","pricing_plan_id":"cebpf4jnsgd1na2vs0mg"},{"bike_id":"7918c8ea-f7f4-4157-b837-0cbefe2a77c9","system_id":"levelo_inurba_marseille","lat":43.27489,"lon":5.42439,"is_reserved":false,"is_disabled":true,"rental_uris":{"android":"levelo://app?vid=7918c8ea-f7f4-4157-b837-0cbefe2a77c9","ios":"levelo://app?vid=7918c8ea-f7f4-4157-b837-0cbefe2a77c9"},"vehicle_type_id":"4","last_reported":1758323355,"current_range_meters":3200,"station_id":"ce4bhn92rcd13ifvqgrg","pricing_plan_id":"cebpf4jnsgd1na2vs0mg"},{"bike_id":"7b51a36e-d3c1-400a-a130-b00f35dc0b10","system_id":"levelo_inurba_marseille","lat":43.225343,"lon":5.348357,"is_reserved":false,"is_disabled":false,"rental_uris":{"android":"levelo://app?vid=7b51a36e-d3c1-400a-a130-b00f35dc0b10","ios":"levelo://app?vid=7b51a36e-d3c1-400a-a130-b00f35dc0b10"},"vehicle_type_id":"4","last_reported":1758323355,"current_range_meters":3200,"station_id":"","pricing_plan_id":"cebpf4jnsgd1na2vs0mg"},{"bike_id":"f58772fa-f621-4d0f-9843-84866e0b907a","system_id":"levelo_inurba_marseille","lat":43.24952,"lon":5.40497,"is_reserved":false,"is_disabled":false,"rental_uris":{"android":"levelo://app?vid=f58772fa-f621-4d0f-9843-84866e0b907a","ios":"levelo://app?vid=f58772fa-f621-4d0f-9843-84866e0b907a"},"vehicle_type_id":"4","last_reported":1758323355,"current_range_meters":3600,"station_id":"st_d2ngiaodas8pm72gd1h0","pricing_plan_id":"cebpf4jnsgd1na2vs0mg"},{"bike_id":"059c0ba7-1dcb-4f29-8d05-6060640937cc","system_id":"levelo_inurba_marseille","lat":43.310606,"lon":5.374533,"is_reserved":false,"is_disabled":true,"rental_uris":{"android":"levelo://app?vid=059c0ba7-1dcb-4f29-8d05-6060640937cc","ios":"levelo://app?vid=059c0ba7-1dcb-4f29-8d05-6060640937cc"},"vehicle_type_id":"4","last_reported":1758323355,"current_range_meters":3600,"station_id":"","pricing_plan_id":"cebpf4jnsgd1na2vs0mg"},{"bike_id":"2b5898fb-90bc-4ad0-8538-cc4e725b1a9e","system_id":"levelo_inurba_marseille","lat":43.28848,"lon":5.39333,"is_reserved":false,"is_disabled":false,"rental_uris":{"android":"levelo://app?vid=2b5898fb-90bc-4ad0-8538-cc4e725b1a9e","ios":"levelo://app?vid=2b5898fb-90bc-4ad0-8538-cc4e725b1a9e"},"vehicle_type_id":"4","last_reported":1758323355,"current_range_meters":3600,"station_id":"ce4bh2p2rcd13ifvqdi0","pricing_plan_id":"cebpf4jnsgd1na2vs0mg"},{"bike_id":"45afe5f4-5cbe-49c2-a913-33c967100178","system_id":"levelo_inurba_marseille","lat":43.29776,"lon":5.380931,"is_reserved":false,"is_disabled":false,"rental_uris":{"android":"levelo://app?vid=45afe5f4-5cbe-49c2-a913-33c967100178","ios":"levelo://app?vid=45afe5f4-5cbe-49c2-a913-33c967100178"},"vehicle_type_id":"4","last_reported":1758323355,"current_range_meters":3600,"station_id":"","pricing_plan_id":"cebpf4jnsgd1na2vs0mg"},{"bike_id":"9963a081-3d47-45c3-9a5f-f912abc0ffc5","system_id":"levelo_inurba_marseille","lat":43.250109,"lon":5.389169,"is_reserved":false,"is_disabled":true,"rental_uris":{"android":"levelo://app?vid=9963a081-3d47-45c3-9a5f-f912abc0ffc5","ios":"levelo://app?vid=9963a081-3d47-45c3-9a5f-f912abc0ffc5"},"vehicle_type_id":"4","last_reported":1758323355,"current_range_meters":4000,"station_id":"ce4bhgp2rcd13ifvqfd0","pricing_plan_id":"cebpf4jnsgd1na2vs0mg"},{"bike_id":"83fa453f-1a16-46b3-b2e1-c725ad9e7bf3","system_id":"levelo_inurba_marseille","lat":43.28808,"lon":5.37879,"is_reserved":false,"is_disabled":false,"rental_uris":{"android":"levelo://app?vid=83fa453f-1a16-46b3-b2e1-c725ad9e7bf3","ios":"levelo://app?vid=83fa453f-1a16-46b3-b2e1-c725ad9e7bf3"},"vehicle_type_id":"4","last_reported":1758323355,"current_range_meters":4400,"station_id":"","pricing_plan_id":"cebpf4jnsgd1na2vs0mg"},{"bike_id":"ccd44948-7c00-492e-b618-36105a29ab8f","system_id":"levelo_inurba_marseille","lat":43.326555,"lon":5.409879,"is_reserved":false,"is_disabled":true,"rental_uris":{"android":"levelo://app?vid=ccd44948-7c00-492e-b618-36105a29ab8f","ios":"levelo://app?vid=ccd44948-7c00-492e-b618-36105a29ab8f"},"vehicle_type_id":"4","last_reported":1758323355,"current_range_meters":4400,"station_id":"ce4bhpp2rcd13ifvqhgg","pricing_plan_id":"cebpf4jnsgd1na2vs0mg"},{"bike_id":"3b8815f6-6800-4fdd-8295-d57b46073b6e","system_id":"levelo_inurba_marseille","lat":43.3149,"lon":5.37311,"is_reserved":false,"is_disabled":false,"rental_uris":{"android":"levelo://app?vid=3b8815f6-6800-4fdd-8295-d57b46073b6e","ios":"levelo://app?vid=3b8815f6-6800-4fdd-8295-d57b46073b6e"},"vehicle_type_id":"4","last_reported":1758323355,"current_range_meters":4000,"station_id":"ce4bgt12rcd13ifvqcd0","pricing_plan_id":"cebpf4jnsgd1na2vs0mg"},{"bike_id":"c383a25a-46d3-4686-afad-e874823b853e","system_id":"levelo_inurba_marseille","lat":43.27448,"lon":5.40717,"is_reserved":false,"is_disabled":false,"rental_uris":{"android":"levelo://app?vid=c383a25a-46d3-4686-afad-e874823b853e","ios":"levelo://app?vid=c383a25a-46d3-4686-afad-e874823b853e"},"vehicle_type_id":"4","last_reported":1758323355,"current_range_meters":4400,"station_id":"","pricing_plan_id":"cebpf4jnsgd1na2vs0mg"},{"bike_id":"4bf1f2eb-930c-4f4f-a092-96dc744e7653","system_id":"levelo_inurba_marseille","lat":43.25871,"lon":5.39893,"is_reserved":false,"is_disabled":false,"rental_uris":{"android":"levelo://app?vid=4bf1f2eb-930c-4f4f-a092-96dc744e7653","ios":"levelo://app?vid=4bf1f2eb-930c-4f4f-a092-96dc744e7653"},"vehicle_type_id":"4","last_reported":1758323355,"current_range_meters":4000,"station_id":"ce4bhl92rcd13ifvqghg","pricing_plan_id":"cebpf4jnsgd1na2vs0mg"},{"bike_id":"7745eab8-3d48-4349-b863-861b7cc7cbd1","system_id":"levelo_inurba_marseille","lat":43.290054,"lon":5.381405,"is_reserved":false,"is_disabled":false,"rental_uris":{"android":"levelo://app?vid=7745eab8-3d48-4349-b863-861b7cc7cbd1","ios":"levelo://app?vid=7745eab8-3d48-4349-b863-861b7cc7cbd1"},"vehicle_type_id":"4","last_reported":1758323355,"current_range_meters":4800,"station_id":"","pricing_plan_id":"cebpf4jnsgd1na2vs0mg"},{"bike_id":"2dbfe08c-c3c1-4d5c-bf7b-29c8b6e02ccc","system_id":"levelo_inurba_marseille","lat":43.26628,"lon":5.39393,"is_reserved":false,"is_disabled":false,"rental_uris":{"android":"levelo://app?vid=2dbfe08c-c3c1-4d5c-bf7b-29c8b6e02ccc","ios":"levelo://app?vid=2dbfe08c-c3c1-4d5c-bf7b-29c8b6e02ccc"},"vehicle_type_id":"4","last_reported":1758323355,"current_range_meters":4800,"station_id":"","pricing_plan_id":"cebpf4jnsgd1na2vs0mg"},{"bike_id":"937bec02-6085-4d80-baeb-9dfddc788718","system_id":"levelo_inurba_marseille","lat":43.28445,"lon":5.39204,"is_reserved":false,"is_disabled":false,"rental_uris":{"android":"levelo://app?vid=937bec02-6085-4d80-baeb-9dfddc788718","ios":"levelo://app?vid=937bec02-6085-4d80-baeb-9dfddc788718"},"vehicle_type_id":"4","last_reported":1758323355,"current_range_meters":4800,"station_id":"ce4bhoh2rcd13ifvqh5g","pricing_plan_id":"cebpf4jnsgd1na2vs0mg"},{"bike_id":"03d0ca6a-6e64-45af-bdc0-1ba593c30399","system_id":"levelo_inurba_marseille","lat":43.28462,"lon":5.35883,"is_reserved":false,"is_disabled":false,"rental_uris":{"android":"levelo://app?vid=03d0ca6a-6e64-45af-bdc0-1ba593c30399","ios":"levelo://app?vid=03d0ca6a-6e64-45af-bdc0-1ba593c30399"},"vehicle_type_id":"4","last_reported":1758323355,"current_range_meters":5600,"station_id":"ce4bhah2rcd13ifvqei0","pricing_plan_id":"cebpf4jnsgd1na2vs0mg"},{"bike_id":"fded8b2d-f734-40d3-8617-fb518a6e3daa","system_id":"levelo_inurba_marseille","lat":43.28351,"lon":5.38109,"is_reserved":false,"is_disabled":false,"rental_uris":{"android":"levelo://app?vid=fded8b2d-f734-40d3-8617-fb518a6e3daa","ios":"levelo://app?vid=fded8b2d-f734-40d3-8617-fb518a6e3daa"},"vehicle_type_id":"4","last_reported":1758323355,"current_range_meters":5600,"station_id":"ce4bh412rcd13ifvqdr0","pricing_plan_id":"cebpf4jnsgd1na2vs0mg"},{"bike_id":"b81447f0-4bd9-47d1-bad4-5e38edea9525","system_id":"levelo_inurba_marseille","lat":43.29193,"lon":5.39315,"is_reserved":false,"is_disabled":false,"rental_uris":{"android":"levelo://app?vid=b81447f0-4bd9-47d1-bad4-5e38edea9525","ios":"levelo://app?vid=b81447f0-4bd9-47d1-bad4-5e38edea9525"},"vehicle_type_id":"4","last_reported":1758323355,"current_range_meters":5600,"station_id":"ce4bh192rcd13ifvqdd0","pricing_plan_id":"cebpf4jnsgd1na2vs0mg"},{"bike_id":"cf66592a-d8fa-4c6c-9927-5d7a9fef5026","system_id":"levelo_inurba_marseille","lat":43.2622,"lon":5.397383,"is_reserved":false,"is_disabled":false,"rental_uris":{"android":"levelo://app?vid=cf66592a-d8fa-4c6c-9927-5d7a9fef5026","ios":"levelo://app?vid=cf66592a-d8fa-4c6c-9927-5d7a9fef5026"},"vehicle_type_id":"4","last_reported":1758323355,"current_range_meters":5600,"station_id":"","pricing_plan_id":"cebpf4jnsgd1na2vs0mg"},{"bike_id":"7e10f632-621e-4f90-bfc4-bb4b96ef1323","system_id":"levelo_inurba_marseille","lat":43.29003,"lon":5.35615,"is_reserved":false,"is_disabled":false,"rental_uris":{"android":"levelo://app?vid=7e10f632-621e-4f90-bfc4-bb4b96ef1323","ios":"levelo://app?vid=7e10f632-621e-4f90-bfc4-bb4b96ef1323"},"vehicle_type_id":"4","last_reported":1758323355,"current_range_meters":5600,"station_id":"ce4bhb92rcd13ifvqen0","pricing_plan_id":"cebpf4jnsgd1na2vs0mg"},{"bike_id":"fb05b23f-e2d7-4e40-8352-082a79df5d61","system_id":"levelo_inurba_marseille","lat":43.27921,"lon":5.39578,"is_reserved":false,"is_disabled":false,"rental_uris":{"android":"levelo://app?vid=fb05b23f-e2d7-4e40-8352-082a79df5d61","ios":"levelo://app?vid=fb05b23f-e2d7-4e40-8352-082a79df5d61"},"vehicle_type_id":"4","last_reported":1758323355,"current_range_meters":6000,"station_id":"ce4bhf92rcd13ifvqf40","pricing_plan_id":"cebpf4jnsgd1na2vs0mg"},{"bike_id":"1e863618-ac87-42ed-8c1d-48839ebc318e","system_id":"levelo_inurba_marseille","lat":43.29532,"lon":5.37514,"is_reserved":false,"is_disabled":false,"rental_uris":{"android":"levelo://app?vid=1e863618-ac87-42ed-8c1d-48839ebc318e","ios":"levelo://app?vid=1e863618-ac87-42ed-8c1d-48839ebc318e"},"vehicle_type_id":"4","last_reported":1758323355,"current_range_meters":5600,"station_id":"ce4bgkp2rcd13ifvqbmg","pricing_plan_id":"cebpf4jnsgd1na2vs0mg"},{"bike_id":"f00176b4-1b14-482c-b7ca-1d195b827f57","system_id":"levelo_inurba_marseille","lat":43.28265,"lon":5.37381,"is_reserved":false,"is_disabled":false,"rental_uris":{"android":"levelo://app?vid=f00176b4-1b14-482c-b7ca-1d195b827f57","ios":"levelo://app?vid=f00176b4-1b14-482c-b7ca-1d195b827f57"},"vehicle_type_id":"4","last_reported":1758323355,"current_range_meters":6000,"station_id":"","pricing_plan_id":"cebpf4jnsgd1na2vs0mg"},{"bike_id":"c8df185d-72ec-4d4f-b49e-e1df8802e59a","system_id":"levelo_inurba_marseille","lat":43.2407,"lon":5.37758,"is_reserved":false,"is_disabled":false,"rental_uris":{"android":"levelo://app?vid=c8df185d-72ec-4d4f-b49e-e1df8802e59a","ios":"levelo://app?vid=c8df185d-72ec-4d4f-b49e-e1df8802e59a"},"vehicle_type_id":"4","last_reported":1758323355,"current_range_meters":6400,"station_id":"ce4bhnp2rcd13ifvqgvg","pricing_plan_id":"cebpf4jnsgd1na2vs0mg"},{"bike_id":"70ed37a5-f9e8-45c7-9dcc-a3684846e3e6","system_id":"levelo_inurba_marseille","lat":43.29567,"lon":5.37521,"is_reserved":false,"is_disabled":false,"rental_uris":{"android":"levelo://app?vid=70ed37a5-f9e8-45c7-9dcc-a3684846e3e6","ios":"levelo://app?vid=70ed37a5-f9e8-45c7-9dcc-a3684846e3e6"},"vehicle_type_id":"4","last_reported":1758323355,"current_range_meters":6800,"station_id":"ce4bgh92rcd13ifvqb50","pricing_plan_id":"cebpf4jnsgd1na2vs0mg"},{"bike_id":"bef78eae-a6a3-4f52-bc70-46b07d265e06","system_id":"levelo_inurba_marseille","lat":43.31128,"lon":5.37763,"is_reserved":false,"is_disabled":false,"rental_uris":{"android":"levelo://app?vid=bef78eae-a6a3-4f52-bc70-46b07d265e06","ios":"levelo://app?vid=bef78eae-a6a3-4f52-bc70-46b07d265e06"},"vehicle_type_id":"4","last_reported":1758323355,"current_range_meters":6800,"station_id":"ce4bgt92rcd13ifvqcg0","pricing_plan_id":"cebpf4jnsgd1na2vs0mg"},{"bike_id":"e1a64fbd-d78d-4b9e-beea-3856dcf0ad30","system_id":"levelo_inurba_marseille","lat":43.24647,"lon":5.38889,"is_reserved":false,"is_disabled":false,"rental_uris":{"android":"levelo://app?vid=e1a64fbd-d78d-4b9e-beea-3856dcf0ad30","ios":"levelo://app?vid=e1a64fbd-d78d-4b9e-beea-3856dcf0ad30"},"vehicle_type_id":"4","last_reported":1758323355,"current_range_meters":6400,"station_id":"ce4bhg12rcd13ifvqf60","pricing_plan_id":"cebpf4jnsgd1na2vs0mg"},{"bike_id":"283dca1c-d5db-4f18-a1b4-91168793d9c1","system_id":"levelo_inurba_marseille","lat":43.27423,"lon":5.39408,"is_reserved":false,"is_disabled":false,"rental_uris":{"android":"levelo://app?vid=283dca1c-d5db-4f18-a1b4-91168793d9c1","ios":"levelo://app?vid=283dca1c-d5db-4f18-a1b4-91168793d9c1"},"vehicle_type_id":"4","last_reported":1758323355,"current_range_meters":6400,"station_id":"ce4bhdp2rcd13ifvqf20","pricing_plan_id":"cebpf4jnsgd1na2vs0mg"},{"bike_id":"56a4f75d-eaf2-44b4-aa02-4a439b19699b","system_id":"levelo_inurba_marseille","lat":43.33766,"lon":5.37433,"is_reserved":false,"is_disabled":false,"rental_uris":{"android":"levelo://app?vid=56a4f75d-eaf2-44b4-aa02-4a439b19699b","ios":"levelo://app?vid=56a4f75d-eaf2-44b4-aa02-4a439b19699b"},"vehicle_type_id":"4","last_reported":1758323355,"current_range_meters":7200,"station_id":"","pricing_plan_id":"cebpf4jnsgd1na2vs0mg"},{"bike_id":"1d1d7c52-d7e8-4618-bdd9-cb975a77ad2d","system_id":"levelo_inurba_marseille","lat":43.27947,"lon":5.41048,"is_reserved":false,"is_disabled":false,"rental_uris":{"android":"levelo://app?vid=1d1d7c52-d7e8-4618-bdd9-cb975a77ad2d","ios":"levelo://app?vid=1d1d7c52-d7e8-4618-bdd9-cb975a77ad2d"},"vehicle_type_id":"4","last_reported":1758323355,"current_range_meters":7200,"station_id":"ce4bhnp2rcd13ifvqh0g","pricing_plan_id":"cebpf4jnsgd1na2vs0mg"},{"bike_id":"42323a1a-489c-43cb-90ae-c675b27444d5","system_id":"levelo_inurba_marseille","lat":43.21642,"lon":5.34375,"is_reserved":false,"is_disabled":false,"rental_uris":{"android":"levelo://app?vid=42323a1a-489c-43cb-90ae-c675b27444d5","ios":"levelo://app?vid=42323a1a-489c-43cb-90ae-c675b27444d5"},"vehicle_type_id":"4","last_reported":1758323355,"current_range_meters":7200,"station_id":"","pricing_plan_id":"cebpf4jnsgd1na2vs0mg"},{"bike_id":"f9636a44-11a8-49d6-9b1c-12db7ad64ee3","system_id":"levelo_inurba_marseille","lat":43.24181,"lon":5.39714,"is_reserved":false,"is_disabled":true,"rental_uris":{"android":"levelo://app?vid=f9636a44-11a8-49d6-9b1c-12db7ad64ee3","ios":"levelo://app?vid=f9636a44-11a8-49d6-9b1c-12db7ad64ee3"},"vehicle_type_id":"4","last_reported":1758323355,"current_range_meters":7200,"station_id":"ce4bhn12rcd13ifvqgpg","pricing_plan_id":"cebpf4jnsgd1na2vs0mg"},{"bike_id":"7799fb68-2af4-44d7-8815-0289541769cf","system_id":"levelo_inurba_marseille","lat":43.29246,"lon":5.38297,"is_reserved":false,"is_disabled":false,"rental_uris":{"android":"levelo://app?vid=7799fb68-2af4-44d7-8815-0289541769cf","ios":"levelo://app?vid=7799fb68-2af4-44d7-8815-0289541769cf"},"vehicle_type_id":"4","last_reported":1758323355,"current_range_meters":8000,"station_id":"","pricing_plan_id":"cebpf4jnsgd1na2vs0mg"},{"bike_id":"12be12e3-1aed-4f6e-8792-005ea4755f0b","system_id":"levelo_inurba_marseille","lat":43.31328,"lon":5.39693,"is_reserved":false,"is_disabled":false,"rental_uris":{"android":"levelo://app?vid=12be12e3-1aed-4f6e-8792-005ea4755f0b","ios":"levelo://app?vid=12be12e3-1aed-4f6e-8792-005ea4755f0b"},"vehicle_type_id":"4","last_reported":1758323355,"current_range_meters":8000,"station_id":"ce4bgvp2rcd13ifvqcu0","pricing_plan_id":"cebpf4jnsgd1na2vs0mg"},{"bike_id":"24441d87-2667-4f36-8b9f-0749ab10f10e","system_id":"levelo_inurba_marseille","lat":43.28423,"lon":5.37503,"is_reserved":false,"is_disabled":false,"rental_uris":{"android":"levelo://app?vid=24441d87-2667-4f36-8b9f-0749ab10f10e","ios":"levelo://app?vid=24441d87-2667-4f36-8b9f-0749ab10f10e"},"vehicle_type_id":"4","last_reported":1758323355,"current_range_meters":8000,"station_id":"ce4bh412rcd13ifvqds0","pricing_plan_id":"cebpf4jnsgd1na2vs0mg"},{"bike_id":"e6f8489d-fe42-4015-a82c-b604c2c8b33e","system_id":"levelo_inurba_marseille","lat":43.29795,"lon":5.36682,"is_reserved":false,"is_disabled":false,"rental_uris":{"android":"levelo://app?vid=e6f8489d-fe42-4015-a82c-b604c2c8b33e","ios":"levelo://app?vid=e6f8489d-fe42-4015-a82c-b604c2c8b33e"},"vehicle_type_id":"4","last_reported":1758323355,"current_range_meters":8000,"station_id":"","pricing_plan_id":"cebpf4jnsgd1na2vs0mg"},{"bike_id":"57eded94-ccca-4079-b248-4df7540dfc9a","system_id":"levelo_inurba_marseille","lat":43.283683,"lon":5.381061,"is_reserved":false,"is_disabled":false,"rental_uris":{"android":"levelo://app?vid=57eded94-ccca-4079-b248-4df7540dfc9a","ios":"levelo://app?vid=57eded94-ccca-4079-b248-4df7540dfc9a"},"vehicle_type_id":"4","last_reported":1758323355,"current_range_meters":8400,"station_id":"ce4bh412rcd13ifvqdr0","pricing_plan_id":"cebpf4jnsgd1na2vs0mg"},{"bike_id":"cad97885-b582-49b2-8b83-0a6c3d079fc6","system_id":"levelo_inurba_marseille","lat":43.297018,"lon":5.365873,"is_reserved":false,"is_disabled":false,"rental_uris":{"android":"levelo://app?vid=cad97885-b582-49b2-8b83-0a6c3d079fc6","ios":"levelo://app?vid=cad97885-b582-49b2-8b83-0a6c3d079fc6"},"vehicle_type_id":"4","last_reported":1758323355,"current_range_meters":8400,"station_id":"ce4bgn12rcd13ifvqbt0","pricing_plan_id":"cebpf4jnsgd1na2vs0mg"},{"bike_id":"a4faa1fd-62ee-404a-aff8-b79ea6b6b5d2","system_id":"levelo_inurba_marseille","lat":43.32986,"lon":5.39245,"is_reserved":false,"is_disabled":true,"rental_uris":{"android":"levelo://app?vid=a4faa1fd-62ee-404a-aff8-b79ea6b6b5d2","ios":"levelo://app?vid=a4faa1fd-62ee-404a-aff8-b79ea6b6b5d2"},"vehicle_type_id":"4","last_reported":1758323355,"current_range_meters":8400,"station_id":"","pricing_plan_id":"cebpf4jnsgd1na2vs0mg"},{"bike_id":"e942f984-8fe7-48d1-8f04-3806656b9996","system_id":"levelo_inurba_marseille","lat":43.33622,"lon":5.37927,"is_reserved":false,"is_disabled":false,"rental_uris":{"android":"levelo://app?vid=e942f984-8fe7-48d1-8f04-3806656b9996","ios":"levelo://app?vid=e942f984-8fe7-48d1-8f04-3806656b9996"},"vehicle_type_id":"4","last_reported":1758323355,"current_range_meters":8400,"station_id":"","pricing_plan_id":"cebpf4jnsgd1na2vs0mg"},{"bike_id":"3e845417-2e4b-4123-9300-0ca2c76520b7","system_id":"levelo_inurba_marseille","lat":43.30469,"lon":5.37901,"is_reserved":false,"is_disabled":false,"rental_uris":{"android":"levelo://app?vid=3e845417-2e4b-4123-9300-0ca2c76520b7","ios":"levelo://app?vid=3e845417-2e4b-4123-9300-0ca2c76520b7"},"vehicle_type_id":"4","last_reported":1758323355,"current_range_meters":11200,"station_id":"ce4bgup2rcd13ifvqcn0","pricing_plan_id":"cebpf4jnsgd1na2vs0mg"},{"bike_id":"09072e22-69e4-4626-b463-ded44cfd8e7d","system_id":"levelo_inurba_marseille","lat":43.298127,"lon":5.417095,"is_reserved":false,"is_disabled":false,"rental_uris":{"android":"levelo://app?vid=09072e22-69e4-4626-b463-ded44cfd8e7d","ios":"levelo://app?vid=09072e22-69e4-4626-b463-ded44cfd8e7d"},"vehicle_type_id":"4","last_reported":1758323355,"current_range_meters":8800,"station_id":"","pricing_plan_id":"cebpf4jnsgd1na2vs0mg"},{"bike_id":"c689c95c-fe0b-49b4-b02a-4c6e0bfa415a","system_id":"levelo_inurba_marseille","lat":43.24805,"lon":5.37454,"is_reserved":false,"is_disabled":false,"rental_uris":{"android":"levelo://app?vid=c689c95c-fe0b-49b4-b02a-4c6e0bfa415a","ios":"levelo://app?vid=c689c95c-fe0b-49b4-b02a-4c6e0bfa415a"},"vehicle_type_id":"4","last_reported":1758323355,"current_range_meters":8800,"station_id":"ce4bhgh2rcd13ifvqfb0","pricing_plan_id":"cebpf4jnsgd1na2vs0mg"},{"bike_id":"22f0687d-25d3-4094-9c4a-293a61e189a6","system_id":"levelo_inurba_marseille","lat":43.2463,"lon":5.39626,"is_reserved":false,"is_disabled":false,"rental_uris":{"android":"levelo://app?vid=22f0687d-25d3-4094-9c4a-293a61e189a6","ios":"levelo://app?vid=22f0687d-25d3-4094-9c4a-293a61e189a6"},"vehicle_type_id":"4","last_reported":1758323355,"current_range_meters":8800,"station_id":"","pricing_plan_id":"cebpf4jnsgd1na2vs0mg"},{"bike_id":"e8bdf398-438b-4ece-a830-3ffe7634ab6b","system_id":"levelo_inurba_marseille","lat":43.30948,"lon":5.39039,"is_reserved":false,"is_disabled":false,"rental_uris":{"android":"levelo://app?vid=e8bdf398-438b-4ece-a830-3ffe7634ab6b","ios":"levelo://app?vid=e8bdf398-438b-4ece-a830-3ffe7634ab6b"},"vehicle_type_id":"4","last_reported":1758323355,"current_range_meters":9200,"station_id":"ce4bgup2rcd13ifvqco0","pricing_plan_id":"cebpf4jnsgd1na2vs0mg"},{"bike_id":"b83f3d6c-1bfd-4815-bf69-a692c5c235e6","system_id":"levelo_inurba_marseille","lat":43.30816,"lon":5.38158,"is_reserved":false,"is_disabled":false,"rental_uris":{"android":"levelo://app?vid=b83f3d6c-1bfd-4815-bf69-a692c5c235e6","ios":"levelo://app?vid=b83f3d6c-1bfd-4815-bf69-a692c5c235e6"},"vehicle_type_id":"4","last_reported":1758323355,"current_range_meters":9200,"station_id":"ce4bgt12rcd13ifvqce0","pricing_plan_id":"cebpf4jnsgd1na2vs0mg"},{"bike_id":"cc05a417-a31a-48d1-9578-4fe3ddce0fcd","system_id":"levelo_inurba_marseille","lat":43.28928,"lon":5.38393,"is_reserved":false,"is_disabled":true,"rental_uris":{"android":"levelo://app?vid=cc05a417-a31a-48d1-9578-4fe3ddce0fcd","ios":"levelo://app?vid=cc05a417-a31a-48d1-9578-4fe3ddce0fcd"},"vehicle_type_id":"4","last_reported":1758323355,"current_range_meters":9200,"station_id":"ce4bh612rcd13ifvqe6g","pricing_plan_id":"cebpf4jnsgd1na2vs0mg"},{"bike_id":"3c3470a2-767a-497a-8edc-1a6137fe2904","system_id":"levelo_inurba_marseille","lat":43.30908,"lon":5.36841,"is_reserved":false,"is_disabled":false,"rental_uris":{"android":"levelo://app?vid=3c3470a2-767a-497a-8edc-1a6137fe2904","ios":"levelo://app?vid=3c3470a2-767a-497a-8edc-1a6137fe2904"},"vehicle_type_id":"4","last_reported":1758323355,"current_range_meters":9200,"station_id":"ce4bgn92rcd13ifvqbvg","pricing_plan_id":"cebpf4jnsgd1na2vs0mg"},{"bike_id":"c3897c00-e950-4044-8f08-e0b1f3ccd977","system_id":"levelo_inurba_marseille","lat":43.22957,"lon":5.35357,"is_reserved":false,"is_disabled":true,"rental_uris":{"android":"levelo://app?vid=c3897c00-e950-4044-8f08-e0b1f3ccd977","ios":"levelo://app?vid=c3897c00-e950-4044-8f08-e0b1f3ccd977"},"vehicle_type_id":"4","last_reported":1758323355,"current_range_meters":9200,"station_id":"cpo3532slgdg3j2ikp40","pricing_plan_id":"cebpf4jnsgd1na2vs0mg"},{"bike_id":"870d0f45-3364-447a-9a54-c493b7f2b3ee","system_id":"levelo_inurba_marseille","lat":43.25553,"lon":5.41215,"is_reserved":false,"is_disabled":false,"rental_uris":{"android":"levelo://app?vid=870d0f45-3364-447a-9a54-c493b7f2b3ee","ios":"levelo://app?vid=870d0f45-3364-447a-9a54-c493b7f2b3ee"},"vehicle_type_id":"4","last_reported":1758323355,"current_range_meters":9600,"station_id":"","pricing_plan_id":"cebpf4jnsgd1na2vs0mg"},{"bike_id":"95a62c10-7ca9-4348-809a-c3089ad076d3","system_id":"levelo_inurba_marseille","lat":43.29882,"lon":5.39745,"is_reserved":false,"is_disabled":true,"rental_uris":{"android":"levelo://app?vid=95a62c10-7ca9-4348-809a-c3089ad076d3","ios":"levelo://app?vid=95a62c10-7ca9-4348-809a-c3089ad076d3"},"vehicle_type_id":"4","last_reported":1758323355,"current_range_meters":9600,"station_id":"ce4bh0h2rcd13ifvqd50","pricing_plan_id":"cebpf4jnsgd1na2vs0mg"},{"bike_id":"c03db5d6-931c-41e0-bfa5-6550a106fb99","system_id":"levelo_inurba_marseille","lat":43.23283,"lon":5.36018,"is_reserved":false,"is_disabled":false,"rental_uris":{"android":"levelo://app?vid=c03db5d6-931c-41e0-bfa5-6550a106fb99","ios":"levelo://app?vid=c03db5d6-931c-41e0-bfa5-6550a106fb99"},"vehicle_type_id":"4","last_reported":1758323355,"current_range_meters":9600,"station_id":"","pricing_plan_id":"cebpf4jnsgd1na2vs0mg"},{"bike_id":"7f0262d9-e731-42b4-90fc-312605a762a7","system_id":"levelo_inurba_marseille","lat":43.27842,"lon":5.39208,"is_reserved":false,"is_disabled":false,"rental_uris":{"android":"levelo://app?vid=7f0262d9-e731-42b4-90fc-312605a762a7","ios":"levelo://app?vid=7f0262d9-e731-42b4-90fc-312605a762a7"},"vehicle_type_id":"4","last_reported":1758323355,"current_range_meters":9600,"station_id":"ce4bhjp2rcd13ifvqga0","pricing_plan_id":"cebpf4jnsgd1na2vs0mg"},{"bike_id":"cc48539f-3363-44f7-9041-3eea5291a9db","system_id":"levelo_inurba_marseille","lat":43.2124,"lon":5.35099,"is_reserved":false,"is_disabled":true,"rental_uris":{"android":"levelo://app?vid=cc48539f-3363-44f7-9041-3eea5291a9db","ios":"levelo://app?vid=cc48539f-3363-44f7-9041-3eea5291a9db"},"vehicle_type_id":"4","last_reported":1758323355,"current_range_meters":9600,"station_id":"","pricing_plan_id":"cebpf4jnsgd1na2vs0mg"},{"bike_id":"3e682cf4-5ea7-4563-9004-71435c031ec4","system_id":"levelo_inurba_marseille","lat":43.21171,"lon":5.35064,"is_reserved":false,"is_disabled":true,"rental_uris":{"android":"levelo://app?vid=3e682cf4-5ea7-4563-9004-71435c031ec4","ios":"levelo://app?vid=3e682cf4-5ea7-4563-9004-71435c031ec4"},"vehicle_type_id":"4","last_reported":1758323355,"current_range_meters":10000,"station_id":"st_cvj6sg6p6f1abm77japg","pricing_plan_id":"cebpf4jnsgd1na2vs0mg"},{"bike_id":"2da9c956-b409-4164-a4da-406c6018cc73","system_id":"levelo_inurba_marseille","lat":43.28853,"lon":5.39321,"is_reserved":false,"is_disabled":false,"rental_uris":{"android":"levelo://app?vid=2da9c956-b409-4164-a4da-406c6018cc73","ios":"levelo://app?vid=2da9c956-b409-4164-a4da-406c6018cc73"},"vehicle_type_id":"4","last_reported":1758323355,"current_range_meters":10000,"station_id":"ce4bh2p2rcd13ifvqdi0","pricing_plan_id":"cebpf4jnsgd1na2vs0mg"},{"bike_id":"9063e291-39a2-473b-aace-0d4a731c8881","system_id":"levelo_inurba_marseille","lat":43.313558,"lon":5.384887,"is_reserved":false,"is_disabled":false,"rental_uris":{"android":"levelo://app?vid=9063e291-39a2-473b-aace-0d4a731c8881","ios":"levelo://app?vid=9063e291-39a2-473b-aace-0d4a731c8881"},"vehicle_type_id":"4","last_reported":1758323355,"current_range_meters":10000,"station_id":"","pricing_plan_id":"cebpf4jnsgd1na2vs0mg"},{"bike_id":"24e8419e-2185-4363-b4e7-8b85db1a6a15","system_id":"levelo_inurba_marseille","lat":43.28717,"lon":5.37934,"is_reserved":false,"is_disabled":false,"rental_uris":{"android":"levelo://app?vid=24e8419e-2185-4363-b4e7-8b85db1a6a15","ios":"levelo://app?vid=24e8419e-2185-4363-b4e7-8b85db1a6a15"},"vehicle_type_id":"4","last_reported":1758323355,"current_range_meters":9600,"station_id":"ce4bh9p2rcd13ifvqec0","pricing_plan_id":"cebpf4jnsgd1na2vs0mg"},{"bike_id":"fb78ea42-e26f-45b3-a617-d3474b811b72","system_id":"levelo_inurba_marseille","lat":43.29882,"lon":5.37914,"is_reserved":false,"is_disabled":false,"rental_uris":{"android":"levelo://app?vid=fb78ea42-e26f-45b3-a617-d3474b811b72","ios":"levelo://app?vid=fb78ea42-e26f-45b3-a617-d3474b811b72"},"vehicle_type_id":"4","last_reported":1758323355,"current_range_meters":10000,"station_id":"","pricing_plan_id":"cebpf4jnsgd1na2vs0mg"},{"bike_id":"2aa1e690-fb47-41f4-87b4-95b056172a1a","system_id":"levelo_inurba_marseille","lat":43.22929,"lon":5.35374,"is_reserved":false,"is_disabled":true,"rental_uris":{"android":"levelo://app?vid=2aa1e690-fb47-41f4-87b4-95b056172a1a","ios":"levelo://app?vid=2aa1e690-fb47-41f4-87b4-95b056172a1a"},"vehicle_type_id":"4","last_reported":1758323355,"current_range_meters":10000,"station_id":"cpo3532slgdg3j2ikp40","pricing_plan_id":"cebpf4jnsgd1na2vs0mg"},{"bike_id":"d862f164-f309-419a-93d7-aee3e3d67ac3","system_id":"levelo_inurba_marseille","lat":43.286449,"lon":5.385656,"is_reserved":false,"is_disabled":false,"rental_uris":{"android":"levelo://app?vid=d862f164-f309-419a-93d7-aee3e3d67ac3","ios":"levelo://app?vid=d862f164-f309-419a-93d7-aee3e3d67ac3"},"vehicle_type_id":"4","last_reported":1758323355,"current_range_meters":10000,"station_id":"ce4bh492rcd13ifvqdug","pricing_plan_id":"cebpf4jnsgd1na2vs0mg"},{"bike_id":"5bb42022-0e19-48bc-a5b4-218bb1d7482e","system_id":"levelo_inurba_marseille","lat":43.31274,"lon":5.37732,"is_reserved":false,"is_disabled":false,"rental_uris":{"android":"levelo://app?vid=5bb42022-0e19-48bc-a5b4-218bb1d7482e","ios":"levelo://app?vid=5bb42022-0e19-48bc-a5b4-218bb1d7482e"},"vehicle_type_id":"4","last_reported":1758323355,"current_range_meters":10000,"station_id":"","pricing_plan_id":"cebpf4jnsgd1na2vs0mg"},{"bike_id":"b5175bf2-b970-4193-a107-a70c3097ce26","system_id":"levelo_inurba_marseille","lat":43.253318,"lon":5.421835,"is_reserved":false,"is_disabled":false,"rental_uris":{"android":"levelo://app?vid=b5175bf2-b970-4193-a107-a70c3097ce26","ios":"levelo://app?vid=b5175bf2-b970-4193-a107-a70c3097ce26"},"vehicle_type_id":"4","last_reported":1758323355,"current_range_meters":10000,"station_id":"st_d2m65c5bi1j21697t3ng","pricing_plan_id":"cebpf4jnsgd1na2vs0mg"},{"bike_id":"8357d124-133b-4d01-8bd9-f54b0458fdae","system_id":"levelo_inurba_marseille","lat":43.29275,"lon":5.40115,"is_reserved":false,"is_disabled":false,"rental_uris":{"android":"levelo://app?vid=8357d124-133b-4d01-8bd9-f54b0458fdae","ios":"levelo://app?vid=8357d124-133b-4d01-8bd9-f54b0458fdae"},"vehicle_type_id":"4","last_reported":1758323355,"current_range_meters":10000,"station_id":"ce4bh312rcd13ifvqdk0","pricing_plan_id":"cebpf4jnsgd1na2vs0mg"},{"bike_id":"1fd58164-b504-4d89-aaf6-585c0a196aff","system_id":"levelo_inurba_marseille","lat":43.26572,"lon":5.39006,"is_reserved":false,"is_disabled":false,"rental_uris":{"android":"levelo://app?vid=1fd58164-b504-4d89-aaf6-585c0a196aff","ios":"levelo://app?vid=1fd58164-b504-4d89-aaf6-585c0a196aff"},"vehicle_type_id":"4","last_reported":1758323355,"current_range_meters":10000,"station_id":"ce4bhe12rcd13ifvqf30","pricing_plan_id":"cebpf4jnsgd1na2vs0mg"},{"bike_id":"c627b34a-8e81-4438-af3b-4fd0aab1c160","system_id":"levelo_inurba_marseille","lat":43.29607,"lon":5.36063,"is_reserved":false,"is_disabled":false,"rental_uris":{"android":"levelo://app?vid=c627b34a-8e81-4438-af3b-4fd0aab1c160","ios":"levelo://app?vid=c627b34a-8e81-4438-af3b-4fd0aab1c160"},"vehicle_type_id":"4","last_reported":1758323355,"current_range_meters":10000,"station_id":"","pricing_plan_id":"cebpf4jnsgd1na2vs0mg"},{"bike_id":"f6650f57-f864-4a1e-a2eb-cbb35d17ffaa","system_id":"levelo_inurba_marseille","lat":43.27837,"lon":5.39205,"is_reserved":false,"is_disabled":false,"rental_uris":{"android":"levelo://app?vid=f6650f57-f864-4a1e-a2eb-cbb35d17ffaa","ios":"levelo://app?vid=f6650f57-f864-4a1e-a2eb-cbb35d17ffaa"},"vehicle_type_id":"4","last_reported":1758323355,"current_range_meters":10000,"station_id":"ce4bhjp2rcd13ifvqga0","pricing_plan_id":"cebpf4jnsgd1na2vs0mg"},{"bike_id":"1f29a6e5-f9e3-4c61-b416-d9b618cf143d","system_id":"levelo_inurba_marseille","lat":43.25097,"lon":5.40347,"is_reserved":false,"is_disabled":false,"rental_uris":{"android":"levelo://app?vid=1f29a6e5-f9e3-4c61-b416-d9b618cf143d","ios":"levelo://app?vid=1f29a6e5-f9e3-4c61-b416-d9b618cf143d"},"vehicle_type_id":"4","last_reported":1758323355,"current_range_meters":10800,"station_id":"ce4bhlh2rcd13ifvqgig","pricing_plan_id":"cebpf4jnsgd1na2vs0mg"},{"bike_id":"d9ec7a97-1d29-43c8-ba8a-62da00814ee6","system_id":"levelo_inurba_marseille","lat":43.31165,"lon":5.38727,"is_reserved":false,"is_disabled":false,"rental_uris":{"android":"levelo://app?vid=d9ec7a97-1d29-43c8-ba8a-62da00814ee6","ios":"levelo://app?vid=d9ec7a97-1d29-43c8-ba8a-62da00814ee6"},"vehicle_type_id":"4","last_reported":1758323355,"current_range_meters":10800,"station_id":"ce4bgv12rcd13ifvqcp0","pricing_plan_id":"cebpf4jnsgd1na2vs0mg"},{"bike_id":"4bbb8e4b-8415-4755-924b-7c4f87fc83dd","system_id":"levelo_inurba_marseille","lat":43.2174,"lon":5.34622,"is_reserved":false,"is_disabled":false,"rental_uris":{"android":"levelo://app?vid=4bbb8e4b-8415-4755-924b-7c4f87fc83dd","ios":"levelo://app?vid=4bbb8e4b-8415-4755-924b-7c4f87fc83dd"},"vehicle_type_id":"4","last_reported":1758323355,"current_range_meters":10800,"station_id":"","pricing_plan_id":"cebpf4jnsgd1na2vs0mg"},{"bike_id":"5d95fb7d-5eba-4145-a94c-fcf7774159e7","system_id":"levelo_inurba_marseille","lat":43.28841,"lon":5.39297,"is_reserved":false,"is_disabled":false,"rental_uris":{"android":"levelo://app?vid=5d95fb7d-5eba-4145-a94c-fcf7774159e7","ios":"levelo://app?vid=5d95fb7d-5eba-4145-a94c-fcf7774159e7"},"vehicle_type_id":"4","last_reported":1758323355,"current_range_meters":10000,"station_id":"ce4bh2p2rcd13ifvqdi0","pricing_plan_id":"cebpf4jnsgd1na2vs0mg"},{"bike_id":"95d2325b-e638-433f-aebd-31c947d2c9b8","system_id":"levelo_inurba_marseille","lat":43.28401,"lon":5.37518,"is_reserved":false,"is_disabled":false,"rental_uris":{"android":"levelo://app?vid=95d2325b-e638-433f-aebd-31c947d2c9b8","ios":"levelo://app?vid=95d2325b-e638-433f-aebd-31c947d2c9b8"},"vehicle_type_id":"4","last_reported":1758323355,"current_range_meters":10800,"station_id":"ce4bh412rcd13ifvqds0","pricing_plan_id":"cebpf4jnsgd1na2vs0mg"},{"bike_id":"e27a80ec-a6f1-4d92-9616-65578fa9e7d2","system_id":"levelo_inurba_marseille","lat":43.28452,"lon":5.35887,"is_reserved":false,"is_disabled":false,"rental_uris":{"android":"levelo://app?vid=e27a80ec-a6f1-4d92-9616-65578fa9e7d2","ios":"levelo://app?vid=e27a80ec-a6f1-4d92-9616-65578fa9e7d2"},"vehicle_type_id":"4","last_reported":1758323355,"current_range_meters":11200,"station_id":"ce4bhah2rcd13ifvqei0","pricing_plan_id":"cebpf4jnsgd1na2vs0mg"},{"bike_id":"cf66087d-6ea2-4b6d-87d6-63f88d466c0a","system_id":"levelo_inurba_marseille","lat":43.290295,"lon":5.3865,"is_reserved":false,"is_disabled":false,"rental_uris":{"android":"levelo://app?vid=cf66087d-6ea2-4b6d-87d6-63f88d466c0a","ios":"levelo://app?vid=cf66087d-6ea2-4b6d-87d6-63f88d466c0a"},"vehicle_type_id":"4","last_reported":1758323355,"current_range_meters":11200,"station_id":"ce4bh4p2rcd13ifvqe0g","pricing_plan_id":"cebpf4jnsgd1na2vs0mg"},{"bike_id":"9fbb7c71-aca5-47cb-801e-8a399e51d16c","system_id":"levelo_inurba_marseille","lat":43.23181,"lon":5.3999,"is_reserved":false,"is_disabled":false,"rental_uris":{"android":"levelo://app?vid=9fbb7c71-aca5-47cb-801e-8a399e51d16c","ios":"levelo://app?vid=9fbb7c71-aca5-47cb-801e-8a399e51d16c"},"vehicle_type_id":"4","last_reported":1758323355,"current_range_meters":11200,"station_id":"ce4bhn12rcd13ifvqgqg","pricing_plan_id":"cebpf4jnsgd1na2vs0mg"},{"bike_id":"bf6e6d27-c09e-4725-9fbc-20073fd5a515","system_id":"levelo_inurba_marseille","lat":43.289376,"lon":5.396214,"is_reserved":false,"is_disabled":false,"rental_uris":{"android":"levelo://app?vid=bf6e6d27-c09e-4725-9fbc-20073fd5a515","ios":"levelo://app?vid=bf6e6d27-c09e-4725-9fbc-20073fd5a515"},"vehicle_type_id":"4","last_reported":1758323355,"current_range_meters":11200,"station_id":"","pricing_plan_id":"cebpf4jnsgd1na2vs0mg"},{"bike_id":"951ee77c-e71c-4102-acce-b655a0692088","system_id":"levelo_inurba_marseille","lat":43.30182,"lon":5.36626,"is_reserved":false,"is_disabled":false,"rental_uris":{"android":"levelo://app?vid=951ee77c-e71c-4102-acce-b655a0692088","ios":"levelo://app?vid=951ee77c-e71c-4102-acce-b655a0692088"},"vehicle_type_id":"4","last_reported":1758323355,"current_range_meters":10800,"station_id":"ce4bgrh2rcd13ifvqc8g","pricing_plan_id":"cebpf4jnsgd1na2vs0mg"},{"bike_id":"0960e3dd-c358-4474-bd10-8223758e1f6b","system_id":"levelo_inurba_marseille","lat":43.296996,"lon":5.376855,"is_reserved":false,"is_disabled":false,"rental_uris":{"android":"levelo://app?vid=0960e3dd-c358-4474-bd10-8223758e1f6b","ios":"levelo://app?vid=0960e3dd-c358-4474-bd10-8223758e1f6b"},"vehicle_type_id":"4","last_reported":1758323355,"current_range_meters":11200,"station_id":"","pricing_plan_id":"cebpf4jnsgd1na2vs0mg"},{"bike_id":"0765f1d1-081b-48ff-b4ce-50191a579599","system_id":"levelo_inurba_marseille","lat":43.24172,"lon":5.39734,"is_reserved":false,"is_disabled":false,"rental_uris":{"android":"levelo://app?vid=0765f1d1-081b-48ff-b4ce-50191a579599","ios":"levelo://app?vid=0765f1d1-081b-48ff-b4ce-50191a579599"},"vehicle_type_id":"4","last_reported":1758323355,"current_range_meters":11600,"station_id":"ce4bhn12rcd13ifvqgpg","pricing_plan_id":"cebpf4jnsgd1na2vs0mg"},{"bike_id":"e0fa618d-316c-40f0-84a4-361066b627a3","system_id":"levelo_inurba_marseille","lat":43.21748,"lon":5.34611,"is_reserved":false,"is_disabled":true,"rental_uris":{"android":"levelo://app?vid=e0fa618d-316c-40f0-84a4-361066b627a3","ios":"levelo://app?vid=e0fa618d-316c-40f0-84a4-361066b627a3"},"vehicle_type_id":"4","last_reported":1758323355,"current_range_meters":11600,"station_id":"st_cvj6r9ubvosntc0bgbag","pricing_plan_id":"cebpf4jnsgd1na2vs0mg"},{"bike_id":"96da19f2-8fc5-4bd0-b12d-1d35b24e322e","system_id":"levelo_inurba_marseille","lat":43.31366,"lon":5.3849,"is_reserved":false,"is_disabled":false,"rental_uris":{"android":"levelo://app?vid=96da19f2-8fc5-4bd0-b12d-1d35b24e322e","ios":"levelo://app?vid=96da19f2-8fc5-4bd0-b12d-1d35b24e322e"},"vehicle_type_id":"4","last_reported":1758323355,"current_range_meters":11600,"station_id":"ce4bgt92rcd13ifvqcf0","pricing_plan_id":"cebpf4jnsgd1na2vs0mg"},{"bike_id":"f71031ac-9a08-4a05-9269-160da0fdba3c","system_id":"levelo_inurba_marseille","lat":43.23961,"lon":5.36641,"is_reserved":false,"is_disabled":false,"rental_uris":{"android":"levelo://app?vid=f71031ac-9a08-4a05-9269-160da0fdba3c","ios":"levelo://app?vid=f71031ac-9a08-4a05-9269-160da0fdba3c"},"vehicle_type_id":"4","last_reported":1758323355,"current_range_meters":12000,"station_id":"ce4bhi12rcd13ifvqfp0","pricing_plan_id":"cebpf4jnsgd1na2vs0mg"},{"bike_id":"626b6093-634e-4cbb-b2d9-40fd2760e802","system_id":"levelo_inurba_marseille","lat":43.258272,"lon":5.39426,"is_reserved":false,"is_disabled":false,"rental_uris":{"android":"levelo://app?vid=626b6093-634e-4cbb-b2d9-40fd2760e802","ios":"levelo://app?vid=626b6093-634e-4cbb-b2d9-40fd2760e802"},"vehicle_type_id":"4","last_reported":1758323355,"current_range_meters":12000,"station_id":"ce4bhip2rcd13ifvqft0","pricing_plan_id":"cebpf4jnsgd1na2vs0mg"},{"bike_id":"6dc49f8f-31b8-485c-b489-e3fd253e6676","system_id":"levelo_inurba_marseille","lat":43.333009,"lon":5.410255,"is_reserved":false,"is_disabled":true,"rental_uris":{"android":"levelo://app?vid=6dc49f8f-31b8-485c-b489-e3fd253e6676","ios":"levelo://app?vid=6dc49f8f-31b8-485c-b489-e3fd253e6676"},"vehicle_type_id":"4","last_reported":1758323355,"current_range_meters":12000,"station_id":"","pricing_plan_id":"cebpf4jnsgd1na2vs0mg"},{"bike_id":"763e1c7b-4204-4606-b4f1-24e020849598","system_id":"levelo_inurba_marseille","lat":43.26063,"lon":5.39401,"is_reserved":false,"is_disabled":false,"rental_uris":{"android":"levelo://app?vid=763e1c7b-4204-4606-b4f1-24e020849598","ios":"levelo://app?vid=763e1c7b-4204-4606-b4f1-24e020849598"},"vehicle_type_id":"4","last_reported":1758323355,"current_range_meters":11600,"station_id":"ce4bhh92rcd13ifvqfj0","pricing_plan_id":"cebpf4jnsgd1na2vs0mg"},{"bike_id":"518eef5b-9e3c-4b06-94a9-56e70af9d262","system_id":"levelo_inurba_marseille","lat":43.30808,"lon":5.38181,"is_reserved":false,"is_disabled":true,"rental_uris":{"android":"levelo://app?vid=518eef5b-9e3c-4b06-94a9-56e70af9d262","ios":"levelo://app?vid=518eef5b-9e3c-4b06-94a9-56e70af9d262"},"vehicle_type_id":"4","last_reported":1758323355,"current_range_meters":12000,"station_id":"ce4bgt12rcd13ifvqce0","pricing_plan_id":"cebpf4jnsgd1na2vs0mg"},{"bike_id":"28ef5f00-961e-486d-ac79-a33ec88b4852","system_id":"levelo_inurba_marseille","lat":43.23185,"lon":5.3999,"is_reserved":false,"is_disabled":false,"rental_uris":{"android":"levelo://app?vid=28ef5f00-961e-486d-ac79-a33ec88b4852","ios":"levelo://app?vid=28ef5f00-961e-486d-ac79-a33ec88b4852"},"vehicle_type_id":"4","last_reported":1758323355,"current_range_meters":12400,"station_id":"ce4bhn12rcd13ifvqgqg","pricing_plan_id":"cebpf4jnsgd1na2vs0mg"},{"bike_id":"931664d9-a1f9-4b23-9426-5b3082bf7d09","system_id":"levelo_inurba_marseille","lat":43.309278,"lon":5.401402,"is_reserved":false,"is_disabled":true,"rental_uris":{"android":"levelo://app?vid=931664d9-a1f9-4b23-9426-5b3082bf7d09","ios":"levelo://app?vid=931664d9-a1f9-4b23-9426-5b3082bf7d09"},"vehicle_type_id":"4","last_reported":1758323355,"current_range_meters":12400,"station_id":"ce4bgvp2rcd13ifvqct0","pricing_plan_id":"cebpf4jnsgd1na2vs0mg"},{"bike_id":"346f7bc9-0967-4998-9e01-a1c881161e89","system_id":"levelo_inurba_marseille","lat":43.29023,"lon":5.37913,"is_reserved":false,"is_disabled":false,"rental_uris":{"android":"levelo://app?vid=346f7bc9-0967-4998-9e01-a1c881161e89","ios":"levelo://app?vid=346f7bc9-0967-4998-9e01-a1c881161e89"},"vehicle_type_id":"4","last_reported":1758323355,"current_range_meters":12400,"station_id":"ce4bh9p2rcd13ifvqed0","pricing_plan_id":"cebpf4jnsgd1na2vs0mg"},{"bike_id":"d0c88191-6c65-47e4-abd4-72fe028b9a15","system_id":"levelo_inurba_marseille","lat":43.295804,"lon":5.399738,"is_reserved":false,"is_disabled":false,"rental_uris":{"android":"levelo://app?vid=d0c88191-6c65-47e4-abd4-72fe028b9a15","ios":"levelo://app?vid=d0c88191-6c65-47e4-abd4-72fe028b9a15"},"vehicle_type_id":"4","last_reported":1758323355,"current_range_meters":12400,"station_id":"ce4bh312rcd13ifvqdj0","pricing_plan_id":"cebpf4jnsgd1na2vs0mg"},{"bike_id":"78101373-b8b4-498e-8461-ea5dc9f7a6b0","system_id":"levelo_inurba_marseille","lat":43.3127,"lon":5.40173,"is_reserved":false,"is_disabled":false,"rental_uris":{"android":"levelo://app?vid=78101373-b8b4-498e-8461-ea5dc9f7a6b0","ios":"levelo://app?vid=78101373-b8b4-498e-8461-ea5dc9f7a6b0"},"vehicle_type_id":"4","last_reported":1758323355,"current_range_meters":12000,"station_id":"ce4bh092rcd13ifvqd30","pricing_plan_id":"cebpf4jnsgd1na2vs0mg"},{"bike_id":"9c0693b2-33f4-40d9-85fa-754a770a9d54","system_id":"levelo_inurba_marseille","lat":43.295188,"lon":5.390328,"is_reserved":false,"is_disabled":false,"rental_uris":{"android":"levelo://app?vid=9c0693b2-33f4-40d9-85fa-754a770a9d54","ios":"levelo://app?vid=9c0693b2-33f4-40d9-85fa-754a770a9d54"},"vehicle_type_id":"4","last_reported":1758323355,"current_range_meters":12400,"station_id":"ce4bh312rcd13ifvqdj0","pricing_plan_id":"cebpf4jnsgd1na2vs0mg"},{"bike_id":"e5338652-76af-4ad8-bccf-8f87248b4197","system_id":"levelo_inurba_marseille","lat":43.27939,"lon":5.41057,"is_reserved":false,"is_disabled":false,"rental_uris":{"android":"levelo://app?vid=e5338652-76af-4ad8-bccf-8f87248b4197","ios":"levelo://app?vid=e5338652-76af-4ad8-bccf-8f87248b4197"},"vehicle_type_id":"4","last_reported":1758323355,"current_range_meters":12400,"station_id":"ce4bhnp2rcd13ifvqh0g","pricing_plan_id":"cebpf4jnsgd1na2vs0mg"},{"bike_id":"d0e82d88-6691-4f50-8622-d36731a035b5","system_id":"levelo_inurba_marseille","lat":43.27074,"lon":5.42276,"is_reserved":false,"is_disabled":false,"rental_uris":{"android":"levelo://app?vid=d0e82d88-6691-4f50-8622-d36731a035b5","ios":"levelo://app?vid=d0e82d88-6691-4f50-8622-d36731a035b5"},"vehicle_type_id":"4","last_reported":1758323355,"current_range_meters":12800,"station_id":"ce4bhk92rcd13ifvqgb0","pricing_plan_id":"cebpf4jnsgd1na2vs0mg"},{"bike_id":"f85a8c4d-f9d0-4136-9b57-8bfb28db950c","system_id":"levelo_inurba_marseille","lat":43.31888,"lon":5.37394,"is_reserved":false,"is_disabled":false,"rental_uris":{"android":"levelo://app?vid=f85a8c4d-f9d0-4136-9b57-8bfb28db950c","ios":"levelo://app?vid=f85a8c4d-f9d0-4136-9b57-8bfb28db950c"},"vehicle_type_id":"4","last_reported":1758323355,"current_range_meters":12800,"station_id":"","pricing_plan_id":"cebpf4jnsgd1na2vs0mg"},{"bike_id":"fbf8b3ef-fab4-496b-9171-97052b3bc0bd","system_id":"levelo_inurba_marseille","lat":43.30598,"lon":5.3725,"is_reserved":false,"is_disabled":true,"rental_uris":{"android":"levelo://app?vid=fbf8b3ef-fab4-496b-9171-97052b3bc0bd","ios":"levelo://app?vid=fbf8b3ef-fab4-496b-9171-97052b3bc0bd"},"vehicle_type_id":"4","last_reported":1758323355,"current_range_meters":13600,"station_id":"ce4bgqh2rcd13ifvqc4g","pricing_plan_id":"cebpf4jnsgd1na2vs0mg"},{"bike_id":"27245587-82ed-48d8-b73e-02c57fe2aecd","system_id":"levelo_inurba_marseille","lat":43.28152,"lon":5.42643,"is_reserved":false,"is_disabled":false,"rental_uris":{"android":"levelo://app?vid=27245587-82ed-48d8-b73e-02c57fe2aecd","ios":"levelo://app?vid=27245587-82ed-48d8-b73e-02c57fe2aecd"},"vehicle_type_id":"4","last_reported":1758323355,"current_range_meters":13600,"station_id":"ce4bhnh2rcd13ifvqgug","pricing_plan_id":"cebpf4jnsgd1na2vs0mg"},{"bike_id":"438ead59-de14-4fa0-a61d-03a70a4122ae","system_id":"levelo_inurba_marseille","lat":43.97288,"lon":4.89143,"is_reserved":false,"is_disabled":true,"rental_uris":{"android":"levelo://app?vid=438ead59-de14-4fa0-a61d-03a70a4122ae","ios":"levelo://app?vid=438ead59-de14-4fa0-a61d-03a70a4122ae"},"vehicle_type_id":"4","last_reported":1758323355,"current_range_meters":13600,"station_id":"","pricing_plan_id":"cebpf4jnsgd1na2vs0mg"},{"bike_id":"0ae365e3-70c1-48f0-a4e0-27cdc8f78feb","system_id":"levelo_inurba_marseille","lat":43.28457,"lon":5.35889,"is_reserved":false,"is_disabled":false,"rental_uris":{"android":"levelo://app?vid=0ae365e3-70c1-48f0-a4e0-27cdc8f78feb","ios":"levelo://app?vid=0ae365e3-70c1-48f0-a4e0-27cdc8f78feb"},"vehicle_type_id":"4","last_reported":1758323355,"current_range_meters":13600,"station_id":"ce4bhah2rcd13ifvqei0","pricing_plan_id":"cebpf4jnsgd1na2vs0mg"},{"bike_id":"5e3bf85c-7ff6-4d71-998d-4e940edf82e7","system_id":"levelo_inurba_marseille","lat":43.27494,"lon":5.42461,"is_reserved":false,"is_disabled":true,"rental_uris":{"android":"levelo://app?vid=5e3bf85c-7ff6-4d71-998d-4e940edf82e7","ios":"levelo://app?vid=5e3bf85c-7ff6-4d71-998d-4e940edf82e7"},"vehicle_type_id":"4","last_reported":1758323355,"current_range_meters":14000,"station_id":"ce4bhn92rcd13ifvqgrg","pricing_plan_id":"cebpf4jnsgd1na2vs0mg"},{"bike_id":"3c70ac7d-f6f1-4b32-a730-a5dfc2e234bf","system_id":"levelo_inurba_marseille","lat":43.29256,"lon":5.37618,"is_reserved":false,"is_disabled":true,"rental_uris":{"android":"levelo://app?vid=3c70ac7d-f6f1-4b32-a730-a5dfc2e234bf","ios":"levelo://app?vid=3c70ac7d-f6f1-4b32-a730-a5dfc2e234bf"},"vehicle_type_id":"4","last_reported":1758323355,"current_range_meters":14000,"station_id":"ce4bgi12rcd13ifvqb80","pricing_plan_id":"cebpf4jnsgd1na2vs0mg"},{"bike_id":"67621102-8163-458f-b8e5-2cd87379724e","system_id":"levelo_inurba_marseille","lat":43.2893,"lon":5.38404,"is_reserved":false,"is_disabled":false,"rental_uris":{"android":"levelo://app?vid=67621102-8163-458f-b8e5-2cd87379724e","ios":"levelo://app?vid=67621102-8163-458f-b8e5-2cd87379724e"},"vehicle_type_id":"4","last_reported":1758323355,"current_range_meters":14000,"station_id":"ce4bh612rcd13ifvqe6g","pricing_plan_id":"cebpf4jnsgd1na2vs0mg"},{"bike_id":"dccefeab-758e-4850-a415-f18571ed0a71","system_id":"levelo_inurba_marseille","lat":43.295362,"lon":5.38547,"is_reserved":false,"is_disabled":true,"rental_uris":{"android":"levelo://app?vid=dccefeab-758e-4850-a415-f18571ed0a71","ios":"levelo://app?vid=dccefeab-758e-4850-a415-f18571ed0a71"},"vehicle_type_id":"4","last_reported":1758323355,"current_range_meters":14000,"station_id":"ce4bgih2rcd13ifvqba0","pricing_plan_id":"cebpf4jnsgd1na2vs0mg"},{"bike_id":"2499a65f-106c-4cee-823e-c9d939ffbc5f","system_id":"levelo_inurba_marseille","lat":43.31097,"lon":5.38596,"is_reserved":false,"is_disabled":false,"rental_uris":{"android":"levelo://app?vid=2499a65f-106c-4cee-823e-c9d939ffbc5f","ios":"levelo://app?vid=2499a65f-106c-4cee-823e-c9d939ffbc5f"},"vehicle_type_id":"4","last_reported":1758323355,"current_range_meters":14000,"station_id":"","pricing_plan_id":"cebpf4jnsgd1na2vs0mg"},{"bike_id":"9f2ea657-2ddf-4bb3-9388-0bf0005986aa","system_id":"levelo_inurba_marseille","lat":43.281225,"lon":5.386019,"is_reserved":false,"is_disabled":false,"rental_uris":{"android":"levelo://app?vid=9f2ea657-2ddf-4bb3-9388-0bf0005986aa","ios":"levelo://app?vid=9f2ea657-2ddf-4bb3-9388-0bf0005986aa"},"vehicle_type_id":"4","last_reported":1758323355,"current_range_meters":14400,"station_id":"ce4bhgp2rcd13ifvqfe0","pricing_plan_id":"cebpf4jnsgd1na2vs0mg"},{"bike_id":"0bfe348e-6459-4dea-b9d4-f1251d15e612","system_id":"levelo_inurba_marseille","lat":43.31988,"lon":5.38149,"is_reserved":false,"is_disabled":false,"rental_uris":{"android":"levelo://app?vid=0bfe348e-6459-4dea-b9d4-f1251d15e612","ios":"levelo://app?vid=0bfe348e-6459-4dea-b9d4-f1251d15e612"},"vehicle_type_id":"4","last_reported":1758323355,"current_range_meters":14400,"station_id":"ce4bhr12rcd13ifvqhpg","pricing_plan_id":"cebpf4jnsgd1na2vs0mg"},{"bike_id":"bb72ba64-0211-468b-8863-8690777c217e","system_id":"levelo_inurba_marseille","lat":43.32122,"lon":5.36771,"is_reserved":false,"is_disabled":false,"rental_uris":{"android":"levelo://app?vid=bb72ba64-0211-468b-8863-8690777c217e","ios":"levelo://app?vid=bb72ba64-0211-468b-8863-8690777c217e"},"vehicle_type_id":"4","last_reported":1758323355,"current_range_meters":14400,"station_id":"ce4bhrh2rcd13ifvqhug","pricing_plan_id":"cebpf4jnsgd1na2vs0mg"},{"bike_id":"df0199ee-ab4f-48ab-bbe9-404b970e49dc","system_id":"levelo_inurba_marseille","lat":43.290612,"lon":5.371612,"is_reserved":false,"is_disabled":true,"rental_uris":{"android":"levelo://app?vid=df0199ee-ab4f-48ab-bbe9-404b970e49dc","ios":"levelo://app?vid=df0199ee-ab4f-48ab-bbe9-404b970e49dc"},"vehicle_type_id":"4","last_reported":1758323355,"current_range_meters":14400,"station_id":"ce4bh5p2rcd13ifvqe4g","pricing_plan_id":"cebpf4jnsgd1na2vs0mg"},{"bike_id":"58a9c915-8672-402c-a39a-0bc92ad395dd","system_id":"levelo_inurba_marseille","lat":43.28667,"lon":5.38668,"is_reserved":false,"is_disabled":false,"rental_uris":{"android":"levelo://app?vid=58a9c915-8672-402c-a39a-0bc92ad395dd","ios":"levelo://app?vid=58a9c915-8672-402c-a39a-0bc92ad395dd"},"vehicle_type_id":"4","last_reported":1758323355,"current_range_meters":14400,"station_id":"ce4bh492rcd13ifvqdug","pricing_plan_id":"cebpf4jnsgd1na2vs0mg"},{"bike_id":"23fac069-01cc-45b6-b24d-e676fd2da16a","system_id":"levelo_inurba_marseille","lat":43.29265,"lon":5.36849,"is_reserved":false,"is_disabled":true,"rental_uris":{"android":"levelo://app?vid=23fac069-01cc-45b6-b24d-e676fd2da16a","ios":"levelo://app?vid=23fac069-01cc-45b6-b24d-e676fd2da16a"},"vehicle_type_id":"4","last_reported":1758323355,"current_range_meters":14400,"station_id":"ce4bhbp2rcd13ifvqesg","pricing_plan_id":"cebpf4jnsgd1na2vs0mg"},{"bike_id":"f3d5766b-009b-4447-ba6f-191e47db3168","system_id":"levelo_inurba_marseille","lat":43.28078,"lon":5.39651,"is_reserved":false,"is_disabled":false,"rental_uris":{"android":"levelo://app?vid=f3d5766b-009b-4447-ba6f-191e47db3168","ios":"levelo://app?vid=f3d5766b-009b-4447-ba6f-191e47db3168"},"vehicle_type_id":"4","last_reported":1758323355,"current_range_meters":14800,"station_id":"ce4bho12rcd13ifvqh2g","pricing_plan_id":"cebpf4jnsgd1na2vs0mg"},{"bike_id":"5c7c2bf1-a8fd-45f2-90d6-7fa74078a8c5","system_id":"levelo_inurba_marseille","lat":43.31982,"lon":5.38131,"is_reserved":false,"is_disabled":false,"rental_uris":{"android":"levelo://app?vid=5c7c2bf1-a8fd-45f2-90d6-7fa74078a8c5","ios":"levelo://app?vid=5c7c2bf1-a8fd-45f2-90d6-7fa74078a8c5"},"vehicle_type_id":"4","last_reported":1758323355,"current_range_meters":14800,"station_id":"ce4bhr12rcd13ifvqhpg","pricing_plan_id":"cebpf4jnsgd1na2vs0mg"},{"bike_id":"c4706891-6ce1-4440-91ff-a3ecf2ff007e","system_id":"levelo_inurba_marseille","lat":43.26374,"lon":5.40075,"is_reserved":false,"is_disabled":false,"rental_uris":{"android":"levelo://app?vid=c4706891-6ce1-4440-91ff-a3ecf2ff007e","ios":"levelo://app?vid=c4706891-6ce1-4440-91ff-a3ecf2ff007e"},"vehicle_type_id":"4","last_reported":1758323355,"current_range_meters":14800,"station_id":"","pricing_plan_id":"cebpf4jnsgd1na2vs0mg"},{"bike_id":"15056272-9948-4fb8-8a3f-0dce85d9f376","system_id":"levelo_inurba_marseille","lat":43.2783,"lon":5.3922,"is_reserved":false,"is_disabled":true,"rental_uris":{"android":"levelo://app?vid=15056272-9948-4fb8-8a3f-0dce85d9f376","ios":"levelo://app?vid=15056272-9948-4fb8-8a3f-0dce85d9f376"},"vehicle_type_id":"4","last_reported":1758323355,"current_range_meters":14800,"station_id":"ce4bhjp2rcd13ifvqga0","pricing_plan_id":"cebpf4jnsgd1na2vs0mg"},{"bike_id":"adb875be-c1f5-4164-a03d-6eed71a2d07a","system_id":"levelo_inurba_marseille","lat":43.30898,"lon":5.39716,"is_reserved":false,"is_disabled":false,"rental_uris":{"android":"levelo://app?vid=adb875be-c1f5-4164-a03d-6eed71a2d07a","ios":"levelo://app?vid=adb875be-c1f5-4164-a03d-6eed71a2d07a"},"vehicle_type_id":"4","last_reported":1758323355,"current_range_meters":14800,"station_id":"ce4bh012rcd13ifvqcv0","pricing_plan_id":"cebpf4jnsgd1na2vs0mg"},{"bike_id":"835975a0-27c7-47e7-bc1c-b8ba0b505127","system_id":"levelo_inurba_marseille","lat":43.32598,"lon":5.37817,"is_reserved":false,"is_disabled":false,"rental_uris":{"android":"levelo://app?vid=835975a0-27c7-47e7-bc1c-b8ba0b505127","ios":"levelo://app?vid=835975a0-27c7-47e7-bc1c-b8ba0b505127"},"vehicle_type_id":"4","last_reported":1758323355,"current_range_meters":14800,"station_id":"","pricing_plan_id":"cebpf4jnsgd1na2vs0mg"},{"bike_id":"8ff6ebdd-f92a-4e15-9e22-1db9d9ccf481","system_id":"levelo_inurba_marseille","lat":43.30087,"lon":5.39102,"is_reserved":false,"is_disabled":false,"rental_uris":{"android":"levelo://app?vid=8ff6ebdd-f92a-4e15-9e22-1db9d9ccf481","ios":"levelo://app?vid=8ff6ebdd-f92a-4e15-9e22-1db9d9ccf481"},"vehicle_type_id":"4","last_reported":1758323355,"current_range_meters":14400,"station_id":"ce4bh192rcd13ifvqdb0","pricing_plan_id":"cebpf4jnsgd1na2vs0mg"},{"bike_id":"8b6320c3-44ed-44ef-af80-2793e6b874c2","system_id":"levelo_inurba_marseille","lat":43.27998,"lon":5.4166,"is_reserved":false,"is_disabled":false,"rental_uris":{"android":"levelo://app?vid=8b6320c3-44ed-44ef-af80-2793e6b874c2","ios":"levelo://app?vid=8b6320c3-44ed-44ef-af80-2793e6b874c2"},"vehicle_type_id":"4","last_reported":1758323355,"current_range_meters":14800,"station_id":"ce4bho12rcd13ifvqh1g","pricing_plan_id":"cebpf4jnsgd1na2vs0mg"},{"bike_id":"cffc7bea-3cb5-4aca-b803-5b7635d58611","system_id":"levelo_inurba_marseille","lat":43.28212,"lon":5.39046,"is_reserved":false,"is_disabled":false,"rental_uris":{"android":"levelo://app?vid=cffc7bea-3cb5-4aca-b803-5b7635d58611","ios":"levelo://app?vid=cffc7bea-3cb5-4aca-b803-5b7635d58611"},"vehicle_type_id":"4","last_reported":1758323355,"current_range_meters":15200,"station_id":"ce4bhn92rcd13ifvqgsg","pricing_plan_id":"cebpf4jnsgd1na2vs0mg"},{"bike_id":"43d57fd4-047e-4ac8-97e5-ec9b96239472","system_id":"levelo_inurba_marseille","lat":43.32605,"lon":5.38922,"is_reserved":false,"is_disabled":false,"rental_uris":{"android":"levelo://app?vid=43d57fd4-047e-4ac8-97e5-ec9b96239472","ios":"levelo://app?vid=43d57fd4-047e-4ac8-97e5-ec9b96239472"},"vehicle_type_id":"4","last_reported":1758323355,"current_range_meters":15200,"station_id":"","pricing_plan_id":"cebpf4jnsgd1na2vs0mg"},{"bike_id":"29f28a79-a806-4e1b-a62e-8a6bc0e64dae","system_id":"levelo_inurba_marseille","lat":43.28696,"lon":5.39975,"is_reserved":false,"is_disabled":false,"rental_uris":{"android":"levelo://app?vid=29f28a79-a806-4e1b-a62e-8a6bc0e64dae","ios":"levelo://app?vid=29f28a79-a806-4e1b-a62e-8a6bc0e64dae"},"vehicle_type_id":"4","last_reported":1758323355,"current_range_meters":16000,"station_id":"ce4bho92rcd13ifvqh3g","pricing_plan_id":"cebpf4jnsgd1na2vs0mg"},{"bike_id":"187abdd9-f176-42b2-bb65-eb41d646063a","system_id":"levelo_inurba_marseille","lat":43.30146,"lon":5.37395,"is_reserved":false,"is_disabled":false,"rental_uris":{"android":"levelo://app?vid=187abdd9-f176-42b2-bb65-eb41d646063a","ios":"levelo://app?vid=187abdd9-f176-42b2-bb65-eb41d646063a"},"vehicle_type_id":"4","last_reported":1758323355,"current_range_meters":16000,"station_id":"ce4bgs92rcd13ifvqcc0","pricing_plan_id":"cebpf4jnsgd1na2vs0mg"},{"bike_id":"04c7d08f-bac6-4502-ac60-a6896241f8e4","system_id":"levelo_inurba_marseille","lat":43.32383,"lon":5.38463,"is_reserved":false,"is_disabled":false,"rental_uris":{"android":"levelo://app?vid=04c7d08f-bac6-4502-ac60-a6896241f8e4","ios":"levelo://app?vid=04c7d08f-bac6-4502-ac60-a6896241f8e4"},"vehicle_type_id":"4","last_reported":1758323355,"current_range_meters":16000,"station_id":"","pricing_plan_id":"cebpf4jnsgd1na2vs0mg"},{"bike_id":"8e86fe12-b2d6-4764-9720-31f5ab462b7b","system_id":"levelo_inurba_marseille","lat":43.22578,"lon":5.4161,"is_reserved":false,"is_disabled":false,"rental_uris":{"android":"levelo://app?vid=8e86fe12-b2d6-4764-9720-31f5ab462b7b","ios":"levelo://app?vid=8e86fe12-b2d6-4764-9720-31f5ab462b7b"},"vehicle_type_id":"4","last_reported":1758323355,"current_range_meters":16000,"station_id":"st_d2o4gvlbi1j2169b742g","pricing_plan_id":"cebpf4jnsgd1na2vs0mg"},{"bike_id":"a1a12c71-6d96-4648-a25f-8df642a6dc66","system_id":"levelo_inurba_marseille","lat":43.284756,"lon":5.384324,"is_reserved":false,"is_disabled":true,"rental_uris":{"android":"levelo://app?vid=a1a12c71-6d96-4648-a25f-8df642a6dc66","ios":"levelo://app?vid=a1a12c71-6d96-4648-a25f-8df642a6dc66"},"vehicle_type_id":"4","last_reported":1758323355,"current_range_meters":16000,"station_id":"ce4bh512rcd13ifvqe3g","pricing_plan_id":"cebpf4jnsgd1na2vs0mg"},{"bike_id":"100fc699-7bc2-45de-9e70-967069e79569","system_id":"levelo_inurba_marseille","lat":43.2794,"lon":5.41051,"is_reserved":false,"is_disabled":false,"rental_uris":{"android":"levelo://app?vid=100fc699-7bc2-45de-9e70-967069e79569","ios":"levelo://app?vid=100fc699-7bc2-45de-9e70-967069e79569"},"vehicle_type_id":"4","last_reported":1758323355,"current_range_meters":16000,"station_id":"ce4bhnp2rcd13ifvqh0g","pricing_plan_id":"cebpf4jnsgd1na2vs0mg"},{"bike_id":"fdcc689b-8bfd-49e7-9a87-e1ecca521fdd","system_id":"levelo_inurba_marseille","lat":43.3107,"lon":5.38354,"is_reserved":false,"is_disabled":false,"rental_uris":{"android":"levelo://app?vid=fdcc689b-8bfd-49e7-9a87-e1ecca521fdd","ios":"levelo://app?vid=fdcc689b-8bfd-49e7-9a87-e1ecca521fdd"},"vehicle_type_id":"4","last_reported":1758323355,"current_range_meters":16000,"station_id":"ce4bgv92rcd13ifvqcr0","pricing_plan_id":"cebpf4jnsgd1na2vs0mg"},{"bike_id":"05ca0aa0-5596-4971-a0c3-94e65df6bd50","system_id":"levelo_inurba_marseille","lat":43.22557,"lon":5.4162,"is_reserved":false,"is_disabled":false,"rental_uris":{"android":"levelo://app?vid=05ca0aa0-5596-4971-a0c3-94e65df6bd50","ios":"levelo://app?vid=05ca0aa0-5596-4971-a0c3-94e65df6bd50"},"vehicle_type_id":"4","last_reported":1758323355,"current_range_meters":16000,"station_id":"st_d2o4gvlbi1j2169b742g","pricing_plan_id":"cebpf4jnsgd1na2vs0mg"},{"bike_id":"9079e93d-d2a1-49e5-ad14-48936f28c73f","system_id":"levelo_inurba_marseille","lat":43.28664,"lon":5.36356,"is_reserved":false,"is_disabled":false,"rental_uris":{"android":"levelo://app?vid=9079e93d-d2a1-49e5-ad14-48936f28c73f","ios":"levelo://app?vid=9079e93d-d2a1-49e5-ad14-48936f28c73f"},"vehicle_type_id":"4","last_reported":1758323355,"current_range_meters":16000,"station_id":"ce4bhah2rcd13ifvqej0","pricing_plan_id":"cebpf4jnsgd1na2vs0mg"},{"bike_id":"11f536f5-f858-4572-b106-c5cc3146e3cd","system_id":"levelo_inurba_marseille","lat":43.25344,"lon":5.42175,"is_reserved":false,"is_disabled":false,"rental_uris":{"android":"levelo://app?vid=11f536f5-f858-4572-b106-c5cc3146e3cd","ios":"levelo://app?vid=11f536f5-f858-4572-b106-c5cc3146e3cd"},"vehicle_type_id":"4","last_reported":1758323355,"current_range_meters":16000,"station_id":"st_d2m65c5bi1j21697t3ng","pricing_plan_id":"cebpf4jnsgd1na2vs0mg"},{"bike_id":"ae3d0329-fde3-49fb-ac08-4bee4187ed70","system_id":"levelo_inurba_marseille","lat":43.28704,"lon":5.39976,"is_reserved":false,"is_disabled":false,"rental_uris":{"android":"levelo://app?vid=ae3d0329-fde3-49fb-ac08-4bee4187ed70","ios":"levelo://app?vid=ae3d0329-fde3-49fb-ac08-4bee4187ed70"},"vehicle_type_id":"4","last_reported":1758323355,"current_range_meters":16000,"station_id":"ce4bho92rcd13ifvqh3g","pricing_plan_id":"cebpf4jnsgd1na2vs0mg"},{"bike_id":"ed635907-943c-41e0-bd77-28b7d0dd7533","system_id":"levelo_inurba_marseille","lat":43.30101,"lon":5.39075,"is_reserved":false,"is_disabled":false,"rental_uris":{"android":"levelo://app?vid=ed635907-943c-41e0-bd77-28b7d0dd7533","ios":"levelo://app?vid=ed635907-943c-41e0-bd77-28b7d0dd7533"},"vehicle_type_id":"4","last_reported":1758323355,"current_range_meters":16400,"station_id":"ce4bh192rcd13ifvqdb0","pricing_plan_id":"cebpf4jnsgd1na2vs0mg"},{"bike_id":"5f344223-10cb-4573-94a8-230d4a392804","system_id":"levelo_inurba_marseille","lat":43.30308,"lon":5.39212,"is_reserved":false,"is_disabled":false,"rental_uris":{"android":"levelo://app?vid=5f344223-10cb-4573-94a8-230d4a392804","ios":"levelo://app?vid=5f344223-10cb-4573-94a8-230d4a392804"},"vehicle_type_id":"4","last_reported":1758323355,"current_range_meters":16400,"station_id":"ce4bgkh2rcd13ifvqbk0","pricing_plan_id":"cebpf4jnsgd1na2vs0mg"},{"bike_id":"1183e5a1-e22e-4747-8fdb-78281176399f","system_id":"levelo_inurba_marseille","lat":43.28034,"lon":5.36948,"is_reserved":false,"is_disabled":false,"rental_uris":{"android":"levelo://app?vid=1183e5a1-e22e-4747-8fdb-78281176399f","ios":"levelo://app?vid=1183e5a1-e22e-4747-8fdb-78281176399f"},"vehicle_type_id":"4","last_reported":1758323355,"current_range_meters":16400,"station_id":"ce4bha12rcd13ifvqef0","pricing_plan_id":"cebpf4jnsgd1na2vs0mg"},{"bike_id":"ad8aba07-a3cf-4f20-acb9-ad695c1b21c2","system_id":"levelo_inurba_marseille","lat":43.24663,"lon":5.38172,"is_reserved":false,"is_disabled":false,"rental_uris":{"android":"levelo://app?vid=ad8aba07-a3cf-4f20-acb9-ad695c1b21c2","ios":"levelo://app?vid=ad8aba07-a3cf-4f20-acb9-ad695c1b21c2"},"vehicle_type_id":"4","last_reported":1758323355,"current_range_meters":16400,"station_id":"ce4bhih2rcd13ifvqfr0","pricing_plan_id":"cebpf4jnsgd1na2vs0mg"},{"bike_id":"73d49efc-a042-4389-b9e6-8c48f0129701","system_id":"levelo_inurba_marseille","lat":43.3148,"lon":5.37308,"is_reserved":false,"is_disabled":false,"rental_uris":{"android":"levelo://app?vid=73d49efc-a042-4389-b9e6-8c48f0129701","ios":"levelo://app?vid=73d49efc-a042-4389-b9e6-8c48f0129701"},"vehicle_type_id":"4","last_reported":1758323355,"current_range_meters":16400,"station_id":"ce4bgt12rcd13ifvqcd0","pricing_plan_id":"cebpf4jnsgd1na2vs0mg"},{"bike_id":"76ecefcc-5748-4899-a711-7d831c2a10a3","system_id":"levelo_inurba_marseille","lat":43.290281,"lon":5.386436,"is_reserved":false,"is_disabled":false,"rental_uris":{"android":"levelo://app?vid=76ecefcc-5748-4899-a711-7d831c2a10a3","ios":"levelo://app?vid=76ecefcc-5748-4899-a711-7d831c2a10a3"},"vehicle_type_id":"4","last_reported":1758323355,"current_range_meters":16400,"station_id":"ce4bh4p2rcd13ifvqe0g","pricing_plan_id":"cebpf4jnsgd1na2vs0mg"},{"bike_id":"0f7caa9f-1d1a-40d7-9b4a-2f8720e63681","system_id":"levelo_inurba_marseille","lat":43.30858,"lon":5.37531,"is_reserved":false,"is_disabled":false,"rental_uris":{"android":"levelo://app?vid=0f7caa9f-1d1a-40d7-9b4a-2f8720e63681","ios":"levelo://app?vid=0f7caa9f-1d1a-40d7-9b4a-2f8720e63681"},"vehicle_type_id":"4","last_reported":1758323355,"current_range_meters":16800,"station_id":"","pricing_plan_id":"cebpf4jnsgd1na2vs0mg"},{"bike_id":"b810ec46-97ab-4356-95f9-0c9d02506d5a","system_id":"levelo_inurba_marseille","lat":43.24458,"lon":5.39039,"is_reserved":false,"is_disabled":false,"rental_uris":{"android":"levelo://app?vid=b810ec46-97ab-4356-95f9-0c9d02506d5a","ios":"levelo://app?vid=b810ec46-97ab-4356-95f9-0c9d02506d5a"},"vehicle_type_id":"4","last_reported":1758323355,"current_range_meters":16800,"station_id":"","pricing_plan_id":"cebpf4jnsgd1na2vs0mg"},{"bike_id":"9b9f6315-958e-4e43-8771-5ee5f050185e","system_id":"levelo_inurba_marseille","lat":43.24804,"lon":5.37461,"is_reserved":false,"is_disabled":true,"rental_uris":{"android":"levelo://app?vid=9b9f6315-958e-4e43-8771-5ee5f050185e","ios":"levelo://app?vid=9b9f6315-958e-4e43-8771-5ee5f050185e"},"vehicle_type_id":"4","last_reported":1758323355,"current_range_meters":16400,"station_id":"ce4bhgh2rcd13ifvqfb0","pricing_plan_id":"cebpf4jnsgd1na2vs0mg"},{"bike_id":"e0ef7392-1099-4052-a8c2-600c0dd2bf63","system_id":"levelo_inurba_marseille","lat":43.29528,"lon":5.3849,"is_reserved":false,"is_disabled":false,"rental_uris":{"android":"levelo://app?vid=e0ef7392-1099-4052-a8c2-600c0dd2bf63","ios":"levelo://app?vid=e0ef7392-1099-4052-a8c2-600c0dd2bf63"},"vehicle_type_id":"4","last_reported":1758323355,"current_range_meters":16800,"station_id":"","pricing_plan_id":"cebpf4jnsgd1na2vs0mg"},{"bike_id":"e7848071-3bea-472b-b9f0-9b36402a2db5","system_id":"levelo_inurba_marseille","lat":43.27947,"lon":5.41041,"is_reserved":false,"is_disabled":false,"rental_uris":{"android":"levelo://app?vid=e7848071-3bea-472b-b9f0-9b36402a2db5","ios":"levelo://app?vid=e7848071-3bea-472b-b9f0-9b36402a2db5"},"vehicle_type_id":"4","last_reported":1758323355,"current_range_meters":16800,"station_id":"ce4bhnp2rcd13ifvqh0g","pricing_plan_id":"cebpf4jnsgd1na2vs0mg"},{"bike_id":"fd6b138b-1fce-45b4-9bbf-6b329dfaafc2","system_id":"levelo_inurba_marseille","lat":43.2822,"lon":5.39067,"is_reserved":false,"is_disabled":false,"rental_uris":{"android":"levelo://app?vid=fd6b138b-1fce-45b4-9bbf-6b329dfaafc2","ios":"levelo://app?vid=fd6b138b-1fce-45b4-9bbf-6b329dfaafc2"},"vehicle_type_id":"4","last_reported":1758323355,"current_range_meters":16800,"station_id":"ce4bhn92rcd13ifvqgsg","pricing_plan_id":"cebpf4jnsgd1na2vs0mg"},{"bike_id":"7982c2e1-87d1-4f7b-945d-91a7e04a6246","system_id":"levelo_inurba_marseille","lat":43.29188,"lon":5.39306,"is_reserved":false,"is_disabled":false,"rental_uris":{"android":"levelo://app?vid=7982c2e1-87d1-4f7b-945d-91a7e04a6246","ios":"levelo://app?vid=7982c2e1-87d1-4f7b-945d-91a7e04a6246"},"vehicle_type_id":"4","last_reported":1758323355,"current_range_meters":16800,"station_id":"ce4bh192rcd13ifvqdd0","pricing_plan_id":"cebpf4jnsgd1na2vs0mg"},{"bike_id":"b5d704e2-9725-4436-a5f2-d244f6f1fde8","system_id":"levelo_inurba_marseille","lat":43.30297,"lon":5.39227,"is_reserved":false,"is_disabled":false,"rental_uris":{"android":"levelo://app?vid=b5d704e2-9725-4436-a5f2-d244f6f1fde8","ios":"levelo://app?vid=b5d704e2-9725-4436-a5f2-d244f6f1fde8"},"vehicle_type_id":"4","last_reported":1758323355,"current_range_meters":16800,"station_id":"ce4bgkh2rcd13ifvqbk0","pricing_plan_id":"cebpf4jnsgd1na2vs0mg"},{"bike_id":"039c3eec-9f3a-4c2e-af73-085933b8065c","system_id":"levelo_inurba_marseille","lat":43.31165,"lon":5.38728,"is_reserved":false,"is_disabled":false,"rental_uris":{"android":"levelo://app?vid=039c3eec-9f3a-4c2e-af73-085933b8065c","ios":"levelo://app?vid=039c3eec-9f3a-4c2e-af73-085933b8065c"},"vehicle_type_id":"4","last_reported":1758323355,"current_range_meters":16800,"station_id":"ce4bgv12rcd13ifvqcp0","pricing_plan_id":"cebpf4jnsgd1na2vs0mg"},{"bike_id":"375f1086-376e-46a4-ac8a-31c6cfb4cc1b","system_id":"levelo_inurba_marseille","lat":43.28,"lon":5.41683,"is_reserved":false,"is_disabled":false,"rental_uris":{"android":"levelo://app?vid=375f1086-376e-46a4-ac8a-31c6cfb4cc1b","ios":"levelo://app?vid=375f1086-376e-46a4-ac8a-31c6cfb4cc1b"},"vehicle_type_id":"4","last_reported":1758323355,"current_range_meters":16800,"station_id":"ce4bho12rcd13ifvqh1g","pricing_plan_id":"cebpf4jnsgd1na2vs0mg"},{"bike_id":"55d1bc08-fd54-4a82-afc7-2adcaa7b1c4e","system_id":"levelo_inurba_marseille","lat":43.30023,"lon":5.37705,"is_reserved":false,"is_disabled":false,"rental_uris":{"android":"levelo://app?vid=55d1bc08-fd54-4a82-afc7-2adcaa7b1c4e","ios":"levelo://app?vid=55d1bc08-fd54-4a82-afc7-2adcaa7b1c4e"},"vehicle_type_id":"4","last_reported":1758323355,"current_range_meters":16800,"station_id":"","pricing_plan_id":"cebpf4jnsgd1na2vs0mg"},{"bike_id":"c728fcfb-94fc-4f28-88c0-d7fc7309f748","system_id":"levelo_inurba_marseille","lat":43.29193,"lon":5.39309,"is_reserved":false,"is_disabled":false,"rental_uris":{"android":"levelo://app?vid=c728fcfb-94fc-4f28-88c0-d7fc7309f748","ios":"levelo://app?vid=c728fcfb-94fc-4f28-88c0-d7fc7309f748"},"vehicle_type_id":"4","last_reported":1758323355,"current_range_meters":16800,"station_id":"ce4bh192rcd13ifvqdd0","pricing_plan_id":"cebpf4jnsgd1na2vs0mg"},{"bike_id":"74be8966-8d9f-4462-a6ee-04df0145586d","system_id":"levelo_inurba_marseille","lat":43.292502,"lon":5.409208,"is_reserved":false,"is_disabled":true,"rental_uris":{"android":"levelo://app?vid=74be8966-8d9f-4462-a6ee-04df0145586d","ios":"levelo://app?vid=74be8966-8d9f-4462-a6ee-04df0145586d"},"vehicle_type_id":"4","last_reported":1758323355,"current_range_meters":16800,"station_id":"ce4bh192rcd13ifvqdc0","pricing_plan_id":"cebpf4jnsgd1na2vs0mg"},{"bike_id":"2a00cb84-e9e6-4781-804d-0494d7480777","system_id":"levelo_inurba_marseille","lat":43.22556,"lon":5.41625,"is_reserved":false,"is_disabled":false,"rental_uris":{"android":"levelo://app?vid=2a00cb84-e9e6-4781-804d-0494d7480777","ios":"levelo://app?vid=2a00cb84-e9e6-4781-804d-0494d7480777"},"vehicle_type_id":"4","last_reported":1758323355,"current_range_meters":17200,"station_id":"st_d2o4gvlbi1j2169b742g","pricing_plan_id":"cebpf4jnsgd1na2vs0mg"},{"bike_id":"d758e758-21ed-4714-9a46-8c12d5183085","system_id":"levelo_inurba_marseille","lat":43.31119,"lon":5.3778,"is_reserved":false,"is_disabled":false,"rental_uris":{"android":"levelo://app?vid=d758e758-21ed-4714-9a46-8c12d5183085","ios":"levelo://app?vid=d758e758-21ed-4714-9a46-8c12d5183085"},"vehicle_type_id":"4","last_reported":1758323355,"current_range_meters":17200,"station_id":"ce4bgt92rcd13ifvqcg0","pricing_plan_id":"cebpf4jnsgd1na2vs0mg"},{"bike_id":"2c734c36-442f-468e-ab47-e34ad5183e32","system_id":"levelo_inurba_marseille","lat":43.25772,"lon":5.41047,"is_reserved":false,"is_disabled":false,"rental_uris":{"android":"levelo://app?vid=2c734c36-442f-468e-ab47-e34ad5183e32","ios":"levelo://app?vid=2c734c36-442f-468e-ab47-e34ad5183e32"},"vehicle_type_id":"4","last_reported":1758323355,"current_range_meters":17200,"station_id":"","pricing_plan_id":"cebpf4jnsgd1na2vs0mg"},{"bike_id":"ce427aa6-f5a2-470b-ab4e-8461fe8adb46","system_id":"levelo_inurba_marseille","lat":43.30093,"lon":5.39094,"is_reserved":false,"is_disabled":false,"rental_uris":{"android":"levelo://app?vid=ce427aa6-f5a2-470b-ab4e-8461fe8adb46","ios":"levelo://app?vid=ce427aa6-f5a2-470b-ab4e-8461fe8adb46"},"vehicle_type_id":"4","last_reported":1758323355,"current_range_meters":16800,"station_id":"ce4bh192rcd13ifvqdb0","pricing_plan_id":"cebpf4jnsgd1na2vs0mg"},{"bike_id":"b4eb8ad2-3215-4100-8be8-4ebbc5c9ab6f","system_id":"levelo_inurba_marseille","lat":43.3113,"lon":5.38993,"is_reserved":false,"is_disabled":false,"rental_uris":{"android":"levelo://app?vid=b4eb8ad2-3215-4100-8be8-4ebbc5c9ab6f","ios":"levelo://app?vid=b4eb8ad2-3215-4100-8be8-4ebbc5c9ab6f"},"vehicle_type_id":"4","last_reported":1758323355,"current_range_meters":17200,"station_id":"","pricing_plan_id":"cebpf4jnsgd1na2vs0mg"},{"bike_id":"8e047761-4cb2-4fa7-920f-ce3feb6390f9","system_id":"levelo_inurba_marseille","lat":43.33764,"lon":5.37454,"is_reserved":false,"is_disabled":false,"rental_uris":{"android":"levelo://app?vid=8e047761-4cb2-4fa7-920f-ce3feb6390f9","ios":"levelo://app?vid=8e047761-4cb2-4fa7-920f-ce3feb6390f9"},"vehicle_type_id":"4","last_reported":1758323355,"current_range_meters":17200,"station_id":"","pricing_plan_id":"cebpf4jnsgd1na2vs0mg"},{"bike_id":"d5a03c93-c744-4070-8323-22df13232f13","system_id":"levelo_inurba_marseille","lat":43.31703,"lon":5.43718,"is_reserved":false,"is_disabled":false,"rental_uris":{"android":"levelo://app?vid=d5a03c93-c744-4070-8323-22df13232f13","ios":"levelo://app?vid=d5a03c93-c744-4070-8323-22df13232f13"},"vehicle_type_id":"4","last_reported":1758323355,"current_range_meters":17200,"station_id":"ce4bhp92rcd13ifvqhcg","pricing_plan_id":"cebpf4jnsgd1na2vs0mg"},{"bike_id":"a07a513e-e5a9-4481-8592-d991379bc662","system_id":"levelo_inurba_marseille","lat":43.337536,"lon":5.374536,"is_reserved":false,"is_disabled":false,"rental_uris":{"android":"levelo://app?vid=a07a513e-e5a9-4481-8592-d991379bc662","ios":"levelo://app?vid=a07a513e-e5a9-4481-8592-d991379bc662"},"vehicle_type_id":"4","last_reported":1758323355,"current_range_meters":17200,"station_id":"","pricing_plan_id":"cebpf4jnsgd1na2vs0mg"},{"bike_id":"39ac667b-bbdf-4442-a8e5-e7700a9d1554","system_id":"levelo_inurba_marseille","lat":43.31071,"lon":5.38336,"is_reserved":false,"is_disabled":false,"rental_uris":{"android":"levelo://app?vid=39ac667b-bbdf-4442-a8e5-e7700a9d1554","ios":"levelo://app?vid=39ac667b-bbdf-4442-a8e5-e7700a9d1554"},"vehicle_type_id":"4","last_reported":1758323355,"current_range_meters":17600,"station_id":"ce4bgv92rcd13ifvqcr0","pricing_plan_id":"cebpf4jnsgd1na2vs0mg"},{"bike_id":"68adab37-f5ad-4072-b58a-fe6c68285ca6","system_id":"levelo_inurba_marseille","lat":43.30612,"lon":5.37663,"is_reserved":false,"is_disabled":false,"rental_uris":{"android":"levelo://app?vid=68adab37-f5ad-4072-b58a-fe6c68285ca6","ios":"levelo://app?vid=68adab37-f5ad-4072-b58a-fe6c68285ca6"},"vehicle_type_id":"4","last_reported":1758323355,"current_range_meters":17600,"station_id":"","pricing_plan_id":"cebpf4jnsgd1na2vs0mg"},{"bike_id":"26a32d00-5a5a-4094-958e-dfde0b143685","system_id":"levelo_inurba_marseille","lat":43.25329,"lon":5.42177,"is_reserved":false,"is_disabled":false,"rental_uris":{"android":"levelo://app?vid=26a32d00-5a5a-4094-958e-dfde0b143685","ios":"levelo://app?vid=26a32d00-5a5a-4094-958e-dfde0b143685"},"vehicle_type_id":"4","last_reported":1758323355,"current_range_meters":17600,"station_id":"st_d2m65c5bi1j21697t3ng","pricing_plan_id":"cebpf4jnsgd1na2vs0mg"},{"bike_id":"6c1efa03-65d5-4354-9d8c-6cf27ba86536","system_id":"levelo_inurba_marseille","lat":43.30925,"lon":5.40144,"is_reserved":false,"is_disabled":false,"rental_uris":{"android":"levelo://app?vid=6c1efa03-65d5-4354-9d8c-6cf27ba86536","ios":"levelo://app?vid=6c1efa03-65d5-4354-9d8c-6cf27ba86536"},"vehicle_type_id":"4","last_reported":1758323355,"current_range_meters":17600,"station_id":"ce4bgvp2rcd13ifvqct0","pricing_plan_id":"cebpf4jnsgd1na2vs0mg"},{"bike_id":"bfb515cd-197d-4dce-9b3f-6109d5df6f8c","system_id":"levelo_inurba_marseille","lat":43.31114,"lon":5.37778,"is_reserved":false,"is_disabled":false,"rental_uris":{"android":"levelo://app?vid=bfb515cd-197d-4dce-9b3f-6109d5df6f8c","ios":"levelo://app?vid=bfb515cd-197d-4dce-9b3f-6109d5df6f8c"},"vehicle_type_id":"4","last_reported":1758323355,"current_range_meters":17600,"station_id":"ce4bgt92rcd13ifvqcg0","pricing_plan_id":"cebpf4jnsgd1na2vs0mg"},{"bike_id":"6b1530d8-6d02-4667-a326-f156eb63c841","system_id":"levelo_inurba_marseille","lat":43.2991,"lon":5.38147,"is_reserved":false,"is_disabled":false,"rental_uris":{"android":"levelo://app?vid=6b1530d8-6d02-4667-a326-f156eb63c841","ios":"levelo://app?vid=6b1530d8-6d02-4667-a326-f156eb63c841"},"vehicle_type_id":"4","last_reported":1758323355,"current_range_meters":18000,"station_id":"ce4bgj12rcd13ifvqbc0","pricing_plan_id":"cebpf4jnsgd1na2vs0mg"},{"bike_id":"5d08312c-780c-424c-aac9-65f8ccfb5ace","system_id":"levelo_inurba_marseille","lat":43.25096,"lon":5.39493,"is_reserved":false,"is_disabled":false,"rental_uris":{"android":"levelo://app?vid=5d08312c-780c-424c-aac9-65f8ccfb5ace","ios":"levelo://app?vid=5d08312c-780c-424c-aac9-65f8ccfb5ace"},"vehicle_type_id":"4","last_reported":1758323355,"current_range_meters":18000,"station_id":"ce4bhm12rcd13ifvqgkg","pricing_plan_id":"cebpf4jnsgd1na2vs0mg"},{"bike_id":"a570ea6d-77a5-436b-9665-ed10b27218c8","system_id":"levelo_inurba_marseille","lat":43.30951,"lon":5.39042,"is_reserved":false,"is_disabled":false,"rental_uris":{"android":"levelo://app?vid=a570ea6d-77a5-436b-9665-ed10b27218c8","ios":"levelo://app?vid=a570ea6d-77a5-436b-9665-ed10b27218c8"},"vehicle_type_id":"4","last_reported":1758323355,"current_range_meters":18000,"station_id":"ce4bgup2rcd13ifvqco0","pricing_plan_id":"cebpf4jnsgd1na2vs0mg"},{"bike_id":"50f4dda6-d11c-443c-95a0-671369573ab5","system_id":"levelo_inurba_marseille","lat":43.31362,"lon":5.38491,"is_reserved":false,"is_disabled":false,"rental_uris":{"android":"levelo://app?vid=50f4dda6-d11c-443c-95a0-671369573ab5","ios":"levelo://app?vid=50f4dda6-d11c-443c-95a0-671369573ab5"},"vehicle_type_id":"4","last_reported":1758323355,"current_range_meters":18000,"station_id":"ce4bgt92rcd13ifvqcf0","pricing_plan_id":"cebpf4jnsgd1na2vs0mg"},{"bike_id":"def9770e-15e2-4d66-9c23-6febb88e502e","system_id":"levelo_inurba_marseille","lat":43.3137,"lon":5.38489,"is_reserved":false,"is_disabled":false,"rental_uris":{"android":"levelo://app?vid=def9770e-15e2-4d66-9c23-6febb88e502e","ios":"levelo://app?vid=def9770e-15e2-4d66-9c23-6febb88e502e"},"vehicle_type_id":"4","last_reported":1758323355,"current_range_meters":18000,"station_id":"ce4bgt92rcd13ifvqcf0","pricing_plan_id":"cebpf4jnsgd1na2vs0mg"},{"bike_id":"0862d915-d978-40a4-bb96-b1eb01af9bb7","system_id":"levelo_inurba_marseille","lat":43.249497,"lon":5.40491,"is_reserved":false,"is_disabled":false,"rental_uris":{"android":"levelo://app?vid=0862d915-d978-40a4-bb96-b1eb01af9bb7","ios":"levelo://app?vid=0862d915-d978-40a4-bb96-b1eb01af9bb7"},"vehicle_type_id":"4","last_reported":1758323355,"current_range_meters":18000,"station_id":"st_d2ngiaodas8pm72gd1h0","pricing_plan_id":"cebpf4jnsgd1na2vs0mg"},{"bike_id":"3daea200-859c-4008-8bdc-31f98f07d9c1","system_id":"levelo_inurba_marseille","lat":43.29575,"lon":5.36736,"is_reserved":false,"is_disabled":false,"rental_uris":{"android":"levelo://app?vid=3daea200-859c-4008-8bdc-31f98f07d9c1","ios":"levelo://app?vid=3daea200-859c-4008-8bdc-31f98f07d9c1"},"vehicle_type_id":"4","last_reported":1758323355,"current_range_meters":17600,"station_id":"ce4bgph2rcd13ifvqc2g","pricing_plan_id":"cebpf4jnsgd1na2vs0mg"},{"bike_id":"ad8ffb03-257a-4ac4-a396-fdc63da67674","system_id":"levelo_inurba_marseille","lat":43.29967,"lon":5.38496,"is_reserved":false,"is_disabled":false,"rental_uris":{"android":"levelo://app?vid=ad8ffb03-257a-4ac4-a396-fdc63da67674","ios":"levelo://app?vid=ad8ffb03-257a-4ac4-a396-fdc63da67674"},"vehicle_type_id":"4","last_reported":1758323355,"current_range_meters":18000,"station_id":"ce4bgj92rcd13ifvqbd0","pricing_plan_id":"cebpf4jnsgd1na2vs0mg"},{"bike_id":"1ede2711-6089-4972-af47-64f9b1d94a73","system_id":"levelo_inurba_marseille","lat":43.3013,"lon":5.39882,"is_reserved":false,"is_disabled":false,"rental_uris":{"android":"levelo://app?vid=1ede2711-6089-4972-af47-64f9b1d94a73","ios":"levelo://app?vid=1ede2711-6089-4972-af47-64f9b1d94a73"},"vehicle_type_id":"4","last_reported":1758323355,"current_range_meters":18800,"station_id":"ce4bh0h2rcd13ifvqd40","pricing_plan_id":"cebpf4jnsgd1na2vs0mg"},{"bike_id":"e8be71b9-555c-4f6f-853e-df999e8e61a9","system_id":"levelo_inurba_marseille","lat":43.28699,"lon":5.39983,"is_reserved":false,"is_disabled":false,"rental_uris":{"android":"levelo://app?vid=e8be71b9-555c-4f6f-853e-df999e8e61a9","ios":"levelo://app?vid=e8be71b9-555c-4f6f-853e-df999e8e61a9"},"vehicle_type_id":"4","last_reported":1758323355,"current_range_meters":18800,"station_id":"ce4bho92rcd13ifvqh3g","pricing_plan_id":"cebpf4jnsgd1na2vs0mg"},{"bike_id":"4e301146-d647-4136-a854-8a90c669a010","system_id":"levelo_inurba_marseille","lat":43.241815,"lon":5.397245,"is_reserved":false,"is_disabled":false,"rental_uris":{"android":"levelo://app?vid=4e301146-d647-4136-a854-8a90c669a010","ios":"levelo://app?vid=4e301146-d647-4136-a854-8a90c669a010"},"vehicle_type_id":"4","last_reported":1758323355,"current_range_meters":18800,"station_id":"ce4bhn12rcd13ifvqgpg","pricing_plan_id":"cebpf4jnsgd1na2vs0mg"},{"bike_id":"6f72b99b-ce32-4a38-83bd-472379356bd1","system_id":"levelo_inurba_marseille","lat":43.28036,"lon":5.36927,"is_reserved":false,"is_disabled":true,"rental_uris":{"android":"levelo://app?vid=6f72b99b-ce32-4a38-83bd-472379356bd1","ios":"levelo://app?vid=6f72b99b-ce32-4a38-83bd-472379356bd1"},"vehicle_type_id":"4","last_reported":1758323355,"current_range_meters":18800,"station_id":"ce4bha12rcd13ifvqef0","pricing_plan_id":"cebpf4jnsgd1na2vs0mg"},{"bike_id":"c8b08423-f686-449f-bc1e-9cb7e349534f","system_id":"levelo_inurba_marseille","lat":43.29106,"lon":5.3813,"is_reserved":false,"is_disabled":false,"rental_uris":{"android":"levelo://app?vid=c8b08423-f686-449f-bc1e-9cb7e349534f","ios":"levelo://app?vid=c8b08423-f686-449f-bc1e-9cb7e349534f"},"vehicle_type_id":"4","last_reported":1758323355,"current_range_meters":18800,"station_id":"ce4bh512rcd13ifvqe2g","pricing_plan_id":"cebpf4jnsgd1na2vs0mg"},{"bike_id":"feb7026a-8fd5-42ad-8e39-2891fadb5476","system_id":"levelo_inurba_marseille","lat":43.28,"lon":5.36918,"is_reserved":false,"is_disabled":false,"rental_uris":{"android":"levelo://app?vid=feb7026a-8fd5-42ad-8e39-2891fadb5476","ios":"levelo://app?vid=feb7026a-8fd5-42ad-8e39-2891fadb5476"},"vehicle_type_id":"4","last_reported":1758323355,"current_range_meters":18800,"station_id":"ce4bha12rcd13ifvqef0","pricing_plan_id":"cebpf4jnsgd1na2vs0mg"},{"bike_id":"97514a44-1f4d-4ae1-a270-04ca7b75c621","system_id":"levelo_inurba_marseille","lat":43.28861,"lon":5.42534,"is_reserved":false,"is_disabled":false,"rental_uris":{"android":"levelo://app?vid=97514a44-1f4d-4ae1-a270-04ca7b75c621","ios":"levelo://app?vid=97514a44-1f4d-4ae1-a270-04ca7b75c621"},"vehicle_type_id":"4","last_reported":1758323355,"current_range_meters":18800,"station_id":"","pricing_plan_id":"cebpf4jnsgd1na2vs0mg"},{"bike_id":"4b96fdd3-4191-405a-9508-0bcda5ffa797","system_id":"levelo_inurba_marseille","lat":43.29566,"lon":5.39962,"is_reserved":false,"is_disabled":true,"rental_uris":{"android":"levelo://app?vid=4b96fdd3-4191-405a-9508-0bcda5ffa797","ios":"levelo://app?vid=4b96fdd3-4191-405a-9508-0bcda5ffa797"},"vehicle_type_id":"4","last_reported":1758323355,"current_range_meters":18800,"station_id":"ce4bh312rcd13ifvqdj0","pricing_plan_id":"cebpf4jnsgd1na2vs0mg"},{"bike_id":"350ecd1e-d3c9-4d77-b370-39417df324b3","system_id":"levelo_inurba_marseille","lat":43.29023,"lon":5.38123,"is_reserved":false,"is_disabled":true,"rental_uris":{"android":"levelo://app?vid=350ecd1e-d3c9-4d77-b370-39417df324b3","ios":"levelo://app?vid=350ecd1e-d3c9-4d77-b370-39417df324b3"},"vehicle_type_id":"4","last_reported":1758323355,"current_range_meters":18800,"station_id":"ce4bh4p2rcd13ifvqe1g","pricing_plan_id":"cebpf4jnsgd1na2vs0mg"},{"bike_id":"dbe46518-1d16-4f23-9355-3757ef060b8f","system_id":"levelo_inurba_marseille","lat":43.26801,"lon":5.40261,"is_reserved":false,"is_disabled":false,"rental_uris":{"android":"levelo://app?vid=dbe46518-1d16-4f23-9355-3757ef060b8f","ios":"levelo://app?vid=dbe46518-1d16-4f23-9355-3757ef060b8f"},"vehicle_type_id":"4","last_reported":1758323355,"current_range_meters":18800,"station_id":"ce501612rcd8frsf0b60","pricing_plan_id":"cebpf4jnsgd1na2vs0mg"},{"bike_id":"461f4341-07fa-4344-a9cf-5462cad62af7","system_id":"levelo_inurba_marseille","lat":43.28457,"lon":5.35893,"is_reserved":false,"is_disabled":false,"rental_uris":{"android":"levelo://app?vid=461f4341-07fa-4344-a9cf-5462cad62af7","ios":"levelo://app?vid=461f4341-07fa-4344-a9cf-5462cad62af7"},"vehicle_type_id":"4","last_reported":1758323355,"current_range_meters":18800,"station_id":"ce4bhah2rcd13ifvqei0","pricing_plan_id":"cebpf4jnsgd1na2vs0mg"},{"bike_id":"fa121c28-0e50-468c-b27b-e9d0528dfda1","system_id":"levelo_inurba_marseille","lat":43.28389,"lon":5.38675,"is_reserved":false,"is_disabled":false,"rental_uris":{"android":"levelo://app?vid=fa121c28-0e50-468c-b27b-e9d0528dfda1","ios":"levelo://app?vid=fa121c28-0e50-468c-b27b-e9d0528dfda1"},"vehicle_type_id":"4","last_reported":1758323355,"current_range_meters":18800,"station_id":"ce4bh492rcd13ifvqdvg","pricing_plan_id":"cebpf4jnsgd1na2vs0mg"},{"bike_id":"35da6695-3201-4ea6-8792-a27d60e37cb4","system_id":"levelo_inurba_marseille","lat":43.26186,"lon":5.37057,"is_reserved":false,"is_disabled":false,"rental_uris":{"android":"levelo://app?vid=35da6695-3201-4ea6-8792-a27d60e37cb4","ios":"levelo://app?vid=35da6695-3201-4ea6-8792-a27d60e37cb4"},"vehicle_type_id":"4","last_reported":1758323355,"current_range_meters":18800,"station_id":"","pricing_plan_id":"cebpf4jnsgd1na2vs0mg"},{"bike_id":"19613896-b63a-44bc-92e8-994deaddf924","system_id":"levelo_inurba_marseille","lat":43.22573,"lon":5.41612,"is_reserved":false,"is_disabled":false,"rental_uris":{"android":"levelo://app?vid=19613896-b63a-44bc-92e8-994deaddf924","ios":"levelo://app?vid=19613896-b63a-44bc-92e8-994deaddf924"},"vehicle_type_id":"4","last_reported":1758323355,"current_range_meters":18800,"station_id":"st_d2o4gvlbi1j2169b742g","pricing_plan_id":"cebpf4jnsgd1na2vs0mg"},{"bike_id":"b8af4056-fb36-4e39-a4f0-5cd179383459","system_id":"levelo_inurba_marseille","lat":43.32918,"lon":5.38949,"is_reserved":false,"is_disabled":false,"rental_uris":{"android":"levelo://app?vid=b8af4056-fb36-4e39-a4f0-5cd179383459","ios":"levelo://app?vid=b8af4056-fb36-4e39-a4f0-5cd179383459"},"vehicle_type_id":"4","last_reported":1758323355,"current_range_meters":18800,"station_id":"","pricing_plan_id":"cebpf4jnsgd1na2vs0mg"},{"bike_id":"7510f95e-cb2b-4548-8b91-7f44d3da1a0b","system_id":"levelo_inurba_marseille","lat":43.28071,"lon":5.39658,"is_reserved":false,"is_disabled":false,"rental_uris":{"android":"levelo://app?vid=7510f95e-cb2b-4548-8b91-7f44d3da1a0b","ios":"levelo://app?vid=7510f95e-cb2b-4548-8b91-7f44d3da1a0b"},"vehicle_type_id":"4","last_reported":1758323355,"current_range_meters":18000,"station_id":"ce4bho12rcd13ifvqh2g","pricing_plan_id":"cebpf4jnsgd1na2vs0mg"},{"bike_id":"37a48d3f-b91d-4cae-9563-99c8ea5442a3","system_id":"levelo_inurba_marseille","lat":43.31322,"lon":5.39691,"is_reserved":false,"is_disabled":false,"rental_uris":{"android":"levelo://app?vid=37a48d3f-b91d-4cae-9563-99c8ea5442a3","ios":"levelo://app?vid=37a48d3f-b91d-4cae-9563-99c8ea5442a3"},"vehicle_type_id":"4","last_reported":1758323355,"current_range_meters":19200,"station_id":"ce4bgvp2rcd13ifvqcu0","pricing_plan_id":"cebpf4jnsgd1na2vs0mg"},{"bike_id":"4a11061e-3dd9-40e8-a174-3f9e4922b128","system_id":"levelo_inurba_marseille","lat":43.30947,"lon":5.39038,"is_reserved":false,"is_disabled":false,"rental_uris":{"android":"levelo://app?vid=4a11061e-3dd9-40e8-a174-3f9e4922b128","ios":"levelo://app?vid=4a11061e-3dd9-40e8-a174-3f9e4922b128"},"vehicle_type_id":"4","last_reported":1758323355,"current_range_meters":19200,"station_id":"ce4bgup2rcd13ifvqco0","pricing_plan_id":"cebpf4jnsgd1na2vs0mg"},{"bike_id":"0f850c22-3d6c-4dfe-b889-c92d1afcf7e0","system_id":"levelo_inurba_marseille","lat":43.28037,"lon":5.36935,"is_reserved":false,"is_disabled":false,"rental_uris":{"android":"levelo://app?vid=0f850c22-3d6c-4dfe-b889-c92d1afcf7e0","ios":"levelo://app?vid=0f850c22-3d6c-4dfe-b889-c92d1afcf7e0"},"vehicle_type_id":"4","last_reported":1758323355,"current_range_meters":19200,"station_id":"ce4bha12rcd13ifvqef0","pricing_plan_id":"cebpf4jnsgd1na2vs0mg"},{"bike_id":"1e61799e-b58a-45d2-8746-1f15bfad85f3","system_id":"levelo_inurba_marseille","lat":43.29959,"lon":5.41321,"is_reserved":false,"is_disabled":false,"rental_uris":{"android":"levelo://app?vid=1e61799e-b58a-45d2-8746-1f15bfad85f3","ios":"levelo://app?vid=1e61799e-b58a-45d2-8746-1f15bfad85f3"},"vehicle_type_id":"4","last_reported":1758323355,"current_range_meters":19200,"station_id":"ce4bhp12rcd13ifvqh9g","pricing_plan_id":"cebpf4jnsgd1na2vs0mg"},{"bike_id":"1c8c217d-ba25-44e4-9e2d-171a282d5806","system_id":"levelo_inurba_marseille","lat":43.2887,"lon":5.42514,"is_reserved":false,"is_disabled":false,"rental_uris":{"android":"levelo://app?vid=1c8c217d-ba25-44e4-9e2d-171a282d5806","ios":"levelo://app?vid=1c8c217d-ba25-44e4-9e2d-171a282d5806"},"vehicle_type_id":"4","last_reported":1758323355,"current_range_meters":19200,"station_id":"","pricing_plan_id":"cebpf4jnsgd1na2vs0mg"},{"bike_id":"7e3d6dc3-3449-4d1b-9fec-3f8d1da14dfc","system_id":"levelo_inurba_marseille","lat":43.31364,"lon":5.38494,"is_reserved":false,"is_disabled":false,"rental_uris":{"android":"levelo://app?vid=7e3d6dc3-3449-4d1b-9fec-3f8d1da14dfc","ios":"levelo://app?vid=7e3d6dc3-3449-4d1b-9fec-3f8d1da14dfc"},"vehicle_type_id":"4","last_reported":1758323355,"current_range_meters":19200,"station_id":"ce4bgt92rcd13ifvqcf0","pricing_plan_id":"cebpf4jnsgd1na2vs0mg"},{"bike_id":"534ff5b4-9e83-493b-9063-104ef0af4212","system_id":"levelo_inurba_marseille","lat":43.28002,"lon":5.41652,"is_reserved":false,"is_disabled":true,"rental_uris":{"android":"levelo://app?vid=534ff5b4-9e83-493b-9063-104ef0af4212","ios":"levelo://app?vid=534ff5b4-9e83-493b-9063-104ef0af4212"},"vehicle_type_id":"4","last_reported":1758323355,"current_range_meters":19200,"station_id":"ce4bho12rcd13ifvqh1g","pricing_plan_id":"cebpf4jnsgd1na2vs0mg"},{"bike_id":"25c4c180-15df-478a-a6f3-bb7fbcf3bdbf","system_id":"levelo_inurba_marseille","lat":43.2904,"lon":5.38649,"is_reserved":false,"is_disabled":false,"rental_uris":{"android":"levelo://app?vid=25c4c180-15df-478a-a6f3-bb7fbcf3bdbf","ios":"levelo://app?vid=25c4c180-15df-478a-a6f3-bb7fbcf3bdbf"},"vehicle_type_id":"4","last_reported":1758323355,"current_range_meters":19200,"station_id":"ce4bh4p2rcd13ifvqe0g","pricing_plan_id":"cebpf4jnsgd1na2vs0mg"},{"bike_id":"c8359761-0854-4951-b174-ffef8a75f01e","system_id":"levelo_inurba_marseille","lat":43.27942,"lon":5.41047,"is_reserved":false,"is_disabled":false,"rental_uris":{"android":"levelo://app?vid=c8359761-0854-4951-b174-ffef8a75f01e","ios":"levelo://app?vid=c8359761-0854-4951-b174-ffef8a75f01e"},"vehicle_type_id":"4","last_reported":1758323355,"current_range_meters":19600,"station_id":"ce4bhnp2rcd13ifvqh0g","pricing_plan_id":"cebpf4jnsgd1na2vs0mg"},{"bike_id":"5fc5f458-da22-45f3-97df-69ccd1954f58","system_id":"levelo_inurba_marseille","lat":43.30302,"lon":5.39208,"is_reserved":false,"is_disabled":false,"rental_uris":{"android":"levelo://app?vid=5fc5f458-da22-45f3-97df-69ccd1954f58","ios":"levelo://app?vid=5fc5f458-da22-45f3-97df-69ccd1954f58"},"vehicle_type_id":"4","last_reported":1758323355,"current_range_meters":19600,"station_id":"ce4bgkh2rcd13ifvqbk0","pricing_plan_id":"cebpf4jnsgd1na2vs0mg"},{"bike_id":"5a95be37-98f7-496b-a4ef-6a020f07f846","system_id":"levelo_inurba_marseille","lat":43.3135,"lon":5.38502,"is_reserved":false,"is_disabled":false,"rental_uris":{"android":"levelo://app?vid=5a95be37-98f7-496b-a4ef-6a020f07f846","ios":"levelo://app?vid=5a95be37-98f7-496b-a4ef-6a020f07f846"},"vehicle_type_id":"4","last_reported":1758323355,"current_range_meters":19600,"station_id":"ce4bgt92rcd13ifvqcf0","pricing_plan_id":"cebpf4jnsgd1na2vs0mg"},{"bike_id":"3bfeaefc-9c94-44a6-9b58-9d5debee1d1a","system_id":"levelo_inurba_marseille","lat":43.24951,"lon":5.40487,"is_reserved":false,"is_disabled":false,"rental_uris":{"android":"levelo://app?vid=3bfeaefc-9c94-44a6-9b58-9d5debee1d1a","ios":"levelo://app?vid=3bfeaefc-9c94-44a6-9b58-9d5debee1d1a"},"vehicle_type_id":"4","last_reported":1758323355,"current_range_meters":19600,"station_id":"st_d2ngiaodas8pm72gd1h0","pricing_plan_id":"cebpf4jnsgd1na2vs0mg"},{"bike_id":"f46cb67e-a6d0-4bc3-b960-25fba0030eaa","system_id":"levelo_inurba_marseille","lat":43.29528,"lon":5.37501,"is_reserved":false,"is_disabled":true,"rental_uris":{"android":"levelo://app?vid=f46cb67e-a6d0-4bc3-b960-25fba0030eaa","ios":"levelo://app?vid=f46cb67e-a6d0-4bc3-b960-25fba0030eaa"},"vehicle_type_id":"4","last_reported":1758323355,"current_range_meters":19600,"station_id":"ce4bgkp2rcd13ifvqbmg","pricing_plan_id":"cebpf4jnsgd1na2vs0mg"},{"bike_id":"bd8d612d-9ee5-4404-8540-7167a289b512","system_id":"levelo_inurba_marseille","lat":43.30253,"lon":5.4004,"is_reserved":false,"is_disabled":true,"rental_uris":{"android":"levelo://app?vid=bd8d612d-9ee5-4404-8540-7167a289b512","ios":"levelo://app?vid=bd8d612d-9ee5-4404-8540-7167a289b512"},"vehicle_type_id":"4","last_reported":1758323355,"current_range_meters":19600,"station_id":"ce4bgvh2rcd13ifvqcs0","pricing_plan_id":"cebpf4jnsgd1na2vs0mg"},{"bike_id":"91abbd72-1896-4cfa-90d7-8a63a78871a9","system_id":"levelo_inurba_marseille","lat":43.301999,"lon":5.378034,"is_reserved":false,"is_disabled":false,"rental_uris":{"android":"levelo://app?vid=91abbd72-1896-4cfa-90d7-8a63a78871a9","ios":"levelo://app?vid=91abbd72-1896-4cfa-90d7-8a63a78871a9"},"vehicle_type_id":"4","last_reported":1758323355,"current_range_meters":19600,"station_id":"ce4bgs92rcd13ifvqcc0","pricing_plan_id":"cebpf4jnsgd1na2vs0mg"},{"bike_id":"15e4a80f-f465-43b6-abd7-b718f1d90183","system_id":"levelo_inurba_marseille","lat":43.27993,"lon":5.41664,"is_reserved":false,"is_disabled":false,"rental_uris":{"android":"levelo://app?vid=15e4a80f-f465-43b6-abd7-b718f1d90183","ios":"levelo://app?vid=15e4a80f-f465-43b6-abd7-b718f1d90183"},"vehicle_type_id":"4","last_reported":1758323355,"current_range_meters":19600,"station_id":"ce4bho12rcd13ifvqh1g","pricing_plan_id":"cebpf4jnsgd1na2vs0mg"},{"bike_id":"1d0b5d60-568f-4170-98dc-84bbc30b1c4e","system_id":"levelo_inurba_marseille","lat":43.28349,"lon":5.43724,"is_reserved":false,"is_disabled":false,"rental_uris":{"android":"levelo://app?vid=1d0b5d60-568f-4170-98dc-84bbc30b1c4e","ios":"levelo://app?vid=1d0b5d60-568f-4170-98dc-84bbc30b1c4e"},"vehicle_type_id":"4","last_reported":1758323355,"current_range_meters":19600,"station_id":"","pricing_plan_id":"cebpf4jnsgd1na2vs0mg"},{"bike_id":"5c229055-54a1-4a42-b763-b27ed814b5ad","system_id":"levelo_inurba_marseille","lat":43.315165,"lon":5.387718,"is_reserved":false,"is_disabled":false,"rental_uris":{"android":"levelo://app?vid=5c229055-54a1-4a42-b763-b27ed814b5ad","ios":"levelo://app?vid=5c229055-54a1-4a42-b763-b27ed814b5ad"},"vehicle_type_id":"4","last_reported":1758323355,"current_range_meters":19600,"station_id":"","pricing_plan_id":"cebpf4jnsgd1na2vs0mg"},{"bike_id":"76bbf107-7ec5-4826-b296-ab629ecd14ab","system_id":"levelo_inurba_marseille","lat":43.298344,"lon":5.420425,"is_reserved":false,"is_disabled":false,"rental_uris":{"android":"levelo://app?vid=76bbf107-7ec5-4826-b296-ab629ecd14ab","ios":"levelo://app?vid=76bbf107-7ec5-4826-b296-ab629ecd14ab"},"vehicle_type_id":"4","last_reported":1758323355,"current_range_meters":19600,"station_id":"","pricing_plan_id":"cebpf4jnsgd1na2vs0mg"},{"bike_id":"f37e74fc-cdc3-4965-aa1b-c6d6cdbfb7a9","system_id":"levelo_inurba_marseille","lat":43.337507,"lon":5.391891,"is_reserved":false,"is_disabled":false,"rental_uris":{"android":"levelo://app?vid=f37e74fc-cdc3-4965-aa1b-c6d6cdbfb7a9","ios":"levelo://app?vid=f37e74fc-cdc3-4965-aa1b-c6d6cdbfb7a9"},"vehicle_type_id":"4","last_reported":1758323355,"current_range_meters":20000,"station_id":"ce4bhr92rcd13ifvqhsg","pricing_plan_id":"cebpf4jnsgd1na2vs0mg"},{"bike_id":"a6b168fa-afd4-4250-a894-d0ca1d451436","system_id":"levelo_inurba_marseille","lat":43.27574,"lon":5.38438,"is_reserved":false,"is_disabled":false,"rental_uris":{"android":"levelo://app?vid=a6b168fa-afd4-4250-a894-d0ca1d451436","ios":"levelo://app?vid=a6b168fa-afd4-4250-a894-d0ca1d451436"},"vehicle_type_id":"4","last_reported":1758323355,"current_range_meters":19600,"station_id":"ce4bhh92rcd13ifvqfi0","pricing_plan_id":"cebpf4jnsgd1na2vs0mg"},{"bike_id":"dfee9238-3dff-4191-8966-e9bee2e3c8d3","system_id":"levelo_inurba_marseille","lat":43.3009,"lon":5.39082,"is_reserved":false,"is_disabled":false,"rental_uris":{"android":"levelo://app?vid=dfee9238-3dff-4191-8966-e9bee2e3c8d3","ios":"levelo://app?vid=dfee9238-3dff-4191-8966-e9bee2e3c8d3"},"vehicle_type_id":"4","last_reported":1758323355,"current_range_meters":19600,"station_id":"ce4bh192rcd13ifvqdb0","pricing_plan_id":"cebpf4jnsgd1na2vs0mg"},{"bike_id":"9764cc51-b250-4b9c-9c65-835d5e374184","system_id":"levelo_inurba_marseille","lat":43.28156,"lon":5.42632,"is_reserved":false,"is_disabled":false,"rental_uris":{"android":"levelo://app?vid=9764cc51-b250-4b9c-9c65-835d5e374184","ios":"levelo://app?vid=9764cc51-b250-4b9c-9c65-835d5e374184"},"vehicle_type_id":"4","last_reported":1758323355,"current_range_meters":20000,"station_id":"ce4bhnh2rcd13ifvqgug","pricing_plan_id":"cebpf4jnsgd1na2vs0mg"},{"bike_id":"2bccff5b-d1a3-4c0f-86f5-0cefd7c1310c","system_id":"levelo_inurba_marseille","lat":43.30318,"lon":5.40437,"is_reserved":false,"is_disabled":false,"rental_uris":{"android":"levelo://app?vid=2bccff5b-d1a3-4c0f-86f5-0cefd7c1310c","ios":"levelo://app?vid=2bccff5b-d1a3-4c0f-86f5-0cefd7c1310c"},"vehicle_type_id":"4","last_reported":1758323355,"current_range_meters":20000,"station_id":"ce4bh012rcd13ifvqd10","pricing_plan_id":"cebpf4jnsgd1na2vs0mg"},{"bike_id":"42e3b186-c344-49e1-8411-f8b97d2b73b5","system_id":"levelo_inurba_marseille","lat":43.29606,"lon":5.38086,"is_reserved":false,"is_disabled":false,"rental_uris":{"android":"levelo://app?vid=42e3b186-c344-49e1-8411-f8b97d2b73b5","ios":"levelo://app?vid=42e3b186-c344-49e1-8411-f8b97d2b73b5"},"vehicle_type_id":"4","last_reported":1758323355,"current_range_meters":20000,"station_id":"ce4bgl12rcd13ifvqbo0","pricing_plan_id":"cebpf4jnsgd1na2vs0mg"},{"bike_id":"238cd87d-838d-45ba-99a1-30db69d0fcb2","system_id":"levelo_inurba_marseille","lat":43.2794,"lon":5.41038,"is_reserved":false,"is_disabled":false,"rental_uris":{"android":"levelo://app?vid=238cd87d-838d-45ba-99a1-30db69d0fcb2","ios":"levelo://app?vid=238cd87d-838d-45ba-99a1-30db69d0fcb2"},"vehicle_type_id":"4","last_reported":1758323355,"current_range_meters":20000,"station_id":"ce4bhnp2rcd13ifvqh0g","pricing_plan_id":"cebpf4jnsgd1na2vs0mg"},{"bike_id":"a00cae07-1942-43ca-afaa-aed1381d5b2a","system_id":"levelo_inurba_marseille","lat":43.28033,"lon":5.36941,"is_reserved":false,"is_disabled":false,"rental_uris":{"android":"levelo://app?vid=a00cae07-1942-43ca-afaa-aed1381d5b2a","ios":"levelo://app?vid=a00cae07-1942-43ca-afaa-aed1381d5b2a"},"vehicle_type_id":"4","last_reported":1758323355,"current_range_meters":20400,"station_id":"ce4bha12rcd13ifvqef0","pricing_plan_id":"cebpf4jnsgd1na2vs0mg"},{"bike_id":"49dfe264-53ff-4c87-bd7d-361080c86c99","system_id":"levelo_inurba_marseille","lat":43.30884,"lon":5.3965,"is_reserved":false,"is_disabled":false,"rental_uris":{"android":"levelo://app?vid=49dfe264-53ff-4c87-bd7d-361080c86c99","ios":"levelo://app?vid=49dfe264-53ff-4c87-bd7d-361080c86c99"},"vehicle_type_id":"4","last_reported":1758323355,"current_range_meters":20400,"station_id":"ce4bh012rcd13ifvqcv0","pricing_plan_id":"cebpf4jnsgd1na2vs0mg"},{"bike_id":"359acfdd-6088-470c-a135-df2f79f8c3d6","system_id":"levelo_inurba_marseille","lat":43.28745,"lon":5.37934,"is_reserved":false,"is_disabled":false,"rental_uris":{"android":"levelo://app?vid=359acfdd-6088-470c-a135-df2f79f8c3d6","ios":"levelo://app?vid=359acfdd-6088-470c-a135-df2f79f8c3d6"},"vehicle_type_id":"4","last_reported":1758323355,"current_range_meters":20400,"station_id":"ce4bh9p2rcd13ifvqec0","pricing_plan_id":"cebpf4jnsgd1na2vs0mg"},{"bike_id":"81d2ffeb-b017-41da-8046-ea6a4bb2d4d4","system_id":"levelo_inurba_marseille","lat":43.29168,"lon":5.37148,"is_reserved":false,"is_disabled":true,"rental_uris":{"android":"levelo://app?vid=81d2ffeb-b017-41da-8046-ea6a4bb2d4d4","ios":"levelo://app?vid=81d2ffeb-b017-41da-8046-ea6a4bb2d4d4"},"vehicle_type_id":"4","last_reported":1758323355,"current_range_meters":20400,"station_id":"ce4bha92rcd13ifvqeh0","pricing_plan_id":"cebpf4jnsgd1na2vs0mg"},{"bike_id":"c2fd3bcc-13b6-46b8-bf36-3c3bba1770ed","system_id":"levelo_inurba_marseille","lat":43.30351,"lon":5.41881,"is_reserved":false,"is_disabled":false,"rental_uris":{"android":"levelo://app?vid=c2fd3bcc-13b6-46b8-bf36-3c3bba1770ed","ios":"levelo://app?vid=c2fd3bcc-13b6-46b8-bf36-3c3bba1770ed"},"vehicle_type_id":"4","last_reported":1758323355,"current_range_meters":20000,"station_id":"ce4bhop2rcd13ifvqh7g","pricing_plan_id":"cebpf4jnsgd1na2vs0mg"},