{"last_updated":1743862063,"ttl":60,"version":"2.2","data":{"bikes":[{"bike_id":"a0b605e4-f56d-4c0a-81ef-308366eb28d8","system_id":"levelo_inurba_marseille","lat":43.2996,"lon":5.41321,"is_reserved":false,"is_disabled":false,"rental_uris":{"android":"levelo://app?vid=a0b605e4-f56d-4c0a-81ef-308366eb28d8","ios":"levelo://app?vid=a0b605e4-f56d-4c0a-81ef-308366eb28d8"},"vehicle_type_id":"4","last_reported":1743862063,"current_range_meters":2800,"station_id":"ce4bhp12rcd13ifvqh9g","pricing_plan_id":"cebpf4jnsgd1na2vs0mg"},{"bike_id":"498791cd-9fd8-4bc4-a3b3-f50373ecb831","system_id":"levelo_inurba_marseille","lat":43.26557,"lon":5.37285,"is_reserved":false,"is_disabled":false,"rental_uris":{"android":"levelo://app?vid=498791cd-9fd8-4bc4-a3b3-f50373ecb831","ios":"levelo://app?vid=498791cd-9fd8-4bc4-a3b3-f50373ecb831"},"vehicle_type_id":"4","last_reported":1743862063,"current_range_meters":2800,"station_id":"ce4bhg12rcd13ifvqf70","pricing_plan_id":"cebpf4jnsgd1na2vs0mg"},{"bike_id":"4121f082-19f2-4c54-bc5e-4ab150b609be","system_id":"levelo_inurba_marseille","lat":43.264928,"lon":5.395548,"is_reserved":false,"is_disabled":false,"rental_uris":{"android":"levelo://app?vid=4121f082-19f2-4c54-bc5e-4ab150b609be","ios":"levelo://app?vid=4121f082-19f2-4c54-bc5e-4ab150b609be"},"vehicle_type_id":"4","last_reported":1743862063,"current_range_meters":2800,"station_id":"ce4bhi12rcd13ifvqfq0","pricing_plan_id":"cebpf4jnsgd1na2vs0mg"},{"bike_id":"6e7e8bd0-971a-4bf5-a521-0d1053f36753","system_id":"levelo_inurba_marseille","lat":43.310827,"lon":5.424368,"is_reserved":false,"is_disabled":true,"rental_uris":{"android":"levelo://app?vid=6e7e8bd0-971a-4bf5-a521-0d1053f36753","ios":"levelo://app?vid=6e7e8bd0-971a-4bf5-a521-0d1053f36753"},"vehicle_type_id":"4","last_reported":1743862063,"current_range_meters":2800,"station_id":"ce4bhp92rcd13ifvqhag","pricing_plan_id":"cebpf4jnsgd1na2vs0mg"},{"bike_id":"8ae2850f-8a6f-4d50-a31b-a2776953beda","system_id":"levelo_inurba_marseille","lat":43.28278,"lon":5.35076,"is_reserved":false,"is_disabled":false,"rental_uris":{"android":"levelo://app?vid=8ae2850f-8a6f-4d50-a31b-a2776953beda","ios":"levelo://app?vid=8ae2850f-8a6f-4d50-a31b-a2776953beda"},"vehicle_type_id":"4","last_reported":1743862063,"current_range_meters":3200,"station_id":"ce4bhbp2rcd13ifvqerg","pricing_plan_id":"cebpf4jnsgd1na2vs0mg"},{"bike_id":"dc63fabf-8ce8-44e4-8a18-22cd8bbb3819","system_id":"levelo_inurba_marseille","lat":43.31729,"lon":5.42391,"is_reserved":false,"is_disabled":false,"rental_uris":{"android":"levelo://app?vid=dc63fabf-8ce8-44e4-8a18-22cd8bbb3819","ios":"levelo://app?vid=dc63fabf-8ce8-44e4-8a18-22cd8bbb3819"},"vehicle_type_id":"4","last_reported":1743862063,"current_range_meters":3200,"station_id":"ce4bhp92rcd13ifvqhbg","pricing_plan_id":"cebpf4jnsgd1na2vs0mg"},{"bike_id":"7435567f-b5c3-4ede-ab20-5915249ece85","system_id":"levelo_inurba_marseille","lat":43.28099,"lon":5.37857,"is_reserved":false,"is_disabled":false,"rental_uris":{"android":"levelo://app?vid=7435567f-b5c3-4ede-ab20-5915249ece85","ios":"levelo://app?vid=7435567f-b5c3-4ede-ab20-5915249ece85"},"vehicle_type_id":"4","last_reported":1743862063,"current_range_meters":3600,"station_id":"ce4bha12rcd13ifvqee0","pricing_plan_id":"cebpf4jnsgd1na2vs0mg"},{"bike_id":"c06d7c9f-ad94-4adc-8cb7-d80994a1b1e4","system_id":"levelo_inurba_marseille","lat":43.24075,"lon":5.37762,"is_reserved":false,"is_disabled":false,"rental_uris":{"android":"levelo://app?vid=c06d7c9f-ad94-4adc-8cb7-d80994a1b1e4","ios":"levelo://app?vid=c06d7c9f-ad94-4adc-8cb7-d80994a1b1e4"},"vehicle_type_id":"4","last_reported":1743862063,"current_range_meters":3600,"station_id":"ce4bhnp2rcd13ifvqgvg","pricing_plan_id":"cebpf4jnsgd1na2vs0mg"},{"bike_id":"52b34780-61ff-4c98-b66c-f7dfcd757225","system_id":"levelo_inurba_marseille","lat":43.22504,"lon":5.34789,"is_reserved":false,"is_disabled":false,"rental_uris":{"android":"levelo://app?vid=52b34780-61ff-4c98-b66c-f7dfcd757225","ios":"levelo://app?vid=52b34780-61ff-4c98-b66c-f7dfcd757225"},"vehicle_type_id":"4","last_reported":1743862063,"current_range_meters":3600,"station_id":"st_cvj5dfep6f1abm77gieg","pricing_plan_id":"cebpf4jnsgd1na2vs0mg"},{"bike_id":"b7a0d818-fa67-4a4e-8190-83c95561ce8b","system_id":"levelo_inurba_marseille","lat":43.23199,"lon":5.39995,"is_reserved":false,"is_disabled":false,"rental_uris":{"android":"levelo://app?vid=b7a0d818-fa67-4a4e-8190-83c95561ce8b","ios":"levelo://app?vid=b7a0d818-fa67-4a4e-8190-83c95561ce8b"},"vehicle_type_id":"4","last_reported":1743862063,"current_range_meters":3600,"station_id":"ce4bhn12rcd13ifvqgqg","pricing_plan_id":"cebpf4jnsgd1na2vs0mg"},{"bike_id":"012431e6-b505-4622-8b67-2b3817bc6939","system_id":"levelo_inurba_marseille","lat":43.23148,"lon":5.43719,"is_reserved":false,"is_disabled":false,"rental_uris":{"android":"levelo://app?vid=012431e6-b505-4622-8b67-2b3817bc6939","ios":"levelo://app?vid=012431e6-b505-4622-8b67-2b3817bc6939"},"vehicle_type_id":"4","last_reported":1743862063,"current_range_meters":3600,"station_id":"ce4bhmp2rcd13ifvqgog","pricing_plan_id":"cebpf4jnsgd1na2vs0mg"},{"bike_id":"b8ccb77a-104c-46ef-a73c-67d46643c1f6","system_id":"levelo_inurba_marseille","lat":43.21188,"lon":5.35075,"is_reserved":false,"is_disabled":false,"rental_uris":{"android":"levelo://app?vid=b8ccb77a-104c-46ef-a73c-67d46643c1f6","ios":"levelo://app?vid=b8ccb77a-104c-46ef-a73c-67d46643c1f6"},"vehicle_type_id":"4","last_reported":1743862063,"current_range_meters":4000,"station_id":"","pricing_plan_id":"cebpf4jnsgd1na2vs0mg"},{"bike_id":"cbfa9581-abf2-4c88-b277-99e379094e1e","system_id":"levelo_inurba_marseille","lat":43.26212,"lon":5.37443,"is_reserved":false,"is_disabled":false,"rental_uris":{"android":"levelo://app?vid=cbfa9581-abf2-4c88-b277-99e379094e1e","ios":"levelo://app?vid=cbfa9581-abf2-4c88-b277-99e379094e1e"},"vehicle_type_id":"4","last_reported":1743862063,"current_range_meters":4000,"station_id":"ce4bhgp2rcd13ifvqfc0","pricing_plan_id":"cebpf4jnsgd1na2vs0mg"},{"bike_id":"7654dfdb-2d49-4899-b1c4-60867904088e","system_id":"levelo_inurba_marseille","lat":43.24395,"lon":5.37064,"is_reserved":false,"is_disabled":false,"rental_uris":{"android":"levelo://app?vid=7654dfdb-2d49-4899-b1c4-60867904088e","ios":"levelo://app?vid=7654dfdb-2d49-4899-b1c4-60867904088e"},"vehicle_type_id":"4","last_reported":1743862063,"current_range_meters":4000,"station_id":"ce4bhhh2rcd13ifvqfk0","pricing_plan_id":"cebpf4jnsgd1na2vs0mg"},{"bike_id":"bd316136-d50e-4097-b4f5-36a81e9d08ec","system_id":"levelo_inurba_marseille","lat":43.30462,"lon":5.37908,"is_reserved":false,"is_disabled":false,"rental_uris":{"android":"levelo://app?vid=bd316136-d50e-4097-b4f5-36a81e9d08ec","ios":"levelo://app?vid=bd316136-d50e-4097-b4f5-36a81e9d08ec"},"vehicle_type_id":"4","last_reported":1743862063,"current_range_meters":4000,"station_id":"ce4bgup2rcd13ifvqcn0","pricing_plan_id":"cebpf4jnsgd1na2vs0mg"},{"bike_id":"4dcb4c6e-8bd7-40e1-b91d-0d4935329b65","system_id":"levelo_inurba_marseille","lat":43.23053,"lon":5.35502,"is_reserved":false,"is_disabled":false,"rental_uris":{"android":"levelo://app?vid=4dcb4c6e-8bd7-40e1-b91d-0d4935329b65","ios":"levelo://app?vid=4dcb4c6e-8bd7-40e1-b91d-0d4935329b65"},"vehicle_type_id":"4","last_reported":1743862063,"current_range_meters":4000,"station_id":"cpo3342slgdg3j2ifvpg","pricing_plan_id":"cebpf4jnsgd1na2vs0mg"},{"bike_id":"316035f2-83f0-4882-bdac-99dbc2c7a44f","system_id":"levelo_inurba_marseille","lat":43.24075,"lon":5.37764,"is_reserved":false,"is_disabled":false,"rental_uris":{"android":"levelo://app?vid=316035f2-83f0-4882-bdac-99dbc2c7a44f","ios":"levelo://app?vid=316035f2-83f0-4882-bdac-99dbc2c7a44f"},"vehicle_type_id":"4","last_reported":1743862063,"current_range_meters":4000,"station_id":"ce4bhnp2rcd13ifvqgvg","pricing_plan_id":"cebpf4jnsgd1na2vs0mg"},{"bike_id":"c979a58a-2c56-4ab7-a6a4-c1855a317063","system_id":"levelo_inurba_marseille","lat":43.23977,"lon":5.36614,"is_reserved":false,"is_disabled":false,"rental_uris":{"android":"levelo://app?vid=c979a58a-2c56-4ab7-a6a4-c1855a317063","ios":"levelo://app?vid=c979a58a-2c56-4ab7-a6a4-c1855a317063"},"vehicle_type_id":"4","last_reported":1743862063,"current_range_meters":4000,"station_id":"ce4bhi12rcd13ifvqfp0","pricing_plan_id":"cebpf4jnsgd1na2vs0mg"},{"bike_id":"e2775695-385e-4074-b6fa-9c7c36a782ad","system_id":"levelo_inurba_marseille","lat":43.28616,"lon":5.35103,"is_reserved":false,"is_disabled":false,"rental_uris":{"android":"levelo://app?vid=e2775695-385e-4074-b6fa-9c7c36a782ad","ios":"levelo://app?vid=e2775695-385e-4074-b6fa-9c7c36a782ad"},"vehicle_type_id":"4","last_reported":1743862063,"current_range_meters":4000,"station_id":"","pricing_plan_id":"cebpf4jnsgd1na2vs0mg"},{"bike_id":"fc23420b-dce1-4463-b823-0eaa9df918ba","system_id":"levelo_inurba_marseille","lat":43.23192,"lon":5.35562,"is_reserved":false,"is_disabled":false,"rental_uris":{"android":"levelo://app?vid=fc23420b-dce1-4463-b823-0eaa9df918ba","ios":"levelo://app?vid=fc23420b-dce1-4463-b823-0eaa9df918ba"},"vehicle_type_id":"4","last_reported":1743862063,"current_range_meters":4000,"station_id":"ce4bhu92rcd13ifvqi70","pricing_plan_id":"cebpf4jnsgd1na2vs0mg"},{"bike_id":"f45b3357-8fd1-436b-8bc7-aa9f34246fa2","system_id":"levelo_inurba_marseille","lat":43.24802,"lon":5.37468,"is_reserved":false,"is_disabled":false,"rental_uris":{"android":"levelo://app?vid=f45b3357-8fd1-436b-8bc7-aa9f34246fa2","ios":"levelo://app?vid=f45b3357-8fd1-436b-8bc7-aa9f34246fa2"},"vehicle_type_id":"4","last_reported":1743862063,"current_range_meters":4000,"station_id":"ce4bhgh2rcd13ifvqfb0","pricing_plan_id":"cebpf4jnsgd1na2vs0mg"},{"bike_id":"8fb51034-8976-42bd-9795-64e5b1085007","system_id":"levelo_inurba_marseille","lat":43.29968,"lon":5.38505,"is_reserved":false,"is_disabled":false,"rental_uris":{"android":"levelo://app?vid=8fb51034-8976-42bd-9795-64e5b1085007","ios":"levelo://app?vid=8fb51034-8976-42bd-9795-64e5b1085007"},"vehicle_type_id":"4","last_reported":1743862063,"current_range_meters":4000,"station_id":"ce4bgj92rcd13ifvqbd0","pricing_plan_id":"cebpf4jnsgd1na2vs0mg"},{"bike_id":"5809aa2a-6e8b-4396-909a-e4f6a1a76cf5","system_id":"levelo_inurba_marseille","lat":43.23975,"lon":5.36608,"is_reserved":false,"is_disabled":false,"rental_uris":{"android":"levelo://app?vid=5809aa2a-6e8b-4396-909a-e4f6a1a76cf5","ios":"levelo://app?vid=5809aa2a-6e8b-4396-909a-e4f6a1a76cf5"},"vehicle_type_id":"4","last_reported":1743862063,"current_range_meters":4400,"station_id":"ce4bhi12rcd13ifvqfp0","pricing_plan_id":"cebpf4jnsgd1na2vs0mg"},{"bike_id":"fed25cf4-7be8-408e-848d-a778b08cb7e9","system_id":"levelo_inurba_marseille","lat":43.29886,"lon":5.43644,"is_reserved":false,"is_disabled":false,"rental_uris":{"android":"levelo://app?vid=fed25cf4-7be8-408e-848d-a778b08cb7e9","ios":"levelo://app?vid=fed25cf4-7be8-408e-848d-a778b08cb7e9"},"vehicle_type_id":"4","last_reported":1743862063,"current_range_meters":4400,"station_id":"ce4bhpp2rcd13ifvqhfg","pricing_plan_id":"cebpf4jnsgd1na2vs0mg"},{"bike_id":"421e93ad-a6da-4024-8a31-3ced97c7bf4e","system_id":"levelo_inurba_marseille","lat":43.26205,"lon":5.37445,"is_reserved":false,"is_disabled":false,"rental_uris":{"android":"levelo://app?vid=421e93ad-a6da-4024-8a31-3ced97c7bf4e","ios":"levelo://app?vid=421e93ad-a6da-4024-8a31-3ced97c7bf4e"},"vehicle_type_id":"4","last_reported":1743862063,"current_range_meters":4400,"station_id":"ce4bhgp2rcd13ifvqfc0","pricing_plan_id":"cebpf4jnsgd1na2vs0mg"},{"bike_id":"c3d6643a-acaf-4f7c-a7f6-0bcc0addd99a","system_id":"levelo_inurba_marseille","lat":43.28346,"lon":5.38113,"is_reserved":false,"is_disabled":false,"rental_uris":{"android":"levelo://app?vid=c3d6643a-acaf-4f7c-a7f6-0bcc0addd99a","ios":"levelo://app?vid=c3d6643a-acaf-4f7c-a7f6-0bcc0addd99a"},"vehicle_type_id":"4","last_reported":1743862063,"current_range_meters":4800,"station_id":"ce4bh412rcd13ifvqdr0","pricing_plan_id":"cebpf4jnsgd1na2vs0mg"},{"bike_id":"74678651-073e-458b-8cf7-28cd905d7c05","system_id":"levelo_inurba_marseille","lat":43.29465,"lon":5.3866,"is_reserved":false,"is_disabled":false,"rental_uris":{"android":"levelo://app?vid=74678651-073e-458b-8cf7-28cd905d7c05","ios":"levelo://app?vid=74678651-073e-458b-8cf7-28cd905d7c05"},"vehicle_type_id":"4","last_reported":1743862063,"current_range_meters":5600,"station_id":"","pricing_plan_id":"cebpf4jnsgd1na2vs0mg"},{"bike_id":"458879ba-db8a-4e9d-9c1b-fe1aa15bb977","system_id":"levelo_inurba_marseille","lat":43.23056,"lon":5.35491,"is_reserved":false,"is_disabled":false,"rental_uris":{"android":"levelo://app?vid=458879ba-db8a-4e9d-9c1b-fe1aa15bb977","ios":"levelo://app?vid=458879ba-db8a-4e9d-9c1b-fe1aa15bb977"},"vehicle_type_id":"4","last_reported":1743862063,"current_range_meters":4800,"station_id":"cpo3342slgdg3j2ifvpg","pricing_plan_id":"cebpf4jnsgd1na2vs0mg"},{"bike_id":"a6ed7d55-4106-48bb-9c99-deb74dd690fc","system_id":"levelo_inurba_marseille","lat":43.28613,"lon":5.35102,"is_reserved":false,"is_disabled":false,"rental_uris":{"android":"levelo://app?vid=a6ed7d55-4106-48bb-9c99-deb74dd690fc","ios":"levelo://app?vid=a6ed7d55-4106-48bb-9c99-deb74dd690fc"},"vehicle_type_id":"4","last_reported":1743862063,"current_range_meters":5600,"station_id":"ce4bhch2rcd13ifvqeug","pricing_plan_id":"cebpf4jnsgd1na2vs0mg"},{"bike_id":"b1af4d46-4ce6-42d2-bd4b-eb7dd3488807","system_id":"levelo_inurba_marseille","lat":43.26554,"lon":5.37288,"is_reserved":false,"is_disabled":false,"rental_uris":{"android":"levelo://app?vid=b1af4d46-4ce6-42d2-bd4b-eb7dd3488807","ios":"levelo://app?vid=b1af4d46-4ce6-42d2-bd4b-eb7dd3488807"},"vehicle_type_id":"4","last_reported":1743862063,"current_range_meters":5600,"station_id":"ce4bhg12rcd13ifvqf70","pricing_plan_id":"cebpf4jnsgd1na2vs0mg"},{"bike_id":"5d2ab57d-6f8e-4878-bbe5-3ba6ce7c591c","system_id":"levelo_inurba_marseille","lat":43.25583,"lon":5.38229,"is_reserved":false,"is_disabled":false,"rental_uris":{"android":"levelo://app?vid=5d2ab57d-6f8e-4878-bbe5-3ba6ce7c591c","ios":"levelo://app?vid=5d2ab57d-6f8e-4878-bbe5-3ba6ce7c591c"},"vehicle_type_id":"4","last_reported":1743862063,"current_range_meters":5600,"station_id":"ce4bhih2rcd13ifvqfs0","pricing_plan_id":"cebpf4jnsgd1na2vs0mg"},{"bike_id":"b6e73fff-ccbc-4536-93d2-185678c34449","system_id":"levelo_inurba_marseille","lat":43.21193,"lon":5.35066,"is_reserved":false,"is_disabled":false,"rental_uris":{"android":"levelo://app?vid=b6e73fff-ccbc-4536-93d2-185678c34449","ios":"levelo://app?vid=b6e73fff-ccbc-4536-93d2-185678c34449"},"vehicle_type_id":"4","last_reported":1743862063,"current_range_meters":6000,"station_id":"st_cvj6sg6p6f1abm77japg","pricing_plan_id":"cebpf4jnsgd1na2vs0mg"},{"bike_id":"a3c5129a-18aa-4cd6-84a1-00bbf242ce2f","system_id":"levelo_inurba_marseille","lat":43.26029,"lon":5.3755,"is_reserved":false,"is_disabled":false,"rental_uris":{"android":"levelo://app?vid=a3c5129a-18aa-4cd6-84a1-00bbf242ce2f","ios":"levelo://app?vid=a3c5129a-18aa-4cd6-84a1-00bbf242ce2f"},"vehicle_type_id":"4","last_reported":1743862063,"current_range_meters":6000,"station_id":"ce4bhgh2rcd13ifvqfa0","pricing_plan_id":"cebpf4jnsgd1na2vs0mg"},{"bike_id":"47843f82-193f-4df9-abe0-8b221e5b8b57","system_id":"levelo_inurba_marseille","lat":43.291962,"lon":5.393262,"is_reserved":false,"is_disabled":false,"rental_uris":{"android":"levelo://app?vid=47843f82-193f-4df9-abe0-8b221e5b8b57","ios":"levelo://app?vid=47843f82-193f-4df9-abe0-8b221e5b8b57"},"vehicle_type_id":"4","last_reported":1743862063,"current_range_meters":6000,"station_id":"ce4bh192rcd13ifvqdd0","pricing_plan_id":"cebpf4jnsgd1na2vs0mg"},{"bike_id":"2b829cb4-e166-4fe2-b281-85746037f1ad","system_id":"levelo_inurba_marseille","lat":43.30376,"lon":5.42484,"is_reserved":false,"is_disabled":false,"rental_uris":{"android":"levelo://app?vid=2b829cb4-e166-4fe2-b281-85746037f1ad","ios":"levelo://app?vid=2b829cb4-e166-4fe2-b281-85746037f1ad"},"vehicle_type_id":"4","last_reported":1743862063,"current_range_meters":6400,"station_id":"ce4bhoh2rcd13ifvqh6g","pricing_plan_id":"cebpf4jnsgd1na2vs0mg"},{"bike_id":"735e0003-241e-4696-bbe1-372e6da778ce","system_id":"levelo_inurba_marseille","lat":43.27376,"lon":5.36256,"is_reserved":false,"is_disabled":false,"rental_uris":{"android":"levelo://app?vid=735e0003-241e-4696-bbe1-372e6da778ce","ios":"levelo://app?vid=735e0003-241e-4696-bbe1-372e6da778ce"},"vehicle_type_id":"4","last_reported":1743862063,"current_range_meters":6400,"station_id":"ce4bhbh2rcd13ifvqeo0","pricing_plan_id":"cebpf4jnsgd1na2vs0mg"},{"bike_id":"be4374d2-3b44-4a59-8469-044255b80186","system_id":"levelo_inurba_marseille","lat":43.2791,"lon":5.39574,"is_reserved":false,"is_disabled":false,"rental_uris":{"android":"levelo://app?vid=be4374d2-3b44-4a59-8469-044255b80186","ios":"levelo://app?vid=be4374d2-3b44-4a59-8469-044255b80186"},"vehicle_type_id":"4","last_reported":1743862063,"current_range_meters":6400,"station_id":"ce4bhf92rcd13ifvqf40","pricing_plan_id":"cebpf4jnsgd1na2vs0mg"},{"bike_id":"d3af664a-44c6-45e9-880b-0f365c1409cf","system_id":"levelo_inurba_marseille","lat":43.26027,"lon":5.37555,"is_reserved":false,"is_disabled":false,"rental_uris":{"android":"levelo://app?vid=d3af664a-44c6-45e9-880b-0f365c1409cf","ios":"levelo://app?vid=d3af664a-44c6-45e9-880b-0f365c1409cf"},"vehicle_type_id":"4","last_reported":1743862063,"current_range_meters":6400,"station_id":"ce4bhgh2rcd13ifvqfa0","pricing_plan_id":"cebpf4jnsgd1na2vs0mg"},{"bike_id":"0ac2c4ba-c840-4d70-97c0-cd2bea57af08","system_id":"levelo_inurba_marseille","lat":43.24388,"lon":5.37073,"is_reserved":false,"is_disabled":false,"rental_uris":{"android":"levelo://app?vid=0ac2c4ba-c840-4d70-97c0-cd2bea57af08","ios":"levelo://app?vid=0ac2c4ba-c840-4d70-97c0-cd2bea57af08"},"vehicle_type_id":"4","last_reported":1743862063,"current_range_meters":6400,"station_id":"ce4bhhh2rcd13ifvqfk0","pricing_plan_id":"cebpf4jnsgd1na2vs0mg"},{"bike_id":"50297066-959d-45c5-a71e-b062cc3724ec","system_id":"levelo_inurba_marseille","lat":43.30796,"lon":5.37339,"is_reserved":false,"is_disabled":false,"rental_uris":{"android":"levelo://app?vid=50297066-959d-45c5-a71e-b062cc3724ec","ios":"levelo://app?vid=50297066-959d-45c5-a71e-b062cc3724ec"},"vehicle_type_id":"4","last_reported":1743862063,"current_range_meters":6400,"station_id":"","pricing_plan_id":"cebpf4jnsgd1na2vs0mg"},{"bike_id":"672d1812-d793-4d5a-b8a2-a6032bcff278","system_id":"levelo_inurba_marseille","lat":43.28277,"lon":5.35088,"is_reserved":false,"is_disabled":false,"rental_uris":{"android":"levelo://app?vid=672d1812-d793-4d5a-b8a2-a6032bcff278","ios":"levelo://app?vid=672d1812-d793-4d5a-b8a2-a6032bcff278"},"vehicle_type_id":"4","last_reported":1743862063,"current_range_meters":6800,"station_id":"ce4bhbp2rcd13ifvqerg","pricing_plan_id":"cebpf4jnsgd1na2vs0mg"},{"bike_id":"f652eb23-4d0d-4052-aa14-70f528732353","system_id":"levelo_inurba_marseille","lat":43.31083,"lon":5.42434,"is_reserved":false,"is_disabled":false,"rental_uris":{"android":"levelo://app?vid=f652eb23-4d0d-4052-aa14-70f528732353","ios":"levelo://app?vid=f652eb23-4d0d-4052-aa14-70f528732353"},"vehicle_type_id":"4","last_reported":1743862063,"current_range_meters":6800,"station_id":"ce4bhp92rcd13ifvqhag","pricing_plan_id":"cebpf4jnsgd1na2vs0mg"},{"bike_id":"89382623-7b7f-40e8-a15b-8193cd59c918","system_id":"levelo_inurba_marseille","lat":43.231968,"lon":5.355557,"is_reserved":false,"is_disabled":false,"rental_uris":{"android":"levelo://app?vid=89382623-7b7f-40e8-a15b-8193cd59c918","ios":"levelo://app?vid=89382623-7b7f-40e8-a15b-8193cd59c918"},"vehicle_type_id":"4","last_reported":1743862063,"current_range_meters":6800,"station_id":"ce4bhu92rcd13ifvqi70","pricing_plan_id":"cebpf4jnsgd1na2vs0mg"},{"bike_id":"85569c5e-792a-4809-8948-6b3410ae7c98","system_id":"levelo_inurba_marseille","lat":43.24691,"lon":5.41187,"is_reserved":false,"is_disabled":false,"rental_uris":{"android":"levelo://app?vid=85569c5e-792a-4809-8948-6b3410ae7c98","ios":"levelo://app?vid=85569c5e-792a-4809-8948-6b3410ae7c98"},"vehicle_type_id":"4","last_reported":1743862063,"current_range_meters":6800,"station_id":"","pricing_plan_id":"cebpf4jnsgd1na2vs0mg"},{"bike_id":"9cecbd7a-9ce0-4058-8481-d43b6c20dbc2","system_id":"levelo_inurba_marseille","lat":43.21191,"lon":5.35073,"is_reserved":false,"is_disabled":false,"rental_uris":{"android":"levelo://app?vid=9cecbd7a-9ce0-4058-8481-d43b6c20dbc2","ios":"levelo://app?vid=9cecbd7a-9ce0-4058-8481-d43b6c20dbc2"},"vehicle_type_id":"4","last_reported":1743862063,"current_range_meters":6800,"station_id":"st_cvj6sg6p6f1abm77japg","pricing_plan_id":"cebpf4jnsgd1na2vs0mg"},{"bike_id":"44b275b4-990b-4ff2-a079-9ef980dea731","system_id":"levelo_inurba_marseille","lat":43.28943,"lon":5.36403,"is_reserved":false,"is_disabled":false,"rental_uris":{"android":"levelo://app?vid=44b275b4-990b-4ff2-a079-9ef980dea731","ios":"levelo://app?vid=44b275b4-990b-4ff2-a079-9ef980dea731"},"vehicle_type_id":"4","last_reported":1743862063,"current_range_meters":6800,"station_id":"ce4bhc92rcd13ifvqetg","pricing_plan_id":"cebpf4jnsgd1na2vs0mg"},{"bike_id":"c30f802a-9d70-474a-a9aa-6970c7362d07","system_id":"levelo_inurba_marseille","lat":43.28154,"lon":5.4264,"is_reserved":false,"is_disabled":false,"rental_uris":{"android":"levelo://app?vid=c30f802a-9d70-474a-a9aa-6970c7362d07","ios":"levelo://app?vid=c30f802a-9d70-474a-a9aa-6970c7362d07"},"vehicle_type_id":"4","last_reported":1743862063,"current_range_meters":6800,"station_id":"ce4bhnh2rcd13ifvqgug","pricing_plan_id":"cebpf4jnsgd1na2vs0mg"},{"bike_id":"c039c304-783d-4533-a1de-8852534003f9","system_id":"levelo_inurba_marseille","lat":43.26482,"lon":5.39551,"is_reserved":false,"is_disabled":false,"rental_uris":{"android":"levelo://app?vid=c039c304-783d-4533-a1de-8852534003f9","ios":"levelo://app?vid=c039c304-783d-4533-a1de-8852534003f9"},"vehicle_type_id":"4","last_reported":1743862063,"current_range_meters":6800,"station_id":"ce4bhi12rcd13ifvqfq0","pricing_plan_id":"cebpf4jnsgd1na2vs0mg"},{"bike_id":"4e6bbb71-9a05-4305-8651-eabdb0ee6733","system_id":"levelo_inurba_marseille","lat":43.23188,"lon":5.39977,"is_reserved":false,"is_disabled":false,"rental_uris":{"android":"levelo://app?vid=4e6bbb71-9a05-4305-8651-eabdb0ee6733","ios":"levelo://app?vid=4e6bbb71-9a05-4305-8651-eabdb0ee6733"},"vehicle_type_id":"4","last_reported":1743862063,"current_range_meters":7200,"station_id":"ce4bhn12rcd13ifvqgqg","pricing_plan_id":"cebpf4jnsgd1na2vs0mg"},{"bike_id":"97014bb8-4f79-4933-9076-399943157f10","system_id":"levelo_inurba_marseille","lat":43.31152,"lon":5.36784,"is_reserved":false,"is_disabled":false,"rental_uris":{"android":"levelo://app?vid=97014bb8-4f79-4933-9076-399943157f10","ios":"levelo://app?vid=97014bb8-4f79-4933-9076-399943157f10"},"vehicle_type_id":"4","last_reported":1743862063,"current_range_meters":7200,"station_id":"","pricing_plan_id":"cebpf4jnsgd1na2vs0mg"},{"bike_id":"c772891d-37e5-42b8-840c-727921fa2ee3","system_id":"levelo_inurba_marseille","lat":43.27613,"lon":5.36116,"is_reserved":false,"is_disabled":false,"rental_uris":{"android":"levelo://app?vid=c772891d-37e5-42b8-840c-727921fa2ee3","ios":"levelo://app?vid=c772891d-37e5-42b8-840c-727921fa2ee3"},"vehicle_type_id":"4","last_reported":1743862063,"current_range_meters":6800,"station_id":"ce4bgj92rcd13ifvqbe0","pricing_plan_id":"cebpf4jnsgd1na2vs0mg"},{"bike_id":"31cad233-fcf8-4114-8f8d-18d0b2e515b4","system_id":"levelo_inurba_marseille","lat":43.28271,"lon":5.35068,"is_reserved":false,"is_disabled":false,"rental_uris":{"android":"levelo://app?vid=31cad233-fcf8-4114-8f8d-18d0b2e515b4","ios":"levelo://app?vid=31cad233-fcf8-4114-8f8d-18d0b2e515b4"},"vehicle_type_id":"4","last_reported":1743862063,"current_range_meters":11200,"station_id":"ce4bhbp2rcd13ifvqerg","pricing_plan_id":"cebpf4jnsgd1na2vs0mg"},{"bike_id":"d5fb1311-0a02-48c5-b818-d2a10e261437","system_id":"levelo_inurba_marseille","lat":43.28613,"lon":5.35103,"is_reserved":false,"is_disabled":false,"rental_uris":{"android":"levelo://app?vid=d5fb1311-0a02-48c5-b818-d2a10e261437","ios":"levelo://app?vid=d5fb1311-0a02-48c5-b818-d2a10e261437"},"vehicle_type_id":"4","last_reported":1743862063,"current_range_meters":7200,"station_id":"ce4bhch2rcd13ifvqeug","pricing_plan_id":"cebpf4jnsgd1na2vs0mg"},{"bike_id":"0f6bf46b-74dd-47b1-bb6b-befe4aa6bdd4","system_id":"levelo_inurba_marseille","lat":43.292305,"lon":5.360618,"is_reserved":false,"is_disabled":false,"rental_uris":{"android":"levelo://app?vid=0f6bf46b-74dd-47b1-bb6b-befe4aa6bdd4","ios":"levelo://app?vid=0f6bf46b-74dd-47b1-bb6b-befe4aa6bdd4"},"vehicle_type_id":"4","last_reported":1743862063,"current_range_meters":7200,"station_id":"ce4bhbh2rcd13ifvqeqg","pricing_plan_id":"cebpf4jnsgd1na2vs0mg"},{"bike_id":"11101b03-02c0-4bb4-a9dc-326497f91f4e","system_id":"levelo_inurba_marseille","lat":43.29255,"lon":5.40906,"is_reserved":false,"is_disabled":true,"rental_uris":{"android":"levelo://app?vid=11101b03-02c0-4bb4-a9dc-326497f91f4e","ios":"levelo://app?vid=11101b03-02c0-4bb4-a9dc-326497f91f4e"},"vehicle_type_id":"4","last_reported":1743862063,"current_range_meters":4000,"station_id":"ce4bh192rcd13ifvqdc0","pricing_plan_id":"cebpf4jnsgd1na2vs0mg"},{"bike_id":"2300e608-9f49-4219-a239-0a93902d8d11","system_id":"levelo_inurba_marseille","lat":43.30732,"lon":5.42459,"is_reserved":false,"is_disabled":false,"rental_uris":{"android":"levelo://app?vid=2300e608-9f49-4219-a239-0a93902d8d11","ios":"levelo://app?vid=2300e608-9f49-4219-a239-0a93902d8d11"},"vehicle_type_id":"4","last_reported":1743862063,"current_range_meters":7200,"station_id":"st_cvj6ca6bvosntc0bfgr0","pricing_plan_id":"cebpf4jnsgd1na2vs0mg"},{"bike_id":"3a673a01-13fc-4ed6-b9b1-08a0faf2fd75","system_id":"levelo_inurba_marseille","lat":43.23182,"lon":5.39989,"is_reserved":false,"is_disabled":false,"rental_uris":{"android":"levelo://app?vid=3a673a01-13fc-4ed6-b9b1-08a0faf2fd75","ios":"levelo://app?vid=3a673a01-13fc-4ed6-b9b1-08a0faf2fd75"},"vehicle_type_id":"4","last_reported":1743862063,"current_range_meters":7200,"station_id":"ce4bhn12rcd13ifvqgqg","pricing_plan_id":"cebpf4jnsgd1na2vs0mg"},{"bike_id":"1ee32b1a-5d79-4838-8a02-b152166e43f3","system_id":"levelo_inurba_marseille","lat":43.23191,"lon":5.35557,"is_reserved":false,"is_disabled":false,"rental_uris":{"android":"levelo://app?vid=1ee32b1a-5d79-4838-8a02-b152166e43f3","ios":"levelo://app?vid=1ee32b1a-5d79-4838-8a02-b152166e43f3"},"vehicle_type_id":"4","last_reported":1743862063,"current_range_meters":8000,"station_id":"ce4bhu92rcd13ifvqi70","pricing_plan_id":"cebpf4jnsgd1na2vs0mg"},{"bike_id":"be5a522b-8e23-4fa1-8d3a-143cb411156b","system_id":"levelo_inurba_marseille","lat":43.211914,"lon":5.350741,"is_reserved":false,"is_disabled":false,"rental_uris":{"android":"levelo://app?vid=be5a522b-8e23-4fa1-8d3a-143cb411156b","ios":"levelo://app?vid=be5a522b-8e23-4fa1-8d3a-143cb411156b"},"vehicle_type_id":"4","last_reported":1743862063,"current_range_meters":8000,"station_id":"","pricing_plan_id":"cebpf4jnsgd1na2vs0mg"},{"bike_id":"e7b956ce-2ab2-4301-8fd3-6312d753e8f6","system_id":"levelo_inurba_marseille","lat":43.24661,"lon":5.38169,"is_reserved":false,"is_disabled":true,"rental_uris":{"android":"levelo://app?vid=e7b956ce-2ab2-4301-8fd3-6312d753e8f6","ios":"levelo://app?vid=e7b956ce-2ab2-4301-8fd3-6312d753e8f6"},"vehicle_type_id":"4","last_reported":1743862063,"current_range_meters":8000,"station_id":"ce4bhih2rcd13ifvqfr0","pricing_plan_id":"cebpf4jnsgd1na2vs0mg"},{"bike_id":"263a9c05-622f-47a5-b753-3b4374503a15","system_id":"levelo_inurba_marseille","lat":43.28265,"lon":5.35071,"is_reserved":false,"is_disabled":false,"rental_uris":{"android":"levelo://app?vid=263a9c05-622f-47a5-b753-3b4374503a15","ios":"levelo://app?vid=263a9c05-622f-47a5-b753-3b4374503a15"},"vehicle_type_id":"4","last_reported":1743862063,"current_range_meters":8000,"station_id":"ce4bhbp2rcd13ifvqerg","pricing_plan_id":"cebpf4jnsgd1na2vs0mg"},{"bike_id":"908c0033-ebf3-400a-acb3-0a621b83539f","system_id":"levelo_inurba_marseille","lat":43.23187,"lon":5.39985,"is_reserved":false,"is_disabled":false,"rental_uris":{"android":"levelo://app?vid=908c0033-ebf3-400a-acb3-0a621b83539f","ios":"levelo://app?vid=908c0033-ebf3-400a-acb3-0a621b83539f"},"vehicle_type_id":"4","last_reported":1743862063,"current_range_meters":8000,"station_id":"ce4bhn12rcd13ifvqgqg","pricing_plan_id":"cebpf4jnsgd1na2vs0mg"},{"bike_id":"3b6765db-4bcb-4f01-839f-3df2e39cd168","system_id":"levelo_inurba_marseille","lat":43.26572,"lon":5.39027,"is_reserved":false,"is_disabled":false,"rental_uris":{"android":"levelo://app?vid=3b6765db-4bcb-4f01-839f-3df2e39cd168","ios":"levelo://app?vid=3b6765db-4bcb-4f01-839f-3df2e39cd168"},"vehicle_type_id":"4","last_reported":1743862063,"current_range_meters":8000,"station_id":"ce4bhe12rcd13ifvqf30","pricing_plan_id":"cebpf4jnsgd1na2vs0mg"},{"bike_id":"ae85a7a4-7c38-4e25-9e50-a9a925b58789","system_id":"levelo_inurba_marseille","lat":43.31084,"lon":5.42433,"is_reserved":false,"is_disabled":false,"rental_uris":{"android":"levelo://app?vid=ae85a7a4-7c38-4e25-9e50-a9a925b58789","ios":"levelo://app?vid=ae85a7a4-7c38-4e25-9e50-a9a925b58789"},"vehicle_type_id":"4","last_reported":1743862063,"current_range_meters":8000,"station_id":"ce4bhp92rcd13ifvqhag","pricing_plan_id":"cebpf4jnsgd1na2vs0mg"},{"bike_id":"7bc38faa-329d-4714-8cf8-e3c6d560726d","system_id":"levelo_inurba_marseille","lat":43.30136,"lon":5.39861,"is_reserved":false,"is_disabled":false,"rental_uris":{"android":"levelo://app?vid=7bc38faa-329d-4714-8cf8-e3c6d560726d","ios":"levelo://app?vid=7bc38faa-329d-4714-8cf8-e3c6d560726d"},"vehicle_type_id":"4","last_reported":1743862063,"current_range_meters":8000,"station_id":"ce4bh0h2rcd13ifvqd40","pricing_plan_id":"cebpf4jnsgd1na2vs0mg"},{"bike_id":"4712e8c1-b3be-4dc7-bcb8-7381904ce198","system_id":"levelo_inurba_marseille","lat":43.28611,"lon":5.37061,"is_reserved":false,"is_disabled":false,"rental_uris":{"android":"levelo://app?vid=4712e8c1-b3be-4dc7-bcb8-7381904ce198","ios":"levelo://app?vid=4712e8c1-b3be-4dc7-bcb8-7381904ce198"},"vehicle_type_id":"4","last_reported":1743862063,"current_range_meters":8000,"station_id":"ce4bht12rcd13ifvqi60","pricing_plan_id":"cebpf4jnsgd1na2vs0mg"},{"bike_id":"0bc5be8d-5424-45a6-ba31-ea9c1e123644","system_id":"levelo_inurba_marseille","lat":43.2293,"lon":5.35388,"is_reserved":false,"is_disabled":false,"rental_uris":{"android":"levelo://app?vid=0bc5be8d-5424-45a6-ba31-ea9c1e123644","ios":"levelo://app?vid=0bc5be8d-5424-45a6-ba31-ea9c1e123644"},"vehicle_type_id":"4","last_reported":1743862063,"current_range_meters":8400,"station_id":"cpo3532slgdg3j2ikp40","pricing_plan_id":"cebpf4jnsgd1na2vs0mg"},{"bike_id":"36f99f1e-facd-4ed6-88e1-4df8844bf046","system_id":"levelo_inurba_marseille","lat":43.299429,"lon":5.36434,"is_reserved":false,"is_disabled":false,"rental_uris":{"android":"levelo://app?vid=36f99f1e-facd-4ed6-88e1-4df8844bf046","ios":"levelo://app?vid=36f99f1e-facd-4ed6-88e1-4df8844bf046"},"vehicle_type_id":"4","last_reported":1743862063,"current_range_meters":8000,"station_id":"ce4bhoh2rcd13ifvqh5g","pricing_plan_id":"cebpf4jnsgd1na2vs0mg"},{"bike_id":"783ef245-163c-4c81-b038-df23059b7c57","system_id":"levelo_inurba_marseille","lat":43.310755,"lon":5.383546,"is_reserved":false,"is_disabled":false,"rental_uris":{"android":"levelo://app?vid=783ef245-163c-4c81-b038-df23059b7c57","ios":"levelo://app?vid=783ef245-163c-4c81-b038-df23059b7c57"},"vehicle_type_id":"4","last_reported":1743862063,"current_range_meters":8400,"station_id":"","pricing_plan_id":"cebpf4jnsgd1na2vs0mg"},{"bike_id":"32b35258-d759-4548-af10-fc0ce8dffa66","system_id":"levelo_inurba_marseille","lat":43.24174,"lon":5.36395,"is_reserved":false,"is_disabled":false,"rental_uris":{"android":"levelo://app?vid=32b35258-d759-4548-af10-fc0ce8dffa66","ios":"levelo://app?vid=32b35258-d759-4548-af10-fc0ce8dffa66"},"vehicle_type_id":"4","last_reported":1743862063,"current_range_meters":8400,"station_id":"cpo36qri1sfpv3e86is0","pricing_plan_id":"cebpf4jnsgd1na2vs0mg"},{"bike_id":"0300ed36-144c-47d9-a922-f93668338414","system_id":"levelo_inurba_marseille","lat":43.23963,"lon":5.36622,"is_reserved":false,"is_disabled":false,"rental_uris":{"android":"levelo://app?vid=0300ed36-144c-47d9-a922-f93668338414","ios":"levelo://app?vid=0300ed36-144c-47d9-a922-f93668338414"},"vehicle_type_id":"4","last_reported":1743862063,"current_range_meters":8400,"station_id":"ce4bhi12rcd13ifvqfp0","pricing_plan_id":"cebpf4jnsgd1na2vs0mg"},{"bike_id":"fd6672b4-53b7-4b36-a68f-bcbd77670cb9","system_id":"levelo_inurba_marseille","lat":43.26035,"lon":5.37553,"is_reserved":false,"is_disabled":false,"rental_uris":{"android":"levelo://app?vid=fd6672b4-53b7-4b36-a68f-bcbd77670cb9","ios":"levelo://app?vid=fd6672b4-53b7-4b36-a68f-bcbd77670cb9"},"vehicle_type_id":"4","last_reported":1743862063,"current_range_meters":8400,"station_id":"ce4bhgh2rcd13ifvqfa0","pricing_plan_id":"cebpf4jnsgd1na2vs0mg"},{"bike_id":"00bc9a3e-81a6-48a1-a63d-e40981713366","system_id":"levelo_inurba_marseille","lat":43.28431,"lon":5.35025,"is_reserved":false,"is_disabled":false,"rental_uris":{"android":"levelo://app?vid=00bc9a3e-81a6-48a1-a63d-e40981713366","ios":"levelo://app?vid=00bc9a3e-81a6-48a1-a63d-e40981713366"},"vehicle_type_id":"4","last_reported":1743862063,"current_range_meters":8400,"station_id":"ce4bhbh2rcd13ifvqepg","pricing_plan_id":"cebpf4jnsgd1na2vs0mg"},{"bike_id":"3b4ad8c6-6244-4378-90d7-dac703d1508d","system_id":"levelo_inurba_marseille","lat":43.23202,"lon":5.35519,"is_reserved":false,"is_disabled":false,"rental_uris":{"android":"levelo://app?vid=3b4ad8c6-6244-4378-90d7-dac703d1508d","ios":"levelo://app?vid=3b4ad8c6-6244-4378-90d7-dac703d1508d"},"vehicle_type_id":"4","last_reported":1743862063,"current_range_meters":8800,"station_id":"ce4bhu92rcd13ifvqi70","pricing_plan_id":"cebpf4jnsgd1na2vs0mg"},{"bike_id":"d311d547-e0ed-4024-86a7-321dd74d86a6","system_id":"levelo_inurba_marseille","lat":43.27497,"lon":5.4245,"is_reserved":false,"is_disabled":false,"rental_uris":{"android":"levelo://app?vid=d311d547-e0ed-4024-86a7-321dd74d86a6","ios":"levelo://app?vid=d311d547-e0ed-4024-86a7-321dd74d86a6"},"vehicle_type_id":"4","last_reported":1743862063,"current_range_meters":8800,"station_id":"ce4bhn92rcd13ifvqgrg","pricing_plan_id":"cebpf4jnsgd1na2vs0mg"},{"bike_id":"e16d8797-92dd-4f3a-9581-8b0e6ad7a2f1","system_id":"levelo_inurba_marseille","lat":43.28941,"lon":5.36385,"is_reserved":false,"is_disabled":false,"rental_uris":{"android":"levelo://app?vid=e16d8797-92dd-4f3a-9581-8b0e6ad7a2f1","ios":"levelo://app?vid=e16d8797-92dd-4f3a-9581-8b0e6ad7a2f1"},"vehicle_type_id":"4","last_reported":1743862063,"current_range_meters":8800,"station_id":"ce4bhc92rcd13ifvqetg","pricing_plan_id":"cebpf4jnsgd1na2vs0mg"},{"bike_id":"be90388b-b79c-4471-9a29-aa2b57138f38","system_id":"levelo_inurba_marseille","lat":43.2396,"lon":5.36635,"is_reserved":false,"is_disabled":false,"rental_uris":{"android":"levelo://app?vid=be90388b-b79c-4471-9a29-aa2b57138f38","ios":"levelo://app?vid=be90388b-b79c-4471-9a29-aa2b57138f38"},"vehicle_type_id":"4","last_reported":1743862063,"current_range_meters":8800,"station_id":"ce4bhi12rcd13ifvqfp0","pricing_plan_id":"cebpf4jnsgd1na2vs0mg"},{"bike_id":"e0fc34f6-0214-440a-9ed4-af39ae5d38dd","system_id":"levelo_inurba_marseille","lat":43.22502,"lon":5.34785,"is_reserved":false,"is_disabled":false,"rental_uris":{"android":"levelo://app?vid=e0fc34f6-0214-440a-9ed4-af39ae5d38dd","ios":"levelo://app?vid=e0fc34f6-0214-440a-9ed4-af39ae5d38dd"},"vehicle_type_id":"4","last_reported":1743862063,"current_range_meters":8800,"station_id":"","pricing_plan_id":"cebpf4jnsgd1na2vs0mg"},{"bike_id":"6b8df6c6-e69f-416d-869f-6c58b572d426","system_id":"levelo_inurba_marseille","lat":43.23187,"lon":5.39975,"is_reserved":false,"is_disabled":false,"rental_uris":{"android":"levelo://app?vid=6b8df6c6-e69f-416d-869f-6c58b572d426","ios":"levelo://app?vid=6b8df6c6-e69f-416d-869f-6c58b572d426"},"vehicle_type_id":"4","last_reported":1743862063,"current_range_meters":8800,"station_id":"ce4bhn12rcd13ifvqgqg","pricing_plan_id":"cebpf4jnsgd1na2vs0mg"},{"bike_id":"0314bab5-7060-4db4-b3f2-12aee6f3ad34","system_id":"levelo_inurba_marseille","lat":43.23061,"lon":5.355,"is_reserved":false,"is_disabled":false,"rental_uris":{"android":"levelo://app?vid=0314bab5-7060-4db4-b3f2-12aee6f3ad34","ios":"levelo://app?vid=0314bab5-7060-4db4-b3f2-12aee6f3ad34"},"vehicle_type_id":"4","last_reported":1743862063,"current_range_meters":8800,"station_id":"cpo3342slgdg3j2ifvpg","pricing_plan_id":"cebpf4jnsgd1na2vs0mg"},{"bike_id":"fb0d4993-67fa-4314-9525-ef2ba9197c72","system_id":"levelo_inurba_marseille","lat":43.30321,"lon":5.4059,"is_reserved":false,"is_disabled":false,"rental_uris":{"android":"levelo://app?vid=fb0d4993-67fa-4314-9525-ef2ba9197c72","ios":"levelo://app?vid=fb0d4993-67fa-4314-9525-ef2ba9197c72"},"vehicle_type_id":"4","last_reported":1743862063,"current_range_meters":8800,"station_id":"","pricing_plan_id":"cebpf4jnsgd1na2vs0mg"},{"bike_id":"53b9ee61-bd08-4a49-b664-054245c9649c","system_id":"levelo_inurba_marseille","lat":43.29649,"lon":5.40602,"is_reserved":false,"is_disabled":false,"rental_uris":{"android":"levelo://app?vid=53b9ee61-bd08-4a49-b664-054245c9649c","ios":"levelo://app?vid=53b9ee61-bd08-4a49-b664-054245c9649c"},"vehicle_type_id":"4","last_reported":1743862063,"current_range_meters":8800,"station_id":"ce4bh0h2rcd13ifvqd60","pricing_plan_id":"cebpf4jnsgd1na2vs0mg"},{"bike_id":"b1973e46-5c23-4b13-950f-de12a357f981","system_id":"levelo_inurba_marseille","lat":43.23187,"lon":5.39991,"is_reserved":false,"is_disabled":false,"rental_uris":{"android":"levelo://app?vid=b1973e46-5c23-4b13-950f-de12a357f981","ios":"levelo://app?vid=b1973e46-5c23-4b13-950f-de12a357f981"},"vehicle_type_id":"4","last_reported":1743862063,"current_range_meters":8800,"station_id":"ce4bhn12rcd13ifvqgqg","pricing_plan_id":"cebpf4jnsgd1na2vs0mg"},{"bike_id":"1f22652d-47f5-4058-9c50-679ac34a1fe5","system_id":"levelo_inurba_marseille","lat":43.30544,"lon":5.36564,"is_reserved":false,"is_disabled":false,"rental_uris":{"android":"levelo://app?vid=1f22652d-47f5-4058-9c50-679ac34a1fe5","ios":"levelo://app?vid=1f22652d-47f5-4058-9c50-679ac34a1fe5"},"vehicle_type_id":"4","last_reported":1743862063,"current_range_meters":8800,"station_id":"ce4bgs12rcd13ifvqcag","pricing_plan_id":"cebpf4jnsgd1na2vs0mg"},{"bike_id":"11541483-6989-4a73-b70f-4f065f827afc","system_id":"levelo_inurba_marseille","lat":43.29605,"lon":5.38113,"is_reserved":false,"is_disabled":false,"rental_uris":{"android":"levelo://app?vid=11541483-6989-4a73-b70f-4f065f827afc","ios":"levelo://app?vid=11541483-6989-4a73-b70f-4f065f827afc"},"vehicle_type_id":"4","last_reported":1743862063,"current_range_meters":8800,"station_id":"ce4bgl12rcd13ifvqbo0","pricing_plan_id":"cebpf4jnsgd1na2vs0mg"},{"bike_id":"5fcf087c-e155-43d0-8a0d-04c11f0d402a","system_id":"levelo_inurba_marseille","lat":43.310615,"lon":5.38351,"is_reserved":false,"is_disabled":false,"rental_uris":{"android":"levelo://app?vid=5fcf087c-e155-43d0-8a0d-04c11f0d402a","ios":"levelo://app?vid=5fcf087c-e155-43d0-8a0d-04c11f0d402a"},"vehicle_type_id":"4","last_reported":1743862063,"current_range_meters":9200,"station_id":"ce4bgv92rcd13ifvqcr0","pricing_plan_id":"cebpf4jnsgd1na2vs0mg"},{"bike_id":"d9e1f8c9-cc03-41d6-ad5c-a8d9c005606f","system_id":"levelo_inurba_marseille","lat":43.31364,"lon":5.38494,"is_reserved":false,"is_disabled":false,"rental_uris":{"android":"levelo://app?vid=d9e1f8c9-cc03-41d6-ad5c-a8d9c005606f","ios":"levelo://app?vid=d9e1f8c9-cc03-41d6-ad5c-a8d9c005606f"},"vehicle_type_id":"4","last_reported":1743862063,"current_range_meters":9200,"station_id":"ce4bgt92rcd13ifvqcf0","pricing_plan_id":"cebpf4jnsgd1na2vs0mg"},{"bike_id":"72a61c0f-712e-48a9-8ede-39c60fc3dc15","system_id":"levelo_inurba_marseille","lat":43.28425,"lon":5.34991,"is_reserved":false,"is_disabled":false,"rental_uris":{"android":"levelo://app?vid=72a61c0f-712e-48a9-8ede-39c60fc3dc15","ios":"levelo://app?vid=72a61c0f-712e-48a9-8ede-39c60fc3dc15"},"vehicle_type_id":"4","last_reported":1743862063,"current_range_meters":9200,"station_id":"ce4bhbh2rcd13ifvqepg","pricing_plan_id":"cebpf4jnsgd1na2vs0mg"},{"bike_id":"4f87fde7-c456-4c01-b0cb-cde455827412","system_id":"levelo_inurba_marseille","lat":43.24169,"lon":5.36406,"is_reserved":false,"is_disabled":false,"rental_uris":{"android":"levelo://app?vid=4f87fde7-c456-4c01-b0cb-cde455827412","ios":"levelo://app?vid=4f87fde7-c456-4c01-b0cb-cde455827412"},"vehicle_type_id":"4","last_reported":1743862063,"current_range_meters":9200,"station_id":"cpo36qri1sfpv3e86is0","pricing_plan_id":"cebpf4jnsgd1na2vs0mg"},{"bike_id":"410c5b47-367a-4964-ae87-d2a99820fdde","system_id":"levelo_inurba_marseille","lat":43.29255,"lon":5.40909,"is_reserved":false,"is_disabled":false,"rental_uris":{"android":"levelo://app?vid=410c5b47-367a-4964-ae87-d2a99820fdde","ios":"levelo://app?vid=410c5b47-367a-4964-ae87-d2a99820fdde"},"vehicle_type_id":"4","last_reported":1743862063,"current_range_meters":9200,"station_id":"ce4bh192rcd13ifvqdc0","pricing_plan_id":"cebpf4jnsgd1na2vs0mg"},{"bike_id":"9a055327-5ba2-482f-b223-d78608155b28","system_id":"levelo_inurba_marseille","lat":43.28415,"lon":5.35001,"is_reserved":false,"is_disabled":false,"rental_uris":{"android":"levelo://app?vid=9a055327-5ba2-482f-b223-d78608155b28","ios":"levelo://app?vid=9a055327-5ba2-482f-b223-d78608155b28"},"vehicle_type_id":"4","last_reported":1743862063,"current_range_meters":9200,"station_id":"ce4bhbh2rcd13ifvqepg","pricing_plan_id":"cebpf4jnsgd1na2vs0mg"},{"bike_id":"36b40002-a941-4025-8496-6f64ad8c3f60","system_id":"levelo_inurba_marseille","lat":43.23199,"lon":5.39981,"is_reserved":false,"is_disabled":false,"rental_uris":{"android":"levelo://app?vid=36b40002-a941-4025-8496-6f64ad8c3f60","ios":"levelo://app?vid=36b40002-a941-4025-8496-6f64ad8c3f60"},"vehicle_type_id":"4","last_reported":1743862063,"current_range_meters":9200,"station_id":"ce4bhn12rcd13ifvqgqg","pricing_plan_id":"cebpf4jnsgd1na2vs0mg"},{"bike_id":"6a7c98a0-202e-49c7-b1d4-16968af3ede1","system_id":"levelo_inurba_marseille","lat":43.26205,"lon":5.37443,"is_reserved":false,"is_disabled":false,"rental_uris":{"android":"levelo://app?vid=6a7c98a0-202e-49c7-b1d4-16968af3ede1","ios":"levelo://app?vid=6a7c98a0-202e-49c7-b1d4-16968af3ede1"},"vehicle_type_id":"4","last_reported":1743862063,"current_range_meters":9200,"station_id":"ce4bhgp2rcd13ifvqfc0","pricing_plan_id":"cebpf4jnsgd1na2vs0mg"},{"bike_id":"ac7a85da-6a1d-42f4-b3e0-decaec458451","system_id":"levelo_inurba_marseille","lat":43.22923,"lon":5.3538,"is_reserved":false,"is_disabled":true,"rental_uris":{"android":"levelo://app?vid=ac7a85da-6a1d-42f4-b3e0-decaec458451","ios":"levelo://app?vid=ac7a85da-6a1d-42f4-b3e0-decaec458451"},"vehicle_type_id":"4","last_reported":1743862063,"current_range_meters":9200,"station_id":"cpo3532slgdg3j2ikp40","pricing_plan_id":"cebpf4jnsgd1na2vs0mg"},{"bike_id":"25492fc1-1d96-4d84-938a-09dda05562d0","system_id":"levelo_inurba_marseille","lat":43.29873,"lon":5.39731,"is_reserved":false,"is_disabled":false,"rental_uris":{"android":"levelo://app?vid=25492fc1-1d96-4d84-938a-09dda05562d0","ios":"levelo://app?vid=25492fc1-1d96-4d84-938a-09dda05562d0"},"vehicle_type_id":"4","last_reported":1743862063,"current_range_meters":9200,"station_id":"ce4bh0h2rcd13ifvqd50","pricing_plan_id":"cebpf4jnsgd1na2vs0mg"},{"bike_id":"d1a606a5-dac6-4b82-adda-4fde8a413b03","system_id":"levelo_inurba_marseille","lat":43.27051,"lon":5.40263,"is_reserved":false,"is_disabled":false,"rental_uris":{"android":"levelo://app?vid=d1a606a5-dac6-4b82-adda-4fde8a413b03","ios":"levelo://app?vid=d1a606a5-dac6-4b82-adda-4fde8a413b03"},"vehicle_type_id":"4","last_reported":1743862063,"current_range_meters":9200,"station_id":"ce4bhk92rcd13ifvqgc0","pricing_plan_id":"cebpf4jnsgd1na2vs0mg"},{"bike_id":"b82ececc-9628-439b-ac73-9a3c3097ddf8","system_id":"levelo_inurba_marseille","lat":43.28417,"lon":5.34997,"is_reserved":false,"is_disabled":false,"rental_uris":{"android":"levelo://app?vid=b82ececc-9628-439b-ac73-9a3c3097ddf8","ios":"levelo://app?vid=b82ececc-9628-439b-ac73-9a3c3097ddf8"},"vehicle_type_id":"4","last_reported":1743862063,"current_range_meters":9200,"station_id":"ce4bhbh2rcd13ifvqepg","pricing_plan_id":"cebpf4jnsgd1na2vs0mg"},{"bike_id":"d68bb49e-ae67-46b9-9113-2f1b9eefff70","system_id":"levelo_inurba_marseille","lat":43.31987,"lon":5.38101,"is_reserved":false,"is_disabled":false,"rental_uris":{"android":"levelo://app?vid=d68bb49e-ae67-46b9-9113-2f1b9eefff70","ios":"levelo://app?vid=d68bb49e-ae67-46b9-9113-2f1b9eefff70"},"vehicle_type_id":"4","last_reported":1743862063,"current_range_meters":9200,"station_id":"","pricing_plan_id":"cebpf4jnsgd1na2vs0mg"},{"bike_id":"372d9a6f-bab5-4bcf-8fef-db5c7b7130eb","system_id":"levelo_inurba_marseille","lat":43.31883,"lon":5.40746,"is_reserved":false,"is_disabled":false,"rental_uris":{"android":"levelo://app?vid=372d9a6f-bab5-4bcf-8fef-db5c7b7130eb","ios":"levelo://app?vid=372d9a6f-bab5-4bcf-8fef-db5c7b7130eb"},"vehicle_type_id":"4","last_reported":1743862063,"current_range_meters":9600,"station_id":"ce4bhq12rcd13ifvqhig","pricing_plan_id":"cebpf4jnsgd1na2vs0mg"},{"bike_id":"eb79d1f9-7c91-4ea2-b5f8-796189743e1a","system_id":"levelo_inurba_marseille","lat":43.33735,"lon":5.39181,"is_reserved":false,"is_disabled":false,"rental_uris":{"android":"levelo://app?vid=eb79d1f9-7c91-4ea2-b5f8-796189743e1a","ios":"levelo://app?vid=eb79d1f9-7c91-4ea2-b5f8-796189743e1a"},"vehicle_type_id":"4","last_reported":1743862063,"current_range_meters":9600,"station_id":"ce4bhr92rcd13ifvqhsg","pricing_plan_id":"cebpf4jnsgd1na2vs0mg"},{"bike_id":"d4b0314a-c0ee-4421-ac55-754c84c82a85","system_id":"levelo_inurba_marseille","lat":43.21208,"lon":5.3507,"is_reserved":false,"is_disabled":false,"rental_uris":{"android":"levelo://app?vid=d4b0314a-c0ee-4421-ac55-754c84c82a85","ios":"levelo://app?vid=d4b0314a-c0ee-4421-ac55-754c84c82a85"},"vehicle_type_id":"4","last_reported":1743862063,"current_range_meters":9600,"station_id":"st_cvj6sg6p6f1abm77japg","pricing_plan_id":"cebpf4jnsgd1na2vs0mg"},{"bike_id":"2aa6a7a1-4143-4f25-bc62-741e0d447e63","system_id":"levelo_inurba_marseille","lat":43.24677,"lon":5.37386,"is_reserved":false,"is_disabled":false,"rental_uris":{"android":"levelo://app?vid=2aa6a7a1-4143-4f25-bc62-741e0d447e63","ios":"levelo://app?vid=2aa6a7a1-4143-4f25-bc62-741e0d447e63"},"vehicle_type_id":"4","last_reported":1743862063,"current_range_meters":9600,"station_id":"ce4bhnp2rcd13ifvqgvg","pricing_plan_id":"cebpf4jnsgd1na2vs0mg"},{"bike_id":"bbc7a318-72ad-49d2-8bac-a5f320f4069a","system_id":"levelo_inurba_marseille","lat":43.26209,"lon":5.37445,"is_reserved":false,"is_disabled":false,"rental_uris":{"android":"levelo://app?vid=bbc7a318-72ad-49d2-8bac-a5f320f4069a","ios":"levelo://app?vid=bbc7a318-72ad-49d2-8bac-a5f320f4069a"},"vehicle_type_id":"4","last_reported":1743862063,"current_range_meters":9600,"station_id":"ce4bhgp2rcd13ifvqfc0","pricing_plan_id":"cebpf4jnsgd1na2vs0mg"},{"bike_id":"d89bb348-a2b2-475f-b66f-22fe74c882fd","system_id":"levelo_inurba_marseille","lat":43.23192,"lon":5.39977,"is_reserved":false,"is_disabled":false,"rental_uris":{"android":"levelo://app?vid=d89bb348-a2b2-475f-b66f-22fe74c882fd","ios":"levelo://app?vid=d89bb348-a2b2-475f-b66f-22fe74c882fd"},"vehicle_type_id":"4","last_reported":1743862063,"current_range_meters":9600,"station_id":"ce4bhn12rcd13ifvqgqg","pricing_plan_id":"cebpf4jnsgd1na2vs0mg"},{"bike_id":"9444e92d-22b8-4140-882d-645730b9468f","system_id":"levelo_inurba_marseille","lat":43.23191,"lon":5.35552,"is_reserved":false,"is_disabled":false,"rental_uris":{"android":"levelo://app?vid=9444e92d-22b8-4140-882d-645730b9468f","ios":"levelo://app?vid=9444e92d-22b8-4140-882d-645730b9468f"},"vehicle_type_id":"4","last_reported":1743862063,"current_range_meters":9600,"station_id":"ce4bhu92rcd13ifvqi70","pricing_plan_id":"cebpf4jnsgd1na2vs0mg"},{"bike_id":"fdad6e5e-1467-4616-9d72-68b29d343e00","system_id":"levelo_inurba_marseille","lat":43.322854,"lon":5.382825,"is_reserved":false,"is_disabled":false,"rental_uris":{"android":"levelo://app?vid=fdad6e5e-1467-4616-9d72-68b29d343e00","ios":"levelo://app?vid=fdad6e5e-1467-4616-9d72-68b29d343e00"},"vehicle_type_id":"4","last_reported":1743862063,"current_range_meters":9600,"station_id":"ce4bhr12rcd13ifvqhqg","pricing_plan_id":"cebpf4jnsgd1na2vs0mg"},{"bike_id":"8e8105ce-63e2-4441-9ebe-d6a09a08a22e","system_id":"levelo_inurba_marseille","lat":43.2966,"lon":5.36184,"is_reserved":false,"is_disabled":false,"rental_uris":{"android":"levelo://app?vid=8e8105ce-63e2-4441-9ebe-d6a09a08a22e","ios":"levelo://app?vid=8e8105ce-63e2-4441-9ebe-d6a09a08a22e"},"vehicle_type_id":"4","last_reported":1743862063,"current_range_meters":9600,"station_id":"","pricing_plan_id":"cebpf4jnsgd1na2vs0mg"},{"bike_id":"14d24ed7-cea7-43de-94b5-d3ed5551437a","system_id":"levelo_inurba_marseille","lat":43.23062,"lon":5.35494,"is_reserved":false,"is_disabled":false,"rental_uris":{"android":"levelo://app?vid=14d24ed7-cea7-43de-94b5-d3ed5551437a","ios":"levelo://app?vid=14d24ed7-cea7-43de-94b5-d3ed5551437a"},"vehicle_type_id":"4","last_reported":1743862063,"current_range_meters":9600,"station_id":"cpo3342slgdg3j2ifvpg","pricing_plan_id":"cebpf4jnsgd1na2vs0mg"},{"bike_id":"1a5bac2a-815c-4ddc-9a5d-040430d5e8aa","system_id":"levelo_inurba_marseille","lat":43.31088,"lon":5.42424,"is_reserved":false,"is_disabled":false,"rental_uris":{"android":"levelo://app?vid=1a5bac2a-815c-4ddc-9a5d-040430d5e8aa","ios":"levelo://app?vid=1a5bac2a-815c-4ddc-9a5d-040430d5e8aa"},"vehicle_type_id":"4","last_reported":1743862063,"current_range_meters":9600,"station_id":"ce4bhp92rcd13ifvqhag","pricing_plan_id":"cebpf4jnsgd1na2vs0mg"},{"bike_id":"75d31564-c3fb-4632-beae-ef16501058bf","system_id":"levelo_inurba_marseille","lat":43.30912,"lon":5.36857,"is_reserved":false,"is_disabled":false,"rental_uris":{"android":"levelo://app?vid=75d31564-c3fb-4632-beae-ef16501058bf","ios":"levelo://app?vid=75d31564-c3fb-4632-beae-ef16501058bf"},"vehicle_type_id":"4","last_reported":1743862063,"current_range_meters":9200,"station_id":"ce4bgn92rcd13ifvqbvg","pricing_plan_id":"cebpf4jnsgd1na2vs0mg"},{"bike_id":"413c940e-ff76-4db0-a471-947bf3414836","system_id":"levelo_inurba_marseille","lat":43.21743,"lon":5.34615,"is_reserved":false,"is_disabled":false,"rental_uris":{"android":"levelo://app?vid=413c940e-ff76-4db0-a471-947bf3414836","ios":"levelo://app?vid=413c940e-ff76-4db0-a471-947bf3414836"},"vehicle_type_id":"4","last_reported":1743862063,"current_range_meters":10000,"station_id":"st_cvj6r9ubvosntc0bgbag","pricing_plan_id":"cebpf4jnsgd1na2vs0mg"},{"bike_id":"d56a49c2-1617-44e2-ad81-3daf96ba9d03","system_id":"levelo_inurba_marseille","lat":43.2862,"lon":5.35108,"is_reserved":false,"is_disabled":false,"rental_uris":{"android":"levelo://app?vid=d56a49c2-1617-44e2-ad81-3daf96ba9d03","ios":"levelo://app?vid=d56a49c2-1617-44e2-ad81-3daf96ba9d03"},"vehicle_type_id":"4","last_reported":1743862063,"current_range_meters":10000,"station_id":"ce4bhch2rcd13ifvqeug","pricing_plan_id":"cebpf4jnsgd1na2vs0mg"},{"bike_id":"17cb4c94-d00c-4a8d-8660-ec832ad3c074","system_id":"levelo_inurba_marseille","lat":43.23197,"lon":5.35551,"is_reserved":false,"is_disabled":false,"rental_uris":{"android":"levelo://app?vid=17cb4c94-d00c-4a8d-8660-ec832ad3c074","ios":"levelo://app?vid=17cb4c94-d00c-4a8d-8660-ec832ad3c074"},"vehicle_type_id":"4","last_reported":1743862063,"current_range_meters":10000,"station_id":"ce4bhu92rcd13ifvqi70","pricing_plan_id":"cebpf4jnsgd1na2vs0mg"},{"bike_id":"98814562-c6f1-4d32-95fd-a8c2020ec69c","system_id":"levelo_inurba_marseille","lat":43.29532,"lon":5.38542,"is_reserved":false,"is_disabled":false,"rental_uris":{"android":"levelo://app?vid=98814562-c6f1-4d32-95fd-a8c2020ec69c","ios":"levelo://app?vid=98814562-c6f1-4d32-95fd-a8c2020ec69c"},"vehicle_type_id":"4","last_reported":1743862063,"current_range_meters":10000,"station_id":"ce4bgih2rcd13ifvqba0","pricing_plan_id":"cebpf4jnsgd1na2vs0mg"},{"bike_id":"8dbb2f8a-bb6f-4efe-b769-fb19f6c0204b","system_id":"levelo_inurba_marseille","lat":43.30461,"lon":5.37902,"is_reserved":false,"is_disabled":false,"rental_uris":{"android":"levelo://app?vid=8dbb2f8a-bb6f-4efe-b769-fb19f6c0204b","ios":"levelo://app?vid=8dbb2f8a-bb6f-4efe-b769-fb19f6c0204b"},"vehicle_type_id":"4","last_reported":1743862063,"current_range_meters":10000,"station_id":"ce4bgup2rcd13ifvqcn0","pricing_plan_id":"cebpf4jnsgd1na2vs0mg"},{"bike_id":"aecd6db3-bfd0-4f56-bdfc-31c4a713e16f","system_id":"levelo_inurba_marseille","lat":43.28244,"lon":5.35055,"is_reserved":false,"is_disabled":false,"rental_uris":{"android":"levelo://app?vid=aecd6db3-bfd0-4f56-bdfc-31c4a713e16f","ios":"levelo://app?vid=aecd6db3-bfd0-4f56-bdfc-31c4a713e16f"},"vehicle_type_id":"4","last_reported":1743862063,"current_range_meters":10000,"station_id":"ce4bhbp2rcd13ifvqerg","pricing_plan_id":"cebpf4jnsgd1na2vs0mg"},{"bike_id":"ec1d3458-0a90-4120-8a34-a42a38cc7495","system_id":"levelo_inurba_marseille","lat":43.28422,"lon":5.34986,"is_reserved":false,"is_disabled":false,"rental_uris":{"android":"levelo://app?vid=ec1d3458-0a90-4120-8a34-a42a38cc7495","ios":"levelo://app?vid=ec1d3458-0a90-4120-8a34-a42a38cc7495"},"vehicle_type_id":"4","last_reported":1743862063,"current_range_meters":10000,"station_id":"ce4bhbh2rcd13ifvqepg","pricing_plan_id":"cebpf4jnsgd1na2vs0mg"},{"bike_id":"533adb3d-f726-43b2-b87f-5766b8a85822","system_id":"levelo_inurba_marseille","lat":43.24664,"lon":5.38168,"is_reserved":false,"is_disabled":false,"rental_uris":{"android":"levelo://app?vid=533adb3d-f726-43b2-b87f-5766b8a85822","ios":"levelo://app?vid=533adb3d-f726-43b2-b87f-5766b8a85822"},"vehicle_type_id":"4","last_reported":1743862063,"current_range_meters":10000,"station_id":"ce4bhih2rcd13ifvqfr0","pricing_plan_id":"cebpf4jnsgd1na2vs0mg"},{"bike_id":"30748b14-6ebd-4673-b458-0df365106ebd","system_id":"levelo_inurba_marseille","lat":43.28621,"lon":5.35105,"is_reserved":false,"is_disabled":false,"rental_uris":{"android":"levelo://app?vid=30748b14-6ebd-4673-b458-0df365106ebd","ios":"levelo://app?vid=30748b14-6ebd-4673-b458-0df365106ebd"},"vehicle_type_id":"4","last_reported":1743862063,"current_range_meters":10000,"station_id":"ce4bhch2rcd13ifvqeug","pricing_plan_id":"cebpf4jnsgd1na2vs0mg"},{"bike_id":"80f08235-b306-4bd0-916b-91213dcec3f4","system_id":"levelo_inurba_marseille","lat":43.24166,"lon":5.36394,"is_reserved":false,"is_disabled":false,"rental_uris":{"android":"levelo://app?vid=80f08235-b306-4bd0-916b-91213dcec3f4","ios":"levelo://app?vid=80f08235-b306-4bd0-916b-91213dcec3f4"},"vehicle_type_id":"4","last_reported":1743862063,"current_range_meters":10000,"station_id":"cpo36qri1sfpv3e86is0","pricing_plan_id":"cebpf4jnsgd1na2vs0mg"},{"bike_id":"236cdeee-12da-416d-b789-cf80f5556c29","system_id":"levelo_inurba_marseille","lat":43.21749,"lon":5.34602,"is_reserved":false,"is_disabled":false,"rental_uris":{"android":"levelo://app?vid=236cdeee-12da-416d-b789-cf80f5556c29","ios":"levelo://app?vid=236cdeee-12da-416d-b789-cf80f5556c29"},"vehicle_type_id":"4","last_reported":1743862063,"current_range_meters":10800,"station_id":"st_cvj6r9ubvosntc0bgbag","pricing_plan_id":"cebpf4jnsgd1na2vs0mg"},{"bike_id":"a20172c3-b8d9-40d0-8adf-95ad9d3c4f7c","system_id":"levelo_inurba_marseille","lat":43.211914,"lon":5.350819,"is_reserved":false,"is_disabled":false,"rental_uris":{"android":"levelo://app?vid=a20172c3-b8d9-40d0-8adf-95ad9d3c4f7c","ios":"levelo://app?vid=a20172c3-b8d9-40d0-8adf-95ad9d3c4f7c"},"vehicle_type_id":"4","last_reported":1743862063,"current_range_meters":10800,"station_id":"st_cvj6sg6p6f1abm77japg","pricing_plan_id":"cebpf4jnsgd1na2vs0mg"},{"bike_id":"bdda9346-28ea-475d-892f-0de842bf0ff2","system_id":"levelo_inurba_marseille","lat":43.225037,"lon":5.347927,"is_reserved":false,"is_disabled":false,"rental_uris":{"android":"levelo://app?vid=bdda9346-28ea-475d-892f-0de842bf0ff2","ios":"levelo://app?vid=bdda9346-28ea-475d-892f-0de842bf0ff2"},"vehicle_type_id":"4","last_reported":1743862063,"current_range_meters":10800,"station_id":"st_cvj5dfep6f1abm77gieg","pricing_plan_id":"cebpf4jnsgd1na2vs0mg"},{"bike_id":"1145c42d-49d6-43f5-924f-e98b2fc1e2e7","system_id":"levelo_inurba_marseille","lat":43.243904,"lon":5.370529,"is_reserved":false,"is_disabled":false,"rental_uris":{"android":"levelo://app?vid=1145c42d-49d6-43f5-924f-e98b2fc1e2e7","ios":"levelo://app?vid=1145c42d-49d6-43f5-924f-e98b2fc1e2e7"},"vehicle_type_id":"4","last_reported":1743862063,"current_range_meters":10800,"station_id":"ce4bhhh2rcd13ifvqfk0","pricing_plan_id":"cebpf4jnsgd1na2vs0mg"},{"bike_id":"e083d548-18c8-4360-90e6-81175dd93b7d","system_id":"levelo_inurba_marseille","lat":43.28413,"lon":5.34985,"is_reserved":false,"is_disabled":false,"rental_uris":{"android":"levelo://app?vid=e083d548-18c8-4360-90e6-81175dd93b7d","ios":"levelo://app?vid=e083d548-18c8-4360-90e6-81175dd93b7d"},"vehicle_type_id":"4","last_reported":1743862063,"current_range_meters":10800,"station_id":"ce4bhbh2rcd13ifvqepg","pricing_plan_id":"cebpf4jnsgd1na2vs0mg"},{"bike_id":"5cf90792-145b-43ed-b60d-9d6ec07c952d","system_id":"levelo_inurba_marseille","lat":43.27366,"lon":5.36262,"is_reserved":false,"is_disabled":false,"rental_uris":{"android":"levelo://app?vid=5cf90792-145b-43ed-b60d-9d6ec07c952d","ios":"levelo://app?vid=5cf90792-145b-43ed-b60d-9d6ec07c952d"},"vehicle_type_id":"4","last_reported":1743862063,"current_range_meters":10800,"station_id":"ce4bhbh2rcd13ifvqeo0","pricing_plan_id":"cebpf4jnsgd1na2vs0mg"},{"bike_id":"c1eaecc2-40a7-4e11-a63f-1fa73a30648f","system_id":"levelo_inurba_marseille","lat":43.31163,"lon":5.38726,"is_reserved":false,"is_disabled":false,"rental_uris":{"android":"levelo://app?vid=c1eaecc2-40a7-4e11-a63f-1fa73a30648f","ios":"levelo://app?vid=c1eaecc2-40a7-4e11-a63f-1fa73a30648f"},"vehicle_type_id":"4","last_reported":1743862063,"current_range_meters":10800,"station_id":"ce4bgv12rcd13ifvqcp0","pricing_plan_id":"cebpf4jnsgd1na2vs0mg"},{"bike_id":"aae9d3f7-de2c-4609-8c94-39a483a1e324","system_id":"levelo_inurba_marseille","lat":43.26026,"lon":5.3755,"is_reserved":false,"is_disabled":false,"rental_uris":{"android":"levelo://app?vid=aae9d3f7-de2c-4609-8c94-39a483a1e324","ios":"levelo://app?vid=aae9d3f7-de2c-4609-8c94-39a483a1e324"},"vehicle_type_id":"4","last_reported":1743862063,"current_range_meters":10800,"station_id":"ce4bhgh2rcd13ifvqfa0","pricing_plan_id":"cebpf4jnsgd1na2vs0mg"},{"bike_id":"30b57730-cb66-4122-bd93-7dabcaba84e7","system_id":"levelo_inurba_marseille","lat":43.24897,"lon":5.40662,"is_reserved":false,"is_disabled":false,"rental_uris":{"android":"levelo://app?vid=30b57730-cb66-4122-bd93-7dabcaba84e7","ios":"levelo://app?vid=30b57730-cb66-4122-bd93-7dabcaba84e7"},"vehicle_type_id":"4","last_reported":1743862063,"current_range_meters":10800,"station_id":"","pricing_plan_id":"cebpf4jnsgd1na2vs0mg"},{"bike_id":"81c282f2-cc8c-4e99-9dcd-36f8c04466c2","system_id":"levelo_inurba_marseille","lat":43.30544,"lon":5.36702,"is_reserved":false,"is_disabled":false,"rental_uris":{"android":"levelo://app?vid=81c282f2-cc8c-4e99-9dcd-36f8c04466c2","ios":"levelo://app?vid=81c282f2-cc8c-4e99-9dcd-36f8c04466c2"},"vehicle_type_id":"4","last_reported":1743862063,"current_range_meters":10800,"station_id":"ce4bgrp2rcd13ifvqc9g","pricing_plan_id":"cebpf4jnsgd1na2vs0mg"},{"bike_id":"ac2ab547-c1fd-4abe-b352-d4ded3160820","system_id":"levelo_inurba_marseille","lat":43.28413,"lon":5.34993,"is_reserved":false,"is_disabled":false,"rental_uris":{"android":"levelo://app?vid=ac2ab547-c1fd-4abe-b352-d4ded3160820","ios":"levelo://app?vid=ac2ab547-c1fd-4abe-b352-d4ded3160820"},"vehicle_type_id":"4","last_reported":1743862063,"current_range_meters":10800,"station_id":"ce4bhbh2rcd13ifvqepg","pricing_plan_id":"cebpf4jnsgd1na2vs0mg"},{"bike_id":"fe8abb4d-6551-489f-9549-73fcda15cdff","system_id":"levelo_inurba_marseille","lat":43.23062,"lon":5.3549,"is_reserved":false,"is_disabled":false,"rental_uris":{"android":"levelo://app?vid=fe8abb4d-6551-489f-9549-73fcda15cdff","ios":"levelo://app?vid=fe8abb4d-6551-489f-9549-73fcda15cdff"},"vehicle_type_id":"4","last_reported":1743862063,"current_range_meters":10800,"station_id":"cpo3342slgdg3j2ifvpg","pricing_plan_id":"cebpf4jnsgd1na2vs0mg"},{"bike_id":"d5e984d3-343e-4e16-bd54-bc3ebbd48639","system_id":"levelo_inurba_marseille","lat":43.301313,"lon":5.387785,"is_reserved":false,"is_disabled":true,"rental_uris":{"android":"levelo://app?vid=d5e984d3-343e-4e16-bd54-bc3ebbd48639","ios":"levelo://app?vid=d5e984d3-343e-4e16-bd54-bc3ebbd48639"},"vehicle_type_id":"4","last_reported":1743862063,"current_range_meters":11200,"station_id":"ce4bghh2rcd13ifvqb60","pricing_plan_id":"cebpf4jnsgd1na2vs0mg"},{"bike_id":"db29433a-c7f6-40d6-b0e1-3a1f0abf15ab","system_id":"levelo_inurba_marseille","lat":43.241712,"lon":5.364041,"is_reserved":false,"is_disabled":true,"rental_uris":{"android":"levelo://app?vid=db29433a-c7f6-40d6-b0e1-3a1f0abf15ab","ios":"levelo://app?vid=db29433a-c7f6-40d6-b0e1-3a1f0abf15ab"},"vehicle_type_id":"4","last_reported":1743862063,"current_range_meters":11200,"station_id":"ce4bh412rcd13ifvqdr0","pricing_plan_id":"cebpf4jnsgd1na2vs0mg"},{"bike_id":"8556af88-daaf-42e0-b67a-04f02050beb0","system_id":"levelo_inurba_marseille","lat":43.27383,"lon":5.36248,"is_reserved":false,"is_disabled":false,"rental_uris":{"android":"levelo://app?vid=8556af88-daaf-42e0-b67a-04f02050beb0","ios":"levelo://app?vid=8556af88-daaf-42e0-b67a-04f02050beb0"},"vehicle_type_id":"4","last_reported":1743862063,"current_range_meters":11200,"station_id":"ce4bhbh2rcd13ifvqeo0","pricing_plan_id":"cebpf4jnsgd1na2vs0mg"},{"bike_id":"4de59fa9-d633-4533-9fce-dff890560a88","system_id":"levelo_inurba_marseille","lat":43.28413,"lon":5.34997,"is_reserved":false,"is_disabled":false,"rental_uris":{"android":"levelo://app?vid=4de59fa9-d633-4533-9fce-dff890560a88","ios":"levelo://app?vid=4de59fa9-d633-4533-9fce-dff890560a88"},"vehicle_type_id":"4","last_reported":1743862063,"current_range_meters":11200,"station_id":"ce4bhbh2rcd13ifvqepg","pricing_plan_id":"cebpf4jnsgd1na2vs0mg"},{"bike_id":"c2ad0dff-91e6-411d-8f5b-8e1967f8e164","system_id":"levelo_inurba_marseille","lat":43.29582,"lon":5.36742,"is_reserved":false,"is_disabled":false,"rental_uris":{"android":"levelo://app?vid=c2ad0dff-91e6-411d-8f5b-8e1967f8e164","ios":"levelo://app?vid=c2ad0dff-91e6-411d-8f5b-8e1967f8e164"},"vehicle_type_id":"4","last_reported":1743862063,"current_range_meters":11200,"station_id":"ce4bgph2rcd13ifvqc2g","pricing_plan_id":"cebpf4jnsgd1na2vs0mg"},{"bike_id":"c7643979-9ece-4372-b68c-2d9a4e876f66","system_id":"levelo_inurba_marseille","lat":43.22501,"lon":5.3479,"is_reserved":false,"is_disabled":false,"rental_uris":{"android":"levelo://app?vid=c7643979-9ece-4372-b68c-2d9a4e876f66","ios":"levelo://app?vid=c7643979-9ece-4372-b68c-2d9a4e876f66"},"vehicle_type_id":"4","last_reported":1743862063,"current_range_meters":11200,"station_id":"st_cvj5dfep6f1abm77gieg","pricing_plan_id":"cebpf4jnsgd1na2vs0mg"},{"bike_id":"606ab72d-61cd-4340-a8bc-296c8122d4a0","system_id":"levelo_inurba_marseille","lat":43.2119,"lon":5.35086,"is_reserved":false,"is_disabled":false,"rental_uris":{"android":"levelo://app?vid=606ab72d-61cd-4340-a8bc-296c8122d4a0","ios":"levelo://app?vid=606ab72d-61cd-4340-a8bc-296c8122d4a0"},"vehicle_type_id":"4","last_reported":1743862063,"current_range_meters":11600,"station_id":"st_cvj6sg6p6f1abm77japg","pricing_plan_id":"cebpf4jnsgd1na2vs0mg"},{"bike_id":"ca87e6a2-6572-4ebc-af7b-cc7db3e24cc5","system_id":"levelo_inurba_marseille","lat":43.2678,"lon":5.39415,"is_reserved":false,"is_disabled":false,"rental_uris":{"android":"levelo://app?vid=ca87e6a2-6572-4ebc-af7b-cc7db3e24cc5","ios":"levelo://app?vid=ca87e6a2-6572-4ebc-af7b-cc7db3e24cc5"},"vehicle_type_id":"4","last_reported":1743862063,"current_range_meters":11600,"station_id":"ce4bhh12rcd13ifvqfg0","pricing_plan_id":"cebpf4jnsgd1na2vs0mg"},{"bike_id":"49893cc6-000c-4e13-94e0-be7f519d7d21","system_id":"levelo_inurba_marseille","lat":43.24168,"lon":5.36401,"is_reserved":false,"is_disabled":false,"rental_uris":{"android":"levelo://app?vid=49893cc6-000c-4e13-94e0-be7f519d7d21","ios":"levelo://app?vid=49893cc6-000c-4e13-94e0-be7f519d7d21"},"vehicle_type_id":"4","last_reported":1743862063,"current_range_meters":11600,"station_id":"cpo36qri1sfpv3e86is0","pricing_plan_id":"cebpf4jnsgd1na2vs0mg"},{"bike_id":"f0333dc1-016f-4bc6-ae12-db34eb24cb03","system_id":"levelo_inurba_marseille","lat":43.26028,"lon":5.37551,"is_reserved":false,"is_disabled":false,"rental_uris":{"android":"levelo://app?vid=f0333dc1-016f-4bc6-ae12-db34eb24cb03","ios":"levelo://app?vid=f0333dc1-016f-4bc6-ae12-db34eb24cb03"},"vehicle_type_id":"4","last_reported":1743862063,"current_range_meters":11600,"station_id":"ce4bhgh2rcd13ifvqfa0","pricing_plan_id":"cebpf4jnsgd1na2vs0mg"},{"bike_id":"00251f22-1b98-475e-968b-b3ed81a2303c","system_id":"levelo_inurba_marseille","lat":43.24172,"lon":5.364,"is_reserved":false,"is_disabled":false,"rental_uris":{"android":"levelo://app?vid=00251f22-1b98-475e-968b-b3ed81a2303c","ios":"levelo://app?vid=00251f22-1b98-475e-968b-b3ed81a2303c"},"vehicle_type_id":"4","last_reported":1743862063,"current_range_meters":11600,"station_id":"cpo36qri1sfpv3e86is0","pricing_plan_id":"cebpf4jnsgd1na2vs0mg"},{"bike_id":"284665ee-34b5-4cab-848e-a38bc69c47a0","system_id":"levelo_inurba_marseille","lat":43.2926,"lon":5.40899,"is_reserved":false,"is_disabled":false,"rental_uris":{"android":"levelo://app?vid=284665ee-34b5-4cab-848e-a38bc69c47a0","ios":"levelo://app?vid=284665ee-34b5-4cab-848e-a38bc69c47a0"},"vehicle_type_id":"4","last_reported":1743862063,"current_range_meters":11600,"station_id":"ce4bh192rcd13ifvqdc0","pricing_plan_id":"cebpf4jnsgd1na2vs0mg"},{"bike_id":"0d6a6b09-94f0-4540-b4a5-a0809ee4f2af","system_id":"levelo_inurba_marseille","lat":43.30778,"lon":5.37651,"is_reserved":false,"is_disabled":false,"rental_uris":{"android":"levelo://app?vid=0d6a6b09-94f0-4540-b4a5-a0809ee4f2af","ios":"levelo://app?vid=0d6a6b09-94f0-4540-b4a5-a0809ee4f2af"},"vehicle_type_id":"4","last_reported":1743862063,"current_range_meters":11600,"station_id":"ce4bgv92rcd13ifvqcq0","pricing_plan_id":"cebpf4jnsgd1na2vs0mg"},{"bike_id":"3b02e95e-4fb0-4ffc-955e-eb811d3e93dd","system_id":"levelo_inurba_marseille","lat":43.22932,"lon":5.35379,"is_reserved":false,"is_disabled":false,"rental_uris":{"android":"levelo://app?vid=3b02e95e-4fb0-4ffc-955e-eb811d3e93dd","ios":"levelo://app?vid=3b02e95e-4fb0-4ffc-955e-eb811d3e93dd"},"vehicle_type_id":"4","last_reported":1743862063,"current_range_meters":11600,"station_id":"cpo3532slgdg3j2ikp40","pricing_plan_id":"cebpf4jnsgd1na2vs0mg"},{"bike_id":"a3c9951e-fbf3-4b9d-bf58-858e24f6ec13","system_id":"levelo_inurba_marseille","lat":43.28483,"lon":5.38417,"is_reserved":false,"is_disabled":false,"rental_uris":{"android":"levelo://app?vid=a3c9951e-fbf3-4b9d-bf58-858e24f6ec13","ios":"levelo://app?vid=a3c9951e-fbf3-4b9d-bf58-858e24f6ec13"},"vehicle_type_id":"4","last_reported":1743862063,"current_range_meters":14400,"station_id":"ce4bh512rcd13ifvqe3g","pricing_plan_id":"cebpf4jnsgd1na2vs0mg"},{"bike_id":"00e58e09-e3a6-4fe8-b4df-8181166e4cf3","system_id":"levelo_inurba_marseille","lat":43.21194,"lon":5.35059,"is_reserved":false,"is_disabled":true,"rental_uris":{"android":"levelo://app?vid=00e58e09-e3a6-4fe8-b4df-8181166e4cf3","ios":"levelo://app?vid=00e58e09-e3a6-4fe8-b4df-8181166e4cf3"},"vehicle_type_id":"4","last_reported":1743862063,"current_range_meters":12000,"station_id":"st_cvj6sg6p6f1abm77japg","pricing_plan_id":"cebpf4jnsgd1na2vs0mg"},{"bike_id":"7912ca41-370e-46ab-922b-f63622eea5cd","system_id":"levelo_inurba_marseille","lat":43.225,"lon":5.34785,"is_reserved":false,"is_disabled":false,"rental_uris":{"android":"levelo://app?vid=7912ca41-370e-46ab-922b-f63622eea5cd","ios":"levelo://app?vid=7912ca41-370e-46ab-922b-f63622eea5cd"},"vehicle_type_id":"4","last_reported":1743862063,"current_range_meters":12400,"station_id":"st_cvj5dfep6f1abm77gieg","pricing_plan_id":"cebpf4jnsgd1na2vs0mg"},{"bike_id":"bfff19e5-18cd-4438-8635-936fb8f9f127","system_id":"levelo_inurba_marseille","lat":43.25578,"lon":5.38231,"is_reserved":false,"is_disabled":false,"rental_uris":{"android":"levelo://app?vid=bfff19e5-18cd-4438-8635-936fb8f9f127","ios":"levelo://app?vid=bfff19e5-18cd-4438-8635-936fb8f9f127"},"vehicle_type_id":"4","last_reported":1743862063,"current_range_meters":12400,"station_id":"ce4bhih2rcd13ifvqfs0","pricing_plan_id":"cebpf4jnsgd1na2vs0mg"},{"bike_id":"fbd21487-c92d-4ccb-b93f-87ca518a2812","system_id":"levelo_inurba_marseille","lat":43.23058,"lon":5.35492,"is_reserved":false,"is_disabled":false,"rental_uris":{"android":"levelo://app?vid=fbd21487-c92d-4ccb-b93f-87ca518a2812","ios":"levelo://app?vid=fbd21487-c92d-4ccb-b93f-87ca518a2812"},"vehicle_type_id":"4","last_reported":1743862063,"current_range_meters":12400,"station_id":"cpo3342slgdg3j2ifvpg","pricing_plan_id":"cebpf4jnsgd1na2vs0mg"},{"bike_id":"a1cc8429-7f5d-4c98-838c-0dbc6d7c247e","system_id":"levelo_inurba_marseille","lat":43.28156,"lon":5.42641,"is_reserved":false,"is_disabled":false,"rental_uris":{"android":"levelo://app?vid=a1cc8429-7f5d-4c98-838c-0dbc6d7c247e","ios":"levelo://app?vid=a1cc8429-7f5d-4c98-838c-0dbc6d7c247e"},"vehicle_type_id":"4","last_reported":1743862063,"current_range_meters":12400,"station_id":"ce4bhnh2rcd13ifvqgug","pricing_plan_id":"cebpf4jnsgd1na2vs0mg"},{"bike_id":"a9239851-a971-49ea-a493-57b1737479d8","system_id":"levelo_inurba_marseille","lat":43.28266,"lon":5.35071,"is_reserved":false,"is_disabled":false,"rental_uris":{"android":"levelo://app?vid=a9239851-a971-49ea-a493-57b1737479d8","ios":"levelo://app?vid=a9239851-a971-49ea-a493-57b1737479d8"},"vehicle_type_id":"4","last_reported":1743862063,"current_range_meters":12400,"station_id":"ce4bhbp2rcd13ifvqerg","pricing_plan_id":"cebpf4jnsgd1na2vs0mg"},{"bike_id":"08bfdf6f-420a-4df4-90cf-5ce1175c8a3d","system_id":"levelo_inurba_marseille","lat":43.26215,"lon":5.37448,"is_reserved":false,"is_disabled":false,"rental_uris":{"android":"levelo://app?vid=08bfdf6f-420a-4df4-90cf-5ce1175c8a3d","ios":"levelo://app?vid=08bfdf6f-420a-4df4-90cf-5ce1175c8a3d"},"vehicle_type_id":"4","last_reported":1743862063,"current_range_meters":12400,"station_id":"ce4bhgp2rcd13ifvqfc0","pricing_plan_id":"cebpf4jnsgd1na2vs0mg"},{"bike_id":"45aa8b6c-8ec4-4f9c-9e9f-405295972379","system_id":"levelo_inurba_marseille","lat":43.29578,"lon":5.36741,"is_reserved":false,"is_disabled":false,"rental_uris":{"android":"levelo://app?vid=45aa8b6c-8ec4-4f9c-9e9f-405295972379","ios":"levelo://app?vid=45aa8b6c-8ec4-4f9c-9e9f-405295972379"},"vehicle_type_id":"4","last_reported":1743862063,"current_range_meters":12400,"station_id":"ce4bgph2rcd13ifvqc2g","pricing_plan_id":"cebpf4jnsgd1na2vs0mg"},{"bike_id":"3a4ddc82-3be1-4056-8cce-a5d400df90fd","system_id":"levelo_inurba_marseille","lat":43.28613,"lon":5.35101,"is_reserved":false,"is_disabled":false,"rental_uris":{"android":"levelo://app?vid=3a4ddc82-3be1-4056-8cce-a5d400df90fd","ios":"levelo://app?vid=3a4ddc82-3be1-4056-8cce-a5d400df90fd"},"vehicle_type_id":"4","last_reported":1743862063,"current_range_meters":12400,"station_id":"ce4bhch2rcd13ifvqeug","pricing_plan_id":"cebpf4jnsgd1na2vs0mg"},{"bike_id":"8ee8a071-ee3c-4e6e-b1b2-0e8120beb7f4","system_id":"levelo_inurba_marseille","lat":43.25949,"lon":5.40877,"is_reserved":false,"is_disabled":false,"rental_uris":{"android":"levelo://app?vid=8ee8a071-ee3c-4e6e-b1b2-0e8120beb7f4","ios":"levelo://app?vid=8ee8a071-ee3c-4e6e-b1b2-0e8120beb7f4"},"vehicle_type_id":"4","last_reported":1743862063,"current_range_meters":12800,"station_id":"ce4bhm92rcd13ifvqglg","pricing_plan_id":"cebpf4jnsgd1na2vs0mg"},{"bike_id":"c83f9a69-df58-4dc8-801d-3b833f194d09","system_id":"levelo_inurba_marseille","lat":43.29559,"lon":5.42295,"is_reserved":false,"is_disabled":false,"rental_uris":{"android":"levelo://app?vid=c83f9a69-df58-4dc8-801d-3b833f194d09","ios":"levelo://app?vid=c83f9a69-df58-4dc8-801d-3b833f194d09"},"vehicle_type_id":"4","last_reported":1743862063,"current_range_meters":12800,"station_id":"ce4bhph2rcd13ifvqhdg","pricing_plan_id":"cebpf4jnsgd1na2vs0mg"},{"bike_id":"96f81a34-b65c-4f43-92a6-820442af598e","system_id":"levelo_inurba_marseille","lat":43.28618,"lon":5.3511,"is_reserved":false,"is_disabled":false,"rental_uris":{"android":"levelo://app?vid=96f81a34-b65c-4f43-92a6-820442af598e","ios":"levelo://app?vid=96f81a34-b65c-4f43-92a6-820442af598e"},"vehicle_type_id":"4","last_reported":1743862063,"current_range_meters":12800,"station_id":"ce4bhch2rcd13ifvqeug","pricing_plan_id":"cebpf4jnsgd1na2vs0mg"},{"bike_id":"271c1017-678f-497b-8b51-f08087faa008","system_id":"levelo_inurba_marseille","lat":43.23066,"lon":5.35489,"is_reserved":false,"is_disabled":false,"rental_uris":{"android":"levelo://app?vid=271c1017-678f-497b-8b51-f08087faa008","ios":"levelo://app?vid=271c1017-678f-497b-8b51-f08087faa008"},"vehicle_type_id":"4","last_reported":1743862063,"current_range_meters":12800,"station_id":"cpo3342slgdg3j2ifvpg","pricing_plan_id":"cebpf4jnsgd1na2vs0mg"},{"bike_id":"a6e85a14-7bef-4d48-b863-5de39c6e58c2","system_id":"levelo_inurba_marseille","lat":43.26197,"lon":5.37457,"is_reserved":false,"is_disabled":false,"rental_uris":{"android":"levelo://app?vid=a6e85a14-7bef-4d48-b863-5de39c6e58c2","ios":"levelo://app?vid=a6e85a14-7bef-4d48-b863-5de39c6e58c2"},"vehicle_type_id":"4","last_reported":1743862063,"current_range_meters":12800,"station_id":"ce4bhgp2rcd13ifvqfc0","pricing_plan_id":"cebpf4jnsgd1na2vs0mg"},{"bike_id":"7cc8d9ad-2bff-4b20-aa70-58e00c93bbb6","system_id":"levelo_inurba_marseille","lat":43.29907,"lon":5.37457,"is_reserved":false,"is_disabled":false,"rental_uris":{"android":"levelo://app?vid=7cc8d9ad-2bff-4b20-aa70-58e00c93bbb6","ios":"levelo://app?vid=7cc8d9ad-2bff-4b20-aa70-58e00c93bbb6"},"vehicle_type_id":"4","last_reported":1743862063,"current_range_meters":12800,"station_id":"ce4bgjh2rcd13ifvqbg0","pricing_plan_id":"cebpf4jnsgd1na2vs0mg"},{"bike_id":"fab3a0a2-ba3f-4160-92d6-2af481a5e282","system_id":"levelo_inurba_marseille","lat":43.28617,"lon":5.35107,"is_reserved":false,"is_disabled":false,"rental_uris":{"android":"levelo://app?vid=fab3a0a2-ba3f-4160-92d6-2af481a5e282","ios":"levelo://app?vid=fab3a0a2-ba3f-4160-92d6-2af481a5e282"},"vehicle_type_id":"4","last_reported":1743862063,"current_range_meters":13600,"station_id":"ce4bhch2rcd13ifvqeug","pricing_plan_id":"cebpf4jnsgd1na2vs0mg"},{"bike_id":"a5fb8254-53d1-4e6c-a70a-ca88dbf829e1","system_id":"levelo_inurba_marseille","lat":43.24649,"lon":5.38893,"is_reserved":false,"is_disabled":false,"rental_uris":{"android":"levelo://app?vid=a5fb8254-53d1-4e6c-a70a-ca88dbf829e1","ios":"levelo://app?vid=a5fb8254-53d1-4e6c-a70a-ca88dbf829e1"},"vehicle_type_id":"4","last_reported":1743862063,"current_range_meters":13600,"station_id":"ce4bhg12rcd13ifvqf60","pricing_plan_id":"cebpf4jnsgd1na2vs0mg"},{"bike_id":"911f9b10-7a1b-4808-8e5f-909aaccdf535","system_id":"levelo_inurba_marseille","lat":43.249061,"lon":5.38103,"is_reserved":false,"is_disabled":false,"rental_uris":{"android":"levelo://app?vid=911f9b10-7a1b-4808-8e5f-909aaccdf535","ios":"levelo://app?vid=911f9b10-7a1b-4808-8e5f-909aaccdf535"},"vehicle_type_id":"4","last_reported":1743862063,"current_range_meters":13600,"station_id":"ce4bhih2rcd13ifvqfr0","pricing_plan_id":"cebpf4jnsgd1na2vs0mg"},{"bike_id":"78f5eb49-2986-4e89-a47d-f9f24b792d02","system_id":"levelo_inurba_marseille","lat":43.28407,"lon":5.34988,"is_reserved":false,"is_disabled":false,"rental_uris":{"android":"levelo://app?vid=78f5eb49-2986-4e89-a47d-f9f24b792d02","ios":"levelo://app?vid=78f5eb49-2986-4e89-a47d-f9f24b792d02"},"vehicle_type_id":"4","last_reported":1743862063,"current_range_meters":13600,"station_id":"ce4bhbh2rcd13ifvqepg","pricing_plan_id":"cebpf4jnsgd1na2vs0mg"},{"bike_id":"a6303451-5b45-435c-bf0e-748f94cc010d","system_id":"levelo_inurba_marseille","lat":43.23203,"lon":5.3555,"is_reserved":false,"is_disabled":false,"rental_uris":{"android":"levelo://app?vid=a6303451-5b45-435c-bf0e-748f94cc010d","ios":"levelo://app?vid=a6303451-5b45-435c-bf0e-748f94cc010d"},"vehicle_type_id":"4","last_reported":1743862063,"current_range_meters":13600,"station_id":"ce4bhu92rcd13ifvqi70","pricing_plan_id":"cebpf4jnsgd1na2vs0mg"},{"bike_id":"e1ab711e-1d7a-4afe-af67-1bdc40727ecc","system_id":"levelo_inurba_marseille","lat":43.28263,"lon":5.35072,"is_reserved":false,"is_disabled":false,"rental_uris":{"android":"levelo://app?vid=e1ab711e-1d7a-4afe-af67-1bdc40727ecc","ios":"levelo://app?vid=e1ab711e-1d7a-4afe-af67-1bdc40727ecc"},"vehicle_type_id":"4","last_reported":1743862063,"current_range_meters":13600,"station_id":"ce4bhbp2rcd13ifvqerg","pricing_plan_id":"cebpf4jnsgd1na2vs0mg"},{"bike_id":"e0f32add-8763-4dca-9317-dffe2b61b1b8","system_id":"levelo_inurba_marseille","lat":43.24154,"lon":5.36455,"is_reserved":false,"is_disabled":false,"rental_uris":{"android":"levelo://app?vid=e0f32add-8763-4dca-9317-dffe2b61b1b8","ios":"levelo://app?vid=e0f32add-8763-4dca-9317-dffe2b61b1b8"},"vehicle_type_id":"4","last_reported":1743862063,"current_range_meters":13600,"station_id":"","pricing_plan_id":"cebpf4jnsgd1na2vs0mg"},{"bike_id":"e40dec61-c9af-491b-9ffe-147a0e56005a","system_id":"levelo_inurba_marseille","lat":43.23965,"lon":5.36632,"is_reserved":false,"is_disabled":false,"rental_uris":{"android":"levelo://app?vid=e40dec61-c9af-491b-9ffe-147a0e56005a","ios":"levelo://app?vid=e40dec61-c9af-491b-9ffe-147a0e56005a"},"vehicle_type_id":"4","last_reported":1743862063,"current_range_meters":14000,"station_id":"ce4bhi12rcd13ifvqfp0","pricing_plan_id":"cebpf4jnsgd1na2vs0mg"},{"bike_id":"b7825735-e58a-462f-b34a-1bdc8a62c341","system_id":"levelo_inurba_marseille","lat":43.269521,"lon":5.38638,"is_reserved":false,"is_disabled":false,"rental_uris":{"android":"levelo://app?vid=b7825735-e58a-462f-b34a-1bdc8a62c341","ios":"levelo://app?vid=b7825735-e58a-462f-b34a-1bdc8a62c341"},"vehicle_type_id":"4","last_reported":1743862063,"current_range_meters":13600,"station_id":"ce4bhh92rcd13ifvqfh0","pricing_plan_id":"cebpf4jnsgd1na2vs0mg"},{"bike_id":"97d77224-5748-4443-848a-6ab951c45d6d","system_id":"levelo_inurba_marseille","lat":43.32285,"lon":5.38283,"is_reserved":false,"is_disabled":false,"rental_uris":{"android":"levelo://app?vid=97d77224-5748-4443-848a-6ab951c45d6d","ios":"levelo://app?vid=97d77224-5748-4443-848a-6ab951c45d6d"},"vehicle_type_id":"4","last_reported":1743862063,"current_range_meters":14000,"station_id":"ce4bhr12rcd13ifvqhqg","pricing_plan_id":"cebpf4jnsgd1na2vs0mg"},{"bike_id":"a5ee3e06-ae72-48d0-9bae-5aead6340ce6","system_id":"levelo_inurba_marseille","lat":43.28418,"lon":5.34997,"is_reserved":false,"is_disabled":false,"rental_uris":{"android":"levelo://app?vid=a5ee3e06-ae72-48d0-9bae-5aead6340ce6","ios":"levelo://app?vid=a5ee3e06-ae72-48d0-9bae-5aead6340ce6"},"vehicle_type_id":"4","last_reported":1743862063,"current_range_meters":14000,"station_id":"ce4bhbh2rcd13ifvqepg","pricing_plan_id":"cebpf4jnsgd1na2vs0mg"},{"bike_id":"73272853-088e-4b39-8e6e-94fe10fc353c","system_id":"levelo_inurba_marseille","lat":43.33757,"lon":5.37482,"is_reserved":false,"is_disabled":false,"rental_uris":{"android":"levelo://app?vid=73272853-088e-4b39-8e6e-94fe10fc353c","ios":"levelo://app?vid=73272853-088e-4b39-8e6e-94fe10fc353c"},"vehicle_type_id":"4","last_reported":1743862063,"current_range_meters":14000,"station_id":"","pricing_plan_id":"cebpf4jnsgd1na2vs0mg"},{"bike_id":"de603971-ad9b-4430-951e-0e4f9937ea0a","system_id":"levelo_inurba_marseille","lat":43.24166,"lon":5.36371,"is_reserved":false,"is_disabled":false,"rental_uris":{"android":"levelo://app?vid=de603971-ad9b-4430-951e-0e4f9937ea0a","ios":"levelo://app?vid=de603971-ad9b-4430-951e-0e4f9937ea0a"},"vehicle_type_id":"4","last_reported":1743862063,"current_range_meters":14000,"station_id":"cpo36qri1sfpv3e86is0","pricing_plan_id":"cebpf4jnsgd1na2vs0mg"},{"bike_id":"53c9b843-288b-4079-9df1-c6fc73015706","system_id":"levelo_inurba_marseille","lat":43.25818,"lon":5.39434,"is_reserved":false,"is_disabled":false,"rental_uris":{"android":"levelo://app?vid=53c9b843-288b-4079-9df1-c6fc73015706","ios":"levelo://app?vid=53c9b843-288b-4079-9df1-c6fc73015706"},"vehicle_type_id":"4","last_reported":1743862063,"current_range_meters":14000,"station_id":"ce4bhip2rcd13ifvqft0","pricing_plan_id":"cebpf4jnsgd1na2vs0mg"},{"bike_id":"8ef57e67-6845-461d-8a32-4f51ccf10fcf","system_id":"levelo_inurba_marseille","lat":43.25503,"lon":5.376593,"is_reserved":false,"is_disabled":false,"rental_uris":{"android":"levelo://app?vid=8ef57e67-6845-461d-8a32-4f51ccf10fcf","ios":"levelo://app?vid=8ef57e67-6845-461d-8a32-4f51ccf10fcf"},"vehicle_type_id":"4","last_reported":1743862063,"current_range_meters":14400,"station_id":"ce4bhh12rcd13ifvqff0","pricing_plan_id":"cebpf4jnsgd1na2vs0mg"},{"bike_id":"42eca5f1-e207-4a29-bf3c-e908cce97821","system_id":"levelo_inurba_marseille","lat":43.28417,"lon":5.34983,"is_reserved":false,"is_disabled":false,"rental_uris":{"android":"levelo://app?vid=42eca5f1-e207-4a29-bf3c-e908cce97821","ios":"levelo://app?vid=42eca5f1-e207-4a29-bf3c-e908cce97821"},"vehicle_type_id":"4","last_reported":1743862063,"current_range_meters":14400,"station_id":"ce4bhbh2rcd13ifvqepg","pricing_plan_id":"cebpf4jnsgd1na2vs0mg"},{"bike_id":"652d1757-8080-4e48-ad35-5e64267d4cee","system_id":"levelo_inurba_marseille","lat":43.22495,"lon":5.34801,"is_reserved":false,"is_disabled":false,"rental_uris":{"android":"levelo://app?vid=652d1757-8080-4e48-ad35-5e64267d4cee","ios":"levelo://app?vid=652d1757-8080-4e48-ad35-5e64267d4cee"},"vehicle_type_id":"4","last_reported":1743862063,"current_range_meters":14400,"station_id":"st_cvj5dfep6f1abm77gieg","pricing_plan_id":"cebpf4jnsgd1na2vs0mg"},{"bike_id":"3181bbfa-d01d-4300-8b47-17a4988af536","system_id":"levelo_inurba_marseille","lat":43.28271,"lon":5.35071,"is_reserved":false,"is_disabled":false,"rental_uris":{"android":"levelo://app?vid=3181bbfa-d01d-4300-8b47-17a4988af536","ios":"levelo://app?vid=3181bbfa-d01d-4300-8b47-17a4988af536"},"vehicle_type_id":"4","last_reported":1743862063,"current_range_meters":14400,"station_id":"ce4bhbp2rcd13ifvqerg","pricing_plan_id":"cebpf4jnsgd1na2vs0mg"},{"bike_id":"f7c0f77e-f09a-4cce-be93-0aaf14784a24","system_id":"levelo_inurba_marseille","lat":43.23151,"lon":5.43713,"is_reserved":false,"is_disabled":false,"rental_uris":{"android":"levelo://app?vid=f7c0f77e-f09a-4cce-be93-0aaf14784a24","ios":"levelo://app?vid=f7c0f77e-f09a-4cce-be93-0aaf14784a24"},"vehicle_type_id":"4","last_reported":1743862063,"current_range_meters":14400,"station_id":"ce4bhmp2rcd13ifvqgog","pricing_plan_id":"cebpf4jnsgd1na2vs0mg"},{"bike_id":"33bdc25c-426d-4542-8bd7-aea233210dc2","system_id":"levelo_inurba_marseille","lat":43.28409,"lon":5.34986,"is_reserved":false,"is_disabled":false,"rental_uris":{"android":"levelo://app?vid=33bdc25c-426d-4542-8bd7-aea233210dc2","ios":"levelo://app?vid=33bdc25c-426d-4542-8bd7-aea233210dc2"},"vehicle_type_id":"4","last_reported":1743862063,"current_range_meters":14400,"station_id":"ce4bhbh2rcd13ifvqepg","pricing_plan_id":"cebpf4jnsgd1na2vs0mg"},{"bike_id":"c50edd2b-88dd-434e-b794-36692e2c1f27","system_id":"levelo_inurba_marseille","lat":43.28422,"lon":5.34994,"is_reserved":false,"is_disabled":false,"rental_uris":{"android":"levelo://app?vid=c50edd2b-88dd-434e-b794-36692e2c1f27","ios":"levelo://app?vid=c50edd2b-88dd-434e-b794-36692e2c1f27"},"vehicle_type_id":"4","last_reported":1743862063,"current_range_meters":14800,"station_id":"ce4bhbh2rcd13ifvqepg","pricing_plan_id":"cebpf4jnsgd1na2vs0mg"},{"bike_id":"d9d6694b-f86f-4536-831e-f893d955c678","system_id":"levelo_inurba_marseille","lat":43.21746,"lon":5.34603,"is_reserved":false,"is_disabled":false,"rental_uris":{"android":"levelo://app?vid=d9d6694b-f86f-4536-831e-f893d955c678","ios":"levelo://app?vid=d9d6694b-f86f-4536-831e-f893d955c678"},"vehicle_type_id":"4","last_reported":1743862063,"current_range_meters":14400,"station_id":"st_cvj6r9ubvosntc0bgbag","pricing_plan_id":"cebpf4jnsgd1na2vs0mg"},{"bike_id":"0536dffa-ff78-43fe-98d9-935f05b51581","system_id":"levelo_inurba_marseille","lat":43.26214,"lon":5.37442,"is_reserved":false,"is_disabled":false,"rental_uris":{"android":"levelo://app?vid=0536dffa-ff78-43fe-98d9-935f05b51581","ios":"levelo://app?vid=0536dffa-ff78-43fe-98d9-935f05b51581"},"vehicle_type_id":"4","last_reported":1743862063,"current_range_meters":14400,"station_id":"ce4bhgp2rcd13ifvqfc0","pricing_plan_id":"cebpf4jnsgd1na2vs0mg"},{"bike_id":"d9cb510d-d29f-4ace-af80-1201ad67d955","system_id":"levelo_inurba_marseille","lat":43.28283,"lon":5.3507,"is_reserved":false,"is_disabled":false,"rental_uris":{"android":"levelo://app?vid=d9cb510d-d29f-4ace-af80-1201ad67d955","ios":"levelo://app?vid=d9cb510d-d29f-4ace-af80-1201ad67d955"},"vehicle_type_id":"4","last_reported":1743862063,"current_range_meters":14800,"station_id":"ce4bhbp2rcd13ifvqerg","pricing_plan_id":"cebpf4jnsgd1na2vs0mg"},{"bike_id":"c23772a6-53c1-430f-8570-284ba0642d08","system_id":"levelo_inurba_marseille","lat":43.286144,"lon":5.351013,"is_reserved":false,"is_disabled":false,"rental_uris":{"android":"levelo://app?vid=c23772a6-53c1-430f-8570-284ba0642d08","ios":"levelo://app?vid=c23772a6-53c1-430f-8570-284ba0642d08"},"vehicle_type_id":"4","last_reported":1743862063,"current_range_meters":14800,"station_id":"ce4bhch2rcd13ifvqeug","pricing_plan_id":"cebpf4jnsgd1na2vs0mg"},{"bike_id":"f87a95c9-2ce4-4d47-8869-52787964079c","system_id":"levelo_inurba_marseille","lat":43.21748,"lon":5.34603,"is_reserved":false,"is_disabled":false,"rental_uris":{"android":"levelo://app?vid=f87a95c9-2ce4-4d47-8869-52787964079c","ios":"levelo://app?vid=f87a95c9-2ce4-4d47-8869-52787964079c"},"vehicle_type_id":"4","last_reported":1743862063,"current_range_meters":14800,"station_id":"st_cvj6r9ubvosntc0bgbag","pricing_plan_id":"cebpf4jnsgd1na2vs0mg"},{"bike_id":"8ddb5c1a-cfc3-48a1-a076-a2f2eeb905d1","system_id":"levelo_inurba_marseille","lat":43.23962,"lon":5.36647,"is_reserved":false,"is_disabled":false,"rental_uris":{"android":"levelo://app?vid=8ddb5c1a-cfc3-48a1-a076-a2f2eeb905d1","ios":"levelo://app?vid=8ddb5c1a-cfc3-48a1-a076-a2f2eeb905d1"},"vehicle_type_id":"4","last_reported":1743862063,"current_range_meters":14800,"station_id":"ce4bhi12rcd13ifvqfp0","pricing_plan_id":"cebpf4jnsgd1na2vs0mg"},{"bike_id":"6400edf0-1a5f-4eea-aa06-ee6f86db83d8","system_id":"levelo_inurba_marseille","lat":43.30272,"lon":5.37721,"is_reserved":false,"is_disabled":false,"rental_uris":{"android":"levelo://app?vid=6400edf0-1a5f-4eea-aa06-ee6f86db83d8","ios":"levelo://app?vid=6400edf0-1a5f-4eea-aa06-ee6f86db83d8"},"vehicle_type_id":"4","last_reported":1743862063,"current_range_meters":14800,"station_id":"ce4bguh2rcd13ifvqcj0","pricing_plan_id":"cebpf4jnsgd1na2vs0mg"},{"bike_id":"6082a6d8-29f3-4441-bd82-d0f95ead75d7","system_id":"levelo_inurba_marseille","lat":43.23187,"lon":5.35558,"is_reserved":false,"is_disabled":false,"rental_uris":{"android":"levelo://app?vid=6082a6d8-29f3-4441-bd82-d0f95ead75d7","ios":"levelo://app?vid=6082a6d8-29f3-4441-bd82-d0f95ead75d7"},"vehicle_type_id":"4","last_reported":1743862063,"current_range_meters":15200,"station_id":"ce4bhu92rcd13ifvqi70","pricing_plan_id":"cebpf4jnsgd1na2vs0mg"},{"bike_id":"dadd32c1-4050-4eb9-93db-8270acd70983","system_id":"levelo_inurba_marseille","lat":43.23146,"lon":5.43722,"is_reserved":false,"is_disabled":false,"rental_uris":{"android":"levelo://app?vid=dadd32c1-4050-4eb9-93db-8270acd70983","ios":"levelo://app?vid=dadd32c1-4050-4eb9-93db-8270acd70983"},"vehicle_type_id":"4","last_reported":1743862063,"current_range_meters":15200,"station_id":"ce4bhmp2rcd13ifvqgog","pricing_plan_id":"cebpf4jnsgd1na2vs0mg"},{"bike_id":"6318df25-e619-488e-8e5a-ffa050963103","system_id":"levelo_inurba_marseille","lat":43.2174,"lon":5.34621,"is_reserved":false,"is_disabled":false,"rental_uris":{"android":"levelo://app?vid=6318df25-e619-488e-8e5a-ffa050963103","ios":"levelo://app?vid=6318df25-e619-488e-8e5a-ffa050963103"},"vehicle_type_id":"4","last_reported":1743862063,"current_range_meters":15200,"station_id":"st_cvj6r9ubvosntc0bgbag","pricing_plan_id":"cebpf4jnsgd1na2vs0mg"},{"bike_id":"7438faae-9286-4ffc-be3f-061836c0316c","system_id":"levelo_inurba_marseille","lat":43.2862,"lon":5.3511,"is_reserved":false,"is_disabled":false,"rental_uris":{"android":"levelo://app?vid=7438faae-9286-4ffc-be3f-061836c0316c","ios":"levelo://app?vid=7438faae-9286-4ffc-be3f-061836c0316c"},"vehicle_type_id":"4","last_reported":1743862063,"current_range_meters":16000,"station_id":"ce4bhch2rcd13ifvqeug","pricing_plan_id":"cebpf4jnsgd1na2vs0mg"},{"bike_id":"77bd308d-4917-4be0-9c3a-4c340c288f38","system_id":"levelo_inurba_marseille","lat":43.22503,"lon":5.34787,"is_reserved":false,"is_disabled":false,"rental_uris":{"android":"levelo://app?vid=77bd308d-4917-4be0-9c3a-4c340c288f38","ios":"levelo://app?vid=77bd308d-4917-4be0-9c3a-4c340c288f38"},"vehicle_type_id":"4","last_reported":1743862063,"current_range_meters":16000,"station_id":"st_cvj5dfep6f1abm77gieg","pricing_plan_id":"cebpf4jnsgd1na2vs0mg"},{"bike_id":"87908f94-d8aa-4a33-8565-205213af20b1","system_id":"levelo_inurba_marseille","lat":43.32127,"lon":5.36742,"is_reserved":false,"is_disabled":false,"rental_uris":{"android":"levelo://app?vid=87908f94-d8aa-4a33-8565-205213af20b1","ios":"levelo://app?vid=87908f94-d8aa-4a33-8565-205213af20b1"},"vehicle_type_id":"4","last_reported":1743862063,"current_range_meters":16000,"station_id":"ce4bhrh2rcd13ifvqhug","pricing_plan_id":"cebpf4jnsgd1na2vs0mg"},{"bike_id":"5420e474-5232-43f0-bd62-51e2359e3157","system_id":"levelo_inurba_marseille","lat":43.313493,"lon":5.370437,"is_reserved":false,"is_disabled":false,"rental_uris":{"android":"levelo://app?vid=5420e474-5232-43f0-bd62-51e2359e3157","ios":"levelo://app?vid=5420e474-5232-43f0-bd62-51e2359e3157"},"vehicle_type_id":"4","last_reported":1743862063,"current_range_meters":16000,"station_id":"","pricing_plan_id":"cebpf4jnsgd1na2vs0mg"},{"bike_id":"095914d7-70eb-409a-8a31-5608041274a9","system_id":"levelo_inurba_marseille","lat":43.29964,"lon":5.41323,"is_reserved":false,"is_disabled":false,"rental_uris":{"android":"levelo://app?vid=095914d7-70eb-409a-8a31-5608041274a9","ios":"levelo://app?vid=095914d7-70eb-409a-8a31-5608041274a9"},"vehicle_type_id":"4","last_reported":1743862063,"current_range_meters":15200,"station_id":"ce4bhp12rcd13ifvqh9g","pricing_plan_id":"cebpf4jnsgd1na2vs0mg"},{"bike_id":"b092d7e2-9a14-4480-ae82-7ee6e856ece1","system_id":"levelo_inurba_marseille","lat":43.313261,"lon":5.368284,"is_reserved":false,"is_disabled":false,"rental_uris":{"android":"levelo://app?vid=b092d7e2-9a14-4480-ae82-7ee6e856ece1","ios":"levelo://app?vid=b092d7e2-9a14-4480-ae82-7ee6e856ece1"},"vehicle_type_id":"4","last_reported":1743862063,"current_range_meters":16000,"station_id":"ce4bgl92rcd13ifvqbq0","pricing_plan_id":"cebpf4jnsgd1na2vs0mg"},{"bike_id":"1cd4dc90-adbf-47cd-96bd-3fbbeb43267d","system_id":"levelo_inurba_marseille","lat":43.273775,"lon":5.362602,"is_reserved":false,"is_disabled":false,"rental_uris":{"android":"levelo://app?vid=1cd4dc90-adbf-47cd-96bd-3fbbeb43267d","ios":"levelo://app?vid=1cd4dc90-adbf-47cd-96bd-3fbbeb43267d"},"vehicle_type_id":"4","last_reported":1743862063,"current_range_meters":16000,"station_id":"ce4bhbh2rcd13ifvqeo0","pricing_plan_id":"cebpf4jnsgd1na2vs0mg"},{"bike_id":"5dbb7ca7-e61b-4fdb-8384-0a36cc85a03a","system_id":"levelo_inurba_marseille","lat":43.23965,"lon":5.36639,"is_reserved":false,"is_disabled":false,"rental_uris":{"android":"levelo://app?vid=5dbb7ca7-e61b-4fdb-8384-0a36cc85a03a","ios":"levelo://app?vid=5dbb7ca7-e61b-4fdb-8384-0a36cc85a03a"},"vehicle_type_id":"4","last_reported":1743862063,"current_range_meters":16000,"station_id":"ce4bhi12rcd13ifvqfp0","pricing_plan_id":"cebpf4jnsgd1na2vs0mg"},{"bike_id":"5b8d1103-1921-4c53-912e-93d122cd3cdc","system_id":"levelo_inurba_marseille","lat":43.24383,"lon":5.37066,"is_reserved":false,"is_disabled":false,"rental_uris":{"android":"levelo://app?vid=5b8d1103-1921-4c53-912e-93d122cd3cdc","ios":"levelo://app?vid=5b8d1103-1921-4c53-912e-93d122cd3cdc"},"vehicle_type_id":"4","last_reported":1743862063,"current_range_meters":16000,"station_id":"ce4bhhh2rcd13ifvqfk0","pricing_plan_id":"cebpf4jnsgd1na2vs0mg"},{"bike_id":"8c07b64a-8b9b-4d19-8454-60e1851caea9","system_id":"levelo_inurba_marseille","lat":43.28261,"lon":5.35073,"is_reserved":false,"is_disabled":false,"rental_uris":{"android":"levelo://app?vid=8c07b64a-8b9b-4d19-8454-60e1851caea9","ios":"levelo://app?vid=8c07b64a-8b9b-4d19-8454-60e1851caea9"},"vehicle_type_id":"4","last_reported":1743862063,"current_range_meters":16400,"station_id":"ce4bhbp2rcd13ifvqerg","pricing_plan_id":"cebpf4jnsgd1na2vs0mg"},{"bike_id":"64723ed1-d23d-4a0d-a2d0-b3af72b7c6d2","system_id":"levelo_inurba_marseille","lat":43.2815,"lon":5.42648,"is_reserved":false,"is_disabled":false,"rental_uris":{"android":"levelo://app?vid=64723ed1-d23d-4a0d-a2d0-b3af72b7c6d2","ios":"levelo://app?vid=64723ed1-d23d-4a0d-a2d0-b3af72b7c6d2"},"vehicle_type_id":"4","last_reported":1743862063,"current_range_meters":16400,"station_id":"ce4bhnh2rcd13ifvqgug","pricing_plan_id":"cebpf4jnsgd1na2vs0mg"},{"bike_id":"48f34db2-aab2-4981-a580-0410c97a4408","system_id":"levelo_inurba_marseille","lat":43.21749,"lon":5.34602,"is_reserved":false,"is_disabled":false,"rental_uris":{"android":"levelo://app?vid=48f34db2-aab2-4981-a580-0410c97a4408","ios":"levelo://app?vid=48f34db2-aab2-4981-a580-0410c97a4408"},"vehicle_type_id":"4","last_reported":1743862063,"current_range_meters":16400,"station_id":"st_cvj6r9ubvosntc0bgbag","pricing_plan_id":"cebpf4jnsgd1na2vs0mg"},{"bike_id":"39c69659-7acd-4b4e-a75d-8dff71b34551","system_id":"levelo_inurba_marseille","lat":43.3029,"lon":5.37702,"is_reserved":false,"is_disabled":false,"rental_uris":{"android":"levelo://app?vid=39c69659-7acd-4b4e-a75d-8dff71b34551","ios":"levelo://app?vid=39c69659-7acd-4b4e-a75d-8dff71b34551"},"vehicle_type_id":"4","last_reported":1743862063,"current_range_meters":16400,"station_id":"ce4bguh2rcd13ifvqcj0","pricing_plan_id":"cebpf4jnsgd1na2vs0mg"},{"bike_id":"b6e23406-8e00-4053-8bee-fd5837f2e871","system_id":"levelo_inurba_marseille","lat":43.29198,"lon":5.39324,"is_reserved":false,"is_disabled":false,"rental_uris":{"android":"levelo://app?vid=b6e23406-8e00-4053-8bee-fd5837f2e871","ios":"levelo://app?vid=b6e23406-8e00-4053-8bee-fd5837f2e871"},"vehicle_type_id":"4","last_reported":1743862063,"current_range_meters":16400,"station_id":"ce4bh192rcd13ifvqdd0","pricing_plan_id":"cebpf4jnsgd1na2vs0mg"},{"bike_id":"ceba594e-ff69-4140-828e-f8a961103e51","system_id":"levelo_inurba_marseille","lat":43.24168,"lon":5.36388,"is_reserved":false,"is_disabled":false,"rental_uris":{"android":"levelo://app?vid=ceba594e-ff69-4140-828e-f8a961103e51","ios":"levelo://app?vid=ceba594e-ff69-4140-828e-f8a961103e51"},"vehicle_type_id":"4","last_reported":1743862063,"current_range_meters":16400,"station_id":"cpo36qri1sfpv3e86is0","pricing_plan_id":"cebpf4jnsgd1na2vs0mg"},{"bike_id":"20682287-de1b-43a1-b632-cac564c6dcb0","system_id":"levelo_inurba_marseille","lat":43.23193,"lon":5.35566,"is_reserved":false,"is_disabled":false,"rental_uris":{"android":"levelo://app?vid=20682287-de1b-43a1-b632-cac564c6dcb0","ios":"levelo://app?vid=20682287-de1b-43a1-b632-cac564c6dcb0"},"vehicle_type_id":"4","last_reported":1743862063,"current_range_meters":16400,"station_id":"ce4bhu92rcd13ifvqi70","pricing_plan_id":"cebpf4jnsgd1na2vs0mg"},{"bike_id":"c3e6d442-6282-4c88-9f90-93d85aff9e76","system_id":"levelo_inurba_marseille","lat":43.28163,"lon":5.42649,"is_reserved":false,"is_disabled":false,"rental_uris":{"android":"levelo://app?vid=c3e6d442-6282-4c88-9f90-93d85aff9e76","ios":"levelo://app?vid=c3e6d442-6282-4c88-9f90-93d85aff9e76"},"vehicle_type_id":"4","last_reported":1743862063,"current_range_meters":16400,"station_id":"ce4bhnh2rcd13ifvqgug","pricing_plan_id":"cebpf4jnsgd1na2vs0mg"},{"bike_id":"5654602e-3974-4804-ba48-e78159de4009","system_id":"levelo_inurba_marseille","lat":43.25111,"lon":5.40315,"is_reserved":false,"is_disabled":false,"rental_uris":{"android":"levelo://app?vid=5654602e-3974-4804-ba48-e78159de4009","ios":"levelo://app?vid=5654602e-3974-4804-ba48-e78159de4009"},"vehicle_type_id":"4","last_reported":1743862063,"current_range_meters":16400,"station_id":"ce4bhlh2rcd13ifvqgig","pricing_plan_id":"cebpf4jnsgd1na2vs0mg"},{"bike_id":"7fd0635d-68ad-4ce6-a52b-daef56987b4b","system_id":"levelo_inurba_marseille","lat":43.30861,"lon":5.38584,"is_reserved":false,"is_disabled":false,"rental_uris":{"android":"levelo://app?vid=7fd0635d-68ad-4ce6-a52b-daef56987b4b","ios":"levelo://app?vid=7fd0635d-68ad-4ce6-a52b-daef56987b4b"},"vehicle_type_id":"4","last_reported":1743862063,"current_range_meters":16400,"station_id":"","pricing_plan_id":"cebpf4jnsgd1na2vs0mg"},{"bike_id":"0b519c50-d0ad-4835-9334-c715bf173a43","system_id":"levelo_inurba_marseille","lat":43.21745,"lon":5.34604,"is_reserved":false,"is_disabled":false,"rental_uris":{"android":"levelo://app?vid=0b519c50-d0ad-4835-9334-c715bf173a43","ios":"levelo://app?vid=0b519c50-d0ad-4835-9334-c715bf173a43"},"vehicle_type_id":"4","last_reported":1743862063,"current_range_meters":16400,"station_id":"st_cvj6r9ubvosntc0bgbag","pricing_plan_id":"cebpf4jnsgd1na2vs0mg"},{"bike_id":"10b2ca20-4666-4dd3-98ec-5db3d1bd8298","system_id":"levelo_inurba_marseille","lat":43.23148,"lon":5.43734,"is_reserved":false,"is_disabled":false,"rental_uris":{"android":"levelo://app?vid=10b2ca20-4666-4dd3-98ec-5db3d1bd8298","ios":"levelo://app?vid=10b2ca20-4666-4dd3-98ec-5db3d1bd8298"},"vehicle_type_id":"4","last_reported":1743862063,"current_range_meters":16400,"station_id":"ce4bhmp2rcd13ifvqgog","pricing_plan_id":"cebpf4jnsgd1na2vs0mg"},{"bike_id":"ac4291ec-5d02-4543-b870-284dae3f2916","system_id":"levelo_inurba_marseille","lat":43.28613,"lon":5.35101,"is_reserved":false,"is_disabled":false,"rental_uris":{"android":"levelo://app?vid=ac4291ec-5d02-4543-b870-284dae3f2916","ios":"levelo://app?vid=ac4291ec-5d02-4543-b870-284dae3f2916"},"vehicle_type_id":"4","last_reported":1743862063,"current_range_meters":16400,"station_id":"ce4bhch2rcd13ifvqeug","pricing_plan_id":"cebpf4jnsgd1na2vs0mg"},{"bike_id":"136b6e45-ee21-453e-aa22-e07947db9071","system_id":"levelo_inurba_marseille","lat":43.23157,"lon":5.43708,"is_reserved":false,"is_disabled":true,"rental_uris":{"android":"levelo://app?vid=136b6e45-ee21-453e-aa22-e07947db9071","ios":"levelo://app?vid=136b6e45-ee21-453e-aa22-e07947db9071"},"vehicle_type_id":"4","last_reported":1743862063,"current_range_meters":16400,"station_id":"ce4bhmp2rcd13ifvqgog","pricing_plan_id":"cebpf4jnsgd1na2vs0mg"},{"bike_id":"0af1521b-d35e-47fb-9387-5ed42ffbf72a","system_id":"levelo_inurba_marseille","lat":43.28418,"lon":5.34984,"is_reserved":false,"is_disabled":false,"rental_uris":{"android":"levelo://app?vid=0af1521b-d35e-47fb-9387-5ed42ffbf72a","ios":"levelo://app?vid=0af1521b-d35e-47fb-9387-5ed42ffbf72a"},"vehicle_type_id":"4","last_reported":1743862063,"current_range_meters":16800,"station_id":"ce4bhbh2rcd13ifvqepg","pricing_plan_id":"cebpf4jnsgd1na2vs0mg"},{"bike_id":"b01f2b6c-7fe9-48f0-afe1-7f525943b944","system_id":"levelo_inurba_marseille","lat":43.262,"lon":5.37931,"is_reserved":false,"is_disabled":false,"rental_uris":{"android":"levelo://app?vid=b01f2b6c-7fe9-48f0-afe1-7f525943b944","ios":"levelo://app?vid=b01f2b6c-7fe9-48f0-afe1-7f525943b944"},"vehicle_type_id":"4","last_reported":1743862063,"current_range_meters":16800,"station_id":"ce4bhjp2rcd13ifvqg90","pricing_plan_id":"cebpf4jnsgd1na2vs0mg"},{"bike_id":"946bc79c-05a5-4151-8d6f-a6f448cbb72f","system_id":"levelo_inurba_marseille","lat":43.21745,"lon":5.34607,"is_reserved":false,"is_disabled":false,"rental_uris":{"android":"levelo://app?vid=946bc79c-05a5-4151-8d6f-a6f448cbb72f","ios":"levelo://app?vid=946bc79c-05a5-4151-8d6f-a6f448cbb72f"},"vehicle_type_id":"4","last_reported":1743862063,"current_range_meters":16800,"station_id":"st_cvj6r9ubvosntc0bgbag","pricing_plan_id":"cebpf4jnsgd1na2vs0mg"},