{"last_updated":1736464112,"ttl":60,"version":"2.2","data":{"bikes":[{"bike_id":"63c920e7-8d35-4253-a5d0-4ae8113a8577","system_id":"levelo_inurba_marseille","lat":43.28395,"lon":5.37509,"is_reserved":false,"is_disabled":false,"rental_uris":{"android":"levelo://app?vid=63c920e7-8d35-4253-a5d0-4ae8113a8577","ios":"levelo://app?vid=63c920e7-8d35-4253-a5d0-4ae8113a8577"},"vehicle_type_id":"4","last_reported":1736464112,"current_range_meters":10800,"station_id":"ce4bh412rcd13ifvqds0","pricing_plan_id":"cebpf4jnsgd1na2vs0mg"},{"bike_id":"01030598-7e5b-4658-9c08-654b4b038c29","system_id":"levelo_inurba_marseille","lat":43.32275,"lon":5.38297,"is_reserved":false,"is_disabled":false,"rental_uris":{"android":"levelo://app?vid=01030598-7e5b-4658-9c08-654b4b038c29","ios":"levelo://app?vid=01030598-7e5b-4658-9c08-654b4b038c29"},"vehicle_type_id":"4","last_reported":1736464112,"current_range_meters":19600,"station_id":"ce4bhr12rcd13ifvqhqg","pricing_plan_id":"cebpf4jnsgd1na2vs0mg"},{"bike_id":"08c3061d-9748-41a9-a3ad-a860e966d4d9","system_id":"levelo_inurba_marseille","lat":43.33611,"lon":5.41033,"is_reserved":false,"is_disabled":false,"rental_uris":{"android":"levelo://app?vid=08c3061d-9748-41a9-a3ad-a860e966d4d9","ios":"levelo://app?vid=08c3061d-9748-41a9-a3ad-a860e966d4d9"},"vehicle_type_id":"4","last_reported":1736464112,"current_range_meters":24800,"station_id":"ce4bhqh2rcd13ifvqhmg","pricing_plan_id":"cebpf4jnsgd1na2vs0mg"},{"bike_id":"b53c3124-7959-4680-a5ae-1578651ce1ae","system_id":"levelo_inurba_marseille","lat":43.321043,"lon":5.367721,"is_reserved":false,"is_disabled":false,"rental_uris":{"android":"levelo://app?vid=b53c3124-7959-4680-a5ae-1578651ce1ae","ios":"levelo://app?vid=b53c3124-7959-4680-a5ae-1578651ce1ae"},"vehicle_type_id":"4","last_reported":1736464112,"current_range_meters":38800,"station_id":"ce4bhrh2rcd13ifvqhug","pricing_plan_id":"cebpf4jnsgd1na2vs0mg"},{"bike_id":"87c59741-1f05-4e3d-8c14-38f01f8816a9","system_id":"levelo_inurba_marseille","lat":43.23215,"lon":5.35545,"is_reserved":false,"is_disabled":false,"rental_uris":{"android":"levelo://app?vid=87c59741-1f05-4e3d-8c14-38f01f8816a9","ios":"levelo://app?vid=87c59741-1f05-4e3d-8c14-38f01f8816a9"},"vehicle_type_id":"4","last_reported":1736464112,"current_range_meters":13600,"station_id":"ce4bhu92rcd13ifvqi70","pricing_plan_id":"cebpf4jnsgd1na2vs0mg"},{"bike_id":"e3ed715f-8540-4a0c-8d1a-84fadaf0dd0f","system_id":"levelo_inurba_marseille","lat":43.34173,"lon":5.3774,"is_reserved":false,"is_disabled":false,"rental_uris":{"android":"levelo://app?vid=e3ed715f-8540-4a0c-8d1a-84fadaf0dd0f","ios":"levelo://app?vid=e3ed715f-8540-4a0c-8d1a-84fadaf0dd0f"},"vehicle_type_id":"4","last_reported":1736464112,"current_range_meters":36800,"station_id":"","pricing_plan_id":"cebpf4jnsgd1na2vs0mg"},{"bike_id":"9f10e87f-cad4-47fe-a545-f2b3d4569155","system_id":"levelo_inurba_marseille","lat":43.30797,"lon":5.38151,"is_reserved":false,"is_disabled":false,"rental_uris":{"android":"levelo://app?vid=9f10e87f-cad4-47fe-a545-f2b3d4569155","ios":"levelo://app?vid=9f10e87f-cad4-47fe-a545-f2b3d4569155"},"vehicle_type_id":"4","last_reported":1736464112,"current_range_meters":28800,"station_id":"ce4bgt12rcd13ifvqce0","pricing_plan_id":"cebpf4jnsgd1na2vs0mg"},{"bike_id":"08d8bb07-59de-4a24-b07e-94f8244a758c","system_id":"levelo_inurba_marseille","lat":43.27995,"lon":5.41663,"is_reserved":false,"is_disabled":false,"rental_uris":{"android":"levelo://app?vid=08d8bb07-59de-4a24-b07e-94f8244a758c","ios":"levelo://app?vid=08d8bb07-59de-4a24-b07e-94f8244a758c"},"vehicle_type_id":"4","last_reported":1736464112,"current_range_meters":38800,"station_id":"ce4bho12rcd13ifvqh1g","pricing_plan_id":"cebpf4jnsgd1na2vs0mg"},{"bike_id":"1208d0ed-d187-4cde-8615-9f7a82324f63","system_id":"levelo_inurba_marseille","lat":43.2718,"lon":5.40988,"is_reserved":false,"is_disabled":false,"rental_uris":{"android":"levelo://app?vid=1208d0ed-d187-4cde-8615-9f7a82324f63","ios":"levelo://app?vid=1208d0ed-d187-4cde-8615-9f7a82324f63"},"vehicle_type_id":"4","last_reported":1736464112,"current_range_meters":38800,"station_id":"ce4bhl12rcd13ifvqgf0","pricing_plan_id":"cebpf4jnsgd1na2vs0mg"},{"bike_id":"55a02019-1e86-4005-a9d2-298fc0cff8d0","system_id":"levelo_inurba_marseille","lat":43.29794,"lon":5.39335,"is_reserved":false,"is_disabled":false,"rental_uris":{"android":"levelo://app?vid=55a02019-1e86-4005-a9d2-298fc0cff8d0","ios":"levelo://app?vid=55a02019-1e86-4005-a9d2-298fc0cff8d0"},"vehicle_type_id":"4","last_reported":1736464112,"current_range_meters":38800,"station_id":"chh1huq6cuj3fo74tm60","pricing_plan_id":"cebpf4jnsgd1na2vs0mg"},{"bike_id":"bbf890f3-1389-4413-ba0b-dc7306182610","system_id":"levelo_inurba_marseille","lat":43.30894,"lon":5.37206,"is_reserved":false,"is_disabled":false,"rental_uris":{"android":"levelo://app?vid=bbf890f3-1389-4413-ba0b-dc7306182610","ios":"levelo://app?vid=bbf890f3-1389-4413-ba0b-dc7306182610"},"vehicle_type_id":"4","last_reported":1736464112,"current_range_meters":29600,"station_id":"ce4bguh2rcd13ifvqckg","pricing_plan_id":"cebpf4jnsgd1na2vs0mg"},{"bike_id":"5f38078e-d40e-4cdf-9450-9d3cca9ca514","system_id":"levelo_inurba_marseille","lat":43.28707,"lon":5.37392,"is_reserved":false,"is_disabled":false,"rental_uris":{"android":"levelo://app?vid=5f38078e-d40e-4cdf-9450-9d3cca9ca514","ios":"levelo://app?vid=5f38078e-d40e-4cdf-9450-9d3cca9ca514"},"vehicle_type_id":"4","last_reported":1736464112,"current_range_meters":38800,"station_id":"ce4bh3p2rcd13ifvqdq0","pricing_plan_id":"cebpf4jnsgd1na2vs0mg"},{"bike_id":"6727a1a4-fd3a-4415-a389-697df82e67ba","system_id":"levelo_inurba_marseille","lat":43.27988,"lon":5.41666,"is_reserved":false,"is_disabled":true,"rental_uris":{"android":"levelo://app?vid=6727a1a4-fd3a-4415-a389-697df82e67ba","ios":"levelo://app?vid=6727a1a4-fd3a-4415-a389-697df82e67ba"},"vehicle_type_id":"4","last_reported":1736464112,"current_range_meters":26000,"station_id":"ce4bho12rcd13ifvqh1g","pricing_plan_id":"cebpf4jnsgd1na2vs0mg"},{"bike_id":"b1346f2c-7cab-41f4-b9e9-053904c9fb2b","system_id":"levelo_inurba_marseille","lat":43.23961,"lon":5.36628,"is_reserved":false,"is_disabled":false,"rental_uris":{"android":"levelo://app?vid=b1346f2c-7cab-41f4-b9e9-053904c9fb2b","ios":"levelo://app?vid=b1346f2c-7cab-41f4-b9e9-053904c9fb2b"},"vehicle_type_id":"4","last_reported":1736464112,"current_range_meters":9600,"station_id":"ce4bhi12rcd13ifvqfp0","pricing_plan_id":"cebpf4jnsgd1na2vs0mg"},{"bike_id":"a93153e3-6ed9-4b34-864c-853b94242017","system_id":"levelo_inurba_marseille","lat":43.31699,"lon":5.40452,"is_reserved":false,"is_disabled":false,"rental_uris":{"android":"levelo://app?vid=a93153e3-6ed9-4b34-864c-853b94242017","ios":"levelo://app?vid=a93153e3-6ed9-4b34-864c-853b94242017"},"vehicle_type_id":"4","last_reported":1736464112,"current_range_meters":21600,"station_id":"ce4bh012rcd13ifvqd00","pricing_plan_id":"cebpf4jnsgd1na2vs0mg"},{"bike_id":"9c91845d-e088-4810-a77c-663066f00b33","system_id":"levelo_inurba_marseille","lat":43.29794,"lon":5.39354,"is_reserved":false,"is_disabled":false,"rental_uris":{"android":"levelo://app?vid=9c91845d-e088-4810-a77c-663066f00b33","ios":"levelo://app?vid=9c91845d-e088-4810-a77c-663066f00b33"},"vehicle_type_id":"4","last_reported":1736464112,"current_range_meters":30400,"station_id":"chh1huq6cuj3fo74tm60","pricing_plan_id":"cebpf4jnsgd1na2vs0mg"},{"bike_id":"93fa7c71-5d8f-4feb-89b1-77e70dee5a4d","system_id":"levelo_inurba_marseille","lat":43.2846,"lon":5.39147,"is_reserved":false,"is_disabled":true,"rental_uris":{"android":"levelo://app?vid=93fa7c71-5d8f-4feb-89b1-77e70dee5a4d","ios":"levelo://app?vid=93fa7c71-5d8f-4feb-89b1-77e70dee5a4d"},"vehicle_type_id":"4","last_reported":1736464112,"current_range_meters":14000,"station_id":"ce4bhoh2rcd13ifvqh5g","pricing_plan_id":"cebpf4jnsgd1na2vs0mg"},{"bike_id":"7d61a12c-d1d5-4c5e-8e6f-7ceb81bfe5d6","system_id":"levelo_inurba_marseille","lat":43.29795,"lon":5.3934,"is_reserved":false,"is_disabled":false,"rental_uris":{"android":"levelo://app?vid=7d61a12c-d1d5-4c5e-8e6f-7ceb81bfe5d6","ios":"levelo://app?vid=7d61a12c-d1d5-4c5e-8e6f-7ceb81bfe5d6"},"vehicle_type_id":"4","last_reported":1736464112,"current_range_meters":38400,"station_id":"chh1huq6cuj3fo74tm60","pricing_plan_id":"cebpf4jnsgd1na2vs0mg"},{"bike_id":"ece82557-6569-4215-9027-5b44a37fe52e","system_id":"levelo_inurba_marseille","lat":43.29075,"lon":5.38023,"is_reserved":false,"is_disabled":true,"rental_uris":{"android":"levelo://app?vid=ece82557-6569-4215-9027-5b44a37fe52e","ios":"levelo://app?vid=ece82557-6569-4215-9027-5b44a37fe52e"},"vehicle_type_id":"4","last_reported":1736464112,"current_range_meters":0,"station_id":"","pricing_plan_id":"cebpf4jnsgd1na2vs0mg"},{"bike_id":"b53bca10-4b80-4e7e-98c1-76fe0f42a3d4","system_id":"levelo_inurba_marseille","lat":43.29714,"lon":5.36608,"is_reserved":false,"is_disabled":false,"rental_uris":{"android":"levelo://app?vid=b53bca10-4b80-4e7e-98c1-76fe0f42a3d4","ios":"levelo://app?vid=b53bca10-4b80-4e7e-98c1-76fe0f42a3d4"},"vehicle_type_id":"4","last_reported":1736464112,"current_range_meters":36400,"station_id":"ce4bgn12rcd13ifvqbt0","pricing_plan_id":"cebpf4jnsgd1na2vs0mg"},{"bike_id":"16f527db-c42c-48b4-9e8a-1fb2566fcb19","system_id":"levelo_inurba_marseille","lat":43.32341,"lon":5.40612,"is_reserved":false,"is_disabled":false,"rental_uris":{"android":"levelo://app?vid=16f527db-c42c-48b4-9e8a-1fb2566fcb19","ios":"levelo://app?vid=16f527db-c42c-48b4-9e8a-1fb2566fcb19"},"vehicle_type_id":"4","last_reported":1736464112,"current_range_meters":38000,"station_id":"ce4bhq92rcd13ifvqhjg","pricing_plan_id":"cebpf4jnsgd1na2vs0mg"},{"bike_id":"9d8eb451-b9f9-4d2c-b9e7-91ab8b21026d","system_id":"levelo_inurba_marseille","lat":43.28672,"lon":5.36389,"is_reserved":false,"is_disabled":false,"rental_uris":{"android":"levelo://app?vid=9d8eb451-b9f9-4d2c-b9e7-91ab8b21026d","ios":"levelo://app?vid=9d8eb451-b9f9-4d2c-b9e7-91ab8b21026d"},"vehicle_type_id":"4","last_reported":1736464112,"current_range_meters":38000,"station_id":"ce4bhah2rcd13ifvqej0","pricing_plan_id":"cebpf4jnsgd1na2vs0mg"},{"bike_id":"38f0dbc0-5843-45de-a0cf-8d4a0f6c60f2","system_id":"levelo_inurba_marseille","lat":43.2867,"lon":5.36363,"is_reserved":false,"is_disabled":false,"rental_uris":{"android":"levelo://app?vid=38f0dbc0-5843-45de-a0cf-8d4a0f6c60f2","ios":"levelo://app?vid=38f0dbc0-5843-45de-a0cf-8d4a0f6c60f2"},"vehicle_type_id":"4","last_reported":1736464112,"current_range_meters":38800,"station_id":"ce4bhah2rcd13ifvqej0","pricing_plan_id":"cebpf4jnsgd1na2vs0mg"},{"bike_id":"d5c2e23d-9863-417b-ab4c-ff7832283e1f","system_id":"levelo_inurba_marseille","lat":43.3059,"lon":5.39358,"is_reserved":false,"is_disabled":true,"rental_uris":{"android":"levelo://app?vid=d5c2e23d-9863-417b-ab4c-ff7832283e1f","ios":"levelo://app?vid=d5c2e23d-9863-417b-ab4c-ff7832283e1f"},"vehicle_type_id":"4","last_reported":1736464112,"current_range_meters":1600,"station_id":"ce4bh0p2rcd13ifvqd80","pricing_plan_id":"cebpf4jnsgd1na2vs0mg"},{"bike_id":"04745ce5-c863-4d05-a4b1-70a293af40c0","system_id":"levelo_inurba_marseille","lat":43.30819,"lon":5.37409,"is_reserved":false,"is_disabled":false,"rental_uris":{"android":"levelo://app?vid=04745ce5-c863-4d05-a4b1-70a293af40c0","ios":"levelo://app?vid=04745ce5-c863-4d05-a4b1-70a293af40c0"},"vehicle_type_id":"4","last_reported":1736464112,"current_range_meters":13600,"station_id":"","pricing_plan_id":"cebpf4jnsgd1na2vs0mg"},{"bike_id":"f25879f8-26dc-4402-975d-f320aa433a8a","system_id":"levelo_inurba_marseille","lat":43.28695,"lon":5.37385,"is_reserved":false,"is_disabled":false,"rental_uris":{"android":"levelo://app?vid=f25879f8-26dc-4402-975d-f320aa433a8a","ios":"levelo://app?vid=f25879f8-26dc-4402-975d-f320aa433a8a"},"vehicle_type_id":"4","last_reported":1736464112,"current_range_meters":24400,"station_id":"ce4bh3p2rcd13ifvqdq0","pricing_plan_id":"cebpf4jnsgd1na2vs0mg"},{"bike_id":"004c2ac5-7f25-4e48-8a80-9a02537f6ba6","system_id":"levelo_inurba_marseille","lat":43.32058,"lon":5.36863,"is_reserved":false,"is_disabled":false,"rental_uris":{"android":"levelo://app?vid=004c2ac5-7f25-4e48-8a80-9a02537f6ba6","ios":"levelo://app?vid=004c2ac5-7f25-4e48-8a80-9a02537f6ba6"},"vehicle_type_id":"4","last_reported":1736464112,"current_range_meters":38000,"station_id":"","pricing_plan_id":"cebpf4jnsgd1na2vs0mg"},{"bike_id":"c0839e9e-8837-44d9-8be3-da2e34eeb788","system_id":"levelo_inurba_marseille","lat":43.24807,"lon":5.3746,"is_reserved":false,"is_disabled":false,"rental_uris":{"android":"levelo://app?vid=c0839e9e-8837-44d9-8be3-da2e34eeb788","ios":"levelo://app?vid=c0839e9e-8837-44d9-8be3-da2e34eeb788"},"vehicle_type_id":"4","last_reported":1736464112,"current_range_meters":39200,"station_id":"ce4bhgh2rcd13ifvqfb0","pricing_plan_id":"cebpf4jnsgd1na2vs0mg"},{"bike_id":"be8f2ffe-9cb3-405c-b420-528c08d93838","system_id":"levelo_inurba_marseille","lat":43.27815,"lon":5.40711,"is_reserved":false,"is_disabled":false,"rental_uris":{"android":"levelo://app?vid=be8f2ffe-9cb3-405c-b420-528c08d93838","ios":"levelo://app?vid=be8f2ffe-9cb3-405c-b420-528c08d93838"},"vehicle_type_id":"4","last_reported":1736464112,"current_range_meters":38800,"station_id":"ce4bhnh2rcd13ifvqgtg","pricing_plan_id":"cebpf4jnsgd1na2vs0mg"},{"bike_id":"1b43a706-db0c-42b3-850f-d5a5958a20c9","system_id":"levelo_inurba_marseille","lat":43.262032,"lon":5.379191,"is_reserved":false,"is_disabled":false,"rental_uris":{"android":"levelo://app?vid=1b43a706-db0c-42b3-850f-d5a5958a20c9","ios":"levelo://app?vid=1b43a706-db0c-42b3-850f-d5a5958a20c9"},"vehicle_type_id":"4","last_reported":1736464112,"current_range_meters":38000,"station_id":"ce4bhjp2rcd13ifvqg90","pricing_plan_id":"cebpf4jnsgd1na2vs0mg"},{"bike_id":"533bc63a-db50-4c62-9b68-283781947748","system_id":"levelo_inurba_marseille","lat":43.28456,"lon":5.35891,"is_reserved":false,"is_disabled":false,"rental_uris":{"android":"levelo://app?vid=533bc63a-db50-4c62-9b68-283781947748","ios":"levelo://app?vid=533bc63a-db50-4c62-9b68-283781947748"},"vehicle_type_id":"4","last_reported":1736464112,"current_range_meters":6800,"station_id":"ce4bhah2rcd13ifvqei0","pricing_plan_id":"cebpf4jnsgd1na2vs0mg"},{"bike_id":"4a2601ce-b8a3-401d-9bcf-b1a5174e0572","system_id":"levelo_inurba_marseille","lat":43.29925,"lon":5.39753,"is_reserved":false,"is_disabled":false,"rental_uris":{"android":"levelo://app?vid=4a2601ce-b8a3-401d-9bcf-b1a5174e0572","ios":"levelo://app?vid=4a2601ce-b8a3-401d-9bcf-b1a5174e0572"},"vehicle_type_id":"4","last_reported":1736464112,"current_range_meters":36800,"station_id":"","pricing_plan_id":"cebpf4jnsgd1na2vs0mg"},{"bike_id":"ca0bb423-3f33-4e39-9f4e-1a0269c2026d","system_id":"levelo_inurba_marseille","lat":43.29011,"lon":5.35602,"is_reserved":false,"is_disabled":false,"rental_uris":{"android":"levelo://app?vid=ca0bb423-3f33-4e39-9f4e-1a0269c2026d","ios":"levelo://app?vid=ca0bb423-3f33-4e39-9f4e-1a0269c2026d"},"vehicle_type_id":"4","last_reported":1736464112,"current_range_meters":36800,"station_id":"ce4bhb92rcd13ifvqen0","pricing_plan_id":"cebpf4jnsgd1na2vs0mg"},{"bike_id":"8a0df70f-3b60-4510-bdf9-1eb41a2abb80","system_id":"levelo_inurba_marseille","lat":43.33598,"lon":5.40961,"is_reserved":false,"is_disabled":false,"rental_uris":{"android":"levelo://app?vid=8a0df70f-3b60-4510-bdf9-1eb41a2abb80","ios":"levelo://app?vid=8a0df70f-3b60-4510-bdf9-1eb41a2abb80"},"vehicle_type_id":"4","last_reported":1736464112,"current_range_meters":38800,"station_id":"ce4bhqh2rcd13ifvqhmg","pricing_plan_id":"cebpf4jnsgd1na2vs0mg"},{"bike_id":"08ebd065-3460-485c-b87e-be3206071c79","system_id":"levelo_inurba_marseille","lat":43.25116,"lon":5.40316,"is_reserved":false,"is_disabled":false,"rental_uris":{"android":"levelo://app?vid=08ebd065-3460-485c-b87e-be3206071c79","ios":"levelo://app?vid=08ebd065-3460-485c-b87e-be3206071c79"},"vehicle_type_id":"4","last_reported":1736464112,"current_range_meters":9200,"station_id":"ce4bhlh2rcd13ifvqgig","pricing_plan_id":"cebpf4jnsgd1na2vs0mg"},{"bike_id":"9e187c63-2dad-443d-8cab-3a6addb077e6","system_id":"levelo_inurba_marseille","lat":43.295807,"lon":5.39994,"is_reserved":false,"is_disabled":false,"rental_uris":{"android":"levelo://app?vid=9e187c63-2dad-443d-8cab-3a6addb077e6","ios":"levelo://app?vid=9e187c63-2dad-443d-8cab-3a6addb077e6"},"vehicle_type_id":"4","last_reported":1736464112,"current_range_meters":38000,"station_id":"ce4bh312rcd13ifvqdj0","pricing_plan_id":"cebpf4jnsgd1na2vs0mg"},{"bike_id":"9daa52eb-e234-4064-9ae4-412fb366edd4","system_id":"levelo_inurba_marseille","lat":43.3067,"lon":5.400873,"is_reserved":false,"is_disabled":false,"rental_uris":{"android":"levelo://app?vid=9daa52eb-e234-4064-9ae4-412fb366edd4","ios":"levelo://app?vid=9daa52eb-e234-4064-9ae4-412fb366edd4"},"vehicle_type_id":"4","last_reported":1736464112,"current_range_meters":38800,"station_id":"ce4bh112rcd13ifvqda0","pricing_plan_id":"cebpf4jnsgd1na2vs0mg"},{"bike_id":"01eb461a-cee0-4c1b-a46e-5caeaa77ac9a","system_id":"levelo_inurba_marseille","lat":43.2799,"lon":5.41665,"is_reserved":false,"is_disabled":true,"rental_uris":{"android":"levelo://app?vid=01eb461a-cee0-4c1b-a46e-5caeaa77ac9a","ios":"levelo://app?vid=01eb461a-cee0-4c1b-a46e-5caeaa77ac9a"},"vehicle_type_id":"4","last_reported":1736464112,"current_range_meters":38400,"station_id":"ce4bho12rcd13ifvqh1g","pricing_plan_id":"cebpf4jnsgd1na2vs0mg"},{"bike_id":"cc34605e-36bd-46d5-953e-9a68c7b90f5b","system_id":"levelo_inurba_marseille","lat":43.29688,"lon":5.36605,"is_reserved":false,"is_disabled":false,"rental_uris":{"android":"levelo://app?vid=cc34605e-36bd-46d5-953e-9a68c7b90f5b","ios":"levelo://app?vid=cc34605e-36bd-46d5-953e-9a68c7b90f5b"},"vehicle_type_id":"4","last_reported":1736464112,"current_range_meters":32800,"station_id":"ce4bgn12rcd13ifvqbt0","pricing_plan_id":"cebpf4jnsgd1na2vs0mg"},{"bike_id":"9d5535df-7edb-47f9-ac14-54793dd626e0","system_id":"levelo_inurba_marseille","lat":43.22918,"lon":5.354,"is_reserved":false,"is_disabled":false,"rental_uris":{"android":"levelo://app?vid=9d5535df-7edb-47f9-ac14-54793dd626e0","ios":"levelo://app?vid=9d5535df-7edb-47f9-ac14-54793dd626e0"},"vehicle_type_id":"4","last_reported":1736464112,"current_range_meters":27200,"station_id":"cpo3532slgdg3j2ikp40","pricing_plan_id":"cebpf4jnsgd1na2vs0mg"},{"bike_id":"80ea38fb-d60f-43c7-8716-1c856ccd4b58","system_id":"levelo_inurba_marseille","lat":43.28461,"lon":5.35881,"is_reserved":false,"is_disabled":false,"rental_uris":{"android":"levelo://app?vid=80ea38fb-d60f-43c7-8716-1c856ccd4b58","ios":"levelo://app?vid=80ea38fb-d60f-43c7-8716-1c856ccd4b58"},"vehicle_type_id":"4","last_reported":1736464112,"current_range_meters":21600,"station_id":"ce4bhah2rcd13ifvqei0","pricing_plan_id":"cebpf4jnsgd1na2vs0mg"},{"bike_id":"0617fde0-97c2-4716-8570-25581d6a6543","system_id":"levelo_inurba_marseille","lat":43.27497,"lon":5.42459,"is_reserved":false,"is_disabled":false,"rental_uris":{"android":"levelo://app?vid=0617fde0-97c2-4716-8570-25581d6a6543","ios":"levelo://app?vid=0617fde0-97c2-4716-8570-25581d6a6543"},"vehicle_type_id":"4","last_reported":1736464112,"current_range_meters":38800,"station_id":"ce4bhn92rcd13ifvqgrg","pricing_plan_id":"cebpf4jnsgd1na2vs0mg"},{"bike_id":"ce28c0a5-7456-4b2b-a52e-78e0e193ff6c","system_id":"levelo_inurba_marseille","lat":43.28671,"lon":5.36351,"is_reserved":false,"is_disabled":false,"rental_uris":{"android":"levelo://app?vid=ce28c0a5-7456-4b2b-a52e-78e0e193ff6c","ios":"levelo://app?vid=ce28c0a5-7456-4b2b-a52e-78e0e193ff6c"},"vehicle_type_id":"4","last_reported":1736464112,"current_range_meters":36800,"station_id":"ce4bhah2rcd13ifvqej0","pricing_plan_id":"cebpf4jnsgd1na2vs0mg"},{"bike_id":"5ceb2aaf-3a49-4d54-acf0-c7dc7dfe31a7","system_id":"levelo_inurba_marseille","lat":43.28931,"lon":5.36635,"is_reserved":false,"is_disabled":false,"rental_uris":{"android":"levelo://app?vid=5ceb2aaf-3a49-4d54-acf0-c7dc7dfe31a7","ios":"levelo://app?vid=5ceb2aaf-3a49-4d54-acf0-c7dc7dfe31a7"},"vehicle_type_id":"4","last_reported":1736464112,"current_range_meters":6400,"station_id":"ce4bhap2rcd13ifvqek0","pricing_plan_id":"cebpf4jnsgd1na2vs0mg"},{"bike_id":"7ac75c7e-5fca-4ef7-976e-1670e421ebf6","system_id":"levelo_inurba_marseille","lat":43.2862,"lon":5.35103,"is_reserved":false,"is_disabled":false,"rental_uris":{"android":"levelo://app?vid=7ac75c7e-5fca-4ef7-976e-1670e421ebf6","ios":"levelo://app?vid=7ac75c7e-5fca-4ef7-976e-1670e421ebf6"},"vehicle_type_id":"4","last_reported":1736464112,"current_range_meters":12800,"station_id":"ce4bhch2rcd13ifvqeug","pricing_plan_id":"cebpf4jnsgd1na2vs0mg"},{"bike_id":"b4e93bde-c7c0-45ab-a558-80aa5d2eccf8","system_id":"levelo_inurba_marseille","lat":43.30255,"lon":5.40055,"is_reserved":false,"is_disabled":false,"rental_uris":{"android":"levelo://app?vid=b4e93bde-c7c0-45ab-a558-80aa5d2eccf8","ios":"levelo://app?vid=b4e93bde-c7c0-45ab-a558-80aa5d2eccf8"},"vehicle_type_id":"4","last_reported":1736464112,"current_range_meters":38000,"station_id":"ce4bgvh2rcd13ifvqcs0","pricing_plan_id":"cebpf4jnsgd1na2vs0mg"},{"bike_id":"feeeae9a-4bcc-477a-bc8c-e9391fa8aedd","system_id":"levelo_inurba_marseille","lat":43.29199,"lon":5.39314,"is_reserved":false,"is_disabled":false,"rental_uris":{"android":"levelo://app?vid=feeeae9a-4bcc-477a-bc8c-e9391fa8aedd","ios":"levelo://app?vid=feeeae9a-4bcc-477a-bc8c-e9391fa8aedd"},"vehicle_type_id":"4","last_reported":1736464112,"current_range_meters":38400,"station_id":"ce4bh192rcd13ifvqdd0","pricing_plan_id":"cebpf4jnsgd1na2vs0mg"},{"bike_id":"bbb42691-618e-438b-93dc-2acd2c34e075","system_id":"levelo_inurba_marseille","lat":43.30795,"lon":5.4354,"is_reserved":false,"is_disabled":false,"rental_uris":{"android":"levelo://app?vid=bbb42691-618e-438b-93dc-2acd2c34e075","ios":"levelo://app?vid=bbb42691-618e-438b-93dc-2acd2c34e075"},"vehicle_type_id":"4","last_reported":1736464112,"current_range_meters":38800,"station_id":"ce4bhph2rcd13ifvqheg","pricing_plan_id":"cebpf4jnsgd1na2vs0mg"},{"bike_id":"dbe4d7d2-95f9-4a28-b000-f9ac7c3f52eb","system_id":"levelo_inurba_marseille","lat":43.29194,"lon":5.39317,"is_reserved":false,"is_disabled":true,"rental_uris":{"android":"levelo://app?vid=dbe4d7d2-95f9-4a28-b000-f9ac7c3f52eb","ios":"levelo://app?vid=dbe4d7d2-95f9-4a28-b000-f9ac7c3f52eb"},"vehicle_type_id":"4","last_reported":1736464112,"current_range_meters":0,"station_id":"ce4bh192rcd13ifvqdd0","pricing_plan_id":"cebpf4jnsgd1na2vs0mg"},{"bike_id":"4d837533-9634-4003-a158-316faeed00a8","system_id":"levelo_inurba_marseille","lat":43.31755,"lon":5.39012,"is_reserved":false,"is_disabled":false,"rental_uris":{"android":"levelo://app?vid=4d837533-9634-4003-a158-316faeed00a8","ios":"levelo://app?vid=4d837533-9634-4003-a158-316faeed00a8"},"vehicle_type_id":"4","last_reported":1736464112,"current_range_meters":38800,"station_id":"ce4bhqp2rcd13ifvqhng","pricing_plan_id":"cebpf4jnsgd1na2vs0mg"},{"bike_id":"2dc66654-3021-43ef-bbb3-3e8b62333eb6","system_id":"levelo_inurba_marseille","lat":43.31121,"lon":5.39372,"is_reserved":false,"is_disabled":true,"rental_uris":{"android":"levelo://app?vid=2dc66654-3021-43ef-bbb3-3e8b62333eb6","ios":"levelo://app?vid=2dc66654-3021-43ef-bbb3-3e8b62333eb6"},"vehicle_type_id":"4","last_reported":1736464112,"current_range_meters":0,"station_id":"","pricing_plan_id":"cebpf4jnsgd1na2vs0mg"},{"bike_id":"ba934327-f06a-4136-9118-297313cf32de","system_id":"levelo_inurba_marseille","lat":43.30517,"lon":5.39897,"is_reserved":false,"is_disabled":false,"rental_uris":{"android":"levelo://app?vid=ba934327-f06a-4136-9118-297313cf32de","ios":"levelo://app?vid=ba934327-f06a-4136-9118-297313cf32de"},"vehicle_type_id":"4","last_reported":1736464112,"current_range_meters":24400,"station_id":"","pricing_plan_id":"cebpf4jnsgd1na2vs0mg"},{"bike_id":"3b0e496e-fb5d-467b-9517-d654f577d492","system_id":"levelo_inurba_marseille","lat":43.3108,"lon":5.38366,"is_reserved":false,"is_disabled":false,"rental_uris":{"android":"levelo://app?vid=3b0e496e-fb5d-467b-9517-d654f577d492","ios":"levelo://app?vid=3b0e496e-fb5d-467b-9517-d654f577d492"},"vehicle_type_id":"4","last_reported":1736464112,"current_range_meters":32000,"station_id":"ce4bgv92rcd13ifvqcr0","pricing_plan_id":"cebpf4jnsgd1na2vs0mg"},{"bike_id":"1b347b6b-23fa-46e1-b35b-40be16793e4d","system_id":"levelo_inurba_marseille","lat":43.31063,"lon":5.42463,"is_reserved":false,"is_disabled":false,"rental_uris":{"android":"levelo://app?vid=1b347b6b-23fa-46e1-b35b-40be16793e4d","ios":"levelo://app?vid=1b347b6b-23fa-46e1-b35b-40be16793e4d"},"vehicle_type_id":"4","last_reported":1736464112,"current_range_meters":25200,"station_id":"ce4bhp92rcd13ifvqhag","pricing_plan_id":"cebpf4jnsgd1na2vs0mg"},{"bike_id":"6d907632-b7a4-409f-98d5-031bae93ab87","system_id":"levelo_inurba_marseille","lat":43.23961,"lon":5.36646,"is_reserved":false,"is_disabled":false,"rental_uris":{"android":"levelo://app?vid=6d907632-b7a4-409f-98d5-031bae93ab87","ios":"levelo://app?vid=6d907632-b7a4-409f-98d5-031bae93ab87"},"vehicle_type_id":"4","last_reported":1736464112,"current_range_meters":9600,"station_id":"ce4bhi12rcd13ifvqfp0","pricing_plan_id":"cebpf4jnsgd1na2vs0mg"},{"bike_id":"c578e259-3de8-445c-801e-bca618442a69","system_id":"levelo_inurba_marseille","lat":43.29802,"lon":5.38109,"is_reserved":false,"is_disabled":true,"rental_uris":{"android":"levelo://app?vid=c578e259-3de8-445c-801e-bca618442a69","ios":"levelo://app?vid=c578e259-3de8-445c-801e-bca618442a69"},"vehicle_type_id":"4","last_reported":1736464112,"current_range_meters":0,"station_id":"ce4bgip2rcd13ifvqbb0","pricing_plan_id":"cebpf4jnsgd1na2vs0mg"},{"bike_id":"aa67cf98-d46b-41be-be1e-bfc5f3fa3df3","system_id":"levelo_inurba_marseille","lat":43.29871,"lon":5.397257,"is_reserved":false,"is_disabled":false,"rental_uris":{"android":"levelo://app?vid=aa67cf98-d46b-41be-be1e-bfc5f3fa3df3","ios":"levelo://app?vid=aa67cf98-d46b-41be-be1e-bfc5f3fa3df3"},"vehicle_type_id":"4","last_reported":1736464112,"current_range_meters":38400,"station_id":"ce4bh0h2rcd13ifvqd50","pricing_plan_id":"cebpf4jnsgd1na2vs0mg"},{"bike_id":"28dfc315-0b25-42c1-8a96-8f2f52119faa","system_id":"levelo_inurba_marseille","lat":43.28664,"lon":5.36357,"is_reserved":false,"is_disabled":false,"rental_uris":{"android":"levelo://app?vid=28dfc315-0b25-42c1-8a96-8f2f52119faa","ios":"levelo://app?vid=28dfc315-0b25-42c1-8a96-8f2f52119faa"},"vehicle_type_id":"4","last_reported":1736464112,"current_range_meters":38800,"station_id":"ce4bhah2rcd13ifvqej0","pricing_plan_id":"cebpf4jnsgd1na2vs0mg"},{"bike_id":"5a67e9e1-2bc9-433e-8b95-966ce594c3da","system_id":"levelo_inurba_marseille","lat":43.25121,"lon":5.40344,"is_reserved":false,"is_disabled":false,"rental_uris":{"android":"levelo://app?vid=5a67e9e1-2bc9-433e-8b95-966ce594c3da","ios":"levelo://app?vid=5a67e9e1-2bc9-433e-8b95-966ce594c3da"},"vehicle_type_id":"4","last_reported":1736464112,"current_range_meters":36000,"station_id":"ce4bhlh2rcd13ifvqgig","pricing_plan_id":"cebpf4jnsgd1na2vs0mg"},{"bike_id":"1c4af67f-8fa5-48f1-8a74-50fb1828db9d","system_id":"levelo_inurba_marseille","lat":43.24169,"lon":5.39692,"is_reserved":false,"is_disabled":false,"rental_uris":{"android":"levelo://app?vid=1c4af67f-8fa5-48f1-8a74-50fb1828db9d","ios":"levelo://app?vid=1c4af67f-8fa5-48f1-8a74-50fb1828db9d"},"vehicle_type_id":"4","last_reported":1736464112,"current_range_meters":36400,"station_id":"ce4bhn12rcd13ifvqgpg","pricing_plan_id":"cebpf4jnsgd1na2vs0mg"},{"bike_id":"3ed66b13-13c6-4385-85b7-fc73c3a00341","system_id":"levelo_inurba_marseille","lat":43.28378,"lon":5.38622,"is_reserved":false,"is_disabled":false,"rental_uris":{"android":"levelo://app?vid=3ed66b13-13c6-4385-85b7-fc73c3a00341","ios":"levelo://app?vid=3ed66b13-13c6-4385-85b7-fc73c3a00341"},"vehicle_type_id":"4","last_reported":1736464112,"current_range_meters":38400,"station_id":"ce4bh492rcd13ifvqdvg","pricing_plan_id":"cebpf4jnsgd1na2vs0mg"},{"bike_id":"20daafc9-4aaa-4b54-8b79-eac236f93e15","system_id":"levelo_inurba_marseille","lat":43.27917,"lon":5.39586,"is_reserved":false,"is_disabled":false,"rental_uris":{"android":"levelo://app?vid=20daafc9-4aaa-4b54-8b79-eac236f93e15","ios":"levelo://app?vid=20daafc9-4aaa-4b54-8b79-eac236f93e15"},"vehicle_type_id":"4","last_reported":1736464112,"current_range_meters":16000,"station_id":"ce4bhf92rcd13ifvqf40","pricing_plan_id":"cebpf4jnsgd1na2vs0mg"},{"bike_id":"070425c2-6220-406f-8690-e8e23ea6aee7","system_id":"levelo_inurba_marseille","lat":43.27178,"lon":5.40997,"is_reserved":false,"is_disabled":false,"rental_uris":{"android":"levelo://app?vid=070425c2-6220-406f-8690-e8e23ea6aee7","ios":"levelo://app?vid=070425c2-6220-406f-8690-e8e23ea6aee7"},"vehicle_type_id":"4","last_reported":1736464112,"current_range_meters":23200,"station_id":"ce4bhl12rcd13ifvqgf0","pricing_plan_id":"cebpf4jnsgd1na2vs0mg"},{"bike_id":"db464d9c-bb44-42ac-bd09-4c22fe8aeaae","system_id":"levelo_inurba_marseille","lat":43.28929,"lon":5.36384,"is_reserved":false,"is_disabled":false,"rental_uris":{"android":"levelo://app?vid=db464d9c-bb44-42ac-bd09-4c22fe8aeaae","ios":"levelo://app?vid=db464d9c-bb44-42ac-bd09-4c22fe8aeaae"},"vehicle_type_id":"4","last_reported":1736464112,"current_range_meters":9600,"station_id":"ce4bhc92rcd13ifvqetg","pricing_plan_id":"cebpf4jnsgd1na2vs0mg"},{"bike_id":"8fe05cd3-a784-46ac-b769-4a3bb713f28f","system_id":"levelo_inurba_marseille","lat":43.23185,"lon":5.40001,"is_reserved":false,"is_disabled":false,"rental_uris":{"android":"levelo://app?vid=8fe05cd3-a784-46ac-b769-4a3bb713f28f","ios":"levelo://app?vid=8fe05cd3-a784-46ac-b769-4a3bb713f28f"},"vehicle_type_id":"4","last_reported":1736464112,"current_range_meters":38800,"station_id":"ce4bhn12rcd13ifvqgqg","pricing_plan_id":"cebpf4jnsgd1na2vs0mg"},{"bike_id":"38d0c53e-a765-4eb8-9fcf-204c9744ffd4","system_id":"levelo_inurba_marseille","lat":43.26199,"lon":5.37925,"is_reserved":false,"is_disabled":false,"rental_uris":{"android":"levelo://app?vid=38d0c53e-a765-4eb8-9fcf-204c9744ffd4","ios":"levelo://app?vid=38d0c53e-a765-4eb8-9fcf-204c9744ffd4"},"vehicle_type_id":"4","last_reported":1736464112,"current_range_meters":27600,"station_id":"ce4bhjp2rcd13ifvqg90","pricing_plan_id":"cebpf4jnsgd1na2vs0mg"},{"bike_id":"c6f45082-4f52-43c4-af86-c1fa309fdcc4","system_id":"levelo_inurba_marseille","lat":43.28699,"lon":5.37946,"is_reserved":false,"is_disabled":false,"rental_uris":{"android":"levelo://app?vid=c6f45082-4f52-43c4-af86-c1fa309fdcc4","ios":"levelo://app?vid=c6f45082-4f52-43c4-af86-c1fa309fdcc4"},"vehicle_type_id":"4","last_reported":1736464112,"current_range_meters":38800,"station_id":"ce4bh9p2rcd13ifvqec0","pricing_plan_id":"cebpf4jnsgd1na2vs0mg"},{"bike_id":"819a5f60-2d7f-42df-9995-26b855f63a06","system_id":"levelo_inurba_marseille","lat":43.28559,"lon":5.39485,"is_reserved":false,"is_disabled":false,"rental_uris":{"android":"levelo://app?vid=819a5f60-2d7f-42df-9995-26b855f63a06","ios":"levelo://app?vid=819a5f60-2d7f-42df-9995-26b855f63a06"},"vehicle_type_id":"4","last_reported":1736464112,"current_range_meters":38000,"station_id":"ce4bh292rcd13ifvqdg0","pricing_plan_id":"cebpf4jnsgd1na2vs0mg"},{"bike_id":"a5c06b98-327f-4ef3-8771-3b3cef97d779","system_id":"levelo_inurba_marseille","lat":43.28861,"lon":5.39316,"is_reserved":false,"is_disabled":false,"rental_uris":{"android":"levelo://app?vid=a5c06b98-327f-4ef3-8771-3b3cef97d779","ios":"levelo://app?vid=a5c06b98-327f-4ef3-8771-3b3cef97d779"},"vehicle_type_id":"4","last_reported":1736464112,"current_range_meters":38400,"station_id":"ce4bh2p2rcd13ifvqdi0","pricing_plan_id":"cebpf4jnsgd1na2vs0mg"},{"bike_id":"426ee80e-06b0-4d0f-86a5-ea8ad64aaa11","system_id":"levelo_inurba_marseille","lat":43.28912,"lon":5.43812,"is_reserved":false,"is_disabled":false,"rental_uris":{"android":"levelo://app?vid=426ee80e-06b0-4d0f-86a5-ea8ad64aaa11","ios":"levelo://app?vid=426ee80e-06b0-4d0f-86a5-ea8ad64aaa11"},"vehicle_type_id":"4","last_reported":1736464112,"current_range_meters":24400,"station_id":"","pricing_plan_id":"cebpf4jnsgd1na2vs0mg"},{"bike_id":"c3078bc7-26fc-4fab-a312-fccc8f4123a7","system_id":"levelo_inurba_marseille","lat":43.29043,"lon":5.39956,"is_reserved":false,"is_disabled":false,"rental_uris":{"android":"levelo://app?vid=c3078bc7-26fc-4fab-a312-fccc8f4123a7","ios":"levelo://app?vid=c3078bc7-26fc-4fab-a312-fccc8f4123a7"},"vehicle_type_id":"4","last_reported":1736464112,"current_range_meters":36400,"station_id":"ce4bh392rcd13ifvqdm0","pricing_plan_id":"cebpf4jnsgd1na2vs0mg"},{"bike_id":"24181dd3-0787-4379-b3c6-dd5adf68524c","system_id":"levelo_inurba_marseille","lat":43.30412,"lon":5.38889,"is_reserved":false,"is_disabled":false,"rental_uris":{"android":"levelo://app?vid=24181dd3-0787-4379-b3c6-dd5adf68524c","ios":"levelo://app?vid=24181dd3-0787-4379-b3c6-dd5adf68524c"},"vehicle_type_id":"4","last_reported":1736464112,"current_range_meters":30800,"station_id":"ce4bgk12rcd13ifvqbi0","pricing_plan_id":"cebpf4jnsgd1na2vs0mg"},{"bike_id":"f5ca1267-8796-4e04-ae34-eb0613d65667","system_id":"levelo_inurba_marseille","lat":43.29608,"lon":5.37704,"is_reserved":false,"is_disabled":true,"rental_uris":{"android":"levelo://app?vid=f5ca1267-8796-4e04-ae34-eb0613d65667","ios":"levelo://app?vid=f5ca1267-8796-4e04-ae34-eb0613d65667"},"vehicle_type_id":"4","last_reported":1736464112,"current_range_meters":17600,"station_id":"ce4bgi92rcd13ifvqb90","pricing_plan_id":"cebpf4jnsgd1na2vs0mg"},{"bike_id":"9c47c775-04aa-4b54-b6e1-7042964c96fd","system_id":"levelo_inurba_marseille","lat":43.28092,"lon":5.3965,"is_reserved":false,"is_disabled":false,"rental_uris":{"android":"levelo://app?vid=9c47c775-04aa-4b54-b6e1-7042964c96fd","ios":"levelo://app?vid=9c47c775-04aa-4b54-b6e1-7042964c96fd"},"vehicle_type_id":"4","last_reported":1736464112,"current_range_meters":18000,"station_id":"ce4bho12rcd13ifvqh2g","pricing_plan_id":"cebpf4jnsgd1na2vs0mg"},{"bike_id":"bedf8779-e71b-4300-92ee-d10552e3a166","system_id":"levelo_inurba_marseille","lat":43.27964,"lon":5.38746,"is_reserved":false,"is_disabled":false,"rental_uris":{"android":"levelo://app?vid=bedf8779-e71b-4300-92ee-d10552e3a166","ios":"levelo://app?vid=bedf8779-e71b-4300-92ee-d10552e3a166"},"vehicle_type_id":"4","last_reported":1736464112,"current_range_meters":38800,"station_id":"ce4bhg12rcd13ifvqf80","pricing_plan_id":"cebpf4jnsgd1na2vs0mg"},{"bike_id":"4df811ea-88c9-4a4d-b995-e07c2c3109fe","system_id":"levelo_inurba_marseille","lat":43.25837,"lon":5.39946,"is_reserved":false,"is_disabled":false,"rental_uris":{"android":"levelo://app?vid=4df811ea-88c9-4a4d-b995-e07c2c3109fe","ios":"levelo://app?vid=4df811ea-88c9-4a4d-b995-e07c2c3109fe"},"vehicle_type_id":"4","last_reported":1736464112,"current_range_meters":12400,"station_id":"","pricing_plan_id":"cebpf4jnsgd1na2vs0mg"},{"bike_id":"2f7753a3-c1a9-49b7-88cb-919e6920ff96","system_id":"levelo_inurba_marseille","lat":43.31069,"lon":5.38361,"is_reserved":false,"is_disabled":false,"rental_uris":{"android":"levelo://app?vid=2f7753a3-c1a9-49b7-88cb-919e6920ff96","ios":"levelo://app?vid=2f7753a3-c1a9-49b7-88cb-919e6920ff96"},"vehicle_type_id":"4","last_reported":1736464112,"current_range_meters":27200,"station_id":"ce4bgv92rcd13ifvqcr0","pricing_plan_id":"cebpf4jnsgd1na2vs0mg"},{"bike_id":"d7b567b0-5bf6-440a-ad0b-a9e97b2b42d9","system_id":"levelo_inurba_marseille","lat":43.2784,"lon":5.39229,"is_reserved":false,"is_disabled":false,"rental_uris":{"android":"levelo://app?vid=d7b567b0-5bf6-440a-ad0b-a9e97b2b42d9","ios":"levelo://app?vid=d7b567b0-5bf6-440a-ad0b-a9e97b2b42d9"},"vehicle_type_id":"4","last_reported":1736464112,"current_range_meters":12000,"station_id":"ce4bhjp2rcd13ifvqga0","pricing_plan_id":"cebpf4jnsgd1na2vs0mg"},{"bike_id":"4b38882c-ba9d-4741-88fd-5a0cd2a690f7","system_id":"levelo_inurba_marseille","lat":43.2843,"lon":5.39187,"is_reserved":false,"is_disabled":true,"rental_uris":{"android":"levelo://app?vid=4b38882c-ba9d-4741-88fd-5a0cd2a690f7","ios":"levelo://app?vid=4b38882c-ba9d-4741-88fd-5a0cd2a690f7"},"vehicle_type_id":"4","last_reported":1736464112,"current_range_meters":10800,"station_id":"ce4bhoh2rcd13ifvqh5g","pricing_plan_id":"cebpf4jnsgd1na2vs0mg"},{"bike_id":"0317929c-89b6-4577-9aca-e7837e00f864","system_id":"levelo_inurba_marseille","lat":43.3176,"lon":5.3902,"is_reserved":false,"is_disabled":false,"rental_uris":{"android":"levelo://app?vid=0317929c-89b6-4577-9aca-e7837e00f864","ios":"levelo://app?vid=0317929c-89b6-4577-9aca-e7837e00f864"},"vehicle_type_id":"4","last_reported":1736464112,"current_range_meters":36000,"station_id":"ce4bhqp2rcd13ifvqhng","pricing_plan_id":"cebpf4jnsgd1na2vs0mg"},{"bike_id":"e51b2d29-f6fd-4ba7-80e0-f85ab68cc69e","system_id":"levelo_inurba_marseille","lat":43.27075,"lon":5.42274,"is_reserved":false,"is_disabled":false,"rental_uris":{"android":"levelo://app?vid=e51b2d29-f6fd-4ba7-80e0-f85ab68cc69e","ios":"levelo://app?vid=e51b2d29-f6fd-4ba7-80e0-f85ab68cc69e"},"vehicle_type_id":"4","last_reported":1736464112,"current_range_meters":39200,"station_id":"ce4bhk92rcd13ifvqgb0","pricing_plan_id":"cebpf4jnsgd1na2vs0mg"},{"bike_id":"0be5c951-be7d-4b30-8e18-971451e86186","system_id":"levelo_inurba_marseille","lat":43.30411,"lon":5.41281,"is_reserved":false,"is_disabled":false,"rental_uris":{"android":"levelo://app?vid=0be5c951-be7d-4b30-8e18-971451e86186","ios":"levelo://app?vid=0be5c951-be7d-4b30-8e18-971451e86186"},"vehicle_type_id":"4","last_reported":1736464112,"current_range_meters":39200,"station_id":"ce4bhop2rcd13ifvqh8g","pricing_plan_id":"cebpf4jnsgd1na2vs0mg"},{"bike_id":"c603c76e-af9c-449d-bf09-0700cc0eea19","system_id":"levelo_inurba_marseille","lat":43.29571,"lon":5.39944,"is_reserved":false,"is_disabled":true,"rental_uris":{"android":"levelo://app?vid=c603c76e-af9c-449d-bf09-0700cc0eea19","ios":"levelo://app?vid=c603c76e-af9c-449d-bf09-0700cc0eea19"},"vehicle_type_id":"4","last_reported":1736464112,"current_range_meters":32400,"station_id":"ce4bh312rcd13ifvqdj0","pricing_plan_id":"cebpf4jnsgd1na2vs0mg"},{"bike_id":"60cef3e6-efb8-4af9-bda0-2b05ca770c04","system_id":"levelo_inurba_marseille","lat":43.30595,"lon":5.3935,"is_reserved":false,"is_disabled":false,"rental_uris":{"android":"levelo://app?vid=60cef3e6-efb8-4af9-bda0-2b05ca770c04","ios":"levelo://app?vid=60cef3e6-efb8-4af9-bda0-2b05ca770c04"},"vehicle_type_id":"4","last_reported":1736464112,"current_range_meters":38000,"station_id":"ce4bh0p2rcd13ifvqd80","pricing_plan_id":"cebpf4jnsgd1na2vs0mg"},{"bike_id":"b2878935-9780-4ff7-a4ad-43aa1a4d7bf8","system_id":"levelo_inurba_marseille","lat":43.29153,"lon":5.38768,"is_reserved":false,"is_disabled":false,"rental_uris":{"android":"levelo://app?vid=b2878935-9780-4ff7-a4ad-43aa1a4d7bf8","ios":"levelo://app?vid=b2878935-9780-4ff7-a4ad-43aa1a4d7bf8"},"vehicle_type_id":"4","last_reported":1736464112,"current_range_meters":33600,"station_id":"","pricing_plan_id":"cebpf4jnsgd1na2vs0mg"},{"bike_id":"dcd7ed84-5252-48ce-a902-254576ae9895","system_id":"levelo_inurba_marseille","lat":43.28559,"lon":5.39502,"is_reserved":false,"is_disabled":false,"rental_uris":{"android":"levelo://app?vid=dcd7ed84-5252-48ce-a902-254576ae9895","ios":"levelo://app?vid=dcd7ed84-5252-48ce-a902-254576ae9895"},"vehicle_type_id":"4","last_reported":1736464112,"current_range_meters":12400,"station_id":"ce4bh292rcd13ifvqdg0","pricing_plan_id":"cebpf4jnsgd1na2vs0mg"},{"bike_id":"8fc8447b-86c1-428c-946d-f8c4d0eaae78","system_id":"levelo_inurba_marseille","lat":43.28105,"lon":5.37841,"is_reserved":false,"is_disabled":false,"rental_uris":{"android":"levelo://app?vid=8fc8447b-86c1-428c-946d-f8c4d0eaae78","ios":"levelo://app?vid=8fc8447b-86c1-428c-946d-f8c4d0eaae78"},"vehicle_type_id":"4","last_reported":1736464112,"current_range_meters":33200,"station_id":"ce4bha12rcd13ifvqee0","pricing_plan_id":"cebpf4jnsgd1na2vs0mg"},{"bike_id":"f01f0f94-5dc8-4d45-a78b-e92392a58073","system_id":"levelo_inurba_marseille","lat":43.2582,"lon":5.39477,"is_reserved":false,"is_disabled":false,"rental_uris":{"android":"levelo://app?vid=f01f0f94-5dc8-4d45-a78b-e92392a58073","ios":"levelo://app?vid=f01f0f94-5dc8-4d45-a78b-e92392a58073"},"vehicle_type_id":"4","last_reported":1736464112,"current_range_meters":33600,"station_id":"ce4bhip2rcd13ifvqft0","pricing_plan_id":"cebpf4jnsgd1na2vs0mg"},{"bike_id":"40d56fd5-44d8-437a-8241-71ee621b0f70","system_id":"levelo_inurba_marseille","lat":43.31537,"lon":5.38043,"is_reserved":false,"is_disabled":false,"rental_uris":{"android":"levelo://app?vid=40d56fd5-44d8-437a-8241-71ee621b0f70","ios":"levelo://app?vid=40d56fd5-44d8-437a-8241-71ee621b0f70"},"vehicle_type_id":"4","last_reported":1736464112,"current_range_meters":30800,"station_id":"ce4bhsp2rcd13ifvqi50","pricing_plan_id":"cebpf4jnsgd1na2vs0mg"},{"bike_id":"dead459e-2d5d-46f9-b10c-aecd76580e82","system_id":"levelo_inurba_marseille","lat":43.30645,"lon":5.40074,"is_reserved":false,"is_disabled":false,"rental_uris":{"android":"levelo://app?vid=dead459e-2d5d-46f9-b10c-aecd76580e82","ios":"levelo://app?vid=dead459e-2d5d-46f9-b10c-aecd76580e82"},"vehicle_type_id":"4","last_reported":1736464112,"current_range_meters":39200,"station_id":"ce4bh112rcd13ifvqda0","pricing_plan_id":"cebpf4jnsgd1na2vs0mg"},{"bike_id":"81d34ff9-5e9b-458e-a2b0-c4152d728307","system_id":"levelo_inurba_marseille","lat":43.29035,"lon":5.37555,"is_reserved":false,"is_disabled":false,"rental_uris":{"android":"levelo://app?vid=81d34ff9-5e9b-458e-a2b0-c4152d728307","ios":"levelo://app?vid=81d34ff9-5e9b-458e-a2b0-c4152d728307"},"vehicle_type_id":"4","last_reported":1736464112,"current_range_meters":35600,"station_id":"ce4bh692rcd13ifvqe90","pricing_plan_id":"cebpf4jnsgd1na2vs0mg"},{"bike_id":"9792a101-be1e-4b85-80df-b1b0c64f0508","system_id":"levelo_inurba_marseille","lat":43.24809,"lon":5.37446,"is_reserved":false,"is_disabled":false,"rental_uris":{"android":"levelo://app?vid=9792a101-be1e-4b85-80df-b1b0c64f0508","ios":"levelo://app?vid=9792a101-be1e-4b85-80df-b1b0c64f0508"},"vehicle_type_id":"4","last_reported":1736464112,"current_range_meters":38800,"station_id":"ce4bhgh2rcd13ifvqfb0","pricing_plan_id":"cebpf4jnsgd1na2vs0mg"},{"bike_id":"6c16b955-c13c-49a6-a5bb-29559922d02c","system_id":"levelo_inurba_marseille","lat":43.2396,"lon":5.36627,"is_reserved":false,"is_disabled":false,"rental_uris":{"android":"levelo://app?vid=6c16b955-c13c-49a6-a5bb-29559922d02c","ios":"levelo://app?vid=6c16b955-c13c-49a6-a5bb-29559922d02c"},"vehicle_type_id":"4","last_reported":1736464112,"current_range_meters":27600,"station_id":"ce4bhi12rcd13ifvqfp0","pricing_plan_id":"cebpf4jnsgd1na2vs0mg"},{"bike_id":"67b9abbd-c1c8-4f38-ae38-dface5964065","system_id":"levelo_inurba_marseille","lat":43.29757,"lon":5.37085,"is_reserved":false,"is_disabled":false,"rental_uris":{"android":"levelo://app?vid=67b9abbd-c1c8-4f38-ae38-dface5964065","ios":"levelo://app?vid=67b9abbd-c1c8-4f38-ae38-dface5964065"},"vehicle_type_id":"4","last_reported":1736464112,"current_range_meters":38000,"station_id":"ce4bgop2rcd13ifvqc1g","pricing_plan_id":"cebpf4jnsgd1na2vs0mg"},{"bike_id":"cefba1a6-48d2-4516-8f00-e61ffe1c8379","system_id":"levelo_inurba_marseille","lat":43.28657,"lon":5.3635,"is_reserved":false,"is_disabled":false,"rental_uris":{"android":"levelo://app?vid=cefba1a6-48d2-4516-8f00-e61ffe1c8379","ios":"levelo://app?vid=cefba1a6-48d2-4516-8f00-e61ffe1c8379"},"vehicle_type_id":"4","last_reported":1736464112,"current_range_meters":25600,"station_id":"ce4bhah2rcd13ifvqej0","pricing_plan_id":"cebpf4jnsgd1na2vs0mg"},{"bike_id":"dd95b172-24fd-4056-9bb1-1ba37d74b460","system_id":"levelo_inurba_marseille","lat":43.255839,"lon":5.382316,"is_reserved":false,"is_disabled":false,"rental_uris":{"android":"levelo://app?vid=dd95b172-24fd-4056-9bb1-1ba37d74b460","ios":"levelo://app?vid=dd95b172-24fd-4056-9bb1-1ba37d74b460"},"vehicle_type_id":"4","last_reported":1736464112,"current_range_meters":18800,"station_id":"ce4bhih2rcd13ifvqfs0","pricing_plan_id":"cebpf4jnsgd1na2vs0mg"},{"bike_id":"bf236211-66c7-4105-b8d3-8eece7c20d8f","system_id":"levelo_inurba_marseille","lat":43.30887,"lon":5.39676,"is_reserved":false,"is_disabled":false,"rental_uris":{"android":"levelo://app?vid=bf236211-66c7-4105-b8d3-8eece7c20d8f","ios":"levelo://app?vid=bf236211-66c7-4105-b8d3-8eece7c20d8f"},"vehicle_type_id":"4","last_reported":1736464112,"current_range_meters":6400,"station_id":"ce4bh012rcd13ifvqcv0","pricing_plan_id":"cebpf4jnsgd1na2vs0mg"},{"bike_id":"d3b7f169-64f1-44b5-8f15-bddbb2d55401","system_id":"levelo_inurba_marseille","lat":43.30801,"lon":5.38157,"is_reserved":false,"is_disabled":false,"rental_uris":{"android":"levelo://app?vid=d3b7f169-64f1-44b5-8f15-bddbb2d55401","ios":"levelo://app?vid=d3b7f169-64f1-44b5-8f15-bddbb2d55401"},"vehicle_type_id":"4","last_reported":1736464112,"current_range_meters":38800,"station_id":"ce4bgt12rcd13ifvqce0","pricing_plan_id":"cebpf4jnsgd1na2vs0mg"},{"bike_id":"fb964d12-c884-4cfb-9c7e-3ca21d074867","system_id":"levelo_inurba_marseille","lat":43.23965,"lon":5.36629,"is_reserved":false,"is_disabled":false,"rental_uris":{"android":"levelo://app?vid=fb964d12-c884-4cfb-9c7e-3ca21d074867","ios":"levelo://app?vid=fb964d12-c884-4cfb-9c7e-3ca21d074867"},"vehicle_type_id":"4","last_reported":1736464112,"current_range_meters":23200,"station_id":"ce4bhi12rcd13ifvqfp0","pricing_plan_id":"cebpf4jnsgd1na2vs0mg"},{"bike_id":"0e0bf7be-88bc-4eb6-a240-3c95916527df","system_id":"levelo_inurba_marseille","lat":43.29261,"lon":5.40905,"is_reserved":false,"is_disabled":false,"rental_uris":{"android":"levelo://app?vid=0e0bf7be-88bc-4eb6-a240-3c95916527df","ios":"levelo://app?vid=0e0bf7be-88bc-4eb6-a240-3c95916527df"},"vehicle_type_id":"4","last_reported":1736464112,"current_range_meters":38800,"station_id":"ce4bh192rcd13ifvqdc0","pricing_plan_id":"cebpf4jnsgd1na2vs0mg"},{"bike_id":"a5590201-951a-4aa2-bb1e-08dba774e466","system_id":"levelo_inurba_marseille","lat":43.25822,"lon":5.39427,"is_reserved":false,"is_disabled":false,"rental_uris":{"android":"levelo://app?vid=a5590201-951a-4aa2-bb1e-08dba774e466","ios":"levelo://app?vid=a5590201-951a-4aa2-bb1e-08dba774e466"},"vehicle_type_id":"4","last_reported":1736464112,"current_range_meters":38800,"station_id":"ce4bhip2rcd13ifvqft0","pricing_plan_id":"cebpf4jnsgd1na2vs0mg"},{"bike_id":"c6c08f57-1b2b-4d53-aabf-26763484169b","system_id":"levelo_inurba_marseille","lat":43.26557,"lon":5.38985,"is_reserved":false,"is_disabled":true,"rental_uris":{"android":"levelo://app?vid=c6c08f57-1b2b-4d53-aabf-26763484169b","ios":"levelo://app?vid=c6c08f57-1b2b-4d53-aabf-26763484169b"},"vehicle_type_id":"4","last_reported":1736464112,"current_range_meters":0,"station_id":"ce4bhe12rcd13ifvqf30","pricing_plan_id":"cebpf4jnsgd1na2vs0mg"},{"bike_id":"3b4478aa-aa08-44e3-8c3e-0ca0badb5e7a","system_id":"levelo_inurba_marseille","lat":43.31528,"lon":5.38974,"is_reserved":false,"is_disabled":false,"rental_uris":{"android":"levelo://app?vid=3b4478aa-aa08-44e3-8c3e-0ca0badb5e7a","ios":"levelo://app?vid=3b4478aa-aa08-44e3-8c3e-0ca0badb5e7a"},"vehicle_type_id":"4","last_reported":1736464112,"current_range_meters":38800,"station_id":"","pricing_plan_id":"cebpf4jnsgd1na2vs0mg"},{"bike_id":"a77baf89-7945-4f1b-b071-6dbd6b745010","system_id":"levelo_inurba_marseille","lat":43.308819,"lon":5.39647,"is_reserved":false,"is_disabled":false,"rental_uris":{"android":"levelo://app?vid=a77baf89-7945-4f1b-b071-6dbd6b745010","ios":"levelo://app?vid=a77baf89-7945-4f1b-b071-6dbd6b745010"},"vehicle_type_id":"4","last_reported":1736464112,"current_range_meters":12800,"station_id":"ce4bh012rcd13ifvqcv0","pricing_plan_id":"cebpf4jnsgd1na2vs0mg"},{"bike_id":"2a2319f3-5df5-4a7d-afc9-396339b99459","system_id":"levelo_inurba_marseille","lat":43.27211,"lon":5.40999,"is_reserved":false,"is_disabled":true,"rental_uris":{"android":"levelo://app?vid=2a2319f3-5df5-4a7d-afc9-396339b99459","ios":"levelo://app?vid=2a2319f3-5df5-4a7d-afc9-396339b99459"},"vehicle_type_id":"4","last_reported":1736464112,"current_range_meters":31200,"station_id":"ce4bhl12rcd13ifvqgf0","pricing_plan_id":"cebpf4jnsgd1na2vs0mg"},{"bike_id":"a22443c1-ab22-40d4-ac9b-e8d04700d700","system_id":"levelo_inurba_marseille","lat":43.27941,"lon":5.41042,"is_reserved":false,"is_disabled":false,"rental_uris":{"android":"levelo://app?vid=a22443c1-ab22-40d4-ac9b-e8d04700d700","ios":"levelo://app?vid=a22443c1-ab22-40d4-ac9b-e8d04700d700"},"vehicle_type_id":"4","last_reported":1736464112,"current_range_meters":6800,"station_id":"ce4bhnp2rcd13ifvqh0g","pricing_plan_id":"cebpf4jnsgd1na2vs0mg"},{"bike_id":"db2bb327-84ca-49b3-a980-9c69d6ef41a2","system_id":"levelo_inurba_marseille","lat":43.23194,"lon":5.35541,"is_reserved":false,"is_disabled":false,"rental_uris":{"android":"levelo://app?vid=db2bb327-84ca-49b3-a980-9c69d6ef41a2","ios":"levelo://app?vid=db2bb327-84ca-49b3-a980-9c69d6ef41a2"},"vehicle_type_id":"4","last_reported":1736464112,"current_range_meters":38800,"station_id":"ce4bhu92rcd13ifvqi70","pricing_plan_id":"cebpf4jnsgd1na2vs0mg"},{"bike_id":"b1cd05bd-cc6d-452b-8b8c-f24ee7fb627f","system_id":"levelo_inurba_marseille","lat":43.258322,"lon":5.3943,"is_reserved":false,"is_disabled":false,"rental_uris":{"android":"levelo://app?vid=b1cd05bd-cc6d-452b-8b8c-f24ee7fb627f","ios":"levelo://app?vid=b1cd05bd-cc6d-452b-8b8c-f24ee7fb627f"},"vehicle_type_id":"4","last_reported":1736464112,"current_range_meters":38400,"station_id":"ce4bhip2rcd13ifvqft0","pricing_plan_id":"cebpf4jnsgd1na2vs0mg"},{"bike_id":"0efc64bf-284f-4e33-b1df-0d37f1b904ea","system_id":"levelo_inurba_marseille","lat":43.33614,"lon":5.41046,"is_reserved":false,"is_disabled":false,"rental_uris":{"android":"levelo://app?vid=0efc64bf-284f-4e33-b1df-0d37f1b904ea","ios":"levelo://app?vid=0efc64bf-284f-4e33-b1df-0d37f1b904ea"},"vehicle_type_id":"4","last_reported":1736464112,"current_range_meters":38800,"station_id":"ce4bhqh2rcd13ifvqhmg","pricing_plan_id":"cebpf4jnsgd1na2vs0mg"},{"bike_id":"9d27d288-9638-4ffa-a41f-98c9e72676c0","system_id":"levelo_inurba_marseille","lat":43.231912,"lon":5.355568,"is_reserved":false,"is_disabled":false,"rental_uris":{"android":"levelo://app?vid=9d27d288-9638-4ffa-a41f-98c9e72676c0","ios":"levelo://app?vid=9d27d288-9638-4ffa-a41f-98c9e72676c0"},"vehicle_type_id":"4","last_reported":1736464112,"current_range_meters":10800,"station_id":"ce4bhu92rcd13ifvqi70","pricing_plan_id":"cebpf4jnsgd1na2vs0mg"},{"bike_id":"5aee579e-4d1a-4cdd-b13b-286ee35e83d9","system_id":"levelo_inurba_marseille","lat":43.259459,"lon":5.409035,"is_reserved":false,"is_disabled":false,"rental_uris":{"android":"levelo://app?vid=5aee579e-4d1a-4cdd-b13b-286ee35e83d9","ios":"levelo://app?vid=5aee579e-4d1a-4cdd-b13b-286ee35e83d9"},"vehicle_type_id":"4","last_reported":1736464112,"current_range_meters":38800,"station_id":"ce4bhm92rcd13ifvqglg","pricing_plan_id":"cebpf4jnsgd1na2vs0mg"},{"bike_id":"a40481c6-f7c6-4f07-a3fc-06044f90413d","system_id":"levelo_inurba_marseille","lat":43.29305,"lon":5.37181,"is_reserved":false,"is_disabled":false,"rental_uris":{"android":"levelo://app?vid=a40481c6-f7c6-4f07-a3fc-06044f90413d","ios":"levelo://app?vid=a40481c6-f7c6-4f07-a3fc-06044f90413d"},"vehicle_type_id":"4","last_reported":1736464112,"current_range_meters":30400,"station_id":"ce4bgh92rcd13ifvqb40","pricing_plan_id":"cebpf4jnsgd1na2vs0mg"},{"bike_id":"1c368d5d-818a-4226-8ad8-6658f57fbac1","system_id":"levelo_inurba_marseille","lat":43.32367,"lon":5.38883,"is_reserved":false,"is_disabled":false,"rental_uris":{"android":"levelo://app?vid=1c368d5d-818a-4226-8ad8-6658f57fbac1","ios":"levelo://app?vid=1c368d5d-818a-4226-8ad8-6658f57fbac1"},"vehicle_type_id":"4","last_reported":1736464112,"current_range_meters":33200,"station_id":"ce4bhqp2rcd13ifvqhog","pricing_plan_id":"cebpf4jnsgd1na2vs0mg"},{"bike_id":"3a93340b-3303-4865-8e1e-90ef10f80bdd","system_id":"levelo_inurba_marseille","lat":43.31715,"lon":5.42405,"is_reserved":false,"is_disabled":false,"rental_uris":{"android":"levelo://app?vid=3a93340b-3303-4865-8e1e-90ef10f80bdd","ios":"levelo://app?vid=3a93340b-3303-4865-8e1e-90ef10f80bdd"},"vehicle_type_id":"4","last_reported":1736464112,"current_range_meters":38800,"station_id":"ce4bhp92rcd13ifvqhbg","pricing_plan_id":"cebpf4jnsgd1na2vs0mg"},{"bike_id":"b925ef54-2c19-477d-88be-703368298407","system_id":"levelo_inurba_marseille","lat":43.28456,"lon":5.35889,"is_reserved":false,"is_disabled":false,"rental_uris":{"android":"levelo://app?vid=b925ef54-2c19-477d-88be-703368298407","ios":"levelo://app?vid=b925ef54-2c19-477d-88be-703368298407"},"vehicle_type_id":"4","last_reported":1736464112,"current_range_meters":27600,"station_id":"ce4bhah2rcd13ifvqei0","pricing_plan_id":"cebpf4jnsgd1na2vs0mg"},{"bike_id":"a023b9e2-2413-4b3d-a218-b9727e7097b5","system_id":"levelo_inurba_marseille","lat":43.292991,"lon":5.374633,"is_reserved":false,"is_disabled":true,"rental_uris":{"android":"levelo://app?vid=a023b9e2-2413-4b3d-a218-b9727e7097b5","ios":"levelo://app?vid=a023b9e2-2413-4b3d-a218-b9727e7097b5"},"vehicle_type_id":"4","last_reported":1736464112,"current_range_meters":27600,"station_id":"ce4bgi12rcd13ifvqb70","pricing_plan_id":"cebpf4jnsgd1na2vs0mg"},{"bike_id":"6a751b35-9d68-426a-9e40-1d1cd88bcd8b","system_id":"levelo_inurba_marseille","lat":43.29438,"lon":5.39726,"is_reserved":false,"is_disabled":false,"rental_uris":{"android":"levelo://app?vid=6a751b35-9d68-426a-9e40-1d1cd88bcd8b","ios":"levelo://app?vid=6a751b35-9d68-426a-9e40-1d1cd88bcd8b"},"vehicle_type_id":"4","last_reported":1736464112,"current_range_meters":39200,"station_id":"ce4bh3h2rcd13ifvqdo0","pricing_plan_id":"cebpf4jnsgd1na2vs0mg"},{"bike_id":"307d1598-82eb-46a3-94cc-454f6b403ff6","system_id":"levelo_inurba_marseille","lat":43.3116,"lon":5.3872,"is_reserved":false,"is_disabled":false,"rental_uris":{"android":"levelo://app?vid=307d1598-82eb-46a3-94cc-454f6b403ff6","ios":"levelo://app?vid=307d1598-82eb-46a3-94cc-454f6b403ff6"},"vehicle_type_id":"4","last_reported":1736464112,"current_range_meters":36400,"station_id":"ce4bgv12rcd13ifvqcp0","pricing_plan_id":"cebpf4jnsgd1na2vs0mg"},{"bike_id":"2363cfa9-42a4-4920-b3ca-a2b4f9bf43f9","system_id":"levelo_inurba_marseille","lat":43.28562,"lon":5.3952,"is_reserved":false,"is_disabled":false,"rental_uris":{"android":"levelo://app?vid=2363cfa9-42a4-4920-b3ca-a2b4f9bf43f9","ios":"levelo://app?vid=2363cfa9-42a4-4920-b3ca-a2b4f9bf43f9"},"vehicle_type_id":"4","last_reported":1736464112,"current_range_meters":35200,"station_id":"ce4bh292rcd13ifvqdg0","pricing_plan_id":"cebpf4jnsgd1na2vs0mg"},{"bike_id":"6db24be0-87cf-4437-9d32-a18bcf76ec30","system_id":"levelo_inurba_marseille","lat":43.28704,"lon":5.37943,"is_reserved":false,"is_disabled":false,"rental_uris":{"android":"levelo://app?vid=6db24be0-87cf-4437-9d32-a18bcf76ec30","ios":"levelo://app?vid=6db24be0-87cf-4437-9d32-a18bcf76ec30"},"vehicle_type_id":"4","last_reported":1736464112,"current_range_meters":18800,"station_id":"ce4bh9p2rcd13ifvqec0","pricing_plan_id":"cebpf4jnsgd1na2vs0mg"},{"bike_id":"2afebeb9-4711-4bce-acfc-e1e48cc66e5b","system_id":"levelo_inurba_marseille","lat":43.27937,"lon":5.41062,"is_reserved":false,"is_disabled":false,"rental_uris":{"android":"levelo://app?vid=2afebeb9-4711-4bce-acfc-e1e48cc66e5b","ios":"levelo://app?vid=2afebeb9-4711-4bce-acfc-e1e48cc66e5b"},"vehicle_type_id":"4","last_reported":1736464112,"current_range_meters":38800,"station_id":"ce4bhnp2rcd13ifvqh0g","pricing_plan_id":"cebpf4jnsgd1na2vs0mg"},{"bike_id":"ba5c6ff7-25ab-4332-9fbe-f61040fefd2a","system_id":"levelo_inurba_marseille","lat":43.2894,"lon":5.39636,"is_reserved":false,"is_disabled":false,"rental_uris":{"android":"levelo://app?vid=ba5c6ff7-25ab-4332-9fbe-f61040fefd2a","ios":"levelo://app?vid=ba5c6ff7-25ab-4332-9fbe-f61040fefd2a"},"vehicle_type_id":"4","last_reported":1736464112,"current_range_meters":36400,"station_id":"ce4bh3h2rcd13ifvqdn0","pricing_plan_id":"cebpf4jnsgd1na2vs0mg"},{"bike_id":"8cc52d57-1419-4f10-b016-941fc60bdbd1","system_id":"levelo_inurba_marseille","lat":43.28702,"lon":5.3999,"is_reserved":false,"is_disabled":false,"rental_uris":{"android":"levelo://app?vid=8cc52d57-1419-4f10-b016-941fc60bdbd1","ios":"levelo://app?vid=8cc52d57-1419-4f10-b016-941fc60bdbd1"},"vehicle_type_id":"4","last_reported":1736464112,"current_range_meters":10000,"station_id":"ce4bho92rcd13ifvqh3g","pricing_plan_id":"cebpf4jnsgd1na2vs0mg"},{"bike_id":"783fd2f8-daa5-4a55-b980-a4ba8a6542c2","system_id":"levelo_inurba_marseille","lat":43.31326,"lon":5.39694,"is_reserved":false,"is_disabled":false,"rental_uris":{"android":"levelo://app?vid=783fd2f8-daa5-4a55-b980-a4ba8a6542c2","ios":"levelo://app?vid=783fd2f8-daa5-4a55-b980-a4ba8a6542c2"},"vehicle_type_id":"4","last_reported":1736464112,"current_range_meters":25200,"station_id":"ce4bgvp2rcd13ifvqcu0","pricing_plan_id":"cebpf4jnsgd1na2vs0mg"},{"bike_id":"ed3f17cf-5778-43ab-8288-fa0ac533608e","system_id":"levelo_inurba_marseille","lat":43.27941,"lon":5.41081,"is_reserved":false,"is_disabled":false,"rental_uris":{"android":"levelo://app?vid=ed3f17cf-5778-43ab-8288-fa0ac533608e","ios":"levelo://app?vid=ed3f17cf-5778-43ab-8288-fa0ac533608e"},"vehicle_type_id":"4","last_reported":1736464112,"current_range_meters":13600,"station_id":"ce4bhnp2rcd13ifvqh0g","pricing_plan_id":"cebpf4jnsgd1na2vs0mg"},{"bike_id":"238c4a44-bc27-42db-9afb-803c690b6139","system_id":"levelo_inurba_marseille","lat":43.28077,"lon":5.396392,"is_reserved":false,"is_disabled":false,"rental_uris":{"android":"levelo://app?vid=238c4a44-bc27-42db-9afb-803c690b6139","ios":"levelo://app?vid=238c4a44-bc27-42db-9afb-803c690b6139"},"vehicle_type_id":"4","last_reported":1736464112,"current_range_meters":34000,"station_id":"ce4bho12rcd13ifvqh2g","pricing_plan_id":"cebpf4jnsgd1na2vs0mg"},{"bike_id":"5aa46582-8066-4fee-8988-4c6252810ea1","system_id":"levelo_inurba_marseille","lat":43.32367,"lon":5.3888,"is_reserved":false,"is_disabled":false,"rental_uris":{"android":"levelo://app?vid=5aa46582-8066-4fee-8988-4c6252810ea1","ios":"levelo://app?vid=5aa46582-8066-4fee-8988-4c6252810ea1"},"vehicle_type_id":"4","last_reported":1736464112,"current_range_meters":16400,"station_id":"ce4bhqp2rcd13ifvqhog","pricing_plan_id":"cebpf4jnsgd1na2vs0mg"},{"bike_id":"96a40384-5be5-42c9-8d6e-564bcc3f6faa","system_id":"levelo_inurba_marseille","lat":43.2846,"lon":5.35887,"is_reserved":false,"is_disabled":false,"rental_uris":{"android":"levelo://app?vid=96a40384-5be5-42c9-8d6e-564bcc3f6faa","ios":"levelo://app?vid=96a40384-5be5-42c9-8d6e-564bcc3f6faa"},"vehicle_type_id":"4","last_reported":1736464112,"current_range_meters":18000,"station_id":"ce4bhah2rcd13ifvqei0","pricing_plan_id":"cebpf4jnsgd1na2vs0mg"},{"bike_id":"305ec27c-7b37-49a8-8ebc-0d861b475388","system_id":"levelo_inurba_marseille","lat":43.31332,"lon":5.39682,"is_reserved":false,"is_disabled":false,"rental_uris":{"android":"levelo://app?vid=305ec27c-7b37-49a8-8ebc-0d861b475388","ios":"levelo://app?vid=305ec27c-7b37-49a8-8ebc-0d861b475388"},"vehicle_type_id":"4","last_reported":1736464112,"current_range_meters":22400,"station_id":"ce4bgvp2rcd13ifvqcu0","pricing_plan_id":"cebpf4jnsgd1na2vs0mg"},{"bike_id":"f7267b4b-5559-4363-962c-61ea7867b5d1","system_id":"levelo_inurba_marseille","lat":43.25817,"lon":5.39428,"is_reserved":false,"is_disabled":false,"rental_uris":{"android":"levelo://app?vid=f7267b4b-5559-4363-962c-61ea7867b5d1","ios":"levelo://app?vid=f7267b4b-5559-4363-962c-61ea7867b5d1"},"vehicle_type_id":"4","last_reported":1736464112,"current_range_meters":10000,"station_id":"ce4bhip2rcd13ifvqft0","pricing_plan_id":"cebpf4jnsgd1na2vs0mg"},{"bike_id":"877806f5-fd4c-4780-b9e2-22d68bbc29a6","system_id":"levelo_inurba_marseille","lat":43.28476,"lon":5.39215,"is_reserved":false,"is_disabled":false,"rental_uris":{"android":"levelo://app?vid=877806f5-fd4c-4780-b9e2-22d68bbc29a6","ios":"levelo://app?vid=877806f5-fd4c-4780-b9e2-22d68bbc29a6"},"vehicle_type_id":"4","last_reported":1736464112,"current_range_meters":38800,"station_id":"ce4bhoh2rcd13ifvqh5g","pricing_plan_id":"cebpf4jnsgd1na2vs0mg"},{"bike_id":"62a46132-e4b6-4443-b911-decf42c04838","system_id":"levelo_inurba_marseille","lat":43.29029,"lon":5.38653,"is_reserved":false,"is_disabled":true,"rental_uris":{"android":"levelo://app?vid=62a46132-e4b6-4443-b911-decf42c04838","ios":"levelo://app?vid=62a46132-e4b6-4443-b911-decf42c04838"},"vehicle_type_id":"4","last_reported":1736464112,"current_range_meters":37600,"station_id":"ce4bh4p2rcd13ifvqe0g","pricing_plan_id":"cebpf4jnsgd1na2vs0mg"},{"bike_id":"7a0a8a69-615c-43f3-a001-073b74f4a57b","system_id":"levelo_inurba_marseille","lat":43.25582,"lon":5.38239,"is_reserved":false,"is_disabled":false,"rental_uris":{"android":"levelo://app?vid=7a0a8a69-615c-43f3-a001-073b74f4a57b","ios":"levelo://app?vid=7a0a8a69-615c-43f3-a001-073b74f4a57b"},"vehicle_type_id":"4","last_reported":1736464112,"current_range_meters":28800,"station_id":"ce4bhih2rcd13ifvqfs0","pricing_plan_id":"cebpf4jnsgd1na2vs0mg"},{"bike_id":"8e9b7426-4337-4cd7-9c5d-8fb0e8d9b77e","system_id":"levelo_inurba_marseille","lat":43.25865,"lon":5.39885,"is_reserved":false,"is_disabled":false,"rental_uris":{"android":"levelo://app?vid=8e9b7426-4337-4cd7-9c5d-8fb0e8d9b77e","ios":"levelo://app?vid=8e9b7426-4337-4cd7-9c5d-8fb0e8d9b77e"},"vehicle_type_id":"4","last_reported":1736464112,"current_range_meters":38800,"station_id":"ce4bhl92rcd13ifvqghg","pricing_plan_id":"cebpf4jnsgd1na2vs0mg"},{"bike_id":"04b99ebe-7927-40e6-9554-a7aa6d8ff5da","system_id":"levelo_inurba_marseille","lat":43.33037,"lon":5.39027,"is_reserved":false,"is_disabled":false,"rental_uris":{"android":"levelo://app?vid=04b99ebe-7927-40e6-9554-a7aa6d8ff5da","ios":"levelo://app?vid=04b99ebe-7927-40e6-9554-a7aa6d8ff5da"},"vehicle_type_id":"4","last_reported":1736464112,"current_range_meters":38000,"station_id":"ce4bhr92rcd13ifvqhrg","pricing_plan_id":"cebpf4jnsgd1na2vs0mg"},{"bike_id":"284e1831-9922-4f3c-809c-0f802c9ef2e6","system_id":"levelo_inurba_marseille","lat":43.29564,"lon":5.42262,"is_reserved":false,"is_disabled":false,"rental_uris":{"android":"levelo://app?vid=284e1831-9922-4f3c-809c-0f802c9ef2e6","ios":"levelo://app?vid=284e1831-9922-4f3c-809c-0f802c9ef2e6"},"vehicle_type_id":"4","last_reported":1736464112,"current_range_meters":17600,"station_id":"ce4bhph2rcd13ifvqhdg","pricing_plan_id":"cebpf4jnsgd1na2vs0mg"},{"bike_id":"ad744619-fbc5-4026-9541-81b1adebd4d3","system_id":"levelo_inurba_marseille","lat":43.26046,"lon":5.37541,"is_reserved":false,"is_disabled":true,"rental_uris":{"android":"levelo://app?vid=ad744619-fbc5-4026-9541-81b1adebd4d3","ios":"levelo://app?vid=ad744619-fbc5-4026-9541-81b1adebd4d3"},"vehicle_type_id":"4","last_reported":1736464112,"current_range_meters":38800,"station_id":"ce4bhgh2rcd13ifvqfa0","pricing_plan_id":"cebpf4jnsgd1na2vs0mg"},{"bike_id":"2b68127b-8c99-46f9-b65f-98bf288dc9b7","system_id":"levelo_inurba_marseille","lat":43.25575,"lon":5.38236,"is_reserved":false,"is_disabled":false,"rental_uris":{"android":"levelo://app?vid=2b68127b-8c99-46f9-b65f-98bf288dc9b7","ios":"levelo://app?vid=2b68127b-8c99-46f9-b65f-98bf288dc9b7"},"vehicle_type_id":"4","last_reported":1736464112,"current_range_meters":8800,"station_id":"ce4bhih2rcd13ifvqfs0","pricing_plan_id":"cebpf4jnsgd1na2vs0mg"},{"bike_id":"5b3d86e6-1f3e-4594-9a72-48d79dc22714","system_id":"levelo_inurba_marseille","lat":43.29911,"lon":5.39751,"is_reserved":false,"is_disabled":false,"rental_uris":{"android":"levelo://app?vid=5b3d86e6-1f3e-4594-9a72-48d79dc22714","ios":"levelo://app?vid=5b3d86e6-1f3e-4594-9a72-48d79dc22714"},"vehicle_type_id":"4","last_reported":1736464112,"current_range_meters":32800,"station_id":"ce4bh0h2rcd13ifvqd50","pricing_plan_id":"cebpf4jnsgd1na2vs0mg"},{"bike_id":"3a4c38ff-8e4d-4b5c-ba1c-d8dd442dc761","system_id":"levelo_inurba_marseille","lat":43.2894,"lon":5.39643,"is_reserved":false,"is_disabled":false,"rental_uris":{"android":"levelo://app?vid=3a4c38ff-8e4d-4b5c-ba1c-d8dd442dc761","ios":"levelo://app?vid=3a4c38ff-8e4d-4b5c-ba1c-d8dd442dc761"},"vehicle_type_id":"4","last_reported":1736464112,"current_range_meters":32000,"station_id":"ce4bh3h2rcd13ifvqdn0","pricing_plan_id":"cebpf4jnsgd1na2vs0mg"},{"bike_id":"a909d044-925f-4cad-9d20-5633b42ae69f","system_id":"levelo_inurba_marseille","lat":43.24644,"lon":5.38912,"is_reserved":false,"is_disabled":false,"rental_uris":{"android":"levelo://app?vid=a909d044-925f-4cad-9d20-5633b42ae69f","ios":"levelo://app?vid=a909d044-925f-4cad-9d20-5633b42ae69f"},"vehicle_type_id":"4","last_reported":1736464112,"current_range_meters":37600,"station_id":"ce4bhg12rcd13ifvqf60","pricing_plan_id":"cebpf4jnsgd1na2vs0mg"},{"bike_id":"f72ec506-2b55-4620-84fe-c24c2d579719","system_id":"levelo_inurba_marseille","lat":43.31064,"lon":5.38355,"is_reserved":false,"is_disabled":false,"rental_uris":{"android":"levelo://app?vid=f72ec506-2b55-4620-84fe-c24c2d579719","ios":"levelo://app?vid=f72ec506-2b55-4620-84fe-c24c2d579719"},"vehicle_type_id":"4","last_reported":1736464112,"current_range_meters":22400,"station_id":"ce4bgv92rcd13ifvqcr0","pricing_plan_id":"cebpf4jnsgd1na2vs0mg"},{"bike_id":"55fea5e7-e440-416a-842c-fc1fe848fa87","system_id":"levelo_inurba_marseille","lat":43.3081,"lon":5.4352,"is_reserved":false,"is_disabled":false,"rental_uris":{"android":"levelo://app?vid=55fea5e7-e440-416a-842c-fc1fe848fa87","ios":"levelo://app?vid=55fea5e7-e440-416a-842c-fc1fe848fa87"},"vehicle_type_id":"4","last_reported":1736464112,"current_range_meters":38800,"station_id":"ce4bhph2rcd13ifvqheg","pricing_plan_id":"cebpf4jnsgd1na2vs0mg"},{"bike_id":"afa2f74c-aedb-47b2-97a5-134023fc4e7f","system_id":"levelo_inurba_marseille","lat":43.2607,"lon":5.39385,"is_reserved":false,"is_disabled":false,"rental_uris":{"android":"levelo://app?vid=afa2f74c-aedb-47b2-97a5-134023fc4e7f","ios":"levelo://app?vid=afa2f74c-aedb-47b2-97a5-134023fc4e7f"},"vehicle_type_id":"4","last_reported":1736464112,"current_range_meters":39200,"station_id":"ce4bhh92rcd13ifvqfj0","pricing_plan_id":"cebpf4jnsgd1na2vs0mg"},{"bike_id":"53d6a716-2f6e-4189-b40c-4c7a43101f5c","system_id":"levelo_inurba_marseille","lat":43.31705,"lon":5.37772,"is_reserved":false,"is_disabled":false,"rental_uris":{"android":"levelo://app?vid=53d6a716-2f6e-4189-b40c-4c7a43101f5c","ios":"levelo://app?vid=53d6a716-2f6e-4189-b40c-4c7a43101f5c"},"vehicle_type_id":"4","last_reported":1736464112,"current_range_meters":37600,"station_id":"ce4bgth2rcd13ifvqch0","pricing_plan_id":"cebpf4jnsgd1na2vs0mg"},{"bike_id":"09758ab2-87d2-4511-bbf5-77efd8530345","system_id":"levelo_inurba_marseille","lat":43.28954,"lon":5.3637,"is_reserved":false,"is_disabled":false,"rental_uris":{"android":"levelo://app?vid=09758ab2-87d2-4511-bbf5-77efd8530345","ios":"levelo://app?vid=09758ab2-87d2-4511-bbf5-77efd8530345"},"vehicle_type_id":"4","last_reported":1736464112,"current_range_meters":8000,"station_id":"ce4bhc92rcd13ifvqetg","pricing_plan_id":"cebpf4jnsgd1na2vs0mg"},{"bike_id":"e93f83ab-0e3e-4fd9-8d9e-6775678c8e02","system_id":"levelo_inurba_marseille","lat":43.3302,"lon":5.39055,"is_reserved":false,"is_disabled":false,"rental_uris":{"android":"levelo://app?vid=e93f83ab-0e3e-4fd9-8d9e-6775678c8e02","ios":"levelo://app?vid=e93f83ab-0e3e-4fd9-8d9e-6775678c8e02"},"vehicle_type_id":"4","last_reported":1736464112,"current_range_meters":38800,"station_id":"ce4bhr92rcd13ifvqhrg","pricing_plan_id":"cebpf4jnsgd1na2vs0mg"},{"bike_id":"63c28a27-4281-4c19-a194-95b864bba408","system_id":"levelo_inurba_marseille","lat":43.31082,"lon":5.38359,"is_reserved":false,"is_disabled":false,"rental_uris":{"android":"levelo://app?vid=63c28a27-4281-4c19-a194-95b864bba408","ios":"levelo://app?vid=63c28a27-4281-4c19-a194-95b864bba408"},"vehicle_type_id":"4","last_reported":1736464112,"current_range_meters":38800,"station_id":"ce4bgv92rcd13ifvqcr0","pricing_plan_id":"cebpf4jnsgd1na2vs0mg"},{"bike_id":"ec089d31-68e9-41f6-8882-3ea1c7c6730b","system_id":"levelo_inurba_marseille","lat":43.32338,"lon":5.40614,"is_reserved":false,"is_disabled":false,"rental_uris":{"android":"levelo://app?vid=ec089d31-68e9-41f6-8882-3ea1c7c6730b","ios":"levelo://app?vid=ec089d31-68e9-41f6-8882-3ea1c7c6730b"},"vehicle_type_id":"4","last_reported":1736464112,"current_range_meters":38400,"station_id":"ce4bhq92rcd13ifvqhjg","pricing_plan_id":"cebpf4jnsgd1na2vs0mg"},{"bike_id":"27b5647d-ca62-42d8-bbac-f5c71be57bb5","system_id":"levelo_inurba_marseille","lat":43.29443,"lon":5.39745,"is_reserved":false,"is_disabled":false,"rental_uris":{"android":"levelo://app?vid=27b5647d-ca62-42d8-bbac-f5c71be57bb5","ios":"levelo://app?vid=27b5647d-ca62-42d8-bbac-f5c71be57bb5"},"vehicle_type_id":"4","last_reported":1736464112,"current_range_meters":36800,"station_id":"ce4bh3h2rcd13ifvqdo0","pricing_plan_id":"cebpf4jnsgd1na2vs0mg"},{"bike_id":"78ccac9a-f5e4-490f-841f-cd6ed2c22949","system_id":"levelo_inurba_marseille","lat":43.3253,"lon":5.41458,"is_reserved":false,"is_disabled":false,"rental_uris":{"android":"levelo://app?vid=78ccac9a-f5e4-490f-841f-cd6ed2c22949","ios":"levelo://app?vid=78ccac9a-f5e4-490f-841f-cd6ed2c22949"},"vehicle_type_id":"4","last_reported":1736464112,"current_range_meters":38000,"station_id":"ce4bhq12rcd13ifvqhhg","pricing_plan_id":"cebpf4jnsgd1na2vs0mg"},{"bike_id":"b0fafa40-bba8-4c31-b33c-cf20f34626d1","system_id":"levelo_inurba_marseille","lat":43.31168,"lon":5.38718,"is_reserved":false,"is_disabled":false,"rental_uris":{"android":"levelo://app?vid=b0fafa40-bba8-4c31-b33c-cf20f34626d1","ios":"levelo://app?vid=b0fafa40-bba8-4c31-b33c-cf20f34626d1"},"vehicle_type_id":"4","last_reported":1736464112,"current_range_meters":37600,"station_id":"ce4bgv12rcd13ifvqcp0","pricing_plan_id":"cebpf4jnsgd1na2vs0mg"},{"bike_id":"214b9b5f-19f1-491f-af4e-5e03bf6adf13","system_id":"levelo_inurba_marseille","lat":43.28355,"lon":5.3812,"is_reserved":false,"is_disabled":false,"rental_uris":{"android":"levelo://app?vid=214b9b5f-19f1-491f-af4e-5e03bf6adf13","ios":"levelo://app?vid=214b9b5f-19f1-491f-af4e-5e03bf6adf13"},"vehicle_type_id":"4","last_reported":1736464112,"current_range_meters":31200,"station_id":"ce4bh412rcd13ifvqdr0","pricing_plan_id":"cebpf4jnsgd1na2vs0mg"},{"bike_id":"780493d4-89a9-4cb8-8c11-206c98688626","system_id":"levelo_inurba_marseille","lat":43.24089,"lon":5.37697,"is_reserved":false,"is_disabled":false,"rental_uris":{"android":"levelo://app?vid=780493d4-89a9-4cb8-8c11-206c98688626","ios":"levelo://app?vid=780493d4-89a9-4cb8-8c11-206c98688626"},"vehicle_type_id":"4","last_reported":1736464112,"current_range_meters":37600,"station_id":"ce4bhnp2rcd13ifvqgvg","pricing_plan_id":"cebpf4jnsgd1na2vs0mg"},{"bike_id":"4283d4d0-3a84-4f4f-958d-08b7bb254c9b","system_id":"levelo_inurba_marseille","lat":43.30794,"lon":5.37645,"is_reserved":false,"is_disabled":false,"rental_uris":{"android":"levelo://app?vid=4283d4d0-3a84-4f4f-958d-08b7bb254c9b","ios":"levelo://app?vid=4283d4d0-3a84-4f4f-958d-08b7bb254c9b"},"vehicle_type_id":"4","last_reported":1736464112,"current_range_meters":38800,"station_id":"ce4bgv92rcd13ifvqcq0","pricing_plan_id":"cebpf4jnsgd1na2vs0mg"},{"bike_id":"5900bca9-7a17-4753-b91d-33adc9c94c3b","system_id":"levelo_inurba_marseille","lat":43.289393,"lon":5.364013,"is_reserved":false,"is_disabled":false,"rental_uris":{"android":"levelo://app?vid=5900bca9-7a17-4753-b91d-33adc9c94c3b","ios":"levelo://app?vid=5900bca9-7a17-4753-b91d-33adc9c94c3b"},"vehicle_type_id":"4","last_reported":1736464112,"current_range_meters":30400,"station_id":"ce4bhc92rcd13ifvqetg","pricing_plan_id":"cebpf4jnsgd1na2vs0mg"},{"bike_id":"c257a268-0e75-4aeb-a6cf-2a946a2c8544","system_id":"levelo_inurba_marseille","lat":43.27179,"lon":5.40994,"is_reserved":false,"is_disabled":false,"rental_uris":{"android":"levelo://app?vid=c257a268-0e75-4aeb-a6cf-2a946a2c8544","ios":"levelo://app?vid=c257a268-0e75-4aeb-a6cf-2a946a2c8544"},"vehicle_type_id":"4","last_reported":1736464112,"current_range_meters":26800,"station_id":"ce4bhl12rcd13ifvqgf0","pricing_plan_id":"cebpf4jnsgd1na2vs0mg"},{"bike_id":"9c034c72-3b9e-49ce-9a4d-4c4d5e20e5dd","system_id":"levelo_inurba_marseille","lat":43.32998,"lon":5.39001,"is_reserved":false,"is_disabled":false,"rental_uris":{"android":"levelo://app?vid=9c034c72-3b9e-49ce-9a4d-4c4d5e20e5dd","ios":"levelo://app?vid=9c034c72-3b9e-49ce-9a4d-4c4d5e20e5dd"},"vehicle_type_id":"4","last_reported":1736464112,"current_range_meters":11600,"station_id":"ce4bhr92rcd13ifvqhrg","pricing_plan_id":"cebpf4jnsgd1na2vs0mg"},{"bike_id":"5521374a-910d-44eb-8d93-ffc242709188","system_id":"levelo_inurba_marseille","lat":43.31403,"lon":5.37415,"is_reserved":false,"is_disabled":false,"rental_uris":{"android":"levelo://app?vid=5521374a-910d-44eb-8d93-ffc242709188","ios":"levelo://app?vid=5521374a-910d-44eb-8d93-ffc242709188"},"vehicle_type_id":"4","last_reported":1736464112,"current_range_meters":12400,"station_id":"","pricing_plan_id":"cebpf4jnsgd1na2vs0mg"},{"bike_id":"d4b9ec52-492e-41b6-8dae-be3aec56cf81","system_id":"levelo_inurba_marseille","lat":43.28628,"lon":5.35115,"is_reserved":false,"is_disabled":false,"rental_uris":{"android":"levelo://app?vid=d4b9ec52-492e-41b6-8dae-be3aec56cf81","ios":"levelo://app?vid=d4b9ec52-492e-41b6-8dae-be3aec56cf81"},"vehicle_type_id":"4","last_reported":1736464112,"current_range_meters":12400,"station_id":"ce4bhch2rcd13ifvqeug","pricing_plan_id":"cebpf4jnsgd1na2vs0mg"},{"bike_id":"d564cb8f-aa2f-4363-8156-40c4871cbd15","system_id":"levelo_inurba_marseille","lat":43.25141,"lon":5.40276,"is_reserved":false,"is_disabled":false,"rental_uris":{"android":"levelo://app?vid=d564cb8f-aa2f-4363-8156-40c4871cbd15","ios":"levelo://app?vid=d564cb8f-aa2f-4363-8156-40c4871cbd15"},"vehicle_type_id":"4","last_reported":1736464112,"current_range_meters":9200,"station_id":"ce4bhlh2rcd13ifvqgig","pricing_plan_id":"cebpf4jnsgd1na2vs0mg"},{"bike_id":"37d8e1ef-d932-49d7-b893-49542cf44d13","system_id":"levelo_inurba_marseille","lat":43.32345,"lon":5.40629,"is_reserved":false,"is_disabled":true,"rental_uris":{"android":"levelo://app?vid=37d8e1ef-d932-49d7-b893-49542cf44d13","ios":"levelo://app?vid=37d8e1ef-d932-49d7-b893-49542cf44d13"},"vehicle_type_id":"4","last_reported":1736464112,"current_range_meters":0,"station_id":"ce4bhq92rcd13ifvqhjg","pricing_plan_id":"cebpf4jnsgd1na2vs0mg"},{"bike_id":"458c3d58-e6a5-4d1a-8df2-05d9cb3e0072","system_id":"levelo_inurba_marseille","lat":43.25571,"lon":5.38235,"is_reserved":false,"is_disabled":false,"rental_uris":{"android":"levelo://app?vid=458c3d58-e6a5-4d1a-8df2-05d9cb3e0072","ios":"levelo://app?vid=458c3d58-e6a5-4d1a-8df2-05d9cb3e0072"},"vehicle_type_id":"4","last_reported":1736464112,"current_range_meters":19200,"station_id":"ce4bhih2rcd13ifvqfs0","pricing_plan_id":"cebpf4jnsgd1na2vs0mg"},{"bike_id":"10f7d31a-ef8d-4e8a-acbf-8aa9a8c72143","system_id":"levelo_inurba_marseille","lat":43.24392,"lon":5.37045,"is_reserved":false,"is_disabled":false,"rental_uris":{"android":"levelo://app?vid=10f7d31a-ef8d-4e8a-acbf-8aa9a8c72143","ios":"levelo://app?vid=10f7d31a-ef8d-4e8a-acbf-8aa9a8c72143"},"vehicle_type_id":"4","last_reported":1736464112,"current_range_meters":26000,"station_id":"ce4bhhh2rcd13ifvqfk0","pricing_plan_id":"cebpf4jnsgd1na2vs0mg"},{"bike_id":"833f2d13-21a2-4e7a-8f9c-a8278c8098e2","system_id":"levelo_inurba_marseille","lat":43.31685,"lon":5.4047,"is_reserved":false,"is_disabled":false,"rental_uris":{"android":"levelo://app?vid=833f2d13-21a2-4e7a-8f9c-a8278c8098e2","ios":"levelo://app?vid=833f2d13-21a2-4e7a-8f9c-a8278c8098e2"},"vehicle_type_id":"4","last_reported":1736464112,"current_range_meters":25200,"station_id":"ce4bh012rcd13ifvqd00","pricing_plan_id":"cebpf4jnsgd1na2vs0mg"},{"bike_id":"265ccaa9-677e-4387-a485-17aa67c4f6fa","system_id":"levelo_inurba_marseille","lat":43.2923,"lon":5.37197,"is_reserved":false,"is_disabled":false,"rental_uris":{"android":"levelo://app?vid=265ccaa9-677e-4387-a485-17aa67c4f6fa","ios":"levelo://app?vid=265ccaa9-677e-4387-a485-17aa67c4f6fa"},"vehicle_type_id":"4","last_reported":1736464112,"current_range_meters":29600,"station_id":"","pricing_plan_id":"cebpf4jnsgd1na2vs0mg"},{"bike_id":"769f0a4c-2b15-4779-92f0-2d70aea7d518","system_id":"levelo_inurba_marseille","lat":43.28339,"lon":5.38095,"is_reserved":false,"is_disabled":false,"rental_uris":{"android":"levelo://app?vid=769f0a4c-2b15-4779-92f0-2d70aea7d518","ios":"levelo://app?vid=769f0a4c-2b15-4779-92f0-2d70aea7d518"},"vehicle_type_id":"4","last_reported":1736464112,"current_range_meters":24000,"station_id":"ce4bh412rcd13ifvqdr0","pricing_plan_id":"cebpf4jnsgd1na2vs0mg"},{"bike_id":"a2b8733f-18d3-4c7f-a699-4ad1eee082fe","system_id":"levelo_inurba_marseille","lat":43.31721,"lon":5.42414,"is_reserved":false,"is_disabled":false,"rental_uris":{"android":"levelo://app?vid=a2b8733f-18d3-4c7f-a699-4ad1eee082fe","ios":"levelo://app?vid=a2b8733f-18d3-4c7f-a699-4ad1eee082fe"},"vehicle_type_id":"4","last_reported":1736464112,"current_range_meters":38800,"station_id":"ce4bhp92rcd13ifvqhbg","pricing_plan_id":"cebpf4jnsgd1na2vs0mg"},{"bike_id":"eb8ec716-9ed9-4f14-bfcc-bb23ae5fe60a","system_id":"levelo_inurba_marseille","lat":43.3089,"lon":5.37192,"is_reserved":false,"is_disabled":false,"rental_uris":{"android":"levelo://app?vid=eb8ec716-9ed9-4f14-bfcc-bb23ae5fe60a","ios":"levelo://app?vid=eb8ec716-9ed9-4f14-bfcc-bb23ae5fe60a"},"vehicle_type_id":"4","last_reported":1736464112,"current_range_meters":19600,"station_id":"ce4bguh2rcd13ifvqckg","pricing_plan_id":"cebpf4jnsgd1na2vs0mg"},{"bike_id":"c0206d3b-e2e9-423c-9056-fc2381d7e8b1","system_id":"levelo_inurba_marseille","lat":43.29597,"lon":5.38086,"is_reserved":false,"is_disabled":true,"rental_uris":{"android":"levelo://app?vid=c0206d3b-e2e9-423c-9056-fc2381d7e8b1","ios":"levelo://app?vid=c0206d3b-e2e9-423c-9056-fc2381d7e8b1"},"vehicle_type_id":"4","last_reported":1736464112,"current_range_meters":28400,"station_id":"ce4bgl12rcd13ifvqbo0","pricing_plan_id":"cebpf4jnsgd1na2vs0mg"},{"bike_id":"385264b1-4061-488d-8853-f978ac44f3cb","system_id":"levelo_inurba_marseille","lat":43.29287,"lon":5.40853,"is_reserved":false,"is_disabled":false,"rental_uris":{"android":"levelo://app?vid=385264b1-4061-488d-8853-f978ac44f3cb","ios":"levelo://app?vid=385264b1-4061-488d-8853-f978ac44f3cb"},"vehicle_type_id":"4","last_reported":1736464112,"current_range_meters":38800,"station_id":"ce4bh192rcd13ifvqdc0","pricing_plan_id":"cebpf4jnsgd1na2vs0mg"},{"bike_id":"4b9552e7-7313-44cc-ba72-6ebb3cfea997","system_id":"levelo_inurba_marseille","lat":43.26053,"lon":5.39396,"is_reserved":false,"is_disabled":false,"rental_uris":{"android":"levelo://app?vid=4b9552e7-7313-44cc-ba72-6ebb3cfea997","ios":"levelo://app?vid=4b9552e7-7313-44cc-ba72-6ebb3cfea997"},"vehicle_type_id":"4","last_reported":1736464112,"current_range_meters":38800,"station_id":"ce4bhh92rcd13ifvqfj0","pricing_plan_id":"cebpf4jnsgd1na2vs0mg"},{"bike_id":"c150f8af-fc8f-4eb5-ac98-0b06dadf4ce0","system_id":"levelo_inurba_marseille","lat":43.25583,"lon":5.38219,"is_reserved":false,"is_disabled":false,"rental_uris":{"android":"levelo://app?vid=c150f8af-fc8f-4eb5-ac98-0b06dadf4ce0","ios":"levelo://app?vid=c150f8af-fc8f-4eb5-ac98-0b06dadf4ce0"},"vehicle_type_id":"4","last_reported":1736464112,"current_range_meters":36400,"station_id":"ce4bhih2rcd13ifvqfs0","pricing_plan_id":"cebpf4jnsgd1na2vs0mg"},{"bike_id":"98516c6c-770c-419d-b009-47d399b69de8","system_id":"levelo_inurba_marseille","lat":43.28042,"lon":5.36945,"is_reserved":false,"is_disabled":false,"rental_uris":{"android":"levelo://app?vid=98516c6c-770c-419d-b009-47d399b69de8","ios":"levelo://app?vid=98516c6c-770c-419d-b009-47d399b69de8"},"vehicle_type_id":"4","last_reported":1736464112,"current_range_meters":39200,"station_id":"ce4bha12rcd13ifvqef0","pricing_plan_id":"cebpf4jnsgd1na2vs0mg"},{"bike_id":"bd6f090a-63c4-4856-adcf-8f9d44b0b172","system_id":"levelo_inurba_marseille","lat":43.32337,"lon":5.40612,"is_reserved":false,"is_disabled":false,"rental_uris":{"android":"levelo://app?vid=bd6f090a-63c4-4856-adcf-8f9d44b0b172","ios":"levelo://app?vid=bd6f090a-63c4-4856-adcf-8f9d44b0b172"},"vehicle_type_id":"4","last_reported":1736464112,"current_range_meters":32400,"station_id":"ce4bhq92rcd13ifvqhjg","pricing_plan_id":"cebpf4jnsgd1na2vs0mg"},{"bike_id":"80e6d864-209b-44fb-bebb-aeae347160a6","system_id":"levelo_inurba_marseille","lat":43.24086,"lon":5.37758,"is_reserved":false,"is_disabled":false,"rental_uris":{"android":"levelo://app?vid=80e6d864-209b-44fb-bebb-aeae347160a6","ios":"levelo://app?vid=80e6d864-209b-44fb-bebb-aeae347160a6"},"vehicle_type_id":"4","last_reported":1736464112,"current_range_meters":25600,"station_id":"ce4bhnp2rcd13ifvqgvg","pricing_plan_id":"cebpf4jnsgd1na2vs0mg"},{"bike_id":"f25bca06-58e2-4668-99f6-4f1ba0ec5e2b","system_id":"levelo_inurba_marseille","lat":43.30424,"lon":5.38926,"is_reserved":false,"is_disabled":false,"rental_uris":{"android":"levelo://app?vid=f25bca06-58e2-4668-99f6-4f1ba0ec5e2b","ios":"levelo://app?vid=f25bca06-58e2-4668-99f6-4f1ba0ec5e2b"},"vehicle_type_id":"4","last_reported":1736464112,"current_range_meters":39200,"station_id":"ce4bgk12rcd13ifvqbi0","pricing_plan_id":"cebpf4jnsgd1na2vs0mg"},{"bike_id":"1a2f0ab1-f66c-49a5-8317-c823c5c59ec8","system_id":"levelo_inurba_marseille","lat":43.28285,"lon":5.35078,"is_reserved":false,"is_disabled":false,"rental_uris":{"android":"levelo://app?vid=1a2f0ab1-f66c-49a5-8317-c823c5c59ec8","ios":"levelo://app?vid=1a2f0ab1-f66c-49a5-8317-c823c5c59ec8"},"vehicle_type_id":"4","last_reported":1736464112,"current_range_meters":8800,"station_id":"ce4bhbp2rcd13ifvqerg","pricing_plan_id":"cebpf4jnsgd1na2vs0mg"},{"bike_id":"60ce1b70-e47d-4caf-abee-52e7d5bfe299","system_id":"levelo_inurba_marseille","lat":43.24662,"lon":5.38907,"is_reserved":false,"is_disabled":false,"rental_uris":{"android":"levelo://app?vid=60ce1b70-e47d-4caf-abee-52e7d5bfe299","ios":"levelo://app?vid=60ce1b70-e47d-4caf-abee-52e7d5bfe299"},"vehicle_type_id":"4","last_reported":1736464112,"current_range_meters":36800,"station_id":"ce4bhg12rcd13ifvqf60","pricing_plan_id":"cebpf4jnsgd1na2vs0mg"},{"bike_id":"7627c0f8-e30b-4018-a991-3dd21750fc78","system_id":"levelo_inurba_marseille","lat":43.28707,"lon":5.37951,"is_reserved":false,"is_disabled":true,"rental_uris":{"android":"levelo://app?vid=7627c0f8-e30b-4018-a991-3dd21750fc78","ios":"levelo://app?vid=7627c0f8-e30b-4018-a991-3dd21750fc78"},"vehicle_type_id":"4","last_reported":1736464112,"current_range_meters":38800,"station_id":"ce4bh9p2rcd13ifvqec0","pricing_plan_id":"cebpf4jnsgd1na2vs0mg"},{"bike_id":"bf34816d-cef3-45df-a814-b99e8dc67c6d","system_id":"levelo_inurba_marseille","lat":43.23187,"lon":5.39986,"is_reserved":false,"is_disabled":false,"rental_uris":{"android":"levelo://app?vid=bf34816d-cef3-45df-a814-b99e8dc67c6d","ios":"levelo://app?vid=bf34816d-cef3-45df-a814-b99e8dc67c6d"},"vehicle_type_id":"4","last_reported":1736464112,"current_range_meters":38800,"station_id":"ce4bhn12rcd13ifvqgqg","pricing_plan_id":"cebpf4jnsgd1na2vs0mg"},{"bike_id":"fdd1c975-72e3-4a95-84d0-3b98dbe8418d","system_id":"levelo_inurba_marseille","lat":43.2784,"lon":5.40702,"is_reserved":false,"is_disabled":false,"rental_uris":{"android":"levelo://app?vid=fdd1c975-72e3-4a95-84d0-3b98dbe8418d","ios":"levelo://app?vid=fdd1c975-72e3-4a95-84d0-3b98dbe8418d"},"vehicle_type_id":"4","last_reported":1736464112,"current_range_meters":37600,"station_id":"ce4bhnh2rcd13ifvqgtg","pricing_plan_id":"cebpf4jnsgd1na2vs0mg"},{"bike_id":"1a384f5f-6317-4052-aef8-4ec0b89855d7","system_id":"levelo_inurba_marseille","lat":43.28704,"lon":5.39984,"is_reserved":false,"is_disabled":false,"rental_uris":{"android":"levelo://app?vid=1a384f5f-6317-4052-aef8-4ec0b89855d7","ios":"levelo://app?vid=1a384f5f-6317-4052-aef8-4ec0b89855d7"},"vehicle_type_id":"4","last_reported":1736464112,"current_range_meters":16800,"station_id":"ce4bho92rcd13ifvqh3g","pricing_plan_id":"cebpf4jnsgd1na2vs0mg"},{"bike_id":"5d936a77-9a97-44aa-8f10-c405e2c81429","system_id":"levelo_inurba_marseille","lat":43.31326,"lon":5.39691,"is_reserved":false,"is_disabled":false,"rental_uris":{"android":"levelo://app?vid=5d936a77-9a97-44aa-8f10-c405e2c81429","ios":"levelo://app?vid=5d936a77-9a97-44aa-8f10-c405e2c81429"},"vehicle_type_id":"4","last_reported":1736464112,"current_range_meters":32400,"station_id":"ce4bgvp2rcd13ifvqcu0","pricing_plan_id":"cebpf4jnsgd1na2vs0mg"},{"bike_id":"48998462-e2fe-4046-8dbf-a3db091ad704","system_id":"levelo_inurba_marseille","lat":43.25566,"lon":5.38238,"is_reserved":false,"is_disabled":true,"rental_uris":{"android":"levelo://app?vid=48998462-e2fe-4046-8dbf-a3db091ad704","ios":"levelo://app?vid=48998462-e2fe-4046-8dbf-a3db091ad704"},"vehicle_type_id":"4","last_reported":1736464112,"current_range_meters":25600,"station_id":"ce4bhih2rcd13ifvqfs0","pricing_plan_id":"cebpf4jnsgd1na2vs0mg"},{"bike_id":"cad4a6a5-5208-47dd-a17d-ca38efa63f22","system_id":"levelo_inurba_marseille","lat":43.31064,"lon":5.3821,"is_reserved":false,"is_disabled":true,"rental_uris":{"android":"levelo://app?vid=cad4a6a5-5208-47dd-a17d-ca38efa63f22","ios":"levelo://app?vid=cad4a6a5-5208-47dd-a17d-ca38efa63f22"},"vehicle_type_id":"4","last_reported":1736464112,"current_range_meters":28400,"station_id":"","pricing_plan_id":"cebpf4jnsgd1na2vs0mg"},{"bike_id":"59680959-993e-49d5-827b-d5b17bfefc71","system_id":"levelo_inurba_marseille","lat":43.27812,"lon":5.39204,"is_reserved":false,"is_disabled":true,"rental_uris":{"android":"levelo://app?vid=59680959-993e-49d5-827b-d5b17bfefc71","ios":"levelo://app?vid=59680959-993e-49d5-827b-d5b17bfefc71"},"vehicle_type_id":"4","last_reported":1736464112,"current_range_meters":1600,"station_id":"ce4bhjp2rcd13ifvqga0","pricing_plan_id":"cebpf4jnsgd1na2vs0mg"},{"bike_id":"56066566-e71e-4864-b4c5-3cf252ae8ebf","system_id":"levelo_inurba_marseille","lat":43.28157,"lon":5.42648,"is_reserved":false,"is_disabled":false,"rental_uris":{"android":"levelo://app?vid=56066566-e71e-4864-b4c5-3cf252ae8ebf","ios":"levelo://app?vid=56066566-e71e-4864-b4c5-3cf252ae8ebf"},"vehicle_type_id":"4","last_reported":1736464112,"current_range_meters":27200,"station_id":"ce4bhnh2rcd13ifvqgug","pricing_plan_id":"cebpf4jnsgd1na2vs0mg"},{"bike_id":"fc1057d4-90a1-4917-8219-50abd6b84da3","system_id":"levelo_inurba_marseille","lat":43.32077,"lon":5.36809,"is_reserved":false,"is_disabled":false,"rental_uris":{"android":"levelo://app?vid=fc1057d4-90a1-4917-8219-50abd6b84da3","ios":"levelo://app?vid=fc1057d4-90a1-4917-8219-50abd6b84da3"},"vehicle_type_id":"4","last_reported":1736464112,"current_range_meters":25200,"station_id":"ce4bhrh2rcd13ifvqhug","pricing_plan_id":"cebpf4jnsgd1na2vs0mg"},{"bike_id":"4f8f2366-d8ce-4c12-8ff1-9881cb0f3be0","system_id":"levelo_inurba_marseille","lat":43.27944,"lon":5.41051,"is_reserved":false,"is_disabled":false,"rental_uris":{"android":"levelo://app?vid=4f8f2366-d8ce-4c12-8ff1-9881cb0f3be0","ios":"levelo://app?vid=4f8f2366-d8ce-4c12-8ff1-9881cb0f3be0"},"vehicle_type_id":"4","last_reported":1736464112,"current_range_meters":25600,"station_id":"ce4bhnp2rcd13ifvqh0g","pricing_plan_id":"cebpf4jnsgd1na2vs0mg"},{"bike_id":"aa637afa-5dab-4e4f-a5b1-a846e41a59b6","system_id":"levelo_inurba_marseille","lat":43.24039,"lon":5.3777,"is_reserved":false,"is_disabled":false,"rental_uris":{"android":"levelo://app?vid=aa637afa-5dab-4e4f-a5b1-a846e41a59b6","ios":"levelo://app?vid=aa637afa-5dab-4e4f-a5b1-a846e41a59b6"},"vehicle_type_id":"4","last_reported":1736464112,"current_range_meters":38000,"station_id":"ce4bhnp2rcd13ifvqgvg","pricing_plan_id":"cebpf4jnsgd1na2vs0mg"},{"bike_id":"0ef3ebb3-ef22-4405-9956-256235530679","system_id":"levelo_inurba_marseille","lat":43.31113,"lon":5.37763,"is_reserved":false,"is_disabled":false,"rental_uris":{"android":"levelo://app?vid=0ef3ebb3-ef22-4405-9956-256235530679","ios":"levelo://app?vid=0ef3ebb3-ef22-4405-9956-256235530679"},"vehicle_type_id":"4","last_reported":1736464112,"current_range_meters":36800,"station_id":"ce4bgt92rcd13ifvqcg0","pricing_plan_id":"cebpf4jnsgd1na2vs0mg"},{"bike_id":"7475f743-fa68-4b23-ab37-60e01b01184f","system_id":"levelo_inurba_marseille","lat":43.32097,"lon":5.36853,"is_reserved":false,"is_disabled":false,"rental_uris":{"android":"levelo://app?vid=7475f743-fa68-4b23-ab37-60e01b01184f","ios":"levelo://app?vid=7475f743-fa68-4b23-ab37-60e01b01184f"},"vehicle_type_id":"4","last_reported":1736464112,"current_range_meters":34800,"station_id":"ce4bhrh2rcd13ifvqhug","pricing_plan_id":"cebpf4jnsgd1na2vs0mg"},{"bike_id":"d1d000c4-6fcf-4cb4-a087-1ba0652affb6","system_id":"levelo_inurba_marseille","lat":43.27873,"lon":5.3801,"is_reserved":false,"is_disabled":false,"rental_uris":{"android":"levelo://app?vid=d1d000c4-6fcf-4cb4-a087-1ba0652affb6","ios":"levelo://app?vid=d1d000c4-6fcf-4cb4-a087-1ba0652affb6"},"vehicle_type_id":"4","last_reported":1736464112,"current_range_meters":37600,"station_id":"ce4bhf92rcd13ifvqf50","pricing_plan_id":"cebpf4jnsgd1na2vs0mg"},{"bike_id":"5cf29208-2372-494a-8ba6-49dc999fdb5d","system_id":"levelo_inurba_marseille","lat":43.28455,"lon":5.35903,"is_reserved":false,"is_disabled":false,"rental_uris":{"android":"levelo://app?vid=5cf29208-2372-494a-8ba6-49dc999fdb5d","ios":"levelo://app?vid=5cf29208-2372-494a-8ba6-49dc999fdb5d"},"vehicle_type_id":"4","last_reported":1736464112,"current_range_meters":6400,"station_id":"ce4bhah2rcd13ifvqei0","pricing_plan_id":"cebpf4jnsgd1na2vs0mg"},{"bike_id":"32e4f23c-4681-4116-80d2-6e73c5fc5a79","system_id":"levelo_inurba_marseille","lat":43.28451,"lon":5.35897,"is_reserved":false,"is_disabled":false,"rental_uris":{"android":"levelo://app?vid=32e4f23c-4681-4116-80d2-6e73c5fc5a79","ios":"levelo://app?vid=32e4f23c-4681-4116-80d2-6e73c5fc5a79"},"vehicle_type_id":"4","last_reported":1736464112,"current_range_meters":30000,"station_id":"ce4bhah2rcd13ifvqei0","pricing_plan_id":"cebpf4jnsgd1na2vs0mg"},{"bike_id":"95137cb2-3e5e-4bda-b53c-fb03d7bd6ba3","system_id":"levelo_inurba_marseille","lat":43.3093,"lon":5.40144,"is_reserved":false,"is_disabled":false,"rental_uris":{"android":"levelo://app?vid=95137cb2-3e5e-4bda-b53c-fb03d7bd6ba3","ios":"levelo://app?vid=95137cb2-3e5e-4bda-b53c-fb03d7bd6ba3"},"vehicle_type_id":"4","last_reported":1736464112,"current_range_meters":38000,"station_id":"ce4bgvp2rcd13ifvqct0","pricing_plan_id":"cebpf4jnsgd1na2vs0mg"},{"bike_id":"9a317132-64ac-46cf-a22f-3828debffdf3","system_id":"levelo_inurba_marseille","lat":43.33613,"lon":5.41032,"is_reserved":false,"is_disabled":false,"rental_uris":{"android":"levelo://app?vid=9a317132-64ac-46cf-a22f-3828debffdf3","ios":"levelo://app?vid=9a317132-64ac-46cf-a22f-3828debffdf3"},"vehicle_type_id":"4","last_reported":1736464112,"current_range_meters":27200,"station_id":"ce4bhqh2rcd13ifvqhmg","pricing_plan_id":"cebpf4jnsgd1na2vs0mg"},{"bike_id":"3d97d3e0-d45c-47c2-9a56-3b2182dc5b15","system_id":"levelo_inurba_marseille","lat":43.27947,"lon":5.38727,"is_reserved":false,"is_disabled":true,"rental_uris":{"android":"levelo://app?vid=3d97d3e0-d45c-47c2-9a56-3b2182dc5b15","ios":"levelo://app?vid=3d97d3e0-d45c-47c2-9a56-3b2182dc5b15"},"vehicle_type_id":"4","last_reported":1736464112,"current_range_meters":0,"station_id":"ce4bhg12rcd13ifvqf80","pricing_plan_id":"cebpf4jnsgd1na2vs0mg"},{"bike_id":"823c8575-8623-4f9d-b212-32e17c339b79","system_id":"levelo_inurba_marseille","lat":43.29801,"lon":5.40415,"is_reserved":false,"is_disabled":false,"rental_uris":{"android":"levelo://app?vid=823c8575-8623-4f9d-b212-32e17c339b79","ios":"levelo://app?vid=823c8575-8623-4f9d-b212-32e17c339b79"},"vehicle_type_id":"4","last_reported":1736464112,"current_range_meters":38800,"station_id":"ce4bh112rcd13ifvqd90","pricing_plan_id":"cebpf4jnsgd1na2vs0mg"},{"bike_id":"941336d8-cbdc-4d16-8677-6483f7579cc9","system_id":"levelo_inurba_marseille","lat":43.26209,"lon":5.37443,"is_reserved":false,"is_disabled":false,"rental_uris":{"android":"levelo://app?vid=941336d8-cbdc-4d16-8677-6483f7579cc9","ios":"levelo://app?vid=941336d8-cbdc-4d16-8677-6483f7579cc9"},"vehicle_type_id":"4","last_reported":1736464112,"current_range_meters":25200,"station_id":"ce4bhgp2rcd13ifvqfc0","pricing_plan_id":"cebpf4jnsgd1na2vs0mg"},{"bike_id":"87ce24d1-2898-442b-8045-27ec953b3ea6","system_id":"levelo_inurba_marseille","lat":43.33615,"lon":5.41019,"is_reserved":false,"is_disabled":false,"rental_uris":{"android":"levelo://app?vid=87ce24d1-2898-442b-8045-27ec953b3ea6","ios":"levelo://app?vid=87ce24d1-2898-442b-8045-27ec953b3ea6"},"vehicle_type_id":"4","last_reported":1736464112,"current_range_meters":38800,"station_id":"ce4bhqh2rcd13ifvqhmg","pricing_plan_id":"cebpf4jnsgd1na2vs0mg"},{"bike_id":"2eb264c8-1e8d-4f17-a831-3cda07857865","system_id":"levelo_inurba_marseille","lat":43.321112,"lon":5.367783,"is_reserved":false,"is_disabled":false,"rental_uris":{"android":"levelo://app?vid=2eb264c8-1e8d-4f17-a831-3cda07857865","ios":"levelo://app?vid=2eb264c8-1e8d-4f17-a831-3cda07857865"},"vehicle_type_id":"4","last_reported":1736464112,"current_range_meters":36800,"station_id":"ce4bhrh2rcd13ifvqhug","pricing_plan_id":"cebpf4jnsgd1na2vs0mg"},{"bike_id":"01c271f5-76bb-43c9-9ffa-59f26cb0ed1e","system_id":"levelo_inurba_marseille","lat":43.28935,"lon":5.36404,"is_reserved":false,"is_disabled":false,"rental_uris":{"android":"levelo://app?vid=01c271f5-76bb-43c9-9ffa-59f26cb0ed1e","ios":"levelo://app?vid=01c271f5-76bb-43c9-9ffa-59f26cb0ed1e"},"vehicle_type_id":"4","last_reported":1736464112,"current_range_meters":38800,"station_id":"ce4bhc92rcd13ifvqetg","pricing_plan_id":"cebpf4jnsgd1na2vs0mg"},{"bike_id":"c6797cf1-f0cd-4826-b75a-873856b4d3b9","system_id":"levelo_inurba_marseille","lat":43.3046,"lon":5.38907,"is_reserved":false,"is_disabled":false,"rental_uris":{"android":"levelo://app?vid=c6797cf1-f0cd-4826-b75a-873856b4d3b9","ios":"levelo://app?vid=c6797cf1-f0cd-4826-b75a-873856b4d3b9"},"vehicle_type_id":"4","last_reported":1736464112,"current_range_meters":39200,"station_id":"ce4bgk12rcd13ifvqbi0","pricing_plan_id":"cebpf4jnsgd1na2vs0mg"},{"bike_id":"1e2223a2-c032-49e7-8dbf-982df86a0520","system_id":"levelo_inurba_marseille","lat":43.2292,"lon":5.35378,"is_reserved":false,"is_disabled":false,"rental_uris":{"android":"levelo://app?vid=1e2223a2-c032-49e7-8dbf-982df86a0520","ios":"levelo://app?vid=1e2223a2-c032-49e7-8dbf-982df86a0520"},"vehicle_type_id":"4","last_reported":1736464112,"current_range_meters":35200,"station_id":"cpo3532slgdg3j2ikp40","pricing_plan_id":"cebpf4jnsgd1na2vs0mg"},{"bike_id":"4a20735a-ebc8-49e8-b75a-98caa4fb63fb","system_id":"levelo_inurba_marseille","lat":43.29912,"lon":5.39781,"is_reserved":false,"is_disabled":false,"rental_uris":{"android":"levelo://app?vid=4a20735a-ebc8-49e8-b75a-98caa4fb63fb","ios":"levelo://app?vid=4a20735a-ebc8-49e8-b75a-98caa4fb63fb"},"vehicle_type_id":"4","last_reported":1736464112,"current_range_meters":34000,"station_id":"ce4bh0h2rcd13ifvqd50","pricing_plan_id":"cebpf4jnsgd1na2vs0mg"},{"bike_id":"c9c5e0ac-efb1-41af-b5a7-fc18dd462468","system_id":"levelo_inurba_marseille","lat":43.303547,"lon":5.418703,"is_reserved":false,"is_disabled":false,"rental_uris":{"android":"levelo://app?vid=c9c5e0ac-efb1-41af-b5a7-fc18dd462468","ios":"levelo://app?vid=c9c5e0ac-efb1-41af-b5a7-fc18dd462468"},"vehicle_type_id":"4","last_reported":1736464112,"current_range_meters":34000,"station_id":"ce4bhop2rcd13ifvqh7g","pricing_plan_id":"cebpf4jnsgd1na2vs0mg"},{"bike_id":"0c4074c2-dc16-4ce5-a81a-e106d246d5dc","system_id":"levelo_inurba_marseille","lat":43.29966,"lon":5.41324,"is_reserved":false,"is_disabled":false,"rental_uris":{"android":"levelo://app?vid=0c4074c2-dc16-4ce5-a81a-e106d246d5dc","ios":"levelo://app?vid=0c4074c2-dc16-4ce5-a81a-e106d246d5dc"},"vehicle_type_id":"4","last_reported":1736464112,"current_range_meters":34000,"station_id":"ce4bhp12rcd13ifvqh9g","pricing_plan_id":"cebpf4jnsgd1na2vs0mg"},{"bike_id":"be8a233f-ad85-41b2-af03-bfa1e3033438","system_id":"levelo_inurba_marseille","lat":43.23208,"lon":5.35555,"is_reserved":false,"is_disabled":false,"rental_uris":{"android":"levelo://app?vid=be8a233f-ad85-41b2-af03-bfa1e3033438","ios":"levelo://app?vid=be8a233f-ad85-41b2-af03-bfa1e3033438"},"vehicle_type_id":"4","last_reported":1736464112,"current_range_meters":26800,"station_id":"ce4bhu92rcd13ifvqi70","pricing_plan_id":"cebpf4jnsgd1na2vs0mg"},{"bike_id":"b124ca2f-2fd0-4c56-960f-1b8a90949c3b","system_id":"levelo_inurba_marseille","lat":43.2952,"lon":5.37509,"is_reserved":false,"is_disabled":true,"rental_uris":{"android":"levelo://app?vid=b124ca2f-2fd0-4c56-960f-1b8a90949c3b","ios":"levelo://app?vid=b124ca2f-2fd0-4c56-960f-1b8a90949c3b"},"vehicle_type_id":"4","last_reported":1736464112,"current_range_meters":27600,"station_id":"ce4bgkp2rcd13ifvqbmg","pricing_plan_id":"cebpf4jnsgd1na2vs0mg"},{"bike_id":"12c2287f-9e8d-49c0-b3f9-311c8762c93f","system_id":"levelo_inurba_marseille","lat":43.31324,"lon":5.39693,"is_reserved":false,"is_disabled":false,"rental_uris":{"android":"levelo://app?vid=12c2287f-9e8d-49c0-b3f9-311c8762c93f","ios":"levelo://app?vid=12c2287f-9e8d-49c0-b3f9-311c8762c93f"},"vehicle_type_id":"4","last_reported":1736464112,"current_range_meters":25200,"station_id":"ce4bgvp2rcd13ifvqcu0","pricing_plan_id":"cebpf4jnsgd1na2vs0mg"},{"bike_id":"093d9ce3-4d12-4d1d-bdcc-8d78ef369464","system_id":"levelo_inurba_marseille","lat":43.30384,"lon":5.37087,"is_reserved":false,"is_disabled":false,"rental_uris":{"android":"levelo://app?vid=093d9ce3-4d12-4d1d-bdcc-8d78ef369464","ios":"levelo://app?vid=093d9ce3-4d12-4d1d-bdcc-8d78ef369464"},"vehicle_type_id":"4","last_reported":1736464112,"current_range_meters":20400,"station_id":"","pricing_plan_id":"cebpf4jnsgd1na2vs0mg"},{"bike_id":"2bf137df-75b1-44ad-8782-8d7ae5906911","system_id":"levelo_inurba_marseille","lat":43.304419,"lon":5.388993,"is_reserved":false,"is_disabled":false,"rental_uris":{"android":"levelo://app?vid=2bf137df-75b1-44ad-8782-8d7ae5906911","ios":"levelo://app?vid=2bf137df-75b1-44ad-8782-8d7ae5906911"},"vehicle_type_id":"4","last_reported":1736464112,"current_range_meters":36000,"station_id":"ce4bgk12rcd13ifvqbi0","pricing_plan_id":"cebpf4jnsgd1na2vs0mg"},{"bike_id":"4aad0410-bd95-44cd-abd3-4e2ef7290f2c","system_id":"levelo_inurba_marseille","lat":43.25498,"lon":5.376489,"is_reserved":false,"is_disabled":false,"rental_uris":{"android":"levelo://app?vid=4aad0410-bd95-44cd-abd3-4e2ef7290f2c","ios":"levelo://app?vid=4aad0410-bd95-44cd-abd3-4e2ef7290f2c"},"vehicle_type_id":"4","last_reported":1736464112,"current_range_meters":37600,"station_id":"ce4bhh12rcd13ifvqff0","pricing_plan_id":"cebpf4jnsgd1na2vs0mg"},{"bike_id":"d85f28c7-d3a2-47fc-8fc7-067b6a5a5b57","system_id":"levelo_inurba_marseille","lat":43.29108,"lon":5.38114,"is_reserved":false,"is_disabled":true,"rental_uris":{"android":"levelo://app?vid=d85f28c7-d3a2-47fc-8fc7-067b6a5a5b57","ios":"levelo://app?vid=d85f28c7-d3a2-47fc-8fc7-067b6a5a5b57"},"vehicle_type_id":"4","last_reported":1736464112,"current_range_meters":30400,"station_id":"ce4bh512rcd13ifvqe2g","pricing_plan_id":"cebpf4jnsgd1na2vs0mg"},{"bike_id":"c26dd1de-99fa-4c14-a41d-8ad48da74f1c","system_id":"levelo_inurba_marseille","lat":43.28713,"lon":5.36092,"is_reserved":false,"is_disabled":false,"rental_uris":{"android":"levelo://app?vid=c26dd1de-99fa-4c14-a41d-8ad48da74f1c","ios":"levelo://app?vid=c26dd1de-99fa-4c14-a41d-8ad48da74f1c"},"vehicle_type_id":"4","last_reported":1736464112,"current_range_meters":21600,"station_id":"cki0cbj6b192h4jlfktg","pricing_plan_id":"cebpf4jnsgd1na2vs0mg"},{"bike_id":"ef881fa2-0382-423c-b725-39cc23b978ee","system_id":"levelo_inurba_marseille","lat":43.292695,"lon":5.38562,"is_reserved":false,"is_disabled":false,"rental_uris":{"android":"levelo://app?vid=ef881fa2-0382-423c-b725-39cc23b978ee","ios":"levelo://app?vid=ef881fa2-0382-423c-b725-39cc23b978ee"},"vehicle_type_id":"4","last_reported":1736464112,"current_range_meters":34800,"station_id":"","pricing_plan_id":"cebpf4jnsgd1na2vs0mg"},{"bike_id":"bf9f8dc0-fe29-4988-b195-24737592967a","system_id":"levelo_inurba_marseille","lat":43.23193,"lon":5.39988,"is_reserved":false,"is_disabled":false,"rental_uris":{"android":"levelo://app?vid=bf9f8dc0-fe29-4988-b195-24737592967a","ios":"levelo://app?vid=bf9f8dc0-fe29-4988-b195-24737592967a"},"vehicle_type_id":"4","last_reported":1736464112,"current_range_meters":27600,"station_id":"ce4bhn12rcd13ifvqgqg","pricing_plan_id":"cebpf4jnsgd1na2vs0mg"},