{"last_updated":1722013651,"ttl":30,"version":"2.2","data":{"bikes":[{"bike_id":"f54848d4-cc9f-4277-b3e5-de5f44daae57","system_id":"levelo_inurba_marseille","lat":43.314811,"lon":5.373103,"is_reserved":false,"is_disabled":false,"rental_uris":{"android":"levelo://app?vid=f54848d4-cc9f-4277-b3e5-de5f44daae57","ios":"levelo://app?vid=f54848d4-cc9f-4277-b3e5-de5f44daae57"},"vehicle_type_id":"4","last_reported":1722013651,"current_range_meters":0,"station_id":"ce4bgt12rcd13ifvqcd0","pricing_plan_id":"cebpf4jnsgd1na2vs0mg"},{"bike_id":"06f4733b-3804-4c99-864c-99926d6b1526","system_id":"levelo_inurba_marseille","lat":43.3149,"lon":5.37311,"is_reserved":false,"is_disabled":false,"rental_uris":{"android":"levelo://app?vid=06f4733b-3804-4c99-864c-99926d6b1526","ios":"levelo://app?vid=06f4733b-3804-4c99-864c-99926d6b1526"},"vehicle_type_id":"4","last_reported":1722013651,"current_range_meters":3200,"station_id":"ce4bgt12rcd13ifvqcd0","pricing_plan_id":"cebpf4jnsgd1na2vs0mg"},{"bike_id":"ac4d7958-860a-41d0-8b90-70d9b97dba8f","system_id":"levelo_inurba_marseille","lat":43.314811,"lon":5.373103,"is_reserved":false,"is_disabled":false,"rental_uris":{"android":"levelo://app?vid=ac4d7958-860a-41d0-8b90-70d9b97dba8f","ios":"levelo://app?vid=ac4d7958-860a-41d0-8b90-70d9b97dba8f"},"vehicle_type_id":"4","last_reported":1722013651,"current_range_meters":6000,"station_id":"ce4bgt12rcd13ifvqcd0","pricing_plan_id":"cebpf4jnsgd1na2vs0mg"},{"bike_id":"7f03d1f2-a4b6-45fb-b6f4-6c051004b635","system_id":"levelo_inurba_marseille","lat":43.314811,"lon":5.373104,"is_reserved":false,"is_disabled":false,"rental_uris":{"android":"levelo://app?vid=7f03d1f2-a4b6-45fb-b6f4-6c051004b635","ios":"levelo://app?vid=7f03d1f2-a4b6-45fb-b6f4-6c051004b635"},"vehicle_type_id":"4","last_reported":1722013651,"current_range_meters":0,"station_id":"ce4bgt12rcd13ifvqcd0","pricing_plan_id":"cebpf4jnsgd1na2vs0mg"},{"bike_id":"221ad0ae-97d7-4b15-876c-7c2608268f3b","system_id":"levelo_inurba_marseille","lat":43.309039,"lon":5.371797,"is_reserved":false,"is_disabled":false,"rental_uris":{"android":"levelo://app?vid=221ad0ae-97d7-4b15-876c-7c2608268f3b","ios":"levelo://app?vid=221ad0ae-97d7-4b15-876c-7c2608268f3b"},"vehicle_type_id":"4","last_reported":1722013651,"current_range_meters":30000,"station_id":"ce4bguh2rcd13ifvqckg","pricing_plan_id":"cebpf4jnsgd1na2vs0mg"},{"bike_id":"8a2bfee4-d0f5-4d50-b9fa-3c3622a96b1f","system_id":"levelo_inurba_marseille","lat":43.3075,"lon":5.37204,"is_reserved":false,"is_disabled":false,"rental_uris":{"android":"levelo://app?vid=8a2bfee4-d0f5-4d50-b9fa-3c3622a96b1f","ios":"levelo://app?vid=8a2bfee4-d0f5-4d50-b9fa-3c3622a96b1f"},"vehicle_type_id":"4","last_reported":1722013651,"current_range_meters":16000,"station_id":"","pricing_plan_id":"cebpf4jnsgd1na2vs0mg"},{"bike_id":"d7cc07be-f2fa-449c-94ef-91782fecfa7b","system_id":"levelo_inurba_marseille","lat":43.30551,"lon":5.36538,"is_reserved":false,"is_disabled":false,"rental_uris":{"android":"levelo://app?vid=d7cc07be-f2fa-449c-94ef-91782fecfa7b","ios":"levelo://app?vid=d7cc07be-f2fa-449c-94ef-91782fecfa7b"},"vehicle_type_id":"4","last_reported":1722013651,"current_range_meters":24400,"station_id":"ce4bgs12rcd13ifvqcag","pricing_plan_id":"cebpf4jnsgd1na2vs0mg"},{"bike_id":"2c72edb9-4d66-4b34-a46d-355dbd49f86d","system_id":"levelo_inurba_marseille","lat":43.305714,"lon":5.365633,"is_reserved":false,"is_disabled":false,"rental_uris":{"android":"levelo://app?vid=2c72edb9-4d66-4b34-a46d-355dbd49f86d","ios":"levelo://app?vid=2c72edb9-4d66-4b34-a46d-355dbd49f86d"},"vehicle_type_id":"4","last_reported":1722013651,"current_range_meters":20800,"station_id":"ce4bgs12rcd13ifvqcag","pricing_plan_id":"cebpf4jnsgd1na2vs0mg"},{"bike_id":"2da3314b-5333-4f09-aae5-213d8f49c117","system_id":"levelo_inurba_marseille","lat":43.305368,"lon":5.367343,"is_reserved":false,"is_disabled":false,"rental_uris":{"android":"levelo://app?vid=2da3314b-5333-4f09-aae5-213d8f49c117","ios":"levelo://app?vid=2da3314b-5333-4f09-aae5-213d8f49c117"},"vehicle_type_id":"4","last_reported":1722013651,"current_range_meters":0,"station_id":"ce4bgrp2rcd13ifvqc9g","pricing_plan_id":"cebpf4jnsgd1na2vs0mg"},{"bike_id":"03fb3fd1-46ca-4579-9b55-9a38501d4562","system_id":"levelo_inurba_marseille","lat":43.305989,"lon":5.37225,"is_reserved":false,"is_disabled":false,"rental_uris":{"android":"levelo://app?vid=03fb3fd1-46ca-4579-9b55-9a38501d4562","ios":"levelo://app?vid=03fb3fd1-46ca-4579-9b55-9a38501d4562"},"vehicle_type_id":"4","last_reported":1722013651,"current_range_meters":4800,"station_id":"ce4bgqh2rcd13ifvqc4g","pricing_plan_id":"cebpf4jnsgd1na2vs0mg"},{"bike_id":"a8a46b82-d64e-48d5-ac51-b687e3e14659","system_id":"levelo_inurba_marseille","lat":43.305989,"lon":5.37225,"is_reserved":false,"is_disabled":false,"rental_uris":{"android":"levelo://app?vid=a8a46b82-d64e-48d5-ac51-b687e3e14659","ios":"levelo://app?vid=a8a46b82-d64e-48d5-ac51-b687e3e14659"},"vehicle_type_id":"4","last_reported":1722013651,"current_range_meters":2000,"station_id":"ce4bgqh2rcd13ifvqc4g","pricing_plan_id":"cebpf4jnsgd1na2vs0mg"},{"bike_id":"e07f9190-cb56-4022-9021-1712e92521ee","system_id":"levelo_inurba_marseille","lat":43.311125,"lon":5.377624,"is_reserved":false,"is_disabled":false,"rental_uris":{"android":"levelo://app?vid=e07f9190-cb56-4022-9021-1712e92521ee","ios":"levelo://app?vid=e07f9190-cb56-4022-9021-1712e92521ee"},"vehicle_type_id":"4","last_reported":1722013651,"current_range_meters":13600,"station_id":"ce4bgt92rcd13ifvqcg0","pricing_plan_id":"cebpf4jnsgd1na2vs0mg"},{"bike_id":"f42b51d0-e703-4b55-ac83-493d1fa2a3cf","system_id":"levelo_inurba_marseille","lat":43.315289,"lon":5.380349,"is_reserved":false,"is_disabled":false,"rental_uris":{"android":"levelo://app?vid=f42b51d0-e703-4b55-ac83-493d1fa2a3cf","ios":"levelo://app?vid=f42b51d0-e703-4b55-ac83-493d1fa2a3cf"},"vehicle_type_id":"4","last_reported":1722013651,"current_range_meters":20400,"station_id":"ce4bhsp2rcd13ifvqi50","pricing_plan_id":"cebpf4jnsgd1na2vs0mg"},{"bike_id":"9e58f019-43b8-4d33-b81a-836aa0ca4c39","system_id":"levelo_inurba_marseille","lat":43.315289,"lon":5.380349,"is_reserved":false,"is_disabled":false,"rental_uris":{"android":"levelo://app?vid=9e58f019-43b8-4d33-b81a-836aa0ca4c39","ios":"levelo://app?vid=9e58f019-43b8-4d33-b81a-836aa0ca4c39"},"vehicle_type_id":"4","last_reported":1722013651,"current_range_meters":24000,"station_id":"ce4bhsp2rcd13ifvqi50","pricing_plan_id":"cebpf4jnsgd1na2vs0mg"},{"bike_id":"cbc93ed7-4898-4372-a262-27253b8ae736","system_id":"levelo_inurba_marseille","lat":43.301939,"lon":5.366286,"is_reserved":false,"is_disabled":false,"rental_uris":{"android":"levelo://app?vid=cbc93ed7-4898-4372-a262-27253b8ae736","ios":"levelo://app?vid=cbc93ed7-4898-4372-a262-27253b8ae736"},"vehicle_type_id":"4","last_reported":1722013651,"current_range_meters":14000,"station_id":"ce4bgrh2rcd13ifvqc8g","pricing_plan_id":"cebpf4jnsgd1na2vs0mg"},{"bike_id":"cefc7e92-f2fe-4c59-9999-7add84002a46","system_id":"levelo_inurba_marseille","lat":43.3081,"lon":5.38145,"is_reserved":false,"is_disabled":false,"rental_uris":{"android":"levelo://app?vid=cefc7e92-f2fe-4c59-9999-7add84002a46","ios":"levelo://app?vid=cefc7e92-f2fe-4c59-9999-7add84002a46"},"vehicle_type_id":"4","last_reported":1722013651,"current_range_meters":26800,"station_id":"ce4bgt12rcd13ifvqce0","pricing_plan_id":"cebpf4jnsgd1na2vs0mg"},{"bike_id":"f73ce14a-560f-493e-843f-8aa5816f1e14","system_id":"levelo_inurba_marseille","lat":43.324771,"lon":5.36557,"is_reserved":false,"is_disabled":false,"rental_uris":{"android":"levelo://app?vid=f73ce14a-560f-493e-843f-8aa5816f1e14","ios":"levelo://app?vid=f73ce14a-560f-493e-843f-8aa5816f1e14"},"vehicle_type_id":"4","last_reported":1722013651,"current_range_meters":16800,"station_id":"ce4bhs12rcd13ifvqhvg","pricing_plan_id":"cebpf4jnsgd1na2vs0mg"},{"bike_id":"c8b23db8-43c5-438f-9faa-f837de82df73","system_id":"levelo_inurba_marseille","lat":43.32479,"lon":5.36554,"is_reserved":false,"is_disabled":false,"rental_uris":{"android":"levelo://app?vid=c8b23db8-43c5-438f-9faa-f837de82df73","ios":"levelo://app?vid=c8b23db8-43c5-438f-9faa-f837de82df73"},"vehicle_type_id":"4","last_reported":1722013651,"current_range_meters":20400,"station_id":"ce4bhs12rcd13ifvqhvg","pricing_plan_id":"cebpf4jnsgd1na2vs0mg"},{"bike_id":"e81c74b8-1ee1-48e5-a503-98b72523813e","system_id":"levelo_inurba_marseille","lat":43.3248,"lon":5.36564,"is_reserved":false,"is_disabled":false,"rental_uris":{"android":"levelo://app?vid=e81c74b8-1ee1-48e5-a503-98b72523813e","ios":"levelo://app?vid=e81c74b8-1ee1-48e5-a503-98b72523813e"},"vehicle_type_id":"4","last_reported":1722013651,"current_range_meters":0,"station_id":"ce4bhs12rcd13ifvqhvg","pricing_plan_id":"cebpf4jnsgd1na2vs0mg"},{"bike_id":"ff7e43d2-aaee-45c7-b611-207a1955f98d","system_id":"levelo_inurba_marseille","lat":43.324771,"lon":5.36557,"is_reserved":false,"is_disabled":false,"rental_uris":{"android":"levelo://app?vid=ff7e43d2-aaee-45c7-b611-207a1955f98d","ios":"levelo://app?vid=ff7e43d2-aaee-45c7-b611-207a1955f98d"},"vehicle_type_id":"4","last_reported":1722013651,"current_range_meters":21600,"station_id":"ce4bhs12rcd13ifvqhvg","pricing_plan_id":"cebpf4jnsgd1na2vs0mg"},{"bike_id":"a7b7432c-0cbc-49b1-8e66-cae00243ba24","system_id":"levelo_inurba_marseille","lat":43.324771,"lon":5.36557,"is_reserved":false,"is_disabled":false,"rental_uris":{"android":"levelo://app?vid=a7b7432c-0cbc-49b1-8e66-cae00243ba24","ios":"levelo://app?vid=a7b7432c-0cbc-49b1-8e66-cae00243ba24"},"vehicle_type_id":"4","last_reported":1722013651,"current_range_meters":8400,"station_id":"ce4bhs12rcd13ifvqhvg","pricing_plan_id":"cebpf4jnsgd1na2vs0mg"},{"bike_id":"5d3e8f69-02bc-48cb-a0f7-42b21f835ebd","system_id":"levelo_inurba_marseille","lat":43.324771,"lon":5.36557,"is_reserved":false,"is_disabled":false,"rental_uris":{"android":"levelo://app?vid=5d3e8f69-02bc-48cb-a0f7-42b21f835ebd","ios":"levelo://app?vid=5d3e8f69-02bc-48cb-a0f7-42b21f835ebd"},"vehicle_type_id":"4","last_reported":1722013651,"current_range_meters":31600,"station_id":"ce4bhs12rcd13ifvqhvg","pricing_plan_id":"cebpf4jnsgd1na2vs0mg"},{"bike_id":"b0d6a9f2-94ee-44ab-ab42-33a882e4a3ef","system_id":"levelo_inurba_marseille","lat":43.32483,"lon":5.36565,"is_reserved":false,"is_disabled":false,"rental_uris":{"android":"levelo://app?vid=b0d6a9f2-94ee-44ab-ab42-33a882e4a3ef","ios":"levelo://app?vid=b0d6a9f2-94ee-44ab-ab42-33a882e4a3ef"},"vehicle_type_id":"4","last_reported":1722013651,"current_range_meters":16400,"station_id":"ce4bhs12rcd13ifvqhvg","pricing_plan_id":"cebpf4jnsgd1na2vs0mg"},{"bike_id":"a43429da-c495-4a78-9869-74ddd0470602","system_id":"levelo_inurba_marseille","lat":43.324771,"lon":5.36557,"is_reserved":false,"is_disabled":false,"rental_uris":{"android":"levelo://app?vid=a43429da-c495-4a78-9869-74ddd0470602","ios":"levelo://app?vid=a43429da-c495-4a78-9869-74ddd0470602"},"vehicle_type_id":"4","last_reported":1722013651,"current_range_meters":31200,"station_id":"ce4bhs12rcd13ifvqhvg","pricing_plan_id":"cebpf4jnsgd1na2vs0mg"},{"bike_id":"87984912-d6bf-4f40-9287-b05aa291660c","system_id":"levelo_inurba_marseille","lat":43.310804,"lon":5.38359,"is_reserved":false,"is_disabled":false,"rental_uris":{"android":"levelo://app?vid=87984912-d6bf-4f40-9287-b05aa291660c","ios":"levelo://app?vid=87984912-d6bf-4f40-9287-b05aa291660c"},"vehicle_type_id":"4","last_reported":1722013651,"current_range_meters":0,"station_id":"ce4bgv92rcd13ifvqcr0","pricing_plan_id":"cebpf4jnsgd1na2vs0mg"},{"bike_id":"4d8e122f-12ee-4cfd-8614-f276a13ca3c7","system_id":"levelo_inurba_marseille","lat":43.310804,"lon":5.38359,"is_reserved":false,"is_disabled":false,"rental_uris":{"android":"levelo://app?vid=4d8e122f-12ee-4cfd-8614-f276a13ca3c7","ios":"levelo://app?vid=4d8e122f-12ee-4cfd-8614-f276a13ca3c7"},"vehicle_type_id":"4","last_reported":1722013651,"current_range_meters":2800,"station_id":"ce4bgv92rcd13ifvqcr0","pricing_plan_id":"cebpf4jnsgd1na2vs0mg"},{"bike_id":"0b238968-0acf-4f4c-bfb2-0cf3e374f6c2","system_id":"levelo_inurba_marseille","lat":43.310804,"lon":5.38359,"is_reserved":false,"is_disabled":false,"rental_uris":{"android":"levelo://app?vid=0b238968-0acf-4f4c-bfb2-0cf3e374f6c2","ios":"levelo://app?vid=0b238968-0acf-4f4c-bfb2-0cf3e374f6c2"},"vehicle_type_id":"4","last_reported":1722013651,"current_range_meters":28800,"station_id":"ce4bgv92rcd13ifvqcr0","pricing_plan_id":"cebpf4jnsgd1na2vs0mg"},{"bike_id":"dcde0fc9-8eb7-42e0-9cf7-06e82ee92c29","system_id":"levelo_inurba_marseille","lat":43.30143,"lon":5.37413,"is_reserved":false,"is_disabled":false,"rental_uris":{"android":"levelo://app?vid=dcde0fc9-8eb7-42e0-9cf7-06e82ee92c29","ios":"levelo://app?vid=dcde0fc9-8eb7-42e0-9cf7-06e82ee92c29"},"vehicle_type_id":"4","last_reported":1722013651,"current_range_meters":0,"station_id":"ce4bgs92rcd13ifvqcc0","pricing_plan_id":"cebpf4jnsgd1na2vs0mg"},{"bike_id":"0739787b-4d7a-451f-a552-bc360c4bf3b1","system_id":"levelo_inurba_marseille","lat":43.302784,"lon":5.377158,"is_reserved":false,"is_disabled":false,"rental_uris":{"android":"levelo://app?vid=0739787b-4d7a-451f-a552-bc360c4bf3b1","ios":"levelo://app?vid=0739787b-4d7a-451f-a552-bc360c4bf3b1"},"vehicle_type_id":"4","last_reported":1722013651,"current_range_meters":25600,"station_id":"ce4bguh2rcd13ifvqcj0","pricing_plan_id":"cebpf4jnsgd1na2vs0mg"},{"bike_id":"8adbdf14-c63a-4438-bc4a-5b44358cdb30","system_id":"levelo_inurba_marseille","lat":43.302784,"lon":5.377158,"is_reserved":false,"is_disabled":false,"rental_uris":{"android":"levelo://app?vid=8adbdf14-c63a-4438-bc4a-5b44358cdb30","ios":"levelo://app?vid=8adbdf14-c63a-4438-bc4a-5b44358cdb30"},"vehicle_type_id":"4","last_reported":1722013651,"current_range_meters":16400,"station_id":"ce4bguh2rcd13ifvqcj0","pricing_plan_id":"cebpf4jnsgd1na2vs0mg"},{"bike_id":"4068bbec-f0e2-4171-8d51-5cbc13fb8ed9","system_id":"levelo_inurba_marseille","lat":43.30639,"lon":5.38221,"is_reserved":false,"is_disabled":false,"rental_uris":{"android":"levelo://app?vid=4068bbec-f0e2-4171-8d51-5cbc13fb8ed9","ios":"levelo://app?vid=4068bbec-f0e2-4171-8d51-5cbc13fb8ed9"},"vehicle_type_id":"4","last_reported":1722013651,"current_range_meters":4400,"station_id":"","pricing_plan_id":"cebpf4jnsgd1na2vs0mg"},{"bike_id":"330ae057-8ccd-4c66-9df5-94cab675c6e2","system_id":"levelo_inurba_marseille","lat":43.319935,"lon":5.381699,"is_reserved":false,"is_disabled":false,"rental_uris":{"android":"levelo://app?vid=330ae057-8ccd-4c66-9df5-94cab675c6e2","ios":"levelo://app?vid=330ae057-8ccd-4c66-9df5-94cab675c6e2"},"vehicle_type_id":"4","last_reported":1722013651,"current_range_meters":26400,"station_id":"ce4bhr12rcd13ifvqhpg","pricing_plan_id":"cebpf4jnsgd1na2vs0mg"},{"bike_id":"8bd1243a-8708-4976-9774-a89138295fce","system_id":"levelo_inurba_marseille","lat":43.299724,"lon":5.371829,"is_reserved":false,"is_disabled":false,"rental_uris":{"android":"levelo://app?vid=8bd1243a-8708-4976-9774-a89138295fce","ios":"levelo://app?vid=8bd1243a-8708-4976-9774-a89138295fce"},"vehicle_type_id":"4","last_reported":1722013651,"current_range_meters":800,"station_id":"ce4bgr92rcd13ifvqc7g","pricing_plan_id":"cebpf4jnsgd1na2vs0mg"},{"bike_id":"e9f4f25e-94df-4019-a75c-c756de0bdd94","system_id":"levelo_inurba_marseille","lat":43.296935,"lon":5.376544,"is_reserved":false,"is_disabled":false,"rental_uris":{"android":"levelo://app?vid=e9f4f25e-94df-4019-a75c-c756de0bdd94","ios":"levelo://app?vid=e9f4f25e-94df-4019-a75c-c756de0bdd94"},"vehicle_type_id":"4","last_reported":1722013651,"current_range_meters":1200,"station_id":"ce4bgkh2rcd13ifvqbl0","pricing_plan_id":"cebpf4jnsgd1na2vs0mg"},{"bike_id":"8a45c611-965c-41ae-8e5e-b920059c1ceb","system_id":"levelo_inurba_marseille","lat":43.299724,"lon":5.371829,"is_reserved":false,"is_disabled":false,"rental_uris":{"android":"levelo://app?vid=8a45c611-965c-41ae-8e5e-b920059c1ceb","ios":"levelo://app?vid=8a45c611-965c-41ae-8e5e-b920059c1ceb"},"vehicle_type_id":"4","last_reported":1722013651,"current_range_meters":17200,"station_id":"ce4bgr92rcd13ifvqc7g","pricing_plan_id":"cebpf4jnsgd1na2vs0mg"},{"bike_id":"b7af7592-e819-4260-9392-f4287917aa5b","system_id":"levelo_inurba_marseille","lat":43.31172,"lon":5.38707,"is_reserved":false,"is_disabled":false,"rental_uris":{"android":"levelo://app?vid=b7af7592-e819-4260-9392-f4287917aa5b","ios":"levelo://app?vid=b7af7592-e819-4260-9392-f4287917aa5b"},"vehicle_type_id":"4","last_reported":1722013651,"current_range_meters":7600,"station_id":"ce4bgv12rcd13ifvqcp0","pricing_plan_id":"cebpf4jnsgd1na2vs0mg"},{"bike_id":"73c0e0c3-24b6-4baf-a2c6-319766aeca3a","system_id":"levelo_inurba_marseille","lat":43.30151,"lon":5.38077,"is_reserved":false,"is_disabled":false,"rental_uris":{"android":"levelo://app?vid=73c0e0c3-24b6-4baf-a2c6-319766aeca3a","ios":"levelo://app?vid=73c0e0c3-24b6-4baf-a2c6-319766aeca3a"},"vehicle_type_id":"4","last_reported":1722013651,"current_range_meters":0,"station_id":"","pricing_plan_id":"cebpf4jnsgd1na2vs0mg"},{"bike_id":"03515ae1-aaf2-47c7-b153-9cee5ff0e043","system_id":"levelo_inurba_marseille","lat":43.3228,"lon":5.38261,"is_reserved":false,"is_disabled":false,"rental_uris":{"android":"levelo://app?vid=03515ae1-aaf2-47c7-b153-9cee5ff0e043","ios":"levelo://app?vid=03515ae1-aaf2-47c7-b153-9cee5ff0e043"},"vehicle_type_id":"4","last_reported":1722013651,"current_range_meters":18800,"station_id":"ce4bhr12rcd13ifvqhqg","pricing_plan_id":"cebpf4jnsgd1na2vs0mg"},{"bike_id":"23234f76-9a1d-4d15-874a-c29949cb8179","system_id":"levelo_inurba_marseille","lat":43.322813,"lon":5.382717,"is_reserved":false,"is_disabled":false,"rental_uris":{"android":"levelo://app?vid=23234f76-9a1d-4d15-874a-c29949cb8179","ios":"levelo://app?vid=23234f76-9a1d-4d15-874a-c29949cb8179"},"vehicle_type_id":"4","last_reported":1722013651,"current_range_meters":11600,"station_id":"ce4bhr12rcd13ifvqhqg","pricing_plan_id":"cebpf4jnsgd1na2vs0mg"},{"bike_id":"cdfb6b3f-d6fb-4d7e-9a55-66403d9de1cd","system_id":"levelo_inurba_marseille","lat":43.322883,"lon":5.38264,"is_reserved":false,"is_disabled":false,"rental_uris":{"android":"levelo://app?vid=cdfb6b3f-d6fb-4d7e-9a55-66403d9de1cd","ios":"levelo://app?vid=cdfb6b3f-d6fb-4d7e-9a55-66403d9de1cd"},"vehicle_type_id":"4","last_reported":1722013651,"current_range_meters":23200,"station_id":"ce4bhr12rcd13ifvqhqg","pricing_plan_id":"cebpf4jnsgd1na2vs0mg"},{"bike_id":"24446359-0fc6-4da5-b78f-1f896a783a5c","system_id":"levelo_inurba_marseille","lat":43.322872,"lon":5.382756,"is_reserved":false,"is_disabled":false,"rental_uris":{"android":"levelo://app?vid=24446359-0fc6-4da5-b78f-1f896a783a5c","ios":"levelo://app?vid=24446359-0fc6-4da5-b78f-1f896a783a5c"},"vehicle_type_id":"4","last_reported":1722013651,"current_range_meters":0,"station_id":"ce4bhr12rcd13ifvqhqg","pricing_plan_id":"cebpf4jnsgd1na2vs0mg"},{"bike_id":"2cf031a2-badc-4caa-8971-abd0f4114693","system_id":"levelo_inurba_marseille","lat":43.29712,"lon":5.36606,"is_reserved":false,"is_disabled":false,"rental_uris":{"android":"levelo://app?vid=2cf031a2-badc-4caa-8971-abd0f4114693","ios":"levelo://app?vid=2cf031a2-badc-4caa-8971-abd0f4114693"},"vehicle_type_id":"4","last_reported":1722013651,"current_range_meters":0,"station_id":"ce4bgn12rcd13ifvqbt0","pricing_plan_id":"cebpf4jnsgd1na2vs0mg"},{"bike_id":"ad7a1b59-c482-47ba-b55d-7374fbf13368","system_id":"levelo_inurba_marseille","lat":43.297163,"lon":5.365866,"is_reserved":false,"is_disabled":false,"rental_uris":{"android":"levelo://app?vid=ad7a1b59-c482-47ba-b55d-7374fbf13368","ios":"levelo://app?vid=ad7a1b59-c482-47ba-b55d-7374fbf13368"},"vehicle_type_id":"4","last_reported":1722013651,"current_range_meters":18000,"station_id":"ce4bgn12rcd13ifvqbt0","pricing_plan_id":"cebpf4jnsgd1na2vs0mg"},{"bike_id":"af2061a6-8670-460f-b676-aa8bcd74871f","system_id":"levelo_inurba_marseille","lat":43.296131,"lon":5.370791,"is_reserved":false,"is_disabled":false,"rental_uris":{"android":"levelo://app?vid=af2061a6-8670-460f-b676-aa8bcd74871f","ios":"levelo://app?vid=af2061a6-8670-460f-b676-aa8bcd74871f"},"vehicle_type_id":"4","last_reported":1722013651,"current_range_meters":0,"station_id":"ce4bgnh2rcd13ifvqc0g","pricing_plan_id":"cebpf4jnsgd1na2vs0mg"},{"bike_id":"49165824-4219-4ec3-81c8-b1040ae95cc2","system_id":"levelo_inurba_marseille","lat":43.290104,"lon":5.356111,"is_reserved":false,"is_disabled":false,"rental_uris":{"android":"levelo://app?vid=49165824-4219-4ec3-81c8-b1040ae95cc2","ios":"levelo://app?vid=49165824-4219-4ec3-81c8-b1040ae95cc2"},"vehicle_type_id":"4","last_reported":1722013651,"current_range_meters":2000,"station_id":"ce4bhb92rcd13ifvqen0","pricing_plan_id":"cebpf4jnsgd1na2vs0mg"},{"bike_id":"dc15350b-aace-47a2-890e-cd8df97233e5","system_id":"levelo_inurba_marseille","lat":43.2991,"lon":5.38142,"is_reserved":false,"is_disabled":false,"rental_uris":{"android":"levelo://app?vid=dc15350b-aace-47a2-890e-cd8df97233e5","ios":"levelo://app?vid=dc15350b-aace-47a2-890e-cd8df97233e5"},"vehicle_type_id":"4","last_reported":1722013651,"current_range_meters":10000,"station_id":"ce4bgj12rcd13ifvqbc0","pricing_plan_id":"cebpf4jnsgd1na2vs0mg"},{"bike_id":"4ce09559-b92a-46ce-945d-1859821c279c","system_id":"levelo_inurba_marseille","lat":43.296921,"lon":5.376579,"is_reserved":false,"is_disabled":false,"rental_uris":{"android":"levelo://app?vid=4ce09559-b92a-46ce-945d-1859821c279c","ios":"levelo://app?vid=4ce09559-b92a-46ce-945d-1859821c279c"},"vehicle_type_id":"4","last_reported":1722013651,"current_range_meters":4000,"station_id":"ce4bgkh2rcd13ifvqbl0","pricing_plan_id":"cebpf4jnsgd1na2vs0mg"},{"bike_id":"c75d8295-fdc6-4b38-a459-694bd0cd1802","system_id":"levelo_inurba_marseille","lat":43.309589,"lon":5.390258,"is_reserved":false,"is_disabled":false,"rental_uris":{"android":"levelo://app?vid=c75d8295-fdc6-4b38-a459-694bd0cd1802","ios":"levelo://app?vid=c75d8295-fdc6-4b38-a459-694bd0cd1802"},"vehicle_type_id":"4","last_reported":1722013651,"current_range_meters":2800,"station_id":"ce4bgup2rcd13ifvqco0","pricing_plan_id":"cebpf4jnsgd1na2vs0mg"},{"bike_id":"85febf1f-5ca2-46a7-b2b6-194e62a136b2","system_id":"levelo_inurba_marseille","lat":43.309589,"lon":5.390258,"is_reserved":false,"is_disabled":false,"rental_uris":{"android":"levelo://app?vid=85febf1f-5ca2-46a7-b2b6-194e62a136b2","ios":"levelo://app?vid=85febf1f-5ca2-46a7-b2b6-194e62a136b2"},"vehicle_type_id":"4","last_reported":1722013651,"current_range_meters":13200,"station_id":"ce4bgup2rcd13ifvqco0","pricing_plan_id":"cebpf4jnsgd1na2vs0mg"},{"bike_id":"86acf878-772d-4954-b020-efff85189919","system_id":"levelo_inurba_marseille","lat":43.309589,"lon":5.390258,"is_reserved":false,"is_disabled":false,"rental_uris":{"android":"levelo://app?vid=86acf878-772d-4954-b020-efff85189919","ios":"levelo://app?vid=86acf878-772d-4954-b020-efff85189919"},"vehicle_type_id":"4","last_reported":1722013651,"current_range_meters":12000,"station_id":"ce4bgup2rcd13ifvqco0","pricing_plan_id":"cebpf4jnsgd1na2vs0mg"},{"bike_id":"cb0a33d9-c6a4-4e2d-884b-960eaa6e6dd2","system_id":"levelo_inurba_marseille","lat":43.309589,"lon":5.390258,"is_reserved":false,"is_disabled":false,"rental_uris":{"android":"levelo://app?vid=cb0a33d9-c6a4-4e2d-884b-960eaa6e6dd2","ios":"levelo://app?vid=cb0a33d9-c6a4-4e2d-884b-960eaa6e6dd2"},"vehicle_type_id":"4","last_reported":1722013651,"current_range_meters":400,"station_id":"ce4bgup2rcd13ifvqco0","pricing_plan_id":"cebpf4jnsgd1na2vs0mg"},{"bike_id":"f2c30a27-f3d3-4785-bf86-84a8366d063f","system_id":"levelo_inurba_marseille","lat":43.30954,"lon":5.3904,"is_reserved":false,"is_disabled":false,"rental_uris":{"android":"levelo://app?vid=f2c30a27-f3d3-4785-bf86-84a8366d063f","ios":"levelo://app?vid=f2c30a27-f3d3-4785-bf86-84a8366d063f"},"vehicle_type_id":"4","last_reported":1722013651,"current_range_meters":0,"station_id":"ce4bgup2rcd13ifvqco0","pricing_plan_id":"cebpf4jnsgd1na2vs0mg"},{"bike_id":"b66ffa02-dea8-4593-bd04-3f6b50e5895d","system_id":"levelo_inurba_marseille","lat":43.298037,"lon":5.381066,"is_reserved":false,"is_disabled":false,"rental_uris":{"android":"levelo://app?vid=b66ffa02-dea8-4593-bd04-3f6b50e5895d","ios":"levelo://app?vid=b66ffa02-dea8-4593-bd04-3f6b50e5895d"},"vehicle_type_id":"4","last_reported":1722013651,"current_range_meters":2800,"station_id":"ce4bgip2rcd13ifvqbb0","pricing_plan_id":"cebpf4jnsgd1na2vs0mg"},{"bike_id":"3df62670-34c4-49c4-b7b9-43af29a8c89b","system_id":"levelo_inurba_marseille","lat":43.298037,"lon":5.381066,"is_reserved":false,"is_disabled":false,"rental_uris":{"android":"levelo://app?vid=3df62670-34c4-49c4-b7b9-43af29a8c89b","ios":"levelo://app?vid=3df62670-34c4-49c4-b7b9-43af29a8c89b"},"vehicle_type_id":"4","last_reported":1722013651,"current_range_meters":0,"station_id":"ce4bgip2rcd13ifvqbb0","pricing_plan_id":"cebpf4jnsgd1na2vs0mg"},{"bike_id":"b43ce087-896b-47b4-aea2-112866c7796a","system_id":"levelo_inurba_marseille","lat":43.30437,"lon":5.38883,"is_reserved":false,"is_disabled":false,"rental_uris":{"android":"levelo://app?vid=b43ce087-896b-47b4-aea2-112866c7796a","ios":"levelo://app?vid=b43ce087-896b-47b4-aea2-112866c7796a"},"vehicle_type_id":"4","last_reported":1722013651,"current_range_meters":800,"station_id":"ce4bgk12rcd13ifvqbi0","pricing_plan_id":"cebpf4jnsgd1na2vs0mg"},{"bike_id":"0f953a9b-e902-46b7-9a38-d9ef7a8c989b","system_id":"levelo_inurba_marseille","lat":43.298037,"lon":5.381066,"is_reserved":false,"is_disabled":false,"rental_uris":{"android":"levelo://app?vid=0f953a9b-e902-46b7-9a38-d9ef7a8c989b","ios":"levelo://app?vid=0f953a9b-e902-46b7-9a38-d9ef7a8c989b"},"vehicle_type_id":"4","last_reported":1722013651,"current_range_meters":0,"station_id":"ce4bgip2rcd13ifvqbb0","pricing_plan_id":"cebpf4jnsgd1na2vs0mg"},{"bike_id":"ee344323-67ca-482f-a3ba-f78675c44909","system_id":"levelo_inurba_marseille","lat":43.298037,"lon":5.381066,"is_reserved":false,"is_disabled":false,"rental_uris":{"android":"levelo://app?vid=ee344323-67ca-482f-a3ba-f78675c44909","ios":"levelo://app?vid=ee344323-67ca-482f-a3ba-f78675c44909"},"vehicle_type_id":"4","last_reported":1722013651,"current_range_meters":2000,"station_id":"ce4bgip2rcd13ifvqbb0","pricing_plan_id":"cebpf4jnsgd1na2vs0mg"},{"bike_id":"d45ea70f-ee19-47e9-9aca-14f9c72787f5","system_id":"levelo_inurba_marseille","lat":43.2957,"lon":5.375,"is_reserved":false,"is_disabled":false,"rental_uris":{"android":"levelo://app?vid=d45ea70f-ee19-47e9-9aca-14f9c72787f5","ios":"levelo://app?vid=d45ea70f-ee19-47e9-9aca-14f9c72787f5"},"vehicle_type_id":"4","last_reported":1722013651,"current_range_meters":13600,"station_id":"ce4bgh92rcd13ifvqb50","pricing_plan_id":"cebpf4jnsgd1na2vs0mg"},{"bike_id":"2247a731-e8e1-4e60-a467-a3116a7c4fb0","system_id":"levelo_inurba_marseille","lat":43.296277,"lon":5.377108,"is_reserved":false,"is_disabled":false,"rental_uris":{"android":"levelo://app?vid=2247a731-e8e1-4e60-a467-a3116a7c4fb0","ios":"levelo://app?vid=2247a731-e8e1-4e60-a467-a3116a7c4fb0"},"vehicle_type_id":"4","last_reported":1722013651,"current_range_meters":24400,"station_id":"ce4bgi92rcd13ifvqb90","pricing_plan_id":"cebpf4jnsgd1na2vs0mg"},{"bike_id":"79b4a18b-f32e-458e-b91d-2e9c95a4cc0b","system_id":"levelo_inurba_marseille","lat":43.29618,"lon":5.37718,"is_reserved":false,"is_disabled":false,"rental_uris":{"android":"levelo://app?vid=79b4a18b-f32e-458e-b91d-2e9c95a4cc0b","ios":"levelo://app?vid=79b4a18b-f32e-458e-b91d-2e9c95a4cc0b"},"vehicle_type_id":"4","last_reported":1722013651,"current_range_meters":0,"station_id":"ce4bgi92rcd13ifvqb90","pricing_plan_id":"cebpf4jnsgd1na2vs0mg"},{"bike_id":"e13812e2-5b96-495e-b9e8-639e867729c9","system_id":"levelo_inurba_marseille","lat":43.304274,"lon":5.388873,"is_reserved":false,"is_disabled":false,"rental_uris":{"android":"levelo://app?vid=e13812e2-5b96-495e-b9e8-639e867729c9","ios":"levelo://app?vid=e13812e2-5b96-495e-b9e8-639e867729c9"},"vehicle_type_id":"4","last_reported":1722013651,"current_range_meters":1600,"station_id":"ce4bgk12rcd13ifvqbi0","pricing_plan_id":"cebpf4jnsgd1na2vs0mg"},{"bike_id":"5896bc5b-b172-4740-841d-2c6867b77434","system_id":"levelo_inurba_marseille","lat":43.295279,"lon":5.375048,"is_reserved":false,"is_disabled":false,"rental_uris":{"android":"levelo://app?vid=5896bc5b-b172-4740-841d-2c6867b77434","ios":"levelo://app?vid=5896bc5b-b172-4740-841d-2c6867b77434"},"vehicle_type_id":"4","last_reported":1722013651,"current_range_meters":21600,"station_id":"ce4bgkp2rcd13ifvqbmg","pricing_plan_id":"cebpf4jnsgd1na2vs0mg"},{"bike_id":"bb8a9ce0-45eb-41eb-b277-7a4ea26aa6b6","system_id":"levelo_inurba_marseille","lat":43.29988,"lon":5.38467,"is_reserved":false,"is_disabled":false,"rental_uris":{"android":"levelo://app?vid=bb8a9ce0-45eb-41eb-b277-7a4ea26aa6b6","ios":"levelo://app?vid=bb8a9ce0-45eb-41eb-b277-7a4ea26aa6b6"},"vehicle_type_id":"4","last_reported":1722013651,"current_range_meters":0,"station_id":"ce4bgj92rcd13ifvqbd0","pricing_plan_id":"cebpf4jnsgd1na2vs0mg"},{"bike_id":"6296decb-9a13-494b-9c78-ea8e601d3fb7","system_id":"levelo_inurba_marseille","lat":43.29978,"lon":5.38483,"is_reserved":false,"is_disabled":false,"rental_uris":{"android":"levelo://app?vid=6296decb-9a13-494b-9c78-ea8e601d3fb7","ios":"levelo://app?vid=6296decb-9a13-494b-9c78-ea8e601d3fb7"},"vehicle_type_id":"4","last_reported":1722013651,"current_range_meters":30800,"station_id":"ce4bgj92rcd13ifvqbd0","pricing_plan_id":"cebpf4jnsgd1na2vs0mg"},{"bike_id":"ded5b5df-c7c4-48bf-9eb1-953c0d9f1fc8","system_id":"levelo_inurba_marseille","lat":43.299724,"lon":5.384848,"is_reserved":false,"is_disabled":false,"rental_uris":{"android":"levelo://app?vid=ded5b5df-c7c4-48bf-9eb1-953c0d9f1fc8","ios":"levelo://app?vid=ded5b5df-c7c4-48bf-9eb1-953c0d9f1fc8"},"vehicle_type_id":"4","last_reported":1722013651,"current_range_meters":30000,"station_id":"ce4bgj92rcd13ifvqbd0","pricing_plan_id":"cebpf4jnsgd1na2vs0mg"},{"bike_id":"894b40c1-92f2-4d07-85cf-543b8ab9bed3","system_id":"levelo_inurba_marseille","lat":43.299717,"lon":5.384845,"is_reserved":false,"is_disabled":false,"rental_uris":{"android":"levelo://app?vid=894b40c1-92f2-4d07-85cf-543b8ab9bed3","ios":"levelo://app?vid=894b40c1-92f2-4d07-85cf-543b8ab9bed3"},"vehicle_type_id":"4","last_reported":1722013651,"current_range_meters":11200,"station_id":"ce4bgj92rcd13ifvqbd0","pricing_plan_id":"cebpf4jnsgd1na2vs0mg"},{"bike_id":"edd0ffe8-9899-4fcd-98ae-559cf2db1c6e","system_id":"levelo_inurba_marseille","lat":43.299707,"lon":5.384859,"is_reserved":false,"is_disabled":false,"rental_uris":{"android":"levelo://app?vid=edd0ffe8-9899-4fcd-98ae-559cf2db1c6e","ios":"levelo://app?vid=edd0ffe8-9899-4fcd-98ae-559cf2db1c6e"},"vehicle_type_id":"4","last_reported":1722013651,"current_range_meters":21200,"station_id":"ce4bgj92rcd13ifvqbd0","pricing_plan_id":"cebpf4jnsgd1na2vs0mg"},{"bike_id":"665380bc-c4c6-48b6-a3bd-68a1da3ba63f","system_id":"levelo_inurba_marseille","lat":43.299724,"lon":5.384848,"is_reserved":false,"is_disabled":false,"rental_uris":{"android":"levelo://app?vid=665380bc-c4c6-48b6-a3bd-68a1da3ba63f","ios":"levelo://app?vid=665380bc-c4c6-48b6-a3bd-68a1da3ba63f"},"vehicle_type_id":"4","last_reported":1722013651,"current_range_meters":25600,"station_id":"ce4bgj92rcd13ifvqbd0","pricing_plan_id":"cebpf4jnsgd1na2vs0mg"},{"bike_id":"fd718697-0877-41f9-8a4d-88846c9d1bc6","system_id":"levelo_inurba_marseille","lat":43.30139,"lon":5.3878,"is_reserved":false,"is_disabled":false,"rental_uris":{"android":"levelo://app?vid=fd718697-0877-41f9-8a4d-88846c9d1bc6","ios":"levelo://app?vid=fd718697-0877-41f9-8a4d-88846c9d1bc6"},"vehicle_type_id":"4","last_reported":1722013651,"current_range_meters":30400,"station_id":"","pricing_plan_id":"cebpf4jnsgd1na2vs0mg"},{"bike_id":"50618b70-c19c-4694-bbff-60f9817ed22d","system_id":"levelo_inurba_marseille","lat":43.301396,"lon":5.387812,"is_reserved":false,"is_disabled":false,"rental_uris":{"android":"levelo://app?vid=50618b70-c19c-4694-bbff-60f9817ed22d","ios":"levelo://app?vid=50618b70-c19c-4694-bbff-60f9817ed22d"},"vehicle_type_id":"4","last_reported":1722013651,"current_range_meters":23600,"station_id":"ce4bghh2rcd13ifvqb60","pricing_plan_id":"cebpf4jnsgd1na2vs0mg"},{"bike_id":"63a06a84-ade0-4906-963d-2b6fc1549bea","system_id":"levelo_inurba_marseille","lat":43.301396,"lon":5.387812,"is_reserved":false,"is_disabled":false,"rental_uris":{"android":"levelo://app?vid=63a06a84-ade0-4906-963d-2b6fc1549bea","ios":"levelo://app?vid=63a06a84-ade0-4906-963d-2b6fc1549bea"},"vehicle_type_id":"4","last_reported":1722013651,"current_range_meters":20800,"station_id":"ce4bghh2rcd13ifvqb60","pricing_plan_id":"cebpf4jnsgd1na2vs0mg"},{"bike_id":"292b642b-6ab5-4cee-b07e-3cc847559190","system_id":"levelo_inurba_marseille","lat":43.301396,"lon":5.387812,"is_reserved":false,"is_disabled":false,"rental_uris":{"android":"levelo://app?vid=292b642b-6ab5-4cee-b07e-3cc847559190","ios":"levelo://app?vid=292b642b-6ab5-4cee-b07e-3cc847559190"},"vehicle_type_id":"4","last_reported":1722013651,"current_range_meters":31200,"station_id":"ce4bghh2rcd13ifvqb60","pricing_plan_id":"cebpf4jnsgd1na2vs0mg"},{"bike_id":"6120cb9b-bebc-471f-8c79-7dc6e5cc5778","system_id":"levelo_inurba_marseille","lat":43.32367,"lon":5.388836,"is_reserved":false,"is_disabled":false,"rental_uris":{"android":"levelo://app?vid=6120cb9b-bebc-471f-8c79-7dc6e5cc5778","ios":"levelo://app?vid=6120cb9b-bebc-471f-8c79-7dc6e5cc5778"},"vehicle_type_id":"4","last_reported":1722013651,"current_range_meters":3600,"station_id":"ce4bhqp2rcd13ifvqhog","pricing_plan_id":"cebpf4jnsgd1na2vs0mg"},{"bike_id":"45d2979a-d968-46c1-9ebf-0982c59e8fa3","system_id":"levelo_inurba_marseille","lat":43.29328,"lon":5.37089,"is_reserved":false,"is_disabled":false,"rental_uris":{"android":"levelo://app?vid=45d2979a-d968-46c1-9ebf-0982c59e8fa3","ios":"levelo://app?vid=45d2979a-d968-46c1-9ebf-0982c59e8fa3"},"vehicle_type_id":"4","last_reported":1722013651,"current_range_meters":4800,"station_id":"","pricing_plan_id":"cebpf4jnsgd1na2vs0mg"},{"bike_id":"18515bb4-3cd1-465f-8079-6ad1c4f38d5e","system_id":"levelo_inurba_marseille","lat":43.293249,"lon":5.371578,"is_reserved":false,"is_disabled":false,"rental_uris":{"android":"levelo://app?vid=18515bb4-3cd1-465f-8079-6ad1c4f38d5e","ios":"levelo://app?vid=18515bb4-3cd1-465f-8079-6ad1c4f38d5e"},"vehicle_type_id":"4","last_reported":1722013651,"current_range_meters":18400,"station_id":"ce4bgh92rcd13ifvqb40","pricing_plan_id":"cebpf4jnsgd1na2vs0mg"},{"bike_id":"e953fd30-816a-4d5b-accb-32346e86e140","system_id":"levelo_inurba_marseille","lat":43.293249,"lon":5.371578,"is_reserved":false,"is_disabled":false,"rental_uris":{"android":"levelo://app?vid=e953fd30-816a-4d5b-accb-32346e86e140","ios":"levelo://app?vid=e953fd30-816a-4d5b-accb-32346e86e140"},"vehicle_type_id":"4","last_reported":1722013651,"current_range_meters":4000,"station_id":"ce4bgh92rcd13ifvqb40","pricing_plan_id":"cebpf4jnsgd1na2vs0mg"},{"bike_id":"96862073-d605-482f-8356-bc1fbb5d9f45","system_id":"levelo_inurba_marseille","lat":43.293259,"lon":5.371586,"is_reserved":false,"is_disabled":false,"rental_uris":{"android":"levelo://app?vid=96862073-d605-482f-8356-bc1fbb5d9f45","ios":"levelo://app?vid=96862073-d605-482f-8356-bc1fbb5d9f45"},"vehicle_type_id":"4","last_reported":1722013651,"current_range_meters":18000,"station_id":"ce4bgh92rcd13ifvqb40","pricing_plan_id":"cebpf4jnsgd1na2vs0mg"},{"bike_id":"c816d759-6777-40f5-9ccc-36b309e3a3ee","system_id":"levelo_inurba_marseille","lat":43.293259,"lon":5.371586,"is_reserved":false,"is_disabled":false,"rental_uris":{"android":"levelo://app?vid=c816d759-6777-40f5-9ccc-36b309e3a3ee","ios":"levelo://app?vid=c816d759-6777-40f5-9ccc-36b309e3a3ee"},"vehicle_type_id":"4","last_reported":1722013651,"current_range_meters":14000,"station_id":"ce4bgh92rcd13ifvqb40","pricing_plan_id":"cebpf4jnsgd1na2vs0mg"},{"bike_id":"8d4eaa8d-1a72-45b2-b5c0-fa562afa3b9d","system_id":"levelo_inurba_marseille","lat":43.293249,"lon":5.371578,"is_reserved":false,"is_disabled":false,"rental_uris":{"android":"levelo://app?vid=8d4eaa8d-1a72-45b2-b5c0-fa562afa3b9d","ios":"levelo://app?vid=8d4eaa8d-1a72-45b2-b5c0-fa562afa3b9d"},"vehicle_type_id":"4","last_reported":1722013651,"current_range_meters":24000,"station_id":"ce4bgh92rcd13ifvqb40","pricing_plan_id":"cebpf4jnsgd1na2vs0mg"},{"bike_id":"cc7ea3dc-b2dc-476c-a85a-17f2e7ac26ac","system_id":"levelo_inurba_marseille","lat":43.292749,"lon":5.368402,"is_reserved":false,"is_disabled":false,"rental_uris":{"android":"levelo://app?vid=cc7ea3dc-b2dc-476c-a85a-17f2e7ac26ac","ios":"levelo://app?vid=cc7ea3dc-b2dc-476c-a85a-17f2e7ac26ac"},"vehicle_type_id":"4","last_reported":1722013651,"current_range_meters":1200,"station_id":"ce4bhbp2rcd13ifvqesg","pricing_plan_id":"cebpf4jnsgd1na2vs0mg"},{"bike_id":"1ce308f0-527b-4711-a0da-1ab7eacf5d44","system_id":"levelo_inurba_marseille","lat":43.292749,"lon":5.368402,"is_reserved":false,"is_disabled":false,"rental_uris":{"android":"levelo://app?vid=1ce308f0-527b-4711-a0da-1ab7eacf5d44","ios":"levelo://app?vid=1ce308f0-527b-4711-a0da-1ab7eacf5d44"},"vehicle_type_id":"4","last_reported":1722013651,"current_range_meters":29200,"station_id":"ce4bhbp2rcd13ifvqesg","pricing_plan_id":"cebpf4jnsgd1na2vs0mg"},{"bike_id":"17529afa-ff1f-4e82-afa3-275f95a3bb99","system_id":"levelo_inurba_marseille","lat":43.293259,"lon":5.371586,"is_reserved":false,"is_disabled":false,"rental_uris":{"android":"levelo://app?vid=17529afa-ff1f-4e82-afa3-275f95a3bb99","ios":"levelo://app?vid=17529afa-ff1f-4e82-afa3-275f95a3bb99"},"vehicle_type_id":"4","last_reported":1722013651,"current_range_meters":7200,"station_id":"ce4bgh92rcd13ifvqb40","pricing_plan_id":"cebpf4jnsgd1na2vs0mg"},{"bike_id":"811b4bcc-da03-42f0-8ba8-2af52be1b7ee","system_id":"levelo_inurba_marseille","lat":43.292749,"lon":5.368398,"is_reserved":false,"is_disabled":false,"rental_uris":{"android":"levelo://app?vid=811b4bcc-da03-42f0-8ba8-2af52be1b7ee","ios":"levelo://app?vid=811b4bcc-da03-42f0-8ba8-2af52be1b7ee"},"vehicle_type_id":"4","last_reported":1722013651,"current_range_meters":3600,"station_id":"ce4bhbp2rcd13ifvqesg","pricing_plan_id":"cebpf4jnsgd1na2vs0mg"},{"bike_id":"aed5ab61-12f5-4234-8b56-45c95d1be084","system_id":"levelo_inurba_marseille","lat":43.292749,"lon":5.368402,"is_reserved":false,"is_disabled":false,"rental_uris":{"android":"levelo://app?vid=aed5ab61-12f5-4234-8b56-45c95d1be084","ios":"levelo://app?vid=aed5ab61-12f5-4234-8b56-45c95d1be084"},"vehicle_type_id":"4","last_reported":1722013651,"current_range_meters":5600,"station_id":"ce4bhbp2rcd13ifvqesg","pricing_plan_id":"cebpf4jnsgd1na2vs0mg"},{"bike_id":"971dfdd2-aafa-4e5b-bca2-e53028713815","system_id":"levelo_inurba_marseille","lat":43.292749,"lon":5.368402,"is_reserved":false,"is_disabled":false,"rental_uris":{"android":"levelo://app?vid=971dfdd2-aafa-4e5b-bca2-e53028713815","ios":"levelo://app?vid=971dfdd2-aafa-4e5b-bca2-e53028713815"},"vehicle_type_id":"4","last_reported":1722013651,"current_range_meters":19200,"station_id":"ce4bhbp2rcd13ifvqesg","pricing_plan_id":"cebpf4jnsgd1na2vs0mg"},{"bike_id":"bea2820e-9b9b-4a4d-af55-dc62d9c6e1f8","system_id":"levelo_inurba_marseille","lat":43.292749,"lon":5.368402,"is_reserved":false,"is_disabled":false,"rental_uris":{"android":"levelo://app?vid=bea2820e-9b9b-4a4d-af55-dc62d9c6e1f8","ios":"levelo://app?vid=bea2820e-9b9b-4a4d-af55-dc62d9c6e1f8"},"vehicle_type_id":"4","last_reported":1722013651,"current_range_meters":0,"station_id":"ce4bhbp2rcd13ifvqesg","pricing_plan_id":"cebpf4jnsgd1na2vs0mg"},{"bike_id":"02911b9d-825d-46eb-9579-18e7e023d120","system_id":"levelo_inurba_marseille","lat":43.292749,"lon":5.368398,"is_reserved":false,"is_disabled":false,"rental_uris":{"android":"levelo://app?vid=02911b9d-825d-46eb-9579-18e7e023d120","ios":"levelo://app?vid=02911b9d-825d-46eb-9579-18e7e023d120"},"vehicle_type_id":"4","last_reported":1722013651,"current_range_meters":17600,"station_id":"ce4bhbp2rcd13ifvqesg","pricing_plan_id":"cebpf4jnsgd1na2vs0mg"},{"bike_id":"caa9a6e1-4b97-4edb-92ac-00fa9fae1a3f","system_id":"levelo_inurba_marseille","lat":43.29312,"lon":5.37459,"is_reserved":false,"is_disabled":false,"rental_uris":{"android":"levelo://app?vid=caa9a6e1-4b97-4edb-92ac-00fa9fae1a3f","ios":"levelo://app?vid=caa9a6e1-4b97-4edb-92ac-00fa9fae1a3f"},"vehicle_type_id":"4","last_reported":1722013651,"current_range_meters":28400,"station_id":"ce4bgi12rcd13ifvqb70","pricing_plan_id":"cebpf4jnsgd1na2vs0mg"},{"bike_id":"d75a5536-3058-47ad-9fd2-cf44a079ace5","system_id":"levelo_inurba_marseille","lat":43.305994,"lon":5.393687,"is_reserved":false,"is_disabled":false,"rental_uris":{"android":"levelo://app?vid=d75a5536-3058-47ad-9fd2-cf44a079ace5","ios":"levelo://app?vid=d75a5536-3058-47ad-9fd2-cf44a079ace5"},"vehicle_type_id":"4","last_reported":1722013651,"current_range_meters":0,"station_id":"ce4bh0p2rcd13ifvqd80","pricing_plan_id":"cebpf4jnsgd1na2vs0mg"},{"bike_id":"f0bafbf4-128b-4ef9-bc43-ba158532e4be","system_id":"levelo_inurba_marseille","lat":43.293009,"lon":5.374584,"is_reserved":false,"is_disabled":false,"rental_uris":{"android":"levelo://app?vid=f0bafbf4-128b-4ef9-bc43-ba158532e4be","ios":"levelo://app?vid=f0bafbf4-128b-4ef9-bc43-ba158532e4be"},"vehicle_type_id":"4","last_reported":1722013651,"current_range_meters":20800,"station_id":"ce4bgi12rcd13ifvqb70","pricing_plan_id":"cebpf4jnsgd1na2vs0mg"},{"bike_id":"ca3fbc93-d351-48fc-a5e3-40e10228737d","system_id":"levelo_inurba_marseille","lat":43.292932,"lon":5.37464,"is_reserved":false,"is_disabled":false,"rental_uris":{"android":"levelo://app?vid=ca3fbc93-d351-48fc-a5e3-40e10228737d","ios":"levelo://app?vid=ca3fbc93-d351-48fc-a5e3-40e10228737d"},"vehicle_type_id":"4","last_reported":1722013651,"current_range_meters":2000,"station_id":"ce4bgi12rcd13ifvqb70","pricing_plan_id":"cebpf4jnsgd1na2vs0mg"},{"bike_id":"aa574dc5-ac1d-4946-991d-b1af37118bc8","system_id":"levelo_inurba_marseille","lat":43.2936,"lon":5.37835,"is_reserved":false,"is_disabled":false,"rental_uris":{"android":"levelo://app?vid=aa574dc5-ac1d-4946-991d-b1af37118bc8","ios":"levelo://app?vid=aa574dc5-ac1d-4946-991d-b1af37118bc8"},"vehicle_type_id":"4","last_reported":1722013651,"current_range_meters":0,"station_id":"ce4bgjh2rcd13ifvqbf0","pricing_plan_id":"cebpf4jnsgd1na2vs0mg"},{"bike_id":"9d64a33b-5c94-4ac2-a302-5f9238583b6b","system_id":"levelo_inurba_marseille","lat":43.303002,"lon":5.392142,"is_reserved":false,"is_disabled":false,"rental_uris":{"android":"levelo://app?vid=9d64a33b-5c94-4ac2-a302-5f9238583b6b","ios":"levelo://app?vid=9d64a33b-5c94-4ac2-a302-5f9238583b6b"},"vehicle_type_id":"4","last_reported":1722013651,"current_range_meters":5200,"station_id":"ce4bgkh2rcd13ifvqbk0","pricing_plan_id":"cebpf4jnsgd1na2vs0mg"},{"bike_id":"3f210efa-068b-49df-a78a-ca86283bd44e","system_id":"levelo_inurba_marseille","lat":43.303002,"lon":5.392142,"is_reserved":false,"is_disabled":false,"rental_uris":{"android":"levelo://app?vid=3f210efa-068b-49df-a78a-ca86283bd44e","ios":"levelo://app?vid=3f210efa-068b-49df-a78a-ca86283bd44e"},"vehicle_type_id":"4","last_reported":1722013651,"current_range_meters":0,"station_id":"ce4bgkh2rcd13ifvqbk0","pricing_plan_id":"cebpf4jnsgd1na2vs0mg"},{"bike_id":"91a45674-b676-472d-8db5-0593f1e1eb8d","system_id":"levelo_inurba_marseille","lat":43.30085,"lon":5.390856,"is_reserved":false,"is_disabled":false,"rental_uris":{"android":"levelo://app?vid=91a45674-b676-472d-8db5-0593f1e1eb8d","ios":"levelo://app?vid=91a45674-b676-472d-8db5-0593f1e1eb8d"},"vehicle_type_id":"4","last_reported":1722013651,"current_range_meters":8400,"station_id":"ce4bh192rcd13ifvqdb0","pricing_plan_id":"cebpf4jnsgd1na2vs0mg"},{"bike_id":"0138e622-3ac1-41d5-82ce-930ff625afe5","system_id":"levelo_inurba_marseille","lat":43.30107,"lon":5.390825,"is_reserved":false,"is_disabled":false,"rental_uris":{"android":"levelo://app?vid=0138e622-3ac1-41d5-82ce-930ff625afe5","ios":"levelo://app?vid=0138e622-3ac1-41d5-82ce-930ff625afe5"},"vehicle_type_id":"4","last_reported":1722013651,"current_range_meters":31600,"station_id":"ce4bh192rcd13ifvqdb0","pricing_plan_id":"cebpf4jnsgd1na2vs0mg"},{"bike_id":"83c4575e-47ef-43f9-b211-220e31e2155f","system_id":"levelo_inurba_marseille","lat":43.292311,"lon":5.360731,"is_reserved":false,"is_disabled":false,"rental_uris":{"android":"levelo://app?vid=83c4575e-47ef-43f9-b211-220e31e2155f","ios":"levelo://app?vid=83c4575e-47ef-43f9-b211-220e31e2155f"},"vehicle_type_id":"4","last_reported":1722013651,"current_range_meters":6400,"station_id":"ce4bhbh2rcd13ifvqeqg","pricing_plan_id":"cebpf4jnsgd1na2vs0mg"},{"bike_id":"fb05fd13-2583-4a31-9ee4-66156f319ba6","system_id":"levelo_inurba_marseille","lat":43.30085,"lon":5.390856,"is_reserved":false,"is_disabled":false,"rental_uris":{"android":"levelo://app?vid=fb05fd13-2583-4a31-9ee4-66156f319ba6","ios":"levelo://app?vid=fb05fd13-2583-4a31-9ee4-66156f319ba6"},"vehicle_type_id":"4","last_reported":1722013651,"current_range_meters":30800,"station_id":"ce4bh192rcd13ifvqdb0","pricing_plan_id":"cebpf4jnsgd1na2vs0mg"},{"bike_id":"8c1995d0-49dd-4a2a-9b7e-bdc93ae3df3a","system_id":"levelo_inurba_marseille","lat":43.292311,"lon":5.360731,"is_reserved":false,"is_disabled":false,"rental_uris":{"android":"levelo://app?vid=8c1995d0-49dd-4a2a-9b7e-bdc93ae3df3a","ios":"levelo://app?vid=8c1995d0-49dd-4a2a-9b7e-bdc93ae3df3a"},"vehicle_type_id":"4","last_reported":1722013651,"current_range_meters":4000,"station_id":"ce4bhbh2rcd13ifvqeqg","pricing_plan_id":"cebpf4jnsgd1na2vs0mg"},{"bike_id":"76045abe-5672-44c7-b412-1d07cfa2ad7f","system_id":"levelo_inurba_marseille","lat":43.30085,"lon":5.390856,"is_reserved":false,"is_disabled":false,"rental_uris":{"android":"levelo://app?vid=76045abe-5672-44c7-b412-1d07cfa2ad7f","ios":"levelo://app?vid=76045abe-5672-44c7-b412-1d07cfa2ad7f"},"vehicle_type_id":"4","last_reported":1722013651,"current_range_meters":2800,"station_id":"ce4bh192rcd13ifvqdb0","pricing_plan_id":"cebpf4jnsgd1na2vs0mg"},{"bike_id":"f00492ae-b75c-457b-8eb3-9f292b39b265","system_id":"levelo_inurba_marseille","lat":43.292311,"lon":5.360731,"is_reserved":false,"is_disabled":false,"rental_uris":{"android":"levelo://app?vid=f00492ae-b75c-457b-8eb3-9f292b39b265","ios":"levelo://app?vid=f00492ae-b75c-457b-8eb3-9f292b39b265"},"vehicle_type_id":"4","last_reported":1722013651,"current_range_meters":23600,"station_id":"ce4bhbh2rcd13ifvqeqg","pricing_plan_id":"cebpf4jnsgd1na2vs0mg"},{"bike_id":"c7432ee4-44ce-4043-b0f2-755db33fe3ec","system_id":"levelo_inurba_marseille","lat":43.32659,"lon":5.38868,"is_reserved":false,"is_disabled":false,"rental_uris":{"android":"levelo://app?vid=c7432ee4-44ce-4043-b0f2-755db33fe3ec","ios":"levelo://app?vid=c7432ee4-44ce-4043-b0f2-755db33fe3ec"},"vehicle_type_id":"4","last_reported":1722013651,"current_range_meters":10000,"station_id":"","pricing_plan_id":"cebpf4jnsgd1na2vs0mg"},{"bike_id":"e8147d66-771d-4c49-892c-95672f5ae673","system_id":"levelo_inurba_marseille","lat":43.300836,"lon":5.39076,"is_reserved":false,"is_disabled":false,"rental_uris":{"android":"levelo://app?vid=e8147d66-771d-4c49-892c-95672f5ae673","ios":"levelo://app?vid=e8147d66-771d-4c49-892c-95672f5ae673"},"vehicle_type_id":"4","last_reported":1722013651,"current_range_meters":31600,"station_id":"ce4bh192rcd13ifvqdb0","pricing_plan_id":"cebpf4jnsgd1na2vs0mg"},{"bike_id":"b0e9af80-d03a-4b21-bb54-9849c1749886","system_id":"levelo_inurba_marseille","lat":43.298764,"lon":5.388973,"is_reserved":false,"is_disabled":false,"rental_uris":{"android":"levelo://app?vid=b0e9af80-d03a-4b21-bb54-9849c1749886","ios":"levelo://app?vid=b0e9af80-d03a-4b21-bb54-9849c1749886"},"vehicle_type_id":"4","last_reported":1722013651,"current_range_meters":8000,"station_id":"ce4bh392rcd13ifvqdl0","pricing_plan_id":"cebpf4jnsgd1na2vs0mg"},{"bike_id":"fbb6e2c0-eecf-4096-b0cf-b7c03d470cf4","system_id":"levelo_inurba_marseille","lat":43.298764,"lon":5.388973,"is_reserved":false,"is_disabled":false,"rental_uris":{"android":"levelo://app?vid=fbb6e2c0-eecf-4096-b0cf-b7c03d470cf4","ios":"levelo://app?vid=fbb6e2c0-eecf-4096-b0cf-b7c03d470cf4"},"vehicle_type_id":"4","last_reported":1722013651,"current_range_meters":19200,"station_id":"ce4bh392rcd13ifvqdl0","pricing_plan_id":"cebpf4jnsgd1na2vs0mg"},{"bike_id":"1fab2f22-1df0-4817-96ae-821816fe52eb","system_id":"levelo_inurba_marseille","lat":43.292005,"lon":5.357875,"is_reserved":false,"is_disabled":false,"rental_uris":{"android":"levelo://app?vid=1fab2f22-1df0-4817-96ae-821816fe52eb","ios":"levelo://app?vid=1fab2f22-1df0-4817-96ae-821816fe52eb"},"vehicle_type_id":"4","last_reported":1722013651,"current_range_meters":16800,"station_id":"ce4bhb12rcd13ifvqel0","pricing_plan_id":"cebpf4jnsgd1na2vs0mg"},{"bike_id":"121f59dc-ca4e-4b95-94d1-d1ff778f521b","system_id":"levelo_inurba_marseille","lat":43.29167,"lon":5.3716,"is_reserved":false,"is_disabled":false,"rental_uris":{"android":"levelo://app?vid=121f59dc-ca4e-4b95-94d1-d1ff778f521b","ios":"levelo://app?vid=121f59dc-ca4e-4b95-94d1-d1ff778f521b"},"vehicle_type_id":"4","last_reported":1722013651,"current_range_meters":0,"station_id":"ce4bha92rcd13ifvqeh0","pricing_plan_id":"cebpf4jnsgd1na2vs0mg"},{"bike_id":"bb34aa62-8a31-43e5-b1a4-44fc54d25281","system_id":"levelo_inurba_marseille","lat":43.291963,"lon":5.358007,"is_reserved":false,"is_disabled":false,"rental_uris":{"android":"levelo://app?vid=bb34aa62-8a31-43e5-b1a4-44fc54d25281","ios":"levelo://app?vid=bb34aa62-8a31-43e5-b1a4-44fc54d25281"},"vehicle_type_id":"4","last_reported":1722013651,"current_range_meters":0,"station_id":"ce4bhb12rcd13ifvqel0","pricing_plan_id":"cebpf4jnsgd1na2vs0mg"},{"bike_id":"0468d4a0-d98e-45d9-bf1c-ab53aeebdc68","system_id":"levelo_inurba_marseille","lat":43.292005,"lon":5.357875,"is_reserved":false,"is_disabled":false,"rental_uris":{"android":"levelo://app?vid=0468d4a0-d98e-45d9-bf1c-ab53aeebdc68","ios":"levelo://app?vid=0468d4a0-d98e-45d9-bf1c-ab53aeebdc68"},"vehicle_type_id":"4","last_reported":1722013651,"current_range_meters":400,"station_id":"ce4bhb12rcd13ifvqel0","pricing_plan_id":"cebpf4jnsgd1na2vs0mg"},{"bike_id":"54e221b4-b13f-4612-9caf-a4f2a117d7ba","system_id":"levelo_inurba_marseille","lat":43.313291,"lon":5.396838,"is_reserved":false,"is_disabled":false,"rental_uris":{"android":"levelo://app?vid=54e221b4-b13f-4612-9caf-a4f2a117d7ba","ios":"levelo://app?vid=54e221b4-b13f-4612-9caf-a4f2a117d7ba"},"vehicle_type_id":"4","last_reported":1722013651,"current_range_meters":0,"station_id":"ce4bgvp2rcd13ifvqcu0","pricing_plan_id":"cebpf4jnsgd1na2vs0mg"},{"bike_id":"e8dcf251-644b-46f2-9797-43bfa45cae59","system_id":"levelo_inurba_marseille","lat":43.309047,"lon":5.396551,"is_reserved":false,"is_disabled":false,"rental_uris":{"android":"levelo://app?vid=e8dcf251-644b-46f2-9797-43bfa45cae59","ios":"levelo://app?vid=e8dcf251-644b-46f2-9797-43bfa45cae59"},"vehicle_type_id":"4","last_reported":1722013651,"current_range_meters":12000,"station_id":"ce4bh012rcd13ifvqcv0","pricing_plan_id":"cebpf4jnsgd1na2vs0mg"},{"bike_id":"d5d78940-9b42-4319-879b-571085a44e75","system_id":"levelo_inurba_marseille","lat":43.291994,"lon":5.357886,"is_reserved":false,"is_disabled":false,"rental_uris":{"android":"levelo://app?vid=d5d78940-9b42-4319-879b-571085a44e75","ios":"levelo://app?vid=d5d78940-9b42-4319-879b-571085a44e75"},"vehicle_type_id":"4","last_reported":1722013651,"current_range_meters":22800,"station_id":"ce4bhb12rcd13ifvqel0","pricing_plan_id":"cebpf4jnsgd1na2vs0mg"},{"bike_id":"9b00672f-412d-48e3-bb0c-f9145ec896c4","system_id":"levelo_inurba_marseille","lat":43.29529,"lon":5.385581,"is_reserved":false,"is_disabled":false,"rental_uris":{"android":"levelo://app?vid=9b00672f-412d-48e3-bb0c-f9145ec896c4","ios":"levelo://app?vid=9b00672f-412d-48e3-bb0c-f9145ec896c4"},"vehicle_type_id":"4","last_reported":1722013651,"current_range_meters":3200,"station_id":"ce4bgih2rcd13ifvqba0","pricing_plan_id":"cebpf4jnsgd1na2vs0mg"},{"bike_id":"ef725e93-14d2-4085-941e-2ff79f85e476","system_id":"levelo_inurba_marseille","lat":43.29536,"lon":5.3854,"is_reserved":false,"is_disabled":false,"rental_uris":{"android":"levelo://app?vid=ef725e93-14d2-4085-941e-2ff79f85e476","ios":"levelo://app?vid=ef725e93-14d2-4085-941e-2ff79f85e476"},"vehicle_type_id":"4","last_reported":1722013651,"current_range_meters":0,"station_id":"ce4bgih2rcd13ifvqba0","pricing_plan_id":"cebpf4jnsgd1na2vs0mg"},{"bike_id":"b03dbf0c-b92a-42b1-9a3f-0f182449e553","system_id":"levelo_inurba_marseille","lat":43.29529,"lon":5.385581,"is_reserved":false,"is_disabled":false,"rental_uris":{"android":"levelo://app?vid=b03dbf0c-b92a-42b1-9a3f-0f182449e553","ios":"levelo://app?vid=b03dbf0c-b92a-42b1-9a3f-0f182449e553"},"vehicle_type_id":"4","last_reported":1722013651,"current_range_meters":25600,"station_id":"ce4bgih2rcd13ifvqba0","pricing_plan_id":"cebpf4jnsgd1na2vs0mg"},{"bike_id":"8cf8facb-37f9-44ec-b8da-c2fcd21c65fa","system_id":"levelo_inurba_marseille","lat":43.29529,"lon":5.385581,"is_reserved":false,"is_disabled":false,"rental_uris":{"android":"levelo://app?vid=8cf8facb-37f9-44ec-b8da-c2fcd21c65fa","ios":"levelo://app?vid=8cf8facb-37f9-44ec-b8da-c2fcd21c65fa"},"vehicle_type_id":"4","last_reported":1722013651,"current_range_meters":1600,"station_id":"ce4bgih2rcd13ifvqba0","pricing_plan_id":"cebpf4jnsgd1na2vs0mg"},{"bike_id":"790075f9-5bf9-4961-80ad-9d732d9dafb0","system_id":"levelo_inurba_marseille","lat":43.29529,"lon":5.385581,"is_reserved":false,"is_disabled":false,"rental_uris":{"android":"levelo://app?vid=790075f9-5bf9-4961-80ad-9d732d9dafb0","ios":"levelo://app?vid=790075f9-5bf9-4961-80ad-9d732d9dafb0"},"vehicle_type_id":"4","last_reported":1722013651,"current_range_meters":14800,"station_id":"ce4bgih2rcd13ifvqba0","pricing_plan_id":"cebpf4jnsgd1na2vs0mg"},{"bike_id":"d05bea7c-1c33-4608-9dc0-b30bae715407","system_id":"levelo_inurba_marseille","lat":43.29529,"lon":5.385581,"is_reserved":false,"is_disabled":false,"rental_uris":{"android":"levelo://app?vid=d05bea7c-1c33-4608-9dc0-b30bae715407","ios":"levelo://app?vid=d05bea7c-1c33-4608-9dc0-b30bae715407"},"vehicle_type_id":"4","last_reported":1722013651,"current_range_meters":16400,"station_id":"ce4bgih2rcd13ifvqba0","pricing_plan_id":"cebpf4jnsgd1na2vs0mg"},{"bike_id":"29bf3331-13db-42de-ad27-d72d089a305b","system_id":"levelo_inurba_marseille","lat":43.334424,"lon":5.359317,"is_reserved":false,"is_disabled":false,"rental_uris":{"android":"levelo://app?vid=29bf3331-13db-42de-ad27-d72d089a305b","ios":"levelo://app?vid=29bf3331-13db-42de-ad27-d72d089a305b"},"vehicle_type_id":"4","last_reported":1722013651,"current_range_meters":800,"station_id":"","pricing_plan_id":"cebpf4jnsgd1na2vs0mg"},{"bike_id":"3a96678f-9e53-4aa4-a271-bd4ac9a3eb60","system_id":"levelo_inurba_marseille","lat":43.290319,"lon":5.375732,"is_reserved":false,"is_disabled":false,"rental_uris":{"android":"levelo://app?vid=3a96678f-9e53-4aa4-a271-bd4ac9a3eb60","ios":"levelo://app?vid=3a96678f-9e53-4aa4-a271-bd4ac9a3eb60"},"vehicle_type_id":"4","last_reported":1722013651,"current_range_meters":400,"station_id":"ce4bh692rcd13ifvqe90","pricing_plan_id":"cebpf4jnsgd1na2vs0mg"},{"bike_id":"a931ee38-6182-47a6-8fa2-42df992d7705","system_id":"levelo_inurba_marseille","lat":43.290624,"lon":5.359245,"is_reserved":false,"is_disabled":false,"rental_uris":{"android":"levelo://app?vid=a931ee38-6182-47a6-8fa2-42df992d7705","ios":"levelo://app?vid=a931ee38-6182-47a6-8fa2-42df992d7705"},"vehicle_type_id":"4","last_reported":1722013651,"current_range_meters":8000,"station_id":"ce4bha92rcd13ifvqeg0","pricing_plan_id":"cebpf4jnsgd1na2vs0mg"},{"bike_id":"9e91b718-f02b-4db1-a335-757cadddfba4","system_id":"levelo_inurba_marseille","lat":43.302008,"lon":5.394694,"is_reserved":false,"is_disabled":false,"rental_uris":{"android":"levelo://app?vid=9e91b718-f02b-4db1-a335-757cadddfba4","ios":"levelo://app?vid=9e91b718-f02b-4db1-a335-757cadddfba4"},"vehicle_type_id":"4","last_reported":1722013651,"current_range_meters":0,"station_id":"ce4bh0p2rcd13ifvqd70","pricing_plan_id":"cebpf4jnsgd1na2vs0mg"},{"bike_id":"47c004bc-b2ed-442b-ad27-23b8bf741e73","system_id":"levelo_inurba_marseille","lat":43.30205,"lon":5.3947,"is_reserved":false,"is_disabled":false,"rental_uris":{"android":"levelo://app?vid=47c004bc-b2ed-442b-ad27-23b8bf741e73","ios":"levelo://app?vid=47c004bc-b2ed-442b-ad27-23b8bf741e73"},"vehicle_type_id":"4","last_reported":1722013651,"current_range_meters":0,"station_id":"ce4bh0p2rcd13ifvqd70","pricing_plan_id":"cebpf4jnsgd1na2vs0mg"},{"bike_id":"2d4e6c44-2fa7-4f15-aa42-ff710097f12e","system_id":"levelo_inurba_marseille","lat":43.294153,"lon":5.386305,"is_reserved":false,"is_disabled":false,"rental_uris":{"android":"levelo://app?vid=2d4e6c44-2fa7-4f15-aa42-ff710097f12e","ios":"levelo://app?vid=2d4e6c44-2fa7-4f15-aa42-ff710097f12e"},"vehicle_type_id":"4","last_reported":1722013651,"current_range_meters":31200,"station_id":"ce4bh2h2rcd13ifvqdh0","pricing_plan_id":"cebpf4jnsgd1na2vs0mg"},{"bike_id":"471ce5a5-2c36-4827-b33a-6e327f22095b","system_id":"levelo_inurba_marseille","lat":43.29426,"lon":5.38627,"is_reserved":false,"is_disabled":false,"rental_uris":{"android":"levelo://app?vid=471ce5a5-2c36-4827-b33a-6e327f22095b","ios":"levelo://app?vid=471ce5a5-2c36-4827-b33a-6e327f22095b"},"vehicle_type_id":"4","last_reported":1722013651,"current_range_meters":0,"station_id":"ce4bh2h2rcd13ifvqdh0","pricing_plan_id":"cebpf4jnsgd1na2vs0mg"},{"bike_id":"4696a8e5-e067-42ac-b5c1-aebafaa16ef8","system_id":"levelo_inurba_marseille","lat":43.29419,"lon":5.3862,"is_reserved":false,"is_disabled":false,"rental_uris":{"android":"levelo://app?vid=4696a8e5-e067-42ac-b5c1-aebafaa16ef8","ios":"levelo://app?vid=4696a8e5-e067-42ac-b5c1-aebafaa16ef8"},"vehicle_type_id":"4","last_reported":1722013651,"current_range_meters":0,"station_id":"ce4bh2h2rcd13ifvqdh0","pricing_plan_id":"cebpf4jnsgd1na2vs0mg"},{"bike_id":"caaa3669-abbd-410d-9d04-74a836703d22","system_id":"levelo_inurba_marseille","lat":43.289184,"lon":5.366408,"is_reserved":false,"is_disabled":false,"rental_uris":{"android":"levelo://app?vid=caaa3669-abbd-410d-9d04-74a836703d22","ios":"levelo://app?vid=caaa3669-abbd-410d-9d04-74a836703d22"},"vehicle_type_id":"4","last_reported":1722013651,"current_range_meters":14000,"station_id":"ce4bhap2rcd13ifvqek0","pricing_plan_id":"cebpf4jnsgd1na2vs0mg"},{"bike_id":"149ad317-2977-4c2d-b9af-065d2c29d5b4","system_id":"levelo_inurba_marseille","lat":43.289912,"lon":5.373317,"is_reserved":false,"is_disabled":false,"rental_uris":{"android":"levelo://app?vid=149ad317-2977-4c2d-b9af-065d2c29d5b4","ios":"levelo://app?vid=149ad317-2977-4c2d-b9af-065d2c29d5b4"},"vehicle_type_id":"4","last_reported":1722013651,"current_range_meters":29200,"station_id":"","pricing_plan_id":"cebpf4jnsgd1na2vs0mg"},{"bike_id":"3fe0ada0-b3be-4719-83ac-79503348a0be","system_id":"levelo_inurba_marseille","lat":43.29419,"lon":5.3863,"is_reserved":false,"is_disabled":false,"rental_uris":{"android":"levelo://app?vid=3fe0ada0-b3be-4719-83ac-79503348a0be","ios":"levelo://app?vid=3fe0ada0-b3be-4719-83ac-79503348a0be"},"vehicle_type_id":"4","last_reported":1722013651,"current_range_meters":0,"station_id":"ce4bh2h2rcd13ifvqdh0","pricing_plan_id":"cebpf4jnsgd1na2vs0mg"},{"bike_id":"72194c98-4a40-4fbe-be6a-90b45c1313db","system_id":"levelo_inurba_marseille","lat":43.28943,"lon":5.36638,"is_reserved":false,"is_disabled":false,"rental_uris":{"android":"levelo://app?vid=72194c98-4a40-4fbe-be6a-90b45c1313db","ios":"levelo://app?vid=72194c98-4a40-4fbe-be6a-90b45c1313db"},"vehicle_type_id":"4","last_reported":1722013651,"current_range_meters":14400,"station_id":"ce4bhap2rcd13ifvqek0","pricing_plan_id":"cebpf4jnsgd1na2vs0mg"},{"bike_id":"9ed73694-954b-4fd3-9b97-57d2b64dfae1","system_id":"levelo_inurba_marseille","lat":43.289184,"lon":5.366408,"is_reserved":false,"is_disabled":false,"rental_uris":{"android":"levelo://app?vid=9ed73694-954b-4fd3-9b97-57d2b64dfae1","ios":"levelo://app?vid=9ed73694-954b-4fd3-9b97-57d2b64dfae1"},"vehicle_type_id":"4","last_reported":1722013651,"current_range_meters":14400,"station_id":"ce4bhap2rcd13ifvqek0","pricing_plan_id":"cebpf4jnsgd1na2vs0mg"},{"bike_id":"5bf537b0-25d3-407b-a647-50a40b7e1c5c","system_id":"levelo_inurba_marseille","lat":43.28942,"lon":5.36632,"is_reserved":false,"is_disabled":false,"rental_uris":{"android":"levelo://app?vid=5bf537b0-25d3-407b-a647-50a40b7e1c5c","ios":"levelo://app?vid=5bf537b0-25d3-407b-a647-50a40b7e1c5c"},"vehicle_type_id":"4","last_reported":1722013651,"current_range_meters":0,"station_id":"ce4bhap2rcd13ifvqek0","pricing_plan_id":"cebpf4jnsgd1na2vs0mg"},{"bike_id":"9fd8c4ce-eb8e-4ed9-a4f9-ef6658779ece","system_id":"levelo_inurba_marseille","lat":43.289184,"lon":5.366408,"is_reserved":false,"is_disabled":false,"rental_uris":{"android":"levelo://app?vid=9fd8c4ce-eb8e-4ed9-a4f9-ef6658779ece","ios":"levelo://app?vid=9fd8c4ce-eb8e-4ed9-a4f9-ef6658779ece"},"vehicle_type_id":"4","last_reported":1722013651,"current_range_meters":12400,"station_id":"ce4bhap2rcd13ifvqek0","pricing_plan_id":"cebpf4jnsgd1na2vs0mg"},{"bike_id":"e497293d-b1c7-4edf-94c4-f4467e76c796","system_id":"levelo_inurba_marseille","lat":43.289184,"lon":5.366408,"is_reserved":false,"is_disabled":false,"rental_uris":{"android":"levelo://app?vid=e497293d-b1c7-4edf-94c4-f4467e76c796","ios":"levelo://app?vid=e497293d-b1c7-4edf-94c4-f4467e76c796"},"vehicle_type_id":"4","last_reported":1722013651,"current_range_meters":12400,"station_id":"ce4bhap2rcd13ifvqek0","pricing_plan_id":"cebpf4jnsgd1na2vs0mg"},{"bike_id":"6f95c56b-38cf-4cdf-bd1b-e97c00e0b697","system_id":"levelo_inurba_marseille","lat":43.289184,"lon":5.366408,"is_reserved":false,"is_disabled":false,"rental_uris":{"android":"levelo://app?vid=6f95c56b-38cf-4cdf-bd1b-e97c00e0b697","ios":"levelo://app?vid=6f95c56b-38cf-4cdf-bd1b-e97c00e0b697"},"vehicle_type_id":"4","last_reported":1722013651,"current_range_meters":25200,"station_id":"ce4bhap2rcd13ifvqek0","pricing_plan_id":"cebpf4jnsgd1na2vs0mg"},{"bike_id":"c70a9d32-62fc-47a0-ad18-456cc3e10dd6","system_id":"levelo_inurba_marseille","lat":43.289184,"lon":5.366408,"is_reserved":false,"is_disabled":false,"rental_uris":{"android":"levelo://app?vid=c70a9d32-62fc-47a0-ad18-456cc3e10dd6","ios":"levelo://app?vid=c70a9d32-62fc-47a0-ad18-456cc3e10dd6"},"vehicle_type_id":"4","last_reported":1722013651,"current_range_meters":1200,"station_id":"ce4bhap2rcd13ifvqek0","pricing_plan_id":"cebpf4jnsgd1na2vs0mg"},{"bike_id":"92a2e59f-0017-4e35-b68a-b5abdcc35c47","system_id":"levelo_inurba_marseille","lat":43.304274,"lon":5.397513,"is_reserved":false,"is_disabled":false,"rental_uris":{"android":"levelo://app?vid=92a2e59f-0017-4e35-b68a-b5abdcc35c47","ios":"levelo://app?vid=92a2e59f-0017-4e35-b68a-b5abdcc35c47"},"vehicle_type_id":"4","last_reported":1722013651,"current_range_meters":13200,"station_id":"ce4bh092rcd13ifvqd20","pricing_plan_id":"cebpf4jnsgd1na2vs0mg"},{"bike_id":"67441a45-4747-4b06-b9ff-db4b8ba1379f","system_id":"levelo_inurba_marseille","lat":43.29011,"lon":5.35624,"is_reserved":false,"is_disabled":false,"rental_uris":{"android":"levelo://app?vid=67441a45-4747-4b06-b9ff-db4b8ba1379f","ios":"levelo://app?vid=67441a45-4747-4b06-b9ff-db4b8ba1379f"},"vehicle_type_id":"4","last_reported":1722013651,"current_range_meters":7600,"station_id":"ce4bhb92rcd13ifvqen0","pricing_plan_id":"cebpf4jnsgd1na2vs0mg"},{"bike_id":"7ad03ae1-ae8d-4347-84f8-0399aa0ad34c","system_id":"levelo_inurba_marseille","lat":43.290103,"lon":5.356114,"is_reserved":false,"is_disabled":false,"rental_uris":{"android":"levelo://app?vid=7ad03ae1-ae8d-4347-84f8-0399aa0ad34c","ios":"levelo://app?vid=7ad03ae1-ae8d-4347-84f8-0399aa0ad34c"},"vehicle_type_id":"4","last_reported":1722013651,"current_range_meters":0,"station_id":"ce4bhb92rcd13ifvqen0","pricing_plan_id":"cebpf4jnsgd1na2vs0mg"},{"bike_id":"447f00ac-a2ca-40f6-b124-2256de1c7d4c","system_id":"levelo_inurba_marseille","lat":43.290103,"lon":5.356114,"is_reserved":false,"is_disabled":false,"rental_uris":{"android":"levelo://app?vid=447f00ac-a2ca-40f6-b124-2256de1c7d4c","ios":"levelo://app?vid=447f00ac-a2ca-40f6-b124-2256de1c7d4c"},"vehicle_type_id":"4","last_reported":1722013651,"current_range_meters":0,"station_id":"ce4bhb92rcd13ifvqen0","pricing_plan_id":"cebpf4jnsgd1na2vs0mg"},{"bike_id":"8283bc8b-fa49-4282-9a7b-d1e991f83f2b","system_id":"levelo_inurba_marseille","lat":43.290103,"lon":5.356114,"is_reserved":false,"is_disabled":false,"rental_uris":{"android":"levelo://app?vid=8283bc8b-fa49-4282-9a7b-d1e991f83f2b","ios":"levelo://app?vid=8283bc8b-fa49-4282-9a7b-d1e991f83f2b"},"vehicle_type_id":"4","last_reported":1722013651,"current_range_meters":28800,"station_id":"ce4bhb92rcd13ifvqen0","pricing_plan_id":"cebpf4jnsgd1na2vs0mg"},{"bike_id":"886f6225-c0b0-4a84-98ba-ac1ea501f148","system_id":"levelo_inurba_marseille","lat":43.290103,"lon":5.356114,"is_reserved":false,"is_disabled":false,"rental_uris":{"android":"levelo://app?vid=886f6225-c0b0-4a84-98ba-ac1ea501f148","ios":"levelo://app?vid=886f6225-c0b0-4a84-98ba-ac1ea501f148"},"vehicle_type_id":"4","last_reported":1722013651,"current_range_meters":14000,"station_id":"ce4bhb92rcd13ifvqen0","pricing_plan_id":"cebpf4jnsgd1na2vs0mg"},{"bike_id":"46be7ca4-0c09-4666-965a-ad70066446a9","system_id":"levelo_inurba_marseille","lat":43.290104,"lon":5.356111,"is_reserved":false,"is_disabled":false,"rental_uris":{"android":"levelo://app?vid=46be7ca4-0c09-4666-965a-ad70066446a9","ios":"levelo://app?vid=46be7ca4-0c09-4666-965a-ad70066446a9"},"vehicle_type_id":"4","last_reported":1722013651,"current_range_meters":6400,"station_id":"ce4bhb92rcd13ifvqen0","pricing_plan_id":"cebpf4jnsgd1na2vs0mg"},{"bike_id":"99499a83-366e-4405-a6da-3de47edea474","system_id":"levelo_inurba_marseille","lat":43.29004,"lon":5.35614,"is_reserved":false,"is_disabled":false,"rental_uris":{"android":"levelo://app?vid=99499a83-366e-4405-a6da-3de47edea474","ios":"levelo://app?vid=99499a83-366e-4405-a6da-3de47edea474"},"vehicle_type_id":"4","last_reported":1722013651,"current_range_meters":0,"station_id":"ce4bhb92rcd13ifvqen0","pricing_plan_id":"cebpf4jnsgd1na2vs0mg"},{"bike_id":"426f1e14-e57c-44c4-9d9d-496eba9255a2","system_id":"levelo_inurba_marseille","lat":43.290104,"lon":5.356111,"is_reserved":false,"is_disabled":false,"rental_uris":{"android":"levelo://app?vid=426f1e14-e57c-44c4-9d9d-496eba9255a2","ios":"levelo://app?vid=426f1e14-e57c-44c4-9d9d-496eba9255a2"},"vehicle_type_id":"4","last_reported":1722013651,"current_range_meters":8400,"station_id":"ce4bhb92rcd13ifvqen0","pricing_plan_id":"cebpf4jnsgd1na2vs0mg"},{"bike_id":"86f236d9-1744-489b-9e12-6a921ff0cb7b","system_id":"levelo_inurba_marseille","lat":43.290995,"lon":5.381361,"is_reserved":false,"is_disabled":false,"rental_uris":{"android":"levelo://app?vid=86f236d9-1744-489b-9e12-6a921ff0cb7b","ios":"levelo://app?vid=86f236d9-1744-489b-9e12-6a921ff0cb7b"},"vehicle_type_id":"4","last_reported":1722013651,"current_range_meters":0,"station_id":"ce4bh512rcd13ifvqe2g","pricing_plan_id":"cebpf4jnsgd1na2vs0mg"},{"bike_id":"44309cd1-8060-4b3d-a6b9-695dab03aeb7","system_id":"levelo_inurba_marseille","lat":43.297807,"lon":5.393533,"is_reserved":false,"is_disabled":false,"rental_uris":{"android":"levelo://app?vid=44309cd1-8060-4b3d-a6b9-695dab03aeb7","ios":"levelo://app?vid=44309cd1-8060-4b3d-a6b9-695dab03aeb7"},"vehicle_type_id":"4","last_reported":1722013651,"current_range_meters":22800,"station_id":"chh1huq6cuj3fo74tm60","pricing_plan_id":"cebpf4jnsgd1na2vs0mg"},{"bike_id":"fcb534b5-9ef4-401c-922b-a7d1828c4cd1","system_id":"levelo_inurba_marseille","lat":43.2898,"lon":5.37832,"is_reserved":false,"is_disabled":false,"rental_uris":{"android":"levelo://app?vid=fcb534b5-9ef4-401c-922b-a7d1828c4cd1","ios":"levelo://app?vid=fcb534b5-9ef4-401c-922b-a7d1828c4cd1"},"vehicle_type_id":"4","last_reported":1722013651,"current_range_meters":0,"station_id":"ce4bh9p2rcd13ifvqed0","pricing_plan_id":"cebpf4jnsgd1na2vs0mg"},{"bike_id":"76884925-7c30-4da1-a1b5-7a009bb7eb50","system_id":"levelo_inurba_marseille","lat":43.330442,"lon":5.389148,"is_reserved":false,"is_disabled":false,"rental_uris":{"android":"levelo://app?vid=76884925-7c30-4da1-a1b5-7a009bb7eb50","ios":"levelo://app?vid=76884925-7c30-4da1-a1b5-7a009bb7eb50"},"vehicle_type_id":"4","last_reported":1722013651,"current_range_meters":17200,"station_id":"ce4bhr92rcd13ifvqhrg","pricing_plan_id":"cebpf4jnsgd1na2vs0mg"},{"bike_id":"18eb29d0-8680-4790-b38d-f5dc22ae72a6","system_id":"levelo_inurba_marseille","lat":43.330442,"lon":5.389148,"is_reserved":false,"is_disabled":false,"rental_uris":{"android":"levelo://app?vid=18eb29d0-8680-4790-b38d-f5dc22ae72a6","ios":"levelo://app?vid=18eb29d0-8680-4790-b38d-f5dc22ae72a6"},"vehicle_type_id":"4","last_reported":1722013651,"current_range_meters":20000,"station_id":"ce4bhr92rcd13ifvqhrg","pricing_plan_id":"cebpf4jnsgd1na2vs0mg"},{"bike_id":"9c07415a-d545-49af-938a-52f301590f4a","system_id":"levelo_inurba_marseille","lat":43.31065,"lon":5.40083,"is_reserved":false,"is_disabled":false,"rental_uris":{"android":"levelo://app?vid=9c07415a-d545-49af-938a-52f301590f4a","ios":"levelo://app?vid=9c07415a-d545-49af-938a-52f301590f4a"},"vehicle_type_id":"4","last_reported":1722013651,"current_range_meters":400,"station_id":"","pricing_plan_id":"cebpf4jnsgd1na2vs0mg"},{"bike_id":"93305b3d-5720-4a4e-81c7-763fa92c800b","system_id":"levelo_inurba_marseille","lat":43.28856,"lon":5.358371,"is_reserved":false,"is_disabled":false,"rental_uris":{"android":"levelo://app?vid=93305b3d-5720-4a4e-81c7-763fa92c800b","ios":"levelo://app?vid=93305b3d-5720-4a4e-81c7-763fa92c800b"},"vehicle_type_id":"4","last_reported":1722013651,"current_range_meters":12800,"station_id":"ce4bhb12rcd13ifvqem0","pricing_plan_id":"cebpf4jnsgd1na2vs0mg"},{"bike_id":"f1e56b5c-28ed-47ed-afc2-12d53307922b","system_id":"levelo_inurba_marseille","lat":43.28856,"lon":5.358371,"is_reserved":false,"is_disabled":false,"rental_uris":{"android":"levelo://app?vid=f1e56b5c-28ed-47ed-afc2-12d53307922b","ios":"levelo://app?vid=f1e56b5c-28ed-47ed-afc2-12d53307922b"},"vehicle_type_id":"4","last_reported":1722013651,"current_range_meters":3600,"station_id":"ce4bhb12rcd13ifvqem0","pricing_plan_id":"cebpf4jnsgd1na2vs0mg"},{"bike_id":"3b0b959a-9b55-4b39-b1c2-f70c7834dfb7","system_id":"levelo_inurba_marseille","lat":43.28849,"lon":5.35836,"is_reserved":false,"is_disabled":false,"rental_uris":{"android":"levelo://app?vid=3b0b959a-9b55-4b39-b1c2-f70c7834dfb7","ios":"levelo://app?vid=3b0b959a-9b55-4b39-b1c2-f70c7834dfb7"},"vehicle_type_id":"4","last_reported":1722013651,"current_range_meters":0,"station_id":"ce4bhb12rcd13ifvqem0","pricing_plan_id":"cebpf4jnsgd1na2vs0mg"},{"bike_id":"3689b284-b932-4ad8-bc45-76cbf8913776","system_id":"levelo_inurba_marseille","lat":43.28839,"lon":5.35838,"is_reserved":false,"is_disabled":false,"rental_uris":{"android":"levelo://app?vid=3689b284-b932-4ad8-bc45-76cbf8913776","ios":"levelo://app?vid=3689b284-b932-4ad8-bc45-76cbf8913776"},"vehicle_type_id":"4","last_reported":1722013651,"current_range_meters":15200,"station_id":"ce4bhb12rcd13ifvqem0","pricing_plan_id":"cebpf4jnsgd1na2vs0mg"},{"bike_id":"cd27fbf8-3bc9-4967-bbb8-95d2ed48ac8a","system_id":"levelo_inurba_marseille","lat":43.312609,"lon":5.401662,"is_reserved":false,"is_disabled":false,"rental_uris":{"android":"levelo://app?vid=cd27fbf8-3bc9-4967-bbb8-95d2ed48ac8a","ios":"levelo://app?vid=cd27fbf8-3bc9-4967-bbb8-95d2ed48ac8a"},"vehicle_type_id":"4","last_reported":1722013651,"current_range_meters":25200,"station_id":"ce4bh092rcd13ifvqd30","pricing_plan_id":"cebpf4jnsgd1na2vs0mg"},{"bike_id":"4df74ee0-bb91-4cba-aad8-6467e1567409","system_id":"levelo_inurba_marseille","lat":43.309371,"lon":5.401449,"is_reserved":false,"is_disabled":false,"rental_uris":{"android":"levelo://app?vid=4df74ee0-bb91-4cba-aad8-6467e1567409","ios":"levelo://app?vid=4df74ee0-bb91-4cba-aad8-6467e1567409"},"vehicle_type_id":"4","last_reported":1722013651,"current_range_meters":8800,"station_id":"ce4bgvp2rcd13ifvqct0","pricing_plan_id":"cebpf4jnsgd1na2vs0mg"},{"bike_id":"ae48b3e5-654c-49c3-accf-d3e6d739c74d","system_id":"levelo_inurba_marseille","lat":43.309371,"lon":5.401449,"is_reserved":false,"is_disabled":false,"rental_uris":{"android":"levelo://app?vid=ae48b3e5-654c-49c3-accf-d3e6d739c74d","ios":"levelo://app?vid=ae48b3e5-654c-49c3-accf-d3e6d739c74d"},"vehicle_type_id":"4","last_reported":1722013651,"current_range_meters":11600,"station_id":"ce4bgvp2rcd13ifvqct0","pricing_plan_id":"cebpf4jnsgd1na2vs0mg"},{"bike_id":"9762e1ee-4d86-437e-87c6-9c08d74fd438","system_id":"levelo_inurba_marseille","lat":43.301117,"lon":5.398795,"is_reserved":false,"is_disabled":false,"rental_uris":{"android":"levelo://app?vid=9762e1ee-4d86-437e-87c6-9c08d74fd438","ios":"levelo://app?vid=9762e1ee-4d86-437e-87c6-9c08d74fd438"},"vehicle_type_id":"4","last_reported":1722013651,"current_range_meters":0,"station_id":"ce4bh0h2rcd13ifvqd40","pricing_plan_id":"cebpf4jnsgd1na2vs0mg"},{"bike_id":"e8f5b9bd-9eb7-46ef-89cd-4527737528ee","system_id":"levelo_inurba_marseille","lat":43.301117,"lon":5.398795,"is_reserved":false,"is_disabled":false,"rental_uris":{"android":"levelo://app?vid=e8f5b9bd-9eb7-46ef-89cd-4527737528ee","ios":"levelo://app?vid=e8f5b9bd-9eb7-46ef-89cd-4527737528ee"},"vehicle_type_id":"4","last_reported":1722013651,"current_range_meters":18000,"station_id":"ce4bh0h2rcd13ifvqd40","pricing_plan_id":"cebpf4jnsgd1na2vs0mg"},{"bike_id":"b6a8a0ff-06c6-41cb-beab-d1408168e9ae","system_id":"levelo_inurba_marseille","lat":43.30143,"lon":5.39862,"is_reserved":false,"is_disabled":false,"rental_uris":{"android":"levelo://app?vid=b6a8a0ff-06c6-41cb-beab-d1408168e9ae","ios":"levelo://app?vid=b6a8a0ff-06c6-41cb-beab-d1408168e9ae"},"vehicle_type_id":"4","last_reported":1722013651,"current_range_meters":0,"station_id":"ce4bh0h2rcd13ifvqd40","pricing_plan_id":"cebpf4jnsgd1na2vs0mg"},{"bike_id":"8315ffff-b49c-4fdf-a453-cda3ff5c0745","system_id":"levelo_inurba_marseille","lat":43.28727,"lon":5.36078,"is_reserved":false,"is_disabled":false,"rental_uris":{"android":"levelo://app?vid=8315ffff-b49c-4fdf-a453-cda3ff5c0745","ios":"levelo://app?vid=8315ffff-b49c-4fdf-a453-cda3ff5c0745"},"vehicle_type_id":"4","last_reported":1722013651,"current_range_meters":9600,"station_id":"cki0cbj6b192h4jlfktg","pricing_plan_id":"cebpf4jnsgd1na2vs0mg"},{"bike_id":"be5857ff-b702-443c-855b-7ccf0a6416ad","system_id":"levelo_inurba_marseille","lat":43.28727,"lon":5.36078,"is_reserved":false,"is_disabled":false,"rental_uris":{"android":"levelo://app?vid=be5857ff-b702-443c-855b-7ccf0a6416ad","ios":"levelo://app?vid=be5857ff-b702-443c-855b-7ccf0a6416ad"},"vehicle_type_id":"4","last_reported":1722013651,"current_range_meters":2000,"station_id":"cki0cbj6b192h4jlfktg","pricing_plan_id":"cebpf4jnsgd1na2vs0mg"},{"bike_id":"d9785dba-2471-4677-89c7-7a559cdf8210","system_id":"levelo_inurba_marseille","lat":43.286961,"lon":5.373785,"is_reserved":false,"is_disabled":false,"rental_uris":{"android":"levelo://app?vid=d9785dba-2471-4677-89c7-7a559cdf8210","ios":"levelo://app?vid=d9785dba-2471-4677-89c7-7a559cdf8210"},"vehicle_type_id":"4","last_reported":1722013651,"current_range_meters":14800,"station_id":"ce4bh3p2rcd13ifvqdq0","pricing_plan_id":"cebpf4jnsgd1na2vs0mg"},{"bike_id":"cf2eefb0-29d7-4b6d-acfe-55cc465c5de9","system_id":"levelo_inurba_marseille","lat":43.286961,"lon":5.373785,"is_reserved":false,"is_disabled":false,"rental_uris":{"android":"levelo://app?vid=cf2eefb0-29d7-4b6d-acfe-55cc465c5de9","ios":"levelo://app?vid=cf2eefb0-29d7-4b6d-acfe-55cc465c5de9"},"vehicle_type_id":"4","last_reported":1722013651,"current_range_meters":0,"station_id":"ce4bh3p2rcd13ifvqdq0","pricing_plan_id":"cebpf4jnsgd1na2vs0mg"},{"bike_id":"6da8ea62-01b8-41e1-92b9-e13a84ba31a4","system_id":"levelo_inurba_marseille","lat":43.298681,"lon":5.397225,"is_reserved":false,"is_disabled":false,"rental_uris":{"android":"levelo://app?vid=6da8ea62-01b8-41e1-92b9-e13a84ba31a4","ios":"levelo://app?vid=6da8ea62-01b8-41e1-92b9-e13a84ba31a4"},"vehicle_type_id":"4","last_reported":1722013651,"current_range_meters":0,"station_id":"ce4bh0h2rcd13ifvqd50","pricing_plan_id":"cebpf4jnsgd1na2vs0mg"},{"bike_id":"442bdb7e-7204-4c15-b70b-e6f831a4bdfe","system_id":"levelo_inurba_marseille","lat":43.29883,"lon":5.39735,"is_reserved":false,"is_disabled":false,"rental_uris":{"android":"levelo://app?vid=442bdb7e-7204-4c15-b70b-e6f831a4bdfe","ios":"levelo://app?vid=442bdb7e-7204-4c15-b70b-e6f831a4bdfe"},"vehicle_type_id":"4","last_reported":1722013651,"current_range_meters":0,"station_id":"ce4bh0h2rcd13ifvqd50","pricing_plan_id":"cebpf4jnsgd1na2vs0mg"},{"bike_id":"059154de-7ed1-4b42-b2db-c20136aa2dbb","system_id":"levelo_inurba_marseille","lat":43.286591,"lon":5.363346,"is_reserved":false,"is_disabled":false,"rental_uris":{"android":"levelo://app?vid=059154de-7ed1-4b42-b2db-c20136aa2dbb","ios":"levelo://app?vid=059154de-7ed1-4b42-b2db-c20136aa2dbb"},"vehicle_type_id":"4","last_reported":1722013651,"current_range_meters":3200,"station_id":"ce4bhah2rcd13ifvqej0","pricing_plan_id":"cebpf4jnsgd1na2vs0mg"},{"bike_id":"0dc17f50-dd3c-4610-b5cc-8c2197c1f9e1","system_id":"levelo_inurba_marseille","lat":43.286961,"lon":5.373785,"is_reserved":false,"is_disabled":false,"rental_uris":{"android":"levelo://app?vid=0dc17f50-dd3c-4610-b5cc-8c2197c1f9e1","ios":"levelo://app?vid=0dc17f50-dd3c-4610-b5cc-8c2197c1f9e1"},"vehicle_type_id":"4","last_reported":1722013651,"current_range_meters":0,"station_id":"ce4bh3p2rcd13ifvqdq0","pricing_plan_id":"cebpf4jnsgd1na2vs0mg"},{"bike_id":"6f27a228-ab5e-4ecd-a21e-379b478bed90","system_id":"levelo_inurba_marseille","lat":43.286591,"lon":5.363346,"is_reserved":false,"is_disabled":false,"rental_uris":{"android":"levelo://app?vid=6f27a228-ab5e-4ecd-a21e-379b478bed90","ios":"levelo://app?vid=6f27a228-ab5e-4ecd-a21e-379b478bed90"},"vehicle_type_id":"4","last_reported":1722013651,"current_range_meters":26800,"station_id":"ce4bhah2rcd13ifvqej0","pricing_plan_id":"cebpf4jnsgd1na2vs0mg"},{"bike_id":"1b3a9b70-f1c9-41df-9d4d-f093b846f998","system_id":"levelo_inurba_marseille","lat":43.286593,"lon":5.363346,"is_reserved":false,"is_disabled":false,"rental_uris":{"android":"levelo://app?vid=1b3a9b70-f1c9-41df-9d4d-f093b846f998","ios":"levelo://app?vid=1b3a9b70-f1c9-41df-9d4d-f093b846f998"},"vehicle_type_id":"4","last_reported":1722013651,"current_range_meters":6000,"station_id":"ce4bhah2rcd13ifvqej0","pricing_plan_id":"cebpf4jnsgd1na2vs0mg"},{"bike_id":"6c1d6c9d-3fa3-4611-850c-63d149365803","system_id":"levelo_inurba_marseille","lat":43.289307,"lon":5.38406,"is_reserved":false,"is_disabled":false,"rental_uris":{"android":"levelo://app?vid=6c1d6c9d-3fa3-4611-850c-63d149365803","ios":"levelo://app?vid=6c1d6c9d-3fa3-4611-850c-63d149365803"},"vehicle_type_id":"4","last_reported":1722013651,"current_range_meters":20800,"station_id":"ce4bh612rcd13ifvqe6g","pricing_plan_id":"cebpf4jnsgd1na2vs0mg"},{"bike_id":"c0cd6bf5-47d6-4b06-bab3-0178617f1c62","system_id":"levelo_inurba_marseille","lat":43.29029,"lon":5.38626,"is_reserved":false,"is_disabled":false,"rental_uris":{"android":"levelo://app?vid=c0cd6bf5-47d6-4b06-bab3-0178617f1c62","ios":"levelo://app?vid=c0cd6bf5-47d6-4b06-bab3-0178617f1c62"},"vehicle_type_id":"4","last_reported":1722013651,"current_range_meters":10800,"station_id":"ce4bh4p2rcd13ifvqe0g","pricing_plan_id":"cebpf4jnsgd1na2vs0mg"},{"bike_id":"7cb501af-6159-457c-91e9-527bcffdc3e7","system_id":"levelo_inurba_marseille","lat":43.291994,"lon":5.392907,"is_reserved":false,"is_disabled":false,"rental_uris":{"android":"levelo://app?vid=7cb501af-6159-457c-91e9-527bcffdc3e7","ios":"levelo://app?vid=7cb501af-6159-457c-91e9-527bcffdc3e7"},"vehicle_type_id":"4","last_reported":1722013651,"current_range_meters":1200,"station_id":"ce4bh192rcd13ifvqdd0","pricing_plan_id":"cebpf4jnsgd1na2vs0mg"},{"bike_id":"dcba1796-e4b8-4684-baba-d33446a8e0c7","system_id":"levelo_inurba_marseille","lat":43.29032,"lon":5.38638,"is_reserved":false,"is_disabled":false,"rental_uris":{"android":"levelo://app?vid=dcba1796-e4b8-4684-baba-d33446a8e0c7","ios":"levelo://app?vid=dcba1796-e4b8-4684-baba-d33446a8e0c7"},"vehicle_type_id":"4","last_reported":1722013651,"current_range_meters":15200,"station_id":"","pricing_plan_id":"cebpf4jnsgd1na2vs0mg"},{"bike_id":"6c254fe7-b6dc-4830-b855-43a5cf985cb4","system_id":"levelo_inurba_marseille","lat":43.290336,"lon":5.386425,"is_reserved":false,"is_disabled":false,"rental_uris":{"android":"levelo://app?vid=6c254fe7-b6dc-4830-b855-43a5cf985cb4","ios":"levelo://app?vid=6c254fe7-b6dc-4830-b855-43a5cf985cb4"},"vehicle_type_id":"4","last_reported":1722013651,"current_range_meters":14000,"station_id":"ce4bh4p2rcd13ifvqe0g","pricing_plan_id":"cebpf4jnsgd1na2vs0mg"},{"bike_id":"7a8e48e0-3d47-4143-901a-c9655d119a05","system_id":"levelo_inurba_marseille","lat":43.302759,"lon":5.400793,"is_reserved":false,"is_disabled":false,"rental_uris":{"android":"levelo://app?vid=7a8e48e0-3d47-4143-901a-c9655d119a05","ios":"levelo://app?vid=7a8e48e0-3d47-4143-901a-c9655d119a05"},"vehicle_type_id":"4","last_reported":1722013651,"current_range_meters":3200,"station_id":"ce4bgvh2rcd13ifvqcs0","pricing_plan_id":"cebpf4jnsgd1na2vs0mg"},{"bike_id":"fd5532a9-6cb5-43ea-91c8-12c1b9ada195","system_id":"levelo_inurba_marseille","lat":43.302759,"lon":5.400793,"is_reserved":false,"is_disabled":false,"rental_uris":{"android":"levelo://app?vid=fd5532a9-6cb5-43ea-91c8-12c1b9ada195","ios":"levelo://app?vid=fd5532a9-6cb5-43ea-91c8-12c1b9ada195"},"vehicle_type_id":"4","last_reported":1722013651,"current_range_meters":4400,"station_id":"ce4bgvh2rcd13ifvqcs0","pricing_plan_id":"cebpf4jnsgd1na2vs0mg"},{"bike_id":"50b0f146-9bd1-4e94-a400-8979eb5d0545","system_id":"levelo_inurba_marseille","lat":43.286039,"lon":5.370679,"is_reserved":false,"is_disabled":false,"rental_uris":{"android":"levelo://app?vid=50b0f146-9bd1-4e94-a400-8979eb5d0545","ios":"levelo://app?vid=50b0f146-9bd1-4e94-a400-8979eb5d0545"},"vehicle_type_id":"4","last_reported":1722013651,"current_range_meters":10400,"station_id":"ce4bht12rcd13ifvqi60","pricing_plan_id":"cebpf4jnsgd1na2vs0mg"},{"bike_id":"1f5f1563-fb50-463c-821a-741b31db7430","system_id":"levelo_inurba_marseille","lat":43.2861,"lon":5.37064,"is_reserved":false,"is_disabled":false,"rental_uris":{"android":"levelo://app?vid=1f5f1563-fb50-463c-821a-741b31db7430","ios":"levelo://app?vid=1f5f1563-fb50-463c-821a-741b31db7430"},"vehicle_type_id":"4","last_reported":1722013651,"current_range_meters":20400,"station_id":"ce4bht12rcd13ifvqi60","pricing_plan_id":"cebpf4jnsgd1na2vs0mg"},{"bike_id":"b1970123-4438-4fad-8aed-85750192b74e","system_id":"levelo_inurba_marseille","lat":43.286039,"lon":5.370679,"is_reserved":false,"is_disabled":false,"rental_uris":{"android":"levelo://app?vid=b1970123-4438-4fad-8aed-85750192b74e","ios":"levelo://app?vid=b1970123-4438-4fad-8aed-85750192b74e"},"vehicle_type_id":"4","last_reported":1722013651,"current_range_meters":18400,"station_id":"ce4bht12rcd13ifvqi60","pricing_plan_id":"cebpf4jnsgd1na2vs0mg"},{"bike_id":"fc79a35f-4f6d-490c-8146-73c23bd854c1","system_id":"levelo_inurba_marseille","lat":43.286039,"lon":5.370679,"is_reserved":false,"is_disabled":false,"rental_uris":{"android":"levelo://app?vid=fc79a35f-4f6d-490c-8146-73c23bd854c1","ios":"levelo://app?vid=fc79a35f-4f6d-490c-8146-73c23bd854c1"},"vehicle_type_id":"4","last_reported":1722013651,"current_range_meters":2000,"station_id":"ce4bht12rcd13ifvqi60","pricing_plan_id":"cebpf4jnsgd1na2vs0mg"},{"bike_id":"2f5942b2-6256-43e8-a88c-3f6c27d9f551","system_id":"levelo_inurba_marseille","lat":43.28725,"lon":5.37937,"is_reserved":false,"is_disabled":false,"rental_uris":{"android":"levelo://app?vid=2f5942b2-6256-43e8-a88c-3f6c27d9f551","ios":"levelo://app?vid=2f5942b2-6256-43e8-a88c-3f6c27d9f551"},"vehicle_type_id":"4","last_reported":1722013651,"current_range_meters":10400,"station_id":"ce4bh9p2rcd13ifvqec0","pricing_plan_id":"cebpf4jnsgd1na2vs0mg"},{"bike_id":"4524d4e2-2fc6-468d-be4a-f676fb2cb4f6","system_id":"levelo_inurba_marseille","lat":43.319702,"lon":5.402855,"is_reserved":false,"is_disabled":false,"rental_uris":{"android":"levelo://app?vid=4524d4e2-2fc6-468d-be4a-f676fb2cb4f6","ios":"levelo://app?vid=4524d4e2-2fc6-468d-be4a-f676fb2cb4f6"},"vehicle_type_id":"4","last_reported":1722013651,"current_range_meters":15600,"station_id":"","pricing_plan_id":"cebpf4jnsgd1na2vs0mg"},{"bike_id":"2c6c059b-29d7-487c-a60d-8188c1c37302","system_id":"levelo_inurba_marseille","lat":43.28724,"lon":5.37936,"is_reserved":false,"is_disabled":false,"rental_uris":{"android":"levelo://app?vid=2c6c059b-29d7-487c-a60d-8188c1c37302","ios":"levelo://app?vid=2c6c059b-29d7-487c-a60d-8188c1c37302"},"vehicle_type_id":"4","last_reported":1722013651,"current_range_meters":8800,"station_id":"ce4bh9p2rcd13ifvqec0","pricing_plan_id":"cebpf4jnsgd1na2vs0mg"},{"bike_id":"2b50e558-30c3-428c-a7d6-f03fdf1137f9","system_id":"levelo_inurba_marseille","lat":43.287184,"lon":5.37937,"is_reserved":false,"is_disabled":false,"rental_uris":{"android":"levelo://app?vid=2b50e558-30c3-428c-a7d6-f03fdf1137f9","ios":"levelo://app?vid=2b50e558-30c3-428c-a7d6-f03fdf1137f9"},"vehicle_type_id":"4","last_reported":1722013651,"current_range_meters":4400,"station_id":"ce4bh9p2rcd13ifvqec0","pricing_plan_id":"cebpf4jnsgd1na2vs0mg"},{"bike_id":"67636080-86ec-4cf3-b0df-d8abf6ecfa3d","system_id":"levelo_inurba_marseille","lat":43.287184,"lon":5.37937,"is_reserved":false,"is_disabled":false,"rental_uris":{"android":"levelo://app?vid=67636080-86ec-4cf3-b0df-d8abf6ecfa3d","ios":"levelo://app?vid=67636080-86ec-4cf3-b0df-d8abf6ecfa3d"},"vehicle_type_id":"4","last_reported":1722013651,"current_range_meters":2800,"station_id":"ce4bh9p2rcd13ifvqec0","pricing_plan_id":"cebpf4jnsgd1na2vs0mg"},{"bike_id":"ef4eda02-d2fa-42f6-92c7-864ee4f2be50","system_id":"levelo_inurba_marseille","lat":43.316828,"lon":5.404723,"is_reserved":false,"is_disabled":false,"rental_uris":{"android":"levelo://app?vid=ef4eda02-d2fa-42f6-92c7-864ee4f2be50","ios":"levelo://app?vid=ef4eda02-d2fa-42f6-92c7-864ee4f2be50"},"vehicle_type_id":"4","last_reported":1722013651,"current_range_meters":3600,"station_id":"ce4bh012rcd13ifvqd00","pricing_plan_id":"cebpf4jnsgd1na2vs0mg"},{"bike_id":"7600c489-2920-4ef7-abc5-0ec83928783d","system_id":"levelo_inurba_marseille","lat":43.316828,"lon":5.404723,"is_reserved":false,"is_disabled":false,"rental_uris":{"android":"levelo://app?vid=7600c489-2920-4ef7-abc5-0ec83928783d","ios":"levelo://app?vid=7600c489-2920-4ef7-abc5-0ec83928783d"},"vehicle_type_id":"4","last_reported":1722013651,"current_range_meters":2800,"station_id":"ce4bh012rcd13ifvqd00","pricing_plan_id":"cebpf4jnsgd1na2vs0mg"},{"bike_id":"6f5d6974-6488-4cc9-884a-a4d337f77512","system_id":"levelo_inurba_marseille","lat":43.291994,"lon":5.392907,"is_reserved":false,"is_disabled":false,"rental_uris":{"android":"levelo://app?vid=6f5d6974-6488-4cc9-884a-a4d337f77512","ios":"levelo://app?vid=6f5d6974-6488-4cc9-884a-a4d337f77512"},"vehicle_type_id":"4","last_reported":1722013651,"current_range_meters":3600,"station_id":"ce4bh192rcd13ifvqdd0","pricing_plan_id":"cebpf4jnsgd1na2vs0mg"},{"bike_id":"3b93b363-bc84-448d-b01a-5966a53db0bb","system_id":"levelo_inurba_marseille","lat":43.294314,"lon":5.397498,"is_reserved":false,"is_disabled":false,"rental_uris":{"android":"levelo://app?vid=3b93b363-bc84-448d-b01a-5966a53db0bb","ios":"levelo://app?vid=3b93b363-bc84-448d-b01a-5966a53db0bb"},"vehicle_type_id":"4","last_reported":1722013651,"current_range_meters":5200,"station_id":"ce4bh3h2rcd13ifvqdo0","pricing_plan_id":"cebpf4jnsgd1na2vs0mg"},{"bike_id":"c889d983-b423-4fc8-bdb3-6fb4c2ca02dc","system_id":"levelo_inurba_marseille","lat":43.28623,"lon":5.3511,"is_reserved":false,"is_disabled":false,"rental_uris":{"android":"levelo://app?vid=c889d983-b423-4fc8-bdb3-6fb4c2ca02dc","ios":"levelo://app?vid=c889d983-b423-4fc8-bdb3-6fb4c2ca02dc"},"vehicle_type_id":"4","last_reported":1722013651,"current_range_meters":20400,"station_id":"ce4bhch2rcd13ifvqeug","pricing_plan_id":"cebpf4jnsgd1na2vs0mg"},{"bike_id":"88531eec-2d5d-47a1-8611-e85225d23ed1","system_id":"levelo_inurba_marseille","lat":43.28621,"lon":5.35106,"is_reserved":false,"is_disabled":false,"rental_uris":{"android":"levelo://app?vid=88531eec-2d5d-47a1-8611-e85225d23ed1","ios":"levelo://app?vid=88531eec-2d5d-47a1-8611-e85225d23ed1"},"vehicle_type_id":"4","last_reported":1722013651,"current_range_meters":10800,"station_id":"ce4bhch2rcd13ifvqeug","pricing_plan_id":"cebpf4jnsgd1na2vs0mg"},{"bike_id":"48da7bcc-1746-49aa-b40f-ae37a7f2a7b6","system_id":"levelo_inurba_marseille","lat":43.2862,"lon":5.35109,"is_reserved":false,"is_disabled":false,"rental_uris":{"android":"levelo://app?vid=48da7bcc-1746-49aa-b40f-ae37a7f2a7b6","ios":"levelo://app?vid=48da7bcc-1746-49aa-b40f-ae37a7f2a7b6"},"vehicle_type_id":"4","last_reported":1722013651,"current_range_meters":0,"station_id":"ce4bhch2rcd13ifvqeug","pricing_plan_id":"cebpf4jnsgd1na2vs0mg"},{"bike_id":"c259b927-82a7-4461-ac47-0902cd37113c","system_id":"levelo_inurba_marseille","lat":43.28619,"lon":5.3511,"is_reserved":false,"is_disabled":false,"rental_uris":{"android":"levelo://app?vid=c259b927-82a7-4461-ac47-0902cd37113c","ios":"levelo://app?vid=c259b927-82a7-4461-ac47-0902cd37113c"},"vehicle_type_id":"4","last_reported":1722013651,"current_range_meters":22400,"station_id":"ce4bhch2rcd13ifvqeug","pricing_plan_id":"cebpf4jnsgd1na2vs0mg"},{"bike_id":"0fe2ad61-149c-425e-b8ce-63b35c16d69f","system_id":"levelo_inurba_marseille","lat":43.28619,"lon":5.3511,"is_reserved":false,"is_disabled":false,"rental_uris":{"android":"levelo://app?vid=0fe2ad61-149c-425e-b8ce-63b35c16d69f","ios":"levelo://app?vid=0fe2ad61-149c-425e-b8ce-63b35c16d69f"},"vehicle_type_id":"4","last_reported":1722013651,"current_range_meters":29600,"station_id":"ce4bhch2rcd13ifvqeug","pricing_plan_id":"cebpf4jnsgd1na2vs0mg"},{"bike_id":"4031a993-aa02-4632-b29b-56979fc61b85","system_id":"levelo_inurba_marseille","lat":43.28621,"lon":5.35103,"is_reserved":false,"is_disabled":false,"rental_uris":{"android":"levelo://app?vid=4031a993-aa02-4632-b29b-56979fc61b85","ios":"levelo://app?vid=4031a993-aa02-4632-b29b-56979fc61b85"},"vehicle_type_id":"4","last_reported":1722013651,"current_range_meters":25600,"station_id":"ce4bhch2rcd13ifvqeug","pricing_plan_id":"cebpf4jnsgd1na2vs0mg"},{"bike_id":"caaeb981-056c-452e-8082-d03c46a05295","system_id":"levelo_inurba_marseille","lat":43.2862,"lon":5.35105,"is_reserved":false,"is_disabled":false,"rental_uris":{"android":"levelo://app?vid=caaeb981-056c-452e-8082-d03c46a05295","ios":"levelo://app?vid=caaeb981-056c-452e-8082-d03c46a05295"},"vehicle_type_id":"4","last_reported":1722013651,"current_range_meters":13600,"station_id":"ce4bhch2rcd13ifvqeug","pricing_plan_id":"cebpf4jnsgd1na2vs0mg"},{"bike_id":"7e0ec85a-2ec2-49d7-921a-bbd5528528cc","system_id":"levelo_inurba_marseille","lat":43.28619,"lon":5.35108,"is_reserved":false,"is_disabled":false,"rental_uris":{"android":"levelo://app?vid=7e0ec85a-2ec2-49d7-921a-bbd5528528cc","ios":"levelo://app?vid=7e0ec85a-2ec2-49d7-921a-bbd5528528cc"},"vehicle_type_id":"4","last_reported":1722013651,"current_range_meters":22000,"station_id":"ce4bhch2rcd13ifvqeug","pricing_plan_id":"cebpf4jnsgd1na2vs0mg"},{"bike_id":"fa242130-2c61-45ac-8edc-bd3539e19d5c","system_id":"levelo_inurba_marseille","lat":43.2862,"lon":5.35104,"is_reserved":false,"is_disabled":false,"rental_uris":{"android":"levelo://app?vid=fa242130-2c61-45ac-8edc-bd3539e19d5c","ios":"levelo://app?vid=fa242130-2c61-45ac-8edc-bd3539e19d5c"},"vehicle_type_id":"4","last_reported":1722013651,"current_range_meters":5200,"station_id":"ce4bhch2rcd13ifvqeug","pricing_plan_id":"cebpf4jnsgd1na2vs0mg"},{"bike_id":"f06bd028-4183-4a63-a33b-7cd961d1dc9c","system_id":"levelo_inurba_marseille","lat":43.28619,"lon":5.35107,"is_reserved":false,"is_disabled":false,"rental_uris":{"android":"levelo://app?vid=f06bd028-4183-4a63-a33b-7cd961d1dc9c","ios":"levelo://app?vid=f06bd028-4183-4a63-a33b-7cd961d1dc9c"},"vehicle_type_id":"4","last_reported":1722013651,"current_range_meters":400,"station_id":"ce4bhch2rcd13ifvqeug","pricing_plan_id":"cebpf4jnsgd1na2vs0mg"},{"bike_id":"4334cc93-4626-4ff5-81e9-ec32fcd5646c","system_id":"levelo_inurba_marseille","lat":43.28618,"lon":5.35109,"is_reserved":false,"is_disabled":false,"rental_uris":{"android":"levelo://app?vid=4334cc93-4626-4ff5-81e9-ec32fcd5646c","ios":"levelo://app?vid=4334cc93-4626-4ff5-81e9-ec32fcd5646c"},"vehicle_type_id":"4","last_reported":1722013651,"current_range_meters":7600,"station_id":"ce4bhch2rcd13ifvqeug","pricing_plan_id":"cebpf4jnsgd1na2vs0mg"},{"bike_id":"bdf0f75b-e328-40a6-9d69-305495792526","system_id":"levelo_inurba_marseille","lat":43.2862,"lon":5.35101,"is_reserved":false,"is_disabled":false,"rental_uris":{"android":"levelo://app?vid=bdf0f75b-e328-40a6-9d69-305495792526","ios":"levelo://app?vid=bdf0f75b-e328-40a6-9d69-305495792526"},"vehicle_type_id":"4","last_reported":1722013651,"current_range_meters":8000,"station_id":"ce4bhch2rcd13ifvqeug","pricing_plan_id":"cebpf4jnsgd1na2vs0mg"},{"bike_id":"6f530bf0-eb12-42d9-9a09-eced5229fe42","system_id":"levelo_inurba_marseille","lat":43.28618,"lon":5.35106,"is_reserved":false,"is_disabled":false,"rental_uris":{"android":"levelo://app?vid=6f530bf0-eb12-42d9-9a09-eced5229fe42","ios":"levelo://app?vid=6f530bf0-eb12-42d9-9a09-eced5229fe42"},"vehicle_type_id":"4","last_reported":1722013651,"current_range_meters":7600,"station_id":"ce4bhch2rcd13ifvqeug","pricing_plan_id":"cebpf4jnsgd1na2vs0mg"},{"bike_id":"15e7f350-479e-4710-bb24-8a293e33e897","system_id":"levelo_inurba_marseille","lat":43.28618,"lon":5.35105,"is_reserved":false,"is_disabled":false,"rental_uris":{"android":"levelo://app?vid=15e7f350-479e-4710-bb24-8a293e33e897","ios":"levelo://app?vid=15e7f350-479e-4710-bb24-8a293e33e897"},"vehicle_type_id":"4","last_reported":1722013651,"current_range_meters":31200,"station_id":"ce4bhch2rcd13ifvqeug","pricing_plan_id":"cebpf4jnsgd1na2vs0mg"},{"bike_id":"74959448-9b9c-4901-82a0-360abfdc08b3","system_id":"levelo_inurba_marseille","lat":43.28616,"lon":5.35109,"is_reserved":false,"is_disabled":false,"rental_uris":{"android":"levelo://app?vid=74959448-9b9c-4901-82a0-360abfdc08b3","ios":"levelo://app?vid=74959448-9b9c-4901-82a0-360abfdc08b3"},"vehicle_type_id":"4","last_reported":1722013651,"current_range_meters":6800,"station_id":"ce4bhch2rcd13ifvqeug","pricing_plan_id":"cebpf4jnsgd1na2vs0mg"},{"bike_id":"c44a26b3-6c30-4ade-a9fc-d8f86908f317","system_id":"levelo_inurba_marseille","lat":43.286171,"lon":5.351042,"is_reserved":false,"is_disabled":false,"rental_uris":{"android":"levelo://app?vid=c44a26b3-6c30-4ade-a9fc-d8f86908f317","ios":"levelo://app?vid=c44a26b3-6c30-4ade-a9fc-d8f86908f317"},"vehicle_type_id":"4","last_reported":1722013651,"current_range_meters":6400,"station_id":"ce4bhch2rcd13ifvqeug","pricing_plan_id":"cebpf4jnsgd1na2vs0mg"},{"bike_id":"8ba2cfc1-5b83-4c84-96b8-ade85cb3e19f","system_id":"levelo_inurba_marseille","lat":43.28618,"lon":5.35101,"is_reserved":false,"is_disabled":false,"rental_uris":{"android":"levelo://app?vid=8ba2cfc1-5b83-4c84-96b8-ade85cb3e19f","ios":"levelo://app?vid=8ba2cfc1-5b83-4c84-96b8-ade85cb3e19f"},"vehicle_type_id":"4","last_reported":1722013651,"current_range_meters":23600,"station_id":"ce4bhch2rcd13ifvqeug","pricing_plan_id":"cebpf4jnsgd1na2vs0mg"},{"bike_id":"388c4ef9-2d93-491e-8c84-3974f31ad98a","system_id":"levelo_inurba_marseille","lat":43.28615,"lon":5.35109,"is_reserved":false,"is_disabled":false,"rental_uris":{"android":"levelo://app?vid=388c4ef9-2d93-491e-8c84-3974f31ad98a","ios":"levelo://app?vid=388c4ef9-2d93-491e-8c84-3974f31ad98a"},"vehicle_type_id":"4","last_reported":1722013651,"current_range_meters":26800,"station_id":"ce4bhch2rcd13ifvqeug","pricing_plan_id":"cebpf4jnsgd1na2vs0mg"},{"bike_id":"98c0ae7a-d80d-4bf7-a7fa-45cb0cd2abcc","system_id":"levelo_inurba_marseille","lat":43.28617,"lon":5.35102,"is_reserved":false,"is_disabled":false,"rental_uris":{"android":"levelo://app?vid=98c0ae7a-d80d-4bf7-a7fa-45cb0cd2abcc","ios":"levelo://app?vid=98c0ae7a-d80d-4bf7-a7fa-45cb0cd2abcc"},"vehicle_type_id":"4","last_reported":1722013651,"current_range_meters":21200,"station_id":"ce4bhch2rcd13ifvqeug","pricing_plan_id":"cebpf4jnsgd1na2vs0mg"},{"bike_id":"a25974b8-03b2-4f3a-b94c-5afc6876cfa1","system_id":"levelo_inurba_marseille","lat":43.28616,"lon":5.35105,"is_reserved":false,"is_disabled":false,"rental_uris":{"android":"levelo://app?vid=a25974b8-03b2-4f3a-b94c-5afc6876cfa1","ios":"levelo://app?vid=a25974b8-03b2-4f3a-b94c-5afc6876cfa1"},"vehicle_type_id":"4","last_reported":1722013651,"current_range_meters":17600,"station_id":"ce4bhch2rcd13ifvqeug","pricing_plan_id":"cebpf4jnsgd1na2vs0mg"},{"bike_id":"f4713196-24b9-41bf-93cf-d56921f1806c","system_id":"levelo_inurba_marseille","lat":43.28616,"lon":5.35105,"is_reserved":false,"is_disabled":false,"rental_uris":{"android":"levelo://app?vid=f4713196-24b9-41bf-93cf-d56921f1806c","ios":"levelo://app?vid=f4713196-24b9-41bf-93cf-d56921f1806c"},"vehicle_type_id":"4","last_reported":1722013651,"current_range_meters":5600,"station_id":"ce4bhch2rcd13ifvqeug","pricing_plan_id":"cebpf4jnsgd1na2vs0mg"},{"bike_id":"f6c8cb4b-1e8e-4ebd-9223-e9387c3d4451","system_id":"levelo_inurba_marseille","lat":43.28615,"lon":5.35108,"is_reserved":false,"is_disabled":false,"rental_uris":{"android":"levelo://app?vid=f6c8cb4b-1e8e-4ebd-9223-e9387c3d4451","ios":"levelo://app?vid=f6c8cb4b-1e8e-4ebd-9223-e9387c3d4451"},"vehicle_type_id":"4","last_reported":1722013651,"current_range_meters":13200,"station_id":"ce4bhch2rcd13ifvqeug","pricing_plan_id":"cebpf4jnsgd1na2vs0mg"},{"bike_id":"78483024-ad41-427f-b117-71db54461f7e","system_id":"levelo_inurba_marseille","lat":43.28615,"lon":5.35108,"is_reserved":false,"is_disabled":false,"rental_uris":{"android":"levelo://app?vid=78483024-ad41-427f-b117-71db54461f7e","ios":"levelo://app?vid=78483024-ad41-427f-b117-71db54461f7e"},"vehicle_type_id":"4","last_reported":1722013651,"current_range_meters":6400,"station_id":"ce4bhch2rcd13ifvqeug","pricing_plan_id":"cebpf4jnsgd1na2vs0mg"},{"bike_id":"bb1db9bd-fc0e-4bbb-a9c6-a3ef18d6a1a4","system_id":"levelo_inurba_marseille","lat":43.28615,"lon":5.35106,"is_reserved":false,"is_disabled":false,"rental_uris":{"android":"levelo://app?vid=bb1db9bd-fc0e-4bbb-a9c6-a3ef18d6a1a4","ios":"levelo://app?vid=bb1db9bd-fc0e-4bbb-a9c6-a3ef18d6a1a4"},"vehicle_type_id":"4","last_reported":1722013651,"current_range_meters":6400,"station_id":"ce4bhch2rcd13ifvqeug","pricing_plan_id":"cebpf4jnsgd1na2vs0mg"},{"bike_id":"ac648b6d-b2e8-41fc-ad87-a7b6f8b7e73b","system_id":"levelo_inurba_marseille","lat":43.28614,"lon":5.35109,"is_reserved":false,"is_disabled":false,"rental_uris":{"android":"levelo://app?vid=ac648b6d-b2e8-41fc-ad87-a7b6f8b7e73b","ios":"levelo://app?vid=ac648b6d-b2e8-41fc-ad87-a7b6f8b7e73b"},"vehicle_type_id":"4","last_reported":1722013651,"current_range_meters":10000,"station_id":"ce4bhch2rcd13ifvqeug","pricing_plan_id":"cebpf4jnsgd1na2vs0mg"},{"bike_id":"4fee59e8-77d9-4ddf-8c4b-8d068809d060","system_id":"levelo_inurba_marseille","lat":43.28615,"lon":5.35104,"is_reserved":false,"is_disabled":false,"rental_uris":{"android":"levelo://app?vid=4fee59e8-77d9-4ddf-8c4b-8d068809d060","ios":"levelo://app?vid=4fee59e8-77d9-4ddf-8c4b-8d068809d060"},"vehicle_type_id":"4","last_reported":1722013651,"current_range_meters":20400,"station_id":"ce4bhch2rcd13ifvqeug","pricing_plan_id":"cebpf4jnsgd1na2vs0mg"},{"bike_id":"e955a10c-38c6-45b9-9357-edae8afc0bd9","system_id":"levelo_inurba_marseille","lat":43.285856,"lon":5.350771,"is_reserved":false,"is_disabled":false,"rental_uris":{"android":"levelo://app?vid=e955a10c-38c6-45b9-9357-edae8afc0bd9","ios":"levelo://app?vid=e955a10c-38c6-45b9-9357-edae8afc0bd9"},"vehicle_type_id":"4","last_reported":1722013651,"current_range_meters":10400,"station_id":"ce4bhch2rcd13ifvqeug","pricing_plan_id":"cebpf4jnsgd1na2vs0mg"},{"bike_id":"1149ba96-6a4e-4146-87d3-5849a13be15b","system_id":"levelo_inurba_marseille","lat":43.28615,"lon":5.35102,"is_reserved":false,"is_disabled":false,"rental_uris":{"android":"levelo://app?vid=1149ba96-6a4e-4146-87d3-5849a13be15b","ios":"levelo://app?vid=1149ba96-6a4e-4146-87d3-5849a13be15b"},"vehicle_type_id":"4","last_reported":1722013651,"current_range_meters":4400,"station_id":"ce4bhch2rcd13ifvqeug","pricing_plan_id":"cebpf4jnsgd1na2vs0mg"},