{"last_updated":1702490875,"ttl":30,"version":"2.2","data":{"bikes":[{"bike_id":"893b7728-e075-4d30-81b4-08c50607000e","system_id":"levelo_inurba_marseille","lat":43.314811,"lon":5.373103,"is_reserved":false,"is_disabled":false,"rental_uris":{"android":"levelo://app?vid=893b7728-e075-4d30-81b4-08c50607000e","ios":"levelo://app?vid=893b7728-e075-4d30-81b4-08c50607000e"},"vehicle_type_id":"4","last_reported":1702490875,"current_range_meters":22800,"station_id":"ce4bgt12rcd13ifvqcd0","pricing_plan_id":"free"},{"bike_id":"3f8b821f-e430-4a35-bf14-f8b6e777ea11","system_id":"levelo_inurba_marseille","lat":43.313939,"lon":5.375306,"is_reserved":false,"is_disabled":false,"rental_uris":{"android":"levelo://app?vid=3f8b821f-e430-4a35-bf14-f8b6e777ea11","ios":"levelo://app?vid=3f8b821f-e430-4a35-bf14-f8b6e777ea11"},"vehicle_type_id":"4","last_reported":1702490875,"current_range_meters":6800,"station_id":"","pricing_plan_id":"free"},{"bike_id":"7e70b8b1-b195-4947-ab2a-ecdc19da3aab","system_id":"levelo_inurba_marseille","lat":43.305712,"lon":5.365641,"is_reserved":false,"is_disabled":false,"rental_uris":{"android":"levelo://app?vid=7e70b8b1-b195-4947-ab2a-ecdc19da3aab","ios":"levelo://app?vid=7e70b8b1-b195-4947-ab2a-ecdc19da3aab"},"vehicle_type_id":"4","last_reported":1702490875,"current_range_meters":3200,"station_id":"ce4bgs12rcd13ifvqcag","pricing_plan_id":"free"},{"bike_id":"955e4ab2-16e5-44e8-a986-a2f50ff96c06","system_id":"levelo_inurba_marseille","lat":43.305382,"lon":5.365389,"is_reserved":false,"is_disabled":false,"rental_uris":{"android":"levelo://app?vid=955e4ab2-16e5-44e8-a986-a2f50ff96c06","ios":"levelo://app?vid=955e4ab2-16e5-44e8-a986-a2f50ff96c06"},"vehicle_type_id":"4","last_reported":1702490875,"current_range_meters":26400,"station_id":"","pricing_plan_id":"free"},{"bike_id":"6427e35d-79c9-42af-bbe8-84504b1f807e","system_id":"levelo_inurba_marseille","lat":43.305714,"lon":5.365633,"is_reserved":false,"is_disabled":false,"rental_uris":{"android":"levelo://app?vid=6427e35d-79c9-42af-bbe8-84504b1f807e","ios":"levelo://app?vid=6427e35d-79c9-42af-bbe8-84504b1f807e"},"vehicle_type_id":"4","last_reported":1702490875,"current_range_meters":26800,"station_id":"ce4bgs12rcd13ifvqcag","pricing_plan_id":"free"},{"bike_id":"fc634ee6-83b9-4f8e-9002-bff1c27260e0","system_id":"levelo_inurba_marseille","lat":43.31126,"lon":5.37772,"is_reserved":false,"is_disabled":false,"rental_uris":{"android":"levelo://app?vid=fc634ee6-83b9-4f8e-9002-bff1c27260e0","ios":"levelo://app?vid=fc634ee6-83b9-4f8e-9002-bff1c27260e0"},"vehicle_type_id":"4","last_reported":1702490875,"current_range_meters":11600,"station_id":"ce4bgt92rcd13ifvqcg0","pricing_plan_id":"free"},{"bike_id":"231d4594-39ed-4e7c-a1cf-fd7294d6f667","system_id":"levelo_inurba_marseille","lat":43.311125,"lon":5.377624,"is_reserved":false,"is_disabled":false,"rental_uris":{"android":"levelo://app?vid=231d4594-39ed-4e7c-a1cf-fd7294d6f667","ios":"levelo://app?vid=231d4594-39ed-4e7c-a1cf-fd7294d6f667"},"vehicle_type_id":"4","last_reported":1702490875,"current_range_meters":0,"station_id":"ce4bgt92rcd13ifvqcg0","pricing_plan_id":"free"},{"bike_id":"dc68debd-6203-4696-b9a5-55eea857c5a0","system_id":"levelo_inurba_marseille","lat":43.31716,"lon":5.37682,"is_reserved":false,"is_disabled":false,"rental_uris":{"android":"levelo://app?vid=dc68debd-6203-4696-b9a5-55eea857c5a0","ios":"levelo://app?vid=dc68debd-6203-4696-b9a5-55eea857c5a0"},"vehicle_type_id":"4","last_reported":1702490875,"current_range_meters":22800,"station_id":"ce4bgth2rcd13ifvqch0","pricing_plan_id":"free"},{"bike_id":"514aa3d9-5d29-4f35-9f14-5fded8044de2","system_id":"levelo_inurba_marseille","lat":43.31539,"lon":5.38029,"is_reserved":false,"is_disabled":false,"rental_uris":{"android":"levelo://app?vid=514aa3d9-5d29-4f35-9f14-5fded8044de2","ios":"levelo://app?vid=514aa3d9-5d29-4f35-9f14-5fded8044de2"},"vehicle_type_id":"4","last_reported":1702490875,"current_range_meters":12400,"station_id":"ce4bhsp2rcd13ifvqi50","pricing_plan_id":"free"},{"bike_id":"227b454f-cbfd-4a97-b4c2-968569f53a3b","system_id":"levelo_inurba_marseille","lat":43.315368,"lon":5.380301,"is_reserved":false,"is_disabled":false,"rental_uris":{"android":"levelo://app?vid=227b454f-cbfd-4a97-b4c2-968569f53a3b","ios":"levelo://app?vid=227b454f-cbfd-4a97-b4c2-968569f53a3b"},"vehicle_type_id":"4","last_reported":1702490875,"current_range_meters":28400,"station_id":"ce4bhsp2rcd13ifvqi50","pricing_plan_id":"free"},{"bike_id":"483e94d9-1472-47cc-8477-1c428856d10a","system_id":"levelo_inurba_marseille","lat":43.301939,"lon":5.366286,"is_reserved":false,"is_disabled":false,"rental_uris":{"android":"levelo://app?vid=483e94d9-1472-47cc-8477-1c428856d10a","ios":"levelo://app?vid=483e94d9-1472-47cc-8477-1c428856d10a"},"vehicle_type_id":"4","last_reported":1702490875,"current_range_meters":0,"station_id":"ce4bgrh2rcd13ifvqc8g","pricing_plan_id":"free"},{"bike_id":"b795cd07-df6b-4c4c-8507-2dcae79f9bad","system_id":"levelo_inurba_marseille","lat":43.309039,"lon":5.371797,"is_reserved":false,"is_disabled":false,"rental_uris":{"android":"levelo://app?vid=b795cd07-df6b-4c4c-8507-2dcae79f9bad","ios":"levelo://app?vid=b795cd07-df6b-4c4c-8507-2dcae79f9bad"},"vehicle_type_id":"4","last_reported":1702490875,"current_range_meters":4000,"station_id":"ce4bguh2rcd13ifvqckg","pricing_plan_id":"free"},{"bike_id":"1f731f79-da92-4bc7-b21b-0abd1ee03930","system_id":"levelo_inurba_marseille","lat":43.32604,"lon":5.37448,"is_reserved":false,"is_disabled":false,"rental_uris":{"android":"levelo://app?vid=1f731f79-da92-4bc7-b21b-0abd1ee03930","ios":"levelo://app?vid=1f731f79-da92-4bc7-b21b-0abd1ee03930"},"vehicle_type_id":"4","last_reported":1702490875,"current_range_meters":29600,"station_id":"","pricing_plan_id":"free"},{"bike_id":"cd40a949-1c0d-41bc-a9ce-2f46beb35938","system_id":"levelo_inurba_marseille","lat":43.305364,"lon":5.384119,"is_reserved":false,"is_disabled":false,"rental_uris":{"android":"levelo://app?vid=cd40a949-1c0d-41bc-a9ce-2f46beb35938","ios":"levelo://app?vid=cd40a949-1c0d-41bc-a9ce-2f46beb35938"},"vehicle_type_id":"4","last_reported":1702490875,"current_range_meters":6000,"station_id":"ce4bgg92rcd13ifvqb30","pricing_plan_id":"free"},{"bike_id":"00957afa-27fa-4de9-b612-01f5d58fd240","system_id":"levelo_inurba_marseille","lat":43.298433,"lon":5.362774,"is_reserved":false,"is_disabled":false,"rental_uris":{"android":"levelo://app?vid=00957afa-27fa-4de9-b612-01f5d58fd240","ios":"levelo://app?vid=00957afa-27fa-4de9-b612-01f5d58fd240"},"vehicle_type_id":"4","last_reported":1702490875,"current_range_meters":16800,"station_id":"ce4bgpp2rcd13ifvqc3g","pricing_plan_id":"free"},{"bike_id":"77a6c46d-d898-4e4f-8846-efa91689c7f0","system_id":"levelo_inurba_marseille","lat":43.302006,"lon":5.38065,"is_reserved":false,"is_disabled":false,"rental_uris":{"android":"levelo://app?vid=77a6c46d-d898-4e4f-8846-efa91689c7f0","ios":"levelo://app?vid=77a6c46d-d898-4e4f-8846-efa91689c7f0"},"vehicle_type_id":"4","last_reported":1702490875,"current_range_meters":0,"station_id":"","pricing_plan_id":"free"},{"bike_id":"0bab7aa6-7647-4516-b486-d5cdebd5bc2c","system_id":"levelo_inurba_marseille","lat":43.297794,"lon":5.370888,"is_reserved":false,"is_disabled":false,"rental_uris":{"android":"levelo://app?vid=0bab7aa6-7647-4516-b486-d5cdebd5bc2c","ios":"levelo://app?vid=0bab7aa6-7647-4516-b486-d5cdebd5bc2c"},"vehicle_type_id":"4","last_reported":1702490875,"current_range_meters":29200,"station_id":"ce4bgop2rcd13ifvqc1g","pricing_plan_id":"free"},{"bike_id":"1c9c228c-5954-4155-a104-2a72ed6d3f0b","system_id":"levelo_inurba_marseille","lat":43.322872,"lon":5.382756,"is_reserved":false,"is_disabled":false,"rental_uris":{"android":"levelo://app?vid=1c9c228c-5954-4155-a104-2a72ed6d3f0b","ios":"levelo://app?vid=1c9c228c-5954-4155-a104-2a72ed6d3f0b"},"vehicle_type_id":"4","last_reported":1702490875,"current_range_meters":20400,"station_id":"ce4bhr12rcd13ifvqhqg","pricing_plan_id":"free"},{"bike_id":"bc06b289-dab8-4815-820b-662dd218c477","system_id":"levelo_inurba_marseille","lat":43.32831,"lon":5.366857,"is_reserved":false,"is_disabled":false,"rental_uris":{"android":"levelo://app?vid=bc06b289-dab8-4815-820b-662dd218c477","ios":"levelo://app?vid=bc06b289-dab8-4815-820b-662dd218c477"},"vehicle_type_id":"4","last_reported":1702490875,"current_range_meters":3200,"station_id":"ce4bhs92rcd13ifvqi0g","pricing_plan_id":"free"},{"bike_id":"58a4a804-ecb7-4487-9065-5e8c2e656c9d","system_id":"levelo_inurba_marseille","lat":43.297163,"lon":5.365866,"is_reserved":false,"is_disabled":false,"rental_uris":{"android":"levelo://app?vid=58a4a804-ecb7-4487-9065-5e8c2e656c9d","ios":"levelo://app?vid=58a4a804-ecb7-4487-9065-5e8c2e656c9d"},"vehicle_type_id":"4","last_reported":1702490875,"current_range_meters":19200,"station_id":"ce4bgn12rcd13ifvqbt0","pricing_plan_id":"free"},{"bike_id":"bb698f87-03cc-43d7-9f5a-7644916687a4","system_id":"levelo_inurba_marseille","lat":43.297163,"lon":5.365866,"is_reserved":false,"is_disabled":false,"rental_uris":{"android":"levelo://app?vid=bb698f87-03cc-43d7-9f5a-7644916687a4","ios":"levelo://app?vid=bb698f87-03cc-43d7-9f5a-7644916687a4"},"vehicle_type_id":"4","last_reported":1702490875,"current_range_meters":5600,"station_id":"ce4bgn12rcd13ifvqbt0","pricing_plan_id":"free"},{"bike_id":"e9d78157-ab4a-41df-a9e7-085811189ed4","system_id":"levelo_inurba_marseille","lat":43.317557,"lon":5.390173,"is_reserved":false,"is_disabled":false,"rental_uris":{"android":"levelo://app?vid=e9d78157-ab4a-41df-a9e7-085811189ed4","ios":"levelo://app?vid=e9d78157-ab4a-41df-a9e7-085811189ed4"},"vehicle_type_id":"4","last_reported":1702490875,"current_range_meters":27200,"station_id":"ce4bhqp2rcd13ifvqhng","pricing_plan_id":"free"},{"bike_id":"6fc39327-6b79-4097-915c-9bfa96ecad5d","system_id":"levelo_inurba_marseille","lat":43.29814,"lon":5.38097,"is_reserved":false,"is_disabled":false,"rental_uris":{"android":"levelo://app?vid=6fc39327-6b79-4097-915c-9bfa96ecad5d","ios":"levelo://app?vid=6fc39327-6b79-4097-915c-9bfa96ecad5d"},"vehicle_type_id":"4","last_reported":1702490875,"current_range_meters":30000,"station_id":"ce4bgip2rcd13ifvqbb0","pricing_plan_id":"free"},{"bike_id":"d9852a7a-5e24-4509-83bd-c6988b3f25a8","system_id":"levelo_inurba_marseille","lat":43.295748,"lon":5.37522,"is_reserved":false,"is_disabled":false,"rental_uris":{"android":"levelo://app?vid=d9852a7a-5e24-4509-83bd-c6988b3f25a8","ios":"levelo://app?vid=d9852a7a-5e24-4509-83bd-c6988b3f25a8"},"vehicle_type_id":"4","last_reported":1702490875,"current_range_meters":14000,"station_id":"ce4bgh92rcd13ifvqb50","pricing_plan_id":"free"},{"bike_id":"e9155207-d44e-4d7e-ac7b-0eeb4b511e3b","system_id":"levelo_inurba_marseille","lat":43.29987,"lon":5.38487,"is_reserved":false,"is_disabled":false,"rental_uris":{"android":"levelo://app?vid=e9155207-d44e-4d7e-ac7b-0eeb4b511e3b","ios":"levelo://app?vid=e9155207-d44e-4d7e-ac7b-0eeb4b511e3b"},"vehicle_type_id":"4","last_reported":1702490875,"current_range_meters":0,"station_id":"ce4bgj92rcd13ifvqbd0","pricing_plan_id":"free"},{"bike_id":"0541510b-e1ea-4ba9-81cb-6df928b03c5d","system_id":"levelo_inurba_marseille","lat":43.299724,"lon":5.384848,"is_reserved":false,"is_disabled":false,"rental_uris":{"android":"levelo://app?vid=0541510b-e1ea-4ba9-81cb-6df928b03c5d","ios":"levelo://app?vid=0541510b-e1ea-4ba9-81cb-6df928b03c5d"},"vehicle_type_id":"4","last_reported":1702490875,"current_range_meters":10000,"station_id":"ce4bgj92rcd13ifvqbd0","pricing_plan_id":"free"},{"bike_id":"a286692e-d1d0-469d-b98a-d494542c2c9c","system_id":"levelo_inurba_marseille","lat":43.299707,"lon":5.384859,"is_reserved":false,"is_disabled":false,"rental_uris":{"android":"levelo://app?vid=a286692e-d1d0-469d-b98a-d494542c2c9c","ios":"levelo://app?vid=a286692e-d1d0-469d-b98a-d494542c2c9c"},"vehicle_type_id":"4","last_reported":1702490875,"current_range_meters":17200,"station_id":"ce4bgj92rcd13ifvqbd0","pricing_plan_id":"free"},{"bike_id":"5515ee18-e232-42f5-b5dc-9d2710814282","system_id":"levelo_inurba_marseille","lat":43.32361,"lon":5.38884,"is_reserved":false,"is_disabled":false,"rental_uris":{"android":"levelo://app?vid=5515ee18-e232-42f5-b5dc-9d2710814282","ios":"levelo://app?vid=5515ee18-e232-42f5-b5dc-9d2710814282"},"vehicle_type_id":"4","last_reported":1702490875,"current_range_meters":11600,"station_id":"ce4bhqp2rcd13ifvqhog","pricing_plan_id":"free"},{"bike_id":"ef76321a-9b04-47b4-92de-d682e9f5920f","system_id":"levelo_inurba_marseille","lat":43.32366,"lon":5.3888,"is_reserved":false,"is_disabled":false,"rental_uris":{"android":"levelo://app?vid=ef76321a-9b04-47b4-92de-d682e9f5920f","ios":"levelo://app?vid=ef76321a-9b04-47b4-92de-d682e9f5920f"},"vehicle_type_id":"4","last_reported":1702490875,"current_range_meters":5200,"station_id":"ce4bhqp2rcd13ifvqhog","pricing_plan_id":"free"},{"bike_id":"8ab9895a-c9b8-42e7-a73a-c3d8ad10cfa2","system_id":"levelo_inurba_marseille","lat":43.32355,"lon":5.38891,"is_reserved":false,"is_disabled":false,"rental_uris":{"android":"levelo://app?vid=8ab9895a-c9b8-42e7-a73a-c3d8ad10cfa2","ios":"levelo://app?vid=8ab9895a-c9b8-42e7-a73a-c3d8ad10cfa2"},"vehicle_type_id":"4","last_reported":1702490875,"current_range_meters":4800,"station_id":"ce4bhqp2rcd13ifvqhog","pricing_plan_id":"free"},{"bike_id":"03f6119d-7ba1-4608-b75b-b20f3efbdaef","system_id":"levelo_inurba_marseille","lat":43.3237,"lon":5.3888,"is_reserved":false,"is_disabled":false,"rental_uris":{"android":"levelo://app?vid=03f6119d-7ba1-4608-b75b-b20f3efbdaef","ios":"levelo://app?vid=03f6119d-7ba1-4608-b75b-b20f3efbdaef"},"vehicle_type_id":"4","last_reported":1702490875,"current_range_meters":14800,"station_id":"ce4bhqp2rcd13ifvqhog","pricing_plan_id":"free"},{"bike_id":"caf23f86-d21a-42ad-9a7c-1426e0ff2eae","system_id":"levelo_inurba_marseille","lat":43.293009,"lon":5.374584,"is_reserved":false,"is_disabled":false,"rental_uris":{"android":"levelo://app?vid=caf23f86-d21a-42ad-9a7c-1426e0ff2eae","ios":"levelo://app?vid=caf23f86-d21a-42ad-9a7c-1426e0ff2eae"},"vehicle_type_id":"4","last_reported":1702490875,"current_range_meters":24800,"station_id":"ce4bgi12rcd13ifvqb70","pricing_plan_id":"free"},{"bike_id":"ecb7c3b6-6659-4796-92f1-846dabc8bc0a","system_id":"levelo_inurba_marseille","lat":43.293009,"lon":5.374584,"is_reserved":false,"is_disabled":false,"rental_uris":{"android":"levelo://app?vid=ecb7c3b6-6659-4796-92f1-846dabc8bc0a","ios":"levelo://app?vid=ecb7c3b6-6659-4796-92f1-846dabc8bc0a"},"vehicle_type_id":"4","last_reported":1702490875,"current_range_meters":6800,"station_id":"ce4bgi12rcd13ifvqb70","pricing_plan_id":"free"},{"bike_id":"395f0929-01ad-42a3-85f0-e9b8fa48b77f","system_id":"levelo_inurba_marseille","lat":43.303019,"lon":5.392092,"is_reserved":false,"is_disabled":false,"rental_uris":{"android":"levelo://app?vid=395f0929-01ad-42a3-85f0-e9b8fa48b77f","ios":"levelo://app?vid=395f0929-01ad-42a3-85f0-e9b8fa48b77f"},"vehicle_type_id":"4","last_reported":1702490875,"current_range_meters":9200,"station_id":"ce4bgkh2rcd13ifvqbk0","pricing_plan_id":"free"},{"bike_id":"c02c7ebf-d0d8-49e8-ac18-a31f7cd5e4a8","system_id":"levelo_inurba_marseille","lat":43.300852,"lon":5.390859,"is_reserved":false,"is_disabled":false,"rental_uris":{"android":"levelo://app?vid=c02c7ebf-d0d8-49e8-ac18-a31f7cd5e4a8","ios":"levelo://app?vid=c02c7ebf-d0d8-49e8-ac18-a31f7cd5e4a8"},"vehicle_type_id":"4","last_reported":1702490875,"current_range_meters":0,"station_id":"ce4bh192rcd13ifvqdb0","pricing_plan_id":"free"},{"bike_id":"051a9265-8e98-4be4-b77f-e0a39c2526a2","system_id":"levelo_inurba_marseille","lat":43.29869,"lon":5.38898,"is_reserved":false,"is_disabled":false,"rental_uris":{"android":"levelo://app?vid=051a9265-8e98-4be4-b77f-e0a39c2526a2","ios":"levelo://app?vid=051a9265-8e98-4be4-b77f-e0a39c2526a2"},"vehicle_type_id":"4","last_reported":1702490875,"current_range_meters":20400,"station_id":"","pricing_plan_id":"free"},{"bike_id":"4a1440cd-f3e0-4e75-aee8-e56f5e143d47","system_id":"levelo_inurba_marseille","lat":43.29872,"lon":5.38907,"is_reserved":false,"is_disabled":false,"rental_uris":{"android":"levelo://app?vid=4a1440cd-f3e0-4e75-aee8-e56f5e143d47","ios":"levelo://app?vid=4a1440cd-f3e0-4e75-aee8-e56f5e143d47"},"vehicle_type_id":"4","last_reported":1702490875,"current_range_meters":15200,"station_id":"","pricing_plan_id":"free"},{"bike_id":"831e3817-a6c9-429b-be4f-c6bebf51f027","system_id":"levelo_inurba_marseille","lat":43.291946,"lon":5.358001,"is_reserved":false,"is_disabled":false,"rental_uris":{"android":"levelo://app?vid=831e3817-a6c9-429b-be4f-c6bebf51f027","ios":"levelo://app?vid=831e3817-a6c9-429b-be4f-c6bebf51f027"},"vehicle_type_id":"4","last_reported":1702490875,"current_range_meters":0,"station_id":"ce4bhb12rcd13ifvqel0","pricing_plan_id":"free"},{"bike_id":"513d5e1b-2666-4cf6-9ce7-8edd12bf70ec","system_id":"levelo_inurba_marseille","lat":43.313291,"lon":5.396838,"is_reserved":false,"is_disabled":false,"rental_uris":{"android":"levelo://app?vid=513d5e1b-2666-4cf6-9ce7-8edd12bf70ec","ios":"levelo://app?vid=513d5e1b-2666-4cf6-9ce7-8edd12bf70ec"},"vehicle_type_id":"4","last_reported":1702490875,"current_range_meters":16800,"station_id":"ce4bgvp2rcd13ifvqcu0","pricing_plan_id":"free"},{"bike_id":"0b61d8a2-687e-4f6a-ba8e-a3a705eb89ba","system_id":"levelo_inurba_marseille","lat":43.290327,"lon":5.375711,"is_reserved":false,"is_disabled":false,"rental_uris":{"android":"levelo://app?vid=0b61d8a2-687e-4f6a-ba8e-a3a705eb89ba","ios":"levelo://app?vid=0b61d8a2-687e-4f6a-ba8e-a3a705eb89ba"},"vehicle_type_id":"4","last_reported":1702490875,"current_range_meters":29200,"station_id":"ce4bh692rcd13ifvqe90","pricing_plan_id":"free"},{"bike_id":"a636f8ec-b426-4d4d-8b26-c3e0fa9d676a","system_id":"levelo_inurba_marseille","lat":43.292644,"lon":5.384257,"is_reserved":false,"is_disabled":false,"rental_uris":{"android":"levelo://app?vid=a636f8ec-b426-4d4d-8b26-c3e0fa9d676a","ios":"levelo://app?vid=a636f8ec-b426-4d4d-8b26-c3e0fa9d676a"},"vehicle_type_id":"4","last_reported":1702490875,"current_range_meters":7200,"station_id":"ce4bh692rcd13ifvqea0","pricing_plan_id":"free"},{"bike_id":"ea0f57ee-361a-42f4-8b1a-36d77b3f5475","system_id":"levelo_inurba_marseille","lat":43.292642,"lon":5.384254,"is_reserved":false,"is_disabled":false,"rental_uris":{"android":"levelo://app?vid=ea0f57ee-361a-42f4-8b1a-36d77b3f5475","ios":"levelo://app?vid=ea0f57ee-361a-42f4-8b1a-36d77b3f5475"},"vehicle_type_id":"4","last_reported":1702490875,"current_range_meters":23200,"station_id":"ce4bh692rcd13ifvqea0","pricing_plan_id":"free"},{"bike_id":"ec2875ca-6d6f-4b26-b9cb-163740313503","system_id":"levelo_inurba_marseille","lat":43.330442,"lon":5.389186,"is_reserved":false,"is_disabled":false,"rental_uris":{"android":"levelo://app?vid=ec2875ca-6d6f-4b26-b9cb-163740313503","ios":"levelo://app?vid=ec2875ca-6d6f-4b26-b9cb-163740313503"},"vehicle_type_id":"4","last_reported":1702490875,"current_range_meters":4000,"station_id":"","pricing_plan_id":"free"},{"bike_id":"0a75e64e-3c37-473e-92cc-4953104d2425","system_id":"levelo_inurba_marseille","lat":43.330442,"lon":5.389148,"is_reserved":false,"is_disabled":false,"rental_uris":{"android":"levelo://app?vid=0a75e64e-3c37-473e-92cc-4953104d2425","ios":"levelo://app?vid=0a75e64e-3c37-473e-92cc-4953104d2425"},"vehicle_type_id":"4","last_reported":1702490875,"current_range_meters":24000,"station_id":"ce4bhr92rcd13ifvqhrg","pricing_plan_id":"free"},{"bike_id":"f0271aa3-4738-4d36-90cc-2cae7eb415bf","system_id":"levelo_inurba_marseille","lat":43.2978,"lon":5.3934,"is_reserved":false,"is_disabled":false,"rental_uris":{"android":"levelo://app?vid=f0271aa3-4738-4d36-90cc-2cae7eb415bf","ios":"levelo://app?vid=f0271aa3-4738-4d36-90cc-2cae7eb415bf"},"vehicle_type_id":"4","last_reported":1702490875,"current_range_meters":0,"station_id":"chh1huq6cuj3fo74tm60","pricing_plan_id":"free"},{"bike_id":"1f5beb52-036d-4fc3-b5cd-4925f9f798bb","system_id":"levelo_inurba_marseille","lat":43.28854,"lon":5.35873,"is_reserved":false,"is_disabled":false,"rental_uris":{"android":"levelo://app?vid=1f5beb52-036d-4fc3-b5cd-4925f9f798bb","ios":"levelo://app?vid=1f5beb52-036d-4fc3-b5cd-4925f9f798bb"},"vehicle_type_id":"4","last_reported":1702490875,"current_range_meters":22400,"station_id":"ce4bhb12rcd13ifvqem0","pricing_plan_id":"free"},{"bike_id":"18080d45-306e-49ae-b8c1-501b14476956","system_id":"levelo_inurba_marseille","lat":43.28851,"lon":5.35861,"is_reserved":false,"is_disabled":false,"rental_uris":{"android":"levelo://app?vid=18080d45-306e-49ae-b8c1-501b14476956","ios":"levelo://app?vid=18080d45-306e-49ae-b8c1-501b14476956"},"vehicle_type_id":"4","last_reported":1702490875,"current_range_meters":18000,"station_id":"ce4bhb12rcd13ifvqem0","pricing_plan_id":"free"},{"bike_id":"bd16df03-7d8a-4fd6-b1bf-4d3031e7c881","system_id":"levelo_inurba_marseille","lat":43.31279,"lon":5.4017,"is_reserved":false,"is_disabled":false,"rental_uris":{"android":"levelo://app?vid=bd16df03-7d8a-4fd6-b1bf-4d3031e7c881","ios":"levelo://app?vid=bd16df03-7d8a-4fd6-b1bf-4d3031e7c881"},"vehicle_type_id":"4","last_reported":1702490875,"current_range_meters":18400,"station_id":"ce4bh092rcd13ifvqd30","pricing_plan_id":"free"},{"bike_id":"a9fd12e2-72d1-4109-bab3-5ff3ea2ee72b","system_id":"levelo_inurba_marseille","lat":43.312609,"lon":5.401662,"is_reserved":false,"is_disabled":false,"rental_uris":{"android":"levelo://app?vid=a9fd12e2-72d1-4109-bab3-5ff3ea2ee72b","ios":"levelo://app?vid=a9fd12e2-72d1-4109-bab3-5ff3ea2ee72b"},"vehicle_type_id":"4","last_reported":1702490875,"current_range_meters":0,"station_id":"ce4bh092rcd13ifvqd30","pricing_plan_id":"free"},{"bike_id":"43acfc2f-50b3-4b64-97eb-09336a190b27","system_id":"levelo_inurba_marseille","lat":43.312609,"lon":5.401662,"is_reserved":false,"is_disabled":false,"rental_uris":{"android":"levelo://app?vid=43acfc2f-50b3-4b64-97eb-09336a190b27","ios":"levelo://app?vid=43acfc2f-50b3-4b64-97eb-09336a190b27"},"vehicle_type_id":"4","last_reported":1702490875,"current_range_meters":10000,"station_id":"ce4bh092rcd13ifvqd30","pricing_plan_id":"free"},{"bike_id":"fd14fc96-c470-4754-9737-57ef3fc5b452","system_id":"levelo_inurba_marseille","lat":43.33753,"lon":5.37448,"is_reserved":false,"is_disabled":false,"rental_uris":{"android":"levelo://app?vid=fd14fc96-c470-4754-9737-57ef3fc5b452","ios":"levelo://app?vid=fd14fc96-c470-4754-9737-57ef3fc5b452"},"vehicle_type_id":"4","last_reported":1702490875,"current_range_meters":26400,"station_id":"","pricing_plan_id":"free"},{"bike_id":"fa23bc4c-3492-4ba5-ab13-c42e18316583","system_id":"levelo_inurba_marseille","lat":43.33766,"lon":5.37463,"is_reserved":false,"is_disabled":false,"rental_uris":{"android":"levelo://app?vid=fa23bc4c-3492-4ba5-ab13-c42e18316583","ios":"levelo://app?vid=fa23bc4c-3492-4ba5-ab13-c42e18316583"},"vehicle_type_id":"4","last_reported":1702490875,"current_range_meters":30800,"station_id":"","pricing_plan_id":"free"},{"bike_id":"1a2aa10c-916c-4667-b24f-b7b2197bb15c","system_id":"levelo_inurba_marseille","lat":43.301117,"lon":5.398795,"is_reserved":false,"is_disabled":false,"rental_uris":{"android":"levelo://app?vid=1a2aa10c-916c-4667-b24f-b7b2197bb15c","ios":"levelo://app?vid=1a2aa10c-916c-4667-b24f-b7b2197bb15c"},"vehicle_type_id":"4","last_reported":1702490875,"current_range_meters":2000,"station_id":"ce4bh0h2rcd13ifvqd40","pricing_plan_id":"free"},{"bike_id":"31fb3cb1-c9c1-4b1c-9077-9efc323f4446","system_id":"levelo_inurba_marseille","lat":43.301117,"lon":5.398795,"is_reserved":false,"is_disabled":false,"rental_uris":{"android":"levelo://app?vid=31fb3cb1-c9c1-4b1c-9077-9efc323f4446","ios":"levelo://app?vid=31fb3cb1-c9c1-4b1c-9077-9efc323f4446"},"vehicle_type_id":"4","last_reported":1702490875,"current_range_meters":2800,"station_id":"ce4bh0h2rcd13ifvqd40","pricing_plan_id":"free"},{"bike_id":"f0d70e3a-0236-4546-99a7-bae9167c0494","system_id":"levelo_inurba_marseille","lat":43.28727,"lon":5.36078,"is_reserved":false,"is_disabled":false,"rental_uris":{"android":"levelo://app?vid=f0d70e3a-0236-4546-99a7-bae9167c0494","ios":"levelo://app?vid=f0d70e3a-0236-4546-99a7-bae9167c0494"},"vehicle_type_id":"4","last_reported":1702490875,"current_range_meters":23600,"station_id":"cki0cbj6b192h4jlfktg","pricing_plan_id":"free"},{"bike_id":"d26d58e1-6968-4755-a5df-fa3aa7d263a0","system_id":"levelo_inurba_marseille","lat":43.28727,"lon":5.36078,"is_reserved":false,"is_disabled":false,"rental_uris":{"android":"levelo://app?vid=d26d58e1-6968-4755-a5df-fa3aa7d263a0","ios":"levelo://app?vid=d26d58e1-6968-4755-a5df-fa3aa7d263a0"},"vehicle_type_id":"4","last_reported":1702490875,"current_range_meters":19600,"station_id":"cki0cbj6b192h4jlfktg","pricing_plan_id":"free"},{"bike_id":"47a5e3df-817b-4b5f-9aa1-840b734271e9","system_id":"levelo_inurba_marseille","lat":43.286961,"lon":5.373785,"is_reserved":false,"is_disabled":false,"rental_uris":{"android":"levelo://app?vid=47a5e3df-817b-4b5f-9aa1-840b734271e9","ios":"levelo://app?vid=47a5e3df-817b-4b5f-9aa1-840b734271e9"},"vehicle_type_id":"4","last_reported":1702490875,"current_range_meters":7200,"station_id":"ce4bh3p2rcd13ifvqdq0","pricing_plan_id":"free"},{"bike_id":"9038cb93-9ba0-4f63-ba29-8ee9052cccb3","system_id":"levelo_inurba_marseille","lat":43.298681,"lon":5.397225,"is_reserved":false,"is_disabled":false,"rental_uris":{"android":"levelo://app?vid=9038cb93-9ba0-4f63-ba29-8ee9052cccb3","ios":"levelo://app?vid=9038cb93-9ba0-4f63-ba29-8ee9052cccb3"},"vehicle_type_id":"4","last_reported":1702490875,"current_range_meters":12800,"station_id":"ce4bh0h2rcd13ifvqd50","pricing_plan_id":"free"},{"bike_id":"595c8b0d-0ab9-434c-9533-52ed7063847e","system_id":"levelo_inurba_marseille","lat":43.286961,"lon":5.373785,"is_reserved":false,"is_disabled":false,"rental_uris":{"android":"levelo://app?vid=595c8b0d-0ab9-434c-9533-52ed7063847e","ios":"levelo://app?vid=595c8b0d-0ab9-434c-9533-52ed7063847e"},"vehicle_type_id":"4","last_reported":1702490875,"current_range_meters":4800,"station_id":"ce4bh3p2rcd13ifvqdq0","pricing_plan_id":"free"},{"bike_id":"41488c8b-8939-40c2-8176-207ddabcc06d","system_id":"levelo_inurba_marseille","lat":43.298681,"lon":5.397225,"is_reserved":false,"is_disabled":false,"rental_uris":{"android":"levelo://app?vid=41488c8b-8939-40c2-8176-207ddabcc06d","ios":"levelo://app?vid=41488c8b-8939-40c2-8176-207ddabcc06d"},"vehicle_type_id":"4","last_reported":1702490875,"current_range_meters":7200,"station_id":"ce4bh0h2rcd13ifvqd50","pricing_plan_id":"free"},{"bike_id":"559572e7-1740-4644-81f7-ecdbc76f722c","system_id":"levelo_inurba_marseille","lat":43.2952,"lon":5.39403,"is_reserved":false,"is_disabled":false,"rental_uris":{"android":"levelo://app?vid=559572e7-1740-4644-81f7-ecdbc76f722c","ios":"levelo://app?vid=559572e7-1740-4644-81f7-ecdbc76f722c"},"vehicle_type_id":"4","last_reported":1702490875,"current_range_meters":0,"station_id":"ce4bh292rcd13ifvqdf0","pricing_plan_id":"free"},{"bike_id":"da7ee47a-51a3-4832-8f5e-c818f17794ea","system_id":"levelo_inurba_marseille","lat":43.302759,"lon":5.400793,"is_reserved":false,"is_disabled":false,"rental_uris":{"android":"levelo://app?vid=da7ee47a-51a3-4832-8f5e-c818f17794ea","ios":"levelo://app?vid=da7ee47a-51a3-4832-8f5e-c818f17794ea"},"vehicle_type_id":"4","last_reported":1702490875,"current_range_meters":3200,"station_id":"ce4bgvh2rcd13ifvqcs0","pricing_plan_id":"free"},{"bike_id":"38e3923d-86b4-4bb9-9a3e-8d69d1583650","system_id":"levelo_inurba_marseille","lat":43.290336,"lon":5.386425,"is_reserved":false,"is_disabled":false,"rental_uris":{"android":"levelo://app?vid=38e3923d-86b4-4bb9-9a3e-8d69d1583650","ios":"levelo://app?vid=38e3923d-86b4-4bb9-9a3e-8d69d1583650"},"vehicle_type_id":"4","last_reported":1702490875,"current_range_meters":0,"station_id":"ce4bh4p2rcd13ifvqe0g","pricing_plan_id":"free"},{"bike_id":"b18387c3-7012-46c1-af30-95925ba3c26e","system_id":"levelo_inurba_marseille","lat":43.302759,"lon":5.400793,"is_reserved":false,"is_disabled":false,"rental_uris":{"android":"levelo://app?vid=b18387c3-7012-46c1-af30-95925ba3c26e","ios":"levelo://app?vid=b18387c3-7012-46c1-af30-95925ba3c26e"},"vehicle_type_id":"4","last_reported":1702490875,"current_range_meters":22000,"station_id":"ce4bgvh2rcd13ifvqcs0","pricing_plan_id":"free"},{"bike_id":"8e221990-07af-4c28-91f7-59c288c9dc11","system_id":"levelo_inurba_marseille","lat":43.289307,"lon":5.38406,"is_reserved":false,"is_disabled":false,"rental_uris":{"android":"levelo://app?vid=8e221990-07af-4c28-91f7-59c288c9dc11","ios":"levelo://app?vid=8e221990-07af-4c28-91f7-59c288c9dc11"},"vehicle_type_id":"4","last_reported":1702490875,"current_range_meters":30400,"station_id":"ce4bh612rcd13ifvqe6g","pricing_plan_id":"free"},{"bike_id":"4bbf3357-25f8-4531-a8b0-d3e408f550b9","system_id":"levelo_inurba_marseille","lat":43.302759,"lon":5.400793,"is_reserved":false,"is_disabled":false,"rental_uris":{"android":"levelo://app?vid=4bbf3357-25f8-4531-a8b0-d3e408f550b9","ios":"levelo://app?vid=4bbf3357-25f8-4531-a8b0-d3e408f550b9"},"vehicle_type_id":"4","last_reported":1702490875,"current_range_meters":6000,"station_id":"ce4bgvh2rcd13ifvqcs0","pricing_plan_id":"free"},{"bike_id":"ab2b0670-6c5d-4153-bce7-051e17f29b51","system_id":"levelo_inurba_marseille","lat":43.302759,"lon":5.400793,"is_reserved":false,"is_disabled":false,"rental_uris":{"android":"levelo://app?vid=ab2b0670-6c5d-4153-bce7-051e17f29b51","ios":"levelo://app?vid=ab2b0670-6c5d-4153-bce7-051e17f29b51"},"vehicle_type_id":"4","last_reported":1702490875,"current_range_meters":0,"station_id":"ce4bgvh2rcd13ifvqcs0","pricing_plan_id":"free"},{"bike_id":"8912f8bd-485f-40cb-9533-56f45389a93b","system_id":"levelo_inurba_marseille","lat":43.284538,"lon":5.358657,"is_reserved":false,"is_disabled":false,"rental_uris":{"android":"levelo://app?vid=8912f8bd-485f-40cb-9533-56f45389a93b","ios":"levelo://app?vid=8912f8bd-485f-40cb-9533-56f45389a93b"},"vehicle_type_id":"4","last_reported":1702490875,"current_range_meters":13600,"station_id":"ce4bhah2rcd13ifvqei0","pricing_plan_id":"free"},{"bike_id":"27e69300-9440-4d8d-9fe2-4c2a3d31565f","system_id":"levelo_inurba_marseille","lat":43.284534,"lon":5.358662,"is_reserved":false,"is_disabled":false,"rental_uris":{"android":"levelo://app?vid=27e69300-9440-4d8d-9fe2-4c2a3d31565f","ios":"levelo://app?vid=27e69300-9440-4d8d-9fe2-4c2a3d31565f"},"vehicle_type_id":"4","last_reported":1702490875,"current_range_meters":26800,"station_id":"ce4bhah2rcd13ifvqei0","pricing_plan_id":"free"},{"bike_id":"04da7885-026d-4462-a29c-abc1888496b6","system_id":"levelo_inurba_marseille","lat":43.295713,"lon":5.399639,"is_reserved":false,"is_disabled":false,"rental_uris":{"android":"levelo://app?vid=04da7885-026d-4462-a29c-abc1888496b6","ios":"levelo://app?vid=04da7885-026d-4462-a29c-abc1888496b6"},"vehicle_type_id":"4","last_reported":1702490875,"current_range_meters":3600,"station_id":"ce4bh312rcd13ifvqdj0","pricing_plan_id":"free"},{"bike_id":"d0562ffd-debe-4a4e-99bf-e29678ed48d5","system_id":"levelo_inurba_marseille","lat":43.288501,"lon":5.393087,"is_reserved":false,"is_disabled":false,"rental_uris":{"android":"levelo://app?vid=d0562ffd-debe-4a4e-99bf-e29678ed48d5","ios":"levelo://app?vid=d0562ffd-debe-4a4e-99bf-e29678ed48d5"},"vehicle_type_id":"4","last_reported":1702490875,"current_range_meters":8400,"station_id":"ce4bh2p2rcd13ifvqdi0","pricing_plan_id":"free"},{"bike_id":"99b07d99-e8e2-426b-bee4-067058b7ff47","system_id":"levelo_inurba_marseille","lat":43.288501,"lon":5.393087,"is_reserved":false,"is_disabled":false,"rental_uris":{"android":"levelo://app?vid=99b07d99-e8e2-426b-bee4-067058b7ff47","ios":"levelo://app?vid=99b07d99-e8e2-426b-bee4-067058b7ff47"},"vehicle_type_id":"4","last_reported":1702490875,"current_range_meters":15200,"station_id":"ce4bh2p2rcd13ifvqdi0","pricing_plan_id":"free"},{"bike_id":"5c0dc56d-6aab-49c4-b6d8-7fb722e20db5","system_id":"levelo_inurba_marseille","lat":43.284217,"lon":5.349697,"is_reserved":false,"is_disabled":false,"rental_uris":{"android":"levelo://app?vid=5c0dc56d-6aab-49c4-b6d8-7fb722e20db5","ios":"levelo://app?vid=5c0dc56d-6aab-49c4-b6d8-7fb722e20db5"},"vehicle_type_id":"4","last_reported":1702490875,"current_range_meters":31200,"station_id":"ce4bhbh2rcd13ifvqepg","pricing_plan_id":"free"},{"bike_id":"d4c83963-9453-4cfc-8039-e077b3624412","system_id":"levelo_inurba_marseille","lat":43.28034,"lon":5.36947,"is_reserved":false,"is_disabled":false,"rental_uris":{"android":"levelo://app?vid=d4c83963-9453-4cfc-8039-e077b3624412","ios":"levelo://app?vid=d4c83963-9453-4cfc-8039-e077b3624412"},"vehicle_type_id":"4","last_reported":1702490875,"current_range_meters":20400,"station_id":"ce4bha12rcd13ifvqef0","pricing_plan_id":"free"},{"bike_id":"da92cd59-cc01-4215-869f-ddca65d27efc","system_id":"levelo_inurba_marseille","lat":43.284462,"lon":5.392121,"is_reserved":false,"is_disabled":false,"rental_uris":{"android":"levelo://app?vid=da92cd59-cc01-4215-869f-ddca65d27efc","ios":"levelo://app?vid=da92cd59-cc01-4215-869f-ddca65d27efc"},"vehicle_type_id":"4","last_reported":1702490875,"current_range_meters":6800,"station_id":"ce4bhoh2rcd13ifvqh5g","pricing_plan_id":"free"},{"bike_id":"22c9e4b5-1721-4ed5-aaf2-ebf7cc34651f","system_id":"levelo_inurba_marseille","lat":43.326605,"lon":5.409903,"is_reserved":false,"is_disabled":false,"rental_uris":{"android":"levelo://app?vid=22c9e4b5-1721-4ed5-aaf2-ebf7cc34651f","ios":"levelo://app?vid=22c9e4b5-1721-4ed5-aaf2-ebf7cc34651f"},"vehicle_type_id":"4","last_reported":1702490875,"current_range_meters":2000,"station_id":"ce4bhpp2rcd13ifvqhgg","pricing_plan_id":"free"},{"bike_id":"831ef213-0e7b-46c4-bdc7-da4296fa5b71","system_id":"levelo_inurba_marseille","lat":43.279087,"lon":5.380114,"is_reserved":false,"is_disabled":false,"rental_uris":{"android":"levelo://app?vid=831ef213-0e7b-46c4-bdc7-da4296fa5b71","ios":"levelo://app?vid=831ef213-0e7b-46c4-bdc7-da4296fa5b71"},"vehicle_type_id":"4","last_reported":1702490875,"current_range_meters":18000,"station_id":"ce4bhf92rcd13ifvqf50","pricing_plan_id":"free"},{"bike_id":"9f3e2c25-c49e-411f-839c-39c22d9a16ef","system_id":"levelo_inurba_marseille","lat":43.279742,"lon":5.38744,"is_reserved":false,"is_disabled":false,"rental_uris":{"android":"levelo://app?vid=9f3e2c25-c49e-411f-839c-39c22d9a16ef","ios":"levelo://app?vid=9f3e2c25-c49e-411f-839c-39c22d9a16ef"},"vehicle_type_id":"4","last_reported":1702490875,"current_range_meters":0,"station_id":"ce4bhg12rcd13ifvqf80","pricing_plan_id":"free"},{"bike_id":"8d863ee1-40ce-4a3c-a85a-b9eb8aca42cb","system_id":"levelo_inurba_marseille","lat":43.292571,"lon":5.409107,"is_reserved":false,"is_disabled":false,"rental_uris":{"android":"levelo://app?vid=8d863ee1-40ce-4a3c-a85a-b9eb8aca42cb","ios":"levelo://app?vid=8d863ee1-40ce-4a3c-a85a-b9eb8aca42cb"},"vehicle_type_id":"4","last_reported":1702490875,"current_range_meters":18400,"station_id":"ce4bh192rcd13ifvqdc0","pricing_plan_id":"free"},{"bike_id":"c9d0f018-9d2a-40a4-a0f2-a87e8b9de0b8","system_id":"levelo_inurba_marseille","lat":43.292569,"lon":5.409107,"is_reserved":false,"is_disabled":false,"rental_uris":{"android":"levelo://app?vid=c9d0f018-9d2a-40a4-a0f2-a87e8b9de0b8","ios":"levelo://app?vid=c9d0f018-9d2a-40a4-a0f2-a87e8b9de0b8"},"vehicle_type_id":"4","last_reported":1702490875,"current_range_meters":16000,"station_id":"ce4bh192rcd13ifvqdc0","pricing_plan_id":"free"},{"bike_id":"359fb6df-e61b-45e7-95a6-2a3959446907","system_id":"levelo_inurba_marseille","lat":43.27618,"lon":5.361009,"is_reserved":false,"is_disabled":false,"rental_uris":{"android":"levelo://app?vid=359fb6df-e61b-45e7-95a6-2a3959446907","ios":"levelo://app?vid=359fb6df-e61b-45e7-95a6-2a3959446907"},"vehicle_type_id":"4","last_reported":1702490875,"current_range_meters":0,"station_id":"ce4bgj92rcd13ifvqbe0","pricing_plan_id":"free"},{"bike_id":"39eefe27-03d9-47f3-9de8-d68c3a12f1c4","system_id":"levelo_inurba_marseille","lat":43.35094,"lon":5.3681,"is_reserved":false,"is_disabled":false,"rental_uris":{"android":"levelo://app?vid=39eefe27-03d9-47f3-9de8-d68c3a12f1c4","ios":"levelo://app?vid=39eefe27-03d9-47f3-9de8-d68c3a12f1c4"},"vehicle_type_id":"4","last_reported":1702490875,"current_range_meters":0,"station_id":"","pricing_plan_id":"free"},{"bike_id":"e05ca159-e7b6-49df-9275-00dd9deb3621","system_id":"levelo_inurba_marseille","lat":43.280784,"lon":5.396622,"is_reserved":false,"is_disabled":false,"rental_uris":{"android":"levelo://app?vid=e05ca159-e7b6-49df-9275-00dd9deb3621","ios":"levelo://app?vid=e05ca159-e7b6-49df-9275-00dd9deb3621"},"vehicle_type_id":"4","last_reported":1702490875,"current_range_meters":10000,"station_id":"ce4bho12rcd13ifvqh2g","pricing_plan_id":"free"},{"bike_id":"b4fcc111-be61-42a6-8465-ead6ffcc9f3f","system_id":"levelo_inurba_marseille","lat":43.280784,"lon":5.396622,"is_reserved":false,"is_disabled":false,"rental_uris":{"android":"levelo://app?vid=b4fcc111-be61-42a6-8465-ead6ffcc9f3f","ios":"levelo://app?vid=b4fcc111-be61-42a6-8465-ead6ffcc9f3f"},"vehicle_type_id":"4","last_reported":1702490875,"current_range_meters":26000,"station_id":"ce4bho12rcd13ifvqh2g","pricing_plan_id":"free"},{"bike_id":"6c8ccec2-7d52-4326-a16e-b24763c7fe77","system_id":"levelo_inurba_marseille","lat":43.30354,"lon":5.41882,"is_reserved":false,"is_disabled":false,"rental_uris":{"android":"levelo://app?vid=6c8ccec2-7d52-4326-a16e-b24763c7fe77","ios":"levelo://app?vid=6c8ccec2-7d52-4326-a16e-b24763c7fe77"},"vehicle_type_id":"4","last_reported":1702490875,"current_range_meters":18000,"station_id":"ce4bhop2rcd13ifvqh7g","pricing_plan_id":"free"},{"bike_id":"200d047d-fd89-4b71-bf20-16d69a5add2f","system_id":"levelo_inurba_marseille","lat":43.275625,"lon":5.384392,"is_reserved":false,"is_disabled":false,"rental_uris":{"android":"levelo://app?vid=200d047d-fd89-4b71-bf20-16d69a5add2f","ios":"levelo://app?vid=200d047d-fd89-4b71-bf20-16d69a5add2f"},"vehicle_type_id":"4","last_reported":1702490875,"current_range_meters":11600,"station_id":"ce4bhh92rcd13ifvqfi0","pricing_plan_id":"free"},{"bike_id":"405acdcd-663c-4992-86a8-bf2eee619ee3","system_id":"levelo_inurba_marseille","lat":43.317121,"lon":5.423936,"is_reserved":false,"is_disabled":false,"rental_uris":{"android":"levelo://app?vid=405acdcd-663c-4992-86a8-bf2eee619ee3","ios":"levelo://app?vid=405acdcd-663c-4992-86a8-bf2eee619ee3"},"vehicle_type_id":"4","last_reported":1702490875,"current_range_meters":0,"station_id":"ce4bhp92rcd13ifvqhbg","pricing_plan_id":"free"},{"bike_id":"55f8cf7b-a384-4860-b1f5-075034029351","system_id":"levelo_inurba_marseille","lat":43.31712,"lon":5.42402,"is_reserved":false,"is_disabled":false,"rental_uris":{"android":"levelo://app?vid=55f8cf7b-a384-4860-b1f5-075034029351","ios":"levelo://app?vid=55f8cf7b-a384-4860-b1f5-075034029351"},"vehicle_type_id":"4","last_reported":1702490875,"current_range_meters":24400,"station_id":"ce4bhp92rcd13ifvqhbg","pricing_plan_id":"free"},{"bike_id":"08d70f85-7bdc-47e6-ab93-dee236616e2c","system_id":"levelo_inurba_marseille","lat":43.310785,"lon":5.424305,"is_reserved":false,"is_disabled":false,"rental_uris":{"android":"levelo://app?vid=08d70f85-7bdc-47e6-ab93-dee236616e2c","ios":"levelo://app?vid=08d70f85-7bdc-47e6-ab93-dee236616e2c"},"vehicle_type_id":"4","last_reported":1702490875,"current_range_meters":28000,"station_id":"ce4bhp92rcd13ifvqhag","pricing_plan_id":"free"},{"bike_id":"b1c028eb-0fe1-4afa-b35c-b9783a0e9537","system_id":"levelo_inurba_marseille","lat":43.31723,"lon":5.42405,"is_reserved":false,"is_disabled":false,"rental_uris":{"android":"levelo://app?vid=b1c028eb-0fe1-4afa-b35c-b9783a0e9537","ios":"levelo://app?vid=b1c028eb-0fe1-4afa-b35c-b9783a0e9537"},"vehicle_type_id":"4","last_reported":1702490875,"current_range_meters":1200,"station_id":"ce4bhp92rcd13ifvqhbg","pricing_plan_id":"free"},{"bike_id":"6c16b44d-0fb2-441d-ac61-9bbb7fbafcc0","system_id":"levelo_inurba_marseille","lat":43.310785,"lon":5.424305,"is_reserved":false,"is_disabled":false,"rental_uris":{"android":"levelo://app?vid=6c16b44d-0fb2-441d-ac61-9bbb7fbafcc0","ios":"levelo://app?vid=6c16b44d-0fb2-441d-ac61-9bbb7fbafcc0"},"vehicle_type_id":"4","last_reported":1702490875,"current_range_meters":3200,"station_id":"ce4bhp92rcd13ifvqhag","pricing_plan_id":"free"},{"bike_id":"3ca2c2d2-99b0-4aa6-a05d-e30f02e6a7fb","system_id":"levelo_inurba_marseille","lat":43.27588,"lon":5.39495,"is_reserved":false,"is_disabled":false,"rental_uris":{"android":"levelo://app?vid=3ca2c2d2-99b0-4aa6-a05d-e30f02e6a7fb","ios":"levelo://app?vid=3ca2c2d2-99b0-4aa6-a05d-e30f02e6a7fb"},"vehicle_type_id":"4","last_reported":1702490875,"current_range_meters":14400,"station_id":"","pricing_plan_id":"free"},{"bike_id":"b303b963-4911-4459-b4b6-e47006920ac1","system_id":"levelo_inurba_marseille","lat":43.304096,"lon":5.425385,"is_reserved":false,"is_disabled":false,"rental_uris":{"android":"levelo://app?vid=b303b963-4911-4459-b4b6-e47006920ac1","ios":"levelo://app?vid=b303b963-4911-4459-b4b6-e47006920ac1"},"vehicle_type_id":"4","last_reported":1702490875,"current_range_meters":11200,"station_id":"ce4bhoh2rcd13ifvqh6g","pricing_plan_id":"free"},{"bike_id":"9e1f8ee1-c6f0-4804-ab6a-f8f73fe26ff2","system_id":"levelo_inurba_marseille","lat":43.279465,"lon":5.410561,"is_reserved":false,"is_disabled":false,"rental_uris":{"android":"levelo://app?vid=9e1f8ee1-c6f0-4804-ab6a-f8f73fe26ff2","ios":"levelo://app?vid=9e1f8ee1-c6f0-4804-ab6a-f8f73fe26ff2"},"vehicle_type_id":"4","last_reported":1702490875,"current_range_meters":6400,"station_id":"ce4bhnp2rcd13ifvqh0g","pricing_plan_id":"free"},{"bike_id":"43697875-44aa-40ed-b00e-e493a07a1d98","system_id":"levelo_inurba_marseille","lat":43.279465,"lon":5.410561,"is_reserved":false,"is_disabled":false,"rental_uris":{"android":"levelo://app?vid=43697875-44aa-40ed-b00e-e493a07a1d98","ios":"levelo://app?vid=43697875-44aa-40ed-b00e-e493a07a1d98"},"vehicle_type_id":"4","last_reported":1702490875,"current_range_meters":9600,"station_id":"ce4bhnp2rcd13ifvqh0g","pricing_plan_id":"free"},{"bike_id":"21008433-1039-4200-8e02-f0717efaa2a8","system_id":"levelo_inurba_marseille","lat":43.270892,"lon":5.393738,"is_reserved":false,"is_disabled":false,"rental_uris":{"android":"levelo://app?vid=21008433-1039-4200-8e02-f0717efaa2a8","ios":"levelo://app?vid=21008433-1039-4200-8e02-f0717efaa2a8"},"vehicle_type_id":"4","last_reported":1702490875,"current_range_meters":12800,"station_id":"","pricing_plan_id":"free"},{"bike_id":"1d4e3f7d-fd29-42a5-84db-b5e1ed339884","system_id":"levelo_inurba_marseille","lat":43.27035,"lon":5.3929,"is_reserved":false,"is_disabled":false,"rental_uris":{"android":"levelo://app?vid=1d4e3f7d-fd29-42a5-84db-b5e1ed339884","ios":"levelo://app?vid=1d4e3f7d-fd29-42a5-84db-b5e1ed339884"},"vehicle_type_id":"4","last_reported":1702490875,"current_range_meters":4800,"station_id":"","pricing_plan_id":"free"},{"bike_id":"3f232a0b-f328-4a7c-9376-5d1041aa79e5","system_id":"levelo_inurba_marseille","lat":43.30803,"lon":5.43523,"is_reserved":false,"is_disabled":false,"rental_uris":{"android":"levelo://app?vid=3f232a0b-f328-4a7c-9376-5d1041aa79e5","ios":"levelo://app?vid=3f232a0b-f328-4a7c-9376-5d1041aa79e5"},"vehicle_type_id":"4","last_reported":1702490875,"current_range_meters":31200,"station_id":"ce4bhph2rcd13ifvqheg","pricing_plan_id":"free"},{"bike_id":"a21730ad-9419-4366-a4aa-d3d8dbcff669","system_id":"levelo_inurba_marseille","lat":43.2657,"lon":5.38997,"is_reserved":false,"is_disabled":false,"rental_uris":{"android":"levelo://app?vid=a21730ad-9419-4366-a4aa-d3d8dbcff669","ios":"levelo://app?vid=a21730ad-9419-4366-a4aa-d3d8dbcff669"},"vehicle_type_id":"4","last_reported":1702490875,"current_range_meters":0,"station_id":"ce4bhe12rcd13ifvqf30","pricing_plan_id":"free"},{"bike_id":"bc92034d-baf7-4010-ad9f-fcae04979347","system_id":"levelo_inurba_marseille","lat":43.265626,"lon":5.390121,"is_reserved":false,"is_disabled":false,"rental_uris":{"android":"levelo://app?vid=bc92034d-baf7-4010-ad9f-fcae04979347","ios":"levelo://app?vid=bc92034d-baf7-4010-ad9f-fcae04979347"},"vehicle_type_id":"4","last_reported":1702490875,"current_range_meters":10800,"station_id":"","pricing_plan_id":"free"},{"bike_id":"f860f387-f2ce-4d8f-830e-bd8a0d08dbe2","system_id":"levelo_inurba_marseille","lat":43.298768,"lon":5.43643,"is_reserved":false,"is_disabled":false,"rental_uris":{"android":"levelo://app?vid=f860f387-f2ce-4d8f-830e-bd8a0d08dbe2","ios":"levelo://app?vid=f860f387-f2ce-4d8f-830e-bd8a0d08dbe2"},"vehicle_type_id":"4","last_reported":1702490875,"current_range_meters":26000,"station_id":"ce4bhpp2rcd13ifvqhfg","pricing_plan_id":"free"},{"bike_id":"38a4a3ac-b01c-43e0-abb4-5a012521fc8c","system_id":"levelo_inurba_marseille","lat":43.298768,"lon":5.43643,"is_reserved":false,"is_disabled":false,"rental_uris":{"android":"levelo://app?vid=38a4a3ac-b01c-43e0-abb4-5a012521fc8c","ios":"levelo://app?vid=38a4a3ac-b01c-43e0-abb4-5a012521fc8c"},"vehicle_type_id":"4","last_reported":1702490875,"current_range_meters":32000,"station_id":"ce4bhpp2rcd13ifvqhfg","pricing_plan_id":"free"},{"bike_id":"35a85cf9-9566-462c-8635-8548e14e231f","system_id":"levelo_inurba_marseille","lat":43.298768,"lon":5.43643,"is_reserved":false,"is_disabled":false,"rental_uris":{"android":"levelo://app?vid=35a85cf9-9566-462c-8635-8548e14e231f","ios":"levelo://app?vid=35a85cf9-9566-462c-8635-8548e14e231f"},"vehicle_type_id":"4","last_reported":1702490875,"current_range_meters":2000,"station_id":"ce4bhpp2rcd13ifvqhfg","pricing_plan_id":"free"},{"bike_id":"4ec71661-c1e3-4c3b-a17d-3fefed6d4370","system_id":"levelo_inurba_marseille","lat":43.298768,"lon":5.43643,"is_reserved":false,"is_disabled":false,"rental_uris":{"android":"levelo://app?vid=4ec71661-c1e3-4c3b-a17d-3fefed6d4370","ios":"levelo://app?vid=4ec71661-c1e3-4c3b-a17d-3fefed6d4370"},"vehicle_type_id":"4","last_reported":1702490875,"current_range_meters":18800,"station_id":"ce4bhpp2rcd13ifvqhfg","pricing_plan_id":"free"},{"bike_id":"af5d9ae9-c611-48ae-bdd0-02a1acfdf6ec","system_id":"levelo_inurba_marseille","lat":43.281548,"lon":5.42643,"is_reserved":false,"is_disabled":false,"rental_uris":{"android":"levelo://app?vid=af5d9ae9-c611-48ae-bdd0-02a1acfdf6ec","ios":"levelo://app?vid=af5d9ae9-c611-48ae-bdd0-02a1acfdf6ec"},"vehicle_type_id":"4","last_reported":1702490875,"current_range_meters":2400,"station_id":"ce4bhnh2rcd13ifvqgug","pricing_plan_id":"free"},{"bike_id":"9033636c-5f25-4157-8960-0576b93355ae","system_id":"levelo_inurba_marseille","lat":43.281548,"lon":5.42643,"is_reserved":false,"is_disabled":false,"rental_uris":{"android":"levelo://app?vid=9033636c-5f25-4157-8960-0576b93355ae","ios":"levelo://app?vid=9033636c-5f25-4157-8960-0576b93355ae"},"vehicle_type_id":"4","last_reported":1702490875,"current_range_meters":26800,"station_id":"ce4bhnh2rcd13ifvqgug","pricing_plan_id":"free"},{"bike_id":"4f1a3582-9901-49ec-aefe-7ce756d9a0ab","system_id":"levelo_inurba_marseille","lat":43.281548,"lon":5.42643,"is_reserved":false,"is_disabled":false,"rental_uris":{"android":"levelo://app?vid=4f1a3582-9901-49ec-aefe-7ce756d9a0ab","ios":"levelo://app?vid=4f1a3582-9901-49ec-aefe-7ce756d9a0ab"},"vehicle_type_id":"4","last_reported":1702490875,"current_range_meters":4800,"station_id":"ce4bhnh2rcd13ifvqgug","pricing_plan_id":"free"},{"bike_id":"39349448-7e08-4237-8a74-8e0ceca6ea5d","system_id":"levelo_inurba_marseille","lat":43.2607,"lon":5.393983,"is_reserved":false,"is_disabled":false,"rental_uris":{"android":"levelo://app?vid=39349448-7e08-4237-8a74-8e0ceca6ea5d","ios":"levelo://app?vid=39349448-7e08-4237-8a74-8e0ceca6ea5d"},"vehicle_type_id":"4","last_reported":1702490875,"current_range_meters":4800,"station_id":"ce4bhh92rcd13ifvqfj0","pricing_plan_id":"free"},{"bike_id":"5581db75-ef14-475c-a1fb-a2f6f1f4482a","system_id":"levelo_inurba_marseille","lat":43.275028,"lon":5.424534,"is_reserved":false,"is_disabled":false,"rental_uris":{"android":"levelo://app?vid=5581db75-ef14-475c-a1fb-a2f6f1f4482a","ios":"levelo://app?vid=5581db75-ef14-475c-a1fb-a2f6f1f4482a"},"vehicle_type_id":"4","last_reported":1702490875,"current_range_meters":28000,"station_id":"ce4bhn92rcd13ifvqgrg","pricing_plan_id":"free"},{"bike_id":"a2d4bc39-d409-40d6-b293-777c535f35c3","system_id":"levelo_inurba_marseille","lat":43.25581,"lon":5.38233,"is_reserved":false,"is_disabled":false,"rental_uris":{"android":"levelo://app?vid=a2d4bc39-d409-40d6-b293-777c535f35c3","ios":"levelo://app?vid=a2d4bc39-d409-40d6-b293-777c535f35c3"},"vehicle_type_id":"4","last_reported":1702490875,"current_range_meters":8800,"station_id":"ce4bhih2rcd13ifvqfs0","pricing_plan_id":"free"},{"bike_id":"e9eccb37-12cb-47b3-8f89-87450f2431ea","system_id":"levelo_inurba_marseille","lat":43.270721,"lon":5.422764,"is_reserved":false,"is_disabled":false,"rental_uris":{"android":"levelo://app?vid=e9eccb37-12cb-47b3-8f89-87450f2431ea","ios":"levelo://app?vid=e9eccb37-12cb-47b3-8f89-87450f2431ea"},"vehicle_type_id":"4","last_reported":1702490875,"current_range_meters":15200,"station_id":"ce4bhk92rcd13ifvqgb0","pricing_plan_id":"free"},{"bike_id":"c1924790-2085-40c0-aec5-7bd14ab71714","system_id":"levelo_inurba_marseille","lat":43.258658,"lon":5.398935,"is_reserved":false,"is_disabled":false,"rental_uris":{"android":"levelo://app?vid=c1924790-2085-40c0-aec5-7bd14ab71714","ios":"levelo://app?vid=c1924790-2085-40c0-aec5-7bd14ab71714"},"vehicle_type_id":"4","last_reported":1702490875,"current_range_meters":5200,"station_id":"ce4bhl92rcd13ifvqghg","pricing_plan_id":"free"},{"bike_id":"b3778f4b-17a5-414d-a355-5d6709a05873","system_id":"levelo_inurba_marseille","lat":43.25388,"lon":5.3828,"is_reserved":false,"is_disabled":false,"rental_uris":{"android":"levelo://app?vid=b3778f4b-17a5-414d-a355-5d6709a05873","ios":"levelo://app?vid=b3778f4b-17a5-414d-a355-5d6709a05873"},"vehicle_type_id":"4","last_reported":1702490875,"current_range_meters":22000,"station_id":"","pricing_plan_id":"free"},{"bike_id":"96ccb0a9-ae97-4ca8-b747-b3b965a82d71","system_id":"levelo_inurba_marseille","lat":43.2479,"lon":5.374457,"is_reserved":false,"is_disabled":false,"rental_uris":{"android":"levelo://app?vid=96ccb0a9-ae97-4ca8-b747-b3b965a82d71","ios":"levelo://app?vid=96ccb0a9-ae97-4ca8-b747-b3b965a82d71"},"vehicle_type_id":"4","last_reported":1702490875,"current_range_meters":7200,"station_id":"ce4bhgh2rcd13ifvqfb0","pricing_plan_id":"free"},{"bike_id":"951607bb-31dc-4453-bad5-bda034e33c29","system_id":"levelo_inurba_marseille","lat":43.2479,"lon":5.374457,"is_reserved":false,"is_disabled":false,"rental_uris":{"android":"levelo://app?vid=951607bb-31dc-4453-bad5-bda034e33c29","ios":"levelo://app?vid=951607bb-31dc-4453-bad5-bda034e33c29"},"vehicle_type_id":"4","last_reported":1702490875,"current_range_meters":3600,"station_id":"ce4bhgh2rcd13ifvqfb0","pricing_plan_id":"free"},{"bike_id":"4e5ad467-5b2a-4311-bfbd-5ed452f7c851","system_id":"levelo_inurba_marseille","lat":43.250966,"lon":5.395186,"is_reserved":false,"is_disabled":false,"rental_uris":{"android":"levelo://app?vid=4e5ad467-5b2a-4311-bfbd-5ed452f7c851","ios":"levelo://app?vid=4e5ad467-5b2a-4311-bfbd-5ed452f7c851"},"vehicle_type_id":"4","last_reported":1702490875,"current_range_meters":10400,"station_id":"ce4bhm12rcd13ifvqgkg","pricing_plan_id":"free"},{"bike_id":"7e1973b3-f606-4647-8baa-0aa70235ba76","system_id":"levelo_inurba_marseille","lat":43.250966,"lon":5.395186,"is_reserved":false,"is_disabled":false,"rental_uris":{"android":"levelo://app?vid=7e1973b3-f606-4647-8baa-0aa70235ba76","ios":"levelo://app?vid=7e1973b3-f606-4647-8baa-0aa70235ba76"},"vehicle_type_id":"4","last_reported":1702490875,"current_range_meters":23600,"station_id":"ce4bhm12rcd13ifvqgkg","pricing_plan_id":"free"},{"bike_id":"158edd96-e0bd-43d2-b971-8d39354cd2f3","system_id":"levelo_inurba_marseille","lat":43.24693,"lon":5.382096,"is_reserved":false,"is_disabled":false,"rental_uris":{"android":"levelo://app?vid=158edd96-e0bd-43d2-b971-8d39354cd2f3","ios":"levelo://app?vid=158edd96-e0bd-43d2-b971-8d39354cd2f3"},"vehicle_type_id":"4","last_reported":1702490875,"current_range_meters":12800,"station_id":"ce4bhih2rcd13ifvqfr0","pricing_plan_id":"free"},{"bike_id":"0fdb7cd2-f372-4dbe-b14c-ee0f29dd0c1f","system_id":"levelo_inurba_marseille","lat":43.243884,"lon":5.370737,"is_reserved":false,"is_disabled":false,"rental_uris":{"android":"levelo://app?vid=0fdb7cd2-f372-4dbe-b14c-ee0f29dd0c1f","ios":"levelo://app?vid=0fdb7cd2-f372-4dbe-b14c-ee0f29dd0c1f"},"vehicle_type_id":"4","last_reported":1702490875,"current_range_meters":11200,"station_id":"ce4bhhh2rcd13ifvqfk0","pricing_plan_id":"free"},{"bike_id":"758bf935-5507-4896-bd6a-d09a4ad73728","system_id":"levelo_inurba_marseille","lat":43.240623,"lon":5.377642,"is_reserved":false,"is_disabled":false,"rental_uris":{"android":"levelo://app?vid=758bf935-5507-4896-bd6a-d09a4ad73728","ios":"levelo://app?vid=758bf935-5507-4896-bd6a-d09a4ad73728"},"vehicle_type_id":"4","last_reported":1702490875,"current_range_meters":0,"station_id":"ce4bhnp2rcd13ifvqgvg","pricing_plan_id":"free"},{"bike_id":"9af76f9c-24ab-48cd-a884-2f55b135e3d5","system_id":"levelo_inurba_marseille","lat":43.239588,"lon":5.366238,"is_reserved":false,"is_disabled":false,"rental_uris":{"android":"levelo://app?vid=9af76f9c-24ab-48cd-a884-2f55b135e3d5","ios":"levelo://app?vid=9af76f9c-24ab-48cd-a884-2f55b135e3d5"},"vehicle_type_id":"4","last_reported":1702490875,"current_range_meters":26800,"station_id":"ce4bhi12rcd13ifvqfp0","pricing_plan_id":"free"},{"bike_id":"825265e1-f294-4e04-ac72-2c431a6af408","system_id":"levelo_inurba_marseille","lat":43.239588,"lon":5.366238,"is_reserved":false,"is_disabled":false,"rental_uris":{"android":"levelo://app?vid=825265e1-f294-4e04-ac72-2c431a6af408","ios":"levelo://app?vid=825265e1-f294-4e04-ac72-2c431a6af408"},"vehicle_type_id":"4","last_reported":1702490875,"current_range_meters":31200,"station_id":"ce4bhi12rcd13ifvqfp0","pricing_plan_id":"free"},{"bike_id":"5e73fbfd-7e47-4a34-af61-72f438a4ee66","system_id":"levelo_inurba_marseille","lat":43.239588,"lon":5.366238,"is_reserved":false,"is_disabled":false,"rental_uris":{"android":"levelo://app?vid=5e73fbfd-7e47-4a34-af61-72f438a4ee66","ios":"levelo://app?vid=5e73fbfd-7e47-4a34-af61-72f438a4ee66"},"vehicle_type_id":"4","last_reported":1702490875,"current_range_meters":28800,"station_id":"ce4bhi12rcd13ifvqfp0","pricing_plan_id":"free"},{"bike_id":"dfc2f271-ee2c-4fa7-88de-51339aa910c2","system_id":"levelo_inurba_marseille","lat":43.239588,"lon":5.366238,"is_reserved":false,"is_disabled":false,"rental_uris":{"android":"levelo://app?vid=dfc2f271-ee2c-4fa7-88de-51339aa910c2","ios":"levelo://app?vid=dfc2f271-ee2c-4fa7-88de-51339aa910c2"},"vehicle_type_id":"4","last_reported":1702490875,"current_range_meters":31200,"station_id":"ce4bhi12rcd13ifvqfp0","pricing_plan_id":"free"},{"bike_id":"1742e6d0-ecd3-4941-87ee-0dacd7d8c0f0","system_id":"levelo_inurba_marseille","lat":43.241782,"lon":5.397261,"is_reserved":false,"is_disabled":false,"rental_uris":{"android":"levelo://app?vid=1742e6d0-ecd3-4941-87ee-0dacd7d8c0f0","ios":"levelo://app?vid=1742e6d0-ecd3-4941-87ee-0dacd7d8c0f0"},"vehicle_type_id":"4","last_reported":1702490875,"current_range_meters":30800,"station_id":"ce4bhn12rcd13ifvqgpg","pricing_plan_id":"free"},{"bike_id":"11867c88-22fb-4025-a869-93fe35ef7d41","system_id":"levelo_inurba_marseille","lat":43.241782,"lon":5.397261,"is_reserved":false,"is_disabled":false,"rental_uris":{"android":"levelo://app?vid=11867c88-22fb-4025-a869-93fe35ef7d41","ios":"levelo://app?vid=11867c88-22fb-4025-a869-93fe35ef7d41"},"vehicle_type_id":"4","last_reported":1702490875,"current_range_meters":2000,"station_id":"ce4bhn12rcd13ifvqgpg","pricing_plan_id":"free"},{"bike_id":"a24e9a7d-aca6-4a9e-803e-e0faeb33511b","system_id":"levelo_inurba_marseille","lat":43.23201,"lon":5.3555,"is_reserved":false,"is_disabled":false,"rental_uris":{"android":"levelo://app?vid=a24e9a7d-aca6-4a9e-803e-e0faeb33511b","ios":"levelo://app?vid=a24e9a7d-aca6-4a9e-803e-e0faeb33511b"},"vehicle_type_id":"4","last_reported":1702490875,"current_range_meters":31200,"station_id":"ce4bhu92rcd13ifvqi70","pricing_plan_id":"free"},{"bike_id":"7419071b-370e-4ee1-b8ec-fe330c17852b","system_id":"levelo_inurba_marseille","lat":43.23192,"lon":5.35553,"is_reserved":false,"is_disabled":false,"rental_uris":{"android":"levelo://app?vid=7419071b-370e-4ee1-b8ec-fe330c17852b","ios":"levelo://app?vid=7419071b-370e-4ee1-b8ec-fe330c17852b"},"vehicle_type_id":"4","last_reported":1702490875,"current_range_meters":27600,"station_id":"ce4bhu92rcd13ifvqi70","pricing_plan_id":"free"},{"bike_id":"e9e13da5-814b-4e04-963f-f688451db439","system_id":"levelo_inurba_marseille","lat":43.231793,"lon":5.400044,"is_reserved":false,"is_disabled":false,"rental_uris":{"android":"levelo://app?vid=e9e13da5-814b-4e04-963f-f688451db439","ios":"levelo://app?vid=e9e13da5-814b-4e04-963f-f688451db439"},"vehicle_type_id":"4","last_reported":1702490875,"current_range_meters":31200,"station_id":"ce4bhn12rcd13ifvqgqg","pricing_plan_id":"free"},{"bike_id":"976b51c7-50e5-4a1e-9623-472378627f57","system_id":"levelo_inurba_marseille","lat":43.231794,"lon":5.400052,"is_reserved":false,"is_disabled":false,"rental_uris":{"android":"levelo://app?vid=976b51c7-50e5-4a1e-9623-472378627f57","ios":"levelo://app?vid=976b51c7-50e5-4a1e-9623-472378627f57"},"vehicle_type_id":"4","last_reported":1702490875,"current_range_meters":31200,"station_id":"ce4bhn12rcd13ifvqgqg","pricing_plan_id":"free"},{"bike_id":"28cf0186-3129-4448-9e8f-8fa9860365e7","system_id":"levelo_inurba_marseille","lat":43.231794,"lon":5.400052,"is_reserved":false,"is_disabled":false,"rental_uris":{"android":"levelo://app?vid=28cf0186-3129-4448-9e8f-8fa9860365e7","ios":"levelo://app?vid=28cf0186-3129-4448-9e8f-8fa9860365e7"},"vehicle_type_id":"4","last_reported":1702490875,"current_range_meters":18800,"station_id":"ce4bhn12rcd13ifvqgqg","pricing_plan_id":"free"},{"bike_id":"46e85755-7f44-4770-9e69-88e3e5d2d0d4","system_id":"levelo_inurba_marseille","lat":43.231794,"lon":5.400052,"is_reserved":false,"is_disabled":false,"rental_uris":{"android":"levelo://app?vid=46e85755-7f44-4770-9e69-88e3e5d2d0d4","ios":"levelo://app?vid=46e85755-7f44-4770-9e69-88e3e5d2d0d4"},"vehicle_type_id":"4","last_reported":1702490875,"current_range_meters":20800,"station_id":"ce4bhn12rcd13ifvqgqg","pricing_plan_id":"free"},{"bike_id":"0b36edfc-4e5d-46d8-a68b-0ec0ff90cd42","system_id":"levelo_inurba_marseille","lat":43.231794,"lon":5.400052,"is_reserved":false,"is_disabled":false,"rental_uris":{"android":"levelo://app?vid=0b36edfc-4e5d-46d8-a68b-0ec0ff90cd42","ios":"levelo://app?vid=0b36edfc-4e5d-46d8-a68b-0ec0ff90cd42"},"vehicle_type_id":"4","last_reported":1702490875,"current_range_meters":16000,"station_id":"ce4bhn12rcd13ifvqgqg","pricing_plan_id":"free"},{"bike_id":"089568fd-e936-4c31-a2a6-ab09f2b4391b","system_id":"levelo_inurba_marseille","lat":43.231794,"lon":5.400052,"is_reserved":false,"is_disabled":false,"rental_uris":{"android":"levelo://app?vid=089568fd-e936-4c31-a2a6-ab09f2b4391b","ios":"levelo://app?vid=089568fd-e936-4c31-a2a6-ab09f2b4391b"},"vehicle_type_id":"4","last_reported":1702490875,"current_range_meters":1600,"station_id":"ce4bhn12rcd13ifvqgqg","pricing_plan_id":"free"},{"bike_id":"a70842cf-3cdd-4227-8996-9e4cdf55219b","system_id":"levelo_inurba_marseille","lat":43.231793,"lon":5.400044,"is_reserved":false,"is_disabled":false,"rental_uris":{"android":"levelo://app?vid=a70842cf-3cdd-4227-8996-9e4cdf55219b","ios":"levelo://app?vid=a70842cf-3cdd-4227-8996-9e4cdf55219b"},"vehicle_type_id":"4","last_reported":1702490875,"current_range_meters":22000,"station_id":"ce4bhn12rcd13ifvqgqg","pricing_plan_id":"free"},{"bike_id":"2b605040-44f0-4665-aefa-dbb05f50f601","system_id":"levelo_inurba_marseille","lat":43.231793,"lon":5.400044,"is_reserved":false,"is_disabled":false,"rental_uris":{"android":"levelo://app?vid=2b605040-44f0-4665-aefa-dbb05f50f601","ios":"levelo://app?vid=2b605040-44f0-4665-aefa-dbb05f50f601"},"vehicle_type_id":"4","last_reported":1702490875,"current_range_meters":5200,"station_id":"ce4bhn12rcd13ifvqgqg","pricing_plan_id":"free"},{"bike_id":"5d66a1e1-407e-43b7-8a1f-b43437a90341","system_id":"levelo_inurba_marseille","lat":43.231794,"lon":5.400052,"is_reserved":false,"is_disabled":false,"rental_uris":{"android":"levelo://app?vid=5d66a1e1-407e-43b7-8a1f-b43437a90341","ios":"levelo://app?vid=5d66a1e1-407e-43b7-8a1f-b43437a90341"},"vehicle_type_id":"4","last_reported":1702490875,"current_range_meters":30400,"station_id":"ce4bhn12rcd13ifvqgqg","pricing_plan_id":"free"},{"bike_id":"ef0ae5cd-319e-4e26-9965-984533c0dcf1","system_id":"levelo_inurba_marseille","lat":43.231793,"lon":5.400044,"is_reserved":false,"is_disabled":false,"rental_uris":{"android":"levelo://app?vid=ef0ae5cd-319e-4e26-9965-984533c0dcf1","ios":"levelo://app?vid=ef0ae5cd-319e-4e26-9965-984533c0dcf1"},"vehicle_type_id":"4","last_reported":1702490875,"current_range_meters":0,"station_id":"ce4bhn12rcd13ifvqgqg","pricing_plan_id":"free"}]}}