{"last_updated":1727986197,"ttl":60,"version":"2.2","data":{"bikes":[{"bike_id":"18588757-cdc7-4164-b275-329b63991fa8","system_id":"levelo_inurba_marseille","lat":43.28603,"lon":5.35086,"is_reserved":false,"is_disabled":false,"rental_uris":{"android":"levelo://app?vid=18588757-cdc7-4164-b275-329b63991fa8","ios":"levelo://app?vid=18588757-cdc7-4164-b275-329b63991fa8"},"vehicle_type_id":"4","last_reported":1727986198,"current_range_meters":28400,"station_id":"ce4bhch2rcd13ifvqeug","pricing_plan_id":"cebpf4jnsgd1na2vs0mg"},{"bike_id":"b58e08fd-b14d-4d5a-ba63-43827f1088a5","system_id":"levelo_inurba_marseille","lat":43.29192,"lon":5.35803,"is_reserved":false,"is_disabled":false,"rental_uris":{"android":"levelo://app?vid=b58e08fd-b14d-4d5a-ba63-43827f1088a5","ios":"levelo://app?vid=b58e08fd-b14d-4d5a-ba63-43827f1088a5"},"vehicle_type_id":"4","last_reported":1727986198,"current_range_meters":16400,"station_id":"ce4bhb12rcd13ifvqel0","pricing_plan_id":"cebpf4jnsgd1na2vs0mg"},{"bike_id":"2c1d28fc-a845-4b20-a246-11f8885282c0","system_id":"levelo_inurba_marseille","lat":43.28027,"lon":5.3696,"is_reserved":false,"is_disabled":false,"rental_uris":{"android":"levelo://app?vid=2c1d28fc-a845-4b20-a246-11f8885282c0","ios":"levelo://app?vid=2c1d28fc-a845-4b20-a246-11f8885282c0"},"vehicle_type_id":"4","last_reported":1727986198,"current_range_meters":28800,"station_id":"ce4bha12rcd13ifvqef0","pricing_plan_id":"cebpf4jnsgd1na2vs0mg"},{"bike_id":"13c46c5f-f4c2-40fb-bd87-1affed0f05c4","system_id":"levelo_inurba_marseille","lat":43.31121,"lon":5.37772,"is_reserved":false,"is_disabled":false,"rental_uris":{"android":"levelo://app?vid=13c46c5f-f4c2-40fb-bd87-1affed0f05c4","ios":"levelo://app?vid=13c46c5f-f4c2-40fb-bd87-1affed0f05c4"},"vehicle_type_id":"4","last_reported":1727986198,"current_range_meters":38800,"station_id":"ce4bgt92rcd13ifvqcg0","pricing_plan_id":"cebpf4jnsgd1na2vs0mg"},{"bike_id":"8f2ca0ae-7c75-471f-8ffd-2caa17293137","system_id":"levelo_inurba_marseille","lat":43.3171,"lon":5.377293,"is_reserved":false,"is_disabled":false,"rental_uris":{"android":"levelo://app?vid=8f2ca0ae-7c75-471f-8ffd-2caa17293137","ios":"levelo://app?vid=8f2ca0ae-7c75-471f-8ffd-2caa17293137"},"vehicle_type_id":"4","last_reported":1727986198,"current_range_meters":32800,"station_id":"ce4bgth2rcd13ifvqch0","pricing_plan_id":"cebpf4jnsgd1na2vs0mg"},{"bike_id":"dfa316ed-31fe-4eb7-ae98-3312a562d760","system_id":"levelo_inurba_marseille","lat":43.27184,"lon":5.40996,"is_reserved":false,"is_disabled":false,"rental_uris":{"android":"levelo://app?vid=dfa316ed-31fe-4eb7-ae98-3312a562d760","ios":"levelo://app?vid=dfa316ed-31fe-4eb7-ae98-3312a562d760"},"vehicle_type_id":"4","last_reported":1727986198,"current_range_meters":37600,"station_id":"ce4bhl12rcd13ifvqgf0","pricing_plan_id":"cebpf4jnsgd1na2vs0mg"},{"bike_id":"43a1453a-eda4-4d63-a4eb-f9afcd9f7c1f","system_id":"levelo_inurba_marseille","lat":43.32729,"lon":5.39207,"is_reserved":false,"is_disabled":false,"rental_uris":{"android":"levelo://app?vid=43a1453a-eda4-4d63-a4eb-f9afcd9f7c1f","ios":"levelo://app?vid=43a1453a-eda4-4d63-a4eb-f9afcd9f7c1f"},"vehicle_type_id":"4","last_reported":1727986198,"current_range_meters":28800,"station_id":"","pricing_plan_id":"cebpf4jnsgd1na2vs0mg"},{"bike_id":"756088e4-bd38-4606-aa6f-cbbf1461af00","system_id":"levelo_inurba_marseille","lat":43.22938,"lon":5.3538,"is_reserved":false,"is_disabled":false,"rental_uris":{"android":"levelo://app?vid=756088e4-bd38-4606-aa6f-cbbf1461af00","ios":"levelo://app?vid=756088e4-bd38-4606-aa6f-cbbf1461af00"},"vehicle_type_id":"4","last_reported":1727986198,"current_range_meters":16800,"station_id":"cpo3532slgdg3j2ikp40","pricing_plan_id":"cebpf4jnsgd1na2vs0mg"},{"bike_id":"fb1a5fb9-eb58-462f-9a50-0322d1fa81d6","system_id":"levelo_inurba_marseille","lat":43.30801,"lon":5.38175,"is_reserved":false,"is_disabled":false,"rental_uris":{"android":"levelo://app?vid=fb1a5fb9-eb58-462f-9a50-0322d1fa81d6","ios":"levelo://app?vid=fb1a5fb9-eb58-462f-9a50-0322d1fa81d6"},"vehicle_type_id":"4","last_reported":1727986198,"current_range_meters":38800,"station_id":"ce4bgt12rcd13ifvqce0","pricing_plan_id":"cebpf4jnsgd1na2vs0mg"},{"bike_id":"be9c5a9b-aad4-41b8-a398-2d1a6d7d4bf9","system_id":"levelo_inurba_marseille","lat":43.33603,"lon":5.41032,"is_reserved":false,"is_disabled":false,"rental_uris":{"android":"levelo://app?vid=be9c5a9b-aad4-41b8-a398-2d1a6d7d4bf9","ios":"levelo://app?vid=be9c5a9b-aad4-41b8-a398-2d1a6d7d4bf9"},"vehicle_type_id":"4","last_reported":1727986198,"current_range_meters":21600,"station_id":"ce4bhqh2rcd13ifvqhmg","pricing_plan_id":"cebpf4jnsgd1na2vs0mg"},{"bike_id":"a024e5fb-742d-4eda-b747-29e2047d1267","system_id":"levelo_inurba_marseille","lat":43.29531,"lon":5.38545,"is_reserved":false,"is_disabled":false,"rental_uris":{"android":"levelo://app?vid=a024e5fb-742d-4eda-b747-29e2047d1267","ios":"levelo://app?vid=a024e5fb-742d-4eda-b747-29e2047d1267"},"vehicle_type_id":"4","last_reported":1727986198,"current_range_meters":16000,"station_id":"ce4bgih2rcd13ifvqba0","pricing_plan_id":"cebpf4jnsgd1na2vs0mg"},{"bike_id":"bc41810d-3fc6-4e9c-bcc1-3b1d7bce3ce2","system_id":"levelo_inurba_marseille","lat":43.2318,"lon":5.39984,"is_reserved":false,"is_disabled":false,"rental_uris":{"android":"levelo://app?vid=bc41810d-3fc6-4e9c-bcc1-3b1d7bce3ce2","ios":"levelo://app?vid=bc41810d-3fc6-4e9c-bcc1-3b1d7bce3ce2"},"vehicle_type_id":"4","last_reported":1727986198,"current_range_meters":22800,"station_id":"ce4bhn12rcd13ifvqgqg","pricing_plan_id":"cebpf4jnsgd1na2vs0mg"},{"bike_id":"48831eeb-180c-494c-819b-ab6fbaf4655d","system_id":"levelo_inurba_marseille","lat":43.25498,"lon":5.37652,"is_reserved":false,"is_disabled":false,"rental_uris":{"android":"levelo://app?vid=48831eeb-180c-494c-819b-ab6fbaf4655d","ios":"levelo://app?vid=48831eeb-180c-494c-819b-ab6fbaf4655d"},"vehicle_type_id":"4","last_reported":1727986198,"current_range_meters":38800,"station_id":"ce4bhh12rcd13ifvqff0","pricing_plan_id":"cebpf4jnsgd1na2vs0mg"},{"bike_id":"0b3ff020-d553-4093-a4c9-180b61ecbdf4","system_id":"levelo_inurba_marseille","lat":43.294373,"lon":5.397529,"is_reserved":false,"is_disabled":false,"rental_uris":{"android":"levelo://app?vid=0b3ff020-d553-4093-a4c9-180b61ecbdf4","ios":"levelo://app?vid=0b3ff020-d553-4093-a4c9-180b61ecbdf4"},"vehicle_type_id":"4","last_reported":1727986198,"current_range_meters":10000,"station_id":"ce4bh3h2rcd13ifvqdo0","pricing_plan_id":"cebpf4jnsgd1na2vs0mg"},{"bike_id":"0c70170d-046a-40f8-96ef-bcd087f60972","system_id":"levelo_inurba_marseille","lat":43.289319,"lon":5.396301,"is_reserved":false,"is_disabled":false,"rental_uris":{"android":"levelo://app?vid=0c70170d-046a-40f8-96ef-bcd087f60972","ios":"levelo://app?vid=0c70170d-046a-40f8-96ef-bcd087f60972"},"vehicle_type_id":"4","last_reported":1727986198,"current_range_meters":22000,"station_id":"ce4bh3h2rcd13ifvqdn0","pricing_plan_id":"cebpf4jnsgd1na2vs0mg"},{"bike_id":"f5b2494f-4c60-40d3-ab10-10663c8a33d0","system_id":"levelo_inurba_marseille","lat":43.292009,"lon":5.357982,"is_reserved":false,"is_disabled":false,"rental_uris":{"android":"levelo://app?vid=f5b2494f-4c60-40d3-ab10-10663c8a33d0","ios":"levelo://app?vid=f5b2494f-4c60-40d3-ab10-10663c8a33d0"},"vehicle_type_id":"4","last_reported":1727986198,"current_range_meters":10000,"station_id":"ce4bhg12rcd13ifvqf60","pricing_plan_id":"cebpf4jnsgd1na2vs0mg"},{"bike_id":"55a6abf8-fc19-4ceb-845e-cabd97c4f3f1","system_id":"levelo_inurba_marseille","lat":43.28151,"lon":5.42649,"is_reserved":false,"is_disabled":false,"rental_uris":{"android":"levelo://app?vid=55a6abf8-fc19-4ceb-845e-cabd97c4f3f1","ios":"levelo://app?vid=55a6abf8-fc19-4ceb-845e-cabd97c4f3f1"},"vehicle_type_id":"4","last_reported":1727986198,"current_range_meters":8400,"station_id":"ce4bhnh2rcd13ifvqgug","pricing_plan_id":"cebpf4jnsgd1na2vs0mg"},{"bike_id":"74285527-ac8e-4818-a1e2-801ae8c17794","system_id":"levelo_inurba_marseille","lat":43.31169,"lon":5.38721,"is_reserved":false,"is_disabled":false,"rental_uris":{"android":"levelo://app?vid=74285527-ac8e-4818-a1e2-801ae8c17794","ios":"levelo://app?vid=74285527-ac8e-4818-a1e2-801ae8c17794"},"vehicle_type_id":"4","last_reported":1727986198,"current_range_meters":6000,"station_id":"ce4bgv12rcd13ifvqcp0","pricing_plan_id":"cebpf4jnsgd1na2vs0mg"},{"bike_id":"ae2f6fcc-b6fe-4b61-92a6-41ca16e7916c","system_id":"levelo_inurba_marseille","lat":43.292243,"lon":5.360488,"is_reserved":false,"is_disabled":false,"rental_uris":{"android":"levelo://app?vid=ae2f6fcc-b6fe-4b61-92a6-41ca16e7916c","ios":"levelo://app?vid=ae2f6fcc-b6fe-4b61-92a6-41ca16e7916c"},"vehicle_type_id":"4","last_reported":1727986198,"current_range_meters":38800,"station_id":"ce4bhbh2rcd13ifvqeqg","pricing_plan_id":"cebpf4jnsgd1na2vs0mg"},{"bike_id":"1287138e-fa6c-436c-9adf-a4c35ff244bc","system_id":"levelo_inurba_marseille","lat":43.31756,"lon":5.39025,"is_reserved":false,"is_disabled":false,"rental_uris":{"android":"levelo://app?vid=1287138e-fa6c-436c-9adf-a4c35ff244bc","ios":"levelo://app?vid=1287138e-fa6c-436c-9adf-a4c35ff244bc"},"vehicle_type_id":"4","last_reported":1727986198,"current_range_meters":17200,"station_id":"ce4bhqp2rcd13ifvqhng","pricing_plan_id":"cebpf4jnsgd1na2vs0mg"},{"bike_id":"a99e0887-fb66-4880-8761-33fdb36b8615","system_id":"levelo_inurba_marseille","lat":43.23189,"lon":5.39994,"is_reserved":false,"is_disabled":false,"rental_uris":{"android":"levelo://app?vid=a99e0887-fb66-4880-8761-33fdb36b8615","ios":"levelo://app?vid=a99e0887-fb66-4880-8761-33fdb36b8615"},"vehicle_type_id":"4","last_reported":1727986198,"current_range_meters":14800,"station_id":"ce4bhn12rcd13ifvqgqg","pricing_plan_id":"cebpf4jnsgd1na2vs0mg"},{"bike_id":"397a2d03-4f85-4289-97cc-f11013459605","system_id":"levelo_inurba_marseille","lat":43.318909,"lon":5.407388,"is_reserved":false,"is_disabled":false,"rental_uris":{"android":"levelo://app?vid=397a2d03-4f85-4289-97cc-f11013459605","ios":"levelo://app?vid=397a2d03-4f85-4289-97cc-f11013459605"},"vehicle_type_id":"4","last_reported":1727986198,"current_range_meters":36800,"station_id":"ce4bhq12rcd13ifvqhig","pricing_plan_id":"cebpf4jnsgd1na2vs0mg"},{"bike_id":"f53f87bb-33a8-4242-bca3-4b0f24f94935","system_id":"levelo_inurba_marseille","lat":43.29789,"lon":5.39346,"is_reserved":false,"is_disabled":false,"rental_uris":{"android":"levelo://app?vid=f53f87bb-33a8-4242-bca3-4b0f24f94935","ios":"levelo://app?vid=f53f87bb-33a8-4242-bca3-4b0f24f94935"},"vehicle_type_id":"4","last_reported":1727986198,"current_range_meters":38800,"station_id":"chh1huq6cuj3fo74tm60","pricing_plan_id":"cebpf4jnsgd1na2vs0mg"},{"bike_id":"4137efb2-d348-4759-9688-06bf62825f11","system_id":"levelo_inurba_marseille","lat":43.3032,"lon":5.40445,"is_reserved":false,"is_disabled":false,"rental_uris":{"android":"levelo://app?vid=4137efb2-d348-4759-9688-06bf62825f11","ios":"levelo://app?vid=4137efb2-d348-4759-9688-06bf62825f11"},"vehicle_type_id":"4","last_reported":1727986198,"current_range_meters":38800,"station_id":"ce4bh012rcd13ifvqd10","pricing_plan_id":"cebpf4jnsgd1na2vs0mg"},{"bike_id":"f3ca8eae-8524-453e-a3ef-ef65e37e2e78","system_id":"levelo_inurba_marseille","lat":43.24671,"lon":5.38172,"is_reserved":false,"is_disabled":false,"rental_uris":{"android":"levelo://app?vid=f3ca8eae-8524-453e-a3ef-ef65e37e2e78","ios":"levelo://app?vid=f3ca8eae-8524-453e-a3ef-ef65e37e2e78"},"vehicle_type_id":"4","last_reported":1727986198,"current_range_meters":22800,"station_id":"ce4bhih2rcd13ifvqfr0","pricing_plan_id":"cebpf4jnsgd1na2vs0mg"},{"bike_id":"c36f12fa-ae32-4b0d-b404-78b57e4f78fe","system_id":"levelo_inurba_marseille","lat":43.29894,"lon":5.43673,"is_reserved":false,"is_disabled":false,"rental_uris":{"android":"levelo://app?vid=c36f12fa-ae32-4b0d-b404-78b57e4f78fe","ios":"levelo://app?vid=c36f12fa-ae32-4b0d-b404-78b57e4f78fe"},"vehicle_type_id":"4","last_reported":1727986198,"current_range_meters":38000,"station_id":"ce4bhpp2rcd13ifvqhfg","pricing_plan_id":"cebpf4jnsgd1na2vs0mg"},{"bike_id":"46233e9e-06c4-4df1-a818-c4c5bad0a987","system_id":"levelo_inurba_marseille","lat":43.28459,"lon":5.35879,"is_reserved":false,"is_disabled":false,"rental_uris":{"android":"levelo://app?vid=46233e9e-06c4-4df1-a818-c4c5bad0a987","ios":"levelo://app?vid=46233e9e-06c4-4df1-a818-c4c5bad0a987"},"vehicle_type_id":"4","last_reported":1727986198,"current_range_meters":17600,"station_id":"ce4bhah2rcd13ifvqei0","pricing_plan_id":"cebpf4jnsgd1na2vs0mg"},{"bike_id":"bf02e316-b964-4234-b7c1-343cd92831c8","system_id":"levelo_inurba_marseille","lat":43.28157,"lon":5.42647,"is_reserved":false,"is_disabled":false,"rental_uris":{"android":"levelo://app?vid=bf02e316-b964-4234-b7c1-343cd92831c8","ios":"levelo://app?vid=bf02e316-b964-4234-b7c1-343cd92831c8"},"vehicle_type_id":"4","last_reported":1727986198,"current_range_meters":8400,"station_id":"ce4bhnh2rcd13ifvqgug","pricing_plan_id":"cebpf4jnsgd1na2vs0mg"},{"bike_id":"75ae865b-18dc-4981-b8a0-9c762a1bfa9c","system_id":"levelo_inurba_marseille","lat":43.33022,"lon":5.39045,"is_reserved":false,"is_disabled":false,"rental_uris":{"android":"levelo://app?vid=75ae865b-18dc-4981-b8a0-9c762a1bfa9c","ios":"levelo://app?vid=75ae865b-18dc-4981-b8a0-9c762a1bfa9c"},"vehicle_type_id":"4","last_reported":1727986198,"current_range_meters":4000,"station_id":"ce4bhr92rcd13ifvqhrg","pricing_plan_id":"cebpf4jnsgd1na2vs0mg"},{"bike_id":"3fe37da4-ea3d-4957-9fb9-6b9c0a227d7d","system_id":"levelo_inurba_marseille","lat":43.27946,"lon":5.41046,"is_reserved":false,"is_disabled":false,"rental_uris":{"android":"levelo://app?vid=3fe37da4-ea3d-4957-9fb9-6b9c0a227d7d","ios":"levelo://app?vid=3fe37da4-ea3d-4957-9fb9-6b9c0a227d7d"},"vehicle_type_id":"4","last_reported":1727986198,"current_range_meters":22800,"station_id":"ce4bhnp2rcd13ifvqh0g","pricing_plan_id":"cebpf4jnsgd1na2vs0mg"},{"bike_id":"5c1cf64f-cd41-4857-9ed8-296865b6b10c","system_id":"levelo_inurba_marseille","lat":43.26929,"lon":5.38918,"is_reserved":false,"is_disabled":false,"rental_uris":{"android":"levelo://app?vid=5c1cf64f-cd41-4857-9ed8-296865b6b10c","ios":"levelo://app?vid=5c1cf64f-cd41-4857-9ed8-296865b6b10c"},"vehicle_type_id":"4","last_reported":1727986198,"current_range_meters":38800,"station_id":"ce4bhhh2rcd13ifvqfl0","pricing_plan_id":"cebpf4jnsgd1na2vs0mg"},{"bike_id":"067137d1-b01e-4db3-8afa-dbe448ff1ea0","system_id":"levelo_inurba_marseille","lat":43.28614,"lon":5.35108,"is_reserved":false,"is_disabled":false,"rental_uris":{"android":"levelo://app?vid=067137d1-b01e-4db3-8afa-dbe448ff1ea0","ios":"levelo://app?vid=067137d1-b01e-4db3-8afa-dbe448ff1ea0"},"vehicle_type_id":"4","last_reported":1727986198,"current_range_meters":30000,"station_id":"ce4bhch2rcd13ifvqeug","pricing_plan_id":"cebpf4jnsgd1na2vs0mg"},{"bike_id":"e6b2df58-b4a0-4aec-933d-a62e42f34d34","system_id":"levelo_inurba_marseille","lat":43.33728,"lon":5.39193,"is_reserved":false,"is_disabled":false,"rental_uris":{"android":"levelo://app?vid=e6b2df58-b4a0-4aec-933d-a62e42f34d34","ios":"levelo://app?vid=e6b2df58-b4a0-4aec-933d-a62e42f34d34"},"vehicle_type_id":"4","last_reported":1727986198,"current_range_meters":24400,"station_id":"ce4bhr92rcd13ifvqhsg","pricing_plan_id":"cebpf4jnsgd1na2vs0mg"},{"bike_id":"aefabde4-9352-452e-b64e-e46ba1f04720","system_id":"levelo_inurba_marseille","lat":43.29787,"lon":5.37107,"is_reserved":false,"is_disabled":false,"rental_uris":{"android":"levelo://app?vid=aefabde4-9352-452e-b64e-e46ba1f04720","ios":"levelo://app?vid=aefabde4-9352-452e-b64e-e46ba1f04720"},"vehicle_type_id":"4","last_reported":1727986198,"current_range_meters":19200,"station_id":"ce4bgop2rcd13ifvqc1g","pricing_plan_id":"cebpf4jnsgd1na2vs0mg"},{"bike_id":"b1caede3-9948-4c10-a88e-31db67871077","system_id":"levelo_inurba_marseille","lat":43.3135,"lon":5.38498,"is_reserved":false,"is_disabled":false,"rental_uris":{"android":"levelo://app?vid=b1caede3-9948-4c10-a88e-31db67871077","ios":"levelo://app?vid=b1caede3-9948-4c10-a88e-31db67871077"},"vehicle_type_id":"4","last_reported":1727986198,"current_range_meters":26800,"station_id":"ce4bgt92rcd13ifvqcf0","pricing_plan_id":"cebpf4jnsgd1na2vs0mg"},{"bike_id":"eb43ae52-3f5b-4a7e-9fa5-6a9c95a4cebb","system_id":"levelo_inurba_marseille","lat":43.24514,"lon":5.37352,"is_reserved":false,"is_disabled":false,"rental_uris":{"android":"levelo://app?vid=eb43ae52-3f5b-4a7e-9fa5-6a9c95a4cebb","ios":"levelo://app?vid=eb43ae52-3f5b-4a7e-9fa5-6a9c95a4cebb"},"vehicle_type_id":"4","last_reported":1727986198,"current_range_meters":20000,"station_id":"","pricing_plan_id":"cebpf4jnsgd1na2vs0mg"},{"bike_id":"e15ccd9c-5635-434b-8e34-89eec6491fa5","system_id":"levelo_inurba_marseille","lat":43.31124,"lon":5.37764,"is_reserved":false,"is_disabled":false,"rental_uris":{"android":"levelo://app?vid=e15ccd9c-5635-434b-8e34-89eec6491fa5","ios":"levelo://app?vid=e15ccd9c-5635-434b-8e34-89eec6491fa5"},"vehicle_type_id":"4","last_reported":1727986198,"current_range_meters":4400,"station_id":"ce4bgt92rcd13ifvqcg0","pricing_plan_id":"cebpf4jnsgd1na2vs0mg"},{"bike_id":"56287f66-1668-4a5d-b3e1-733e18339fb8","system_id":"levelo_inurba_marseille","lat":43.32365,"lon":5.38886,"is_reserved":false,"is_disabled":false,"rental_uris":{"android":"levelo://app?vid=56287f66-1668-4a5d-b3e1-733e18339fb8","ios":"levelo://app?vid=56287f66-1668-4a5d-b3e1-733e18339fb8"},"vehicle_type_id":"4","last_reported":1727986198,"current_range_meters":28400,"station_id":"ce4bhqp2rcd13ifvqhog","pricing_plan_id":"cebpf4jnsgd1na2vs0mg"},{"bike_id":"b73551f1-4737-42f3-8efd-5f2fca843848","system_id":"levelo_inurba_marseille","lat":43.29901,"lon":5.43674,"is_reserved":false,"is_disabled":false,"rental_uris":{"android":"levelo://app?vid=b73551f1-4737-42f3-8efd-5f2fca843848","ios":"levelo://app?vid=b73551f1-4737-42f3-8efd-5f2fca843848"},"vehicle_type_id":"4","last_reported":1727986198,"current_range_meters":22000,"station_id":"ce4bhpp2rcd13ifvqhfg","pricing_plan_id":"cebpf4jnsgd1na2vs0mg"},{"bike_id":"e157ac1a-f030-47c7-9e37-e5eae8616f97","system_id":"levelo_inurba_marseille","lat":43.28155,"lon":5.42648,"is_reserved":false,"is_disabled":false,"rental_uris":{"android":"levelo://app?vid=e157ac1a-f030-47c7-9e37-e5eae8616f97","ios":"levelo://app?vid=e157ac1a-f030-47c7-9e37-e5eae8616f97"},"vehicle_type_id":"4","last_reported":1727986198,"current_range_meters":22800,"station_id":"ce4bhnh2rcd13ifvqgug","pricing_plan_id":"cebpf4jnsgd1na2vs0mg"},{"bike_id":"03ad1baf-eae9-4286-9758-a0f11ca86ec8","system_id":"levelo_inurba_marseille","lat":43.2841,"lon":5.37511,"is_reserved":false,"is_disabled":false,"rental_uris":{"android":"levelo://app?vid=03ad1baf-eae9-4286-9758-a0f11ca86ec8","ios":"levelo://app?vid=03ad1baf-eae9-4286-9758-a0f11ca86ec8"},"vehicle_type_id":"4","last_reported":1727986198,"current_range_meters":36400,"station_id":"ce4bh412rcd13ifvqds0","pricing_plan_id":"cebpf4jnsgd1na2vs0mg"},{"bike_id":"63bae4f0-02bd-4bdc-902b-51044b09603f","system_id":"levelo_inurba_marseille","lat":43.27612,"lon":5.36113,"is_reserved":false,"is_disabled":false,"rental_uris":{"android":"levelo://app?vid=63bae4f0-02bd-4bdc-902b-51044b09603f","ios":"levelo://app?vid=63bae4f0-02bd-4bdc-902b-51044b09603f"},"vehicle_type_id":"4","last_reported":1727986198,"current_range_meters":38400,"station_id":"ce4bgj92rcd13ifvqbe0","pricing_plan_id":"cebpf4jnsgd1na2vs0mg"},{"bike_id":"3e525677-00c8-4e9b-8d98-04f82d2db9c6","system_id":"levelo_inurba_marseille","lat":43.30784,"lon":5.37642,"is_reserved":false,"is_disabled":false,"rental_uris":{"android":"levelo://app?vid=3e525677-00c8-4e9b-8d98-04f82d2db9c6","ios":"levelo://app?vid=3e525677-00c8-4e9b-8d98-04f82d2db9c6"},"vehicle_type_id":"4","last_reported":1727986198,"current_range_meters":17200,"station_id":"ce4bgv92rcd13ifvqcq0","pricing_plan_id":"cebpf4jnsgd1na2vs0mg"},{"bike_id":"a0feab16-2f1f-4214-9058-21d8b9b7774f","system_id":"levelo_inurba_marseille","lat":43.27998,"lon":5.40959,"is_reserved":false,"is_disabled":false,"rental_uris":{"android":"levelo://app?vid=a0feab16-2f1f-4214-9058-21d8b9b7774f","ios":"levelo://app?vid=a0feab16-2f1f-4214-9058-21d8b9b7774f"},"vehicle_type_id":"4","last_reported":1727986198,"current_range_meters":12800,"station_id":"","pricing_plan_id":"cebpf4jnsgd1na2vs0mg"},{"bike_id":"6323c3ea-75d7-47ca-8873-1f720d264584","system_id":"levelo_inurba_marseille","lat":43.25498,"lon":5.37653,"is_reserved":false,"is_disabled":false,"rental_uris":{"android":"levelo://app?vid=6323c3ea-75d7-47ca-8873-1f720d264584","ios":"levelo://app?vid=6323c3ea-75d7-47ca-8873-1f720d264584"},"vehicle_type_id":"4","last_reported":1727986198,"current_range_meters":39200,"station_id":"ce4bhh12rcd13ifvqff0","pricing_plan_id":"cebpf4jnsgd1na2vs0mg"},{"bike_id":"0d38caac-4e1b-4bc6-8634-fba8549655ca","system_id":"levelo_inurba_marseille","lat":43.3211,"lon":5.36773,"is_reserved":false,"is_disabled":false,"rental_uris":{"android":"levelo://app?vid=0d38caac-4e1b-4bc6-8634-fba8549655ca","ios":"levelo://app?vid=0d38caac-4e1b-4bc6-8634-fba8549655ca"},"vehicle_type_id":"4","last_reported":1727986198,"current_range_meters":35200,"station_id":"ce4bhrh2rcd13ifvqhug","pricing_plan_id":"cebpf4jnsgd1na2vs0mg"},{"bike_id":"7b15040c-0c7a-4b6f-b5a0-b0afdab253af","system_id":"levelo_inurba_marseille","lat":43.30311,"lon":5.39207,"is_reserved":false,"is_disabled":false,"rental_uris":{"android":"levelo://app?vid=7b15040c-0c7a-4b6f-b5a0-b0afdab253af","ios":"levelo://app?vid=7b15040c-0c7a-4b6f-b5a0-b0afdab253af"},"vehicle_type_id":"4","last_reported":1727986198,"current_range_meters":17600,"station_id":"ce4bgkh2rcd13ifvqbk0","pricing_plan_id":"cebpf4jnsgd1na2vs0mg"},{"bike_id":"af4d9fe8-ac12-4411-b3b0-d47d65976cc9","system_id":"levelo_inurba_marseille","lat":43.29269,"lon":5.38439,"is_reserved":false,"is_disabled":false,"rental_uris":{"android":"levelo://app?vid=af4d9fe8-ac12-4411-b3b0-d47d65976cc9","ios":"levelo://app?vid=af4d9fe8-ac12-4411-b3b0-d47d65976cc9"},"vehicle_type_id":"4","last_reported":1727986198,"current_range_meters":28400,"station_id":"ce4bh692rcd13ifvqea0","pricing_plan_id":"cebpf4jnsgd1na2vs0mg"},{"bike_id":"f6139423-9a75-4754-aa4b-50bb61259845","system_id":"levelo_inurba_marseille","lat":43.31695,"lon":5.40476,"is_reserved":false,"is_disabled":false,"rental_uris":{"android":"levelo://app?vid=f6139423-9a75-4754-aa4b-50bb61259845","ios":"levelo://app?vid=f6139423-9a75-4754-aa4b-50bb61259845"},"vehicle_type_id":"4","last_reported":1727986198,"current_range_meters":28000,"station_id":"ce4bh012rcd13ifvqd00","pricing_plan_id":"cebpf4jnsgd1na2vs0mg"},{"bike_id":"499cb64c-6fb8-4407-89d8-a118e3c5c28d","system_id":"levelo_inurba_marseille","lat":43.28002,"lon":5.40004,"is_reserved":false,"is_disabled":false,"rental_uris":{"android":"levelo://app?vid=499cb64c-6fb8-4407-89d8-a118e3c5c28d","ios":"levelo://app?vid=499cb64c-6fb8-4407-89d8-a118e3c5c28d"},"vehicle_type_id":"4","last_reported":1727986198,"current_range_meters":18000,"station_id":"ce4bho92rcd13ifvqh4g","pricing_plan_id":"cebpf4jnsgd1na2vs0mg"},{"bike_id":"31b6e008-b40d-4caf-acfb-aba5ef93501e","system_id":"levelo_inurba_marseille","lat":43.29021,"lon":5.38629,"is_reserved":false,"is_disabled":false,"rental_uris":{"android":"levelo://app?vid=31b6e008-b40d-4caf-acfb-aba5ef93501e","ios":"levelo://app?vid=31b6e008-b40d-4caf-acfb-aba5ef93501e"},"vehicle_type_id":"4","last_reported":1727986198,"current_range_meters":38800,"station_id":"ce4bh4p2rcd13ifvqe0g","pricing_plan_id":"cebpf4jnsgd1na2vs0mg"},{"bike_id":"ad9d6e94-a639-469e-9892-0c7fed511f97","system_id":"levelo_inurba_marseille","lat":43.26554,"lon":5.37287,"is_reserved":false,"is_disabled":false,"rental_uris":{"android":"levelo://app?vid=ad9d6e94-a639-469e-9892-0c7fed511f97","ios":"levelo://app?vid=ad9d6e94-a639-469e-9892-0c7fed511f97"},"vehicle_type_id":"4","last_reported":1727986198,"current_range_meters":19200,"station_id":"ce4bhg12rcd13ifvqf70","pricing_plan_id":"cebpf4jnsgd1na2vs0mg"},{"bike_id":"e29dcb3a-77e1-4133-a848-b5ca0f6900a8","system_id":"levelo_inurba_marseille","lat":43.25718,"lon":5.41112,"is_reserved":false,"is_disabled":false,"rental_uris":{"android":"levelo://app?vid=e29dcb3a-77e1-4133-a848-b5ca0f6900a8","ios":"levelo://app?vid=e29dcb3a-77e1-4133-a848-b5ca0f6900a8"},"vehicle_type_id":"4","last_reported":1727986198,"current_range_meters":10800,"station_id":"ce4bhkp2rcd13ifvqgd0","pricing_plan_id":"cebpf4jnsgd1na2vs0mg"},{"bike_id":"e7fc47b6-8b16-4e0a-89b1-4e0105bd7d85","system_id":"levelo_inurba_marseille","lat":43.3138,"lon":5.38495,"is_reserved":false,"is_disabled":false,"rental_uris":{"android":"levelo://app?vid=e7fc47b6-8b16-4e0a-89b1-4e0105bd7d85","ios":"levelo://app?vid=e7fc47b6-8b16-4e0a-89b1-4e0105bd7d85"},"vehicle_type_id":"4","last_reported":1727986198,"current_range_meters":28000,"station_id":"ce4bgph2rcd13ifvqc2g","pricing_plan_id":"cebpf4jnsgd1na2vs0mg"},{"bike_id":"ba7a26e7-2ef9-45d4-a227-c30073b5b405","system_id":"levelo_inurba_marseille","lat":43.28662,"lon":5.3635,"is_reserved":false,"is_disabled":false,"rental_uris":{"android":"levelo://app?vid=ba7a26e7-2ef9-45d4-a227-c30073b5b405","ios":"levelo://app?vid=ba7a26e7-2ef9-45d4-a227-c30073b5b405"},"vehicle_type_id":"4","last_reported":1727986198,"current_range_meters":7200,"station_id":"ce4bhah2rcd13ifvqej0","pricing_plan_id":"cebpf4jnsgd1na2vs0mg"},{"bike_id":"214d531a-6169-4a10-874e-cf10b27fb4f1","system_id":"levelo_inurba_marseille","lat":43.2396,"lon":5.36637,"is_reserved":false,"is_disabled":false,"rental_uris":{"android":"levelo://app?vid=214d531a-6169-4a10-874e-cf10b27fb4f1","ios":"levelo://app?vid=214d531a-6169-4a10-874e-cf10b27fb4f1"},"vehicle_type_id":"4","last_reported":1727986198,"current_range_meters":38800,"station_id":"ce4bhi12rcd13ifvqfp0","pricing_plan_id":"cebpf4jnsgd1na2vs0mg"},{"bike_id":"3c7a2902-2493-40b4-9959-f32e7d43a5eb","system_id":"levelo_inurba_marseille","lat":43.28272,"lon":5.3507,"is_reserved":false,"is_disabled":false,"rental_uris":{"android":"levelo://app?vid=3c7a2902-2493-40b4-9959-f32e7d43a5eb","ios":"levelo://app?vid=3c7a2902-2493-40b4-9959-f32e7d43a5eb"},"vehicle_type_id":"4","last_reported":1727986198,"current_range_meters":26800,"station_id":"ce4bhbp2rcd13ifvqerg","pricing_plan_id":"cebpf4jnsgd1na2vs0mg"},{"bike_id":"7bfb5721-baf3-4893-bbf9-7c8112a113a1","system_id":"levelo_inurba_marseille","lat":43.27994,"lon":5.40013,"is_reserved":false,"is_disabled":false,"rental_uris":{"android":"levelo://app?vid=7bfb5721-baf3-4893-bbf9-7c8112a113a1","ios":"levelo://app?vid=7bfb5721-baf3-4893-bbf9-7c8112a113a1"},"vehicle_type_id":"4","last_reported":1727986198,"current_range_meters":32000,"station_id":"ce4bho92rcd13ifvqh4g","pricing_plan_id":"cebpf4jnsgd1na2vs0mg"},{"bike_id":"8e7ae72a-2bb9-49f2-9500-cfb31a4b07a4","system_id":"levelo_inurba_marseille","lat":43.2804,"lon":5.36957,"is_reserved":false,"is_disabled":false,"rental_uris":{"android":"levelo://app?vid=8e7ae72a-2bb9-49f2-9500-cfb31a4b07a4","ios":"levelo://app?vid=8e7ae72a-2bb9-49f2-9500-cfb31a4b07a4"},"vehicle_type_id":"4","last_reported":1727986198,"current_range_meters":8000,"station_id":"ce4bha12rcd13ifvqef0","pricing_plan_id":"cebpf4jnsgd1na2vs0mg"},{"bike_id":"0fc7ae8d-9102-4d20-8337-a47ebec4b5f1","system_id":"levelo_inurba_marseille","lat":43.32551,"lon":5.41444,"is_reserved":false,"is_disabled":false,"rental_uris":{"android":"levelo://app?vid=0fc7ae8d-9102-4d20-8337-a47ebec4b5f1","ios":"levelo://app?vid=0fc7ae8d-9102-4d20-8337-a47ebec4b5f1"},"vehicle_type_id":"4","last_reported":1727986198,"current_range_meters":38800,"station_id":"ce4bhq12rcd13ifvqhhg","pricing_plan_id":"cebpf4jnsgd1na2vs0mg"},{"bike_id":"959ac18d-4db4-4647-b55a-8354f64cc8d1","system_id":"levelo_inurba_marseille","lat":43.30801,"lon":5.37661,"is_reserved":false,"is_disabled":false,"rental_uris":{"android":"levelo://app?vid=959ac18d-4db4-4647-b55a-8354f64cc8d1","ios":"levelo://app?vid=959ac18d-4db4-4647-b55a-8354f64cc8d1"},"vehicle_type_id":"4","last_reported":1727986198,"current_range_meters":36800,"station_id":"ce4bgv92rcd13ifvqcq0","pricing_plan_id":"cebpf4jnsgd1na2vs0mg"},{"bike_id":"1358805f-48d3-4505-841c-ddca601a11fe","system_id":"levelo_inurba_marseille","lat":43.29498,"lon":5.38292,"is_reserved":false,"is_disabled":false,"rental_uris":{"android":"levelo://app?vid=1358805f-48d3-4505-841c-ddca601a11fe","ios":"levelo://app?vid=1358805f-48d3-4505-841c-ddca601a11fe"},"vehicle_type_id":"4","last_reported":1727986198,"current_range_meters":6400,"station_id":"","pricing_plan_id":"cebpf4jnsgd1na2vs0mg"},{"bike_id":"8c00e8f7-c560-4cc7-b109-1debdb45a93e","system_id":"levelo_inurba_marseille","lat":43.295675,"lon":5.39969,"is_reserved":false,"is_disabled":false,"rental_uris":{"android":"levelo://app?vid=8c00e8f7-c560-4cc7-b109-1debdb45a93e","ios":"levelo://app?vid=8c00e8f7-c560-4cc7-b109-1debdb45a93e"},"vehicle_type_id":"4","last_reported":1727986198,"current_range_meters":7200,"station_id":"ce4bgg92rcd13ifvqb30","pricing_plan_id":"cebpf4jnsgd1na2vs0mg"},{"bike_id":"5b7b7f31-2ad6-409b-8235-1bb722bdf0ca","system_id":"levelo_inurba_marseille","lat":43.23966,"lon":5.36627,"is_reserved":false,"is_disabled":false,"rental_uris":{"android":"levelo://app?vid=5b7b7f31-2ad6-409b-8235-1bb722bdf0ca","ios":"levelo://app?vid=5b7b7f31-2ad6-409b-8235-1bb722bdf0ca"},"vehicle_type_id":"4","last_reported":1727986198,"current_range_meters":20800,"station_id":"ce4bhi12rcd13ifvqfp0","pricing_plan_id":"cebpf4jnsgd1na2vs0mg"},{"bike_id":"4c2281bd-5df2-4704-b4d0-f5b889302e67","system_id":"levelo_inurba_marseille","lat":43.29283,"lon":5.40118,"is_reserved":false,"is_disabled":false,"rental_uris":{"android":"levelo://app?vid=4c2281bd-5df2-4704-b4d0-f5b889302e67","ios":"levelo://app?vid=4c2281bd-5df2-4704-b4d0-f5b889302e67"},"vehicle_type_id":"4","last_reported":1727986198,"current_range_meters":32000,"station_id":"ce4bh312rcd13ifvqdk0","pricing_plan_id":"cebpf4jnsgd1na2vs0mg"},{"bike_id":"85a60867-0292-479f-99a9-23810b153b98","system_id":"levelo_inurba_marseille","lat":43.2707,"lon":5.42282,"is_reserved":false,"is_disabled":false,"rental_uris":{"android":"levelo://app?vid=85a60867-0292-479f-99a9-23810b153b98","ios":"levelo://app?vid=85a60867-0292-479f-99a9-23810b153b98"},"vehicle_type_id":"4","last_reported":1727986198,"current_range_meters":12400,"station_id":"ce4bhk92rcd13ifvqgb0","pricing_plan_id":"cebpf4jnsgd1na2vs0mg"},{"bike_id":"4d7b92bd-fb4a-4851-9d74-ec38fbbbdb1b","system_id":"levelo_inurba_marseille","lat":43.337444,"lon":5.374475,"is_reserved":false,"is_disabled":false,"rental_uris":{"android":"levelo://app?vid=4d7b92bd-fb4a-4851-9d74-ec38fbbbdb1b","ios":"levelo://app?vid=4d7b92bd-fb4a-4851-9d74-ec38fbbbdb1b"},"vehicle_type_id":"4","last_reported":1727986198,"current_range_meters":35200,"station_id":"","pricing_plan_id":"cebpf4jnsgd1na2vs0mg"},{"bike_id":"32ea957b-6ef9-49f4-bead-782ac259c075","system_id":"levelo_inurba_marseille","lat":43.294173,"lon":5.386207,"is_reserved":false,"is_disabled":false,"rental_uris":{"android":"levelo://app?vid=32ea957b-6ef9-49f4-bead-782ac259c075","ios":"levelo://app?vid=32ea957b-6ef9-49f4-bead-782ac259c075"},"vehicle_type_id":"4","last_reported":1727986198,"current_range_meters":32400,"station_id":"ce4bh2h2rcd13ifvqdh0","pricing_plan_id":"cebpf4jnsgd1na2vs0mg"},{"bike_id":"e64c70e8-9722-47a7-aeae-2f2994f00437","system_id":"levelo_inurba_marseille","lat":43.27615,"lon":5.36109,"is_reserved":false,"is_disabled":false,"rental_uris":{"android":"levelo://app?vid=e64c70e8-9722-47a7-aeae-2f2994f00437","ios":"levelo://app?vid=e64c70e8-9722-47a7-aeae-2f2994f00437"},"vehicle_type_id":"4","last_reported":1727986198,"current_range_meters":37600,"station_id":"ce4bgj92rcd13ifvqbe0","pricing_plan_id":"cebpf4jnsgd1na2vs0mg"},{"bike_id":"526110d2-a906-4bd7-a546-c4b5387f9ebb","system_id":"levelo_inurba_marseille","lat":43.31169,"lon":5.38726,"is_reserved":false,"is_disabled":false,"rental_uris":{"android":"levelo://app?vid=526110d2-a906-4bd7-a546-c4b5387f9ebb","ios":"levelo://app?vid=526110d2-a906-4bd7-a546-c4b5387f9ebb"},"vehicle_type_id":"4","last_reported":1727986198,"current_range_meters":8000,"station_id":"ce4bgv12rcd13ifvqcp0","pricing_plan_id":"cebpf4jnsgd1na2vs0mg"},{"bike_id":"73a8aa32-122e-42e5-a71f-815d06db8ffe","system_id":"levelo_inurba_marseille","lat":43.28098,"lon":5.37847,"is_reserved":false,"is_disabled":false,"rental_uris":{"android":"levelo://app?vid=73a8aa32-122e-42e5-a71f-815d06db8ffe","ios":"levelo://app?vid=73a8aa32-122e-42e5-a71f-815d06db8ffe"},"vehicle_type_id":"4","last_reported":1727986198,"current_range_meters":22400,"station_id":"ce4bha12rcd13ifvqee0","pricing_plan_id":"cebpf4jnsgd1na2vs0mg"},{"bike_id":"0c3863dd-5bcb-40ad-bc6c-60f5392a528a","system_id":"levelo_inurba_marseille","lat":43.2866,"lon":5.36354,"is_reserved":false,"is_disabled":false,"rental_uris":{"android":"levelo://app?vid=0c3863dd-5bcb-40ad-bc6c-60f5392a528a","ios":"levelo://app?vid=0c3863dd-5bcb-40ad-bc6c-60f5392a528a"},"vehicle_type_id":"4","last_reported":1727986198,"current_range_meters":39200,"station_id":"ce4bhah2rcd13ifvqej0","pricing_plan_id":"cebpf4jnsgd1na2vs0mg"},{"bike_id":"9259589a-427f-4ada-ba20-e0a1ac34b652","system_id":"levelo_inurba_marseille","lat":43.28859,"lon":5.35848,"is_reserved":false,"is_disabled":false,"rental_uris":{"android":"levelo://app?vid=9259589a-427f-4ada-ba20-e0a1ac34b652","ios":"levelo://app?vid=9259589a-427f-4ada-ba20-e0a1ac34b652"},"vehicle_type_id":"4","last_reported":1727986198,"current_range_meters":11600,"station_id":"ce4bhb12rcd13ifvqem0","pricing_plan_id":"cebpf4jnsgd1na2vs0mg"},{"bike_id":"8225c526-61f5-4180-b527-367cd0850d9a","system_id":"levelo_inurba_marseille","lat":43.27175,"lon":5.40992,"is_reserved":false,"is_disabled":false,"rental_uris":{"android":"levelo://app?vid=8225c526-61f5-4180-b527-367cd0850d9a","ios":"levelo://app?vid=8225c526-61f5-4180-b527-367cd0850d9a"},"vehicle_type_id":"4","last_reported":1727986198,"current_range_meters":31200,"station_id":"ce4bhl12rcd13ifvqgf0","pricing_plan_id":"cebpf4jnsgd1na2vs0mg"},{"bike_id":"3f774637-feb2-4f97-a102-2a30dfbbf51c","system_id":"levelo_inurba_marseille","lat":43.29845,"lon":5.36281,"is_reserved":false,"is_disabled":false,"rental_uris":{"android":"levelo://app?vid=3f774637-feb2-4f97-a102-2a30dfbbf51c","ios":"levelo://app?vid=3f774637-feb2-4f97-a102-2a30dfbbf51c"},"vehicle_type_id":"4","last_reported":1727986198,"current_range_meters":4800,"station_id":"ce4bgpp2rcd13ifvqc3g","pricing_plan_id":"cebpf4jnsgd1na2vs0mg"},{"bike_id":"a3c2a667-d379-415b-9732-f5e82707f20a","system_id":"levelo_inurba_marseille","lat":43.29268,"lon":5.384358,"is_reserved":false,"is_disabled":false,"rental_uris":{"android":"levelo://app?vid=a3c2a667-d379-415b-9732-f5e82707f20a","ios":"levelo://app?vid=a3c2a667-d379-415b-9732-f5e82707f20a"},"vehicle_type_id":"4","last_reported":1727986198,"current_range_meters":38000,"station_id":"ce4bh692rcd13ifvqea0","pricing_plan_id":"cebpf4jnsgd1na2vs0mg"},{"bike_id":"fd872ba7-9877-4e67-9269-d8995abba644","system_id":"levelo_inurba_marseille","lat":43.22936,"lon":5.35377,"is_reserved":false,"is_disabled":false,"rental_uris":{"android":"levelo://app?vid=fd872ba7-9877-4e67-9269-d8995abba644","ios":"levelo://app?vid=fd872ba7-9877-4e67-9269-d8995abba644"},"vehicle_type_id":"4","last_reported":1727986198,"current_range_meters":24400,"station_id":"cpo3532slgdg3j2ikp40","pricing_plan_id":"cebpf4jnsgd1na2vs0mg"},{"bike_id":"9fb86a20-7907-4afc-930c-d46f6a76a1d1","system_id":"levelo_inurba_marseille","lat":43.30879,"lon":5.39652,"is_reserved":false,"is_disabled":false,"rental_uris":{"android":"levelo://app?vid=9fb86a20-7907-4afc-930c-d46f6a76a1d1","ios":"levelo://app?vid=9fb86a20-7907-4afc-930c-d46f6a76a1d1"},"vehicle_type_id":"4","last_reported":1727986198,"current_range_meters":38800,"station_id":"ce4bh012rcd13ifvqcv0","pricing_plan_id":"cebpf4jnsgd1na2vs0mg"},{"bike_id":"6422d25a-7458-4d42-b58b-74bd090ec3f6","system_id":"levelo_inurba_marseille","lat":43.3234,"lon":5.40623,"is_reserved":false,"is_disabled":false,"rental_uris":{"android":"levelo://app?vid=6422d25a-7458-4d42-b58b-74bd090ec3f6","ios":"levelo://app?vid=6422d25a-7458-4d42-b58b-74bd090ec3f6"},"vehicle_type_id":"4","last_reported":1727986198,"current_range_meters":2800,"station_id":"ce4bhq92rcd13ifvqhjg","pricing_plan_id":"cebpf4jnsgd1na2vs0mg"},{"bike_id":"1dff6269-77de-4259-8d5b-2ea73afb5126","system_id":"levelo_inurba_marseille","lat":43.24666,"lon":5.38163,"is_reserved":false,"is_disabled":false,"rental_uris":{"android":"levelo://app?vid=1dff6269-77de-4259-8d5b-2ea73afb5126","ios":"levelo://app?vid=1dff6269-77de-4259-8d5b-2ea73afb5126"},"vehicle_type_id":"4","last_reported":1727986198,"current_range_meters":37600,"station_id":"ce4bhih2rcd13ifvqfr0","pricing_plan_id":"cebpf4jnsgd1na2vs0mg"},{"bike_id":"6b24d4b9-eb8c-4349-93e6-839c1483023e","system_id":"levelo_inurba_marseille","lat":43.30417,"lon":5.41282,"is_reserved":false,"is_disabled":false,"rental_uris":{"android":"levelo://app?vid=6b24d4b9-eb8c-4349-93e6-839c1483023e","ios":"levelo://app?vid=6b24d4b9-eb8c-4349-93e6-839c1483023e"},"vehicle_type_id":"4","last_reported":1727986198,"current_range_meters":22800,"station_id":"ce4bhop2rcd13ifvqh8g","pricing_plan_id":"cebpf4jnsgd1na2vs0mg"},{"bike_id":"08f8d884-ea33-4876-95c5-27ca37eb95d1","system_id":"levelo_inurba_marseille","lat":43.29789,"lon":5.39346,"is_reserved":false,"is_disabled":false,"rental_uris":{"android":"levelo://app?vid=08f8d884-ea33-4876-95c5-27ca37eb95d1","ios":"levelo://app?vid=08f8d884-ea33-4876-95c5-27ca37eb95d1"},"vehicle_type_id":"4","last_reported":1727986198,"current_range_meters":38400,"station_id":"chh1huq6cuj3fo74tm60","pricing_plan_id":"cebpf4jnsgd1na2vs0mg"},{"bike_id":"9c245083-b5d5-467e-999e-3b86c3163f23","system_id":"levelo_inurba_marseille","lat":43.28465,"lon":5.35887,"is_reserved":false,"is_disabled":false,"rental_uris":{"android":"levelo://app?vid=9c245083-b5d5-467e-999e-3b86c3163f23","ios":"levelo://app?vid=9c245083-b5d5-467e-999e-3b86c3163f23"},"vehicle_type_id":"4","last_reported":1727986198,"current_range_meters":38800,"station_id":"ce4bhah2rcd13ifvqei0","pricing_plan_id":"cebpf4jnsgd1na2vs0mg"},{"bike_id":"1528896e-590d-45aa-930c-f5e190969a0b","system_id":"levelo_inurba_marseille","lat":43.28318,"lon":5.39682,"is_reserved":false,"is_disabled":false,"rental_uris":{"android":"levelo://app?vid=1528896e-590d-45aa-930c-f5e190969a0b","ios":"levelo://app?vid=1528896e-590d-45aa-930c-f5e190969a0b"},"vehicle_type_id":"4","last_reported":1727986198,"current_range_meters":38000,"station_id":"ce4bho12rcd13ifvqh2g","pricing_plan_id":"cebpf4jnsgd1na2vs0mg"},{"bike_id":"0f53c290-ccde-436e-93da-5e6799c490b6","system_id":"levelo_inurba_marseille","lat":43.31754,"lon":5.39021,"is_reserved":false,"is_disabled":false,"rental_uris":{"android":"levelo://app?vid=0f53c290-ccde-436e-93da-5e6799c490b6","ios":"levelo://app?vid=0f53c290-ccde-436e-93da-5e6799c490b6"},"vehicle_type_id":"4","last_reported":1727986198,"current_range_meters":14800,"station_id":"ce4bhqp2rcd13ifvqhng","pricing_plan_id":"cebpf4jnsgd1na2vs0mg"},{"bike_id":"b8248326-5d04-423d-9724-3a953d4e8c2c","system_id":"levelo_inurba_marseille","lat":43.28466,"lon":5.35891,"is_reserved":false,"is_disabled":false,"rental_uris":{"android":"levelo://app?vid=b8248326-5d04-423d-9724-3a953d4e8c2c","ios":"levelo://app?vid=b8248326-5d04-423d-9724-3a953d4e8c2c"},"vehicle_type_id":"4","last_reported":1727986198,"current_range_meters":14000,"station_id":"ce4bhah2rcd13ifvqei0","pricing_plan_id":"cebpf4jnsgd1na2vs0mg"},{"bike_id":"11659f11-d054-48f9-b5ea-af3466216c8a","system_id":"levelo_inurba_marseille","lat":43.25861,"lon":5.39913,"is_reserved":false,"is_disabled":false,"rental_uris":{"android":"levelo://app?vid=11659f11-d054-48f9-b5ea-af3466216c8a","ios":"levelo://app?vid=11659f11-d054-48f9-b5ea-af3466216c8a"},"vehicle_type_id":"4","last_reported":1727986198,"current_range_meters":12400,"station_id":"ce4bhl92rcd13ifvqghg","pricing_plan_id":"cebpf4jnsgd1na2vs0mg"},{"bike_id":"7b9fdcc5-82cc-4795-8ec9-e827c0c9c8f3","system_id":"levelo_inurba_marseille","lat":43.31225,"lon":5.36858,"is_reserved":false,"is_disabled":false,"rental_uris":{"android":"levelo://app?vid=7b9fdcc5-82cc-4795-8ec9-e827c0c9c8f3","ios":"levelo://app?vid=7b9fdcc5-82cc-4795-8ec9-e827c0c9c8f3"},"vehicle_type_id":"4","last_reported":1727986198,"current_range_meters":39200,"station_id":"ce4bgl92rcd13ifvqbq0","pricing_plan_id":"cebpf4jnsgd1na2vs0mg"},{"bike_id":"2e63729b-5bfc-44c7-ae2d-261f5ef78eda","system_id":"levelo_inurba_marseille","lat":43.28938,"lon":5.3963,"is_reserved":false,"is_disabled":false,"rental_uris":{"android":"levelo://app?vid=2e63729b-5bfc-44c7-ae2d-261f5ef78eda","ios":"levelo://app?vid=2e63729b-5bfc-44c7-ae2d-261f5ef78eda"},"vehicle_type_id":"4","last_reported":1727986198,"current_range_meters":27600,"station_id":"ce4bh3h2rcd13ifvqdn0","pricing_plan_id":"cebpf4jnsgd1na2vs0mg"},{"bike_id":"92b5c022-a316-4370-85f1-cd9056a17cee","system_id":"levelo_inurba_marseille","lat":43.29871,"lon":5.39743,"is_reserved":false,"is_disabled":false,"rental_uris":{"android":"levelo://app?vid=92b5c022-a316-4370-85f1-cd9056a17cee","ios":"levelo://app?vid=92b5c022-a316-4370-85f1-cd9056a17cee"},"vehicle_type_id":"4","last_reported":1727986198,"current_range_meters":14000,"station_id":"ce4bh0h2rcd13ifvqd50","pricing_plan_id":"cebpf4jnsgd1na2vs0mg"},{"bike_id":"7ed9af7e-8a6d-40ce-b478-27cfc2e185cd","system_id":"levelo_inurba_marseille","lat":43.29256,"lon":5.38439,"is_reserved":false,"is_disabled":false,"rental_uris":{"android":"levelo://app?vid=7ed9af7e-8a6d-40ce-b478-27cfc2e185cd","ios":"levelo://app?vid=7ed9af7e-8a6d-40ce-b478-27cfc2e185cd"},"vehicle_type_id":"4","last_reported":1727986198,"current_range_meters":5600,"station_id":"ce4bh692rcd13ifvqea0","pricing_plan_id":"cebpf4jnsgd1na2vs0mg"},{"bike_id":"74e09656-989f-417c-8e64-04011ab80207","system_id":"levelo_inurba_marseille","lat":43.32345,"lon":5.40617,"is_reserved":false,"is_disabled":false,"rental_uris":{"android":"levelo://app?vid=74e09656-989f-417c-8e64-04011ab80207","ios":"levelo://app?vid=74e09656-989f-417c-8e64-04011ab80207"},"vehicle_type_id":"4","last_reported":1727986198,"current_range_meters":6400,"station_id":"ce4bhq92rcd13ifvqhjg","pricing_plan_id":"cebpf4jnsgd1na2vs0mg"},{"bike_id":"5a02f645-9cc6-4f35-9970-15f726b82b63","system_id":"levelo_inurba_marseille","lat":43.25084,"lon":5.39516,"is_reserved":false,"is_disabled":false,"rental_uris":{"android":"levelo://app?vid=5a02f645-9cc6-4f35-9970-15f726b82b63","ios":"levelo://app?vid=5a02f645-9cc6-4f35-9970-15f726b82b63"},"vehicle_type_id":"4","last_reported":1727986198,"current_range_meters":20000,"station_id":"ce4bhm12rcd13ifvqgkg","pricing_plan_id":"cebpf4jnsgd1na2vs0mg"},{"bike_id":"b4cdb100-36ce-49cf-8d00-eecf4fdba9d1","system_id":"levelo_inurba_marseille","lat":43.26949,"lon":5.38639,"is_reserved":false,"is_disabled":false,"rental_uris":{"android":"levelo://app?vid=b4cdb100-36ce-49cf-8d00-eecf4fdba9d1","ios":"levelo://app?vid=b4cdb100-36ce-49cf-8d00-eecf4fdba9d1"},"vehicle_type_id":"4","last_reported":1727986198,"current_range_meters":38800,"station_id":"ce4bhh92rcd13ifvqfh0","pricing_plan_id":"cebpf4jnsgd1na2vs0mg"},{"bike_id":"525e851f-b6fd-4226-b024-d76bd655edd1","system_id":"levelo_inurba_marseille","lat":43.23185,"lon":5.39996,"is_reserved":false,"is_disabled":false,"rental_uris":{"android":"levelo://app?vid=525e851f-b6fd-4226-b024-d76bd655edd1","ios":"levelo://app?vid=525e851f-b6fd-4226-b024-d76bd655edd1"},"vehicle_type_id":"4","last_reported":1727986198,"current_range_meters":30800,"station_id":"ce4bhn12rcd13ifvqgqg","pricing_plan_id":"cebpf4jnsgd1na2vs0mg"},{"bike_id":"dedd507b-866f-4970-884f-7328b310e767","system_id":"levelo_inurba_marseille","lat":43.29202,"lon":5.39327,"is_reserved":false,"is_disabled":false,"rental_uris":{"android":"levelo://app?vid=dedd507b-866f-4970-884f-7328b310e767","ios":"levelo://app?vid=dedd507b-866f-4970-884f-7328b310e767"},"vehicle_type_id":"4","last_reported":1727986198,"current_range_meters":12400,"station_id":"ce4bh192rcd13ifvqdd0","pricing_plan_id":"cebpf4jnsgd1na2vs0mg"},{"bike_id":"97cca60a-be6b-447f-a75e-09e346abb21c","system_id":"levelo_inurba_marseille","lat":43.25821,"lon":5.39433,"is_reserved":false,"is_disabled":false,"rental_uris":{"android":"levelo://app?vid=97cca60a-be6b-447f-a75e-09e346abb21c","ios":"levelo://app?vid=97cca60a-be6b-447f-a75e-09e346abb21c"},"vehicle_type_id":"4","last_reported":1727986198,"current_range_meters":38800,"station_id":"ce4bhip2rcd13ifvqft0","pricing_plan_id":"cebpf4jnsgd1na2vs0mg"},{"bike_id":"16a50fa2-597a-4294-a3d5-c35e56ef70a0","system_id":"levelo_inurba_marseille","lat":43.32462,"lon":5.4154,"is_reserved":false,"is_disabled":false,"rental_uris":{"android":"levelo://app?vid=16a50fa2-597a-4294-a3d5-c35e56ef70a0","ios":"levelo://app?vid=16a50fa2-597a-4294-a3d5-c35e56ef70a0"},"vehicle_type_id":"4","last_reported":1727986198,"current_range_meters":24000,"station_id":"ce4bhq12rcd13ifvqhhg","pricing_plan_id":"cebpf4jnsgd1na2vs0mg"},{"bike_id":"81293a8e-e273-4d5d-a50a-a1b9253b0a28","system_id":"levelo_inurba_marseille","lat":43.3266,"lon":5.4101,"is_reserved":false,"is_disabled":false,"rental_uris":{"android":"levelo://app?vid=81293a8e-e273-4d5d-a50a-a1b9253b0a28","ios":"levelo://app?vid=81293a8e-e273-4d5d-a50a-a1b9253b0a28"},"vehicle_type_id":"4","last_reported":1727986198,"current_range_meters":37600,"station_id":"ce4bhpp2rcd13ifvqhgg","pricing_plan_id":"cebpf4jnsgd1na2vs0mg"},{"bike_id":"786dbfbe-df62-4b24-bbcb-37988950f75f","system_id":"levelo_inurba_marseille","lat":43.29624,"lon":5.40605,"is_reserved":false,"is_disabled":false,"rental_uris":{"android":"levelo://app?vid=786dbfbe-df62-4b24-bbcb-37988950f75f","ios":"levelo://app?vid=786dbfbe-df62-4b24-bbcb-37988950f75f"},"vehicle_type_id":"4","last_reported":1727986198,"current_range_meters":39200,"station_id":"ce4bh0h2rcd13ifvqd60","pricing_plan_id":"cebpf4jnsgd1na2vs0mg"},{"bike_id":"53c6fe7a-c5f0-4c29-bdb6-08c6c7db5c71","system_id":"levelo_inurba_marseille","lat":43.3211,"lon":5.36776,"is_reserved":false,"is_disabled":false,"rental_uris":{"android":"levelo://app?vid=53c6fe7a-c5f0-4c29-bdb6-08c6c7db5c71","ios":"levelo://app?vid=53c6fe7a-c5f0-4c29-bdb6-08c6c7db5c71"},"vehicle_type_id":"4","last_reported":1727986198,"current_range_meters":8400,"station_id":"ce4bhrh2rcd13ifvqhug","pricing_plan_id":"cebpf4jnsgd1na2vs0mg"},{"bike_id":"3cc954e3-013b-47f6-b1e5-c5a81185f52b","system_id":"levelo_inurba_marseille","lat":43.30966,"lon":5.39661,"is_reserved":false,"is_disabled":false,"rental_uris":{"android":"levelo://app?vid=3cc954e3-013b-47f6-b1e5-c5a81185f52b","ios":"levelo://app?vid=3cc954e3-013b-47f6-b1e5-c5a81185f52b"},"vehicle_type_id":"4","last_reported":1727986198,"current_range_meters":22800,"station_id":"","pricing_plan_id":"cebpf4jnsgd1na2vs0mg"},{"bike_id":"6ce60676-3f86-4aaa-a5df-572436c32ad4","system_id":"levelo_inurba_marseille","lat":43.23198,"lon":5.35546,"is_reserved":false,"is_disabled":false,"rental_uris":{"android":"levelo://app?vid=6ce60676-3f86-4aaa-a5df-572436c32ad4","ios":"levelo://app?vid=6ce60676-3f86-4aaa-a5df-572436c32ad4"},"vehicle_type_id":"4","last_reported":1727986198,"current_range_meters":18800,"station_id":"ce4bhu92rcd13ifvqi70","pricing_plan_id":"cebpf4jnsgd1na2vs0mg"},{"bike_id":"ef5c632f-2b59-4b63-8995-bedb1fc7d5cb","system_id":"levelo_inurba_marseille","lat":43.25496,"lon":5.37648,"is_reserved":false,"is_disabled":false,"rental_uris":{"android":"levelo://app?vid=ef5c632f-2b59-4b63-8995-bedb1fc7d5cb","ios":"levelo://app?vid=ef5c632f-2b59-4b63-8995-bedb1fc7d5cb"},"vehicle_type_id":"4","last_reported":1727986198,"current_range_meters":38000,"station_id":"ce4bhh12rcd13ifvqff0","pricing_plan_id":"cebpf4jnsgd1na2vs0mg"},{"bike_id":"6eb4687e-ab78-4b22-9c6a-d9a153e9cbbe","system_id":"levelo_inurba_marseille","lat":43.29598,"lon":5.38103,"is_reserved":false,"is_disabled":false,"rental_uris":{"android":"levelo://app?vid=6eb4687e-ab78-4b22-9c6a-d9a153e9cbbe","ios":"levelo://app?vid=6eb4687e-ab78-4b22-9c6a-d9a153e9cbbe"},"vehicle_type_id":"4","last_reported":1727986198,"current_range_meters":3600,"station_id":"ce4bgl12rcd13ifvqbo0","pricing_plan_id":"cebpf4jnsgd1na2vs0mg"},{"bike_id":"3abf463e-56e4-4a6c-9167-6be6cc4ff307","system_id":"levelo_inurba_marseille","lat":43.28573,"lon":5.39493,"is_reserved":false,"is_disabled":false,"rental_uris":{"android":"levelo://app?vid=3abf463e-56e4-4a6c-9167-6be6cc4ff307","ios":"levelo://app?vid=3abf463e-56e4-4a6c-9167-6be6cc4ff307"},"vehicle_type_id":"4","last_reported":1727986198,"current_range_meters":27200,"station_id":"ce4bh292rcd13ifvqdg0","pricing_plan_id":"cebpf4jnsgd1na2vs0mg"},{"bike_id":"662f738e-b790-43ea-9d44-7b029b468d99","system_id":"levelo_inurba_marseille","lat":43.24194,"lon":5.39719,"is_reserved":false,"is_disabled":false,"rental_uris":{"android":"levelo://app?vid=662f738e-b790-43ea-9d44-7b029b468d99","ios":"levelo://app?vid=662f738e-b790-43ea-9d44-7b029b468d99"},"vehicle_type_id":"4","last_reported":1727986198,"current_range_meters":38800,"station_id":"ce4bhn12rcd13ifvqgpg","pricing_plan_id":"cebpf4jnsgd1na2vs0mg"},{"bike_id":"75281ed7-b3de-49dd-9564-dc8d612f77dc","system_id":"levelo_inurba_marseille","lat":43.29786,"lon":5.37099,"is_reserved":false,"is_disabled":false,"rental_uris":{"android":"levelo://app?vid=75281ed7-b3de-49dd-9564-dc8d612f77dc","ios":"levelo://app?vid=75281ed7-b3de-49dd-9564-dc8d612f77dc"},"vehicle_type_id":"4","last_reported":1727986198,"current_range_meters":17600,"station_id":"ce4bgop2rcd13ifvqc1g","pricing_plan_id":"cebpf4jnsgd1na2vs0mg"},{"bike_id":"e11e5dbf-f7e2-498d-94f0-51a7d383d050","system_id":"levelo_inurba_marseille","lat":43.29874,"lon":5.39739,"is_reserved":false,"is_disabled":false,"rental_uris":{"android":"levelo://app?vid=e11e5dbf-f7e2-498d-94f0-51a7d383d050","ios":"levelo://app?vid=e11e5dbf-f7e2-498d-94f0-51a7d383d050"},"vehicle_type_id":"4","last_reported":1727986198,"current_range_meters":8800,"station_id":"ce4bh0h2rcd13ifvqd50","pricing_plan_id":"cebpf4jnsgd1na2vs0mg"},{"bike_id":"14457725-1dad-4705-8dc9-35dee84023ac","system_id":"levelo_inurba_marseille","lat":43.31721,"lon":5.42401,"is_reserved":false,"is_disabled":false,"rental_uris":{"android":"levelo://app?vid=14457725-1dad-4705-8dc9-35dee84023ac","ios":"levelo://app?vid=14457725-1dad-4705-8dc9-35dee84023ac"},"vehicle_type_id":"4","last_reported":1727986198,"current_range_meters":31200,"station_id":"ce4bhp92rcd13ifvqhbg","pricing_plan_id":"cebpf4jnsgd1na2vs0mg"},{"bike_id":"ac491eed-1fef-4832-b4ca-d42b5b54f337","system_id":"levelo_inurba_marseille","lat":43.28419,"lon":5.3499,"is_reserved":false,"is_disabled":false,"rental_uris":{"android":"levelo://app?vid=ac491eed-1fef-4832-b4ca-d42b5b54f337","ios":"levelo://app?vid=ac491eed-1fef-4832-b4ca-d42b5b54f337"},"vehicle_type_id":"4","last_reported":1727986198,"current_range_meters":38800,"station_id":"ce4bhbh2rcd13ifvqepg","pricing_plan_id":"cebpf4jnsgd1na2vs0mg"},{"bike_id":"1c43f958-4590-430c-a11e-68d1ba018349","system_id":"levelo_inurba_marseille","lat":43.28407,"lon":5.37512,"is_reserved":false,"is_disabled":false,"rental_uris":{"android":"levelo://app?vid=1c43f958-4590-430c-a11e-68d1ba018349","ios":"levelo://app?vid=1c43f958-4590-430c-a11e-68d1ba018349"},"vehicle_type_id":"4","last_reported":1727986198,"current_range_meters":36800,"station_id":"ce4bh412rcd13ifvqds0","pricing_plan_id":"cebpf4jnsgd1na2vs0mg"},{"bike_id":"abffd650-273d-42e7-be8c-f37c9c43a60a","system_id":"levelo_inurba_marseille","lat":43.28004,"lon":5.40018,"is_reserved":false,"is_disabled":false,"rental_uris":{"android":"levelo://app?vid=abffd650-273d-42e7-be8c-f37c9c43a60a","ios":"levelo://app?vid=abffd650-273d-42e7-be8c-f37c9c43a60a"},"vehicle_type_id":"4","last_reported":1727986198,"current_range_meters":36000,"station_id":"ce4bho92rcd13ifvqh4g","pricing_plan_id":"cebpf4jnsgd1na2vs0mg"},{"bike_id":"7fed4edd-fced-4cac-8f5a-8f088e4cd963","system_id":"levelo_inurba_marseille","lat":43.26556,"lon":5.37288,"is_reserved":false,"is_disabled":false,"rental_uris":{"android":"levelo://app?vid=7fed4edd-fced-4cac-8f5a-8f088e4cd963","ios":"levelo://app?vid=7fed4edd-fced-4cac-8f5a-8f088e4cd963"},"vehicle_type_id":"4","last_reported":1727986198,"current_range_meters":6400,"station_id":"ce4bhg12rcd13ifvqf70","pricing_plan_id":"cebpf4jnsgd1na2vs0mg"},{"bike_id":"a6692f1f-5525-4523-bd49-a7c219bc26c1","system_id":"levelo_inurba_marseille","lat":43.26561,"lon":5.37288,"is_reserved":false,"is_disabled":false,"rental_uris":{"android":"levelo://app?vid=a6692f1f-5525-4523-bd49-a7c219bc26c1","ios":"levelo://app?vid=a6692f1f-5525-4523-bd49-a7c219bc26c1"},"vehicle_type_id":"4","last_reported":1727986198,"current_range_meters":36800,"station_id":"ce4bhg12rcd13ifvqf70","pricing_plan_id":"cebpf4jnsgd1na2vs0mg"},{"bike_id":"ddf75281-988c-4c19-880b-719d01004a8f","system_id":"levelo_inurba_marseille","lat":43.30802,"lon":5.4352,"is_reserved":false,"is_disabled":false,"rental_uris":{"android":"levelo://app?vid=ddf75281-988c-4c19-880b-719d01004a8f","ios":"levelo://app?vid=ddf75281-988c-4c19-880b-719d01004a8f"},"vehicle_type_id":"4","last_reported":1727986198,"current_range_meters":8400,"station_id":"ce4bhph2rcd13ifvqheg","pricing_plan_id":"cebpf4jnsgd1na2vs0mg"},{"bike_id":"51b75ede-96df-4370-a9b1-0dfe434f9ba7","system_id":"levelo_inurba_marseille","lat":43.25092,"lon":5.39517,"is_reserved":false,"is_disabled":false,"rental_uris":{"android":"levelo://app?vid=51b75ede-96df-4370-a9b1-0dfe434f9ba7","ios":"levelo://app?vid=51b75ede-96df-4370-a9b1-0dfe434f9ba7"},"vehicle_type_id":"4","last_reported":1727986198,"current_range_meters":38800,"station_id":"ce4bhm12rcd13ifvqgkg","pricing_plan_id":"cebpf4jnsgd1na2vs0mg"},{"bike_id":"a0d8da91-e5bc-492a-bac4-61d849a36ef9","system_id":"levelo_inurba_marseille","lat":43.30807,"lon":5.43522,"is_reserved":false,"is_disabled":false,"rental_uris":{"android":"levelo://app?vid=a0d8da91-e5bc-492a-bac4-61d849a36ef9","ios":"levelo://app?vid=a0d8da91-e5bc-492a-bac4-61d849a36ef9"},"vehicle_type_id":"4","last_reported":1727986198,"current_range_meters":11200,"station_id":"ce4bhph2rcd13ifvqheg","pricing_plan_id":"cebpf4jnsgd1na2vs0mg"},{"bike_id":"9baa2f68-edad-48aa-859e-e441e01d01c0","system_id":"levelo_inurba_marseille","lat":43.29529,"lon":5.38552,"is_reserved":false,"is_disabled":false,"rental_uris":{"android":"levelo://app?vid=9baa2f68-edad-48aa-859e-e441e01d01c0","ios":"levelo://app?vid=9baa2f68-edad-48aa-859e-e441e01d01c0"},"vehicle_type_id":"4","last_reported":1727986198,"current_range_meters":36000,"station_id":"ce4bgih2rcd13ifvqba0","pricing_plan_id":"cebpf4jnsgd1na2vs0mg"},{"bike_id":"70a6e5d9-f7dc-45fe-93de-dcba5cdbc45d","system_id":"levelo_inurba_marseille","lat":43.28622,"lon":5.35107,"is_reserved":false,"is_disabled":false,"rental_uris":{"android":"levelo://app?vid=70a6e5d9-f7dc-45fe-93de-dcba5cdbc45d","ios":"levelo://app?vid=70a6e5d9-f7dc-45fe-93de-dcba5cdbc45d"},"vehicle_type_id":"4","last_reported":1727986198,"current_range_meters":4000,"station_id":"ce4bhch2rcd13ifvqeug","pricing_plan_id":"cebpf4jnsgd1na2vs0mg"},{"bike_id":"b52cbebd-7fae-4912-9a68-75ecbf44ec30","system_id":"levelo_inurba_marseille","lat":43.30929,"lon":5.40151,"is_reserved":false,"is_disabled":false,"rental_uris":{"android":"levelo://app?vid=b52cbebd-7fae-4912-9a68-75ecbf44ec30","ios":"levelo://app?vid=b52cbebd-7fae-4912-9a68-75ecbf44ec30"},"vehicle_type_id":"4","last_reported":1727986198,"current_range_meters":38800,"station_id":"ce4bgvp2rcd13ifvqct0","pricing_plan_id":"cebpf4jnsgd1na2vs0mg"},{"bike_id":"d68ea5a6-0b88-493a-98e1-c9d17af6fe5a","system_id":"levelo_inurba_marseille","lat":43.23965,"lon":5.36636,"is_reserved":false,"is_disabled":false,"rental_uris":{"android":"levelo://app?vid=d68ea5a6-0b88-493a-98e1-c9d17af6fe5a","ios":"levelo://app?vid=d68ea5a6-0b88-493a-98e1-c9d17af6fe5a"},"vehicle_type_id":"4","last_reported":1727986198,"current_range_meters":33200,"station_id":"ce4bhi12rcd13ifvqfp0","pricing_plan_id":"cebpf4jnsgd1na2vs0mg"},{"bike_id":"bdd607e9-859d-402e-8914-3a4c42675274","system_id":"levelo_inurba_marseille","lat":43.25492,"lon":5.37647,"is_reserved":false,"is_disabled":false,"rental_uris":{"android":"levelo://app?vid=bdd607e9-859d-402e-8914-3a4c42675274","ios":"levelo://app?vid=bdd607e9-859d-402e-8914-3a4c42675274"},"vehicle_type_id":"4","last_reported":1727986198,"current_range_meters":25200,"station_id":"ce4bhh12rcd13ifvqff0","pricing_plan_id":"cebpf4jnsgd1na2vs0mg"},{"bike_id":"dfc32ef4-5233-4b6f-85f2-c49f918d8e8d","system_id":"levelo_inurba_marseille","lat":43.296223,"lon":5.371646,"is_reserved":false,"is_disabled":false,"rental_uris":{"android":"levelo://app?vid=dfc32ef4-5233-4b6f-85f2-c49f918d8e8d","ios":"levelo://app?vid=dfc32ef4-5233-4b6f-85f2-c49f918d8e8d"},"vehicle_type_id":"4","last_reported":1727986198,"current_range_meters":27200,"station_id":"ce4bh012rcd13ifvqcv0","pricing_plan_id":"cebpf4jnsgd1na2vs0mg"},{"bike_id":"7112ef8d-8142-4d4d-816c-51780c5cff4c","system_id":"levelo_inurba_marseille","lat":43.28413,"lon":5.37517,"is_reserved":false,"is_disabled":false,"rental_uris":{"android":"levelo://app?vid=7112ef8d-8142-4d4d-816c-51780c5cff4c","ios":"levelo://app?vid=7112ef8d-8142-4d4d-816c-51780c5cff4c"},"vehicle_type_id":"4","last_reported":1727986198,"current_range_meters":8800,"station_id":"ce4bh412rcd13ifvqds0","pricing_plan_id":"cebpf4jnsgd1na2vs0mg"},{"bike_id":"dbf4aadd-78b0-48d7-84dd-1a7fec82af07","system_id":"levelo_inurba_marseille","lat":43.24666,"lon":5.38158,"is_reserved":false,"is_disabled":false,"rental_uris":{"android":"levelo://app?vid=dbf4aadd-78b0-48d7-84dd-1a7fec82af07","ios":"levelo://app?vid=dbf4aadd-78b0-48d7-84dd-1a7fec82af07"},"vehicle_type_id":"4","last_reported":1727986198,"current_range_meters":38000,"station_id":"ce4bhih2rcd13ifvqfr0","pricing_plan_id":"cebpf4jnsgd1na2vs0mg"},{"bike_id":"47911c3a-70d6-4541-ae40-328b24ae278f","system_id":"levelo_inurba_marseille","lat":43.28077,"lon":5.39663,"is_reserved":false,"is_disabled":false,"rental_uris":{"android":"levelo://app?vid=47911c3a-70d6-4541-ae40-328b24ae278f","ios":"levelo://app?vid=47911c3a-70d6-4541-ae40-328b24ae278f"},"vehicle_type_id":"4","last_reported":1727986198,"current_range_meters":33200,"station_id":"ce4bho12rcd13ifvqh2g","pricing_plan_id":"cebpf4jnsgd1na2vs0mg"},{"bike_id":"958e7c33-252b-4123-876d-02665709c655","system_id":"levelo_inurba_marseille","lat":43.28657,"lon":5.36359,"is_reserved":false,"is_disabled":false,"rental_uris":{"android":"levelo://app?vid=958e7c33-252b-4123-876d-02665709c655","ios":"levelo://app?vid=958e7c33-252b-4123-876d-02665709c655"},"vehicle_type_id":"4","last_reported":1727986198,"current_range_meters":38800,"station_id":"ce4bhah2rcd13ifvqej0","pricing_plan_id":"cebpf4jnsgd1na2vs0mg"},{"bike_id":"c8e4ff73-620c-4248-92f7-758d5098242c","system_id":"levelo_inurba_marseille","lat":43.22928,"lon":5.35376,"is_reserved":false,"is_disabled":false,"rental_uris":{"android":"levelo://app?vid=c8e4ff73-620c-4248-92f7-758d5098242c","ios":"levelo://app?vid=c8e4ff73-620c-4248-92f7-758d5098242c"},"vehicle_type_id":"4","last_reported":1727986198,"current_range_meters":25600,"station_id":"cpo3532slgdg3j2ikp40","pricing_plan_id":"cebpf4jnsgd1na2vs0mg"},{"bike_id":"dee1da8e-35eb-49de-951a-16bbe888ae61","system_id":"levelo_inurba_marseille","lat":43.29929,"lon":5.36544,"is_reserved":false,"is_disabled":false,"rental_uris":{"android":"levelo://app?vid=dee1da8e-35eb-49de-951a-16bbe888ae61","ios":"levelo://app?vid=dee1da8e-35eb-49de-951a-16bbe888ae61"},"vehicle_type_id":"4","last_reported":1727986198,"current_range_meters":36400,"station_id":"ce4bgm92rcd13ifvqbr0","pricing_plan_id":"cebpf4jnsgd1na2vs0mg"},{"bike_id":"583eb2a3-c703-4842-8648-2706b2b88008","system_id":"levelo_inurba_marseille","lat":43.28154,"lon":5.4264,"is_reserved":false,"is_disabled":false,"rental_uris":{"android":"levelo://app?vid=583eb2a3-c703-4842-8648-2706b2b88008","ios":"levelo://app?vid=583eb2a3-c703-4842-8648-2706b2b88008"},"vehicle_type_id":"4","last_reported":1727986198,"current_range_meters":8800,"station_id":"ce4bhnh2rcd13ifvqgug","pricing_plan_id":"cebpf4jnsgd1na2vs0mg"},{"bike_id":"595be7d7-6dd6-443d-bbd0-34d9a1335cfc","system_id":"levelo_inurba_marseille","lat":43.31493,"lon":5.36843,"is_reserved":false,"is_disabled":false,"rental_uris":{"android":"levelo://app?vid=595be7d7-6dd6-443d-bbd0-34d9a1335cfc","ios":"levelo://app?vid=595be7d7-6dd6-443d-bbd0-34d9a1335cfc"},"vehicle_type_id":"4","last_reported":1727986198,"current_range_meters":17600,"station_id":"","pricing_plan_id":"cebpf4jnsgd1na2vs0mg"},{"bike_id":"5294931e-fde3-4b75-b93d-3aae156b5d7c","system_id":"levelo_inurba_marseille","lat":43.29851,"lon":5.36288,"is_reserved":false,"is_disabled":false,"rental_uris":{"android":"levelo://app?vid=5294931e-fde3-4b75-b93d-3aae156b5d7c","ios":"levelo://app?vid=5294931e-fde3-4b75-b93d-3aae156b5d7c"},"vehicle_type_id":"4","last_reported":1727986198,"current_range_meters":14800,"station_id":"ce4bgpp2rcd13ifvqc3g","pricing_plan_id":"cebpf4jnsgd1na2vs0mg"},{"bike_id":"df19166c-ecb8-4c24-b5fd-04013749e810","system_id":"levelo_inurba_marseille","lat":43.23959,"lon":5.36639,"is_reserved":false,"is_disabled":false,"rental_uris":{"android":"levelo://app?vid=df19166c-ecb8-4c24-b5fd-04013749e810","ios":"levelo://app?vid=df19166c-ecb8-4c24-b5fd-04013749e810"},"vehicle_type_id":"4","last_reported":1727986198,"current_range_meters":33600,"station_id":"ce4bhi12rcd13ifvqfp0","pricing_plan_id":"cebpf4jnsgd1na2vs0mg"},{"bike_id":"aa6145fa-b931-4c32-a8c7-9ee5fe3c050f","system_id":"levelo_inurba_marseille","lat":43.29531,"lon":5.39038,"is_reserved":false,"is_disabled":false,"rental_uris":{"android":"levelo://app?vid=aa6145fa-b931-4c32-a8c7-9ee5fe3c050f","ios":"levelo://app?vid=aa6145fa-b931-4c32-a8c7-9ee5fe3c050f"},"vehicle_type_id":"4","last_reported":1727986198,"current_range_meters":38800,"station_id":"ce4bh3p2rcd13ifvqdp0","pricing_plan_id":"cebpf4jnsgd1na2vs0mg"},{"bike_id":"51234694-4a24-470a-bb96-0d40cf984866","system_id":"levelo_inurba_marseille","lat":43.30877,"lon":5.39631,"is_reserved":false,"is_disabled":false,"rental_uris":{"android":"levelo://app?vid=51234694-4a24-470a-bb96-0d40cf984866","ios":"levelo://app?vid=51234694-4a24-470a-bb96-0d40cf984866"},"vehicle_type_id":"4","last_reported":1727986198,"current_range_meters":39200,"station_id":"ce4bh012rcd13ifvqcv0","pricing_plan_id":"cebpf4jnsgd1na2vs0mg"},{"bike_id":"9111912f-5f92-4e01-9623-79e0ea71aff6","system_id":"levelo_inurba_marseille","lat":43.32277,"lon":5.38252,"is_reserved":false,"is_disabled":false,"rental_uris":{"android":"levelo://app?vid=9111912f-5f92-4e01-9623-79e0ea71aff6","ios":"levelo://app?vid=9111912f-5f92-4e01-9623-79e0ea71aff6"},"vehicle_type_id":"4","last_reported":1727986198,"current_range_meters":36400,"station_id":"ce4bhr12rcd13ifvqhqg","pricing_plan_id":"cebpf4jnsgd1na2vs0mg"},{"bike_id":"09648bcd-aff3-4e5d-a358-b65c5d88ce54","system_id":"levelo_inurba_marseille","lat":43.24999,"lon":5.38933,"is_reserved":false,"is_disabled":false,"rental_uris":{"android":"levelo://app?vid=09648bcd-aff3-4e5d-a358-b65c5d88ce54","ios":"levelo://app?vid=09648bcd-aff3-4e5d-a358-b65c5d88ce54"},"vehicle_type_id":"4","last_reported":1727986198,"current_range_meters":37600,"station_id":"ce4bhgp2rcd13ifvqfd0","pricing_plan_id":"cebpf4jnsgd1na2vs0mg"},{"bike_id":"6a7f09a3-b261-4ba1-9899-85833f19aafc","system_id":"levelo_inurba_marseille","lat":43.2894,"lon":5.36642,"is_reserved":false,"is_disabled":false,"rental_uris":{"android":"levelo://app?vid=6a7f09a3-b261-4ba1-9899-85833f19aafc","ios":"levelo://app?vid=6a7f09a3-b261-4ba1-9899-85833f19aafc"},"vehicle_type_id":"4","last_reported":1727986198,"current_range_meters":16800,"station_id":"ce4bhap2rcd13ifvqek0","pricing_plan_id":"cebpf4jnsgd1na2vs0mg"},{"bike_id":"8b6abeb9-01cd-47f7-844d-d5a7e11c0267","system_id":"levelo_inurba_marseille","lat":43.29035,"lon":5.37565,"is_reserved":false,"is_disabled":false,"rental_uris":{"android":"levelo://app?vid=8b6abeb9-01cd-47f7-844d-d5a7e11c0267","ios":"levelo://app?vid=8b6abeb9-01cd-47f7-844d-d5a7e11c0267"},"vehicle_type_id":"4","last_reported":1727986198,"current_range_meters":33600,"station_id":"ce4bh692rcd13ifvqe90","pricing_plan_id":"cebpf4jnsgd1na2vs0mg"},{"bike_id":"91ce5286-9976-41ad-9183-3cbc030fde18","system_id":"levelo_inurba_marseille","lat":43.30227,"lon":5.40439,"is_reserved":false,"is_disabled":false,"rental_uris":{"android":"levelo://app?vid=91ce5286-9976-41ad-9183-3cbc030fde18","ios":"levelo://app?vid=91ce5286-9976-41ad-9183-3cbc030fde18"},"vehicle_type_id":"4","last_reported":1727986198,"current_range_meters":38800,"station_id":"ce4bh012rcd13ifvqd10","pricing_plan_id":"cebpf4jnsgd1na2vs0mg"},{"bike_id":"8dc708a8-5181-4445-a3bd-0208a967326e","system_id":"levelo_inurba_marseille","lat":43.29515,"lon":5.39036,"is_reserved":false,"is_disabled":false,"rental_uris":{"android":"levelo://app?vid=8dc708a8-5181-4445-a3bd-0208a967326e","ios":"levelo://app?vid=8dc708a8-5181-4445-a3bd-0208a967326e"},"vehicle_type_id":"4","last_reported":1727986198,"current_range_meters":27600,"station_id":"ce4bh3p2rcd13ifvqdp0","pricing_plan_id":"cebpf4jnsgd1na2vs0mg"},{"bike_id":"ee173351-e35c-48e8-80bc-f8d00c72bc5d","system_id":"levelo_inurba_marseille","lat":43.29597,"lon":5.38098,"is_reserved":false,"is_disabled":false,"rental_uris":{"android":"levelo://app?vid=ee173351-e35c-48e8-80bc-f8d00c72bc5d","ios":"levelo://app?vid=ee173351-e35c-48e8-80bc-f8d00c72bc5d"},"vehicle_type_id":"4","last_reported":1727986198,"current_range_meters":38000,"station_id":"ce4bgl12rcd13ifvqbo0","pricing_plan_id":"cebpf4jnsgd1na2vs0mg"},{"bike_id":"1903d08a-0861-41e2-9435-2e95c0d58d82","system_id":"levelo_inurba_marseille","lat":43.30417,"lon":5.41288,"is_reserved":false,"is_disabled":false,"rental_uris":{"android":"levelo://app?vid=1903d08a-0861-41e2-9435-2e95c0d58d82","ios":"levelo://app?vid=1903d08a-0861-41e2-9435-2e95c0d58d82"},"vehicle_type_id":"4","last_reported":1727986198,"current_range_meters":34800,"station_id":"ce4bhop2rcd13ifvqh8g","pricing_plan_id":"cebpf4jnsgd1na2vs0mg"},{"bike_id":"47096975-bede-4100-b73f-a5cbb9ab9117","system_id":"levelo_inurba_marseille","lat":43.31168,"lon":5.3871,"is_reserved":false,"is_disabled":false,"rental_uris":{"android":"levelo://app?vid=47096975-bede-4100-b73f-a5cbb9ab9117","ios":"levelo://app?vid=47096975-bede-4100-b73f-a5cbb9ab9117"},"vehicle_type_id":"4","last_reported":1727986198,"current_range_meters":39200,"station_id":"ce4bgv12rcd13ifvqcp0","pricing_plan_id":"cebpf4jnsgd1na2vs0mg"},{"bike_id":"bd8535c5-ba76-4f16-8ad2-6b9441b72570","system_id":"levelo_inurba_marseille","lat":43.28612,"lon":5.35104,"is_reserved":false,"is_disabled":false,"rental_uris":{"android":"levelo://app?vid=bd8535c5-ba76-4f16-8ad2-6b9441b72570","ios":"levelo://app?vid=bd8535c5-ba76-4f16-8ad2-6b9441b72570"},"vehicle_type_id":"4","last_reported":1727986198,"current_range_meters":38400,"station_id":"ce4bhch2rcd13ifvqeug","pricing_plan_id":"cebpf4jnsgd1na2vs0mg"},{"bike_id":"638ea2d4-cb56-475a-9712-21b4df19cbce","system_id":"levelo_inurba_marseille","lat":43.31758,"lon":5.39,"is_reserved":false,"is_disabled":false,"rental_uris":{"android":"levelo://app?vid=638ea2d4-cb56-475a-9712-21b4df19cbce","ios":"levelo://app?vid=638ea2d4-cb56-475a-9712-21b4df19cbce"},"vehicle_type_id":"4","last_reported":1727986198,"current_range_meters":32000,"station_id":"ce4bhqp2rcd13ifvqhng","pricing_plan_id":"cebpf4jnsgd1na2vs0mg"},{"bike_id":"f0b899b3-ea09-4c19-ba3f-b6bff2e53be7","system_id":"levelo_inurba_marseille","lat":43.24548,"lon":5.39525,"is_reserved":false,"is_disabled":false,"rental_uris":{"android":"levelo://app?vid=f0b899b3-ea09-4c19-ba3f-b6bff2e53be7","ios":"levelo://app?vid=f0b899b3-ea09-4c19-ba3f-b6bff2e53be7"},"vehicle_type_id":"4","last_reported":1727986198,"current_range_meters":11200,"station_id":"ce4bhlp2rcd13ifvqgjg","pricing_plan_id":"cebpf4jnsgd1na2vs0mg"},{"bike_id":"78166595-e3f1-4a4a-a285-891c0ed2d5ef","system_id":"levelo_inurba_marseille","lat":43.33024,"lon":5.3904,"is_reserved":false,"is_disabled":false,"rental_uris":{"android":"levelo://app?vid=78166595-e3f1-4a4a-a285-891c0ed2d5ef","ios":"levelo://app?vid=78166595-e3f1-4a4a-a285-891c0ed2d5ef"},"vehicle_type_id":"4","last_reported":1727986198,"current_range_meters":33600,"station_id":"ce4bhr92rcd13ifvqhrg","pricing_plan_id":"cebpf4jnsgd1na2vs0mg"},{"bike_id":"644804f5-eeb4-4fab-8333-45a738b19e94","system_id":"levelo_inurba_marseille","lat":43.29845,"lon":5.36281,"is_reserved":false,"is_disabled":false,"rental_uris":{"android":"levelo://app?vid=644804f5-eeb4-4fab-8333-45a738b19e94","ios":"levelo://app?vid=644804f5-eeb4-4fab-8333-45a738b19e94"},"vehicle_type_id":"4","last_reported":1727986198,"current_range_meters":35600,"station_id":"ce4bgpp2rcd13ifvqc3g","pricing_plan_id":"cebpf4jnsgd1na2vs0mg"},{"bike_id":"dc086a08-bc01-4a19-b785-58f21f6829ae","system_id":"levelo_inurba_marseille","lat":43.25499,"lon":5.37649,"is_reserved":false,"is_disabled":false,"rental_uris":{"android":"levelo://app?vid=dc086a08-bc01-4a19-b785-58f21f6829ae","ios":"levelo://app?vid=dc086a08-bc01-4a19-b785-58f21f6829ae"},"vehicle_type_id":"4","last_reported":1727986198,"current_range_meters":10000,"station_id":"ce4bhh12rcd13ifvqff0","pricing_plan_id":"cebpf4jnsgd1na2vs0mg"},{"bike_id":"7211bed2-8514-4169-9df5-9ea6b7b446bf","system_id":"levelo_inurba_marseille","lat":43.28611,"lon":5.35103,"is_reserved":false,"is_disabled":false,"rental_uris":{"android":"levelo://app?vid=7211bed2-8514-4169-9df5-9ea6b7b446bf","ios":"levelo://app?vid=7211bed2-8514-4169-9df5-9ea6b7b446bf"},"vehicle_type_id":"4","last_reported":1727986198,"current_range_meters":11600,"station_id":"ce4bhch2rcd13ifvqeug","pricing_plan_id":"cebpf4jnsgd1na2vs0mg"},{"bike_id":"4e4322ae-ccc0-445e-b427-24bb2e02216e","system_id":"levelo_inurba_marseille","lat":43.24546,"lon":5.39522,"is_reserved":false,"is_disabled":false,"rental_uris":{"android":"levelo://app?vid=4e4322ae-ccc0-445e-b427-24bb2e02216e","ios":"levelo://app?vid=4e4322ae-ccc0-445e-b427-24bb2e02216e"},"vehicle_type_id":"4","last_reported":1727986198,"current_range_meters":6400,"station_id":"ce4bhlp2rcd13ifvqgjg","pricing_plan_id":"cebpf4jnsgd1na2vs0mg"},{"bike_id":"0fe5dd14-3bf7-41c4-8bf0-6fc6624c2399","system_id":"levelo_inurba_marseille","lat":43.27494,"lon":5.42452,"is_reserved":false,"is_disabled":false,"rental_uris":{"android":"levelo://app?vid=0fe5dd14-3bf7-41c4-8bf0-6fc6624c2399","ios":"levelo://app?vid=0fe5dd14-3bf7-41c4-8bf0-6fc6624c2399"},"vehicle_type_id":"4","last_reported":1727986198,"current_range_meters":36400,"station_id":"ce4bhn92rcd13ifvqgrg","pricing_plan_id":"cebpf4jnsgd1na2vs0mg"},{"bike_id":"b1de2d2c-06c8-4cd3-a9c2-6a5c17f5b3bb","system_id":"levelo_inurba_marseille","lat":43.32212,"lon":5.38568,"is_reserved":false,"is_disabled":false,"rental_uris":{"android":"levelo://app?vid=b1de2d2c-06c8-4cd3-a9c2-6a5c17f5b3bb","ios":"levelo://app?vid=b1de2d2c-06c8-4cd3-a9c2-6a5c17f5b3bb"},"vehicle_type_id":"4","last_reported":1727986198,"current_range_meters":13600,"station_id":"","pricing_plan_id":"cebpf4jnsgd1na2vs0mg"},{"bike_id":"ed0db05c-7ead-4cb3-b68f-851526467de3","system_id":"levelo_inurba_marseille","lat":43.26558,"lon":5.37285,"is_reserved":false,"is_disabled":false,"rental_uris":{"android":"levelo://app?vid=ed0db05c-7ead-4cb3-b68f-851526467de3","ios":"levelo://app?vid=ed0db05c-7ead-4cb3-b68f-851526467de3"},"vehicle_type_id":"4","last_reported":1727986198,"current_range_meters":17200,"station_id":"ce4bhg12rcd13ifvqf70","pricing_plan_id":"cebpf4jnsgd1na2vs0mg"},{"bike_id":"db32e16b-47d6-490e-8168-654a5eebd6ce","system_id":"levelo_inurba_marseille","lat":43.22933,"lon":5.35378,"is_reserved":false,"is_disabled":false,"rental_uris":{"android":"levelo://app?vid=db32e16b-47d6-490e-8168-654a5eebd6ce","ios":"levelo://app?vid=db32e16b-47d6-490e-8168-654a5eebd6ce"},"vehicle_type_id":"4","last_reported":1727986198,"current_range_meters":38000,"station_id":"cpo3532slgdg3j2ikp40","pricing_plan_id":"cebpf4jnsgd1na2vs0mg"},{"bike_id":"3abd7063-56b4-4bd1-abe8-e097f110e528","system_id":"levelo_inurba_marseille","lat":43.25722,"lon":5.41118,"is_reserved":false,"is_disabled":false,"rental_uris":{"android":"levelo://app?vid=3abd7063-56b4-4bd1-abe8-e097f110e528","ios":"levelo://app?vid=3abd7063-56b4-4bd1-abe8-e097f110e528"},"vehicle_type_id":"4","last_reported":1727986198,"current_range_meters":16800,"station_id":"ce4bhkp2rcd13ifvqgd0","pricing_plan_id":"cebpf4jnsgd1na2vs0mg"},{"bike_id":"ba268cfb-32df-4ac2-8d53-f107185f5557","system_id":"levelo_inurba_marseille","lat":43.27608,"lon":5.36108,"is_reserved":false,"is_disabled":false,"rental_uris":{"android":"levelo://app?vid=ba268cfb-32df-4ac2-8d53-f107185f5557","ios":"levelo://app?vid=ba268cfb-32df-4ac2-8d53-f107185f5557"},"vehicle_type_id":"4","last_reported":1727986198,"current_range_meters":36800,"station_id":"ce4bgj92rcd13ifvqbe0","pricing_plan_id":"cebpf4jnsgd1na2vs0mg"},{"bike_id":"6e3d08cc-d8b6-404f-98ca-f2924391c3a9","system_id":"levelo_inurba_marseille","lat":43.23185,"lon":5.39982,"is_reserved":false,"is_disabled":false,"rental_uris":{"android":"levelo://app?vid=6e3d08cc-d8b6-404f-98ca-f2924391c3a9","ios":"levelo://app?vid=6e3d08cc-d8b6-404f-98ca-f2924391c3a9"},"vehicle_type_id":"4","last_reported":1727986198,"current_range_meters":36800,"station_id":"ce4bhn12rcd13ifvqgqg","pricing_plan_id":"cebpf4jnsgd1na2vs0mg"},{"bike_id":"0fdfbc62-8090-4c2c-a1d7-119aa834ad6d","system_id":"levelo_inurba_marseille","lat":43.28101,"lon":5.37847,"is_reserved":false,"is_disabled":false,"rental_uris":{"android":"levelo://app?vid=0fdfbc62-8090-4c2c-a1d7-119aa834ad6d","ios":"levelo://app?vid=0fdfbc62-8090-4c2c-a1d7-119aa834ad6d"},"vehicle_type_id":"4","last_reported":1727986198,"current_range_meters":34000,"station_id":"ce4bha12rcd13ifvqee0","pricing_plan_id":"cebpf4jnsgd1na2vs0mg"},{"bike_id":"6068d828-93e1-4f7d-b30e-9b117ee387eb","system_id":"levelo_inurba_marseille","lat":43.28347,"lon":5.39858,"is_reserved":false,"is_disabled":false,"rental_uris":{"android":"levelo://app?vid=6068d828-93e1-4f7d-b30e-9b117ee387eb","ios":"levelo://app?vid=6068d828-93e1-4f7d-b30e-9b117ee387eb"},"vehicle_type_id":"4","last_reported":1727986198,"current_range_meters":18000,"station_id":"ce4bhi12rcd13ifvqfq0","pricing_plan_id":"cebpf4jnsgd1na2vs0mg"},{"bike_id":"38ccb47c-cec4-440c-a317-244788fef8a1","system_id":"levelo_inurba_marseille","lat":43.23965,"lon":5.36625,"is_reserved":false,"is_disabled":false,"rental_uris":{"android":"levelo://app?vid=38ccb47c-cec4-440c-a317-244788fef8a1","ios":"levelo://app?vid=38ccb47c-cec4-440c-a317-244788fef8a1"},"vehicle_type_id":"4","last_reported":1727986198,"current_range_meters":39200,"station_id":"ce4bhi12rcd13ifvqfp0","pricing_plan_id":"cebpf4jnsgd1na2vs0mg"},{"bike_id":"d8110687-7388-4f1c-83d2-3fe0e82ea48e","system_id":"levelo_inurba_marseille","lat":43.26061,"lon":5.39397,"is_reserved":false,"is_disabled":false,"rental_uris":{"android":"levelo://app?vid=d8110687-7388-4f1c-83d2-3fe0e82ea48e","ios":"levelo://app?vid=d8110687-7388-4f1c-83d2-3fe0e82ea48e"},"vehicle_type_id":"4","last_reported":1727986198,"current_range_meters":12800,"station_id":"ce4bhh92rcd13ifvqfj0","pricing_plan_id":"cebpf4jnsgd1na2vs0mg"},{"bike_id":"d7877609-6b5f-4f1b-b1e9-67841d44573b","system_id":"levelo_inurba_marseille","lat":43.29553,"lon":5.42287,"is_reserved":false,"is_disabled":false,"rental_uris":{"android":"levelo://app?vid=d7877609-6b5f-4f1b-b1e9-67841d44573b","ios":"levelo://app?vid=d7877609-6b5f-4f1b-b1e9-67841d44573b"},"vehicle_type_id":"4","last_reported":1727986198,"current_range_meters":26000,"station_id":"ce4bhph2rcd13ifvqhdg","pricing_plan_id":"cebpf4jnsgd1na2vs0mg"},{"bike_id":"411a622e-0c64-4ae7-ab3a-3b4f2603408c","system_id":"levelo_inurba_marseille","lat":43.29898,"lon":5.4367,"is_reserved":false,"is_disabled":false,"rental_uris":{"android":"levelo://app?vid=411a622e-0c64-4ae7-ab3a-3b4f2603408c","ios":"levelo://app?vid=411a622e-0c64-4ae7-ab3a-3b4f2603408c"},"vehicle_type_id":"4","last_reported":1727986198,"current_range_meters":24400,"station_id":"ce4bhpp2rcd13ifvqhfg","pricing_plan_id":"cebpf4jnsgd1na2vs0mg"},{"bike_id":"d9513a24-3235-43a7-b9a5-1c5cfe37603f","system_id":"levelo_inurba_marseille","lat":43.23059,"lon":5.3549,"is_reserved":false,"is_disabled":false,"rental_uris":{"android":"levelo://app?vid=d9513a24-3235-43a7-b9a5-1c5cfe37603f","ios":"levelo://app?vid=d9513a24-3235-43a7-b9a5-1c5cfe37603f"},"vehicle_type_id":"4","last_reported":1727986198,"current_range_meters":28400,"station_id":"cpo3342slgdg3j2ifvpg","pricing_plan_id":"cebpf4jnsgd1na2vs0mg"},{"bike_id":"b2614638-9dd4-4c23-a030-2abaad2e9464","system_id":"levelo_inurba_marseille","lat":43.28661,"lon":5.36358,"is_reserved":false,"is_disabled":false,"rental_uris":{"android":"levelo://app?vid=b2614638-9dd4-4c23-a030-2abaad2e9464","ios":"levelo://app?vid=b2614638-9dd4-4c23-a030-2abaad2e9464"},"vehicle_type_id":"4","last_reported":1727986198,"current_range_meters":11200,"station_id":"ce4bhah2rcd13ifvqej0","pricing_plan_id":"cebpf4jnsgd1na2vs0mg"},{"bike_id":"a74649b1-5942-4c72-8414-9c00a1ae1ab2","system_id":"levelo_inurba_marseille","lat":43.28848,"lon":5.35845,"is_reserved":false,"is_disabled":false,"rental_uris":{"android":"levelo://app?vid=a74649b1-5942-4c72-8414-9c00a1ae1ab2","ios":"levelo://app?vid=a74649b1-5942-4c72-8414-9c00a1ae1ab2"},"vehicle_type_id":"4","last_reported":1727986198,"current_range_meters":6400,"station_id":"ce4bhb12rcd13ifvqem0","pricing_plan_id":"cebpf4jnsgd1na2vs0mg"},{"bike_id":"66538481-5974-4170-80ef-c603c4459cc1","system_id":"levelo_inurba_marseille","lat":43.24177,"lon":5.39737,"is_reserved":false,"is_disabled":false,"rental_uris":{"android":"levelo://app?vid=66538481-5974-4170-80ef-c603c4459cc1","ios":"levelo://app?vid=66538481-5974-4170-80ef-c603c4459cc1"},"vehicle_type_id":"4","last_reported":1727986198,"current_range_meters":28800,"station_id":"ce4bhn12rcd13ifvqgpg","pricing_plan_id":"cebpf4jnsgd1na2vs0mg"},{"bike_id":"8e72ccae-9ded-4430-b9ba-2e7d0a57edcb","system_id":"levelo_inurba_marseille","lat":43.27951,"lon":5.41041,"is_reserved":false,"is_disabled":false,"rental_uris":{"android":"levelo://app?vid=8e72ccae-9ded-4430-b9ba-2e7d0a57edcb","ios":"levelo://app?vid=8e72ccae-9ded-4430-b9ba-2e7d0a57edcb"},"vehicle_type_id":"4","last_reported":1727986198,"current_range_meters":33600,"station_id":"ce4bhnp2rcd13ifvqh0g","pricing_plan_id":"cebpf4jnsgd1na2vs0mg"},{"bike_id":"cc59d44c-2149-4ccd-bc8c-3fe2ad63125f","system_id":"levelo_inurba_marseille","lat":43.25873,"lon":5.39895,"is_reserved":false,"is_disabled":false,"rental_uris":{"android":"levelo://app?vid=cc59d44c-2149-4ccd-bc8c-3fe2ad63125f","ios":"levelo://app?vid=cc59d44c-2149-4ccd-bc8c-3fe2ad63125f"},"vehicle_type_id":"4","last_reported":1727986198,"current_range_meters":20800,"station_id":"ce4bhl92rcd13ifvqghg","pricing_plan_id":"cebpf4jnsgd1na2vs0mg"},{"bike_id":"3ad980dd-70a8-4bda-b341-906daa22cc63","system_id":"levelo_inurba_marseille","lat":43.29533,"lon":5.38536,"is_reserved":false,"is_disabled":false,"rental_uris":{"android":"levelo://app?vid=3ad980dd-70a8-4bda-b341-906daa22cc63","ios":"levelo://app?vid=3ad980dd-70a8-4bda-b341-906daa22cc63"},"vehicle_type_id":"4","last_reported":1727986198,"current_range_meters":24400,"station_id":"ce4bgih2rcd13ifvqba0","pricing_plan_id":"cebpf4jnsgd1na2vs0mg"},{"bike_id":"65b25678-b2b5-4d89-be70-d0ae8f24c644","system_id":"levelo_inurba_marseille","lat":43.276976,"lon":5.388679,"is_reserved":false,"is_disabled":false,"rental_uris":{"android":"levelo://app?vid=65b25678-b2b5-4d89-be70-d0ae8f24c644","ios":"levelo://app?vid=65b25678-b2b5-4d89-be70-d0ae8f24c644"},"vehicle_type_id":"4","last_reported":1727986198,"current_range_meters":39200,"station_id":"ce4bhi12rcd13ifvqfo0","pricing_plan_id":"cebpf4jnsgd1na2vs0mg"},{"bike_id":"2ea0b90a-ee42-42eb-88b7-c289f9e72cb7","system_id":"levelo_inurba_marseille","lat":43.30799,"lon":5.43534,"is_reserved":false,"is_disabled":false,"rental_uris":{"android":"levelo://app?vid=2ea0b90a-ee42-42eb-88b7-c289f9e72cb7","ios":"levelo://app?vid=2ea0b90a-ee42-42eb-88b7-c289f9e72cb7"},"vehicle_type_id":"4","last_reported":1727986198,"current_range_meters":36000,"station_id":"ce4bhph2rcd13ifvqheg","pricing_plan_id":"cebpf4jnsgd1na2vs0mg"},{"bike_id":"d5ac08ae-117b-4356-80a9-fbe2030466ac","system_id":"levelo_inurba_marseille","lat":43.30799,"lon":5.38149,"is_reserved":false,"is_disabled":false,"rental_uris":{"android":"levelo://app?vid=d5ac08ae-117b-4356-80a9-fbe2030466ac","ios":"levelo://app?vid=d5ac08ae-117b-4356-80a9-fbe2030466ac"},"vehicle_type_id":"4","last_reported":1727986198,"current_range_meters":38800,"station_id":"ce4bgt12rcd13ifvqce0","pricing_plan_id":"cebpf4jnsgd1na2vs0mg"},{"bike_id":"642b0342-0346-42f0-b0c1-3196ee069ff3","system_id":"levelo_inurba_marseille","lat":43.2907,"lon":5.37156,"is_reserved":false,"is_disabled":false,"rental_uris":{"android":"levelo://app?vid=642b0342-0346-42f0-b0c1-3196ee069ff3","ios":"levelo://app?vid=642b0342-0346-42f0-b0c1-3196ee069ff3"},"vehicle_type_id":"4","last_reported":1727986198,"current_range_meters":38800,"station_id":"ce4bh5p2rcd13ifvqe4g","pricing_plan_id":"cebpf4jnsgd1na2vs0mg"},{"bike_id":"eee1dc5a-9ffe-417d-a588-57898aac93ea","system_id":"levelo_inurba_marseille","lat":43.28075,"lon":5.39657,"is_reserved":false,"is_disabled":false,"rental_uris":{"android":"levelo://app?vid=eee1dc5a-9ffe-417d-a588-57898aac93ea","ios":"levelo://app?vid=eee1dc5a-9ffe-417d-a588-57898aac93ea"},"vehicle_type_id":"4","last_reported":1727986198,"current_range_meters":24000,"station_id":"ce4bho12rcd13ifvqh2g","pricing_plan_id":"cebpf4jnsgd1na2vs0mg"},{"bike_id":"1905e8ab-e67b-4714-8011-59242e160328","system_id":"levelo_inurba_marseille","lat":43.28701,"lon":5.37402,"is_reserved":false,"is_disabled":false,"rental_uris":{"android":"levelo://app?vid=1905e8ab-e67b-4714-8011-59242e160328","ios":"levelo://app?vid=1905e8ab-e67b-4714-8011-59242e160328"},"vehicle_type_id":"4","last_reported":1727986198,"current_range_meters":38000,"station_id":"ce4bh3p2rcd13ifvqdq0","pricing_plan_id":"cebpf4jnsgd1na2vs0mg"},{"bike_id":"4eba5555-e109-4004-b68b-53b56bb9dd0f","system_id":"levelo_inurba_marseille","lat":43.27817,"lon":5.40706,"is_reserved":false,"is_disabled":false,"rental_uris":{"android":"levelo://app?vid=4eba5555-e109-4004-b68b-53b56bb9dd0f","ios":"levelo://app?vid=4eba5555-e109-4004-b68b-53b56bb9dd0f"},"vehicle_type_id":"4","last_reported":1727986198,"current_range_meters":10800,"station_id":"ce4bhnh2rcd13ifvqgtg","pricing_plan_id":"cebpf4jnsgd1na2vs0mg"},{"bike_id":"33b1982f-e1c6-41b0-8b40-6c33124592d3","system_id":"levelo_inurba_marseille","lat":43.29528,"lon":5.38549,"is_reserved":false,"is_disabled":false,"rental_uris":{"android":"levelo://app?vid=33b1982f-e1c6-41b0-8b40-6c33124592d3","ios":"levelo://app?vid=33b1982f-e1c6-41b0-8b40-6c33124592d3"},"vehicle_type_id":"4","last_reported":1727986198,"current_range_meters":3600,"station_id":"ce4bgih2rcd13ifvqba0","pricing_plan_id":"cebpf4jnsgd1na2vs0mg"},{"bike_id":"460c1d2c-d2d9-40fe-86a9-69971e1a4296","system_id":"levelo_inurba_marseille","lat":43.28149,"lon":5.42642,"is_reserved":false,"is_disabled":false,"rental_uris":{"android":"levelo://app?vid=460c1d2c-d2d9-40fe-86a9-69971e1a4296","ios":"levelo://app?vid=460c1d2c-d2d9-40fe-86a9-69971e1a4296"},"vehicle_type_id":"4","last_reported":1727986198,"current_range_meters":4800,"station_id":"ce4bhnh2rcd13ifvqgug","pricing_plan_id":"cebpf4jnsgd1na2vs0mg"},{"bike_id":"5ca701c8-6937-4b2a-9270-26cc986b783b","system_id":"levelo_inurba_marseille","lat":43.28699,"lon":5.39985,"is_reserved":false,"is_disabled":false,"rental_uris":{"android":"levelo://app?vid=5ca701c8-6937-4b2a-9270-26cc986b783b","ios":"levelo://app?vid=5ca701c8-6937-4b2a-9270-26cc986b783b"},"vehicle_type_id":"4","last_reported":1727986198,"current_range_meters":19200,"station_id":"ce4bho92rcd13ifvqh3g","pricing_plan_id":"cebpf4jnsgd1na2vs0mg"},{"bike_id":"21ed36b3-d5bf-48f5-9b3d-3ac59db7bafd","system_id":"levelo_inurba_marseille","lat":43.23188,"lon":5.39987,"is_reserved":false,"is_disabled":false,"rental_uris":{"android":"levelo://app?vid=21ed36b3-d5bf-48f5-9b3d-3ac59db7bafd","ios":"levelo://app?vid=21ed36b3-d5bf-48f5-9b3d-3ac59db7bafd"},"vehicle_type_id":"4","last_reported":1727986198,"current_range_meters":30000,"station_id":"ce4bhn12rcd13ifvqgqg","pricing_plan_id":"cebpf4jnsgd1na2vs0mg"},{"bike_id":"3fe8d3b7-ccf5-449b-a74c-2f8fabce9f01","system_id":"levelo_inurba_marseille","lat":43.308912,"lon":5.372012,"is_reserved":false,"is_disabled":false,"rental_uris":{"android":"levelo://app?vid=3fe8d3b7-ccf5-449b-a74c-2f8fabce9f01","ios":"levelo://app?vid=3fe8d3b7-ccf5-449b-a74c-2f8fabce9f01"},"vehicle_type_id":"4","last_reported":1727986198,"current_range_meters":36000,"station_id":"ce4bguh2rcd13ifvqckg","pricing_plan_id":"cebpf4jnsgd1na2vs0mg"},{"bike_id":"00115059-0a0e-4a07-a516-32ef5ac80071","system_id":"levelo_inurba_marseille","lat":43.26684,"lon":5.38276,"is_reserved":false,"is_disabled":false,"rental_uris":{"android":"levelo://app?vid=00115059-0a0e-4a07-a516-32ef5ac80071","ios":"levelo://app?vid=00115059-0a0e-4a07-a516-32ef5ac80071"},"vehicle_type_id":"4","last_reported":1727986198,"current_range_meters":34000,"station_id":"ce4bhg92rcd13ifvqf90","pricing_plan_id":"cebpf4jnsgd1na2vs0mg"},{"bike_id":"1d7ec710-2713-47b9-8547-83bf69c917cb","system_id":"levelo_inurba_marseille","lat":43.28419,"lon":5.34987,"is_reserved":false,"is_disabled":false,"rental_uris":{"android":"levelo://app?vid=1d7ec710-2713-47b9-8547-83bf69c917cb","ios":"levelo://app?vid=1d7ec710-2713-47b9-8547-83bf69c917cb"},"vehicle_type_id":"4","last_reported":1727986198,"current_range_meters":16000,"station_id":"ce4bhbh2rcd13ifvqepg","pricing_plan_id":"cebpf4jnsgd1na2vs0mg"},{"bike_id":"a5a39cec-80c1-4142-8c52-fdec3b8c16ff","system_id":"levelo_inurba_marseille","lat":43.29517,"lon":5.39061,"is_reserved":false,"is_disabled":false,"rental_uris":{"android":"levelo://app?vid=a5a39cec-80c1-4142-8c52-fdec3b8c16ff","ios":"levelo://app?vid=a5a39cec-80c1-4142-8c52-fdec3b8c16ff"},"vehicle_type_id":"4","last_reported":1727986198,"current_range_meters":38800,"station_id":"ce4bh3p2rcd13ifvqdp0","pricing_plan_id":"cebpf4jnsgd1na2vs0mg"},{"bike_id":"2f945782-78c3-46a2-97ff-072660895db7","system_id":"levelo_inurba_marseille","lat":43.27999,"lon":5.41668,"is_reserved":false,"is_disabled":false,"rental_uris":{"android":"levelo://app?vid=2f945782-78c3-46a2-97ff-072660895db7","ios":"levelo://app?vid=2f945782-78c3-46a2-97ff-072660895db7"},"vehicle_type_id":"4","last_reported":1727986198,"current_range_meters":24000,"station_id":"ce4bho12rcd13ifvqh1g","pricing_plan_id":"cebpf4jnsgd1na2vs0mg"},{"bike_id":"22c106f5-890d-47b4-b8e9-69ab4f1d735f","system_id":"levelo_inurba_marseille","lat":43.29366,"lon":5.37844,"is_reserved":false,"is_disabled":false,"rental_uris":{"android":"levelo://app?vid=22c106f5-890d-47b4-b8e9-69ab4f1d735f","ios":"levelo://app?vid=22c106f5-890d-47b4-b8e9-69ab4f1d735f"},"vehicle_type_id":"4","last_reported":1727986198,"current_range_meters":25600,"station_id":"ce4bgjh2rcd13ifvqbf0","pricing_plan_id":"cebpf4jnsgd1na2vs0mg"},{"bike_id":"9d1271a4-f60e-47fe-b989-3ffb38bffeef","system_id":"levelo_inurba_marseille","lat":43.23955,"lon":5.36636,"is_reserved":false,"is_disabled":false,"rental_uris":{"android":"levelo://app?vid=9d1271a4-f60e-47fe-b989-3ffb38bffeef","ios":"levelo://app?vid=9d1271a4-f60e-47fe-b989-3ffb38bffeef"},"vehicle_type_id":"4","last_reported":1727986198,"current_range_meters":20000,"station_id":"ce4bhi12rcd13ifvqfp0","pricing_plan_id":"cebpf4jnsgd1na2vs0mg"},{"bike_id":"db22f536-b4bc-44a4-ae1e-74aeddd3d6d3","system_id":"levelo_inurba_marseille","lat":43.29475,"lon":5.39049,"is_reserved":false,"is_disabled":false,"rental_uris":{"android":"levelo://app?vid=db22f536-b4bc-44a4-ae1e-74aeddd3d6d3","ios":"levelo://app?vid=db22f536-b4bc-44a4-ae1e-74aeddd3d6d3"},"vehicle_type_id":"4","last_reported":1727986198,"current_range_meters":38800,"station_id":"ce4bh3p2rcd13ifvqdp0","pricing_plan_id":"cebpf4jnsgd1na2vs0mg"},{"bike_id":"f0ee3299-6f34-4291-885b-91b308e7806a","system_id":"levelo_inurba_marseille","lat":43.24996,"lon":5.38938,"is_reserved":false,"is_disabled":false,"rental_uris":{"android":"levelo://app?vid=f0ee3299-6f34-4291-885b-91b308e7806a","ios":"levelo://app?vid=f0ee3299-6f34-4291-885b-91b308e7806a"},"vehicle_type_id":"4","last_reported":1727986198,"current_range_meters":36400,"station_id":"ce4bhgp2rcd13ifvqfd0","pricing_plan_id":"cebpf4jnsgd1na2vs0mg"},{"bike_id":"f032ef3c-ef4a-4d6b-aa30-043fdbeef707","system_id":"levelo_inurba_marseille","lat":43.30432,"lon":5.38883,"is_reserved":false,"is_disabled":false,"rental_uris":{"android":"levelo://app?vid=f032ef3c-ef4a-4d6b-aa30-043fdbeef707","ios":"levelo://app?vid=f032ef3c-ef4a-4d6b-aa30-043fdbeef707"},"vehicle_type_id":"4","last_reported":1727986198,"current_range_meters":38800,"station_id":"ce4bgk12rcd13ifvqbi0","pricing_plan_id":"cebpf4jnsgd1na2vs0mg"},{"bike_id":"cc12cf36-a2ca-4aa4-9d99-ba0559b6af63","system_id":"levelo_inurba_marseille","lat":43.25528,"lon":5.37664,"is_reserved":false,"is_disabled":false,"rental_uris":{"android":"levelo://app?vid=cc12cf36-a2ca-4aa4-9d99-ba0559b6af63","ios":"levelo://app?vid=cc12cf36-a2ca-4aa4-9d99-ba0559b6af63"},"vehicle_type_id":"4","last_reported":1727986198,"current_range_meters":38800,"station_id":"ce4bhh12rcd13ifvqff0","pricing_plan_id":"cebpf4jnsgd1na2vs0mg"},{"bike_id":"1a719aaf-9bcb-4815-b5c6-e6dfff8db1f8","system_id":"levelo_inurba_marseille","lat":43.31325,"lon":5.39699,"is_reserved":false,"is_disabled":false,"rental_uris":{"android":"levelo://app?vid=1a719aaf-9bcb-4815-b5c6-e6dfff8db1f8","ios":"levelo://app?vid=1a719aaf-9bcb-4815-b5c6-e6dfff8db1f8"},"vehicle_type_id":"4","last_reported":1727986198,"current_range_meters":38800,"station_id":"","pricing_plan_id":"cebpf4jnsgd1na2vs0mg"},{"bike_id":"e7927780-4cee-410b-a991-c4929187194d","system_id":"levelo_inurba_marseille","lat":43.302472,"lon":5.400711,"is_reserved":false,"is_disabled":false,"rental_uris":{"android":"levelo://app?vid=e7927780-4cee-410b-a991-c4929187194d","ios":"levelo://app?vid=e7927780-4cee-410b-a991-c4929187194d"},"vehicle_type_id":"4","last_reported":1727986198,"current_range_meters":18000,"station_id":"ce4bgvh2rcd13ifvqcs0","pricing_plan_id":"cebpf4jnsgd1na2vs0mg"},{"bike_id":"54b43f11-9fd1-401e-86d1-f5b57de16926","system_id":"levelo_inurba_marseille","lat":43.30337,"lon":5.40437,"is_reserved":false,"is_disabled":false,"rental_uris":{"android":"levelo://app?vid=54b43f11-9fd1-401e-86d1-f5b57de16926","ios":"levelo://app?vid=54b43f11-9fd1-401e-86d1-f5b57de16926"},"vehicle_type_id":"4","last_reported":1727986198,"current_range_meters":29600,"station_id":"ce4bh012rcd13ifvqd10","pricing_plan_id":"cebpf4jnsgd1na2vs0mg"},{"bike_id":"17774e5e-4ca1-4447-afa9-8f03dd4b5e12","system_id":"levelo_inurba_marseille","lat":43.26217,"lon":5.3744,"is_reserved":false,"is_disabled":false,"rental_uris":{"android":"levelo://app?vid=17774e5e-4ca1-4447-afa9-8f03dd4b5e12","ios":"levelo://app?vid=17774e5e-4ca1-4447-afa9-8f03dd4b5e12"},"vehicle_type_id":"4","last_reported":1727986198,"current_range_meters":8800,"station_id":"ce4bhgp2rcd13ifvqfc0","pricing_plan_id":"cebpf4jnsgd1na2vs0mg"},{"bike_id":"072fb9f0-10f7-4b22-b209-ee697ad91a4e","system_id":"levelo_inurba_marseille","lat":43.30433,"lon":5.38896,"is_reserved":false,"is_disabled":false,"rental_uris":{"android":"levelo://app?vid=072fb9f0-10f7-4b22-b209-ee697ad91a4e","ios":"levelo://app?vid=072fb9f0-10f7-4b22-b209-ee697ad91a4e"},"vehicle_type_id":"4","last_reported":1727986198,"current_range_meters":38000,"station_id":"ce4bgk12rcd13ifvqbi0","pricing_plan_id":"cebpf4jnsgd1na2vs0mg"},{"bike_id":"afcb9a13-dc65-4bd0-822e-d84ce8c1b826","system_id":"levelo_inurba_marseille","lat":43.30141,"lon":5.37422,"is_reserved":false,"is_disabled":false,"rental_uris":{"android":"levelo://app?vid=afcb9a13-dc65-4bd0-822e-d84ce8c1b826","ios":"levelo://app?vid=afcb9a13-dc65-4bd0-822e-d84ce8c1b826"},"vehicle_type_id":"4","last_reported":1727986198,"current_range_meters":34000,"station_id":"ce4bgs92rcd13ifvqcc0","pricing_plan_id":"cebpf4jnsgd1na2vs0mg"},{"bike_id":"96bb17bc-37db-410a-9088-472918711367","system_id":"levelo_inurba_marseille","lat":43.32541,"lon":5.41431,"is_reserved":false,"is_disabled":false,"rental_uris":{"android":"levelo://app?vid=96bb17bc-37db-410a-9088-472918711367","ios":"levelo://app?vid=96bb17bc-37db-410a-9088-472918711367"},"vehicle_type_id":"4","last_reported":1727986198,"current_range_meters":24800,"station_id":"ce4bhq12rcd13ifvqhhg","pricing_plan_id":"cebpf4jnsgd1na2vs0mg"},{"bike_id":"a8383655-9844-4712-a1a9-3ef28b82516d","system_id":"levelo_inurba_marseille","lat":43.29039,"lon":5.39973,"is_reserved":false,"is_disabled":false,"rental_uris":{"android":"levelo://app?vid=a8383655-9844-4712-a1a9-3ef28b82516d","ios":"levelo://app?vid=a8383655-9844-4712-a1a9-3ef28b82516d"},"vehicle_type_id":"4","last_reported":1727986198,"current_range_meters":16000,"station_id":"ce4bh392rcd13ifvqdm0","pricing_plan_id":"cebpf4jnsgd1na2vs0mg"},{"bike_id":"0fd8a581-6079-4d41-8312-f6ecfd73b79c","system_id":"levelo_inurba_marseille","lat":43.23965,"lon":5.36629,"is_reserved":false,"is_disabled":false,"rental_uris":{"android":"levelo://app?vid=0fd8a581-6079-4d41-8312-f6ecfd73b79c","ios":"levelo://app?vid=0fd8a581-6079-4d41-8312-f6ecfd73b79c"},"vehicle_type_id":"4","last_reported":1727986198,"current_range_meters":12400,"station_id":"ce4bhi12rcd13ifvqfp0","pricing_plan_id":"cebpf4jnsgd1na2vs0mg"},{"bike_id":"2ee8b668-768b-4a62-a1a5-d52d5490f7b7","system_id":"levelo_inurba_marseille","lat":43.31756,"lon":5.39024,"is_reserved":false,"is_disabled":false,"rental_uris":{"android":"levelo://app?vid=2ee8b668-768b-4a62-a1a5-d52d5490f7b7","ios":"levelo://app?vid=2ee8b668-768b-4a62-a1a5-d52d5490f7b7"},"vehicle_type_id":"4","last_reported":1727986198,"current_range_meters":38800,"station_id":"ce4bhqp2rcd13ifvqhng","pricing_plan_id":"cebpf4jnsgd1na2vs0mg"},{"bike_id":"36c07adf-4964-4cd5-9010-19396a77e51d","system_id":"levelo_inurba_marseille","lat":43.290375,"lon":5.386478,"is_reserved":false,"is_disabled":false,"rental_uris":{"android":"levelo://app?vid=36c07adf-4964-4cd5-9010-19396a77e51d","ios":"levelo://app?vid=36c07adf-4964-4cd5-9010-19396a77e51d"},"vehicle_type_id":"4","last_reported":1727986198,"current_range_meters":35600,"station_id":"ce4bh4p2rcd13ifvqe0g","pricing_plan_id":"cebpf4jnsgd1na2vs0mg"},{"bike_id":"c5223d97-c6c1-4b68-af59-4b45fbb41329","system_id":"levelo_inurba_marseille","lat":43.32367,"lon":5.38885,"is_reserved":false,"is_disabled":false,"rental_uris":{"android":"levelo://app?vid=c5223d97-c6c1-4b68-af59-4b45fbb41329","ios":"levelo://app?vid=c5223d97-c6c1-4b68-af59-4b45fbb41329"},"vehicle_type_id":"4","last_reported":1727986198,"current_range_meters":16400,"station_id":"ce4bhqp2rcd13ifvqhog","pricing_plan_id":"cebpf4jnsgd1na2vs0mg"},{"bike_id":"ae748f0b-c90d-40f1-921d-5ed61cc09e3d","system_id":"levelo_inurba_marseille","lat":43.30796,"lon":5.38144,"is_reserved":false,"is_disabled":false,"rental_uris":{"android":"levelo://app?vid=ae748f0b-c90d-40f1-921d-5ed61cc09e3d","ios":"levelo://app?vid=ae748f0b-c90d-40f1-921d-5ed61cc09e3d"},"vehicle_type_id":"4","last_reported":1727986198,"current_range_meters":38800,"station_id":"ce4bgt12rcd13ifvqce0","pricing_plan_id":"cebpf4jnsgd1na2vs0mg"},{"bike_id":"d03ed34d-668b-4b93-bbb1-3e7799a0e5ab","system_id":"levelo_inurba_marseille","lat":43.31489,"lon":5.37305,"is_reserved":false,"is_disabled":false,"rental_uris":{"android":"levelo://app?vid=d03ed34d-668b-4b93-bbb1-3e7799a0e5ab","ios":"levelo://app?vid=d03ed34d-668b-4b93-bbb1-3e7799a0e5ab"},"vehicle_type_id":"4","last_reported":1727986198,"current_range_meters":36800,"station_id":"ce4bgt12rcd13ifvqcd0","pricing_plan_id":"cebpf4jnsgd1na2vs0mg"},{"bike_id":"0cb9acb2-15eb-485b-842c-a3f570e8e7c5","system_id":"levelo_inurba_marseille","lat":43.22933,"lon":5.35378,"is_reserved":false,"is_disabled":false,"rental_uris":{"android":"levelo://app?vid=0cb9acb2-15eb-485b-842c-a3f570e8e7c5","ios":"levelo://app?vid=0cb9acb2-15eb-485b-842c-a3f570e8e7c5"},"vehicle_type_id":"4","last_reported":1727986198,"current_range_meters":25600,"station_id":"cpo3532slgdg3j2ikp40","pricing_plan_id":"cebpf4jnsgd1na2vs0mg"},{"bike_id":"48b4933f-5b7f-4410-9797-84451602b2ce","system_id":"levelo_inurba_marseille","lat":43.29981,"lon":5.37187,"is_reserved":false,"is_disabled":false,"rental_uris":{"android":"levelo://app?vid=48b4933f-5b7f-4410-9797-84451602b2ce","ios":"levelo://app?vid=48b4933f-5b7f-4410-9797-84451602b2ce"},"vehicle_type_id":"4","last_reported":1727986198,"current_range_meters":16000,"station_id":"ce4bgr92rcd13ifvqc7g","pricing_plan_id":"cebpf4jnsgd1na2vs0mg"},{"bike_id":"88aa3600-100a-489e-815f-a9a2d1794c40","system_id":"levelo_inurba_marseille","lat":43.30326,"lon":5.4044,"is_reserved":false,"is_disabled":false,"rental_uris":{"android":"levelo://app?vid=88aa3600-100a-489e-815f-a9a2d1794c40","ios":"levelo://app?vid=88aa3600-100a-489e-815f-a9a2d1794c40"},"vehicle_type_id":"4","last_reported":1727986198,"current_range_meters":18000,"station_id":"ce4bh012rcd13ifvqd10","pricing_plan_id":"cebpf4jnsgd1na2vs0mg"},{"bike_id":"e9bc8e34-7fc9-401e-8798-81c511b3e3c8","system_id":"levelo_inurba_marseille","lat":43.33395,"lon":5.41089,"is_reserved":false,"is_disabled":false,"rental_uris":{"android":"levelo://app?vid=e9bc8e34-7fc9-401e-8798-81c511b3e3c8","ios":"levelo://app?vid=e9bc8e34-7fc9-401e-8798-81c511b3e3c8"},"vehicle_type_id":"4","last_reported":1727986198,"current_range_meters":32800,"station_id":"","pricing_plan_id":"cebpf4jnsgd1na2vs0mg"},{"bike_id":"ecf4df4e-b83f-4da1-b96e-3392873e2157","system_id":"levelo_inurba_marseille","lat":43.25494,"lon":5.37658,"is_reserved":false,"is_disabled":false,"rental_uris":{"android":"levelo://app?vid=ecf4df4e-b83f-4da1-b96e-3392873e2157","ios":"levelo://app?vid=ecf4df4e-b83f-4da1-b96e-3392873e2157"},"vehicle_type_id":"4","last_reported":1727986198,"current_range_meters":38000,"station_id":"ce4bhh12rcd13ifvqff0","pricing_plan_id":"cebpf4jnsgd1na2vs0mg"},{"bike_id":"f48ac234-c587-44d8-957e-5b4eb07eec74","system_id":"levelo_inurba_marseille","lat":43.27609,"lon":5.3611,"is_reserved":false,"is_disabled":false,"rental_uris":{"android":"levelo://app?vid=f48ac234-c587-44d8-957e-5b4eb07eec74","ios":"levelo://app?vid=f48ac234-c587-44d8-957e-5b4eb07eec74"},"vehicle_type_id":"4","last_reported":1727986198,"current_range_meters":38000,"station_id":"ce4bgj92rcd13ifvqbe0","pricing_plan_id":"cebpf4jnsgd1na2vs0mg"},{"bike_id":"b2c48204-d429-40ea-a1e3-31aca0da0e7f","system_id":"levelo_inurba_marseille","lat":43.29793,"lon":5.3934,"is_reserved":false,"is_disabled":false,"rental_uris":{"android":"levelo://app?vid=b2c48204-d429-40ea-a1e3-31aca0da0e7f","ios":"levelo://app?vid=b2c48204-d429-40ea-a1e3-31aca0da0e7f"},"vehicle_type_id":"4","last_reported":1727986198,"current_range_meters":38800,"station_id":"chh1huq6cuj3fo74tm60","pricing_plan_id":"cebpf4jnsgd1na2vs0mg"},{"bike_id":"6f5f8875-32f9-4c8a-9fac-a15b64525122","system_id":"levelo_inurba_marseille","lat":43.28861,"lon":5.3931,"is_reserved":false,"is_disabled":false,"rental_uris":{"android":"levelo://app?vid=6f5f8875-32f9-4c8a-9fac-a15b64525122","ios":"levelo://app?vid=6f5f8875-32f9-4c8a-9fac-a15b64525122"},"vehicle_type_id":"4","last_reported":1727986198,"current_range_meters":4400,"station_id":"ce4bh2p2rcd13ifvqdi0","pricing_plan_id":"cebpf4jnsgd1na2vs0mg"},{"bike_id":"67a6af27-b13e-4444-903b-3097362ce5fa","system_id":"levelo_inurba_marseille","lat":43.25832,"lon":5.39438,"is_reserved":false,"is_disabled":false,"rental_uris":{"android":"levelo://app?vid=67a6af27-b13e-4444-903b-3097362ce5fa","ios":"levelo://app?vid=67a6af27-b13e-4444-903b-3097362ce5fa"},"vehicle_type_id":"4","last_reported":1727986198,"current_range_meters":38800,"station_id":"ce4bhip2rcd13ifvqft0","pricing_plan_id":"cebpf4jnsgd1na2vs0mg"},{"bike_id":"77a4deff-f11e-4c24-8875-e3301106e8fd","system_id":"levelo_inurba_marseille","lat":43.2395,"lon":5.36645,"is_reserved":false,"is_disabled":false,"rental_uris":{"android":"levelo://app?vid=77a4deff-f11e-4c24-8875-e3301106e8fd","ios":"levelo://app?vid=77a4deff-f11e-4c24-8875-e3301106e8fd"},"vehicle_type_id":"4","last_reported":1727986198,"current_range_meters":8400,"station_id":"ce4bhi12rcd13ifvqfp0","pricing_plan_id":"cebpf4jnsgd1na2vs0mg"},