{"last_updated":1729447858,"ttl":60,"version":"2.2","data":{"bikes":[{"bike_id":"4832f6d2-ebd9-4854-ba7a-d073eb41eb75","system_id":"levelo_inurba_marseille","lat":43.28485,"lon":5.38566,"is_reserved":false,"is_disabled":false,"rental_uris":{"android":"levelo://app?vid=4832f6d2-ebd9-4854-ba7a-d073eb41eb75","ios":"levelo://app?vid=4832f6d2-ebd9-4854-ba7a-d073eb41eb75"},"vehicle_type_id":"4","last_reported":1729447858,"current_range_meters":10800,"station_id":"ce4bh8p2rcd13ifvqeb0","pricing_plan_id":"cebpf4jnsgd1na2vs0mg"},{"bike_id":"f2cf55f4-aa83-4a41-8c86-05d88bb3727e","system_id":"levelo_inurba_marseille","lat":43.3113,"lon":5.37752,"is_reserved":false,"is_disabled":false,"rental_uris":{"android":"levelo://app?vid=f2cf55f4-aa83-4a41-8c86-05d88bb3727e","ios":"levelo://app?vid=f2cf55f4-aa83-4a41-8c86-05d88bb3727e"},"vehicle_type_id":"4","last_reported":1729447858,"current_range_meters":22000,"station_id":"ce4bgt92rcd13ifvqcg0","pricing_plan_id":"cebpf4jnsgd1na2vs0mg"},{"bike_id":"2aae6609-bf72-4b69-8776-85ccbbd9b0e5","system_id":"levelo_inurba_marseille","lat":43.22927,"lon":5.35375,"is_reserved":false,"is_disabled":false,"rental_uris":{"android":"levelo://app?vid=2aae6609-bf72-4b69-8776-85ccbbd9b0e5","ios":"levelo://app?vid=2aae6609-bf72-4b69-8776-85ccbbd9b0e5"},"vehicle_type_id":"4","last_reported":1729447858,"current_range_meters":38800,"station_id":"cpo3532slgdg3j2ikp40","pricing_plan_id":"cebpf4jnsgd1na2vs0mg"},{"bike_id":"138f2d49-214b-48e8-9db4-98a6dc22aa3c","system_id":"levelo_inurba_marseille","lat":43.28441,"lon":5.39211,"is_reserved":false,"is_disabled":false,"rental_uris":{"android":"levelo://app?vid=138f2d49-214b-48e8-9db4-98a6dc22aa3c","ios":"levelo://app?vid=138f2d49-214b-48e8-9db4-98a6dc22aa3c"},"vehicle_type_id":"4","last_reported":1729447858,"current_range_meters":8400,"station_id":"ce4bhoh2rcd13ifvqh5g","pricing_plan_id":"cebpf4jnsgd1na2vs0mg"},{"bike_id":"d83804fa-5232-4967-b14a-d2ad4e557347","system_id":"levelo_inurba_marseille","lat":43.30584,"lon":5.3936,"is_reserved":false,"is_disabled":false,"rental_uris":{"android":"levelo://app?vid=d83804fa-5232-4967-b14a-d2ad4e557347","ios":"levelo://app?vid=d83804fa-5232-4967-b14a-d2ad4e557347"},"vehicle_type_id":"4","last_reported":1729447858,"current_range_meters":26800,"station_id":"ce4bh0p2rcd13ifvqd80","pricing_plan_id":"cebpf4jnsgd1na2vs0mg"},{"bike_id":"b453e957-4bee-4d7b-9617-ca1b3e7e4873","system_id":"levelo_inurba_marseille","lat":43.324918,"lon":5.383055,"is_reserved":false,"is_disabled":false,"rental_uris":{"android":"levelo://app?vid=b453e957-4bee-4d7b-9617-ca1b3e7e4873","ios":"levelo://app?vid=b453e957-4bee-4d7b-9617-ca1b3e7e4873"},"vehicle_type_id":"4","last_reported":1729447858,"current_range_meters":14400,"station_id":"","pricing_plan_id":"cebpf4jnsgd1na2vs0mg"},{"bike_id":"84da1768-0304-4b41-9cdd-4b869838058f","system_id":"levelo_inurba_marseille","lat":43.26955,"lon":5.3893,"is_reserved":false,"is_disabled":false,"rental_uris":{"android":"levelo://app?vid=84da1768-0304-4b41-9cdd-4b869838058f","ios":"levelo://app?vid=84da1768-0304-4b41-9cdd-4b869838058f"},"vehicle_type_id":"4","last_reported":1729447858,"current_range_meters":16000,"station_id":"ce4bhhh2rcd13ifvqfl0","pricing_plan_id":"cebpf4jnsgd1na2vs0mg"},{"bike_id":"ab1fd300-a432-4607-a094-6cb57e6a09ab","system_id":"levelo_inurba_marseille","lat":43.28454,"lon":5.35892,"is_reserved":false,"is_disabled":false,"rental_uris":{"android":"levelo://app?vid=ab1fd300-a432-4607-a094-6cb57e6a09ab","ios":"levelo://app?vid=ab1fd300-a432-4607-a094-6cb57e6a09ab"},"vehicle_type_id":"4","last_reported":1729447858,"current_range_meters":38800,"station_id":"ce4bhah2rcd13ifvqei0","pricing_plan_id":"cebpf4jnsgd1na2vs0mg"},{"bike_id":"7a6ba3d7-846e-45d3-92b4-25ce5cda8a53","system_id":"levelo_inurba_marseille","lat":43.33723,"lon":5.39191,"is_reserved":false,"is_disabled":false,"rental_uris":{"android":"levelo://app?vid=7a6ba3d7-846e-45d3-92b4-25ce5cda8a53","ios":"levelo://app?vid=7a6ba3d7-846e-45d3-92b4-25ce5cda8a53"},"vehicle_type_id":"4","last_reported":1729447858,"current_range_meters":16800,"station_id":"ce4bhr92rcd13ifvqhsg","pricing_plan_id":"cebpf4jnsgd1na2vs0mg"},{"bike_id":"d0cd3321-1682-4834-924a-12ab4bee065f","system_id":"levelo_inurba_marseille","lat":43.31578,"lon":5.38893,"is_reserved":false,"is_disabled":false,"rental_uris":{"android":"levelo://app?vid=d0cd3321-1682-4834-924a-12ab4bee065f","ios":"levelo://app?vid=d0cd3321-1682-4834-924a-12ab4bee065f"},"vehicle_type_id":"4","last_reported":1729447858,"current_range_meters":26800,"station_id":"","pricing_plan_id":"cebpf4jnsgd1na2vs0mg"},{"bike_id":"b256bee4-8891-4c97-bfb2-6a3d62c3448f","system_id":"levelo_inurba_marseille","lat":43.29028,"lon":5.37552,"is_reserved":false,"is_disabled":false,"rental_uris":{"android":"levelo://app?vid=b256bee4-8891-4c97-bfb2-6a3d62c3448f","ios":"levelo://app?vid=b256bee4-8891-4c97-bfb2-6a3d62c3448f"},"vehicle_type_id":"4","last_reported":1729447858,"current_range_meters":38800,"station_id":"ce4bh692rcd13ifvqe90","pricing_plan_id":"cebpf4jnsgd1na2vs0mg"},{"bike_id":"474ccd54-d884-4c48-ac27-1f7190ae4438","system_id":"levelo_inurba_marseille","lat":43.33657,"lon":5.39206,"is_reserved":false,"is_disabled":false,"rental_uris":{"android":"levelo://app?vid=474ccd54-d884-4c48-ac27-1f7190ae4438","ios":"levelo://app?vid=474ccd54-d884-4c48-ac27-1f7190ae4438"},"vehicle_type_id":"4","last_reported":1729447858,"current_range_meters":6000,"station_id":"","pricing_plan_id":"cebpf4jnsgd1na2vs0mg"},{"bike_id":"0110ffb5-a63d-45d5-b867-2e5bae3721ec","system_id":"levelo_inurba_marseille","lat":43.32662,"lon":5.40991,"is_reserved":false,"is_disabled":false,"rental_uris":{"android":"levelo://app?vid=0110ffb5-a63d-45d5-b867-2e5bae3721ec","ios":"levelo://app?vid=0110ffb5-a63d-45d5-b867-2e5bae3721ec"},"vehicle_type_id":"4","last_reported":1729447858,"current_range_meters":14400,"station_id":"ce4bhpp2rcd13ifvqhgg","pricing_plan_id":"cebpf4jnsgd1na2vs0mg"},{"bike_id":"cffc72a1-9762-4ffa-83d6-8b9856072bf4","system_id":"levelo_inurba_marseille","lat":43.31717,"lon":5.42404,"is_reserved":false,"is_disabled":false,"rental_uris":{"android":"levelo://app?vid=cffc72a1-9762-4ffa-83d6-8b9856072bf4","ios":"levelo://app?vid=cffc72a1-9762-4ffa-83d6-8b9856072bf4"},"vehicle_type_id":"4","last_reported":1729447858,"current_range_meters":4800,"station_id":"ce4bhp92rcd13ifvqhbg","pricing_plan_id":"cebpf4jnsgd1na2vs0mg"},{"bike_id":"18c5e602-07df-4ebf-92ed-ad2554f8e3ba","system_id":"levelo_inurba_marseille","lat":43.25001,"lon":5.38929,"is_reserved":false,"is_disabled":false,"rental_uris":{"android":"levelo://app?vid=18c5e602-07df-4ebf-92ed-ad2554f8e3ba","ios":"levelo://app?vid=18c5e602-07df-4ebf-92ed-ad2554f8e3ba"},"vehicle_type_id":"4","last_reported":1729447858,"current_range_meters":14000,"station_id":"ce4bhgp2rcd13ifvqfd0","pricing_plan_id":"cebpf4jnsgd1na2vs0mg"},{"bike_id":"b28f5ea3-f51d-4648-8a94-410fa3633caa","system_id":"levelo_inurba_marseille","lat":43.24162,"lon":5.364,"is_reserved":false,"is_disabled":false,"rental_uris":{"android":"levelo://app?vid=b28f5ea3-f51d-4648-8a94-410fa3633caa","ios":"levelo://app?vid=b28f5ea3-f51d-4648-8a94-410fa3633caa"},"vehicle_type_id":"4","last_reported":1729447858,"current_range_meters":38800,"station_id":"cpo36qri1sfpv3e86is0","pricing_plan_id":"cebpf4jnsgd1na2vs0mg"},{"bike_id":"6e99e7d1-d0d0-40ed-ae52-b4928bfdcc38","system_id":"levelo_inurba_marseille","lat":43.29189,"lon":5.39316,"is_reserved":false,"is_disabled":false,"rental_uris":{"android":"levelo://app?vid=6e99e7d1-d0d0-40ed-ae52-b4928bfdcc38","ios":"levelo://app?vid=6e99e7d1-d0d0-40ed-ae52-b4928bfdcc38"},"vehicle_type_id":"4","last_reported":1729447858,"current_range_meters":6800,"station_id":"ce4bh192rcd13ifvqdd0","pricing_plan_id":"cebpf4jnsgd1na2vs0mg"},{"bike_id":"87ca1756-39e2-4d75-9ae0-8cfb2f3595df","system_id":"levelo_inurba_marseille","lat":43.29391,"lon":5.39656,"is_reserved":false,"is_disabled":false,"rental_uris":{"android":"levelo://app?vid=87ca1756-39e2-4d75-9ae0-8cfb2f3595df","ios":"levelo://app?vid=87ca1756-39e2-4d75-9ae0-8cfb2f3595df"},"vehicle_type_id":"4","last_reported":1729447858,"current_range_meters":17600,"station_id":"","pricing_plan_id":"cebpf4jnsgd1na2vs0mg"},{"bike_id":"30edceef-9b8c-484e-b89c-7f07100fd25b","system_id":"levelo_inurba_marseille","lat":43.3236,"lon":5.38718,"is_reserved":false,"is_disabled":false,"rental_uris":{"android":"levelo://app?vid=30edceef-9b8c-484e-b89c-7f07100fd25b","ios":"levelo://app?vid=30edceef-9b8c-484e-b89c-7f07100fd25b"},"vehicle_type_id":"4","last_reported":1729447858,"current_range_meters":15200,"station_id":"","pricing_plan_id":"cebpf4jnsgd1na2vs0mg"},{"bike_id":"06090e60-a013-4d85-bdce-4b38fe27ccca","system_id":"levelo_inurba_marseille","lat":43.313287,"lon":5.396937,"is_reserved":false,"is_disabled":false,"rental_uris":{"android":"levelo://app?vid=06090e60-a013-4d85-bdce-4b38fe27ccca","ios":"levelo://app?vid=06090e60-a013-4d85-bdce-4b38fe27ccca"},"vehicle_type_id":"4","last_reported":1729447858,"current_range_meters":9200,"station_id":"ce4bgvp2rcd13ifvqcu0","pricing_plan_id":"cebpf4jnsgd1na2vs0mg"},{"bike_id":"befb068b-7b18-4dbe-9d54-7889699e7dea","system_id":"levelo_inurba_marseille","lat":43.22922,"lon":5.35381,"is_reserved":false,"is_disabled":false,"rental_uris":{"android":"levelo://app?vid=befb068b-7b18-4dbe-9d54-7889699e7dea","ios":"levelo://app?vid=befb068b-7b18-4dbe-9d54-7889699e7dea"},"vehicle_type_id":"4","last_reported":1729447858,"current_range_meters":38800,"station_id":"cpo3532slgdg3j2ikp40","pricing_plan_id":"cebpf4jnsgd1na2vs0mg"},{"bike_id":"5b47cbfd-3740-4a35-b9bd-478cf093a87d","system_id":"levelo_inurba_marseille","lat":43.23959,"lon":5.36625,"is_reserved":false,"is_disabled":false,"rental_uris":{"android":"levelo://app?vid=5b47cbfd-3740-4a35-b9bd-478cf093a87d","ios":"levelo://app?vid=5b47cbfd-3740-4a35-b9bd-478cf093a87d"},"vehicle_type_id":"4","last_reported":1729447858,"current_range_meters":27200,"station_id":"ce4bhi12rcd13ifvqfp0","pricing_plan_id":"cebpf4jnsgd1na2vs0mg"},{"bike_id":"5716d563-38bf-420f-9926-d4501c180b82","system_id":"levelo_inurba_marseille","lat":43.28615,"lon":5.35108,"is_reserved":false,"is_disabled":false,"rental_uris":{"android":"levelo://app?vid=5716d563-38bf-420f-9926-d4501c180b82","ios":"levelo://app?vid=5716d563-38bf-420f-9926-d4501c180b82"},"vehicle_type_id":"4","last_reported":1729447858,"current_range_meters":38800,"station_id":"ce4bhch2rcd13ifvqeug","pricing_plan_id":"cebpf4jnsgd1na2vs0mg"},{"bike_id":"84081ad0-bad9-4115-8efc-8301d01843eb","system_id":"levelo_inurba_marseille","lat":43.29949,"lon":5.41321,"is_reserved":false,"is_disabled":false,"rental_uris":{"android":"levelo://app?vid=84081ad0-bad9-4115-8efc-8301d01843eb","ios":"levelo://app?vid=84081ad0-bad9-4115-8efc-8301d01843eb"},"vehicle_type_id":"4","last_reported":1729447858,"current_range_meters":27600,"station_id":"ce4bhp12rcd13ifvqh9g","pricing_plan_id":"cebpf4jnsgd1na2vs0mg"},{"bike_id":"dbb06657-4917-4fd5-b155-55b06c5dab6e","system_id":"levelo_inurba_marseille","lat":43.248016,"lon":5.374565,"is_reserved":false,"is_disabled":false,"rental_uris":{"android":"levelo://app?vid=dbb06657-4917-4fd5-b155-55b06c5dab6e","ios":"levelo://app?vid=dbb06657-4917-4fd5-b155-55b06c5dab6e"},"vehicle_type_id":"4","last_reported":1729447858,"current_range_meters":38800,"station_id":"ce4bhgh2rcd13ifvqfb0","pricing_plan_id":"cebpf4jnsgd1na2vs0mg"},{"bike_id":"fa0890ff-3d27-4d6b-903e-da2d64a662b4","system_id":"levelo_inurba_marseille","lat":43.28733,"lon":5.37937,"is_reserved":false,"is_disabled":false,"rental_uris":{"android":"levelo://app?vid=fa0890ff-3d27-4d6b-903e-da2d64a662b4","ios":"levelo://app?vid=fa0890ff-3d27-4d6b-903e-da2d64a662b4"},"vehicle_type_id":"4","last_reported":1729447858,"current_range_meters":38800,"station_id":"ce4bh9p2rcd13ifvqec0","pricing_plan_id":"cebpf4jnsgd1na2vs0mg"},{"bike_id":"ab25e50e-031e-49b2-92c3-bc31c1e4e638","system_id":"levelo_inurba_marseille","lat":43.27982,"lon":5.41677,"is_reserved":false,"is_disabled":false,"rental_uris":{"android":"levelo://app?vid=ab25e50e-031e-49b2-92c3-bc31c1e4e638","ios":"levelo://app?vid=ab25e50e-031e-49b2-92c3-bc31c1e4e638"},"vehicle_type_id":"4","last_reported":1729447858,"current_range_meters":8000,"station_id":"ce4bho12rcd13ifvqh1g","pricing_plan_id":"cebpf4jnsgd1na2vs0mg"},{"bike_id":"97920165-da91-45a2-be15-3f59571ce4f0","system_id":"levelo_inurba_marseille","lat":43.29801,"lon":5.38079,"is_reserved":false,"is_disabled":false,"rental_uris":{"android":"levelo://app?vid=97920165-da91-45a2-be15-3f59571ce4f0","ios":"levelo://app?vid=97920165-da91-45a2-be15-3f59571ce4f0"},"vehicle_type_id":"4","last_reported":1729447858,"current_range_meters":39200,"station_id":"ce4bgip2rcd13ifvqbb0","pricing_plan_id":"cebpf4jnsgd1na2vs0mg"},{"bike_id":"57dd0012-e7c2-43e3-90a1-087125ac63fa","system_id":"levelo_inurba_marseille","lat":43.33753,"lon":5.37454,"is_reserved":false,"is_disabled":false,"rental_uris":{"android":"levelo://app?vid=57dd0012-e7c2-43e3-90a1-087125ac63fa","ios":"levelo://app?vid=57dd0012-e7c2-43e3-90a1-087125ac63fa"},"vehicle_type_id":"4","last_reported":1729447858,"current_range_meters":34000,"station_id":"","pricing_plan_id":"cebpf4jnsgd1na2vs0mg"},{"bike_id":"acc80eec-b7f4-4a87-8f02-9235715cbd20","system_id":"levelo_inurba_marseille","lat":43.31077,"lon":5.3836,"is_reserved":false,"is_disabled":false,"rental_uris":{"android":"levelo://app?vid=acc80eec-b7f4-4a87-8f02-9235715cbd20","ios":"levelo://app?vid=acc80eec-b7f4-4a87-8f02-9235715cbd20"},"vehicle_type_id":"4","last_reported":1729447858,"current_range_meters":37600,"station_id":"ce4bgv92rcd13ifvqcr0","pricing_plan_id":"cebpf4jnsgd1na2vs0mg"},{"bike_id":"941a03f7-a289-436e-bbec-e777ffc958e1","system_id":"levelo_inurba_marseille","lat":43.30946,"lon":5.396479,"is_reserved":false,"is_disabled":false,"rental_uris":{"android":"levelo://app?vid=941a03f7-a289-436e-bbec-e777ffc958e1","ios":"levelo://app?vid=941a03f7-a289-436e-bbec-e777ffc958e1"},"vehicle_type_id":"4","last_reported":1729447858,"current_range_meters":1600,"station_id":"ce4bh012rcd13ifvqcv0","pricing_plan_id":"cebpf4jnsgd1na2vs0mg"},{"bike_id":"7694452c-24b5-4c07-ac58-c5f5beb75ed2","system_id":"levelo_inurba_marseille","lat":43.29892,"lon":5.38905,"is_reserved":false,"is_disabled":false,"rental_uris":{"android":"levelo://app?vid=7694452c-24b5-4c07-ac58-c5f5beb75ed2","ios":"levelo://app?vid=7694452c-24b5-4c07-ac58-c5f5beb75ed2"},"vehicle_type_id":"4","last_reported":1729447858,"current_range_meters":6800,"station_id":"ce4bh392rcd13ifvqdl0","pricing_plan_id":"cebpf4jnsgd1na2vs0mg"},{"bike_id":"25f91457-440e-47f9-92ed-6acee8b789b7","system_id":"levelo_inurba_marseille","lat":43.31491,"lon":5.38777,"is_reserved":false,"is_disabled":false,"rental_uris":{"android":"levelo://app?vid=25f91457-440e-47f9-92ed-6acee8b789b7","ios":"levelo://app?vid=25f91457-440e-47f9-92ed-6acee8b789b7"},"vehicle_type_id":"4","last_reported":1729447858,"current_range_meters":28800,"station_id":"","pricing_plan_id":"cebpf4jnsgd1na2vs0mg"},{"bike_id":"5f89b488-e31c-4595-9164-ab194d132954","system_id":"levelo_inurba_marseille","lat":43.295715,"lon":5.37511,"is_reserved":false,"is_disabled":false,"rental_uris":{"android":"levelo://app?vid=5f89b488-e31c-4595-9164-ab194d132954","ios":"levelo://app?vid=5f89b488-e31c-4595-9164-ab194d132954"},"vehicle_type_id":"4","last_reported":1729447858,"current_range_meters":36800,"station_id":"ce4bgh92rcd13ifvqb50","pricing_plan_id":"cebpf4jnsgd1na2vs0mg"},{"bike_id":"78fdb077-d0d7-44d7-b4c4-04e394bec65a","system_id":"levelo_inurba_marseille","lat":43.281006,"lon":5.378379,"is_reserved":false,"is_disabled":false,"rental_uris":{"android":"levelo://app?vid=78fdb077-d0d7-44d7-b4c4-04e394bec65a","ios":"levelo://app?vid=78fdb077-d0d7-44d7-b4c4-04e394bec65a"},"vehicle_type_id":"4","last_reported":1729447858,"current_range_meters":20800,"station_id":"ce4bha12rcd13ifvqee0","pricing_plan_id":"cebpf4jnsgd1na2vs0mg"},{"bike_id":"6ce4c8bc-d336-4d81-9e49-6f9709f86de2","system_id":"levelo_inurba_marseille","lat":43.299861,"lon":5.384675,"is_reserved":false,"is_disabled":false,"rental_uris":{"android":"levelo://app?vid=6ce4c8bc-d336-4d81-9e49-6f9709f86de2","ios":"levelo://app?vid=6ce4c8bc-d336-4d81-9e49-6f9709f86de2"},"vehicle_type_id":"4","last_reported":1729447858,"current_range_meters":27600,"station_id":"ce4bgj92rcd13ifvqbd0","pricing_plan_id":"cebpf4jnsgd1na2vs0mg"},{"bike_id":"cd0dce23-200f-416c-916b-7be9d153fea3","system_id":"levelo_inurba_marseille","lat":43.26064,"lon":5.38558,"is_reserved":false,"is_disabled":false,"rental_uris":{"android":"levelo://app?vid=cd0dce23-200f-416c-916b-7be9d153fea3","ios":"levelo://app?vid=cd0dce23-200f-416c-916b-7be9d153fea3"},"vehicle_type_id":"4","last_reported":1729447858,"current_range_meters":18800,"station_id":"","pricing_plan_id":"cebpf4jnsgd1na2vs0mg"},{"bike_id":"23115ac6-aff5-45af-87d0-ffdacdb28fd5","system_id":"levelo_inurba_marseille","lat":43.22929,"lon":5.35379,"is_reserved":false,"is_disabled":false,"rental_uris":{"android":"levelo://app?vid=23115ac6-aff5-45af-87d0-ffdacdb28fd5","ios":"levelo://app?vid=23115ac6-aff5-45af-87d0-ffdacdb28fd5"},"vehicle_type_id":"4","last_reported":1729447858,"current_range_meters":38800,"station_id":"cpo3532slgdg3j2ikp40","pricing_plan_id":"cebpf4jnsgd1na2vs0mg"},{"bike_id":"152751a1-3299-42f2-b764-a541e63e60bd","system_id":"levelo_inurba_marseille","lat":43.29462,"lon":5.39802,"is_reserved":false,"is_disabled":false,"rental_uris":{"android":"levelo://app?vid=152751a1-3299-42f2-b764-a541e63e60bd","ios":"levelo://app?vid=152751a1-3299-42f2-b764-a541e63e60bd"},"vehicle_type_id":"4","last_reported":1729447858,"current_range_meters":7200,"station_id":"ce4bh0h2rcd13ifvqd60","pricing_plan_id":"cebpf4jnsgd1na2vs0mg"},{"bike_id":"f497ad02-f90c-4bcb-890e-99f77f851a19","system_id":"levelo_inurba_marseille","lat":43.295414,"lon":5.393171,"is_reserved":false,"is_disabled":false,"rental_uris":{"android":"levelo://app?vid=f497ad02-f90c-4bcb-890e-99f77f851a19","ios":"levelo://app?vid=f497ad02-f90c-4bcb-890e-99f77f851a19"},"vehicle_type_id":"4","last_reported":1729447858,"current_range_meters":19600,"station_id":"ce4bh292rcd13ifvqdf0","pricing_plan_id":"cebpf4jnsgd1na2vs0mg"},{"bike_id":"c052e5f3-0f87-4988-9be5-74b491b82108","system_id":"levelo_inurba_marseille","lat":43.32482,"lon":5.36567,"is_reserved":false,"is_disabled":false,"rental_uris":{"android":"levelo://app?vid=c052e5f3-0f87-4988-9be5-74b491b82108","ios":"levelo://app?vid=c052e5f3-0f87-4988-9be5-74b491b82108"},"vehicle_type_id":"4","last_reported":1729447858,"current_range_meters":38800,"station_id":"ce4bhs12rcd13ifvqhvg","pricing_plan_id":"cebpf4jnsgd1na2vs0mg"},{"bike_id":"68810bec-e217-4e63-a344-b9bfbc43f890","system_id":"levelo_inurba_marseille","lat":43.28004,"lon":5.40005,"is_reserved":false,"is_disabled":false,"rental_uris":{"android":"levelo://app?vid=68810bec-e217-4e63-a344-b9bfbc43f890","ios":"levelo://app?vid=68810bec-e217-4e63-a344-b9bfbc43f890"},"vehicle_type_id":"4","last_reported":1729447858,"current_range_meters":12800,"station_id":"ce4bho92rcd13ifvqh4g","pricing_plan_id":"cebpf4jnsgd1na2vs0mg"},{"bike_id":"7689551e-cf78-4700-aa6f-c1a4c67043e7","system_id":"levelo_inurba_marseille","lat":43.29269,"lon":5.38452,"is_reserved":false,"is_disabled":false,"rental_uris":{"android":"levelo://app?vid=7689551e-cf78-4700-aa6f-c1a4c67043e7","ios":"levelo://app?vid=7689551e-cf78-4700-aa6f-c1a4c67043e7"},"vehicle_type_id":"4","last_reported":1729447858,"current_range_meters":30000,"station_id":"","pricing_plan_id":"cebpf4jnsgd1na2vs0mg"},{"bike_id":"ed55bd44-f193-40cd-b0d4-675f65e97e09","system_id":"levelo_inurba_marseille","lat":43.28614,"lon":5.35102,"is_reserved":false,"is_disabled":false,"rental_uris":{"android":"levelo://app?vid=ed55bd44-f193-40cd-b0d4-675f65e97e09","ios":"levelo://app?vid=ed55bd44-f193-40cd-b0d4-675f65e97e09"},"vehicle_type_id":"4","last_reported":1729447858,"current_range_meters":38800,"station_id":"ce4bhch2rcd13ifvqeug","pricing_plan_id":"cebpf4jnsgd1na2vs0mg"},{"bike_id":"43d24770-4ece-4a77-a029-fe46e9bde13b","system_id":"levelo_inurba_marseille","lat":43.31579,"lon":5.37426,"is_reserved":false,"is_disabled":false,"rental_uris":{"android":"levelo://app?vid=43d24770-4ece-4a77-a029-fe46e9bde13b","ios":"levelo://app?vid=43d24770-4ece-4a77-a029-fe46e9bde13b"},"vehicle_type_id":"4","last_reported":1729447858,"current_range_meters":36000,"station_id":"","pricing_plan_id":"cebpf4jnsgd1na2vs0mg"},{"bike_id":"9638ad47-6312-42d8-a475-3579cb20e4bb","system_id":"levelo_inurba_marseille","lat":43.28075,"lon":5.39657,"is_reserved":false,"is_disabled":false,"rental_uris":{"android":"levelo://app?vid=9638ad47-6312-42d8-a475-3579cb20e4bb","ios":"levelo://app?vid=9638ad47-6312-42d8-a475-3579cb20e4bb"},"vehicle_type_id":"4","last_reported":1729447858,"current_range_meters":17200,"station_id":"ce4bho12rcd13ifvqh2g","pricing_plan_id":"cebpf4jnsgd1na2vs0mg"},{"bike_id":"766da900-471d-42f5-8cfa-8db494f945d7","system_id":"levelo_inurba_marseille","lat":43.28923,"lon":5.4605,"is_reserved":false,"is_disabled":false,"rental_uris":{"android":"levelo://app?vid=766da900-471d-42f5-8cfa-8db494f945d7","ios":"levelo://app?vid=766da900-471d-42f5-8cfa-8db494f945d7"},"vehicle_type_id":"4","last_reported":1729447858,"current_range_meters":24000,"station_id":"","pricing_plan_id":"cebpf4jnsgd1na2vs0mg"},{"bike_id":"ea7d8fe4-14ce-418a-b42e-058e8e803ee8","system_id":"levelo_inurba_marseille","lat":43.29554,"lon":5.42294,"is_reserved":false,"is_disabled":false,"rental_uris":{"android":"levelo://app?vid=ea7d8fe4-14ce-418a-b42e-058e8e803ee8","ios":"levelo://app?vid=ea7d8fe4-14ce-418a-b42e-058e8e803ee8"},"vehicle_type_id":"4","last_reported":1729447858,"current_range_meters":14000,"station_id":"ce4bhph2rcd13ifvqhdg","pricing_plan_id":"cebpf4jnsgd1na2vs0mg"},{"bike_id":"6b0b00df-acb0-4528-adb6-b3172252b95b","system_id":"levelo_inurba_marseille","lat":43.28697,"lon":5.37389,"is_reserved":false,"is_disabled":false,"rental_uris":{"android":"levelo://app?vid=6b0b00df-acb0-4528-adb6-b3172252b95b","ios":"levelo://app?vid=6b0b00df-acb0-4528-adb6-b3172252b95b"},"vehicle_type_id":"4","last_reported":1729447858,"current_range_meters":16800,"station_id":"ce4bh3p2rcd13ifvqdq0","pricing_plan_id":"cebpf4jnsgd1na2vs0mg"},{"bike_id":"5008bc17-791c-414c-9653-98e7b0af1e45","system_id":"levelo_inurba_marseille","lat":43.286957,"lon":5.399856,"is_reserved":false,"is_disabled":false,"rental_uris":{"android":"levelo://app?vid=5008bc17-791c-414c-9653-98e7b0af1e45","ios":"levelo://app?vid=5008bc17-791c-414c-9653-98e7b0af1e45"},"vehicle_type_id":"4","last_reported":1729447858,"current_range_meters":8800,"station_id":"ce4bho92rcd13ifvqh3g","pricing_plan_id":"cebpf4jnsgd1na2vs0mg"},{"bike_id":"c47ccd47-d873-4fd2-ba35-77b6357180ca","system_id":"levelo_inurba_marseille","lat":43.28108,"lon":5.37844,"is_reserved":false,"is_disabled":false,"rental_uris":{"android":"levelo://app?vid=c47ccd47-d873-4fd2-ba35-77b6357180ca","ios":"levelo://app?vid=c47ccd47-d873-4fd2-ba35-77b6357180ca"},"vehicle_type_id":"4","last_reported":1729447858,"current_range_meters":8400,"station_id":"ce4bha12rcd13ifvqee0","pricing_plan_id":"cebpf4jnsgd1na2vs0mg"},{"bike_id":"4b0e1ae9-90da-4b3c-97a7-9fcaa6ea9192","system_id":"levelo_inurba_marseille","lat":43.28107,"lon":5.37843,"is_reserved":false,"is_disabled":false,"rental_uris":{"android":"levelo://app?vid=4b0e1ae9-90da-4b3c-97a7-9fcaa6ea9192","ios":"levelo://app?vid=4b0e1ae9-90da-4b3c-97a7-9fcaa6ea9192"},"vehicle_type_id":"4","last_reported":1729447858,"current_range_meters":38800,"station_id":"ce4bha12rcd13ifvqee0","pricing_plan_id":"cebpf4jnsgd1na2vs0mg"},{"bike_id":"d4bf2ead-1e2a-4e14-8d79-7dae82fa1165","system_id":"levelo_inurba_marseille","lat":43.24386,"lon":5.3706,"is_reserved":false,"is_disabled":false,"rental_uris":{"android":"levelo://app?vid=d4bf2ead-1e2a-4e14-8d79-7dae82fa1165","ios":"levelo://app?vid=d4bf2ead-1e2a-4e14-8d79-7dae82fa1165"},"vehicle_type_id":"4","last_reported":1729447858,"current_range_meters":37600,"station_id":"ce4bhhh2rcd13ifvqfk0","pricing_plan_id":"cebpf4jnsgd1na2vs0mg"},{"bike_id":"61f6fcba-0270-4e6f-bab2-fc32e0baeaf0","system_id":"levelo_inurba_marseille","lat":43.28101,"lon":5.3784,"is_reserved":false,"is_disabled":false,"rental_uris":{"android":"levelo://app?vid=61f6fcba-0270-4e6f-bab2-fc32e0baeaf0","ios":"levelo://app?vid=61f6fcba-0270-4e6f-bab2-fc32e0baeaf0"},"vehicle_type_id":"4","last_reported":1729447858,"current_range_meters":3200,"station_id":"ce4bha12rcd13ifvqee0","pricing_plan_id":"cebpf4jnsgd1na2vs0mg"},{"bike_id":"7772d39f-5e28-445c-af91-069b0cf63793","system_id":"levelo_inurba_marseille","lat":43.33765,"lon":5.37438,"is_reserved":false,"is_disabled":false,"rental_uris":{"android":"levelo://app?vid=7772d39f-5e28-445c-af91-069b0cf63793","ios":"levelo://app?vid=7772d39f-5e28-445c-af91-069b0cf63793"},"vehicle_type_id":"4","last_reported":1729447858,"current_range_meters":3600,"station_id":"","pricing_plan_id":"cebpf4jnsgd1na2vs0mg"},{"bike_id":"3213665e-989c-4d22-9f5a-31c8522597dd","system_id":"levelo_inurba_marseille","lat":43.296,"lon":5.36142,"is_reserved":false,"is_disabled":false,"rental_uris":{"android":"levelo://app?vid=3213665e-989c-4d22-9f5a-31c8522597dd","ios":"levelo://app?vid=3213665e-989c-4d22-9f5a-31c8522597dd"},"vehicle_type_id":"4","last_reported":1729447858,"current_range_meters":14000,"station_id":"","pricing_plan_id":"cebpf4jnsgd1na2vs0mg"},{"bike_id":"734db42b-7bc5-479a-827e-f011d8f02e17","system_id":"levelo_inurba_marseille","lat":43.3091,"lon":5.3685,"is_reserved":false,"is_disabled":false,"rental_uris":{"android":"levelo://app?vid=734db42b-7bc5-479a-827e-f011d8f02e17","ios":"levelo://app?vid=734db42b-7bc5-479a-827e-f011d8f02e17"},"vehicle_type_id":"4","last_reported":1729447858,"current_range_meters":7200,"station_id":"ce4bgn92rcd13ifvqbvg","pricing_plan_id":"cebpf4jnsgd1na2vs0mg"},{"bike_id":"9a2117f0-c5b0-4dc2-891b-026a24af23f1","system_id":"levelo_inurba_marseille","lat":43.3105,"lon":5.40092,"is_reserved":false,"is_disabled":false,"rental_uris":{"android":"levelo://app?vid=9a2117f0-c5b0-4dc2-891b-026a24af23f1","ios":"levelo://app?vid=9a2117f0-c5b0-4dc2-891b-026a24af23f1"},"vehicle_type_id":"4","last_reported":1729447858,"current_range_meters":34800,"station_id":"","pricing_plan_id":"cebpf4jnsgd1na2vs0mg"},{"bike_id":"2d3f3959-1f1e-4500-90dc-cd8999540bc5","system_id":"levelo_inurba_marseille","lat":43.284668,"lon":5.359044,"is_reserved":false,"is_disabled":false,"rental_uris":{"android":"levelo://app?vid=2d3f3959-1f1e-4500-90dc-cd8999540bc5","ios":"levelo://app?vid=2d3f3959-1f1e-4500-90dc-cd8999540bc5"},"vehicle_type_id":"4","last_reported":1729447858,"current_range_meters":31200,"station_id":"ce4bhah2rcd13ifvqei0","pricing_plan_id":"cebpf4jnsgd1na2vs0mg"},{"bike_id":"73d78891-9dfe-427e-b3a6-94c33e463c8a","system_id":"levelo_inurba_marseille","lat":43.29176,"lon":5.37163,"is_reserved":false,"is_disabled":false,"rental_uris":{"android":"levelo://app?vid=73d78891-9dfe-427e-b3a6-94c33e463c8a","ios":"levelo://app?vid=73d78891-9dfe-427e-b3a6-94c33e463c8a"},"vehicle_type_id":"4","last_reported":1729447858,"current_range_meters":24800,"station_id":"ce4bha92rcd13ifvqeh0","pricing_plan_id":"cebpf4jnsgd1na2vs0mg"},{"bike_id":"02e82419-164b-4ade-942f-ef3b2eaf58b8","system_id":"levelo_inurba_marseille","lat":43.26062,"lon":5.394,"is_reserved":false,"is_disabled":false,"rental_uris":{"android":"levelo://app?vid=02e82419-164b-4ade-942f-ef3b2eaf58b8","ios":"levelo://app?vid=02e82419-164b-4ade-942f-ef3b2eaf58b8"},"vehicle_type_id":"4","last_reported":1729447858,"current_range_meters":28400,"station_id":"ce4bhh92rcd13ifvqfj0","pricing_plan_id":"cebpf4jnsgd1na2vs0mg"},{"bike_id":"250a7653-6d32-4d58-8d5c-09afc2558346","system_id":"levelo_inurba_marseille","lat":43.27915,"lon":5.39579,"is_reserved":false,"is_disabled":false,"rental_uris":{"android":"levelo://app?vid=250a7653-6d32-4d58-8d5c-09afc2558346","ios":"levelo://app?vid=250a7653-6d32-4d58-8d5c-09afc2558346"},"vehicle_type_id":"4","last_reported":1729447858,"current_range_meters":36400,"station_id":"ce4bhf92rcd13ifvqf40","pricing_plan_id":"cebpf4jnsgd1na2vs0mg"},{"bike_id":"9a330133-5a6c-4acd-8ae9-f70f61afed7d","system_id":"levelo_inurba_marseille","lat":43.2439,"lon":5.37071,"is_reserved":false,"is_disabled":false,"rental_uris":{"android":"levelo://app?vid=9a330133-5a6c-4acd-8ae9-f70f61afed7d","ios":"levelo://app?vid=9a330133-5a6c-4acd-8ae9-f70f61afed7d"},"vehicle_type_id":"4","last_reported":1729447858,"current_range_meters":38800,"station_id":"ce4bhhh2rcd13ifvqfk0","pricing_plan_id":"cebpf4jnsgd1na2vs0mg"},{"bike_id":"4e9aba8b-8e3e-49a5-9386-986a6dd6ba25","system_id":"levelo_inurba_marseille","lat":43.31888,"lon":5.40734,"is_reserved":false,"is_disabled":false,"rental_uris":{"android":"levelo://app?vid=4e9aba8b-8e3e-49a5-9386-986a6dd6ba25","ios":"levelo://app?vid=4e9aba8b-8e3e-49a5-9386-986a6dd6ba25"},"vehicle_type_id":"4","last_reported":1729447858,"current_range_meters":20800,"station_id":"ce4bhq12rcd13ifvqhig","pricing_plan_id":"cebpf4jnsgd1na2vs0mg"},{"bike_id":"b52905e7-a4a3-4306-a8d5-19b43b8577aa","system_id":"levelo_inurba_marseille","lat":43.24806,"lon":5.3746,"is_reserved":false,"is_disabled":false,"rental_uris":{"android":"levelo://app?vid=b52905e7-a4a3-4306-a8d5-19b43b8577aa","ios":"levelo://app?vid=b52905e7-a4a3-4306-a8d5-19b43b8577aa"},"vehicle_type_id":"4","last_reported":1729447858,"current_range_meters":37600,"station_id":"ce4bhgh2rcd13ifvqfb0","pricing_plan_id":"cebpf4jnsgd1na2vs0mg"},{"bike_id":"4705b570-e7ad-4412-ab96-e2d0fef4bcc9","system_id":"levelo_inurba_marseille","lat":43.33023,"lon":5.39043,"is_reserved":false,"is_disabled":false,"rental_uris":{"android":"levelo://app?vid=4705b570-e7ad-4412-ab96-e2d0fef4bcc9","ios":"levelo://app?vid=4705b570-e7ad-4412-ab96-e2d0fef4bcc9"},"vehicle_type_id":"4","last_reported":1729447858,"current_range_meters":16400,"station_id":"ce4bhr92rcd13ifvqhrg","pricing_plan_id":"cebpf4jnsgd1na2vs0mg"},{"bike_id":"97fdba5f-3bb5-47f2-898a-370321813edd","system_id":"levelo_inurba_marseille","lat":43.29266,"lon":5.3845,"is_reserved":false,"is_disabled":false,"rental_uris":{"android":"levelo://app?vid=97fdba5f-3bb5-47f2-898a-370321813edd","ios":"levelo://app?vid=97fdba5f-3bb5-47f2-898a-370321813edd"},"vehicle_type_id":"4","last_reported":1729447858,"current_range_meters":6800,"station_id":"","pricing_plan_id":"cebpf4jnsgd1na2vs0mg"},{"bike_id":"1d2695c8-3016-4489-8887-07224162d32a","system_id":"levelo_inurba_marseille","lat":43.298676,"lon":5.397304,"is_reserved":false,"is_disabled":false,"rental_uris":{"android":"levelo://app?vid=1d2695c8-3016-4489-8887-07224162d32a","ios":"levelo://app?vid=1d2695c8-3016-4489-8887-07224162d32a"},"vehicle_type_id":"4","last_reported":1729447858,"current_range_meters":15200,"station_id":"ce4bh0h2rcd13ifvqd50","pricing_plan_id":"cebpf4jnsgd1na2vs0mg"},{"bike_id":"1e9a6bd1-346d-424d-a962-b95ae6e303c5","system_id":"levelo_inurba_marseille","lat":43.26194,"lon":5.37451,"is_reserved":false,"is_disabled":false,"rental_uris":{"android":"levelo://app?vid=1e9a6bd1-346d-424d-a962-b95ae6e303c5","ios":"levelo://app?vid=1e9a6bd1-346d-424d-a962-b95ae6e303c5"},"vehicle_type_id":"4","last_reported":1729447858,"current_range_meters":37600,"station_id":"ce4bhgp2rcd13ifvqfc0","pricing_plan_id":"cebpf4jnsgd1na2vs0mg"},{"bike_id":"33e1c507-545d-4920-8067-97f15b4b35aa","system_id":"levelo_inurba_marseille","lat":43.27812,"lon":5.40715,"is_reserved":false,"is_disabled":false,"rental_uris":{"android":"levelo://app?vid=33e1c507-545d-4920-8067-97f15b4b35aa","ios":"levelo://app?vid=33e1c507-545d-4920-8067-97f15b4b35aa"},"vehicle_type_id":"4","last_reported":1729447858,"current_range_meters":2800,"station_id":"ce4bhnh2rcd13ifvqgtg","pricing_plan_id":"cebpf4jnsgd1na2vs0mg"},{"bike_id":"fb8cede0-5f49-49e1-aaf1-f97f7864fb33","system_id":"levelo_inurba_marseille","lat":43.32622,"lon":5.38895,"is_reserved":false,"is_disabled":false,"rental_uris":{"android":"levelo://app?vid=fb8cede0-5f49-49e1-aaf1-f97f7864fb33","ios":"levelo://app?vid=fb8cede0-5f49-49e1-aaf1-f97f7864fb33"},"vehicle_type_id":"4","last_reported":1729447858,"current_range_meters":32800,"station_id":"","pricing_plan_id":"cebpf4jnsgd1na2vs0mg"},{"bike_id":"9244f228-8d2f-4d1f-b095-cef371ce39d7","system_id":"levelo_inurba_marseille","lat":43.29966,"lon":5.38499,"is_reserved":false,"is_disabled":false,"rental_uris":{"android":"levelo://app?vid=9244f228-8d2f-4d1f-b095-cef371ce39d7","ios":"levelo://app?vid=9244f228-8d2f-4d1f-b095-cef371ce39d7"},"vehicle_type_id":"4","last_reported":1729447858,"current_range_meters":17600,"station_id":"ce4bgj92rcd13ifvqbd0","pricing_plan_id":"cebpf4jnsgd1na2vs0mg"},{"bike_id":"4cf3e5d8-4f9a-4007-b965-622ecd99339e","system_id":"levelo_inurba_marseille","lat":43.31074,"lon":5.40085,"is_reserved":false,"is_disabled":false,"rental_uris":{"android":"levelo://app?vid=4cf3e5d8-4f9a-4007-b965-622ecd99339e","ios":"levelo://app?vid=4cf3e5d8-4f9a-4007-b965-622ecd99339e"},"vehicle_type_id":"4","last_reported":1729447858,"current_range_meters":8000,"station_id":"","pricing_plan_id":"cebpf4jnsgd1na2vs0mg"},{"bike_id":"70e90404-4a28-4e76-ad71-62665847983f","system_id":"levelo_inurba_marseille","lat":43.27812,"lon":5.40719,"is_reserved":false,"is_disabled":false,"rental_uris":{"android":"levelo://app?vid=70e90404-4a28-4e76-ad71-62665847983f","ios":"levelo://app?vid=70e90404-4a28-4e76-ad71-62665847983f"},"vehicle_type_id":"4","last_reported":1729447858,"current_range_meters":6000,"station_id":"ce4bhnh2rcd13ifvqgtg","pricing_plan_id":"cebpf4jnsgd1na2vs0mg"},{"bike_id":"354c2de1-d965-4db3-8277-293b8cf1a0cb","system_id":"levelo_inurba_marseille","lat":43.29037,"lon":5.39966,"is_reserved":false,"is_disabled":false,"rental_uris":{"android":"levelo://app?vid=354c2de1-d965-4db3-8277-293b8cf1a0cb","ios":"levelo://app?vid=354c2de1-d965-4db3-8277-293b8cf1a0cb"},"vehicle_type_id":"4","last_reported":1729447858,"current_range_meters":16400,"station_id":"ce4bh392rcd13ifvqdm0","pricing_plan_id":"cebpf4jnsgd1na2vs0mg"},{"bike_id":"f660eed7-e867-4571-b0bb-6f3c6dd21255","system_id":"levelo_inurba_marseille","lat":43.25582,"lon":5.38229,"is_reserved":false,"is_disabled":false,"rental_uris":{"android":"levelo://app?vid=f660eed7-e867-4571-b0bb-6f3c6dd21255","ios":"levelo://app?vid=f660eed7-e867-4571-b0bb-6f3c6dd21255"},"vehicle_type_id":"4","last_reported":1729447858,"current_range_meters":14800,"station_id":"ce4bhih2rcd13ifvqfs0","pricing_plan_id":"cebpf4jnsgd1na2vs0mg"},{"bike_id":"84a0ecdc-7db3-4fcf-8d20-720f0dc598fa","system_id":"levelo_inurba_marseille","lat":43.25125,"lon":5.4032,"is_reserved":false,"is_disabled":false,"rental_uris":{"android":"levelo://app?vid=84a0ecdc-7db3-4fcf-8d20-720f0dc598fa","ios":"levelo://app?vid=84a0ecdc-7db3-4fcf-8d20-720f0dc598fa"},"vehicle_type_id":"4","last_reported":1729447858,"current_range_meters":12400,"station_id":"","pricing_plan_id":"cebpf4jnsgd1na2vs0mg"},{"bike_id":"adfe497e-a782-421f-b161-c91c9788d23d","system_id":"levelo_inurba_marseille","lat":43.28616,"lon":5.351,"is_reserved":false,"is_disabled":false,"rental_uris":{"android":"levelo://app?vid=adfe497e-a782-421f-b161-c91c9788d23d","ios":"levelo://app?vid=adfe497e-a782-421f-b161-c91c9788d23d"},"vehicle_type_id":"4","last_reported":1729447858,"current_range_meters":38800,"station_id":"ce4bhch2rcd13ifvqeug","pricing_plan_id":"cebpf4jnsgd1na2vs0mg"},{"bike_id":"39b890a2-ddde-4058-a8d9-d071ec9e2f4e","system_id":"levelo_inurba_marseille","lat":43.26938,"lon":5.4025,"is_reserved":false,"is_disabled":false,"rental_uris":{"android":"levelo://app?vid=39b890a2-ddde-4058-a8d9-d071ec9e2f4e","ios":"levelo://app?vid=39b890a2-ddde-4058-a8d9-d071ec9e2f4e"},"vehicle_type_id":"4","last_reported":1729447858,"current_range_meters":1600,"station_id":"ce4bhl12rcd13ifvqgf0","pricing_plan_id":"cebpf4jnsgd1na2vs0mg"},{"bike_id":"6b578d3c-d134-48e2-9662-c2d97d97ea58","system_id":"levelo_inurba_marseille","lat":43.31997,"lon":5.38156,"is_reserved":false,"is_disabled":false,"rental_uris":{"android":"levelo://app?vid=6b578d3c-d134-48e2-9662-c2d97d97ea58","ios":"levelo://app?vid=6b578d3c-d134-48e2-9662-c2d97d97ea58"},"vehicle_type_id":"4","last_reported":1729447858,"current_range_meters":37600,"station_id":"ce4bhr12rcd13ifvqhpg","pricing_plan_id":"cebpf4jnsgd1na2vs0mg"},{"bike_id":"6a00f9c2-511c-44e1-9077-a902516d7ac7","system_id":"levelo_inurba_marseille","lat":43.26891,"lon":5.38851,"is_reserved":false,"is_disabled":false,"rental_uris":{"android":"levelo://app?vid=6a00f9c2-511c-44e1-9077-a902516d7ac7","ios":"levelo://app?vid=6a00f9c2-511c-44e1-9077-a902516d7ac7"},"vehicle_type_id":"4","last_reported":1729447858,"current_range_meters":2000,"station_id":"","pricing_plan_id":"cebpf4jnsgd1na2vs0mg"},{"bike_id":"813f8a68-8dee-42ee-821c-e07a4137856f","system_id":"levelo_inurba_marseille","lat":43.27902,"lon":5.38019,"is_reserved":false,"is_disabled":false,"rental_uris":{"android":"levelo://app?vid=813f8a68-8dee-42ee-821c-e07a4137856f","ios":"levelo://app?vid=813f8a68-8dee-42ee-821c-e07a4137856f"},"vehicle_type_id":"4","last_reported":1729447858,"current_range_meters":12800,"station_id":"ce4bhf92rcd13ifvqf50","pricing_plan_id":"cebpf4jnsgd1na2vs0mg"},{"bike_id":"c9c34558-73db-41e0-8452-915b2bb67cd5","system_id":"levelo_inurba_marseille","lat":43.29438,"lon":5.39745,"is_reserved":false,"is_disabled":false,"rental_uris":{"android":"levelo://app?vid=c9c34558-73db-41e0-8452-915b2bb67cd5","ios":"levelo://app?vid=c9c34558-73db-41e0-8452-915b2bb67cd5"},"vehicle_type_id":"4","last_reported":1729447858,"current_range_meters":8800,"station_id":"ce4bh3h2rcd13ifvqdo0","pricing_plan_id":"cebpf4jnsgd1na2vs0mg"},{"bike_id":"f3b18d4c-688e-4e02-9104-7f1d559134af","system_id":"levelo_inurba_marseille","lat":43.32107,"lon":5.36773,"is_reserved":false,"is_disabled":false,"rental_uris":{"android":"levelo://app?vid=f3b18d4c-688e-4e02-9104-7f1d559134af","ios":"levelo://app?vid=f3b18d4c-688e-4e02-9104-7f1d559134af"},"vehicle_type_id":"4","last_reported":1729447858,"current_range_meters":35600,"station_id":"ce4bhrh2rcd13ifvqhug","pricing_plan_id":"cebpf4jnsgd1na2vs0mg"},{"bike_id":"9a4b4b30-eb1c-4e87-81f8-94257e3f315d","system_id":"levelo_inurba_marseille","lat":43.29964,"lon":5.38497,"is_reserved":false,"is_disabled":false,"rental_uris":{"android":"levelo://app?vid=9a4b4b30-eb1c-4e87-81f8-94257e3f315d","ios":"levelo://app?vid=9a4b4b30-eb1c-4e87-81f8-94257e3f315d"},"vehicle_type_id":"4","last_reported":1729447858,"current_range_meters":37600,"station_id":"ce4bgj92rcd13ifvqbd0","pricing_plan_id":"cebpf4jnsgd1na2vs0mg"},{"bike_id":"2d09f35d-03f6-4bf1-b34a-402963317d2d","system_id":"levelo_inurba_marseille","lat":43.23956,"lon":5.36632,"is_reserved":false,"is_disabled":false,"rental_uris":{"android":"levelo://app?vid=2d09f35d-03f6-4bf1-b34a-402963317d2d","ios":"levelo://app?vid=2d09f35d-03f6-4bf1-b34a-402963317d2d"},"vehicle_type_id":"4","last_reported":1729447858,"current_range_meters":8000,"station_id":"ce4bhi12rcd13ifvqfp0","pricing_plan_id":"cebpf4jnsgd1na2vs0mg"},{"bike_id":"d50846b8-d650-4f6b-aff9-024d59214a50","system_id":"levelo_inurba_marseille","lat":43.26802,"lon":5.40269,"is_reserved":false,"is_disabled":false,"rental_uris":{"android":"levelo://app?vid=d50846b8-d650-4f6b-aff9-024d59214a50","ios":"levelo://app?vid=d50846b8-d650-4f6b-aff9-024d59214a50"},"vehicle_type_id":"4","last_reported":1729447858,"current_range_meters":15200,"station_id":"ce501612rcd8frsf0b60","pricing_plan_id":"cebpf4jnsgd1na2vs0mg"},{"bike_id":"1b2614e0-2eaf-4b54-8f84-71b7fa9a31f1","system_id":"levelo_inurba_marseille","lat":43.291656,"lon":5.371497,"is_reserved":false,"is_disabled":false,"rental_uris":{"android":"levelo://app?vid=1b2614e0-2eaf-4b54-8f84-71b7fa9a31f1","ios":"levelo://app?vid=1b2614e0-2eaf-4b54-8f84-71b7fa9a31f1"},"vehicle_type_id":"4","last_reported":1729447858,"current_range_meters":12000,"station_id":"ce4bha92rcd13ifvqeh0","pricing_plan_id":"cebpf4jnsgd1na2vs0mg"},{"bike_id":"3378b6e5-5b5d-448c-8789-a565486977c2","system_id":"levelo_inurba_marseille","lat":43.31371,"lon":5.38494,"is_reserved":false,"is_disabled":false,"rental_uris":{"android":"levelo://app?vid=3378b6e5-5b5d-448c-8789-a565486977c2","ios":"levelo://app?vid=3378b6e5-5b5d-448c-8789-a565486977c2"},"vehicle_type_id":"4","last_reported":1729447858,"current_range_meters":9200,"station_id":"ce4bgt92rcd13ifvqcf0","pricing_plan_id":"cebpf4jnsgd1na2vs0mg"},{"bike_id":"4e310d98-a68b-4cce-a1d7-546acd1661be","system_id":"levelo_inurba_marseille","lat":43.31076,"lon":5.3836,"is_reserved":false,"is_disabled":false,"rental_uris":{"android":"levelo://app?vid=4e310d98-a68b-4cce-a1d7-546acd1661be","ios":"levelo://app?vid=4e310d98-a68b-4cce-a1d7-546acd1661be"},"vehicle_type_id":"4","last_reported":1729447858,"current_range_meters":2800,"station_id":"ce4bgv92rcd13ifvqcr0","pricing_plan_id":"cebpf4jnsgd1na2vs0mg"},{"bike_id":"2f50ff88-fdb4-4ff4-abd3-de03676fe2e2","system_id":"levelo_inurba_marseille","lat":43.29548,"lon":5.39403,"is_reserved":false,"is_disabled":false,"rental_uris":{"android":"levelo://app?vid=2f50ff88-fdb4-4ff4-abd3-de03676fe2e2","ios":"levelo://app?vid=2f50ff88-fdb4-4ff4-abd3-de03676fe2e2"},"vehicle_type_id":"4","last_reported":1729447858,"current_range_meters":28800,"station_id":"ce4bh292rcd13ifvqdf0","pricing_plan_id":"cebpf4jnsgd1na2vs0mg"},{"bike_id":"f6585404-70eb-4645-9bed-6119869e60b1","system_id":"levelo_inurba_marseille","lat":43.28413,"lon":5.37517,"is_reserved":false,"is_disabled":false,"rental_uris":{"android":"levelo://app?vid=f6585404-70eb-4645-9bed-6119869e60b1","ios":"levelo://app?vid=f6585404-70eb-4645-9bed-6119869e60b1"},"vehicle_type_id":"4","last_reported":1729447858,"current_range_meters":32000,"station_id":"ce4bh412rcd13ifvqds0","pricing_plan_id":"cebpf4jnsgd1na2vs0mg"},{"bike_id":"40d979df-a707-4997-8931-db20f04bc020","system_id":"levelo_inurba_marseille","lat":43.27441,"lon":5.3941,"is_reserved":false,"is_disabled":false,"rental_uris":{"android":"levelo://app?vid=40d979df-a707-4997-8931-db20f04bc020","ios":"levelo://app?vid=40d979df-a707-4997-8931-db20f04bc020"},"vehicle_type_id":"4","last_reported":1729447858,"current_range_meters":9200,"station_id":"ce4bhq12rcd13ifvqhhg","pricing_plan_id":"cebpf4jnsgd1na2vs0mg"},{"bike_id":"a25ade6d-68cf-4f9a-af18-693934c2fb40","system_id":"levelo_inurba_marseille","lat":43.2767,"lon":5.38906,"is_reserved":false,"is_disabled":false,"rental_uris":{"android":"levelo://app?vid=a25ade6d-68cf-4f9a-af18-693934c2fb40","ios":"levelo://app?vid=a25ade6d-68cf-4f9a-af18-693934c2fb40"},"vehicle_type_id":"4","last_reported":1729447858,"current_range_meters":30400,"station_id":"ce4bhi12rcd13ifvqfo0","pricing_plan_id":"cebpf4jnsgd1na2vs0mg"},{"bike_id":"1c944d69-c0e9-429a-9c84-b0629b131f68","system_id":"levelo_inurba_marseille","lat":43.31754,"lon":5.39023,"is_reserved":false,"is_disabled":false,"rental_uris":{"android":"levelo://app?vid=1c944d69-c0e9-429a-9c84-b0629b131f68","ios":"levelo://app?vid=1c944d69-c0e9-429a-9c84-b0629b131f68"},"vehicle_type_id":"4","last_reported":1729447858,"current_range_meters":21600,"station_id":"ce4bhqp2rcd13ifvqhng","pricing_plan_id":"cebpf4jnsgd1na2vs0mg"},{"bike_id":"971f9495-49d8-4587-86d0-762411a58893","system_id":"levelo_inurba_marseille","lat":43.3171,"lon":5.43706,"is_reserved":false,"is_disabled":false,"rental_uris":{"android":"levelo://app?vid=971f9495-49d8-4587-86d0-762411a58893","ios":"levelo://app?vid=971f9495-49d8-4587-86d0-762411a58893"},"vehicle_type_id":"4","last_reported":1729447858,"current_range_meters":4400,"station_id":"ce4bhp92rcd13ifvqhcg","pricing_plan_id":"cebpf4jnsgd1na2vs0mg"},{"bike_id":"92d49266-4e64-4017-8b59-4b1b0cb8630d","system_id":"levelo_inurba_marseille","lat":43.31707,"lon":5.37743,"is_reserved":false,"is_disabled":false,"rental_uris":{"android":"levelo://app?vid=92d49266-4e64-4017-8b59-4b1b0cb8630d","ios":"levelo://app?vid=92d49266-4e64-4017-8b59-4b1b0cb8630d"},"vehicle_type_id":"4","last_reported":1729447858,"current_range_meters":38800,"station_id":"ce4bgth2rcd13ifvqch0","pricing_plan_id":"cebpf4jnsgd1na2vs0mg"},{"bike_id":"062d7c3a-1272-4341-a48b-68ea8f08eecb","system_id":"levelo_inurba_marseille","lat":43.29531,"lon":5.3904,"is_reserved":false,"is_disabled":false,"rental_uris":{"android":"levelo://app?vid=062d7c3a-1272-4341-a48b-68ea8f08eecb","ios":"levelo://app?vid=062d7c3a-1272-4341-a48b-68ea8f08eecb"},"vehicle_type_id":"4","last_reported":1729447858,"current_range_meters":36400,"station_id":"ce4bh3p2rcd13ifvqdp0","pricing_plan_id":"cebpf4jnsgd1na2vs0mg"},{"bike_id":"c66f8850-9c95-4f53-81e3-b87d891c54e5","system_id":"levelo_inurba_marseille","lat":43.287781,"lon":5.362264,"is_reserved":false,"is_disabled":false,"rental_uris":{"android":"levelo://app?vid=c66f8850-9c95-4f53-81e3-b87d891c54e5","ios":"levelo://app?vid=c66f8850-9c95-4f53-81e3-b87d891c54e5"},"vehicle_type_id":"4","last_reported":1729447858,"current_range_meters":14400,"station_id":"cki0cbj6b192h4jlfktg","pricing_plan_id":"cebpf4jnsgd1na2vs0mg"},{"bike_id":"19fb04ed-dbaf-452c-9b58-d39a0cf3f532","system_id":"levelo_inurba_marseille","lat":43.27208,"lon":5.39184,"is_reserved":false,"is_disabled":false,"rental_uris":{"android":"levelo://app?vid=19fb04ed-dbaf-452c-9b58-d39a0cf3f532","ios":"levelo://app?vid=19fb04ed-dbaf-452c-9b58-d39a0cf3f532"},"vehicle_type_id":"4","last_reported":1729447858,"current_range_meters":17600,"station_id":"ce4bhhp2rcd13ifvqfm0","pricing_plan_id":"cebpf4jnsgd1na2vs0mg"},{"bike_id":"24160dc2-e7cf-4d83-b80d-464b8e940f90","system_id":"levelo_inurba_marseille","lat":43.28721,"lon":5.37953,"is_reserved":false,"is_disabled":false,"rental_uris":{"android":"levelo://app?vid=24160dc2-e7cf-4d83-b80d-464b8e940f90","ios":"levelo://app?vid=24160dc2-e7cf-4d83-b80d-464b8e940f90"},"vehicle_type_id":"4","last_reported":1729447858,"current_range_meters":38800,"station_id":"ce4bh9p2rcd13ifvqec0","pricing_plan_id":"cebpf4jnsgd1na2vs0mg"},{"bike_id":"aa2fe81c-c268-45c0-b432-8c55adf7ed03","system_id":"levelo_inurba_marseille","lat":43.30147,"lon":5.39862,"is_reserved":false,"is_disabled":false,"rental_uris":{"android":"levelo://app?vid=aa2fe81c-c268-45c0-b432-8c55adf7ed03","ios":"levelo://app?vid=aa2fe81c-c268-45c0-b432-8c55adf7ed03"},"vehicle_type_id":"4","last_reported":1729447858,"current_range_meters":38000,"station_id":"ce4bh0h2rcd13ifvqd40","pricing_plan_id":"cebpf4jnsgd1na2vs0mg"},{"bike_id":"92f3d4e8-b317-434d-bb63-8e88f2029524","system_id":"levelo_inurba_marseille","lat":43.32282,"lon":5.38282,"is_reserved":false,"is_disabled":false,"rental_uris":{"android":"levelo://app?vid=92f3d4e8-b317-434d-bb63-8e88f2029524","ios":"levelo://app?vid=92f3d4e8-b317-434d-bb63-8e88f2029524"},"vehicle_type_id":"4","last_reported":1729447858,"current_range_meters":4000,"station_id":"ce4bhr12rcd13ifvqhqg","pricing_plan_id":"cebpf4jnsgd1na2vs0mg"},{"bike_id":"09c742b9-67aa-44f1-b833-7cf3d42021e8","system_id":"levelo_inurba_marseille","lat":43.25572,"lon":5.38231,"is_reserved":false,"is_disabled":false,"rental_uris":{"android":"levelo://app?vid=09c742b9-67aa-44f1-b833-7cf3d42021e8","ios":"levelo://app?vid=09c742b9-67aa-44f1-b833-7cf3d42021e8"},"vehicle_type_id":"4","last_reported":1729447858,"current_range_meters":36800,"station_id":"ce4bhih2rcd13ifvqfs0","pricing_plan_id":"cebpf4jnsgd1na2vs0mg"},{"bike_id":"1d045b29-4da5-4417-9986-d082ac81c662","system_id":"levelo_inurba_marseille","lat":43.29258,"lon":5.38436,"is_reserved":false,"is_disabled":false,"rental_uris":{"android":"levelo://app?vid=1d045b29-4da5-4417-9986-d082ac81c662","ios":"levelo://app?vid=1d045b29-4da5-4417-9986-d082ac81c662"},"vehicle_type_id":"4","last_reported":1729447858,"current_range_meters":25200,"station_id":"","pricing_plan_id":"cebpf4jnsgd1na2vs0mg"},{"bike_id":"304e116c-22b7-4fec-8df3-5316f5ceb0f4","system_id":"levelo_inurba_marseille","lat":43.33729,"lon":5.3919,"is_reserved":false,"is_disabled":false,"rental_uris":{"android":"levelo://app?vid=304e116c-22b7-4fec-8df3-5316f5ceb0f4","ios":"levelo://app?vid=304e116c-22b7-4fec-8df3-5316f5ceb0f4"},"vehicle_type_id":"4","last_reported":1729447858,"current_range_meters":27600,"station_id":"ce4bhr92rcd13ifvqhsg","pricing_plan_id":"cebpf4jnsgd1na2vs0mg"},{"bike_id":"a584cd5f-5ece-4a95-955b-f95d8b29cb44","system_id":"levelo_inurba_marseille","lat":43.31481,"lon":5.37309,"is_reserved":false,"is_disabled":false,"rental_uris":{"android":"levelo://app?vid=a584cd5f-5ece-4a95-955b-f95d8b29cb44","ios":"levelo://app?vid=a584cd5f-5ece-4a95-955b-f95d8b29cb44"},"vehicle_type_id":"4","last_reported":1729447858,"current_range_meters":3600,"station_id":"ce4bgt12rcd13ifvqcd0","pricing_plan_id":"cebpf4jnsgd1na2vs0mg"},{"bike_id":"937fa441-2238-4c25-945e-cd090c3e19fe","system_id":"levelo_inurba_marseille","lat":43.251129,"lon":5.403182,"is_reserved":false,"is_disabled":false,"rental_uris":{"android":"levelo://app?vid=937fa441-2238-4c25-945e-cd090c3e19fe","ios":"levelo://app?vid=937fa441-2238-4c25-945e-cd090c3e19fe"},"vehicle_type_id":"4","last_reported":1729447858,"current_range_meters":4000,"station_id":"ce4bhlh2rcd13ifvqgig","pricing_plan_id":"cebpf4jnsgd1na2vs0mg"},{"bike_id":"9eeeec97-7fbd-4ca1-8cf9-241fe8af7824","system_id":"levelo_inurba_marseille","lat":43.29793,"lon":5.38104,"is_reserved":false,"is_disabled":false,"rental_uris":{"android":"levelo://app?vid=9eeeec97-7fbd-4ca1-8cf9-241fe8af7824","ios":"levelo://app?vid=9eeeec97-7fbd-4ca1-8cf9-241fe8af7824"},"vehicle_type_id":"4","last_reported":1729447858,"current_range_meters":38800,"station_id":"ce4bgip2rcd13ifvqbb0","pricing_plan_id":"cebpf4jnsgd1na2vs0mg"},{"bike_id":"09907c22-dfda-45de-9b95-04e49f35ec94","system_id":"levelo_inurba_marseille","lat":43.281738,"lon":5.395436,"is_reserved":false,"is_disabled":false,"rental_uris":{"android":"levelo://app?vid=09907c22-dfda-45de-9b95-04e49f35ec94","ios":"levelo://app?vid=09907c22-dfda-45de-9b95-04e49f35ec94"},"vehicle_type_id":"4","last_reported":1729447858,"current_range_meters":12400,"station_id":"ce4bho12rcd13ifvqh2g","pricing_plan_id":"cebpf4jnsgd1na2vs0mg"},{"bike_id":"b09bbd31-c50a-4641-9d52-bcc19babae8c","system_id":"levelo_inurba_marseille","lat":43.29269,"lon":5.38445,"is_reserved":false,"is_disabled":false,"rental_uris":{"android":"levelo://app?vid=b09bbd31-c50a-4641-9d52-bcc19babae8c","ios":"levelo://app?vid=b09bbd31-c50a-4641-9d52-bcc19babae8c"},"vehicle_type_id":"4","last_reported":1729447858,"current_range_meters":20000,"station_id":"","pricing_plan_id":"cebpf4jnsgd1na2vs0mg"},{"bike_id":"a58f24a1-8966-4798-a8a6-ca5667bcda3c","system_id":"levelo_inurba_marseille","lat":43.30599,"lon":5.37232,"is_reserved":false,"is_disabled":false,"rental_uris":{"android":"levelo://app?vid=a58f24a1-8966-4798-a8a6-ca5667bcda3c","ios":"levelo://app?vid=a58f24a1-8966-4798-a8a6-ca5667bcda3c"},"vehicle_type_id":"4","last_reported":1729447858,"current_range_meters":39200,"station_id":"ce4bgqh2rcd13ifvqc4g","pricing_plan_id":"cebpf4jnsgd1na2vs0mg"},{"bike_id":"710a403c-c37a-49d8-8233-2367ca73ab9f","system_id":"levelo_inurba_marseille","lat":43.33023,"lon":5.39038,"is_reserved":false,"is_disabled":false,"rental_uris":{"android":"levelo://app?vid=710a403c-c37a-49d8-8233-2367ca73ab9f","ios":"levelo://app?vid=710a403c-c37a-49d8-8233-2367ca73ab9f"},"vehicle_type_id":"4","last_reported":1729447858,"current_range_meters":6000,"station_id":"ce4bhr92rcd13ifvqhrg","pricing_plan_id":"cebpf4jnsgd1na2vs0mg"},{"bike_id":"34e14057-92e8-41b7-a23e-a6666612dd28","system_id":"levelo_inurba_marseille","lat":43.25139,"lon":5.4031,"is_reserved":false,"is_disabled":false,"rental_uris":{"android":"levelo://app?vid=34e14057-92e8-41b7-a23e-a6666612dd28","ios":"levelo://app?vid=34e14057-92e8-41b7-a23e-a6666612dd28"},"vehicle_type_id":"4","last_reported":1729447858,"current_range_meters":14000,"station_id":"ce4bhlp2rcd13ifvqgjg","pricing_plan_id":"cebpf4jnsgd1na2vs0mg"},{"bike_id":"b1bd4d06-9cd8-464e-bf50-56b6a5dd7ed2","system_id":"levelo_inurba_marseille","lat":43.308044,"lon":5.381543,"is_reserved":false,"is_disabled":false,"rental_uris":{"android":"levelo://app?vid=b1bd4d06-9cd8-464e-bf50-56b6a5dd7ed2","ios":"levelo://app?vid=b1bd4d06-9cd8-464e-bf50-56b6a5dd7ed2"},"vehicle_type_id":"4","last_reported":1729447858,"current_range_meters":37600,"station_id":"ce4bgt12rcd13ifvqce0","pricing_plan_id":"cebpf4jnsgd1na2vs0mg"},{"bike_id":"83334c50-62f1-4bf6-8650-5119101fcb3b","system_id":"levelo_inurba_marseille","lat":43.29578,"lon":5.37526,"is_reserved":false,"is_disabled":false,"rental_uris":{"android":"levelo://app?vid=83334c50-62f1-4bf6-8650-5119101fcb3b","ios":"levelo://app?vid=83334c50-62f1-4bf6-8650-5119101fcb3b"},"vehicle_type_id":"4","last_reported":1729447858,"current_range_meters":7200,"station_id":"ce4bgh92rcd13ifvqb50","pricing_plan_id":"cebpf4jnsgd1na2vs0mg"},{"bike_id":"110e4159-7398-4911-be8d-c697aa91c21a","system_id":"levelo_inurba_marseille","lat":43.29277,"lon":5.36841,"is_reserved":false,"is_disabled":false,"rental_uris":{"android":"levelo://app?vid=110e4159-7398-4911-be8d-c697aa91c21a","ios":"levelo://app?vid=110e4159-7398-4911-be8d-c697aa91c21a"},"vehicle_type_id":"4","last_reported":1729447858,"current_range_meters":34000,"station_id":"ce4bhbp2rcd13ifvqesg","pricing_plan_id":"cebpf4jnsgd1na2vs0mg"},{"bike_id":"0b0d6496-fa54-4dba-830e-c11334de3990","system_id":"levelo_inurba_marseille","lat":43.29281,"lon":5.40119,"is_reserved":false,"is_disabled":false,"rental_uris":{"android":"levelo://app?vid=0b0d6496-fa54-4dba-830e-c11334de3990","ios":"levelo://app?vid=0b0d6496-fa54-4dba-830e-c11334de3990"},"vehicle_type_id":"4","last_reported":1729447858,"current_range_meters":9200,"station_id":"ce4bh312rcd13ifvqdk0","pricing_plan_id":"cebpf4jnsgd1na2vs0mg"},{"bike_id":"8fb7de64-ac00-44a8-a4bb-61f374b314e7","system_id":"levelo_inurba_marseille","lat":43.31879,"lon":5.40739,"is_reserved":false,"is_disabled":false,"rental_uris":{"android":"levelo://app?vid=8fb7de64-ac00-44a8-a4bb-61f374b314e7","ios":"levelo://app?vid=8fb7de64-ac00-44a8-a4bb-61f374b314e7"},"vehicle_type_id":"4","last_reported":1729447858,"current_range_meters":36800,"station_id":"ce4bhq12rcd13ifvqhig","pricing_plan_id":"cebpf4jnsgd1na2vs0mg"},{"bike_id":"3d9eada4-53e3-47f8-b42d-54bf2d01cc86","system_id":"levelo_inurba_marseille","lat":43.29065,"lon":5.37171,"is_reserved":false,"is_disabled":false,"rental_uris":{"android":"levelo://app?vid=3d9eada4-53e3-47f8-b42d-54bf2d01cc86","ios":"levelo://app?vid=3d9eada4-53e3-47f8-b42d-54bf2d01cc86"},"vehicle_type_id":"4","last_reported":1729447858,"current_range_meters":4000,"station_id":"ce4bh5p2rcd13ifvqe4g","pricing_plan_id":"cebpf4jnsgd1na2vs0mg"},{"bike_id":"aec4114d-2cf9-40df-a06b-3baf7ca2892c","system_id":"levelo_inurba_marseille","lat":43.2293,"lon":5.35382,"is_reserved":false,"is_disabled":false,"rental_uris":{"android":"levelo://app?vid=aec4114d-2cf9-40df-a06b-3baf7ca2892c","ios":"levelo://app?vid=aec4114d-2cf9-40df-a06b-3baf7ca2892c"},"vehicle_type_id":"4","last_reported":1729447858,"current_range_meters":38800,"station_id":"cpo3532slgdg3j2ikp40","pricing_plan_id":"cebpf4jnsgd1na2vs0mg"},{"bike_id":"98e06329-fe9e-4ceb-a582-5be8d7e72920","system_id":"levelo_inurba_marseille","lat":43.295763,"lon":5.399635,"is_reserved":false,"is_disabled":false,"rental_uris":{"android":"levelo://app?vid=98e06329-fe9e-4ceb-a582-5be8d7e72920","ios":"levelo://app?vid=98e06329-fe9e-4ceb-a582-5be8d7e72920"},"vehicle_type_id":"4","last_reported":1729447858,"current_range_meters":27200,"station_id":"ce4bh312rcd13ifvqdj0","pricing_plan_id":"cebpf4jnsgd1na2vs0mg"},{"bike_id":"bba55115-6c95-4a9d-813e-3270e14bb55a","system_id":"levelo_inurba_marseille","lat":43.262102,"lon":5.374378,"is_reserved":false,"is_disabled":false,"rental_uris":{"android":"levelo://app?vid=bba55115-6c95-4a9d-813e-3270e14bb55a","ios":"levelo://app?vid=bba55115-6c95-4a9d-813e-3270e14bb55a"},"vehicle_type_id":"4","last_reported":1729447858,"current_range_meters":28800,"station_id":"ce4bhgp2rcd13ifvqfc0","pricing_plan_id":"cebpf4jnsgd1na2vs0mg"},{"bike_id":"d2335bb6-fa34-49e5-b333-2477e3c9da28","system_id":"levelo_inurba_marseille","lat":43.2953,"lon":5.38546,"is_reserved":false,"is_disabled":false,"rental_uris":{"android":"levelo://app?vid=d2335bb6-fa34-49e5-b333-2477e3c9da28","ios":"levelo://app?vid=d2335bb6-fa34-49e5-b333-2477e3c9da28"},"vehicle_type_id":"4","last_reported":1729447858,"current_range_meters":30000,"station_id":"ce4bgih2rcd13ifvqba0","pricing_plan_id":"cebpf4jnsgd1na2vs0mg"},{"bike_id":"f19f947a-9bda-4c01-9aae-11c883190da3","system_id":"levelo_inurba_marseille","lat":43.29596,"lon":5.38105,"is_reserved":false,"is_disabled":false,"rental_uris":{"android":"levelo://app?vid=f19f947a-9bda-4c01-9aae-11c883190da3","ios":"levelo://app?vid=f19f947a-9bda-4c01-9aae-11c883190da3"},"vehicle_type_id":"4","last_reported":1729447858,"current_range_meters":4000,"station_id":"ce4bgl12rcd13ifvqbo0","pricing_plan_id":"cebpf4jnsgd1na2vs0mg"},{"bike_id":"c1cc7bf7-1524-4b5a-bb97-4c3e89b0e1b4","system_id":"levelo_inurba_marseille","lat":43.29263,"lon":5.3845,"is_reserved":false,"is_disabled":false,"rental_uris":{"android":"levelo://app?vid=c1cc7bf7-1524-4b5a-bb97-4c3e89b0e1b4","ios":"levelo://app?vid=c1cc7bf7-1524-4b5a-bb97-4c3e89b0e1b4"},"vehicle_type_id":"4","last_reported":1729447858,"current_range_meters":6400,"station_id":"","pricing_plan_id":"cebpf4jnsgd1na2vs0mg"},{"bike_id":"fdb25b17-96e2-47fb-a191-68dac78631b0","system_id":"levelo_inurba_marseille","lat":43.29616,"lon":5.37727,"is_reserved":false,"is_disabled":false,"rental_uris":{"android":"levelo://app?vid=fdb25b17-96e2-47fb-a191-68dac78631b0","ios":"levelo://app?vid=fdb25b17-96e2-47fb-a191-68dac78631b0"},"vehicle_type_id":"4","last_reported":1729447858,"current_range_meters":4800,"station_id":"ce4bgi92rcd13ifvqb90","pricing_plan_id":"cebpf4jnsgd1na2vs0mg"},{"bike_id":"4b3496a2-d393-48e7-b24c-bc5f8d6f4d51","system_id":"levelo_inurba_marseille","lat":43.23957,"lon":5.36621,"is_reserved":false,"is_disabled":false,"rental_uris":{"android":"levelo://app?vid=4b3496a2-d393-48e7-b24c-bc5f8d6f4d51","ios":"levelo://app?vid=4b3496a2-d393-48e7-b24c-bc5f8d6f4d51"},"vehicle_type_id":"4","last_reported":1729447858,"current_range_meters":30000,"station_id":"ce4bhi12rcd13ifvqfp0","pricing_plan_id":"cebpf4jnsgd1na2vs0mg"},{"bike_id":"ce5722ca-97a2-4464-b271-2119bbfeb6a9","system_id":"levelo_inurba_marseille","lat":43.23726,"lon":5.37773,"is_reserved":false,"is_disabled":false,"rental_uris":{"android":"levelo://app?vid=ce5722ca-97a2-4464-b271-2119bbfeb6a9","ios":"levelo://app?vid=ce5722ca-97a2-4464-b271-2119bbfeb6a9"},"vehicle_type_id":"4","last_reported":1729447858,"current_range_meters":14000,"station_id":"","pricing_plan_id":"cebpf4jnsgd1na2vs0mg"},{"bike_id":"6ecf8aca-6e83-47af-8f22-7af6a39a948e","system_id":"levelo_inurba_marseille","lat":43.30146,"lon":5.37428,"is_reserved":false,"is_disabled":false,"rental_uris":{"android":"levelo://app?vid=6ecf8aca-6e83-47af-8f22-7af6a39a948e","ios":"levelo://app?vid=6ecf8aca-6e83-47af-8f22-7af6a39a948e"},"vehicle_type_id":"4","last_reported":1729447858,"current_range_meters":36400,"station_id":"ce4bgs92rcd13ifvqcc0","pricing_plan_id":"cebpf4jnsgd1na2vs0mg"},{"bike_id":"7c5a954c-cfc0-48a2-baa8-adad78ca8a36","system_id":"levelo_inurba_marseille","lat":43.29022,"lon":5.38138,"is_reserved":false,"is_disabled":false,"rental_uris":{"android":"levelo://app?vid=7c5a954c-cfc0-48a2-baa8-adad78ca8a36","ios":"levelo://app?vid=7c5a954c-cfc0-48a2-baa8-adad78ca8a36"},"vehicle_type_id":"4","last_reported":1729447858,"current_range_meters":38800,"station_id":"ce4bh4p2rcd13ifvqe1g","pricing_plan_id":"cebpf4jnsgd1na2vs0mg"},{"bike_id":"e9a6d85d-70e2-402b-90eb-502b3aedbdb3","system_id":"levelo_inurba_marseille","lat":43.29166,"lon":5.37954,"is_reserved":false,"is_disabled":false,"rental_uris":{"android":"levelo://app?vid=e9a6d85d-70e2-402b-90eb-502b3aedbdb3","ios":"levelo://app?vid=e9a6d85d-70e2-402b-90eb-502b3aedbdb3"},"vehicle_type_id":"4","last_reported":1729447858,"current_range_meters":8000,"station_id":"","pricing_plan_id":"cebpf4jnsgd1na2vs0mg"},{"bike_id":"3a41ccf2-41a0-4cc8-ab31-11348a6e4848","system_id":"levelo_inurba_marseille","lat":43.27068,"lon":5.42282,"is_reserved":false,"is_disabled":false,"rental_uris":{"android":"levelo://app?vid=3a41ccf2-41a0-4cc8-ab31-11348a6e4848","ios":"levelo://app?vid=3a41ccf2-41a0-4cc8-ab31-11348a6e4848"},"vehicle_type_id":"4","last_reported":1729447858,"current_range_meters":6800,"station_id":"ce4bhk92rcd13ifvqgb0","pricing_plan_id":"cebpf4jnsgd1na2vs0mg"},{"bike_id":"551e4cae-27ad-43f8-bfc5-8e0a93c14612","system_id":"levelo_inurba_marseille","lat":43.32101,"lon":5.36772,"is_reserved":false,"is_disabled":false,"rental_uris":{"android":"levelo://app?vid=551e4cae-27ad-43f8-bfc5-8e0a93c14612","ios":"levelo://app?vid=551e4cae-27ad-43f8-bfc5-8e0a93c14612"},"vehicle_type_id":"4","last_reported":1729447858,"current_range_meters":36800,"station_id":"ce4bhrh2rcd13ifvqhug","pricing_plan_id":"cebpf4jnsgd1na2vs0mg"},{"bike_id":"d6b6d9c6-c04c-44c6-9708-54056b46823b","system_id":"levelo_inurba_marseille","lat":43.24177,"lon":5.38825,"is_reserved":false,"is_disabled":false,"rental_uris":{"android":"levelo://app?vid=d6b6d9c6-c04c-44c6-9708-54056b46823b","ios":"levelo://app?vid=d6b6d9c6-c04c-44c6-9708-54056b46823b"},"vehicle_type_id":"4","last_reported":1729447858,"current_range_meters":12800,"station_id":"","pricing_plan_id":"cebpf4jnsgd1na2vs0mg"},{"bike_id":"b5e31d38-5076-4e6b-a1ac-b8d3dd2518da","system_id":"levelo_inurba_marseille","lat":43.2655,"lon":5.3729,"is_reserved":false,"is_disabled":false,"rental_uris":{"android":"levelo://app?vid=b5e31d38-5076-4e6b-a1ac-b8d3dd2518da","ios":"levelo://app?vid=b5e31d38-5076-4e6b-a1ac-b8d3dd2518da"},"vehicle_type_id":"4","last_reported":1729447858,"current_range_meters":30000,"station_id":"ce4bhg12rcd13ifvqf70","pricing_plan_id":"cebpf4jnsgd1na2vs0mg"},{"bike_id":"f8390cd1-3e79-425b-b0c7-a5d57172be28","system_id":"levelo_inurba_marseille","lat":43.31757,"lon":5.39016,"is_reserved":false,"is_disabled":false,"rental_uris":{"android":"levelo://app?vid=f8390cd1-3e79-425b-b0c7-a5d57172be28","ios":"levelo://app?vid=f8390cd1-3e79-425b-b0c7-a5d57172be28"},"vehicle_type_id":"4","last_reported":1729447858,"current_range_meters":6800,"station_id":"ce4bhqp2rcd13ifvqhng","pricing_plan_id":"cebpf4jnsgd1na2vs0mg"},{"bike_id":"94e9252c-756a-4c4b-8d2a-4e129f44f29d","system_id":"levelo_inurba_marseille","lat":43.29098,"lon":5.38159,"is_reserved":false,"is_disabled":false,"rental_uris":{"android":"levelo://app?vid=94e9252c-756a-4c4b-8d2a-4e129f44f29d","ios":"levelo://app?vid=94e9252c-756a-4c4b-8d2a-4e129f44f29d"},"vehicle_type_id":"4","last_reported":1729447858,"current_range_meters":5600,"station_id":"ce4bh512rcd13ifvqe2g","pricing_plan_id":"cebpf4jnsgd1na2vs0mg"},{"bike_id":"bd89b919-bae5-445f-b1b6-b2cbb441ff0a","system_id":"levelo_inurba_marseille","lat":43.27842,"lon":5.39204,"is_reserved":false,"is_disabled":false,"rental_uris":{"android":"levelo://app?vid=bd89b919-bae5-445f-b1b6-b2cbb441ff0a","ios":"levelo://app?vid=bd89b919-bae5-445f-b1b6-b2cbb441ff0a"},"vehicle_type_id":"4","last_reported":1729447858,"current_range_meters":37600,"station_id":"ce4bhjp2rcd13ifvqga0","pricing_plan_id":"cebpf4jnsgd1na2vs0mg"},{"bike_id":"1a826a5e-58f9-43f4-a1e6-475260f850fa","system_id":"levelo_inurba_marseille","lat":43.26064,"lon":5.394,"is_reserved":false,"is_disabled":false,"rental_uris":{"android":"levelo://app?vid=1a826a5e-58f9-43f4-a1e6-475260f850fa","ios":"levelo://app?vid=1a826a5e-58f9-43f4-a1e6-475260f850fa"},"vehicle_type_id":"4","last_reported":1729447858,"current_range_meters":30800,"station_id":"ce4bhh92rcd13ifvqfj0","pricing_plan_id":"cebpf4jnsgd1na2vs0mg"},{"bike_id":"0323736a-cb31-4062-8015-3ca60bb4accd","system_id":"levelo_inurba_marseille","lat":43.300568,"lon":5.399729,"is_reserved":false,"is_disabled":false,"rental_uris":{"android":"levelo://app?vid=0323736a-cb31-4062-8015-3ca60bb4accd","ios":"levelo://app?vid=0323736a-cb31-4062-8015-3ca60bb4accd"},"vehicle_type_id":"4","last_reported":1729447858,"current_range_meters":6000,"station_id":"ce4bh0h2rcd13ifvqd40","pricing_plan_id":"cebpf4jnsgd1na2vs0mg"},{"bike_id":"29ebd5f2-5aee-4a31-8fc9-4e4c52374182","system_id":"levelo_inurba_marseille","lat":43.279382,"lon":5.410446,"is_reserved":false,"is_disabled":false,"rental_uris":{"android":"levelo://app?vid=29ebd5f2-5aee-4a31-8fc9-4e4c52374182","ios":"levelo://app?vid=29ebd5f2-5aee-4a31-8fc9-4e4c52374182"},"vehicle_type_id":"4","last_reported":1729447858,"current_range_meters":10000,"station_id":"ce4bhnp2rcd13ifvqh0g","pricing_plan_id":"cebpf4jnsgd1na2vs0mg"},{"bike_id":"69663e99-fe51-4c5b-876a-882008f8d5d8","system_id":"levelo_inurba_marseille","lat":43.30186,"lon":5.39786,"is_reserved":false,"is_disabled":false,"rental_uris":{"android":"levelo://app?vid=69663e99-fe51-4c5b-876a-882008f8d5d8","ios":"levelo://app?vid=69663e99-fe51-4c5b-876a-882008f8d5d8"},"vehicle_type_id":"4","last_reported":1729447858,"current_range_meters":5600,"station_id":"","pricing_plan_id":"cebpf4jnsgd1na2vs0mg"},{"bike_id":"0ba1f640-220a-4dd4-9efe-d7ec55b44c8f","system_id":"levelo_inurba_marseille","lat":43.30594,"lon":5.39364,"is_reserved":false,"is_disabled":false,"rental_uris":{"android":"levelo://app?vid=0ba1f640-220a-4dd4-9efe-d7ec55b44c8f","ios":"levelo://app?vid=0ba1f640-220a-4dd4-9efe-d7ec55b44c8f"},"vehicle_type_id":"4","last_reported":1729447858,"current_range_meters":22800,"station_id":"ce4bh0p2rcd13ifvqd80","pricing_plan_id":"cebpf4jnsgd1na2vs0mg"},{"bike_id":"807f954f-d6d5-4070-bb7a-4bbc682fdf1d","system_id":"levelo_inurba_marseille","lat":43.29601,"lon":5.38106,"is_reserved":false,"is_disabled":false,"rental_uris":{"android":"levelo://app?vid=807f954f-d6d5-4070-bb7a-4bbc682fdf1d","ios":"levelo://app?vid=807f954f-d6d5-4070-bb7a-4bbc682fdf1d"},"vehicle_type_id":"4","last_reported":1729447858,"current_range_meters":10800,"station_id":"ce4bgl12rcd13ifvqbo0","pricing_plan_id":"cebpf4jnsgd1na2vs0mg"},{"bike_id":"f357d317-303f-4db6-a6b2-a7c7395ce5d8","system_id":"levelo_inurba_marseille","lat":43.28099,"lon":5.37853,"is_reserved":false,"is_disabled":false,"rental_uris":{"android":"levelo://app?vid=f357d317-303f-4db6-a6b2-a7c7395ce5d8","ios":"levelo://app?vid=f357d317-303f-4db6-a6b2-a7c7395ce5d8"},"vehicle_type_id":"4","last_reported":1729447858,"current_range_meters":33200,"station_id":"ce4bha12rcd13ifvqee0","pricing_plan_id":"cebpf4jnsgd1na2vs0mg"},{"bike_id":"ee07b9e3-f4db-477f-9e2e-49c0520cc2d0","system_id":"levelo_inurba_marseille","lat":43.29089,"lon":5.38049,"is_reserved":false,"is_disabled":false,"rental_uris":{"android":"levelo://app?vid=ee07b9e3-f4db-477f-9e2e-49c0520cc2d0","ios":"levelo://app?vid=ee07b9e3-f4db-477f-9e2e-49c0520cc2d0"},"vehicle_type_id":"4","last_reported":1729447858,"current_range_meters":20000,"station_id":"ce4bh512rcd13ifvqe2g","pricing_plan_id":"cebpf4jnsgd1na2vs0mg"},{"bike_id":"ac8e61a9-04b4-4de4-808e-19f801599033","system_id":"levelo_inurba_marseille","lat":43.30094,"lon":5.39076,"is_reserved":false,"is_disabled":false,"rental_uris":{"android":"levelo://app?vid=ac8e61a9-04b4-4de4-808e-19f801599033","ios":"levelo://app?vid=ac8e61a9-04b4-4de4-808e-19f801599033"},"vehicle_type_id":"4","last_reported":1729447858,"current_range_meters":3600,"station_id":"ce4bh192rcd13ifvqdb0","pricing_plan_id":"cebpf4jnsgd1na2vs0mg"},{"bike_id":"75c9bef1-4bd4-4c55-a427-c4bbb63e899b","system_id":"levelo_inurba_marseille","lat":43.29787,"lon":5.38116,"is_reserved":false,"is_disabled":false,"rental_uris":{"android":"levelo://app?vid=75c9bef1-4bd4-4c55-a427-c4bbb63e899b","ios":"levelo://app?vid=75c9bef1-4bd4-4c55-a427-c4bbb63e899b"},"vehicle_type_id":"4","last_reported":1729447858,"current_range_meters":38800,"station_id":"ce4bgip2rcd13ifvqbb0","pricing_plan_id":"cebpf4jnsgd1na2vs0mg"},{"bike_id":"6f302313-ff5c-4ed0-af8e-799e5d83f584","system_id":"levelo_inurba_marseille","lat":43.27176,"lon":5.41922,"is_reserved":false,"is_disabled":false,"rental_uris":{"android":"levelo://app?vid=6f302313-ff5c-4ed0-af8e-799e5d83f584","ios":"levelo://app?vid=6f302313-ff5c-4ed0-af8e-799e5d83f584"},"vehicle_type_id":"4","last_reported":1729447858,"current_range_meters":2800,"station_id":"","pricing_plan_id":"cebpf4jnsgd1na2vs0mg"},{"bike_id":"4fa275f9-75d2-461d-80e5-8f5bf1730be8","system_id":"levelo_inurba_marseille","lat":43.29256,"lon":5.38445,"is_reserved":false,"is_disabled":false,"rental_uris":{"android":"levelo://app?vid=4fa275f9-75d2-461d-80e5-8f5bf1730be8","ios":"levelo://app?vid=4fa275f9-75d2-461d-80e5-8f5bf1730be8"},"vehicle_type_id":"4","last_reported":1729447858,"current_range_meters":10800,"station_id":"","pricing_plan_id":"cebpf4jnsgd1na2vs0mg"},{"bike_id":"25038648-382c-4b67-9905-69945f12cca6","system_id":"levelo_inurba_marseille","lat":43.239553,"lon":5.366276,"is_reserved":false,"is_disabled":false,"rental_uris":{"android":"levelo://app?vid=25038648-382c-4b67-9905-69945f12cca6","ios":"levelo://app?vid=25038648-382c-4b67-9905-69945f12cca6"},"vehicle_type_id":"4","last_reported":1729447858,"current_range_meters":36800,"station_id":"ce4bhi12rcd13ifvqfp0","pricing_plan_id":"cebpf4jnsgd1na2vs0mg"},{"bike_id":"e0a67493-fbcb-4184-9f5b-df2b2ce22ba1","system_id":"levelo_inurba_marseille","lat":43.29782,"lon":5.37108,"is_reserved":false,"is_disabled":false,"rental_uris":{"android":"levelo://app?vid=e0a67493-fbcb-4184-9f5b-df2b2ce22ba1","ios":"levelo://app?vid=e0a67493-fbcb-4184-9f5b-df2b2ce22ba1"},"vehicle_type_id":"4","last_reported":1729447858,"current_range_meters":38800,"station_id":"ce4bgop2rcd13ifvqc1g","pricing_plan_id":"cebpf4jnsgd1na2vs0mg"},{"bike_id":"ae13ed28-70bf-4d3e-93be-c967e9028dfb","system_id":"levelo_inurba_marseille","lat":43.30597,"lon":5.37232,"is_reserved":false,"is_disabled":false,"rental_uris":{"android":"levelo://app?vid=ae13ed28-70bf-4d3e-93be-c967e9028dfb","ios":"levelo://app?vid=ae13ed28-70bf-4d3e-93be-c967e9028dfb"},"vehicle_type_id":"4","last_reported":1729447858,"current_range_meters":6400,"station_id":"ce4bgqh2rcd13ifvqc4g","pricing_plan_id":"cebpf4jnsgd1na2vs0mg"},{"bike_id":"206a7ae4-a435-4f09-9349-4afe088fa94c","system_id":"levelo_inurba_marseille","lat":43.30801,"lon":5.38151,"is_reserved":false,"is_disabled":false,"rental_uris":{"android":"levelo://app?vid=206a7ae4-a435-4f09-9349-4afe088fa94c","ios":"levelo://app?vid=206a7ae4-a435-4f09-9349-4afe088fa94c"},"vehicle_type_id":"4","last_reported":1729447858,"current_range_meters":5600,"station_id":"ce4bgt12rcd13ifvqce0","pricing_plan_id":"cebpf4jnsgd1na2vs0mg"},{"bike_id":"5da4423c-d783-4976-88b9-6095ced1756b","system_id":"levelo_inurba_marseille","lat":43.30635,"lon":5.40101,"is_reserved":false,"is_disabled":false,"rental_uris":{"android":"levelo://app?vid=5da4423c-d783-4976-88b9-6095ced1756b","ios":"levelo://app?vid=5da4423c-d783-4976-88b9-6095ced1756b"},"vehicle_type_id":"4","last_reported":1729447858,"current_range_meters":33200,"station_id":"ce4bh112rcd13ifvqda0","pricing_plan_id":"cebpf4jnsgd1na2vs0mg"},{"bike_id":"3bf115c6-8efa-475f-af9e-5ee9038c1b80","system_id":"levelo_inurba_marseille","lat":43.31065,"lon":5.40095,"is_reserved":false,"is_disabled":false,"rental_uris":{"android":"levelo://app?vid=3bf115c6-8efa-475f-af9e-5ee9038c1b80","ios":"levelo://app?vid=3bf115c6-8efa-475f-af9e-5ee9038c1b80"},"vehicle_type_id":"4","last_reported":1729447858,"current_range_meters":33600,"station_id":"","pricing_plan_id":"cebpf4jnsgd1na2vs0mg"},{"bike_id":"3856fd50-58b8-4eca-9631-d654a82ed2f7","system_id":"levelo_inurba_marseille","lat":43.30758,"lon":5.40062,"is_reserved":false,"is_disabled":false,"rental_uris":{"android":"levelo://app?vid=3856fd50-58b8-4eca-9631-d654a82ed2f7","ios":"levelo://app?vid=3856fd50-58b8-4eca-9631-d654a82ed2f7"},"vehicle_type_id":"4","last_reported":1729447858,"current_range_meters":36000,"station_id":"ce4bgvp2rcd13ifvqct0","pricing_plan_id":"cebpf4jnsgd1na2vs0mg"},{"bike_id":"66bb7f2d-c9a6-4fc5-a2b5-166a983aec5b","system_id":"levelo_inurba_marseille","lat":43.29582,"lon":5.3675,"is_reserved":false,"is_disabled":false,"rental_uris":{"android":"levelo://app?vid=66bb7f2d-c9a6-4fc5-a2b5-166a983aec5b","ios":"levelo://app?vid=66bb7f2d-c9a6-4fc5-a2b5-166a983aec5b"},"vehicle_type_id":"4","last_reported":1729447858,"current_range_meters":38800,"station_id":"ce4bgph2rcd13ifvqc2g","pricing_plan_id":"cebpf4jnsgd1na2vs0mg"},{"bike_id":"1e28f7a8-f16f-4891-bfac-af9a7b37912f","system_id":"levelo_inurba_marseille","lat":43.28434,"lon":5.392307,"is_reserved":false,"is_disabled":false,"rental_uris":{"android":"levelo://app?vid=1e28f7a8-f16f-4891-bfac-af9a7b37912f","ios":"levelo://app?vid=1e28f7a8-f16f-4891-bfac-af9a7b37912f"},"vehicle_type_id":"4","last_reported":1729447858,"current_range_meters":28400,"station_id":"ce4bh392rcd13ifvqdl0","pricing_plan_id":"cebpf4jnsgd1na2vs0mg"},{"bike_id":"5a7ec72c-ed75-462d-ba54-955f759ae8bf","system_id":"levelo_inurba_marseille","lat":43.25086,"lon":5.39519,"is_reserved":false,"is_disabled":false,"rental_uris":{"android":"levelo://app?vid=5a7ec72c-ed75-462d-ba54-955f759ae8bf","ios":"levelo://app?vid=5a7ec72c-ed75-462d-ba54-955f759ae8bf"},"vehicle_type_id":"4","last_reported":1729447858,"current_range_meters":8000,"station_id":"ce4bhm12rcd13ifvqgkg","pricing_plan_id":"cebpf4jnsgd1na2vs0mg"},{"bike_id":"b41513a0-8a01-4ade-bbfd-513a53ef8100","system_id":"levelo_inurba_marseille","lat":43.30315,"lon":5.39215,"is_reserved":false,"is_disabled":false,"rental_uris":{"android":"levelo://app?vid=b41513a0-8a01-4ade-bbfd-513a53ef8100","ios":"levelo://app?vid=b41513a0-8a01-4ade-bbfd-513a53ef8100"},"vehicle_type_id":"4","last_reported":1729447858,"current_range_meters":37600,"station_id":"ce4bgkh2rcd13ifvqbk0","pricing_plan_id":"cebpf4jnsgd1na2vs0mg"},{"bike_id":"8879cd9f-7ce6-43e1-b7f8-f46f2de8562c","system_id":"levelo_inurba_marseille","lat":43.23959,"lon":5.36625,"is_reserved":false,"is_disabled":false,"rental_uris":{"android":"levelo://app?vid=8879cd9f-7ce6-43e1-b7f8-f46f2de8562c","ios":"levelo://app?vid=8879cd9f-7ce6-43e1-b7f8-f46f2de8562c"},"vehicle_type_id":"4","last_reported":1729447858,"current_range_meters":10000,"station_id":"ce4bhi12rcd13ifvqfp0","pricing_plan_id":"cebpf4jnsgd1na2vs0mg"},{"bike_id":"efe3cf88-77ce-427a-83e3-ddeb1b5f32cf","system_id":"levelo_inurba_marseille","lat":43.31039,"lon":5.40094,"is_reserved":false,"is_disabled":false,"rental_uris":{"android":"levelo://app?vid=efe3cf88-77ce-427a-83e3-ddeb1b5f32cf","ios":"levelo://app?vid=efe3cf88-77ce-427a-83e3-ddeb1b5f32cf"},"vehicle_type_id":"4","last_reported":1729447858,"current_range_meters":33600,"station_id":"","pricing_plan_id":"cebpf4jnsgd1na2vs0mg"},{"bike_id":"4d17ed4a-b02e-4ce9-9190-1bbed51b2a7b","system_id":"levelo_inurba_marseille","lat":43.29258,"lon":5.40904,"is_reserved":false,"is_disabled":false,"rental_uris":{"android":"levelo://app?vid=4d17ed4a-b02e-4ce9-9190-1bbed51b2a7b","ios":"levelo://app?vid=4d17ed4a-b02e-4ce9-9190-1bbed51b2a7b"},"vehicle_type_id":"4","last_reported":1729447858,"current_range_meters":9600,"station_id":"ce4bh192rcd13ifvqdc0","pricing_plan_id":"cebpf4jnsgd1na2vs0mg"},{"bike_id":"41ec0732-7f2d-4c96-beeb-b6cfb05c3429","system_id":"levelo_inurba_marseille","lat":43.27174,"lon":5.41919,"is_reserved":false,"is_disabled":false,"rental_uris":{"android":"levelo://app?vid=41ec0732-7f2d-4c96-beeb-b6cfb05c3429","ios":"levelo://app?vid=41ec0732-7f2d-4c96-beeb-b6cfb05c3429"},"vehicle_type_id":"4","last_reported":1729447858,"current_range_meters":6000,"station_id":"","pricing_plan_id":"cebpf4jnsgd1na2vs0mg"},{"bike_id":"1f04fa80-2d3a-444a-bf6b-0d3f6c649920","system_id":"levelo_inurba_marseille","lat":43.30701,"lon":5.38181,"is_reserved":false,"is_disabled":false,"rental_uris":{"android":"levelo://app?vid=1f04fa80-2d3a-444a-bf6b-0d3f6c649920","ios":"levelo://app?vid=1f04fa80-2d3a-444a-bf6b-0d3f6c649920"},"vehicle_type_id":"4","last_reported":1729447858,"current_range_meters":36800,"station_id":"","pricing_plan_id":"cebpf4jnsgd1na2vs0mg"},{"bike_id":"ee8993d8-7f86-4eac-a1d1-f40f1f59f9b5","system_id":"levelo_inurba_marseille","lat":43.30146,"lon":5.37427,"is_reserved":false,"is_disabled":false,"rental_uris":{"android":"levelo://app?vid=ee8993d8-7f86-4eac-a1d1-f40f1f59f9b5","ios":"levelo://app?vid=ee8993d8-7f86-4eac-a1d1-f40f1f59f9b5"},"vehicle_type_id":"4","last_reported":1729447858,"current_range_meters":32800,"station_id":"ce4bgs92rcd13ifvqcc0","pricing_plan_id":"cebpf4jnsgd1na2vs0mg"},{"bike_id":"4dcfb2e7-2e66-424f-854a-9bb78892e823","system_id":"levelo_inurba_marseille","lat":43.32656,"lon":5.40992,"is_reserved":false,"is_disabled":false,"rental_uris":{"android":"levelo://app?vid=4dcfb2e7-2e66-424f-854a-9bb78892e823","ios":"levelo://app?vid=4dcfb2e7-2e66-424f-854a-9bb78892e823"},"vehicle_type_id":"4","last_reported":1729447858,"current_range_meters":8000,"station_id":"ce4bhpp2rcd13ifvqhgg","pricing_plan_id":"cebpf4jnsgd1na2vs0mg"},{"bike_id":"b465a7ba-6143-409c-9758-74221f55b468","system_id":"levelo_inurba_marseille","lat":43.2962,"lon":5.37176,"is_reserved":false,"is_disabled":false,"rental_uris":{"android":"levelo://app?vid=b465a7ba-6143-409c-9758-74221f55b468","ios":"levelo://app?vid=b465a7ba-6143-409c-9758-74221f55b468"},"vehicle_type_id":"4","last_reported":1729447858,"current_range_meters":38800,"station_id":"ce4bgnh2rcd13ifvqc0g","pricing_plan_id":"cebpf4jnsgd1na2vs0mg"},{"bike_id":"4f9f6cf8-df8d-478a-aa54-63ac3c7c9f32","system_id":"levelo_inurba_marseille","lat":43.29974,"lon":5.371902,"is_reserved":false,"is_disabled":false,"rental_uris":{"android":"levelo://app?vid=4f9f6cf8-df8d-478a-aa54-63ac3c7c9f32","ios":"levelo://app?vid=4f9f6cf8-df8d-478a-aa54-63ac3c7c9f32"},"vehicle_type_id":"4","last_reported":1729447858,"current_range_meters":8800,"station_id":"ce4bh192rcd13ifvqdb0","pricing_plan_id":"cebpf4jnsgd1na2vs0mg"},{"bike_id":"e559aa5e-3069-4166-8503-8dc3d045fe7f","system_id":"levelo_inurba_marseille","lat":43.24387,"lon":5.370596,"is_reserved":false,"is_disabled":false,"rental_uris":{"android":"levelo://app?vid=e559aa5e-3069-4166-8503-8dc3d045fe7f","ios":"levelo://app?vid=e559aa5e-3069-4166-8503-8dc3d045fe7f"},"vehicle_type_id":"4","last_reported":1729447858,"current_range_meters":34000,"station_id":"ce4bhhh2rcd13ifvqfk0","pricing_plan_id":"cebpf4jnsgd1na2vs0mg"},{"bike_id":"e7966b91-0697-4020-ae05-523388b63a80","system_id":"levelo_inurba_marseille","lat":43.273031,"lon":5.391104,"is_reserved":false,"is_disabled":false,"rental_uris":{"android":"levelo://app?vid=e7966b91-0697-4020-ae05-523388b63a80","ios":"levelo://app?vid=e7966b91-0697-4020-ae05-523388b63a80"},"vehicle_type_id":"4","last_reported":1729447858,"current_range_meters":4000,"station_id":"","pricing_plan_id":"cebpf4jnsgd1na2vs0mg"},{"bike_id":"d6cc8dba-7961-486f-9b41-eed6b1e8b658","system_id":"levelo_inurba_marseille","lat":43.33719,"lon":5.39192,"is_reserved":false,"is_disabled":false,"rental_uris":{"android":"levelo://app?vid=d6cc8dba-7961-486f-9b41-eed6b1e8b658","ios":"levelo://app?vid=d6cc8dba-7961-486f-9b41-eed6b1e8b658"},"vehicle_type_id":"4","last_reported":1729447858,"current_range_meters":24800,"station_id":"ce4bhr92rcd13ifvqhsg","pricing_plan_id":"cebpf4jnsgd1na2vs0mg"},{"bike_id":"01d5a883-9657-41c9-aac3-71b9d0bcfc79","system_id":"levelo_inurba_marseille","lat":43.29917,"lon":5.37475,"is_reserved":false,"is_disabled":false,"rental_uris":{"android":"levelo://app?vid=01d5a883-9657-41c9-aac3-71b9d0bcfc79","ios":"levelo://app?vid=01d5a883-9657-41c9-aac3-71b9d0bcfc79"},"vehicle_type_id":"4","last_reported":1729447858,"current_range_meters":24400,"station_id":"ce4bgjh2rcd13ifvqbg0","pricing_plan_id":"cebpf4jnsgd1na2vs0mg"},{"bike_id":"e1261e16-aa6e-4b21-8146-1f72162d0033","system_id":"levelo_inurba_marseille","lat":43.29537,"lon":5.38546,"is_reserved":false,"is_disabled":false,"rental_uris":{"android":"levelo://app?vid=e1261e16-aa6e-4b21-8146-1f72162d0033","ios":"levelo://app?vid=e1261e16-aa6e-4b21-8146-1f72162d0033"},"vehicle_type_id":"4","last_reported":1729447858,"current_range_meters":34000,"station_id":"ce4bgih2rcd13ifvqba0","pricing_plan_id":"cebpf4jnsgd1na2vs0mg"},{"bike_id":"03109b19-862c-4144-a626-ebe6a8dff71e","system_id":"levelo_inurba_marseille","lat":43.25829,"lon":5.39437,"is_reserved":false,"is_disabled":false,"rental_uris":{"android":"levelo://app?vid=03109b19-862c-4144-a626-ebe6a8dff71e","ios":"levelo://app?vid=03109b19-862c-4144-a626-ebe6a8dff71e"},"vehicle_type_id":"4","last_reported":1729447858,"current_range_meters":12000,"station_id":"ce4bhip2rcd13ifvqft0","pricing_plan_id":"cebpf4jnsgd1na2vs0mg"},{"bike_id":"351e06c9-fffd-48ca-9f0e-4d8592feb32f","system_id":"levelo_inurba_marseille","lat":43.29797,"lon":5.38095,"is_reserved":false,"is_disabled":false,"rental_uris":{"android":"levelo://app?vid=351e06c9-fffd-48ca-9f0e-4d8592feb32f","ios":"levelo://app?vid=351e06c9-fffd-48ca-9f0e-4d8592feb32f"},"vehicle_type_id":"4","last_reported":1729447858,"current_range_meters":38800,"station_id":"ce4bgip2rcd13ifvqbb0","pricing_plan_id":"cebpf4jnsgd1na2vs0mg"},{"bike_id":"40870754-868e-4215-a198-6c9849d25116","system_id":"levelo_inurba_marseille","lat":43.28924,"lon":5.38411,"is_reserved":false,"is_disabled":false,"rental_uris":{"android":"levelo://app?vid=40870754-868e-4215-a198-6c9849d25116","ios":"levelo://app?vid=40870754-868e-4215-a198-6c9849d25116"},"vehicle_type_id":"4","last_reported":1729447858,"current_range_meters":18000,"station_id":"ce4bh612rcd13ifvqe6g","pricing_plan_id":"cebpf4jnsgd1na2vs0mg"},{"bike_id":"78c16eed-6d92-4968-8a69-caa9b4910b2c","system_id":"levelo_inurba_marseille","lat":43.3013,"lon":5.3987,"is_reserved":false,"is_disabled":false,"rental_uris":{"android":"levelo://app?vid=78c16eed-6d92-4968-8a69-caa9b4910b2c","ios":"levelo://app?vid=78c16eed-6d92-4968-8a69-caa9b4910b2c"},"vehicle_type_id":"4","last_reported":1729447858,"current_range_meters":12800,"station_id":"ce4bh0h2rcd13ifvqd40","pricing_plan_id":"cebpf4jnsgd1na2vs0mg"},{"bike_id":"98d38ad9-6acb-4c78-b43b-0b046ebf6184","system_id":"levelo_inurba_marseille","lat":43.29268,"lon":5.38443,"is_reserved":false,"is_disabled":false,"rental_uris":{"android":"levelo://app?vid=98d38ad9-6acb-4c78-b43b-0b046ebf6184","ios":"levelo://app?vid=98d38ad9-6acb-4c78-b43b-0b046ebf6184"},"vehicle_type_id":"4","last_reported":1729447858,"current_range_meters":2800,"station_id":"","pricing_plan_id":"cebpf4jnsgd1na2vs0mg"},{"bike_id":"57a25b9e-e0f1-4f37-9774-be5f4ecb0d5d","system_id":"levelo_inurba_marseille","lat":43.25725,"lon":5.41104,"is_reserved":false,"is_disabled":false,"rental_uris":{"android":"levelo://app?vid=57a25b9e-e0f1-4f37-9774-be5f4ecb0d5d","ios":"levelo://app?vid=57a25b9e-e0f1-4f37-9774-be5f4ecb0d5d"},"vehicle_type_id":"4","last_reported":1729447858,"current_range_meters":19200,"station_id":"ce4bhkp2rcd13ifvqgd0","pricing_plan_id":"cebpf4jnsgd1na2vs0mg"},{"bike_id":"c5083c91-69e6-4547-a2d9-70f764801448","system_id":"levelo_inurba_marseille","lat":43.32041,"lon":5.41576,"is_reserved":false,"is_disabled":false,"rental_uris":{"android":"levelo://app?vid=c5083c91-69e6-4547-a2d9-70f764801448","ios":"levelo://app?vid=c5083c91-69e6-4547-a2d9-70f764801448"},"vehicle_type_id":"4","last_reported":1729447858,"current_range_meters":38800,"station_id":"ce4bhq92rcd13ifvqhkg","pricing_plan_id":"cebpf4jnsgd1na2vs0mg"},{"bike_id":"90122bb4-12c8-47e1-a4d2-34c422cb6f6a","system_id":"levelo_inurba_marseille","lat":43.31073,"lon":5.40079,"is_reserved":false,"is_disabled":false,"rental_uris":{"android":"levelo://app?vid=90122bb4-12c8-47e1-a4d2-34c422cb6f6a","ios":"levelo://app?vid=90122bb4-12c8-47e1-a4d2-34c422cb6f6a"},"vehicle_type_id":"4","last_reported":1729447858,"current_range_meters":16400,"station_id":"","pricing_plan_id":"cebpf4jnsgd1na2vs0mg"},{"bike_id":"f548a7e7-54d6-46a3-aa16-3c13daa477cf","system_id":"levelo_inurba_marseille","lat":43.28998,"lon":5.37844,"is_reserved":false,"is_disabled":false,"rental_uris":{"android":"levelo://app?vid=f548a7e7-54d6-46a3-aa16-3c13daa477cf","ios":"levelo://app?vid=f548a7e7-54d6-46a3-aa16-3c13daa477cf"},"vehicle_type_id":"4","last_reported":1729447858,"current_range_meters":3200,"station_id":"ce4bh9p2rcd13ifvqed0","pricing_plan_id":"cebpf4jnsgd1na2vs0mg"},{"bike_id":"a4f4fd68-a9a9-42db-8017-602a2358fb3c","system_id":"levelo_inurba_marseille","lat":43.29256,"lon":5.38441,"is_reserved":false,"is_disabled":false,"rental_uris":{"android":"levelo://app?vid=a4f4fd68-a9a9-42db-8017-602a2358fb3c","ios":"levelo://app?vid=a4f4fd68-a9a9-42db-8017-602a2358fb3c"},"vehicle_type_id":"4","last_reported":1729447858,"current_range_meters":36000,"station_id":"","pricing_plan_id":"cebpf4jnsgd1na2vs0mg"},{"bike_id":"d89b89ce-60ea-48e5-8b0b-cd3dd91668a5","system_id":"levelo_inurba_marseille","lat":43.29773,"lon":5.37152,"is_reserved":false,"is_disabled":false,"rental_uris":{"android":"levelo://app?vid=d89b89ce-60ea-48e5-8b0b-cd3dd91668a5","ios":"levelo://app?vid=d89b89ce-60ea-48e5-8b0b-cd3dd91668a5"},"vehicle_type_id":"4","last_reported":1729447858,"current_range_meters":22400,"station_id":"","pricing_plan_id":"cebpf4jnsgd1na2vs0mg"},{"bike_id":"4a24307f-7693-45f4-8a61-e6339da1657a","system_id":"levelo_inurba_marseille","lat":43.29197,"lon":5.39317,"is_reserved":false,"is_disabled":false,"rental_uris":{"android":"levelo://app?vid=4a24307f-7693-45f4-8a61-e6339da1657a","ios":"levelo://app?vid=4a24307f-7693-45f4-8a61-e6339da1657a"},"vehicle_type_id":"4","last_reported":1729447858,"current_range_meters":37600,"station_id":"ce4bh192rcd13ifvqdd0","pricing_plan_id":"cebpf4jnsgd1na2vs0mg"},{"bike_id":"563ec383-8d9f-49f7-b67f-f7abaea7517e","system_id":"levelo_inurba_marseille","lat":43.27923,"lon":5.38196,"is_reserved":false,"is_disabled":false,"rental_uris":{"android":"levelo://app?vid=563ec383-8d9f-49f7-b67f-f7abaea7517e","ios":"levelo://app?vid=563ec383-8d9f-49f7-b67f-f7abaea7517e"},"vehicle_type_id":"4","last_reported":1729447858,"current_range_meters":22400,"station_id":"ce4bhf92rcd13ifvqf50","pricing_plan_id":"cebpf4jnsgd1na2vs0mg"},{"bike_id":"85ab8a02-9ea1-45b7-b1c1-b8f1625c6c0d","system_id":"levelo_inurba_marseille","lat":43.27311,"lon":5.3908,"is_reserved":false,"is_disabled":false,"rental_uris":{"android":"levelo://app?vid=85ab8a02-9ea1-45b7-b1c1-b8f1625c6c0d","ios":"levelo://app?vid=85ab8a02-9ea1-45b7-b1c1-b8f1625c6c0d"},"vehicle_type_id":"4","last_reported":1729447858,"current_range_meters":8000,"station_id":"ce4bhgp2rcd13ifvqfe0","pricing_plan_id":"cebpf4jnsgd1na2vs0mg"},{"bike_id":"8211b691-3471-43c1-8515-20cbe2b789a1","system_id":"levelo_inurba_marseille","lat":43.23178,"lon":5.39989,"is_reserved":false,"is_disabled":false,"rental_uris":{"android":"levelo://app?vid=8211b691-3471-43c1-8515-20cbe2b789a1","ios":"levelo://app?vid=8211b691-3471-43c1-8515-20cbe2b789a1"},"vehicle_type_id":"4","last_reported":1729447858,"current_range_meters":29600,"station_id":"ce4bhn12rcd13ifvqgqg","pricing_plan_id":"cebpf4jnsgd1na2vs0mg"},{"bike_id":"cf12103b-40a1-411f-9847-9d7785f3e15e","system_id":"levelo_inurba_marseille","lat":43.2861,"lon":5.35104,"is_reserved":false,"is_disabled":false,"rental_uris":{"android":"levelo://app?vid=cf12103b-40a1-411f-9847-9d7785f3e15e","ios":"levelo://app?vid=cf12103b-40a1-411f-9847-9d7785f3e15e"},"vehicle_type_id":"4","last_reported":1729447858,"current_range_meters":38800,"station_id":"ce4bhch2rcd13ifvqeug","pricing_plan_id":"cebpf4jnsgd1na2vs0mg"},{"bike_id":"ab5217ac-696f-47ea-accf-7f46c4063444","system_id":"levelo_inurba_marseille","lat":43.337444,"lon":5.374475,"is_reserved":false,"is_disabled":false,"rental_uris":{"android":"levelo://app?vid=ab5217ac-696f-47ea-accf-7f46c4063444","ios":"levelo://app?vid=ab5217ac-696f-47ea-accf-7f46c4063444"},"vehicle_type_id":"4","last_reported":1729447858,"current_range_meters":11200,"station_id":"","pricing_plan_id":"cebpf4jnsgd1na2vs0mg"},{"bike_id":"92dbf40b-86ea-46b8-8e8e-46fd3d53e553","system_id":"levelo_inurba_marseille","lat":43.29633,"lon":5.406,"is_reserved":false,"is_disabled":false,"rental_uris":{"android":"levelo://app?vid=92dbf40b-86ea-46b8-8e8e-46fd3d53e553","ios":"levelo://app?vid=92dbf40b-86ea-46b8-8e8e-46fd3d53e553"},"vehicle_type_id":"4","last_reported":1729447858,"current_range_meters":13600,"station_id":"ce4bh0h2rcd13ifvqd60","pricing_plan_id":"cebpf4jnsgd1na2vs0mg"},{"bike_id":"5ada3c41-7e39-43ed-809c-bdf29230f254","system_id":"levelo_inurba_marseille","lat":43.29794,"lon":5.404,"is_reserved":false,"is_disabled":false,"rental_uris":{"android":"levelo://app?vid=5ada3c41-7e39-43ed-809c-bdf29230f254","ios":"levelo://app?vid=5ada3c41-7e39-43ed-809c-bdf29230f254"},"vehicle_type_id":"4","last_reported":1729447858,"current_range_meters":8000,"station_id":"ce4bh112rcd13ifvqd90","pricing_plan_id":"cebpf4jnsgd1na2vs0mg"},{"bike_id":"f65187b5-cf6d-425d-af43-918af5ca8f8a","system_id":"levelo_inurba_marseille","lat":43.26936,"lon":5.40258,"is_reserved":false,"is_disabled":false,"rental_uris":{"android":"levelo://app?vid=f65187b5-cf6d-425d-af43-918af5ca8f8a","ios":"levelo://app?vid=f65187b5-cf6d-425d-af43-918af5ca8f8a"},"vehicle_type_id":"4","last_reported":1729447858,"current_range_meters":14000,"station_id":"cjm6bp8fraef2m0cb0m0","pricing_plan_id":"cebpf4jnsgd1na2vs0mg"},{"bike_id":"3b4120ab-23a9-402e-b812-ff59080fb451","system_id":"levelo_inurba_marseille","lat":43.30546,"lon":5.3843,"is_reserved":false,"is_disabled":false,"rental_uris":{"android":"levelo://app?vid=3b4120ab-23a9-402e-b812-ff59080fb451","ios":"levelo://app?vid=3b4120ab-23a9-402e-b812-ff59080fb451"},"vehicle_type_id":"4","last_reported":1729447858,"current_range_meters":6800,"station_id":"ce4bgg92rcd13ifvqb30","pricing_plan_id":"cebpf4jnsgd1na2vs0mg"},{"bike_id":"882f7ecc-ccab-4ac4-af6d-7920c42cf3cd","system_id":"levelo_inurba_marseille","lat":43.28965,"lon":5.3783,"is_reserved":false,"is_disabled":false,"rental_uris":{"android":"levelo://app?vid=882f7ecc-ccab-4ac4-af6d-7920c42cf3cd","ios":"levelo://app?vid=882f7ecc-ccab-4ac4-af6d-7920c42cf3cd"},"vehicle_type_id":"4","last_reported":1729447858,"current_range_meters":27200,"station_id":"ce4bh9p2rcd13ifvqed0","pricing_plan_id":"cebpf4jnsgd1na2vs0mg"},{"bike_id":"a8fd6ad2-c92b-4b5a-8d70-08b01b56b9e8","system_id":"levelo_inurba_marseille","lat":43.33178,"lon":5.4196,"is_reserved":false,"is_disabled":false,"rental_uris":{"android":"levelo://app?vid=a8fd6ad2-c92b-4b5a-8d70-08b01b56b9e8","ios":"levelo://app?vid=a8fd6ad2-c92b-4b5a-8d70-08b01b56b9e8"},"vehicle_type_id":"4","last_reported":1729447858,"current_range_meters":19600,"station_id":"ce4bhq12rcd13ifvqhhg","pricing_plan_id":"cebpf4jnsgd1na2vs0mg"},{"bike_id":"e647528e-a975-4522-bc1d-330243412624","system_id":"levelo_inurba_marseille","lat":43.23179,"lon":5.39986,"is_reserved":false,"is_disabled":false,"rental_uris":{"android":"levelo://app?vid=e647528e-a975-4522-bc1d-330243412624","ios":"levelo://app?vid=e647528e-a975-4522-bc1d-330243412624"},"vehicle_type_id":"4","last_reported":1729447858,"current_range_meters":6400,"station_id":"ce4bhn12rcd13ifvqgqg","pricing_plan_id":"cebpf4jnsgd1na2vs0mg"},{"bike_id":"b170c69c-4089-4321-bba9-c9612fefa913","system_id":"levelo_inurba_marseille","lat":43.32451,"lon":5.38405,"is_reserved":false,"is_disabled":false,"rental_uris":{"android":"levelo://app?vid=b170c69c-4089-4321-bba9-c9612fefa913","ios":"levelo://app?vid=b170c69c-4089-4321-bba9-c9612fefa913"},"vehicle_type_id":"4","last_reported":1729447858,"current_range_meters":14800,"station_id":"ce4bhr12rcd13ifvqhqg","pricing_plan_id":"cebpf4jnsgd1na2vs0mg"},{"bike_id":"37072c0b-e7ab-46c0-aa23-f92099eadfb7","system_id":"levelo_inurba_marseille","lat":43.27545,"lon":5.38439,"is_reserved":false,"is_disabled":false,"rental_uris":{"android":"levelo://app?vid=37072c0b-e7ab-46c0-aa23-f92099eadfb7","ios":"levelo://app?vid=37072c0b-e7ab-46c0-aa23-f92099eadfb7"},"vehicle_type_id":"4","last_reported":1729447858,"current_range_meters":17600,"station_id":"ce4bhh92rcd13ifvqfi0","pricing_plan_id":"cebpf4jnsgd1na2vs0mg"},{"bike_id":"78f01598-8938-42a6-ad8c-f81df9dd1261","system_id":"levelo_inurba_marseille","lat":43.28698,"lon":5.37384,"is_reserved":false,"is_disabled":false,"rental_uris":{"android":"levelo://app?vid=78f01598-8938-42a6-ad8c-f81df9dd1261","ios":"levelo://app?vid=78f01598-8938-42a6-ad8c-f81df9dd1261"},"vehicle_type_id":"4","last_reported":1729447858,"current_range_meters":6400,"station_id":"ce4bh3p2rcd13ifvqdq0","pricing_plan_id":"cebpf4jnsgd1na2vs0mg"},{"bike_id":"3e50c8e5-e52d-412b-873f-4aa46ab026e7","system_id":"levelo_inurba_marseille","lat":43.29969,"lon":5.38484,"is_reserved":false,"is_disabled":false,"rental_uris":{"android":"levelo://app?vid=3e50c8e5-e52d-412b-873f-4aa46ab026e7","ios":"levelo://app?vid=3e50c8e5-e52d-412b-873f-4aa46ab026e7"},"vehicle_type_id":"4","last_reported":1729447858,"current_range_meters":38400,"station_id":"ce4bgj92rcd13ifvqbd0","pricing_plan_id":"cebpf4jnsgd1na2vs0mg"},{"bike_id":"45cd8826-0f6e-4075-88d1-ab2a4e781b29","system_id":"levelo_inurba_marseille","lat":43.31756,"lon":5.3902,"is_reserved":false,"is_disabled":false,"rental_uris":{"android":"levelo://app?vid=45cd8826-0f6e-4075-88d1-ab2a4e781b29","ios":"levelo://app?vid=45cd8826-0f6e-4075-88d1-ab2a4e781b29"},"vehicle_type_id":"4","last_reported":1729447858,"current_range_meters":8400,"station_id":"ce4bhqp2rcd13ifvqhng","pricing_plan_id":"cebpf4jnsgd1na2vs0mg"},{"bike_id":"376fe0d0-1904-4d52-9720-aa198209e2c4","system_id":"levelo_inurba_marseille","lat":43.31754,"lon":5.39015,"is_reserved":false,"is_disabled":false,"rental_uris":{"android":"levelo://app?vid=376fe0d0-1904-4d52-9720-aa198209e2c4","ios":"levelo://app?vid=376fe0d0-1904-4d52-9720-aa198209e2c4"},"vehicle_type_id":"4","last_reported":1729447858,"current_range_meters":17600,"station_id":"ce4bhqp2rcd13ifvqhng","pricing_plan_id":"cebpf4jnsgd1na2vs0mg"},{"bike_id":"346c0bea-50e5-4208-a02f-a7b52551ab22","system_id":"levelo_inurba_marseille","lat":43.2481,"lon":5.3746,"is_reserved":false,"is_disabled":false,"rental_uris":{"android":"levelo://app?vid=346c0bea-50e5-4208-a02f-a7b52551ab22","ios":"levelo://app?vid=346c0bea-50e5-4208-a02f-a7b52551ab22"},"vehicle_type_id":"4","last_reported":1729447858,"current_range_meters":38800,"station_id":"ce4bhgh2rcd13ifvqfb0","pricing_plan_id":"cebpf4jnsgd1na2vs0mg"},{"bike_id":"e8c1b31f-2654-42f4-8c77-f8c4f3897a40","system_id":"levelo_inurba_marseille","lat":43.31363,"lon":5.38494,"is_reserved":false,"is_disabled":false,"rental_uris":{"android":"levelo://app?vid=e8c1b31f-2654-42f4-8c77-f8c4f3897a40","ios":"levelo://app?vid=e8c1b31f-2654-42f4-8c77-f8c4f3897a40"},"vehicle_type_id":"4","last_reported":1729447858,"current_range_meters":24400,"station_id":"ce4bgt92rcd13ifvqcf0","pricing_plan_id":"cebpf4jnsgd1na2vs0mg"},{"bike_id":"5fc605a4-2665-4a0b-9505-135807d3acf2","system_id":"levelo_inurba_marseille","lat":43.2953,"lon":5.38548,"is_reserved":false,"is_disabled":false,"rental_uris":{"android":"levelo://app?vid=5fc605a4-2665-4a0b-9505-135807d3acf2","ios":"levelo://app?vid=5fc605a4-2665-4a0b-9505-135807d3acf2"},"vehicle_type_id":"4","last_reported":1729447858,"current_range_meters":7200,"station_id":"ce4bgih2rcd13ifvqba0","pricing_plan_id":"cebpf4jnsgd1na2vs0mg"},{"bike_id":"94f5693d-1b49-4f9e-b56d-62c7894480e4","system_id":"levelo_inurba_marseille","lat":43.30599,"lon":5.37234,"is_reserved":false,"is_disabled":false,"rental_uris":{"android":"levelo://app?vid=94f5693d-1b49-4f9e-b56d-62c7894480e4","ios":"levelo://app?vid=94f5693d-1b49-4f9e-b56d-62c7894480e4"},"vehicle_type_id":"4","last_reported":1729447858,"current_range_meters":30400,"station_id":"ce4bgqh2rcd13ifvqc4g","pricing_plan_id":"cebpf4jnsgd1na2vs0mg"},{"bike_id":"bbb567d3-84c0-4478-ac1e-e68762580060","system_id":"levelo_inurba_marseille","lat":43.28621,"lon":5.3511,"is_reserved":false,"is_disabled":false,"rental_uris":{"android":"levelo://app?vid=bbb567d3-84c0-4478-ac1e-e68762580060","ios":"levelo://app?vid=bbb567d3-84c0-4478-ac1e-e68762580060"},"vehicle_type_id":"4","last_reported":1729447858,"current_range_meters":38800,"station_id":"ce4bhch2rcd13ifvqeug","pricing_plan_id":"cebpf4jnsgd1na2vs0mg"},{"bike_id":"99784c89-408b-47f1-b49f-58d3ca57068d","system_id":"levelo_inurba_marseille","lat":43.29962,"lon":5.41328,"is_reserved":false,"is_disabled":false,"rental_uris":{"android":"levelo://app?vid=99784c89-408b-47f1-b49f-58d3ca57068d","ios":"levelo://app?vid=99784c89-408b-47f1-b49f-58d3ca57068d"},"vehicle_type_id":"4","last_reported":1729447858,"current_range_meters":32800,"station_id":"ce4bhp12rcd13ifvqh9g","pricing_plan_id":"cebpf4jnsgd1na2vs0mg"},{"bike_id":"c581a324-f638-4edb-96ca-85d4f04866ac","system_id":"levelo_inurba_marseille","lat":43.26948,"lon":5.38633,"is_reserved":false,"is_disabled":false,"rental_uris":{"android":"levelo://app?vid=c581a324-f638-4edb-96ca-85d4f04866ac","ios":"levelo://app?vid=c581a324-f638-4edb-96ca-85d4f04866ac"},"vehicle_type_id":"4","last_reported":1729447858,"current_range_meters":20400,"station_id":"ce4bhh92rcd13ifvqfh0","pricing_plan_id":"cebpf4jnsgd1na2vs0mg"},{"bike_id":"44311282-bc6b-4d9c-8b2c-144986fc3c13","system_id":"levelo_inurba_marseille","lat":43.30323,"lon":5.36914,"is_reserved":false,"is_disabled":false,"rental_uris":{"android":"levelo://app?vid=44311282-bc6b-4d9c-8b2c-144986fc3c13","ios":"levelo://app?vid=44311282-bc6b-4d9c-8b2c-144986fc3c13"},"vehicle_type_id":"4","last_reported":1729447858,"current_range_meters":34800,"station_id":"ce4bgqh2rcd13ifvqc5g","pricing_plan_id":"cebpf4jnsgd1na2vs0mg"},{"bike_id":"e15bd725-d254-454b-becb-f2b3c12bc06d","system_id":"levelo_inurba_marseille","lat":43.25705,"lon":5.396367,"is_reserved":false,"is_disabled":false,"rental_uris":{"android":"levelo://app?vid=e15bd725-d254-454b-becb-f2b3c12bc06d","ios":"levelo://app?vid=e15bd725-d254-454b-becb-f2b3c12bc06d"},"vehicle_type_id":"4","last_reported":1729447858,"current_range_meters":30800,"station_id":"","pricing_plan_id":"cebpf4jnsgd1na2vs0mg"},{"bike_id":"65e2415a-7391-4265-8f39-91c0746f274e","system_id":"levelo_inurba_marseille","lat":43.29029,"lon":5.38148,"is_reserved":false,"is_disabled":false,"rental_uris":{"android":"levelo://app?vid=65e2415a-7391-4265-8f39-91c0746f274e","ios":"levelo://app?vid=65e2415a-7391-4265-8f39-91c0746f274e"},"vehicle_type_id":"4","last_reported":1729447858,"current_range_meters":38800,"station_id":"ce4bh4p2rcd13ifvqe1g","pricing_plan_id":"cebpf4jnsgd1na2vs0mg"},{"bike_id":"6311f596-daec-48f5-92e7-240c458db6c9","system_id":"levelo_inurba_marseille","lat":43.31758,"lon":5.39024,"is_reserved":false,"is_disabled":false,"rental_uris":{"android":"levelo://app?vid=6311f596-daec-48f5-92e7-240c458db6c9","ios":"levelo://app?vid=6311f596-daec-48f5-92e7-240c458db6c9"},"vehicle_type_id":"4","last_reported":1729447858,"current_range_meters":32800,"station_id":"ce4bhqp2rcd13ifvqhng","pricing_plan_id":"cebpf4jnsgd1na2vs0mg"},{"bike_id":"6202e8c0-5d4b-495a-b28f-6c6be932b15a","system_id":"levelo_inurba_marseille","lat":43.27838,"lon":5.3922,"is_reserved":false,"is_disabled":false,"rental_uris":{"android":"levelo://app?vid=6202e8c0-5d4b-495a-b28f-6c6be932b15a","ios":"levelo://app?vid=6202e8c0-5d4b-495a-b28f-6c6be932b15a"},"vehicle_type_id":"4","last_reported":1729447858,"current_range_meters":24000,"station_id":"ce4bhjp2rcd13ifvqga0","pricing_plan_id":"cebpf4jnsgd1na2vs0mg"},{"bike_id":"c4aaf838-5e91-48b3-a8ca-6e0a0a767bee","system_id":"levelo_inurba_marseille","lat":43.23176,"lon":5.39988,"is_reserved":false,"is_disabled":false,"rental_uris":{"android":"levelo://app?vid=c4aaf838-5e91-48b3-a8ca-6e0a0a767bee","ios":"levelo://app?vid=c4aaf838-5e91-48b3-a8ca-6e0a0a767bee"},"vehicle_type_id":"4","last_reported":1729447858,"current_range_meters":16800,"station_id":"ce4bhn12rcd13ifvqgqg","pricing_plan_id":"cebpf4jnsgd1na2vs0mg"},{"bike_id":"bba3cdc8-86c8-4af8-9917-656af482f7f3","system_id":"levelo_inurba_marseille","lat":43.24663,"lon":5.38168,"is_reserved":false,"is_disabled":false,"rental_uris":{"android":"levelo://app?vid=bba3cdc8-86c8-4af8-9917-656af482f7f3","ios":"levelo://app?vid=bba3cdc8-86c8-4af8-9917-656af482f7f3"},"vehicle_type_id":"4","last_reported":1729447858,"current_range_meters":1600,"station_id":"ce4bhih2rcd13ifvqfr0","pricing_plan_id":"cebpf4jnsgd1na2vs0mg"},