{"last_updated":1747494518,"ttl":60,"version":"2.2","data":{"bikes":[{"bike_id":"c0b9fd4f-e181-46ce-b0bf-f5119973334f","system_id":"levelo_inurba_marseille","lat":43.33771,"lon":5.37424,"is_reserved":false,"is_disabled":false,"rental_uris":{"android":"levelo://app?vid=c0b9fd4f-e181-46ce-b0bf-f5119973334f","ios":"levelo://app?vid=c0b9fd4f-e181-46ce-b0bf-f5119973334f"},"vehicle_type_id":"4","last_reported":1747494518,"current_range_meters":4800,"station_id":"","pricing_plan_id":"cebpf4jnsgd1na2vs0mg"},{"bike_id":"fc2577e7-1497-425b-9d4f-ab8d7dc843c6","system_id":"levelo_inurba_marseille","lat":43.33771,"lon":5.37485,"is_reserved":false,"is_disabled":true,"rental_uris":{"android":"levelo://app?vid=fc2577e7-1497-425b-9d4f-ab8d7dc843c6","ios":"levelo://app?vid=fc2577e7-1497-425b-9d4f-ab8d7dc843c6"},"vehicle_type_id":"4","last_reported":1747494518,"current_range_meters":0,"station_id":"","pricing_plan_id":"cebpf4jnsgd1na2vs0mg"},{"bike_id":"80d0d83f-909d-4568-b4e7-8a3ef4eed2de","system_id":"levelo_inurba_marseille","lat":43.253883,"lon":5.419002,"is_reserved":false,"is_disabled":true,"rental_uris":{"android":"levelo://app?vid=80d0d83f-909d-4568-b4e7-8a3ef4eed2de","ios":"levelo://app?vid=80d0d83f-909d-4568-b4e7-8a3ef4eed2de"},"vehicle_type_id":"4","last_reported":1747494518,"current_range_meters":0,"station_id":"","pricing_plan_id":"cebpf4jnsgd1na2vs0mg"},{"bike_id":"0b7b8d9e-a565-4a78-b09b-a8c868649f48","system_id":"levelo_inurba_marseille","lat":43.337444,"lon":5.374475,"is_reserved":false,"is_disabled":true,"rental_uris":{"android":"levelo://app?vid=0b7b8d9e-a565-4a78-b09b-a8c868649f48","ios":"levelo://app?vid=0b7b8d9e-a565-4a78-b09b-a8c868649f48"},"vehicle_type_id":"4","last_reported":1747494518,"current_range_meters":0,"station_id":"","pricing_plan_id":"cebpf4jnsgd1na2vs0mg"},{"bike_id":"ce4325af-2448-4172-bdec-81d552ee0b62","system_id":"levelo_inurba_marseille","lat":43.26165,"lon":5.4202,"is_reserved":false,"is_disabled":true,"rental_uris":{"android":"levelo://app?vid=ce4325af-2448-4172-bdec-81d552ee0b62","ios":"levelo://app?vid=ce4325af-2448-4172-bdec-81d552ee0b62"},"vehicle_type_id":"4","last_reported":1747494518,"current_range_meters":0,"station_id":"","pricing_plan_id":"cebpf4jnsgd1na2vs0mg"},{"bike_id":"23939faf-d206-4b93-ade4-199417584041","system_id":"levelo_inurba_marseille","lat":43.249445,"lon":5.375388,"is_reserved":false,"is_disabled":true,"rental_uris":{"android":"levelo://app?vid=23939faf-d206-4b93-ade4-199417584041","ios":"levelo://app?vid=23939faf-d206-4b93-ade4-199417584041"},"vehicle_type_id":"4","last_reported":1747494518,"current_range_meters":0,"station_id":"","pricing_plan_id":"cebpf4jnsgd1na2vs0mg"},{"bike_id":"1febea84-0b17-40bc-abf8-b3585b8dc0d2","system_id":"levelo_inurba_marseille","lat":43.28925,"lon":5.3832,"is_reserved":false,"is_disabled":true,"rental_uris":{"android":"levelo://app?vid=1febea84-0b17-40bc-abf8-b3585b8dc0d2","ios":"levelo://app?vid=1febea84-0b17-40bc-abf8-b3585b8dc0d2"},"vehicle_type_id":"4","last_reported":1747494518,"current_range_meters":0,"station_id":"","pricing_plan_id":"cebpf4jnsgd1na2vs0mg"},{"bike_id":"792567c6-0442-4011-aff0-9c05e25deb48","system_id":"levelo_inurba_marseille","lat":43.337444,"lon":5.374475,"is_reserved":false,"is_disabled":true,"rental_uris":{"android":"levelo://app?vid=792567c6-0442-4011-aff0-9c05e25deb48","ios":"levelo://app?vid=792567c6-0442-4011-aff0-9c05e25deb48"},"vehicle_type_id":"4","last_reported":1747494518,"current_range_meters":0,"station_id":"","pricing_plan_id":"cebpf4jnsgd1na2vs0mg"},{"bike_id":"bb0baa39-1e01-43e0-a77c-5ba8d631e8a2","system_id":"levelo_inurba_marseille","lat":43.27246,"lon":5.385868,"is_reserved":false,"is_disabled":true,"rental_uris":{"android":"levelo://app?vid=bb0baa39-1e01-43e0-a77c-5ba8d631e8a2","ios":"levelo://app?vid=bb0baa39-1e01-43e0-a77c-5ba8d631e8a2"},"vehicle_type_id":"4","last_reported":1747494518,"current_range_meters":0,"station_id":"","pricing_plan_id":"cebpf4jnsgd1na2vs0mg"},{"bike_id":"ff51c5aa-53f3-4e04-a170-ee7c6ba695fc","system_id":"levelo_inurba_marseille","lat":43.29308,"lon":5.37162,"is_reserved":false,"is_disabled":true,"rental_uris":{"android":"levelo://app?vid=ff51c5aa-53f3-4e04-a170-ee7c6ba695fc","ios":"levelo://app?vid=ff51c5aa-53f3-4e04-a170-ee7c6ba695fc"},"vehicle_type_id":"4","last_reported":1747494518,"current_range_meters":0,"station_id":"ce4bgh92rcd13ifvqb40","pricing_plan_id":"cebpf4jnsgd1na2vs0mg"},{"bike_id":"5a742a8e-3947-446b-9033-6795134dd09f","system_id":"levelo_inurba_marseille","lat":43.29364,"lon":5.37833,"is_reserved":false,"is_disabled":true,"rental_uris":{"android":"levelo://app?vid=5a742a8e-3947-446b-9033-6795134dd09f","ios":"levelo://app?vid=5a742a8e-3947-446b-9033-6795134dd09f"},"vehicle_type_id":"4","last_reported":1747494518,"current_range_meters":0,"station_id":"ce4bgjh2rcd13ifvqbf0","pricing_plan_id":"cebpf4jnsgd1na2vs0mg"},{"bike_id":"bc8aa46f-0da1-4663-a3b5-ec59930a049a","system_id":"levelo_inurba_marseille","lat":43.315,"lon":5.37308,"is_reserved":false,"is_disabled":true,"rental_uris":{"android":"levelo://app?vid=bc8aa46f-0da1-4663-a3b5-ec59930a049a","ios":"levelo://app?vid=bc8aa46f-0da1-4663-a3b5-ec59930a049a"},"vehicle_type_id":"4","last_reported":1747494518,"current_range_meters":0,"station_id":"ce4bgt12rcd13ifvqcd0","pricing_plan_id":"cebpf4jnsgd1na2vs0mg"},{"bike_id":"7b991fd9-6876-4ed4-b3f3-c80561782a70","system_id":"levelo_inurba_marseille","lat":43.30328,"lon":5.4043,"is_reserved":false,"is_disabled":true,"rental_uris":{"android":"levelo://app?vid=7b991fd9-6876-4ed4-b3f3-c80561782a70","ios":"levelo://app?vid=7b991fd9-6876-4ed4-b3f3-c80561782a70"},"vehicle_type_id":"4","last_reported":1747494518,"current_range_meters":0,"station_id":"ce4bh012rcd13ifvqd10","pricing_plan_id":"cebpf4jnsgd1na2vs0mg"},{"bike_id":"5185abd5-80c2-4da8-aab1-29b962892da5","system_id":"levelo_inurba_marseille","lat":43.30141,"lon":5.39881,"is_reserved":false,"is_disabled":true,"rental_uris":{"android":"levelo://app?vid=5185abd5-80c2-4da8-aab1-29b962892da5","ios":"levelo://app?vid=5185abd5-80c2-4da8-aab1-29b962892da5"},"vehicle_type_id":"4","last_reported":1747494518,"current_range_meters":0,"station_id":"ce4bh0h2rcd13ifvqd40","pricing_plan_id":"cebpf4jnsgd1na2vs0mg"},{"bike_id":"452f98e1-9947-4c95-a951-aa08e8dc92ca","system_id":"levelo_inurba_marseille","lat":43.29109,"lon":5.38129,"is_reserved":false,"is_disabled":true,"rental_uris":{"android":"levelo://app?vid=452f98e1-9947-4c95-a951-aa08e8dc92ca","ios":"levelo://app?vid=452f98e1-9947-4c95-a951-aa08e8dc92ca"},"vehicle_type_id":"4","last_reported":1747494518,"current_range_meters":0,"station_id":"ce4bh512rcd13ifvqe2g","pricing_plan_id":"cebpf4jnsgd1na2vs0mg"},{"bike_id":"65db94d2-3b74-4e29-917a-28f86f907917","system_id":"levelo_inurba_marseille","lat":43.28909,"lon":5.38387,"is_reserved":false,"is_disabled":true,"rental_uris":{"android":"levelo://app?vid=65db94d2-3b74-4e29-917a-28f86f907917","ios":"levelo://app?vid=65db94d2-3b74-4e29-917a-28f86f907917"},"vehicle_type_id":"4","last_reported":1747494518,"current_range_meters":0,"station_id":"ce4bh612rcd13ifvqe6g","pricing_plan_id":"cebpf4jnsgd1na2vs0mg"},{"bike_id":"60571ea9-6134-4763-a97f-6ccc7969e593","system_id":"levelo_inurba_marseille","lat":43.26548,"lon":5.37315,"is_reserved":false,"is_disabled":true,"rental_uris":{"android":"levelo://app?vid=60571ea9-6134-4763-a97f-6ccc7969e593","ios":"levelo://app?vid=60571ea9-6134-4763-a97f-6ccc7969e593"},"vehicle_type_id":"4","last_reported":1747494518,"current_range_meters":0,"station_id":"ce4bhg12rcd13ifvqf70","pricing_plan_id":"cebpf4jnsgd1na2vs0mg"},{"bike_id":"50bbddd4-3f16-4440-8cd7-cd6374368314","system_id":"levelo_inurba_marseille","lat":43.26027,"lon":5.37556,"is_reserved":false,"is_disabled":true,"rental_uris":{"android":"levelo://app?vid=50bbddd4-3f16-4440-8cd7-cd6374368314","ios":"levelo://app?vid=50bbddd4-3f16-4440-8cd7-cd6374368314"},"vehicle_type_id":"4","last_reported":1747494518,"current_range_meters":0,"station_id":"ce4bhgh2rcd13ifvqfa0","pricing_plan_id":"cebpf4jnsgd1na2vs0mg"},{"bike_id":"77531a78-702c-4d5b-89bb-6587de1a6d9f","system_id":"levelo_inurba_marseille","lat":43.27684,"lon":5.38874,"is_reserved":false,"is_disabled":true,"rental_uris":{"android":"levelo://app?vid=77531a78-702c-4d5b-89bb-6587de1a6d9f","ios":"levelo://app?vid=77531a78-702c-4d5b-89bb-6587de1a6d9f"},"vehicle_type_id":"4","last_reported":1747494518,"current_range_meters":0,"station_id":"ce4bhi12rcd13ifvqfo0","pricing_plan_id":"cebpf4jnsgd1na2vs0mg"},{"bike_id":"39f663ba-1318-4d5f-ba97-0055c8c56cae","system_id":"levelo_inurba_marseille","lat":43.27686,"lon":5.38873,"is_reserved":false,"is_disabled":true,"rental_uris":{"android":"levelo://app?vid=39f663ba-1318-4d5f-ba97-0055c8c56cae","ios":"levelo://app?vid=39f663ba-1318-4d5f-ba97-0055c8c56cae"},"vehicle_type_id":"4","last_reported":1747494518,"current_range_meters":0,"station_id":"ce4bhi12rcd13ifvqfo0","pricing_plan_id":"cebpf4jnsgd1na2vs0mg"},{"bike_id":"bb71bc22-1b49-412e-ab7b-9785f5125406","system_id":"levelo_inurba_marseille","lat":43.25575,"lon":5.38237,"is_reserved":false,"is_disabled":true,"rental_uris":{"android":"levelo://app?vid=bb71bc22-1b49-412e-ab7b-9785f5125406","ios":"levelo://app?vid=bb71bc22-1b49-412e-ab7b-9785f5125406"},"vehicle_type_id":"4","last_reported":1747494518,"current_range_meters":0,"station_id":"ce4bhih2rcd13ifvqfs0","pricing_plan_id":"cebpf4jnsgd1na2vs0mg"},{"bike_id":"4c2cca98-37cd-4a2e-948e-db00efe3999e","system_id":"levelo_inurba_marseille","lat":43.245483,"lon":5.395253,"is_reserved":false,"is_disabled":true,"rental_uris":{"android":"levelo://app?vid=4c2cca98-37cd-4a2e-948e-db00efe3999e","ios":"levelo://app?vid=4c2cca98-37cd-4a2e-948e-db00efe3999e"},"vehicle_type_id":"4","last_reported":1747494518,"current_range_meters":0,"station_id":"ce4bhlp2rcd13ifvqgjg","pricing_plan_id":"cebpf4jnsgd1na2vs0mg"},{"bike_id":"3bcfd179-a60e-483b-b473-b58f9b8f0dc5","system_id":"levelo_inurba_marseille","lat":43.26228,"lon":5.4044,"is_reserved":false,"is_disabled":true,"rental_uris":{"android":"levelo://app?vid=3bcfd179-a60e-483b-b473-b58f9b8f0dc5","ios":"levelo://app?vid=3bcfd179-a60e-483b-b473-b58f9b8f0dc5"},"vehicle_type_id":"4","last_reported":1747494518,"current_range_meters":0,"station_id":"ce4bhmh2rcd13ifvqgmg","pricing_plan_id":"cebpf4jnsgd1na2vs0mg"},{"bike_id":"98b8c9da-77e0-4213-bef2-e59272dfbed2","system_id":"levelo_inurba_marseille","lat":43.2315,"lon":5.43716,"is_reserved":false,"is_disabled":true,"rental_uris":{"android":"levelo://app?vid=98b8c9da-77e0-4213-bef2-e59272dfbed2","ios":"levelo://app?vid=98b8c9da-77e0-4213-bef2-e59272dfbed2"},"vehicle_type_id":"4","last_reported":1747494518,"current_range_meters":0,"station_id":"ce4bhmp2rcd13ifvqgog","pricing_plan_id":"cebpf4jnsgd1na2vs0mg"},{"bike_id":"0d5ec5dc-1184-4e2f-b2c9-ab60a3457c0f","system_id":"levelo_inurba_marseille","lat":43.231553,"lon":5.437034,"is_reserved":false,"is_disabled":true,"rental_uris":{"android":"levelo://app?vid=0d5ec5dc-1184-4e2f-b2c9-ab60a3457c0f","ios":"levelo://app?vid=0d5ec5dc-1184-4e2f-b2c9-ab60a3457c0f"},"vehicle_type_id":"4","last_reported":1747494518,"current_range_meters":0,"station_id":"ce4bhmp2rcd13ifvqgog","pricing_plan_id":"cebpf4jnsgd1na2vs0mg"},{"bike_id":"a1c9066c-592b-4af5-9d41-868c49186776","system_id":"levelo_inurba_marseille","lat":43.27815,"lon":5.40698,"is_reserved":false,"is_disabled":true,"rental_uris":{"android":"levelo://app?vid=a1c9066c-592b-4af5-9d41-868c49186776","ios":"levelo://app?vid=a1c9066c-592b-4af5-9d41-868c49186776"},"vehicle_type_id":"4","last_reported":1747494518,"current_range_meters":0,"station_id":"ce4bhnh2rcd13ifvqgtg","pricing_plan_id":"cebpf4jnsgd1na2vs0mg"},{"bike_id":"1c2c1f79-5518-408a-85aa-5b97582c295d","system_id":"levelo_inurba_marseille","lat":43.24087,"lon":5.37742,"is_reserved":false,"is_disabled":true,"rental_uris":{"android":"levelo://app?vid=1c2c1f79-5518-408a-85aa-5b97582c295d","ios":"levelo://app?vid=1c2c1f79-5518-408a-85aa-5b97582c295d"},"vehicle_type_id":"4","last_reported":1747494518,"current_range_meters":0,"station_id":"ce4bhnp2rcd13ifvqgvg","pricing_plan_id":"cebpf4jnsgd1na2vs0mg"},{"bike_id":"2157e5f1-d7c6-4bc3-9f22-02a74b6daaaf","system_id":"levelo_inurba_marseille","lat":43.279474,"lon":5.410444,"is_reserved":false,"is_disabled":true,"rental_uris":{"android":"levelo://app?vid=2157e5f1-d7c6-4bc3-9f22-02a74b6daaaf","ios":"levelo://app?vid=2157e5f1-d7c6-4bc3-9f22-02a74b6daaaf"},"vehicle_type_id":"4","last_reported":1747494518,"current_range_meters":0,"station_id":"ce4bhnp2rcd13ifvqh0g","pricing_plan_id":"cebpf4jnsgd1na2vs0mg"},{"bike_id":"f3643df7-ea3d-41eb-8e92-b31dc64a90e6","system_id":"levelo_inurba_marseille","lat":43.27952,"lon":5.41025,"is_reserved":false,"is_disabled":true,"rental_uris":{"android":"levelo://app?vid=f3643df7-ea3d-41eb-8e92-b31dc64a90e6","ios":"levelo://app?vid=f3643df7-ea3d-41eb-8e92-b31dc64a90e6"},"vehicle_type_id":"4","last_reported":1747494518,"current_range_meters":0,"station_id":"ce4bhnp2rcd13ifvqh0g","pricing_plan_id":"cebpf4jnsgd1na2vs0mg"},{"bike_id":"8457aa73-981d-48fb-b2bb-1230fb13ea70","system_id":"levelo_inurba_marseille","lat":43.23203,"lon":5.35581,"is_reserved":false,"is_disabled":true,"rental_uris":{"android":"levelo://app?vid=8457aa73-981d-48fb-b2bb-1230fb13ea70","ios":"levelo://app?vid=8457aa73-981d-48fb-b2bb-1230fb13ea70"},"vehicle_type_id":"4","last_reported":1747494518,"current_range_meters":0,"station_id":"ce4bhu92rcd13ifvqi70","pricing_plan_id":"cebpf4jnsgd1na2vs0mg"},{"bike_id":"1a061bb7-02ac-4018-9325-10ec9bb843cb","system_id":"levelo_inurba_marseille","lat":43.23201,"lon":5.35559,"is_reserved":false,"is_disabled":true,"rental_uris":{"android":"levelo://app?vid=1a061bb7-02ac-4018-9325-10ec9bb843cb","ios":"levelo://app?vid=1a061bb7-02ac-4018-9325-10ec9bb843cb"},"vehicle_type_id":"4","last_reported":1747494518,"current_range_meters":0,"station_id":"ce4bhu92rcd13ifvqi70","pricing_plan_id":"cebpf4jnsgd1na2vs0mg"},{"bike_id":"761f97ef-3d44-49e1-a980-dbcf9a00e013","system_id":"levelo_inurba_marseille","lat":43.22525,"lon":5.34751,"is_reserved":false,"is_disabled":true,"rental_uris":{"android":"levelo://app?vid=761f97ef-3d44-49e1-a980-dbcf9a00e013","ios":"levelo://app?vid=761f97ef-3d44-49e1-a980-dbcf9a00e013"},"vehicle_type_id":"4","last_reported":1747494518,"current_range_meters":0,"station_id":"st_cvj5dfep6f1abm77gieg","pricing_plan_id":"cebpf4jnsgd1na2vs0mg"},{"bike_id":"ada673ac-e710-4c36-a2e6-36fb5796b078","system_id":"levelo_inurba_marseille","lat":43.21193,"lon":5.35077,"is_reserved":false,"is_disabled":true,"rental_uris":{"android":"levelo://app?vid=ada673ac-e710-4c36-a2e6-36fb5796b078","ios":"levelo://app?vid=ada673ac-e710-4c36-a2e6-36fb5796b078"},"vehicle_type_id":"4","last_reported":1747494518,"current_range_meters":0,"station_id":"st_cvj6sg6p6f1abm77japg","pricing_plan_id":"cebpf4jnsgd1na2vs0mg"},{"bike_id":"eefc8350-f642-420e-abe1-08d8f799bef6","system_id":"levelo_inurba_marseille","lat":43.21192,"lon":5.35072,"is_reserved":false,"is_disabled":true,"rental_uris":{"android":"levelo://app?vid=eefc8350-f642-420e-abe1-08d8f799bef6","ios":"levelo://app?vid=eefc8350-f642-420e-abe1-08d8f799bef6"},"vehicle_type_id":"4","last_reported":1747494518,"current_range_meters":0,"station_id":"st_cvj6sg6p6f1abm77japg","pricing_plan_id":"cebpf4jnsgd1na2vs0mg"},{"bike_id":"fbd7fb1d-0d01-432a-96f8-82633a2e0d99","system_id":"levelo_inurba_marseille","lat":43.211916,"lon":5.350716,"is_reserved":false,"is_disabled":true,"rental_uris":{"android":"levelo://app?vid=fbd7fb1d-0d01-432a-96f8-82633a2e0d99","ios":"levelo://app?vid=fbd7fb1d-0d01-432a-96f8-82633a2e0d99"},"vehicle_type_id":"4","last_reported":1747494518,"current_range_meters":0,"station_id":"st_cvj6sg6p6f1abm77japg","pricing_plan_id":"cebpf4jnsgd1na2vs0mg"},{"bike_id":"8ff0f75f-4956-44d0-90f1-5439f8f9cb81","system_id":"levelo_inurba_marseille","lat":43.29371,"lon":5.3784,"is_reserved":false,"is_disabled":true,"rental_uris":{"android":"levelo://app?vid=8ff0f75f-4956-44d0-90f1-5439f8f9cb81","ios":"levelo://app?vid=8ff0f75f-4956-44d0-90f1-5439f8f9cb81"},"vehicle_type_id":"4","last_reported":1747494518,"current_range_meters":400,"station_id":"ce4bgjh2rcd13ifvqbf0","pricing_plan_id":"cebpf4jnsgd1na2vs0mg"},{"bike_id":"6ab71c6f-c33b-425b-9679-5ca0690f349c","system_id":"levelo_inurba_marseille","lat":43.30261,"lon":5.40082,"is_reserved":false,"is_disabled":true,"rental_uris":{"android":"levelo://app?vid=6ab71c6f-c33b-425b-9679-5ca0690f349c","ios":"levelo://app?vid=6ab71c6f-c33b-425b-9679-5ca0690f349c"},"vehicle_type_id":"4","last_reported":1747494518,"current_range_meters":400,"station_id":"ce4bgvh2rcd13ifvqcs0","pricing_plan_id":"cebpf4jnsgd1na2vs0mg"},{"bike_id":"1126cb82-749c-414e-b74e-d899f8ed598b","system_id":"levelo_inurba_marseille","lat":43.29446,"lon":5.3866,"is_reserved":false,"is_disabled":true,"rental_uris":{"android":"levelo://app?vid=1126cb82-749c-414e-b74e-d899f8ed598b","ios":"levelo://app?vid=1126cb82-749c-414e-b74e-d899f8ed598b"},"vehicle_type_id":"4","last_reported":1747494518,"current_range_meters":400,"station_id":"ce4bh2h2rcd13ifvqdh0","pricing_plan_id":"cebpf4jnsgd1na2vs0mg"},{"bike_id":"6bfe8033-3d87-4805-b6b1-e24e48d8d3cc","system_id":"levelo_inurba_marseille","lat":43.29032,"lon":5.38651,"is_reserved":false,"is_disabled":true,"rental_uris":{"android":"levelo://app?vid=6bfe8033-3d87-4805-b6b1-e24e48d8d3cc","ios":"levelo://app?vid=6bfe8033-3d87-4805-b6b1-e24e48d8d3cc"},"vehicle_type_id":"4","last_reported":1747494518,"current_range_meters":400,"station_id":"ce4bh4p2rcd13ifvqe0g","pricing_plan_id":"cebpf4jnsgd1na2vs0mg"},{"bike_id":"997734ac-e013-4e00-9bd8-a3799d17b27f","system_id":"levelo_inurba_marseille","lat":43.28484,"lon":5.38427,"is_reserved":false,"is_disabled":true,"rental_uris":{"android":"levelo://app?vid=997734ac-e013-4e00-9bd8-a3799d17b27f","ios":"levelo://app?vid=997734ac-e013-4e00-9bd8-a3799d17b27f"},"vehicle_type_id":"4","last_reported":1747494518,"current_range_meters":400,"station_id":"ce4bh512rcd13ifvqe3g","pricing_plan_id":"cebpf4jnsgd1na2vs0mg"},{"bike_id":"697f3453-e5f3-4b89-9906-0b9820ba25cf","system_id":"levelo_inurba_marseille","lat":43.26212,"lon":5.37452,"is_reserved":false,"is_disabled":true,"rental_uris":{"android":"levelo://app?vid=697f3453-e5f3-4b89-9906-0b9820ba25cf","ios":"levelo://app?vid=697f3453-e5f3-4b89-9906-0b9820ba25cf"},"vehicle_type_id":"4","last_reported":1747494518,"current_range_meters":400,"station_id":"ce4bhgp2rcd13ifvqfc0","pricing_plan_id":"cebpf4jnsgd1na2vs0mg"},{"bike_id":"d11a535c-7199-4a38-8aff-1d159047087d","system_id":"levelo_inurba_marseille","lat":43.25504,"lon":5.37649,"is_reserved":false,"is_disabled":true,"rental_uris":{"android":"levelo://app?vid=d11a535c-7199-4a38-8aff-1d159047087d","ios":"levelo://app?vid=d11a535c-7199-4a38-8aff-1d159047087d"},"vehicle_type_id":"4","last_reported":1747494518,"current_range_meters":400,"station_id":"ce4bhh12rcd13ifvqff0","pricing_plan_id":"cebpf4jnsgd1na2vs0mg"},{"bike_id":"8c3c5843-7f28-48fb-9e81-1aff43526fdb","system_id":"levelo_inurba_marseille","lat":43.30419,"lon":5.41282,"is_reserved":false,"is_disabled":true,"rental_uris":{"android":"levelo://app?vid=8c3c5843-7f28-48fb-9e81-1aff43526fdb","ios":"levelo://app?vid=8c3c5843-7f28-48fb-9e81-1aff43526fdb"},"vehicle_type_id":"4","last_reported":1747494518,"current_range_meters":400,"station_id":"ce4bhop2rcd13ifvqh8g","pricing_plan_id":"cebpf4jnsgd1na2vs0mg"},{"bike_id":"59e33bab-443b-4b82-946a-94b602858b07","system_id":"levelo_inurba_marseille","lat":43.28187,"lon":5.38447,"is_reserved":false,"is_disabled":true,"rental_uris":{"android":"levelo://app?vid=59e33bab-443b-4b82-946a-94b602858b07","ios":"levelo://app?vid=59e33bab-443b-4b82-946a-94b602858b07"},"vehicle_type_id":"4","last_reported":1747494518,"current_range_meters":800,"station_id":"","pricing_plan_id":"cebpf4jnsgd1na2vs0mg"},{"bike_id":"bc49382f-7850-4542-b7cb-11fa06ae8ede","system_id":"levelo_inurba_marseille","lat":43.28663,"lon":5.36393,"is_reserved":false,"is_disabled":true,"rental_uris":{"android":"levelo://app?vid=bc49382f-7850-4542-b7cb-11fa06ae8ede","ios":"levelo://app?vid=bc49382f-7850-4542-b7cb-11fa06ae8ede"},"vehicle_type_id":"4","last_reported":1747494518,"current_range_meters":800,"station_id":"ce4bhah2rcd13ifvqej0","pricing_plan_id":"cebpf4jnsgd1na2vs0mg"},{"bike_id":"a0c02974-4060-4506-91d3-20587b75c679","system_id":"levelo_inurba_marseille","lat":43.26212,"lon":5.37442,"is_reserved":false,"is_disabled":true,"rental_uris":{"android":"levelo://app?vid=a0c02974-4060-4506-91d3-20587b75c679","ios":"levelo://app?vid=a0c02974-4060-4506-91d3-20587b75c679"},"vehicle_type_id":"4","last_reported":1747494518,"current_range_meters":800,"station_id":"ce4bhgp2rcd13ifvqfc0","pricing_plan_id":"cebpf4jnsgd1na2vs0mg"},{"bike_id":"4cb9f1cb-f781-43d3-86f3-91c7ee282fee","system_id":"levelo_inurba_marseille","lat":43.25125,"lon":5.40326,"is_reserved":false,"is_disabled":true,"rental_uris":{"android":"levelo://app?vid=4cb9f1cb-f781-43d3-86f3-91c7ee282fee","ios":"levelo://app?vid=4cb9f1cb-f781-43d3-86f3-91c7ee282fee"},"vehicle_type_id":"4","last_reported":1747494518,"current_range_meters":800,"station_id":"ce4bhlh2rcd13ifvqgig","pricing_plan_id":"cebpf4jnsgd1na2vs0mg"},{"bike_id":"c7394ed1-429a-4269-9a1c-5f0b79da3698","system_id":"levelo_inurba_marseille","lat":43.30151,"lon":5.38075,"is_reserved":false,"is_disabled":true,"rental_uris":{"android":"levelo://app?vid=c7394ed1-429a-4269-9a1c-5f0b79da3698","ios":"levelo://app?vid=c7394ed1-429a-4269-9a1c-5f0b79da3698"},"vehicle_type_id":"4","last_reported":1747494518,"current_range_meters":1200,"station_id":"ce4bgjp2rcd13ifvqbh0","pricing_plan_id":"cebpf4jnsgd1na2vs0mg"},{"bike_id":"12dc499b-ac1e-4ceb-9dd6-ac277a14cad9","system_id":"levelo_inurba_marseille","lat":43.25082,"lon":5.39498,"is_reserved":false,"is_disabled":true,"rental_uris":{"android":"levelo://app?vid=12dc499b-ac1e-4ceb-9dd6-ac277a14cad9","ios":"levelo://app?vid=12dc499b-ac1e-4ceb-9dd6-ac277a14cad9"},"vehicle_type_id":"4","last_reported":1747494518,"current_range_meters":1200,"station_id":"ce4bhm12rcd13ifvqgkg","pricing_plan_id":"cebpf4jnsgd1na2vs0mg"},{"bike_id":"985af28d-2032-4073-bf0d-368863c432f9","system_id":"levelo_inurba_marseille","lat":43.31712,"lon":5.43703,"is_reserved":false,"is_disabled":false,"rental_uris":{"android":"levelo://app?vid=985af28d-2032-4073-bf0d-368863c432f9","ios":"levelo://app?vid=985af28d-2032-4073-bf0d-368863c432f9"},"vehicle_type_id":"4","last_reported":1747494518,"current_range_meters":1200,"station_id":"ce4bhp92rcd13ifvqhcg","pricing_plan_id":"cebpf4jnsgd1na2vs0mg"},{"bike_id":"2092496e-6012-4ba6-a940-aa9fc81e4ee8","system_id":"levelo_inurba_marseille","lat":43.29369,"lon":5.37849,"is_reserved":false,"is_disabled":true,"rental_uris":{"android":"levelo://app?vid=2092496e-6012-4ba6-a940-aa9fc81e4ee8","ios":"levelo://app?vid=2092496e-6012-4ba6-a940-aa9fc81e4ee8"},"vehicle_type_id":"4","last_reported":1747494518,"current_range_meters":1600,"station_id":"ce4bgjh2rcd13ifvqbf0","pricing_plan_id":"cebpf4jnsgd1na2vs0mg"},{"bike_id":"04c47daa-f75f-4f1b-bccf-8c229a05a645","system_id":"levelo_inurba_marseille","lat":43.29645,"lon":5.40592,"is_reserved":false,"is_disabled":true,"rental_uris":{"android":"levelo://app?vid=04c47daa-f75f-4f1b-bccf-8c229a05a645","ios":"levelo://app?vid=04c47daa-f75f-4f1b-bccf-8c229a05a645"},"vehicle_type_id":"4","last_reported":1747494518,"current_range_meters":1600,"station_id":"ce4bh0h2rcd13ifvqd60","pricing_plan_id":"cebpf4jnsgd1na2vs0mg"},{"bike_id":"14396dcf-ce2e-41f9-a0f9-99d45dae5622","system_id":"levelo_inurba_marseille","lat":43.28404,"lon":5.37516,"is_reserved":false,"is_disabled":true,"rental_uris":{"android":"levelo://app?vid=14396dcf-ce2e-41f9-a0f9-99d45dae5622","ios":"levelo://app?vid=14396dcf-ce2e-41f9-a0f9-99d45dae5622"},"vehicle_type_id":"4","last_reported":1747494518,"current_range_meters":1600,"station_id":"ce4bh412rcd13ifvqds0","pricing_plan_id":"cebpf4jnsgd1na2vs0mg"},{"bike_id":"07e01146-635c-44b5-81b8-598facef9edc","system_id":"levelo_inurba_marseille","lat":43.27426,"lon":5.39429,"is_reserved":false,"is_disabled":true,"rental_uris":{"android":"levelo://app?vid=07e01146-635c-44b5-81b8-598facef9edc","ios":"levelo://app?vid=07e01146-635c-44b5-81b8-598facef9edc"},"vehicle_type_id":"4","last_reported":1747494518,"current_range_meters":1600,"station_id":"ce4bhdp2rcd13ifvqf20","pricing_plan_id":"cebpf4jnsgd1na2vs0mg"},{"bike_id":"e1e6f58a-da04-4ede-80bc-2c8e46a27eef","system_id":"levelo_inurba_marseille","lat":43.24543,"lon":5.3954,"is_reserved":false,"is_disabled":true,"rental_uris":{"android":"levelo://app?vid=e1e6f58a-da04-4ede-80bc-2c8e46a27eef","ios":"levelo://app?vid=e1e6f58a-da04-4ede-80bc-2c8e46a27eef"},"vehicle_type_id":"4","last_reported":1747494518,"current_range_meters":1600,"station_id":"ce4bhlp2rcd13ifvqgjg","pricing_plan_id":"cebpf4jnsgd1na2vs0mg"},{"bike_id":"f03cbb86-1380-4293-8567-f7212ddf3dc6","system_id":"levelo_inurba_marseille","lat":43.23178,"lon":5.43722,"is_reserved":false,"is_disabled":true,"rental_uris":{"android":"levelo://app?vid=f03cbb86-1380-4293-8567-f7212ddf3dc6","ios":"levelo://app?vid=f03cbb86-1380-4293-8567-f7212ddf3dc6"},"vehicle_type_id":"4","last_reported":1747494518,"current_range_meters":1600,"station_id":"ce4bhmp2rcd13ifvqgog","pricing_plan_id":"cebpf4jnsgd1na2vs0mg"},{"bike_id":"6ba37885-742c-4c5b-897b-a7ffadb0bff3","system_id":"levelo_inurba_marseille","lat":43.337444,"lon":5.374475,"is_reserved":false,"is_disabled":true,"rental_uris":{"android":"levelo://app?vid=6ba37885-742c-4c5b-897b-a7ffadb0bff3","ios":"levelo://app?vid=6ba37885-742c-4c5b-897b-a7ffadb0bff3"},"vehicle_type_id":"4","last_reported":1747494518,"current_range_meters":2000,"station_id":"","pricing_plan_id":"cebpf4jnsgd1na2vs0mg"},{"bike_id":"a23d1d5a-7555-4410-97c9-4cd1f2f56ae1","system_id":"levelo_inurba_marseille","lat":43.27216,"lon":5.3918,"is_reserved":false,"is_disabled":false,"rental_uris":{"android":"levelo://app?vid=a23d1d5a-7555-4410-97c9-4cd1f2f56ae1","ios":"levelo://app?vid=a23d1d5a-7555-4410-97c9-4cd1f2f56ae1"},"vehicle_type_id":"4","last_reported":1747494518,"current_range_meters":2000,"station_id":"ce4bhhp2rcd13ifvqfm0","pricing_plan_id":"cebpf4jnsgd1na2vs0mg"},{"bike_id":"81813f5a-0357-45e7-958a-456511402ba9","system_id":"levelo_inurba_marseille","lat":43.29538,"lon":5.390461,"is_reserved":false,"is_disabled":false,"rental_uris":{"android":"levelo://app?vid=81813f5a-0357-45e7-958a-456511402ba9","ios":"levelo://app?vid=81813f5a-0357-45e7-958a-456511402ba9"},"vehicle_type_id":"4","last_reported":1747494518,"current_range_meters":2800,"station_id":"ce4bh3p2rcd13ifvqdp0","pricing_plan_id":"cebpf4jnsgd1na2vs0mg"},{"bike_id":"8a8a4db8-1717-43f5-9c4a-7bfba7139585","system_id":"levelo_inurba_marseille","lat":43.29262,"lon":5.38448,"is_reserved":false,"is_disabled":false,"rental_uris":{"android":"levelo://app?vid=8a8a4db8-1717-43f5-9c4a-7bfba7139585","ios":"levelo://app?vid=8a8a4db8-1717-43f5-9c4a-7bfba7139585"},"vehicle_type_id":"4","last_reported":1747494518,"current_range_meters":2800,"station_id":"ce4bh692rcd13ifvqea0","pricing_plan_id":"cebpf4jnsgd1na2vs0mg"},{"bike_id":"cf95891a-2ebc-45cb-8384-75031b451289","system_id":"levelo_inurba_marseille","lat":43.29068,"lon":5.3593,"is_reserved":false,"is_disabled":false,"rental_uris":{"android":"levelo://app?vid=cf95891a-2ebc-45cb-8384-75031b451289","ios":"levelo://app?vid=cf95891a-2ebc-45cb-8384-75031b451289"},"vehicle_type_id":"4","last_reported":1747494518,"current_range_meters":2800,"station_id":"ce4bha92rcd13ifvqeg0","pricing_plan_id":"cebpf4jnsgd1na2vs0mg"},{"bike_id":"d9ea57e5-706a-4c4b-bc38-38f19c528862","system_id":"levelo_inurba_marseille","lat":43.23155,"lon":5.43712,"is_reserved":false,"is_disabled":false,"rental_uris":{"android":"levelo://app?vid=d9ea57e5-706a-4c4b-bc38-38f19c528862","ios":"levelo://app?vid=d9ea57e5-706a-4c4b-bc38-38f19c528862"},"vehicle_type_id":"4","last_reported":1747494518,"current_range_meters":2800,"station_id":"ce4bhmp2rcd13ifvqgog","pricing_plan_id":"cebpf4jnsgd1na2vs0mg"},{"bike_id":"3746a0fc-4661-445f-97bc-9c60c3192d3a","system_id":"levelo_inurba_marseille","lat":43.26556,"lon":5.37288,"is_reserved":false,"is_disabled":false,"rental_uris":{"android":"levelo://app?vid=3746a0fc-4661-445f-97bc-9c60c3192d3a","ios":"levelo://app?vid=3746a0fc-4661-445f-97bc-9c60c3192d3a"},"vehicle_type_id":"4","last_reported":1747494518,"current_range_meters":3200,"station_id":"ce4bhg12rcd13ifvqf70","pricing_plan_id":"cebpf4jnsgd1na2vs0mg"},{"bike_id":"2407e9a7-fae9-4282-85c3-16d2812a8f0f","system_id":"levelo_inurba_marseille","lat":43.27979,"lon":5.3875,"is_reserved":false,"is_disabled":false,"rental_uris":{"android":"levelo://app?vid=2407e9a7-fae9-4282-85c3-16d2812a8f0f","ios":"levelo://app?vid=2407e9a7-fae9-4282-85c3-16d2812a8f0f"},"vehicle_type_id":"4","last_reported":1747494518,"current_range_meters":3200,"station_id":"ce4bhg12rcd13ifvqf80","pricing_plan_id":"cebpf4jnsgd1na2vs0mg"},{"bike_id":"201b7ce3-b36d-4f37-a2ca-1e9da2fe784d","system_id":"levelo_inurba_marseille","lat":43.255837,"lon":5.382253,"is_reserved":false,"is_disabled":false,"rental_uris":{"android":"levelo://app?vid=201b7ce3-b36d-4f37-a2ca-1e9da2fe784d","ios":"levelo://app?vid=201b7ce3-b36d-4f37-a2ca-1e9da2fe784d"},"vehicle_type_id":"4","last_reported":1747494518,"current_range_meters":3200,"station_id":"ce4bhih2rcd13ifvqfs0","pricing_plan_id":"cebpf4jnsgd1na2vs0mg"},{"bike_id":"b267027d-2fc3-4c9d-ad5e-82c60ad04cbb","system_id":"levelo_inurba_marseille","lat":43.24388,"lon":5.37063,"is_reserved":false,"is_disabled":false,"rental_uris":{"android":"levelo://app?vid=b267027d-2fc3-4c9d-ad5e-82c60ad04cbb","ios":"levelo://app?vid=b267027d-2fc3-4c9d-ad5e-82c60ad04cbb"},"vehicle_type_id":"4","last_reported":1747494518,"current_range_meters":3600,"station_id":"ce4bhhh2rcd13ifvqfk0","pricing_plan_id":"cebpf4jnsgd1na2vs0mg"},{"bike_id":"2a59e8ef-8845-49df-b43c-9a430069a7fc","system_id":"levelo_inurba_marseille","lat":43.24553,"lon":5.39554,"is_reserved":false,"is_disabled":false,"rental_uris":{"android":"levelo://app?vid=2a59e8ef-8845-49df-b43c-9a430069a7fc","ios":"levelo://app?vid=2a59e8ef-8845-49df-b43c-9a430069a7fc"},"vehicle_type_id":"4","last_reported":1747494518,"current_range_meters":3600,"station_id":"ce4bhlp2rcd13ifvqgjg","pricing_plan_id":"cebpf4jnsgd1na2vs0mg"},{"bike_id":"2e3ccd10-2cb6-4dbc-86d9-2288eaeba9d5","system_id":"levelo_inurba_marseille","lat":43.24549,"lon":5.39541,"is_reserved":false,"is_disabled":false,"rental_uris":{"android":"levelo://app?vid=2e3ccd10-2cb6-4dbc-86d9-2288eaeba9d5","ios":"levelo://app?vid=2e3ccd10-2cb6-4dbc-86d9-2288eaeba9d5"},"vehicle_type_id":"4","last_reported":1747494518,"current_range_meters":3600,"station_id":"ce4bhlp2rcd13ifvqgjg","pricing_plan_id":"cebpf4jnsgd1na2vs0mg"},{"bike_id":"754484a1-7ccb-4961-b445-ac486eea35c8","system_id":"levelo_inurba_marseille","lat":43.23197,"lon":5.35564,"is_reserved":false,"is_disabled":false,"rental_uris":{"android":"levelo://app?vid=754484a1-7ccb-4961-b445-ac486eea35c8","ios":"levelo://app?vid=754484a1-7ccb-4961-b445-ac486eea35c8"},"vehicle_type_id":"4","last_reported":1747494518,"current_range_meters":3600,"station_id":"ce4bhu92rcd13ifvqi70","pricing_plan_id":"cebpf4jnsgd1na2vs0mg"},{"bike_id":"d06a81f7-6bbe-4687-bfbe-932949dc466c","system_id":"levelo_inurba_marseille","lat":43.261119,"lon":5.387481,"is_reserved":false,"is_disabled":false,"rental_uris":{"android":"levelo://app?vid=d06a81f7-6bbe-4687-bfbe-932949dc466c","ios":"levelo://app?vid=d06a81f7-6bbe-4687-bfbe-932949dc466c"},"vehicle_type_id":"4","last_reported":1747494518,"current_range_meters":4000,"station_id":"","pricing_plan_id":"cebpf4jnsgd1na2vs0mg"},{"bike_id":"58b550ed-66c8-4e1a-9684-95e2d75a0ae2","system_id":"levelo_inurba_marseille","lat":43.26211,"lon":5.37453,"is_reserved":false,"is_disabled":false,"rental_uris":{"android":"levelo://app?vid=58b550ed-66c8-4e1a-9684-95e2d75a0ae2","ios":"levelo://app?vid=58b550ed-66c8-4e1a-9684-95e2d75a0ae2"},"vehicle_type_id":"4","last_reported":1747494518,"current_range_meters":4000,"station_id":"ce4bhgp2rcd13ifvqfc0","pricing_plan_id":"cebpf4jnsgd1na2vs0mg"},{"bike_id":"59934285-0787-4cd4-88d1-3f935f1d5a3b","system_id":"levelo_inurba_marseille","lat":43.25109,"lon":5.40322,"is_reserved":false,"is_disabled":false,"rental_uris":{"android":"levelo://app?vid=59934285-0787-4cd4-88d1-3f935f1d5a3b","ios":"levelo://app?vid=59934285-0787-4cd4-88d1-3f935f1d5a3b"},"vehicle_type_id":"4","last_reported":1747494518,"current_range_meters":4000,"station_id":"ce4bhlh2rcd13ifvqgig","pricing_plan_id":"cebpf4jnsgd1na2vs0mg"},{"bike_id":"fc25f880-4d7c-4250-a92c-5319d47ccc9e","system_id":"levelo_inurba_marseille","lat":43.28606,"lon":5.37078,"is_reserved":false,"is_disabled":false,"rental_uris":{"android":"levelo://app?vid=fc25f880-4d7c-4250-a92c-5319d47ccc9e","ios":"levelo://app?vid=fc25f880-4d7c-4250-a92c-5319d47ccc9e"},"vehicle_type_id":"4","last_reported":1747494518,"current_range_meters":4000,"station_id":"ce4bht12rcd13ifvqi60","pricing_plan_id":"cebpf4jnsgd1na2vs0mg"},{"bike_id":"53ae4f8b-68fd-44fb-b4a8-162027bff52f","system_id":"levelo_inurba_marseille","lat":43.21178,"lon":5.35084,"is_reserved":false,"is_disabled":false,"rental_uris":{"android":"levelo://app?vid=53ae4f8b-68fd-44fb-b4a8-162027bff52f","ios":"levelo://app?vid=53ae4f8b-68fd-44fb-b4a8-162027bff52f"},"vehicle_type_id":"4","last_reported":1747494518,"current_range_meters":4000,"station_id":"st_cvj6sg6p6f1abm77japg","pricing_plan_id":"cebpf4jnsgd1na2vs0mg"},{"bike_id":"a6a11dc3-bea1-4c5a-a202-dafe447d7fa2","system_id":"levelo_inurba_marseille","lat":43.31108,"lon":5.37756,"is_reserved":false,"is_disabled":false,"rental_uris":{"android":"levelo://app?vid=a6a11dc3-bea1-4c5a-a202-dafe447d7fa2","ios":"levelo://app?vid=a6a11dc3-bea1-4c5a-a202-dafe447d7fa2"},"vehicle_type_id":"4","last_reported":1747494518,"current_range_meters":4400,"station_id":"ce4bgt92rcd13ifvqcg0","pricing_plan_id":"cebpf4jnsgd1na2vs0mg"},{"bike_id":"0bc03df0-4810-4763-8fc7-16abaaf292a1","system_id":"levelo_inurba_marseille","lat":43.292767,"lon":5.384292,"is_reserved":false,"is_disabled":false,"rental_uris":{"android":"levelo://app?vid=0bc03df0-4810-4763-8fc7-16abaaf292a1","ios":"levelo://app?vid=0bc03df0-4810-4763-8fc7-16abaaf292a1"},"vehicle_type_id":"4","last_reported":1747494518,"current_range_meters":4400,"station_id":"ce4bh692rcd13ifvqea0","pricing_plan_id":"cebpf4jnsgd1na2vs0mg"},{"bike_id":"206996ae-53cc-4c2d-8cb6-2d7247c70cff","system_id":"levelo_inurba_marseille","lat":43.28856,"lon":5.35857,"is_reserved":false,"is_disabled":false,"rental_uris":{"android":"levelo://app?vid=206996ae-53cc-4c2d-8cb6-2d7247c70cff","ios":"levelo://app?vid=206996ae-53cc-4c2d-8cb6-2d7247c70cff"},"vehicle_type_id":"4","last_reported":1747494518,"current_range_meters":4400,"station_id":"ce4bhb12rcd13ifvqem0","pricing_plan_id":"cebpf4jnsgd1na2vs0mg"},{"bike_id":"82bf978c-de9c-4473-904d-a27e5d635bb4","system_id":"levelo_inurba_marseille","lat":43.23195,"lon":5.35557,"is_reserved":false,"is_disabled":false,"rental_uris":{"android":"levelo://app?vid=82bf978c-de9c-4473-904d-a27e5d635bb4","ios":"levelo://app?vid=82bf978c-de9c-4473-904d-a27e5d635bb4"},"vehicle_type_id":"4","last_reported":1747494518,"current_range_meters":4400,"station_id":"ce4bhu92rcd13ifvqi70","pricing_plan_id":"cebpf4jnsgd1na2vs0mg"},{"bike_id":"b7c99a3c-8a71-4338-bd40-b62f3d728416","system_id":"levelo_inurba_marseille","lat":43.28361,"lon":5.38632,"is_reserved":false,"is_disabled":false,"rental_uris":{"android":"levelo://app?vid=b7c99a3c-8a71-4338-bd40-b62f3d728416","ios":"levelo://app?vid=b7c99a3c-8a71-4338-bd40-b62f3d728416"},"vehicle_type_id":"4","last_reported":1747494518,"current_range_meters":4800,"station_id":"ce4bh492rcd13ifvqdvg","pricing_plan_id":"cebpf4jnsgd1na2vs0mg"},{"bike_id":"2c53b24a-7e31-4f7a-83a4-b659ced9b050","system_id":"levelo_inurba_marseille","lat":43.29283,"lon":5.36842,"is_reserved":false,"is_disabled":false,"rental_uris":{"android":"levelo://app?vid=2c53b24a-7e31-4f7a-83a4-b659ced9b050","ios":"levelo://app?vid=2c53b24a-7e31-4f7a-83a4-b659ced9b050"},"vehicle_type_id":"4","last_reported":1747494518,"current_range_meters":4800,"station_id":"ce4bhbp2rcd13ifvqesg","pricing_plan_id":"cebpf4jnsgd1na2vs0mg"},{"bike_id":"57ce0f92-be13-426a-89ba-ac4c67fd1930","system_id":"levelo_inurba_marseille","lat":43.270053,"lon":5.401209,"is_reserved":false,"is_disabled":false,"rental_uris":{"android":"levelo://app?vid=57ce0f92-be13-426a-89ba-ac4c67fd1930","ios":"levelo://app?vid=57ce0f92-be13-426a-89ba-ac4c67fd1930"},"vehicle_type_id":"4","last_reported":1747494518,"current_range_meters":4800,"station_id":"cjm6bp8fraef2m0cb0m0","pricing_plan_id":"cebpf4jnsgd1na2vs0mg"},{"bike_id":"83940dac-c683-45d1-a9dc-86497d4f81f9","system_id":"levelo_inurba_marseille","lat":43.30132,"lon":5.38051,"is_reserved":false,"is_disabled":false,"rental_uris":{"android":"levelo://app?vid=83940dac-c683-45d1-a9dc-86497d4f81f9","ios":"levelo://app?vid=83940dac-c683-45d1-a9dc-86497d4f81f9"},"vehicle_type_id":"4","last_reported":1747494518,"current_range_meters":5600,"station_id":"ce4bgjp2rcd13ifvqbh0","pricing_plan_id":"cebpf4jnsgd1na2vs0mg"},{"bike_id":"3640cd53-3efd-483a-b37c-37fc845fefbc","system_id":"levelo_inurba_marseille","lat":43.33027,"lon":5.3904,"is_reserved":false,"is_disabled":false,"rental_uris":{"android":"levelo://app?vid=3640cd53-3efd-483a-b37c-37fc845fefbc","ios":"levelo://app?vid=3640cd53-3efd-483a-b37c-37fc845fefbc"},"vehicle_type_id":"4","last_reported":1747494518,"current_range_meters":5600,"station_id":"ce4bhr92rcd13ifvqhrg","pricing_plan_id":"cebpf4jnsgd1na2vs0mg"},{"bike_id":"4e5cfbec-6aac-4ee7-ac9c-110bf218aee5","system_id":"levelo_inurba_marseille","lat":43.2548,"lon":5.395713,"is_reserved":false,"is_disabled":false,"rental_uris":{"android":"levelo://app?vid=4e5cfbec-6aac-4ee7-ac9c-110bf218aee5","ios":"levelo://app?vid=4e5cfbec-6aac-4ee7-ac9c-110bf218aee5"},"vehicle_type_id":"4","last_reported":1747494518,"current_range_meters":6000,"station_id":"","pricing_plan_id":"cebpf4jnsgd1na2vs0mg"},{"bike_id":"29a81bfb-14bf-4899-a27a-91c134bf31f2","system_id":"levelo_inurba_marseille","lat":43.29931,"lon":5.37494,"is_reserved":false,"is_disabled":false,"rental_uris":{"android":"levelo://app?vid=29a81bfb-14bf-4899-a27a-91c134bf31f2","ios":"levelo://app?vid=29a81bfb-14bf-4899-a27a-91c134bf31f2"},"vehicle_type_id":"4","last_reported":1747494518,"current_range_meters":6000,"station_id":"ce4bgjh2rcd13ifvqbg0","pricing_plan_id":"cebpf4jnsgd1na2vs0mg"},{"bike_id":"e0de0c5e-15a5-4bae-9c49-2b8dfedab581","system_id":"levelo_inurba_marseille","lat":43.29002,"lon":5.35607,"is_reserved":false,"is_disabled":false,"rental_uris":{"android":"levelo://app?vid=e0de0c5e-15a5-4bae-9c49-2b8dfedab581","ios":"levelo://app?vid=e0de0c5e-15a5-4bae-9c49-2b8dfedab581"},"vehicle_type_id":"4","last_reported":1747494518,"current_range_meters":6000,"station_id":"ce4bhb92rcd13ifvqen0","pricing_plan_id":"cebpf4jnsgd1na2vs0mg"},{"bike_id":"3ed8d51b-989e-4c22-a0bb-dbb971c76a08","system_id":"levelo_inurba_marseille","lat":43.27372,"lon":5.3625,"is_reserved":false,"is_disabled":false,"rental_uris":{"android":"levelo://app?vid=3ed8d51b-989e-4c22-a0bb-dbb971c76a08","ios":"levelo://app?vid=3ed8d51b-989e-4c22-a0bb-dbb971c76a08"},"vehicle_type_id":"4","last_reported":1747494518,"current_range_meters":6000,"station_id":"ce4bhbh2rcd13ifvqeo0","pricing_plan_id":"cebpf4jnsgd1na2vs0mg"},{"bike_id":"c10f4911-0522-4d29-8efc-f9315464924b","system_id":"levelo_inurba_marseille","lat":43.27382,"lon":5.36261,"is_reserved":false,"is_disabled":false,"rental_uris":{"android":"levelo://app?vid=c10f4911-0522-4d29-8efc-f9315464924b","ios":"levelo://app?vid=c10f4911-0522-4d29-8efc-f9315464924b"},"vehicle_type_id":"4","last_reported":1747494518,"current_range_meters":6000,"station_id":"ce4bhbh2rcd13ifvqeo0","pricing_plan_id":"cebpf4jnsgd1na2vs0mg"},{"bike_id":"75131289-6509-44b0-a4bd-12e041534d3c","system_id":"levelo_inurba_marseille","lat":43.28275,"lon":5.35056,"is_reserved":false,"is_disabled":false,"rental_uris":{"android":"levelo://app?vid=75131289-6509-44b0-a4bd-12e041534d3c","ios":"levelo://app?vid=75131289-6509-44b0-a4bd-12e041534d3c"},"vehicle_type_id":"4","last_reported":1747494518,"current_range_meters":6000,"station_id":"ce4bhbp2rcd13ifvqerg","pricing_plan_id":"cebpf4jnsgd1na2vs0mg"},{"bike_id":"76b5604e-45c5-4fc6-ad03-667eaf3a0cbb","system_id":"levelo_inurba_marseille","lat":43.27627,"lon":5.36115,"is_reserved":false,"is_disabled":false,"rental_uris":{"android":"levelo://app?vid=76b5604e-45c5-4fc6-ad03-667eaf3a0cbb","ios":"levelo://app?vid=76b5604e-45c5-4fc6-ad03-667eaf3a0cbb"},"vehicle_type_id":"4","last_reported":1747494518,"current_range_meters":6400,"station_id":"ce4bgj92rcd13ifvqbe0","pricing_plan_id":"cebpf4jnsgd1na2vs0mg"},{"bike_id":"59367b81-4150-4ad1-ae51-79ec88cc70d4","system_id":"levelo_inurba_marseille","lat":43.30528,"lon":5.36544,"is_reserved":false,"is_disabled":false,"rental_uris":{"android":"levelo://app?vid=59367b81-4150-4ad1-ae51-79ec88cc70d4","ios":"levelo://app?vid=59367b81-4150-4ad1-ae51-79ec88cc70d4"},"vehicle_type_id":"4","last_reported":1747494518,"current_range_meters":6400,"station_id":"ce4bgs12rcd13ifvqcag","pricing_plan_id":"cebpf4jnsgd1na2vs0mg"},{"bike_id":"6bcc7c2c-2b81-4e1d-9d40-325ee7f57cb0","system_id":"levelo_inurba_marseille","lat":43.292305,"lon":5.360776,"is_reserved":false,"is_disabled":false,"rental_uris":{"android":"levelo://app?vid=6bcc7c2c-2b81-4e1d-9d40-325ee7f57cb0","ios":"levelo://app?vid=6bcc7c2c-2b81-4e1d-9d40-325ee7f57cb0"},"vehicle_type_id":"4","last_reported":1747494518,"current_range_meters":6400,"station_id":"ce4bhbh2rcd13ifvqeqg","pricing_plan_id":"cebpf4jnsgd1na2vs0mg"},{"bike_id":"f1245995-188f-4179-9c88-4f3218958c95","system_id":"levelo_inurba_marseille","lat":43.2558,"lon":5.38232,"is_reserved":false,"is_disabled":false,"rental_uris":{"android":"levelo://app?vid=f1245995-188f-4179-9c88-4f3218958c95","ios":"levelo://app?vid=f1245995-188f-4179-9c88-4f3218958c95"},"vehicle_type_id":"4","last_reported":1747494518,"current_range_meters":6400,"station_id":"ce4bhih2rcd13ifvqfs0","pricing_plan_id":"cebpf4jnsgd1na2vs0mg"},{"bike_id":"fc21894f-cf00-4fb7-89b3-490da9657dda","system_id":"levelo_inurba_marseille","lat":43.23196,"lon":5.35557,"is_reserved":false,"is_disabled":false,"rental_uris":{"android":"levelo://app?vid=fc21894f-cf00-4fb7-89b3-490da9657dda","ios":"levelo://app?vid=fc21894f-cf00-4fb7-89b3-490da9657dda"},"vehicle_type_id":"4","last_reported":1747494518,"current_range_meters":6400,"station_id":"ce4bhu92rcd13ifvqi70","pricing_plan_id":"cebpf4jnsgd1na2vs0mg"},{"bike_id":"27372271-ef96-4e49-a4e0-ad228605e572","system_id":"levelo_inurba_marseille","lat":43.30944,"lon":5.37341,"is_reserved":false,"is_disabled":false,"rental_uris":{"android":"levelo://app?vid=27372271-ef96-4e49-a4e0-ad228605e572","ios":"levelo://app?vid=27372271-ef96-4e49-a4e0-ad228605e572"},"vehicle_type_id":"4","last_reported":1747494518,"current_range_meters":6800,"station_id":"","pricing_plan_id":"cebpf4jnsgd1na2vs0mg"},{"bike_id":"85042faf-06e8-4761-8b24-7c582c9935f0","system_id":"levelo_inurba_marseille","lat":43.25721,"lon":5.41111,"is_reserved":false,"is_disabled":false,"rental_uris":{"android":"levelo://app?vid=85042faf-06e8-4761-8b24-7c582c9935f0","ios":"levelo://app?vid=85042faf-06e8-4761-8b24-7c582c9935f0"},"vehicle_type_id":"4","last_reported":1747494518,"current_range_meters":6800,"station_id":"ce4bhkp2rcd13ifvqgd0","pricing_plan_id":"cebpf4jnsgd1na2vs0mg"},{"bike_id":"43c95004-cd27-4c62-93d7-8d7029dc302e","system_id":"levelo_inurba_marseille","lat":43.30418,"lon":5.4128,"is_reserved":false,"is_disabled":false,"rental_uris":{"android":"levelo://app?vid=43c95004-cd27-4c62-93d7-8d7029dc302e","ios":"levelo://app?vid=43c95004-cd27-4c62-93d7-8d7029dc302e"},"vehicle_type_id":"4","last_reported":1747494518,"current_range_meters":6800,"station_id":"ce4bhop2rcd13ifvqh8g","pricing_plan_id":"cebpf4jnsgd1na2vs0mg"},{"bike_id":"1dd8b717-6c51-4c45-a030-6dada04cb490","system_id":"levelo_inurba_marseille","lat":43.21204,"lon":5.35081,"is_reserved":false,"is_disabled":false,"rental_uris":{"android":"levelo://app?vid=1dd8b717-6c51-4c45-a030-6dada04cb490","ios":"levelo://app?vid=1dd8b717-6c51-4c45-a030-6dada04cb490"},"vehicle_type_id":"4","last_reported":1747494518,"current_range_meters":6800,"station_id":"st_cvj6sg6p6f1abm77japg","pricing_plan_id":"cebpf4jnsgd1na2vs0mg"},{"bike_id":"6e612e7b-28be-478c-9618-97651a5de57b","system_id":"levelo_inurba_marseille","lat":43.24648,"lon":5.39569,"is_reserved":false,"is_disabled":false,"rental_uris":{"android":"levelo://app?vid=6e612e7b-28be-478c-9618-97651a5de57b","ios":"levelo://app?vid=6e612e7b-28be-478c-9618-97651a5de57b"},"vehicle_type_id":"4","last_reported":1747494518,"current_range_meters":7200,"station_id":"","pricing_plan_id":"cebpf4jnsgd1na2vs0mg"},{"bike_id":"b9b2a1e8-dc7d-4b82-80b7-5d071bfa1c86","system_id":"levelo_inurba_marseille","lat":43.27388,"lon":5.36252,"is_reserved":false,"is_disabled":false,"rental_uris":{"android":"levelo://app?vid=b9b2a1e8-dc7d-4b82-80b7-5d071bfa1c86","ios":"levelo://app?vid=b9b2a1e8-dc7d-4b82-80b7-5d071bfa1c86"},"vehicle_type_id":"4","last_reported":1747494518,"current_range_meters":7200,"station_id":"ce4bhbh2rcd13ifvqeo0","pricing_plan_id":"cebpf4jnsgd1na2vs0mg"},{"bike_id":"8e77e882-215c-45e0-8496-9d2554703034","system_id":"levelo_inurba_marseille","lat":43.26203,"lon":5.37449,"is_reserved":false,"is_disabled":false,"rental_uris":{"android":"levelo://app?vid=8e77e882-215c-45e0-8496-9d2554703034","ios":"levelo://app?vid=8e77e882-215c-45e0-8496-9d2554703034"},"vehicle_type_id":"4","last_reported":1747494518,"current_range_meters":7200,"station_id":"ce4bhgp2rcd13ifvqfc0","pricing_plan_id":"cebpf4jnsgd1na2vs0mg"},{"bike_id":"947e7051-79ce-460e-be88-eaad57ed7199","system_id":"levelo_inurba_marseille","lat":43.272103,"lon":5.391751,"is_reserved":false,"is_disabled":false,"rental_uris":{"android":"levelo://app?vid=947e7051-79ce-460e-be88-eaad57ed7199","ios":"levelo://app?vid=947e7051-79ce-460e-be88-eaad57ed7199"},"vehicle_type_id":"4","last_reported":1747494518,"current_range_meters":7200,"station_id":"ce4bhhp2rcd13ifvqfm0","pricing_plan_id":"cebpf4jnsgd1na2vs0mg"},{"bike_id":"b4e50c0e-3152-4793-b803-a97ad631595b","system_id":"levelo_inurba_marseille","lat":43.27508,"lon":5.42452,"is_reserved":false,"is_disabled":false,"rental_uris":{"android":"levelo://app?vid=b4e50c0e-3152-4793-b803-a97ad631595b","ios":"levelo://app?vid=b4e50c0e-3152-4793-b803-a97ad631595b"},"vehicle_type_id":"4","last_reported":1747494518,"current_range_meters":7200,"station_id":"ce4bhn92rcd13ifvqgrg","pricing_plan_id":"cebpf4jnsgd1na2vs0mg"},{"bike_id":"6f0eb859-c354-4ec9-9ed0-fc59fdc99960","system_id":"levelo_inurba_marseille","lat":43.31725,"lon":5.4239,"is_reserved":false,"is_disabled":false,"rental_uris":{"android":"levelo://app?vid=6f0eb859-c354-4ec9-9ed0-fc59fdc99960","ios":"levelo://app?vid=6f0eb859-c354-4ec9-9ed0-fc59fdc99960"},"vehicle_type_id":"4","last_reported":1747494518,"current_range_meters":7200,"station_id":"ce4bhp92rcd13ifvqhbg","pricing_plan_id":"cebpf4jnsgd1na2vs0mg"},{"bike_id":"95364902-2c96-4f26-8b8d-5c3c46ff46d1","system_id":"levelo_inurba_marseille","lat":43.21191,"lon":5.3507,"is_reserved":false,"is_disabled":false,"rental_uris":{"android":"levelo://app?vid=95364902-2c96-4f26-8b8d-5c3c46ff46d1","ios":"levelo://app?vid=95364902-2c96-4f26-8b8d-5c3c46ff46d1"},"vehicle_type_id":"4","last_reported":1747494518,"current_range_meters":7200,"station_id":"st_cvj6sg6p6f1abm77japg","pricing_plan_id":"cebpf4jnsgd1na2vs0mg"},{"bike_id":"6cd5c425-f8ac-4068-b8ea-a8bfbef29ee5","system_id":"levelo_inurba_marseille","lat":43.25007,"lon":5.37951,"is_reserved":false,"is_disabled":false,"rental_uris":{"android":"levelo://app?vid=6cd5c425-f8ac-4068-b8ea-a8bfbef29ee5","ios":"levelo://app?vid=6cd5c425-f8ac-4068-b8ea-a8bfbef29ee5"},"vehicle_type_id":"4","last_reported":1747494518,"current_range_meters":8000,"station_id":"","pricing_plan_id":"cebpf4jnsgd1na2vs0mg"},{"bike_id":"07b450c4-5d79-4b33-b7e1-88c71044ac14","system_id":"levelo_inurba_marseille","lat":43.2848,"lon":5.38418,"is_reserved":false,"is_disabled":false,"rental_uris":{"android":"levelo://app?vid=07b450c4-5d79-4b33-b7e1-88c71044ac14","ios":"levelo://app?vid=07b450c4-5d79-4b33-b7e1-88c71044ac14"},"vehicle_type_id":"4","last_reported":1747494518,"current_range_meters":8000,"station_id":"ce4bh512rcd13ifvqe3g","pricing_plan_id":"cebpf4jnsgd1na2vs0mg"},{"bike_id":"da9ab010-9f13-4bc4-bb92-d367d5200ecd","system_id":"levelo_inurba_marseille","lat":43.2738,"lon":5.36258,"is_reserved":false,"is_disabled":false,"rental_uris":{"android":"levelo://app?vid=da9ab010-9f13-4bc4-bb92-d367d5200ecd","ios":"levelo://app?vid=da9ab010-9f13-4bc4-bb92-d367d5200ecd"},"vehicle_type_id":"4","last_reported":1747494518,"current_range_meters":8000,"station_id":"ce4bhbh2rcd13ifvqeo0","pricing_plan_id":"cebpf4jnsgd1na2vs0mg"},{"bike_id":"55c783cc-ea98-4c84-82ca-655d7fab7525","system_id":"levelo_inurba_marseille","lat":43.28383,"lon":5.34973,"is_reserved":false,"is_disabled":false,"rental_uris":{"android":"levelo://app?vid=55c783cc-ea98-4c84-82ca-655d7fab7525","ios":"levelo://app?vid=55c783cc-ea98-4c84-82ca-655d7fab7525"},"vehicle_type_id":"4","last_reported":1747494518,"current_range_meters":8000,"station_id":"ce4bhbh2rcd13ifvqepg","pricing_plan_id":"cebpf4jnsgd1na2vs0mg"},{"bike_id":"e88119c4-ac30-4ace-83be-14b8e3698d34","system_id":"levelo_inurba_marseille","lat":43.28424,"lon":5.34986,"is_reserved":false,"is_disabled":false,"rental_uris":{"android":"levelo://app?vid=e88119c4-ac30-4ace-83be-14b8e3698d34","ios":"levelo://app?vid=e88119c4-ac30-4ace-83be-14b8e3698d34"},"vehicle_type_id":"4","last_reported":1747494518,"current_range_meters":8000,"station_id":"ce4bhbh2rcd13ifvqepg","pricing_plan_id":"cebpf4jnsgd1na2vs0mg"},{"bike_id":"a21e8997-3cb7-4b32-a8fb-bbe3cdab7a5f","system_id":"levelo_inurba_marseille","lat":43.28272,"lon":5.35053,"is_reserved":false,"is_disabled":false,"rental_uris":{"android":"levelo://app?vid=a21e8997-3cb7-4b32-a8fb-bbe3cdab7a5f","ios":"levelo://app?vid=a21e8997-3cb7-4b32-a8fb-bbe3cdab7a5f"},"vehicle_type_id":"4","last_reported":1747494518,"current_range_meters":8000,"station_id":"ce4bhbp2rcd13ifvqerg","pricing_plan_id":"cebpf4jnsgd1na2vs0mg"},{"bike_id":"bd21e1f0-d781-4edb-83e0-9b73c66b4639","system_id":"levelo_inurba_marseille","lat":43.27917,"lon":5.39577,"is_reserved":false,"is_disabled":false,"rental_uris":{"android":"levelo://app?vid=bd21e1f0-d781-4edb-83e0-9b73c66b4639","ios":"levelo://app?vid=bd21e1f0-d781-4edb-83e0-9b73c66b4639"},"vehicle_type_id":"4","last_reported":1747494518,"current_range_meters":8000,"station_id":"ce4bhf92rcd13ifvqf40","pricing_plan_id":"cebpf4jnsgd1na2vs0mg"},{"bike_id":"7bc4e5db-25be-4b71-969d-dafba1816f05","system_id":"levelo_inurba_marseille","lat":43.26935,"lon":5.38929,"is_reserved":false,"is_disabled":false,"rental_uris":{"android":"levelo://app?vid=7bc4e5db-25be-4b71-969d-dafba1816f05","ios":"levelo://app?vid=7bc4e5db-25be-4b71-969d-dafba1816f05"},"vehicle_type_id":"4","last_reported":1747494518,"current_range_meters":8000,"station_id":"ce4bhhh2rcd13ifvqfl0","pricing_plan_id":"cebpf4jnsgd1na2vs0mg"},{"bike_id":"5098123d-b36f-482a-a74d-7b81fd65e534","system_id":"levelo_inurba_marseille","lat":43.23964,"lon":5.36636,"is_reserved":false,"is_disabled":false,"rental_uris":{"android":"levelo://app?vid=5098123d-b36f-482a-a74d-7b81fd65e534","ios":"levelo://app?vid=5098123d-b36f-482a-a74d-7b81fd65e534"},"vehicle_type_id":"4","last_reported":1747494518,"current_range_meters":8000,"station_id":"ce4bhi12rcd13ifvqfp0","pricing_plan_id":"cebpf4jnsgd1na2vs0mg"},{"bike_id":"bf543640-a1be-4bc7-a9a6-1dd51245f165","system_id":"levelo_inurba_marseille","lat":43.232,"lon":5.3557,"is_reserved":false,"is_disabled":false,"rental_uris":{"android":"levelo://app?vid=bf543640-a1be-4bc7-a9a6-1dd51245f165","ios":"levelo://app?vid=bf543640-a1be-4bc7-a9a6-1dd51245f165"},"vehicle_type_id":"4","last_reported":1747494518,"current_range_meters":8000,"station_id":"ce4bhu92rcd13ifvqi70","pricing_plan_id":"cebpf4jnsgd1na2vs0mg"},{"bike_id":"64754e92-16c2-4336-8ac7-572ee03ffcdc","system_id":"levelo_inurba_marseille","lat":43.295327,"lon":5.385453,"is_reserved":false,"is_disabled":false,"rental_uris":{"android":"levelo://app?vid=64754e92-16c2-4336-8ac7-572ee03ffcdc","ios":"levelo://app?vid=64754e92-16c2-4336-8ac7-572ee03ffcdc"},"vehicle_type_id":"4","last_reported":1747494518,"current_range_meters":8400,"station_id":"ce4bgih2rcd13ifvqba0","pricing_plan_id":"cebpf4jnsgd1na2vs0mg"},{"bike_id":"bb2c0fda-3c8f-43b8-8cf4-82af2746ee4c","system_id":"levelo_inurba_marseille","lat":43.30036,"lon":5.38243,"is_reserved":false,"is_disabled":false,"rental_uris":{"android":"levelo://app?vid=bb2c0fda-3c8f-43b8-8cf4-82af2746ee4c","ios":"levelo://app?vid=bb2c0fda-3c8f-43b8-8cf4-82af2746ee4c"},"vehicle_type_id":"4","last_reported":1747494518,"current_range_meters":8400,"station_id":"ce4bgj92rcd13ifvqbd0","pricing_plan_id":"cebpf4jnsgd1na2vs0mg"},{"bike_id":"2d095115-ee49-4e7c-8bee-fe261cc36b10","system_id":"levelo_inurba_marseille","lat":43.29965,"lon":5.38492,"is_reserved":false,"is_disabled":false,"rental_uris":{"android":"levelo://app?vid=2d095115-ee49-4e7c-8bee-fe261cc36b10","ios":"levelo://app?vid=2d095115-ee49-4e7c-8bee-fe261cc36b10"},"vehicle_type_id":"4","last_reported":1747494518,"current_range_meters":8400,"station_id":"ce4bgj92rcd13ifvqbd0","pricing_plan_id":"cebpf4jnsgd1na2vs0mg"},{"bike_id":"964428b0-0915-4a60-8bae-75148b1564bf","system_id":"levelo_inurba_marseille","lat":43.28275,"lon":5.35056,"is_reserved":false,"is_disabled":false,"rental_uris":{"android":"levelo://app?vid=964428b0-0915-4a60-8bae-75148b1564bf","ios":"levelo://app?vid=964428b0-0915-4a60-8bae-75148b1564bf"},"vehicle_type_id":"4","last_reported":1747494518,"current_range_meters":8400,"station_id":"ce4bhbp2rcd13ifvqerg","pricing_plan_id":"cebpf4jnsgd1na2vs0mg"},{"bike_id":"6fdcff50-fcfb-4800-a7c2-8b16930c4392","system_id":"levelo_inurba_marseille","lat":43.282764,"lon":5.35068,"is_reserved":false,"is_disabled":false,"rental_uris":{"android":"levelo://app?vid=6fdcff50-fcfb-4800-a7c2-8b16930c4392","ios":"levelo://app?vid=6fdcff50-fcfb-4800-a7c2-8b16930c4392"},"vehicle_type_id":"4","last_reported":1747494518,"current_range_meters":8400,"station_id":"ce4bhbp2rcd13ifvqerg","pricing_plan_id":"cebpf4jnsgd1na2vs0mg"},{"bike_id":"74d2a804-67f6-4a06-8dbb-1075a5c02049","system_id":"levelo_inurba_marseille","lat":43.26057,"lon":5.39386,"is_reserved":false,"is_disabled":false,"rental_uris":{"android":"levelo://app?vid=74d2a804-67f6-4a06-8dbb-1075a5c02049","ios":"levelo://app?vid=74d2a804-67f6-4a06-8dbb-1075a5c02049"},"vehicle_type_id":"4","last_reported":1747494518,"current_range_meters":8400,"station_id":"ce4bhh92rcd13ifvqfj0","pricing_plan_id":"cebpf4jnsgd1na2vs0mg"},{"bike_id":"fbe2ceb4-f8a0-4766-80a8-92562be901c1","system_id":"levelo_inurba_marseille","lat":43.23961,"lon":5.36636,"is_reserved":false,"is_disabled":false,"rental_uris":{"android":"levelo://app?vid=fbe2ceb4-f8a0-4766-80a8-92562be901c1","ios":"levelo://app?vid=fbe2ceb4-f8a0-4766-80a8-92562be901c1"},"vehicle_type_id":"4","last_reported":1747494518,"current_range_meters":8400,"station_id":"ce4bhi12rcd13ifvqfp0","pricing_plan_id":"cebpf4jnsgd1na2vs0mg"},{"bike_id":"12b1188b-9f79-4c25-a0c9-b780842e9f39","system_id":"levelo_inurba_marseille","lat":43.23154,"lon":5.43712,"is_reserved":false,"is_disabled":false,"rental_uris":{"android":"levelo://app?vid=12b1188b-9f79-4c25-a0c9-b780842e9f39","ios":"levelo://app?vid=12b1188b-9f79-4c25-a0c9-b780842e9f39"},"vehicle_type_id":"4","last_reported":1747494518,"current_range_meters":8400,"station_id":"ce4bhmp2rcd13ifvqgog","pricing_plan_id":"cebpf4jnsgd1na2vs0mg"},{"bike_id":"13eba903-84e5-4db7-ac7e-4ab9087c3a49","system_id":"levelo_inurba_marseille","lat":43.23211,"lon":5.35551,"is_reserved":false,"is_disabled":false,"rental_uris":{"android":"levelo://app?vid=13eba903-84e5-4db7-ac7e-4ab9087c3a49","ios":"levelo://app?vid=13eba903-84e5-4db7-ac7e-4ab9087c3a49"},"vehicle_type_id":"4","last_reported":1747494518,"current_range_meters":8400,"station_id":"ce4bhu92rcd13ifvqi70","pricing_plan_id":"cebpf4jnsgd1na2vs0mg"},{"bike_id":"bf84cbc8-47e5-41ba-9334-3e6727b3ebc1","system_id":"levelo_inurba_marseille","lat":43.231954,"lon":5.355537,"is_reserved":false,"is_disabled":false,"rental_uris":{"android":"levelo://app?vid=bf84cbc8-47e5-41ba-9334-3e6727b3ebc1","ios":"levelo://app?vid=bf84cbc8-47e5-41ba-9334-3e6727b3ebc1"},"vehicle_type_id":"4","last_reported":1747494518,"current_range_meters":8400,"station_id":"ce4bhu92rcd13ifvqi70","pricing_plan_id":"cebpf4jnsgd1na2vs0mg"},{"bike_id":"bbd82c95-01a7-4785-92ed-ebfbcf1fab88","system_id":"levelo_inurba_marseille","lat":43.23203,"lon":5.35555,"is_reserved":false,"is_disabled":false,"rental_uris":{"android":"levelo://app?vid=bbd82c95-01a7-4785-92ed-ebfbcf1fab88","ios":"levelo://app?vid=bbd82c95-01a7-4785-92ed-ebfbcf1fab88"},"vehicle_type_id":"4","last_reported":1747494518,"current_range_meters":8400,"station_id":"ce4bhu92rcd13ifvqi70","pricing_plan_id":"cebpf4jnsgd1na2vs0mg"},{"bike_id":"3d50d707-bb8a-4329-a7cb-48dae4e42631","system_id":"levelo_inurba_marseille","lat":43.2119,"lon":5.35095,"is_reserved":false,"is_disabled":false,"rental_uris":{"android":"levelo://app?vid=3d50d707-bb8a-4329-a7cb-48dae4e42631","ios":"levelo://app?vid=3d50d707-bb8a-4329-a7cb-48dae4e42631"},"vehicle_type_id":"4","last_reported":1747494518,"current_range_meters":8400,"station_id":"st_cvj6sg6p6f1abm77japg","pricing_plan_id":"cebpf4jnsgd1na2vs0mg"},{"bike_id":"fd36f2b2-ab3f-4773-a649-0c532c529c78","system_id":"levelo_inurba_marseille","lat":43.26562,"lon":5.37286,"is_reserved":false,"is_disabled":false,"rental_uris":{"android":"levelo://app?vid=fd36f2b2-ab3f-4773-a649-0c532c529c78","ios":"levelo://app?vid=fd36f2b2-ab3f-4773-a649-0c532c529c78"},"vehicle_type_id":"4","last_reported":1747494518,"current_range_meters":8800,"station_id":"ce4bhg12rcd13ifvqf70","pricing_plan_id":"cebpf4jnsgd1na2vs0mg"},{"bike_id":"a1ebb40c-08ca-44aa-8190-f0bfa9cf2bb4","system_id":"levelo_inurba_marseille","lat":43.22504,"lon":5.34786,"is_reserved":false,"is_disabled":false,"rental_uris":{"android":"levelo://app?vid=a1ebb40c-08ca-44aa-8190-f0bfa9cf2bb4","ios":"levelo://app?vid=a1ebb40c-08ca-44aa-8190-f0bfa9cf2bb4"},"vehicle_type_id":"4","last_reported":1747494518,"current_range_meters":8800,"station_id":"st_cvj5dfep6f1abm77gieg","pricing_plan_id":"cebpf4jnsgd1na2vs0mg"},{"bike_id":"cd5716cc-f478-4f43-a0b1-0cfc996a74ec","system_id":"levelo_inurba_marseille","lat":43.211887,"lon":5.350813,"is_reserved":false,"is_disabled":false,"rental_uris":{"android":"levelo://app?vid=cd5716cc-f478-4f43-a0b1-0cfc996a74ec","ios":"levelo://app?vid=cd5716cc-f478-4f43-a0b1-0cfc996a74ec"},"vehicle_type_id":"4","last_reported":1747494518,"current_range_meters":8800,"station_id":"st_cvj6sg6p6f1abm77japg","pricing_plan_id":"cebpf4jnsgd1na2vs0mg"},{"bike_id":"474213ca-bfdb-48eb-8fbe-c20fcf4c1ac3","system_id":"levelo_inurba_marseille","lat":43.27381,"lon":5.36259,"is_reserved":false,"is_disabled":false,"rental_uris":{"android":"levelo://app?vid=474213ca-bfdb-48eb-8fbe-c20fcf4c1ac3","ios":"levelo://app?vid=474213ca-bfdb-48eb-8fbe-c20fcf4c1ac3"},"vehicle_type_id":"4","last_reported":1747494518,"current_range_meters":9200,"station_id":"ce4bhbh2rcd13ifvqeo0","pricing_plan_id":"cebpf4jnsgd1na2vs0mg"},{"bike_id":"8ecf3802-f562-4519-a624-bf1ea77d1c13","system_id":"levelo_inurba_marseille","lat":43.24666,"lon":5.38167,"is_reserved":false,"is_disabled":false,"rental_uris":{"android":"levelo://app?vid=8ecf3802-f562-4519-a624-bf1ea77d1c13","ios":"levelo://app?vid=8ecf3802-f562-4519-a624-bf1ea77d1c13"},"vehicle_type_id":"4","last_reported":1747494518,"current_range_meters":9200,"station_id":"ce4bhih2rcd13ifvqfr0","pricing_plan_id":"cebpf4jnsgd1na2vs0mg"},{"bike_id":"8f253165-cbbd-4327-a7ef-5b768414fdda","system_id":"levelo_inurba_marseille","lat":43.318113,"lon":5.390204,"is_reserved":false,"is_disabled":false,"rental_uris":{"android":"levelo://app?vid=8f253165-cbbd-4327-a7ef-5b768414fdda","ios":"levelo://app?vid=8f253165-cbbd-4327-a7ef-5b768414fdda"},"vehicle_type_id":"4","last_reported":1747494518,"current_range_meters":9200,"station_id":"ce4bhqp2rcd13ifvqhng","pricing_plan_id":"cebpf4jnsgd1na2vs0mg"},{"bike_id":"df684a38-3322-457e-a69d-10f1c3b9f64a","system_id":"levelo_inurba_marseille","lat":43.241608,"lon":5.364028,"is_reserved":false,"is_disabled":false,"rental_uris":{"android":"levelo://app?vid=df684a38-3322-457e-a69d-10f1c3b9f64a","ios":"levelo://app?vid=df684a38-3322-457e-a69d-10f1c3b9f64a"},"vehicle_type_id":"4","last_reported":1747494518,"current_range_meters":9200,"station_id":"cpo36qri1sfpv3e86is0","pricing_plan_id":"cebpf4jnsgd1na2vs0mg"},{"bike_id":"e1fada1f-ee8d-461a-94ee-b12ae7beae21","system_id":"levelo_inurba_marseille","lat":43.22502,"lon":5.34779,"is_reserved":false,"is_disabled":false,"rental_uris":{"android":"levelo://app?vid=e1fada1f-ee8d-461a-94ee-b12ae7beae21","ios":"levelo://app?vid=e1fada1f-ee8d-461a-94ee-b12ae7beae21"},"vehicle_type_id":"4","last_reported":1747494518,"current_range_meters":9200,"station_id":"st_cvj5dfep6f1abm77gieg","pricing_plan_id":"cebpf4jnsgd1na2vs0mg"},{"bike_id":"bd416234-518a-4845-b84b-bec651f019dd","system_id":"levelo_inurba_marseille","lat":43.2119,"lon":5.35072,"is_reserved":false,"is_disabled":false,"rental_uris":{"android":"levelo://app?vid=bd416234-518a-4845-b84b-bec651f019dd","ios":"levelo://app?vid=bd416234-518a-4845-b84b-bec651f019dd"},"vehicle_type_id":"4","last_reported":1747494518,"current_range_meters":9200,"station_id":"st_cvj6sg6p6f1abm77japg","pricing_plan_id":"cebpf4jnsgd1na2vs0mg"},{"bike_id":"0fe40f1c-b730-4c54-b873-778f9d2c42d6","system_id":"levelo_inurba_marseille","lat":43.25959,"lon":5.37536,"is_reserved":false,"is_disabled":false,"rental_uris":{"android":"levelo://app?vid=0fe40f1c-b730-4c54-b873-778f9d2c42d6","ios":"levelo://app?vid=0fe40f1c-b730-4c54-b873-778f9d2c42d6"},"vehicle_type_id":"4","last_reported":1747494518,"current_range_meters":9600,"station_id":"","pricing_plan_id":"cebpf4jnsgd1na2vs0mg"},{"bike_id":"2dec80d9-a68d-4dd3-a087-3f3bcd3db7cb","system_id":"levelo_inurba_marseille","lat":43.27621,"lon":5.36121,"is_reserved":false,"is_disabled":false,"rental_uris":{"android":"levelo://app?vid=2dec80d9-a68d-4dd3-a087-3f3bcd3db7cb","ios":"levelo://app?vid=2dec80d9-a68d-4dd3-a087-3f3bcd3db7cb"},"vehicle_type_id":"4","last_reported":1747494518,"current_range_meters":9600,"station_id":"ce4bgj92rcd13ifvqbe0","pricing_plan_id":"cebpf4jnsgd1na2vs0mg"},{"bike_id":"c903d11c-2fcb-4273-8c5f-35dc6d18ed45","system_id":"levelo_inurba_marseille","lat":43.30182,"lon":5.36618,"is_reserved":false,"is_disabled":false,"rental_uris":{"android":"levelo://app?vid=c903d11c-2fcb-4273-8c5f-35dc6d18ed45","ios":"levelo://app?vid=c903d11c-2fcb-4273-8c5f-35dc6d18ed45"},"vehicle_type_id":"4","last_reported":1747494518,"current_range_meters":9600,"station_id":"ce4bgrh2rcd13ifvqc8g","pricing_plan_id":"cebpf4jnsgd1na2vs0mg"},{"bike_id":"7f7c85a5-c9de-462f-aa18-5d23abdab818","system_id":"levelo_inurba_marseille","lat":43.293122,"lon":5.382494,"is_reserved":false,"is_disabled":false,"rental_uris":{"android":"levelo://app?vid=7f7c85a5-c9de-462f-aa18-5d23abdab818","ios":"levelo://app?vid=7f7c85a5-c9de-462f-aa18-5d23abdab818"},"vehicle_type_id":"4","last_reported":1747494518,"current_range_meters":9600,"station_id":"ce4bh692rcd13ifvqea0","pricing_plan_id":"cebpf4jnsgd1na2vs0mg"},{"bike_id":"6f7da022-e381-4617-9c99-86adc761a953","system_id":"levelo_inurba_marseille","lat":43.231527,"lon":5.437963,"is_reserved":false,"is_disabled":false,"rental_uris":{"android":"levelo://app?vid=6f7da022-e381-4617-9c99-86adc761a953","ios":"levelo://app?vid=6f7da022-e381-4617-9c99-86adc761a953"},"vehicle_type_id":"4","last_reported":1747494518,"current_range_meters":10000,"station_id":"","pricing_plan_id":"cebpf4jnsgd1na2vs0mg"},{"bike_id":"e65b89b7-0b00-4bbd-9151-be182d2d1786","system_id":"levelo_inurba_marseille","lat":43.29602,"lon":5.3811,"is_reserved":false,"is_disabled":false,"rental_uris":{"android":"levelo://app?vid=e65b89b7-0b00-4bbd-9151-be182d2d1786","ios":"levelo://app?vid=e65b89b7-0b00-4bbd-9151-be182d2d1786"},"vehicle_type_id":"4","last_reported":1747494518,"current_range_meters":10000,"station_id":"ce4bgl12rcd13ifvqbo0","pricing_plan_id":"cebpf4jnsgd1na2vs0mg"},{"bike_id":"19532578-e993-415f-a4c2-4728c31b9dc8","system_id":"levelo_inurba_marseille","lat":43.306,"lon":5.39359,"is_reserved":false,"is_disabled":false,"rental_uris":{"android":"levelo://app?vid=19532578-e993-415f-a4c2-4728c31b9dc8","ios":"levelo://app?vid=19532578-e993-415f-a4c2-4728c31b9dc8"},"vehicle_type_id":"4","last_reported":1747494518,"current_range_meters":10000,"station_id":"ce4bh0p2rcd13ifvqd80","pricing_plan_id":"cebpf4jnsgd1na2vs0mg"},{"bike_id":"718122df-02cb-4dab-99ae-2cdc3635d947","system_id":"levelo_inurba_marseille","lat":43.27568,"lon":5.38447,"is_reserved":false,"is_disabled":false,"rental_uris":{"android":"levelo://app?vid=718122df-02cb-4dab-99ae-2cdc3635d947","ios":"levelo://app?vid=718122df-02cb-4dab-99ae-2cdc3635d947"},"vehicle_type_id":"4","last_reported":1747494518,"current_range_meters":10000,"station_id":"ce4bhh92rcd13ifvqfi0","pricing_plan_id":"cebpf4jnsgd1na2vs0mg"},{"bike_id":"e6b7b5ad-d51f-4f94-9958-1089c884263d","system_id":"levelo_inurba_marseille","lat":43.24663,"lon":5.38167,"is_reserved":false,"is_disabled":false,"rental_uris":{"android":"levelo://app?vid=e6b7b5ad-d51f-4f94-9958-1089c884263d","ios":"levelo://app?vid=e6b7b5ad-d51f-4f94-9958-1089c884263d"},"vehicle_type_id":"4","last_reported":1747494518,"current_range_meters":10000,"station_id":"ce4bhih2rcd13ifvqfr0","pricing_plan_id":"cebpf4jnsgd1na2vs0mg"},{"bike_id":"849f3b8a-1779-4f5f-a348-efb2185e6ee1","system_id":"levelo_inurba_marseille","lat":43.28428,"lon":5.39204,"is_reserved":false,"is_disabled":false,"rental_uris":{"android":"levelo://app?vid=849f3b8a-1779-4f5f-a348-efb2185e6ee1","ios":"levelo://app?vid=849f3b8a-1779-4f5f-a348-efb2185e6ee1"},"vehicle_type_id":"4","last_reported":1747494518,"current_range_meters":10000,"station_id":"ce4bhoh2rcd13ifvqh5g","pricing_plan_id":"cebpf4jnsgd1na2vs0mg"},{"bike_id":"49572d7a-7edf-4330-9aa9-536d78c069b2","system_id":"levelo_inurba_marseille","lat":43.211953,"lon":5.350733,"is_reserved":false,"is_disabled":false,"rental_uris":{"android":"levelo://app?vid=49572d7a-7edf-4330-9aa9-536d78c069b2","ios":"levelo://app?vid=49572d7a-7edf-4330-9aa9-536d78c069b2"},"vehicle_type_id":"4","last_reported":1747494518,"current_range_meters":10000,"station_id":"st_cvj6sg6p6f1abm77japg","pricing_plan_id":"cebpf4jnsgd1na2vs0mg"},{"bike_id":"df21fa0f-b89d-4c7d-91ca-06a4db163261","system_id":"levelo_inurba_marseille","lat":43.21188,"lon":5.35062,"is_reserved":false,"is_disabled":false,"rental_uris":{"android":"levelo://app?vid=df21fa0f-b89d-4c7d-91ca-06a4db163261","ios":"levelo://app?vid=df21fa0f-b89d-4c7d-91ca-06a4db163261"},"vehicle_type_id":"4","last_reported":1747494518,"current_range_meters":10000,"station_id":"st_cvj6sg6p6f1abm77japg","pricing_plan_id":"cebpf4jnsgd1na2vs0mg"},{"bike_id":"6da655b8-0421-4e8a-ae32-6637af746f6a","system_id":"levelo_inurba_marseille","lat":43.268254,"lon":5.411114,"is_reserved":false,"is_disabled":false,"rental_uris":{"android":"levelo://app?vid=6da655b8-0421-4e8a-ae32-6637af746f6a","ios":"levelo://app?vid=6da655b8-0421-4e8a-ae32-6637af746f6a"},"vehicle_type_id":"4","last_reported":1747494518,"current_range_meters":10800,"station_id":"","pricing_plan_id":"cebpf4jnsgd1na2vs0mg"},{"bike_id":"5ec87c73-399a-4171-a1e9-a451499bc22f","system_id":"levelo_inurba_marseille","lat":43.279413,"lon":5.410508,"is_reserved":false,"is_disabled":false,"rental_uris":{"android":"levelo://app?vid=5ec87c73-399a-4171-a1e9-a451499bc22f","ios":"levelo://app?vid=5ec87c73-399a-4171-a1e9-a451499bc22f"},"vehicle_type_id":"4","last_reported":1747494518,"current_range_meters":10800,"station_id":"","pricing_plan_id":"cebpf4jnsgd1na2vs0mg"},{"bike_id":"8b01d6f7-f9e8-4871-8a72-6f37708b5303","system_id":"levelo_inurba_marseille","lat":43.30302,"lon":5.39208,"is_reserved":false,"is_disabled":false,"rental_uris":{"android":"levelo://app?vid=8b01d6f7-f9e8-4871-8a72-6f37708b5303","ios":"levelo://app?vid=8b01d6f7-f9e8-4871-8a72-6f37708b5303"},"vehicle_type_id":"4","last_reported":1747494518,"current_range_meters":10800,"station_id":"ce4bgkh2rcd13ifvqbk0","pricing_plan_id":"cebpf4jnsgd1na2vs0mg"},{"bike_id":"f6255fe7-b019-462a-a692-fc912f40a5d4","system_id":"levelo_inurba_marseille","lat":43.27375,"lon":5.36251,"is_reserved":false,"is_disabled":false,"rental_uris":{"android":"levelo://app?vid=f6255fe7-b019-462a-a692-fc912f40a5d4","ios":"levelo://app?vid=f6255fe7-b019-462a-a692-fc912f40a5d4"},"vehicle_type_id":"4","last_reported":1747494518,"current_range_meters":10800,"station_id":"ce4bhbh2rcd13ifvqeo0","pricing_plan_id":"cebpf4jnsgd1na2vs0mg"},{"bike_id":"f5c3d704-6dd9-430b-be6d-d13ed0323d6f","system_id":"levelo_inurba_marseille","lat":43.25016,"lon":5.38922,"is_reserved":false,"is_disabled":false,"rental_uris":{"android":"levelo://app?vid=f5c3d704-6dd9-430b-be6d-d13ed0323d6f","ios":"levelo://app?vid=f5c3d704-6dd9-430b-be6d-d13ed0323d6f"},"vehicle_type_id":"4","last_reported":1747494518,"current_range_meters":10800,"station_id":"ce4bhgp2rcd13ifvqfd0","pricing_plan_id":"cebpf4jnsgd1na2vs0mg"},{"bike_id":"2d870303-8e9c-4519-a98e-97211a2edb0d","system_id":"levelo_inurba_marseille","lat":43.262,"lon":5.37933,"is_reserved":false,"is_disabled":false,"rental_uris":{"android":"levelo://app?vid=2d870303-8e9c-4519-a98e-97211a2edb0d","ios":"levelo://app?vid=2d870303-8e9c-4519-a98e-97211a2edb0d"},"vehicle_type_id":"4","last_reported":1747494518,"current_range_meters":10800,"station_id":"ce4bhjp2rcd13ifvqg90","pricing_plan_id":"cebpf4jnsgd1na2vs0mg"},{"bike_id":"3e630e9a-3c06-4dcc-97d5-ae78a4ea1500","system_id":"levelo_inurba_marseille","lat":43.29893,"lon":5.43672,"is_reserved":false,"is_disabled":false,"rental_uris":{"android":"levelo://app?vid=3e630e9a-3c06-4dcc-97d5-ae78a4ea1500","ios":"levelo://app?vid=3e630e9a-3c06-4dcc-97d5-ae78a4ea1500"},"vehicle_type_id":"4","last_reported":1747494518,"current_range_meters":10800,"station_id":"ce4bhpp2rcd13ifvqhfg","pricing_plan_id":"cebpf4jnsgd1na2vs0mg"},{"bike_id":"b8e6468b-87db-4ff6-8122-ef13bf5b7c8c","system_id":"levelo_inurba_marseille","lat":43.31379,"lon":5.37916,"is_reserved":false,"is_disabled":false,"rental_uris":{"android":"levelo://app?vid=b8e6468b-87db-4ff6-8122-ef13bf5b7c8c","ios":"levelo://app?vid=b8e6468b-87db-4ff6-8122-ef13bf5b7c8c"},"vehicle_type_id":"4","last_reported":1747494518,"current_range_meters":11200,"station_id":"","pricing_plan_id":"cebpf4jnsgd1na2vs0mg"},{"bike_id":"ce4e1e67-1e8a-4e35-b382-0213d52ce9b2","system_id":"levelo_inurba_marseille","lat":43.30328,"lon":5.40427,"is_reserved":false,"is_disabled":false,"rental_uris":{"android":"levelo://app?vid=ce4e1e67-1e8a-4e35-b382-0213d52ce9b2","ios":"levelo://app?vid=ce4e1e67-1e8a-4e35-b382-0213d52ce9b2"},"vehicle_type_id":"4","last_reported":1747494518,"current_range_meters":11200,"station_id":"ce4bh012rcd13ifvqd10","pricing_plan_id":"cebpf4jnsgd1na2vs0mg"},{"bike_id":"bdf13769-4439-44ed-8124-7f7462822681","system_id":"levelo_inurba_marseille","lat":43.26493,"lon":5.3954,"is_reserved":false,"is_disabled":false,"rental_uris":{"android":"levelo://app?vid=bdf13769-4439-44ed-8124-7f7462822681","ios":"levelo://app?vid=bdf13769-4439-44ed-8124-7f7462822681"},"vehicle_type_id":"4","last_reported":1747494518,"current_range_meters":11200,"station_id":"ce4bhi12rcd13ifvqfq0","pricing_plan_id":"cebpf4jnsgd1na2vs0mg"},{"bike_id":"dd875c6a-daa9-4efe-a118-837ae24f3097","system_id":"levelo_inurba_marseille","lat":43.293161,"lon":5.371714,"is_reserved":false,"is_disabled":false,"rental_uris":{"android":"levelo://app?vid=dd875c6a-daa9-4efe-a118-837ae24f3097","ios":"levelo://app?vid=dd875c6a-daa9-4efe-a118-837ae24f3097"},"vehicle_type_id":"4","last_reported":1747494518,"current_range_meters":11600,"station_id":"ce4bgh92rcd13ifvqb40","pricing_plan_id":"cebpf4jnsgd1na2vs0mg"},{"bike_id":"be76dc2d-cf34-443d-be30-9be6c3f34a26","system_id":"levelo_inurba_marseille","lat":43.30962,"lon":5.39033,"is_reserved":false,"is_disabled":false,"rental_uris":{"android":"levelo://app?vid=be76dc2d-cf34-443d-be30-9be6c3f34a26","ios":"levelo://app?vid=be76dc2d-cf34-443d-be30-9be6c3f34a26"},"vehicle_type_id":"4","last_reported":1747494518,"current_range_meters":11600,"station_id":"ce4bgup2rcd13ifvqco0","pricing_plan_id":"cebpf4jnsgd1na2vs0mg"},{"bike_id":"09ea1d4a-d730-4b20-8adf-d64cfa0dcb81","system_id":"levelo_inurba_marseille","lat":43.29643,"lon":5.406,"is_reserved":false,"is_disabled":false,"rental_uris":{"android":"levelo://app?vid=09ea1d4a-d730-4b20-8adf-d64cfa0dcb81","ios":"levelo://app?vid=09ea1d4a-d730-4b20-8adf-d64cfa0dcb81"},"vehicle_type_id":"4","last_reported":1747494518,"current_range_meters":11600,"station_id":"ce4bh0h2rcd13ifvqd60","pricing_plan_id":"cebpf4jnsgd1na2vs0mg"},{"bike_id":"0639139f-ff95-4f18-85bf-83e790f0d5fd","system_id":"levelo_inurba_marseille","lat":43.27391,"lon":5.36236,"is_reserved":false,"is_disabled":false,"rental_uris":{"android":"levelo://app?vid=0639139f-ff95-4f18-85bf-83e790f0d5fd","ios":"levelo://app?vid=0639139f-ff95-4f18-85bf-83e790f0d5fd"},"vehicle_type_id":"4","last_reported":1747494518,"current_range_meters":11600,"station_id":"ce4bhbh2rcd13ifvqeo0","pricing_plan_id":"cebpf4jnsgd1na2vs0mg"},{"bike_id":"c8e824f7-0ab3-4f99-809a-282933cb9c4f","system_id":"levelo_inurba_marseille","lat":43.28271,"lon":5.35063,"is_reserved":false,"is_disabled":false,"rental_uris":{"android":"levelo://app?vid=c8e824f7-0ab3-4f99-809a-282933cb9c4f","ios":"levelo://app?vid=c8e824f7-0ab3-4f99-809a-282933cb9c4f"},"vehicle_type_id":"4","last_reported":1747494518,"current_range_meters":11600,"station_id":"ce4bhbp2rcd13ifvqerg","pricing_plan_id":"cebpf4jnsgd1na2vs0mg"},{"bike_id":"497cc2cf-fcc5-463f-8221-b4f7c50802f4","system_id":"levelo_inurba_marseille","lat":43.26182,"lon":5.37458,"is_reserved":false,"is_disabled":false,"rental_uris":{"android":"levelo://app?vid=497cc2cf-fcc5-463f-8221-b4f7c50802f4","ios":"levelo://app?vid=497cc2cf-fcc5-463f-8221-b4f7c50802f4"},"vehicle_type_id":"4","last_reported":1747494518,"current_range_meters":11600,"station_id":"ce4bhgp2rcd13ifvqfc0","pricing_plan_id":"cebpf4jnsgd1na2vs0mg"},{"bike_id":"bfee2e7b-fcd6-4e7a-8177-7bd041434065","system_id":"levelo_inurba_marseille","lat":43.25007,"lon":5.38947,"is_reserved":false,"is_disabled":false,"rental_uris":{"android":"levelo://app?vid=bfee2e7b-fcd6-4e7a-8177-7bd041434065","ios":"levelo://app?vid=bfee2e7b-fcd6-4e7a-8177-7bd041434065"},"vehicle_type_id":"4","last_reported":1747494518,"current_range_meters":11600,"station_id":"ce4bhgp2rcd13ifvqfd0","pricing_plan_id":"cebpf4jnsgd1na2vs0mg"},{"bike_id":"60de8e1e-32b4-4758-96c1-40a9d983d640","system_id":"levelo_inurba_marseille","lat":43.25491,"lon":5.37647,"is_reserved":false,"is_disabled":false,"rental_uris":{"android":"levelo://app?vid=60de8e1e-32b4-4758-96c1-40a9d983d640","ios":"levelo://app?vid=60de8e1e-32b4-4758-96c1-40a9d983d640"},"vehicle_type_id":"4","last_reported":1747494518,"current_range_meters":11600,"station_id":"ce4bhh12rcd13ifvqff0","pricing_plan_id":"cebpf4jnsgd1na2vs0mg"},{"bike_id":"9187c104-9b06-48af-9f58-758fc1dd1410","system_id":"levelo_inurba_marseille","lat":43.23198,"lon":5.35543,"is_reserved":false,"is_disabled":false,"rental_uris":{"android":"levelo://app?vid=9187c104-9b06-48af-9f58-758fc1dd1410","ios":"levelo://app?vid=9187c104-9b06-48af-9f58-758fc1dd1410"},"vehicle_type_id":"4","last_reported":1747494518,"current_range_meters":11600,"station_id":"ce4bhu92rcd13ifvqi70","pricing_plan_id":"cebpf4jnsgd1na2vs0mg"},{"bike_id":"83be837d-42e9-4d17-9ca1-8064b89c1538","system_id":"levelo_inurba_marseille","lat":43.211958,"lon":5.350664,"is_reserved":false,"is_disabled":false,"rental_uris":{"android":"levelo://app?vid=83be837d-42e9-4d17-9ca1-8064b89c1538","ios":"levelo://app?vid=83be837d-42e9-4d17-9ca1-8064b89c1538"},"vehicle_type_id":"4","last_reported":1747494518,"current_range_meters":11600,"station_id":"st_cvj6sg6p6f1abm77japg","pricing_plan_id":"cebpf4jnsgd1na2vs0mg"},{"bike_id":"95f767ee-43dd-4b47-83d4-eba42e6f433a","system_id":"levelo_inurba_marseille","lat":43.30141,"lon":5.375116,"is_reserved":false,"is_disabled":false,"rental_uris":{"android":"levelo://app?vid=95f767ee-43dd-4b47-83d4-eba42e6f433a","ios":"levelo://app?vid=95f767ee-43dd-4b47-83d4-eba42e6f433a"},"vehicle_type_id":"4","last_reported":1747494518,"current_range_meters":12000,"station_id":"ce4bgs92rcd13ifvqcc0","pricing_plan_id":"cebpf4jnsgd1na2vs0mg"},{"bike_id":"6b18a89f-bffc-4378-be8c-df0fb08f1764","system_id":"levelo_inurba_marseille","lat":43.26193,"lon":5.3743,"is_reserved":false,"is_disabled":false,"rental_uris":{"android":"levelo://app?vid=6b18a89f-bffc-4378-be8c-df0fb08f1764","ios":"levelo://app?vid=6b18a89f-bffc-4378-be8c-df0fb08f1764"},"vehicle_type_id":"4","last_reported":1747494518,"current_range_meters":12000,"station_id":"ce4bhgp2rcd13ifvqfc0","pricing_plan_id":"cebpf4jnsgd1na2vs0mg"},{"bike_id":"d59933f8-89ff-47b5-925a-c85d2faacd78","system_id":"levelo_inurba_marseille","lat":43.25496,"lon":5.37657,"is_reserved":false,"is_disabled":false,"rental_uris":{"android":"levelo://app?vid=d59933f8-89ff-47b5-925a-c85d2faacd78","ios":"levelo://app?vid=d59933f8-89ff-47b5-925a-c85d2faacd78"},"vehicle_type_id":"4","last_reported":1747494518,"current_range_meters":12000,"station_id":"ce4bhh12rcd13ifvqff0","pricing_plan_id":"cebpf4jnsgd1na2vs0mg"},{"bike_id":"81a9455a-3e2a-4c4a-be15-7a450dcad848","system_id":"levelo_inurba_marseille","lat":43.23975,"lon":5.36642,"is_reserved":false,"is_disabled":false,"rental_uris":{"android":"levelo://app?vid=81a9455a-3e2a-4c4a-be15-7a450dcad848","ios":"levelo://app?vid=81a9455a-3e2a-4c4a-be15-7a450dcad848"},"vehicle_type_id":"4","last_reported":1747494518,"current_range_meters":12000,"station_id":"ce4bhi12rcd13ifvqfp0","pricing_plan_id":"cebpf4jnsgd1na2vs0mg"},{"bike_id":"a22e5774-054c-4ef5-8760-0fea5f887764","system_id":"levelo_inurba_marseille","lat":43.24061,"lon":5.37771,"is_reserved":false,"is_disabled":false,"rental_uris":{"android":"levelo://app?vid=a22e5774-054c-4ef5-8760-0fea5f887764","ios":"levelo://app?vid=a22e5774-054c-4ef5-8760-0fea5f887764"},"vehicle_type_id":"4","last_reported":1747494518,"current_range_meters":12000,"station_id":"ce4bhnp2rcd13ifvqgvg","pricing_plan_id":"cebpf4jnsgd1na2vs0mg"},{"bike_id":"a4d7457e-a382-4ab7-9876-e9ba20692ec9","system_id":"levelo_inurba_marseille","lat":43.319914,"lon":5.38167,"is_reserved":false,"is_disabled":false,"rental_uris":{"android":"levelo://app?vid=a4d7457e-a382-4ab7-9876-e9ba20692ec9","ios":"levelo://app?vid=a4d7457e-a382-4ab7-9876-e9ba20692ec9"},"vehicle_type_id":"4","last_reported":1747494518,"current_range_meters":12000,"station_id":"ce4bhr12rcd13ifvqhpg","pricing_plan_id":"cebpf4jnsgd1na2vs0mg"},{"bike_id":"7f198fbd-e0e0-425b-9796-9a2feab13d1b","system_id":"levelo_inurba_marseille","lat":43.21202,"lon":5.3509,"is_reserved":false,"is_disabled":false,"rental_uris":{"android":"levelo://app?vid=7f198fbd-e0e0-425b-9796-9a2feab13d1b","ios":"levelo://app?vid=7f198fbd-e0e0-425b-9796-9a2feab13d1b"},"vehicle_type_id":"4","last_reported":1747494518,"current_range_meters":12000,"station_id":"st_cvj6sg6p6f1abm77japg","pricing_plan_id":"cebpf4jnsgd1na2vs0mg"},{"bike_id":"f8b3af5f-7bce-40d7-b825-5004566ccd70","system_id":"levelo_inurba_marseille","lat":43.31033,"lon":5.37121,"is_reserved":false,"is_disabled":false,"rental_uris":{"android":"levelo://app?vid=f8b3af5f-7bce-40d7-b825-5004566ccd70","ios":"levelo://app?vid=f8b3af5f-7bce-40d7-b825-5004566ccd70"},"vehicle_type_id":"4","last_reported":1747494518,"current_range_meters":12400,"station_id":"","pricing_plan_id":"cebpf4jnsgd1na2vs0mg"},{"bike_id":"6e1bd625-3ec1-43df-9657-36d71ae09f8d","system_id":"levelo_inurba_marseille","lat":43.33771,"lon":5.37471,"is_reserved":false,"is_disabled":false,"rental_uris":{"android":"levelo://app?vid=6e1bd625-3ec1-43df-9657-36d71ae09f8d","ios":"levelo://app?vid=6e1bd625-3ec1-43df-9657-36d71ae09f8d"},"vehicle_type_id":"4","last_reported":1747494518,"current_range_meters":12400,"station_id":"","pricing_plan_id":"cebpf4jnsgd1na2vs0mg"},{"bike_id":"56e765ab-f65a-4cc1-aa95-7f9ca69f401e","system_id":"levelo_inurba_marseille","lat":43.30176,"lon":5.36618,"is_reserved":false,"is_disabled":false,"rental_uris":{"android":"levelo://app?vid=56e765ab-f65a-4cc1-aa95-7f9ca69f401e","ios":"levelo://app?vid=56e765ab-f65a-4cc1-aa95-7f9ca69f401e"},"vehicle_type_id":"4","last_reported":1747494518,"current_range_meters":12400,"station_id":"ce4bgrh2rcd13ifvqc8g","pricing_plan_id":"cebpf4jnsgd1na2vs0mg"},{"bike_id":"526bf96d-f5b3-41a1-97c5-8357a4b3312e","system_id":"levelo_inurba_marseille","lat":43.30133,"lon":5.37424,"is_reserved":false,"is_disabled":false,"rental_uris":{"android":"levelo://app?vid=526bf96d-f5b3-41a1-97c5-8357a4b3312e","ios":"levelo://app?vid=526bf96d-f5b3-41a1-97c5-8357a4b3312e"},"vehicle_type_id":"4","last_reported":1747494518,"current_range_meters":12400,"station_id":"ce4bgs92rcd13ifvqcc0","pricing_plan_id":"cebpf4jnsgd1na2vs0mg"},{"bike_id":"eab4de2e-2604-496a-90e8-f0f9dbd0eea4","system_id":"levelo_inurba_marseille","lat":43.2736,"lon":5.3622,"is_reserved":false,"is_disabled":false,"rental_uris":{"android":"levelo://app?vid=eab4de2e-2604-496a-90e8-f0f9dbd0eea4","ios":"levelo://app?vid=eab4de2e-2604-496a-90e8-f0f9dbd0eea4"},"vehicle_type_id":"4","last_reported":1747494518,"current_range_meters":12400,"station_id":"ce4bhbh2rcd13ifvqeo0","pricing_plan_id":"cebpf4jnsgd1na2vs0mg"},{"bike_id":"b6ac1d3d-c642-4ed2-8f51-a4e83705ecf1","system_id":"levelo_inurba_marseille","lat":43.27388,"lon":5.36269,"is_reserved":false,"is_disabled":false,"rental_uris":{"android":"levelo://app?vid=b6ac1d3d-c642-4ed2-8f51-a4e83705ecf1","ios":"levelo://app?vid=b6ac1d3d-c642-4ed2-8f51-a4e83705ecf1"},"vehicle_type_id":"4","last_reported":1747494518,"current_range_meters":12400,"station_id":"ce4bhbh2rcd13ifvqeo0","pricing_plan_id":"cebpf4jnsgd1na2vs0mg"},{"bike_id":"56a10ad3-c52a-4ee6-9c8f-09e859550d56","system_id":"levelo_inurba_marseille","lat":43.23962,"lon":5.36646,"is_reserved":false,"is_disabled":false,"rental_uris":{"android":"levelo://app?vid=56a10ad3-c52a-4ee6-9c8f-09e859550d56","ios":"levelo://app?vid=56a10ad3-c52a-4ee6-9c8f-09e859550d56"},"vehicle_type_id":"4","last_reported":1747494518,"current_range_meters":12400,"station_id":"ce4bhi12rcd13ifvqfp0","pricing_plan_id":"cebpf4jnsgd1na2vs0mg"},{"bike_id":"c493ef29-ab8b-4b63-acad-33b362301146","system_id":"levelo_inurba_marseille","lat":43.23197,"lon":5.35555,"is_reserved":false,"is_disabled":false,"rental_uris":{"android":"levelo://app?vid=c493ef29-ab8b-4b63-acad-33b362301146","ios":"levelo://app?vid=c493ef29-ab8b-4b63-acad-33b362301146"},"vehicle_type_id":"4","last_reported":1747494518,"current_range_meters":12400,"station_id":"ce4bhu92rcd13ifvqi70","pricing_plan_id":"cebpf4jnsgd1na2vs0mg"},{"bike_id":"0e51c187-e567-4596-8939-4c2bebbafb35","system_id":"levelo_inurba_marseille","lat":43.241852,"lon":5.364532,"is_reserved":false,"is_disabled":false,"rental_uris":{"android":"levelo://app?vid=0e51c187-e567-4596-8939-4c2bebbafb35","ios":"levelo://app?vid=0e51c187-e567-4596-8939-4c2bebbafb35"},"vehicle_type_id":"4","last_reported":1747494518,"current_range_meters":12800,"station_id":"","pricing_plan_id":"cebpf4jnsgd1na2vs0mg"},{"bike_id":"d478f83d-1d8c-4f8d-b7bb-d2935fa17d07","system_id":"levelo_inurba_marseille","lat":43.28457,"lon":5.35891,"is_reserved":false,"is_disabled":false,"rental_uris":{"android":"levelo://app?vid=d478f83d-1d8c-4f8d-b7bb-d2935fa17d07","ios":"levelo://app?vid=d478f83d-1d8c-4f8d-b7bb-d2935fa17d07"},"vehicle_type_id":"4","last_reported":1747494518,"current_range_meters":12800,"station_id":"ce4bhah2rcd13ifvqei0","pricing_plan_id":"cebpf4jnsgd1na2vs0mg"},{"bike_id":"b5ab1b0c-2927-4f0b-891e-85c56c5b2523","system_id":"levelo_inurba_marseille","lat":43.28397,"lon":5.3499,"is_reserved":false,"is_disabled":false,"rental_uris":{"android":"levelo://app?vid=b5ab1b0c-2927-4f0b-891e-85c56c5b2523","ios":"levelo://app?vid=b5ab1b0c-2927-4f0b-891e-85c56c5b2523"},"vehicle_type_id":"4","last_reported":1747494518,"current_range_meters":12800,"station_id":"ce4bhbh2rcd13ifvqepg","pricing_plan_id":"cebpf4jnsgd1na2vs0mg"},{"bike_id":"f63203cc-3db4-4da9-b727-3ca3702bb76a","system_id":"levelo_inurba_marseille","lat":43.2605,"lon":5.37564,"is_reserved":false,"is_disabled":false,"rental_uris":{"android":"levelo://app?vid=f63203cc-3db4-4da9-b727-3ca3702bb76a","ios":"levelo://app?vid=f63203cc-3db4-4da9-b727-3ca3702bb76a"},"vehicle_type_id":"4","last_reported":1747494518,"current_range_meters":12800,"station_id":"ce4bhgh2rcd13ifvqfa0","pricing_plan_id":"cebpf4jnsgd1na2vs0mg"},{"bike_id":"7138af59-1380-475f-9add-da10355761e2","system_id":"levelo_inurba_marseille","lat":43.26975,"lon":5.40272,"is_reserved":false,"is_disabled":false,"rental_uris":{"android":"levelo://app?vid=7138af59-1380-475f-9add-da10355761e2","ios":"levelo://app?vid=7138af59-1380-475f-9add-da10355761e2"},"vehicle_type_id":"4","last_reported":1747494518,"current_range_meters":12800,"station_id":"cjm6bp8fraef2m0cb0m0","pricing_plan_id":"cebpf4jnsgd1na2vs0mg"},{"bike_id":"353fc0e4-539f-4488-be2f-4554d7b26470","system_id":"levelo_inurba_marseille","lat":43.24159,"lon":5.36426,"is_reserved":false,"is_disabled":false,"rental_uris":{"android":"levelo://app?vid=353fc0e4-539f-4488-be2f-4554d7b26470","ios":"levelo://app?vid=353fc0e4-539f-4488-be2f-4554d7b26470"},"vehicle_type_id":"4","last_reported":1747494518,"current_range_meters":12800,"station_id":"cpo36qri1sfpv3e86is0","pricing_plan_id":"cebpf4jnsgd1na2vs0mg"},{"bike_id":"14603e41-b2dd-4757-a53c-2e366aa4f983","system_id":"levelo_inurba_marseille","lat":43.26998,"lon":5.42812,"is_reserved":false,"is_disabled":false,"rental_uris":{"android":"levelo://app?vid=14603e41-b2dd-4757-a53c-2e366aa4f983","ios":"levelo://app?vid=14603e41-b2dd-4757-a53c-2e366aa4f983"},"vehicle_type_id":"4","last_reported":1747494518,"current_range_meters":13600,"station_id":"","pricing_plan_id":"cebpf4jnsgd1na2vs0mg"},{"bike_id":"7567253d-d55e-4a56-8fe6-f42b518ed463","system_id":"levelo_inurba_marseille","lat":43.27385,"lon":5.36249,"is_reserved":false,"is_disabled":false,"rental_uris":{"android":"levelo://app?vid=7567253d-d55e-4a56-8fe6-f42b518ed463","ios":"levelo://app?vid=7567253d-d55e-4a56-8fe6-f42b518ed463"},"vehicle_type_id":"4","last_reported":1747494518,"current_range_meters":13600,"station_id":"ce4bhbh2rcd13ifvqeo0","pricing_plan_id":"cebpf4jnsgd1na2vs0mg"},{"bike_id":"a080fa2b-c9b1-408a-9236-025ac0f77890","system_id":"levelo_inurba_marseille","lat":43.28436,"lon":5.35002,"is_reserved":false,"is_disabled":false,"rental_uris":{"android":"levelo://app?vid=a080fa2b-c9b1-408a-9236-025ac0f77890","ios":"levelo://app?vid=a080fa2b-c9b1-408a-9236-025ac0f77890"},"vehicle_type_id":"4","last_reported":1747494518,"current_range_meters":13600,"station_id":"ce4bhbh2rcd13ifvqepg","pricing_plan_id":"cebpf4jnsgd1na2vs0mg"},{"bike_id":"f512625e-e102-4a9b-b848-d2ea2dd1259c","system_id":"levelo_inurba_marseille","lat":43.25002,"lon":5.38935,"is_reserved":false,"is_disabled":false,"rental_uris":{"android":"levelo://app?vid=f512625e-e102-4a9b-b848-d2ea2dd1259c","ios":"levelo://app?vid=f512625e-e102-4a9b-b848-d2ea2dd1259c"},"vehicle_type_id":"4","last_reported":1747494518,"current_range_meters":13600,"station_id":"ce4bhgp2rcd13ifvqfd0","pricing_plan_id":"cebpf4jnsgd1na2vs0mg"},{"bike_id":"b35af4b7-ddb0-420c-8ae1-86f05bafeae7","system_id":"levelo_inurba_marseille","lat":43.23197,"lon":5.3556,"is_reserved":false,"is_disabled":false,"rental_uris":{"android":"levelo://app?vid=b35af4b7-ddb0-420c-8ae1-86f05bafeae7","ios":"levelo://app?vid=b35af4b7-ddb0-420c-8ae1-86f05bafeae7"},"vehicle_type_id":"4","last_reported":1747494518,"current_range_meters":13600,"station_id":"ce4bhu92rcd13ifvqi70","pricing_plan_id":"cebpf4jnsgd1na2vs0mg"},{"bike_id":"05cfed21-0c71-4180-b280-607cd28c9c9a","system_id":"levelo_inurba_marseille","lat":43.23065,"lon":5.35459,"is_reserved":false,"is_disabled":false,"rental_uris":{"android":"levelo://app?vid=05cfed21-0c71-4180-b280-607cd28c9c9a","ios":"levelo://app?vid=05cfed21-0c71-4180-b280-607cd28c9c9a"},"vehicle_type_id":"4","last_reported":1747494518,"current_range_meters":13600,"station_id":"cpo3342slgdg3j2ifvpg","pricing_plan_id":"cebpf4jnsgd1na2vs0mg"},{"bike_id":"3980d76b-e904-45ba-9bbd-4ee10919b44c","system_id":"levelo_inurba_marseille","lat":43.3109,"lon":5.38213,"is_reserved":false,"is_disabled":false,"rental_uris":{"android":"levelo://app?vid=3980d76b-e904-45ba-9bbd-4ee10919b44c","ios":"levelo://app?vid=3980d76b-e904-45ba-9bbd-4ee10919b44c"},"vehicle_type_id":"4","last_reported":1747494518,"current_range_meters":14000,"station_id":"","pricing_plan_id":"cebpf4jnsgd1na2vs0mg"},{"bike_id":"87026d6b-59f2-44e1-bf1a-8219372df199","system_id":"levelo_inurba_marseille","lat":43.30145,"lon":5.38073,"is_reserved":false,"is_disabled":false,"rental_uris":{"android":"levelo://app?vid=87026d6b-59f2-44e1-bf1a-8219372df199","ios":"levelo://app?vid=87026d6b-59f2-44e1-bf1a-8219372df199"},"vehicle_type_id":"4","last_reported":1747494518,"current_range_meters":14000,"station_id":"ce4bgjp2rcd13ifvqbh0","pricing_plan_id":"cebpf4jnsgd1na2vs0mg"},{"bike_id":"a021482a-c8bc-46d0-a629-509fa9c45f0e","system_id":"levelo_inurba_marseille","lat":43.30142,"lon":5.3742,"is_reserved":false,"is_disabled":false,"rental_uris":{"android":"levelo://app?vid=a021482a-c8bc-46d0-a629-509fa9c45f0e","ios":"levelo://app?vid=a021482a-c8bc-46d0-a629-509fa9c45f0e"},"vehicle_type_id":"4","last_reported":1747494518,"current_range_meters":14000,"station_id":"ce4bgs92rcd13ifvqcc0","pricing_plan_id":"cebpf4jnsgd1na2vs0mg"},{"bike_id":"5f2521c9-62fb-4141-b1d6-cd2fc15ce46c","system_id":"levelo_inurba_marseille","lat":43.25583,"lon":5.38237,"is_reserved":false,"is_disabled":false,"rental_uris":{"android":"levelo://app?vid=5f2521c9-62fb-4141-b1d6-cd2fc15ce46c","ios":"levelo://app?vid=5f2521c9-62fb-4141-b1d6-cd2fc15ce46c"},"vehicle_type_id":"4","last_reported":1747494518,"current_range_meters":14000,"station_id":"ce4bhih2rcd13ifvqfs0","pricing_plan_id":"cebpf4jnsgd1na2vs0mg"},{"bike_id":"f0facba3-ffd4-45ba-aa16-42c441bc1c63","system_id":"levelo_inurba_marseille","lat":43.231537,"lon":5.437173,"is_reserved":false,"is_disabled":false,"rental_uris":{"android":"levelo://app?vid=f0facba3-ffd4-45ba-aa16-42c441bc1c63","ios":"levelo://app?vid=f0facba3-ffd4-45ba-aa16-42c441bc1c63"},"vehicle_type_id":"4","last_reported":1747494518,"current_range_meters":14000,"station_id":"ce4bhmp2rcd13ifvqgog","pricing_plan_id":"cebpf4jnsgd1na2vs0mg"},{"bike_id":"f948109f-a829-41ed-aa38-29e765ca5245","system_id":"levelo_inurba_marseille","lat":43.21188,"lon":5.35089,"is_reserved":false,"is_disabled":false,"rental_uris":{"android":"levelo://app?vid=f948109f-a829-41ed-aa38-29e765ca5245","ios":"levelo://app?vid=f948109f-a829-41ed-aa38-29e765ca5245"},"vehicle_type_id":"4","last_reported":1747494518,"current_range_meters":14000,"station_id":"st_cvj6sg6p6f1abm77japg","pricing_plan_id":"cebpf4jnsgd1na2vs0mg"},{"bike_id":"68d3ddc8-83b9-422b-a5c0-0651cd30128e","system_id":"levelo_inurba_marseille","lat":43.28421,"lon":5.34978,"is_reserved":false,"is_disabled":false,"rental_uris":{"android":"levelo://app?vid=68d3ddc8-83b9-422b-a5c0-0651cd30128e","ios":"levelo://app?vid=68d3ddc8-83b9-422b-a5c0-0651cd30128e"},"vehicle_type_id":"4","last_reported":1747494518,"current_range_meters":14400,"station_id":"ce4bhbh2rcd13ifvqepg","pricing_plan_id":"cebpf4jnsgd1na2vs0mg"},{"bike_id":"bc2a2bf2-dec3-4ba9-a4d9-4c5890684b26","system_id":"levelo_inurba_marseille","lat":43.29957,"lon":5.38506,"is_reserved":false,"is_disabled":false,"rental_uris":{"android":"levelo://app?vid=bc2a2bf2-dec3-4ba9-a4d9-4c5890684b26","ios":"levelo://app?vid=bc2a2bf2-dec3-4ba9-a4d9-4c5890684b26"},"vehicle_type_id":"4","last_reported":1747494518,"current_range_meters":14800,"station_id":"ce4bgj92rcd13ifvqbd0","pricing_plan_id":"cebpf4jnsgd1na2vs0mg"},{"bike_id":"c1024872-018c-41ba-b29c-bb48a74a7e67","system_id":"levelo_inurba_marseille","lat":43.2738,"lon":5.36258,"is_reserved":false,"is_disabled":false,"rental_uris":{"android":"levelo://app?vid=c1024872-018c-41ba-b29c-bb48a74a7e67","ios":"levelo://app?vid=c1024872-018c-41ba-b29c-bb48a74a7e67"},"vehicle_type_id":"4","last_reported":1747494518,"current_range_meters":14800,"station_id":"ce4bhbh2rcd13ifvqeo0","pricing_plan_id":"cebpf4jnsgd1na2vs0mg"},{"bike_id":"bba67333-7a43-456d-9134-5575e1f6d56e","system_id":"levelo_inurba_marseille","lat":43.26026,"lon":5.375517,"is_reserved":false,"is_disabled":false,"rental_uris":{"android":"levelo://app?vid=bba67333-7a43-456d-9134-5575e1f6d56e","ios":"levelo://app?vid=bba67333-7a43-456d-9134-5575e1f6d56e"},"vehicle_type_id":"4","last_reported":1747494518,"current_range_meters":14800,"station_id":"ce4bhgh2rcd13ifvqfa0","pricing_plan_id":"cebpf4jnsgd1na2vs0mg"},{"bike_id":"09b3eb29-a917-4cfd-803f-f199cab89b4d","system_id":"levelo_inurba_marseille","lat":43.25531,"lon":5.37661,"is_reserved":false,"is_disabled":false,"rental_uris":{"android":"levelo://app?vid=09b3eb29-a917-4cfd-803f-f199cab89b4d","ios":"levelo://app?vid=09b3eb29-a917-4cfd-803f-f199cab89b4d"},"vehicle_type_id":"4","last_reported":1747494518,"current_range_meters":14800,"station_id":"ce4bhh12rcd13ifvqff0","pricing_plan_id":"cebpf4jnsgd1na2vs0mg"},{"bike_id":"1390c25b-faac-415e-bfcf-0b41623c0c25","system_id":"levelo_inurba_marseille","lat":43.24392,"lon":5.37057,"is_reserved":false,"is_disabled":false,"rental_uris":{"android":"levelo://app?vid=1390c25b-faac-415e-bfcf-0b41623c0c25","ios":"levelo://app?vid=1390c25b-faac-415e-bfcf-0b41623c0c25"},"vehicle_type_id":"4","last_reported":1747494518,"current_range_meters":14800,"station_id":"ce4bhhh2rcd13ifvqfk0","pricing_plan_id":"cebpf4jnsgd1na2vs0mg"},{"bike_id":"3d10d794-c7a8-49b7-b6be-cc834eb68bb1","system_id":"levelo_inurba_marseille","lat":43.2586,"lon":5.39908,"is_reserved":false,"is_disabled":false,"rental_uris":{"android":"levelo://app?vid=3d10d794-c7a8-49b7-b6be-cc834eb68bb1","ios":"levelo://app?vid=3d10d794-c7a8-49b7-b6be-cc834eb68bb1"},"vehicle_type_id":"4","last_reported":1747494518,"current_range_meters":14800,"station_id":"ce4bhl92rcd13ifvqghg","pricing_plan_id":"cebpf4jnsgd1na2vs0mg"},{"bike_id":"1cb13a59-cf26-426e-814a-8c24150875c1","system_id":"levelo_inurba_marseille","lat":43.22509,"lon":5.34785,"is_reserved":false,"is_disabled":false,"rental_uris":{"android":"levelo://app?vid=1cb13a59-cf26-426e-814a-8c24150875c1","ios":"levelo://app?vid=1cb13a59-cf26-426e-814a-8c24150875c1"},"vehicle_type_id":"4","last_reported":1747494518,"current_range_meters":14800,"station_id":"st_cvj5dfep6f1abm77gieg","pricing_plan_id":"cebpf4jnsgd1na2vs0mg"},{"bike_id":"266c6bb7-22d2-4813-9294-91bf8277a930","system_id":"levelo_inurba_marseille","lat":43.21195,"lon":5.35082,"is_reserved":false,"is_disabled":false,"rental_uris":{"android":"levelo://app?vid=266c6bb7-22d2-4813-9294-91bf8277a930","ios":"levelo://app?vid=266c6bb7-22d2-4813-9294-91bf8277a930"},"vehicle_type_id":"4","last_reported":1747494518,"current_range_meters":14800,"station_id":"st_cvj6sg6p6f1abm77japg","pricing_plan_id":"cebpf4jnsgd1na2vs0mg"},{"bike_id":"a829ec3c-ad0c-49a8-a0a7-dbfaeb156d21","system_id":"levelo_inurba_marseille","lat":43.28295,"lon":5.35108,"is_reserved":false,"is_disabled":false,"rental_uris":{"android":"levelo://app?vid=a829ec3c-ad0c-49a8-a0a7-dbfaeb156d21","ios":"levelo://app?vid=a829ec3c-ad0c-49a8-a0a7-dbfaeb156d21"},"vehicle_type_id":"4","last_reported":1747494518,"current_range_meters":15200,"station_id":"","pricing_plan_id":"cebpf4jnsgd1na2vs0mg"},{"bike_id":"c9830e27-e86d-4ff9-ae57-47c53bb28d88","system_id":"levelo_inurba_marseille","lat":43.28259,"lon":5.35078,"is_reserved":false,"is_disabled":false,"rental_uris":{"android":"levelo://app?vid=c9830e27-e86d-4ff9-ae57-47c53bb28d88","ios":"levelo://app?vid=c9830e27-e86d-4ff9-ae57-47c53bb28d88"},"vehicle_type_id":"4","last_reported":1747494518,"current_range_meters":15200,"station_id":"ce4bhbp2rcd13ifvqerg","pricing_plan_id":"cebpf4jnsgd1na2vs0mg"},{"bike_id":"0dee37dd-d5b3-4774-8e01-0c0ec7e71c5b","system_id":"levelo_inurba_marseille","lat":43.2573,"lon":5.41106,"is_reserved":false,"is_disabled":false,"rental_uris":{"android":"levelo://app?vid=0dee37dd-d5b3-4774-8e01-0c0ec7e71c5b","ios":"levelo://app?vid=0dee37dd-d5b3-4774-8e01-0c0ec7e71c5b"},"vehicle_type_id":"4","last_reported":1747494518,"current_range_meters":15200,"station_id":"ce4bhkp2rcd13ifvqgd0","pricing_plan_id":"cebpf4jnsgd1na2vs0mg"},{"bike_id":"a5fd722f-bc64-477b-aed1-1ef1371d72cf","system_id":"levelo_inurba_marseille","lat":43.337444,"lon":5.374475,"is_reserved":false,"is_disabled":false,"rental_uris":{"android":"levelo://app?vid=a5fd722f-bc64-477b-aed1-1ef1371d72cf","ios":"levelo://app?vid=a5fd722f-bc64-477b-aed1-1ef1371d72cf"},"vehicle_type_id":"4","last_reported":1747494518,"current_range_meters":16000,"station_id":"","pricing_plan_id":"cebpf4jnsgd1na2vs0mg"},{"bike_id":"3a62aed9-f7ab-4fb0-9684-6119df0fc783","system_id":"levelo_inurba_marseille","lat":43.29943,"lon":5.36535,"is_reserved":false,"is_disabled":false,"rental_uris":{"android":"levelo://app?vid=3a62aed9-f7ab-4fb0-9684-6119df0fc783","ios":"levelo://app?vid=3a62aed9-f7ab-4fb0-9684-6119df0fc783"},"vehicle_type_id":"4","last_reported":1747494518,"current_range_meters":16000,"station_id":"ce4bgm92rcd13ifvqbr0","pricing_plan_id":"cebpf4jnsgd1na2vs0mg"},{"bike_id":"c340d0bb-87ed-4402-92dd-780f689f993b","system_id":"levelo_inurba_marseille","lat":43.24394,"lon":5.37057,"is_reserved":false,"is_disabled":false,"rental_uris":{"android":"levelo://app?vid=c340d0bb-87ed-4402-92dd-780f689f993b","ios":"levelo://app?vid=c340d0bb-87ed-4402-92dd-780f689f993b"},"vehicle_type_id":"4","last_reported":1747494518,"current_range_meters":16000,"station_id":"ce4bhhh2rcd13ifvqfk0","pricing_plan_id":"cebpf4jnsgd1na2vs0mg"},{"bike_id":"8b927b9d-374d-463a-8aa8-f254faa895cd","system_id":"levelo_inurba_marseille","lat":43.29788,"lon":5.39342,"is_reserved":false,"is_disabled":false,"rental_uris":{"android":"levelo://app?vid=8b927b9d-374d-463a-8aa8-f254faa895cd","ios":"levelo://app?vid=8b927b9d-374d-463a-8aa8-f254faa895cd"},"vehicle_type_id":"4","last_reported":1747494518,"current_range_meters":16000,"station_id":"chh1huq6cuj3fo74tm60","pricing_plan_id":"cebpf4jnsgd1na2vs0mg"},{"bike_id":"c6ea5f8a-3ad6-414b-b2d8-bbca034829eb","system_id":"levelo_inurba_marseille","lat":43.21224,"lon":5.35088,"is_reserved":false,"is_disabled":false,"rental_uris":{"android":"levelo://app?vid=c6ea5f8a-3ad6-414b-b2d8-bbca034829eb","ios":"levelo://app?vid=c6ea5f8a-3ad6-414b-b2d8-bbca034829eb"},"vehicle_type_id":"4","last_reported":1747494518,"current_range_meters":16000,"station_id":"st_cvj6sg6p6f1abm77japg","pricing_plan_id":"cebpf4jnsgd1na2vs0mg"},{"bike_id":"37a58ba4-f952-4e8c-bf4f-38c5a8a4dd9e","system_id":"levelo_inurba_marseille","lat":43.21219,"lon":5.35008,"is_reserved":false,"is_disabled":false,"rental_uris":{"android":"levelo://app?vid=37a58ba4-f952-4e8c-bf4f-38c5a8a4dd9e","ios":"levelo://app?vid=37a58ba4-f952-4e8c-bf4f-38c5a8a4dd9e"},"vehicle_type_id":"4","last_reported":1747494518,"current_range_meters":16000,"station_id":"st_cvj6sg6p6f1abm77japg","pricing_plan_id":"cebpf4jnsgd1na2vs0mg"},{"bike_id":"0b626aa4-0978-4105-93cb-34721379269c","system_id":"levelo_inurba_marseille","lat":43.30649,"lon":5.40111,"is_reserved":false,"is_disabled":false,"rental_uris":{"android":"levelo://app?vid=0b626aa4-0978-4105-93cb-34721379269c","ios":"levelo://app?vid=0b626aa4-0978-4105-93cb-34721379269c"},"vehicle_type_id":"4","last_reported":1747494518,"current_range_meters":16400,"station_id":"ce4bh112rcd13ifvqda0","pricing_plan_id":"cebpf4jnsgd1na2vs0mg"},