{"last_updated":1729840159,"ttl":60,"version":"2.2","data":{"bikes":[{"bike_id":"ee630f45-254c-4df8-a632-f595495a6eb8","system_id":"levelo_inurba_marseille","lat":43.29038,"lon":5.39966,"is_reserved":false,"is_disabled":false,"rental_uris":{"android":"levelo://app?vid=ee630f45-254c-4df8-a632-f595495a6eb8","ios":"levelo://app?vid=ee630f45-254c-4df8-a632-f595495a6eb8"},"vehicle_type_id":"4","last_reported":1729840159,"current_range_meters":25600,"station_id":"ce4bh392rcd13ifvqdm0","pricing_plan_id":"cebpf4jnsgd1na2vs0mg"},{"bike_id":"4717f17e-7593-4146-84f4-3789e2958cfe","system_id":"levelo_inurba_marseille","lat":43.24071,"lon":5.37764,"is_reserved":false,"is_disabled":false,"rental_uris":{"android":"levelo://app?vid=4717f17e-7593-4146-84f4-3789e2958cfe","ios":"levelo://app?vid=4717f17e-7593-4146-84f4-3789e2958cfe"},"vehicle_type_id":"4","last_reported":1729840159,"current_range_meters":19200,"station_id":"ce4bhnp2rcd13ifvqgvg","pricing_plan_id":"cebpf4jnsgd1na2vs0mg"},{"bike_id":"1568e98d-3e80-4d3a-913a-84af01bba11e","system_id":"levelo_inurba_marseille","lat":43.28147,"lon":5.42639,"is_reserved":false,"is_disabled":false,"rental_uris":{"android":"levelo://app?vid=1568e98d-3e80-4d3a-913a-84af01bba11e","ios":"levelo://app?vid=1568e98d-3e80-4d3a-913a-84af01bba11e"},"vehicle_type_id":"4","last_reported":1729840159,"current_range_meters":36000,"station_id":"ce4bhnh2rcd13ifvqgug","pricing_plan_id":"cebpf4jnsgd1na2vs0mg"},{"bike_id":"95850f61-ca8a-4a2f-a825-120a07eb940b","system_id":"levelo_inurba_marseille","lat":43.298011,"lon":5.373975,"is_reserved":false,"is_disabled":false,"rental_uris":{"android":"levelo://app?vid=95850f61-ca8a-4a2f-a825-120a07eb940b","ios":"levelo://app?vid=95850f61-ca8a-4a2f-a825-120a07eb940b"},"vehicle_type_id":"4","last_reported":1729840159,"current_range_meters":38000,"station_id":"ce4bgv12rcd13ifvqcp0","pricing_plan_id":"cebpf4jnsgd1na2vs0mg"},{"bike_id":"805813a2-09cd-4e24-98c0-3924c013105c","system_id":"levelo_inurba_marseille","lat":43.30152,"lon":5.38779,"is_reserved":false,"is_disabled":false,"rental_uris":{"android":"levelo://app?vid=805813a2-09cd-4e24-98c0-3924c013105c","ios":"levelo://app?vid=805813a2-09cd-4e24-98c0-3924c013105c"},"vehicle_type_id":"4","last_reported":1729840159,"current_range_meters":36000,"station_id":"ce4bghh2rcd13ifvqb60","pricing_plan_id":"cebpf4jnsgd1na2vs0mg"},{"bike_id":"54a05d7c-2ce8-4c83-a195-455b245b2e07","system_id":"levelo_inurba_marseille","lat":43.28483,"lon":5.385666,"is_reserved":false,"is_disabled":false,"rental_uris":{"android":"levelo://app?vid=54a05d7c-2ce8-4c83-a195-455b245b2e07","ios":"levelo://app?vid=54a05d7c-2ce8-4c83-a195-455b245b2e07"},"vehicle_type_id":"4","last_reported":1729840159,"current_range_meters":33600,"station_id":"","pricing_plan_id":"cebpf4jnsgd1na2vs0mg"},{"bike_id":"0305f07b-3d86-40ef-b6b1-15fef9ab5479","system_id":"levelo_inurba_marseille","lat":43.23963,"lon":5.36629,"is_reserved":false,"is_disabled":false,"rental_uris":{"android":"levelo://app?vid=0305f07b-3d86-40ef-b6b1-15fef9ab5479","ios":"levelo://app?vid=0305f07b-3d86-40ef-b6b1-15fef9ab5479"},"vehicle_type_id":"4","last_reported":1729840159,"current_range_meters":36400,"station_id":"ce4bhi12rcd13ifvqfp0","pricing_plan_id":"cebpf4jnsgd1na2vs0mg"},{"bike_id":"5134f3b1-3ef2-40bd-bb7b-0664f2444bbd","system_id":"levelo_inurba_marseille","lat":43.32037,"lon":5.41534,"is_reserved":false,"is_disabled":false,"rental_uris":{"android":"levelo://app?vid=5134f3b1-3ef2-40bd-bb7b-0664f2444bbd","ios":"levelo://app?vid=5134f3b1-3ef2-40bd-bb7b-0664f2444bbd"},"vehicle_type_id":"4","last_reported":1729840159,"current_range_meters":36800,"station_id":"ce4bhq92rcd13ifvqhkg","pricing_plan_id":"cebpf4jnsgd1na2vs0mg"},{"bike_id":"408d48c7-1ac8-43cc-829a-0b00e4e3a502","system_id":"levelo_inurba_marseille","lat":43.30802,"lon":5.38159,"is_reserved":false,"is_disabled":false,"rental_uris":{"android":"levelo://app?vid=408d48c7-1ac8-43cc-829a-0b00e4e3a502","ios":"levelo://app?vid=408d48c7-1ac8-43cc-829a-0b00e4e3a502"},"vehicle_type_id":"4","last_reported":1729840159,"current_range_meters":38800,"station_id":"ce4bgt12rcd13ifvqce0","pricing_plan_id":"cebpf4jnsgd1na2vs0mg"},{"bike_id":"93995796-8921-40c3-a291-ba0a20143561","system_id":"levelo_inurba_marseille","lat":43.25106,"lon":5.40323,"is_reserved":false,"is_disabled":false,"rental_uris":{"android":"levelo://app?vid=93995796-8921-40c3-a291-ba0a20143561","ios":"levelo://app?vid=93995796-8921-40c3-a291-ba0a20143561"},"vehicle_type_id":"4","last_reported":1729840159,"current_range_meters":27600,"station_id":"ce4bhlh2rcd13ifvqgig","pricing_plan_id":"cebpf4jnsgd1na2vs0mg"},{"bike_id":"99dabb50-c2a8-4381-b7c0-7a2b49088b86","system_id":"levelo_inurba_marseille","lat":43.3205,"lon":5.41543,"is_reserved":false,"is_disabled":false,"rental_uris":{"android":"levelo://app?vid=99dabb50-c2a8-4381-b7c0-7a2b49088b86","ios":"levelo://app?vid=99dabb50-c2a8-4381-b7c0-7a2b49088b86"},"vehicle_type_id":"4","last_reported":1729840159,"current_range_meters":16000,"station_id":"ce4bhq92rcd13ifvqhkg","pricing_plan_id":"cebpf4jnsgd1na2vs0mg"},{"bike_id":"15a72434-6c63-4059-a6c9-0dd3a19b7eb4","system_id":"levelo_inurba_marseille","lat":43.24668,"lon":5.38161,"is_reserved":false,"is_disabled":false,"rental_uris":{"android":"levelo://app?vid=15a72434-6c63-4059-a6c9-0dd3a19b7eb4","ios":"levelo://app?vid=15a72434-6c63-4059-a6c9-0dd3a19b7eb4"},"vehicle_type_id":"4","last_reported":1729840159,"current_range_meters":16800,"station_id":"ce4bhih2rcd13ifvqfr0","pricing_plan_id":"cebpf4jnsgd1na2vs0mg"},{"bike_id":"f7cb4d3f-1921-4702-8703-5284a2844155","system_id":"levelo_inurba_marseille","lat":43.31351,"lon":5.36716,"is_reserved":false,"is_disabled":false,"rental_uris":{"android":"levelo://app?vid=f7cb4d3f-1921-4702-8703-5284a2844155","ios":"levelo://app?vid=f7cb4d3f-1921-4702-8703-5284a2844155"},"vehicle_type_id":"4","last_reported":1729840159,"current_range_meters":39200,"station_id":"ce4bgr92rcd13ifvqc6g","pricing_plan_id":"cebpf4jnsgd1na2vs0mg"},{"bike_id":"378a3403-d96c-4cc5-97b0-67102ea47686","system_id":"levelo_inurba_marseille","lat":43.31114,"lon":5.37759,"is_reserved":false,"is_disabled":false,"rental_uris":{"android":"levelo://app?vid=378a3403-d96c-4cc5-97b0-67102ea47686","ios":"levelo://app?vid=378a3403-d96c-4cc5-97b0-67102ea47686"},"vehicle_type_id":"4","last_reported":1729840159,"current_range_meters":30800,"station_id":"ce4bgt92rcd13ifvqcg0","pricing_plan_id":"cebpf4jnsgd1na2vs0mg"},{"bike_id":"6a20e18e-7ec5-4497-88cf-28f1cad21b82","system_id":"levelo_inurba_marseille","lat":43.26681,"lon":5.38269,"is_reserved":false,"is_disabled":false,"rental_uris":{"android":"levelo://app?vid=6a20e18e-7ec5-4497-88cf-28f1cad21b82","ios":"levelo://app?vid=6a20e18e-7ec5-4497-88cf-28f1cad21b82"},"vehicle_type_id":"4","last_reported":1729840159,"current_range_meters":10800,"station_id":"ce4bhg92rcd13ifvqf90","pricing_plan_id":"cebpf4jnsgd1na2vs0mg"},{"bike_id":"7a39ac62-f73e-405f-baad-436efacf2521","system_id":"levelo_inurba_marseille","lat":43.27071,"lon":5.42282,"is_reserved":false,"is_disabled":false,"rental_uris":{"android":"levelo://app?vid=7a39ac62-f73e-405f-baad-436efacf2521","ios":"levelo://app?vid=7a39ac62-f73e-405f-baad-436efacf2521"},"vehicle_type_id":"4","last_reported":1729840159,"current_range_meters":39200,"station_id":"ce4bhk92rcd13ifvqgb0","pricing_plan_id":"cebpf4jnsgd1na2vs0mg"},{"bike_id":"3d485760-1c3c-4c7e-a95a-57d189d25473","system_id":"levelo_inurba_marseille","lat":43.30152,"lon":5.38083,"is_reserved":false,"is_disabled":false,"rental_uris":{"android":"levelo://app?vid=3d485760-1c3c-4c7e-a95a-57d189d25473","ios":"levelo://app?vid=3d485760-1c3c-4c7e-a95a-57d189d25473"},"vehicle_type_id":"4","last_reported":1729840159,"current_range_meters":38800,"station_id":"ce4bgjp2rcd13ifvqbh0","pricing_plan_id":"cebpf4jnsgd1na2vs0mg"},{"bike_id":"e130cf78-8420-42ef-935c-589ad91611cf","system_id":"levelo_inurba_marseille","lat":43.32658,"lon":5.41001,"is_reserved":false,"is_disabled":false,"rental_uris":{"android":"levelo://app?vid=e130cf78-8420-42ef-935c-589ad91611cf","ios":"levelo://app?vid=e130cf78-8420-42ef-935c-589ad91611cf"},"vehicle_type_id":"4","last_reported":1729840159,"current_range_meters":37600,"station_id":"ce4bhpp2rcd13ifvqhgg","pricing_plan_id":"cebpf4jnsgd1na2vs0mg"},{"bike_id":"83b93c0d-fd1e-413e-9772-9048be31d163","system_id":"levelo_inurba_marseille","lat":43.31708,"lon":5.37756,"is_reserved":false,"is_disabled":false,"rental_uris":{"android":"levelo://app?vid=83b93c0d-fd1e-413e-9772-9048be31d163","ios":"levelo://app?vid=83b93c0d-fd1e-413e-9772-9048be31d163"},"vehicle_type_id":"4","last_reported":1729840159,"current_range_meters":38800,"station_id":"ce4bgth2rcd13ifvqch0","pricing_plan_id":"cebpf4jnsgd1na2vs0mg"},{"bike_id":"dda8d9a0-b609-4e95-95d8-4c8bccb89b10","system_id":"levelo_inurba_marseille","lat":43.24541,"lon":5.39517,"is_reserved":false,"is_disabled":false,"rental_uris":{"android":"levelo://app?vid=dda8d9a0-b609-4e95-95d8-4c8bccb89b10","ios":"levelo://app?vid=dda8d9a0-b609-4e95-95d8-4c8bccb89b10"},"vehicle_type_id":"4","last_reported":1729840159,"current_range_meters":6800,"station_id":"ce4bhlp2rcd13ifvqgjg","pricing_plan_id":"cebpf4jnsgd1na2vs0mg"},{"bike_id":"784dd773-f509-4455-843a-8e8b8177e5e1","system_id":"levelo_inurba_marseille","lat":43.31702,"lon":5.37763,"is_reserved":false,"is_disabled":false,"rental_uris":{"android":"levelo://app?vid=784dd773-f509-4455-843a-8e8b8177e5e1","ios":"levelo://app?vid=784dd773-f509-4455-843a-8e8b8177e5e1"},"vehicle_type_id":"4","last_reported":1729840159,"current_range_meters":38800,"station_id":"ce4bgth2rcd13ifvqch0","pricing_plan_id":"cebpf4jnsgd1na2vs0mg"},{"bike_id":"1c28a888-540a-4972-b350-21cf30afbf5e","system_id":"levelo_inurba_marseille","lat":43.28271,"lon":5.35064,"is_reserved":false,"is_disabled":false,"rental_uris":{"android":"levelo://app?vid=1c28a888-540a-4972-b350-21cf30afbf5e","ios":"levelo://app?vid=1c28a888-540a-4972-b350-21cf30afbf5e"},"vehicle_type_id":"4","last_reported":1729840159,"current_range_meters":16400,"station_id":"ce4bhbp2rcd13ifvqerg","pricing_plan_id":"cebpf4jnsgd1na2vs0mg"},{"bike_id":"d1c0eed1-4a61-4c28-96e4-56e5537b3c1c","system_id":"levelo_inurba_marseille","lat":43.26944,"lon":5.38648,"is_reserved":false,"is_disabled":false,"rental_uris":{"android":"levelo://app?vid=d1c0eed1-4a61-4c28-96e4-56e5537b3c1c","ios":"levelo://app?vid=d1c0eed1-4a61-4c28-96e4-56e5537b3c1c"},"vehicle_type_id":"4","last_reported":1729840159,"current_range_meters":35200,"station_id":"ce4bhh92rcd13ifvqfh0","pricing_plan_id":"cebpf4jnsgd1na2vs0mg"},{"bike_id":"2932f9e1-c337-42c1-8420-e18fffa72500","system_id":"levelo_inurba_marseille","lat":43.34709,"lon":5.37153,"is_reserved":false,"is_disabled":false,"rental_uris":{"android":"levelo://app?vid=2932f9e1-c337-42c1-8420-e18fffa72500","ios":"levelo://app?vid=2932f9e1-c337-42c1-8420-e18fffa72500"},"vehicle_type_id":"4","last_reported":1729840159,"current_range_meters":18800,"station_id":"","pricing_plan_id":"cebpf4jnsgd1na2vs0mg"},{"bike_id":"b5280a4e-5993-4f8e-83ef-b79f0bc022bd","system_id":"levelo_inurba_marseille","lat":43.24646,"lon":5.38894,"is_reserved":false,"is_disabled":false,"rental_uris":{"android":"levelo://app?vid=b5280a4e-5993-4f8e-83ef-b79f0bc022bd","ios":"levelo://app?vid=b5280a4e-5993-4f8e-83ef-b79f0bc022bd"},"vehicle_type_id":"4","last_reported":1729840159,"current_range_meters":9200,"station_id":"ce4bhg12rcd13ifvqf60","pricing_plan_id":"cebpf4jnsgd1na2vs0mg"},{"bike_id":"c2801143-7c8a-4c78-918c-616d5ed87cfa","system_id":"levelo_inurba_marseille","lat":43.24173,"lon":5.39734,"is_reserved":false,"is_disabled":false,"rental_uris":{"android":"levelo://app?vid=c2801143-7c8a-4c78-918c-616d5ed87cfa","ios":"levelo://app?vid=c2801143-7c8a-4c78-918c-616d5ed87cfa"},"vehicle_type_id":"4","last_reported":1729840159,"current_range_meters":30000,"station_id":"ce4bhn12rcd13ifvqgpg","pricing_plan_id":"cebpf4jnsgd1na2vs0mg"},{"bike_id":"7baa1284-7d53-4b57-8d12-01f6e68bcd73","system_id":"levelo_inurba_marseille","lat":43.30467,"lon":5.37903,"is_reserved":false,"is_disabled":false,"rental_uris":{"android":"levelo://app?vid=7baa1284-7d53-4b57-8d12-01f6e68bcd73","ios":"levelo://app?vid=7baa1284-7d53-4b57-8d12-01f6e68bcd73"},"vehicle_type_id":"4","last_reported":1729840159,"current_range_meters":28800,"station_id":"ce4bgup2rcd13ifvqcn0","pricing_plan_id":"cebpf4jnsgd1na2vs0mg"},{"bike_id":"7969dd37-faf1-43ba-9922-f50db8b11586","system_id":"levelo_inurba_marseille","lat":43.32477,"lon":5.36572,"is_reserved":false,"is_disabled":false,"rental_uris":{"android":"levelo://app?vid=7969dd37-faf1-43ba-9922-f50db8b11586","ios":"levelo://app?vid=7969dd37-faf1-43ba-9922-f50db8b11586"},"vehicle_type_id":"4","last_reported":1729840159,"current_range_meters":22400,"station_id":"ce4bhs12rcd13ifvqhvg","pricing_plan_id":"cebpf4jnsgd1na2vs0mg"},{"bike_id":"46e85f9c-1bad-4940-8580-20c0eeba5600","system_id":"levelo_inurba_marseille","lat":43.32339,"lon":5.40627,"is_reserved":false,"is_disabled":false,"rental_uris":{"android":"levelo://app?vid=46e85f9c-1bad-4940-8580-20c0eeba5600","ios":"levelo://app?vid=46e85f9c-1bad-4940-8580-20c0eeba5600"},"vehicle_type_id":"4","last_reported":1729840159,"current_range_meters":37600,"station_id":"ce4bhq92rcd13ifvqhjg","pricing_plan_id":"cebpf4jnsgd1na2vs0mg"},{"bike_id":"ce3eef46-b9e3-41dc-9130-106cb5f09144","system_id":"levelo_inurba_marseille","lat":43.24651,"lon":5.38897,"is_reserved":false,"is_disabled":false,"rental_uris":{"android":"levelo://app?vid=ce3eef46-b9e3-41dc-9130-106cb5f09144","ios":"levelo://app?vid=ce3eef46-b9e3-41dc-9130-106cb5f09144"},"vehicle_type_id":"4","last_reported":1729840159,"current_range_meters":38800,"station_id":"ce4bhg12rcd13ifvqf60","pricing_plan_id":"cebpf4jnsgd1na2vs0mg"},{"bike_id":"d8c777a5-ff2f-4acd-9afb-ab01807654a6","system_id":"levelo_inurba_marseille","lat":43.3089,"lon":5.37197,"is_reserved":false,"is_disabled":false,"rental_uris":{"android":"levelo://app?vid=d8c777a5-ff2f-4acd-9afb-ab01807654a6","ios":"levelo://app?vid=d8c777a5-ff2f-4acd-9afb-ab01807654a6"},"vehicle_type_id":"4","last_reported":1729840159,"current_range_meters":38800,"station_id":"ce4bguh2rcd13ifvqckg","pricing_plan_id":"cebpf4jnsgd1na2vs0mg"},{"bike_id":"2e085d22-4829-472b-ba02-2740240b7f91","system_id":"levelo_inurba_marseille","lat":43.30792,"lon":5.38173,"is_reserved":false,"is_disabled":false,"rental_uris":{"android":"levelo://app?vid=2e085d22-4829-472b-ba02-2740240b7f91","ios":"levelo://app?vid=2e085d22-4829-472b-ba02-2740240b7f91"},"vehicle_type_id":"4","last_reported":1729840159,"current_range_meters":38800,"station_id":"ce4bgt12rcd13ifvqce0","pricing_plan_id":"cebpf4jnsgd1na2vs0mg"},{"bike_id":"97ce6431-cdfe-4c86-8575-534875aed7f5","system_id":"levelo_inurba_marseille","lat":43.3053,"lon":5.36659,"is_reserved":false,"is_disabled":false,"rental_uris":{"android":"levelo://app?vid=97ce6431-cdfe-4c86-8575-534875aed7f5","ios":"levelo://app?vid=97ce6431-cdfe-4c86-8575-534875aed7f5"},"vehicle_type_id":"4","last_reported":1729840159,"current_range_meters":3600,"station_id":"","pricing_plan_id":"cebpf4jnsgd1na2vs0mg"},{"bike_id":"c7ca79bd-57bf-4d11-a455-60ada5107875","system_id":"levelo_inurba_marseille","lat":43.25938,"lon":5.4095,"is_reserved":false,"is_disabled":false,"rental_uris":{"android":"levelo://app?vid=c7ca79bd-57bf-4d11-a455-60ada5107875","ios":"levelo://app?vid=c7ca79bd-57bf-4d11-a455-60ada5107875"},"vehicle_type_id":"4","last_reported":1729840159,"current_range_meters":28800,"station_id":"ce4bhm92rcd13ifvqglg","pricing_plan_id":"cebpf4jnsgd1na2vs0mg"},{"bike_id":"ddf1220d-b7b8-47ef-b02e-eb813f8e3275","system_id":"levelo_inurba_marseille","lat":43.30347,"lon":5.4188,"is_reserved":false,"is_disabled":false,"rental_uris":{"android":"levelo://app?vid=ddf1220d-b7b8-47ef-b02e-eb813f8e3275","ios":"levelo://app?vid=ddf1220d-b7b8-47ef-b02e-eb813f8e3275"},"vehicle_type_id":"4","last_reported":1729840159,"current_range_meters":39200,"station_id":"ce4bhop2rcd13ifvqh7g","pricing_plan_id":"cebpf4jnsgd1na2vs0mg"},{"bike_id":"ae543776-75ee-42a8-a677-3e246bf772ec","system_id":"levelo_inurba_marseille","lat":43.31714,"lon":5.43719,"is_reserved":false,"is_disabled":false,"rental_uris":{"android":"levelo://app?vid=ae543776-75ee-42a8-a677-3e246bf772ec","ios":"levelo://app?vid=ae543776-75ee-42a8-a677-3e246bf772ec"},"vehicle_type_id":"4","last_reported":1729840159,"current_range_meters":4000,"station_id":"ce4bhp92rcd13ifvqhcg","pricing_plan_id":"cebpf4jnsgd1na2vs0mg"},{"bike_id":"7402b623-c097-44ef-9305-adaad9aacce3","system_id":"levelo_inurba_marseille","lat":43.27813,"lon":5.40706,"is_reserved":false,"is_disabled":false,"rental_uris":{"android":"levelo://app?vid=7402b623-c097-44ef-9305-adaad9aacce3","ios":"levelo://app?vid=7402b623-c097-44ef-9305-adaad9aacce3"},"vehicle_type_id":"4","last_reported":1729840159,"current_range_meters":28800,"station_id":"ce4bhnh2rcd13ifvqgtg","pricing_plan_id":"cebpf4jnsgd1na2vs0mg"},{"bike_id":"334e9050-29c3-43a0-b2bb-4fc7f06bf291","system_id":"levelo_inurba_marseille","lat":43.24647,"lon":5.38897,"is_reserved":false,"is_disabled":false,"rental_uris":{"android":"levelo://app?vid=334e9050-29c3-43a0-b2bb-4fc7f06bf291","ios":"levelo://app?vid=334e9050-29c3-43a0-b2bb-4fc7f06bf291"},"vehicle_type_id":"4","last_reported":1729840159,"current_range_meters":38800,"station_id":"ce4bhg12rcd13ifvqf60","pricing_plan_id":"cebpf4jnsgd1na2vs0mg"},{"bike_id":"ecffdb26-7bb5-47a8-bbf2-a6ea6fbc034d","system_id":"levelo_inurba_marseille","lat":43.33608,"lon":5.41038,"is_reserved":false,"is_disabled":false,"rental_uris":{"android":"levelo://app?vid=ecffdb26-7bb5-47a8-bbf2-a6ea6fbc034d","ios":"levelo://app?vid=ecffdb26-7bb5-47a8-bbf2-a6ea6fbc034d"},"vehicle_type_id":"4","last_reported":1729840159,"current_range_meters":16000,"station_id":"ce4bhqh2rcd13ifvqhmg","pricing_plan_id":"cebpf4jnsgd1na2vs0mg"},{"bike_id":"a604229a-bdef-4906-85ec-29d4c8a6afa1","system_id":"levelo_inurba_marseille","lat":43.30792,"lon":5.37652,"is_reserved":false,"is_disabled":false,"rental_uris":{"android":"levelo://app?vid=a604229a-bdef-4906-85ec-29d4c8a6afa1","ios":"levelo://app?vid=a604229a-bdef-4906-85ec-29d4c8a6afa1"},"vehicle_type_id":"4","last_reported":1729840159,"current_range_meters":2800,"station_id":"ce4bgv92rcd13ifvqcq0","pricing_plan_id":"cebpf4jnsgd1na2vs0mg"},{"bike_id":"70e1a8a7-658b-4362-8767-c157d871f93b","system_id":"levelo_inurba_marseille","lat":43.22925,"lon":5.35373,"is_reserved":false,"is_disabled":false,"rental_uris":{"android":"levelo://app?vid=70e1a8a7-658b-4362-8767-c157d871f93b","ios":"levelo://app?vid=70e1a8a7-658b-4362-8767-c157d871f93b"},"vehicle_type_id":"4","last_reported":1729840159,"current_range_meters":35200,"station_id":"cpo3532slgdg3j2ikp40","pricing_plan_id":"cebpf4jnsgd1na2vs0mg"},{"bike_id":"c47ee947-2909-41a5-bbe0-603cbb5c8694","system_id":"levelo_inurba_marseille","lat":43.27952,"lon":5.41056,"is_reserved":false,"is_disabled":false,"rental_uris":{"android":"levelo://app?vid=c47ee947-2909-41a5-bbe0-603cbb5c8694","ios":"levelo://app?vid=c47ee947-2909-41a5-bbe0-603cbb5c8694"},"vehicle_type_id":"4","last_reported":1729840159,"current_range_meters":12400,"station_id":"ce4bhnp2rcd13ifvqh0g","pricing_plan_id":"cebpf4jnsgd1na2vs0mg"},{"bike_id":"8486fe9d-9ef0-4e60-ba73-6eb6a17c52a8","system_id":"levelo_inurba_marseille","lat":43.31563,"lon":5.40558,"is_reserved":false,"is_disabled":false,"rental_uris":{"android":"levelo://app?vid=8486fe9d-9ef0-4e60-ba73-6eb6a17c52a8","ios":"levelo://app?vid=8486fe9d-9ef0-4e60-ba73-6eb6a17c52a8"},"vehicle_type_id":"4","last_reported":1729840159,"current_range_meters":10000,"station_id":"","pricing_plan_id":"cebpf4jnsgd1na2vs0mg"},{"bike_id":"172208e9-70cd-4b52-b8b5-db9312e32f6a","system_id":"levelo_inurba_marseille","lat":43.2454,"lon":5.39529,"is_reserved":false,"is_disabled":false,"rental_uris":{"android":"levelo://app?vid=172208e9-70cd-4b52-b8b5-db9312e32f6a","ios":"levelo://app?vid=172208e9-70cd-4b52-b8b5-db9312e32f6a"},"vehicle_type_id":"4","last_reported":1729840159,"current_range_meters":26800,"station_id":"ce4bhlp2rcd13ifvqgjg","pricing_plan_id":"cebpf4jnsgd1na2vs0mg"},{"bike_id":"dda4a36c-79b5-42cc-bd67-2abe044c6bd4","system_id":"levelo_inurba_marseille","lat":43.286088,"lon":5.351392,"is_reserved":false,"is_disabled":false,"rental_uris":{"android":"levelo://app?vid=dda4a36c-79b5-42cc-bd67-2abe044c6bd4","ios":"levelo://app?vid=dda4a36c-79b5-42cc-bd67-2abe044c6bd4"},"vehicle_type_id":"4","last_reported":1729840159,"current_range_meters":35600,"station_id":"ce4bhch2rcd13ifvqeug","pricing_plan_id":"cebpf4jnsgd1na2vs0mg"},{"bike_id":"87245b32-ed6d-4b79-9975-c6a42af40b1e","system_id":"levelo_inurba_marseille","lat":43.23151,"lon":5.43722,"is_reserved":false,"is_disabled":false,"rental_uris":{"android":"levelo://app?vid=87245b32-ed6d-4b79-9975-c6a42af40b1e","ios":"levelo://app?vid=87245b32-ed6d-4b79-9975-c6a42af40b1e"},"vehicle_type_id":"4","last_reported":1729840159,"current_range_meters":14000,"station_id":"ce4bhmp2rcd13ifvqgog","pricing_plan_id":"cebpf4jnsgd1na2vs0mg"},{"bike_id":"222f03e8-7565-49de-b148-fe24b12bb6fe","system_id":"levelo_inurba_marseille","lat":43.27308,"lon":5.39092,"is_reserved":false,"is_disabled":false,"rental_uris":{"android":"levelo://app?vid=222f03e8-7565-49de-b148-fe24b12bb6fe","ios":"levelo://app?vid=222f03e8-7565-49de-b148-fe24b12bb6fe"},"vehicle_type_id":"4","last_reported":1729840159,"current_range_meters":26800,"station_id":"ce4bhgp2rcd13ifvqfe0","pricing_plan_id":"cebpf4jnsgd1na2vs0mg"},{"bike_id":"ee968113-210f-419a-bf40-264c1b0a06f8","system_id":"levelo_inurba_marseille","lat":43.25934,"lon":5.40908,"is_reserved":false,"is_disabled":false,"rental_uris":{"android":"levelo://app?vid=ee968113-210f-419a-bf40-264c1b0a06f8","ios":"levelo://app?vid=ee968113-210f-419a-bf40-264c1b0a06f8"},"vehicle_type_id":"4","last_reported":1729840159,"current_range_meters":33600,"station_id":"ce4bhm92rcd13ifvqglg","pricing_plan_id":"cebpf4jnsgd1na2vs0mg"},{"bike_id":"19ce95ff-4cb9-489d-88e8-f0dd6c1bac5d","system_id":"levelo_inurba_marseille","lat":43.24179,"lon":5.39737,"is_reserved":false,"is_disabled":false,"rental_uris":{"android":"levelo://app?vid=19ce95ff-4cb9-489d-88e8-f0dd6c1bac5d","ios":"levelo://app?vid=19ce95ff-4cb9-489d-88e8-f0dd6c1bac5d"},"vehicle_type_id":"4","last_reported":1729840159,"current_range_meters":13600,"station_id":"ce4bhn12rcd13ifvqgpg","pricing_plan_id":"cebpf4jnsgd1na2vs0mg"},{"bike_id":"3a14cdda-4196-4709-8ef2-4609021cc4ff","system_id":"levelo_inurba_marseille","lat":43.29619,"lon":5.37156,"is_reserved":false,"is_disabled":false,"rental_uris":{"android":"levelo://app?vid=3a14cdda-4196-4709-8ef2-4609021cc4ff","ios":"levelo://app?vid=3a14cdda-4196-4709-8ef2-4609021cc4ff"},"vehicle_type_id":"4","last_reported":1729840159,"current_range_meters":37600,"station_id":"ce4bgnh2rcd13ifvqc0g","pricing_plan_id":"cebpf4jnsgd1na2vs0mg"},{"bike_id":"f03897ec-8a4e-41b6-ab60-fbda27292839","system_id":"levelo_inurba_marseille","lat":43.26682,"lon":5.38271,"is_reserved":false,"is_disabled":false,"rental_uris":{"android":"levelo://app?vid=f03897ec-8a4e-41b6-ab60-fbda27292839","ios":"levelo://app?vid=f03897ec-8a4e-41b6-ab60-fbda27292839"},"vehicle_type_id":"4","last_reported":1729840159,"current_range_meters":10800,"station_id":"ce4bhg92rcd13ifvqf90","pricing_plan_id":"cebpf4jnsgd1na2vs0mg"},{"bike_id":"1fe7a754-88e8-464c-a31c-86bf41ad4349","system_id":"levelo_inurba_marseille","lat":43.30283,"lon":5.37721,"is_reserved":false,"is_disabled":false,"rental_uris":{"android":"levelo://app?vid=1fe7a754-88e8-464c-a31c-86bf41ad4349","ios":"levelo://app?vid=1fe7a754-88e8-464c-a31c-86bf41ad4349"},"vehicle_type_id":"4","last_reported":1729840159,"current_range_meters":22800,"station_id":"ce4bguh2rcd13ifvqcj0","pricing_plan_id":"cebpf4jnsgd1na2vs0mg"},{"bike_id":"8a81d8aa-b8e8-4d59-8aec-731c562b08c0","system_id":"levelo_inurba_marseille","lat":43.24548,"lon":5.39523,"is_reserved":false,"is_disabled":false,"rental_uris":{"android":"levelo://app?vid=8a81d8aa-b8e8-4d59-8aec-731c562b08c0","ios":"levelo://app?vid=8a81d8aa-b8e8-4d59-8aec-731c562b08c0"},"vehicle_type_id":"4","last_reported":1729840159,"current_range_meters":38800,"station_id":"ce4bhlp2rcd13ifvqgjg","pricing_plan_id":"cebpf4jnsgd1na2vs0mg"},{"bike_id":"67449323-dba1-4f5f-94ad-8d67c84bea65","system_id":"levelo_inurba_marseille","lat":43.26938,"lon":5.40263,"is_reserved":false,"is_disabled":false,"rental_uris":{"android":"levelo://app?vid=67449323-dba1-4f5f-94ad-8d67c84bea65","ios":"levelo://app?vid=67449323-dba1-4f5f-94ad-8d67c84bea65"},"vehicle_type_id":"4","last_reported":1729840159,"current_range_meters":37600,"station_id":"cjm6bp8fraef2m0cb0m0","pricing_plan_id":"cebpf4jnsgd1na2vs0mg"},{"bike_id":"75ee64f1-76d9-4853-8e44-c4621da65cda","system_id":"levelo_inurba_marseille","lat":43.28618,"lon":5.35096,"is_reserved":false,"is_disabled":false,"rental_uris":{"android":"levelo://app?vid=75ee64f1-76d9-4853-8e44-c4621da65cda","ios":"levelo://app?vid=75ee64f1-76d9-4853-8e44-c4621da65cda"},"vehicle_type_id":"4","last_reported":1729840159,"current_range_meters":14400,"station_id":"ce4bhch2rcd13ifvqeug","pricing_plan_id":"cebpf4jnsgd1na2vs0mg"},{"bike_id":"3b01a3bd-a91f-4023-be02-641d14137bd6","system_id":"levelo_inurba_marseille","lat":43.309077,"lon":5.368405,"is_reserved":false,"is_disabled":false,"rental_uris":{"android":"levelo://app?vid=3b01a3bd-a91f-4023-be02-641d14137bd6","ios":"levelo://app?vid=3b01a3bd-a91f-4023-be02-641d14137bd6"},"vehicle_type_id":"4","last_reported":1729840159,"current_range_meters":28000,"station_id":"ce4bgn92rcd13ifvqbvg","pricing_plan_id":"cebpf4jnsgd1na2vs0mg"},{"bike_id":"716b360f-9353-40b4-ad62-c3b53b661c12","system_id":"levelo_inurba_marseille","lat":43.30541,"lon":5.36715,"is_reserved":false,"is_disabled":false,"rental_uris":{"android":"levelo://app?vid=716b360f-9353-40b4-ad62-c3b53b661c12","ios":"levelo://app?vid=716b360f-9353-40b4-ad62-c3b53b661c12"},"vehicle_type_id":"4","last_reported":1729840159,"current_range_meters":39200,"station_id":"ce4bgrp2rcd13ifvqc9g","pricing_plan_id":"cebpf4jnsgd1na2vs0mg"},{"bike_id":"9810654e-8750-4feb-8842-76976d6faaed","system_id":"levelo_inurba_marseille","lat":43.28941,"lon":5.39623,"is_reserved":false,"is_disabled":false,"rental_uris":{"android":"levelo://app?vid=9810654e-8750-4feb-8842-76976d6faaed","ios":"levelo://app?vid=9810654e-8750-4feb-8842-76976d6faaed"},"vehicle_type_id":"4","last_reported":1729840159,"current_range_meters":38800,"station_id":"ce4bh3h2rcd13ifvqdn0","pricing_plan_id":"cebpf4jnsgd1na2vs0mg"},{"bike_id":"baac1178-6264-4714-be4f-30295c956493","system_id":"levelo_inurba_marseille","lat":43.30945,"lon":5.3903,"is_reserved":false,"is_disabled":false,"rental_uris":{"android":"levelo://app?vid=baac1178-6264-4714-be4f-30295c956493","ios":"levelo://app?vid=baac1178-6264-4714-be4f-30295c956493"},"vehicle_type_id":"4","last_reported":1729840159,"current_range_meters":28800,"station_id":"ce4bgup2rcd13ifvqco0","pricing_plan_id":"cebpf4jnsgd1na2vs0mg"},{"bike_id":"933557ef-e951-4c8f-adab-063805190575","system_id":"levelo_inurba_marseille","lat":43.27492,"lon":5.42457,"is_reserved":false,"is_disabled":false,"rental_uris":{"android":"levelo://app?vid=933557ef-e951-4c8f-adab-063805190575","ios":"levelo://app?vid=933557ef-e951-4c8f-adab-063805190575"},"vehicle_type_id":"4","last_reported":1729840159,"current_range_meters":22800,"station_id":"ce4bhn92rcd13ifvqgrg","pricing_plan_id":"cebpf4jnsgd1na2vs0mg"},{"bike_id":"d3bbf7db-dbd7-4c37-82f1-086f96c4acff","system_id":"levelo_inurba_marseille","lat":43.30908,"lon":5.36853,"is_reserved":false,"is_disabled":false,"rental_uris":{"android":"levelo://app?vid=d3bbf7db-dbd7-4c37-82f1-086f96c4acff","ios":"levelo://app?vid=d3bbf7db-dbd7-4c37-82f1-086f96c4acff"},"vehicle_type_id":"4","last_reported":1729840159,"current_range_meters":32400,"station_id":"ce4bgn92rcd13ifvqbvg","pricing_plan_id":"cebpf4jnsgd1na2vs0mg"},{"bike_id":"9435038c-1b3b-43d9-87f4-8e07cec3ad6e","system_id":"levelo_inurba_marseille","lat":43.25492,"lon":5.37653,"is_reserved":false,"is_disabled":false,"rental_uris":{"android":"levelo://app?vid=9435038c-1b3b-43d9-87f4-8e07cec3ad6e","ios":"levelo://app?vid=9435038c-1b3b-43d9-87f4-8e07cec3ad6e"},"vehicle_type_id":"4","last_reported":1729840159,"current_range_meters":38800,"station_id":"ce4bhh12rcd13ifvqff0","pricing_plan_id":"cebpf4jnsgd1na2vs0mg"},{"bike_id":"9397c719-2e27-4730-b164-1b06914bd98c","system_id":"levelo_inurba_marseille","lat":43.28343,"lon":5.38109,"is_reserved":false,"is_disabled":false,"rental_uris":{"android":"levelo://app?vid=9397c719-2e27-4730-b164-1b06914bd98c","ios":"levelo://app?vid=9397c719-2e27-4730-b164-1b06914bd98c"},"vehicle_type_id":"4","last_reported":1729840159,"current_range_meters":28800,"station_id":"ce4bh412rcd13ifvqdr0","pricing_plan_id":"cebpf4jnsgd1na2vs0mg"},{"bike_id":"00b42957-ba39-4786-b155-d1d8e8166b66","system_id":"levelo_inurba_marseille","lat":43.3054,"lon":5.36559,"is_reserved":false,"is_disabled":false,"rental_uris":{"android":"levelo://app?vid=00b42957-ba39-4786-b155-d1d8e8166b66","ios":"levelo://app?vid=00b42957-ba39-4786-b155-d1d8e8166b66"},"vehicle_type_id":"4","last_reported":1729840159,"current_range_meters":38800,"station_id":"ce4bgs12rcd13ifvqcag","pricing_plan_id":"cebpf4jnsgd1na2vs0mg"},{"bike_id":"be8fbca4-3dcd-4e0e-96d2-8c570f59713c","system_id":"levelo_inurba_marseille","lat":43.32485,"lon":5.36559,"is_reserved":false,"is_disabled":false,"rental_uris":{"android":"levelo://app?vid=be8fbca4-3dcd-4e0e-96d2-8c570f59713c","ios":"levelo://app?vid=be8fbca4-3dcd-4e0e-96d2-8c570f59713c"},"vehicle_type_id":"4","last_reported":1729840159,"current_range_meters":20000,"station_id":"ce4bhs12rcd13ifvqhvg","pricing_plan_id":"cebpf4jnsgd1na2vs0mg"},{"bike_id":"2c83906e-34b2-4de1-a842-6d257980343c","system_id":"levelo_inurba_marseille","lat":43.3235,"lon":5.3889,"is_reserved":false,"is_disabled":false,"rental_uris":{"android":"levelo://app?vid=2c83906e-34b2-4de1-a842-6d257980343c","ios":"levelo://app?vid=2c83906e-34b2-4de1-a842-6d257980343c"},"vehicle_type_id":"4","last_reported":1729840159,"current_range_meters":14400,"station_id":"ce4bhqp2rcd13ifvqhog","pricing_plan_id":"cebpf4jnsgd1na2vs0mg"},{"bike_id":"c7b10a77-5cac-4d99-aa14-292f2815db96","system_id":"levelo_inurba_marseille","lat":43.29979,"lon":5.38488,"is_reserved":false,"is_disabled":false,"rental_uris":{"android":"levelo://app?vid=c7b10a77-5cac-4d99-aa14-292f2815db96","ios":"levelo://app?vid=c7b10a77-5cac-4d99-aa14-292f2815db96"},"vehicle_type_id":"4","last_reported":1729840159,"current_range_meters":37600,"station_id":"ce4bgj92rcd13ifvqbd0","pricing_plan_id":"cebpf4jnsgd1na2vs0mg"},{"bike_id":"f9f2799c-fb26-413f-bb6d-c81d1dd39671","system_id":"levelo_inurba_marseille","lat":43.29032,"lon":5.39953,"is_reserved":false,"is_disabled":false,"rental_uris":{"android":"levelo://app?vid=f9f2799c-fb26-413f-bb6d-c81d1dd39671","ios":"levelo://app?vid=f9f2799c-fb26-413f-bb6d-c81d1dd39671"},"vehicle_type_id":"4","last_reported":1729840159,"current_range_meters":14400,"station_id":"ce4bh392rcd13ifvqdm0","pricing_plan_id":"cebpf4jnsgd1na2vs0mg"},{"bike_id":"70f3a0b9-1345-46ce-96cf-f0fa2053df80","system_id":"levelo_inurba_marseille","lat":43.29043,"lon":5.39956,"is_reserved":false,"is_disabled":false,"rental_uris":{"android":"levelo://app?vid=70f3a0b9-1345-46ce-96cf-f0fa2053df80","ios":"levelo://app?vid=70f3a0b9-1345-46ce-96cf-f0fa2053df80"},"vehicle_type_id":"4","last_reported":1729840159,"current_range_meters":24800,"station_id":"ce4bh392rcd13ifvqdm0","pricing_plan_id":"cebpf4jnsgd1na2vs0mg"},{"bike_id":"ceebbef3-8b18-4381-b7d1-458d740b5b2d","system_id":"levelo_inurba_marseille","lat":43.31685,"lon":5.4047,"is_reserved":false,"is_disabled":false,"rental_uris":{"android":"levelo://app?vid=ceebbef3-8b18-4381-b7d1-458d740b5b2d","ios":"levelo://app?vid=ceebbef3-8b18-4381-b7d1-458d740b5b2d"},"vehicle_type_id":"4","last_reported":1729840159,"current_range_meters":33200,"station_id":"ce4bh012rcd13ifvqd00","pricing_plan_id":"cebpf4jnsgd1na2vs0mg"},{"bike_id":"82d8898e-e94c-47af-b02a-d946261e7001","system_id":"levelo_inurba_marseille","lat":43.31707,"lon":5.37765,"is_reserved":false,"is_disabled":false,"rental_uris":{"android":"levelo://app?vid=82d8898e-e94c-47af-b02a-d946261e7001","ios":"levelo://app?vid=82d8898e-e94c-47af-b02a-d946261e7001"},"vehicle_type_id":"4","last_reported":1729840159,"current_range_meters":40000,"station_id":"ce4bgth2rcd13ifvqch0","pricing_plan_id":"cebpf4jnsgd1na2vs0mg"},{"bike_id":"6a0c16b5-7334-4e59-b9fc-561c0f29c19b","system_id":"levelo_inurba_marseille","lat":43.30465,"lon":5.3791,"is_reserved":false,"is_disabled":false,"rental_uris":{"android":"levelo://app?vid=6a0c16b5-7334-4e59-b9fc-561c0f29c19b","ios":"levelo://app?vid=6a0c16b5-7334-4e59-b9fc-561c0f29c19b"},"vehicle_type_id":"4","last_reported":1729840159,"current_range_meters":12800,"station_id":"ce4bgup2rcd13ifvqcn0","pricing_plan_id":"cebpf4jnsgd1na2vs0mg"},{"bike_id":"4ad22b9e-ed83-40b4-9252-5f067305ff1a","system_id":"levelo_inurba_marseille","lat":43.337444,"lon":5.374475,"is_reserved":false,"is_disabled":false,"rental_uris":{"android":"levelo://app?vid=4ad22b9e-ed83-40b4-9252-5f067305ff1a","ios":"levelo://app?vid=4ad22b9e-ed83-40b4-9252-5f067305ff1a"},"vehicle_type_id":"4","last_reported":1729840159,"current_range_meters":32400,"station_id":"","pricing_plan_id":"cebpf4jnsgd1na2vs0mg"},{"bike_id":"405ff4c5-9944-404b-b6ae-6ae137886c6a","system_id":"levelo_inurba_marseille","lat":43.31331,"lon":5.39696,"is_reserved":false,"is_disabled":false,"rental_uris":{"android":"levelo://app?vid=405ff4c5-9944-404b-b6ae-6ae137886c6a","ios":"levelo://app?vid=405ff4c5-9944-404b-b6ae-6ae137886c6a"},"vehicle_type_id":"4","last_reported":1729840159,"current_range_meters":38800,"station_id":"ce4bgvp2rcd13ifvqcu0","pricing_plan_id":"cebpf4jnsgd1na2vs0mg"},{"bike_id":"beacce13-cfcb-4737-a324-ad3de89dd7fd","system_id":"levelo_inurba_marseille","lat":43.25002,"lon":5.38922,"is_reserved":false,"is_disabled":false,"rental_uris":{"android":"levelo://app?vid=beacce13-cfcb-4737-a324-ad3de89dd7fd","ios":"levelo://app?vid=beacce13-cfcb-4737-a324-ad3de89dd7fd"},"vehicle_type_id":"4","last_reported":1729840159,"current_range_meters":32800,"station_id":"ce4bhgp2rcd13ifvqfd0","pricing_plan_id":"cebpf4jnsgd1na2vs0mg"},{"bike_id":"a678a84f-0550-4240-b17d-5b7a54ed58a5","system_id":"levelo_inurba_marseille","lat":43.27812,"lon":5.40712,"is_reserved":false,"is_disabled":false,"rental_uris":{"android":"levelo://app?vid=a678a84f-0550-4240-b17d-5b7a54ed58a5","ios":"levelo://app?vid=a678a84f-0550-4240-b17d-5b7a54ed58a5"},"vehicle_type_id":"4","last_reported":1729840159,"current_range_meters":39200,"station_id":"ce4bhnh2rcd13ifvqgtg","pricing_plan_id":"cebpf4jnsgd1na2vs0mg"},{"bike_id":"36587251-d6a3-44e7-ab36-6ffcaa50c3bc","system_id":"levelo_inurba_marseille","lat":43.29039,"lon":5.39961,"is_reserved":false,"is_disabled":false,"rental_uris":{"android":"levelo://app?vid=36587251-d6a3-44e7-ab36-6ffcaa50c3bc","ios":"levelo://app?vid=36587251-d6a3-44e7-ab36-6ffcaa50c3bc"},"vehicle_type_id":"4","last_reported":1729840159,"current_range_meters":37600,"station_id":"ce4bh392rcd13ifvqdm0","pricing_plan_id":"cebpf4jnsgd1na2vs0mg"},{"bike_id":"8c4a562e-b4bb-4ab5-beed-318fab73011a","system_id":"levelo_inurba_marseille","lat":43.29258,"lon":5.40899,"is_reserved":false,"is_disabled":false,"rental_uris":{"android":"levelo://app?vid=8c4a562e-b4bb-4ab5-beed-318fab73011a","ios":"levelo://app?vid=8c4a562e-b4bb-4ab5-beed-318fab73011a"},"vehicle_type_id":"4","last_reported":1729840159,"current_range_meters":36400,"station_id":"ce4bh192rcd13ifvqdc0","pricing_plan_id":"cebpf4jnsgd1na2vs0mg"},{"bike_id":"651d596c-9d25-40a0-96ca-eb64cd56897f","system_id":"levelo_inurba_marseille","lat":43.29898,"lon":5.43667,"is_reserved":false,"is_disabled":false,"rental_uris":{"android":"levelo://app?vid=651d596c-9d25-40a0-96ca-eb64cd56897f","ios":"levelo://app?vid=651d596c-9d25-40a0-96ca-eb64cd56897f"},"vehicle_type_id":"4","last_reported":1729840159,"current_range_meters":37600,"station_id":"ce4bhpp2rcd13ifvqhfg","pricing_plan_id":"cebpf4jnsgd1na2vs0mg"},{"bike_id":"265d4886-814f-489b-a188-f13ebcb5f0e0","system_id":"levelo_inurba_marseille","lat":43.29179,"lon":5.37145,"is_reserved":false,"is_disabled":false,"rental_uris":{"android":"levelo://app?vid=265d4886-814f-489b-a188-f13ebcb5f0e0","ios":"levelo://app?vid=265d4886-814f-489b-a188-f13ebcb5f0e0"},"vehicle_type_id":"4","last_reported":1729840159,"current_range_meters":6000,"station_id":"ce4bha92rcd13ifvqeh0","pricing_plan_id":"cebpf4jnsgd1na2vs0mg"},{"bike_id":"b85af3b3-7a60-4c70-a2e1-012a71c6422b","system_id":"levelo_inurba_marseille","lat":43.25932,"lon":5.40916,"is_reserved":false,"is_disabled":false,"rental_uris":{"android":"levelo://app?vid=b85af3b3-7a60-4c70-a2e1-012a71c6422b","ios":"levelo://app?vid=b85af3b3-7a60-4c70-a2e1-012a71c6422b"},"vehicle_type_id":"4","last_reported":1729840159,"current_range_meters":16400,"station_id":"ce4bhm92rcd13ifvqglg","pricing_plan_id":"cebpf4jnsgd1na2vs0mg"},{"bike_id":"f8c6f1bc-ea44-4ab8-b33c-f75f82cb071b","system_id":"levelo_inurba_marseille","lat":43.2319,"lon":5.39984,"is_reserved":false,"is_disabled":false,"rental_uris":{"android":"levelo://app?vid=f8c6f1bc-ea44-4ab8-b33c-f75f82cb071b","ios":"levelo://app?vid=f8c6f1bc-ea44-4ab8-b33c-f75f82cb071b"},"vehicle_type_id":"4","last_reported":1729840159,"current_range_meters":3600,"station_id":"ce4bhn12rcd13ifvqgqg","pricing_plan_id":"cebpf4jnsgd1na2vs0mg"},{"bike_id":"aa0639fd-d9fb-4a56-8b3f-ee43497156b1","system_id":"levelo_inurba_marseille","lat":43.25933,"lon":5.40908,"is_reserved":false,"is_disabled":false,"rental_uris":{"android":"levelo://app?vid=aa0639fd-d9fb-4a56-8b3f-ee43497156b1","ios":"levelo://app?vid=aa0639fd-d9fb-4a56-8b3f-ee43497156b1"},"vehicle_type_id":"4","last_reported":1729840159,"current_range_meters":33200,"station_id":"ce4bhm92rcd13ifvqglg","pricing_plan_id":"cebpf4jnsgd1na2vs0mg"},{"bike_id":"7a56fd0e-4d90-40c0-8865-3b7e55997f15","system_id":"levelo_inurba_marseille","lat":43.30464,"lon":5.37912,"is_reserved":false,"is_disabled":false,"rental_uris":{"android":"levelo://app?vid=7a56fd0e-4d90-40c0-8865-3b7e55997f15","ios":"levelo://app?vid=7a56fd0e-4d90-40c0-8865-3b7e55997f15"},"vehicle_type_id":"4","last_reported":1729840159,"current_range_meters":27600,"station_id":"ce4bgup2rcd13ifvqcn0","pricing_plan_id":"cebpf4jnsgd1na2vs0mg"},{"bike_id":"108c0296-d49a-4500-a655-9dc6be1eb554","system_id":"levelo_inurba_marseille","lat":43.26948,"lon":5.38634,"is_reserved":false,"is_disabled":false,"rental_uris":{"android":"levelo://app?vid=108c0296-d49a-4500-a655-9dc6be1eb554","ios":"levelo://app?vid=108c0296-d49a-4500-a655-9dc6be1eb554"},"vehicle_type_id":"4","last_reported":1729840159,"current_range_meters":38800,"station_id":"ce4bhh92rcd13ifvqfh0","pricing_plan_id":"cebpf4jnsgd1na2vs0mg"},{"bike_id":"a8fd8402-d8b5-4dd0-aecf-7e3f8f4aab00","system_id":"levelo_inurba_marseille","lat":43.30466,"lon":5.37896,"is_reserved":false,"is_disabled":false,"rental_uris":{"android":"levelo://app?vid=a8fd8402-d8b5-4dd0-aecf-7e3f8f4aab00","ios":"levelo://app?vid=a8fd8402-d8b5-4dd0-aecf-7e3f8f4aab00"},"vehicle_type_id":"4","last_reported":1729840159,"current_range_meters":33200,"station_id":"ce4bgup2rcd13ifvqcn0","pricing_plan_id":"cebpf4jnsgd1na2vs0mg"},{"bike_id":"0f254c0f-63da-4351-895d-0b0d3b327781","system_id":"levelo_inurba_marseille","lat":43.28698,"lon":5.37399,"is_reserved":false,"is_disabled":false,"rental_uris":{"android":"levelo://app?vid=0f254c0f-63da-4351-895d-0b0d3b327781","ios":"levelo://app?vid=0f254c0f-63da-4351-895d-0b0d3b327781"},"vehicle_type_id":"4","last_reported":1729840159,"current_range_meters":3600,"station_id":"ce4bh3p2rcd13ifvqdq0","pricing_plan_id":"cebpf4jnsgd1na2vs0mg"},{"bike_id":"6953eb45-84ce-46cb-944a-6dd5017fcb40","system_id":"levelo_inurba_marseille","lat":43.34138,"lon":5.40911,"is_reserved":false,"is_disabled":false,"rental_uris":{"android":"levelo://app?vid=6953eb45-84ce-46cb-944a-6dd5017fcb40","ios":"levelo://app?vid=6953eb45-84ce-46cb-944a-6dd5017fcb40"},"vehicle_type_id":"4","last_reported":1729840159,"current_range_meters":36000,"station_id":"ce4bhqh2rcd13ifvqhlg","pricing_plan_id":"cebpf4jnsgd1na2vs0mg"},{"bike_id":"7799fea6-4879-4698-8046-bcd01cf22905","system_id":"levelo_inurba_marseille","lat":43.290408,"lon":5.375634,"is_reserved":false,"is_disabled":false,"rental_uris":{"android":"levelo://app?vid=7799fea6-4879-4698-8046-bcd01cf22905","ios":"levelo://app?vid=7799fea6-4879-4698-8046-bcd01cf22905"},"vehicle_type_id":"4","last_reported":1729840159,"current_range_meters":3600,"station_id":"ce4bh692rcd13ifvqe90","pricing_plan_id":"cebpf4jnsgd1na2vs0mg"},{"bike_id":"e598e1c8-9978-4dc0-9ea8-c0464ecf71b5","system_id":"levelo_inurba_marseille","lat":43.31355,"lon":5.3672,"is_reserved":false,"is_disabled":false,"rental_uris":{"android":"levelo://app?vid=e598e1c8-9978-4dc0-9ea8-c0464ecf71b5","ios":"levelo://app?vid=e598e1c8-9978-4dc0-9ea8-c0464ecf71b5"},"vehicle_type_id":"4","last_reported":1729840159,"current_range_meters":34000,"station_id":"ce4bgr92rcd13ifvqc6g","pricing_plan_id":"cebpf4jnsgd1na2vs0mg"},{"bike_id":"4468208d-a0a9-4302-976f-4b7d3cc8f418","system_id":"levelo_inurba_marseille","lat":43.26205,"lon":5.37928,"is_reserved":false,"is_disabled":false,"rental_uris":{"android":"levelo://app?vid=4468208d-a0a9-4302-976f-4b7d3cc8f418","ios":"levelo://app?vid=4468208d-a0a9-4302-976f-4b7d3cc8f418"},"vehicle_type_id":"4","last_reported":1729840159,"current_range_meters":39200,"station_id":"ce4bhjp2rcd13ifvqg90","pricing_plan_id":"cebpf4jnsgd1na2vs0mg"},{"bike_id":"7ebc9bdb-d16d-4077-bbd0-ac0bc6127ef4","system_id":"levelo_inurba_marseille","lat":43.30546,"lon":5.3671,"is_reserved":false,"is_disabled":false,"rental_uris":{"android":"levelo://app?vid=7ebc9bdb-d16d-4077-bbd0-ac0bc6127ef4","ios":"levelo://app?vid=7ebc9bdb-d16d-4077-bbd0-ac0bc6127ef4"},"vehicle_type_id":"4","last_reported":1729840159,"current_range_meters":18800,"station_id":"ce4bgrp2rcd13ifvqc9g","pricing_plan_id":"cebpf4jnsgd1na2vs0mg"},{"bike_id":"5986f777-f9a7-4ec3-877a-2f4162eafcad","system_id":"levelo_inurba_marseille","lat":43.29843,"lon":5.36272,"is_reserved":false,"is_disabled":false,"rental_uris":{"android":"levelo://app?vid=5986f777-f9a7-4ec3-877a-2f4162eafcad","ios":"levelo://app?vid=5986f777-f9a7-4ec3-877a-2f4162eafcad"},"vehicle_type_id":"4","last_reported":1729840159,"current_range_meters":38800,"station_id":"ce4bgpp2rcd13ifvqc3g","pricing_plan_id":"cebpf4jnsgd1na2vs0mg"},{"bike_id":"2e343e52-b2cb-4afc-8921-430bab7d5384","system_id":"levelo_inurba_marseille","lat":43.33025,"lon":5.39037,"is_reserved":false,"is_disabled":false,"rental_uris":{"android":"levelo://app?vid=2e343e52-b2cb-4afc-8921-430bab7d5384","ios":"levelo://app?vid=2e343e52-b2cb-4afc-8921-430bab7d5384"},"vehicle_type_id":"4","last_reported":1729840159,"current_range_meters":39200,"station_id":"ce4bhr92rcd13ifvqhrg","pricing_plan_id":"cebpf4jnsgd1na2vs0mg"},{"bike_id":"ec704ecc-fb19-4944-a166-51d2af2a0dbf","system_id":"levelo_inurba_marseille","lat":43.32109,"lon":5.36765,"is_reserved":false,"is_disabled":false,"rental_uris":{"android":"levelo://app?vid=ec704ecc-fb19-4944-a166-51d2af2a0dbf","ios":"levelo://app?vid=ec704ecc-fb19-4944-a166-51d2af2a0dbf"},"vehicle_type_id":"4","last_reported":1729840159,"current_range_meters":13600,"station_id":"ce4bhrh2rcd13ifvqhug","pricing_plan_id":"cebpf4jnsgd1na2vs0mg"},{"bike_id":"cf781344-8793-4b93-85a8-a3544b8f5857","system_id":"levelo_inurba_marseille","lat":43.31225,"lon":5.36866,"is_reserved":false,"is_disabled":false,"rental_uris":{"android":"levelo://app?vid=cf781344-8793-4b93-85a8-a3544b8f5857","ios":"levelo://app?vid=cf781344-8793-4b93-85a8-a3544b8f5857"},"vehicle_type_id":"4","last_reported":1729840159,"current_range_meters":30800,"station_id":"ce4bgl92rcd13ifvqbq0","pricing_plan_id":"cebpf4jnsgd1na2vs0mg"},{"bike_id":"cbe83600-d3d4-47cf-a8e7-33e68c43cc90","system_id":"levelo_inurba_marseille","lat":43.255793,"lon":5.382308,"is_reserved":false,"is_disabled":false,"rental_uris":{"android":"levelo://app?vid=cbe83600-d3d4-47cf-a8e7-33e68c43cc90","ios":"levelo://app?vid=cbe83600-d3d4-47cf-a8e7-33e68c43cc90"},"vehicle_type_id":"4","last_reported":1729840159,"current_range_meters":36800,"station_id":"ce4bhh92rcd13ifvqfh0","pricing_plan_id":"cebpf4jnsgd1na2vs0mg"},{"bike_id":"0f3449bb-3bd0-4cfd-88af-5d53ec3e0714","system_id":"levelo_inurba_marseille","lat":43.31334,"lon":5.39717,"is_reserved":false,"is_disabled":false,"rental_uris":{"android":"levelo://app?vid=0f3449bb-3bd0-4cfd-88af-5d53ec3e0714","ios":"levelo://app?vid=0f3449bb-3bd0-4cfd-88af-5d53ec3e0714"},"vehicle_type_id":"4","last_reported":1729840159,"current_range_meters":38800,"station_id":"ce4bgvp2rcd13ifvqcu0","pricing_plan_id":"cebpf4jnsgd1na2vs0mg"},{"bike_id":"5b38bcaa-f6af-49cf-bc13-9b9082bcfa4b","system_id":"levelo_inurba_marseille","lat":43.29284,"lon":5.36845,"is_reserved":false,"is_disabled":false,"rental_uris":{"android":"levelo://app?vid=5b38bcaa-f6af-49cf-bc13-9b9082bcfa4b","ios":"levelo://app?vid=5b38bcaa-f6af-49cf-bc13-9b9082bcfa4b"},"vehicle_type_id":"4","last_reported":1729840159,"current_range_meters":28000,"station_id":"ce4bhbp2rcd13ifvqesg","pricing_plan_id":"cebpf4jnsgd1na2vs0mg"},{"bike_id":"4c99a71d-a824-4827-935d-27229b7b4596","system_id":"levelo_inurba_marseille","lat":43.3414,"lon":5.40904,"is_reserved":false,"is_disabled":false,"rental_uris":{"android":"levelo://app?vid=4c99a71d-a824-4827-935d-27229b7b4596","ios":"levelo://app?vid=4c99a71d-a824-4827-935d-27229b7b4596"},"vehicle_type_id":"4","last_reported":1729840159,"current_range_meters":27600,"station_id":"ce4bhqh2rcd13ifvqhlg","pricing_plan_id":"cebpf4jnsgd1na2vs0mg"},{"bike_id":"3aa6ee87-b1ca-4294-acf8-f10ca655ea3b","system_id":"levelo_inurba_marseille","lat":43.30307,"lon":5.36891,"is_reserved":false,"is_disabled":false,"rental_uris":{"android":"levelo://app?vid=3aa6ee87-b1ca-4294-acf8-f10ca655ea3b","ios":"levelo://app?vid=3aa6ee87-b1ca-4294-acf8-f10ca655ea3b"},"vehicle_type_id":"4","last_reported":1729840159,"current_range_meters":18000,"station_id":"ce4bgqh2rcd13ifvqc5g","pricing_plan_id":"cebpf4jnsgd1na2vs0mg"},{"bike_id":"96642c48-e241-4e2a-bf65-9a6d0434c410","system_id":"levelo_inurba_marseille","lat":43.28264,"lon":5.3506,"is_reserved":false,"is_disabled":false,"rental_uris":{"android":"levelo://app?vid=96642c48-e241-4e2a-bf65-9a6d0434c410","ios":"levelo://app?vid=96642c48-e241-4e2a-bf65-9a6d0434c410"},"vehicle_type_id":"4","last_reported":1729840159,"current_range_meters":33200,"station_id":"ce4bhbp2rcd13ifvqerg","pricing_plan_id":"cebpf4jnsgd1na2vs0mg"},{"bike_id":"97ec9672-eea4-4d9a-8a25-013f09b65b94","system_id":"levelo_inurba_marseille","lat":43.25576,"lon":5.38237,"is_reserved":false,"is_disabled":false,"rental_uris":{"android":"levelo://app?vid=97ec9672-eea4-4d9a-8a25-013f09b65b94","ios":"levelo://app?vid=97ec9672-eea4-4d9a-8a25-013f09b65b94"},"vehicle_type_id":"4","last_reported":1729840159,"current_range_meters":2800,"station_id":"ce4bhih2rcd13ifvqfs0","pricing_plan_id":"cebpf4jnsgd1na2vs0mg"},{"bike_id":"16950cf5-039d-4ec8-b235-a1b801087934","system_id":"levelo_inurba_marseille","lat":43.25866,"lon":5.39896,"is_reserved":false,"is_disabled":false,"rental_uris":{"android":"levelo://app?vid=16950cf5-039d-4ec8-b235-a1b801087934","ios":"levelo://app?vid=16950cf5-039d-4ec8-b235-a1b801087934"},"vehicle_type_id":"4","last_reported":1729840159,"current_range_meters":27600,"station_id":"ce4bhl92rcd13ifvqghg","pricing_plan_id":"cebpf4jnsgd1na2vs0mg"},{"bike_id":"1c94711f-6e8d-4080-84e2-4aabc2656ca2","system_id":"levelo_inurba_marseille","lat":43.3133,"lon":5.397,"is_reserved":false,"is_disabled":false,"rental_uris":{"android":"levelo://app?vid=1c94711f-6e8d-4080-84e2-4aabc2656ca2","ios":"levelo://app?vid=1c94711f-6e8d-4080-84e2-4aabc2656ca2"},"vehicle_type_id":"4","last_reported":1729840159,"current_range_meters":38000,"station_id":"ce4bgvp2rcd13ifvqcu0","pricing_plan_id":"cebpf4jnsgd1na2vs0mg"},{"bike_id":"7ad008f1-e2ee-4915-a6bf-90f2287f5222","system_id":"levelo_inurba_marseille","lat":43.32482,"lon":5.36551,"is_reserved":false,"is_disabled":false,"rental_uris":{"android":"levelo://app?vid=7ad008f1-e2ee-4915-a6bf-90f2287f5222","ios":"levelo://app?vid=7ad008f1-e2ee-4915-a6bf-90f2287f5222"},"vehicle_type_id":"4","last_reported":1729840159,"current_range_meters":38000,"station_id":"ce4bhs12rcd13ifvqhvg","pricing_plan_id":"cebpf4jnsgd1na2vs0mg"},{"bike_id":"6dc495b7-34c5-4379-aab1-e54f4c9868dd","system_id":"levelo_inurba_marseille","lat":43.33607,"lon":5.41035,"is_reserved":false,"is_disabled":false,"rental_uris":{"android":"levelo://app?vid=6dc495b7-34c5-4379-aab1-e54f4c9868dd","ios":"levelo://app?vid=6dc495b7-34c5-4379-aab1-e54f4c9868dd"},"vehicle_type_id":"4","last_reported":1729840159,"current_range_meters":24800,"station_id":"ce4bhqh2rcd13ifvqhmg","pricing_plan_id":"cebpf4jnsgd1na2vs0mg"},{"bike_id":"b44c24ab-cc68-43d7-9f22-1453675e3b4a","system_id":"levelo_inurba_marseille","lat":43.30467,"lon":5.37902,"is_reserved":false,"is_disabled":false,"rental_uris":{"android":"levelo://app?vid=b44c24ab-cc68-43d7-9f22-1453675e3b4a","ios":"levelo://app?vid=b44c24ab-cc68-43d7-9f22-1453675e3b4a"},"vehicle_type_id":"4","last_reported":1729840159,"current_range_meters":16400,"station_id":"ce4bgup2rcd13ifvqcn0","pricing_plan_id":"cebpf4jnsgd1na2vs0mg"},{"bike_id":"1f760813-6c17-4d51-8beb-a8484250e39e","system_id":"levelo_inurba_marseille","lat":43.25925,"lon":5.40895,"is_reserved":false,"is_disabled":false,"rental_uris":{"android":"levelo://app?vid=1f760813-6c17-4d51-8beb-a8484250e39e","ios":"levelo://app?vid=1f760813-6c17-4d51-8beb-a8484250e39e"},"vehicle_type_id":"4","last_reported":1729840159,"current_range_meters":18000,"station_id":"ce4bhm92rcd13ifvqglg","pricing_plan_id":"cebpf4jnsgd1na2vs0mg"},{"bike_id":"1658d939-d144-44d0-8b9a-a07ba4fd155e","system_id":"levelo_inurba_marseille","lat":43.30603,"lon":5.37227,"is_reserved":false,"is_disabled":false,"rental_uris":{"android":"levelo://app?vid=1658d939-d144-44d0-8b9a-a07ba4fd155e","ios":"levelo://app?vid=1658d939-d144-44d0-8b9a-a07ba4fd155e"},"vehicle_type_id":"4","last_reported":1729840159,"current_range_meters":9200,"station_id":"ce4bgqh2rcd13ifvqc4g","pricing_plan_id":"cebpf4jnsgd1na2vs0mg"},{"bike_id":"caba4d39-d245-4945-a7e8-7117646417a8","system_id":"levelo_inurba_marseille","lat":43.26201,"lon":5.37935,"is_reserved":false,"is_disabled":false,"rental_uris":{"android":"levelo://app?vid=caba4d39-d245-4945-a7e8-7117646417a8","ios":"levelo://app?vid=caba4d39-d245-4945-a7e8-7117646417a8"},"vehicle_type_id":"4","last_reported":1729840159,"current_range_meters":38000,"station_id":"ce4bhjp2rcd13ifvqg90","pricing_plan_id":"cebpf4jnsgd1na2vs0mg"},{"bike_id":"ea49dcab-794a-4bda-8247-77371dad772a","system_id":"levelo_inurba_marseille","lat":43.30943,"lon":5.390335,"is_reserved":false,"is_disabled":false,"rental_uris":{"android":"levelo://app?vid=ea49dcab-794a-4bda-8247-77371dad772a","ios":"levelo://app?vid=ea49dcab-794a-4bda-8247-77371dad772a"},"vehicle_type_id":"4","last_reported":1729840159,"current_range_meters":10000,"station_id":"ce4bgup2rcd13ifvqco0","pricing_plan_id":"cebpf4jnsgd1na2vs0mg"},{"bike_id":"9c980766-3696-42be-8e1a-d22fb6edb5c5","system_id":"levelo_inurba_marseille","lat":43.30641,"lon":5.38188,"is_reserved":false,"is_disabled":false,"rental_uris":{"android":"levelo://app?vid=9c980766-3696-42be-8e1a-d22fb6edb5c5","ios":"levelo://app?vid=9c980766-3696-42be-8e1a-d22fb6edb5c5"},"vehicle_type_id":"4","last_reported":1729840159,"current_range_meters":25200,"station_id":"","pricing_plan_id":"cebpf4jnsgd1na2vs0mg"},{"bike_id":"e0803e35-923c-49df-a807-1c86fb265270","system_id":"levelo_inurba_marseille","lat":43.25941,"lon":5.40903,"is_reserved":false,"is_disabled":false,"rental_uris":{"android":"levelo://app?vid=e0803e35-923c-49df-a807-1c86fb265270","ios":"levelo://app?vid=e0803e35-923c-49df-a807-1c86fb265270"},"vehicle_type_id":"4","last_reported":1729840159,"current_range_meters":14800,"station_id":"ce4bhm92rcd13ifvqglg","pricing_plan_id":"cebpf4jnsgd1na2vs0mg"},{"bike_id":"6fd4971a-db3f-4826-9ddf-71b29c3b9231","system_id":"levelo_inurba_marseille","lat":43.27813,"lon":5.4071,"is_reserved":false,"is_disabled":false,"rental_uris":{"android":"levelo://app?vid=6fd4971a-db3f-4826-9ddf-71b29c3b9231","ios":"levelo://app?vid=6fd4971a-db3f-4826-9ddf-71b29c3b9231"},"vehicle_type_id":"4","last_reported":1729840159,"current_range_meters":15200,"station_id":"ce4bhnh2rcd13ifvqgtg","pricing_plan_id":"cebpf4jnsgd1na2vs0mg"},{"bike_id":"f9ec36ed-f1e8-4d39-a330-d53d339322cc","system_id":"levelo_inurba_marseille","lat":43.24949,"lon":5.39745,"is_reserved":false,"is_disabled":false,"rental_uris":{"android":"levelo://app?vid=f9ec36ed-f1e8-4d39-a330-d53d339322cc","ios":"levelo://app?vid=f9ec36ed-f1e8-4d39-a330-d53d339322cc"},"vehicle_type_id":"4","last_reported":1729840159,"current_range_meters":18000,"station_id":"","pricing_plan_id":"cebpf4jnsgd1na2vs0mg"},{"bike_id":"52f0e4a5-d535-4f96-b297-18be6815ac33","system_id":"levelo_inurba_marseille","lat":43.33724,"lon":5.39181,"is_reserved":false,"is_disabled":false,"rental_uris":{"android":"levelo://app?vid=52f0e4a5-d535-4f96-b297-18be6815ac33","ios":"levelo://app?vid=52f0e4a5-d535-4f96-b297-18be6815ac33"},"vehicle_type_id":"4","last_reported":1729840159,"current_range_meters":38800,"station_id":"ce4bhr92rcd13ifvqhsg","pricing_plan_id":"cebpf4jnsgd1na2vs0mg"},{"bike_id":"754334dc-7c77-42cd-ae7c-2bd7ea4eeedc","system_id":"levelo_inurba_marseille","lat":43.25087,"lon":5.39513,"is_reserved":false,"is_disabled":false,"rental_uris":{"android":"levelo://app?vid=754334dc-7c77-42cd-ae7c-2bd7ea4eeedc","ios":"levelo://app?vid=754334dc-7c77-42cd-ae7c-2bd7ea4eeedc"},"vehicle_type_id":"4","last_reported":1729840159,"current_range_meters":30800,"station_id":"ce4bhm12rcd13ifvqgkg","pricing_plan_id":"cebpf4jnsgd1na2vs0mg"},{"bike_id":"ddc9d34a-3a18-4656-afac-2c40e00335c6","system_id":"levelo_inurba_marseille","lat":43.26486,"lon":5.39551,"is_reserved":false,"is_disabled":false,"rental_uris":{"android":"levelo://app?vid=ddc9d34a-3a18-4656-afac-2c40e00335c6","ios":"levelo://app?vid=ddc9d34a-3a18-4656-afac-2c40e00335c6"},"vehicle_type_id":"4","last_reported":1729840159,"current_range_meters":8800,"station_id":"ce4bhi12rcd13ifvqfq0","pricing_plan_id":"cebpf4jnsgd1na2vs0mg"},{"bike_id":"6ef4fbd4-2531-4b8e-8d49-747fbb50adc0","system_id":"levelo_inurba_marseille","lat":43.28492,"lon":5.3943,"is_reserved":false,"is_disabled":false,"rental_uris":{"android":"levelo://app?vid=6ef4fbd4-2531-4b8e-8d49-747fbb50adc0","ios":"levelo://app?vid=6ef4fbd4-2531-4b8e-8d49-747fbb50adc0"},"vehicle_type_id":"4","last_reported":1729840159,"current_range_meters":4400,"station_id":"ce4bh292rcd13ifvqdg0","pricing_plan_id":"cebpf4jnsgd1na2vs0mg"},{"bike_id":"21b771f5-e12c-4d5b-be50-280d4e6da9bd","system_id":"levelo_inurba_marseille","lat":43.26684,"lon":5.38267,"is_reserved":false,"is_disabled":false,"rental_uris":{"android":"levelo://app?vid=21b771f5-e12c-4d5b-be50-280d4e6da9bd","ios":"levelo://app?vid=21b771f5-e12c-4d5b-be50-280d4e6da9bd"},"vehicle_type_id":"4","last_reported":1729840159,"current_range_meters":26000,"station_id":"ce4bhg92rcd13ifvqf90","pricing_plan_id":"cebpf4jnsgd1na2vs0mg"},{"bike_id":"b61630d4-f3db-41f1-b3da-75767a8633f7","system_id":"levelo_inurba_marseille","lat":43.32287,"lon":5.38277,"is_reserved":false,"is_disabled":false,"rental_uris":{"android":"levelo://app?vid=b61630d4-f3db-41f1-b3da-75767a8633f7","ios":"levelo://app?vid=b61630d4-f3db-41f1-b3da-75767a8633f7"},"vehicle_type_id":"4","last_reported":1729840159,"current_range_meters":38400,"station_id":"ce4bhr12rcd13ifvqhqg","pricing_plan_id":"cebpf4jnsgd1na2vs0mg"},{"bike_id":"9547fe9f-7da9-478b-9033-f446ea71bb69","system_id":"levelo_inurba_marseille","lat":43.31081,"lon":5.42426,"is_reserved":false,"is_disabled":false,"rental_uris":{"android":"levelo://app?vid=9547fe9f-7da9-478b-9033-f446ea71bb69","ios":"levelo://app?vid=9547fe9f-7da9-478b-9033-f446ea71bb69"},"vehicle_type_id":"4","last_reported":1729840159,"current_range_meters":37600,"station_id":"ce4bhp92rcd13ifvqhag","pricing_plan_id":"cebpf4jnsgd1na2vs0mg"},{"bike_id":"67bc25a2-a0b1-417f-a985-3e67a3e7afcb","system_id":"levelo_inurba_marseille","lat":43.2997,"lon":5.38492,"is_reserved":false,"is_disabled":false,"rental_uris":{"android":"levelo://app?vid=67bc25a2-a0b1-417f-a985-3e67a3e7afcb","ios":"levelo://app?vid=67bc25a2-a0b1-417f-a985-3e67a3e7afcb"},"vehicle_type_id":"4","last_reported":1729840159,"current_range_meters":36800,"station_id":"ce4bgj92rcd13ifvqbd0","pricing_plan_id":"cebpf4jnsgd1na2vs0mg"},{"bike_id":"84527e00-805c-4159-9b56-f90212ec60d9","system_id":"levelo_inurba_marseille","lat":43.29361,"lon":5.37842,"is_reserved":false,"is_disabled":false,"rental_uris":{"android":"levelo://app?vid=84527e00-805c-4159-9b56-f90212ec60d9","ios":"levelo://app?vid=84527e00-805c-4159-9b56-f90212ec60d9"},"vehicle_type_id":"4","last_reported":1729840159,"current_range_meters":18000,"station_id":"ce4bgjh2rcd13ifvqbf0","pricing_plan_id":"cebpf4jnsgd1na2vs0mg"},{"bike_id":"aa2296b3-9e48-4eb8-8736-02ee29db4f53","system_id":"levelo_inurba_marseille","lat":43.302808,"lon":5.376986,"is_reserved":false,"is_disabled":false,"rental_uris":{"android":"levelo://app?vid=aa2296b3-9e48-4eb8-8736-02ee29db4f53","ios":"levelo://app?vid=aa2296b3-9e48-4eb8-8736-02ee29db4f53"},"vehicle_type_id":"4","last_reported":1729840159,"current_range_meters":38800,"station_id":"ce4bguh2rcd13ifvqcj0","pricing_plan_id":"cebpf4jnsgd1na2vs0mg"},{"bike_id":"feda9bc1-b886-4640-ad92-201ddc16513e","system_id":"levelo_inurba_marseille","lat":43.32289,"lon":5.3827,"is_reserved":false,"is_disabled":false,"rental_uris":{"android":"levelo://app?vid=feda9bc1-b886-4640-ad92-201ddc16513e","ios":"levelo://app?vid=feda9bc1-b886-4640-ad92-201ddc16513e"},"vehicle_type_id":"4","last_reported":1729840159,"current_range_meters":38800,"station_id":"ce4bhr12rcd13ifvqhqg","pricing_plan_id":"cebpf4jnsgd1na2vs0mg"},{"bike_id":"539fe78b-5fd2-4ef1-8ce0-30a54b2540cb","system_id":"levelo_inurba_marseille","lat":43.29199,"lon":5.39319,"is_reserved":false,"is_disabled":false,"rental_uris":{"android":"levelo://app?vid=539fe78b-5fd2-4ef1-8ce0-30a54b2540cb","ios":"levelo://app?vid=539fe78b-5fd2-4ef1-8ce0-30a54b2540cb"},"vehicle_type_id":"4","last_reported":1729840159,"current_range_meters":39200,"station_id":"ce4bh192rcd13ifvqdd0","pricing_plan_id":"cebpf4jnsgd1na2vs0mg"},{"bike_id":"efe0b02e-9dcd-4192-8f41-25a0bf494636","system_id":"levelo_inurba_marseille","lat":43.32482,"lon":5.36571,"is_reserved":false,"is_disabled":false,"rental_uris":{"android":"levelo://app?vid=efe0b02e-9dcd-4192-8f41-25a0bf494636","ios":"levelo://app?vid=efe0b02e-9dcd-4192-8f41-25a0bf494636"},"vehicle_type_id":"4","last_reported":1729840159,"current_range_meters":4000,"station_id":"ce4bhs12rcd13ifvqhvg","pricing_plan_id":"cebpf4jnsgd1na2vs0mg"},{"bike_id":"83813a32-8aaa-45b9-93e9-eb6e5eeb7b78","system_id":"levelo_inurba_marseille","lat":43.284905,"lon":5.385556,"is_reserved":false,"is_disabled":false,"rental_uris":{"android":"levelo://app?vid=83813a32-8aaa-45b9-93e9-eb6e5eeb7b78","ios":"levelo://app?vid=83813a32-8aaa-45b9-93e9-eb6e5eeb7b78"},"vehicle_type_id":"4","last_reported":1729840159,"current_range_meters":38800,"station_id":"ce4bh8p2rcd13ifvqeb0","pricing_plan_id":"cebpf4jnsgd1na2vs0mg"},{"bike_id":"8103b84e-d34b-40e4-ad9e-9e5f0a913ea7","system_id":"levelo_inurba_marseille","lat":43.308655,"lon":5.40252,"is_reserved":false,"is_disabled":false,"rental_uris":{"android":"levelo://app?vid=8103b84e-d34b-40e4-ad9e-9e5f0a913ea7","ios":"levelo://app?vid=8103b84e-d34b-40e4-ad9e-9e5f0a913ea7"},"vehicle_type_id":"4","last_reported":1729840159,"current_range_meters":29600,"station_id":"ce4bgvp2rcd13ifvqct0","pricing_plan_id":"cebpf4jnsgd1na2vs0mg"},{"bike_id":"212337c5-c27c-4ce8-a37e-735a2e6c27ae","system_id":"levelo_inurba_marseille","lat":43.31706,"lon":5.3776,"is_reserved":false,"is_disabled":false,"rental_uris":{"android":"levelo://app?vid=212337c5-c27c-4ce8-a37e-735a2e6c27ae","ios":"levelo://app?vid=212337c5-c27c-4ce8-a37e-735a2e6c27ae"},"vehicle_type_id":"4","last_reported":1729840159,"current_range_meters":38800,"station_id":"ce4bgth2rcd13ifvqch0","pricing_plan_id":"cebpf4jnsgd1na2vs0mg"},{"bike_id":"b7a6ef8c-cdba-484a-a08f-c65747bc3d65","system_id":"levelo_inurba_marseille","lat":43.30594,"lon":5.37238,"is_reserved":false,"is_disabled":false,"rental_uris":{"android":"levelo://app?vid=b7a6ef8c-cdba-484a-a08f-c65747bc3d65","ios":"levelo://app?vid=b7a6ef8c-cdba-484a-a08f-c65747bc3d65"},"vehicle_type_id":"4","last_reported":1729840159,"current_range_meters":18000,"station_id":"ce4bgqh2rcd13ifvqc4g","pricing_plan_id":"cebpf4jnsgd1na2vs0mg"},{"bike_id":"7a86b841-3807-4574-ba92-5397b4d1c9ad","system_id":"levelo_inurba_marseille","lat":43.30802,"lon":5.38159,"is_reserved":false,"is_disabled":false,"rental_uris":{"android":"levelo://app?vid=7a86b841-3807-4574-ba92-5397b4d1c9ad","ios":"levelo://app?vid=7a86b841-3807-4574-ba92-5397b4d1c9ad"},"vehicle_type_id":"4","last_reported":1729840159,"current_range_meters":20400,"station_id":"ce4bgt12rcd13ifvqce0","pricing_plan_id":"cebpf4jnsgd1na2vs0mg"},{"bike_id":"0093a4e8-f31f-469b-929b-35b7fbd352f0","system_id":"levelo_inurba_marseille","lat":43.28075,"lon":5.3966,"is_reserved":false,"is_disabled":false,"rental_uris":{"android":"levelo://app?vid=0093a4e8-f31f-469b-929b-35b7fbd352f0","ios":"levelo://app?vid=0093a4e8-f31f-469b-929b-35b7fbd352f0"},"vehicle_type_id":"4","last_reported":1729840159,"current_range_meters":20000,"station_id":"ce4bho12rcd13ifvqh2g","pricing_plan_id":"cebpf4jnsgd1na2vs0mg"},{"bike_id":"61eee6fa-5b8e-4081-a763-cb47ff01403e","system_id":"levelo_inurba_marseille","lat":43.30142,"lon":5.3743,"is_reserved":false,"is_disabled":false,"rental_uris":{"android":"levelo://app?vid=61eee6fa-5b8e-4081-a763-cb47ff01403e","ios":"levelo://app?vid=61eee6fa-5b8e-4081-a763-cb47ff01403e"},"vehicle_type_id":"4","last_reported":1729840159,"current_range_meters":16800,"station_id":"ce4bgs92rcd13ifvqcc0","pricing_plan_id":"cebpf4jnsgd1na2vs0mg"},{"bike_id":"d4806df9-7036-464f-9cf7-db69f547d34a","system_id":"levelo_inurba_marseille","lat":43.29085,"lon":5.38144,"is_reserved":false,"is_disabled":false,"rental_uris":{"android":"levelo://app?vid=d4806df9-7036-464f-9cf7-db69f547d34a","ios":"levelo://app?vid=d4806df9-7036-464f-9cf7-db69f547d34a"},"vehicle_type_id":"4","last_reported":1729840159,"current_range_meters":38800,"station_id":"ce4bh512rcd13ifvqe2g","pricing_plan_id":"cebpf4jnsgd1na2vs0mg"},{"bike_id":"8adbf88f-efef-4166-af55-92357be3ce9e","system_id":"levelo_inurba_marseille","lat":43.25132,"lon":5.39016,"is_reserved":false,"is_disabled":false,"rental_uris":{"android":"levelo://app?vid=8adbf88f-efef-4166-af55-92357be3ce9e","ios":"levelo://app?vid=8adbf88f-efef-4166-af55-92357be3ce9e"},"vehicle_type_id":"4","last_reported":1729840159,"current_range_meters":32000,"station_id":"ce4bhgp2rcd13ifvqfd0","pricing_plan_id":"cebpf4jnsgd1na2vs0mg"},{"bike_id":"27f07749-69c9-4079-9dec-2b38276cccb0","system_id":"levelo_inurba_marseille","lat":43.23154,"lon":5.43704,"is_reserved":false,"is_disabled":false,"rental_uris":{"android":"levelo://app?vid=27f07749-69c9-4079-9dec-2b38276cccb0","ios":"levelo://app?vid=27f07749-69c9-4079-9dec-2b38276cccb0"},"vehicle_type_id":"4","last_reported":1729840159,"current_range_meters":39200,"station_id":"ce4bhmp2rcd13ifvqgog","pricing_plan_id":"cebpf4jnsgd1na2vs0mg"},{"bike_id":"7691659f-eea1-4b4d-8db5-2728fcde3a23","system_id":"levelo_inurba_marseille","lat":43.29386,"lon":5.37528,"is_reserved":false,"is_disabled":false,"rental_uris":{"android":"levelo://app?vid=7691659f-eea1-4b4d-8db5-2728fcde3a23","ios":"levelo://app?vid=7691659f-eea1-4b4d-8db5-2728fcde3a23"},"vehicle_type_id":"4","last_reported":1729840159,"current_range_meters":27600,"station_id":"ce4bhr12rcd13ifvqhqg","pricing_plan_id":"cebpf4jnsgd1na2vs0mg"},{"bike_id":"a1c70997-c12b-471c-a586-c69a9b0d56c6","system_id":"levelo_inurba_marseille","lat":43.31883,"lon":5.40732,"is_reserved":false,"is_disabled":false,"rental_uris":{"android":"levelo://app?vid=a1c70997-c12b-471c-a586-c69a9b0d56c6","ios":"levelo://app?vid=a1c70997-c12b-471c-a586-c69a9b0d56c6"},"vehicle_type_id":"4","last_reported":1729840159,"current_range_meters":24000,"station_id":"ce4bhq12rcd13ifvqhig","pricing_plan_id":"cebpf4jnsgd1na2vs0mg"},{"bike_id":"b3c5c80d-fb10-447a-a7ae-9e83cf2e8853","system_id":"levelo_inurba_marseille","lat":43.27944,"lon":5.41044,"is_reserved":false,"is_disabled":false,"rental_uris":{"android":"levelo://app?vid=b3c5c80d-fb10-447a-a7ae-9e83cf2e8853","ios":"levelo://app?vid=b3c5c80d-fb10-447a-a7ae-9e83cf2e8853"},"vehicle_type_id":"4","last_reported":1729840159,"current_range_meters":26000,"station_id":"ce4bhnp2rcd13ifvqh0g","pricing_plan_id":"cebpf4jnsgd1na2vs0mg"},{"bike_id":"2350cb5d-ff21-4b58-b0dc-ebdeffb3d9a8","system_id":"levelo_inurba_marseille","lat":43.33771,"lon":5.37465,"is_reserved":false,"is_disabled":false,"rental_uris":{"android":"levelo://app?vid=2350cb5d-ff21-4b58-b0dc-ebdeffb3d9a8","ios":"levelo://app?vid=2350cb5d-ff21-4b58-b0dc-ebdeffb3d9a8"},"vehicle_type_id":"4","last_reported":1729840159,"current_range_meters":38400,"station_id":"","pricing_plan_id":"cebpf4jnsgd1na2vs0mg"},{"bike_id":"02578664-e44d-44a9-8726-802680ea0dbf","system_id":"levelo_inurba_marseille","lat":43.25089,"lon":5.39521,"is_reserved":false,"is_disabled":false,"rental_uris":{"android":"levelo://app?vid=02578664-e44d-44a9-8726-802680ea0dbf","ios":"levelo://app?vid=02578664-e44d-44a9-8726-802680ea0dbf"},"vehicle_type_id":"4","last_reported":1729840159,"current_range_meters":38000,"station_id":"ce4bhm12rcd13ifvqgkg","pricing_plan_id":"cebpf4jnsgd1na2vs0mg"},{"bike_id":"038bc2a6-dba9-4be2-a915-9f1ea1cdb175","system_id":"levelo_inurba_marseille","lat":43.24806,"lon":5.37456,"is_reserved":false,"is_disabled":false,"rental_uris":{"android":"levelo://app?vid=038bc2a6-dba9-4be2-a915-9f1ea1cdb175","ios":"levelo://app?vid=038bc2a6-dba9-4be2-a915-9f1ea1cdb175"},"vehicle_type_id":"4","last_reported":1729840159,"current_range_meters":25200,"station_id":"ce4bhgh2rcd13ifvqfb0","pricing_plan_id":"cebpf4jnsgd1na2vs0mg"},{"bike_id":"8344ddc7-652a-42a4-8c44-7fe6991b82ba","system_id":"levelo_inurba_marseille","lat":43.28354,"lon":5.38116,"is_reserved":false,"is_disabled":false,"rental_uris":{"android":"levelo://app?vid=8344ddc7-652a-42a4-8c44-7fe6991b82ba","ios":"levelo://app?vid=8344ddc7-652a-42a4-8c44-7fe6991b82ba"},"vehicle_type_id":"4","last_reported":1729840159,"current_range_meters":36800,"station_id":"ce4bh412rcd13ifvqdr0","pricing_plan_id":"cebpf4jnsgd1na2vs0mg"},{"bike_id":"f9d1f7fc-cf8f-493b-b3b6-011275ab25ab","system_id":"levelo_inurba_marseille","lat":43.26784,"lon":5.39414,"is_reserved":false,"is_disabled":false,"rental_uris":{"android":"levelo://app?vid=f9d1f7fc-cf8f-493b-b3b6-011275ab25ab","ios":"levelo://app?vid=f9d1f7fc-cf8f-493b-b3b6-011275ab25ab"},"vehicle_type_id":"4","last_reported":1729840159,"current_range_meters":32000,"station_id":"ce4bhh12rcd13ifvqfg0","pricing_plan_id":"cebpf4jnsgd1na2vs0mg"},{"bike_id":"34788d59-8165-467d-9f8f-66b7bf82952d","system_id":"levelo_inurba_marseille","lat":43.25108,"lon":5.40325,"is_reserved":false,"is_disabled":false,"rental_uris":{"android":"levelo://app?vid=34788d59-8165-467d-9f8f-66b7bf82952d","ios":"levelo://app?vid=34788d59-8165-467d-9f8f-66b7bf82952d"},"vehicle_type_id":"4","last_reported":1729840159,"current_range_meters":30400,"station_id":"ce4bhlh2rcd13ifvqgig","pricing_plan_id":"cebpf4jnsgd1na2vs0mg"},{"bike_id":"ac22ea2e-ca36-45fa-b76e-9d6f8ec71e2b","system_id":"levelo_inurba_marseille","lat":43.27625,"lon":5.36104,"is_reserved":false,"is_disabled":false,"rental_uris":{"android":"levelo://app?vid=ac22ea2e-ca36-45fa-b76e-9d6f8ec71e2b","ios":"levelo://app?vid=ac22ea2e-ca36-45fa-b76e-9d6f8ec71e2b"},"vehicle_type_id":"4","last_reported":1729840159,"current_range_meters":17200,"station_id":"ce4bgj92rcd13ifvqbe0","pricing_plan_id":"cebpf4jnsgd1na2vs0mg"},{"bike_id":"3225153f-a0c4-43c8-aff8-3d937d83550b","system_id":"levelo_inurba_marseille","lat":43.26791,"lon":5.39402,"is_reserved":false,"is_disabled":false,"rental_uris":{"android":"levelo://app?vid=3225153f-a0c4-43c8-aff8-3d937d83550b","ios":"levelo://app?vid=3225153f-a0c4-43c8-aff8-3d937d83550b"},"vehicle_type_id":"4","last_reported":1729840159,"current_range_meters":15200,"station_id":"ce4bhh12rcd13ifvqfg0","pricing_plan_id":"cebpf4jnsgd1na2vs0mg"},{"bike_id":"c186f7c2-311e-4766-8f3b-78065ddc0666","system_id":"levelo_inurba_marseille","lat":43.24179,"lon":5.39734,"is_reserved":false,"is_disabled":false,"rental_uris":{"android":"levelo://app?vid=c186f7c2-311e-4766-8f3b-78065ddc0666","ios":"levelo://app?vid=c186f7c2-311e-4766-8f3b-78065ddc0666"},"vehicle_type_id":"4","last_reported":1729840159,"current_range_meters":14000,"station_id":"ce4bhn12rcd13ifvqgpg","pricing_plan_id":"cebpf4jnsgd1na2vs0mg"},{"bike_id":"914f37c9-6d5c-456a-aab5-96f7f3fc1587","system_id":"levelo_inurba_marseille","lat":43.29974,"lon":5.38486,"is_reserved":false,"is_disabled":false,"rental_uris":{"android":"levelo://app?vid=914f37c9-6d5c-456a-aab5-96f7f3fc1587","ios":"levelo://app?vid=914f37c9-6d5c-456a-aab5-96f7f3fc1587"},"vehicle_type_id":"4","last_reported":1729840159,"current_range_meters":9200,"station_id":"ce4bgj92rcd13ifvqbd0","pricing_plan_id":"cebpf4jnsgd1na2vs0mg"},{"bike_id":"adb6c389-ce43-47b4-807d-369c494bed23","system_id":"levelo_inurba_marseille","lat":43.30805,"lon":5.38161,"is_reserved":false,"is_disabled":false,"rental_uris":{"android":"levelo://app?vid=adb6c389-ce43-47b4-807d-369c494bed23","ios":"levelo://app?vid=adb6c389-ce43-47b4-807d-369c494bed23"},"vehicle_type_id":"4","last_reported":1729840159,"current_range_meters":29600,"station_id":"ce4bgt12rcd13ifvqce0","pricing_plan_id":"cebpf4jnsgd1na2vs0mg"},{"bike_id":"66f020ae-5526-4ad0-8af9-6a968240ac52","system_id":"levelo_inurba_marseille","lat":43.32481,"lon":5.3657,"is_reserved":false,"is_disabled":false,"rental_uris":{"android":"levelo://app?vid=66f020ae-5526-4ad0-8af9-6a968240ac52","ios":"levelo://app?vid=66f020ae-5526-4ad0-8af9-6a968240ac52"},"vehicle_type_id":"4","last_reported":1729840159,"current_range_meters":38400,"station_id":"ce4bhs12rcd13ifvqhvg","pricing_plan_id":"cebpf4jnsgd1na2vs0mg"},{"bike_id":"6e490ada-941f-4a47-b70c-faae73b36f3c","system_id":"levelo_inurba_marseille","lat":43.24068,"lon":5.37757,"is_reserved":false,"is_disabled":false,"rental_uris":{"android":"levelo://app?vid=6e490ada-941f-4a47-b70c-faae73b36f3c","ios":"levelo://app?vid=6e490ada-941f-4a47-b70c-faae73b36f3c"},"vehicle_type_id":"4","last_reported":1729840159,"current_range_meters":28400,"station_id":"ce4bhnp2rcd13ifvqgvg","pricing_plan_id":"cebpf4jnsgd1na2vs0mg"},{"bike_id":"35e94745-dd9f-4662-a974-ea234f010053","system_id":"levelo_inurba_marseille","lat":43.31337,"lon":5.36739,"is_reserved":false,"is_disabled":false,"rental_uris":{"android":"levelo://app?vid=35e94745-dd9f-4662-a974-ea234f010053","ios":"levelo://app?vid=35e94745-dd9f-4662-a974-ea234f010053"},"vehicle_type_id":"4","last_reported":1729840159,"current_range_meters":38800,"station_id":"ce4bgr92rcd13ifvqc6g","pricing_plan_id":"cebpf4jnsgd1na2vs0mg"},{"bike_id":"97ec344c-b798-43c2-b569-284527c7dc58","system_id":"levelo_inurba_marseille","lat":43.32488,"lon":5.36499,"is_reserved":false,"is_disabled":false,"rental_uris":{"android":"levelo://app?vid=97ec344c-b798-43c2-b569-284527c7dc58","ios":"levelo://app?vid=97ec344c-b798-43c2-b569-284527c7dc58"},"vehicle_type_id":"4","last_reported":1729840159,"current_range_meters":4000,"station_id":"ce4bhs12rcd13ifvqhvg","pricing_plan_id":"cebpf4jnsgd1na2vs0mg"},{"bike_id":"1974fe5b-0655-4267-b118-61cf8dcb3b32","system_id":"levelo_inurba_marseille","lat":43.25935,"lon":5.4091,"is_reserved":false,"is_disabled":false,"rental_uris":{"android":"levelo://app?vid=1974fe5b-0655-4267-b118-61cf8dcb3b32","ios":"levelo://app?vid=1974fe5b-0655-4267-b118-61cf8dcb3b32"},"vehicle_type_id":"4","last_reported":1729840159,"current_range_meters":16000,"station_id":"ce4bhm92rcd13ifvqglg","pricing_plan_id":"cebpf4jnsgd1na2vs0mg"},{"bike_id":"d3555bab-c38c-46fd-aed6-e2f0a76a8716","system_id":"levelo_inurba_marseille","lat":43.27994,"lon":5.40019,"is_reserved":false,"is_disabled":false,"rental_uris":{"android":"levelo://app?vid=d3555bab-c38c-46fd-aed6-e2f0a76a8716","ios":"levelo://app?vid=d3555bab-c38c-46fd-aed6-e2f0a76a8716"},"vehicle_type_id":"4","last_reported":1729840159,"current_range_meters":36400,"station_id":"ce4bho92rcd13ifvqh4g","pricing_plan_id":"cebpf4jnsgd1na2vs0mg"},{"bike_id":"8b996ebd-e5bc-4805-afa9-9c243155b412","system_id":"levelo_inurba_marseille","lat":43.30463,"lon":5.37901,"is_reserved":false,"is_disabled":false,"rental_uris":{"android":"levelo://app?vid=8b996ebd-e5bc-4805-afa9-9c243155b412","ios":"levelo://app?vid=8b996ebd-e5bc-4805-afa9-9c243155b412"},"vehicle_type_id":"4","last_reported":1729840159,"current_range_meters":20000,"station_id":"ce4bgup2rcd13ifvqcn0","pricing_plan_id":"cebpf4jnsgd1na2vs0mg"},{"bike_id":"acbfb634-9458-4521-8d39-79b36fc061b2","system_id":"levelo_inurba_marseille","lat":43.31713,"lon":5.43704,"is_reserved":false,"is_disabled":false,"rental_uris":{"android":"levelo://app?vid=acbfb634-9458-4521-8d39-79b36fc061b2","ios":"levelo://app?vid=acbfb634-9458-4521-8d39-79b36fc061b2"},"vehicle_type_id":"4","last_reported":1729840159,"current_range_meters":38400,"station_id":"ce4bhp92rcd13ifvqhcg","pricing_plan_id":"cebpf4jnsgd1na2vs0mg"},{"bike_id":"86edebb0-a452-4519-8985-db568b9817e6","system_id":"levelo_inurba_marseille","lat":43.27312,"lon":5.39064,"is_reserved":false,"is_disabled":false,"rental_uris":{"android":"levelo://app?vid=86edebb0-a452-4519-8985-db568b9817e6","ios":"levelo://app?vid=86edebb0-a452-4519-8985-db568b9817e6"},"vehicle_type_id":"4","last_reported":1729840159,"current_range_meters":27200,"station_id":"ce4bhgp2rcd13ifvqfe0","pricing_plan_id":"cebpf4jnsgd1na2vs0mg"},{"bike_id":"f43eca4d-44f3-4c6b-b0aa-56d8b57fff23","system_id":"levelo_inurba_marseille","lat":43.23959,"lon":5.36635,"is_reserved":false,"is_disabled":false,"rental_uris":{"android":"levelo://app?vid=f43eca4d-44f3-4c6b-b0aa-56d8b57fff23","ios":"levelo://app?vid=f43eca4d-44f3-4c6b-b0aa-56d8b57fff23"},"vehicle_type_id":"4","last_reported":1729840159,"current_range_meters":19200,"station_id":"ce4bhi12rcd13ifvqfp0","pricing_plan_id":"cebpf4jnsgd1na2vs0mg"},{"bike_id":"0bc90dc2-cf8c-457e-a6aa-9b91de95f992","system_id":"levelo_inurba_marseille","lat":43.22758,"lon":5.41581,"is_reserved":false,"is_disabled":false,"rental_uris":{"android":"levelo://app?vid=0bc90dc2-cf8c-457e-a6aa-9b91de95f992","ios":"levelo://app?vid=0bc90dc2-cf8c-457e-a6aa-9b91de95f992"},"vehicle_type_id":"4","last_reported":1729840159,"current_range_meters":28800,"station_id":"","pricing_plan_id":"cebpf4jnsgd1na2vs0mg"},{"bike_id":"d51e70e3-e500-4ad8-afdb-77e572148b3c","system_id":"levelo_inurba_marseille","lat":43.30272,"lon":5.37717,"is_reserved":false,"is_disabled":false,"rental_uris":{"android":"levelo://app?vid=d51e70e3-e500-4ad8-afdb-77e572148b3c","ios":"levelo://app?vid=d51e70e3-e500-4ad8-afdb-77e572148b3c"},"vehicle_type_id":"4","last_reported":1729840159,"current_range_meters":38800,"station_id":"ce4bguh2rcd13ifvqcj0","pricing_plan_id":"cebpf4jnsgd1na2vs0mg"},{"bike_id":"242e2b6f-351c-49a1-9fe7-99584807f4dd","system_id":"levelo_inurba_marseille","lat":43.305115,"lon":5.380606,"is_reserved":false,"is_disabled":false,"rental_uris":{"android":"levelo://app?vid=242e2b6f-351c-49a1-9fe7-99584807f4dd","ios":"levelo://app?vid=242e2b6f-351c-49a1-9fe7-99584807f4dd"},"vehicle_type_id":"4","last_reported":1729840159,"current_range_meters":28400,"station_id":"ce4bgup2rcd13ifvqcn0","pricing_plan_id":"cebpf4jnsgd1na2vs0mg"},{"bike_id":"28709b84-b83d-46ed-8adb-237970d4384b","system_id":"levelo_inurba_marseille","lat":43.32362,"lon":5.38883,"is_reserved":false,"is_disabled":false,"rental_uris":{"android":"levelo://app?vid=28709b84-b83d-46ed-8adb-237970d4384b","ios":"levelo://app?vid=28709b84-b83d-46ed-8adb-237970d4384b"},"vehicle_type_id":"4","last_reported":1729840159,"current_range_meters":28000,"station_id":"ce4bhqp2rcd13ifvqhog","pricing_plan_id":"cebpf4jnsgd1na2vs0mg"},{"bike_id":"50c8a772-6872-4b66-ae9d-2ac5f0bc9e2c","system_id":"levelo_inurba_marseille","lat":43.290038,"lon":5.387703,"is_reserved":false,"is_disabled":false,"rental_uris":{"android":"levelo://app?vid=50c8a772-6872-4b66-ae9d-2ac5f0bc9e2c","ios":"levelo://app?vid=50c8a772-6872-4b66-ae9d-2ac5f0bc9e2c"},"vehicle_type_id":"4","last_reported":1729840159,"current_range_meters":30400,"station_id":"","pricing_plan_id":"cebpf4jnsgd1na2vs0mg"},{"bike_id":"68de667e-134c-4385-ab76-510b0aa21c20","system_id":"levelo_inurba_marseille","lat":43.25933,"lon":5.40914,"is_reserved":false,"is_disabled":false,"rental_uris":{"android":"levelo://app?vid=68de667e-134c-4385-ab76-510b0aa21c20","ios":"levelo://app?vid=68de667e-134c-4385-ab76-510b0aa21c20"},"vehicle_type_id":"4","last_reported":1729840159,"current_range_meters":27600,"station_id":"ce4bhm92rcd13ifvqglg","pricing_plan_id":"cebpf4jnsgd1na2vs0mg"},{"bike_id":"3d814bc8-7cde-42dc-be31-b3ae59f20bd8","system_id":"levelo_inurba_marseille","lat":43.30813,"lon":5.39653,"is_reserved":false,"is_disabled":false,"rental_uris":{"android":"levelo://app?vid=3d814bc8-7cde-42dc-be31-b3ae59f20bd8","ios":"levelo://app?vid=3d814bc8-7cde-42dc-be31-b3ae59f20bd8"},"vehicle_type_id":"4","last_reported":1729840159,"current_range_meters":30000,"station_id":"","pricing_plan_id":"cebpf4jnsgd1na2vs0mg"},{"bike_id":"106ffd58-5ff3-4239-b573-ce3a7d8e7a52","system_id":"levelo_inurba_marseille","lat":43.30544,"lon":5.36542,"is_reserved":false,"is_disabled":false,"rental_uris":{"android":"levelo://app?vid=106ffd58-5ff3-4239-b573-ce3a7d8e7a52","ios":"levelo://app?vid=106ffd58-5ff3-4239-b573-ce3a7d8e7a52"},"vehicle_type_id":"4","last_reported":1729840159,"current_range_meters":34000,"station_id":"ce4bgs12rcd13ifvqcag","pricing_plan_id":"cebpf4jnsgd1na2vs0mg"},{"bike_id":"ce42fb7a-0448-4758-8a74-e9e6ef4991ec","system_id":"levelo_inurba_marseille","lat":43.30346,"lon":5.4188,"is_reserved":false,"is_disabled":false,"rental_uris":{"android":"levelo://app?vid=ce42fb7a-0448-4758-8a74-e9e6ef4991ec","ios":"levelo://app?vid=ce42fb7a-0448-4758-8a74-e9e6ef4991ec"},"vehicle_type_id":"4","last_reported":1729840159,"current_range_meters":39200,"station_id":"ce4bhop2rcd13ifvqh7g","pricing_plan_id":"cebpf4jnsgd1na2vs0mg"},{"bike_id":"b56e21ab-14c0-4c6c-af8d-b6c5222088d4","system_id":"levelo_inurba_marseille","lat":43.27816,"lon":5.40712,"is_reserved":false,"is_disabled":false,"rental_uris":{"android":"levelo://app?vid=b56e21ab-14c0-4c6c-af8d-b6c5222088d4","ios":"levelo://app?vid=b56e21ab-14c0-4c6c-af8d-b6c5222088d4"},"vehicle_type_id":"4","last_reported":1729840159,"current_range_meters":30000,"station_id":"ce4bhnh2rcd13ifvqgtg","pricing_plan_id":"cebpf4jnsgd1na2vs0mg"},{"bike_id":"8d64d039-8499-4924-bb9c-e311b41b1d9a","system_id":"levelo_inurba_marseille","lat":43.24804,"lon":5.37455,"is_reserved":false,"is_disabled":false,"rental_uris":{"android":"levelo://app?vid=8d64d039-8499-4924-bb9c-e311b41b1d9a","ios":"levelo://app?vid=8d64d039-8499-4924-bb9c-e311b41b1d9a"},"vehicle_type_id":"4","last_reported":1729840159,"current_range_meters":5600,"station_id":"ce4bhgh2rcd13ifvqfb0","pricing_plan_id":"cebpf4jnsgd1na2vs0mg"},{"bike_id":"74b0157a-10c7-4408-bb54-25c4d5773769","system_id":"levelo_inurba_marseille","lat":43.26063,"lon":5.39398,"is_reserved":false,"is_disabled":false,"rental_uris":{"android":"levelo://app?vid=74b0157a-10c7-4408-bb54-25c4d5773769","ios":"levelo://app?vid=74b0157a-10c7-4408-bb54-25c4d5773769"},"vehicle_type_id":"4","last_reported":1729840159,"current_range_meters":30000,"station_id":"ce4bhh92rcd13ifvqfj0","pricing_plan_id":"cebpf4jnsgd1na2vs0mg"},{"bike_id":"190b49ac-2174-4a94-a43b-6781438b16a5","system_id":"levelo_inurba_marseille","lat":43.255341,"lon":5.376641,"is_reserved":false,"is_disabled":false,"rental_uris":{"android":"levelo://app?vid=190b49ac-2174-4a94-a43b-6781438b16a5","ios":"levelo://app?vid=190b49ac-2174-4a94-a43b-6781438b16a5"},"vehicle_type_id":"4","last_reported":1729840159,"current_range_meters":37600,"station_id":"ce4bhgh2rcd13ifvqfa0","pricing_plan_id":"cebpf4jnsgd1na2vs0mg"},{"bike_id":"467bfdb6-1722-469c-9a5e-479cb9b4e1b6","system_id":"levelo_inurba_marseille","lat":43.26686,"lon":5.38274,"is_reserved":false,"is_disabled":false,"rental_uris":{"android":"levelo://app?vid=467bfdb6-1722-469c-9a5e-479cb9b4e1b6","ios":"levelo://app?vid=467bfdb6-1722-469c-9a5e-479cb9b4e1b6"},"vehicle_type_id":"4","last_reported":1729840159,"current_range_meters":25200,"station_id":"ce4bhg92rcd13ifvqf90","pricing_plan_id":"cebpf4jnsgd1na2vs0mg"},{"bike_id":"17ad3bb5-ab52-4c02-a2a4-2d9bb28cbe53","system_id":"levelo_inurba_marseille","lat":43.27808,"lon":5.40698,"is_reserved":false,"is_disabled":false,"rental_uris":{"android":"levelo://app?vid=17ad3bb5-ab52-4c02-a2a4-2d9bb28cbe53","ios":"levelo://app?vid=17ad3bb5-ab52-4c02-a2a4-2d9bb28cbe53"},"vehicle_type_id":"4","last_reported":1729840159,"current_range_meters":38800,"station_id":"ce4bhnh2rcd13ifvqgtg","pricing_plan_id":"cebpf4jnsgd1na2vs0mg"},{"bike_id":"e91eb569-f3bc-43c8-8402-304dbfb4d472","system_id":"levelo_inurba_marseille","lat":43.27952,"lon":5.41047,"is_reserved":false,"is_disabled":false,"rental_uris":{"android":"levelo://app?vid=e91eb569-f3bc-43c8-8402-304dbfb4d472","ios":"levelo://app?vid=e91eb569-f3bc-43c8-8402-304dbfb4d472"},"vehicle_type_id":"4","last_reported":1729840159,"current_range_meters":18000,"station_id":"ce4bhnp2rcd13ifvqh0g","pricing_plan_id":"cebpf4jnsgd1na2vs0mg"},{"bike_id":"dbe7d56b-0387-4a36-8904-84006cd30d43","system_id":"levelo_inurba_marseille","lat":43.30603,"lon":5.37229,"is_reserved":false,"is_disabled":false,"rental_uris":{"android":"levelo://app?vid=dbe7d56b-0387-4a36-8904-84006cd30d43","ios":"levelo://app?vid=dbe7d56b-0387-4a36-8904-84006cd30d43"},"vehicle_type_id":"4","last_reported":1729840159,"current_range_meters":38400,"station_id":"ce4bgqh2rcd13ifvqc4g","pricing_plan_id":"cebpf4jnsgd1na2vs0mg"},{"bike_id":"5becc3d6-1fdf-4db1-9b27-79a3ef6efc90","system_id":"levelo_inurba_marseille","lat":43.24668,"lon":5.38158,"is_reserved":false,"is_disabled":false,"rental_uris":{"android":"levelo://app?vid=5becc3d6-1fdf-4db1-9b27-79a3ef6efc90","ios":"levelo://app?vid=5becc3d6-1fdf-4db1-9b27-79a3ef6efc90"},"vehicle_type_id":"4","last_reported":1729840159,"current_range_meters":26800,"station_id":"ce4bhih2rcd13ifvqfr0","pricing_plan_id":"cebpf4jnsgd1na2vs0mg"},{"bike_id":"e2959369-56e3-468a-bf79-a332235fca81","system_id":"levelo_inurba_marseille","lat":43.30466,"lon":5.37907,"is_reserved":false,"is_disabled":false,"rental_uris":{"android":"levelo://app?vid=e2959369-56e3-468a-bf79-a332235fca81","ios":"levelo://app?vid=e2959369-56e3-468a-bf79-a332235fca81"},"vehicle_type_id":"4","last_reported":1729840159,"current_range_meters":32400,"station_id":"ce4bgup2rcd13ifvqcn0","pricing_plan_id":"cebpf4jnsgd1na2vs0mg"},{"bike_id":"36856ec2-b80b-4ae8-abff-10088c18f7e8","system_id":"levelo_inurba_marseille","lat":43.24159,"lon":5.36404,"is_reserved":false,"is_disabled":false,"rental_uris":{"android":"levelo://app?vid=36856ec2-b80b-4ae8-abff-10088c18f7e8","ios":"levelo://app?vid=36856ec2-b80b-4ae8-abff-10088c18f7e8"},"vehicle_type_id":"4","last_reported":1729840159,"current_range_meters":37600,"station_id":"cpo36qri1sfpv3e86is0","pricing_plan_id":"cebpf4jnsgd1na2vs0mg"},{"bike_id":"d2b4a30c-fa04-4d83-8504-421bcece3b1e","system_id":"levelo_inurba_marseille","lat":43.3089,"lon":5.37206,"is_reserved":false,"is_disabled":false,"rental_uris":{"android":"levelo://app?vid=d2b4a30c-fa04-4d83-8504-421bcece3b1e","ios":"levelo://app?vid=d2b4a30c-fa04-4d83-8504-421bcece3b1e"},"vehicle_type_id":"4","last_reported":1729840159,"current_range_meters":28400,"station_id":"ce4bguh2rcd13ifvqckg","pricing_plan_id":"cebpf4jnsgd1na2vs0mg"},{"bike_id":"bd995abb-12e7-47a6-b0b9-e1f25439576a","system_id":"levelo_inurba_marseille","lat":43.24998,"lon":5.38924,"is_reserved":false,"is_disabled":false,"rental_uris":{"android":"levelo://app?vid=bd995abb-12e7-47a6-b0b9-e1f25439576a","ios":"levelo://app?vid=bd995abb-12e7-47a6-b0b9-e1f25439576a"},"vehicle_type_id":"4","last_reported":1729840159,"current_range_meters":38800,"station_id":"ce4bhgp2rcd13ifvqfd0","pricing_plan_id":"cebpf4jnsgd1na2vs0mg"},{"bike_id":"0cbc4cd9-2893-4f16-b74a-94bf63a59069","system_id":"levelo_inurba_marseille","lat":43.30538,"lon":5.36553,"is_reserved":false,"is_disabled":false,"rental_uris":{"android":"levelo://app?vid=0cbc4cd9-2893-4f16-b74a-94bf63a59069","ios":"levelo://app?vid=0cbc4cd9-2893-4f16-b74a-94bf63a59069"},"vehicle_type_id":"4","last_reported":1729840159,"current_range_meters":25200,"station_id":"ce4bgs12rcd13ifvqcag","pricing_plan_id":"cebpf4jnsgd1na2vs0mg"},{"bike_id":"031c5151-6166-4e35-88c9-9b4ea040f799","system_id":"levelo_inurba_marseille","lat":43.30807,"lon":5.38154,"is_reserved":false,"is_disabled":false,"rental_uris":{"android":"levelo://app?vid=031c5151-6166-4e35-88c9-9b4ea040f799","ios":"levelo://app?vid=031c5151-6166-4e35-88c9-9b4ea040f799"},"vehicle_type_id":"4","last_reported":1729840159,"current_range_meters":38000,"station_id":"ce4bgt12rcd13ifvqce0","pricing_plan_id":"cebpf4jnsgd1na2vs0mg"},{"bike_id":"2381df3a-d355-4ff9-b588-78de0fa38e7c","system_id":"levelo_inurba_marseille","lat":43.337444,"lon":5.374475,"is_reserved":false,"is_disabled":false,"rental_uris":{"android":"levelo://app?vid=2381df3a-d355-4ff9-b588-78de0fa38e7c","ios":"levelo://app?vid=2381df3a-d355-4ff9-b588-78de0fa38e7c"},"vehicle_type_id":"4","last_reported":1729840159,"current_range_meters":38800,"station_id":"","pricing_plan_id":"cebpf4jnsgd1na2vs0mg"},{"bike_id":"27d97e0a-a2f3-405d-912c-107eee42a99c","system_id":"levelo_inurba_marseille","lat":43.26955,"lon":5.38631,"is_reserved":false,"is_disabled":false,"rental_uris":{"android":"levelo://app?vid=27d97e0a-a2f3-405d-912c-107eee42a99c","ios":"levelo://app?vid=27d97e0a-a2f3-405d-912c-107eee42a99c"},"vehicle_type_id":"4","last_reported":1729840159,"current_range_meters":26000,"station_id":"ce4bhh92rcd13ifvqfh0","pricing_plan_id":"cebpf4jnsgd1na2vs0mg"},{"bike_id":"fd3153b1-9559-4f83-b6a2-f6409a04cdfe","system_id":"levelo_inurba_marseille","lat":43.29906,"lon":5.38145,"is_reserved":false,"is_disabled":false,"rental_uris":{"android":"levelo://app?vid=fd3153b1-9559-4f83-b6a2-f6409a04cdfe","ios":"levelo://app?vid=fd3153b1-9559-4f83-b6a2-f6409a04cdfe"},"vehicle_type_id":"4","last_reported":1729840159,"current_range_meters":38800,"station_id":"ce4bgj12rcd13ifvqbc0","pricing_plan_id":"cebpf4jnsgd1na2vs0mg"},{"bike_id":"365a5e76-e012-4983-b8a9-1a07480bde83","system_id":"levelo_inurba_marseille","lat":43.23192,"lon":5.35548,"is_reserved":false,"is_disabled":false,"rental_uris":{"android":"levelo://app?vid=365a5e76-e012-4983-b8a9-1a07480bde83","ios":"levelo://app?vid=365a5e76-e012-4983-b8a9-1a07480bde83"},"vehicle_type_id":"4","last_reported":1729840159,"current_range_meters":38800,"station_id":"ce4bhu92rcd13ifvqi70","pricing_plan_id":"cebpf4jnsgd1na2vs0mg"},{"bike_id":"176c2bd2-7d0c-4278-833a-48f82a51f6ca","system_id":"levelo_inurba_marseille","lat":43.262,"lon":5.37935,"is_reserved":false,"is_disabled":false,"rental_uris":{"android":"levelo://app?vid=176c2bd2-7d0c-4278-833a-48f82a51f6ca","ios":"levelo://app?vid=176c2bd2-7d0c-4278-833a-48f82a51f6ca"},"vehicle_type_id":"4","last_reported":1729840159,"current_range_meters":38000,"station_id":"ce4bhjp2rcd13ifvqg90","pricing_plan_id":"cebpf4jnsgd1na2vs0mg"},{"bike_id":"6feb7ded-3bea-4297-b3d7-056a1104c816","system_id":"levelo_inurba_marseille","lat":43.3311,"lon":5.38215,"is_reserved":false,"is_disabled":false,"rental_uris":{"android":"levelo://app?vid=6feb7ded-3bea-4297-b3d7-056a1104c816","ios":"levelo://app?vid=6feb7ded-3bea-4297-b3d7-056a1104c816"},"vehicle_type_id":"4","last_reported":1729840159,"current_range_meters":32400,"station_id":"","pricing_plan_id":"cebpf4jnsgd1na2vs0mg"},{"bike_id":"3ed821f3-cfc4-488c-b7de-280e69521fee","system_id":"levelo_inurba_marseille","lat":43.276295,"lon":5.361011,"is_reserved":false,"is_disabled":false,"rental_uris":{"android":"levelo://app?vid=3ed821f3-cfc4-488c-b7de-280e69521fee","ios":"levelo://app?vid=3ed821f3-cfc4-488c-b7de-280e69521fee"},"vehicle_type_id":"4","last_reported":1729840159,"current_range_meters":38800,"station_id":"ce4bgj92rcd13ifvqbe0","pricing_plan_id":"cebpf4jnsgd1na2vs0mg"},{"bike_id":"528837cf-a3a7-4bc4-9410-12ac8c9d43f4","system_id":"levelo_inurba_marseille","lat":43.29032,"lon":5.39982,"is_reserved":false,"is_disabled":false,"rental_uris":{"android":"levelo://app?vid=528837cf-a3a7-4bc4-9410-12ac8c9d43f4","ios":"levelo://app?vid=528837cf-a3a7-4bc4-9410-12ac8c9d43f4"},"vehicle_type_id":"4","last_reported":1729840159,"current_range_meters":38800,"station_id":"ce4bh392rcd13ifvqdm0","pricing_plan_id":"cebpf4jnsgd1na2vs0mg"},{"bike_id":"6a79141b-22c2-4f73-9d7a-ee7148ee1bbf","system_id":"levelo_inurba_marseille","lat":43.24545,"lon":5.3952,"is_reserved":false,"is_disabled":false,"rental_uris":{"android":"levelo://app?vid=6a79141b-22c2-4f73-9d7a-ee7148ee1bbf","ios":"levelo://app?vid=6a79141b-22c2-4f73-9d7a-ee7148ee1bbf"},"vehicle_type_id":"4","last_reported":1729840159,"current_range_meters":36800,"station_id":"ce4bhlp2rcd13ifvqgjg","pricing_plan_id":"cebpf4jnsgd1na2vs0mg"},{"bike_id":"ffaf6d1c-64f9-4c62-bbf1-b08f3ad9a305","system_id":"levelo_inurba_marseille","lat":43.33741,"lon":5.37436,"is_reserved":false,"is_disabled":false,"rental_uris":{"android":"levelo://app?vid=ffaf6d1c-64f9-4c62-bbf1-b08f3ad9a305","ios":"levelo://app?vid=ffaf6d1c-64f9-4c62-bbf1-b08f3ad9a305"},"vehicle_type_id":"4","last_reported":1729840159,"current_range_meters":19600,"station_id":"","pricing_plan_id":"cebpf4jnsgd1na2vs0mg"},{"bike_id":"762c6d21-bc78-4a52-9810-72ccbbfb0132","system_id":"levelo_inurba_marseille","lat":43.23154,"lon":5.4372,"is_reserved":false,"is_disabled":false,"rental_uris":{"android":"levelo://app?vid=762c6d21-bc78-4a52-9810-72ccbbfb0132","ios":"levelo://app?vid=762c6d21-bc78-4a52-9810-72ccbbfb0132"},"vehicle_type_id":"4","last_reported":1729840159,"current_range_meters":32800,"station_id":"ce4bhmp2rcd13ifvqgog","pricing_plan_id":"cebpf4jnsgd1na2vs0mg"},{"bike_id":"a9439cd1-ab91-4240-9638-f44040b4f85e","system_id":"levelo_inurba_marseille","lat":43.30316,"lon":5.36903,"is_reserved":false,"is_disabled":false,"rental_uris":{"android":"levelo://app?vid=a9439cd1-ab91-4240-9638-f44040b4f85e","ios":"levelo://app?vid=a9439cd1-ab91-4240-9638-f44040b4f85e"},"vehicle_type_id":"4","last_reported":1729840159,"current_range_meters":38800,"station_id":"ce4bgqh2rcd13ifvqc5g","pricing_plan_id":"cebpf4jnsgd1na2vs0mg"},{"bike_id":"9c6fc028-3986-41cc-bf02-716316e6edd0","system_id":"levelo_inurba_marseille","lat":43.30889,"lon":5.37206,"is_reserved":false,"is_disabled":false,"rental_uris":{"android":"levelo://app?vid=9c6fc028-3986-41cc-bf02-716316e6edd0","ios":"levelo://app?vid=9c6fc028-3986-41cc-bf02-716316e6edd0"},"vehicle_type_id":"4","last_reported":1729840159,"current_range_meters":34800,"station_id":"ce4bguh2rcd13ifvqckg","pricing_plan_id":"cebpf4jnsgd1na2vs0mg"},{"bike_id":"5eead13a-2928-4150-ac73-27fc7427cc48","system_id":"levelo_inurba_marseille","lat":43.29894,"lon":5.43664,"is_reserved":false,"is_disabled":false,"rental_uris":{"android":"levelo://app?vid=5eead13a-2928-4150-ac73-27fc7427cc48","ios":"levelo://app?vid=5eead13a-2928-4150-ac73-27fc7427cc48"},"vehicle_type_id":"4","last_reported":1729840159,"current_range_meters":38800,"station_id":"ce4bhpp2rcd13ifvqhfg","pricing_plan_id":"cebpf4jnsgd1na2vs0mg"},{"bike_id":"bd0fb11c-81e7-45db-a3bb-7471afbb37a6","system_id":"levelo_inurba_marseille","lat":43.305395,"lon":5.384287,"is_reserved":false,"is_disabled":false,"rental_uris":{"android":"levelo://app?vid=bd0fb11c-81e7-45db-a3bb-7471afbb37a6","ios":"levelo://app?vid=bd0fb11c-81e7-45db-a3bb-7471afbb37a6"},"vehicle_type_id":"4","last_reported":1729840159,"current_range_meters":34000,"station_id":"ce4bgg92rcd13ifvqb30","pricing_plan_id":"cebpf4jnsgd1na2vs0mg"},{"bike_id":"266032e5-4ead-4d6d-aea4-28df77f94f28","system_id":"levelo_inurba_marseille","lat":43.2898,"lon":5.3784,"is_reserved":false,"is_disabled":false,"rental_uris":{"android":"levelo://app?vid=266032e5-4ead-4d6d-aea4-28df77f94f28","ios":"levelo://app?vid=266032e5-4ead-4d6d-aea4-28df77f94f28"},"vehicle_type_id":"4","last_reported":1729840159,"current_range_meters":30000,"station_id":"ce4bh9p2rcd13ifvqed0","pricing_plan_id":"cebpf4jnsgd1na2vs0mg"},{"bike_id":"9aa99984-3aab-4a38-a014-145c49eab468","system_id":"levelo_inurba_marseille","lat":43.24654,"lon":5.389,"is_reserved":false,"is_disabled":false,"rental_uris":{"android":"levelo://app?vid=9aa99984-3aab-4a38-a014-145c49eab468","ios":"levelo://app?vid=9aa99984-3aab-4a38-a014-145c49eab468"},"vehicle_type_id":"4","last_reported":1729840159,"current_range_meters":39200,"station_id":"ce4bhg12rcd13ifvqf60","pricing_plan_id":"cebpf4jnsgd1na2vs0mg"},{"bike_id":"3e951bfc-91bd-40b3-aeba-1ebdba43879e","system_id":"levelo_inurba_marseille","lat":43.32661,"lon":5.40995,"is_reserved":false,"is_disabled":false,"rental_uris":{"android":"levelo://app?vid=3e951bfc-91bd-40b3-aeba-1ebdba43879e","ios":"levelo://app?vid=3e951bfc-91bd-40b3-aeba-1ebdba43879e"},"vehicle_type_id":"4","last_reported":1729840159,"current_range_meters":37600,"station_id":"ce4bhpp2rcd13ifvqhgg","pricing_plan_id":"cebpf4jnsgd1na2vs0mg"},{"bike_id":"e904e637-1f85-408b-9a24-d59e84bb657c","system_id":"levelo_inurba_marseille","lat":43.2993,"lon":5.365485,"is_reserved":false,"is_disabled":false,"rental_uris":{"android":"levelo://app?vid=e904e637-1f85-408b-9a24-d59e84bb657c","ios":"levelo://app?vid=e904e637-1f85-408b-9a24-d59e84bb657c"},"vehicle_type_id":"4","last_reported":1729840159,"current_range_meters":26800,"station_id":"ce4bguh2rcd13ifvqcj0","pricing_plan_id":"cebpf4jnsgd1na2vs0mg"},{"bike_id":"7c1e729b-7c6a-4f7f-87cd-db2dd498acc3","system_id":"levelo_inurba_marseille","lat":43.25937,"lon":5.40902,"is_reserved":false,"is_disabled":false,"rental_uris":{"android":"levelo://app?vid=7c1e729b-7c6a-4f7f-87cd-db2dd498acc3","ios":"levelo://app?vid=7c1e729b-7c6a-4f7f-87cd-db2dd498acc3"},"vehicle_type_id":"4","last_reported":1729840159,"current_range_meters":22800,"station_id":"ce4bhm92rcd13ifvqglg","pricing_plan_id":"cebpf4jnsgd1na2vs0mg"},{"bike_id":"3d842674-b26d-4bd1-8c29-6b56ea1a1f40","system_id":"levelo_inurba_marseille","lat":43.24995,"lon":5.38939,"is_reserved":false,"is_disabled":false,"rental_uris":{"android":"levelo://app?vid=3d842674-b26d-4bd1-8c29-6b56ea1a1f40","ios":"levelo://app?vid=3d842674-b26d-4bd1-8c29-6b56ea1a1f40"},"vehicle_type_id":"4","last_reported":1729840159,"current_range_meters":26000,"station_id":"ce4bhgp2rcd13ifvqfd0","pricing_plan_id":"cebpf4jnsgd1na2vs0mg"},{"bike_id":"4edd932e-9306-425f-b341-6a63750e98d7","system_id":"levelo_inurba_marseille","lat":43.29841,"lon":5.36267,"is_reserved":false,"is_disabled":false,"rental_uris":{"android":"levelo://app?vid=4edd932e-9306-425f-b341-6a63750e98d7","ios":"levelo://app?vid=4edd932e-9306-425f-b341-6a63750e98d7"},"vehicle_type_id":"4","last_reported":1729840159,"current_range_meters":36400,"station_id":"ce4bgpp2rcd13ifvqc3g","pricing_plan_id":"cebpf4jnsgd1na2vs0mg"},{"bike_id":"72cbc412-7015-4c66-9e17-440625c27b17","system_id":"levelo_inurba_marseille","lat":43.30537,"lon":5.36723,"is_reserved":false,"is_disabled":false,"rental_uris":{"android":"levelo://app?vid=72cbc412-7015-4c66-9e17-440625c27b17","ios":"levelo://app?vid=72cbc412-7015-4c66-9e17-440625c27b17"},"vehicle_type_id":"4","last_reported":1729840159,"current_range_meters":38800,"station_id":"ce4bgrp2rcd13ifvqc9g","pricing_plan_id":"cebpf4jnsgd1na2vs0mg"},{"bike_id":"64b170f8-2500-48ef-96a3-25f7c0707542","system_id":"levelo_inurba_marseille","lat":43.337444,"lon":5.374475,"is_reserved":false,"is_disabled":false,"rental_uris":{"android":"levelo://app?vid=64b170f8-2500-48ef-96a3-25f7c0707542","ios":"levelo://app?vid=64b170f8-2500-48ef-96a3-25f7c0707542"},"vehicle_type_id":"4","last_reported":1729840159,"current_range_meters":3600,"station_id":"","pricing_plan_id":"cebpf4jnsgd1na2vs0mg"},{"bike_id":"89f5781e-f020-44c4-9544-3d5b1aa72850","system_id":"levelo_inurba_marseille","lat":43.23189,"lon":5.35554,"is_reserved":false,"is_disabled":false,"rental_uris":{"android":"levelo://app?vid=89f5781e-f020-44c4-9544-3d5b1aa72850","ios":"levelo://app?vid=89f5781e-f020-44c4-9544-3d5b1aa72850"},"vehicle_type_id":"4","last_reported":1729840159,"current_range_meters":6000,"station_id":"ce4bhu92rcd13ifvqi70","pricing_plan_id":"cebpf4jnsgd1na2vs0mg"},{"bike_id":"4f409860-e0f7-4877-99ee-a24fed7f0e97","system_id":"levelo_inurba_marseille","lat":43.27813,"lon":5.4072,"is_reserved":false,"is_disabled":false,"rental_uris":{"android":"levelo://app?vid=4f409860-e0f7-4877-99ee-a24fed7f0e97","ios":"levelo://app?vid=4f409860-e0f7-4877-99ee-a24fed7f0e97"},"vehicle_type_id":"4","last_reported":1729840159,"current_range_meters":32000,"station_id":"ce4bhnh2rcd13ifvqgtg","pricing_plan_id":"cebpf4jnsgd1na2vs0mg"},{"bike_id":"0fb4f9ac-cb1a-41d4-85b6-60647cbc8ad3","system_id":"levelo_inurba_marseille","lat":43.26056,"lon":5.394,"is_reserved":false,"is_disabled":false,"rental_uris":{"android":"levelo://app?vid=0fb4f9ac-cb1a-41d4-85b6-60647cbc8ad3","ios":"levelo://app?vid=0fb4f9ac-cb1a-41d4-85b6-60647cbc8ad3"},"vehicle_type_id":"4","last_reported":1729840159,"current_range_meters":25200,"station_id":"ce4bhh92rcd13ifvqfj0","pricing_plan_id":"cebpf4jnsgd1na2vs0mg"},{"bike_id":"cee22803-ce06-46d4-9459-1c99b39ae45b","system_id":"levelo_inurba_marseille","lat":43.28669,"lon":5.36351,"is_reserved":false,"is_disabled":false,"rental_uris":{"android":"levelo://app?vid=cee22803-ce06-46d4-9459-1c99b39ae45b","ios":"levelo://app?vid=cee22803-ce06-46d4-9459-1c99b39ae45b"},"vehicle_type_id":"4","last_reported":1729840159,"current_range_meters":32000,"station_id":"ce4bh9p2rcd13ifvqed0","pricing_plan_id":"cebpf4jnsgd1na2vs0mg"},{"bike_id":"4ca8ad0a-be09-4f84-b34a-80128b20764b","system_id":"levelo_inurba_marseille","lat":43.3027,"lon":5.37703,"is_reserved":false,"is_disabled":false,"rental_uris":{"android":"levelo://app?vid=4ca8ad0a-be09-4f84-b34a-80128b20764b","ios":"levelo://app?vid=4ca8ad0a-be09-4f84-b34a-80128b20764b"},"vehicle_type_id":"4","last_reported":1729840159,"current_range_meters":32800,"station_id":"ce4bguh2rcd13ifvqcj0","pricing_plan_id":"cebpf4jnsgd1na2vs0mg"},{"bike_id":"d9871c2e-a68c-438b-bfa0-b90156332a49","system_id":"levelo_inurba_marseille","lat":43.30547,"lon":5.36709,"is_reserved":false,"is_disabled":false,"rental_uris":{"android":"levelo://app?vid=d9871c2e-a68c-438b-bfa0-b90156332a49","ios":"levelo://app?vid=d9871c2e-a68c-438b-bfa0-b90156332a49"},"vehicle_type_id":"4","last_reported":1729840159,"current_range_meters":38800,"station_id":"ce4bgrp2rcd13ifvqc9g","pricing_plan_id":"cebpf4jnsgd1na2vs0mg"},{"bike_id":"b37a0ae1-907f-412d-8e1a-06a9de441401","system_id":"levelo_inurba_marseille","lat":43.25085,"lon":5.39519,"is_reserved":false,"is_disabled":false,"rental_uris":{"android":"levelo://app?vid=b37a0ae1-907f-412d-8e1a-06a9de441401","ios":"levelo://app?vid=b37a0ae1-907f-412d-8e1a-06a9de441401"},"vehicle_type_id":"4","last_reported":1729840159,"current_range_meters":39200,"station_id":"ce4bhm12rcd13ifvqgkg","pricing_plan_id":"cebpf4jnsgd1na2vs0mg"},{"bike_id":"7cdccd31-3ed2-4fe1-904c-94c608b39e03","system_id":"levelo_inurba_marseille","lat":43.3047,"lon":5.37905,"is_reserved":false,"is_disabled":false,"rental_uris":{"android":"levelo://app?vid=7cdccd31-3ed2-4fe1-904c-94c608b39e03","ios":"levelo://app?vid=7cdccd31-3ed2-4fe1-904c-94c608b39e03"},"vehicle_type_id":"4","last_reported":1729840159,"current_range_meters":38400,"station_id":"ce4bgup2rcd13ifvqcn0","pricing_plan_id":"cebpf4jnsgd1na2vs0mg"},