{"last_updated":1738577400,"ttl":60,"version":"2.2","data":{"bikes":[{"bike_id":"6c72bed7-a751-4d80-a54f-c22fcbc133d2","system_id":"levelo_inurba_marseille","lat":43.25108,"lon":5.40371,"is_reserved":false,"is_disabled":false,"rental_uris":{"android":"levelo://app?vid=6c72bed7-a751-4d80-a54f-c22fcbc133d2","ios":"levelo://app?vid=6c72bed7-a751-4d80-a54f-c22fcbc133d2"},"vehicle_type_id":"4","last_reported":1738577401,"current_range_meters":38800,"station_id":"ce4bhlh2rcd13ifvqgig","pricing_plan_id":"cebpf4jnsgd1na2vs0mg"},{"bike_id":"286f5565-2175-45e6-9177-d5bca6e21a5a","system_id":"levelo_inurba_marseille","lat":43.28706,"lon":5.37402,"is_reserved":false,"is_disabled":false,"rental_uris":{"android":"levelo://app?vid=286f5565-2175-45e6-9177-d5bca6e21a5a","ios":"levelo://app?vid=286f5565-2175-45e6-9177-d5bca6e21a5a"},"vehicle_type_id":"4","last_reported":1738577401,"current_range_meters":20400,"station_id":"ce4bh3p2rcd13ifvqdq0","pricing_plan_id":"cebpf4jnsgd1na2vs0mg"},{"bike_id":"5b21e919-93fa-4606-b961-3c44b7d40637","system_id":"levelo_inurba_marseille","lat":43.29908,"lon":5.38146,"is_reserved":false,"is_disabled":false,"rental_uris":{"android":"levelo://app?vid=5b21e919-93fa-4606-b961-3c44b7d40637","ios":"levelo://app?vid=5b21e919-93fa-4606-b961-3c44b7d40637"},"vehicle_type_id":"4","last_reported":1738577401,"current_range_meters":18000,"station_id":"ce4bgj12rcd13ifvqbc0","pricing_plan_id":"cebpf4jnsgd1na2vs0mg"},{"bike_id":"28f2ee39-c342-4264-9aba-b44edbff64ff","system_id":"levelo_inurba_marseille","lat":43.24056,"lon":5.37741,"is_reserved":false,"is_disabled":false,"rental_uris":{"android":"levelo://app?vid=28f2ee39-c342-4264-9aba-b44edbff64ff","ios":"levelo://app?vid=28f2ee39-c342-4264-9aba-b44edbff64ff"},"vehicle_type_id":"4","last_reported":1738577401,"current_range_meters":38800,"station_id":"ce4bhnp2rcd13ifvqgvg","pricing_plan_id":"cebpf4jnsgd1na2vs0mg"},{"bike_id":"7287fe21-ddad-472b-a0d0-7734ba2d3fc8","system_id":"levelo_inurba_marseille","lat":43.30174,"lon":5.3807,"is_reserved":false,"is_disabled":false,"rental_uris":{"android":"levelo://app?vid=7287fe21-ddad-472b-a0d0-7734ba2d3fc8","ios":"levelo://app?vid=7287fe21-ddad-472b-a0d0-7734ba2d3fc8"},"vehicle_type_id":"4","last_reported":1738577401,"current_range_meters":39200,"station_id":"ce4bgjp2rcd13ifvqbh0","pricing_plan_id":"cebpf4jnsgd1na2vs0mg"},{"bike_id":"19508e03-fa05-4c91-87a7-0a29ac898a81","system_id":"levelo_inurba_marseille","lat":43.25816,"lon":5.39474,"is_reserved":false,"is_disabled":false,"rental_uris":{"android":"levelo://app?vid=19508e03-fa05-4c91-87a7-0a29ac898a81","ios":"levelo://app?vid=19508e03-fa05-4c91-87a7-0a29ac898a81"},"vehicle_type_id":"4","last_reported":1738577401,"current_range_meters":14400,"station_id":"ce4bhip2rcd13ifvqft0","pricing_plan_id":"cebpf4jnsgd1na2vs0mg"},{"bike_id":"fa29f2b1-99ee-4b45-9802-29f07fcb72e2","system_id":"levelo_inurba_marseille","lat":43.29026,"lon":5.38111,"is_reserved":false,"is_disabled":true,"rental_uris":{"android":"levelo://app?vid=fa29f2b1-99ee-4b45-9802-29f07fcb72e2","ios":"levelo://app?vid=fa29f2b1-99ee-4b45-9802-29f07fcb72e2"},"vehicle_type_id":"4","last_reported":1738577401,"current_range_meters":5600,"station_id":"ce4bh4p2rcd13ifvqe1g","pricing_plan_id":"cebpf4jnsgd1na2vs0mg"},{"bike_id":"aa44d279-90de-4543-a2df-6b4de12b1153","system_id":"levelo_inurba_marseille","lat":43.24079,"lon":5.37748,"is_reserved":false,"is_disabled":false,"rental_uris":{"android":"levelo://app?vid=aa44d279-90de-4543-a2df-6b4de12b1153","ios":"levelo://app?vid=aa44d279-90de-4543-a2df-6b4de12b1153"},"vehicle_type_id":"4","last_reported":1738577401,"current_range_meters":27200,"station_id":"ce4bhnp2rcd13ifvqgvg","pricing_plan_id":"cebpf4jnsgd1na2vs0mg"},{"bike_id":"6c4da49e-a814-4fce-8256-503e35e098dc","system_id":"levelo_inurba_marseille","lat":43.29929,"lon":5.37457,"is_reserved":false,"is_disabled":false,"rental_uris":{"android":"levelo://app?vid=6c4da49e-a814-4fce-8256-503e35e098dc","ios":"levelo://app?vid=6c4da49e-a814-4fce-8256-503e35e098dc"},"vehicle_type_id":"4","last_reported":1738577401,"current_range_meters":31200,"station_id":"ce4bgjh2rcd13ifvqbg0","pricing_plan_id":"cebpf4jnsgd1na2vs0mg"},{"bike_id":"b4b2cb0c-f15a-4ba0-8f15-75967eeffe59","system_id":"levelo_inurba_marseille","lat":43.31241,"lon":5.36871,"is_reserved":false,"is_disabled":false,"rental_uris":{"android":"levelo://app?vid=b4b2cb0c-f15a-4ba0-8f15-75967eeffe59","ios":"levelo://app?vid=b4b2cb0c-f15a-4ba0-8f15-75967eeffe59"},"vehicle_type_id":"4","last_reported":1738577401,"current_range_meters":38800,"station_id":"ce4bgl92rcd13ifvqbq0","pricing_plan_id":"cebpf4jnsgd1na2vs0mg"},{"bike_id":"5d48a61d-cf22-4c98-83c4-85b6c901eb8b","system_id":"levelo_inurba_marseille","lat":43.31767,"lon":5.38997,"is_reserved":false,"is_disabled":false,"rental_uris":{"android":"levelo://app?vid=5d48a61d-cf22-4c98-83c4-85b6c901eb8b","ios":"levelo://app?vid=5d48a61d-cf22-4c98-83c4-85b6c901eb8b"},"vehicle_type_id":"4","last_reported":1738577401,"current_range_meters":36000,"station_id":"ce4bhqp2rcd13ifvqhng","pricing_plan_id":"cebpf4jnsgd1na2vs0mg"},{"bike_id":"b8a944cd-fb6c-4e85-b644-ab77b0b9a304","system_id":"levelo_inurba_marseille","lat":43.27056,"lon":5.40267,"is_reserved":false,"is_disabled":false,"rental_uris":{"android":"levelo://app?vid=b8a944cd-fb6c-4e85-b644-ab77b0b9a304","ios":"levelo://app?vid=b8a944cd-fb6c-4e85-b644-ab77b0b9a304"},"vehicle_type_id":"4","last_reported":1738577401,"current_range_meters":8800,"station_id":"ce4bhk92rcd13ifvqgc0","pricing_plan_id":"cebpf4jnsgd1na2vs0mg"},{"bike_id":"411dfa09-2b05-4888-8c7a-ae171f3c885c","system_id":"levelo_inurba_marseille","lat":43.25118,"lon":5.40322,"is_reserved":false,"is_disabled":false,"rental_uris":{"android":"levelo://app?vid=411dfa09-2b05-4888-8c7a-ae171f3c885c","ios":"levelo://app?vid=411dfa09-2b05-4888-8c7a-ae171f3c885c"},"vehicle_type_id":"4","last_reported":1738577401,"current_range_meters":27600,"station_id":"ce4bhlh2rcd13ifvqgig","pricing_plan_id":"cebpf4jnsgd1na2vs0mg"},{"bike_id":"2009944f-1265-4b80-8a8a-5dd95be42f6a","system_id":"levelo_inurba_marseille","lat":43.330077,"lon":5.37965,"is_reserved":false,"is_disabled":false,"rental_uris":{"android":"levelo://app?vid=2009944f-1265-4b80-8a8a-5dd95be42f6a","ios":"levelo://app?vid=2009944f-1265-4b80-8a8a-5dd95be42f6a"},"vehicle_type_id":"4","last_reported":1738577401,"current_range_meters":38800,"station_id":"","pricing_plan_id":"cebpf4jnsgd1na2vs0mg"},{"bike_id":"94eb6c4a-c68b-48fa-8efc-5fc413e0a0e3","system_id":"levelo_inurba_marseille","lat":43.309054,"lon":5.368473,"is_reserved":false,"is_disabled":false,"rental_uris":{"android":"levelo://app?vid=94eb6c4a-c68b-48fa-8efc-5fc413e0a0e3","ios":"levelo://app?vid=94eb6c4a-c68b-48fa-8efc-5fc413e0a0e3"},"vehicle_type_id":"4","last_reported":1738577401,"current_range_meters":19600,"station_id":"ce4bgn92rcd13ifvqbvg","pricing_plan_id":"cebpf4jnsgd1na2vs0mg"},{"bike_id":"bc356bba-f179-435b-81e7-d63da8f825d5","system_id":"levelo_inurba_marseille","lat":43.27043,"lon":5.40277,"is_reserved":false,"is_disabled":false,"rental_uris":{"android":"levelo://app?vid=bc356bba-f179-435b-81e7-d63da8f825d5","ios":"levelo://app?vid=bc356bba-f179-435b-81e7-d63da8f825d5"},"vehicle_type_id":"4","last_reported":1738577401,"current_range_meters":36800,"station_id":"ce4bhk92rcd13ifvqgc0","pricing_plan_id":"cebpf4jnsgd1na2vs0mg"},{"bike_id":"204c834e-5427-44e7-ba14-2eccca4c9246","system_id":"levelo_inurba_marseille","lat":43.31709,"lon":5.42414,"is_reserved":false,"is_disabled":false,"rental_uris":{"android":"levelo://app?vid=204c834e-5427-44e7-ba14-2eccca4c9246","ios":"levelo://app?vid=204c834e-5427-44e7-ba14-2eccca4c9246"},"vehicle_type_id":"4","last_reported":1738577401,"current_range_meters":38400,"station_id":"ce4bhp92rcd13ifvqhbg","pricing_plan_id":"cebpf4jnsgd1na2vs0mg"},{"bike_id":"5d09f239-8a02-40d9-bc2d-fb30869c3330","system_id":"levelo_inurba_marseille","lat":43.28268,"lon":5.35079,"is_reserved":false,"is_disabled":false,"rental_uris":{"android":"levelo://app?vid=5d09f239-8a02-40d9-bc2d-fb30869c3330","ios":"levelo://app?vid=5d09f239-8a02-40d9-bc2d-fb30869c3330"},"vehicle_type_id":"4","last_reported":1738577401,"current_range_meters":35200,"station_id":"ce4bhbp2rcd13ifvqerg","pricing_plan_id":"cebpf4jnsgd1na2vs0mg"},{"bike_id":"67a88d34-3cf7-4b1e-b933-08787f6ac4c7","system_id":"levelo_inurba_marseille","lat":43.29926,"lon":5.36547,"is_reserved":false,"is_disabled":false,"rental_uris":{"android":"levelo://app?vid=67a88d34-3cf7-4b1e-b933-08787f6ac4c7","ios":"levelo://app?vid=67a88d34-3cf7-4b1e-b933-08787f6ac4c7"},"vehicle_type_id":"4","last_reported":1738577401,"current_range_meters":38800,"station_id":"ce4bgm92rcd13ifvqbr0","pricing_plan_id":"cebpf4jnsgd1na2vs0mg"},{"bike_id":"683a0bcf-44b9-424f-8502-65cc44dd5d8e","system_id":"levelo_inurba_marseille","lat":43.26953,"lon":5.40253,"is_reserved":false,"is_disabled":false,"rental_uris":{"android":"levelo://app?vid=683a0bcf-44b9-424f-8502-65cc44dd5d8e","ios":"levelo://app?vid=683a0bcf-44b9-424f-8502-65cc44dd5d8e"},"vehicle_type_id":"4","last_reported":1738577401,"current_range_meters":37600,"station_id":"cjm6bp8fraef2m0cb0m0","pricing_plan_id":"cebpf4jnsgd1na2vs0mg"},{"bike_id":"4f94c7d1-cd3e-4695-b575-912e17cc3047","system_id":"levelo_inurba_marseille","lat":43.29916,"lon":5.37456,"is_reserved":false,"is_disabled":false,"rental_uris":{"android":"levelo://app?vid=4f94c7d1-cd3e-4695-b575-912e17cc3047","ios":"levelo://app?vid=4f94c7d1-cd3e-4695-b575-912e17cc3047"},"vehicle_type_id":"4","last_reported":1738577401,"current_range_meters":14400,"station_id":"ce4bgjh2rcd13ifvqbg0","pricing_plan_id":"cebpf4jnsgd1na2vs0mg"},{"bike_id":"00301923-5b9c-48ab-94f1-c3edefd4a796","system_id":"levelo_inurba_marseille","lat":43.26934,"lon":5.4025,"is_reserved":false,"is_disabled":false,"rental_uris":{"android":"levelo://app?vid=00301923-5b9c-48ab-94f1-c3edefd4a796","ios":"levelo://app?vid=00301923-5b9c-48ab-94f1-c3edefd4a796"},"vehicle_type_id":"4","last_reported":1738577401,"current_range_meters":38800,"station_id":"cjm6bp8fraef2m0cb0m0","pricing_plan_id":"cebpf4jnsgd1na2vs0mg"},{"bike_id":"ac435b7a-3cbe-439d-966f-9ad227b0ea53","system_id":"levelo_inurba_marseille","lat":43.29219,"lon":5.3606,"is_reserved":false,"is_disabled":true,"rental_uris":{"android":"levelo://app?vid=ac435b7a-3cbe-439d-966f-9ad227b0ea53","ios":"levelo://app?vid=ac435b7a-3cbe-439d-966f-9ad227b0ea53"},"vehicle_type_id":"4","last_reported":1738577401,"current_range_meters":36800,"station_id":"ce4bhbh2rcd13ifvqeqg","pricing_plan_id":"cebpf4jnsgd1na2vs0mg"},{"bike_id":"661b8764-3943-45a8-8b3e-607491282d43","system_id":"levelo_inurba_marseille","lat":43.30263,"lon":5.37722,"is_reserved":false,"is_disabled":false,"rental_uris":{"android":"levelo://app?vid=661b8764-3943-45a8-8b3e-607491282d43","ios":"levelo://app?vid=661b8764-3943-45a8-8b3e-607491282d43"},"vehicle_type_id":"4","last_reported":1738577401,"current_range_meters":39200,"station_id":"ce4bguh2rcd13ifvqcj0","pricing_plan_id":"cebpf4jnsgd1na2vs0mg"},{"bike_id":"05e6967f-52b4-4d89-933e-b74089631b53","system_id":"levelo_inurba_marseille","lat":43.32476,"lon":5.36566,"is_reserved":false,"is_disabled":false,"rental_uris":{"android":"levelo://app?vid=05e6967f-52b4-4d89-933e-b74089631b53","ios":"levelo://app?vid=05e6967f-52b4-4d89-933e-b74089631b53"},"vehicle_type_id":"4","last_reported":1738577401,"current_range_meters":22000,"station_id":"ce4bhs12rcd13ifvqhvg","pricing_plan_id":"cebpf4jnsgd1na2vs0mg"},{"bike_id":"a1361b83-7dfc-447a-91a0-ca180866041b","system_id":"levelo_inurba_marseille","lat":43.32358,"lon":5.36791,"is_reserved":false,"is_disabled":false,"rental_uris":{"android":"levelo://app?vid=a1361b83-7dfc-447a-91a0-ca180866041b","ios":"levelo://app?vid=a1361b83-7dfc-447a-91a0-ca180866041b"},"vehicle_type_id":"4","last_reported":1738577401,"current_range_meters":24000,"station_id":"ce4bhsh2rcd13ifvqi2g","pricing_plan_id":"cebpf4jnsgd1na2vs0mg"},{"bike_id":"ddb9c7e9-65ef-4267-9499-9c9d26630482","system_id":"levelo_inurba_marseille","lat":43.32484,"lon":5.36575,"is_reserved":false,"is_disabled":false,"rental_uris":{"android":"levelo://app?vid=ddb9c7e9-65ef-4267-9499-9c9d26630482","ios":"levelo://app?vid=ddb9c7e9-65ef-4267-9499-9c9d26630482"},"vehicle_type_id":"4","last_reported":1738577401,"current_range_meters":27600,"station_id":"ce4bhs12rcd13ifvqhvg","pricing_plan_id":"cebpf4jnsgd1na2vs0mg"},{"bike_id":"cc76050b-8e91-40c7-8234-0656dfb275db","system_id":"levelo_inurba_marseille","lat":43.2418,"lon":5.39717,"is_reserved":false,"is_disabled":false,"rental_uris":{"android":"levelo://app?vid=cc76050b-8e91-40c7-8234-0656dfb275db","ios":"levelo://app?vid=cc76050b-8e91-40c7-8234-0656dfb275db"},"vehicle_type_id":"4","last_reported":1738577401,"current_range_meters":27600,"station_id":"ce4bhn12rcd13ifvqgpg","pricing_plan_id":"cebpf4jnsgd1na2vs0mg"},{"bike_id":"0913058b-0bc3-4cb7-8df8-e6a2372139da","system_id":"levelo_inurba_marseille","lat":43.229323,"lon":5.353732,"is_reserved":false,"is_disabled":false,"rental_uris":{"android":"levelo://app?vid=0913058b-0bc3-4cb7-8df8-e6a2372139da","ios":"levelo://app?vid=0913058b-0bc3-4cb7-8df8-e6a2372139da"},"vehicle_type_id":"4","last_reported":1738577401,"current_range_meters":30800,"station_id":"cpo3532slgdg3j2ikp40","pricing_plan_id":"cebpf4jnsgd1na2vs0mg"},{"bike_id":"0a50d89c-af17-4468-9de3-8f5574cfc288","system_id":"levelo_inurba_marseille","lat":43.27511,"lon":5.38376,"is_reserved":false,"is_disabled":false,"rental_uris":{"android":"levelo://app?vid=0a50d89c-af17-4468-9de3-8f5574cfc288","ios":"levelo://app?vid=0a50d89c-af17-4468-9de3-8f5574cfc288"},"vehicle_type_id":"4","last_reported":1738577401,"current_range_meters":37600,"station_id":"ce4bhh92rcd13ifvqfi0","pricing_plan_id":"cebpf4jnsgd1na2vs0mg"},{"bike_id":"358d0453-7f25-4eb3-acdb-5da4e8b97130","system_id":"levelo_inurba_marseille","lat":43.30962,"lon":5.36844,"is_reserved":false,"is_disabled":false,"rental_uris":{"android":"levelo://app?vid=358d0453-7f25-4eb3-acdb-5da4e8b97130","ios":"levelo://app?vid=358d0453-7f25-4eb3-acdb-5da4e8b97130"},"vehicle_type_id":"4","last_reported":1738577401,"current_range_meters":15200,"station_id":"","pricing_plan_id":"cebpf4jnsgd1na2vs0mg"},{"bike_id":"8aaab930-2ff3-45f2-9768-04b9c0033680","system_id":"levelo_inurba_marseille","lat":43.240851,"lon":5.377529,"is_reserved":false,"is_disabled":false,"rental_uris":{"android":"levelo://app?vid=8aaab930-2ff3-45f2-9768-04b9c0033680","ios":"levelo://app?vid=8aaab930-2ff3-45f2-9768-04b9c0033680"},"vehicle_type_id":"4","last_reported":1738577401,"current_range_meters":14800,"station_id":"ce4bhnp2rcd13ifvqgvg","pricing_plan_id":"cebpf4jnsgd1na2vs0mg"},{"bike_id":"aa9d740e-ef09-4763-b562-563718183c27","system_id":"levelo_inurba_marseille","lat":43.28466,"lon":5.38417,"is_reserved":false,"is_disabled":false,"rental_uris":{"android":"levelo://app?vid=aa9d740e-ef09-4763-b562-563718183c27","ios":"levelo://app?vid=aa9d740e-ef09-4763-b562-563718183c27"},"vehicle_type_id":"4","last_reported":1738577401,"current_range_meters":39200,"station_id":"ce4bh512rcd13ifvqe3g","pricing_plan_id":"cebpf4jnsgd1na2vs0mg"},{"bike_id":"a87c8dd6-4ed1-4fd2-a6d7-2e4139c707ed","system_id":"levelo_inurba_marseille","lat":43.24994,"lon":5.38952,"is_reserved":false,"is_disabled":false,"rental_uris":{"android":"levelo://app?vid=a87c8dd6-4ed1-4fd2-a6d7-2e4139c707ed","ios":"levelo://app?vid=a87c8dd6-4ed1-4fd2-a6d7-2e4139c707ed"},"vehicle_type_id":"4","last_reported":1738577401,"current_range_meters":38000,"station_id":"ce4bhgp2rcd13ifvqfd0","pricing_plan_id":"cebpf4jnsgd1na2vs0mg"},{"bike_id":"b620cbe6-1b45-4a99-a49b-5004a89c3198","system_id":"levelo_inurba_marseille","lat":43.29934,"lon":5.36559,"is_reserved":false,"is_disabled":false,"rental_uris":{"android":"levelo://app?vid=b620cbe6-1b45-4a99-a49b-5004a89c3198","ios":"levelo://app?vid=b620cbe6-1b45-4a99-a49b-5004a89c3198"},"vehicle_type_id":"4","last_reported":1738577401,"current_range_meters":8400,"station_id":"ce4bgm92rcd13ifvqbr0","pricing_plan_id":"cebpf4jnsgd1na2vs0mg"},{"bike_id":"8b23552f-b7c0-40c8-9d4f-37ff82774c67","system_id":"levelo_inurba_marseille","lat":43.255766,"lon":5.382366,"is_reserved":false,"is_disabled":false,"rental_uris":{"android":"levelo://app?vid=8b23552f-b7c0-40c8-9d4f-37ff82774c67","ios":"levelo://app?vid=8b23552f-b7c0-40c8-9d4f-37ff82774c67"},"vehicle_type_id":"4","last_reported":1738577401,"current_range_meters":24800,"station_id":"ce4bhih2rcd13ifvqfs0","pricing_plan_id":"cebpf4jnsgd1na2vs0mg"},{"bike_id":"637e7848-7b84-4e1d-9cee-355c6601f7c3","system_id":"levelo_inurba_marseille","lat":43.27993,"lon":5.41657,"is_reserved":false,"is_disabled":true,"rental_uris":{"android":"levelo://app?vid=637e7848-7b84-4e1d-9cee-355c6601f7c3","ios":"levelo://app?vid=637e7848-7b84-4e1d-9cee-355c6601f7c3"},"vehicle_type_id":"4","last_reported":1738577401,"current_range_meters":0,"station_id":"ce4bho12rcd13ifvqh1g","pricing_plan_id":"cebpf4jnsgd1na2vs0mg"},{"bike_id":"2e64bd72-57d8-41c3-86ae-1a04eebc0f14","system_id":"levelo_inurba_marseille","lat":43.30289,"lon":5.37724,"is_reserved":false,"is_disabled":false,"rental_uris":{"android":"levelo://app?vid=2e64bd72-57d8-41c3-86ae-1a04eebc0f14","ios":"levelo://app?vid=2e64bd72-57d8-41c3-86ae-1a04eebc0f14"},"vehicle_type_id":"4","last_reported":1738577401,"current_range_meters":38400,"station_id":"ce4bguh2rcd13ifvqcj0","pricing_plan_id":"cebpf4jnsgd1na2vs0mg"},{"bike_id":"bbf39be5-6eee-4a93-85a6-5dd98c0c5e41","system_id":"levelo_inurba_marseille","lat":43.23181,"lon":5.39997,"is_reserved":false,"is_disabled":false,"rental_uris":{"android":"levelo://app?vid=bbf39be5-6eee-4a93-85a6-5dd98c0c5e41","ios":"levelo://app?vid=bbf39be5-6eee-4a93-85a6-5dd98c0c5e41"},"vehicle_type_id":"4","last_reported":1738577401,"current_range_meters":26000,"station_id":"ce4bhn12rcd13ifvqgqg","pricing_plan_id":"cebpf4jnsgd1na2vs0mg"},{"bike_id":"b67e011b-884f-4e4e-968e-411adb1e4a25","system_id":"levelo_inurba_marseille","lat":43.23152,"lon":5.4371,"is_reserved":false,"is_disabled":false,"rental_uris":{"android":"levelo://app?vid=b67e011b-884f-4e4e-968e-411adb1e4a25","ios":"levelo://app?vid=b67e011b-884f-4e4e-968e-411adb1e4a25"},"vehicle_type_id":"4","last_reported":1738577401,"current_range_meters":20400,"station_id":"ce4bhmp2rcd13ifvqgog","pricing_plan_id":"cebpf4jnsgd1na2vs0mg"},{"bike_id":"766807e2-5dd5-4f9d-8a99-3eada8bf4811","system_id":"levelo_inurba_marseille","lat":43.34617,"lon":5.38076,"is_reserved":false,"is_disabled":false,"rental_uris":{"android":"levelo://app?vid=766807e2-5dd5-4f9d-8a99-3eada8bf4811","ios":"levelo://app?vid=766807e2-5dd5-4f9d-8a99-3eada8bf4811"},"vehicle_type_id":"4","last_reported":1738577401,"current_range_meters":18800,"station_id":"","pricing_plan_id":"cebpf4jnsgd1na2vs0mg"},{"bike_id":"4164000a-3575-41b2-8242-cb2eaaa11f6b","system_id":"levelo_inurba_marseille","lat":43.27952,"lon":5.38707,"is_reserved":false,"is_disabled":false,"rental_uris":{"android":"levelo://app?vid=4164000a-3575-41b2-8242-cb2eaaa11f6b","ios":"levelo://app?vid=4164000a-3575-41b2-8242-cb2eaaa11f6b"},"vehicle_type_id":"4","last_reported":1738577401,"current_range_meters":33200,"station_id":"ce4bhg12rcd13ifvqf80","pricing_plan_id":"cebpf4jnsgd1na2vs0mg"},{"bike_id":"86295e8c-9079-4c58-a715-2f07c6cf99cc","system_id":"levelo_inurba_marseille","lat":43.29724,"lon":5.37687,"is_reserved":false,"is_disabled":false,"rental_uris":{"android":"levelo://app?vid=86295e8c-9079-4c58-a715-2f07c6cf99cc","ios":"levelo://app?vid=86295e8c-9079-4c58-a715-2f07c6cf99cc"},"vehicle_type_id":"4","last_reported":1738577401,"current_range_meters":39200,"station_id":"ce4bgkh2rcd13ifvqbl0","pricing_plan_id":"cebpf4jnsgd1na2vs0mg"},{"bike_id":"51eb691d-1f9c-4986-9165-995df4fd86e6","system_id":"levelo_inurba_marseille","lat":43.30949,"lon":5.39032,"is_reserved":false,"is_disabled":false,"rental_uris":{"android":"levelo://app?vid=51eb691d-1f9c-4986-9165-995df4fd86e6","ios":"levelo://app?vid=51eb691d-1f9c-4986-9165-995df4fd86e6"},"vehicle_type_id":"4","last_reported":1738577401,"current_range_meters":31200,"station_id":"ce4bgup2rcd13ifvqco0","pricing_plan_id":"cebpf4jnsgd1na2vs0mg"},{"bike_id":"f63e0659-15ca-4da2-aabf-b608d7742c59","system_id":"levelo_inurba_marseille","lat":43.295969,"lon":5.381036,"is_reserved":false,"is_disabled":false,"rental_uris":{"android":"levelo://app?vid=f63e0659-15ca-4da2-aabf-b608d7742c59","ios":"levelo://app?vid=f63e0659-15ca-4da2-aabf-b608d7742c59"},"vehicle_type_id":"4","last_reported":1738577401,"current_range_meters":39200,"station_id":"ce4bgl12rcd13ifvqbo0","pricing_plan_id":"cebpf4jnsgd1na2vs0mg"},{"bike_id":"136aa208-7b25-491d-8176-57485307e517","system_id":"levelo_inurba_marseille","lat":43.28705,"lon":5.37945,"is_reserved":false,"is_disabled":false,"rental_uris":{"android":"levelo://app?vid=136aa208-7b25-491d-8176-57485307e517","ios":"levelo://app?vid=136aa208-7b25-491d-8176-57485307e517"},"vehicle_type_id":"4","last_reported":1738577401,"current_range_meters":22400,"station_id":"ce4bh9p2rcd13ifvqec0","pricing_plan_id":"cebpf4jnsgd1na2vs0mg"},{"bike_id":"095e5291-f842-4478-bc34-3769cd441c0c","system_id":"levelo_inurba_marseille","lat":43.28161,"lon":5.42634,"is_reserved":false,"is_disabled":false,"rental_uris":{"android":"levelo://app?vid=095e5291-f842-4478-bc34-3769cd441c0c","ios":"levelo://app?vid=095e5291-f842-4478-bc34-3769cd441c0c"},"vehicle_type_id":"4","last_reported":1738577401,"current_range_meters":9200,"station_id":"ce4bhnh2rcd13ifvqgug","pricing_plan_id":"cebpf4jnsgd1na2vs0mg"},{"bike_id":"1eb32aa3-15e3-402b-bead-d5531cb1ea78","system_id":"levelo_inurba_marseille","lat":43.29737,"lon":5.37688,"is_reserved":false,"is_disabled":false,"rental_uris":{"android":"levelo://app?vid=1eb32aa3-15e3-402b-bead-d5531cb1ea78","ios":"levelo://app?vid=1eb32aa3-15e3-402b-bead-d5531cb1ea78"},"vehicle_type_id":"4","last_reported":1738577401,"current_range_meters":16400,"station_id":"ce4bgkh2rcd13ifvqbl0","pricing_plan_id":"cebpf4jnsgd1na2vs0mg"},{"bike_id":"9f7cbc3c-6e0b-4442-8c70-64c0b2a1452e","system_id":"levelo_inurba_marseille","lat":43.2305,"lon":5.35498,"is_reserved":false,"is_disabled":false,"rental_uris":{"android":"levelo://app?vid=9f7cbc3c-6e0b-4442-8c70-64c0b2a1452e","ios":"levelo://app?vid=9f7cbc3c-6e0b-4442-8c70-64c0b2a1452e"},"vehicle_type_id":"4","last_reported":1738577401,"current_range_meters":28400,"station_id":"cpo3342slgdg3j2ifvpg","pricing_plan_id":"cebpf4jnsgd1na2vs0mg"},{"bike_id":"f436119a-9040-4468-83c3-85303f62ba9d","system_id":"levelo_inurba_marseille","lat":43.26954,"lon":5.3863,"is_reserved":false,"is_disabled":false,"rental_uris":{"android":"levelo://app?vid=f436119a-9040-4468-83c3-85303f62ba9d","ios":"levelo://app?vid=f436119a-9040-4468-83c3-85303f62ba9d"},"vehicle_type_id":"4","last_reported":1738577401,"current_range_meters":26800,"station_id":"ce4bhh92rcd13ifvqfh0","pricing_plan_id":"cebpf4jnsgd1na2vs0mg"},{"bike_id":"0341dec4-b0e5-441e-a9e7-e36447bc9c58","system_id":"levelo_inurba_marseille","lat":43.23198,"lon":5.35553,"is_reserved":false,"is_disabled":false,"rental_uris":{"android":"levelo://app?vid=0341dec4-b0e5-441e-a9e7-e36447bc9c58","ios":"levelo://app?vid=0341dec4-b0e5-441e-a9e7-e36447bc9c58"},"vehicle_type_id":"4","last_reported":1738577401,"current_range_meters":39200,"station_id":"ce4bhu92rcd13ifvqi70","pricing_plan_id":"cebpf4jnsgd1na2vs0mg"},{"bike_id":"9191983c-f500-4e34-800a-5c4da4f130cb","system_id":"levelo_inurba_marseille","lat":43.27943,"lon":5.41062,"is_reserved":false,"is_disabled":false,"rental_uris":{"android":"levelo://app?vid=9191983c-f500-4e34-800a-5c4da4f130cb","ios":"levelo://app?vid=9191983c-f500-4e34-800a-5c4da4f130cb"},"vehicle_type_id":"4","last_reported":1738577401,"current_range_meters":28400,"station_id":"ce4bhnp2rcd13ifvqh0g","pricing_plan_id":"cebpf4jnsgd1na2vs0mg"},{"bike_id":"6e092388-acf8-4d2f-9e6c-aa124c262c3e","system_id":"levelo_inurba_marseille","lat":43.30948,"lon":5.39059,"is_reserved":false,"is_disabled":false,"rental_uris":{"android":"levelo://app?vid=6e092388-acf8-4d2f-9e6c-aa124c262c3e","ios":"levelo://app?vid=6e092388-acf8-4d2f-9e6c-aa124c262c3e"},"vehicle_type_id":"4","last_reported":1738577401,"current_range_meters":9600,"station_id":"ce4bgup2rcd13ifvqco0","pricing_plan_id":"cebpf4jnsgd1na2vs0mg"},{"bike_id":"1c482be8-2179-4126-a2ce-82e2c3f71ae8","system_id":"levelo_inurba_marseille","lat":43.30159,"lon":5.38088,"is_reserved":false,"is_disabled":false,"rental_uris":{"android":"levelo://app?vid=1c482be8-2179-4126-a2ce-82e2c3f71ae8","ios":"levelo://app?vid=1c482be8-2179-4126-a2ce-82e2c3f71ae8"},"vehicle_type_id":"4","last_reported":1738577401,"current_range_meters":36000,"station_id":"ce4bgjp2rcd13ifvqbh0","pricing_plan_id":"cebpf4jnsgd1na2vs0mg"},{"bike_id":"a4fa6443-8cd2-4c0b-9e2d-c500560fd9d5","system_id":"levelo_inurba_marseille","lat":43.31326,"lon":5.36791,"is_reserved":false,"is_disabled":false,"rental_uris":{"android":"levelo://app?vid=a4fa6443-8cd2-4c0b-9e2d-c500560fd9d5","ios":"levelo://app?vid=a4fa6443-8cd2-4c0b-9e2d-c500560fd9d5"},"vehicle_type_id":"4","last_reported":1738577401,"current_range_meters":16000,"station_id":"","pricing_plan_id":"cebpf4jnsgd1na2vs0mg"},{"bike_id":"5e2ab584-0d1e-4ac2-991a-7e1176198dbf","system_id":"levelo_inurba_marseille","lat":43.2572,"lon":5.41102,"is_reserved":false,"is_disabled":false,"rental_uris":{"android":"levelo://app?vid=5e2ab584-0d1e-4ac2-991a-7e1176198dbf","ios":"levelo://app?vid=5e2ab584-0d1e-4ac2-991a-7e1176198dbf"},"vehicle_type_id":"4","last_reported":1738577401,"current_range_meters":14800,"station_id":"ce4bhkp2rcd13ifvqgd0","pricing_plan_id":"cebpf4jnsgd1na2vs0mg"},{"bike_id":"4ce0c14b-de3f-4e94-bda0-a25e3fbe5d01","system_id":"levelo_inurba_marseille","lat":43.24047,"lon":5.37785,"is_reserved":false,"is_disabled":false,"rental_uris":{"android":"levelo://app?vid=4ce0c14b-de3f-4e94-bda0-a25e3fbe5d01","ios":"levelo://app?vid=4ce0c14b-de3f-4e94-bda0-a25e3fbe5d01"},"vehicle_type_id":"4","last_reported":1738577401,"current_range_meters":38400,"station_id":"ce4bhnp2rcd13ifvqgvg","pricing_plan_id":"cebpf4jnsgd1na2vs0mg"},{"bike_id":"f2599f5d-65c1-4d5c-af1b-b306b9528f72","system_id":"levelo_inurba_marseille","lat":43.29226,"lon":5.36073,"is_reserved":false,"is_disabled":false,"rental_uris":{"android":"levelo://app?vid=f2599f5d-65c1-4d5c-af1b-b306b9528f72","ios":"levelo://app?vid=f2599f5d-65c1-4d5c-af1b-b306b9528f72"},"vehicle_type_id":"4","last_reported":1738577401,"current_range_meters":4800,"station_id":"ce4bhbh2rcd13ifvqeqg","pricing_plan_id":"cebpf4jnsgd1na2vs0mg"},{"bike_id":"173da8d2-1628-48b7-8b92-7bd09aa7f425","system_id":"levelo_inurba_marseille","lat":43.30915,"lon":5.36862,"is_reserved":false,"is_disabled":false,"rental_uris":{"android":"levelo://app?vid=173da8d2-1628-48b7-8b92-7bd09aa7f425","ios":"levelo://app?vid=173da8d2-1628-48b7-8b92-7bd09aa7f425"},"vehicle_type_id":"4","last_reported":1738577401,"current_range_meters":38800,"station_id":"ce4bgn92rcd13ifvqbvg","pricing_plan_id":"cebpf4jnsgd1na2vs0mg"},{"bike_id":"a0011dd3-8260-4268-a430-760dca747823","system_id":"levelo_inurba_marseille","lat":43.250043,"lon":5.389433,"is_reserved":false,"is_disabled":false,"rental_uris":{"android":"levelo://app?vid=a0011dd3-8260-4268-a430-760dca747823","ios":"levelo://app?vid=a0011dd3-8260-4268-a430-760dca747823"},"vehicle_type_id":"4","last_reported":1738577401,"current_range_meters":38800,"station_id":"ce4bhgp2rcd13ifvqfd0","pricing_plan_id":"cebpf4jnsgd1na2vs0mg"},{"bike_id":"ad82b953-766d-43fe-8267-b56879c820d1","system_id":"levelo_inurba_marseille","lat":43.24549,"lon":5.39516,"is_reserved":false,"is_disabled":false,"rental_uris":{"android":"levelo://app?vid=ad82b953-766d-43fe-8267-b56879c820d1","ios":"levelo://app?vid=ad82b953-766d-43fe-8267-b56879c820d1"},"vehicle_type_id":"4","last_reported":1738577401,"current_range_meters":38800,"station_id":"ce4bhlp2rcd13ifvqgjg","pricing_plan_id":"cebpf4jnsgd1na2vs0mg"},{"bike_id":"c537f746-287c-425a-aaa6-10d8e5019a6d","system_id":"levelo_inurba_marseille","lat":43.34135,"lon":5.40904,"is_reserved":false,"is_disabled":false,"rental_uris":{"android":"levelo://app?vid=c537f746-287c-425a-aaa6-10d8e5019a6d","ios":"levelo://app?vid=c537f746-287c-425a-aaa6-10d8e5019a6d"},"vehicle_type_id":"4","last_reported":1738577401,"current_range_meters":38800,"station_id":"ce4bhqh2rcd13ifvqhlg","pricing_plan_id":"cebpf4jnsgd1na2vs0mg"},{"bike_id":"9fd1d072-3a8b-4482-b70f-62cd25efe66f","system_id":"levelo_inurba_marseille","lat":43.281498,"lon":5.42638,"is_reserved":false,"is_disabled":false,"rental_uris":{"android":"levelo://app?vid=9fd1d072-3a8b-4482-b70f-62cd25efe66f","ios":"levelo://app?vid=9fd1d072-3a8b-4482-b70f-62cd25efe66f"},"vehicle_type_id":"4","last_reported":1738577401,"current_range_meters":30000,"station_id":"ce4bhnh2rcd13ifvqgug","pricing_plan_id":"cebpf4jnsgd1na2vs0mg"},{"bike_id":"ff68ce13-c6b2-4b6d-ba77-d9c16eecacbd","system_id":"levelo_inurba_marseille","lat":43.29541,"lon":5.37488,"is_reserved":false,"is_disabled":false,"rental_uris":{"android":"levelo://app?vid=ff68ce13-c6b2-4b6d-ba77-d9c16eecacbd","ios":"levelo://app?vid=ff68ce13-c6b2-4b6d-ba77-d9c16eecacbd"},"vehicle_type_id":"4","last_reported":1738577401,"current_range_meters":26800,"station_id":"ce4bgkp2rcd13ifvqbmg","pricing_plan_id":"cebpf4jnsgd1na2vs0mg"},{"bike_id":"0847041a-bbee-4820-af53-144a5afa0c34","system_id":"levelo_inurba_marseille","lat":43.30331,"lon":5.3771,"is_reserved":false,"is_disabled":false,"rental_uris":{"android":"levelo://app?vid=0847041a-bbee-4820-af53-144a5afa0c34","ios":"levelo://app?vid=0847041a-bbee-4820-af53-144a5afa0c34"},"vehicle_type_id":"4","last_reported":1738577401,"current_range_meters":8000,"station_id":"ce4bguh2rcd13ifvqcj0","pricing_plan_id":"cebpf4jnsgd1na2vs0mg"},{"bike_id":"17296d3c-de23-4082-b7cb-6d15cb3f16ef","system_id":"levelo_inurba_marseille","lat":43.33618,"lon":5.40995,"is_reserved":false,"is_disabled":false,"rental_uris":{"android":"levelo://app?vid=17296d3c-de23-4082-b7cb-6d15cb3f16ef","ios":"levelo://app?vid=17296d3c-de23-4082-b7cb-6d15cb3f16ef"},"vehicle_type_id":"4","last_reported":1738577401,"current_range_meters":17600,"station_id":"ce4bhqh2rcd13ifvqhmg","pricing_plan_id":"cebpf4jnsgd1na2vs0mg"},{"bike_id":"73606d35-80fd-4be3-84f7-6d466523db8c","system_id":"levelo_inurba_marseille","lat":43.29006,"lon":5.35616,"is_reserved":false,"is_disabled":false,"rental_uris":{"android":"levelo://app?vid=73606d35-80fd-4be3-84f7-6d466523db8c","ios":"levelo://app?vid=73606d35-80fd-4be3-84f7-6d466523db8c"},"vehicle_type_id":"4","last_reported":1738577401,"current_range_meters":38800,"station_id":"ce4bhb92rcd13ifvqen0","pricing_plan_id":"cebpf4jnsgd1na2vs0mg"},{"bike_id":"eb7adffc-4f15-4c7c-897d-463c148ed83f","system_id":"levelo_inurba_marseille","lat":43.24076,"lon":5.37738,"is_reserved":false,"is_disabled":false,"rental_uris":{"android":"levelo://app?vid=eb7adffc-4f15-4c7c-897d-463c148ed83f","ios":"levelo://app?vid=eb7adffc-4f15-4c7c-897d-463c148ed83f"},"vehicle_type_id":"4","last_reported":1738577401,"current_range_meters":38000,"station_id":"ce4bhnp2rcd13ifvqgvg","pricing_plan_id":"cebpf4jnsgd1na2vs0mg"},{"bike_id":"f14d9063-680b-40a8-b99d-f101dd42dd8c","system_id":"levelo_inurba_marseille","lat":43.25823,"lon":5.39438,"is_reserved":false,"is_disabled":false,"rental_uris":{"android":"levelo://app?vid=f14d9063-680b-40a8-b99d-f101dd42dd8c","ios":"levelo://app?vid=f14d9063-680b-40a8-b99d-f101dd42dd8c"},"vehicle_type_id":"4","last_reported":1738577401,"current_range_meters":34000,"station_id":"ce4bhip2rcd13ifvqft0","pricing_plan_id":"cebpf4jnsgd1na2vs0mg"},{"bike_id":"fd146e46-9dcc-4159-834a-f996e38df4b8","system_id":"levelo_inurba_marseille","lat":43.337444,"lon":5.374475,"is_reserved":false,"is_disabled":false,"rental_uris":{"android":"levelo://app?vid=fd146e46-9dcc-4159-834a-f996e38df4b8","ios":"levelo://app?vid=fd146e46-9dcc-4159-834a-f996e38df4b8"},"vehicle_type_id":"4","last_reported":1738577401,"current_range_meters":38000,"station_id":"","pricing_plan_id":"cebpf4jnsgd1na2vs0mg"},{"bike_id":"f1272c76-3fbf-48f4-81f0-4210b2f18111","system_id":"levelo_inurba_marseille","lat":43.28265,"lon":5.35081,"is_reserved":false,"is_disabled":false,"rental_uris":{"android":"levelo://app?vid=f1272c76-3fbf-48f4-81f0-4210b2f18111","ios":"levelo://app?vid=f1272c76-3fbf-48f4-81f0-4210b2f18111"},"vehicle_type_id":"4","last_reported":1738577401,"current_range_meters":39200,"station_id":"ce4bhbp2rcd13ifvqerg","pricing_plan_id":"cebpf4jnsgd1na2vs0mg"},{"bike_id":"3e242f84-d04b-4d88-98ae-b0eb705c06e7","system_id":"levelo_inurba_marseille","lat":43.2897,"lon":5.37812,"is_reserved":false,"is_disabled":false,"rental_uris":{"android":"levelo://app?vid=3e242f84-d04b-4d88-98ae-b0eb705c06e7","ios":"levelo://app?vid=3e242f84-d04b-4d88-98ae-b0eb705c06e7"},"vehicle_type_id":"4","last_reported":1738577401,"current_range_meters":38000,"station_id":"ce4bh9p2rcd13ifvqed0","pricing_plan_id":"cebpf4jnsgd1na2vs0mg"},{"bike_id":"340caa53-ddb4-44ba-9416-c500785db3bc","system_id":"levelo_inurba_marseille","lat":43.31064,"lon":5.40119,"is_reserved":false,"is_disabled":false,"rental_uris":{"android":"levelo://app?vid=340caa53-ddb4-44ba-9416-c500785db3bc","ios":"levelo://app?vid=340caa53-ddb4-44ba-9416-c500785db3bc"},"vehicle_type_id":"4","last_reported":1738577401,"current_range_meters":30800,"station_id":"","pricing_plan_id":"cebpf4jnsgd1na2vs0mg"},{"bike_id":"6d49cd8a-56c9-4c04-98c6-07641b05f72c","system_id":"levelo_inurba_marseille","lat":43.30935,"lon":5.39104,"is_reserved":false,"is_disabled":false,"rental_uris":{"android":"levelo://app?vid=6d49cd8a-56c9-4c04-98c6-07641b05f72c","ios":"levelo://app?vid=6d49cd8a-56c9-4c04-98c6-07641b05f72c"},"vehicle_type_id":"4","last_reported":1738577401,"current_range_meters":39200,"station_id":"ce4bgup2rcd13ifvqco0","pricing_plan_id":"cebpf4jnsgd1na2vs0mg"},{"bike_id":"8ef93acc-c9bb-467b-8d00-f89aec46176e","system_id":"levelo_inurba_marseille","lat":43.302432,"lon":5.369256,"is_reserved":false,"is_disabled":false,"rental_uris":{"android":"levelo://app?vid=8ef93acc-c9bb-467b-8d00-f89aec46176e","ios":"levelo://app?vid=8ef93acc-c9bb-467b-8d00-f89aec46176e"},"vehicle_type_id":"4","last_reported":1738577401,"current_range_meters":14400,"station_id":"ce4bgqh2rcd13ifvqc5g","pricing_plan_id":"cebpf4jnsgd1na2vs0mg"},{"bike_id":"8d124674-c72b-4d74-9979-0def369758a7","system_id":"levelo_inurba_marseille","lat":43.308878,"lon":5.372014,"is_reserved":false,"is_disabled":false,"rental_uris":{"android":"levelo://app?vid=8d124674-c72b-4d74-9979-0def369758a7","ios":"levelo://app?vid=8d124674-c72b-4d74-9979-0def369758a7"},"vehicle_type_id":"4","last_reported":1738577401,"current_range_meters":29600,"station_id":"ce4bguh2rcd13ifvqckg","pricing_plan_id":"cebpf4jnsgd1na2vs0mg"},{"bike_id":"1ec173dc-4e0c-46d3-a1d4-5f5e976c58c6","system_id":"levelo_inurba_marseille","lat":43.32483,"lon":5.36575,"is_reserved":false,"is_disabled":false,"rental_uris":{"android":"levelo://app?vid=1ec173dc-4e0c-46d3-a1d4-5f5e976c58c6","ios":"levelo://app?vid=1ec173dc-4e0c-46d3-a1d4-5f5e976c58c6"},"vehicle_type_id":"4","last_reported":1738577401,"current_range_meters":14400,"station_id":"ce4bhs12rcd13ifvqhvg","pricing_plan_id":"cebpf4jnsgd1na2vs0mg"},{"bike_id":"b9dae9c7-3116-4e7c-86e4-d00fc98c593b","system_id":"levelo_inurba_marseille","lat":43.2669,"lon":5.38273,"is_reserved":false,"is_disabled":false,"rental_uris":{"android":"levelo://app?vid=b9dae9c7-3116-4e7c-86e4-d00fc98c593b","ios":"levelo://app?vid=b9dae9c7-3116-4e7c-86e4-d00fc98c593b"},"vehicle_type_id":"4","last_reported":1738577401,"current_range_meters":10000,"station_id":"ce4bhg92rcd13ifvqf90","pricing_plan_id":"cebpf4jnsgd1na2vs0mg"},{"bike_id":"352ae782-739f-4153-8eba-a8adb1aa97fd","system_id":"levelo_inurba_marseille","lat":43.31231,"lon":5.36853,"is_reserved":false,"is_disabled":false,"rental_uris":{"android":"levelo://app?vid=352ae782-739f-4153-8eba-a8adb1aa97fd","ios":"levelo://app?vid=352ae782-739f-4153-8eba-a8adb1aa97fd"},"vehicle_type_id":"4","last_reported":1738577401,"current_range_meters":36000,"station_id":"ce4bgl92rcd13ifvqbq0","pricing_plan_id":"cebpf4jnsgd1na2vs0mg"},{"bike_id":"a32057ad-3388-4e41-b1ee-61f60015f92b","system_id":"levelo_inurba_marseille","lat":43.31362,"lon":5.38501,"is_reserved":false,"is_disabled":false,"rental_uris":{"android":"levelo://app?vid=a32057ad-3388-4e41-b1ee-61f60015f92b","ios":"levelo://app?vid=a32057ad-3388-4e41-b1ee-61f60015f92b"},"vehicle_type_id":"4","last_reported":1738577401,"current_range_meters":12400,"station_id":"ce4bgt92rcd13ifvqcf0","pricing_plan_id":"cebpf4jnsgd1na2vs0mg"},{"bike_id":"a561aae7-6369-4c00-9d68-e8c23562735d","system_id":"levelo_inurba_marseille","lat":43.26566,"lon":5.39002,"is_reserved":false,"is_disabled":true,"rental_uris":{"android":"levelo://app?vid=a561aae7-6369-4c00-9d68-e8c23562735d","ios":"levelo://app?vid=a561aae7-6369-4c00-9d68-e8c23562735d"},"vehicle_type_id":"4","last_reported":1738577401,"current_range_meters":38800,"station_id":"ce4bhe12rcd13ifvqf30","pricing_plan_id":"cebpf4jnsgd1na2vs0mg"},{"bike_id":"40bd2fa0-18e7-4c10-8dfc-775038e6c4b5","system_id":"levelo_inurba_marseille","lat":43.27511,"lon":5.42445,"is_reserved":false,"is_disabled":false,"rental_uris":{"android":"levelo://app?vid=40bd2fa0-18e7-4c10-8dfc-775038e6c4b5","ios":"levelo://app?vid=40bd2fa0-18e7-4c10-8dfc-775038e6c4b5"},"vehicle_type_id":"4","last_reported":1738577401,"current_range_meters":32400,"station_id":"ce4bhn92rcd13ifvqgrg","pricing_plan_id":"cebpf4jnsgd1na2vs0mg"},{"bike_id":"1d3c0a30-0621-46ad-b7c1-d02c6c83e414","system_id":"levelo_inurba_marseille","lat":43.29582,"lon":5.36745,"is_reserved":false,"is_disabled":false,"rental_uris":{"android":"levelo://app?vid=1d3c0a30-0621-46ad-b7c1-d02c6c83e414","ios":"levelo://app?vid=1d3c0a30-0621-46ad-b7c1-d02c6c83e414"},"vehicle_type_id":"4","last_reported":1738577401,"current_range_meters":39200,"station_id":"ce4bgph2rcd13ifvqc2g","pricing_plan_id":"cebpf4jnsgd1na2vs0mg"},{"bike_id":"0777123c-7fd7-44fc-bca8-bc3e35504a95","system_id":"levelo_inurba_marseille","lat":43.30948,"lon":5.39061,"is_reserved":false,"is_disabled":false,"rental_uris":{"android":"levelo://app?vid=0777123c-7fd7-44fc-bca8-bc3e35504a95","ios":"levelo://app?vid=0777123c-7fd7-44fc-bca8-bc3e35504a95"},"vehicle_type_id":"4","last_reported":1738577401,"current_range_meters":24400,"station_id":"ce4bgup2rcd13ifvqco0","pricing_plan_id":"cebpf4jnsgd1na2vs0mg"},{"bike_id":"e4cb5dc9-3cbb-4a89-98bc-e7dcbf41a425","system_id":"levelo_inurba_marseille","lat":43.29487,"lon":5.43836,"is_reserved":false,"is_disabled":false,"rental_uris":{"android":"levelo://app?vid=e4cb5dc9-3cbb-4a89-98bc-e7dcbf41a425","ios":"levelo://app?vid=e4cb5dc9-3cbb-4a89-98bc-e7dcbf41a425"},"vehicle_type_id":"4","last_reported":1738577401,"current_range_meters":16800,"station_id":"","pricing_plan_id":"cebpf4jnsgd1na2vs0mg"},{"bike_id":"82c6eebf-0519-4b18-a727-88dc1d4c976d","system_id":"levelo_inurba_marseille","lat":43.28267,"lon":5.35072,"is_reserved":false,"is_disabled":true,"rental_uris":{"android":"levelo://app?vid=82c6eebf-0519-4b18-a727-88dc1d4c976d","ios":"levelo://app?vid=82c6eebf-0519-4b18-a727-88dc1d4c976d"},"vehicle_type_id":"4","last_reported":1738577401,"current_range_meters":37600,"station_id":"ce4bhbp2rcd13ifvqerg","pricing_plan_id":"cebpf4jnsgd1na2vs0mg"},{"bike_id":"7bca7249-3800-4937-a3fe-092d296cee72","system_id":"levelo_inurba_marseille","lat":43.29932,"lon":5.36563,"is_reserved":false,"is_disabled":false,"rental_uris":{"android":"levelo://app?vid=7bca7249-3800-4937-a3fe-092d296cee72","ios":"levelo://app?vid=7bca7249-3800-4937-a3fe-092d296cee72"},"vehicle_type_id":"4","last_reported":1738577401,"current_range_meters":37600,"station_id":"ce4bgm92rcd13ifvqbr0","pricing_plan_id":"cebpf4jnsgd1na2vs0mg"},{"bike_id":"95f3e46e-694d-4ae3-bd2f-bd72c2d171c7","system_id":"levelo_inurba_marseille","lat":43.29317,"lon":5.37183,"is_reserved":false,"is_disabled":false,"rental_uris":{"android":"levelo://app?vid=95f3e46e-694d-4ae3-bd2f-bd72c2d171c7","ios":"levelo://app?vid=95f3e46e-694d-4ae3-bd2f-bd72c2d171c7"},"vehicle_type_id":"4","last_reported":1738577401,"current_range_meters":38400,"station_id":"ce4bgh92rcd13ifvqb40","pricing_plan_id":"cebpf4jnsgd1na2vs0mg"},{"bike_id":"f6000b9d-f1d6-4a6f-ada2-10e93a3c32a9","system_id":"levelo_inurba_marseille","lat":43.28714,"lon":5.39976,"is_reserved":false,"is_disabled":false,"rental_uris":{"android":"levelo://app?vid=f6000b9d-f1d6-4a6f-ada2-10e93a3c32a9","ios":"levelo://app?vid=f6000b9d-f1d6-4a6f-ada2-10e93a3c32a9"},"vehicle_type_id":"4","last_reported":1738577401,"current_range_meters":29600,"station_id":"ce4bho92rcd13ifvqh3g","pricing_plan_id":"cebpf4jnsgd1na2vs0mg"},{"bike_id":"3ebcd610-230f-4d5b-837e-30a830f0f624","system_id":"levelo_inurba_marseille","lat":43.30431,"lon":5.37943,"is_reserved":false,"is_disabled":false,"rental_uris":{"android":"levelo://app?vid=3ebcd610-230f-4d5b-837e-30a830f0f624","ios":"levelo://app?vid=3ebcd610-230f-4d5b-837e-30a830f0f624"},"vehicle_type_id":"4","last_reported":1738577401,"current_range_meters":39200,"station_id":"ce4bgup2rcd13ifvqcn0","pricing_plan_id":"cebpf4jnsgd1na2vs0mg"},{"bike_id":"4e208c04-3e20-459f-972e-e618bd03d96d","system_id":"levelo_inurba_marseille","lat":43.30948,"lon":5.39052,"is_reserved":false,"is_disabled":false,"rental_uris":{"android":"levelo://app?vid=4e208c04-3e20-459f-972e-e618bd03d96d","ios":"levelo://app?vid=4e208c04-3e20-459f-972e-e618bd03d96d"},"vehicle_type_id":"4","last_reported":1738577401,"current_range_meters":17600,"station_id":"ce4bgup2rcd13ifvqco0","pricing_plan_id":"cebpf4jnsgd1na2vs0mg"},{"bike_id":"14eb7a59-9b20-4e76-b93d-5c9f392068a1","system_id":"levelo_inurba_marseille","lat":43.28163,"lon":5.42642,"is_reserved":false,"is_disabled":false,"rental_uris":{"android":"levelo://app?vid=14eb7a59-9b20-4e76-b93d-5c9f392068a1","ios":"levelo://app?vid=14eb7a59-9b20-4e76-b93d-5c9f392068a1"},"vehicle_type_id":"4","last_reported":1738577401,"current_range_meters":10000,"station_id":"ce4bhnh2rcd13ifvqgug","pricing_plan_id":"cebpf4jnsgd1na2vs0mg"},{"bike_id":"a31722a3-1585-4983-b18a-038176634520","system_id":"levelo_inurba_marseille","lat":43.33603,"lon":5.41003,"is_reserved":false,"is_disabled":false,"rental_uris":{"android":"levelo://app?vid=a31722a3-1585-4983-b18a-038176634520","ios":"levelo://app?vid=a31722a3-1585-4983-b18a-038176634520"},"vehicle_type_id":"4","last_reported":1738577401,"current_range_meters":32000,"station_id":"ce4bhqh2rcd13ifvqhmg","pricing_plan_id":"cebpf4jnsgd1na2vs0mg"},{"bike_id":"5114bc22-73e4-4af5-825e-27b313b720d5","system_id":"levelo_inurba_marseille","lat":43.32465,"lon":5.36592,"is_reserved":false,"is_disabled":false,"rental_uris":{"android":"levelo://app?vid=5114bc22-73e4-4af5-825e-27b313b720d5","ios":"levelo://app?vid=5114bc22-73e4-4af5-825e-27b313b720d5"},"vehicle_type_id":"4","last_reported":1738577401,"current_range_meters":38800,"station_id":"ce4bhs12rcd13ifvqhvg","pricing_plan_id":"cebpf4jnsgd1na2vs0mg"},{"bike_id":"f99e91c4-2330-4795-bfe7-3495ca9ba92c","system_id":"levelo_inurba_marseille","lat":43.28944,"lon":5.36632,"is_reserved":false,"is_disabled":true,"rental_uris":{"android":"levelo://app?vid=f99e91c4-2330-4795-bfe7-3495ca9ba92c","ios":"levelo://app?vid=f99e91c4-2330-4795-bfe7-3495ca9ba92c"},"vehicle_type_id":"4","last_reported":1738577401,"current_range_meters":25600,"station_id":"ce4bhap2rcd13ifvqek0","pricing_plan_id":"cebpf4jnsgd1na2vs0mg"},{"bike_id":"56bc6c17-1314-4222-9a2f-d2b7b3dbc747","system_id":"levelo_inurba_marseille","lat":43.2406,"lon":5.37757,"is_reserved":false,"is_disabled":false,"rental_uris":{"android":"levelo://app?vid=56bc6c17-1314-4222-9a2f-d2b7b3dbc747","ios":"levelo://app?vid=56bc6c17-1314-4222-9a2f-d2b7b3dbc747"},"vehicle_type_id":"4","last_reported":1738577401,"current_range_meters":38800,"station_id":"ce4bhnp2rcd13ifvqgvg","pricing_plan_id":"cebpf4jnsgd1na2vs0mg"},{"bike_id":"abc6e488-a586-4d5b-8aba-bc760c8e1d17","system_id":"levelo_inurba_marseille","lat":43.29781,"lon":5.39326,"is_reserved":false,"is_disabled":false,"rental_uris":{"android":"levelo://app?vid=abc6e488-a586-4d5b-8aba-bc760c8e1d17","ios":"levelo://app?vid=abc6e488-a586-4d5b-8aba-bc760c8e1d17"},"vehicle_type_id":"4","last_reported":1738577401,"current_range_meters":27200,"station_id":"chh1huq6cuj3fo74tm60","pricing_plan_id":"cebpf4jnsgd1na2vs0mg"},{"bike_id":"17719be7-ef4a-4060-b5a9-e7fbab2a33fc","system_id":"levelo_inurba_marseille","lat":43.30488,"lon":5.36738,"is_reserved":false,"is_disabled":false,"rental_uris":{"android":"levelo://app?vid=17719be7-ef4a-4060-b5a9-e7fbab2a33fc","ios":"levelo://app?vid=17719be7-ef4a-4060-b5a9-e7fbab2a33fc"},"vehicle_type_id":"4","last_reported":1738577401,"current_range_meters":34800,"station_id":"ce4bgrp2rcd13ifvqc9g","pricing_plan_id":"cebpf4jnsgd1na2vs0mg"},{"bike_id":"61b581a1-18b7-4393-aa83-7ed5f9936c67","system_id":"levelo_inurba_marseille","lat":43.30298,"lon":5.37711,"is_reserved":false,"is_disabled":false,"rental_uris":{"android":"levelo://app?vid=61b581a1-18b7-4393-aa83-7ed5f9936c67","ios":"levelo://app?vid=61b581a1-18b7-4393-aa83-7ed5f9936c67"},"vehicle_type_id":"4","last_reported":1738577401,"current_range_meters":21600,"station_id":"ce4bguh2rcd13ifvqcj0","pricing_plan_id":"cebpf4jnsgd1na2vs0mg"},{"bike_id":"5e186bec-ee7f-4d66-aa6a-ba6acb2c5b96","system_id":"levelo_inurba_marseille","lat":43.26693,"lon":5.38265,"is_reserved":false,"is_disabled":false,"rental_uris":{"android":"levelo://app?vid=5e186bec-ee7f-4d66-aa6a-ba6acb2c5b96","ios":"levelo://app?vid=5e186bec-ee7f-4d66-aa6a-ba6acb2c5b96"},"vehicle_type_id":"4","last_reported":1738577401,"current_range_meters":39200,"station_id":"ce4bhg92rcd13ifvqf90","pricing_plan_id":"cebpf4jnsgd1na2vs0mg"},{"bike_id":"70887bdd-31fc-4b35-84a3-1cac4626832a","system_id":"levelo_inurba_marseille","lat":43.26942,"lon":5.38635,"is_reserved":false,"is_disabled":false,"rental_uris":{"android":"levelo://app?vid=70887bdd-31fc-4b35-84a3-1cac4626832a","ios":"levelo://app?vid=70887bdd-31fc-4b35-84a3-1cac4626832a"},"vehicle_type_id":"4","last_reported":1738577401,"current_range_meters":32800,"station_id":"ce4bhh92rcd13ifvqfh0","pricing_plan_id":"cebpf4jnsgd1na2vs0mg"},{"bike_id":"47d29faf-61b1-4250-bd81-1e1bcc616c5d","system_id":"levelo_inurba_marseille","lat":43.30147,"lon":5.37413,"is_reserved":false,"is_disabled":false,"rental_uris":{"android":"levelo://app?vid=47d29faf-61b1-4250-bd81-1e1bcc616c5d","ios":"levelo://app?vid=47d29faf-61b1-4250-bd81-1e1bcc616c5d"},"vehicle_type_id":"4","last_reported":1738577401,"current_range_meters":20400,"station_id":"ce4bgs92rcd13ifvqcc0","pricing_plan_id":"cebpf4jnsgd1na2vs0mg"},{"bike_id":"83b99408-c2bd-48c1-801b-6b7b8cd16e84","system_id":"levelo_inurba_marseille","lat":43.32415,"lon":5.36556,"is_reserved":false,"is_disabled":false,"rental_uris":{"android":"levelo://app?vid=83b99408-c2bd-48c1-801b-6b7b8cd16e84","ios":"levelo://app?vid=83b99408-c2bd-48c1-801b-6b7b8cd16e84"},"vehicle_type_id":"4","last_reported":1738577401,"current_range_meters":32400,"station_id":"ce4bhs12rcd13ifvqhvg","pricing_plan_id":"cebpf4jnsgd1na2vs0mg"},{"bike_id":"8344a4b9-fe19-4ccf-9e1e-c66810831c8c","system_id":"levelo_inurba_marseille","lat":43.24393,"lon":5.3707,"is_reserved":false,"is_disabled":false,"rental_uris":{"android":"levelo://app?vid=8344a4b9-fe19-4ccf-9e1e-c66810831c8c","ios":"levelo://app?vid=8344a4b9-fe19-4ccf-9e1e-c66810831c8c"},"vehicle_type_id":"4","last_reported":1738577401,"current_range_meters":8400,"station_id":"ce4bhhh2rcd13ifvqfk0","pricing_plan_id":"cebpf4jnsgd1na2vs0mg"},{"bike_id":"8bcbf58d-06bf-4dbd-b27e-51c5a19c9de8","system_id":"levelo_inurba_marseille","lat":43.29265,"lon":5.36854,"is_reserved":false,"is_disabled":true,"rental_uris":{"android":"levelo://app?vid=8bcbf58d-06bf-4dbd-b27e-51c5a19c9de8","ios":"levelo://app?vid=8bcbf58d-06bf-4dbd-b27e-51c5a19c9de8"},"vehicle_type_id":"4","last_reported":1738577401,"current_range_meters":36800,"station_id":"ce4bhbp2rcd13ifvqesg","pricing_plan_id":"cebpf4jnsgd1na2vs0mg"},{"bike_id":"b9c9228a-1d62-494b-80a7-dbffbb3390f6","system_id":"levelo_inurba_marseille","lat":43.33728,"lon":5.39182,"is_reserved":false,"is_disabled":false,"rental_uris":{"android":"levelo://app?vid=b9c9228a-1d62-494b-80a7-dbffbb3390f6","ios":"levelo://app?vid=b9c9228a-1d62-494b-80a7-dbffbb3390f6"},"vehicle_type_id":"4","last_reported":1738577401,"current_range_meters":38800,"station_id":"ce4bhr92rcd13ifvqhsg","pricing_plan_id":"cebpf4jnsgd1na2vs0mg"},{"bike_id":"2047e938-57e3-4375-958a-69a4e97a2c7d","system_id":"levelo_inurba_marseille","lat":43.23185,"lon":5.40003,"is_reserved":false,"is_disabled":true,"rental_uris":{"android":"levelo://app?vid=2047e938-57e3-4375-958a-69a4e97a2c7d","ios":"levelo://app?vid=2047e938-57e3-4375-958a-69a4e97a2c7d"},"vehicle_type_id":"4","last_reported":1738577401,"current_range_meters":2000,"station_id":"ce4bhn12rcd13ifvqgqg","pricing_plan_id":"cebpf4jnsgd1na2vs0mg"},{"bike_id":"7d6119eb-3e8d-45e9-95fe-8b80554cad5c","system_id":"levelo_inurba_marseille","lat":43.24079,"lon":5.37759,"is_reserved":false,"is_disabled":false,"rental_uris":{"android":"levelo://app?vid=7d6119eb-3e8d-45e9-95fe-8b80554cad5c","ios":"levelo://app?vid=7d6119eb-3e8d-45e9-95fe-8b80554cad5c"},"vehicle_type_id":"4","last_reported":1738577401,"current_range_meters":19600,"station_id":"ce4bhnp2rcd13ifvqgvg","pricing_plan_id":"cebpf4jnsgd1na2vs0mg"},{"bike_id":"9e08ca9f-8bd0-444c-b69a-cb263cfb88be","system_id":"levelo_inurba_marseille","lat":43.265621,"lon":5.390157,"is_reserved":false,"is_disabled":true,"rental_uris":{"android":"levelo://app?vid=9e08ca9f-8bd0-444c-b69a-cb263cfb88be","ios":"levelo://app?vid=9e08ca9f-8bd0-444c-b69a-cb263cfb88be"},"vehicle_type_id":"4","last_reported":1738577401,"current_range_meters":30000,"station_id":"ce4bhe12rcd13ifvqf30","pricing_plan_id":"cebpf4jnsgd1na2vs0mg"},{"bike_id":"51066c61-f28c-45f5-927a-c632495855f1","system_id":"levelo_inurba_marseille","lat":43.28131,"lon":5.42662,"is_reserved":false,"is_disabled":false,"rental_uris":{"android":"levelo://app?vid=51066c61-f28c-45f5-927a-c632495855f1","ios":"levelo://app?vid=51066c61-f28c-45f5-927a-c632495855f1"},"vehicle_type_id":"4","last_reported":1738577401,"current_range_meters":27200,"station_id":"ce4bhnh2rcd13ifvqgug","pricing_plan_id":"cebpf4jnsgd1na2vs0mg"},{"bike_id":"823afbbe-3e65-487d-a9a9-99b5206fedb4","system_id":"levelo_inurba_marseille","lat":43.29622,"lon":5.37154,"is_reserved":false,"is_disabled":false,"rental_uris":{"android":"levelo://app?vid=823afbbe-3e65-487d-a9a9-99b5206fedb4","ios":"levelo://app?vid=823afbbe-3e65-487d-a9a9-99b5206fedb4"},"vehicle_type_id":"4","last_reported":1738577401,"current_range_meters":32800,"station_id":"ce4bgnh2rcd13ifvqc0g","pricing_plan_id":"cebpf4jnsgd1na2vs0mg"},{"bike_id":"e0dd2676-0c45-4659-b74a-269ee4796223","system_id":"levelo_inurba_marseille","lat":43.31183,"lon":5.3873,"is_reserved":false,"is_disabled":false,"rental_uris":{"android":"levelo://app?vid=e0dd2676-0c45-4659-b74a-269ee4796223","ios":"levelo://app?vid=e0dd2676-0c45-4659-b74a-269ee4796223"},"vehicle_type_id":"4","last_reported":1738577401,"current_range_meters":36000,"station_id":"ce4bgv12rcd13ifvqcp0","pricing_plan_id":"cebpf4jnsgd1na2vs0mg"},{"bike_id":"699e227b-6052-4615-b2f6-e1c3f437272f","system_id":"levelo_inurba_marseille","lat":43.32446,"lon":5.36563,"is_reserved":false,"is_disabled":false,"rental_uris":{"android":"levelo://app?vid=699e227b-6052-4615-b2f6-e1c3f437272f","ios":"levelo://app?vid=699e227b-6052-4615-b2f6-e1c3f437272f"},"vehicle_type_id":"4","last_reported":1738577401,"current_range_meters":36400,"station_id":"ce4bhs12rcd13ifvqhvg","pricing_plan_id":"cebpf4jnsgd1na2vs0mg"},{"bike_id":"5188e893-299b-4e06-8b8e-5b1d49d73c6c","system_id":"levelo_inurba_marseille","lat":43.25927,"lon":5.40891,"is_reserved":false,"is_disabled":false,"rental_uris":{"android":"levelo://app?vid=5188e893-299b-4e06-8b8e-5b1d49d73c6c","ios":"levelo://app?vid=5188e893-299b-4e06-8b8e-5b1d49d73c6c"},"vehicle_type_id":"4","last_reported":1738577401,"current_range_meters":19200,"station_id":"ce4bhm92rcd13ifvqglg","pricing_plan_id":"cebpf4jnsgd1na2vs0mg"},{"bike_id":"2438c236-dcbe-4ed1-83ca-cdeac945207c","system_id":"levelo_inurba_marseille","lat":43.25006,"lon":5.38944,"is_reserved":false,"is_disabled":false,"rental_uris":{"android":"levelo://app?vid=2438c236-dcbe-4ed1-83ca-cdeac945207c","ios":"levelo://app?vid=2438c236-dcbe-4ed1-83ca-cdeac945207c"},"vehicle_type_id":"4","last_reported":1738577401,"current_range_meters":28800,"station_id":"ce4bhgp2rcd13ifvqfd0","pricing_plan_id":"cebpf4jnsgd1na2vs0mg"},{"bike_id":"3a60ebc0-dac7-4b3e-a8c5-4699cca32d17","system_id":"levelo_inurba_marseille","lat":43.30796,"lon":5.43535,"is_reserved":false,"is_disabled":false,"rental_uris":{"android":"levelo://app?vid=3a60ebc0-dac7-4b3e-a8c5-4699cca32d17","ios":"levelo://app?vid=3a60ebc0-dac7-4b3e-a8c5-4699cca32d17"},"vehicle_type_id":"4","last_reported":1738577401,"current_range_meters":25200,"station_id":"ce4bhph2rcd13ifvqheg","pricing_plan_id":"cebpf4jnsgd1na2vs0mg"},{"bike_id":"4e101644-eabe-462a-8b86-8cab9161cada","system_id":"levelo_inurba_marseille","lat":43.30955,"lon":5.36825,"is_reserved":false,"is_disabled":false,"rental_uris":{"android":"levelo://app?vid=4e101644-eabe-462a-8b86-8cab9161cada","ios":"levelo://app?vid=4e101644-eabe-462a-8b86-8cab9161cada"},"vehicle_type_id":"4","last_reported":1738577401,"current_range_meters":38800,"station_id":"","pricing_plan_id":"cebpf4jnsgd1na2vs0mg"},{"bike_id":"3e36ac69-430f-415c-ac0a-246b83170535","system_id":"levelo_inurba_marseille","lat":43.32092,"lon":5.36793,"is_reserved":false,"is_disabled":false,"rental_uris":{"android":"levelo://app?vid=3e36ac69-430f-415c-ac0a-246b83170535","ios":"levelo://app?vid=3e36ac69-430f-415c-ac0a-246b83170535"},"vehicle_type_id":"4","last_reported":1738577401,"current_range_meters":38800,"station_id":"ce4bhrh2rcd13ifvqhug","pricing_plan_id":"cebpf4jnsgd1na2vs0mg"},{"bike_id":"0d59dc53-4ced-4ea7-8bff-dfdd0ac17b82","system_id":"levelo_inurba_marseille","lat":43.30929,"lon":5.36844,"is_reserved":false,"is_disabled":false,"rental_uris":{"android":"levelo://app?vid=0d59dc53-4ced-4ea7-8bff-dfdd0ac17b82","ios":"levelo://app?vid=0d59dc53-4ced-4ea7-8bff-dfdd0ac17b82"},"vehicle_type_id":"4","last_reported":1738577401,"current_range_meters":38400,"station_id":"ce4bgn92rcd13ifvqbvg","pricing_plan_id":"cebpf4jnsgd1na2vs0mg"},{"bike_id":"982c79cf-ab8d-4298-a736-22fbbe000931","system_id":"levelo_inurba_marseille","lat":43.30272,"lon":5.37721,"is_reserved":false,"is_disabled":false,"rental_uris":{"android":"levelo://app?vid=982c79cf-ab8d-4298-a736-22fbbe000931","ios":"levelo://app?vid=982c79cf-ab8d-4298-a736-22fbbe000931"},"vehicle_type_id":"4","last_reported":1738577401,"current_range_meters":30800,"station_id":"ce4bguh2rcd13ifvqcj0","pricing_plan_id":"cebpf4jnsgd1na2vs0mg"},{"bike_id":"f9a8bd69-665c-48a7-ad3c-2e9818255e07","system_id":"levelo_inurba_marseille","lat":43.3246,"lon":5.36594,"is_reserved":false,"is_disabled":false,"rental_uris":{"android":"levelo://app?vid=f9a8bd69-665c-48a7-ad3c-2e9818255e07","ios":"levelo://app?vid=f9a8bd69-665c-48a7-ad3c-2e9818255e07"},"vehicle_type_id":"4","last_reported":1738577401,"current_range_meters":36800,"station_id":"ce4bhs12rcd13ifvqhvg","pricing_plan_id":"cebpf4jnsgd1na2vs0mg"},{"bike_id":"21693d18-a3ae-4e67-92b8-90086e55ef23","system_id":"levelo_inurba_marseille","lat":43.29018,"lon":5.38152,"is_reserved":false,"is_disabled":false,"rental_uris":{"android":"levelo://app?vid=21693d18-a3ae-4e67-92b8-90086e55ef23","ios":"levelo://app?vid=21693d18-a3ae-4e67-92b8-90086e55ef23"},"vehicle_type_id":"4","last_reported":1738577401,"current_range_meters":38800,"station_id":"ce4bh4p2rcd13ifvqe1g","pricing_plan_id":"cebpf4jnsgd1na2vs0mg"},{"bike_id":"ea33f589-14e8-4e7a-9662-83cdb69fada8","system_id":"levelo_inurba_marseille","lat":43.24999,"lon":5.38942,"is_reserved":false,"is_disabled":false,"rental_uris":{"android":"levelo://app?vid=ea33f589-14e8-4e7a-9662-83cdb69fada8","ios":"levelo://app?vid=ea33f589-14e8-4e7a-9662-83cdb69fada8"},"vehicle_type_id":"4","last_reported":1738577401,"current_range_meters":23200,"station_id":"ce4bhgp2rcd13ifvqfd0","pricing_plan_id":"cebpf4jnsgd1na2vs0mg"},{"bike_id":"ab2c796a-c23b-4a3a-9534-777b873d6a05","system_id":"levelo_inurba_marseille","lat":43.24165,"lon":5.36415,"is_reserved":false,"is_disabled":false,"rental_uris":{"android":"levelo://app?vid=ab2c796a-c23b-4a3a-9534-777b873d6a05","ios":"levelo://app?vid=ab2c796a-c23b-4a3a-9534-777b873d6a05"},"vehicle_type_id":"4","last_reported":1738577401,"current_range_meters":25600,"station_id":"cpo36qri1sfpv3e86is0","pricing_plan_id":"cebpf4jnsgd1na2vs0mg"},{"bike_id":"7425f960-9d6f-463d-9f22-8efe90f42224","system_id":"levelo_inurba_marseille","lat":43.28462,"lon":5.38486,"is_reserved":false,"is_disabled":true,"rental_uris":{"android":"levelo://app?vid=7425f960-9d6f-463d-9f22-8efe90f42224","ios":"levelo://app?vid=7425f960-9d6f-463d-9f22-8efe90f42224"},"vehicle_type_id":"4","last_reported":1738577401,"current_range_meters":0,"station_id":"","pricing_plan_id":"cebpf4jnsgd1na2vs0mg"},{"bike_id":"00f658b8-d83e-4060-a5c9-dc5560d25140","system_id":"levelo_inurba_marseille","lat":43.3186,"lon":5.37401,"is_reserved":false,"is_disabled":false,"rental_uris":{"android":"levelo://app?vid=00f658b8-d83e-4060-a5c9-dc5560d25140","ios":"levelo://app?vid=00f658b8-d83e-4060-a5c9-dc5560d25140"},"vehicle_type_id":"4","last_reported":1738577401,"current_range_meters":20000,"station_id":"","pricing_plan_id":"cebpf4jnsgd1na2vs0mg"},{"bike_id":"3bf7ddc3-4fa6-402c-a4b7-cfd1d9ccd33d","system_id":"levelo_inurba_marseille","lat":43.23148,"lon":5.43725,"is_reserved":false,"is_disabled":false,"rental_uris":{"android":"levelo://app?vid=3bf7ddc3-4fa6-402c-a4b7-cfd1d9ccd33d","ios":"levelo://app?vid=3bf7ddc3-4fa6-402c-a4b7-cfd1d9ccd33d"},"vehicle_type_id":"4","last_reported":1738577401,"current_range_meters":25600,"station_id":"ce4bhmp2rcd13ifvqgog","pricing_plan_id":"cebpf4jnsgd1na2vs0mg"},{"bike_id":"58feef8f-17b5-470d-8151-c7a13f0dbe24","system_id":"levelo_inurba_marseille","lat":43.28419,"lon":5.37499,"is_reserved":false,"is_disabled":true,"rental_uris":{"android":"levelo://app?vid=58feef8f-17b5-470d-8151-c7a13f0dbe24","ios":"levelo://app?vid=58feef8f-17b5-470d-8151-c7a13f0dbe24"},"vehicle_type_id":"4","last_reported":1738577401,"current_range_meters":0,"station_id":"ce4bh412rcd13ifvqds0","pricing_plan_id":"cebpf4jnsgd1na2vs0mg"},{"bike_id":"e6e082fa-fdb2-448a-b26a-b32745ad3bf3","system_id":"levelo_inurba_marseille","lat":43.275,"lon":5.42454,"is_reserved":false,"is_disabled":false,"rental_uris":{"android":"levelo://app?vid=e6e082fa-fdb2-448a-b26a-b32745ad3bf3","ios":"levelo://app?vid=e6e082fa-fdb2-448a-b26a-b32745ad3bf3"},"vehicle_type_id":"4","last_reported":1738577401,"current_range_meters":38800,"station_id":"ce4bhn92rcd13ifvqgrg","pricing_plan_id":"cebpf4jnsgd1na2vs0mg"},{"bike_id":"f2cc33fe-49ce-48a3-9104-8d5908cc8483","system_id":"levelo_inurba_marseille","lat":43.269268,"lon":5.38921,"is_reserved":false,"is_disabled":false,"rental_uris":{"android":"levelo://app?vid=f2cc33fe-49ce-48a3-9104-8d5908cc8483","ios":"levelo://app?vid=f2cc33fe-49ce-48a3-9104-8d5908cc8483"},"vehicle_type_id":"4","last_reported":1738577401,"current_range_meters":36800,"station_id":"ce4bhhh2rcd13ifvqfl0","pricing_plan_id":"cebpf4jnsgd1na2vs0mg"},{"bike_id":"f5ccd368-925f-407a-a56e-8cc47bfdb3e3","system_id":"levelo_inurba_marseille","lat":43.28034,"lon":5.369456,"is_reserved":false,"is_disabled":false,"rental_uris":{"android":"levelo://app?vid=f5ccd368-925f-407a-a56e-8cc47bfdb3e3","ios":"levelo://app?vid=f5ccd368-925f-407a-a56e-8cc47bfdb3e3"},"vehicle_type_id":"4","last_reported":1738577401,"current_range_meters":24000,"station_id":"ce4bha12rcd13ifvqef0","pricing_plan_id":"cebpf4jnsgd1na2vs0mg"},{"bike_id":"5392c4ac-298c-4c19-b2b7-4876a9157af2","system_id":"levelo_inurba_marseille","lat":43.28702,"lon":5.37954,"is_reserved":false,"is_disabled":false,"rental_uris":{"android":"levelo://app?vid=5392c4ac-298c-4c19-b2b7-4876a9157af2","ios":"levelo://app?vid=5392c4ac-298c-4c19-b2b7-4876a9157af2"},"vehicle_type_id":"4","last_reported":1738577401,"current_range_meters":38800,"station_id":"ce4bh9p2rcd13ifvqec0","pricing_plan_id":"cebpf4jnsgd1na2vs0mg"},{"bike_id":"924c5ffd-e7eb-40f4-98e7-138891fab8e6","system_id":"levelo_inurba_marseille","lat":43.2465,"lon":5.38895,"is_reserved":false,"is_disabled":false,"rental_uris":{"android":"levelo://app?vid=924c5ffd-e7eb-40f4-98e7-138891fab8e6","ios":"levelo://app?vid=924c5ffd-e7eb-40f4-98e7-138891fab8e6"},"vehicle_type_id":"4","last_reported":1738577401,"current_range_meters":38800,"station_id":"ce4bhg12rcd13ifvqf60","pricing_plan_id":"cebpf4jnsgd1na2vs0mg"},{"bike_id":"b69743c2-b22e-4135-9a55-ab7140ba08d5","system_id":"levelo_inurba_marseille","lat":43.28619,"lon":5.35105,"is_reserved":false,"is_disabled":true,"rental_uris":{"android":"levelo://app?vid=b69743c2-b22e-4135-9a55-ab7140ba08d5","ios":"levelo://app?vid=b69743c2-b22e-4135-9a55-ab7140ba08d5"},"vehicle_type_id":"4","last_reported":1738577401,"current_range_meters":30400,"station_id":"ce4bhch2rcd13ifvqeug","pricing_plan_id":"cebpf4jnsgd1na2vs0mg"},{"bike_id":"5984b263-ca23-4f56-add1-6bc799e10547","system_id":"levelo_inurba_marseille","lat":43.23058,"lon":5.35489,"is_reserved":false,"is_disabled":false,"rental_uris":{"android":"levelo://app?vid=5984b263-ca23-4f56-add1-6bc799e10547","ios":"levelo://app?vid=5984b263-ca23-4f56-add1-6bc799e10547"},"vehicle_type_id":"4","last_reported":1738577401,"current_range_meters":4800,"station_id":"cpo3342slgdg3j2ifvpg","pricing_plan_id":"cebpf4jnsgd1na2vs0mg"},{"bike_id":"5f531b04-3c8a-42ec-bab1-654dbe8881c0","system_id":"levelo_inurba_marseille","lat":43.29932,"lon":5.36549,"is_reserved":false,"is_disabled":false,"rental_uris":{"android":"levelo://app?vid=5f531b04-3c8a-42ec-bab1-654dbe8881c0","ios":"levelo://app?vid=5f531b04-3c8a-42ec-bab1-654dbe8881c0"},"vehicle_type_id":"4","last_reported":1738577401,"current_range_meters":38000,"station_id":"ce4bgm92rcd13ifvqbr0","pricing_plan_id":"cebpf4jnsgd1na2vs0mg"},{"bike_id":"928ecfc8-35c1-41f7-b3a7-f22face31977","system_id":"levelo_inurba_marseille","lat":43.29007,"lon":5.35615,"is_reserved":false,"is_disabled":false,"rental_uris":{"android":"levelo://app?vid=928ecfc8-35c1-41f7-b3a7-f22face31977","ios":"levelo://app?vid=928ecfc8-35c1-41f7-b3a7-f22face31977"},"vehicle_type_id":"4","last_reported":1738577401,"current_range_meters":17200,"station_id":"ce4bhb92rcd13ifvqen0","pricing_plan_id":"cebpf4jnsgd1na2vs0mg"},{"bike_id":"10e01d0a-632b-4d62-8534-f552a3667c64","system_id":"levelo_inurba_marseille","lat":43.31109,"lon":5.38009,"is_reserved":false,"is_disabled":false,"rental_uris":{"android":"levelo://app?vid=10e01d0a-632b-4d62-8534-f552a3667c64","ios":"levelo://app?vid=10e01d0a-632b-4d62-8534-f552a3667c64"},"vehicle_type_id":"4","last_reported":1738577401,"current_range_meters":30800,"station_id":"","pricing_plan_id":"cebpf4jnsgd1na2vs0mg"},{"bike_id":"b006d40c-847a-4958-b5a3-d2a9ee349091","system_id":"levelo_inurba_marseille","lat":43.30159,"lon":5.37427,"is_reserved":false,"is_disabled":false,"rental_uris":{"android":"levelo://app?vid=b006d40c-847a-4958-b5a3-d2a9ee349091","ios":"levelo://app?vid=b006d40c-847a-4958-b5a3-d2a9ee349091"},"vehicle_type_id":"4","last_reported":1738577401,"current_range_meters":36800,"station_id":"ce4bgs92rcd13ifvqcc0","pricing_plan_id":"cebpf4jnsgd1na2vs0mg"},{"bike_id":"02690021-87e8-43c6-8268-006daf585519","system_id":"levelo_inurba_marseille","lat":43.26937,"lon":5.40262,"is_reserved":false,"is_disabled":false,"rental_uris":{"android":"levelo://app?vid=02690021-87e8-43c6-8268-006daf585519","ios":"levelo://app?vid=02690021-87e8-43c6-8268-006daf585519"},"vehicle_type_id":"4","last_reported":1738577401,"current_range_meters":35200,"station_id":"cjm6bp8fraef2m0cb0m0","pricing_plan_id":"cebpf4jnsgd1na2vs0mg"},{"bike_id":"f228e78e-e79d-4faf-b4e9-a37f0ad98b21","system_id":"levelo_inurba_marseille","lat":43.30162,"lon":5.38066,"is_reserved":false,"is_disabled":false,"rental_uris":{"android":"levelo://app?vid=f228e78e-e79d-4faf-b4e9-a37f0ad98b21","ios":"levelo://app?vid=f228e78e-e79d-4faf-b4e9-a37f0ad98b21"},"vehicle_type_id":"4","last_reported":1738577401,"current_range_meters":39200,"station_id":"ce4bgjp2rcd13ifvqbh0","pricing_plan_id":"cebpf4jnsgd1na2vs0mg"},{"bike_id":"f3c2e9a5-bd1f-4067-8489-4ec5b32d9880","system_id":"levelo_inurba_marseille","lat":43.240667,"lon":5.37768,"is_reserved":false,"is_disabled":false,"rental_uris":{"android":"levelo://app?vid=f3c2e9a5-bd1f-4067-8489-4ec5b32d9880","ios":"levelo://app?vid=f3c2e9a5-bd1f-4067-8489-4ec5b32d9880"},"vehicle_type_id":"4","last_reported":1738577401,"current_range_meters":32400,"station_id":"ce4bhnp2rcd13ifvqgvg","pricing_plan_id":"cebpf4jnsgd1na2vs0mg"},{"bike_id":"8ad1e9f7-6bbd-4538-b01a-3df4153421e9","system_id":"levelo_inurba_marseille","lat":43.29008,"lon":5.3561,"is_reserved":false,"is_disabled":false,"rental_uris":{"android":"levelo://app?vid=8ad1e9f7-6bbd-4538-b01a-3df4153421e9","ios":"levelo://app?vid=8ad1e9f7-6bbd-4538-b01a-3df4153421e9"},"vehicle_type_id":"4","last_reported":1738577401,"current_range_meters":34800,"station_id":"ce4bhb92rcd13ifvqen0","pricing_plan_id":"cebpf4jnsgd1na2vs0mg"},{"bike_id":"49493f9a-b3ec-438f-b118-26f57adfd626","system_id":"levelo_inurba_marseille","lat":43.28424,"lon":5.35023,"is_reserved":false,"is_disabled":false,"rental_uris":{"android":"levelo://app?vid=49493f9a-b3ec-438f-b118-26f57adfd626","ios":"levelo://app?vid=49493f9a-b3ec-438f-b118-26f57adfd626"},"vehicle_type_id":"4","last_reported":1738577401,"current_range_meters":9600,"station_id":"ce4bhbh2rcd13ifvqepg","pricing_plan_id":"cebpf4jnsgd1na2vs0mg"},{"bike_id":"f3e08a36-baaf-4a71-a8de-aa788416b013","system_id":"levelo_inurba_marseille","lat":43.31339,"lon":5.36717,"is_reserved":false,"is_disabled":false,"rental_uris":{"android":"levelo://app?vid=f3e08a36-baaf-4a71-a8de-aa788416b013","ios":"levelo://app?vid=f3e08a36-baaf-4a71-a8de-aa788416b013"},"vehicle_type_id":"4","last_reported":1738577401,"current_range_meters":22000,"station_id":"ce4bgr92rcd13ifvqc6g","pricing_plan_id":"cebpf4jnsgd1na2vs0mg"},{"bike_id":"c016e547-921d-4cf4-b408-a78a1dead93a","system_id":"levelo_inurba_marseille","lat":43.30521,"lon":5.36711,"is_reserved":false,"is_disabled":false,"rental_uris":{"android":"levelo://app?vid=c016e547-921d-4cf4-b408-a78a1dead93a","ios":"levelo://app?vid=c016e547-921d-4cf4-b408-a78a1dead93a"},"vehicle_type_id":"4","last_reported":1738577401,"current_range_meters":18800,"station_id":"ce4bgrp2rcd13ifvqc9g","pricing_plan_id":"cebpf4jnsgd1na2vs0mg"},{"bike_id":"aa226581-9fcc-4999-b1ae-71a5f88c7d47","system_id":"levelo_inurba_marseille","lat":43.23176,"lon":5.3999,"is_reserved":false,"is_disabled":true,"rental_uris":{"android":"levelo://app?vid=aa226581-9fcc-4999-b1ae-71a5f88c7d47","ios":"levelo://app?vid=aa226581-9fcc-4999-b1ae-71a5f88c7d47"},"vehicle_type_id":"4","last_reported":1738577401,"current_range_meters":0,"station_id":"ce4bhn12rcd13ifvqgqg","pricing_plan_id":"cebpf4jnsgd1na2vs0mg"},{"bike_id":"a62b26de-9035-4803-a3ef-75a4d39fa5e5","system_id":"levelo_inurba_marseille","lat":43.30937,"lon":5.36854,"is_reserved":false,"is_disabled":false,"rental_uris":{"android":"levelo://app?vid=a62b26de-9035-4803-a3ef-75a4d39fa5e5","ios":"levelo://app?vid=a62b26de-9035-4803-a3ef-75a4d39fa5e5"},"vehicle_type_id":"4","last_reported":1738577401,"current_range_meters":30000,"station_id":"ce4bgn92rcd13ifvqbvg","pricing_plan_id":"cebpf4jnsgd1na2vs0mg"},{"bike_id":"c13e9d7f-be74-4874-a020-943cf47f70f7","system_id":"levelo_inurba_marseille","lat":43.27818,"lon":5.40712,"is_reserved":false,"is_disabled":false,"rental_uris":{"android":"levelo://app?vid=c13e9d7f-be74-4874-a020-943cf47f70f7","ios":"levelo://app?vid=c13e9d7f-be74-4874-a020-943cf47f70f7"},"vehicle_type_id":"4","last_reported":1738577401,"current_range_meters":39200,"station_id":"ce4bhnh2rcd13ifvqgtg","pricing_plan_id":"cebpf4jnsgd1na2vs0mg"},{"bike_id":"2b803805-14e7-4657-9431-ebafd8f316c5","system_id":"levelo_inurba_marseille","lat":43.28561,"lon":5.39496,"is_reserved":false,"is_disabled":false,"rental_uris":{"android":"levelo://app?vid=2b803805-14e7-4657-9431-ebafd8f316c5","ios":"levelo://app?vid=2b803805-14e7-4657-9431-ebafd8f316c5"},"vehicle_type_id":"4","last_reported":1738577401,"current_range_meters":36800,"station_id":"ce4bh292rcd13ifvqdg0","pricing_plan_id":"cebpf4jnsgd1na2vs0mg"},{"bike_id":"bd6db94f-8ac9-4b47-a990-393bec7cd7d4","system_id":"levelo_inurba_marseille","lat":43.262228,"lon":5.404792,"is_reserved":false,"is_disabled":true,"rental_uris":{"android":"levelo://app?vid=bd6db94f-8ac9-4b47-a990-393bec7cd7d4","ios":"levelo://app?vid=bd6db94f-8ac9-4b47-a990-393bec7cd7d4"},"vehicle_type_id":"4","last_reported":1738577401,"current_range_meters":0,"station_id":"ce4bhmh2rcd13ifvqgmg","pricing_plan_id":"cebpf4jnsgd1na2vs0mg"},{"bike_id":"1e4fb263-2fba-4f88-9b2b-9bf396bd5315","system_id":"levelo_inurba_marseille","lat":43.2604,"lon":5.37548,"is_reserved":false,"is_disabled":false,"rental_uris":{"android":"levelo://app?vid=1e4fb263-2fba-4f88-9b2b-9bf396bd5315","ios":"levelo://app?vid=1e4fb263-2fba-4f88-9b2b-9bf396bd5315"},"vehicle_type_id":"4","last_reported":1738577401,"current_range_meters":18000,"station_id":"ce4bhgh2rcd13ifvqfa0","pricing_plan_id":"cebpf4jnsgd1na2vs0mg"},{"bike_id":"f5851043-051f-4507-8053-acedfcd42f2c","system_id":"levelo_inurba_marseille","lat":43.24068,"lon":5.37769,"is_reserved":false,"is_disabled":false,"rental_uris":{"android":"levelo://app?vid=f5851043-051f-4507-8053-acedfcd42f2c","ios":"levelo://app?vid=f5851043-051f-4507-8053-acedfcd42f2c"},"vehicle_type_id":"4","last_reported":1738577401,"current_range_meters":24400,"station_id":"ce4bhnp2rcd13ifvqgvg","pricing_plan_id":"cebpf4jnsgd1na2vs0mg"},{"bike_id":"ba1b16dd-09e2-4536-8411-babb750bcb3c","system_id":"levelo_inurba_marseille","lat":43.23191,"lon":5.39999,"is_reserved":false,"is_disabled":true,"rental_uris":{"android":"levelo://app?vid=ba1b16dd-09e2-4536-8411-babb750bcb3c","ios":"levelo://app?vid=ba1b16dd-09e2-4536-8411-babb750bcb3c"},"vehicle_type_id":"4","last_reported":1738577401,"current_range_meters":17200,"station_id":"ce4bhn12rcd13ifvqgqg","pricing_plan_id":"cebpf4jnsgd1na2vs0mg"},{"bike_id":"20029bdd-9f9c-4ff9-86e4-5ba6ed30f46a","system_id":"levelo_inurba_marseille","lat":43.23148,"lon":5.43705,"is_reserved":false,"is_disabled":true,"rental_uris":{"android":"levelo://app?vid=20029bdd-9f9c-4ff9-86e4-5ba6ed30f46a","ios":"levelo://app?vid=20029bdd-9f9c-4ff9-86e4-5ba6ed30f46a"},"vehicle_type_id":"4","last_reported":1738577401,"current_range_meters":0,"station_id":"ce4bhmp2rcd13ifvqgog","pricing_plan_id":"cebpf4jnsgd1na2vs0mg"},{"bike_id":"bcfacb5f-fd84-4201-a91d-7ee42d87f814","system_id":"levelo_inurba_marseille","lat":43.30458,"lon":5.37908,"is_reserved":false,"is_disabled":true,"rental_uris":{"android":"levelo://app?vid=bcfacb5f-fd84-4201-a91d-7ee42d87f814","ios":"levelo://app?vid=bcfacb5f-fd84-4201-a91d-7ee42d87f814"},"vehicle_type_id":"4","last_reported":1738577401,"current_range_meters":17600,"station_id":"ce4bgup2rcd13ifvqcn0","pricing_plan_id":"cebpf4jnsgd1na2vs0mg"},{"bike_id":"b9b4a35d-44ce-4551-b5c1-34f1510cd92b","system_id":"levelo_inurba_marseille","lat":43.29015,"lon":5.35625,"is_reserved":false,"is_disabled":false,"rental_uris":{"android":"levelo://app?vid=b9b4a35d-44ce-4551-b5c1-34f1510cd92b","ios":"levelo://app?vid=b9b4a35d-44ce-4551-b5c1-34f1510cd92b"},"vehicle_type_id":"4","last_reported":1738577401,"current_range_meters":27600,"station_id":"ce4bhb92rcd13ifvqen0","pricing_plan_id":"cebpf4jnsgd1na2vs0mg"},{"bike_id":"9a2fb81d-f5e1-439b-8be4-5785126029ff","system_id":"levelo_inurba_marseille","lat":43.26569,"lon":5.39007,"is_reserved":false,"is_disabled":false,"rental_uris":{"android":"levelo://app?vid=9a2fb81d-f5e1-439b-8be4-5785126029ff","ios":"levelo://app?vid=9a2fb81d-f5e1-439b-8be4-5785126029ff"},"vehicle_type_id":"4","last_reported":1738577401,"current_range_meters":21600,"station_id":"ce4bhe12rcd13ifvqf30","pricing_plan_id":"cebpf4jnsgd1na2vs0mg"},{"bike_id":"bffeed68-0570-430d-8015-136930148bb4","system_id":"levelo_inurba_marseille","lat":43.30111,"lon":5.37474,"is_reserved":false,"is_disabled":false,"rental_uris":{"android":"levelo://app?vid=bffeed68-0570-430d-8015-136930148bb4","ios":"levelo://app?vid=bffeed68-0570-430d-8015-136930148bb4"},"vehicle_type_id":"4","last_reported":1738577401,"current_range_meters":31200,"station_id":"","pricing_plan_id":"cebpf4jnsgd1na2vs0mg"},{"bike_id":"5805abe4-d33a-4c57-986f-3167b5b7a28d","system_id":"levelo_inurba_marseille","lat":43.279114,"lon":5.395864,"is_reserved":false,"is_disabled":true,"rental_uris":{"android":"levelo://app?vid=5805abe4-d33a-4c57-986f-3167b5b7a28d","ios":"levelo://app?vid=5805abe4-d33a-4c57-986f-3167b5b7a28d"},"vehicle_type_id":"4","last_reported":1738577401,"current_range_meters":0,"station_id":"ce4bhf92rcd13ifvqf40","pricing_plan_id":"cebpf4jnsgd1na2vs0mg"},{"bike_id":"1ab3385b-ef01-4ed8-8984-032f740b0888","system_id":"levelo_inurba_marseille","lat":43.26054,"lon":5.39415,"is_reserved":false,"is_disabled":false,"rental_uris":{"android":"levelo://app?vid=1ab3385b-ef01-4ed8-8984-032f740b0888","ios":"levelo://app?vid=1ab3385b-ef01-4ed8-8984-032f740b0888"},"vehicle_type_id":"4","last_reported":1738577401,"current_range_meters":39200,"station_id":"ce4bhh92rcd13ifvqfj0","pricing_plan_id":"cebpf4jnsgd1na2vs0mg"},{"bike_id":"4cb39d18-63b5-45bc-8371-1474c5c767e1","system_id":"levelo_inurba_marseille","lat":43.29597,"lon":5.36745,"is_reserved":false,"is_disabled":false,"rental_uris":{"android":"levelo://app?vid=4cb39d18-63b5-45bc-8371-1474c5c767e1","ios":"levelo://app?vid=4cb39d18-63b5-45bc-8371-1474c5c767e1"},"vehicle_type_id":"4","last_reported":1738577401,"current_range_meters":38800,"station_id":"ce4bgph2rcd13ifvqc2g","pricing_plan_id":"cebpf4jnsgd1na2vs0mg"},{"bike_id":"491407c5-a175-44f0-86fc-0f4ccadf82e3","system_id":"levelo_inurba_marseille","lat":43.337444,"lon":5.374475,"is_reserved":false,"is_disabled":true,"rental_uris":{"android":"levelo://app?vid=491407c5-a175-44f0-86fc-0f4ccadf82e3","ios":"levelo://app?vid=491407c5-a175-44f0-86fc-0f4ccadf82e3"},"vehicle_type_id":"4","last_reported":1738577401,"current_range_meters":0,"station_id":"","pricing_plan_id":"cebpf4jnsgd1na2vs0mg"},{"bike_id":"97387978-97f1-4098-a9d7-830fd0581eb7","system_id":"levelo_inurba_marseille","lat":43.30185,"lon":5.38072,"is_reserved":false,"is_disabled":false,"rental_uris":{"android":"levelo://app?vid=97387978-97f1-4098-a9d7-830fd0581eb7","ios":"levelo://app?vid=97387978-97f1-4098-a9d7-830fd0581eb7"},"vehicle_type_id":"4","last_reported":1738577401,"current_range_meters":26800,"station_id":"","pricing_plan_id":"cebpf4jnsgd1na2vs0mg"},{"bike_id":"d3c71994-f738-4ff3-a20e-ace13d2c73e0","system_id":"levelo_inurba_marseille","lat":43.254898,"lon":5.376709,"is_reserved":false,"is_disabled":false,"rental_uris":{"android":"levelo://app?vid=d3c71994-f738-4ff3-a20e-ace13d2c73e0","ios":"levelo://app?vid=d3c71994-f738-4ff3-a20e-ace13d2c73e0"},"vehicle_type_id":"4","last_reported":1738577401,"current_range_meters":39200,"station_id":"ce4bhh12rcd13ifvqff0","pricing_plan_id":"cebpf4jnsgd1na2vs0mg"},{"bike_id":"50b533b5-9c83-4e5b-9ee2-941faa3eb899","system_id":"levelo_inurba_marseille","lat":43.27805,"lon":5.40713,"is_reserved":false,"is_disabled":false,"rental_uris":{"android":"levelo://app?vid=50b533b5-9c83-4e5b-9ee2-941faa3eb899","ios":"levelo://app?vid=50b533b5-9c83-4e5b-9ee2-941faa3eb899"},"vehicle_type_id":"4","last_reported":1738577401,"current_range_meters":38400,"station_id":"ce4bhnh2rcd13ifvqgtg","pricing_plan_id":"cebpf4jnsgd1na2vs0mg"},{"bike_id":"99c1e446-17f6-4977-ab02-37cf2dc4140e","system_id":"levelo_inurba_marseille","lat":43.24164,"lon":5.3641,"is_reserved":false,"is_disabled":false,"rental_uris":{"android":"levelo://app?vid=99c1e446-17f6-4977-ab02-37cf2dc4140e","ios":"levelo://app?vid=99c1e446-17f6-4977-ab02-37cf2dc4140e"},"vehicle_type_id":"4","last_reported":1738577401,"current_range_meters":27600,"station_id":"cpo36qri1sfpv3e86is0","pricing_plan_id":"cebpf4jnsgd1na2vs0mg"},{"bike_id":"cc341318-832c-4d37-bc83-673703ad5b74","system_id":"levelo_inurba_marseille","lat":43.29092,"lon":5.38132,"is_reserved":false,"is_disabled":false,"rental_uris":{"android":"levelo://app?vid=cc341318-832c-4d37-bc83-673703ad5b74","ios":"levelo://app?vid=cc341318-832c-4d37-bc83-673703ad5b74"},"vehicle_type_id":"4","last_reported":1738577401,"current_range_meters":16800,"station_id":"ce4bh512rcd13ifvqe2g","pricing_plan_id":"cebpf4jnsgd1na2vs0mg"},{"bike_id":"bfc930dd-e716-49ad-b9b5-717c29e8e9d7","system_id":"levelo_inurba_marseille","lat":43.2926,"lon":5.40907,"is_reserved":false,"is_disabled":false,"rental_uris":{"android":"levelo://app?vid=bfc930dd-e716-49ad-b9b5-717c29e8e9d7","ios":"levelo://app?vid=bfc930dd-e716-49ad-b9b5-717c29e8e9d7"},"vehicle_type_id":"4","last_reported":1738577401,"current_range_meters":19600,"station_id":"ce4bh192rcd13ifvqdc0","pricing_plan_id":"cebpf4jnsgd1na2vs0mg"},{"bike_id":"56a59523-fea4-44d1-85eb-2f994064fafd","system_id":"levelo_inurba_marseille","lat":43.30548,"lon":5.36546,"is_reserved":false,"is_disabled":false,"rental_uris":{"android":"levelo://app?vid=56a59523-fea4-44d1-85eb-2f994064fafd","ios":"levelo://app?vid=56a59523-fea4-44d1-85eb-2f994064fafd"},"vehicle_type_id":"4","last_reported":1738577401,"current_range_meters":29600,"station_id":"ce4bgs12rcd13ifvqcag","pricing_plan_id":"cebpf4jnsgd1na2vs0mg"},{"bike_id":"f38a9b51-7bc8-4445-89b3-2095fb6b771f","system_id":"levelo_inurba_marseille","lat":43.2868,"lon":5.374,"is_reserved":false,"is_disabled":false,"rental_uris":{"android":"levelo://app?vid=f38a9b51-7bc8-4445-89b3-2095fb6b771f","ios":"levelo://app?vid=f38a9b51-7bc8-4445-89b3-2095fb6b771f"},"vehicle_type_id":"4","last_reported":1738577401,"current_range_meters":18800,"station_id":"ce4bh3p2rcd13ifvqdq0","pricing_plan_id":"cebpf4jnsgd1na2vs0mg"},{"bike_id":"5bdd905c-cd23-4ba6-bb5d-41f11e686de0","system_id":"levelo_inurba_marseille","lat":43.26787,"lon":5.39433,"is_reserved":false,"is_disabled":false,"rental_uris":{"android":"levelo://app?vid=5bdd905c-cd23-4ba6-bb5d-41f11e686de0","ios":"levelo://app?vid=5bdd905c-cd23-4ba6-bb5d-41f11e686de0"},"vehicle_type_id":"4","last_reported":1738577401,"current_range_meters":32000,"station_id":"ce4bhh12rcd13ifvqfg0","pricing_plan_id":"cebpf4jnsgd1na2vs0mg"},{"bike_id":"4fe98ca1-3cc7-44c3-beac-50c3d6729292","system_id":"levelo_inurba_marseille","lat":43.307982,"lon":5.368021,"is_reserved":false,"is_disabled":false,"rental_uris":{"android":"levelo://app?vid=4fe98ca1-3cc7-44c3-beac-50c3d6729292","ios":"levelo://app?vid=4fe98ca1-3cc7-44c3-beac-50c3d6729292"},"vehicle_type_id":"4","last_reported":1738577401,"current_range_meters":38800,"station_id":"","pricing_plan_id":"cebpf4jnsgd1na2vs0mg"},{"bike_id":"ca7e15f3-17fb-4a11-90c9-44f890751cc3","system_id":"levelo_inurba_marseille","lat":43.27806,"lon":5.40729,"is_reserved":false,"is_disabled":false,"rental_uris":{"android":"levelo://app?vid=ca7e15f3-17fb-4a11-90c9-44f890751cc3","ios":"levelo://app?vid=ca7e15f3-17fb-4a11-90c9-44f890751cc3"},"vehicle_type_id":"4","last_reported":1738577401,"current_range_meters":36400,"station_id":"ce4bhnh2rcd13ifvqgtg","pricing_plan_id":"cebpf4jnsgd1na2vs0mg"},{"bike_id":"4d59ea48-d125-4030-b919-cad5fec49e9e","system_id":"levelo_inurba_marseille","lat":43.30921,"lon":5.36872,"is_reserved":false,"is_disabled":false,"rental_uris":{"android":"levelo://app?vid=4d59ea48-d125-4030-b919-cad5fec49e9e","ios":"levelo://app?vid=4d59ea48-d125-4030-b919-cad5fec49e9e"},"vehicle_type_id":"4","last_reported":1738577401,"current_range_meters":38000,"station_id":"ce4bgn92rcd13ifvqbvg","pricing_plan_id":"cebpf4jnsgd1na2vs0mg"},{"bike_id":"50117d72-448a-47db-9bcf-619a26018d31","system_id":"levelo_inurba_marseille","lat":43.2749,"lon":5.42445,"is_reserved":false,"is_disabled":false,"rental_uris":{"android":"levelo://app?vid=50117d72-448a-47db-9bcf-619a26018d31","ios":"levelo://app?vid=50117d72-448a-47db-9bcf-619a26018d31"},"vehicle_type_id":"4","last_reported":1738577401,"current_range_meters":19200,"station_id":"ce4bhn92rcd13ifvqgrg","pricing_plan_id":"cebpf4jnsgd1na2vs0mg"},{"bike_id":"7d53f575-2bb0-470a-a089-1bb5e667eb90","system_id":"levelo_inurba_marseille","lat":43.30482,"lon":5.37886,"is_reserved":false,"is_disabled":false,"rental_uris":{"android":"levelo://app?vid=7d53f575-2bb0-470a-a089-1bb5e667eb90","ios":"levelo://app?vid=7d53f575-2bb0-470a-a089-1bb5e667eb90"},"vehicle_type_id":"4","last_reported":1738577401,"current_range_meters":12000,"station_id":"ce4bgup2rcd13ifvqcn0","pricing_plan_id":"cebpf4jnsgd1na2vs0mg"},{"bike_id":"38550d3a-6ea8-406c-935e-ef654544b87c","system_id":"levelo_inurba_marseille","lat":43.32465,"lon":5.36579,"is_reserved":false,"is_disabled":false,"rental_uris":{"android":"levelo://app?vid=38550d3a-6ea8-406c-935e-ef654544b87c","ios":"levelo://app?vid=38550d3a-6ea8-406c-935e-ef654544b87c"},"vehicle_type_id":"4","last_reported":1738577401,"current_range_meters":10800,"station_id":"ce4bhs12rcd13ifvqhvg","pricing_plan_id":"cebpf4jnsgd1na2vs0mg"},{"bike_id":"10f26c1e-2aa5-4369-aaa0-528da5a58c4f","system_id":"levelo_inurba_marseille","lat":43.2781,"lon":5.40717,"is_reserved":false,"is_disabled":false,"rental_uris":{"android":"levelo://app?vid=10f26c1e-2aa5-4369-aaa0-528da5a58c4f","ios":"levelo://app?vid=10f26c1e-2aa5-4369-aaa0-528da5a58c4f"},"vehicle_type_id":"4","last_reported":1738577401,"current_range_meters":28400,"station_id":"ce4bhnh2rcd13ifvqgtg","pricing_plan_id":"cebpf4jnsgd1na2vs0mg"},{"bike_id":"00bbb5cd-9f74-4c00-94cb-7246c199dfb7","system_id":"levelo_inurba_marseille","lat":43.28612,"lon":5.35109,"is_reserved":false,"is_disabled":true,"rental_uris":{"android":"levelo://app?vid=00bbb5cd-9f74-4c00-94cb-7246c199dfb7","ios":"levelo://app?vid=00bbb5cd-9f74-4c00-94cb-7246c199dfb7"},"vehicle_type_id":"4","last_reported":1738577401,"current_range_meters":0,"station_id":"ce4bhch2rcd13ifvqeug","pricing_plan_id":"cebpf4jnsgd1na2vs0mg"},{"bike_id":"ab4e1438-274f-4ed7-ac4d-8bd3728badb1","system_id":"levelo_inurba_marseille","lat":43.25144,"lon":5.40328,"is_reserved":false,"is_disabled":false,"rental_uris":{"android":"levelo://app?vid=ab4e1438-274f-4ed7-ac4d-8bd3728badb1","ios":"levelo://app?vid=ab4e1438-274f-4ed7-ac4d-8bd3728badb1"},"vehicle_type_id":"4","last_reported":1738577401,"current_range_meters":28000,"station_id":"ce4bhlh2rcd13ifvqgig","pricing_plan_id":"cebpf4jnsgd1na2vs0mg"},{"bike_id":"785d7c7b-9ee6-419c-8415-ff90703fea3d","system_id":"levelo_inurba_marseille","lat":43.31384,"lon":5.36685,"is_reserved":false,"is_disabled":false,"rental_uris":{"android":"levelo://app?vid=785d7c7b-9ee6-419c-8415-ff90703fea3d","ios":"levelo://app?vid=785d7c7b-9ee6-419c-8415-ff90703fea3d"},"vehicle_type_id":"4","last_reported":1738577401,"current_range_meters":38800,"station_id":"","pricing_plan_id":"cebpf4jnsgd1na2vs0mg"},{"bike_id":"7ba75532-b892-4f20-bb7d-f9c93169108a","system_id":"levelo_inurba_marseille","lat":43.27049,"lon":5.40262,"is_reserved":false,"is_disabled":false,"rental_uris":{"android":"levelo://app?vid=7ba75532-b892-4f20-bb7d-f9c93169108a","ios":"levelo://app?vid=7ba75532-b892-4f20-bb7d-f9c93169108a"},"vehicle_type_id":"4","last_reported":1738577401,"current_range_meters":24800,"station_id":"ce4bhk92rcd13ifvqgc0","pricing_plan_id":"cebpf4jnsgd1na2vs0mg"},{"bike_id":"c158ce36-7f7d-4edd-a0c1-83dd6e7887f0","system_id":"levelo_inurba_marseille","lat":43.27333,"lon":5.39114,"is_reserved":false,"is_disabled":false,"rental_uris":{"android":"levelo://app?vid=c158ce36-7f7d-4edd-a0c1-83dd6e7887f0","ios":"levelo://app?vid=c158ce36-7f7d-4edd-a0c1-83dd6e7887f0"},"vehicle_type_id":"4","last_reported":1738577401,"current_range_meters":37600,"station_id":"ce4bhgp2rcd13ifvqfe0","pricing_plan_id":"cebpf4jnsgd1na2vs0mg"},{"bike_id":"cf6af60e-b981-47ce-ad46-863218e2e30c","system_id":"levelo_inurba_marseille","lat":43.30216,"lon":5.39471,"is_reserved":false,"is_disabled":false,"rental_uris":{"android":"levelo://app?vid=cf6af60e-b981-47ce-ad46-863218e2e30c","ios":"levelo://app?vid=cf6af60e-b981-47ce-ad46-863218e2e30c"},"vehicle_type_id":"4","last_reported":1738577401,"current_range_meters":8400,"station_id":"ce4bh0p2rcd13ifvqd70","pricing_plan_id":"cebpf4jnsgd1na2vs0mg"},{"bike_id":"637ee9bc-6e1a-4347-a000-7908a013bdfd","system_id":"levelo_inurba_marseille","lat":43.30117,"lon":5.37413,"is_reserved":false,"is_disabled":false,"rental_uris":{"android":"levelo://app?vid=637ee9bc-6e1a-4347-a000-7908a013bdfd","ios":"levelo://app?vid=637ee9bc-6e1a-4347-a000-7908a013bdfd"},"vehicle_type_id":"4","last_reported":1738577401,"current_range_meters":39200,"station_id":"ce4bgs92rcd13ifvqcc0","pricing_plan_id":"cebpf4jnsgd1na2vs0mg"},{"bike_id":"20bb86fb-f58e-44f4-a3d2-173ed49faa5a","system_id":"levelo_inurba_marseille","lat":43.24178,"lon":5.39736,"is_reserved":false,"is_disabled":false,"rental_uris":{"android":"levelo://app?vid=20bb86fb-f58e-44f4-a3d2-173ed49faa5a","ios":"levelo://app?vid=20bb86fb-f58e-44f4-a3d2-173ed49faa5a"},"vehicle_type_id":"4","last_reported":1738577401,"current_range_meters":16000,"station_id":"ce4bhn12rcd13ifvqgpg","pricing_plan_id":"cebpf4jnsgd1na2vs0mg"},{"bike_id":"9c4d6e39-25b9-47fd-a824-904cf56fefec","system_id":"levelo_inurba_marseille","lat":43.30187,"lon":5.38087,"is_reserved":false,"is_disabled":false,"rental_uris":{"android":"levelo://app?vid=9c4d6e39-25b9-47fd-a824-904cf56fefec","ios":"levelo://app?vid=9c4d6e39-25b9-47fd-a824-904cf56fefec"},"vehicle_type_id":"4","last_reported":1738577401,"current_range_meters":29600,"station_id":"ce4bgjp2rcd13ifvqbh0","pricing_plan_id":"cebpf4jnsgd1na2vs0mg"},{"bike_id":"1c734ea3-fbfc-4cf2-9841-579ee0ff2de1","system_id":"levelo_inurba_marseille","lat":43.31388,"lon":5.36707,"is_reserved":false,"is_disabled":false,"rental_uris":{"android":"levelo://app?vid=1c734ea3-fbfc-4cf2-9841-579ee0ff2de1","ios":"levelo://app?vid=1c734ea3-fbfc-4cf2-9841-579ee0ff2de1"},"vehicle_type_id":"4","last_reported":1738577401,"current_range_meters":35600,"station_id":"","pricing_plan_id":"cebpf4jnsgd1na2vs0mg"},{"bike_id":"1e99f768-8760-4404-b699-76ef76026a93","system_id":"levelo_inurba_marseille","lat":43.301596,"lon":5.380936,"is_reserved":false,"is_disabled":false,"rental_uris":{"android":"levelo://app?vid=1e99f768-8760-4404-b699-76ef76026a93","ios":"levelo://app?vid=1e99f768-8760-4404-b699-76ef76026a93"},"vehicle_type_id":"4","last_reported":1738577401,"current_range_meters":39200,"station_id":"ce4bgjp2rcd13ifvqbh0","pricing_plan_id":"cebpf4jnsgd1na2vs0mg"},{"bike_id":"bb38d925-78de-4143-87e5-ac23a756bf63","system_id":"levelo_inurba_marseille","lat":43.26478,"lon":5.39537,"is_reserved":false,"is_disabled":false,"rental_uris":{"android":"levelo://app?vid=bb38d925-78de-4143-87e5-ac23a756bf63","ios":"levelo://app?vid=bb38d925-78de-4143-87e5-ac23a756bf63"},"vehicle_type_id":"4","last_reported":1738577401,"current_range_meters":38800,"station_id":"ce4bhi12rcd13ifvqfq0","pricing_plan_id":"cebpf4jnsgd1na2vs0mg"},{"bike_id":"93b49084-e6f7-44ad-bdb7-6aedefc580e2","system_id":"levelo_inurba_marseille","lat":43.26576,"lon":5.39036,"is_reserved":false,"is_disabled":false,"rental_uris":{"android":"levelo://app?vid=93b49084-e6f7-44ad-bdb7-6aedefc580e2","ios":"levelo://app?vid=93b49084-e6f7-44ad-bdb7-6aedefc580e2"},"vehicle_type_id":"4","last_reported":1738577401,"current_range_meters":34800,"station_id":"ce4bhe12rcd13ifvqf30","pricing_plan_id":"cebpf4jnsgd1na2vs0mg"},{"bike_id":"093ac1ad-aed6-4f26-bc9e-f9dd53f74afd","system_id":"levelo_inurba_marseille","lat":43.29768,"lon":5.37304,"is_reserved":false,"is_disabled":false,"rental_uris":{"android":"levelo://app?vid=093ac1ad-aed6-4f26-bc9e-f9dd53f74afd","ios":"levelo://app?vid=093ac1ad-aed6-4f26-bc9e-f9dd53f74afd"},"vehicle_type_id":"4","last_reported":1738577401,"current_range_meters":27600,"station_id":"","pricing_plan_id":"cebpf4jnsgd1na2vs0mg"},{"bike_id":"0a00e1ed-f2d2-400b-9507-9779a7d0bfd3","system_id":"levelo_inurba_marseille","lat":43.30156,"lon":5.38078,"is_reserved":false,"is_disabled":false,"rental_uris":{"android":"levelo://app?vid=0a00e1ed-f2d2-400b-9507-9779a7d0bfd3","ios":"levelo://app?vid=0a00e1ed-f2d2-400b-9507-9779a7d0bfd3"},"vehicle_type_id":"4","last_reported":1738577401,"current_range_meters":39200,"station_id":"ce4bgjp2rcd13ifvqbh0","pricing_plan_id":"cebpf4jnsgd1na2vs0mg"},{"bike_id":"c0e7550b-6f33-4fbd-9387-96500956f50a","system_id":"levelo_inurba_marseille","lat":43.29446,"lon":5.39751,"is_reserved":false,"is_disabled":false,"rental_uris":{"android":"levelo://app?vid=c0e7550b-6f33-4fbd-9387-96500956f50a","ios":"levelo://app?vid=c0e7550b-6f33-4fbd-9387-96500956f50a"},"vehicle_type_id":"4","last_reported":1738577401,"current_range_meters":18000,"station_id":"ce4bh3h2rcd13ifvqdo0","pricing_plan_id":"cebpf4jnsgd1na2vs0mg"},{"bike_id":"a30d8b93-ac92-468d-a652-79171594fd66","system_id":"levelo_inurba_marseille","lat":43.33608,"lon":5.409883,"is_reserved":false,"is_disabled":false,"rental_uris":{"android":"levelo://app?vid=a30d8b93-ac92-468d-a652-79171594fd66","ios":"levelo://app?vid=a30d8b93-ac92-468d-a652-79171594fd66"},"vehicle_type_id":"4","last_reported":1738577401,"current_range_meters":17200,"station_id":"ce4bhqh2rcd13ifvqhmg","pricing_plan_id":"cebpf4jnsgd1na2vs0mg"},{"bike_id":"1f54b7a5-732a-4991-a975-a49fa39d063b","system_id":"levelo_inurba_marseille","lat":43.26942,"lon":5.38619,"is_reserved":false,"is_disabled":false,"rental_uris":{"android":"levelo://app?vid=1f54b7a5-732a-4991-a975-a49fa39d063b","ios":"levelo://app?vid=1f54b7a5-732a-4991-a975-a49fa39d063b"},"vehicle_type_id":"4","last_reported":1738577401,"current_range_meters":38800,"station_id":"ce4bhh92rcd13ifvqfh0","pricing_plan_id":"cebpf4jnsgd1na2vs0mg"},{"bike_id":"f5c6023b-846d-4507-ac54-6a4da284d01e","system_id":"levelo_inurba_marseille","lat":43.28463,"lon":5.39194,"is_reserved":false,"is_disabled":false,"rental_uris":{"android":"levelo://app?vid=f5c6023b-846d-4507-ac54-6a4da284d01e","ios":"levelo://app?vid=f5c6023b-846d-4507-ac54-6a4da284d01e"},"vehicle_type_id":"4","last_reported":1738577401,"current_range_meters":26000,"station_id":"ce4bhoh2rcd13ifvqh5g","pricing_plan_id":"cebpf4jnsgd1na2vs0mg"},{"bike_id":"320f17aa-5d3b-45da-a6be-b587cdc1c956","system_id":"levelo_inurba_marseille","lat":43.24186,"lon":5.39747,"is_reserved":false,"is_disabled":false,"rental_uris":{"android":"levelo://app?vid=320f17aa-5d3b-45da-a6be-b587cdc1c956","ios":"levelo://app?vid=320f17aa-5d3b-45da-a6be-b587cdc1c956"},"vehicle_type_id":"4","last_reported":1738577401,"current_range_meters":25200,"station_id":"ce4bhn12rcd13ifvqgpg","pricing_plan_id":"cebpf4jnsgd1na2vs0mg"},{"bike_id":"a3a9a951-a51b-4c6b-a32a-389fa428d17e","system_id":"levelo_inurba_marseille","lat":43.31319,"lon":5.36724,"is_reserved":false,"is_disabled":false,"rental_uris":{"android":"levelo://app?vid=a3a9a951-a51b-4c6b-a32a-389fa428d17e","ios":"levelo://app?vid=a3a9a951-a51b-4c6b-a32a-389fa428d17e"},"vehicle_type_id":"4","last_reported":1738577401,"current_range_meters":34000,"station_id":"ce4bgr92rcd13ifvqc6g","pricing_plan_id":"cebpf4jnsgd1na2vs0mg"},{"bike_id":"0373a3d8-66b3-4db8-928b-e908ebb687eb","system_id":"levelo_inurba_marseille","lat":43.33595,"lon":5.41039,"is_reserved":false,"is_disabled":false,"rental_uris":{"android":"levelo://app?vid=0373a3d8-66b3-4db8-928b-e908ebb687eb","ios":"levelo://app?vid=0373a3d8-66b3-4db8-928b-e908ebb687eb"},"vehicle_type_id":"4","last_reported":1738577401,"current_range_meters":38800,"station_id":"ce4bhqh2rcd13ifvqhmg","pricing_plan_id":"cebpf4jnsgd1na2vs0mg"},{"bike_id":"e25e7c8d-e943-4d96-8f84-0602de6aff1f","system_id":"levelo_inurba_marseille","lat":43.23187,"lon":5.43679,"is_reserved":false,"is_disabled":true,"rental_uris":{"android":"levelo://app?vid=e25e7c8d-e943-4d96-8f84-0602de6aff1f","ios":"levelo://app?vid=e25e7c8d-e943-4d96-8f84-0602de6aff1f"},"vehicle_type_id":"4","last_reported":1738577401,"current_range_meters":39200,"station_id":"ce4bhmp2rcd13ifvqgog","pricing_plan_id":"cebpf4jnsgd1na2vs0mg"},{"bike_id":"25c9a1a5-b664-48b7-87ff-71ec53768f4f","system_id":"levelo_inurba_marseille","lat":43.28425,"lon":5.34975,"is_reserved":false,"is_disabled":false,"rental_uris":{"android":"levelo://app?vid=25c9a1a5-b664-48b7-87ff-71ec53768f4f","ios":"levelo://app?vid=25c9a1a5-b664-48b7-87ff-71ec53768f4f"},"vehicle_type_id":"4","last_reported":1738577401,"current_range_meters":34800,"station_id":"ce4bhbh2rcd13ifvqepg","pricing_plan_id":"cebpf4jnsgd1na2vs0mg"},{"bike_id":"593a1483-ca61-4762-9ad9-5cad0d4da92d","system_id":"levelo_inurba_marseille","lat":43.31352,"lon":5.3672,"is_reserved":false,"is_disabled":false,"rental_uris":{"android":"levelo://app?vid=593a1483-ca61-4762-9ad9-5cad0d4da92d","ios":"levelo://app?vid=593a1483-ca61-4762-9ad9-5cad0d4da92d"},"vehicle_type_id":"4","last_reported":1738577401,"current_range_meters":22800,"station_id":"ce4bgr92rcd13ifvqc6g","pricing_plan_id":"cebpf4jnsgd1na2vs0mg"},{"bike_id":"ff0fd313-20fd-41f0-916c-9453230696af","system_id":"levelo_inurba_marseille","lat":43.24051,"lon":5.37753,"is_reserved":false,"is_disabled":false,"rental_uris":{"android":"levelo://app?vid=ff0fd313-20fd-41f0-916c-9453230696af","ios":"levelo://app?vid=ff0fd313-20fd-41f0-916c-9453230696af"},"vehicle_type_id":"4","last_reported":1738577401,"current_range_meters":25600,"station_id":"ce4bhnp2rcd13ifvqgvg","pricing_plan_id":"cebpf4jnsgd1na2vs0mg"},{"bike_id":"c3bd0e5a-4f83-43bd-9115-f1a5683b3a72","system_id":"levelo_inurba_marseille","lat":43.30542,"lon":5.36513,"is_reserved":false,"is_disabled":false,"rental_uris":{"android":"levelo://app?vid=c3bd0e5a-4f83-43bd-9115-f1a5683b3a72","ios":"levelo://app?vid=c3bd0e5a-4f83-43bd-9115-f1a5683b3a72"},"vehicle_type_id":"4","last_reported":1738577401,"current_range_meters":38400,"station_id":"ce4bgs12rcd13ifvqcag","pricing_plan_id":"cebpf4jnsgd1na2vs0mg"},{"bike_id":"22264ea7-42c9-425e-a29f-07e9fe3444e8","system_id":"levelo_inurba_marseille","lat":43.24818,"lon":5.37441,"is_reserved":false,"is_disabled":true,"rental_uris":{"android":"levelo://app?vid=22264ea7-42c9-425e-a29f-07e9fe3444e8","ios":"levelo://app?vid=22264ea7-42c9-425e-a29f-07e9fe3444e8"},"vehicle_type_id":"4","last_reported":1738577401,"current_range_meters":38800,"station_id":"ce4bhgh2rcd13ifvqfb0","pricing_plan_id":"cebpf4jnsgd1na2vs0mg"},{"bike_id":"ab2f74c7-063c-4c10-800d-018107c4c0c2","system_id":"levelo_inurba_marseille","lat":43.25614,"lon":5.38201,"is_reserved":false,"is_disabled":false,"rental_uris":{"android":"levelo://app?vid=ab2f74c7-063c-4c10-800d-018107c4c0c2","ios":"levelo://app?vid=ab2f74c7-063c-4c10-800d-018107c4c0c2"},"vehicle_type_id":"4","last_reported":1738577401,"current_range_meters":12000,"station_id":"ce4bhih2rcd13ifvqfs0","pricing_plan_id":"cebpf4jnsgd1na2vs0mg"},{"bike_id":"c1bc9951-838a-4a12-bda7-797741260f54","system_id":"levelo_inurba_marseille","lat":43.31336,"lon":5.36715,"is_reserved":false,"is_disabled":false,"rental_uris":{"android":"levelo://app?vid=c1bc9951-838a-4a12-bda7-797741260f54","ios":"levelo://app?vid=c1bc9951-838a-4a12-bda7-797741260f54"},"vehicle_type_id":"4","last_reported":1738577401,"current_range_meters":39200,"station_id":"ce4bgr92rcd13ifvqc6g","pricing_plan_id":"cebpf4jnsgd1na2vs0mg"},{"bike_id":"180659d5-ad24-4e58-99b6-719de37ca79f","system_id":"levelo_inurba_marseille","lat":43.25916,"lon":5.4088,"is_reserved":false,"is_disabled":false,"rental_uris":{"android":"levelo://app?vid=180659d5-ad24-4e58-99b6-719de37ca79f","ios":"levelo://app?vid=180659d5-ad24-4e58-99b6-719de37ca79f"},"vehicle_type_id":"4","last_reported":1738577401,"current_range_meters":15200,"station_id":"ce4bhm92rcd13ifvqglg","pricing_plan_id":"cebpf4jnsgd1na2vs0mg"},{"bike_id":"6a7d9119-02db-43d1-8dd9-de5a14449bd3","system_id":"levelo_inurba_marseille","lat":43.2997,"lon":5.37171,"is_reserved":false,"is_disabled":false,"rental_uris":{"android":"levelo://app?vid=6a7d9119-02db-43d1-8dd9-de5a14449bd3","ios":"levelo://app?vid=6a7d9119-02db-43d1-8dd9-de5a14449bd3"},"vehicle_type_id":"4","last_reported":1738577401,"current_range_meters":24400,"station_id":"ce4bgr92rcd13ifvqc7g","pricing_plan_id":"cebpf4jnsgd1na2vs0mg"},{"bike_id":"5f89be7a-4f79-4358-803f-587f350c4ac8","system_id":"levelo_inurba_marseille","lat":43.27944,"lon":5.41044,"is_reserved":false,"is_disabled":false,"rental_uris":{"android":"levelo://app?vid=5f89be7a-4f79-4358-803f-587f350c4ac8","ios":"levelo://app?vid=5f89be7a-4f79-4358-803f-587f350c4ac8"},"vehicle_type_id":"4","last_reported":1738577401,"current_range_meters":27200,"station_id":"ce4bhnp2rcd13ifvqh0g","pricing_plan_id":"cebpf4jnsgd1na2vs0mg"},{"bike_id":"66dce8aa-42dc-4a3d-af23-afc8aaf9a228","system_id":"levelo_inurba_marseille","lat":43.30576,"lon":5.36541,"is_reserved":false,"is_disabled":false,"rental_uris":{"android":"levelo://app?vid=66dce8aa-42dc-4a3d-af23-afc8aaf9a228","ios":"levelo://app?vid=66dce8aa-42dc-4a3d-af23-afc8aaf9a228"},"vehicle_type_id":"4","last_reported":1738577401,"current_range_meters":14400,"station_id":"ce4bgs12rcd13ifvqcag","pricing_plan_id":"cebpf4jnsgd1na2vs0mg"},{"bike_id":"1fb9e6cd-af58-476e-9c58-d3ff57dc38a2","system_id":"levelo_inurba_marseille","lat":43.31219,"lon":5.36856,"is_reserved":false,"is_disabled":false,"rental_uris":{"android":"levelo://app?vid=1fb9e6cd-af58-476e-9c58-d3ff57dc38a2","ios":"levelo://app?vid=1fb9e6cd-af58-476e-9c58-d3ff57dc38a2"},"vehicle_type_id":"4","last_reported":1738577401,"current_range_meters":18000,"station_id":"ce4bgl92rcd13ifvqbq0","pricing_plan_id":"cebpf4jnsgd1na2vs0mg"},{"bike_id":"a670a210-06fc-4b28-84dc-a894a7c5abb8","system_id":"levelo_inurba_marseille","lat":43.2815,"lon":5.42652,"is_reserved":false,"is_disabled":true,"rental_uris":{"android":"levelo://app?vid=a670a210-06fc-4b28-84dc-a894a7c5abb8","ios":"levelo://app?vid=a670a210-06fc-4b28-84dc-a894a7c5abb8"},"vehicle_type_id":"4","last_reported":1738577401,"current_range_meters":2000,"station_id":"ce4bhnh2rcd13ifvqgug","pricing_plan_id":"cebpf4jnsgd1na2vs0mg"},{"bike_id":"fb316c39-dfca-4786-825a-c4c82ebe121b","system_id":"levelo_inurba_marseille","lat":43.29023,"lon":5.38154,"is_reserved":false,"is_disabled":false,"rental_uris":{"android":"levelo://app?vid=fb316c39-dfca-4786-825a-c4c82ebe121b","ios":"levelo://app?vid=fb316c39-dfca-4786-825a-c4c82ebe121b"},"vehicle_type_id":"4","last_reported":1738577401,"current_range_meters":38800,"station_id":"ce4bh4p2rcd13ifvqe1g","pricing_plan_id":"cebpf4jnsgd1na2vs0mg"},{"bike_id":"2b77213e-af1a-4f69-9db3-d6a0a42df021","system_id":"levelo_inurba_marseille","lat":43.32927,"lon":5.36702,"is_reserved":false,"is_disabled":false,"rental_uris":{"android":"levelo://app?vid=2b77213e-af1a-4f69-9db3-d6a0a42df021","ios":"levelo://app?vid=2b77213e-af1a-4f69-9db3-d6a0a42df021"},"vehicle_type_id":"4","last_reported":1738577401,"current_range_meters":33200,"station_id":"","pricing_plan_id":"cebpf4jnsgd1na2vs0mg"},{"bike_id":"42d52280-0f47-4991-9b8f-b489cef474d8","system_id":"levelo_inurba_marseille","lat":43.28613,"lon":5.37068,"is_reserved":false,"is_disabled":false,"rental_uris":{"android":"levelo://app?vid=42d52280-0f47-4991-9b8f-b489cef474d8","ios":"levelo://app?vid=42d52280-0f47-4991-9b8f-b489cef474d8"},"vehicle_type_id":"4","last_reported":1738577401,"current_range_meters":38800,"station_id":"ce4bht12rcd13ifvqi60","pricing_plan_id":"cebpf4jnsgd1na2vs0mg"},{"bike_id":"7a7c04e6-903d-4f7b-b914-8670f72f53bc","system_id":"levelo_inurba_marseille","lat":43.26199,"lon":5.37935,"is_reserved":false,"is_disabled":true,"rental_uris":{"android":"levelo://app?vid=7a7c04e6-903d-4f7b-b914-8670f72f53bc","ios":"levelo://app?vid=7a7c04e6-903d-4f7b-b914-8670f72f53bc"},"vehicle_type_id":"4","last_reported":1738577401,"current_range_meters":25200,"station_id":"ce4bhjp2rcd13ifvqg90","pricing_plan_id":"cebpf4jnsgd1na2vs0mg"},