{"last_updated":1733598424,"ttl":60,"version":"2.2","data":{"bikes":[{"bike_id":"315cda4d-54e6-44c6-9a3e-df4c6e9b61b0","system_id":"levelo_inurba_marseille","lat":43.337444,"lon":5.374475,"is_reserved":false,"is_disabled":false,"rental_uris":{"android":"levelo://app?vid=315cda4d-54e6-44c6-9a3e-df4c6e9b61b0","ios":"levelo://app?vid=315cda4d-54e6-44c6-9a3e-df4c6e9b61b0"},"vehicle_type_id":"4","last_reported":1733598424,"current_range_meters":19600,"station_id":"","pricing_plan_id":"cebpf4jnsgd1na2vs0mg"},{"bike_id":"5653904d-83aa-4a9e-a12b-50e15e494cc5","system_id":"levelo_inurba_marseille","lat":43.29518,"lon":5.3904,"is_reserved":false,"is_disabled":false,"rental_uris":{"android":"levelo://app?vid=5653904d-83aa-4a9e-a12b-50e15e494cc5","ios":"levelo://app?vid=5653904d-83aa-4a9e-a12b-50e15e494cc5"},"vehicle_type_id":"4","last_reported":1733598424,"current_range_meters":38800,"station_id":"ce4bh3p2rcd13ifvqdp0","pricing_plan_id":"cebpf4jnsgd1na2vs0mg"},{"bike_id":"55d7a831-40f8-4501-9bc4-264da11c1dd0","system_id":"levelo_inurba_marseille","lat":43.29268,"lon":5.40121,"is_reserved":false,"is_disabled":true,"rental_uris":{"android":"levelo://app?vid=55d7a831-40f8-4501-9bc4-264da11c1dd0","ios":"levelo://app?vid=55d7a831-40f8-4501-9bc4-264da11c1dd0"},"vehicle_type_id":"4","last_reported":1733598424,"current_range_meters":26800,"station_id":"ce4bh312rcd13ifvqdk0","pricing_plan_id":"cebpf4jnsgd1na2vs0mg"},{"bike_id":"8e029eaf-e104-4c5d-858d-6cd39de73d09","system_id":"levelo_inurba_marseille","lat":43.2417,"lon":5.36394,"is_reserved":false,"is_disabled":false,"rental_uris":{"android":"levelo://app?vid=8e029eaf-e104-4c5d-858d-6cd39de73d09","ios":"levelo://app?vid=8e029eaf-e104-4c5d-858d-6cd39de73d09"},"vehicle_type_id":"4","last_reported":1733598424,"current_range_meters":32000,"station_id":"cpo36qri1sfpv3e86is0","pricing_plan_id":"cebpf4jnsgd1na2vs0mg"},{"bike_id":"38d7b96b-ea49-42ac-9547-ee57fecfb84c","system_id":"levelo_inurba_marseille","lat":43.28152,"lon":5.42637,"is_reserved":false,"is_disabled":false,"rental_uris":{"android":"levelo://app?vid=38d7b96b-ea49-42ac-9547-ee57fecfb84c","ios":"levelo://app?vid=38d7b96b-ea49-42ac-9547-ee57fecfb84c"},"vehicle_type_id":"4","last_reported":1733598424,"current_range_meters":24800,"station_id":"ce4bhnh2rcd13ifvqgug","pricing_plan_id":"cebpf4jnsgd1na2vs0mg"},{"bike_id":"e232d7ae-0864-4a70-8b5e-627ae37536a1","system_id":"levelo_inurba_marseille","lat":43.28107,"lon":5.37838,"is_reserved":false,"is_disabled":false,"rental_uris":{"android":"levelo://app?vid=e232d7ae-0864-4a70-8b5e-627ae37536a1","ios":"levelo://app?vid=e232d7ae-0864-4a70-8b5e-627ae37536a1"},"vehicle_type_id":"4","last_reported":1733598424,"current_range_meters":39200,"station_id":"ce4bha12rcd13ifvqee0","pricing_plan_id":"cebpf4jnsgd1na2vs0mg"},{"bike_id":"e37f0f48-ff13-4242-bca9-0687552cbad4","system_id":"levelo_inurba_marseille","lat":43.3302,"lon":5.390444,"is_reserved":false,"is_disabled":true,"rental_uris":{"android":"levelo://app?vid=e37f0f48-ff13-4242-bca9-0687552cbad4","ios":"levelo://app?vid=e37f0f48-ff13-4242-bca9-0687552cbad4"},"vehicle_type_id":"4","last_reported":1733598424,"current_range_meters":0,"station_id":"ce4bhr92rcd13ifvqhrg","pricing_plan_id":"cebpf4jnsgd1na2vs0mg"},{"bike_id":"6ba69bd2-d565-4924-888c-c93c3dd2f2bb","system_id":"levelo_inurba_marseille","lat":43.33134,"lon":5.38946,"is_reserved":false,"is_disabled":true,"rental_uris":{"android":"levelo://app?vid=6ba69bd2-d565-4924-888c-c93c3dd2f2bb","ios":"levelo://app?vid=6ba69bd2-d565-4924-888c-c93c3dd2f2bb"},"vehicle_type_id":"4","last_reported":1733598424,"current_range_meters":0,"station_id":"","pricing_plan_id":"cebpf4jnsgd1na2vs0mg"},{"bike_id":"2a4714ce-60ea-4e4b-8d17-db8f48e78980","system_id":"levelo_inurba_marseille","lat":43.3249,"lon":5.3656,"is_reserved":false,"is_disabled":false,"rental_uris":{"android":"levelo://app?vid=2a4714ce-60ea-4e4b-8d17-db8f48e78980","ios":"levelo://app?vid=2a4714ce-60ea-4e4b-8d17-db8f48e78980"},"vehicle_type_id":"4","last_reported":1733598424,"current_range_meters":38800,"station_id":"ce4bhs12rcd13ifvqhvg","pricing_plan_id":"cebpf4jnsgd1na2vs0mg"},{"bike_id":"9784fbf0-b542-437a-9f0f-49fd177ab63b","system_id":"levelo_inurba_marseille","lat":43.26781,"lon":5.39423,"is_reserved":false,"is_disabled":false,"rental_uris":{"android":"levelo://app?vid=9784fbf0-b542-437a-9f0f-49fd177ab63b","ios":"levelo://app?vid=9784fbf0-b542-437a-9f0f-49fd177ab63b"},"vehicle_type_id":"4","last_reported":1733598424,"current_range_meters":30400,"station_id":"ce4bhh12rcd13ifvqfg0","pricing_plan_id":"cebpf4jnsgd1na2vs0mg"},{"bike_id":"5fd8fda4-5ceb-4e39-b9f4-ea27acda2ce7","system_id":"levelo_inurba_marseille","lat":43.27176,"lon":5.40995,"is_reserved":false,"is_disabled":true,"rental_uris":{"android":"levelo://app?vid=5fd8fda4-5ceb-4e39-b9f4-ea27acda2ce7","ios":"levelo://app?vid=5fd8fda4-5ceb-4e39-b9f4-ea27acda2ce7"},"vehicle_type_id":"4","last_reported":1733598424,"current_range_meters":21600,"station_id":"ce4bhl12rcd13ifvqgf0","pricing_plan_id":"cebpf4jnsgd1na2vs0mg"},{"bike_id":"f28618e7-aa3f-48b3-bc07-904c60cc7503","system_id":"levelo_inurba_marseille","lat":43.30182,"lon":5.36611,"is_reserved":false,"is_disabled":false,"rental_uris":{"android":"levelo://app?vid=f28618e7-aa3f-48b3-bc07-904c60cc7503","ios":"levelo://app?vid=f28618e7-aa3f-48b3-bc07-904c60cc7503"},"vehicle_type_id":"4","last_reported":1733598424,"current_range_meters":28800,"station_id":"ce4bgrh2rcd13ifvqc8g","pricing_plan_id":"cebpf4jnsgd1na2vs0mg"},{"bike_id":"8bd642b2-0279-44c7-9ee2-fc3b57332c83","system_id":"levelo_inurba_marseille","lat":43.27455,"lon":5.40073,"is_reserved":false,"is_disabled":true,"rental_uris":{"android":"levelo://app?vid=8bd642b2-0279-44c7-9ee2-fc3b57332c83","ios":"levelo://app?vid=8bd642b2-0279-44c7-9ee2-fc3b57332c83"},"vehicle_type_id":"4","last_reported":1733598424,"current_range_meters":0,"station_id":"","pricing_plan_id":"cebpf4jnsgd1na2vs0mg"},{"bike_id":"b8fd5a05-6bd8-4efa-8db0-10e0e68771ce","system_id":"levelo_inurba_marseille","lat":43.30876,"lon":5.3965,"is_reserved":false,"is_disabled":false,"rental_uris":{"android":"levelo://app?vid=b8fd5a05-6bd8-4efa-8db0-10e0e68771ce","ios":"levelo://app?vid=b8fd5a05-6bd8-4efa-8db0-10e0e68771ce"},"vehicle_type_id":"4","last_reported":1733598424,"current_range_meters":34000,"station_id":"ce4bh012rcd13ifvqcv0","pricing_plan_id":"cebpf4jnsgd1na2vs0mg"},{"bike_id":"c49fa761-5d82-4071-a5da-1c6219b26b73","system_id":"levelo_inurba_marseille","lat":43.29577,"lon":5.36743,"is_reserved":false,"is_disabled":false,"rental_uris":{"android":"levelo://app?vid=c49fa761-5d82-4071-a5da-1c6219b26b73","ios":"levelo://app?vid=c49fa761-5d82-4071-a5da-1c6219b26b73"},"vehicle_type_id":"4","last_reported":1733598424,"current_range_meters":26800,"station_id":"ce4bgph2rcd13ifvqc2g","pricing_plan_id":"cebpf4jnsgd1na2vs0mg"},{"bike_id":"d83d9dc7-ce4c-43e2-8c7d-eeda83c183ce","system_id":"levelo_inurba_marseille","lat":43.26055,"lon":5.39398,"is_reserved":false,"is_disabled":false,"rental_uris":{"android":"levelo://app?vid=d83d9dc7-ce4c-43e2-8c7d-eeda83c183ce","ios":"levelo://app?vid=d83d9dc7-ce4c-43e2-8c7d-eeda83c183ce"},"vehicle_type_id":"4","last_reported":1733598424,"current_range_meters":38800,"station_id":"ce4bhh92rcd13ifvqfj0","pricing_plan_id":"cebpf4jnsgd1na2vs0mg"},{"bike_id":"0fc4d3a6-918e-42bc-ad07-871db249e89a","system_id":"levelo_inurba_marseille","lat":43.29919,"lon":5.3815,"is_reserved":false,"is_disabled":false,"rental_uris":{"android":"levelo://app?vid=0fc4d3a6-918e-42bc-ad07-871db249e89a","ios":"levelo://app?vid=0fc4d3a6-918e-42bc-ad07-871db249e89a"},"vehicle_type_id":"4","last_reported":1733598424,"current_range_meters":38400,"station_id":"ce4bgj12rcd13ifvqbc0","pricing_plan_id":"cebpf4jnsgd1na2vs0mg"},{"bike_id":"eef7f731-2869-4916-a3e0-924f694a8fb1","system_id":"levelo_inurba_marseille","lat":43.286108,"lon":5.351023,"is_reserved":false,"is_disabled":false,"rental_uris":{"android":"levelo://app?vid=eef7f731-2869-4916-a3e0-924f694a8fb1","ios":"levelo://app?vid=eef7f731-2869-4916-a3e0-924f694a8fb1"},"vehicle_type_id":"4","last_reported":1733598424,"current_range_meters":22000,"station_id":"ce4bhch2rcd13ifvqeug","pricing_plan_id":"cebpf4jnsgd1na2vs0mg"},{"bike_id":"3015c782-6ae6-4f02-bdd1-4d491577c878","system_id":"levelo_inurba_marseille","lat":43.30885,"lon":5.371963,"is_reserved":false,"is_disabled":false,"rental_uris":{"android":"levelo://app?vid=3015c782-6ae6-4f02-bdd1-4d491577c878","ios":"levelo://app?vid=3015c782-6ae6-4f02-bdd1-4d491577c878"},"vehicle_type_id":"4","last_reported":1733598424,"current_range_meters":16000,"station_id":"ce4bguh2rcd13ifvqckg","pricing_plan_id":"cebpf4jnsgd1na2vs0mg"},{"bike_id":"650aedbd-7fe9-41b2-ab79-4b8450652642","system_id":"levelo_inurba_marseille","lat":43.2919,"lon":5.35786,"is_reserved":false,"is_disabled":true,"rental_uris":{"android":"levelo://app?vid=650aedbd-7fe9-41b2-ab79-4b8450652642","ios":"levelo://app?vid=650aedbd-7fe9-41b2-ab79-4b8450652642"},"vehicle_type_id":"4","last_reported":1733598424,"current_range_meters":38800,"station_id":"ce4bhb12rcd13ifvqel0","pricing_plan_id":"cebpf4jnsgd1na2vs0mg"},{"bike_id":"479889bf-dbf3-4abb-926f-bf7556951acc","system_id":"levelo_inurba_marseille","lat":43.29897,"lon":5.43653,"is_reserved":false,"is_disabled":false,"rental_uris":{"android":"levelo://app?vid=479889bf-dbf3-4abb-926f-bf7556951acc","ios":"levelo://app?vid=479889bf-dbf3-4abb-926f-bf7556951acc"},"vehicle_type_id":"4","last_reported":1733598424,"current_range_meters":6000,"station_id":"ce4bhpp2rcd13ifvqhfg","pricing_plan_id":"cebpf4jnsgd1na2vs0mg"},{"bike_id":"3000a861-0903-41f2-bb5d-48554b17ed5a","system_id":"levelo_inurba_marseille","lat":43.337444,"lon":5.374475,"is_reserved":false,"is_disabled":false,"rental_uris":{"android":"levelo://app?vid=3000a861-0903-41f2-bb5d-48554b17ed5a","ios":"levelo://app?vid=3000a861-0903-41f2-bb5d-48554b17ed5a"},"vehicle_type_id":"4","last_reported":1733598424,"current_range_meters":31200,"station_id":"","pricing_plan_id":"cebpf4jnsgd1na2vs0mg"},{"bike_id":"e14ff483-f290-4a96-beab-fc577b54c818","system_id":"levelo_inurba_marseille","lat":43.28487,"lon":5.36815,"is_reserved":false,"is_disabled":false,"rental_uris":{"android":"levelo://app?vid=e14ff483-f290-4a96-beab-fc577b54c818","ios":"levelo://app?vid=e14ff483-f290-4a96-beab-fc577b54c818"},"vehicle_type_id":"4","last_reported":1733598424,"current_range_meters":16400,"station_id":"","pricing_plan_id":"cebpf4jnsgd1na2vs0mg"},{"bike_id":"5198ebeb-704c-4d29-bbea-7ee0b65ac912","system_id":"levelo_inurba_marseille","lat":43.24078,"lon":5.37753,"is_reserved":false,"is_disabled":false,"rental_uris":{"android":"levelo://app?vid=5198ebeb-704c-4d29-bbea-7ee0b65ac912","ios":"levelo://app?vid=5198ebeb-704c-4d29-bbea-7ee0b65ac912"},"vehicle_type_id":"4","last_reported":1733598424,"current_range_meters":36400,"station_id":"ce4bhnp2rcd13ifvqgvg","pricing_plan_id":"cebpf4jnsgd1na2vs0mg"},{"bike_id":"95cfddd6-1f3c-4fd2-9652-931f20cf06bd","system_id":"levelo_inurba_marseille","lat":43.25573,"lon":5.38236,"is_reserved":false,"is_disabled":false,"rental_uris":{"android":"levelo://app?vid=95cfddd6-1f3c-4fd2-9652-931f20cf06bd","ios":"levelo://app?vid=95cfddd6-1f3c-4fd2-9652-931f20cf06bd"},"vehicle_type_id":"4","last_reported":1733598424,"current_range_meters":28000,"station_id":"ce4bhih2rcd13ifvqfs0","pricing_plan_id":"cebpf4jnsgd1na2vs0mg"},{"bike_id":"bcb50288-2df1-4bc6-ab9a-6e3df3e1d0c2","system_id":"levelo_inurba_marseille","lat":43.28572,"lon":5.39492,"is_reserved":false,"is_disabled":true,"rental_uris":{"android":"levelo://app?vid=bcb50288-2df1-4bc6-ab9a-6e3df3e1d0c2","ios":"levelo://app?vid=bcb50288-2df1-4bc6-ab9a-6e3df3e1d0c2"},"vehicle_type_id":"4","last_reported":1733598424,"current_range_meters":400,"station_id":"ce4bh292rcd13ifvqdg0","pricing_plan_id":"cebpf4jnsgd1na2vs0mg"},{"bike_id":"5a2102f3-04d2-4fe1-9bd4-bb4d3d20b677","system_id":"levelo_inurba_marseille","lat":43.26801,"lon":5.40261,"is_reserved":false,"is_disabled":false,"rental_uris":{"android":"levelo://app?vid=5a2102f3-04d2-4fe1-9bd4-bb4d3d20b677","ios":"levelo://app?vid=5a2102f3-04d2-4fe1-9bd4-bb4d3d20b677"},"vehicle_type_id":"4","last_reported":1733598424,"current_range_meters":38400,"station_id":"ce501612rcd8frsf0b60","pricing_plan_id":"cebpf4jnsgd1na2vs0mg"},{"bike_id":"89ceac00-2c22-4cb1-b85d-583fccdb788b","system_id":"levelo_inurba_marseille","lat":43.321019,"lon":5.367749,"is_reserved":false,"is_disabled":false,"rental_uris":{"android":"levelo://app?vid=89ceac00-2c22-4cb1-b85d-583fccdb788b","ios":"levelo://app?vid=89ceac00-2c22-4cb1-b85d-583fccdb788b"},"vehicle_type_id":"4","last_reported":1733598424,"current_range_meters":16800,"station_id":"ce4bhrh2rcd13ifvqhug","pricing_plan_id":"cebpf4jnsgd1na2vs0mg"},{"bike_id":"a0cc154f-ac3a-4d47-a7d1-3ae031260ba2","system_id":"levelo_inurba_marseille","lat":43.28355,"lon":5.38097,"is_reserved":false,"is_disabled":false,"rental_uris":{"android":"levelo://app?vid=a0cc154f-ac3a-4d47-a7d1-3ae031260ba2","ios":"levelo://app?vid=a0cc154f-ac3a-4d47-a7d1-3ae031260ba2"},"vehicle_type_id":"4","last_reported":1733598424,"current_range_meters":36800,"station_id":"ce4bh412rcd13ifvqdr0","pricing_plan_id":"cebpf4jnsgd1na2vs0mg"},{"bike_id":"e6ef4c64-4c4c-48fa-a061-246db244ae4c","system_id":"levelo_inurba_marseille","lat":43.25579,"lon":5.38235,"is_reserved":false,"is_disabled":false,"rental_uris":{"android":"levelo://app?vid=e6ef4c64-4c4c-48fa-a061-246db244ae4c","ios":"levelo://app?vid=e6ef4c64-4c4c-48fa-a061-246db244ae4c"},"vehicle_type_id":"4","last_reported":1733598424,"current_range_meters":24800,"station_id":"ce4bhih2rcd13ifvqfs0","pricing_plan_id":"cebpf4jnsgd1na2vs0mg"},{"bike_id":"2b247ce2-f875-40e9-bf2a-461f41bc9f8c","system_id":"levelo_inurba_marseille","lat":43.2481,"lon":5.37464,"is_reserved":false,"is_disabled":true,"rental_uris":{"android":"levelo://app?vid=2b247ce2-f875-40e9-bf2a-461f41bc9f8c","ios":"levelo://app?vid=2b247ce2-f875-40e9-bf2a-461f41bc9f8c"},"vehicle_type_id":"4","last_reported":1733598424,"current_range_meters":3600,"station_id":"ce4bhgh2rcd13ifvqfb0","pricing_plan_id":"cebpf4jnsgd1na2vs0mg"},{"bike_id":"938640b4-f78c-4def-9b16-e6205edb88bc","system_id":"levelo_inurba_marseille","lat":43.28153,"lon":5.42633,"is_reserved":false,"is_disabled":true,"rental_uris":{"android":"levelo://app?vid=938640b4-f78c-4def-9b16-e6205edb88bc","ios":"levelo://app?vid=938640b4-f78c-4def-9b16-e6205edb88bc"},"vehicle_type_id":"4","last_reported":1733598424,"current_range_meters":14000,"station_id":"ce4bhnh2rcd13ifvqgug","pricing_plan_id":"cebpf4jnsgd1na2vs0mg"},{"bike_id":"1fb4010f-a83b-4bc8-8a9f-b1bf3f987d68","system_id":"levelo_inurba_marseille","lat":43.2466,"lon":5.38164,"is_reserved":false,"is_disabled":false,"rental_uris":{"android":"levelo://app?vid=1fb4010f-a83b-4bc8-8a9f-b1bf3f987d68","ios":"levelo://app?vid=1fb4010f-a83b-4bc8-8a9f-b1bf3f987d68"},"vehicle_type_id":"4","last_reported":1733598424,"current_range_meters":22400,"station_id":"ce4bhih2rcd13ifvqfr0","pricing_plan_id":"cebpf4jnsgd1na2vs0mg"},{"bike_id":"456c6caf-37f6-49ed-a81d-8942c14426a1","system_id":"levelo_inurba_marseille","lat":43.31478,"lon":5.37156,"is_reserved":false,"is_disabled":true,"rental_uris":{"android":"levelo://app?vid=456c6caf-37f6-49ed-a81d-8942c14426a1","ios":"levelo://app?vid=456c6caf-37f6-49ed-a81d-8942c14426a1"},"vehicle_type_id":"4","last_reported":1733598424,"current_range_meters":26800,"station_id":"","pricing_plan_id":"cebpf4jnsgd1na2vs0mg"},{"bike_id":"2f3968e7-9336-4ee4-ba78-8e92c0a818cc","system_id":"levelo_inurba_marseille","lat":43.31322,"lon":5.36647,"is_reserved":false,"is_disabled":true,"rental_uris":{"android":"levelo://app?vid=2f3968e7-9336-4ee4-ba78-8e92c0a818cc","ios":"levelo://app?vid=2f3968e7-9336-4ee4-ba78-8e92c0a818cc"},"vehicle_type_id":"4","last_reported":1733598424,"current_range_meters":0,"station_id":"","pricing_plan_id":"cebpf4jnsgd1na2vs0mg"},{"bike_id":"5ebc19a5-4eab-4ea6-b558-b6d986ab3c2e","system_id":"levelo_inurba_marseille","lat":43.2465,"lon":5.38897,"is_reserved":false,"is_disabled":false,"rental_uris":{"android":"levelo://app?vid=5ebc19a5-4eab-4ea6-b558-b6d986ab3c2e","ios":"levelo://app?vid=5ebc19a5-4eab-4ea6-b558-b6d986ab3c2e"},"vehicle_type_id":"4","last_reported":1733598424,"current_range_meters":39200,"station_id":"ce4bhg12rcd13ifvqf60","pricing_plan_id":"cebpf4jnsgd1na2vs0mg"},{"bike_id":"5f7e2efc-36fb-4645-82f2-47717e8c8bf4","system_id":"levelo_inurba_marseille","lat":43.27051,"lon":5.40271,"is_reserved":false,"is_disabled":false,"rental_uris":{"android":"levelo://app?vid=5f7e2efc-36fb-4645-82f2-47717e8c8bf4","ios":"levelo://app?vid=5f7e2efc-36fb-4645-82f2-47717e8c8bf4"},"vehicle_type_id":"4","last_reported":1733598424,"current_range_meters":38800,"station_id":"ce4bhk92rcd13ifvqgc0","pricing_plan_id":"cebpf4jnsgd1na2vs0mg"},{"bike_id":"3ba2ee36-2b31-4bc9-b8c0-c8096e25c27c","system_id":"levelo_inurba_marseille","lat":43.29895,"lon":5.43663,"is_reserved":false,"is_disabled":false,"rental_uris":{"android":"levelo://app?vid=3ba2ee36-2b31-4bc9-b8c0-c8096e25c27c","ios":"levelo://app?vid=3ba2ee36-2b31-4bc9-b8c0-c8096e25c27c"},"vehicle_type_id":"4","last_reported":1733598424,"current_range_meters":28000,"station_id":"ce4bhpp2rcd13ifvqhfg","pricing_plan_id":"cebpf4jnsgd1na2vs0mg"},{"bike_id":"7e541628-f01d-4dfe-8a5a-2ce893963309","system_id":"levelo_inurba_marseille","lat":43.28938,"lon":5.36638,"is_reserved":false,"is_disabled":false,"rental_uris":{"android":"levelo://app?vid=7e541628-f01d-4dfe-8a5a-2ce893963309","ios":"levelo://app?vid=7e541628-f01d-4dfe-8a5a-2ce893963309"},"vehicle_type_id":"4","last_reported":1733598424,"current_range_meters":36800,"station_id":"ce4bhap2rcd13ifvqek0","pricing_plan_id":"cebpf4jnsgd1na2vs0mg"},{"bike_id":"f4e45fe2-593e-4aec-ac39-ccabede5690b","system_id":"levelo_inurba_marseille","lat":43.30212,"lon":5.3947,"is_reserved":false,"is_disabled":false,"rental_uris":{"android":"levelo://app?vid=f4e45fe2-593e-4aec-ac39-ccabede5690b","ios":"levelo://app?vid=f4e45fe2-593e-4aec-ac39-ccabede5690b"},"vehicle_type_id":"4","last_reported":1733598424,"current_range_meters":39200,"station_id":"ce4bh0p2rcd13ifvqd70","pricing_plan_id":"cebpf4jnsgd1na2vs0mg"},{"bike_id":"7736d0dc-1989-4505-a61b-7fdb0a6489c6","system_id":"levelo_inurba_marseille","lat":43.323699,"lon":5.388852,"is_reserved":false,"is_disabled":false,"rental_uris":{"android":"levelo://app?vid=7736d0dc-1989-4505-a61b-7fdb0a6489c6","ios":"levelo://app?vid=7736d0dc-1989-4505-a61b-7fdb0a6489c6"},"vehicle_type_id":"4","last_reported":1733598424,"current_range_meters":5600,"station_id":"ce4bhqp2rcd13ifvqhog","pricing_plan_id":"cebpf4jnsgd1na2vs0mg"},{"bike_id":"0e77377b-ad1b-4799-934c-61d5e9b174fd","system_id":"levelo_inurba_marseille","lat":43.29787,"lon":5.38102,"is_reserved":false,"is_disabled":true,"rental_uris":{"android":"levelo://app?vid=0e77377b-ad1b-4799-934c-61d5e9b174fd","ios":"levelo://app?vid=0e77377b-ad1b-4799-934c-61d5e9b174fd"},"vehicle_type_id":"4","last_reported":1733598424,"current_range_meters":3200,"station_id":"ce4bgip2rcd13ifvqbb0","pricing_plan_id":"cebpf4jnsgd1na2vs0mg"},{"bike_id":"6583aefc-6815-4bd5-8f5c-a9c5d794f47e","system_id":"levelo_inurba_marseille","lat":43.36498,"lon":5.34272,"is_reserved":false,"is_disabled":false,"rental_uris":{"android":"levelo://app?vid=6583aefc-6815-4bd5-8f5c-a9c5d794f47e","ios":"levelo://app?vid=6583aefc-6815-4bd5-8f5c-a9c5d794f47e"},"vehicle_type_id":"4","last_reported":1733598424,"current_range_meters":25200,"station_id":"","pricing_plan_id":"cebpf4jnsgd1na2vs0mg"},{"bike_id":"8d181a70-9e46-48ca-b8dd-89cb02fdcc1e","system_id":"levelo_inurba_marseille","lat":43.28707,"lon":5.39994,"is_reserved":false,"is_disabled":false,"rental_uris":{"android":"levelo://app?vid=8d181a70-9e46-48ca-b8dd-89cb02fdcc1e","ios":"levelo://app?vid=8d181a70-9e46-48ca-b8dd-89cb02fdcc1e"},"vehicle_type_id":"4","last_reported":1733598424,"current_range_meters":8400,"station_id":"ce4bho92rcd13ifvqh3g","pricing_plan_id":"cebpf4jnsgd1na2vs0mg"},{"bike_id":"18c465ad-16a0-4d72-a337-11a15929aab8","system_id":"levelo_inurba_marseille","lat":43.23969,"lon":5.36611,"is_reserved":false,"is_disabled":false,"rental_uris":{"android":"levelo://app?vid=18c465ad-16a0-4d72-a337-11a15929aab8","ios":"levelo://app?vid=18c465ad-16a0-4d72-a337-11a15929aab8"},"vehicle_type_id":"4","last_reported":1733598424,"current_range_meters":5600,"station_id":"ce4bhi12rcd13ifvqfp0","pricing_plan_id":"cebpf4jnsgd1na2vs0mg"},{"bike_id":"d24ba112-fd35-4be4-adc0-0664a6e3ad7b","system_id":"levelo_inurba_marseille","lat":43.2465,"lon":5.38899,"is_reserved":false,"is_disabled":false,"rental_uris":{"android":"levelo://app?vid=d24ba112-fd35-4be4-adc0-0664a6e3ad7b","ios":"levelo://app?vid=d24ba112-fd35-4be4-adc0-0664a6e3ad7b"},"vehicle_type_id":"4","last_reported":1733598424,"current_range_meters":39200,"station_id":"ce4bhg12rcd13ifvqf60","pricing_plan_id":"cebpf4jnsgd1na2vs0mg"},{"bike_id":"f825a6e3-d202-4ddc-917b-5da49c4114c4","system_id":"levelo_inurba_marseille","lat":43.23192,"lon":5.35548,"is_reserved":false,"is_disabled":false,"rental_uris":{"android":"levelo://app?vid=f825a6e3-d202-4ddc-917b-5da49c4114c4","ios":"levelo://app?vid=f825a6e3-d202-4ddc-917b-5da49c4114c4"},"vehicle_type_id":"4","last_reported":1733598424,"current_range_meters":8400,"station_id":"ce4bhu92rcd13ifvqi70","pricing_plan_id":"cebpf4jnsgd1na2vs0mg"},{"bike_id":"468d023e-e483-49f2-92d7-7b95c7b3c650","system_id":"levelo_inurba_marseille","lat":43.29901,"lon":5.4365,"is_reserved":false,"is_disabled":false,"rental_uris":{"android":"levelo://app?vid=468d023e-e483-49f2-92d7-7b95c7b3c650","ios":"levelo://app?vid=468d023e-e483-49f2-92d7-7b95c7b3c650"},"vehicle_type_id":"4","last_reported":1733598424,"current_range_meters":11600,"station_id":"ce4bhpp2rcd13ifvqhfg","pricing_plan_id":"cebpf4jnsgd1na2vs0mg"},{"bike_id":"56038075-6e9d-4661-b767-547c372b6772","system_id":"levelo_inurba_marseille","lat":43.26213,"lon":5.37431,"is_reserved":false,"is_disabled":false,"rental_uris":{"android":"levelo://app?vid=56038075-6e9d-4661-b767-547c372b6772","ios":"levelo://app?vid=56038075-6e9d-4661-b767-547c372b6772"},"vehicle_type_id":"4","last_reported":1733598424,"current_range_meters":8400,"station_id":"ce4bhgp2rcd13ifvqfc0","pricing_plan_id":"cebpf4jnsgd1na2vs0mg"},{"bike_id":"1f0069f4-0203-411f-9d54-4847020667f6","system_id":"levelo_inurba_marseille","lat":43.28569,"lon":5.39486,"is_reserved":false,"is_disabled":false,"rental_uris":{"android":"levelo://app?vid=1f0069f4-0203-411f-9d54-4847020667f6","ios":"levelo://app?vid=1f0069f4-0203-411f-9d54-4847020667f6"},"vehicle_type_id":"4","last_reported":1733598424,"current_range_meters":15200,"station_id":"ce4bh292rcd13ifvqdg0","pricing_plan_id":"cebpf4jnsgd1na2vs0mg"},{"bike_id":"f971ef19-dbf4-4e3d-91ee-6da0b929da91","system_id":"levelo_inurba_marseille","lat":43.2987,"lon":5.39732,"is_reserved":false,"is_disabled":false,"rental_uris":{"android":"levelo://app?vid=f971ef19-dbf4-4e3d-91ee-6da0b929da91","ios":"levelo://app?vid=f971ef19-dbf4-4e3d-91ee-6da0b929da91"},"vehicle_type_id":"4","last_reported":1733598424,"current_range_meters":22800,"station_id":"ce4bh0h2rcd13ifvqd50","pricing_plan_id":"cebpf4jnsgd1na2vs0mg"},{"bike_id":"95549e99-3d14-4048-a51a-7392522446dc","system_id":"levelo_inurba_marseille","lat":43.23194,"lon":5.35559,"is_reserved":false,"is_disabled":false,"rental_uris":{"android":"levelo://app?vid=95549e99-3d14-4048-a51a-7392522446dc","ios":"levelo://app?vid=95549e99-3d14-4048-a51a-7392522446dc"},"vehicle_type_id":"4","last_reported":1733598424,"current_range_meters":30800,"station_id":"ce4bhu92rcd13ifvqi70","pricing_plan_id":"cebpf4jnsgd1na2vs0mg"},{"bike_id":"f10c5e90-601b-4bd4-87e7-4cbb6a13a4fb","system_id":"levelo_inurba_marseille","lat":43.26123,"lon":5.39268,"is_reserved":false,"is_disabled":true,"rental_uris":{"android":"levelo://app?vid=f10c5e90-601b-4bd4-87e7-4cbb6a13a4fb","ios":"levelo://app?vid=f10c5e90-601b-4bd4-87e7-4cbb6a13a4fb"},"vehicle_type_id":"4","last_reported":1733598424,"current_range_meters":0,"station_id":"","pricing_plan_id":"cebpf4jnsgd1na2vs0mg"},{"bike_id":"b1a023a8-bfe2-4a8e-8aaa-4e18b6da929e","system_id":"levelo_inurba_marseille","lat":43.29415,"lon":5.38606,"is_reserved":false,"is_disabled":true,"rental_uris":{"android":"levelo://app?vid=b1a023a8-bfe2-4a8e-8aaa-4e18b6da929e","ios":"levelo://app?vid=b1a023a8-bfe2-4a8e-8aaa-4e18b6da929e"},"vehicle_type_id":"4","last_reported":1733598424,"current_range_meters":6800,"station_id":"ce4bh2h2rcd13ifvqdh0","pricing_plan_id":"cebpf4jnsgd1na2vs0mg"},{"bike_id":"d2d77fb1-d8e4-4d93-af48-f4130e25810f","system_id":"levelo_inurba_marseille","lat":43.25825,"lon":5.39408,"is_reserved":false,"is_disabled":false,"rental_uris":{"android":"levelo://app?vid=d2d77fb1-d8e4-4d93-af48-f4130e25810f","ios":"levelo://app?vid=d2d77fb1-d8e4-4d93-af48-f4130e25810f"},"vehicle_type_id":"4","last_reported":1733598424,"current_range_meters":35600,"station_id":"ce4bhip2rcd13ifvqft0","pricing_plan_id":"cebpf4jnsgd1na2vs0mg"},{"bike_id":"5d5e8e08-dd36-4331-9be8-d7717274c4bc","system_id":"levelo_inurba_marseille","lat":43.31269,"lon":5.401677,"is_reserved":false,"is_disabled":false,"rental_uris":{"android":"levelo://app?vid=5d5e8e08-dd36-4331-9be8-d7717274c4bc","ios":"levelo://app?vid=5d5e8e08-dd36-4331-9be8-d7717274c4bc"},"vehicle_type_id":"4","last_reported":1733598424,"current_range_meters":29600,"station_id":"ce4bh092rcd13ifvqd30","pricing_plan_id":"cebpf4jnsgd1na2vs0mg"},{"bike_id":"431ecb0f-6bfa-4a22-bdb3-93dd7f0e942b","system_id":"levelo_inurba_marseille","lat":43.28851,"lon":5.39315,"is_reserved":false,"is_disabled":false,"rental_uris":{"android":"levelo://app?vid=431ecb0f-6bfa-4a22-bdb3-93dd7f0e942b","ios":"levelo://app?vid=431ecb0f-6bfa-4a22-bdb3-93dd7f0e942b"},"vehicle_type_id":"4","last_reported":1733598424,"current_range_meters":16800,"station_id":"ce4bh2p2rcd13ifvqdi0","pricing_plan_id":"cebpf4jnsgd1na2vs0mg"},{"bike_id":"95414d5c-6629-4e8c-8b6c-ad295613082f","system_id":"levelo_inurba_marseille","lat":43.30545,"lon":5.36528,"is_reserved":false,"is_disabled":true,"rental_uris":{"android":"levelo://app?vid=95414d5c-6629-4e8c-8b6c-ad295613082f","ios":"levelo://app?vid=95414d5c-6629-4e8c-8b6c-ad295613082f"},"vehicle_type_id":"4","last_reported":1733598424,"current_range_meters":0,"station_id":"ce4bgs12rcd13ifvqcag","pricing_plan_id":"cebpf4jnsgd1na2vs0mg"},{"bike_id":"45dcd923-4876-42e7-960a-878f303ebd33","system_id":"levelo_inurba_marseille","lat":43.32041,"lon":5.4156,"is_reserved":false,"is_disabled":false,"rental_uris":{"android":"levelo://app?vid=45dcd923-4876-42e7-960a-878f303ebd33","ios":"levelo://app?vid=45dcd923-4876-42e7-960a-878f303ebd33"},"vehicle_type_id":"4","last_reported":1733598424,"current_range_meters":35200,"station_id":"ce4bhq92rcd13ifvqhkg","pricing_plan_id":"cebpf4jnsgd1na2vs0mg"},{"bike_id":"9003abe5-1acf-4bc9-8847-3118dddaaea3","system_id":"levelo_inurba_marseille","lat":43.31364,"lon":5.38492,"is_reserved":false,"is_disabled":true,"rental_uris":{"android":"levelo://app?vid=9003abe5-1acf-4bc9-8847-3118dddaaea3","ios":"levelo://app?vid=9003abe5-1acf-4bc9-8847-3118dddaaea3"},"vehicle_type_id":"4","last_reported":1733598424,"current_range_meters":0,"station_id":"ce4bgt92rcd13ifvqcf0","pricing_plan_id":"cebpf4jnsgd1na2vs0mg"},{"bike_id":"57db861a-0fd6-47d3-9020-d4fd70308e49","system_id":"levelo_inurba_marseille","lat":43.30131,"lon":5.39888,"is_reserved":false,"is_disabled":false,"rental_uris":{"android":"levelo://app?vid=57db861a-0fd6-47d3-9020-d4fd70308e49","ios":"levelo://app?vid=57db861a-0fd6-47d3-9020-d4fd70308e49"},"vehicle_type_id":"4","last_reported":1733598424,"current_range_meters":38000,"station_id":"ce4bh0h2rcd13ifvqd40","pricing_plan_id":"cebpf4jnsgd1na2vs0mg"},{"bike_id":"c9b870d0-adbc-477b-b2c3-23e72738799d","system_id":"levelo_inurba_marseille","lat":43.24177,"lon":5.39733,"is_reserved":false,"is_disabled":false,"rental_uris":{"android":"levelo://app?vid=c9b870d0-adbc-477b-b2c3-23e72738799d","ios":"levelo://app?vid=c9b870d0-adbc-477b-b2c3-23e72738799d"},"vehicle_type_id":"4","last_reported":1733598424,"current_range_meters":23200,"station_id":"ce4bhn12rcd13ifvqgpg","pricing_plan_id":"cebpf4jnsgd1na2vs0mg"},{"bike_id":"401cc2a2-2d0e-40e1-992e-7cf2647b5031","system_id":"levelo_inurba_marseille","lat":43.26783,"lon":5.39414,"is_reserved":false,"is_disabled":false,"rental_uris":{"android":"levelo://app?vid=401cc2a2-2d0e-40e1-992e-7cf2647b5031","ios":"levelo://app?vid=401cc2a2-2d0e-40e1-992e-7cf2647b5031"},"vehicle_type_id":"4","last_reported":1733598424,"current_range_meters":28400,"station_id":"ce4bhh12rcd13ifvqfg0","pricing_plan_id":"cebpf4jnsgd1na2vs0mg"},{"bike_id":"a36e78d4-fe58-4a60-b27a-424cd5852129","system_id":"levelo_inurba_marseille","lat":43.30429,"lon":5.38893,"is_reserved":false,"is_disabled":false,"rental_uris":{"android":"levelo://app?vid=a36e78d4-fe58-4a60-b27a-424cd5852129","ios":"levelo://app?vid=a36e78d4-fe58-4a60-b27a-424cd5852129"},"vehicle_type_id":"4","last_reported":1733598424,"current_range_meters":37600,"station_id":"ce4bgk12rcd13ifvqbi0","pricing_plan_id":"cebpf4jnsgd1na2vs0mg"},{"bike_id":"2a022814-f741-4adf-a235-83d4941bf5e2","system_id":"levelo_inurba_marseille","lat":43.28427,"lon":5.34994,"is_reserved":false,"is_disabled":false,"rental_uris":{"android":"levelo://app?vid=2a022814-f741-4adf-a235-83d4941bf5e2","ios":"levelo://app?vid=2a022814-f741-4adf-a235-83d4941bf5e2"},"vehicle_type_id":"4","last_reported":1733598424,"current_range_meters":16800,"station_id":"ce4bhbh2rcd13ifvqepg","pricing_plan_id":"cebpf4jnsgd1na2vs0mg"},{"bike_id":"fc8de143-b165-42de-80f9-67981c0dd730","system_id":"levelo_inurba_marseille","lat":43.28703,"lon":5.39984,"is_reserved":false,"is_disabled":false,"rental_uris":{"android":"levelo://app?vid=fc8de143-b165-42de-80f9-67981c0dd730","ios":"levelo://app?vid=fc8de143-b165-42de-80f9-67981c0dd730"},"vehicle_type_id":"4","last_reported":1733598424,"current_range_meters":38800,"station_id":"ce4bho92rcd13ifvqh3g","pricing_plan_id":"cebpf4jnsgd1na2vs0mg"},{"bike_id":"5d056d89-3c55-43db-8676-07f54f6ad15e","system_id":"levelo_inurba_marseille","lat":43.2418,"lon":5.39723,"is_reserved":false,"is_disabled":false,"rental_uris":{"android":"levelo://app?vid=5d056d89-3c55-43db-8676-07f54f6ad15e","ios":"levelo://app?vid=5d056d89-3c55-43db-8676-07f54f6ad15e"},"vehicle_type_id":"4","last_reported":1733598424,"current_range_meters":3200,"station_id":"ce4bhn12rcd13ifvqgpg","pricing_plan_id":"cebpf4jnsgd1na2vs0mg"},{"bike_id":"3104e2de-5e3a-4c5e-81a9-28ecf87fa78a","system_id":"levelo_inurba_marseille","lat":43.28938,"lon":5.36633,"is_reserved":false,"is_disabled":false,"rental_uris":{"android":"levelo://app?vid=3104e2de-5e3a-4c5e-81a9-28ecf87fa78a","ios":"levelo://app?vid=3104e2de-5e3a-4c5e-81a9-28ecf87fa78a"},"vehicle_type_id":"4","last_reported":1733598424,"current_range_meters":36400,"station_id":"ce4bhap2rcd13ifvqek0","pricing_plan_id":"cebpf4jnsgd1na2vs0mg"},{"bike_id":"987a5ab4-d60c-480c-94b6-7cab38975402","system_id":"levelo_inurba_marseille","lat":43.29748,"lon":5.37971,"is_reserved":false,"is_disabled":true,"rental_uris":{"android":"levelo://app?vid=987a5ab4-d60c-480c-94b6-7cab38975402","ios":"levelo://app?vid=987a5ab4-d60c-480c-94b6-7cab38975402"},"vehicle_type_id":"4","last_reported":1733598424,"current_range_meters":0,"station_id":"","pricing_plan_id":"cebpf4jnsgd1na2vs0mg"},{"bike_id":"db3b73b2-c012-4de8-a25a-066324dffd85","system_id":"levelo_inurba_marseille","lat":43.30546,"lon":5.36533,"is_reserved":false,"is_disabled":true,"rental_uris":{"android":"levelo://app?vid=db3b73b2-c012-4de8-a25a-066324dffd85","ios":"levelo://app?vid=db3b73b2-c012-4de8-a25a-066324dffd85"},"vehicle_type_id":"4","last_reported":1733598424,"current_range_meters":12400,"station_id":"ce4bgs12rcd13ifvqcag","pricing_plan_id":"cebpf4jnsgd1na2vs0mg"},{"bike_id":"ea3a9828-189e-48bb-9969-079f23b2d5e2","system_id":"levelo_inurba_marseille","lat":43.29032,"lon":5.37564,"is_reserved":false,"is_disabled":false,"rental_uris":{"android":"levelo://app?vid=ea3a9828-189e-48bb-9969-079f23b2d5e2","ios":"levelo://app?vid=ea3a9828-189e-48bb-9969-079f23b2d5e2"},"vehicle_type_id":"4","last_reported":1733598424,"current_range_meters":4400,"station_id":"ce4bh692rcd13ifvqe90","pricing_plan_id":"cebpf4jnsgd1na2vs0mg"},{"bike_id":"dd4d8f16-8b33-4354-8e35-4b1ba2ae6089","system_id":"levelo_inurba_marseille","lat":43.25726,"lon":5.4111,"is_reserved":false,"is_disabled":true,"rental_uris":{"android":"levelo://app?vid=dd4d8f16-8b33-4354-8e35-4b1ba2ae6089","ios":"levelo://app?vid=dd4d8f16-8b33-4354-8e35-4b1ba2ae6089"},"vehicle_type_id":"4","last_reported":1733598424,"current_range_meters":0,"station_id":"ce4bhkp2rcd13ifvqgd0","pricing_plan_id":"cebpf4jnsgd1na2vs0mg"},{"bike_id":"e4ba6ddf-afc7-489b-b78e-be69962dd27c","system_id":"levelo_inurba_marseille","lat":43.314024,"lon":5.370806,"is_reserved":false,"is_disabled":false,"rental_uris":{"android":"levelo://app?vid=e4ba6ddf-afc7-489b-b78e-be69962dd27c","ios":"levelo://app?vid=e4ba6ddf-afc7-489b-b78e-be69962dd27c"},"vehicle_type_id":"4","last_reported":1733598424,"current_range_meters":36400,"station_id":"","pricing_plan_id":"cebpf4jnsgd1na2vs0mg"},{"bike_id":"650082fd-a93b-4af2-9788-233a8c2e1551","system_id":"levelo_inurba_marseille","lat":43.30524,"lon":5.36558,"is_reserved":false,"is_disabled":true,"rental_uris":{"android":"levelo://app?vid=650082fd-a93b-4af2-9788-233a8c2e1551","ios":"levelo://app?vid=650082fd-a93b-4af2-9788-233a8c2e1551"},"vehicle_type_id":"4","last_reported":1733598424,"current_range_meters":10000,"station_id":"ce4bgs12rcd13ifvqcag","pricing_plan_id":"cebpf4jnsgd1na2vs0mg"},{"bike_id":"53c6c3d3-42c4-451f-9207-7ca176099773","system_id":"levelo_inurba_marseille","lat":43.27209,"lon":5.39197,"is_reserved":false,"is_disabled":false,"rental_uris":{"android":"levelo://app?vid=53c6c3d3-42c4-451f-9207-7ca176099773","ios":"levelo://app?vid=53c6c3d3-42c4-451f-9207-7ca176099773"},"vehicle_type_id":"4","last_reported":1733598424,"current_range_meters":36000,"station_id":"ce4bhhp2rcd13ifvqfm0","pricing_plan_id":"cebpf4jnsgd1na2vs0mg"},{"bike_id":"11e86528-eb6b-4391-86a5-9b1822d069a4","system_id":"levelo_inurba_marseille","lat":43.278805,"lon":5.388003,"is_reserved":false,"is_disabled":true,"rental_uris":{"android":"levelo://app?vid=11e86528-eb6b-4391-86a5-9b1822d069a4","ios":"levelo://app?vid=11e86528-eb6b-4391-86a5-9b1822d069a4"},"vehicle_type_id":"4","last_reported":1733598424,"current_range_meters":0,"station_id":"","pricing_plan_id":"cebpf4jnsgd1na2vs0mg"},{"bike_id":"6cc6805f-c0ca-4585-bdf1-b5a0339762b0","system_id":"levelo_inurba_marseille","lat":43.29027,"lon":5.42744,"is_reserved":false,"is_disabled":true,"rental_uris":{"android":"levelo://app?vid=6cc6805f-c0ca-4585-bdf1-b5a0339762b0","ios":"levelo://app?vid=6cc6805f-c0ca-4585-bdf1-b5a0339762b0"},"vehicle_type_id":"4","last_reported":1733598424,"current_range_meters":0,"station_id":"","pricing_plan_id":"cebpf4jnsgd1na2vs0mg"},{"bike_id":"fbab0e01-40cc-4eff-939a-d9a8fdd7ac42","system_id":"levelo_inurba_marseille","lat":43.25727,"lon":5.41108,"is_reserved":false,"is_disabled":false,"rental_uris":{"android":"levelo://app?vid=fbab0e01-40cc-4eff-939a-d9a8fdd7ac42","ios":"levelo://app?vid=fbab0e01-40cc-4eff-939a-d9a8fdd7ac42"},"vehicle_type_id":"4","last_reported":1733598424,"current_range_meters":24000,"station_id":"ce4bhkp2rcd13ifvqgd0","pricing_plan_id":"cebpf4jnsgd1na2vs0mg"},{"bike_id":"4e6fc26f-c1d5-4d84-ac5b-7d384b8c30d5","system_id":"levelo_inurba_marseille","lat":43.33431,"lon":5.36194,"is_reserved":false,"is_disabled":false,"rental_uris":{"android":"levelo://app?vid=4e6fc26f-c1d5-4d84-ac5b-7d384b8c30d5","ios":"levelo://app?vid=4e6fc26f-c1d5-4d84-ac5b-7d384b8c30d5"},"vehicle_type_id":"4","last_reported":1733598424,"current_range_meters":19600,"station_id":"","pricing_plan_id":"cebpf4jnsgd1na2vs0mg"},{"bike_id":"ceca4358-2dc5-44bb-9d1b-c72aaa641705","system_id":"levelo_inurba_marseille","lat":43.26561,"lon":5.37298,"is_reserved":false,"is_disabled":false,"rental_uris":{"android":"levelo://app?vid=ceca4358-2dc5-44bb-9d1b-c72aaa641705","ios":"levelo://app?vid=ceca4358-2dc5-44bb-9d1b-c72aaa641705"},"vehicle_type_id":"4","last_reported":1733598424,"current_range_meters":20000,"station_id":"ce4bhg12rcd13ifvqf70","pricing_plan_id":"cebpf4jnsgd1na2vs0mg"},{"bike_id":"c7db4cae-7902-43ab-8b54-35929c992765","system_id":"levelo_inurba_marseille","lat":43.30909,"lon":5.36847,"is_reserved":false,"is_disabled":false,"rental_uris":{"android":"levelo://app?vid=c7db4cae-7902-43ab-8b54-35929c992765","ios":"levelo://app?vid=c7db4cae-7902-43ab-8b54-35929c992765"},"vehicle_type_id":"4","last_reported":1733598424,"current_range_meters":8000,"station_id":"ce4bgn92rcd13ifvqbvg","pricing_plan_id":"cebpf4jnsgd1na2vs0mg"},{"bike_id":"d660403f-446f-4417-91d5-569b837788af","system_id":"levelo_inurba_marseille","lat":43.2705,"lon":5.40265,"is_reserved":false,"is_disabled":false,"rental_uris":{"android":"levelo://app?vid=d660403f-446f-4417-91d5-569b837788af","ios":"levelo://app?vid=d660403f-446f-4417-91d5-569b837788af"},"vehicle_type_id":"4","last_reported":1733598424,"current_range_meters":24000,"station_id":"ce4bhk92rcd13ifvqgc0","pricing_plan_id":"cebpf4jnsgd1na2vs0mg"},{"bike_id":"754ce144-90ea-47c2-b7a7-4a830ab01a62","system_id":"levelo_inurba_marseille","lat":43.29416,"lon":5.3862,"is_reserved":false,"is_disabled":false,"rental_uris":{"android":"levelo://app?vid=754ce144-90ea-47c2-b7a7-4a830ab01a62","ios":"levelo://app?vid=754ce144-90ea-47c2-b7a7-4a830ab01a62"},"vehicle_type_id":"4","last_reported":1733598424,"current_range_meters":32800,"station_id":"ce4bh2h2rcd13ifvqdh0","pricing_plan_id":"cebpf4jnsgd1na2vs0mg"},{"bike_id":"34885636-263e-4fb3-b04c-edeeb1ca57da","system_id":"levelo_inurba_marseille","lat":43.25827,"lon":5.39421,"is_reserved":false,"is_disabled":false,"rental_uris":{"android":"levelo://app?vid=34885636-263e-4fb3-b04c-edeeb1ca57da","ios":"levelo://app?vid=34885636-263e-4fb3-b04c-edeeb1ca57da"},"vehicle_type_id":"4","last_reported":1733598424,"current_range_meters":35200,"station_id":"ce4bhip2rcd13ifvqft0","pricing_plan_id":"cebpf4jnsgd1na2vs0mg"},{"bike_id":"9d279d6e-d4e3-4348-985c-330646d4ed74","system_id":"levelo_inurba_marseille","lat":43.32042,"lon":5.41563,"is_reserved":false,"is_disabled":false,"rental_uris":{"android":"levelo://app?vid=9d279d6e-d4e3-4348-985c-330646d4ed74","ios":"levelo://app?vid=9d279d6e-d4e3-4348-985c-330646d4ed74"},"vehicle_type_id":"4","last_reported":1733598424,"current_range_meters":38800,"station_id":"ce4bhq92rcd13ifvqhkg","pricing_plan_id":"cebpf4jnsgd1na2vs0mg"},{"bike_id":"9a4e9339-63f3-4470-87a6-745c64ad6361","system_id":"levelo_inurba_marseille","lat":43.28972,"lon":5.37835,"is_reserved":false,"is_disabled":false,"rental_uris":{"android":"levelo://app?vid=9a4e9339-63f3-4470-87a6-745c64ad6361","ios":"levelo://app?vid=9a4e9339-63f3-4470-87a6-745c64ad6361"},"vehicle_type_id":"4","last_reported":1733598424,"current_range_meters":38800,"station_id":"ce4bh9p2rcd13ifvqed0","pricing_plan_id":"cebpf4jnsgd1na2vs0mg"},{"bike_id":"3a1cabfd-7ea0-40e5-ba2a-bc16f7acb1fa","system_id":"levelo_inurba_marseille","lat":43.34326,"lon":5.35817,"is_reserved":false,"is_disabled":true,"rental_uris":{"android":"levelo://app?vid=3a1cabfd-7ea0-40e5-ba2a-bc16f7acb1fa","ios":"levelo://app?vid=3a1cabfd-7ea0-40e5-ba2a-bc16f7acb1fa"},"vehicle_type_id":"4","last_reported":1733598424,"current_range_meters":6000,"station_id":"","pricing_plan_id":"cebpf4jnsgd1na2vs0mg"},{"bike_id":"9d137905-6de0-4abc-bfa4-9ac64683ad80","system_id":"levelo_inurba_marseille","lat":43.27054,"lon":5.40262,"is_reserved":false,"is_disabled":false,"rental_uris":{"android":"levelo://app?vid=9d137905-6de0-4abc-bfa4-9ac64683ad80","ios":"levelo://app?vid=9d137905-6de0-4abc-bfa4-9ac64683ad80"},"vehicle_type_id":"4","last_reported":1733598424,"current_range_meters":38000,"station_id":"ce4bhk92rcd13ifvqgc0","pricing_plan_id":"cebpf4jnsgd1na2vs0mg"},{"bike_id":"4ee5dc9d-e8d0-4c8d-8727-8415429c425a","system_id":"levelo_inurba_marseille","lat":43.2781,"lon":5.40713,"is_reserved":false,"is_disabled":false,"rental_uris":{"android":"levelo://app?vid=4ee5dc9d-e8d0-4c8d-8727-8415429c425a","ios":"levelo://app?vid=4ee5dc9d-e8d0-4c8d-8727-8415429c425a"},"vehicle_type_id":"4","last_reported":1733598424,"current_range_meters":19600,"station_id":"ce4bhnh2rcd13ifvqgtg","pricing_plan_id":"cebpf4jnsgd1na2vs0mg"},{"bike_id":"50bb27dc-d4c8-4ffc-819f-c85f0fdb037a","system_id":"levelo_inurba_marseille","lat":43.30951,"lon":5.39041,"is_reserved":false,"is_disabled":true,"rental_uris":{"android":"levelo://app?vid=50bb27dc-d4c8-4ffc-819f-c85f0fdb037a","ios":"levelo://app?vid=50bb27dc-d4c8-4ffc-819f-c85f0fdb037a"},"vehicle_type_id":"4","last_reported":1733598424,"current_range_meters":2000,"station_id":"ce4bgup2rcd13ifvqco0","pricing_plan_id":"cebpf4jnsgd1na2vs0mg"},{"bike_id":"0e8bde90-0770-4ce6-9d21-22431a947c03","system_id":"levelo_inurba_marseille","lat":43.29679,"lon":5.37289,"is_reserved":false,"is_disabled":false,"rental_uris":{"android":"levelo://app?vid=0e8bde90-0770-4ce6-9d21-22431a947c03","ios":"levelo://app?vid=0e8bde90-0770-4ce6-9d21-22431a947c03"},"vehicle_type_id":"4","last_reported":1733598424,"current_range_meters":36400,"station_id":"ce4bgk12rcd13ifvqbj0","pricing_plan_id":"cebpf4jnsgd1na2vs0mg"},{"bike_id":"e4f90514-a076-4be8-a6ef-72648abc13d3","system_id":"levelo_inurba_marseille","lat":43.28852,"lon":5.39304,"is_reserved":false,"is_disabled":false,"rental_uris":{"android":"levelo://app?vid=e4f90514-a076-4be8-a6ef-72648abc13d3","ios":"levelo://app?vid=e4f90514-a076-4be8-a6ef-72648abc13d3"},"vehicle_type_id":"4","last_reported":1733598424,"current_range_meters":24800,"station_id":"ce4bh2p2rcd13ifvqdi0","pricing_plan_id":"cebpf4jnsgd1na2vs0mg"},{"bike_id":"fc7ea287-6e78-4210-9698-a31ef4d0431c","system_id":"levelo_inurba_marseille","lat":43.27065,"lon":5.42269,"is_reserved":false,"is_disabled":false,"rental_uris":{"android":"levelo://app?vid=fc7ea287-6e78-4210-9698-a31ef4d0431c","ios":"levelo://app?vid=fc7ea287-6e78-4210-9698-a31ef4d0431c"},"vehicle_type_id":"4","last_reported":1733598424,"current_range_meters":26000,"station_id":"ce4bhk92rcd13ifvqgb0","pricing_plan_id":"cebpf4jnsgd1na2vs0mg"},{"bike_id":"90180111-4adc-44a4-b3b2-23febea5d380","system_id":"levelo_inurba_marseille","lat":43.33026,"lon":5.39041,"is_reserved":false,"is_disabled":false,"rental_uris":{"android":"levelo://app?vid=90180111-4adc-44a4-b3b2-23febea5d380","ios":"levelo://app?vid=90180111-4adc-44a4-b3b2-23febea5d380"},"vehicle_type_id":"4","last_reported":1733598424,"current_range_meters":30800,"station_id":"ce4bhr92rcd13ifvqhrg","pricing_plan_id":"cebpf4jnsgd1na2vs0mg"},{"bike_id":"1f610b82-9128-4e03-9855-53ffeab37d2c","system_id":"levelo_inurba_marseille","lat":43.25088,"lon":5.39516,"is_reserved":false,"is_disabled":false,"rental_uris":{"android":"levelo://app?vid=1f610b82-9128-4e03-9855-53ffeab37d2c","ios":"levelo://app?vid=1f610b82-9128-4e03-9855-53ffeab37d2c"},"vehicle_type_id":"4","last_reported":1733598424,"current_range_meters":3200,"station_id":"ce4bhm12rcd13ifvqgkg","pricing_plan_id":"cebpf4jnsgd1na2vs0mg"},{"bike_id":"5d3d743b-c956-46d6-89b9-755ed55eefcb","system_id":"levelo_inurba_marseille","lat":43.32038,"lon":5.41542,"is_reserved":false,"is_disabled":false,"rental_uris":{"android":"levelo://app?vid=5d3d743b-c956-46d6-89b9-755ed55eefcb","ios":"levelo://app?vid=5d3d743b-c956-46d6-89b9-755ed55eefcb"},"vehicle_type_id":"4","last_reported":1733598424,"current_range_meters":38800,"station_id":"ce4bhq92rcd13ifvqhkg","pricing_plan_id":"cebpf4jnsgd1na2vs0mg"},{"bike_id":"fd8a14e9-71dc-40e1-87c7-5a9df0c904f6","system_id":"levelo_inurba_marseille","lat":43.29898,"lon":5.43671,"is_reserved":false,"is_disabled":false,"rental_uris":{"android":"levelo://app?vid=fd8a14e9-71dc-40e1-87c7-5a9df0c904f6","ios":"levelo://app?vid=fd8a14e9-71dc-40e1-87c7-5a9df0c904f6"},"vehicle_type_id":"4","last_reported":1733598424,"current_range_meters":10800,"station_id":"ce4bhpp2rcd13ifvqhfg","pricing_plan_id":"cebpf4jnsgd1na2vs0mg"},{"bike_id":"629338be-c47b-408e-8dc6-16564269aee7","system_id":"levelo_inurba_marseille","lat":43.27619,"lon":5.36103,"is_reserved":false,"is_disabled":false,"rental_uris":{"android":"levelo://app?vid=629338be-c47b-408e-8dc6-16564269aee7","ios":"levelo://app?vid=629338be-c47b-408e-8dc6-16564269aee7"},"vehicle_type_id":"4","last_reported":1733598424,"current_range_meters":32000,"station_id":"ce4bgj92rcd13ifvqbe0","pricing_plan_id":"cebpf4jnsgd1na2vs0mg"},{"bike_id":"83985555-c848-4b28-808f-8a7e7cf8519e","system_id":"levelo_inurba_marseille","lat":43.28115,"lon":5.43955,"is_reserved":false,"is_disabled":true,"rental_uris":{"android":"levelo://app?vid=83985555-c848-4b28-808f-8a7e7cf8519e","ios":"levelo://app?vid=83985555-c848-4b28-808f-8a7e7cf8519e"},"vehicle_type_id":"4","last_reported":1733598424,"current_range_meters":0,"station_id":"","pricing_plan_id":"cebpf4jnsgd1na2vs0mg"},{"bike_id":"92c06b3e-c475-4dc4-8f84-41a8cbc68b62","system_id":"levelo_inurba_marseille","lat":43.28569,"lon":5.39491,"is_reserved":false,"is_disabled":false,"rental_uris":{"android":"levelo://app?vid=92c06b3e-c475-4dc4-8f84-41a8cbc68b62","ios":"levelo://app?vid=92c06b3e-c475-4dc4-8f84-41a8cbc68b62"},"vehicle_type_id":"4","last_reported":1733598424,"current_range_meters":38000,"station_id":"ce4bh292rcd13ifvqdg0","pricing_plan_id":"cebpf4jnsgd1na2vs0mg"},{"bike_id":"84eddd35-4076-462c-b0e4-9c17c748aeff","system_id":"levelo_inurba_marseille","lat":43.33771,"lon":5.37491,"is_reserved":false,"is_disabled":false,"rental_uris":{"android":"levelo://app?vid=84eddd35-4076-462c-b0e4-9c17c748aeff","ios":"levelo://app?vid=84eddd35-4076-462c-b0e4-9c17c748aeff"},"vehicle_type_id":"4","last_reported":1733598424,"current_range_meters":17600,"station_id":"","pricing_plan_id":"cebpf4jnsgd1na2vs0mg"},{"bike_id":"66d0f71e-5d76-4274-a432-4dd216931dd0","system_id":"levelo_inurba_marseille","lat":43.28433,"lon":5.34983,"is_reserved":false,"is_disabled":false,"rental_uris":{"android":"levelo://app?vid=66d0f71e-5d76-4274-a432-4dd216931dd0","ios":"levelo://app?vid=66d0f71e-5d76-4274-a432-4dd216931dd0"},"vehicle_type_id":"4","last_reported":1733598424,"current_range_meters":9600,"station_id":"ce4bhbh2rcd13ifvqepg","pricing_plan_id":"cebpf4jnsgd1na2vs0mg"},{"bike_id":"06ba43f5-d13d-4d4f-8193-d5b5ef13f782","system_id":"levelo_inurba_marseille","lat":43.28152,"lon":5.42642,"is_reserved":false,"is_disabled":false,"rental_uris":{"android":"levelo://app?vid=06ba43f5-d13d-4d4f-8193-d5b5ef13f782","ios":"levelo://app?vid=06ba43f5-d13d-4d4f-8193-d5b5ef13f782"},"vehicle_type_id":"4","last_reported":1733598424,"current_range_meters":18000,"station_id":"ce4bhnh2rcd13ifvqgug","pricing_plan_id":"cebpf4jnsgd1na2vs0mg"},{"bike_id":"eac23467-e570-48ec-b16b-841a8ebbca98","system_id":"levelo_inurba_marseille","lat":43.3137,"lon":5.38493,"is_reserved":false,"is_disabled":false,"rental_uris":{"android":"levelo://app?vid=eac23467-e570-48ec-b16b-841a8ebbca98","ios":"levelo://app?vid=eac23467-e570-48ec-b16b-841a8ebbca98"},"vehicle_type_id":"4","last_reported":1733598424,"current_range_meters":20000,"station_id":"ce4bgt92rcd13ifvqcf0","pricing_plan_id":"cebpf4jnsgd1na2vs0mg"},{"bike_id":"887efc78-3525-4b8f-96e9-6082adc90468","system_id":"levelo_inurba_marseille","lat":43.26567,"lon":5.39003,"is_reserved":false,"is_disabled":false,"rental_uris":{"android":"levelo://app?vid=887efc78-3525-4b8f-96e9-6082adc90468","ios":"levelo://app?vid=887efc78-3525-4b8f-96e9-6082adc90468"},"vehicle_type_id":"4","last_reported":1733598424,"current_range_meters":32400,"station_id":"ce4bhe12rcd13ifvqf30","pricing_plan_id":"cebpf4jnsgd1na2vs0mg"},{"bike_id":"1e02b462-1875-4d66-9199-b04e9a5a6a60","system_id":"levelo_inurba_marseille","lat":43.32063,"lon":5.41543,"is_reserved":false,"is_disabled":false,"rental_uris":{"android":"levelo://app?vid=1e02b462-1875-4d66-9199-b04e9a5a6a60","ios":"levelo://app?vid=1e02b462-1875-4d66-9199-b04e9a5a6a60"},"vehicle_type_id":"4","last_reported":1733598424,"current_range_meters":36000,"station_id":"ce4bhq92rcd13ifvqhkg","pricing_plan_id":"cebpf4jnsgd1na2vs0mg"},{"bike_id":"5687e068-69cc-4397-b6fb-a40653dbd395","system_id":"levelo_inurba_marseille","lat":43.31765,"lon":5.39019,"is_reserved":false,"is_disabled":false,"rental_uris":{"android":"levelo://app?vid=5687e068-69cc-4397-b6fb-a40653dbd395","ios":"levelo://app?vid=5687e068-69cc-4397-b6fb-a40653dbd395"},"vehicle_type_id":"4","last_reported":1733598424,"current_range_meters":38800,"station_id":"ce4bhqp2rcd13ifvqhng","pricing_plan_id":"cebpf4jnsgd1na2vs0mg"},{"bike_id":"5edf82fa-e9d0-4d1f-98f1-37c98092771a","system_id":"levelo_inurba_marseille","lat":43.23196,"lon":5.35542,"is_reserved":false,"is_disabled":false,"rental_uris":{"android":"levelo://app?vid=5edf82fa-e9d0-4d1f-98f1-37c98092771a","ios":"levelo://app?vid=5edf82fa-e9d0-4d1f-98f1-37c98092771a"},"vehicle_type_id":"4","last_reported":1733598424,"current_range_meters":39200,"station_id":"ce4bhu92rcd13ifvqi70","pricing_plan_id":"cebpf4jnsgd1na2vs0mg"},{"bike_id":"7519e0b2-478e-4ef6-af46-662e5131e09a","system_id":"levelo_inurba_marseille","lat":43.28984,"lon":5.37836,"is_reserved":false,"is_disabled":false,"rental_uris":{"android":"levelo://app?vid=7519e0b2-478e-4ef6-af46-662e5131e09a","ios":"levelo://app?vid=7519e0b2-478e-4ef6-af46-662e5131e09a"},"vehicle_type_id":"4","last_reported":1733598424,"current_range_meters":24000,"station_id":"ce4bh9p2rcd13ifvqed0","pricing_plan_id":"cebpf4jnsgd1na2vs0mg"},{"bike_id":"cb4a9db6-7563-4a33-a955-6eb0af1f7b34","system_id":"levelo_inurba_marseille","lat":43.2815,"lon":5.42643,"is_reserved":false,"is_disabled":false,"rental_uris":{"android":"levelo://app?vid=cb4a9db6-7563-4a33-a955-6eb0af1f7b34","ios":"levelo://app?vid=cb4a9db6-7563-4a33-a955-6eb0af1f7b34"},"vehicle_type_id":"4","last_reported":1733598424,"current_range_meters":36400,"station_id":"ce4bhnh2rcd13ifvqgug","pricing_plan_id":"cebpf4jnsgd1na2vs0mg"},{"bike_id":"3afcb54a-b8a5-40bb-8ae8-ddf1f47b8268","system_id":"levelo_inurba_marseille","lat":43.30529,"lon":5.38429,"is_reserved":false,"is_disabled":true,"rental_uris":{"android":"levelo://app?vid=3afcb54a-b8a5-40bb-8ae8-ddf1f47b8268","ios":"levelo://app?vid=3afcb54a-b8a5-40bb-8ae8-ddf1f47b8268"},"vehicle_type_id":"4","last_reported":1733598424,"current_range_meters":35600,"station_id":"ce4bgg92rcd13ifvqb30","pricing_plan_id":"cebpf4jnsgd1na2vs0mg"},{"bike_id":"dd3df62f-ed85-4815-a2f9-2c3866dbd14c","system_id":"levelo_inurba_marseille","lat":43.29782,"lon":5.38116,"is_reserved":false,"is_disabled":false,"rental_uris":{"android":"levelo://app?vid=dd3df62f-ed85-4815-a2f9-2c3866dbd14c","ios":"levelo://app?vid=dd3df62f-ed85-4815-a2f9-2c3866dbd14c"},"vehicle_type_id":"4","last_reported":1733598424,"current_range_meters":31200,"station_id":"ce4bgip2rcd13ifvqbb0","pricing_plan_id":"cebpf4jnsgd1na2vs0mg"},{"bike_id":"a76f0499-0af6-402b-8f9f-ddd78320a7b4","system_id":"levelo_inurba_marseille","lat":43.30454,"lon":5.37901,"is_reserved":false,"is_disabled":true,"rental_uris":{"android":"levelo://app?vid=a76f0499-0af6-402b-8f9f-ddd78320a7b4","ios":"levelo://app?vid=a76f0499-0af6-402b-8f9f-ddd78320a7b4"},"vehicle_type_id":"4","last_reported":1733598424,"current_range_meters":38800,"station_id":"ce4bgup2rcd13ifvqcn0","pricing_plan_id":"cebpf4jnsgd1na2vs0mg"},{"bike_id":"83319820-ad4f-4208-bf65-c9fc431b1a4c","system_id":"levelo_inurba_marseille","lat":43.25827,"lon":5.39424,"is_reserved":false,"is_disabled":false,"rental_uris":{"android":"levelo://app?vid=83319820-ad4f-4208-bf65-c9fc431b1a4c","ios":"levelo://app?vid=83319820-ad4f-4208-bf65-c9fc431b1a4c"},"vehicle_type_id":"4","last_reported":1733598424,"current_range_meters":32800,"station_id":"ce4bhip2rcd13ifvqft0","pricing_plan_id":"cebpf4jnsgd1na2vs0mg"},{"bike_id":"209024fa-1289-499c-a8fd-f67770daf517","system_id":"levelo_inurba_marseille","lat":43.26958,"lon":5.38626,"is_reserved":false,"is_disabled":false,"rental_uris":{"android":"levelo://app?vid=209024fa-1289-499c-a8fd-f67770daf517","ios":"levelo://app?vid=209024fa-1289-499c-a8fd-f67770daf517"},"vehicle_type_id":"4","last_reported":1733598424,"current_range_meters":9600,"station_id":"ce4bhh92rcd13ifvqfh0","pricing_plan_id":"cebpf4jnsgd1na2vs0mg"},{"bike_id":"9c2d089d-e580-464c-a254-a84d0c5baff8","system_id":"levelo_inurba_marseille","lat":43.25866,"lon":5.399,"is_reserved":false,"is_disabled":false,"rental_uris":{"android":"levelo://app?vid=9c2d089d-e580-464c-a254-a84d0c5baff8","ios":"levelo://app?vid=9c2d089d-e580-464c-a254-a84d0c5baff8"},"vehicle_type_id":"4","last_reported":1733598424,"current_range_meters":38800,"station_id":"ce4bhl92rcd13ifvqghg","pricing_plan_id":"cebpf4jnsgd1na2vs0mg"},{"bike_id":"0694b84b-212e-4e3c-9092-6e213a66ec49","system_id":"levelo_inurba_marseille","lat":43.23065,"lon":5.35486,"is_reserved":false,"is_disabled":false,"rental_uris":{"android":"levelo://app?vid=0694b84b-212e-4e3c-9092-6e213a66ec49","ios":"levelo://app?vid=0694b84b-212e-4e3c-9092-6e213a66ec49"},"vehicle_type_id":"4","last_reported":1733598424,"current_range_meters":9600,"station_id":"cpo3342slgdg3j2ifvpg","pricing_plan_id":"cebpf4jnsgd1na2vs0mg"},{"bike_id":"7034aa86-ed23-476a-88a7-a5682b5f3ea3","system_id":"levelo_inurba_marseille","lat":43.29898,"lon":5.43672,"is_reserved":false,"is_disabled":false,"rental_uris":{"android":"levelo://app?vid=7034aa86-ed23-476a-88a7-a5682b5f3ea3","ios":"levelo://app?vid=7034aa86-ed23-476a-88a7-a5682b5f3ea3"},"vehicle_type_id":"4","last_reported":1733598424,"current_range_meters":24800,"station_id":"ce4bhpp2rcd13ifvqhfg","pricing_plan_id":"cebpf4jnsgd1na2vs0mg"},{"bike_id":"1181933f-490e-47f8-8a58-5c99d81e7f34","system_id":"levelo_inurba_marseille","lat":43.30205,"lon":5.39457,"is_reserved":false,"is_disabled":false,"rental_uris":{"android":"levelo://app?vid=1181933f-490e-47f8-8a58-5c99d81e7f34","ios":"levelo://app?vid=1181933f-490e-47f8-8a58-5c99d81e7f34"},"vehicle_type_id":"4","last_reported":1733598424,"current_range_meters":32400,"station_id":"ce4bh0p2rcd13ifvqd70","pricing_plan_id":"cebpf4jnsgd1na2vs0mg"},{"bike_id":"15e21ff4-debb-4d61-969a-5518cc99a71c","system_id":"levelo_inurba_marseille","lat":43.27563,"lon":5.38417,"is_reserved":false,"is_disabled":false,"rental_uris":{"android":"levelo://app?vid=15e21ff4-debb-4d61-969a-5518cc99a71c","ios":"levelo://app?vid=15e21ff4-debb-4d61-969a-5518cc99a71c"},"vehicle_type_id":"4","last_reported":1733598424,"current_range_meters":38800,"station_id":"ce4bhh92rcd13ifvqfi0","pricing_plan_id":"cebpf4jnsgd1na2vs0mg"},{"bike_id":"0deb7b46-3bee-4382-87b1-3984fb62457f","system_id":"levelo_inurba_marseille","lat":43.2874,"lon":5.38909,"is_reserved":false,"is_disabled":true,"rental_uris":{"android":"levelo://app?vid=0deb7b46-3bee-4382-87b1-3984fb62457f","ios":"levelo://app?vid=0deb7b46-3bee-4382-87b1-3984fb62457f"},"vehicle_type_id":"4","last_reported":1733598424,"current_range_meters":25600,"station_id":"","pricing_plan_id":"cebpf4jnsgd1na2vs0mg"},{"bike_id":"99df643e-d3d1-46e3-8aff-9f144eef4f22","system_id":"levelo_inurba_marseille","lat":43.25719,"lon":5.41117,"is_reserved":false,"is_disabled":false,"rental_uris":{"android":"levelo://app?vid=99df643e-d3d1-46e3-8aff-9f144eef4f22","ios":"levelo://app?vid=99df643e-d3d1-46e3-8aff-9f144eef4f22"},"vehicle_type_id":"4","last_reported":1733598424,"current_range_meters":6000,"station_id":"ce4bhkp2rcd13ifvqgd0","pricing_plan_id":"cebpf4jnsgd1na2vs0mg"},{"bike_id":"46e5c093-e4da-41fe-be05-fa8a7439fd1b","system_id":"levelo_inurba_marseille","lat":43.30798,"lon":5.43527,"is_reserved":false,"is_disabled":false,"rental_uris":{"android":"levelo://app?vid=46e5c093-e4da-41fe-be05-fa8a7439fd1b","ios":"levelo://app?vid=46e5c093-e4da-41fe-be05-fa8a7439fd1b"},"vehicle_type_id":"4","last_reported":1733598424,"current_range_meters":9200,"station_id":"ce4bhph2rcd13ifvqheg","pricing_plan_id":"cebpf4jnsgd1na2vs0mg"},{"bike_id":"5460e245-8621-4d83-bd98-c21b0b296c70","system_id":"levelo_inurba_marseille","lat":43.24386,"lon":5.37058,"is_reserved":false,"is_disabled":false,"rental_uris":{"android":"levelo://app?vid=5460e245-8621-4d83-bd98-c21b0b296c70","ios":"levelo://app?vid=5460e245-8621-4d83-bd98-c21b0b296c70"},"vehicle_type_id":"4","last_reported":1733598424,"current_range_meters":36400,"station_id":"ce4bhhh2rcd13ifvqfk0","pricing_plan_id":"cebpf4jnsgd1na2vs0mg"},{"bike_id":"07b8c281-3be1-46fd-bf35-bd455797c16c","system_id":"levelo_inurba_marseille","lat":43.23197,"lon":5.35548,"is_reserved":false,"is_disabled":false,"rental_uris":{"android":"levelo://app?vid=07b8c281-3be1-46fd-bf35-bd455797c16c","ios":"levelo://app?vid=07b8c281-3be1-46fd-bf35-bd455797c16c"},"vehicle_type_id":"4","last_reported":1733598424,"current_range_meters":29600,"station_id":"ce4bhu92rcd13ifvqi70","pricing_plan_id":"cebpf4jnsgd1na2vs0mg"},{"bike_id":"1355b15d-a147-4698-9313-104e8ea59fcb","system_id":"levelo_inurba_marseille","lat":43.28157,"lon":5.42637,"is_reserved":false,"is_disabled":false,"rental_uris":{"android":"levelo://app?vid=1355b15d-a147-4698-9313-104e8ea59fcb","ios":"levelo://app?vid=1355b15d-a147-4698-9313-104e8ea59fcb"},"vehicle_type_id":"4","last_reported":1733598424,"current_range_meters":16800,"station_id":"ce4bhnh2rcd13ifvqgug","pricing_plan_id":"cebpf4jnsgd1na2vs0mg"},{"bike_id":"7a0a2714-105e-4622-8b3e-a7dd62dc6941","system_id":"levelo_inurba_marseille","lat":43.29266,"lon":5.384189,"is_reserved":false,"is_disabled":true,"rental_uris":{"android":"levelo://app?vid=7a0a2714-105e-4622-8b3e-a7dd62dc6941","ios":"levelo://app?vid=7a0a2714-105e-4622-8b3e-a7dd62dc6941"},"vehicle_type_id":"4","last_reported":1733598424,"current_range_meters":0,"station_id":"","pricing_plan_id":"cebpf4jnsgd1na2vs0mg"},{"bike_id":"9f53acdf-b2be-4b69-b01b-87cbf7343be4","system_id":"levelo_inurba_marseille","lat":43.26497,"lon":5.3954,"is_reserved":false,"is_disabled":true,"rental_uris":{"android":"levelo://app?vid=9f53acdf-b2be-4b69-b01b-87cbf7343be4","ios":"levelo://app?vid=9f53acdf-b2be-4b69-b01b-87cbf7343be4"},"vehicle_type_id":"4","last_reported":1733598424,"current_range_meters":38000,"station_id":"ce4bhi12rcd13ifvqfq0","pricing_plan_id":"cebpf4jnsgd1na2vs0mg"},{"bike_id":"90fa2ee5-fee9-4501-941f-9bc7c471b646","system_id":"levelo_inurba_marseille","lat":43.28722,"lon":5.36092,"is_reserved":false,"is_disabled":false,"rental_uris":{"android":"levelo://app?vid=90fa2ee5-fee9-4501-941f-9bc7c471b646","ios":"levelo://app?vid=90fa2ee5-fee9-4501-941f-9bc7c471b646"},"vehicle_type_id":"4","last_reported":1733598424,"current_range_meters":16000,"station_id":"cki0cbj6b192h4jlfktg","pricing_plan_id":"cebpf4jnsgd1na2vs0mg"},{"bike_id":"a5f05a06-bff4-4f39-af01-91b3d19736b8","system_id":"levelo_inurba_marseille","lat":43.23196,"lon":5.35555,"is_reserved":false,"is_disabled":false,"rental_uris":{"android":"levelo://app?vid=a5f05a06-bff4-4f39-af01-91b3d19736b8","ios":"levelo://app?vid=a5f05a06-bff4-4f39-af01-91b3d19736b8"},"vehicle_type_id":"4","last_reported":1733598424,"current_range_meters":29600,"station_id":"ce4bhu92rcd13ifvqi70","pricing_plan_id":"cebpf4jnsgd1na2vs0mg"},{"bike_id":"33f1a526-a5a3-4261-b1e0-d90c46ff918d","system_id":"levelo_inurba_marseille","lat":43.28151,"lon":5.42634,"is_reserved":false,"is_disabled":true,"rental_uris":{"android":"levelo://app?vid=33f1a526-a5a3-4261-b1e0-d90c46ff918d","ios":"levelo://app?vid=33f1a526-a5a3-4261-b1e0-d90c46ff918d"},"vehicle_type_id":"4","last_reported":1733598424,"current_range_meters":30000,"station_id":"ce4bhnh2rcd13ifvqgug","pricing_plan_id":"cebpf4jnsgd1na2vs0mg"},{"bike_id":"cabe71e0-d647-422e-8b87-b7e45332ebc4","system_id":"levelo_inurba_marseille","lat":43.29304,"lon":5.37182,"is_reserved":false,"is_disabled":false,"rental_uris":{"android":"levelo://app?vid=cabe71e0-d647-422e-8b87-b7e45332ebc4","ios":"levelo://app?vid=cabe71e0-d647-422e-8b87-b7e45332ebc4"},"vehicle_type_id":"4","last_reported":1733598424,"current_range_meters":24400,"station_id":"ce4bgh92rcd13ifvqb40","pricing_plan_id":"cebpf4jnsgd1na2vs0mg"},{"bike_id":"7d60acff-cb6c-4a92-aca6-d0de3845edf6","system_id":"levelo_inurba_marseille","lat":43.29521,"lon":5.3854,"is_reserved":false,"is_disabled":true,"rental_uris":{"android":"levelo://app?vid=7d60acff-cb6c-4a92-aca6-d0de3845edf6","ios":"levelo://app?vid=7d60acff-cb6c-4a92-aca6-d0de3845edf6"},"vehicle_type_id":"4","last_reported":1733598424,"current_range_meters":24800,"station_id":"ce4bgih2rcd13ifvqba0","pricing_plan_id":"cebpf4jnsgd1na2vs0mg"},{"bike_id":"769b6552-6dd2-4224-9a6b-e1f65a81ba83","system_id":"levelo_inurba_marseille","lat":43.29624,"lon":5.37198,"is_reserved":false,"is_disabled":false,"rental_uris":{"android":"levelo://app?vid=769b6552-6dd2-4224-9a6b-e1f65a81ba83","ios":"levelo://app?vid=769b6552-6dd2-4224-9a6b-e1f65a81ba83"},"vehicle_type_id":"4","last_reported":1733598424,"current_range_meters":19200,"station_id":"ce4bgnh2rcd13ifvqc0g","pricing_plan_id":"cebpf4jnsgd1na2vs0mg"},{"bike_id":"b01ba929-1580-401b-973d-e4a15d746d4a","system_id":"levelo_inurba_marseille","lat":43.22926,"lon":5.35376,"is_reserved":false,"is_disabled":false,"rental_uris":{"android":"levelo://app?vid=b01ba929-1580-401b-973d-e4a15d746d4a","ios":"levelo://app?vid=b01ba929-1580-401b-973d-e4a15d746d4a"},"vehicle_type_id":"4","last_reported":1733598424,"current_range_meters":38800,"station_id":"cpo3532slgdg3j2ikp40","pricing_plan_id":"cebpf4jnsgd1na2vs0mg"},{"bike_id":"473518bb-93fd-44f5-b478-5203a8dcfb96","system_id":"levelo_inurba_marseille","lat":43.28707,"lon":5.39989,"is_reserved":false,"is_disabled":true,"rental_uris":{"android":"levelo://app?vid=473518bb-93fd-44f5-b478-5203a8dcfb96","ios":"levelo://app?vid=473518bb-93fd-44f5-b478-5203a8dcfb96"},"vehicle_type_id":"4","last_reported":1733598424,"current_range_meters":10800,"station_id":"ce4bho92rcd13ifvqh3g","pricing_plan_id":"cebpf4jnsgd1na2vs0mg"},{"bike_id":"4ad5add2-608e-43d3-8448-93331f5332b6","system_id":"levelo_inurba_marseille","lat":43.24389,"lon":5.3706,"is_reserved":false,"is_disabled":false,"rental_uris":{"android":"levelo://app?vid=4ad5add2-608e-43d3-8448-93331f5332b6","ios":"levelo://app?vid=4ad5add2-608e-43d3-8448-93331f5332b6"},"vehicle_type_id":"4","last_reported":1733598424,"current_range_meters":38800,"station_id":"ce4bhhh2rcd13ifvqfk0","pricing_plan_id":"cebpf4jnsgd1na2vs0mg"},{"bike_id":"ba69aef7-3629-4022-aded-2d71606d382e","system_id":"levelo_inurba_marseille","lat":43.2792,"lon":5.39585,"is_reserved":false,"is_disabled":false,"rental_uris":{"android":"levelo://app?vid=ba69aef7-3629-4022-aded-2d71606d382e","ios":"levelo://app?vid=ba69aef7-3629-4022-aded-2d71606d382e"},"vehicle_type_id":"4","last_reported":1733598424,"current_range_meters":28400,"station_id":"ce4bhf92rcd13ifvqf40","pricing_plan_id":"cebpf4jnsgd1na2vs0mg"},{"bike_id":"aeb5b9ef-cf83-4f2b-8e3d-091258186d3c","system_id":"levelo_inurba_marseille","lat":43.25086,"lon":5.39511,"is_reserved":false,"is_disabled":false,"rental_uris":{"android":"levelo://app?vid=aeb5b9ef-cf83-4f2b-8e3d-091258186d3c","ios":"levelo://app?vid=aeb5b9ef-cf83-4f2b-8e3d-091258186d3c"},"vehicle_type_id":"4","last_reported":1733598424,"current_range_meters":38800,"station_id":"ce4bhm12rcd13ifvqgkg","pricing_plan_id":"cebpf4jnsgd1na2vs0mg"},{"bike_id":"80e17baf-e41e-4209-a6ef-2d61ff99951b","system_id":"levelo_inurba_marseille","lat":43.29797,"lon":5.40405,"is_reserved":false,"is_disabled":false,"rental_uris":{"android":"levelo://app?vid=80e17baf-e41e-4209-a6ef-2d61ff99951b","ios":"levelo://app?vid=80e17baf-e41e-4209-a6ef-2d61ff99951b"},"vehicle_type_id":"4","last_reported":1733598424,"current_range_meters":37600,"station_id":"ce4bh112rcd13ifvqd90","pricing_plan_id":"cebpf4jnsgd1na2vs0mg"},{"bike_id":"9ad428a0-4172-4991-b407-d5a29e212877","system_id":"levelo_inurba_marseille","lat":43.2903,"lon":5.38642,"is_reserved":false,"is_disabled":false,"rental_uris":{"android":"levelo://app?vid=9ad428a0-4172-4991-b407-d5a29e212877","ios":"levelo://app?vid=9ad428a0-4172-4991-b407-d5a29e212877"},"vehicle_type_id":"4","last_reported":1733598424,"current_range_meters":15200,"station_id":"ce4bh4p2rcd13ifvqe0g","pricing_plan_id":"cebpf4jnsgd1na2vs0mg"},{"bike_id":"91cc8f13-f3d8-4c8b-983d-8d780860bb44","system_id":"levelo_inurba_marseille","lat":43.30896,"lon":5.37185,"is_reserved":false,"is_disabled":false,"rental_uris":{"android":"levelo://app?vid=91cc8f13-f3d8-4c8b-983d-8d780860bb44","ios":"levelo://app?vid=91cc8f13-f3d8-4c8b-983d-8d780860bb44"},"vehicle_type_id":"4","last_reported":1733598424,"current_range_meters":26800,"station_id":"ce4bguh2rcd13ifvqckg","pricing_plan_id":"cebpf4jnsgd1na2vs0mg"},{"bike_id":"5c884da4-841f-4b0a-9224-f533cad9f8d9","system_id":"levelo_inurba_marseille","lat":43.26036,"lon":5.37546,"is_reserved":false,"is_disabled":false,"rental_uris":{"android":"levelo://app?vid=5c884da4-841f-4b0a-9224-f533cad9f8d9","ios":"levelo://app?vid=5c884da4-841f-4b0a-9224-f533cad9f8d9"},"vehicle_type_id":"4","last_reported":1733598424,"current_range_meters":11600,"station_id":"ce4bhgh2rcd13ifvqfa0","pricing_plan_id":"cebpf4jnsgd1na2vs0mg"},{"bike_id":"a3dd1984-4193-477f-b9a6-7f14c8f93b26","system_id":"levelo_inurba_marseille","lat":43.30097,"lon":5.3909,"is_reserved":false,"is_disabled":true,"rental_uris":{"android":"levelo://app?vid=a3dd1984-4193-477f-b9a6-7f14c8f93b26","ios":"levelo://app?vid=a3dd1984-4193-477f-b9a6-7f14c8f93b26"},"vehicle_type_id":"4","last_reported":1733598424,"current_range_meters":38000,"station_id":"ce4bh192rcd13ifvqdb0","pricing_plan_id":"cebpf4jnsgd1na2vs0mg"},{"bike_id":"a4f264ef-a91c-46ac-b495-2c0050224ddb","system_id":"levelo_inurba_marseille","lat":43.30786,"lon":5.37651,"is_reserved":false,"is_disabled":false,"rental_uris":{"android":"levelo://app?vid=a4f264ef-a91c-46ac-b495-2c0050224ddb","ios":"levelo://app?vid=a4f264ef-a91c-46ac-b495-2c0050224ddb"},"vehicle_type_id":"4","last_reported":1733598424,"current_range_meters":30800,"station_id":"ce4bgv92rcd13ifvqcq0","pricing_plan_id":"cebpf4jnsgd1na2vs0mg"},{"bike_id":"6ad8fff5-6505-40fc-8922-2acdd3c82e7b","system_id":"levelo_inurba_marseille","lat":43.29787,"lon":5.381,"is_reserved":false,"is_disabled":true,"rental_uris":{"android":"levelo://app?vid=6ad8fff5-6505-40fc-8922-2acdd3c82e7b","ios":"levelo://app?vid=6ad8fff5-6505-40fc-8922-2acdd3c82e7b"},"vehicle_type_id":"4","last_reported":1733598424,"current_range_meters":16400,"station_id":"ce4bgip2rcd13ifvqbb0","pricing_plan_id":"cebpf4jnsgd1na2vs0mg"},{"bike_id":"d3d2209a-a4e0-4ebd-ab3d-555850038a00","system_id":"levelo_inurba_marseille","lat":43.24808,"lon":5.37461,"is_reserved":false,"is_disabled":false,"rental_uris":{"android":"levelo://app?vid=d3d2209a-a4e0-4ebd-ab3d-555850038a00","ios":"levelo://app?vid=d3d2209a-a4e0-4ebd-ab3d-555850038a00"},"vehicle_type_id":"4","last_reported":1733598424,"current_range_meters":38400,"station_id":"ce4bhgh2rcd13ifvqfb0","pricing_plan_id":"cebpf4jnsgd1na2vs0mg"},{"bike_id":"dfd14379-ab5b-4e4e-bc49-157de18e8e28","system_id":"levelo_inurba_marseille","lat":43.27322,"lon":5.39111,"is_reserved":false,"is_disabled":false,"rental_uris":{"android":"levelo://app?vid=dfd14379-ab5b-4e4e-bc49-157de18e8e28","ios":"levelo://app?vid=dfd14379-ab5b-4e4e-bc49-157de18e8e28"},"vehicle_type_id":"4","last_reported":1733598424,"current_range_meters":23200,"station_id":"ce4bhgp2rcd13ifvqfe0","pricing_plan_id":"cebpf4jnsgd1na2vs0mg"},{"bike_id":"31b004d0-f135-4d9e-ae05-915ee4054ee8","system_id":"levelo_inurba_marseille","lat":43.30133,"lon":5.39874,"is_reserved":false,"is_disabled":false,"rental_uris":{"android":"levelo://app?vid=31b004d0-f135-4d9e-ae05-915ee4054ee8","ios":"levelo://app?vid=31b004d0-f135-4d9e-ae05-915ee4054ee8"},"vehicle_type_id":"4","last_reported":1733598424,"current_range_meters":38800,"station_id":"ce4bh0h2rcd13ifvqd40","pricing_plan_id":"cebpf4jnsgd1na2vs0mg"},{"bike_id":"fc531b91-c1ad-4bd0-8a9b-801d395aa15e","system_id":"levelo_inurba_marseille","lat":43.24651,"lon":5.38901,"is_reserved":false,"is_disabled":false,"rental_uris":{"android":"levelo://app?vid=fc531b91-c1ad-4bd0-8a9b-801d395aa15e","ios":"levelo://app?vid=fc531b91-c1ad-4bd0-8a9b-801d395aa15e"},"vehicle_type_id":"4","last_reported":1733598424,"current_range_meters":38800,"station_id":"ce4bhg12rcd13ifvqf60","pricing_plan_id":"cebpf4jnsgd1na2vs0mg"},{"bike_id":"c532c543-ed80-407b-bcc6-9d041250e199","system_id":"levelo_inurba_marseille","lat":43.301268,"lon":5.39854,"is_reserved":false,"is_disabled":true,"rental_uris":{"android":"levelo://app?vid=c532c543-ed80-407b-bcc6-9d041250e199","ios":"levelo://app?vid=c532c543-ed80-407b-bcc6-9d041250e199"},"vehicle_type_id":"4","last_reported":1733598424,"current_range_meters":0,"station_id":"ce4bh0h2rcd13ifvqd40","pricing_plan_id":"cebpf4jnsgd1na2vs0mg"},{"bike_id":"af0bd532-5fea-4a57-8e62-28c4d374f92f","system_id":"levelo_inurba_marseille","lat":43.2811,"lon":5.37851,"is_reserved":false,"is_disabled":false,"rental_uris":{"android":"levelo://app?vid=af0bd532-5fea-4a57-8e62-28c4d374f92f","ios":"levelo://app?vid=af0bd532-5fea-4a57-8e62-28c4d374f92f"},"vehicle_type_id":"4","last_reported":1733598424,"current_range_meters":38800,"station_id":"ce4bha12rcd13ifvqee0","pricing_plan_id":"cebpf4jnsgd1na2vs0mg"},{"bike_id":"2c46e8c7-7341-4e43-879e-fafcca740f82","system_id":"levelo_inurba_marseille","lat":43.31801,"lon":5.3739,"is_reserved":false,"is_disabled":true,"rental_uris":{"android":"levelo://app?vid=2c46e8c7-7341-4e43-879e-fafcca740f82","ios":"levelo://app?vid=2c46e8c7-7341-4e43-879e-fafcca740f82"},"vehicle_type_id":"4","last_reported":1733598424,"current_range_meters":0,"station_id":"","pricing_plan_id":"cebpf4jnsgd1na2vs0mg"},{"bike_id":"eb4e32cd-a02d-4e92-a013-1fdc0dd71ccb","system_id":"levelo_inurba_marseille","lat":43.324799,"lon":5.365716,"is_reserved":false,"is_disabled":false,"rental_uris":{"android":"levelo://app?vid=eb4e32cd-a02d-4e92-a013-1fdc0dd71ccb","ios":"levelo://app?vid=eb4e32cd-a02d-4e92-a013-1fdc0dd71ccb"},"vehicle_type_id":"4","last_reported":1733598424,"current_range_meters":4400,"station_id":"","pricing_plan_id":"cebpf4jnsgd1na2vs0mg"},{"bike_id":"4255fd95-4b95-4226-9022-244b96247107","system_id":"levelo_inurba_marseille","lat":43.27325,"lon":5.39093,"is_reserved":false,"is_disabled":false,"rental_uris":{"android":"levelo://app?vid=4255fd95-4b95-4226-9022-244b96247107","ios":"levelo://app?vid=4255fd95-4b95-4226-9022-244b96247107"},"vehicle_type_id":"4","last_reported":1733598424,"current_range_meters":36000,"station_id":"ce4bhgp2rcd13ifvqfe0","pricing_plan_id":"cebpf4jnsgd1na2vs0mg"},{"bike_id":"d9113762-e8e5-4aae-bdd3-68b75525db3b","system_id":"levelo_inurba_marseille","lat":43.30891,"lon":5.37195,"is_reserved":false,"is_disabled":false,"rental_uris":{"android":"levelo://app?vid=d9113762-e8e5-4aae-bdd3-68b75525db3b","ios":"levelo://app?vid=d9113762-e8e5-4aae-bdd3-68b75525db3b"},"vehicle_type_id":"4","last_reported":1733598424,"current_range_meters":27200,"station_id":"ce4bguh2rcd13ifvqckg","pricing_plan_id":"cebpf4jnsgd1na2vs0mg"},{"bike_id":"bbf2a15a-7c34-4cdd-8f7d-611582aea846","system_id":"levelo_inurba_marseille","lat":43.27336,"lon":5.39091,"is_reserved":false,"is_disabled":false,"rental_uris":{"android":"levelo://app?vid=bbf2a15a-7c34-4cdd-8f7d-611582aea846","ios":"levelo://app?vid=bbf2a15a-7c34-4cdd-8f7d-611582aea846"},"vehicle_type_id":"4","last_reported":1733598424,"current_range_meters":17200,"station_id":"ce4bhgp2rcd13ifvqfe0","pricing_plan_id":"cebpf4jnsgd1na2vs0mg"},{"bike_id":"fd98eaa9-4d55-4e7b-aa90-0d14707466d9","system_id":"levelo_inurba_marseille","lat":43.337444,"lon":5.374475,"is_reserved":false,"is_disabled":true,"rental_uris":{"android":"levelo://app?vid=fd98eaa9-4d55-4e7b-aa90-0d14707466d9","ios":"levelo://app?vid=fd98eaa9-4d55-4e7b-aa90-0d14707466d9"},"vehicle_type_id":"4","last_reported":1733598424,"current_range_meters":0,"station_id":"","pricing_plan_id":"cebpf4jnsgd1na2vs0mg"},{"bike_id":"06f294bd-d283-4b87-866b-9173a9d88558","system_id":"levelo_inurba_marseille","lat":43.25861,"lon":5.39906,"is_reserved":false,"is_disabled":false,"rental_uris":{"android":"levelo://app?vid=06f294bd-d283-4b87-866b-9173a9d88558","ios":"levelo://app?vid=06f294bd-d283-4b87-866b-9173a9d88558"},"vehicle_type_id":"4","last_reported":1733598424,"current_range_meters":38800,"station_id":"ce4bhl92rcd13ifvqghg","pricing_plan_id":"cebpf4jnsgd1na2vs0mg"},{"bike_id":"9332b892-a29d-412a-aaea-92a94f1d857b","system_id":"levelo_inurba_marseille","lat":43.27328,"lon":5.39098,"is_reserved":false,"is_disabled":false,"rental_uris":{"android":"levelo://app?vid=9332b892-a29d-412a-aaea-92a94f1d857b","ios":"levelo://app?vid=9332b892-a29d-412a-aaea-92a94f1d857b"},"vehicle_type_id":"4","last_reported":1733598424,"current_range_meters":38800,"station_id":"ce4bhgp2rcd13ifvqfe0","pricing_plan_id":"cebpf4jnsgd1na2vs0mg"},{"bike_id":"27747901-daa4-4699-83f2-9d3e8e7d86e6","system_id":"levelo_inurba_marseille","lat":43.25821,"lon":5.39433,"is_reserved":false,"is_disabled":false,"rental_uris":{"android":"levelo://app?vid=27747901-daa4-4699-83f2-9d3e8e7d86e6","ios":"levelo://app?vid=27747901-daa4-4699-83f2-9d3e8e7d86e6"},"vehicle_type_id":"4","last_reported":1733598424,"current_range_meters":30000,"station_id":"ce4bhip2rcd13ifvqft0","pricing_plan_id":"cebpf4jnsgd1na2vs0mg"},{"bike_id":"9486753d-f0b0-46a3-8b01-0fd666cdfc9c","system_id":"levelo_inurba_marseille","lat":43.29424,"lon":5.38629,"is_reserved":false,"is_disabled":false,"rental_uris":{"android":"levelo://app?vid=9486753d-f0b0-46a3-8b01-0fd666cdfc9c","ios":"levelo://app?vid=9486753d-f0b0-46a3-8b01-0fd666cdfc9c"},"vehicle_type_id":"4","last_reported":1733598424,"current_range_meters":38800,"station_id":"ce4bh2h2rcd13ifvqdh0","pricing_plan_id":"cebpf4jnsgd1na2vs0mg"},{"bike_id":"4da1f21a-a94b-4e40-8119-4f95d0593822","system_id":"levelo_inurba_marseille","lat":43.32658,"lon":5.41,"is_reserved":false,"is_disabled":false,"rental_uris":{"android":"levelo://app?vid=4da1f21a-a94b-4e40-8119-4f95d0593822","ios":"levelo://app?vid=4da1f21a-a94b-4e40-8119-4f95d0593822"},"vehicle_type_id":"4","last_reported":1733598424,"current_range_meters":38400,"station_id":"ce4bhpp2rcd13ifvqhgg","pricing_plan_id":"cebpf4jnsgd1na2vs0mg"},{"bike_id":"410d7027-c40e-45c7-9f5b-398ed8009637","system_id":"levelo_inurba_marseille","lat":43.28608,"lon":5.35116,"is_reserved":false,"is_disabled":false,"rental_uris":{"android":"levelo://app?vid=410d7027-c40e-45c7-9f5b-398ed8009637","ios":"levelo://app?vid=410d7027-c40e-45c7-9f5b-398ed8009637"},"vehicle_type_id":"4","last_reported":1733598424,"current_range_meters":20000,"station_id":"ce4bhch2rcd13ifvqeug","pricing_plan_id":"cebpf4jnsgd1na2vs0mg"},{"bike_id":"c2d8a1c2-d166-4a36-b32f-beec95c93bd5","system_id":"levelo_inurba_marseille","lat":43.33756,"lon":5.37459,"is_reserved":false,"is_disabled":true,"rental_uris":{"android":"levelo://app?vid=c2d8a1c2-d166-4a36-b32f-beec95c93bd5","ios":"levelo://app?vid=c2d8a1c2-d166-4a36-b32f-beec95c93bd5"},"vehicle_type_id":"4","last_reported":1733598424,"current_range_meters":0,"station_id":"","pricing_plan_id":"cebpf4jnsgd1na2vs0mg"},{"bike_id":"0e3451bb-7a71-49a1-b69e-200c6dd6b013","system_id":"levelo_inurba_marseille","lat":43.29055,"lon":5.39978,"is_reserved":false,"is_disabled":true,"rental_uris":{"android":"levelo://app?vid=0e3451bb-7a71-49a1-b69e-200c6dd6b013","ios":"levelo://app?vid=0e3451bb-7a71-49a1-b69e-200c6dd6b013"},"vehicle_type_id":"4","last_reported":1733598424,"current_range_meters":38800,"station_id":"ce4bh392rcd13ifvqdm0","pricing_plan_id":"cebpf4jnsgd1na2vs0mg"},{"bike_id":"cabd644c-9444-445f-b661-d7541845cb45","system_id":"levelo_inurba_marseille","lat":43.2815,"lon":5.42641,"is_reserved":false,"is_disabled":false,"rental_uris":{"android":"levelo://app?vid=cabd644c-9444-445f-b661-d7541845cb45","ios":"levelo://app?vid=cabd644c-9444-445f-b661-d7541845cb45"},"vehicle_type_id":"4","last_reported":1733598424,"current_range_meters":32000,"station_id":"ce4bhnh2rcd13ifvqgug","pricing_plan_id":"cebpf4jnsgd1na2vs0mg"},{"bike_id":"90560116-e3c6-4734-b684-91e9278bf7d6","system_id":"levelo_inurba_marseille","lat":43.29869,"lon":5.39732,"is_reserved":false,"is_disabled":false,"rental_uris":{"android":"levelo://app?vid=90560116-e3c6-4734-b684-91e9278bf7d6","ios":"levelo://app?vid=90560116-e3c6-4734-b684-91e9278bf7d6"},"vehicle_type_id":"4","last_reported":1733598424,"current_range_meters":18800,"station_id":"ce4bh0h2rcd13ifvqd50","pricing_plan_id":"cebpf4jnsgd1na2vs0mg"},{"bike_id":"d43d46e9-8809-4569-9db6-c07ff80cc15a","system_id":"levelo_inurba_marseille","lat":43.30141,"lon":5.39869,"is_reserved":false,"is_disabled":false,"rental_uris":{"android":"levelo://app?vid=d43d46e9-8809-4569-9db6-c07ff80cc15a","ios":"levelo://app?vid=d43d46e9-8809-4569-9db6-c07ff80cc15a"},"vehicle_type_id":"4","last_reported":1733598424,"current_range_meters":39200,"station_id":"ce4bh0h2rcd13ifvqd40","pricing_plan_id":"cebpf4jnsgd1na2vs0mg"},{"bike_id":"1c116fee-2365-407f-b033-8ab53c14818b","system_id":"levelo_inurba_marseille","lat":43.337444,"lon":5.374475,"is_reserved":false,"is_disabled":false,"rental_uris":{"android":"levelo://app?vid=1c116fee-2365-407f-b033-8ab53c14818b","ios":"levelo://app?vid=1c116fee-2365-407f-b033-8ab53c14818b"},"vehicle_type_id":"4","last_reported":1733598424,"current_range_meters":27600,"station_id":"","pricing_plan_id":"cebpf4jnsgd1na2vs0mg"},{"bike_id":"e7098824-93b2-482e-a425-d6aa509a1c30","system_id":"levelo_inurba_marseille","lat":43.27319,"lon":5.39062,"is_reserved":false,"is_disabled":false,"rental_uris":{"android":"levelo://app?vid=e7098824-93b2-482e-a425-d6aa509a1c30","ios":"levelo://app?vid=e7098824-93b2-482e-a425-d6aa509a1c30"},"vehicle_type_id":"4","last_reported":1733598424,"current_range_meters":32400,"station_id":"ce4bhgp2rcd13ifvqfe0","pricing_plan_id":"cebpf4jnsgd1na2vs0mg"},{"bike_id":"dc264619-1663-40f3-8321-3f84c420dac4","system_id":"levelo_inurba_marseille","lat":43.2926,"lon":5.38439,"is_reserved":false,"is_disabled":false,"rental_uris":{"android":"levelo://app?vid=dc264619-1663-40f3-8321-3f84c420dac4","ios":"levelo://app?vid=dc264619-1663-40f3-8321-3f84c420dac4"},"vehicle_type_id":"4","last_reported":1733598424,"current_range_meters":2800,"station_id":"ce4bh692rcd13ifvqea0","pricing_plan_id":"cebpf4jnsgd1na2vs0mg"},{"bike_id":"463bc732-9858-4992-a741-2b0344dd5d9b","system_id":"levelo_inurba_marseille","lat":43.3236,"lon":5.38879,"is_reserved":false,"is_disabled":false,"rental_uris":{"android":"levelo://app?vid=463bc732-9858-4992-a741-2b0344dd5d9b","ios":"levelo://app?vid=463bc732-9858-4992-a741-2b0344dd5d9b"},"vehicle_type_id":"4","last_reported":1733598424,"current_range_meters":7200,"station_id":"ce4bhqp2rcd13ifvqhog","pricing_plan_id":"cebpf4jnsgd1na2vs0mg"},{"bike_id":"f5561434-0740-4a3c-abc2-013f37687b8d","system_id":"levelo_inurba_marseille","lat":43.24812,"lon":5.37453,"is_reserved":false,"is_disabled":true,"rental_uris":{"android":"levelo://app?vid=f5561434-0740-4a3c-abc2-013f37687b8d","ios":"levelo://app?vid=f5561434-0740-4a3c-abc2-013f37687b8d"},"vehicle_type_id":"4","last_reported":1733598424,"current_range_meters":35600,"station_id":"ce4bhgh2rcd13ifvqfb0","pricing_plan_id":"cebpf4jnsgd1na2vs0mg"},{"bike_id":"220c9f3e-9e26-46f5-9066-dfededf7134f","system_id":"levelo_inurba_marseille","lat":43.24389,"lon":5.37052,"is_reserved":false,"is_disabled":false,"rental_uris":{"android":"levelo://app?vid=220c9f3e-9e26-46f5-9066-dfededf7134f","ios":"levelo://app?vid=220c9f3e-9e26-46f5-9066-dfededf7134f"},"vehicle_type_id":"4","last_reported":1733598424,"current_range_meters":38000,"station_id":"ce4bhhh2rcd13ifvqfk0","pricing_plan_id":"cebpf4jnsgd1na2vs0mg"},{"bike_id":"0cc120f3-0353-45a2-8b5d-2fa342268f91","system_id":"levelo_inurba_marseille","lat":43.30889,"lon":5.39656,"is_reserved":false,"is_disabled":false,"rental_uris":{"android":"levelo://app?vid=0cc120f3-0353-45a2-8b5d-2fa342268f91","ios":"levelo://app?vid=0cc120f3-0353-45a2-8b5d-2fa342268f91"},"vehicle_type_id":"4","last_reported":1733598424,"current_range_meters":28000,"station_id":"ce4bh012rcd13ifvqcv0","pricing_plan_id":"cebpf4jnsgd1na2vs0mg"},{"bike_id":"e11f696f-f236-4897-963a-d652e2c1d296","system_id":"levelo_inurba_marseille","lat":43.28698,"lon":5.39986,"is_reserved":false,"is_disabled":false,"rental_uris":{"android":"levelo://app?vid=e11f696f-f236-4897-963a-d652e2c1d296","ios":"levelo://app?vid=e11f696f-f236-4897-963a-d652e2c1d296"},"vehicle_type_id":"4","last_reported":1733598424,"current_range_meters":12000,"station_id":"ce4bho92rcd13ifvqh3g","pricing_plan_id":"cebpf4jnsgd1na2vs0mg"},{"bike_id":"b847414f-d07e-4121-bdbd-009e47a8d04b","system_id":"levelo_inurba_marseille","lat":43.28931,"lon":5.36635,"is_reserved":false,"is_disabled":false,"rental_uris":{"android":"levelo://app?vid=b847414f-d07e-4121-bdbd-009e47a8d04b","ios":"levelo://app?vid=b847414f-d07e-4121-bdbd-009e47a8d04b"},"vehicle_type_id":"4","last_reported":1733598424,"current_range_meters":30000,"station_id":"ce4bhap2rcd13ifvqek0","pricing_plan_id":"cebpf4jnsgd1na2vs0mg"},{"bike_id":"6c660714-bd36-4e1d-858f-095636bba76e","system_id":"levelo_inurba_marseille","lat":43.25942,"lon":5.40895,"is_reserved":false,"is_disabled":false,"rental_uris":{"android":"levelo://app?vid=6c660714-bd36-4e1d-858f-095636bba76e","ios":"levelo://app?vid=6c660714-bd36-4e1d-858f-095636bba76e"},"vehicle_type_id":"4","last_reported":1733598424,"current_range_meters":24400,"station_id":"ce4bhm92rcd13ifvqglg","pricing_plan_id":"cebpf4jnsgd1na2vs0mg"},{"bike_id":"7d84dffa-aa0f-4957-b875-ccc94ed5e4a5","system_id":"levelo_inurba_marseille","lat":43.31276,"lon":5.40156,"is_reserved":false,"is_disabled":false,"rental_uris":{"android":"levelo://app?vid=7d84dffa-aa0f-4957-b875-ccc94ed5e4a5","ios":"levelo://app?vid=7d84dffa-aa0f-4957-b875-ccc94ed5e4a5"},"vehicle_type_id":"4","last_reported":1733598424,"current_range_meters":6000,"station_id":"ce4bh092rcd13ifvqd30","pricing_plan_id":"cebpf4jnsgd1na2vs0mg"},{"bike_id":"bacc3450-9073-4434-a77d-41c29d8453a7","system_id":"levelo_inurba_marseille","lat":43.25723,"lon":5.41109,"is_reserved":false,"is_disabled":false,"rental_uris":{"android":"levelo://app?vid=bacc3450-9073-4434-a77d-41c29d8453a7","ios":"levelo://app?vid=bacc3450-9073-4434-a77d-41c29d8453a7"},"vehicle_type_id":"4","last_reported":1733598424,"current_range_meters":38800,"station_id":"ce4bhkp2rcd13ifvqgd0","pricing_plan_id":"cebpf4jnsgd1na2vs0mg"},{"bike_id":"b57ac3ac-1cb9-4a0e-9880-d76a5f5fa301","system_id":"levelo_inurba_marseille","lat":43.26206,"lon":5.37926,"is_reserved":false,"is_disabled":false,"rental_uris":{"android":"levelo://app?vid=b57ac3ac-1cb9-4a0e-9880-d76a5f5fa301","ios":"levelo://app?vid=b57ac3ac-1cb9-4a0e-9880-d76a5f5fa301"},"vehicle_type_id":"4","last_reported":1733598424,"current_range_meters":36800,"station_id":"ce4bhjp2rcd13ifvqg90","pricing_plan_id":"cebpf4jnsgd1na2vs0mg"},{"bike_id":"18cdda37-c078-44c1-ae6c-8a7ab3a2d4e4","system_id":"levelo_inurba_marseille","lat":43.28721,"lon":5.36097,"is_reserved":false,"is_disabled":false,"rental_uris":{"android":"levelo://app?vid=18cdda37-c078-44c1-ae6c-8a7ab3a2d4e4","ios":"levelo://app?vid=18cdda37-c078-44c1-ae6c-8a7ab3a2d4e4"},"vehicle_type_id":"4","last_reported":1733598424,"current_range_meters":38800,"station_id":"cki0cbj6b192h4jlfktg","pricing_plan_id":"cebpf4jnsgd1na2vs0mg"},{"bike_id":"080fcb1c-52b8-42d7-b477-4dbab7fa601d","system_id":"levelo_inurba_marseille","lat":43.33025,"lon":5.39035,"is_reserved":false,"is_disabled":false,"rental_uris":{"android":"levelo://app?vid=080fcb1c-52b8-42d7-b477-4dbab7fa601d","ios":"levelo://app?vid=080fcb1c-52b8-42d7-b477-4dbab7fa601d"},"vehicle_type_id":"4","last_reported":1733598424,"current_range_meters":25600,"station_id":"ce4bhr92rcd13ifvqhrg","pricing_plan_id":"cebpf4jnsgd1na2vs0mg"},{"bike_id":"93d01107-6f25-4bd6-aab3-e7e21053053d","system_id":"levelo_inurba_marseille","lat":43.31884,"lon":5.40739,"is_reserved":false,"is_disabled":false,"rental_uris":{"android":"levelo://app?vid=93d01107-6f25-4bd6-aab3-e7e21053053d","ios":"levelo://app?vid=93d01107-6f25-4bd6-aab3-e7e21053053d"},"vehicle_type_id":"4","last_reported":1733598424,"current_range_meters":21600,"station_id":"ce4bhq12rcd13ifvqhig","pricing_plan_id":"cebpf4jnsgd1na2vs0mg"},{"bike_id":"1e7eca4a-2c13-40da-b841-c19f904d98a1","system_id":"levelo_inurba_marseille","lat":43.30547,"lon":5.38437,"is_reserved":false,"is_disabled":false,"rental_uris":{"android":"levelo://app?vid=1e7eca4a-2c13-40da-b841-c19f904d98a1","ios":"levelo://app?vid=1e7eca4a-2c13-40da-b841-c19f904d98a1"},"vehicle_type_id":"4","last_reported":1733598424,"current_range_meters":19200,"station_id":"ce4bgg92rcd13ifvqb30","pricing_plan_id":"cebpf4jnsgd1na2vs0mg"},{"bike_id":"f2ae40b9-41b4-4018-bd58-17c7df507379","system_id":"levelo_inurba_marseille","lat":43.29104,"lon":5.38141,"is_reserved":false,"is_disabled":false,"rental_uris":{"android":"levelo://app?vid=f2ae40b9-41b4-4018-bd58-17c7df507379","ios":"levelo://app?vid=f2ae40b9-41b4-4018-bd58-17c7df507379"},"vehicle_type_id":"4","last_reported":1733598424,"current_range_meters":36000,"station_id":"ce4bh512rcd13ifvqe2g","pricing_plan_id":"cebpf4jnsgd1na2vs0mg"},{"bike_id":"37f21803-4998-4b36-bf05-4b1e624f1a52","system_id":"levelo_inurba_marseille","lat":43.32656,"lon":5.40991,"is_reserved":false,"is_disabled":false,"rental_uris":{"android":"levelo://app?vid=37f21803-4998-4b36-bf05-4b1e624f1a52","ios":"levelo://app?vid=37f21803-4998-4b36-bf05-4b1e624f1a52"},"vehicle_type_id":"4","last_reported":1733598424,"current_range_meters":29600,"station_id":"ce4bhpp2rcd13ifvqhgg","pricing_plan_id":"cebpf4jnsgd1na2vs0mg"},{"bike_id":"91ba67a8-fa82-4064-bca6-f2cbf9bac40e","system_id":"levelo_inurba_marseille","lat":43.28614,"lon":5.37059,"is_reserved":false,"is_disabled":false,"rental_uris":{"android":"levelo://app?vid=91ba67a8-fa82-4064-bca6-f2cbf9bac40e","ios":"levelo://app?vid=91ba67a8-fa82-4064-bca6-f2cbf9bac40e"},"vehicle_type_id":"4","last_reported":1733598424,"current_range_meters":28800,"station_id":"ce4bht12rcd13ifvqi60","pricing_plan_id":"cebpf4jnsgd1na2vs0mg"},{"bike_id":"868a434e-7c11-4b20-84c6-7ecdbf24c83b","system_id":"levelo_inurba_marseille","lat":43.33021,"lon":5.39035,"is_reserved":false,"is_disabled":false,"rental_uris":{"android":"levelo://app?vid=868a434e-7c11-4b20-84c6-7ecdbf24c83b","ios":"levelo://app?vid=868a434e-7c11-4b20-84c6-7ecdbf24c83b"},"vehicle_type_id":"4","last_reported":1733598424,"current_range_meters":23200,"station_id":"ce4bhr92rcd13ifvqhrg","pricing_plan_id":"cebpf4jnsgd1na2vs0mg"},{"bike_id":"478eaa5b-5c77-406b-b7dc-70676b884742","system_id":"levelo_inurba_marseille","lat":43.29512,"lon":5.39026,"is_reserved":false,"is_disabled":true,"rental_uris":{"android":"levelo://app?vid=478eaa5b-5c77-406b-b7dc-70676b884742","ios":"levelo://app?vid=478eaa5b-5c77-406b-b7dc-70676b884742"},"vehicle_type_id":"4","last_reported":1733598424,"current_range_meters":400,"station_id":"ce4bh3p2rcd13ifvqdp0","pricing_plan_id":"cebpf4jnsgd1na2vs0mg"},{"bike_id":"69b02490-edb0-40df-a433-3b4fea071b52","system_id":"levelo_inurba_marseille","lat":43.31711,"lon":5.43697,"is_reserved":false,"is_disabled":true,"rental_uris":{"android":"levelo://app?vid=69b02490-edb0-40df-a433-3b4fea071b52","ios":"levelo://app?vid=69b02490-edb0-40df-a433-3b4fea071b52"},"vehicle_type_id":"4","last_reported":1733598424,"current_range_meters":0,"station_id":"ce4bhp92rcd13ifvqhcg","pricing_plan_id":"cebpf4jnsgd1na2vs0mg"},{"bike_id":"35116aeb-0a76-4797-a5b2-a18534d3382f","system_id":"levelo_inurba_marseille","lat":43.337444,"lon":5.374475,"is_reserved":false,"is_disabled":false,"rental_uris":{"android":"levelo://app?vid=35116aeb-0a76-4797-a5b2-a18534d3382f","ios":"levelo://app?vid=35116aeb-0a76-4797-a5b2-a18534d3382f"},"vehicle_type_id":"4","last_reported":1733598424,"current_range_meters":27600,"station_id":"","pricing_plan_id":"cebpf4jnsgd1na2vs0mg"},{"bike_id":"4ae5fe7f-a755-40fe-9b35-59fbb2437146","system_id":"levelo_inurba_marseille","lat":43.24167,"lon":5.36415,"is_reserved":false,"is_disabled":false,"rental_uris":{"android":"levelo://app?vid=4ae5fe7f-a755-40fe-9b35-59fbb2437146","ios":"levelo://app?vid=4ae5fe7f-a755-40fe-9b35-59fbb2437146"},"vehicle_type_id":"4","last_reported":1733598424,"current_range_meters":30800,"station_id":"cpo36qri1sfpv3e86is0","pricing_plan_id":"cebpf4jnsgd1na2vs0mg"},{"bike_id":"31e35599-1530-4b87-abcb-60792c8f744c","system_id":"levelo_inurba_marseille","lat":43.27065,"lon":5.40248,"is_reserved":false,"is_disabled":false,"rental_uris":{"android":"levelo://app?vid=31e35599-1530-4b87-abcb-60792c8f744c","ios":"levelo://app?vid=31e35599-1530-4b87-abcb-60792c8f744c"},"vehicle_type_id":"4","last_reported":1733598424,"current_range_meters":38000,"station_id":"ce4bhk92rcd13ifvqgc0","pricing_plan_id":"cebpf4jnsgd1na2vs0mg"},{"bike_id":"24e2c4bd-87c1-4fd2-ae31-d53c0dfab110","system_id":"levelo_inurba_marseille","lat":43.29414,"lon":5.38619,"is_reserved":false,"is_disabled":false,"rental_uris":{"android":"levelo://app?vid=24e2c4bd-87c1-4fd2-ae31-d53c0dfab110","ios":"levelo://app?vid=24e2c4bd-87c1-4fd2-ae31-d53c0dfab110"},"vehicle_type_id":"4","last_reported":1733598424,"current_range_meters":30400,"station_id":"ce4bh2h2rcd13ifvqdh0","pricing_plan_id":"cebpf4jnsgd1na2vs0mg"},{"bike_id":"1a18c335-5227-46e2-b028-48ee2cf02f37","system_id":"levelo_inurba_marseille","lat":43.29932,"lon":5.36526,"is_reserved":false,"is_disabled":false,"rental_uris":{"android":"levelo://app?vid=1a18c335-5227-46e2-b028-48ee2cf02f37","ios":"levelo://app?vid=1a18c335-5227-46e2-b028-48ee2cf02f37"},"vehicle_type_id":"4","last_reported":1733598424,"current_range_meters":38800,"station_id":"ce4bgm92rcd13ifvqbr0","pricing_plan_id":"cebpf4jnsgd1na2vs0mg"},{"bike_id":"43c79427-2d1c-4138-8ce1-75d34664a098","system_id":"levelo_inurba_marseille","lat":43.31753,"lon":5.3902,"is_reserved":false,"is_disabled":false,"rental_uris":{"android":"levelo://app?vid=43c79427-2d1c-4138-8ce1-75d34664a098","ios":"levelo://app?vid=43c79427-2d1c-4138-8ce1-75d34664a098"},"vehicle_type_id":"4","last_reported":1733598424,"current_range_meters":28000,"station_id":"ce4bhqp2rcd13ifvqhng","pricing_plan_id":"cebpf4jnsgd1na2vs0mg"},{"bike_id":"f5695b3d-aaf2-41d4-9cb0-052c626cb432","system_id":"levelo_inurba_marseille","lat":43.31754,"lon":5.39013,"is_reserved":false,"is_disabled":false,"rental_uris":{"android":"levelo://app?vid=f5695b3d-aaf2-41d4-9cb0-052c626cb432","ios":"levelo://app?vid=f5695b3d-aaf2-41d4-9cb0-052c626cb432"},"vehicle_type_id":"4","last_reported":1733598424,"current_range_meters":28400,"station_id":"ce4bhqp2rcd13ifvqhng","pricing_plan_id":"cebpf4jnsgd1na2vs0mg"},{"bike_id":"92030944-4b36-437c-9a34-c49a53405731","system_id":"levelo_inurba_marseille","lat":43.28945,"lon":5.36379,"is_reserved":false,"is_disabled":false,"rental_uris":{"android":"levelo://app?vid=92030944-4b36-437c-9a34-c49a53405731","ios":"levelo://app?vid=92030944-4b36-437c-9a34-c49a53405731"},"vehicle_type_id":"4","last_reported":1733598424,"current_range_meters":38800,"station_id":"ce4bhc92rcd13ifvqetg","pricing_plan_id":"cebpf4jnsgd1na2vs0mg"},{"bike_id":"f4d5a3c8-66a0-46c2-a59b-83624e74a453","system_id":"levelo_inurba_marseille","lat":43.27316,"lon":5.39087,"is_reserved":false,"is_disabled":false,"rental_uris":{"android":"levelo://app?vid=f4d5a3c8-66a0-46c2-a59b-83624e74a453","ios":"levelo://app?vid=f4d5a3c8-66a0-46c2-a59b-83624e74a453"},"vehicle_type_id":"4","last_reported":1733598424,"current_range_meters":38800,"station_id":"ce4bhgp2rcd13ifvqfe0","pricing_plan_id":"cebpf4jnsgd1na2vs0mg"},{"bike_id":"b983f700-39e1-418f-84a3-1c3c95a84b96","system_id":"levelo_inurba_marseille","lat":43.337752,"lon":5.375048,"is_reserved":false,"is_disabled":false,"rental_uris":{"android":"levelo://app?vid=b983f700-39e1-418f-84a3-1c3c95a84b96","ios":"levelo://app?vid=b983f700-39e1-418f-84a3-1c3c95a84b96"},"vehicle_type_id":"4","last_reported":1733598424,"current_range_meters":31200,"station_id":"","pricing_plan_id":"cebpf4jnsgd1na2vs0mg"},{"bike_id":"30de221a-4ae9-44c8-af60-f5843b67f535","system_id":"levelo_inurba_marseille","lat":43.337444,"lon":5.374475,"is_reserved":false,"is_disabled":false,"rental_uris":{"android":"levelo://app?vid=30de221a-4ae9-44c8-af60-f5843b67f535","ios":"levelo://app?vid=30de221a-4ae9-44c8-af60-f5843b67f535"},"vehicle_type_id":"4","last_reported":1733598424,"current_range_meters":28000,"station_id":"","pricing_plan_id":"cebpf4jnsgd1na2vs0mg"},{"bike_id":"88d67538-574e-434a-8393-671a13b10f01","system_id":"levelo_inurba_marseille","lat":43.29896,"lon":5.4365,"is_reserved":false,"is_disabled":true,"rental_uris":{"android":"levelo://app?vid=88d67538-574e-434a-8393-671a13b10f01","ios":"levelo://app?vid=88d67538-574e-434a-8393-671a13b10f01"},"vehicle_type_id":"4","last_reported":1733598424,"current_range_meters":0,"station_id":"ce4bhpp2rcd13ifvqhfg","pricing_plan_id":"cebpf4jnsgd1na2vs0mg"},{"bike_id":"feeb8239-96ce-4b68-95a5-02751dd78e6a","system_id":"levelo_inurba_marseille","lat":43.29605,"lon":5.38101,"is_reserved":false,"is_disabled":false,"rental_uris":{"android":"levelo://app?vid=feeb8239-96ce-4b68-95a5-02751dd78e6a","ios":"levelo://app?vid=feeb8239-96ce-4b68-95a5-02751dd78e6a"},"vehicle_type_id":"4","last_reported":1733598424,"current_range_meters":27200,"station_id":"ce4bgl12rcd13ifvqbo0","pricing_plan_id":"cebpf4jnsgd1na2vs0mg"},{"bike_id":"cddfb025-e5a7-4222-9cdb-1f0df78a300f","system_id":"levelo_inurba_marseille","lat":43.28426,"lon":5.34989,"is_reserved":false,"is_disabled":false,"rental_uris":{"android":"levelo://app?vid=cddfb025-e5a7-4222-9cdb-1f0df78a300f","ios":"levelo://app?vid=cddfb025-e5a7-4222-9cdb-1f0df78a300f"},"vehicle_type_id":"4","last_reported":1733598424,"current_range_meters":25600,"station_id":"ce4bhbh2rcd13ifvqepg","pricing_plan_id":"cebpf4jnsgd1na2vs0mg"},{"bike_id":"de11a54e-6cf5-41e3-8d44-b76065853dd4","system_id":"levelo_inurba_marseille","lat":43.31271,"lon":5.40167,"is_reserved":false,"is_disabled":false,"rental_uris":{"android":"levelo://app?vid=de11a54e-6cf5-41e3-8d44-b76065853dd4","ios":"levelo://app?vid=de11a54e-6cf5-41e3-8d44-b76065853dd4"},"vehicle_type_id":"4","last_reported":1733598424,"current_range_meters":36400,"station_id":"ce4bh092rcd13ifvqd30","pricing_plan_id":"cebpf4jnsgd1na2vs0mg"},{"bike_id":"1c4608e0-472a-4c21-818a-62f0fc4c9675","system_id":"levelo_inurba_marseille","lat":43.28104,"lon":5.37833,"is_reserved":false,"is_disabled":false,"rental_uris":{"android":"levelo://app?vid=1c4608e0-472a-4c21-818a-62f0fc4c9675","ios":"levelo://app?vid=1c4608e0-472a-4c21-818a-62f0fc4c9675"},"vehicle_type_id":"4","last_reported":1733598424,"current_range_meters":38800,"station_id":"ce4bha12rcd13ifvqee0","pricing_plan_id":"cebpf4jnsgd1na2vs0mg"},{"bike_id":"b5e2ccfc-3429-4c39-8f3c-d1c9a375ac69","system_id":"levelo_inurba_marseille","lat":43.28106,"lon":5.37831,"is_reserved":false,"is_disabled":false,"rental_uris":{"android":"levelo://app?vid=b5e2ccfc-3429-4c39-8f3c-d1c9a375ac69","ios":"levelo://app?vid=b5e2ccfc-3429-4c39-8f3c-d1c9a375ac69"},"vehicle_type_id":"4","last_reported":1733598424,"current_range_meters":11200,"station_id":"ce4bha12rcd13ifvqee0","pricing_plan_id":"cebpf4jnsgd1na2vs0mg"},{"bike_id":"37ea3103-0ce2-48f8-bac8-65a1cf71f991","system_id":"levelo_inurba_marseille","lat":43.24654,"lon":5.38165,"is_reserved":false,"is_disabled":true,"rental_uris":{"android":"levelo://app?vid=37ea3103-0ce2-48f8-bac8-65a1cf71f991","ios":"levelo://app?vid=37ea3103-0ce2-48f8-bac8-65a1cf71f991"},"vehicle_type_id":"4","last_reported":1733598424,"current_range_meters":38000,"station_id":"ce4bhih2rcd13ifvqfr0","pricing_plan_id":"cebpf4jnsgd1na2vs0mg"},{"bike_id":"35f3c44e-0e88-42b6-9d0a-a15513a6f190","system_id":"levelo_inurba_marseille","lat":43.31071,"lon":5.36796,"is_reserved":false,"is_disabled":false,"rental_uris":{"android":"levelo://app?vid=35f3c44e-0e88-42b6-9d0a-a15513a6f190","ios":"levelo://app?vid=35f3c44e-0e88-42b6-9d0a-a15513a6f190"},"vehicle_type_id":"4","last_reported":1733598424,"current_range_meters":32000,"station_id":"","pricing_plan_id":"cebpf4jnsgd1na2vs0mg"},{"bike_id":"3702917b-7e66-4f83-a6eb-bc58a3f2a139","system_id":"levelo_inurba_marseille","lat":43.26057,"lon":5.394,"is_reserved":false,"is_disabled":true,"rental_uris":{"android":"levelo://app?vid=3702917b-7e66-4f83-a6eb-bc58a3f2a139","ios":"levelo://app?vid=3702917b-7e66-4f83-a6eb-bc58a3f2a139"},"vehicle_type_id":"4","last_reported":1733598424,"current_range_meters":38800,"station_id":"ce4bhh92rcd13ifvqfj0","pricing_plan_id":"cebpf4jnsgd1na2vs0mg"},{"bike_id":"bd45d4b8-a794-47d3-b71a-c238d420c3d9","system_id":"levelo_inurba_marseille","lat":43.29005,"lon":5.35615,"is_reserved":false,"is_disabled":true,"rental_uris":{"android":"levelo://app?vid=bd45d4b8-a794-47d3-b71a-c238d420c3d9","ios":"levelo://app?vid=bd45d4b8-a794-47d3-b71a-c238d420c3d9"},"vehicle_type_id":"4","last_reported":1733598424,"current_range_meters":38800,"station_id":"ce4bhb92rcd13ifvqen0","pricing_plan_id":"cebpf4jnsgd1na2vs0mg"},{"bike_id":"143ab471-c30d-495f-9761-b36f085fb285","system_id":"levelo_inurba_marseille","lat":43.31072,"lon":5.37661,"is_reserved":false,"is_disabled":false,"rental_uris":{"android":"levelo://app?vid=143ab471-c30d-495f-9761-b36f085fb285","ios":"levelo://app?vid=143ab471-c30d-495f-9761-b36f085fb285"},"vehicle_type_id":"4","last_reported":1733598424,"current_range_meters":36800,"station_id":"","pricing_plan_id":"cebpf4jnsgd1na2vs0mg"},{"bike_id":"d7fd8304-9263-4705-84e6-8552e65103a2","system_id":"levelo_inurba_marseille","lat":43.23957,"lon":5.36624,"is_reserved":false,"is_disabled":false,"rental_uris":{"android":"levelo://app?vid=d7fd8304-9263-4705-84e6-8552e65103a2","ios":"levelo://app?vid=d7fd8304-9263-4705-84e6-8552e65103a2"},"vehicle_type_id":"4","last_reported":1733598424,"current_range_meters":14400,"station_id":"ce4bhi12rcd13ifvqfp0","pricing_plan_id":"cebpf4jnsgd1na2vs0mg"},{"bike_id":"8bab4f58-6256-4ff5-8d1e-e2e0312198ca","system_id":"levelo_inurba_marseille","lat":43.32477,"lon":5.36559,"is_reserved":false,"is_disabled":false,"rental_uris":{"android":"levelo://app?vid=8bab4f58-6256-4ff5-8d1e-e2e0312198ca","ios":"levelo://app?vid=8bab4f58-6256-4ff5-8d1e-e2e0312198ca"},"vehicle_type_id":"4","last_reported":1733598424,"current_range_meters":30400,"station_id":"ce4bhs12rcd13ifvqhvg","pricing_plan_id":"cebpf4jnsgd1na2vs0mg"},{"bike_id":"ab6f636c-8505-49a9-9bfe-70ff2ba02a35","system_id":"levelo_inurba_marseille","lat":43.3249,"lon":5.36559,"is_reserved":false,"is_disabled":false,"rental_uris":{"android":"levelo://app?vid=ab6f636c-8505-49a9-9bfe-70ff2ba02a35","ios":"levelo://app?vid=ab6f636c-8505-49a9-9bfe-70ff2ba02a35"},"vehicle_type_id":"4","last_reported":1733598424,"current_range_meters":17600,"station_id":"ce4bhs12rcd13ifvqhvg","pricing_plan_id":"cebpf4jnsgd1na2vs0mg"},{"bike_id":"4d708a68-bd4f-4364-8612-70113c464a1b","system_id":"levelo_inurba_marseille","lat":43.2407,"lon":5.37764,"is_reserved":false,"is_disabled":false,"rental_uris":{"android":"levelo://app?vid=4d708a68-bd4f-4364-8612-70113c464a1b","ios":"levelo://app?vid=4d708a68-bd4f-4364-8612-70113c464a1b"},"vehicle_type_id":"4","last_reported":1733598424,"current_range_meters":7200,"station_id":"ce4bhnp2rcd13ifvqgvg","pricing_plan_id":"cebpf4jnsgd1na2vs0mg"},{"bike_id":"d40038ff-0079-49e2-b0b0-39fa2acbe4b2","system_id":"levelo_inurba_marseille","lat":43.29417,"lon":5.38627,"is_reserved":false,"is_disabled":false,"rental_uris":{"android":"levelo://app?vid=d40038ff-0079-49e2-b0b0-39fa2acbe4b2","ios":"levelo://app?vid=d40038ff-0079-49e2-b0b0-39fa2acbe4b2"},"vehicle_type_id":"4","last_reported":1733598424,"current_range_meters":9200,"station_id":"ce4bh2h2rcd13ifvqdh0","pricing_plan_id":"cebpf4jnsgd1na2vs0mg"},{"bike_id":"87c58aa7-a91e-4276-8123-ee1d6231b9b0","system_id":"levelo_inurba_marseille","lat":43.28428,"lon":5.34991,"is_reserved":false,"is_disabled":true,"rental_uris":{"android":"levelo://app?vid=87c58aa7-a91e-4276-8123-ee1d6231b9b0","ios":"levelo://app?vid=87c58aa7-a91e-4276-8123-ee1d6231b9b0"},"vehicle_type_id":"4","last_reported":1733598424,"current_range_meters":0,"station_id":"ce4bhbh2rcd13ifvqepg","pricing_plan_id":"cebpf4jnsgd1na2vs0mg"},