{"last_updated":1716736103,"ttl":30,"version":"2.2","data":{"bikes":[{"bike_id":"1320ca40-76bd-4872-9eed-bcad5f3bf094","system_id":"levelo_inurba_marseille","lat":43.312239,"lon":5.368562,"is_reserved":false,"is_disabled":false,"rental_uris":{"android":"levelo://app?vid=1320ca40-76bd-4872-9eed-bcad5f3bf094","ios":"levelo://app?vid=1320ca40-76bd-4872-9eed-bcad5f3bf094"},"vehicle_type_id":"4","last_reported":1716736104,"current_range_meters":3600,"station_id":"ce4bgl92rcd13ifvqbq0","pricing_plan_id":"cebpf4jnsgd1na2vs0mg"},{"bike_id":"7fa81ee5-4682-4aec-b581-9872876f2a7b","system_id":"levelo_inurba_marseille","lat":43.312239,"lon":5.368562,"is_reserved":false,"is_disabled":false,"rental_uris":{"android":"levelo://app?vid=7fa81ee5-4682-4aec-b581-9872876f2a7b","ios":"levelo://app?vid=7fa81ee5-4682-4aec-b581-9872876f2a7b"},"vehicle_type_id":"4","last_reported":1716736104,"current_range_meters":26400,"station_id":"ce4bgl92rcd13ifvqbq0","pricing_plan_id":"cebpf4jnsgd1na2vs0mg"},{"bike_id":"eedcc5f0-4c45-4528-b0bf-4325abb741bb","system_id":"levelo_inurba_marseille","lat":43.314811,"lon":5.373103,"is_reserved":false,"is_disabled":false,"rental_uris":{"android":"levelo://app?vid=eedcc5f0-4c45-4528-b0bf-4325abb741bb","ios":"levelo://app?vid=eedcc5f0-4c45-4528-b0bf-4325abb741bb"},"vehicle_type_id":"4","last_reported":1716736104,"current_range_meters":24000,"station_id":"ce4bgt12rcd13ifvqcd0","pricing_plan_id":"cebpf4jnsgd1na2vs0mg"},{"bike_id":"b54cb11d-2616-49fe-8bff-7c98f9d79f81","system_id":"levelo_inurba_marseille","lat":43.305712,"lon":5.365641,"is_reserved":false,"is_disabled":false,"rental_uris":{"android":"levelo://app?vid=b54cb11d-2616-49fe-8bff-7c98f9d79f81","ios":"levelo://app?vid=b54cb11d-2616-49fe-8bff-7c98f9d79f81"},"vehicle_type_id":"4","last_reported":1716736104,"current_range_meters":0,"station_id":"ce4bgs12rcd13ifvqcag","pricing_plan_id":"cebpf4jnsgd1na2vs0mg"},{"bike_id":"6f47e2ba-a5c6-444f-b48a-3fa70b518185","system_id":"levelo_inurba_marseille","lat":43.305714,"lon":5.365633,"is_reserved":false,"is_disabled":false,"rental_uris":{"android":"levelo://app?vid=6f47e2ba-a5c6-444f-b48a-3fa70b518185","ios":"levelo://app?vid=6f47e2ba-a5c6-444f-b48a-3fa70b518185"},"vehicle_type_id":"4","last_reported":1716736104,"current_range_meters":4800,"station_id":"ce4bgs12rcd13ifvqcag","pricing_plan_id":"cebpf4jnsgd1na2vs0mg"},{"bike_id":"b062c8c7-9892-4177-91b2-94f944bb907f","system_id":"levelo_inurba_marseille","lat":43.305714,"lon":5.365633,"is_reserved":false,"is_disabled":false,"rental_uris":{"android":"levelo://app?vid=b062c8c7-9892-4177-91b2-94f944bb907f","ios":"levelo://app?vid=b062c8c7-9892-4177-91b2-94f944bb907f"},"vehicle_type_id":"4","last_reported":1716736104,"current_range_meters":0,"station_id":"ce4bgs12rcd13ifvqcag","pricing_plan_id":"cebpf4jnsgd1na2vs0mg"},{"bike_id":"60910cac-bbea-4e9e-984a-0f5ebadd9511","system_id":"levelo_inurba_marseille","lat":43.305714,"lon":5.365633,"is_reserved":false,"is_disabled":false,"rental_uris":{"android":"levelo://app?vid=60910cac-bbea-4e9e-984a-0f5ebadd9511","ios":"levelo://app?vid=60910cac-bbea-4e9e-984a-0f5ebadd9511"},"vehicle_type_id":"4","last_reported":1716736104,"current_range_meters":0,"station_id":"ce4bgs12rcd13ifvqcag","pricing_plan_id":"cebpf4jnsgd1na2vs0mg"},{"bike_id":"9536e535-bf62-4b30-a415-f92d7684f5dd","system_id":"levelo_inurba_marseille","lat":43.305706,"lon":5.365654,"is_reserved":false,"is_disabled":false,"rental_uris":{"android":"levelo://app?vid=9536e535-bf62-4b30-a415-f92d7684f5dd","ios":"levelo://app?vid=9536e535-bf62-4b30-a415-f92d7684f5dd"},"vehicle_type_id":"4","last_reported":1716736104,"current_range_meters":2400,"station_id":"ce4bgs12rcd13ifvqcag","pricing_plan_id":"cebpf4jnsgd1na2vs0mg"},{"bike_id":"085f8808-1d82-4a31-a42a-8e58df7e3717","system_id":"levelo_inurba_marseille","lat":43.305989,"lon":5.37225,"is_reserved":false,"is_disabled":false,"rental_uris":{"android":"levelo://app?vid=085f8808-1d82-4a31-a42a-8e58df7e3717","ios":"levelo://app?vid=085f8808-1d82-4a31-a42a-8e58df7e3717"},"vehicle_type_id":"4","last_reported":1716736104,"current_range_meters":31200,"station_id":"ce4bgqh2rcd13ifvqc4g","pricing_plan_id":"cebpf4jnsgd1na2vs0mg"},{"bike_id":"5024e69d-1c25-4cc0-a157-6730b78c866a","system_id":"levelo_inurba_marseille","lat":43.30796,"lon":5.37654,"is_reserved":false,"is_disabled":false,"rental_uris":{"android":"levelo://app?vid=5024e69d-1c25-4cc0-a157-6730b78c866a","ios":"levelo://app?vid=5024e69d-1c25-4cc0-a157-6730b78c866a"},"vehicle_type_id":"4","last_reported":1716736104,"current_range_meters":0,"station_id":"ce4bgv92rcd13ifvqcq0","pricing_plan_id":"cebpf4jnsgd1na2vs0mg"},{"bike_id":"ffb84285-738c-4cb9-aef8-6e997c1422bf","system_id":"levelo_inurba_marseille","lat":43.317075,"lon":5.377367,"is_reserved":false,"is_disabled":false,"rental_uris":{"android":"levelo://app?vid=ffb84285-738c-4cb9-aef8-6e997c1422bf","ios":"levelo://app?vid=ffb84285-738c-4cb9-aef8-6e997c1422bf"},"vehicle_type_id":"4","last_reported":1716736104,"current_range_meters":10400,"station_id":"ce4bgth2rcd13ifvqch0","pricing_plan_id":"cebpf4jnsgd1na2vs0mg"},{"bike_id":"c001667b-8888-416f-a456-0ad0c74f7b4e","system_id":"levelo_inurba_marseille","lat":43.317075,"lon":5.377367,"is_reserved":false,"is_disabled":false,"rental_uris":{"android":"levelo://app?vid=c001667b-8888-416f-a456-0ad0c74f7b4e","ios":"levelo://app?vid=c001667b-8888-416f-a456-0ad0c74f7b4e"},"vehicle_type_id":"4","last_reported":1716736104,"current_range_meters":27600,"station_id":"ce4bgth2rcd13ifvqch0","pricing_plan_id":"cebpf4jnsgd1na2vs0mg"},{"bike_id":"032c880a-773c-4816-aeef-9d0a56b7e5dd","system_id":"levelo_inurba_marseille","lat":43.317068,"lon":5.37761,"is_reserved":false,"is_disabled":false,"rental_uris":{"android":"levelo://app?vid=032c880a-773c-4816-aeef-9d0a56b7e5dd","ios":"levelo://app?vid=032c880a-773c-4816-aeef-9d0a56b7e5dd"},"vehicle_type_id":"4","last_reported":1716736104,"current_range_meters":400,"station_id":"ce4bgth2rcd13ifvqch0","pricing_plan_id":"cebpf4jnsgd1na2vs0mg"},{"bike_id":"37e5281c-bf30-4a84-9792-90e1e3748aff","system_id":"levelo_inurba_marseille","lat":43.303046,"lon":5.368981,"is_reserved":false,"is_disabled":false,"rental_uris":{"android":"levelo://app?vid=37e5281c-bf30-4a84-9792-90e1e3748aff","ios":"levelo://app?vid=37e5281c-bf30-4a84-9792-90e1e3748aff"},"vehicle_type_id":"4","last_reported":1716736104,"current_range_meters":4800,"station_id":"ce4bgqh2rcd13ifvqc5g","pricing_plan_id":"cebpf4jnsgd1na2vs0mg"},{"bike_id":"ed38837c-dc88-46db-90f8-799b290a007b","system_id":"levelo_inurba_marseille","lat":43.30817,"lon":5.3815,"is_reserved":false,"is_disabled":false,"rental_uris":{"android":"levelo://app?vid=ed38837c-dc88-46db-90f8-799b290a007b","ios":"levelo://app?vid=ed38837c-dc88-46db-90f8-799b290a007b"},"vehicle_type_id":"4","last_reported":1716736104,"current_range_meters":18000,"station_id":"ce4bgt12rcd13ifvqce0","pricing_plan_id":"cebpf4jnsgd1na2vs0mg"},{"bike_id":"c3552d59-98e9-4de9-bbc9-402b18c61315","system_id":"levelo_inurba_marseille","lat":43.304606,"lon":5.379026,"is_reserved":false,"is_disabled":false,"rental_uris":{"android":"levelo://app?vid=c3552d59-98e9-4de9-bbc9-402b18c61315","ios":"levelo://app?vid=c3552d59-98e9-4de9-bbc9-402b18c61315"},"vehicle_type_id":"4","last_reported":1716736104,"current_range_meters":5600,"station_id":"ce4bgup2rcd13ifvqcn0","pricing_plan_id":"cebpf4jnsgd1na2vs0mg"},{"bike_id":"80a7cc36-3184-416b-9d6c-36a4468028a4","system_id":"levelo_inurba_marseille","lat":43.304606,"lon":5.379026,"is_reserved":false,"is_disabled":false,"rental_uris":{"android":"levelo://app?vid=80a7cc36-3184-416b-9d6c-36a4468028a4","ios":"levelo://app?vid=80a7cc36-3184-416b-9d6c-36a4468028a4"},"vehicle_type_id":"4","last_reported":1716736104,"current_range_meters":2800,"station_id":"ce4bgup2rcd13ifvqcn0","pricing_plan_id":"cebpf4jnsgd1na2vs0mg"},{"bike_id":"f98db5b4-4859-4f43-9ed7-eaabcae211da","system_id":"levelo_inurba_marseille","lat":43.304606,"lon":5.379026,"is_reserved":false,"is_disabled":false,"rental_uris":{"android":"levelo://app?vid=f98db5b4-4859-4f43-9ed7-eaabcae211da","ios":"levelo://app?vid=f98db5b4-4859-4f43-9ed7-eaabcae211da"},"vehicle_type_id":"4","last_reported":1716736104,"current_range_meters":30800,"station_id":"ce4bgup2rcd13ifvqcn0","pricing_plan_id":"cebpf4jnsgd1na2vs0mg"},{"bike_id":"27e218a8-538f-4c3f-9de3-25438fba3434","system_id":"levelo_inurba_marseille","lat":43.324771,"lon":5.36557,"is_reserved":false,"is_disabled":false,"rental_uris":{"android":"levelo://app?vid=27e218a8-538f-4c3f-9de3-25438fba3434","ios":"levelo://app?vid=27e218a8-538f-4c3f-9de3-25438fba3434"},"vehicle_type_id":"4","last_reported":1716736104,"current_range_meters":28800,"station_id":"ce4bhs12rcd13ifvqhvg","pricing_plan_id":"cebpf4jnsgd1na2vs0mg"},{"bike_id":"72ba4090-3817-4ac9-a00a-506384b53c7f","system_id":"levelo_inurba_marseille","lat":43.32479,"lon":5.365746,"is_reserved":false,"is_disabled":false,"rental_uris":{"android":"levelo://app?vid=72ba4090-3817-4ac9-a00a-506384b53c7f","ios":"levelo://app?vid=72ba4090-3817-4ac9-a00a-506384b53c7f"},"vehicle_type_id":"4","last_reported":1716736104,"current_range_meters":30400,"station_id":"ce4bhs12rcd13ifvqhvg","pricing_plan_id":"cebpf4jnsgd1na2vs0mg"},{"bike_id":"0fe1c741-31ef-4c42-ae4f-9fc5e42ec0c2","system_id":"levelo_inurba_marseille","lat":43.324771,"lon":5.36557,"is_reserved":false,"is_disabled":false,"rental_uris":{"android":"levelo://app?vid=0fe1c741-31ef-4c42-ae4f-9fc5e42ec0c2","ios":"levelo://app?vid=0fe1c741-31ef-4c42-ae4f-9fc5e42ec0c2"},"vehicle_type_id":"4","last_reported":1716736104,"current_range_meters":21600,"station_id":"ce4bhs12rcd13ifvqhvg","pricing_plan_id":"cebpf4jnsgd1na2vs0mg"},{"bike_id":"1e27f010-3bdb-4762-a3d2-70f5517cc08d","system_id":"levelo_inurba_marseille","lat":43.324771,"lon":5.36557,"is_reserved":false,"is_disabled":false,"rental_uris":{"android":"levelo://app?vid=1e27f010-3bdb-4762-a3d2-70f5517cc08d","ios":"levelo://app?vid=1e27f010-3bdb-4762-a3d2-70f5517cc08d"},"vehicle_type_id":"4","last_reported":1716736104,"current_range_meters":27600,"station_id":"ce4bhs12rcd13ifvqhvg","pricing_plan_id":"cebpf4jnsgd1na2vs0mg"},{"bike_id":"99a35186-da9f-462a-b777-ca5d239a806c","system_id":"levelo_inurba_marseille","lat":43.324771,"lon":5.36557,"is_reserved":false,"is_disabled":false,"rental_uris":{"android":"levelo://app?vid=99a35186-da9f-462a-b777-ca5d239a806c","ios":"levelo://app?vid=99a35186-da9f-462a-b777-ca5d239a806c"},"vehicle_type_id":"4","last_reported":1716736104,"current_range_meters":18800,"station_id":"ce4bhs12rcd13ifvqhvg","pricing_plan_id":"cebpf4jnsgd1na2vs0mg"},{"bike_id":"11afafd0-4eff-440f-850c-1e17bea26cdf","system_id":"levelo_inurba_marseille","lat":43.324771,"lon":5.36557,"is_reserved":false,"is_disabled":false,"rental_uris":{"android":"levelo://app?vid=11afafd0-4eff-440f-850c-1e17bea26cdf","ios":"levelo://app?vid=11afafd0-4eff-440f-850c-1e17bea26cdf"},"vehicle_type_id":"4","last_reported":1716736104,"current_range_meters":17200,"station_id":"ce4bhs12rcd13ifvqhvg","pricing_plan_id":"cebpf4jnsgd1na2vs0mg"},{"bike_id":"71a56a80-db24-465f-af67-8ee54602e2c2","system_id":"levelo_inurba_marseille","lat":43.324771,"lon":5.36557,"is_reserved":false,"is_disabled":false,"rental_uris":{"android":"levelo://app?vid=71a56a80-db24-465f-af67-8ee54602e2c2","ios":"levelo://app?vid=71a56a80-db24-465f-af67-8ee54602e2c2"},"vehicle_type_id":"4","last_reported":1716736104,"current_range_meters":17200,"station_id":"ce4bhs12rcd13ifvqhvg","pricing_plan_id":"cebpf4jnsgd1na2vs0mg"},{"bike_id":"1f5dd8ee-a7f4-4fe4-8e2e-6aaac79a52f2","system_id":"levelo_inurba_marseille","lat":43.302784,"lon":5.377158,"is_reserved":false,"is_disabled":false,"rental_uris":{"android":"levelo://app?vid=1f5dd8ee-a7f4-4fe4-8e2e-6aaac79a52f2","ios":"levelo://app?vid=1f5dd8ee-a7f4-4fe4-8e2e-6aaac79a52f2"},"vehicle_type_id":"4","last_reported":1716736104,"current_range_meters":22000,"station_id":"ce4bguh2rcd13ifvqcj0","pricing_plan_id":"cebpf4jnsgd1na2vs0mg"},{"bike_id":"1116db2d-b939-45f8-9071-ef340454732e","system_id":"levelo_inurba_marseille","lat":43.319935,"lon":5.381699,"is_reserved":false,"is_disabled":false,"rental_uris":{"android":"levelo://app?vid=1116db2d-b939-45f8-9071-ef340454732e","ios":"levelo://app?vid=1116db2d-b939-45f8-9071-ef340454732e"},"vehicle_type_id":"4","last_reported":1716736104,"current_range_meters":5600,"station_id":"ce4bhr12rcd13ifvqhpg","pricing_plan_id":"cebpf4jnsgd1na2vs0mg"},{"bike_id":"206182ff-adda-42d0-875e-5056e7834633","system_id":"levelo_inurba_marseille","lat":43.299724,"lon":5.371829,"is_reserved":false,"is_disabled":false,"rental_uris":{"android":"levelo://app?vid=206182ff-adda-42d0-875e-5056e7834633","ios":"levelo://app?vid=206182ff-adda-42d0-875e-5056e7834633"},"vehicle_type_id":"4","last_reported":1716736104,"current_range_meters":2000,"station_id":"ce4bgr92rcd13ifvqc7g","pricing_plan_id":"cebpf4jnsgd1na2vs0mg"},{"bike_id":"36ee8d49-3d36-45ae-9f19-860a9629f89d","system_id":"levelo_inurba_marseille","lat":43.29936,"lon":5.3655,"is_reserved":false,"is_disabled":false,"rental_uris":{"android":"levelo://app?vid=36ee8d49-3d36-45ae-9f19-860a9629f89d","ios":"levelo://app?vid=36ee8d49-3d36-45ae-9f19-860a9629f89d"},"vehicle_type_id":"4","last_reported":1716736104,"current_range_meters":18400,"station_id":"","pricing_plan_id":"cebpf4jnsgd1na2vs0mg"},{"bike_id":"3bb34a97-1b86-4f58-b553-b30fe638ed4e","system_id":"levelo_inurba_marseille","lat":43.299222,"lon":5.365554,"is_reserved":false,"is_disabled":false,"rental_uris":{"android":"levelo://app?vid=3bb34a97-1b86-4f58-b553-b30fe638ed4e","ios":"levelo://app?vid=3bb34a97-1b86-4f58-b553-b30fe638ed4e"},"vehicle_type_id":"4","last_reported":1716736104,"current_range_meters":0,"station_id":"ce4bgm92rcd13ifvqbr0","pricing_plan_id":"cebpf4jnsgd1na2vs0mg"},{"bike_id":"3e8cc55a-fa0e-4f69-aa25-62b6ab81053e","system_id":"levelo_inurba_marseille","lat":43.29981,"lon":5.37188,"is_reserved":false,"is_disabled":false,"rental_uris":{"android":"levelo://app?vid=3e8cc55a-fa0e-4f69-aa25-62b6ab81053e","ios":"levelo://app?vid=3e8cc55a-fa0e-4f69-aa25-62b6ab81053e"},"vehicle_type_id":"4","last_reported":1716736104,"current_range_meters":2000,"station_id":"ce4bgr92rcd13ifvqc7g","pricing_plan_id":"cebpf4jnsgd1na2vs0mg"},{"bike_id":"7ae07950-2160-4ea3-b452-8db7af5a0b73","system_id":"levelo_inurba_marseille","lat":43.298433,"lon":5.362774,"is_reserved":false,"is_disabled":false,"rental_uris":{"android":"levelo://app?vid=7ae07950-2160-4ea3-b452-8db7af5a0b73","ios":"levelo://app?vid=7ae07950-2160-4ea3-b452-8db7af5a0b73"},"vehicle_type_id":"4","last_reported":1716736104,"current_range_meters":26000,"station_id":"ce4bgpp2rcd13ifvqc3g","pricing_plan_id":"cebpf4jnsgd1na2vs0mg"},{"bike_id":"f9593944-692d-4343-9acc-3c62a9102c54","system_id":"levelo_inurba_marseille","lat":43.29856,"lon":5.36282,"is_reserved":false,"is_disabled":false,"rental_uris":{"android":"levelo://app?vid=f9593944-692d-4343-9acc-3c62a9102c54","ios":"levelo://app?vid=f9593944-692d-4343-9acc-3c62a9102c54"},"vehicle_type_id":"4","last_reported":1716736104,"current_range_meters":0,"station_id":"ce4bgpp2rcd13ifvqc3g","pricing_plan_id":"cebpf4jnsgd1na2vs0mg"},{"bike_id":"927b5b50-817c-4718-92d5-6a224ce1028a","system_id":"levelo_inurba_marseille","lat":43.29854,"lon":5.36292,"is_reserved":false,"is_disabled":false,"rental_uris":{"android":"levelo://app?vid=927b5b50-817c-4718-92d5-6a224ce1028a","ios":"levelo://app?vid=927b5b50-817c-4718-92d5-6a224ce1028a"},"vehicle_type_id":"4","last_reported":1716736104,"current_range_meters":9600,"station_id":"ce4bgpp2rcd13ifvqc3g","pricing_plan_id":"cebpf4jnsgd1na2vs0mg"},{"bike_id":"bef34f95-2ee6-4d25-ba79-f5600d85478b","system_id":"levelo_inurba_marseille","lat":43.29853,"lon":5.36286,"is_reserved":false,"is_disabled":false,"rental_uris":{"android":"levelo://app?vid=bef34f95-2ee6-4d25-ba79-f5600d85478b","ios":"levelo://app?vid=bef34f95-2ee6-4d25-ba79-f5600d85478b"},"vehicle_type_id":"4","last_reported":1716736104,"current_range_meters":26000,"station_id":"ce4bgpp2rcd13ifvqc3g","pricing_plan_id":"cebpf4jnsgd1na2vs0mg"},{"bike_id":"7c0279c4-785e-41cc-9875-11b1aa5697b0","system_id":"levelo_inurba_marseille","lat":43.298433,"lon":5.362774,"is_reserved":false,"is_disabled":false,"rental_uris":{"android":"levelo://app?vid=7c0279c4-785e-41cc-9875-11b1aa5697b0","ios":"levelo://app?vid=7c0279c4-785e-41cc-9875-11b1aa5697b0"},"vehicle_type_id":"4","last_reported":1716736104,"current_range_meters":31200,"station_id":"ce4bgpp2rcd13ifvqc3g","pricing_plan_id":"cebpf4jnsgd1na2vs0mg"},{"bike_id":"13019582-692d-463d-bdfd-2163f251fbdf","system_id":"levelo_inurba_marseille","lat":43.3055,"lon":5.3843,"is_reserved":false,"is_disabled":false,"rental_uris":{"android":"levelo://app?vid=13019582-692d-463d-bdfd-2163f251fbdf","ios":"levelo://app?vid=13019582-692d-463d-bdfd-2163f251fbdf"},"vehicle_type_id":"4","last_reported":1716736104,"current_range_meters":0,"station_id":"ce4bgg92rcd13ifvqb30","pricing_plan_id":"cebpf4jnsgd1na2vs0mg"},{"bike_id":"ed492a4e-944e-43b3-bd26-4581a8e6f7a8","system_id":"levelo_inurba_marseille","lat":43.297794,"lon":5.370888,"is_reserved":false,"is_disabled":false,"rental_uris":{"android":"levelo://app?vid=ed492a4e-944e-43b3-bd26-4581a8e6f7a8","ios":"levelo://app?vid=ed492a4e-944e-43b3-bd26-4581a8e6f7a8"},"vehicle_type_id":"4","last_reported":1716736104,"current_range_meters":29600,"station_id":"ce4bgop2rcd13ifvqc1g","pricing_plan_id":"cebpf4jnsgd1na2vs0mg"},{"bike_id":"8a86114c-80bd-4f81-a6db-d061af89de8b","system_id":"levelo_inurba_marseille","lat":43.322872,"lon":5.382756,"is_reserved":false,"is_disabled":false,"rental_uris":{"android":"levelo://app?vid=8a86114c-80bd-4f81-a6db-d061af89de8b","ios":"levelo://app?vid=8a86114c-80bd-4f81-a6db-d061af89de8b"},"vehicle_type_id":"4","last_reported":1716736104,"current_range_meters":7200,"station_id":"ce4bhr12rcd13ifvqhqg","pricing_plan_id":"cebpf4jnsgd1na2vs0mg"},{"bike_id":"aa621ebf-ca9c-4b85-a8a1-89628dddf19e","system_id":"levelo_inurba_marseille","lat":43.2968,"lon":5.37291,"is_reserved":false,"is_disabled":false,"rental_uris":{"android":"levelo://app?vid=aa621ebf-ca9c-4b85-a8a1-89628dddf19e","ios":"levelo://app?vid=aa621ebf-ca9c-4b85-a8a1-89628dddf19e"},"vehicle_type_id":"4","last_reported":1716736104,"current_range_meters":26800,"station_id":"ce4bgk12rcd13ifvqbj0","pricing_plan_id":"cebpf4jnsgd1na2vs0mg"},{"bike_id":"b0181dbd-d16d-4347-9382-b450da867146","system_id":"levelo_inurba_marseille","lat":43.29657,"lon":5.36162,"is_reserved":false,"is_disabled":false,"rental_uris":{"android":"levelo://app?vid=b0181dbd-d16d-4347-9382-b450da867146","ios":"levelo://app?vid=b0181dbd-d16d-4347-9382-b450da867146"},"vehicle_type_id":"4","last_reported":1716736104,"current_range_meters":4400,"station_id":"","pricing_plan_id":"cebpf4jnsgd1na2vs0mg"},{"bike_id":"1e7ad963-c073-443d-b840-bc33fd78144e","system_id":"levelo_inurba_marseille","lat":43.296131,"lon":5.370773,"is_reserved":false,"is_disabled":false,"rental_uris":{"android":"levelo://app?vid=1e7ad963-c073-443d-b840-bc33fd78144e","ios":"levelo://app?vid=1e7ad963-c073-443d-b840-bc33fd78144e"},"vehicle_type_id":"4","last_reported":1716736104,"current_range_meters":20800,"station_id":"ce4bgnh2rcd13ifvqc0g","pricing_plan_id":"cebpf4jnsgd1na2vs0mg"},{"bike_id":"21c3c783-9809-45c2-8f17-8dc950e24abe","system_id":"levelo_inurba_marseille","lat":43.317557,"lon":5.390173,"is_reserved":false,"is_disabled":false,"rental_uris":{"android":"levelo://app?vid=21c3c783-9809-45c2-8f17-8dc950e24abe","ios":"levelo://app?vid=21c3c783-9809-45c2-8f17-8dc950e24abe"},"vehicle_type_id":"4","last_reported":1716736104,"current_range_meters":27600,"station_id":"ce4bhqp2rcd13ifvqhng","pricing_plan_id":"cebpf4jnsgd1na2vs0mg"},{"bike_id":"ee0b3dda-876a-4e30-8aef-d3f2da736a2b","system_id":"levelo_inurba_marseille","lat":43.317557,"lon":5.390173,"is_reserved":false,"is_disabled":false,"rental_uris":{"android":"levelo://app?vid=ee0b3dda-876a-4e30-8aef-d3f2da736a2b","ios":"levelo://app?vid=ee0b3dda-876a-4e30-8aef-d3f2da736a2b"},"vehicle_type_id":"4","last_reported":1716736104,"current_range_meters":0,"station_id":"ce4bhqp2rcd13ifvqhng","pricing_plan_id":"cebpf4jnsgd1na2vs0mg"},{"bike_id":"3bd457ac-9834-49ea-aeb6-b9ba00133dd9","system_id":"levelo_inurba_marseille","lat":43.298037,"lon":5.381066,"is_reserved":false,"is_disabled":false,"rental_uris":{"android":"levelo://app?vid=3bd457ac-9834-49ea-aeb6-b9ba00133dd9","ios":"levelo://app?vid=3bd457ac-9834-49ea-aeb6-b9ba00133dd9"},"vehicle_type_id":"4","last_reported":1716736104,"current_range_meters":20400,"station_id":"ce4bgip2rcd13ifvqbb0","pricing_plan_id":"cebpf4jnsgd1na2vs0mg"},{"bike_id":"6b90b85d-ddbc-4072-a1ce-90c1bef06aef","system_id":"levelo_inurba_marseille","lat":43.296263,"lon":5.377094,"is_reserved":false,"is_disabled":false,"rental_uris":{"android":"levelo://app?vid=6b90b85d-ddbc-4072-a1ce-90c1bef06aef","ios":"levelo://app?vid=6b90b85d-ddbc-4072-a1ce-90c1bef06aef"},"vehicle_type_id":"4","last_reported":1716736104,"current_range_meters":4400,"station_id":"ce4bgi92rcd13ifvqb90","pricing_plan_id":"cebpf4jnsgd1na2vs0mg"},{"bike_id":"bd996704-be00-4dcc-add9-e03bef522793","system_id":"levelo_inurba_marseille","lat":43.296263,"lon":5.377094,"is_reserved":false,"is_disabled":false,"rental_uris":{"android":"levelo://app?vid=bd996704-be00-4dcc-add9-e03bef522793","ios":"levelo://app?vid=bd996704-be00-4dcc-add9-e03bef522793"},"vehicle_type_id":"4","last_reported":1716736104,"current_range_meters":20000,"station_id":"ce4bgi92rcd13ifvqb90","pricing_plan_id":"cebpf4jnsgd1na2vs0mg"},{"bike_id":"5f498e73-b83d-4606-885b-299119785650","system_id":"levelo_inurba_marseille","lat":43.298037,"lon":5.381066,"is_reserved":false,"is_disabled":false,"rental_uris":{"android":"levelo://app?vid=5f498e73-b83d-4606-885b-299119785650","ios":"levelo://app?vid=5f498e73-b83d-4606-885b-299119785650"},"vehicle_type_id":"4","last_reported":1716736104,"current_range_meters":9600,"station_id":"ce4bgip2rcd13ifvqbb0","pricing_plan_id":"cebpf4jnsgd1na2vs0mg"},{"bike_id":"5e53d4cc-ae11-4d67-a008-4a681a0990ea","system_id":"levelo_inurba_marseille","lat":43.295279,"lon":5.375048,"is_reserved":false,"is_disabled":false,"rental_uris":{"android":"levelo://app?vid=5e53d4cc-ae11-4d67-a008-4a681a0990ea","ios":"levelo://app?vid=5e53d4cc-ae11-4d67-a008-4a681a0990ea"},"vehicle_type_id":"4","last_reported":1716736104,"current_range_meters":14000,"station_id":"ce4bgkp2rcd13ifvqbmg","pricing_plan_id":"cebpf4jnsgd1na2vs0mg"},{"bike_id":"ea5c8d42-c861-4802-a2ac-9f57d3bd183f","system_id":"levelo_inurba_marseille","lat":43.299717,"lon":5.384845,"is_reserved":false,"is_disabled":false,"rental_uris":{"android":"levelo://app?vid=ea5c8d42-c861-4802-a2ac-9f57d3bd183f","ios":"levelo://app?vid=ea5c8d42-c861-4802-a2ac-9f57d3bd183f"},"vehicle_type_id":"4","last_reported":1716736104,"current_range_meters":31600,"station_id":"ce4bgj92rcd13ifvqbd0","pricing_plan_id":"cebpf4jnsgd1na2vs0mg"},{"bike_id":"581c9993-159b-4c49-a7a5-e774d3987193","system_id":"levelo_inurba_marseille","lat":43.29978,"lon":5.38497,"is_reserved":false,"is_disabled":false,"rental_uris":{"android":"levelo://app?vid=581c9993-159b-4c49-a7a5-e774d3987193","ios":"levelo://app?vid=581c9993-159b-4c49-a7a5-e774d3987193"},"vehicle_type_id":"4","last_reported":1716736104,"current_range_meters":0,"station_id":"ce4bgj92rcd13ifvqbd0","pricing_plan_id":"cebpf4jnsgd1na2vs0mg"},{"bike_id":"d014cf3e-048b-41f0-8f75-4b7171a47831","system_id":"levelo_inurba_marseille","lat":43.299724,"lon":5.384848,"is_reserved":false,"is_disabled":false,"rental_uris":{"android":"levelo://app?vid=d014cf3e-048b-41f0-8f75-4b7171a47831","ios":"levelo://app?vid=d014cf3e-048b-41f0-8f75-4b7171a47831"},"vehicle_type_id":"4","last_reported":1716736104,"current_range_meters":31200,"station_id":"ce4bgj92rcd13ifvqbd0","pricing_plan_id":"cebpf4jnsgd1na2vs0mg"},{"bike_id":"2fcfbc74-885c-4018-9242-21e6b8f92188","system_id":"levelo_inurba_marseille","lat":43.295279,"lon":5.375048,"is_reserved":false,"is_disabled":false,"rental_uris":{"android":"levelo://app?vid=2fcfbc74-885c-4018-9242-21e6b8f92188","ios":"levelo://app?vid=2fcfbc74-885c-4018-9242-21e6b8f92188"},"vehicle_type_id":"4","last_reported":1716736104,"current_range_meters":28400,"station_id":"ce4bgkp2rcd13ifvqbmg","pricing_plan_id":"cebpf4jnsgd1na2vs0mg"},{"bike_id":"6c4fd368-3e51-4131-a241-861f480ddaf9","system_id":"levelo_inurba_marseille","lat":43.2997,"lon":5.38498,"is_reserved":false,"is_disabled":false,"rental_uris":{"android":"levelo://app?vid=6c4fd368-3e51-4131-a241-861f480ddaf9","ios":"levelo://app?vid=6c4fd368-3e51-4131-a241-861f480ddaf9"},"vehicle_type_id":"4","last_reported":1716736104,"current_range_meters":0,"station_id":"ce4bgj92rcd13ifvqbd0","pricing_plan_id":"cebpf4jnsgd1na2vs0mg"},{"bike_id":"23e94b34-8f9a-46b5-9dee-0e51c0d16e32","system_id":"levelo_inurba_marseille","lat":43.293259,"lon":5.371586,"is_reserved":false,"is_disabled":false,"rental_uris":{"android":"levelo://app?vid=23e94b34-8f9a-46b5-9dee-0e51c0d16e32","ios":"levelo://app?vid=23e94b34-8f9a-46b5-9dee-0e51c0d16e32"},"vehicle_type_id":"4","last_reported":1716736104,"current_range_meters":16800,"station_id":"ce4bgh92rcd13ifvqb40","pricing_plan_id":"cebpf4jnsgd1na2vs0mg"},{"bike_id":"ffd5b455-7939-41f0-a87e-b74680cd8a5d","system_id":"levelo_inurba_marseille","lat":43.292749,"lon":5.368398,"is_reserved":false,"is_disabled":false,"rental_uris":{"android":"levelo://app?vid=ffd5b455-7939-41f0-a87e-b74680cd8a5d","ios":"levelo://app?vid=ffd5b455-7939-41f0-a87e-b74680cd8a5d"},"vehicle_type_id":"4","last_reported":1716736104,"current_range_meters":0,"station_id":"ce4bhbp2rcd13ifvqesg","pricing_plan_id":"cebpf4jnsgd1na2vs0mg"},{"bike_id":"2fc2f359-7419-486f-91b2-bd57cdaa825c","system_id":"levelo_inurba_marseille","lat":43.305994,"lon":5.393687,"is_reserved":false,"is_disabled":false,"rental_uris":{"android":"levelo://app?vid=2fc2f359-7419-486f-91b2-bd57cdaa825c","ios":"levelo://app?vid=2fc2f359-7419-486f-91b2-bd57cdaa825c"},"vehicle_type_id":"4","last_reported":1716736104,"current_range_meters":800,"station_id":"ce4bh0p2rcd13ifvqd80","pricing_plan_id":"cebpf4jnsgd1na2vs0mg"},{"bike_id":"51aa271b-6d62-43a2-922c-7c5624e3e02c","system_id":"levelo_inurba_marseille","lat":43.305994,"lon":5.393687,"is_reserved":false,"is_disabled":false,"rental_uris":{"android":"levelo://app?vid=51aa271b-6d62-43a2-922c-7c5624e3e02c","ios":"levelo://app?vid=51aa271b-6d62-43a2-922c-7c5624e3e02c"},"vehicle_type_id":"4","last_reported":1716736104,"current_range_meters":25200,"station_id":"ce4bh0p2rcd13ifvqd80","pricing_plan_id":"cebpf4jnsgd1na2vs0mg"},{"bike_id":"db7bf16c-2b31-4062-a544-508833cb8412","system_id":"levelo_inurba_marseille","lat":43.2936,"lon":5.37835,"is_reserved":false,"is_disabled":false,"rental_uris":{"android":"levelo://app?vid=db7bf16c-2b31-4062-a544-508833cb8412","ios":"levelo://app?vid=db7bf16c-2b31-4062-a544-508833cb8412"},"vehicle_type_id":"4","last_reported":1716736104,"current_range_meters":7200,"station_id":"ce4bgjh2rcd13ifvqbf0","pricing_plan_id":"cebpf4jnsgd1na2vs0mg"},{"bike_id":"8d26c66f-16c5-488e-88b3-ce2b883c96e0","system_id":"levelo_inurba_marseille","lat":43.292311,"lon":5.360731,"is_reserved":false,"is_disabled":false,"rental_uris":{"android":"levelo://app?vid=8d26c66f-16c5-488e-88b3-ce2b883c96e0","ios":"levelo://app?vid=8d26c66f-16c5-488e-88b3-ce2b883c96e0"},"vehicle_type_id":"4","last_reported":1716736104,"current_range_meters":400,"station_id":"ce4bhbh2rcd13ifvqeqg","pricing_plan_id":"cebpf4jnsgd1na2vs0mg"},{"bike_id":"91d72808-6436-43c5-8a45-56b888a5716c","system_id":"levelo_inurba_marseille","lat":43.2923,"lon":5.36049,"is_reserved":false,"is_disabled":false,"rental_uris":{"android":"levelo://app?vid=91d72808-6436-43c5-8a45-56b888a5716c","ios":"levelo://app?vid=91d72808-6436-43c5-8a45-56b888a5716c"},"vehicle_type_id":"4","last_reported":1716736104,"current_range_meters":0,"station_id":"ce4bhbh2rcd13ifvqeqg","pricing_plan_id":"cebpf4jnsgd1na2vs0mg"},{"bike_id":"5226bd78-b481-4981-840a-02855810f6c3","system_id":"levelo_inurba_marseille","lat":43.292311,"lon":5.360731,"is_reserved":false,"is_disabled":false,"rental_uris":{"android":"levelo://app?vid=5226bd78-b481-4981-840a-02855810f6c3","ios":"levelo://app?vid=5226bd78-b481-4981-840a-02855810f6c3"},"vehicle_type_id":"4","last_reported":1716736104,"current_range_meters":800,"station_id":"ce4bhbh2rcd13ifvqeqg","pricing_plan_id":"cebpf4jnsgd1na2vs0mg"},{"bike_id":"fe6f4847-78f3-4a4c-b6a1-540b1c8cfb31","system_id":"levelo_inurba_marseille","lat":43.292311,"lon":5.360731,"is_reserved":false,"is_disabled":false,"rental_uris":{"android":"levelo://app?vid=fe6f4847-78f3-4a4c-b6a1-540b1c8cfb31","ios":"levelo://app?vid=fe6f4847-78f3-4a4c-b6a1-540b1c8cfb31"},"vehicle_type_id":"4","last_reported":1716736104,"current_range_meters":8000,"station_id":"ce4bhbh2rcd13ifvqeqg","pricing_plan_id":"cebpf4jnsgd1na2vs0mg"},{"bike_id":"f6342e70-a474-47fd-a6e7-8c1961519f93","system_id":"levelo_inurba_marseille","lat":43.292311,"lon":5.360731,"is_reserved":false,"is_disabled":false,"rental_uris":{"android":"levelo://app?vid=f6342e70-a474-47fd-a6e7-8c1961519f93","ios":"levelo://app?vid=f6342e70-a474-47fd-a6e7-8c1961519f93"},"vehicle_type_id":"4","last_reported":1716736104,"current_range_meters":11200,"station_id":"ce4bhbh2rcd13ifvqeqg","pricing_plan_id":"cebpf4jnsgd1na2vs0mg"},{"bike_id":"c6ed20b1-dbdf-4af9-bbc0-f8c9f4e9e7b5","system_id":"levelo_inurba_marseille","lat":43.29218,"lon":5.36047,"is_reserved":false,"is_disabled":false,"rental_uris":{"android":"levelo://app?vid=c6ed20b1-dbdf-4af9-bbc0-f8c9f4e9e7b5","ios":"levelo://app?vid=c6ed20b1-dbdf-4af9-bbc0-f8c9f4e9e7b5"},"vehicle_type_id":"4","last_reported":1716736104,"current_range_meters":0,"station_id":"ce4bhbh2rcd13ifvqeqg","pricing_plan_id":"cebpf4jnsgd1na2vs0mg"},{"bike_id":"4e822c66-d799-418b-af6b-05b88db76ee9","system_id":"levelo_inurba_marseille","lat":43.3008,"lon":5.39097,"is_reserved":false,"is_disabled":false,"rental_uris":{"android":"levelo://app?vid=4e822c66-d799-418b-af6b-05b88db76ee9","ios":"levelo://app?vid=4e822c66-d799-418b-af6b-05b88db76ee9"},"vehicle_type_id":"4","last_reported":1716736104,"current_range_meters":10800,"station_id":"ce4bh192rcd13ifvqdb0","pricing_plan_id":"cebpf4jnsgd1na2vs0mg"},{"bike_id":"3291803a-1eee-435c-904e-a09a2a13e9e5","system_id":"levelo_inurba_marseille","lat":43.298764,"lon":5.388973,"is_reserved":false,"is_disabled":false,"rental_uris":{"android":"levelo://app?vid=3291803a-1eee-435c-904e-a09a2a13e9e5","ios":"levelo://app?vid=3291803a-1eee-435c-904e-a09a2a13e9e5"},"vehicle_type_id":"4","last_reported":1716736104,"current_range_meters":6400,"station_id":"ce4bh392rcd13ifvqdl0","pricing_plan_id":"cebpf4jnsgd1na2vs0mg"},{"bike_id":"025af8c7-3525-40fc-97ac-3a526e05318a","system_id":"levelo_inurba_marseille","lat":43.298764,"lon":5.388973,"is_reserved":false,"is_disabled":false,"rental_uris":{"android":"levelo://app?vid=025af8c7-3525-40fc-97ac-3a526e05318a","ios":"levelo://app?vid=025af8c7-3525-40fc-97ac-3a526e05318a"},"vehicle_type_id":"4","last_reported":1716736104,"current_range_meters":0,"station_id":"ce4bh392rcd13ifvqdl0","pricing_plan_id":"cebpf4jnsgd1na2vs0mg"},{"bike_id":"69a13bdc-672f-4300-b93f-a50c3377fb9c","system_id":"levelo_inurba_marseille","lat":43.298764,"lon":5.388973,"is_reserved":false,"is_disabled":false,"rental_uris":{"android":"levelo://app?vid=69a13bdc-672f-4300-b93f-a50c3377fb9c","ios":"levelo://app?vid=69a13bdc-672f-4300-b93f-a50c3377fb9c"},"vehicle_type_id":"4","last_reported":1716736104,"current_range_meters":2000,"station_id":"ce4bh392rcd13ifvqdl0","pricing_plan_id":"cebpf4jnsgd1na2vs0mg"},{"bike_id":"a7dc3145-ff17-419c-82d6-50c9876ec1f5","system_id":"levelo_inurba_marseille","lat":43.291994,"lon":5.357886,"is_reserved":false,"is_disabled":false,"rental_uris":{"android":"levelo://app?vid=a7dc3145-ff17-419c-82d6-50c9876ec1f5","ios":"levelo://app?vid=a7dc3145-ff17-419c-82d6-50c9876ec1f5"},"vehicle_type_id":"4","last_reported":1716736104,"current_range_meters":6400,"station_id":"ce4bhb12rcd13ifvqel0","pricing_plan_id":"cebpf4jnsgd1na2vs0mg"},{"bike_id":"5d467380-aef0-47d5-b0a9-127f5ee81cf1","system_id":"levelo_inurba_marseille","lat":43.291994,"lon":5.357886,"is_reserved":false,"is_disabled":false,"rental_uris":{"android":"levelo://app?vid=5d467380-aef0-47d5-b0a9-127f5ee81cf1","ios":"levelo://app?vid=5d467380-aef0-47d5-b0a9-127f5ee81cf1"},"vehicle_type_id":"4","last_reported":1716736104,"current_range_meters":0,"station_id":"ce4bhb12rcd13ifvqel0","pricing_plan_id":"cebpf4jnsgd1na2vs0mg"},{"bike_id":"0d646338-abd6-47b9-b805-1624062d009a","system_id":"levelo_inurba_marseille","lat":43.309038,"lon":5.396546,"is_reserved":false,"is_disabled":false,"rental_uris":{"android":"levelo://app?vid=0d646338-abd6-47b9-b805-1624062d009a","ios":"levelo://app?vid=0d646338-abd6-47b9-b805-1624062d009a"},"vehicle_type_id":"4","last_reported":1716736104,"current_range_meters":18800,"station_id":"ce4bh012rcd13ifvqcv0","pricing_plan_id":"cebpf4jnsgd1na2vs0mg"},{"bike_id":"a038a199-3cc0-4ac7-95e7-8903fd3e9ff3","system_id":"levelo_inurba_marseille","lat":43.29529,"lon":5.385581,"is_reserved":false,"is_disabled":false,"rental_uris":{"android":"levelo://app?vid=a038a199-3cc0-4ac7-95e7-8903fd3e9ff3","ios":"levelo://app?vid=a038a199-3cc0-4ac7-95e7-8903fd3e9ff3"},"vehicle_type_id":"4","last_reported":1716736104,"current_range_meters":6400,"station_id":"ce4bgih2rcd13ifvqba0","pricing_plan_id":"cebpf4jnsgd1na2vs0mg"},{"bike_id":"fade23f0-30be-414f-bb83-029cf4f631e4","system_id":"levelo_inurba_marseille","lat":43.29537,"lon":5.38541,"is_reserved":false,"is_disabled":false,"rental_uris":{"android":"levelo://app?vid=fade23f0-30be-414f-bb83-029cf4f631e4","ios":"levelo://app?vid=fade23f0-30be-414f-bb83-029cf4f631e4"},"vehicle_type_id":"4","last_reported":1716736104,"current_range_meters":0,"station_id":"ce4bgih2rcd13ifvqba0","pricing_plan_id":"cebpf4jnsgd1na2vs0mg"},{"bike_id":"34e819d6-a7a0-4ed5-9aa2-f76bc7c54442","system_id":"levelo_inurba_marseille","lat":43.29537,"lon":5.38545,"is_reserved":false,"is_disabled":false,"rental_uris":{"android":"levelo://app?vid=34e819d6-a7a0-4ed5-9aa2-f76bc7c54442","ios":"levelo://app?vid=34e819d6-a7a0-4ed5-9aa2-f76bc7c54442"},"vehicle_type_id":"4","last_reported":1716736104,"current_range_meters":0,"station_id":"ce4bgih2rcd13ifvqba0","pricing_plan_id":"cebpf4jnsgd1na2vs0mg"},{"bike_id":"f618c79b-78a6-4d7c-a1fe-63164a0d8ec2","system_id":"levelo_inurba_marseille","lat":43.29529,"lon":5.385581,"is_reserved":false,"is_disabled":false,"rental_uris":{"android":"levelo://app?vid=f618c79b-78a6-4d7c-a1fe-63164a0d8ec2","ios":"levelo://app?vid=f618c79b-78a6-4d7c-a1fe-63164a0d8ec2"},"vehicle_type_id":"4","last_reported":1716736104,"current_range_meters":6800,"station_id":"ce4bgih2rcd13ifvqba0","pricing_plan_id":"cebpf4jnsgd1na2vs0mg"},{"bike_id":"f75d2b30-00cb-41ed-a138-064aac3b6c0e","system_id":"levelo_inurba_marseille","lat":43.29529,"lon":5.385581,"is_reserved":false,"is_disabled":false,"rental_uris":{"android":"levelo://app?vid=f75d2b30-00cb-41ed-a138-064aac3b6c0e","ios":"levelo://app?vid=f75d2b30-00cb-41ed-a138-064aac3b6c0e"},"vehicle_type_id":"4","last_reported":1716736104,"current_range_meters":0,"station_id":"ce4bgih2rcd13ifvqba0","pricing_plan_id":"cebpf4jnsgd1na2vs0mg"},{"bike_id":"0e6d285c-184e-4f22-9e86-e4a66c864e94","system_id":"levelo_inurba_marseille","lat":43.29537,"lon":5.3855,"is_reserved":false,"is_disabled":false,"rental_uris":{"android":"levelo://app?vid=0e6d285c-184e-4f22-9e86-e4a66c864e94","ios":"levelo://app?vid=0e6d285c-184e-4f22-9e86-e4a66c864e94"},"vehicle_type_id":"4","last_reported":1716736104,"current_range_meters":13600,"station_id":"ce4bgih2rcd13ifvqba0","pricing_plan_id":"cebpf4jnsgd1na2vs0mg"},{"bike_id":"9717ded1-1547-48cf-9115-0140b4752a3c","system_id":"levelo_inurba_marseille","lat":43.29537,"lon":5.3855,"is_reserved":false,"is_disabled":false,"rental_uris":{"android":"levelo://app?vid=9717ded1-1547-48cf-9115-0140b4752a3c","ios":"levelo://app?vid=9717ded1-1547-48cf-9115-0140b4752a3c"},"vehicle_type_id":"4","last_reported":1716736104,"current_range_meters":16000,"station_id":"ce4bgih2rcd13ifvqba0","pricing_plan_id":"cebpf4jnsgd1na2vs0mg"},{"bike_id":"68fdc1e5-3aae-42d1-a18a-1f77da9931bf","system_id":"levelo_inurba_marseille","lat":43.290779,"lon":5.371482,"is_reserved":false,"is_disabled":false,"rental_uris":{"android":"levelo://app?vid=68fdc1e5-3aae-42d1-a18a-1f77da9931bf","ios":"levelo://app?vid=68fdc1e5-3aae-42d1-a18a-1f77da9931bf"},"vehicle_type_id":"4","last_reported":1716736104,"current_range_meters":23600,"station_id":"ce4bh5p2rcd13ifvqe4g","pricing_plan_id":"cebpf4jnsgd1na2vs0mg"},{"bike_id":"1d8fd1c4-2f62-41c6-8375-179e6cdfe90c","system_id":"levelo_inurba_marseille","lat":43.294153,"lon":5.386305,"is_reserved":false,"is_disabled":false,"rental_uris":{"android":"levelo://app?vid=1d8fd1c4-2f62-41c6-8375-179e6cdfe90c","ios":"levelo://app?vid=1d8fd1c4-2f62-41c6-8375-179e6cdfe90c"},"vehicle_type_id":"4","last_reported":1716736104,"current_range_meters":21200,"station_id":"ce4bh2h2rcd13ifvqdh0","pricing_plan_id":"cebpf4jnsgd1na2vs0mg"},{"bike_id":"44e2b7e2-d54d-497f-b978-c6133f3fbe3b","system_id":"levelo_inurba_marseille","lat":43.294162,"lon":5.386292,"is_reserved":false,"is_disabled":false,"rental_uris":{"android":"levelo://app?vid=44e2b7e2-d54d-497f-b978-c6133f3fbe3b","ios":"levelo://app?vid=44e2b7e2-d54d-497f-b978-c6133f3fbe3b"},"vehicle_type_id":"4","last_reported":1716736104,"current_range_meters":16000,"station_id":"ce4bh2h2rcd13ifvqdh0","pricing_plan_id":"cebpf4jnsgd1na2vs0mg"},{"bike_id":"6d8a0d2a-ff54-4645-a756-fc7d319cc9be","system_id":"levelo_inurba_marseille","lat":43.294162,"lon":5.386292,"is_reserved":false,"is_disabled":false,"rental_uris":{"android":"levelo://app?vid=6d8a0d2a-ff54-4645-a756-fc7d319cc9be","ios":"levelo://app?vid=6d8a0d2a-ff54-4645-a756-fc7d319cc9be"},"vehicle_type_id":"4","last_reported":1716736104,"current_range_meters":0,"station_id":"ce4bh2h2rcd13ifvqdh0","pricing_plan_id":"cebpf4jnsgd1na2vs0mg"},{"bike_id":"119f4f29-89d6-4cac-85fc-de592dc0c769","system_id":"levelo_inurba_marseille","lat":43.28944,"lon":5.36638,"is_reserved":false,"is_disabled":false,"rental_uris":{"android":"levelo://app?vid=119f4f29-89d6-4cac-85fc-de592dc0c769","ios":"levelo://app?vid=119f4f29-89d6-4cac-85fc-de592dc0c769"},"vehicle_type_id":"4","last_reported":1716736104,"current_range_meters":0,"station_id":"ce4bhap2rcd13ifvqek0","pricing_plan_id":"cebpf4jnsgd1na2vs0mg"},{"bike_id":"b1288499-9d12-4b6a-9990-7ce2b7b55bcd","system_id":"levelo_inurba_marseille","lat":43.2894,"lon":5.36631,"is_reserved":false,"is_disabled":false,"rental_uris":{"android":"levelo://app?vid=b1288499-9d12-4b6a-9990-7ce2b7b55bcd","ios":"levelo://app?vid=b1288499-9d12-4b6a-9990-7ce2b7b55bcd"},"vehicle_type_id":"4","last_reported":1716736104,"current_range_meters":0,"station_id":"ce4bhap2rcd13ifvqek0","pricing_plan_id":"cebpf4jnsgd1na2vs0mg"},{"bike_id":"313d7fe7-4b77-4d35-8a97-18fde1a255c0","system_id":"levelo_inurba_marseille","lat":43.294162,"lon":5.386292,"is_reserved":false,"is_disabled":false,"rental_uris":{"android":"levelo://app?vid=313d7fe7-4b77-4d35-8a97-18fde1a255c0","ios":"levelo://app?vid=313d7fe7-4b77-4d35-8a97-18fde1a255c0"},"vehicle_type_id":"4","last_reported":1716736104,"current_range_meters":2800,"station_id":"ce4bh2h2rcd13ifvqdh0","pricing_plan_id":"cebpf4jnsgd1na2vs0mg"},{"bike_id":"a26fdb4c-74b3-416a-869b-e4a7a494adfb","system_id":"levelo_inurba_marseille","lat":43.289468,"lon":5.363719,"is_reserved":false,"is_disabled":false,"rental_uris":{"android":"levelo://app?vid=a26fdb4c-74b3-416a-869b-e4a7a494adfb","ios":"levelo://app?vid=a26fdb4c-74b3-416a-869b-e4a7a494adfb"},"vehicle_type_id":"4","last_reported":1716736104,"current_range_meters":24800,"station_id":"ce4bhc92rcd13ifvqetg","pricing_plan_id":"cebpf4jnsgd1na2vs0mg"},{"bike_id":"821328ef-d3ad-409a-9b83-74173011d120","system_id":"levelo_inurba_marseille","lat":43.294162,"lon":5.386292,"is_reserved":false,"is_disabled":false,"rental_uris":{"android":"levelo://app?vid=821328ef-d3ad-409a-9b83-74173011d120","ios":"levelo://app?vid=821328ef-d3ad-409a-9b83-74173011d120"},"vehicle_type_id":"4","last_reported":1716736104,"current_range_meters":400,"station_id":"ce4bh2h2rcd13ifvqdh0","pricing_plan_id":"cebpf4jnsgd1na2vs0mg"},{"bike_id":"02e29ee5-86fa-4402-876b-4277db709c16","system_id":"levelo_inurba_marseille","lat":43.292642,"lon":5.384254,"is_reserved":false,"is_disabled":false,"rental_uris":{"android":"levelo://app?vid=02e29ee5-86fa-4402-876b-4277db709c16","ios":"levelo://app?vid=02e29ee5-86fa-4402-876b-4277db709c16"},"vehicle_type_id":"4","last_reported":1716736104,"current_range_meters":1200,"station_id":"ce4bh692rcd13ifvqea0","pricing_plan_id":"cebpf4jnsgd1na2vs0mg"},{"bike_id":"3f6a713b-b5a0-44e8-a0ed-1cb623221f65","system_id":"levelo_inurba_marseille","lat":43.29262,"lon":5.3843,"is_reserved":false,"is_disabled":false,"rental_uris":{"android":"levelo://app?vid=3f6a713b-b5a0-44e8-a0ed-1cb623221f65","ios":"levelo://app?vid=3f6a713b-b5a0-44e8-a0ed-1cb623221f65"},"vehicle_type_id":"4","last_reported":1716736104,"current_range_meters":0,"station_id":"ce4bh692rcd13ifvqea0","pricing_plan_id":"cebpf4jnsgd1na2vs0mg"},{"bike_id":"8c54fc5e-d6d2-467e-923e-863c88a7e2f8","system_id":"levelo_inurba_marseille","lat":43.295169,"lon":5.390426,"is_reserved":false,"is_disabled":false,"rental_uris":{"android":"levelo://app?vid=8c54fc5e-d6d2-467e-923e-863c88a7e2f8","ios":"levelo://app?vid=8c54fc5e-d6d2-467e-923e-863c88a7e2f8"},"vehicle_type_id":"4","last_reported":1716736104,"current_range_meters":23200,"station_id":"ce4bh3p2rcd13ifvqdp0","pricing_plan_id":"cebpf4jnsgd1na2vs0mg"},{"bike_id":"cb359ae7-397d-4bb1-b2f8-7d84f62ebe77","system_id":"levelo_inurba_marseille","lat":43.290103,"lon":5.356114,"is_reserved":false,"is_disabled":false,"rental_uris":{"android":"levelo://app?vid=cb359ae7-397d-4bb1-b2f8-7d84f62ebe77","ios":"levelo://app?vid=cb359ae7-397d-4bb1-b2f8-7d84f62ebe77"},"vehicle_type_id":"4","last_reported":1716736104,"current_range_meters":0,"station_id":"ce4bhb92rcd13ifvqen0","pricing_plan_id":"cebpf4jnsgd1na2vs0mg"},{"bike_id":"b81d3a00-b724-4ebd-a1aa-d1290d1a3951","system_id":"levelo_inurba_marseille","lat":43.290984,"lon":5.381553,"is_reserved":false,"is_disabled":false,"rental_uris":{"android":"levelo://app?vid=b81d3a00-b724-4ebd-a1aa-d1290d1a3951","ios":"levelo://app?vid=b81d3a00-b724-4ebd-a1aa-d1290d1a3951"},"vehicle_type_id":"4","last_reported":1716736104,"current_range_meters":0,"station_id":"ce4bh512rcd13ifvqe2g","pricing_plan_id":"cebpf4jnsgd1na2vs0mg"},{"bike_id":"119ce8ef-f900-4ec5-91fd-c092c4381f5b","system_id":"levelo_inurba_marseille","lat":43.289743,"lon":5.378304,"is_reserved":false,"is_disabled":false,"rental_uris":{"android":"levelo://app?vid=119ce8ef-f900-4ec5-91fd-c092c4381f5b","ios":"levelo://app?vid=119ce8ef-f900-4ec5-91fd-c092c4381f5b"},"vehicle_type_id":"4","last_reported":1716736104,"current_range_meters":4400,"station_id":"ce4bh9p2rcd13ifvqed0","pricing_plan_id":"cebpf4jnsgd1na2vs0mg"},{"bike_id":"876173ee-cb18-48b9-af3c-2bd930ff11cc","system_id":"levelo_inurba_marseille","lat":43.289741,"lon":5.378306,"is_reserved":false,"is_disabled":false,"rental_uris":{"android":"levelo://app?vid=876173ee-cb18-48b9-af3c-2bd930ff11cc","ios":"levelo://app?vid=876173ee-cb18-48b9-af3c-2bd930ff11cc"},"vehicle_type_id":"4","last_reported":1716736104,"current_range_meters":400,"station_id":"ce4bh9p2rcd13ifvqed0","pricing_plan_id":"cebpf4jnsgd1na2vs0mg"},{"bike_id":"5b9d210d-c413-4593-b9e6-19f203b5371d","system_id":"levelo_inurba_marseille","lat":43.295169,"lon":5.390426,"is_reserved":false,"is_disabled":false,"rental_uris":{"android":"levelo://app?vid=5b9d210d-c413-4593-b9e6-19f203b5371d","ios":"levelo://app?vid=5b9d210d-c413-4593-b9e6-19f203b5371d"},"vehicle_type_id":"4","last_reported":1716736104,"current_range_meters":16800,"station_id":"ce4bh3p2rcd13ifvqdp0","pricing_plan_id":"cebpf4jnsgd1na2vs0mg"},{"bike_id":"9160745c-37ce-4be7-a7a9-a96ef66ebe0a","system_id":"levelo_inurba_marseille","lat":43.29791,"lon":5.39347,"is_reserved":false,"is_disabled":false,"rental_uris":{"android":"levelo://app?vid=9160745c-37ce-4be7-a7a9-a96ef66ebe0a","ios":"levelo://app?vid=9160745c-37ce-4be7-a7a9-a96ef66ebe0a"},"vehicle_type_id":"4","last_reported":1716736104,"current_range_meters":17600,"station_id":"chh1huq6cuj3fo74tm60","pricing_plan_id":"cebpf4jnsgd1na2vs0mg"},{"bike_id":"235758d8-721c-43af-83f2-cf2593741f82","system_id":"levelo_inurba_marseille","lat":43.330442,"lon":5.389148,"is_reserved":false,"is_disabled":false,"rental_uris":{"android":"levelo://app?vid=235758d8-721c-43af-83f2-cf2593741f82","ios":"levelo://app?vid=235758d8-721c-43af-83f2-cf2593741f82"},"vehicle_type_id":"4","last_reported":1716736104,"current_range_meters":16800,"station_id":"ce4bhr92rcd13ifvqhrg","pricing_plan_id":"cebpf4jnsgd1na2vs0mg"},{"bike_id":"e7e6c3b5-e4d4-4e84-99b1-d48a739799bc","system_id":"levelo_inurba_marseille","lat":43.330442,"lon":5.389148,"is_reserved":false,"is_disabled":false,"rental_uris":{"android":"levelo://app?vid=e7e6c3b5-e4d4-4e84-99b1-d48a739799bc","ios":"levelo://app?vid=e7e6c3b5-e4d4-4e84-99b1-d48a739799bc"},"vehicle_type_id":"4","last_reported":1716736104,"current_range_meters":28800,"station_id":"ce4bhr92rcd13ifvqhrg","pricing_plan_id":"cebpf4jnsgd1na2vs0mg"},{"bike_id":"ba7bba16-c57b-44f6-9f9c-c9839289854f","system_id":"levelo_inurba_marseille","lat":43.31065,"lon":5.40081,"is_reserved":false,"is_disabled":false,"rental_uris":{"android":"levelo://app?vid=ba7bba16-c57b-44f6-9f9c-c9839289854f","ios":"levelo://app?vid=ba7bba16-c57b-44f6-9f9c-c9839289854f"},"vehicle_type_id":"4","last_reported":1716736104,"current_range_meters":9600,"station_id":"","pricing_plan_id":"cebpf4jnsgd1na2vs0mg"},{"bike_id":"56e27e36-16e4-428a-8b64-9787eb2e52c3","system_id":"levelo_inurba_marseille","lat":43.2901,"lon":5.381269,"is_reserved":false,"is_disabled":false,"rental_uris":{"android":"levelo://app?vid=56e27e36-16e4-428a-8b64-9787eb2e52c3","ios":"levelo://app?vid=56e27e36-16e4-428a-8b64-9787eb2e52c3"},"vehicle_type_id":"4","last_reported":1716736104,"current_range_meters":0,"station_id":"ce4bh4p2rcd13ifvqe1g","pricing_plan_id":"cebpf4jnsgd1na2vs0mg"},{"bike_id":"0480ac3b-10fa-435c-8d6d-0a3b803d8840","system_id":"levelo_inurba_marseille","lat":43.28856,"lon":5.358371,"is_reserved":false,"is_disabled":false,"rental_uris":{"android":"levelo://app?vid=0480ac3b-10fa-435c-8d6d-0a3b803d8840","ios":"levelo://app?vid=0480ac3b-10fa-435c-8d6d-0a3b803d8840"},"vehicle_type_id":"4","last_reported":1716736104,"current_range_meters":19600,"station_id":"ce4bhb12rcd13ifvqem0","pricing_plan_id":"cebpf4jnsgd1na2vs0mg"},{"bike_id":"1a1505af-a805-4e97-b6c5-ef86c8ad33ae","system_id":"levelo_inurba_marseille","lat":43.310735,"lon":5.401007,"is_reserved":false,"is_disabled":false,"rental_uris":{"android":"levelo://app?vid=1a1505af-a805-4e97-b6c5-ef86c8ad33ae","ios":"levelo://app?vid=1a1505af-a805-4e97-b6c5-ef86c8ad33ae"},"vehicle_type_id":"4","last_reported":1716736104,"current_range_meters":0,"station_id":"","pricing_plan_id":"cebpf4jnsgd1na2vs0mg"},{"bike_id":"c817be8a-4d3f-428e-9e83-fb97be659edc","system_id":"levelo_inurba_marseille","lat":43.33739,"lon":5.37443,"is_reserved":false,"is_disabled":false,"rental_uris":{"android":"levelo://app?vid=c817be8a-4d3f-428e-9e83-fb97be659edc","ios":"levelo://app?vid=c817be8a-4d3f-428e-9e83-fb97be659edc"},"vehicle_type_id":"4","last_reported":1716736104,"current_range_meters":20800,"station_id":"","pricing_plan_id":"cebpf4jnsgd1na2vs0mg"},{"bike_id":"5e08015a-b315-49d5-b067-121fc243166b","system_id":"levelo_inurba_marseille","lat":43.33752,"lon":5.37436,"is_reserved":false,"is_disabled":false,"rental_uris":{"android":"levelo://app?vid=5e08015a-b315-49d5-b067-121fc243166b","ios":"levelo://app?vid=5e08015a-b315-49d5-b067-121fc243166b"},"vehicle_type_id":"4","last_reported":1716736104,"current_range_meters":15200,"station_id":"","pricing_plan_id":"cebpf4jnsgd1na2vs0mg"},{"bike_id":"f5139c41-e2b5-4bde-87a0-468b4a079473","system_id":"levelo_inurba_marseille","lat":43.309371,"lon":5.401449,"is_reserved":false,"is_disabled":false,"rental_uris":{"android":"levelo://app?vid=f5139c41-e2b5-4bde-87a0-468b4a079473","ios":"levelo://app?vid=f5139c41-e2b5-4bde-87a0-468b4a079473"},"vehicle_type_id":"4","last_reported":1716736104,"current_range_meters":18400,"station_id":"ce4bgvp2rcd13ifvqct0","pricing_plan_id":"cebpf4jnsgd1na2vs0mg"},{"bike_id":"4baa171a-6f41-4b4c-bcc1-759d97c52644","system_id":"levelo_inurba_marseille","lat":43.337567,"lon":5.374574,"is_reserved":false,"is_disabled":false,"rental_uris":{"android":"levelo://app?vid=4baa171a-6f41-4b4c-bcc1-759d97c52644","ios":"levelo://app?vid=4baa171a-6f41-4b4c-bcc1-759d97c52644"},"vehicle_type_id":"4","last_reported":1716736104,"current_range_meters":18400,"station_id":"","pricing_plan_id":"cebpf4jnsgd1na2vs0mg"},{"bike_id":"4d476eee-4013-46a3-be70-3fc5198fa0f9","system_id":"levelo_inurba_marseille","lat":43.33763,"lon":5.374318,"is_reserved":false,"is_disabled":false,"rental_uris":{"android":"levelo://app?vid=4d476eee-4013-46a3-be70-3fc5198fa0f9","ios":"levelo://app?vid=4d476eee-4013-46a3-be70-3fc5198fa0f9"},"vehicle_type_id":"4","last_reported":1716736104,"current_range_meters":12000,"station_id":"","pricing_plan_id":"cebpf4jnsgd1na2vs0mg"},{"bike_id":"732798ba-2b9a-45ce-babd-a4bca6a10e63","system_id":"levelo_inurba_marseille","lat":43.337625,"lon":5.374405,"is_reserved":false,"is_disabled":false,"rental_uris":{"android":"levelo://app?vid=732798ba-2b9a-45ce-babd-a4bca6a10e63","ios":"levelo://app?vid=732798ba-2b9a-45ce-babd-a4bca6a10e63"},"vehicle_type_id":"4","last_reported":1716736104,"current_range_meters":12000,"station_id":"","pricing_plan_id":"cebpf4jnsgd1na2vs0mg"},{"bike_id":"23d182a0-9912-45aa-b4a0-178fa38c8e33","system_id":"levelo_inurba_marseille","lat":43.295194,"lon":5.39397,"is_reserved":false,"is_disabled":false,"rental_uris":{"android":"levelo://app?vid=23d182a0-9912-45aa-b4a0-178fa38c8e33","ios":"levelo://app?vid=23d182a0-9912-45aa-b4a0-178fa38c8e33"},"vehicle_type_id":"4","last_reported":1716736104,"current_range_meters":12800,"station_id":"ce4bh292rcd13ifvqdf0","pricing_plan_id":"cebpf4jnsgd1na2vs0mg"},{"bike_id":"de609f3b-f2e7-4b37-96b4-3315c7ebe8bb","system_id":"levelo_inurba_marseille","lat":43.33764,"lon":5.37471,"is_reserved":false,"is_disabled":false,"rental_uris":{"android":"levelo://app?vid=de609f3b-f2e7-4b37-96b4-3315c7ebe8bb","ios":"levelo://app?vid=de609f3b-f2e7-4b37-96b4-3315c7ebe8bb"},"vehicle_type_id":"4","last_reported":1716736104,"current_range_meters":14400,"station_id":"","pricing_plan_id":"cebpf4jnsgd1na2vs0mg"},{"bike_id":"6a3a6119-56c0-4842-b44e-4bc86deb49cf","system_id":"levelo_inurba_marseille","lat":43.30642,"lon":5.40103,"is_reserved":false,"is_disabled":false,"rental_uris":{"android":"levelo://app?vid=6a3a6119-56c0-4842-b44e-4bc86deb49cf","ios":"levelo://app?vid=6a3a6119-56c0-4842-b44e-4bc86deb49cf"},"vehicle_type_id":"4","last_reported":1716736104,"current_range_meters":2400,"station_id":"ce4bh112rcd13ifvqda0","pricing_plan_id":"cebpf4jnsgd1na2vs0mg"},{"bike_id":"825fa8d8-f677-44ea-959e-e28a76bf9c1f","system_id":"levelo_inurba_marseille","lat":43.33781,"lon":5.37472,"is_reserved":false,"is_disabled":false,"rental_uris":{"android":"levelo://app?vid=825fa8d8-f677-44ea-959e-e28a76bf9c1f","ios":"levelo://app?vid=825fa8d8-f677-44ea-959e-e28a76bf9c1f"},"vehicle_type_id":"4","last_reported":1716736104,"current_range_meters":15600,"station_id":"","pricing_plan_id":"cebpf4jnsgd1na2vs0mg"},{"bike_id":"67e9bb2f-5c4a-4359-b813-7346aa0f5efc","system_id":"levelo_inurba_marseille","lat":43.28727,"lon":5.36078,"is_reserved":false,"is_disabled":false,"rental_uris":{"android":"levelo://app?vid=67e9bb2f-5c4a-4359-b813-7346aa0f5efc","ios":"levelo://app?vid=67e9bb2f-5c4a-4359-b813-7346aa0f5efc"},"vehicle_type_id":"4","last_reported":1716736104,"current_range_meters":28000,"station_id":"cki0cbj6b192h4jlfktg","pricing_plan_id":"cebpf4jnsgd1na2vs0mg"},{"bike_id":"c313772e-f7ee-4421-9188-e1d6f6252508","system_id":"levelo_inurba_marseille","lat":43.28727,"lon":5.36078,"is_reserved":false,"is_disabled":false,"rental_uris":{"android":"levelo://app?vid=c313772e-f7ee-4421-9188-e1d6f6252508","ios":"levelo://app?vid=c313772e-f7ee-4421-9188-e1d6f6252508"},"vehicle_type_id":"4","last_reported":1716736104,"current_range_meters":6800,"station_id":"cki0cbj6b192h4jlfktg","pricing_plan_id":"cebpf4jnsgd1na2vs0mg"},{"bike_id":"80da91e3-2cd7-4e29-a63f-cffd68d9e8f4","system_id":"levelo_inurba_marseille","lat":43.286961,"lon":5.373785,"is_reserved":false,"is_disabled":false,"rental_uris":{"android":"levelo://app?vid=80da91e3-2cd7-4e29-a63f-cffd68d9e8f4","ios":"levelo://app?vid=80da91e3-2cd7-4e29-a63f-cffd68d9e8f4"},"vehicle_type_id":"4","last_reported":1716736104,"current_range_meters":8800,"station_id":"ce4bh3p2rcd13ifvqdq0","pricing_plan_id":"cebpf4jnsgd1na2vs0mg"},{"bike_id":"a266a3e1-cc87-418b-9e8f-d8831d0032b4","system_id":"levelo_inurba_marseille","lat":43.286961,"lon":5.373785,"is_reserved":false,"is_disabled":false,"rental_uris":{"android":"levelo://app?vid=a266a3e1-cc87-418b-9e8f-d8831d0032b4","ios":"levelo://app?vid=a266a3e1-cc87-418b-9e8f-d8831d0032b4"},"vehicle_type_id":"4","last_reported":1716736104,"current_range_meters":6400,"station_id":"ce4bh3p2rcd13ifvqdq0","pricing_plan_id":"cebpf4jnsgd1na2vs0mg"},{"bike_id":"ad28f68c-d244-4c5f-983e-6504a7288b70","system_id":"levelo_inurba_marseille","lat":43.295194,"lon":5.39397,"is_reserved":false,"is_disabled":false,"rental_uris":{"android":"levelo://app?vid=ad28f68c-d244-4c5f-983e-6504a7288b70","ios":"levelo://app?vid=ad28f68c-d244-4c5f-983e-6504a7288b70"},"vehicle_type_id":"4","last_reported":1716736104,"current_range_meters":18000,"station_id":"ce4bh292rcd13ifvqdf0","pricing_plan_id":"cebpf4jnsgd1na2vs0mg"},{"bike_id":"5ac85ede-8c4d-4fde-b9a8-908a4f1ec6f2","system_id":"levelo_inurba_marseille","lat":43.302759,"lon":5.400793,"is_reserved":false,"is_disabled":false,"rental_uris":{"android":"levelo://app?vid=5ac85ede-8c4d-4fde-b9a8-908a4f1ec6f2","ios":"levelo://app?vid=5ac85ede-8c4d-4fde-b9a8-908a4f1ec6f2"},"vehicle_type_id":"4","last_reported":1716736104,"current_range_meters":15200,"station_id":"ce4bgvh2rcd13ifvqcs0","pricing_plan_id":"cebpf4jnsgd1na2vs0mg"},{"bike_id":"96a527f7-0bde-4468-aa5f-58739cf37ba9","system_id":"levelo_inurba_marseille","lat":43.289307,"lon":5.38406,"is_reserved":false,"is_disabled":false,"rental_uris":{"android":"levelo://app?vid=96a527f7-0bde-4468-aa5f-58739cf37ba9","ios":"levelo://app?vid=96a527f7-0bde-4468-aa5f-58739cf37ba9"},"vehicle_type_id":"4","last_reported":1716736104,"current_range_meters":24400,"station_id":"ce4bh612rcd13ifvqe6g","pricing_plan_id":"cebpf4jnsgd1na2vs0mg"},{"bike_id":"f8a31dce-2f00-40de-8efd-2f935d2b6efd","system_id":"levelo_inurba_marseille","lat":43.286039,"lon":5.370681,"is_reserved":false,"is_disabled":false,"rental_uris":{"android":"levelo://app?vid=f8a31dce-2f00-40de-8efd-2f935d2b6efd","ios":"levelo://app?vid=f8a31dce-2f00-40de-8efd-2f935d2b6efd"},"vehicle_type_id":"4","last_reported":1716736104,"current_range_meters":6400,"station_id":"ce4bht12rcd13ifvqi60","pricing_plan_id":"cebpf4jnsgd1na2vs0mg"},{"bike_id":"58f81d0a-fd65-4bf9-b426-a5d0967e3e72","system_id":"levelo_inurba_marseille","lat":43.286039,"lon":5.370681,"is_reserved":false,"is_disabled":false,"rental_uris":{"android":"levelo://app?vid=58f81d0a-fd65-4bf9-b426-a5d0967e3e72","ios":"levelo://app?vid=58f81d0a-fd65-4bf9-b426-a5d0967e3e72"},"vehicle_type_id":"4","last_reported":1716736104,"current_range_meters":3200,"station_id":"ce4bht12rcd13ifvqi60","pricing_plan_id":"cebpf4jnsgd1na2vs0mg"},{"bike_id":"acb45854-db10-4f2a-903a-fbf979715373","system_id":"levelo_inurba_marseille","lat":43.287184,"lon":5.37937,"is_reserved":false,"is_disabled":false,"rental_uris":{"android":"levelo://app?vid=acb45854-db10-4f2a-903a-fbf979715373","ios":"levelo://app?vid=acb45854-db10-4f2a-903a-fbf979715373"},"vehicle_type_id":"4","last_reported":1716736104,"current_range_meters":6400,"station_id":"ce4bh9p2rcd13ifvqec0","pricing_plan_id":"cebpf4jnsgd1na2vs0mg"},{"bike_id":"fc5d79a9-980f-4a3d-9e13-156c55858555","system_id":"levelo_inurba_marseille","lat":43.317004,"lon":5.404636,"is_reserved":false,"is_disabled":false,"rental_uris":{"android":"levelo://app?vid=fc5d79a9-980f-4a3d-9e13-156c55858555","ios":"levelo://app?vid=fc5d79a9-980f-4a3d-9e13-156c55858555"},"vehicle_type_id":"4","last_reported":1716736104,"current_range_meters":0,"station_id":"ce4bh012rcd13ifvqd00","pricing_plan_id":"cebpf4jnsgd1na2vs0mg"},{"bike_id":"dcd98706-c453-447c-b74a-8a36edb09b48","system_id":"levelo_inurba_marseille","lat":43.316821,"lon":5.404737,"is_reserved":false,"is_disabled":false,"rental_uris":{"android":"levelo://app?vid=dcd98706-c453-447c-b74a-8a36edb09b48","ios":"levelo://app?vid=dcd98706-c453-447c-b74a-8a36edb09b48"},"vehicle_type_id":"4","last_reported":1716736104,"current_range_meters":10400,"station_id":"ce4bh012rcd13ifvqd00","pricing_plan_id":"cebpf4jnsgd1na2vs0mg"},{"bike_id":"2040b18f-d84c-4f1e-b1c3-6ba336f5542a","system_id":"levelo_inurba_marseille","lat":43.28468,"lon":5.35881,"is_reserved":false,"is_disabled":false,"rental_uris":{"android":"levelo://app?vid=2040b18f-d84c-4f1e-b1c3-6ba336f5542a","ios":"levelo://app?vid=2040b18f-d84c-4f1e-b1c3-6ba336f5542a"},"vehicle_type_id":"4","last_reported":1716736104,"current_range_meters":20400,"station_id":"ce4bhah2rcd13ifvqei0","pricing_plan_id":"cebpf4jnsgd1na2vs0mg"},{"bike_id":"fc74a83c-9b91-41df-af2c-da062caf5a6f","system_id":"levelo_inurba_marseille","lat":43.284534,"lon":5.358662,"is_reserved":false,"is_disabled":false,"rental_uris":{"android":"levelo://app?vid=fc74a83c-9b91-41df-af2c-da062caf5a6f","ios":"levelo://app?vid=fc74a83c-9b91-41df-af2c-da062caf5a6f"},"vehicle_type_id":"4","last_reported":1716736104,"current_range_meters":3200,"station_id":"ce4bhah2rcd13ifvqei0","pricing_plan_id":"cebpf4jnsgd1na2vs0mg"},{"bike_id":"42d8838d-37e1-421c-99a1-f12a413fd730","system_id":"levelo_inurba_marseille","lat":43.28639,"lon":5.351259,"is_reserved":false,"is_disabled":false,"rental_uris":{"android":"levelo://app?vid=42d8838d-37e1-421c-99a1-f12a413fd730","ios":"levelo://app?vid=42d8838d-37e1-421c-99a1-f12a413fd730"},"vehicle_type_id":"4","last_reported":1716736104,"current_range_meters":0,"station_id":"ce4bhch2rcd13ifvqeug","pricing_plan_id":"cebpf4jnsgd1na2vs0mg"},{"bike_id":"c6634d74-89ea-4d2b-a5eb-89aa1e1c478d","system_id":"levelo_inurba_marseille","lat":43.28627,"lon":5.35103,"is_reserved":false,"is_disabled":false,"rental_uris":{"android":"levelo://app?vid=c6634d74-89ea-4d2b-a5eb-89aa1e1c478d","ios":"levelo://app?vid=c6634d74-89ea-4d2b-a5eb-89aa1e1c478d"},"vehicle_type_id":"4","last_reported":1716736104,"current_range_meters":0,"station_id":"ce4bhch2rcd13ifvqeug","pricing_plan_id":"cebpf4jnsgd1na2vs0mg"},{"bike_id":"208f0c2b-3e03-45f5-bacb-a7627def7667","system_id":"levelo_inurba_marseille","lat":43.28624,"lon":5.35106,"is_reserved":false,"is_disabled":false,"rental_uris":{"android":"levelo://app?vid=208f0c2b-3e03-45f5-bacb-a7627def7667","ios":"levelo://app?vid=208f0c2b-3e03-45f5-bacb-a7627def7667"},"vehicle_type_id":"4","last_reported":1716736104,"current_range_meters":17600,"station_id":"ce4bhch2rcd13ifvqeug","pricing_plan_id":"cebpf4jnsgd1na2vs0mg"},{"bike_id":"656300b1-4f85-44f5-8079-d58cbad3fdf4","system_id":"levelo_inurba_marseille","lat":43.285848,"lon":5.350787,"is_reserved":false,"is_disabled":false,"rental_uris":{"android":"levelo://app?vid=656300b1-4f85-44f5-8079-d58cbad3fdf4","ios":"levelo://app?vid=656300b1-4f85-44f5-8079-d58cbad3fdf4"},"vehicle_type_id":"4","last_reported":1716736104,"current_range_meters":17600,"station_id":"ce4bhch2rcd13ifvqeug","pricing_plan_id":"cebpf4jnsgd1na2vs0mg"},{"bike_id":"8cacc0f2-90a2-473d-8985-a26d115e2058","system_id":"levelo_inurba_marseille","lat":43.28621,"lon":5.35108,"is_reserved":false,"is_disabled":false,"rental_uris":{"android":"levelo://app?vid=8cacc0f2-90a2-473d-8985-a26d115e2058","ios":"levelo://app?vid=8cacc0f2-90a2-473d-8985-a26d115e2058"},"vehicle_type_id":"4","last_reported":1716736104,"current_range_meters":22000,"station_id":"ce4bhch2rcd13ifvqeug","pricing_plan_id":"cebpf4jnsgd1na2vs0mg"},{"bike_id":"46b94784-408f-4e13-896f-e974582c1723","system_id":"levelo_inurba_marseille","lat":43.28622,"lon":5.35102,"is_reserved":false,"is_disabled":false,"rental_uris":{"android":"levelo://app?vid=46b94784-408f-4e13-896f-e974582c1723","ios":"levelo://app?vid=46b94784-408f-4e13-896f-e974582c1723"},"vehicle_type_id":"4","last_reported":1716736104,"current_range_meters":20400,"station_id":"ce4bhch2rcd13ifvqeug","pricing_plan_id":"cebpf4jnsgd1na2vs0mg"},{"bike_id":"3e747acc-169d-4aa1-83ab-7dae5afdf640","system_id":"levelo_inurba_marseille","lat":43.28621,"lon":5.35103,"is_reserved":false,"is_disabled":false,"rental_uris":{"android":"levelo://app?vid=3e747acc-169d-4aa1-83ab-7dae5afdf640","ios":"levelo://app?vid=3e747acc-169d-4aa1-83ab-7dae5afdf640"},"vehicle_type_id":"4","last_reported":1716736104,"current_range_meters":2800,"station_id":"ce4bhch2rcd13ifvqeug","pricing_plan_id":"cebpf4jnsgd1na2vs0mg"},{"bike_id":"0552d5e0-c8cc-4aba-937b-b80775d6e267","system_id":"levelo_inurba_marseille","lat":43.28617,"lon":5.35111,"is_reserved":false,"is_disabled":false,"rental_uris":{"android":"levelo://app?vid=0552d5e0-c8cc-4aba-937b-b80775d6e267","ios":"levelo://app?vid=0552d5e0-c8cc-4aba-937b-b80775d6e267"},"vehicle_type_id":"4","last_reported":1716736104,"current_range_meters":28800,"station_id":"ce4bhch2rcd13ifvqeug","pricing_plan_id":"cebpf4jnsgd1na2vs0mg"},{"bike_id":"22377483-c99c-40f2-8f43-4bea2bfb3c15","system_id":"levelo_inurba_marseille","lat":43.28618,"lon":5.35106,"is_reserved":false,"is_disabled":false,"rental_uris":{"android":"levelo://app?vid=22377483-c99c-40f2-8f43-4bea2bfb3c15","ios":"levelo://app?vid=22377483-c99c-40f2-8f43-4bea2bfb3c15"},"vehicle_type_id":"4","last_reported":1716736104,"current_range_meters":21200,"station_id":"ce4bhch2rcd13ifvqeug","pricing_plan_id":"cebpf4jnsgd1na2vs0mg"},{"bike_id":"e2686ba7-1569-449c-aeac-c7b6b3d9a06f","system_id":"levelo_inurba_marseille","lat":43.28617,"lon":5.35109,"is_reserved":false,"is_disabled":false,"rental_uris":{"android":"levelo://app?vid=e2686ba7-1569-449c-aeac-c7b6b3d9a06f","ios":"levelo://app?vid=e2686ba7-1569-449c-aeac-c7b6b3d9a06f"},"vehicle_type_id":"4","last_reported":1716736104,"current_range_meters":0,"station_id":"ce4bhch2rcd13ifvqeug","pricing_plan_id":"cebpf4jnsgd1na2vs0mg"},{"bike_id":"5c125011-7c25-44d6-ba51-b510ef5ff8cb","system_id":"levelo_inurba_marseille","lat":43.286132,"lon":5.351189,"is_reserved":false,"is_disabled":false,"rental_uris":{"android":"levelo://app?vid=5c125011-7c25-44d6-ba51-b510ef5ff8cb","ios":"levelo://app?vid=5c125011-7c25-44d6-ba51-b510ef5ff8cb"},"vehicle_type_id":"4","last_reported":1716736104,"current_range_meters":10000,"station_id":"ce4bh412rcd13ifvqds0","pricing_plan_id":"cebpf4jnsgd1na2vs0mg"},{"bike_id":"543dc637-b847-4d10-8f45-288aedf3cb9d","system_id":"levelo_inurba_marseille","lat":43.28618,"lon":5.35101,"is_reserved":false,"is_disabled":false,"rental_uris":{"android":"levelo://app?vid=543dc637-b847-4d10-8f45-288aedf3cb9d","ios":"levelo://app?vid=543dc637-b847-4d10-8f45-288aedf3cb9d"},"vehicle_type_id":"4","last_reported":1716736104,"current_range_meters":4800,"station_id":"ce4bhch2rcd13ifvqeug","pricing_plan_id":"cebpf4jnsgd1na2vs0mg"},{"bike_id":"55c068b4-930d-41c6-87da-264819fd9ce5","system_id":"levelo_inurba_marseille","lat":43.28617,"lon":5.35104,"is_reserved":false,"is_disabled":false,"rental_uris":{"android":"levelo://app?vid=55c068b4-930d-41c6-87da-264819fd9ce5","ios":"levelo://app?vid=55c068b4-930d-41c6-87da-264819fd9ce5"},"vehicle_type_id":"4","last_reported":1716736104,"current_range_meters":16000,"station_id":"ce4bhch2rcd13ifvqeug","pricing_plan_id":"cebpf4jnsgd1na2vs0mg"},{"bike_id":"4e1c7995-c129-4b25-841c-f2d0672e2043","system_id":"levelo_inurba_marseille","lat":43.28617,"lon":5.35103,"is_reserved":false,"is_disabled":false,"rental_uris":{"android":"levelo://app?vid=4e1c7995-c129-4b25-841c-f2d0672e2043","ios":"levelo://app?vid=4e1c7995-c129-4b25-841c-f2d0672e2043"},"vehicle_type_id":"4","last_reported":1716736104,"current_range_meters":4400,"station_id":"ce4bhch2rcd13ifvqeug","pricing_plan_id":"cebpf4jnsgd1na2vs0mg"},{"bike_id":"78fa18ef-4109-4c14-be4b-dbe183225dfc","system_id":"levelo_inurba_marseille","lat":43.28614,"lon":5.35107,"is_reserved":false,"is_disabled":false,"rental_uris":{"android":"levelo://app?vid=78fa18ef-4109-4c14-be4b-dbe183225dfc","ios":"levelo://app?vid=78fa18ef-4109-4c14-be4b-dbe183225dfc"},"vehicle_type_id":"4","last_reported":1716736104,"current_range_meters":23200,"station_id":"ce4bhch2rcd13ifvqeug","pricing_plan_id":"cebpf4jnsgd1na2vs0mg"},{"bike_id":"6525a131-25b4-4af9-b341-2f2b36285849","system_id":"levelo_inurba_marseille","lat":43.28615,"lon":5.35103,"is_reserved":false,"is_disabled":false,"rental_uris":{"android":"levelo://app?vid=6525a131-25b4-4af9-b341-2f2b36285849","ios":"levelo://app?vid=6525a131-25b4-4af9-b341-2f2b36285849"},"vehicle_type_id":"4","last_reported":1716736104,"current_range_meters":30800,"station_id":"ce4bhch2rcd13ifvqeug","pricing_plan_id":"cebpf4jnsgd1na2vs0mg"},{"bike_id":"b6e4373d-4ff1-4836-9960-050e87be5f91","system_id":"levelo_inurba_marseille","lat":43.28616,"lon":5.350981,"is_reserved":false,"is_disabled":false,"rental_uris":{"android":"levelo://app?vid=b6e4373d-4ff1-4836-9960-050e87be5f91","ios":"levelo://app?vid=b6e4373d-4ff1-4836-9960-050e87be5f91"},"vehicle_type_id":"4","last_reported":1716736104,"current_range_meters":26000,"station_id":"ce4bhch2rcd13ifvqeug","pricing_plan_id":"cebpf4jnsgd1na2vs0mg"},{"bike_id":"26a9ac5d-7e41-4196-8729-33863f2b5779","system_id":"levelo_inurba_marseille","lat":43.28614,"lon":5.35101,"is_reserved":false,"is_disabled":false,"rental_uris":{"android":"levelo://app?vid=26a9ac5d-7e41-4196-8729-33863f2b5779","ios":"levelo://app?vid=26a9ac5d-7e41-4196-8729-33863f2b5779"},"vehicle_type_id":"4","last_reported":1716736104,"current_range_meters":24000,"station_id":"ce4bhch2rcd13ifvqeug","pricing_plan_id":"cebpf4jnsgd1na2vs0mg"},{"bike_id":"d2690009-6013-4227-ad21-fd2967d9e61d","system_id":"levelo_inurba_marseille","lat":43.28612,"lon":5.35105,"is_reserved":false,"is_disabled":false,"rental_uris":{"android":"levelo://app?vid=d2690009-6013-4227-ad21-fd2967d9e61d","ios":"levelo://app?vid=d2690009-6013-4227-ad21-fd2967d9e61d"},"vehicle_type_id":"4","last_reported":1716736104,"current_range_meters":27600,"station_id":"ce4bhch2rcd13ifvqeug","pricing_plan_id":"cebpf4jnsgd1na2vs0mg"},{"bike_id":"5b8d5f61-5572-49a1-b919-38d22904c52d","system_id":"levelo_inurba_marseille","lat":43.28614,"lon":5.35096,"is_reserved":false,"is_disabled":false,"rental_uris":{"android":"levelo://app?vid=5b8d5f61-5572-49a1-b919-38d22904c52d","ios":"levelo://app?vid=5b8d5f61-5572-49a1-b919-38d22904c52d"},"vehicle_type_id":"4","last_reported":1716736104,"current_range_meters":20000,"station_id":"ce4bhch2rcd13ifvqeug","pricing_plan_id":"cebpf4jnsgd1na2vs0mg"},{"bike_id":"fccc4f54-9243-44e9-8965-f31072501ca1","system_id":"levelo_inurba_marseille","lat":43.29984,"lon":5.40274,"is_reserved":false,"is_disabled":false,"rental_uris":{"android":"levelo://app?vid=fccc4f54-9243-44e9-8965-f31072501ca1","ios":"levelo://app?vid=fccc4f54-9243-44e9-8965-f31072501ca1"},"vehicle_type_id":"4","last_reported":1716736104,"current_range_meters":18800,"station_id":"","pricing_plan_id":"cebpf4jnsgd1na2vs0mg"},{"bike_id":"660f09cf-52f4-4063-b765-ab78c2b7336f","system_id":"levelo_inurba_marseille","lat":43.29955,"lon":5.40261,"is_reserved":false,"is_disabled":false,"rental_uris":{"android":"levelo://app?vid=660f09cf-52f4-4063-b765-ab78c2b7336f","ios":"levelo://app?vid=660f09cf-52f4-4063-b765-ab78c2b7336f"},"vehicle_type_id":"4","last_reported":1716736104,"current_range_meters":18400,"station_id":"","pricing_plan_id":"cebpf4jnsgd1na2vs0mg"},{"bike_id":"70f509ef-65b0-403a-93f4-e763a46f38c3","system_id":"levelo_inurba_marseille","lat":43.283998,"lon":5.375062,"is_reserved":false,"is_disabled":false,"rental_uris":{"android":"levelo://app?vid=70f509ef-65b0-403a-93f4-e763a46f38c3","ios":"levelo://app?vid=70f509ef-65b0-403a-93f4-e763a46f38c3"},"vehicle_type_id":"4","last_reported":1716736104,"current_range_meters":0,"station_id":"ce4bh412rcd13ifvqds0","pricing_plan_id":"cebpf4jnsgd1na2vs0mg"},{"bike_id":"395c8693-eecd-4509-8d78-20b072054799","system_id":"levelo_inurba_marseille","lat":43.295713,"lon":5.399639,"is_reserved":false,"is_disabled":false,"rental_uris":{"android":"levelo://app?vid=395c8693-eecd-4509-8d78-20b072054799","ios":"levelo://app?vid=395c8693-eecd-4509-8d78-20b072054799"},"vehicle_type_id":"4","last_reported":1716736104,"current_range_meters":13600,"station_id":"ce4bh312rcd13ifvqdj0","pricing_plan_id":"cebpf4jnsgd1na2vs0mg"},{"bike_id":"4bcdbeb6-699f-40ca-87d3-9d73a2e1764d","system_id":"levelo_inurba_marseille","lat":43.29957,"lon":5.40293,"is_reserved":false,"is_disabled":false,"rental_uris":{"android":"levelo://app?vid=4bcdbeb6-699f-40ca-87d3-9d73a2e1764d","ios":"levelo://app?vid=4bcdbeb6-699f-40ca-87d3-9d73a2e1764d"},"vehicle_type_id":"4","last_reported":1716736104,"current_range_meters":10000,"station_id":"","pricing_plan_id":"cebpf4jnsgd1na2vs0mg"},{"bike_id":"36fb3490-a76c-4542-9cbf-99d28c86583e","system_id":"levelo_inurba_marseille","lat":43.29945,"lon":5.40293,"is_reserved":false,"is_disabled":false,"rental_uris":{"android":"levelo://app?vid=36fb3490-a76c-4542-9cbf-99d28c86583e","ios":"levelo://app?vid=36fb3490-a76c-4542-9cbf-99d28c86583e"},"vehicle_type_id":"4","last_reported":1716736104,"current_range_meters":10000,"station_id":"","pricing_plan_id":"cebpf4jnsgd1na2vs0mg"},{"bike_id":"80adbe9e-f6eb-4980-acf0-68d65bdeabe9","system_id":"levelo_inurba_marseille","lat":43.295713,"lon":5.399639,"is_reserved":false,"is_disabled":false,"rental_uris":{"android":"levelo://app?vid=80adbe9e-f6eb-4980-acf0-68d65bdeabe9","ios":"levelo://app?vid=80adbe9e-f6eb-4980-acf0-68d65bdeabe9"},"vehicle_type_id":"4","last_reported":1716736104,"current_range_meters":8000,"station_id":"ce4bh312rcd13ifvqdj0","pricing_plan_id":"cebpf4jnsgd1na2vs0mg"},{"bike_id":"26879562-a620-4492-9fea-8aefe63ff97d","system_id":"levelo_inurba_marseille","lat":43.286595,"lon":5.386795,"is_reserved":false,"is_disabled":false,"rental_uris":{"android":"levelo://app?vid=26879562-a620-4492-9fea-8aefe63ff97d","ios":"levelo://app?vid=26879562-a620-4492-9fea-8aefe63ff97d"},"vehicle_type_id":"4","last_reported":1716736104,"current_range_meters":31200,"station_id":"ce4bh492rcd13ifvqdug","pricing_plan_id":"cebpf4jnsgd1na2vs0mg"},{"bike_id":"2919e274-a552-4ea3-ac73-0d95c1a44a03","system_id":"levelo_inurba_marseille","lat":43.319179,"lon":5.407725,"is_reserved":false,"is_disabled":false,"rental_uris":{"android":"levelo://app?vid=2919e274-a552-4ea3-ac73-0d95c1a44a03","ios":"levelo://app?vid=2919e274-a552-4ea3-ac73-0d95c1a44a03"},"vehicle_type_id":"4","last_reported":1716736104,"current_range_meters":2400,"station_id":"ce4bhq12rcd13ifvqhig","pricing_plan_id":"cebpf4jnsgd1na2vs0mg"},{"bike_id":"5df5652e-a340-413b-a1f2-7a466147657a","system_id":"levelo_inurba_marseille","lat":43.33723,"lon":5.39175,"is_reserved":false,"is_disabled":false,"rental_uris":{"android":"levelo://app?vid=5df5652e-a340-413b-a1f2-7a466147657a","ios":"levelo://app?vid=5df5652e-a340-413b-a1f2-7a466147657a"},"vehicle_type_id":"4","last_reported":1716736104,"current_range_meters":19200,"station_id":"ce4bhr92rcd13ifvqhsg","pricing_plan_id":"cebpf4jnsgd1na2vs0mg"},{"bike_id":"98412d5e-893d-434c-805f-a2f3356fb4d6","system_id":"levelo_inurba_marseille","lat":43.32289,"lon":5.40636,"is_reserved":false,"is_disabled":false,"rental_uris":{"android":"levelo://app?vid=98412d5e-893d-434c-805f-a2f3356fb4d6","ios":"levelo://app?vid=98412d5e-893d-434c-805f-a2f3356fb4d6"},"vehicle_type_id":"4","last_reported":1716736104,"current_range_meters":9600,"station_id":"","pricing_plan_id":"cebpf4jnsgd1na2vs0mg"},{"bike_id":"d29c87be-c1ed-47ba-a406-0ea460677331","system_id":"levelo_inurba_marseille","lat":43.33717,"lon":5.391857,"is_reserved":false,"is_disabled":false,"rental_uris":{"android":"levelo://app?vid=d29c87be-c1ed-47ba-a406-0ea460677331","ios":"levelo://app?vid=d29c87be-c1ed-47ba-a406-0ea460677331"},"vehicle_type_id":"4","last_reported":1716736104,"current_range_meters":30800,"station_id":"ce4bhr92rcd13ifvqhsg","pricing_plan_id":"cebpf4jnsgd1na2vs0mg"},{"bike_id":"f98e1806-7000-4877-836b-8d9e2d5e1d4f","system_id":"levelo_inurba_marseille","lat":43.33726,"lon":5.39185,"is_reserved":false,"is_disabled":false,"rental_uris":{"android":"levelo://app?vid=f98e1806-7000-4877-836b-8d9e2d5e1d4f","ios":"levelo://app?vid=f98e1806-7000-4877-836b-8d9e2d5e1d4f"},"vehicle_type_id":"4","last_reported":1716736104,"current_range_meters":400,"station_id":"ce4bhr92rcd13ifvqhsg","pricing_plan_id":"cebpf4jnsgd1na2vs0mg"},{"bike_id":"a4756ad6-5371-4d03-8d46-7c3d98a7e259","system_id":"levelo_inurba_marseille","lat":43.323464,"lon":5.406297,"is_reserved":false,"is_disabled":false,"rental_uris":{"android":"levelo://app?vid=a4756ad6-5371-4d03-8d46-7c3d98a7e259","ios":"levelo://app?vid=a4756ad6-5371-4d03-8d46-7c3d98a7e259"},"vehicle_type_id":"4","last_reported":1716736104,"current_range_meters":31200,"station_id":"ce4bhq92rcd13ifvqhjg","pricing_plan_id":"cebpf4jnsgd1na2vs0mg"},{"bike_id":"be110534-ab1b-4662-aeff-05ef7c4acf56","system_id":"levelo_inurba_marseille","lat":43.323464,"lon":5.406297,"is_reserved":false,"is_disabled":false,"rental_uris":{"android":"levelo://app?vid=be110534-ab1b-4662-aeff-05ef7c4acf56","ios":"levelo://app?vid=be110534-ab1b-4662-aeff-05ef7c4acf56"},"vehicle_type_id":"4","last_reported":1716736104,"current_range_meters":30000,"station_id":"ce4bhq92rcd13ifvqhjg","pricing_plan_id":"cebpf4jnsgd1na2vs0mg"},{"bike_id":"f0fc7b35-1f13-4177-a483-7e36733dfa33","system_id":"levelo_inurba_marseille","lat":43.33717,"lon":5.391857,"is_reserved":false,"is_disabled":false,"rental_uris":{"android":"levelo://app?vid=f0fc7b35-1f13-4177-a483-7e36733dfa33","ios":"levelo://app?vid=f0fc7b35-1f13-4177-a483-7e36733dfa33"},"vehicle_type_id":"4","last_reported":1716736104,"current_range_meters":14800,"station_id":"ce4bhr92rcd13ifvqhsg","pricing_plan_id":"cebpf4jnsgd1na2vs0mg"},{"bike_id":"4dde6174-5f7b-49c4-9d04-2eb6efc7d0ed","system_id":"levelo_inurba_marseille","lat":43.32342,"lon":5.40626,"is_reserved":false,"is_disabled":false,"rental_uris":{"android":"levelo://app?vid=4dde6174-5f7b-49c4-9d04-2eb6efc7d0ed","ios":"levelo://app?vid=4dde6174-5f7b-49c4-9d04-2eb6efc7d0ed"},"vehicle_type_id":"4","last_reported":1716736104,"current_range_meters":0,"station_id":"ce4bhq92rcd13ifvqhjg","pricing_plan_id":"cebpf4jnsgd1na2vs0mg"},{"bike_id":"9fb7987c-dd54-41bf-955e-fff61148b34d","system_id":"levelo_inurba_marseille","lat":43.28776,"lon":5.39147,"is_reserved":false,"is_disabled":false,"rental_uris":{"android":"levelo://app?vid=9fb7987c-dd54-41bf-955e-fff61148b34d","ios":"levelo://app?vid=9fb7987c-dd54-41bf-955e-fff61148b34d"},"vehicle_type_id":"4","last_reported":1716736104,"current_range_meters":0,"station_id":"","pricing_plan_id":"cebpf4jnsgd1na2vs0mg"},{"bike_id":"b269eb4e-30e0-4b6e-8390-a6e9c98ed217","system_id":"levelo_inurba_marseille","lat":43.284214,"lon":5.349706,"is_reserved":false,"is_disabled":false,"rental_uris":{"android":"levelo://app?vid=b269eb4e-30e0-4b6e-8390-a6e9c98ed217","ios":"levelo://app?vid=b269eb4e-30e0-4b6e-8390-a6e9c98ed217"},"vehicle_type_id":"4","last_reported":1716736104,"current_range_meters":16400,"station_id":"ce4bhbh2rcd13ifvqepg","pricing_plan_id":"cebpf4jnsgd1na2vs0mg"},{"bike_id":"7590c274-d145-4748-a0de-2b6a13924199","system_id":"levelo_inurba_marseille","lat":43.284214,"lon":5.349706,"is_reserved":false,"is_disabled":false,"rental_uris":{"android":"levelo://app?vid=7590c274-d145-4748-a0de-2b6a13924199","ios":"levelo://app?vid=7590c274-d145-4748-a0de-2b6a13924199"},"vehicle_type_id":"4","last_reported":1716736104,"current_range_meters":9600,"station_id":"ce4bhbh2rcd13ifvqepg","pricing_plan_id":"cebpf4jnsgd1na2vs0mg"},{"bike_id":"c06c2ba1-3e7c-4c33-bf64-b2b862b19e39","system_id":"levelo_inurba_marseille","lat":43.283498,"lon":5.380948,"is_reserved":false,"is_disabled":false,"rental_uris":{"android":"levelo://app?vid=c06c2ba1-3e7c-4c33-bf64-b2b862b19e39","ios":"levelo://app?vid=c06c2ba1-3e7c-4c33-bf64-b2b862b19e39"},"vehicle_type_id":"4","last_reported":1716736104,"current_range_meters":1600,"station_id":"ce4bh412rcd13ifvqdr0","pricing_plan_id":"cebpf4jnsgd1na2vs0mg"},{"bike_id":"ebae7cce-c222-4a13-972c-5f3abf2c8b4e","system_id":"levelo_inurba_marseille","lat":43.284219,"lon":5.3497,"is_reserved":false,"is_disabled":false,"rental_uris":{"android":"levelo://app?vid=ebae7cce-c222-4a13-972c-5f3abf2c8b4e","ios":"levelo://app?vid=ebae7cce-c222-4a13-972c-5f3abf2c8b4e"},"vehicle_type_id":"4","last_reported":1716736104,"current_range_meters":30800,"station_id":"ce4bhbh2rcd13ifvqepg","pricing_plan_id":"cebpf4jnsgd1na2vs0mg"},{"bike_id":"47afeaa0-99de-4000-bcad-6bd3d4b5d859","system_id":"levelo_inurba_marseille","lat":43.284214,"lon":5.349706,"is_reserved":false,"is_disabled":false,"rental_uris":{"android":"levelo://app?vid=47afeaa0-99de-4000-bcad-6bd3d4b5d859","ios":"levelo://app?vid=47afeaa0-99de-4000-bcad-6bd3d4b5d859"},"vehicle_type_id":"4","last_reported":1716736104,"current_range_meters":30000,"station_id":"ce4bhbh2rcd13ifvqepg","pricing_plan_id":"cebpf4jnsgd1na2vs0mg"},{"bike_id":"d38de6c1-28e5-4acc-9b9b-9c563dd5fe6c","system_id":"levelo_inurba_marseille","lat":43.284214,"lon":5.349706,"is_reserved":false,"is_disabled":false,"rental_uris":{"android":"levelo://app?vid=d38de6c1-28e5-4acc-9b9b-9c563dd5fe6c","ios":"levelo://app?vid=d38de6c1-28e5-4acc-9b9b-9c563dd5fe6c"},"vehicle_type_id":"4","last_reported":1716736104,"current_range_meters":10800,"station_id":"ce4bhbh2rcd13ifvqepg","pricing_plan_id":"cebpf4jnsgd1na2vs0mg"},{"bike_id":"693bcb21-ba41-452e-9e46-25aae1cbc4ad","system_id":"levelo_inurba_marseille","lat":43.284214,"lon":5.349706,"is_reserved":false,"is_disabled":false,"rental_uris":{"android":"levelo://app?vid=693bcb21-ba41-452e-9e46-25aae1cbc4ad","ios":"levelo://app?vid=693bcb21-ba41-452e-9e46-25aae1cbc4ad"},"vehicle_type_id":"4","last_reported":1716736104,"current_range_meters":27600,"station_id":"ce4bhbh2rcd13ifvqepg","pricing_plan_id":"cebpf4jnsgd1na2vs0mg"},{"bike_id":"e68a0d8e-7644-4921-936c-721aabaef914","system_id":"levelo_inurba_marseille","lat":43.284219,"lon":5.3497,"is_reserved":false,"is_disabled":false,"rental_uris":{"android":"levelo://app?vid=e68a0d8e-7644-4921-936c-721aabaef914","ios":"levelo://app?vid=e68a0d8e-7644-4921-936c-721aabaef914"},"vehicle_type_id":"4","last_reported":1716736104,"current_range_meters":12000,"station_id":"ce4bhbh2rcd13ifvqepg","pricing_plan_id":"cebpf4jnsgd1na2vs0mg"},{"bike_id":"66aece53-46c7-4341-bbf0-d9f2ea3f6289","system_id":"levelo_inurba_marseille","lat":43.28418,"lon":5.34992,"is_reserved":false,"is_disabled":false,"rental_uris":{"android":"levelo://app?vid=66aece53-46c7-4341-bbf0-d9f2ea3f6289","ios":"levelo://app?vid=66aece53-46c7-4341-bbf0-d9f2ea3f6289"},"vehicle_type_id":"4","last_reported":1716736104,"current_range_meters":13200,"station_id":"ce4bhbh2rcd13ifvqepg","pricing_plan_id":"cebpf4jnsgd1na2vs0mg"},{"bike_id":"2b8c3848-6959-4bcb-9d50-05ee88f19c8a","system_id":"levelo_inurba_marseille","lat":43.284214,"lon":5.349706,"is_reserved":false,"is_disabled":false,"rental_uris":{"android":"levelo://app?vid=2b8c3848-6959-4bcb-9d50-05ee88f19c8a","ios":"levelo://app?vid=2b8c3848-6959-4bcb-9d50-05ee88f19c8a"},"vehicle_type_id":"4","last_reported":1716736104,"current_range_meters":28000,"station_id":"ce4bhbh2rcd13ifvqepg","pricing_plan_id":"cebpf4jnsgd1na2vs0mg"},{"bike_id":"60420a63-0810-4ff5-b8b7-f17762f75fa8","system_id":"levelo_inurba_marseille","lat":43.284174,"lon":5.349888,"is_reserved":false,"is_disabled":false,"rental_uris":{"android":"levelo://app?vid=60420a63-0810-4ff5-b8b7-f17762f75fa8","ios":"levelo://app?vid=60420a63-0810-4ff5-b8b7-f17762f75fa8"},"vehicle_type_id":"4","last_reported":1716736104,"current_range_meters":16400,"station_id":"ce4bhbh2rcd13ifvqepg","pricing_plan_id":"cebpf4jnsgd1na2vs0mg"},{"bike_id":"76e6cc0f-a02c-417f-a7da-ab0ab8b9236c","system_id":"levelo_inurba_marseille","lat":43.28419,"lon":5.3498,"is_reserved":false,"is_disabled":false,"rental_uris":{"android":"levelo://app?vid=76e6cc0f-a02c-417f-a7da-ab0ab8b9236c","ios":"levelo://app?vid=76e6cc0f-a02c-417f-a7da-ab0ab8b9236c"},"vehicle_type_id":"4","last_reported":1716736104,"current_range_meters":21600,"station_id":"ce4bhbh2rcd13ifvqepg","pricing_plan_id":"cebpf4jnsgd1na2vs0mg"},{"bike_id":"62f06ef0-f780-472e-9fe1-3f432bc3969c","system_id":"levelo_inurba_marseille","lat":43.284219,"lon":5.3497,"is_reserved":false,"is_disabled":false,"rental_uris":{"android":"levelo://app?vid=62f06ef0-f780-472e-9fe1-3f432bc3969c","ios":"levelo://app?vid=62f06ef0-f780-472e-9fe1-3f432bc3969c"},"vehicle_type_id":"4","last_reported":1716736104,"current_range_meters":5200,"station_id":"ce4bhbh2rcd13ifvqepg","pricing_plan_id":"cebpf4jnsgd1na2vs0mg"},{"bike_id":"6bcab233-d1e2-4be2-8ecb-8252cab7b668","system_id":"levelo_inurba_marseille","lat":43.284214,"lon":5.349706,"is_reserved":false,"is_disabled":false,"rental_uris":{"android":"levelo://app?vid=6bcab233-d1e2-4be2-8ecb-8252cab7b668","ios":"levelo://app?vid=6bcab233-d1e2-4be2-8ecb-8252cab7b668"},"vehicle_type_id":"4","last_reported":1716736104,"current_range_meters":0,"station_id":"ce4bhbh2rcd13ifvqepg","pricing_plan_id":"cebpf4jnsgd1na2vs0mg"},{"bike_id":"14485ea3-b8ed-4565-ab32-1c58167fd1cc","system_id":"levelo_inurba_marseille","lat":43.284214,"lon":5.349706,"is_reserved":false,"is_disabled":false,"rental_uris":{"android":"levelo://app?vid=14485ea3-b8ed-4565-ab32-1c58167fd1cc","ios":"levelo://app?vid=14485ea3-b8ed-4565-ab32-1c58167fd1cc"},"vehicle_type_id":"4","last_reported":1716736104,"current_range_meters":5200,"station_id":"ce4bhbh2rcd13ifvqepg","pricing_plan_id":"cebpf4jnsgd1na2vs0mg"},{"bike_id":"3e5da4be-37d4-4e39-8098-16d4c8945424","system_id":"levelo_inurba_marseille","lat":43.28415,"lon":5.34977,"is_reserved":false,"is_disabled":false,"rental_uris":{"android":"levelo://app?vid=3e5da4be-37d4-4e39-8098-16d4c8945424","ios":"levelo://app?vid=3e5da4be-37d4-4e39-8098-16d4c8945424"},"vehicle_type_id":"4","last_reported":1716736104,"current_range_meters":17200,"station_id":"ce4bhbh2rcd13ifvqepg","pricing_plan_id":"cebpf4jnsgd1na2vs0mg"},{"bike_id":"83a6b424-36d0-46f4-b7ec-f3d866964af2","system_id":"levelo_inurba_marseille","lat":43.28411,"lon":5.34984,"is_reserved":false,"is_disabled":false,"rental_uris":{"android":"levelo://app?vid=83a6b424-36d0-46f4-b7ec-f3d866964af2","ios":"levelo://app?vid=83a6b424-36d0-46f4-b7ec-f3d866964af2"},"vehicle_type_id":"4","last_reported":1716736104,"current_range_meters":13600,"station_id":"ce4bhbh2rcd13ifvqepg","pricing_plan_id":"cebpf4jnsgd1na2vs0mg"},{"bike_id":"2c0cbf6e-5873-48c9-a513-7ff5419c769b","system_id":"levelo_inurba_marseille","lat":43.28279,"lon":5.35055,"is_reserved":false,"is_disabled":false,"rental_uris":{"android":"levelo://app?vid=2c0cbf6e-5873-48c9-a513-7ff5419c769b","ios":"levelo://app?vid=2c0cbf6e-5873-48c9-a513-7ff5419c769b"},"vehicle_type_id":"4","last_reported":1716736104,"current_range_meters":7200,"station_id":"ce4bhbp2rcd13ifvqerg","pricing_plan_id":"cebpf4jnsgd1na2vs0mg"},{"bike_id":"79da0b8d-5a09-41ba-9f6c-ee88774ebdb3","system_id":"levelo_inurba_marseille","lat":43.28267,"lon":5.3507,"is_reserved":false,"is_disabled":false,"rental_uris":{"android":"levelo://app?vid=79da0b8d-5a09-41ba-9f6c-ee88774ebdb3","ios":"levelo://app?vid=79da0b8d-5a09-41ba-9f6c-ee88774ebdb3"},"vehicle_type_id":"4","last_reported":1716736104,"current_range_meters":0,"station_id":"ce4bhbp2rcd13ifvqerg","pricing_plan_id":"cebpf4jnsgd1na2vs0mg"},{"bike_id":"a571fb94-8156-48a2-847c-3a6492c2073f","system_id":"levelo_inurba_marseille","lat":43.28269,"lon":5.35063,"is_reserved":false,"is_disabled":false,"rental_uris":{"android":"levelo://app?vid=a571fb94-8156-48a2-847c-3a6492c2073f","ios":"levelo://app?vid=a571fb94-8156-48a2-847c-3a6492c2073f"},"vehicle_type_id":"4","last_reported":1716736104,"current_range_meters":0,"station_id":"ce4bhbp2rcd13ifvqerg","pricing_plan_id":"cebpf4jnsgd1na2vs0mg"},{"bike_id":"c4e2ac76-9a87-47d8-8ef8-32366d29469e","system_id":"levelo_inurba_marseille","lat":43.28039,"lon":5.369297,"is_reserved":false,"is_disabled":false,"rental_uris":{"android":"levelo://app?vid=c4e2ac76-9a87-47d8-8ef8-32366d29469e","ios":"levelo://app?vid=c4e2ac76-9a87-47d8-8ef8-32366d29469e"},"vehicle_type_id":"4","last_reported":1716736104,"current_range_meters":21200,"station_id":"ce4bha12rcd13ifvqef0","pricing_plan_id":"cebpf4jnsgd1na2vs0mg"},{"bike_id":"d2dcc37f-e79f-494f-a319-e1195a0627ec","system_id":"levelo_inurba_marseille","lat":43.290412,"lon":5.399633,"is_reserved":false,"is_disabled":false,"rental_uris":{"android":"levelo://app?vid=d2dcc37f-e79f-494f-a319-e1195a0627ec","ios":"levelo://app?vid=d2dcc37f-e79f-494f-a319-e1195a0627ec"},"vehicle_type_id":"4","last_reported":1716736104,"current_range_meters":7200,"station_id":"ce4bh392rcd13ifvqdm0","pricing_plan_id":"cebpf4jnsgd1na2vs0mg"},{"bike_id":"ed61278a-5808-409d-827d-58cf9db81d2b","system_id":"levelo_inurba_marseille","lat":43.296263,"lon":5.40601,"is_reserved":false,"is_disabled":false,"rental_uris":{"android":"levelo://app?vid=ed61278a-5808-409d-827d-58cf9db81d2b","ios":"levelo://app?vid=ed61278a-5808-409d-827d-58cf9db81d2b"},"vehicle_type_id":"4","last_reported":1716736104,"current_range_meters":5600,"station_id":"ce4bh0h2rcd13ifvqd60","pricing_plan_id":"cebpf4jnsgd1na2vs0mg"},{"bike_id":"ebd2515b-0649-4abe-967e-7f90c6fd355c","system_id":"levelo_inurba_marseille","lat":43.296263,"lon":5.40601,"is_reserved":false,"is_disabled":false,"rental_uris":{"android":"levelo://app?vid=ebd2515b-0649-4abe-967e-7f90c6fd355c","ios":"levelo://app?vid=ebd2515b-0649-4abe-967e-7f90c6fd355c"},"vehicle_type_id":"4","last_reported":1716736104,"current_range_meters":7600,"station_id":"ce4bh0h2rcd13ifvqd60","pricing_plan_id":"cebpf4jnsgd1na2vs0mg"},{"bike_id":"e37d1e9a-3f1c-45e8-8bde-6ae0046d5306","system_id":"levelo_inurba_marseille","lat":43.30851,"lon":5.41324,"is_reserved":false,"is_disabled":false,"rental_uris":{"android":"levelo://app?vid=e37d1e9a-3f1c-45e8-8bde-6ae0046d5306","ios":"levelo://app?vid=e37d1e9a-3f1c-45e8-8bde-6ae0046d5306"},"vehicle_type_id":"4","last_reported":1716736104,"current_range_meters":16800,"station_id":"","pricing_plan_id":"cebpf4jnsgd1na2vs0mg"},{"bike_id":"ec7e38ba-c718-4c39-9491-0bedb9b7cc33","system_id":"levelo_inurba_marseille","lat":43.32659,"lon":5.40991,"is_reserved":false,"is_disabled":false,"rental_uris":{"android":"levelo://app?vid=ec7e38ba-c718-4c39-9491-0bedb9b7cc33","ios":"levelo://app?vid=ec7e38ba-c718-4c39-9491-0bedb9b7cc33"},"vehicle_type_id":"4","last_reported":1716736104,"current_range_meters":6400,"station_id":"ce4bhpp2rcd13ifvqhgg","pricing_plan_id":"cebpf4jnsgd1na2vs0mg"},{"bike_id":"75b3fea8-7703-4c63-9225-e1c6aa5cd387","system_id":"levelo_inurba_marseille","lat":43.326605,"lon":5.409903,"is_reserved":false,"is_disabled":false,"rental_uris":{"android":"levelo://app?vid=75b3fea8-7703-4c63-9225-e1c6aa5cd387","ios":"levelo://app?vid=75b3fea8-7703-4c63-9225-e1c6aa5cd387"},"vehicle_type_id":"4","last_reported":1716736104,"current_range_meters":19200,"station_id":"ce4bhpp2rcd13ifvqhgg","pricing_plan_id":"cebpf4jnsgd1na2vs0mg"},{"bike_id":"a139818f-4e77-456d-9212-39f0c9a9cff9","system_id":"levelo_inurba_marseille","lat":43.326605,"lon":5.409903,"is_reserved":false,"is_disabled":false,"rental_uris":{"android":"levelo://app?vid=a139818f-4e77-456d-9212-39f0c9a9cff9","ios":"levelo://app?vid=a139818f-4e77-456d-9212-39f0c9a9cff9"},"vehicle_type_id":"4","last_reported":1716736104,"current_range_meters":10800,"station_id":"ce4bhpp2rcd13ifvqhgg","pricing_plan_id":"cebpf4jnsgd1na2vs0mg"},{"bike_id":"c35cd649-a8f3-4a15-a186-960611628a38","system_id":"levelo_inurba_marseille","lat":43.304188,"lon":5.412904,"is_reserved":false,"is_disabled":false,"rental_uris":{"android":"levelo://app?vid=c35cd649-a8f3-4a15-a186-960611628a38","ios":"levelo://app?vid=c35cd649-a8f3-4a15-a186-960611628a38"},"vehicle_type_id":"4","last_reported":1716736104,"current_range_meters":6000,"station_id":"ce4bhop2rcd13ifvqh8g","pricing_plan_id":"cebpf4jnsgd1na2vs0mg"},{"bike_id":"228080e1-d0d5-44bf-b0cb-70e196a182a7","system_id":"levelo_inurba_marseille","lat":43.279087,"lon":5.380114,"is_reserved":false,"is_disabled":false,"rental_uris":{"android":"levelo://app?vid=228080e1-d0d5-44bf-b0cb-70e196a182a7","ios":"levelo://app?vid=228080e1-d0d5-44bf-b0cb-70e196a182a7"},"vehicle_type_id":"4","last_reported":1716736104,"current_range_meters":2400,"station_id":"ce4bhf92rcd13ifvqf50","pricing_plan_id":"cebpf4jnsgd1na2vs0mg"},{"bike_id":"fe336b8e-e52d-4a5e-9b18-86c29c61991c","system_id":"levelo_inurba_marseille","lat":43.279087,"lon":5.380114,"is_reserved":false,"is_disabled":false,"rental_uris":{"android":"levelo://app?vid=fe336b8e-e52d-4a5e-9b18-86c29c61991c","ios":"levelo://app?vid=fe336b8e-e52d-4a5e-9b18-86c29c61991c"},"vehicle_type_id":"4","last_reported":1716736104,"current_range_meters":4000,"station_id":"ce4bhf92rcd13ifvqf50","pricing_plan_id":"cebpf4jnsgd1na2vs0mg"},{"bike_id":"e30ac13e-8b67-42ab-9ca9-0fbb9240f0ea","system_id":"levelo_inurba_marseille","lat":43.299579,"lon":5.413255,"is_reserved":false,"is_disabled":false,"rental_uris":{"android":"levelo://app?vid=e30ac13e-8b67-42ab-9ca9-0fbb9240f0ea","ios":"levelo://app?vid=e30ac13e-8b67-42ab-9ca9-0fbb9240f0ea"},"vehicle_type_id":"4","last_reported":1716736104,"current_range_meters":27600,"station_id":"ce4bhp12rcd13ifvqh9g","pricing_plan_id":"cebpf4jnsgd1na2vs0mg"},{"bike_id":"01f3a9d6-69bb-493c-9108-c14655bd6cd6","system_id":"levelo_inurba_marseille","lat":43.279742,"lon":5.38744,"is_reserved":false,"is_disabled":false,"rental_uris":{"android":"levelo://app?vid=01f3a9d6-69bb-493c-9108-c14655bd6cd6","ios":"levelo://app?vid=01f3a9d6-69bb-493c-9108-c14655bd6cd6"},"vehicle_type_id":"4","last_reported":1716736104,"current_range_meters":0,"station_id":"ce4bhg12rcd13ifvqf80","pricing_plan_id":"cebpf4jnsgd1na2vs0mg"},{"bike_id":"260274cb-f4eb-4403-9a9d-280b17dbd92c","system_id":"levelo_inurba_marseille","lat":43.299577,"lon":5.413277,"is_reserved":false,"is_disabled":false,"rental_uris":{"android":"levelo://app?vid=260274cb-f4eb-4403-9a9d-280b17dbd92c","ios":"levelo://app?vid=260274cb-f4eb-4403-9a9d-280b17dbd92c"},"vehicle_type_id":"4","last_reported":1716736104,"current_range_meters":26000,"station_id":"ce4bhp12rcd13ifvqh9g","pricing_plan_id":"cebpf4jnsgd1na2vs0mg"},{"bike_id":"4cb7c9c0-c755-4172-9bf8-f245d6c7d1c7","system_id":"levelo_inurba_marseille","lat":43.279742,"lon":5.38744,"is_reserved":false,"is_disabled":false,"rental_uris":{"android":"levelo://app?vid=4cb7c9c0-c755-4172-9bf8-f245d6c7d1c7","ios":"levelo://app?vid=4cb7c9c0-c755-4172-9bf8-f245d6c7d1c7"},"vehicle_type_id":"4","last_reported":1716736104,"current_range_meters":11600,"station_id":"ce4bhg12rcd13ifvqf80","pricing_plan_id":"cebpf4jnsgd1na2vs0mg"},{"bike_id":"170cdfe5-902d-4261-92cb-8cbbebb8b8fd","system_id":"levelo_inurba_marseille","lat":43.325233,"lon":5.414318,"is_reserved":false,"is_disabled":false,"rental_uris":{"android":"levelo://app?vid=170cdfe5-902d-4261-92cb-8cbbebb8b8fd","ios":"levelo://app?vid=170cdfe5-902d-4261-92cb-8cbbebb8b8fd"},"vehicle_type_id":"4","last_reported":1716736104,"current_range_meters":25200,"station_id":"ce4bhq12rcd13ifvqhhg","pricing_plan_id":"cebpf4jnsgd1na2vs0mg"},{"bike_id":"19afb79e-70a4-400d-a897-a776e598edb8","system_id":"levelo_inurba_marseille","lat":43.276179,"lon":5.361009,"is_reserved":false,"is_disabled":false,"rental_uris":{"android":"levelo://app?vid=19afb79e-70a4-400d-a897-a776e598edb8","ios":"levelo://app?vid=19afb79e-70a4-400d-a897-a776e598edb8"},"vehicle_type_id":"4","last_reported":1716736104,"current_range_meters":8800,"station_id":"ce4bgj92rcd13ifvqbe0","pricing_plan_id":"cebpf4jnsgd1na2vs0mg"},{"bike_id":"39a84f70-87bc-4e95-bca1-b65c8953097e","system_id":"levelo_inurba_marseille","lat":43.27618,"lon":5.361009,"is_reserved":false,"is_disabled":false,"rental_uris":{"android":"levelo://app?vid=39a84f70-87bc-4e95-bca1-b65c8953097e","ios":"levelo://app?vid=39a84f70-87bc-4e95-bca1-b65c8953097e"},"vehicle_type_id":"4","last_reported":1716736104,"current_range_meters":6400,"station_id":"ce4bgj92rcd13ifvqbe0","pricing_plan_id":"cebpf4jnsgd1na2vs0mg"},{"bike_id":"efbfef74-ea48-42df-8a7c-7ba4424d4cc0","system_id":"levelo_inurba_marseille","lat":43.27618,"lon":5.361009,"is_reserved":false,"is_disabled":false,"rental_uris":{"android":"levelo://app?vid=efbfef74-ea48-42df-8a7c-7ba4424d4cc0","ios":"levelo://app?vid=efbfef74-ea48-42df-8a7c-7ba4424d4cc0"},"vehicle_type_id":"4","last_reported":1716736104,"current_range_meters":28400,"station_id":"ce4bgj92rcd13ifvqbe0","pricing_plan_id":"cebpf4jnsgd1na2vs0mg"},{"bike_id":"0eca7b54-be9a-4b7c-abdc-0835ed98c9d2","system_id":"levelo_inurba_marseille","lat":43.27618,"lon":5.361009,"is_reserved":false,"is_disabled":false,"rental_uris":{"android":"levelo://app?vid=0eca7b54-be9a-4b7c-abdc-0835ed98c9d2","ios":"levelo://app?vid=0eca7b54-be9a-4b7c-abdc-0835ed98c9d2"},"vehicle_type_id":"4","last_reported":1716736104,"current_range_meters":6400,"station_id":"ce4bgj92rcd13ifvqbe0","pricing_plan_id":"cebpf4jnsgd1na2vs0mg"},{"bike_id":"f36c72f8-499f-45a3-aff7-aa8e9a8c9979","system_id":"levelo_inurba_marseille","lat":43.276179,"lon":5.361009,"is_reserved":false,"is_disabled":false,"rental_uris":{"android":"levelo://app?vid=f36c72f8-499f-45a3-aff7-aa8e9a8c9979","ios":"levelo://app?vid=f36c72f8-499f-45a3-aff7-aa8e9a8c9979"},"vehicle_type_id":"4","last_reported":1716736104,"current_range_meters":27200,"station_id":"ce4bgj92rcd13ifvqbe0","pricing_plan_id":"cebpf4jnsgd1na2vs0mg"},{"bike_id":"f35dc35e-e800-444b-b003-3c0a63da2d5b","system_id":"levelo_inurba_marseille","lat":43.27615,"lon":5.36121,"is_reserved":false,"is_disabled":false,"rental_uris":{"android":"levelo://app?vid=f35dc35e-e800-444b-b003-3c0a63da2d5b","ios":"levelo://app?vid=f35dc35e-e800-444b-b003-3c0a63da2d5b"},"vehicle_type_id":"4","last_reported":1716736104,"current_range_meters":4400,"station_id":"ce4bgj92rcd13ifvqbe0","pricing_plan_id":"cebpf4jnsgd1na2vs0mg"},{"bike_id":"7a268dce-9be2-431a-ad25-d2f49e155b1a","system_id":"levelo_inurba_marseille","lat":43.276179,"lon":5.361009,"is_reserved":false,"is_disabled":false,"rental_uris":{"android":"levelo://app?vid=7a268dce-9be2-431a-ad25-d2f49e155b1a","ios":"levelo://app?vid=7a268dce-9be2-431a-ad25-d2f49e155b1a"},"vehicle_type_id":"4","last_reported":1716736104,"current_range_meters":30800,"station_id":"ce4bgj92rcd13ifvqbe0","pricing_plan_id":"cebpf4jnsgd1na2vs0mg"},{"bike_id":"e82bd7bd-462b-4aeb-9e91-c2597f6d3586","system_id":"levelo_inurba_marseille","lat":43.276179,"lon":5.361009,"is_reserved":false,"is_disabled":false,"rental_uris":{"android":"levelo://app?vid=e82bd7bd-462b-4aeb-9e91-c2597f6d3586","ios":"levelo://app?vid=e82bd7bd-462b-4aeb-9e91-c2597f6d3586"},"vehicle_type_id":"4","last_reported":1716736104,"current_range_meters":23200,"station_id":"ce4bgj92rcd13ifvqbe0","pricing_plan_id":"cebpf4jnsgd1na2vs0mg"},{"bike_id":"ebc09f92-0b86-4279-a9f4-090081bbf7ce","system_id":"levelo_inurba_marseille","lat":43.295279,"lon":5.375048,"is_reserved":false,"is_disabled":false,"rental_uris":{"android":"levelo://app?vid=ebc09f92-0b86-4279-a9f4-090081bbf7ce","ios":"levelo://app?vid=ebc09f92-0b86-4279-a9f4-090081bbf7ce"},"vehicle_type_id":"4","last_reported":1716736104,"current_range_meters":26400,"station_id":"ce4bgkp2rcd13ifvqbmg","pricing_plan_id":"cebpf4jnsgd1na2vs0mg"},{"bike_id":"cc579d46-9314-4705-a40d-88273c81b8bb","system_id":"levelo_inurba_marseille","lat":43.276179,"lon":5.361009,"is_reserved":false,"is_disabled":false,"rental_uris":{"android":"levelo://app?vid=cc579d46-9314-4705-a40d-88273c81b8bb","ios":"levelo://app?vid=cc579d46-9314-4705-a40d-88273c81b8bb"},"vehicle_type_id":"4","last_reported":1716736104,"current_range_meters":0,"station_id":"ce4bgj92rcd13ifvqbe0","pricing_plan_id":"cebpf4jnsgd1na2vs0mg"},{"bike_id":"c0e7db95-06ae-421a-bb19-11d829d832c8","system_id":"levelo_inurba_marseille","lat":43.280784,"lon":5.396622,"is_reserved":false,"is_disabled":false,"rental_uris":{"android":"levelo://app?vid=c0e7db95-06ae-421a-bb19-11d829d832c8","ios":"levelo://app?vid=c0e7db95-06ae-421a-bb19-11d829d832c8"},"vehicle_type_id":"4","last_reported":1716736104,"current_range_meters":11600,"station_id":"ce4bho12rcd13ifvqh2g","pricing_plan_id":"cebpf4jnsgd1na2vs0mg"},{"bike_id":"84ce550e-a877-4490-8454-d054ac5b9d50","system_id":"levelo_inurba_marseille","lat":43.280784,"lon":5.396622,"is_reserved":false,"is_disabled":false,"rental_uris":{"android":"levelo://app?vid=84ce550e-a877-4490-8454-d054ac5b9d50","ios":"levelo://app?vid=84ce550e-a877-4490-8454-d054ac5b9d50"},"vehicle_type_id":"4","last_reported":1716736104,"current_range_meters":2000,"station_id":"ce4bho12rcd13ifvqh2g","pricing_plan_id":"cebpf4jnsgd1na2vs0mg"},{"bike_id":"207c5dfc-0934-4d0f-9132-a3f06b170a2d","system_id":"levelo_inurba_marseille","lat":43.280784,"lon":5.396622,"is_reserved":false,"is_disabled":false,"rental_uris":{"android":"levelo://app?vid=207c5dfc-0934-4d0f-9132-a3f06b170a2d","ios":"levelo://app?vid=207c5dfc-0934-4d0f-9132-a3f06b170a2d"},"vehicle_type_id":"4","last_reported":1716736104,"current_range_meters":14400,"station_id":"ce4bho12rcd13ifvqh2g","pricing_plan_id":"cebpf4jnsgd1na2vs0mg"},{"bike_id":"069ac703-667b-46ed-b857-faf8416d66d2","system_id":"levelo_inurba_marseille","lat":43.274018,"lon":5.362174,"is_reserved":false,"is_disabled":false,"rental_uris":{"android":"levelo://app?vid=069ac703-667b-46ed-b857-faf8416d66d2","ios":"levelo://app?vid=069ac703-667b-46ed-b857-faf8416d66d2"},"vehicle_type_id":"4","last_reported":1716736104,"current_range_meters":3600,"station_id":"ce4bhbh2rcd13ifvqeo0","pricing_plan_id":"cebpf4jnsgd1na2vs0mg"},{"bike_id":"3a648067-5ab3-4ebf-962f-c17f885313ae","system_id":"levelo_inurba_marseille","lat":43.27385,"lon":5.36263,"is_reserved":false,"is_disabled":false,"rental_uris":{"android":"levelo://app?vid=3a648067-5ab3-4ebf-962f-c17f885313ae","ios":"levelo://app?vid=3a648067-5ab3-4ebf-962f-c17f885313ae"},"vehicle_type_id":"4","last_reported":1716736104,"current_range_meters":4400,"station_id":"ce4bhbh2rcd13ifvqeo0","pricing_plan_id":"cebpf4jnsgd1na2vs0mg"},{"bike_id":"c4419aca-7332-4c7f-b2fd-da43bb6d71f4","system_id":"levelo_inurba_marseille","lat":43.27384,"lon":5.36259,"is_reserved":false,"is_disabled":false,"rental_uris":{"android":"levelo://app?vid=c4419aca-7332-4c7f-b2fd-da43bb6d71f4","ios":"levelo://app?vid=c4419aca-7332-4c7f-b2fd-da43bb6d71f4"},"vehicle_type_id":"4","last_reported":1716736104,"current_range_meters":8800,"station_id":"ce4bhbh2rcd13ifvqeo0","pricing_plan_id":"cebpf4jnsgd1na2vs0mg"},{"bike_id":"d9581ba2-4106-4003-9d56-c26759664fb0","system_id":"levelo_inurba_marseille","lat":43.27384,"lon":5.36253,"is_reserved":false,"is_disabled":false,"rental_uris":{"android":"levelo://app?vid=d9581ba2-4106-4003-9d56-c26759664fb0","ios":"levelo://app?vid=d9581ba2-4106-4003-9d56-c26759664fb0"},"vehicle_type_id":"4","last_reported":1716736104,"current_range_meters":8800,"station_id":"ce4bhbh2rcd13ifvqeo0","pricing_plan_id":"cebpf4jnsgd1na2vs0mg"},{"bike_id":"f4cc6c0e-e1dc-46a9-b49d-0aab8b6bc9ca","system_id":"levelo_inurba_marseille","lat":43.27383,"lon":5.36256,"is_reserved":false,"is_disabled":false,"rental_uris":{"android":"levelo://app?vid=f4cc6c0e-e1dc-46a9-b49d-0aab8b6bc9ca","ios":"levelo://app?vid=f4cc6c0e-e1dc-46a9-b49d-0aab8b6bc9ca"},"vehicle_type_id":"4","last_reported":1716736104,"current_range_meters":0,"station_id":"ce4bhbh2rcd13ifvqeo0","pricing_plan_id":"cebpf4jnsgd1na2vs0mg"},