{"last_updated":1726009706,"ttl":30,"version":"2.2","data":{"bikes":[{"bike_id":"61ec69dc-0887-45a0-9a18-564e7d706b0b","system_id":"levelo_inurba_marseille","lat":43.24083,"lon":5.3774,"is_reserved":false,"is_disabled":false,"rental_uris":{"android":"levelo://app?vid=61ec69dc-0887-45a0-9a18-564e7d706b0b","ios":"levelo://app?vid=61ec69dc-0887-45a0-9a18-564e7d706b0b"},"vehicle_type_id":"4","last_reported":1726009706,"current_range_meters":30800,"station_id":"ce4bhnp2rcd13ifvqgvg","pricing_plan_id":"cebpf4jnsgd1na2vs0mg"},{"bike_id":"86102a50-ccab-4015-8475-8708efffc18e","system_id":"levelo_inurba_marseille","lat":43.3,"lon":5.37171,"is_reserved":false,"is_disabled":false,"rental_uris":{"android":"levelo://app?vid=86102a50-ccab-4015-8475-8708efffc18e","ios":"levelo://app?vid=86102a50-ccab-4015-8475-8708efffc18e"},"vehicle_type_id":"4","last_reported":1726009706,"current_range_meters":40000,"station_id":"ce4bgr92rcd13ifvqc7g","pricing_plan_id":"cebpf4jnsgd1na2vs0mg"},{"bike_id":"ef771e48-7aea-4844-b90f-fe7b15088138","system_id":"levelo_inurba_marseille","lat":43.30931,"lon":5.40155,"is_reserved":false,"is_disabled":false,"rental_uris":{"android":"levelo://app?vid=ef771e48-7aea-4844-b90f-fe7b15088138","ios":"levelo://app?vid=ef771e48-7aea-4844-b90f-fe7b15088138"},"vehicle_type_id":"4","last_reported":1726009706,"current_range_meters":17200,"station_id":"ce4bgvp2rcd13ifvqct0","pricing_plan_id":"cebpf4jnsgd1na2vs0mg"},{"bike_id":"deb946a8-ccc7-48a3-a464-79c8b8dd0d59","system_id":"levelo_inurba_marseille","lat":43.27904,"lon":5.38003,"is_reserved":false,"is_disabled":false,"rental_uris":{"android":"levelo://app?vid=deb946a8-ccc7-48a3-a464-79c8b8dd0d59","ios":"levelo://app?vid=deb946a8-ccc7-48a3-a464-79c8b8dd0d59"},"vehicle_type_id":"4","last_reported":1726009706,"current_range_meters":33600,"station_id":"ce4bhf92rcd13ifvqf50","pricing_plan_id":"cebpf4jnsgd1na2vs0mg"},{"bike_id":"5288901a-aba0-4ca7-94a4-63b3e7775d26","system_id":"levelo_inurba_marseille","lat":43.28566,"lon":5.39497,"is_reserved":false,"is_disabled":false,"rental_uris":{"android":"levelo://app?vid=5288901a-aba0-4ca7-94a4-63b3e7775d26","ios":"levelo://app?vid=5288901a-aba0-4ca7-94a4-63b3e7775d26"},"vehicle_type_id":"4","last_reported":1726009706,"current_range_meters":17200,"station_id":"ce4bh292rcd13ifvqdg0","pricing_plan_id":"cebpf4jnsgd1na2vs0mg"},{"bike_id":"8baf78c1-8fc6-48c8-84a2-7b5ce34657ff","system_id":"levelo_inurba_marseille","lat":43.31356,"lon":5.38506,"is_reserved":false,"is_disabled":false,"rental_uris":{"android":"levelo://app?vid=8baf78c1-8fc6-48c8-84a2-7b5ce34657ff","ios":"levelo://app?vid=8baf78c1-8fc6-48c8-84a2-7b5ce34657ff"},"vehicle_type_id":"4","last_reported":1726009706,"current_range_meters":39200,"station_id":"ce4bgt92rcd13ifvqcf0","pricing_plan_id":"cebpf4jnsgd1na2vs0mg"},{"bike_id":"75393497-65b6-4a6b-9298-52e1b1c5da40","system_id":"levelo_inurba_marseille","lat":43.29006,"lon":5.35614,"is_reserved":false,"is_disabled":false,"rental_uris":{"android":"levelo://app?vid=75393497-65b6-4a6b-9298-52e1b1c5da40","ios":"levelo://app?vid=75393497-65b6-4a6b-9298-52e1b1c5da40"},"vehicle_type_id":"4","last_reported":1726009706,"current_range_meters":16000,"station_id":"ce4bhb92rcd13ifvqen0","pricing_plan_id":"cebpf4jnsgd1na2vs0mg"},{"bike_id":"77b08259-ff35-4ccb-bc71-d2587aced461","system_id":"levelo_inurba_marseille","lat":43.28705,"lon":5.39983,"is_reserved":false,"is_disabled":false,"rental_uris":{"android":"levelo://app?vid=77b08259-ff35-4ccb-bc71-d2587aced461","ios":"levelo://app?vid=77b08259-ff35-4ccb-bc71-d2587aced461"},"vehicle_type_id":"4","last_reported":1726009706,"current_range_meters":18800,"station_id":"ce4bho92rcd13ifvqh3g","pricing_plan_id":"cebpf4jnsgd1na2vs0mg"},{"bike_id":"d8b57cb2-12a2-4579-ae30-944dfcd391ab","system_id":"levelo_inurba_marseille","lat":43.27957,"lon":5.38688,"is_reserved":false,"is_disabled":false,"rental_uris":{"android":"levelo://app?vid=d8b57cb2-12a2-4579-ae30-944dfcd391ab","ios":"levelo://app?vid=d8b57cb2-12a2-4579-ae30-944dfcd391ab"},"vehicle_type_id":"4","last_reported":1726009706,"current_range_meters":38800,"station_id":"ce4bhg12rcd13ifvqf80","pricing_plan_id":"cebpf4jnsgd1na2vs0mg"},{"bike_id":"343f8a7b-c84d-46f3-98b4-8253eb0833f1","system_id":"levelo_inurba_marseille","lat":43.29557,"lon":5.42289,"is_reserved":false,"is_disabled":false,"rental_uris":{"android":"levelo://app?vid=343f8a7b-c84d-46f3-98b4-8253eb0833f1","ios":"levelo://app?vid=343f8a7b-c84d-46f3-98b4-8253eb0833f1"},"vehicle_type_id":"4","last_reported":1726009706,"current_range_meters":9200,"station_id":"ce4bhph2rcd13ifvqhdg","pricing_plan_id":"cebpf4jnsgd1na2vs0mg"},{"bike_id":"95e7fdc8-bf5f-4f9c-aaac-a84bae7d977c","system_id":"levelo_inurba_marseille","lat":43.27073,"lon":5.42285,"is_reserved":false,"is_disabled":false,"rental_uris":{"android":"levelo://app?vid=95e7fdc8-bf5f-4f9c-aaac-a84bae7d977c","ios":"levelo://app?vid=95e7fdc8-bf5f-4f9c-aaac-a84bae7d977c"},"vehicle_type_id":"4","last_reported":1726009706,"current_range_meters":37600,"station_id":"ce4bhk92rcd13ifvqgb0","pricing_plan_id":"cebpf4jnsgd1na2vs0mg"},{"bike_id":"78054356-4338-4146-aaaf-276542d49459","system_id":"levelo_inurba_marseille","lat":43.29518,"lon":5.3904,"is_reserved":false,"is_disabled":false,"rental_uris":{"android":"levelo://app?vid=78054356-4338-4146-aaaf-276542d49459","ios":"levelo://app?vid=78054356-4338-4146-aaaf-276542d49459"},"vehicle_type_id":"4","last_reported":1726009706,"current_range_meters":38800,"station_id":"ce4bh3p2rcd13ifvqdp0","pricing_plan_id":"cebpf4jnsgd1na2vs0mg"},{"bike_id":"d656b94f-9caa-4640-9471-f2b11ca2d505","system_id":"levelo_inurba_marseille","lat":43.3065,"lon":5.40084,"is_reserved":false,"is_disabled":false,"rental_uris":{"android":"levelo://app?vid=d656b94f-9caa-4640-9471-f2b11ca2d505","ios":"levelo://app?vid=d656b94f-9caa-4640-9471-f2b11ca2d505"},"vehicle_type_id":"4","last_reported":1726009706,"current_range_meters":19200,"station_id":"ce4bh112rcd13ifvqda0","pricing_plan_id":"cebpf4jnsgd1na2vs0mg"},{"bike_id":"12823208-bcd3-4331-b276-40f779f488aa","system_id":"levelo_inurba_marseille","lat":43.2319,"lon":5.39992,"is_reserved":false,"is_disabled":false,"rental_uris":{"android":"levelo://app?vid=12823208-bcd3-4331-b276-40f779f488aa","ios":"levelo://app?vid=12823208-bcd3-4331-b276-40f779f488aa"},"vehicle_type_id":"4","last_reported":1726009706,"current_range_meters":29600,"station_id":"ce4bhn12rcd13ifvqgqg","pricing_plan_id":"cebpf4jnsgd1na2vs0mg"},{"bike_id":"f77b6edf-4f4e-456a-b368-b0e97438044f","system_id":"levelo_inurba_marseille","lat":43.291,"lon":5.38136,"is_reserved":false,"is_disabled":false,"rental_uris":{"android":"levelo://app?vid=f77b6edf-4f4e-456a-b368-b0e97438044f","ios":"levelo://app?vid=f77b6edf-4f4e-456a-b368-b0e97438044f"},"vehicle_type_id":"4","last_reported":1726009706,"current_range_meters":35600,"station_id":"ce4bh512rcd13ifvqe2g","pricing_plan_id":"cebpf4jnsgd1na2vs0mg"},{"bike_id":"f34747ce-f309-4326-987e-7bc67d09e8c3","system_id":"levelo_inurba_marseille","lat":43.32304,"lon":5.38273,"is_reserved":false,"is_disabled":false,"rental_uris":{"android":"levelo://app?vid=f34747ce-f309-4326-987e-7bc67d09e8c3","ios":"levelo://app?vid=f34747ce-f309-4326-987e-7bc67d09e8c3"},"vehicle_type_id":"4","last_reported":1726009706,"current_range_meters":39200,"station_id":"ce4bhr12rcd13ifvqhqg","pricing_plan_id":"cebpf4jnsgd1na2vs0mg"},{"bike_id":"74e38dcf-51b9-4eee-8a4c-cf09a9417a90","system_id":"levelo_inurba_marseille","lat":43.31326,"lon":5.39697,"is_reserved":false,"is_disabled":false,"rental_uris":{"android":"levelo://app?vid=74e38dcf-51b9-4eee-8a4c-cf09a9417a90","ios":"levelo://app?vid=74e38dcf-51b9-4eee-8a4c-cf09a9417a90"},"vehicle_type_id":"4","last_reported":1726009706,"current_range_meters":38800,"station_id":"ce4bgvp2rcd13ifvqcu0","pricing_plan_id":"cebpf4jnsgd1na2vs0mg"},{"bike_id":"962bb7a3-05a7-49bc-9a49-5d193216f960","system_id":"levelo_inurba_marseille","lat":43.31759,"lon":5.3902,"is_reserved":false,"is_disabled":false,"rental_uris":{"android":"levelo://app?vid=962bb7a3-05a7-49bc-9a49-5d193216f960","ios":"levelo://app?vid=962bb7a3-05a7-49bc-9a49-5d193216f960"},"vehicle_type_id":"4","last_reported":1726009706,"current_range_meters":28000,"station_id":"ce4bhqp2rcd13ifvqhng","pricing_plan_id":"cebpf4jnsgd1na2vs0mg"},{"bike_id":"b0c418e3-7076-4b48-86c9-8b078567e702","system_id":"levelo_inurba_marseille","lat":43.24089,"lon":5.37742,"is_reserved":false,"is_disabled":false,"rental_uris":{"android":"levelo://app?vid=b0c418e3-7076-4b48-86c9-8b078567e702","ios":"levelo://app?vid=b0c418e3-7076-4b48-86c9-8b078567e702"},"vehicle_type_id":"4","last_reported":1726009706,"current_range_meters":28000,"station_id":"ce4bhnp2rcd13ifvqgvg","pricing_plan_id":"cebpf4jnsgd1na2vs0mg"},{"bike_id":"ad5debd7-3e1e-4e58-90c2-90bc3f69340e","system_id":"levelo_inurba_marseille","lat":43.34134,"lon":5.40903,"is_reserved":false,"is_disabled":false,"rental_uris":{"android":"levelo://app?vid=ad5debd7-3e1e-4e58-90c2-90bc3f69340e","ios":"levelo://app?vid=ad5debd7-3e1e-4e58-90c2-90bc3f69340e"},"vehicle_type_id":"4","last_reported":1726009706,"current_range_meters":34000,"station_id":"ce4bhqh2rcd13ifvqhlg","pricing_plan_id":"cebpf4jnsgd1na2vs0mg"},{"bike_id":"949f7510-6250-4b40-8486-a9f5d5463786","system_id":"levelo_inurba_marseille","lat":43.31266,"lon":5.40172,"is_reserved":false,"is_disabled":false,"rental_uris":{"android":"levelo://app?vid=949f7510-6250-4b40-8486-a9f5d5463786","ios":"levelo://app?vid=949f7510-6250-4b40-8486-a9f5d5463786"},"vehicle_type_id":"4","last_reported":1726009706,"current_range_meters":38800,"station_id":"ce4bh092rcd13ifvqd30","pricing_plan_id":"cebpf4jnsgd1na2vs0mg"},{"bike_id":"8bc840be-c7ee-40e7-828f-da64295edd12","system_id":"levelo_inurba_marseille","lat":43.30804,"lon":5.38145,"is_reserved":false,"is_disabled":false,"rental_uris":{"android":"levelo://app?vid=8bc840be-c7ee-40e7-828f-da64295edd12","ios":"levelo://app?vid=8bc840be-c7ee-40e7-828f-da64295edd12"},"vehicle_type_id":"4","last_reported":1726009706,"current_range_meters":33600,"station_id":"ce4bgt12rcd13ifvqce0","pricing_plan_id":"cebpf4jnsgd1na2vs0mg"},{"bike_id":"484884b1-3e16-4da0-8d3d-8e95f9d53680","system_id":"levelo_inurba_marseille","lat":43.31062,"lon":5.38357,"is_reserved":false,"is_disabled":false,"rental_uris":{"android":"levelo://app?vid=484884b1-3e16-4da0-8d3d-8e95f9d53680","ios":"levelo://app?vid=484884b1-3e16-4da0-8d3d-8e95f9d53680"},"vehicle_type_id":"4","last_reported":1726009706,"current_range_meters":20000,"station_id":"ce4bgv92rcd13ifvqcr0","pricing_plan_id":"cebpf4jnsgd1na2vs0mg"},{"bike_id":"18f3ab7b-c460-47bb-8f38-25584aa43b59","system_id":"levelo_inurba_marseille","lat":43.3042,"lon":5.38896,"is_reserved":false,"is_disabled":false,"rental_uris":{"android":"levelo://app?vid=18f3ab7b-c460-47bb-8f38-25584aa43b59","ios":"levelo://app?vid=18f3ab7b-c460-47bb-8f38-25584aa43b59"},"vehicle_type_id":"4","last_reported":1726009706,"current_range_meters":15200,"station_id":"ce4bgk12rcd13ifvqbi0","pricing_plan_id":"cebpf4jnsgd1na2vs0mg"},{"bike_id":"8f225280-6721-4068-b94d-f4ee100a572a","system_id":"levelo_inurba_marseille","lat":43.24546,"lon":5.39528,"is_reserved":false,"is_disabled":false,"rental_uris":{"android":"levelo://app?vid=8f225280-6721-4068-b94d-f4ee100a572a","ios":"levelo://app?vid=8f225280-6721-4068-b94d-f4ee100a572a"},"vehicle_type_id":"4","last_reported":1726009706,"current_range_meters":35200,"station_id":"ce4bhlp2rcd13ifvqgjg","pricing_plan_id":"cebpf4jnsgd1na2vs0mg"},{"bike_id":"ee4607c9-6955-4e13-b7d5-aec07ce4d086","system_id":"levelo_inurba_marseille","lat":43.31697,"lon":5.40476,"is_reserved":false,"is_disabled":false,"rental_uris":{"android":"levelo://app?vid=ee4607c9-6955-4e13-b7d5-aec07ce4d086","ios":"levelo://app?vid=ee4607c9-6955-4e13-b7d5-aec07ce4d086"},"vehicle_type_id":"4","last_reported":1726009706,"current_range_meters":16400,"station_id":"ce4bh012rcd13ifvqd00","pricing_plan_id":"cebpf4jnsgd1na2vs0mg"},{"bike_id":"24f8399c-3f6b-4afe-b89d-f716cc994be8","system_id":"levelo_inurba_marseille","lat":43.28449,"lon":5.35888,"is_reserved":false,"is_disabled":false,"rental_uris":{"android":"levelo://app?vid=24f8399c-3f6b-4afe-b89d-f716cc994be8","ios":"levelo://app?vid=24f8399c-3f6b-4afe-b89d-f716cc994be8"},"vehicle_type_id":"4","last_reported":1726009706,"current_range_meters":38000,"station_id":"ce4bhah2rcd13ifvqei0","pricing_plan_id":"cebpf4jnsgd1na2vs0mg"},{"bike_id":"a5378d9e-ab88-4132-955c-51d09adec59d","system_id":"levelo_inurba_marseille","lat":43.28036,"lon":5.36945,"is_reserved":false,"is_disabled":false,"rental_uris":{"android":"levelo://app?vid=a5378d9e-ab88-4132-955c-51d09adec59d","ios":"levelo://app?vid=a5378d9e-ab88-4132-955c-51d09adec59d"},"vehicle_type_id":"4","last_reported":1726009706,"current_range_meters":36800,"station_id":"ce4bha12rcd13ifvqef0","pricing_plan_id":"cebpf4jnsgd1na2vs0mg"},{"bike_id":"77cb9076-bd27-4d0e-b4cb-72e09d2228d9","system_id":"levelo_inurba_marseille","lat":43.30804,"lon":5.43525,"is_reserved":false,"is_disabled":false,"rental_uris":{"android":"levelo://app?vid=77cb9076-bd27-4d0e-b4cb-72e09d2228d9","ios":"levelo://app?vid=77cb9076-bd27-4d0e-b4cb-72e09d2228d9"},"vehicle_type_id":"4","last_reported":1726009706,"current_range_meters":38800,"station_id":"ce4bhph2rcd13ifvqheg","pricing_plan_id":"cebpf4jnsgd1na2vs0mg"},{"bike_id":"79c048a7-5de8-4f6b-a4ee-caa7e8248925","system_id":"levelo_inurba_marseille","lat":43.24072,"lon":5.37764,"is_reserved":false,"is_disabled":false,"rental_uris":{"android":"levelo://app?vid=79c048a7-5de8-4f6b-a4ee-caa7e8248925","ios":"levelo://app?vid=79c048a7-5de8-4f6b-a4ee-caa7e8248925"},"vehicle_type_id":"4","last_reported":1726009706,"current_range_meters":24000,"station_id":"ce4bhnp2rcd13ifvqgvg","pricing_plan_id":"cebpf4jnsgd1na2vs0mg"},{"bike_id":"6c02a711-e0d4-4009-9d44-fba5428f55b2","system_id":"levelo_inurba_marseille","lat":43.23193,"lon":5.35557,"is_reserved":false,"is_disabled":false,"rental_uris":{"android":"levelo://app?vid=6c02a711-e0d4-4009-9d44-fba5428f55b2","ios":"levelo://app?vid=6c02a711-e0d4-4009-9d44-fba5428f55b2"},"vehicle_type_id":"4","last_reported":1726009706,"current_range_meters":6800,"station_id":"ce4bhu92rcd13ifvqi70","pricing_plan_id":"cebpf4jnsgd1na2vs0mg"},{"bike_id":"a2e58725-2eed-48e6-99e1-3f6acbd0f5a6","system_id":"levelo_inurba_marseille","lat":43.31117,"lon":5.3777,"is_reserved":false,"is_disabled":false,"rental_uris":{"android":"levelo://app?vid=a2e58725-2eed-48e6-99e1-3f6acbd0f5a6","ios":"levelo://app?vid=a2e58725-2eed-48e6-99e1-3f6acbd0f5a6"},"vehicle_type_id":"4","last_reported":1726009706,"current_range_meters":37600,"station_id":"ce4bgt92rcd13ifvqcg0","pricing_plan_id":"cebpf4jnsgd1na2vs0mg"},{"bike_id":"609573c2-0281-4a8c-9978-1b2685212ad4","system_id":"levelo_inurba_marseille","lat":43.28706,"lon":5.37381,"is_reserved":false,"is_disabled":false,"rental_uris":{"android":"levelo://app?vid=609573c2-0281-4a8c-9978-1b2685212ad4","ios":"levelo://app?vid=609573c2-0281-4a8c-9978-1b2685212ad4"},"vehicle_type_id":"4","last_reported":1726009706,"current_range_meters":5600,"station_id":"ce4bh3p2rcd13ifvqdq0","pricing_plan_id":"cebpf4jnsgd1na2vs0mg"},{"bike_id":"c0f333b1-af44-43d2-8392-3aeea3a74311","system_id":"levelo_inurba_marseille","lat":43.30927,"lon":5.40151,"is_reserved":false,"is_disabled":false,"rental_uris":{"android":"levelo://app?vid=c0f333b1-af44-43d2-8392-3aeea3a74311","ios":"levelo://app?vid=c0f333b1-af44-43d2-8392-3aeea3a74311"},"vehicle_type_id":"4","last_reported":1726009706,"current_range_meters":38800,"station_id":"ce4bgvp2rcd13ifvqct0","pricing_plan_id":"cebpf4jnsgd1na2vs0mg"},{"bike_id":"687c1b45-ac94-402b-b9fc-bc877da827a6","system_id":"levelo_inurba_marseille","lat":43.24659,"lon":5.38164,"is_reserved":false,"is_disabled":false,"rental_uris":{"android":"levelo://app?vid=687c1b45-ac94-402b-b9fc-bc877da827a6","ios":"levelo://app?vid=687c1b45-ac94-402b-b9fc-bc877da827a6"},"vehicle_type_id":"4","last_reported":1726009706,"current_range_meters":31200,"station_id":"ce4bhih2rcd13ifvqfr0","pricing_plan_id":"cebpf4jnsgd1na2vs0mg"},{"bike_id":"025fa29d-5cab-4747-a78d-80f6d7ac5f89","system_id":"levelo_inurba_marseille","lat":43.30882,"lon":5.39633,"is_reserved":false,"is_disabled":false,"rental_uris":{"android":"levelo://app?vid=025fa29d-5cab-4747-a78d-80f6d7ac5f89","ios":"levelo://app?vid=025fa29d-5cab-4747-a78d-80f6d7ac5f89"},"vehicle_type_id":"4","last_reported":1726009706,"current_range_meters":38800,"station_id":"ce4bh012rcd13ifvqcv0","pricing_plan_id":"cebpf4jnsgd1na2vs0mg"},{"bike_id":"9e88500d-1735-4ec9-8c31-0839df419195","system_id":"levelo_inurba_marseille","lat":43.27249,"lon":5.39209,"is_reserved":false,"is_disabled":false,"rental_uris":{"android":"levelo://app?vid=9e88500d-1735-4ec9-8c31-0839df419195","ios":"levelo://app?vid=9e88500d-1735-4ec9-8c31-0839df419195"},"vehicle_type_id":"4","last_reported":1726009706,"current_range_meters":24400,"station_id":"ce4bhhp2rcd13ifvqfm0","pricing_plan_id":"cebpf4jnsgd1na2vs0mg"},{"bike_id":"70da1669-6401-4ea2-9560-43be84f01442","system_id":"levelo_inurba_marseille","lat":43.284851,"lon":5.391784,"is_reserved":false,"is_disabled":false,"rental_uris":{"android":"levelo://app?vid=70da1669-6401-4ea2-9560-43be84f01442","ios":"levelo://app?vid=70da1669-6401-4ea2-9560-43be84f01442"},"vehicle_type_id":"4","last_reported":1726009706,"current_range_meters":2800,"station_id":"ce4bhoh2rcd13ifvqh5g","pricing_plan_id":"cebpf4jnsgd1na2vs0mg"},{"bike_id":"c8f8c54d-6d7f-4989-8039-135aa5968337","system_id":"levelo_inurba_marseille","lat":43.30331,"lon":5.40433,"is_reserved":false,"is_disabled":false,"rental_uris":{"android":"levelo://app?vid=c8f8c54d-6d7f-4989-8039-135aa5968337","ios":"levelo://app?vid=c8f8c54d-6d7f-4989-8039-135aa5968337"},"vehicle_type_id":"4","last_reported":1726009706,"current_range_meters":36000,"station_id":"ce4bh012rcd13ifvqd10","pricing_plan_id":"cebpf4jnsgd1na2vs0mg"},{"bike_id":"b59d6bb8-aefb-4db8-b3f2-f169f342ddcd","system_id":"levelo_inurba_marseille","lat":43.32364,"lon":5.38889,"is_reserved":false,"is_disabled":false,"rental_uris":{"android":"levelo://app?vid=b59d6bb8-aefb-4db8-b3f2-f169f342ddcd","ios":"levelo://app?vid=b59d6bb8-aefb-4db8-b3f2-f169f342ddcd"},"vehicle_type_id":"4","last_reported":1726009706,"current_range_meters":6000,"station_id":"ce4bhqp2rcd13ifvqhog","pricing_plan_id":"cebpf4jnsgd1na2vs0mg"},{"bike_id":"9f1b9758-d506-4d74-b3e1-1ed86e2c416a","system_id":"levelo_inurba_marseille","lat":43.29619,"lon":5.37156,"is_reserved":false,"is_disabled":false,"rental_uris":{"android":"levelo://app?vid=9f1b9758-d506-4d74-b3e1-1ed86e2c416a","ios":"levelo://app?vid=9f1b9758-d506-4d74-b3e1-1ed86e2c416a"},"vehicle_type_id":"4","last_reported":1726009706,"current_range_meters":38800,"station_id":"ce4bgnh2rcd13ifvqc0g","pricing_plan_id":"cebpf4jnsgd1na2vs0mg"},{"bike_id":"783428b3-8d12-4df0-9684-836cb2f47e07","system_id":"levelo_inurba_marseille","lat":43.27559,"lon":5.38427,"is_reserved":false,"is_disabled":false,"rental_uris":{"android":"levelo://app?vid=783428b3-8d12-4df0-9684-836cb2f47e07","ios":"levelo://app?vid=783428b3-8d12-4df0-9684-836cb2f47e07"},"vehicle_type_id":"4","last_reported":1726009706,"current_range_meters":39200,"station_id":"ce4bhh92rcd13ifvqfi0","pricing_plan_id":"cebpf4jnsgd1na2vs0mg"},{"bike_id":"3c1219b6-feb0-4ae0-807c-a32a8b70e988","system_id":"levelo_inurba_marseille","lat":43.31538,"lon":5.38034,"is_reserved":false,"is_disabled":false,"rental_uris":{"android":"levelo://app?vid=3c1219b6-feb0-4ae0-807c-a32a8b70e988","ios":"levelo://app?vid=3c1219b6-feb0-4ae0-807c-a32a8b70e988"},"vehicle_type_id":"4","last_reported":1726009706,"current_range_meters":36800,"station_id":"ce4bhsp2rcd13ifvqi50","pricing_plan_id":"cebpf4jnsgd1na2vs0mg"},{"bike_id":"dda4c138-678e-4beb-8c1c-7229be4997a5","system_id":"levelo_inurba_marseille","lat":43.26191,"lon":5.37457,"is_reserved":false,"is_disabled":false,"rental_uris":{"android":"levelo://app?vid=dda4c138-678e-4beb-8c1c-7229be4997a5","ios":"levelo://app?vid=dda4c138-678e-4beb-8c1c-7229be4997a5"},"vehicle_type_id":"4","last_reported":1726009706,"current_range_meters":27200,"station_id":"ce4bhgp2rcd13ifvqfc0","pricing_plan_id":"cebpf4jnsgd1na2vs0mg"},{"bike_id":"082638c5-5449-47b0-a8f1-d12dc77dae1d","system_id":"levelo_inurba_marseille","lat":43.29716,"lon":5.36614,"is_reserved":false,"is_disabled":false,"rental_uris":{"android":"levelo://app?vid=082638c5-5449-47b0-a8f1-d12dc77dae1d","ios":"levelo://app?vid=082638c5-5449-47b0-a8f1-d12dc77dae1d"},"vehicle_type_id":"4","last_reported":1726009706,"current_range_meters":34000,"station_id":"ce4bgn12rcd13ifvqbt0","pricing_plan_id":"cebpf4jnsgd1na2vs0mg"},{"bike_id":"c52fffd4-85f8-4b1a-889e-77132c968666","system_id":"levelo_inurba_marseille","lat":43.28691,"lon":5.39982,"is_reserved":false,"is_disabled":false,"rental_uris":{"android":"levelo://app?vid=c52fffd4-85f8-4b1a-889e-77132c968666","ios":"levelo://app?vid=c52fffd4-85f8-4b1a-889e-77132c968666"},"vehicle_type_id":"4","last_reported":1726009706,"current_range_meters":20400,"station_id":"ce4bho92rcd13ifvqh3g","pricing_plan_id":"cebpf4jnsgd1na2vs0mg"},{"bike_id":"d94cf20d-19e4-4d88-bbb3-72b7a4c6baa3","system_id":"levelo_inurba_marseille","lat":43.32296,"lon":5.38272,"is_reserved":false,"is_disabled":false,"rental_uris":{"android":"levelo://app?vid=d94cf20d-19e4-4d88-bbb3-72b7a4c6baa3","ios":"levelo://app?vid=d94cf20d-19e4-4d88-bbb3-72b7a4c6baa3"},"vehicle_type_id":"4","last_reported":1726009706,"current_range_meters":39200,"station_id":"ce4bhr12rcd13ifvqhqg","pricing_plan_id":"cebpf4jnsgd1na2vs0mg"},{"bike_id":"02eeece1-276b-470d-8a33-7129bd921d31","system_id":"levelo_inurba_marseille","lat":43.30803,"lon":5.4353,"is_reserved":false,"is_disabled":false,"rental_uris":{"android":"levelo://app?vid=02eeece1-276b-470d-8a33-7129bd921d31","ios":"levelo://app?vid=02eeece1-276b-470d-8a33-7129bd921d31"},"vehicle_type_id":"4","last_reported":1726009706,"current_range_meters":27200,"station_id":"ce4bhph2rcd13ifvqheg","pricing_plan_id":"cebpf4jnsgd1na2vs0mg"},{"bike_id":"cc3e6c0c-744c-4f92-a6c7-f3980b7ec1c9","system_id":"levelo_inurba_marseille","lat":43.28471,"lon":5.35881,"is_reserved":false,"is_disabled":false,"rental_uris":{"android":"levelo://app?vid=cc3e6c0c-744c-4f92-a6c7-f3980b7ec1c9","ios":"levelo://app?vid=cc3e6c0c-744c-4f92-a6c7-f3980b7ec1c9"},"vehicle_type_id":"4","last_reported":1726009706,"current_range_meters":8000,"station_id":"ce4bhah2rcd13ifvqei0","pricing_plan_id":"cebpf4jnsgd1na2vs0mg"},{"bike_id":"00ca710c-aa25-453d-b5eb-9286e939dc6d","system_id":"levelo_inurba_marseille","lat":43.29555,"lon":5.42277,"is_reserved":false,"is_disabled":false,"rental_uris":{"android":"levelo://app?vid=00ca710c-aa25-453d-b5eb-9286e939dc6d","ios":"levelo://app?vid=00ca710c-aa25-453d-b5eb-9286e939dc6d"},"vehicle_type_id":"4","last_reported":1726009706,"current_range_meters":33200,"station_id":"ce4bhph2rcd13ifvqhdg","pricing_plan_id":"cebpf4jnsgd1na2vs0mg"},{"bike_id":"a36a6131-7175-4d21-afcf-16a3b952996a","system_id":"levelo_inurba_marseille","lat":43.30828,"lon":5.37667,"is_reserved":false,"is_disabled":false,"rental_uris":{"android":"levelo://app?vid=a36a6131-7175-4d21-afcf-16a3b952996a","ios":"levelo://app?vid=a36a6131-7175-4d21-afcf-16a3b952996a"},"vehicle_type_id":"4","last_reported":1726009706,"current_range_meters":12800,"station_id":"ce4bgv92rcd13ifvqcq0","pricing_plan_id":"cebpf4jnsgd1na2vs0mg"},{"bike_id":"2e23597d-e77d-486c-a95e-6cdb71b1bd53","system_id":"levelo_inurba_marseille","lat":43.32364,"lon":5.3889,"is_reserved":false,"is_disabled":false,"rental_uris":{"android":"levelo://app?vid=2e23597d-e77d-486c-a95e-6cdb71b1bd53","ios":"levelo://app?vid=2e23597d-e77d-486c-a95e-6cdb71b1bd53"},"vehicle_type_id":"4","last_reported":1726009706,"current_range_meters":12000,"station_id":"ce4bhqp2rcd13ifvqhog","pricing_plan_id":"cebpf4jnsgd1na2vs0mg"},{"bike_id":"d878d0a1-9762-4298-8fc9-2f65a826341a","system_id":"levelo_inurba_marseille","lat":43.30957,"lon":5.39051,"is_reserved":false,"is_disabled":false,"rental_uris":{"android":"levelo://app?vid=d878d0a1-9762-4298-8fc9-2f65a826341a","ios":"levelo://app?vid=d878d0a1-9762-4298-8fc9-2f65a826341a"},"vehicle_type_id":"4","last_reported":1726009706,"current_range_meters":12800,"station_id":"ce4bgup2rcd13ifvqco0","pricing_plan_id":"cebpf4jnsgd1na2vs0mg"},{"bike_id":"71e434c8-9251-47ca-88a8-25cb42fcaa66","system_id":"levelo_inurba_marseille","lat":43.27675,"lon":5.38912,"is_reserved":false,"is_disabled":false,"rental_uris":{"android":"levelo://app?vid=71e434c8-9251-47ca-88a8-25cb42fcaa66","ios":"levelo://app?vid=71e434c8-9251-47ca-88a8-25cb42fcaa66"},"vehicle_type_id":"4","last_reported":1726009706,"current_range_meters":38800,"station_id":"ce4bhi12rcd13ifvqfo0","pricing_plan_id":"cebpf4jnsgd1na2vs0mg"},{"bike_id":"6db64dae-937c-4c84-a07e-af2cad8f543f","system_id":"levelo_inurba_marseille","lat":43.30888,"lon":5.39638,"is_reserved":false,"is_disabled":false,"rental_uris":{"android":"levelo://app?vid=6db64dae-937c-4c84-a07e-af2cad8f543f","ios":"levelo://app?vid=6db64dae-937c-4c84-a07e-af2cad8f543f"},"vehicle_type_id":"4","last_reported":1726009706,"current_range_meters":38800,"station_id":"ce4bh012rcd13ifvqcv0","pricing_plan_id":"cebpf4jnsgd1na2vs0mg"},{"bike_id":"af29e765-80ea-48b7-873e-9075e9bf27db","system_id":"levelo_inurba_marseille","lat":43.28055,"lon":5.36953,"is_reserved":false,"is_disabled":false,"rental_uris":{"android":"levelo://app?vid=af29e765-80ea-48b7-873e-9075e9bf27db","ios":"levelo://app?vid=af29e765-80ea-48b7-873e-9075e9bf27db"},"vehicle_type_id":"4","last_reported":1726009706,"current_range_meters":18000,"station_id":"ce4bha12rcd13ifvqef0","pricing_plan_id":"cebpf4jnsgd1na2vs0mg"},{"bike_id":"6ac0385a-09c3-4112-8eb3-5351bb9c2a07","system_id":"levelo_inurba_marseille","lat":43.28461,"lon":5.35894,"is_reserved":false,"is_disabled":false,"rental_uris":{"android":"levelo://app?vid=6ac0385a-09c3-4112-8eb3-5351bb9c2a07","ios":"levelo://app?vid=6ac0385a-09c3-4112-8eb3-5351bb9c2a07"},"vehicle_type_id":"4","last_reported":1726009706,"current_range_meters":39200,"station_id":"ce4bhah2rcd13ifvqei0","pricing_plan_id":"cebpf4jnsgd1na2vs0mg"},{"bike_id":"b77681a4-4ed0-4be8-bbd7-2dc7c4cd333c","system_id":"levelo_inurba_marseille","lat":43.31754,"lon":5.39025,"is_reserved":false,"is_disabled":false,"rental_uris":{"android":"levelo://app?vid=b77681a4-4ed0-4be8-bbd7-2dc7c4cd333c","ios":"levelo://app?vid=b77681a4-4ed0-4be8-bbd7-2dc7c4cd333c"},"vehicle_type_id":"4","last_reported":1726009706,"current_range_meters":31200,"station_id":"ce4bhqp2rcd13ifvqhng","pricing_plan_id":"cebpf4jnsgd1na2vs0mg"},{"bike_id":"52a0f38d-3211-4d2e-b296-7d2f78d43ba6","system_id":"levelo_inurba_marseille","lat":43.27175,"lon":5.40993,"is_reserved":false,"is_disabled":false,"rental_uris":{"android":"levelo://app?vid=52a0f38d-3211-4d2e-b296-7d2f78d43ba6","ios":"levelo://app?vid=52a0f38d-3211-4d2e-b296-7d2f78d43ba6"},"vehicle_type_id":"4","last_reported":1726009706,"current_range_meters":12000,"station_id":"ce4bhl12rcd13ifvqgf0","pricing_plan_id":"cebpf4jnsgd1na2vs0mg"},{"bike_id":"044c6c19-928b-49be-810d-1a1364296b66","system_id":"levelo_inurba_marseille","lat":43.27817,"lon":5.40712,"is_reserved":false,"is_disabled":false,"rental_uris":{"android":"levelo://app?vid=044c6c19-928b-49be-810d-1a1364296b66","ios":"levelo://app?vid=044c6c19-928b-49be-810d-1a1364296b66"},"vehicle_type_id":"4","last_reported":1726009706,"current_range_meters":22000,"station_id":"ce4bhnh2rcd13ifvqgtg","pricing_plan_id":"cebpf4jnsgd1na2vs0mg"},{"bike_id":"7a291b7d-e45a-41df-9723-7a88a66828fe","system_id":"levelo_inurba_marseille","lat":43.25012,"lon":5.38915,"is_reserved":false,"is_disabled":false,"rental_uris":{"android":"levelo://app?vid=7a291b7d-e45a-41df-9723-7a88a66828fe","ios":"levelo://app?vid=7a291b7d-e45a-41df-9723-7a88a66828fe"},"vehicle_type_id":"4","last_reported":1726009706,"current_range_meters":32000,"station_id":"ce4bhgp2rcd13ifvqfd0","pricing_plan_id":"cebpf4jnsgd1na2vs0mg"},{"bike_id":"eefefcc6-11cd-4d33-991c-12b4a6414c9b","system_id":"levelo_inurba_marseille","lat":43.28038,"lon":5.36944,"is_reserved":false,"is_disabled":false,"rental_uris":{"android":"levelo://app?vid=eefefcc6-11cd-4d33-991c-12b4a6414c9b","ios":"levelo://app?vid=eefefcc6-11cd-4d33-991c-12b4a6414c9b"},"vehicle_type_id":"4","last_reported":1726009706,"current_range_meters":38400,"station_id":"ce4bha12rcd13ifvqef0","pricing_plan_id":"cebpf4jnsgd1na2vs0mg"},{"bike_id":"a8c0cf6e-8bb7-4c7d-9562-9d3c928fc141","system_id":"levelo_inurba_marseille","lat":43.25121,"lon":5.40317,"is_reserved":false,"is_disabled":false,"rental_uris":{"android":"levelo://app?vid=a8c0cf6e-8bb7-4c7d-9562-9d3c928fc141","ios":"levelo://app?vid=a8c0cf6e-8bb7-4c7d-9562-9d3c928fc141"},"vehicle_type_id":"4","last_reported":1726009706,"current_range_meters":34800,"station_id":"ce4bhlh2rcd13ifvqgig","pricing_plan_id":"cebpf4jnsgd1na2vs0mg"},{"bike_id":"745a4a92-6575-449a-96df-c38622c66303","system_id":"levelo_inurba_marseille","lat":43.2801,"lon":5.40004,"is_reserved":false,"is_disabled":false,"rental_uris":{"android":"levelo://app?vid=745a4a92-6575-449a-96df-c38622c66303","ios":"levelo://app?vid=745a4a92-6575-449a-96df-c38622c66303"},"vehicle_type_id":"4","last_reported":1726009706,"current_range_meters":20800,"station_id":"ce4bho92rcd13ifvqh4g","pricing_plan_id":"cebpf4jnsgd1na2vs0mg"},{"bike_id":"f1ea8c6f-65c6-4c34-b89c-98dd712d80c3","system_id":"levelo_inurba_marseille","lat":43.24073,"lon":5.37749,"is_reserved":false,"is_disabled":false,"rental_uris":{"android":"levelo://app?vid=f1ea8c6f-65c6-4c34-b89c-98dd712d80c3","ios":"levelo://app?vid=f1ea8c6f-65c6-4c34-b89c-98dd712d80c3"},"vehicle_type_id":"4","last_reported":1726009706,"current_range_meters":23200,"station_id":"ce4bhnp2rcd13ifvqgvg","pricing_plan_id":"cebpf4jnsgd1na2vs0mg"},{"bike_id":"4f5982f3-bfc1-4b72-8596-8b9dabde0888","system_id":"levelo_inurba_marseille","lat":43.28941,"lon":5.39634,"is_reserved":false,"is_disabled":false,"rental_uris":{"android":"levelo://app?vid=4f5982f3-bfc1-4b72-8596-8b9dabde0888","ios":"levelo://app?vid=4f5982f3-bfc1-4b72-8596-8b9dabde0888"},"vehicle_type_id":"4","last_reported":1726009706,"current_range_meters":27600,"station_id":"ce4bh3h2rcd13ifvqdn0","pricing_plan_id":"cebpf4jnsgd1na2vs0mg"},{"bike_id":"b2784c5f-ca5e-45c6-aa33-b75bc60bde41","system_id":"levelo_inurba_marseille","lat":43.2797,"lon":5.38729,"is_reserved":false,"is_disabled":false,"rental_uris":{"android":"levelo://app?vid=b2784c5f-ca5e-45c6-aa33-b75bc60bde41","ios":"levelo://app?vid=b2784c5f-ca5e-45c6-aa33-b75bc60bde41"},"vehicle_type_id":"4","last_reported":1726009706,"current_range_meters":27600,"station_id":"ce4bhg12rcd13ifvqf80","pricing_plan_id":"cebpf4jnsgd1na2vs0mg"},{"bike_id":"0582c2e3-8115-4bc4-8b74-4acd209b970f","system_id":"levelo_inurba_marseille","lat":43.27071,"lon":5.4227,"is_reserved":false,"is_disabled":false,"rental_uris":{"android":"levelo://app?vid=0582c2e3-8115-4bc4-8b74-4acd209b970f","ios":"levelo://app?vid=0582c2e3-8115-4bc4-8b74-4acd209b970f"},"vehicle_type_id":"4","last_reported":1726009706,"current_range_meters":5600,"station_id":"ce4bhk92rcd13ifvqgb0","pricing_plan_id":"cebpf4jnsgd1na2vs0mg"},{"bike_id":"1a0da594-9d57-4523-9b59-5374c2af6a63","system_id":"levelo_inurba_marseille","lat":43.28724,"lon":5.36093,"is_reserved":false,"is_disabled":false,"rental_uris":{"android":"levelo://app?vid=1a0da594-9d57-4523-9b59-5374c2af6a63","ios":"levelo://app?vid=1a0da594-9d57-4523-9b59-5374c2af6a63"},"vehicle_type_id":"4","last_reported":1726009706,"current_range_meters":34800,"station_id":"cki0cbj6b192h4jlfktg","pricing_plan_id":"cebpf4jnsgd1na2vs0mg"},{"bike_id":"cfc4154e-0853-489e-8835-a4d6f4fd8fe1","system_id":"levelo_inurba_marseille","lat":43.27916,"lon":5.3958,"is_reserved":false,"is_disabled":false,"rental_uris":{"android":"levelo://app?vid=cfc4154e-0853-489e-8835-a4d6f4fd8fe1","ios":"levelo://app?vid=cfc4154e-0853-489e-8835-a4d6f4fd8fe1"},"vehicle_type_id":"4","last_reported":1726009706,"current_range_meters":30000,"station_id":"ce4bhf92rcd13ifvqf40","pricing_plan_id":"cebpf4jnsgd1na2vs0mg"},{"bike_id":"b6ca7c93-3645-4508-b52a-3148476bfadf","system_id":"levelo_inurba_marseille","lat":43.27209,"lon":5.39195,"is_reserved":false,"is_disabled":false,"rental_uris":{"android":"levelo://app?vid=b6ca7c93-3645-4508-b52a-3148476bfadf","ios":"levelo://app?vid=b6ca7c93-3645-4508-b52a-3148476bfadf"},"vehicle_type_id":"4","last_reported":1726009706,"current_range_meters":0,"station_id":"ce4bhhp2rcd13ifvqfm0","pricing_plan_id":"cebpf4jnsgd1na2vs0mg"},{"bike_id":"c19b3b06-dd40-414d-8bb5-7da222403898","system_id":"levelo_inurba_marseille","lat":43.33726,"lon":5.39187,"is_reserved":false,"is_disabled":false,"rental_uris":{"android":"levelo://app?vid=c19b3b06-dd40-414d-8bb5-7da222403898","ios":"levelo://app?vid=c19b3b06-dd40-414d-8bb5-7da222403898"},"vehicle_type_id":"4","last_reported":1726009706,"current_range_meters":39200,"station_id":"ce4bhr92rcd13ifvqhsg","pricing_plan_id":"cebpf4jnsgd1na2vs0mg"},{"bike_id":"5d352641-3593-4267-b2f1-8ab039017e05","system_id":"levelo_inurba_marseille","lat":43.23196,"lon":5.35554,"is_reserved":false,"is_disabled":false,"rental_uris":{"android":"levelo://app?vid=5d352641-3593-4267-b2f1-8ab039017e05","ios":"levelo://app?vid=5d352641-3593-4267-b2f1-8ab039017e05"},"vehicle_type_id":"4","last_reported":1726009706,"current_range_meters":37600,"station_id":"ce4bhu92rcd13ifvqi70","pricing_plan_id":"cebpf4jnsgd1na2vs0mg"},{"bike_id":"2ac32525-0517-4db4-9d06-3cf3b6bf5196","system_id":"levelo_inurba_marseille","lat":43.28725,"lon":5.3609,"is_reserved":false,"is_disabled":false,"rental_uris":{"android":"levelo://app?vid=2ac32525-0517-4db4-9d06-3cf3b6bf5196","ios":"levelo://app?vid=2ac32525-0517-4db4-9d06-3cf3b6bf5196"},"vehicle_type_id":"4","last_reported":1726009706,"current_range_meters":17600,"station_id":"cki0cbj6b192h4jlfktg","pricing_plan_id":"cebpf4jnsgd1na2vs0mg"},{"bike_id":"c22bf776-82f1-423d-83f3-ab20051eb388","system_id":"levelo_inurba_marseille","lat":43.33612,"lon":5.41029,"is_reserved":false,"is_disabled":false,"rental_uris":{"android":"levelo://app?vid=c22bf776-82f1-423d-83f3-ab20051eb388","ios":"levelo://app?vid=c22bf776-82f1-423d-83f3-ab20051eb388"},"vehicle_type_id":"4","last_reported":1726009706,"current_range_meters":8000,"station_id":"ce4bhqh2rcd13ifvqhmg","pricing_plan_id":"cebpf4jnsgd1na2vs0mg"},{"bike_id":"56f33b7d-3dd1-47b9-8e89-7082cd537a80","system_id":"levelo_inurba_marseille","lat":43.31713,"lon":5.43709,"is_reserved":false,"is_disabled":false,"rental_uris":{"android":"levelo://app?vid=56f33b7d-3dd1-47b9-8e89-7082cd537a80","ios":"levelo://app?vid=56f33b7d-3dd1-47b9-8e89-7082cd537a80"},"vehicle_type_id":"4","last_reported":1726009706,"current_range_meters":30400,"station_id":"ce4bhp92rcd13ifvqhcg","pricing_plan_id":"cebpf4jnsgd1na2vs0mg"},{"bike_id":"7c28f853-fb94-4dfe-9706-a5dfbefcce5b","system_id":"levelo_inurba_marseille","lat":43.33725,"lon":5.39184,"is_reserved":false,"is_disabled":false,"rental_uris":{"android":"levelo://app?vid=7c28f853-fb94-4dfe-9706-a5dfbefcce5b","ios":"levelo://app?vid=7c28f853-fb94-4dfe-9706-a5dfbefcce5b"},"vehicle_type_id":"4","last_reported":1726009706,"current_range_meters":38800,"station_id":"ce4bhr92rcd13ifvqhsg","pricing_plan_id":"cebpf4jnsgd1na2vs0mg"},{"bike_id":"3e60eaa0-e0b6-44fc-96a5-d9e44486282e","system_id":"levelo_inurba_marseille","lat":43.26204,"lon":5.3793,"is_reserved":false,"is_disabled":false,"rental_uris":{"android":"levelo://app?vid=3e60eaa0-e0b6-44fc-96a5-d9e44486282e","ios":"levelo://app?vid=3e60eaa0-e0b6-44fc-96a5-d9e44486282e"},"vehicle_type_id":"4","last_reported":1726009706,"current_range_meters":35600,"station_id":"ce4bhjp2rcd13ifvqg90","pricing_plan_id":"cebpf4jnsgd1na2vs0mg"},{"bike_id":"9b9547b7-77e2-4c32-9975-f0a65876f133","system_id":"levelo_inurba_marseille","lat":43.28043,"lon":5.36942,"is_reserved":false,"is_disabled":false,"rental_uris":{"android":"levelo://app?vid=9b9547b7-77e2-4c32-9975-f0a65876f133","ios":"levelo://app?vid=9b9547b7-77e2-4c32-9975-f0a65876f133"},"vehicle_type_id":"4","last_reported":1726009706,"current_range_meters":37600,"station_id":"ce4bha12rcd13ifvqef0","pricing_plan_id":"cebpf4jnsgd1na2vs0mg"},{"bike_id":"94c17e5a-4a23-4be2-9a54-b858b8132a8b","system_id":"levelo_inurba_marseille","lat":43.26689,"lon":5.38269,"is_reserved":false,"is_disabled":false,"rental_uris":{"android":"levelo://app?vid=94c17e5a-4a23-4be2-9a54-b858b8132a8b","ios":"levelo://app?vid=94c17e5a-4a23-4be2-9a54-b858b8132a8b"},"vehicle_type_id":"4","last_reported":1726009706,"current_range_meters":32000,"station_id":"ce4bhg92rcd13ifvqf90","pricing_plan_id":"cebpf4jnsgd1na2vs0mg"},{"bike_id":"ee0efcc0-0594-4a83-85d9-439b7eb0d1d1","system_id":"levelo_inurba_marseille","lat":43.2306,"lon":5.35494,"is_reserved":false,"is_disabled":false,"rental_uris":{"android":"levelo://app?vid=ee0efcc0-0594-4a83-85d9-439b7eb0d1d1","ios":"levelo://app?vid=ee0efcc0-0594-4a83-85d9-439b7eb0d1d1"},"vehicle_type_id":"4","last_reported":1726009706,"current_range_meters":38800,"station_id":"cpo3342slgdg3j2ifvpg","pricing_plan_id":"cebpf4jnsgd1na2vs0mg"},{"bike_id":"58fa8a9e-01ad-4b04-8865-49395237833c","system_id":"levelo_inurba_marseille","lat":43.28857,"lon":5.35846,"is_reserved":false,"is_disabled":false,"rental_uris":{"android":"levelo://app?vid=58fa8a9e-01ad-4b04-8865-49395237833c","ios":"levelo://app?vid=58fa8a9e-01ad-4b04-8865-49395237833c"},"vehicle_type_id":"4","last_reported":1726009706,"current_range_meters":16400,"station_id":"ce4bhb12rcd13ifvqem0","pricing_plan_id":"cebpf4jnsgd1na2vs0mg"},{"bike_id":"723c073e-5c6a-4fb9-a382-e8ea44a73076","system_id":"levelo_inurba_marseille","lat":43.29562,"lon":5.42279,"is_reserved":false,"is_disabled":false,"rental_uris":{"android":"levelo://app?vid=723c073e-5c6a-4fb9-a382-e8ea44a73076","ios":"levelo://app?vid=723c073e-5c6a-4fb9-a382-e8ea44a73076"},"vehicle_type_id":"4","last_reported":1726009706,"current_range_meters":32800,"station_id":"ce4bhph2rcd13ifvqhdg","pricing_plan_id":"cebpf4jnsgd1na2vs0mg"},{"bike_id":"2aad4b02-945c-4d35-b3a5-85b3d17dc503","system_id":"levelo_inurba_marseille","lat":43.32301,"lon":5.38269,"is_reserved":false,"is_disabled":false,"rental_uris":{"android":"levelo://app?vid=2aad4b02-945c-4d35-b3a5-85b3d17dc503","ios":"levelo://app?vid=2aad4b02-945c-4d35-b3a5-85b3d17dc503"},"vehicle_type_id":"4","last_reported":1726009706,"current_range_meters":6400,"station_id":"ce4bhr12rcd13ifvqhqg","pricing_plan_id":"cebpf4jnsgd1na2vs0mg"},{"bike_id":"6073408b-b4fc-4eeb-ac9e-351084b1cf63","system_id":"levelo_inurba_marseille","lat":43.24814,"lon":5.37461,"is_reserved":false,"is_disabled":false,"rental_uris":{"android":"levelo://app?vid=6073408b-b4fc-4eeb-ac9e-351084b1cf63","ios":"levelo://app?vid=6073408b-b4fc-4eeb-ac9e-351084b1cf63"},"vehicle_type_id":"4","last_reported":1726009706,"current_range_meters":29600,"station_id":"ce4bhgh2rcd13ifvqfb0","pricing_plan_id":"cebpf4jnsgd1na2vs0mg"},{"bike_id":"b3154663-e456-4f9c-b708-ddf2c310f70e","system_id":"levelo_inurba_marseille","lat":43.28708,"lon":5.37382,"is_reserved":false,"is_disabled":false,"rental_uris":{"android":"levelo://app?vid=b3154663-e456-4f9c-b708-ddf2c310f70e","ios":"levelo://app?vid=b3154663-e456-4f9c-b708-ddf2c310f70e"},"vehicle_type_id":"4","last_reported":1726009706,"current_range_meters":6800,"station_id":"ce4bh3p2rcd13ifvqdq0","pricing_plan_id":"cebpf4jnsgd1na2vs0mg"},{"bike_id":"daaba00f-3008-4d46-b3ae-5d03b02d09cc","system_id":"levelo_inurba_marseille","lat":43.24812,"lon":5.37459,"is_reserved":false,"is_disabled":false,"rental_uris":{"android":"levelo://app?vid=daaba00f-3008-4d46-b3ae-5d03b02d09cc","ios":"levelo://app?vid=daaba00f-3008-4d46-b3ae-5d03b02d09cc"},"vehicle_type_id":"4","last_reported":1726009706,"current_range_meters":36000,"station_id":"ce4bhgh2rcd13ifvqfb0","pricing_plan_id":"cebpf4jnsgd1na2vs0mg"},{"bike_id":"fd8fd5c3-c895-424f-b1bd-3d7f4afb7c7b","system_id":"levelo_inurba_marseille","lat":43.29569,"lon":5.39964,"is_reserved":false,"is_disabled":false,"rental_uris":{"android":"levelo://app?vid=fd8fd5c3-c895-424f-b1bd-3d7f4afb7c7b","ios":"levelo://app?vid=fd8fd5c3-c895-424f-b1bd-3d7f4afb7c7b"},"vehicle_type_id":"4","last_reported":1726009706,"current_range_meters":30400,"station_id":"ce4bh312rcd13ifvqdj0","pricing_plan_id":"cebpf4jnsgd1na2vs0mg"},{"bike_id":"8417734d-cc82-4f59-b4a8-9f32c5168b81","system_id":"levelo_inurba_marseille","lat":43.30802,"lon":5.38161,"is_reserved":false,"is_disabled":false,"rental_uris":{"android":"levelo://app?vid=8417734d-cc82-4f59-b4a8-9f32c5168b81","ios":"levelo://app?vid=8417734d-cc82-4f59-b4a8-9f32c5168b81"},"vehicle_type_id":"4","last_reported":1726009706,"current_range_meters":35200,"station_id":"ce4bgt12rcd13ifvqce0","pricing_plan_id":"cebpf4jnsgd1na2vs0mg"},{"bike_id":"b49ab085-3ec0-4cbf-b51a-8999aa870d44","system_id":"levelo_inurba_marseille","lat":43.30614,"lon":5.37218,"is_reserved":false,"is_disabled":false,"rental_uris":{"android":"levelo://app?vid=b49ab085-3ec0-4cbf-b51a-8999aa870d44","ios":"levelo://app?vid=b49ab085-3ec0-4cbf-b51a-8999aa870d44"},"vehicle_type_id":"4","last_reported":1726009706,"current_range_meters":17200,"station_id":"ce4bgqh2rcd13ifvqc4g","pricing_plan_id":"cebpf4jnsgd1na2vs0mg"},{"bike_id":"6bce3f18-d253-4e66-861f-de72cfa60f24","system_id":"levelo_inurba_marseille","lat":43.26681,"lon":5.38273,"is_reserved":false,"is_disabled":false,"rental_uris":{"android":"levelo://app?vid=6bce3f18-d253-4e66-861f-de72cfa60f24","ios":"levelo://app?vid=6bce3f18-d253-4e66-861f-de72cfa60f24"},"vehicle_type_id":"4","last_reported":1726009706,"current_range_meters":38800,"station_id":"ce4bhg92rcd13ifvqf90","pricing_plan_id":"cebpf4jnsgd1na2vs0mg"},{"bike_id":"f5b792f3-9204-4e48-817b-276580a058b5","system_id":"levelo_inurba_marseille","lat":43.29844,"lon":5.37597,"is_reserved":false,"is_disabled":false,"rental_uris":{"android":"levelo://app?vid=f5b792f3-9204-4e48-817b-276580a058b5","ios":"levelo://app?vid=f5b792f3-9204-4e48-817b-276580a058b5"},"vehicle_type_id":"4","last_reported":1726009706,"current_range_meters":36000,"station_id":"","pricing_plan_id":"cebpf4jnsgd1na2vs0mg"},{"bike_id":"3a5232c5-cc45-44ea-84c3-d1e824e620d9","system_id":"levelo_inurba_marseille","lat":43.31997,"lon":5.3814,"is_reserved":false,"is_disabled":false,"rental_uris":{"android":"levelo://app?vid=3a5232c5-cc45-44ea-84c3-d1e824e620d9","ios":"levelo://app?vid=3a5232c5-cc45-44ea-84c3-d1e824e620d9"},"vehicle_type_id":"4","last_reported":1726009706,"current_range_meters":22400,"station_id":"ce4bhr12rcd13ifvqhpg","pricing_plan_id":"cebpf4jnsgd1na2vs0mg"},{"bike_id":"c4a11cd6-597d-4826-ad55-56b34d91dddb","system_id":"levelo_inurba_marseille","lat":43.24071,"lon":5.3776,"is_reserved":false,"is_disabled":false,"rental_uris":{"android":"levelo://app?vid=c4a11cd6-597d-4826-ad55-56b34d91dddb","ios":"levelo://app?vid=c4a11cd6-597d-4826-ad55-56b34d91dddb"},"vehicle_type_id":"4","last_reported":1726009706,"current_range_meters":14800,"station_id":"ce4bhnp2rcd13ifvqgvg","pricing_plan_id":"cebpf4jnsgd1na2vs0mg"},{"bike_id":"d54594b9-a6b7-4d66-b6dc-634366005ad6","system_id":"levelo_inurba_marseille","lat":43.3149,"lon":5.37308,"is_reserved":false,"is_disabled":false,"rental_uris":{"android":"levelo://app?vid=d54594b9-a6b7-4d66-b6dc-634366005ad6","ios":"levelo://app?vid=d54594b9-a6b7-4d66-b6dc-634366005ad6"},"vehicle_type_id":"4","last_reported":1726009706,"current_range_meters":16800,"station_id":"ce4bgt12rcd13ifvqcd0","pricing_plan_id":"cebpf4jnsgd1na2vs0mg"},{"bike_id":"d479c876-2159-43b6-a8cf-685fded57ab7","system_id":"levelo_inurba_marseille","lat":43.32365,"lon":5.38882,"is_reserved":false,"is_disabled":false,"rental_uris":{"android":"levelo://app?vid=d479c876-2159-43b6-a8cf-685fded57ab7","ios":"levelo://app?vid=d479c876-2159-43b6-a8cf-685fded57ab7"},"vehicle_type_id":"4","last_reported":1726009706,"current_range_meters":8000,"station_id":"ce4bhqp2rcd13ifvqhog","pricing_plan_id":"cebpf4jnsgd1na2vs0mg"},{"bike_id":"b02406c7-9bcc-4f4f-b2a0-db482974a705","system_id":"levelo_inurba_marseille","lat":43.23185,"lon":5.39987,"is_reserved":false,"is_disabled":false,"rental_uris":{"android":"levelo://app?vid=b02406c7-9bcc-4f4f-b2a0-db482974a705","ios":"levelo://app?vid=b02406c7-9bcc-4f4f-b2a0-db482974a705"},"vehicle_type_id":"4","last_reported":1726009706,"current_range_meters":35600,"station_id":"ce4bhn12rcd13ifvqgqg","pricing_plan_id":"cebpf4jnsgd1na2vs0mg"},{"bike_id":"9243f814-3467-4052-af50-9476c660085d","system_id":"levelo_inurba_marseille","lat":43.29849,"lon":5.36276,"is_reserved":false,"is_disabled":false,"rental_uris":{"android":"levelo://app?vid=9243f814-3467-4052-af50-9476c660085d","ios":"levelo://app?vid=9243f814-3467-4052-af50-9476c660085d"},"vehicle_type_id":"4","last_reported":1726009706,"current_range_meters":25200,"station_id":"ce4bgpp2rcd13ifvqc3g","pricing_plan_id":"cebpf4jnsgd1na2vs0mg"},{"bike_id":"502599a9-0fd7-4d67-ab54-668eb8998d53","system_id":"levelo_inurba_marseille","lat":43.28743,"lon":5.36081,"is_reserved":false,"is_disabled":false,"rental_uris":{"android":"levelo://app?vid=502599a9-0fd7-4d67-ab54-668eb8998d53","ios":"levelo://app?vid=502599a9-0fd7-4d67-ab54-668eb8998d53"},"vehicle_type_id":"4","last_reported":1726009706,"current_range_meters":30000,"station_id":"cki0cbj6b192h4jlfktg","pricing_plan_id":"cebpf4jnsgd1na2vs0mg"},{"bike_id":"4dabe6d4-c3b6-4b46-8f9c-8cf258f00fb5","system_id":"levelo_inurba_marseille","lat":43.27371,"lon":5.36248,"is_reserved":false,"is_disabled":false,"rental_uris":{"android":"levelo://app?vid=4dabe6d4-c3b6-4b46-8f9c-8cf258f00fb5","ios":"levelo://app?vid=4dabe6d4-c3b6-4b46-8f9c-8cf258f00fb5"},"vehicle_type_id":"4","last_reported":1726009706,"current_range_meters":14800,"station_id":"ce4bhbh2rcd13ifvqeo0","pricing_plan_id":"cebpf4jnsgd1na2vs0mg"},{"bike_id":"30750b38-027a-436e-9588-363374a3aa03","system_id":"levelo_inurba_marseille","lat":43.29987,"lon":5.37186,"is_reserved":false,"is_disabled":false,"rental_uris":{"android":"levelo://app?vid=30750b38-027a-436e-9588-363374a3aa03","ios":"levelo://app?vid=30750b38-027a-436e-9588-363374a3aa03"},"vehicle_type_id":"4","last_reported":1726009706,"current_range_meters":38000,"station_id":"ce4bgr92rcd13ifvqc7g","pricing_plan_id":"cebpf4jnsgd1na2vs0mg"},{"bike_id":"aa48e06d-2a80-4fd2-abe7-d40b52d43407","system_id":"levelo_inurba_marseille","lat":43.28729,"lon":5.3608,"is_reserved":false,"is_disabled":false,"rental_uris":{"android":"levelo://app?vid=aa48e06d-2a80-4fd2-abe7-d40b52d43407","ios":"levelo://app?vid=aa48e06d-2a80-4fd2-abe7-d40b52d43407"},"vehicle_type_id":"4","last_reported":1726009706,"current_range_meters":30800,"station_id":"cki0cbj6b192h4jlfktg","pricing_plan_id":"cebpf4jnsgd1na2vs0mg"},{"bike_id":"2469a832-cf3d-49ad-813f-db6d91a93d7b","system_id":"levelo_inurba_marseille","lat":43.3081,"lon":5.38161,"is_reserved":false,"is_disabled":false,"rental_uris":{"android":"levelo://app?vid=2469a832-cf3d-49ad-813f-db6d91a93d7b","ios":"levelo://app?vid=2469a832-cf3d-49ad-813f-db6d91a93d7b"},"vehicle_type_id":"4","last_reported":1726009706,"current_range_meters":26800,"station_id":"ce4bgt12rcd13ifvqce0","pricing_plan_id":"cebpf4jnsgd1na2vs0mg"},{"bike_id":"6f8ceca9-efdc-4afc-832a-772ca41bad51","system_id":"levelo_inurba_marseille","lat":43.31726,"lon":5.42402,"is_reserved":false,"is_disabled":false,"rental_uris":{"android":"levelo://app?vid=6f8ceca9-efdc-4afc-832a-772ca41bad51","ios":"levelo://app?vid=6f8ceca9-efdc-4afc-832a-772ca41bad51"},"vehicle_type_id":"4","last_reported":1726009706,"current_range_meters":35200,"station_id":"ce4bhp92rcd13ifvqhbg","pricing_plan_id":"cebpf4jnsgd1na2vs0mg"},{"bike_id":"9ab5287d-e0da-4d85-a4c5-9ff97a78a028","system_id":"levelo_inurba_marseille","lat":43.25489,"lon":5.37649,"is_reserved":false,"is_disabled":false,"rental_uris":{"android":"levelo://app?vid=9ab5287d-e0da-4d85-a4c5-9ff97a78a028","ios":"levelo://app?vid=9ab5287d-e0da-4d85-a4c5-9ff97a78a028"},"vehicle_type_id":"4","last_reported":1726009706,"current_range_meters":30000,"station_id":"ce4bhh12rcd13ifvqff0","pricing_plan_id":"cebpf4jnsgd1na2vs0mg"},{"bike_id":"4b740380-435b-4ce9-9b96-3da5fb37bac6","system_id":"levelo_inurba_marseille","lat":43.3096,"lon":5.4006,"is_reserved":false,"is_disabled":false,"rental_uris":{"android":"levelo://app?vid=4b740380-435b-4ce9-9b96-3da5fb37bac6","ios":"levelo://app?vid=4b740380-435b-4ce9-9b96-3da5fb37bac6"},"vehicle_type_id":"4","last_reported":1726009706,"current_range_meters":10800,"station_id":"ce4bhpp2rcd13ifvqhgg","pricing_plan_id":"cebpf4jnsgd1na2vs0mg"},{"bike_id":"7b2b6aa9-d9ad-475c-a16f-abdf3eec6d77","system_id":"levelo_inurba_marseille","lat":43.2293,"lon":5.35379,"is_reserved":false,"is_disabled":false,"rental_uris":{"android":"levelo://app?vid=7b2b6aa9-d9ad-475c-a16f-abdf3eec6d77","ios":"levelo://app?vid=7b2b6aa9-d9ad-475c-a16f-abdf3eec6d77"},"vehicle_type_id":"4","last_reported":1726009706,"current_range_meters":19600,"station_id":"cpo3532slgdg3j2ikp40","pricing_plan_id":"cebpf4jnsgd1na2vs0mg"},{"bike_id":"8060c11d-1d82-4b7f-9093-70bf237dfa41","system_id":"levelo_inurba_marseille","lat":43.2606,"lon":5.394,"is_reserved":false,"is_disabled":false,"rental_uris":{"android":"levelo://app?vid=8060c11d-1d82-4b7f-9093-70bf237dfa41","ios":"levelo://app?vid=8060c11d-1d82-4b7f-9093-70bf237dfa41"},"vehicle_type_id":"4","last_reported":1726009706,"current_range_meters":22000,"station_id":"ce4bhh92rcd13ifvqfj0","pricing_plan_id":"cebpf4jnsgd1na2vs0mg"},{"bike_id":"7f4ea667-56df-4b26-bd46-3e71bc3cc245","system_id":"levelo_inurba_marseille","lat":43.29318,"lon":5.35569,"is_reserved":false,"is_disabled":false,"rental_uris":{"android":"levelo://app?vid=7f4ea667-56df-4b26-bd46-3e71bc3cc245","ios":"levelo://app?vid=7f4ea667-56df-4b26-bd46-3e71bc3cc245"},"vehicle_type_id":"4","last_reported":1726009706,"current_range_meters":6400,"station_id":"","pricing_plan_id":"cebpf4jnsgd1na2vs0mg"},{"bike_id":"223ed4e1-b394-435a-8a33-c25bca087621","system_id":"levelo_inurba_marseille","lat":43.30092,"lon":5.39078,"is_reserved":false,"is_disabled":false,"rental_uris":{"android":"levelo://app?vid=223ed4e1-b394-435a-8a33-c25bca087621","ios":"levelo://app?vid=223ed4e1-b394-435a-8a33-c25bca087621"},"vehicle_type_id":"4","last_reported":1726009706,"current_range_meters":34000,"station_id":"ce4bh012rcd13ifvqcv0","pricing_plan_id":"cebpf4jnsgd1na2vs0mg"},{"bike_id":"3b163329-75e0-42ce-a395-e2936b5dfbec","system_id":"levelo_inurba_marseille","lat":43.29555,"lon":5.4226,"is_reserved":false,"is_disabled":false,"rental_uris":{"android":"levelo://app?vid=3b163329-75e0-42ce-a395-e2936b5dfbec","ios":"levelo://app?vid=3b163329-75e0-42ce-a395-e2936b5dfbec"},"vehicle_type_id":"4","last_reported":1726009706,"current_range_meters":30000,"station_id":"ce4bhph2rcd13ifvqhdg","pricing_plan_id":"cebpf4jnsgd1na2vs0mg"},{"bike_id":"d3c8ea6e-d01d-4d9e-9557-beffc1884ace","system_id":"levelo_inurba_marseille","lat":43.32292,"lon":5.3828,"is_reserved":false,"is_disabled":false,"rental_uris":{"android":"levelo://app?vid=d3c8ea6e-d01d-4d9e-9557-beffc1884ace","ios":"levelo://app?vid=d3c8ea6e-d01d-4d9e-9557-beffc1884ace"},"vehicle_type_id":"4","last_reported":1726009706,"current_range_meters":38800,"station_id":"ce4bhr12rcd13ifvqhqg","pricing_plan_id":"cebpf4jnsgd1na2vs0mg"},{"bike_id":"153216f6-2d28-4e63-a2b8-23e07c11499b","system_id":"levelo_inurba_marseille","lat":43.30141,"lon":5.38778,"is_reserved":false,"is_disabled":false,"rental_uris":{"android":"levelo://app?vid=153216f6-2d28-4e63-a2b8-23e07c11499b","ios":"levelo://app?vid=153216f6-2d28-4e63-a2b8-23e07c11499b"},"vehicle_type_id":"4","last_reported":1726009706,"current_range_meters":38000,"station_id":"ce4bh4p2rcd13ifvqe0g","pricing_plan_id":"cebpf4jnsgd1na2vs0mg"},{"bike_id":"4b6020ac-6f7c-49d8-a279-afedbd336735","system_id":"levelo_inurba_marseille","lat":43.31998,"lon":5.38155,"is_reserved":false,"is_disabled":false,"rental_uris":{"android":"levelo://app?vid=4b6020ac-6f7c-49d8-a279-afedbd336735","ios":"levelo://app?vid=4b6020ac-6f7c-49d8-a279-afedbd336735"},"vehicle_type_id":"4","last_reported":1726009706,"current_range_meters":22800,"station_id":"ce4bhr12rcd13ifvqhpg","pricing_plan_id":"cebpf4jnsgd1na2vs0mg"},{"bike_id":"507f99d3-0b82-4a35-89e2-98eb58769a71","system_id":"levelo_inurba_marseille","lat":43.23192,"lon":5.35549,"is_reserved":false,"is_disabled":false,"rental_uris":{"android":"levelo://app?vid=507f99d3-0b82-4a35-89e2-98eb58769a71","ios":"levelo://app?vid=507f99d3-0b82-4a35-89e2-98eb58769a71"},"vehicle_type_id":"4","last_reported":1726009706,"current_range_meters":14800,"station_id":"ce4bhu92rcd13ifvqi70","pricing_plan_id":"cebpf4jnsgd1na2vs0mg"},{"bike_id":"55655b5f-2417-4cb9-a662-d6cecf83fcf4","system_id":"levelo_inurba_marseille","lat":43.31075,"lon":5.38117,"is_reserved":false,"is_disabled":false,"rental_uris":{"android":"levelo://app?vid=55655b5f-2417-4cb9-a662-d6cecf83fcf4","ios":"levelo://app?vid=55655b5f-2417-4cb9-a662-d6cecf83fcf4"},"vehicle_type_id":"4","last_reported":1726009706,"current_range_meters":21600,"station_id":"","pricing_plan_id":"cebpf4jnsgd1na2vs0mg"},{"bike_id":"f00b4cfb-9330-4bb5-b0ea-58a7d85e8b92","system_id":"levelo_inurba_marseille","lat":43.30219,"lon":5.39469,"is_reserved":false,"is_disabled":false,"rental_uris":{"android":"levelo://app?vid=f00b4cfb-9330-4bb5-b0ea-58a7d85e8b92","ios":"levelo://app?vid=f00b4cfb-9330-4bb5-b0ea-58a7d85e8b92"},"vehicle_type_id":"4","last_reported":1726009706,"current_range_meters":35600,"station_id":"ce4bh0p2rcd13ifvqd70","pricing_plan_id":"cebpf4jnsgd1na2vs0mg"},{"bike_id":"24ea4db4-bcd3-4773-a10c-e0451f1c0df9","system_id":"levelo_inurba_marseille","lat":43.28043,"lon":5.36949,"is_reserved":false,"is_disabled":false,"rental_uris":{"android":"levelo://app?vid=24ea4db4-bcd3-4773-a10c-e0451f1c0df9","ios":"levelo://app?vid=24ea4db4-bcd3-4773-a10c-e0451f1c0df9"},"vehicle_type_id":"4","last_reported":1726009706,"current_range_meters":36400,"station_id":"ce4bha12rcd13ifvqef0","pricing_plan_id":"cebpf4jnsgd1na2vs0mg"},{"bike_id":"99a32429-b801-4a4d-a82a-6365806ce471","system_id":"levelo_inurba_marseille","lat":43.32545,"lon":5.41452,"is_reserved":false,"is_disabled":false,"rental_uris":{"android":"levelo://app?vid=99a32429-b801-4a4d-a82a-6365806ce471","ios":"levelo://app?vid=99a32429-b801-4a4d-a82a-6365806ce471"},"vehicle_type_id":"4","last_reported":1726009706,"current_range_meters":39200,"station_id":"ce4bhq12rcd13ifvqhhg","pricing_plan_id":"cebpf4jnsgd1na2vs0mg"},{"bike_id":"37d8c39f-1cdd-4f24-9274-2d093441df6e","system_id":"levelo_inurba_marseille","lat":43.31256,"lon":5.36862,"is_reserved":false,"is_disabled":false,"rental_uris":{"android":"levelo://app?vid=37d8c39f-1cdd-4f24-9274-2d093441df6e","ios":"levelo://app?vid=37d8c39f-1cdd-4f24-9274-2d093441df6e"},"vehicle_type_id":"4","last_reported":1726009706,"current_range_meters":30800,"station_id":"","pricing_plan_id":"cebpf4jnsgd1na2vs0mg"},{"bike_id":"36e02e03-11f3-41ac-9b0f-93c4017adc48","system_id":"levelo_inurba_marseille","lat":43.27354,"lon":5.41599,"is_reserved":false,"is_disabled":false,"rental_uris":{"android":"levelo://app?vid=36e02e03-11f3-41ac-9b0f-93c4017adc48","ios":"levelo://app?vid=36e02e03-11f3-41ac-9b0f-93c4017adc48"},"vehicle_type_id":"4","last_reported":1726009706,"current_range_meters":4400,"station_id":"","pricing_plan_id":"cebpf4jnsgd1na2vs0mg"},{"bike_id":"a96df557-eb85-482a-a2f9-6a35f4bb1ec1","system_id":"levelo_inurba_marseille","lat":43.31683,"lon":5.40472,"is_reserved":false,"is_disabled":false,"rental_uris":{"android":"levelo://app?vid=a96df557-eb85-482a-a2f9-6a35f4bb1ec1","ios":"levelo://app?vid=a96df557-eb85-482a-a2f9-6a35f4bb1ec1"},"vehicle_type_id":"4","last_reported":1726009706,"current_range_meters":32400,"station_id":"ce4bh012rcd13ifvqd00","pricing_plan_id":"cebpf4jnsgd1na2vs0mg"},{"bike_id":"55e867e7-b089-421e-8bf1-86f013ca3563","system_id":"levelo_inurba_marseille","lat":43.30524,"lon":5.38417,"is_reserved":false,"is_disabled":false,"rental_uris":{"android":"levelo://app?vid=55e867e7-b089-421e-8bf1-86f013ca3563","ios":"levelo://app?vid=55e867e7-b089-421e-8bf1-86f013ca3563"},"vehicle_type_id":"4","last_reported":1726009706,"current_range_meters":33200,"station_id":"ce4bgg92rcd13ifvqb30","pricing_plan_id":"cebpf4jnsgd1na2vs0mg"},{"bike_id":"2470464c-1003-4de6-b41c-777cfaec282c","system_id":"levelo_inurba_marseille","lat":43.30643,"lon":5.40081,"is_reserved":false,"is_disabled":false,"rental_uris":{"android":"levelo://app?vid=2470464c-1003-4de6-b41c-777cfaec282c","ios":"levelo://app?vid=2470464c-1003-4de6-b41c-777cfaec282c"},"vehicle_type_id":"4","last_reported":1726009706,"current_range_meters":38800,"station_id":"ce4bh112rcd13ifvqda0","pricing_plan_id":"cebpf4jnsgd1na2vs0mg"},{"bike_id":"36973a74-dcb5-42a3-b6ab-222146836943","system_id":"levelo_inurba_marseille","lat":43.31765,"lon":5.39016,"is_reserved":false,"is_disabled":false,"rental_uris":{"android":"levelo://app?vid=36973a74-dcb5-42a3-b6ab-222146836943","ios":"levelo://app?vid=36973a74-dcb5-42a3-b6ab-222146836943"},"vehicle_type_id":"4","last_reported":1726009706,"current_range_meters":16800,"station_id":"ce4bhqp2rcd13ifvqhng","pricing_plan_id":"cebpf4jnsgd1na2vs0mg"},{"bike_id":"4dc41bf5-9ea0-4e32-a6f7-f44ecc919c2a","system_id":"levelo_inurba_marseille","lat":43.31689,"lon":5.37756,"is_reserved":false,"is_disabled":false,"rental_uris":{"android":"levelo://app?vid=4dc41bf5-9ea0-4e32-a6f7-f44ecc919c2a","ios":"levelo://app?vid=4dc41bf5-9ea0-4e32-a6f7-f44ecc919c2a"},"vehicle_type_id":"4","last_reported":1726009706,"current_range_meters":38800,"station_id":"ce4bgth2rcd13ifvqch0","pricing_plan_id":"cebpf4jnsgd1na2vs0mg"},{"bike_id":"4dee8e14-2651-4989-821f-b3dba2009f28","system_id":"levelo_inurba_marseille","lat":43.25725,"lon":5.41112,"is_reserved":false,"is_disabled":false,"rental_uris":{"android":"levelo://app?vid=4dee8e14-2651-4989-821f-b3dba2009f28","ios":"levelo://app?vid=4dee8e14-2651-4989-821f-b3dba2009f28"},"vehicle_type_id":"4","last_reported":1726009706,"current_range_meters":34800,"station_id":"ce4bhkp2rcd13ifvqgd0","pricing_plan_id":"cebpf4jnsgd1na2vs0mg"},{"bike_id":"d398d4ba-50e8-4f82-8a52-77e71b6abff4","system_id":"levelo_inurba_marseille","lat":43.27329,"lon":5.39108,"is_reserved":false,"is_disabled":false,"rental_uris":{"android":"levelo://app?vid=d398d4ba-50e8-4f82-8a52-77e71b6abff4","ios":"levelo://app?vid=d398d4ba-50e8-4f82-8a52-77e71b6abff4"},"vehicle_type_id":"4","last_reported":1726009706,"current_range_meters":39200,"station_id":"ce4bhgp2rcd13ifvqfe0","pricing_plan_id":"cebpf4jnsgd1na2vs0mg"},{"bike_id":"d59b5a73-bb64-4578-a6da-40de28d51742","system_id":"levelo_inurba_marseille","lat":43.30938,"lon":5.40149,"is_reserved":false,"is_disabled":false,"rental_uris":{"android":"levelo://app?vid=d59b5a73-bb64-4578-a6da-40de28d51742","ios":"levelo://app?vid=d59b5a73-bb64-4578-a6da-40de28d51742"},"vehicle_type_id":"4","last_reported":1726009706,"current_range_meters":39200,"station_id":"ce4bgvp2rcd13ifvqct0","pricing_plan_id":"cebpf4jnsgd1na2vs0mg"},{"bike_id":"efa07c9b-38e9-434b-9da7-5266e9182bb5","system_id":"levelo_inurba_marseille","lat":43.30931,"lon":5.40143,"is_reserved":false,"is_disabled":false,"rental_uris":{"android":"levelo://app?vid=efa07c9b-38e9-434b-9da7-5266e9182bb5","ios":"levelo://app?vid=efa07c9b-38e9-434b-9da7-5266e9182bb5"},"vehicle_type_id":"4","last_reported":1726009706,"current_range_meters":25200,"station_id":"ce4bgvp2rcd13ifvqct0","pricing_plan_id":"cebpf4jnsgd1na2vs0mg"},{"bike_id":"00fc663b-1b6a-46f5-8168-1e1ed34a719e","system_id":"levelo_inurba_marseille","lat":43.29551,"lon":5.42284,"is_reserved":false,"is_disabled":false,"rental_uris":{"android":"levelo://app?vid=00fc663b-1b6a-46f5-8168-1e1ed34a719e","ios":"levelo://app?vid=00fc663b-1b6a-46f5-8168-1e1ed34a719e"},"vehicle_type_id":"4","last_reported":1726009706,"current_range_meters":38800,"station_id":"ce4bhph2rcd13ifvqhdg","pricing_plan_id":"cebpf4jnsgd1na2vs0mg"},{"bike_id":"5a3fd4a6-1755-465c-8d8f-1a84ddce9916","system_id":"levelo_inurba_marseille","lat":43.25007,"lon":5.38915,"is_reserved":false,"is_disabled":false,"rental_uris":{"android":"levelo://app?vid=5a3fd4a6-1755-465c-8d8f-1a84ddce9916","ios":"levelo://app?vid=5a3fd4a6-1755-465c-8d8f-1a84ddce9916"},"vehicle_type_id":"4","last_reported":1726009706,"current_range_meters":28400,"station_id":"ce4bhgp2rcd13ifvqfd0","pricing_plan_id":"cebpf4jnsgd1na2vs0mg"},{"bike_id":"9042a679-e579-498b-bc4f-3859be122eff","system_id":"levelo_inurba_marseille","lat":43.31756,"lon":5.39019,"is_reserved":false,"is_disabled":false,"rental_uris":{"android":"levelo://app?vid=9042a679-e579-498b-bc4f-3859be122eff","ios":"levelo://app?vid=9042a679-e579-498b-bc4f-3859be122eff"},"vehicle_type_id":"4","last_reported":1726009706,"current_range_meters":6000,"station_id":"ce4bhqp2rcd13ifvqhng","pricing_plan_id":"cebpf4jnsgd1na2vs0mg"},{"bike_id":"b24bcaac-1ebb-42e7-886a-a6b3b2b9eba8","system_id":"levelo_inurba_marseille","lat":43.28464,"lon":5.35885,"is_reserved":false,"is_disabled":false,"rental_uris":{"android":"levelo://app?vid=b24bcaac-1ebb-42e7-886a-a6b3b2b9eba8","ios":"levelo://app?vid=b24bcaac-1ebb-42e7-886a-a6b3b2b9eba8"},"vehicle_type_id":"4","last_reported":1726009706,"current_range_meters":39200,"station_id":"ce4bhah2rcd13ifvqei0","pricing_plan_id":"cebpf4jnsgd1na2vs0mg"},{"bike_id":"c8556cf0-f832-42b6-92cc-1120f0bf955c","system_id":"levelo_inurba_marseille","lat":43.31754,"lon":5.39018,"is_reserved":false,"is_disabled":false,"rental_uris":{"android":"levelo://app?vid=c8556cf0-f832-42b6-92cc-1120f0bf955c","ios":"levelo://app?vid=c8556cf0-f832-42b6-92cc-1120f0bf955c"},"vehicle_type_id":"4","last_reported":1726009706,"current_range_meters":32800,"station_id":"ce4bhqp2rcd13ifvqhng","pricing_plan_id":"cebpf4jnsgd1na2vs0mg"},{"bike_id":"43a84af0-6fc9-45fc-9a33-c0cfe186c922","system_id":"levelo_inurba_marseille","lat":43.23973,"lon":5.36632,"is_reserved":false,"is_disabled":false,"rental_uris":{"android":"levelo://app?vid=43a84af0-6fc9-45fc-9a33-c0cfe186c922","ios":"levelo://app?vid=43a84af0-6fc9-45fc-9a33-c0cfe186c922"},"vehicle_type_id":"4","last_reported":1726009706,"current_range_meters":16400,"station_id":"ce4bhi12rcd13ifvqfp0","pricing_plan_id":"cebpf4jnsgd1na2vs0mg"},{"bike_id":"6c3f9e7e-8a4e-469e-84b6-4eedcf57fc53","system_id":"levelo_inurba_marseille","lat":43.31117,"lon":5.37763,"is_reserved":false,"is_disabled":false,"rental_uris":{"android":"levelo://app?vid=6c3f9e7e-8a4e-469e-84b6-4eedcf57fc53","ios":"levelo://app?vid=6c3f9e7e-8a4e-469e-84b6-4eedcf57fc53"},"vehicle_type_id":"4","last_reported":1726009706,"current_range_meters":28800,"station_id":"ce4bgt92rcd13ifvqcg0","pricing_plan_id":"cebpf4jnsgd1na2vs0mg"},{"bike_id":"f1f83f11-0ead-4fd7-84a5-ee6ef0f070a6","system_id":"levelo_inurba_marseille","lat":43.27201,"lon":5.39193,"is_reserved":false,"is_disabled":false,"rental_uris":{"android":"levelo://app?vid=f1f83f11-0ead-4fd7-84a5-ee6ef0f070a6","ios":"levelo://app?vid=f1f83f11-0ead-4fd7-84a5-ee6ef0f070a6"},"vehicle_type_id":"4","last_reported":1726009706,"current_range_meters":38800,"station_id":"ce4bhhp2rcd13ifvqfm0","pricing_plan_id":"cebpf4jnsgd1na2vs0mg"},{"bike_id":"e7f1ce34-711f-4386-95b9-fe5f61acdbcc","system_id":"levelo_inurba_marseille","lat":43.27377,"lon":5.36256,"is_reserved":false,"is_disabled":false,"rental_uris":{"android":"levelo://app?vid=e7f1ce34-711f-4386-95b9-fe5f61acdbcc","ios":"levelo://app?vid=e7f1ce34-711f-4386-95b9-fe5f61acdbcc"},"vehicle_type_id":"4","last_reported":1726009706,"current_range_meters":34000,"station_id":"ce4bhbh2rcd13ifvqeo0","pricing_plan_id":"cebpf4jnsgd1na2vs0mg"},{"bike_id":"5876c5ef-9fac-478d-bd3c-ea1780c21005","system_id":"levelo_inurba_marseille","lat":43.33762,"lon":5.3745,"is_reserved":false,"is_disabled":false,"rental_uris":{"android":"levelo://app?vid=5876c5ef-9fac-478d-bd3c-ea1780c21005","ios":"levelo://app?vid=5876c5ef-9fac-478d-bd3c-ea1780c21005"},"vehicle_type_id":"4","last_reported":1726009706,"current_range_meters":35200,"station_id":"","pricing_plan_id":"cebpf4jnsgd1na2vs0mg"},{"bike_id":"3ef293cb-6b10-47c2-a61b-1c747b67c2aa","system_id":"levelo_inurba_marseille","lat":43.22931,"lon":5.35376,"is_reserved":false,"is_disabled":false,"rental_uris":{"android":"levelo://app?vid=3ef293cb-6b10-47c2-a61b-1c747b67c2aa","ios":"levelo://app?vid=3ef293cb-6b10-47c2-a61b-1c747b67c2aa"},"vehicle_type_id":"4","last_reported":1726009706,"current_range_meters":38000,"station_id":"cpo3532slgdg3j2ikp40","pricing_plan_id":"cebpf4jnsgd1na2vs0mg"},{"bike_id":"9658173f-729f-44c0-b272-df35fcc2e649","system_id":"levelo_inurba_marseille","lat":43.34144,"lon":5.40904,"is_reserved":false,"is_disabled":false,"rental_uris":{"android":"levelo://app?vid=9658173f-729f-44c0-b272-df35fcc2e649","ios":"levelo://app?vid=9658173f-729f-44c0-b272-df35fcc2e649"},"vehicle_type_id":"4","last_reported":1726009706,"current_range_meters":33200,"station_id":"ce4bhqh2rcd13ifvqhlg","pricing_plan_id":"cebpf4jnsgd1na2vs0mg"},{"bike_id":"ac68cfcd-c622-4cae-a4f4-25995a94d109","system_id":"levelo_inurba_marseille","lat":43.3266,"lon":5.40998,"is_reserved":false,"is_disabled":false,"rental_uris":{"android":"levelo://app?vid=ac68cfcd-c622-4cae-a4f4-25995a94d109","ios":"levelo://app?vid=ac68cfcd-c622-4cae-a4f4-25995a94d109"},"vehicle_type_id":"4","last_reported":1726009706,"current_range_meters":36400,"station_id":"ce4bhpp2rcd13ifvqhgg","pricing_plan_id":"cebpf4jnsgd1na2vs0mg"},{"bike_id":"6775574d-e192-47e4-b0c2-1961a40caa1b","system_id":"levelo_inurba_marseille","lat":43.29208,"lon":5.3932,"is_reserved":false,"is_disabled":false,"rental_uris":{"android":"levelo://app?vid=6775574d-e192-47e4-b0c2-1961a40caa1b","ios":"levelo://app?vid=6775574d-e192-47e4-b0c2-1961a40caa1b"},"vehicle_type_id":"4","last_reported":1726009706,"current_range_meters":33200,"station_id":"ce4bh192rcd13ifvqdd0","pricing_plan_id":"cebpf4jnsgd1na2vs0mg"},{"bike_id":"9d97c6b7-d5ff-4ca7-999e-9c4395e89c55","system_id":"levelo_inurba_marseille","lat":43.24071,"lon":5.37765,"is_reserved":false,"is_disabled":false,"rental_uris":{"android":"levelo://app?vid=9d97c6b7-d5ff-4ca7-999e-9c4395e89c55","ios":"levelo://app?vid=9d97c6b7-d5ff-4ca7-999e-9c4395e89c55"},"vehicle_type_id":"4","last_reported":1726009706,"current_range_meters":38800,"station_id":"ce4bhnp2rcd13ifvqgvg","pricing_plan_id":"cebpf4jnsgd1na2vs0mg"},{"bike_id":"1ef79a77-1c0d-48d1-8f30-18d2217081a4","system_id":"levelo_inurba_marseille","lat":43.2894,"lon":5.36411,"is_reserved":false,"is_disabled":false,"rental_uris":{"android":"levelo://app?vid=1ef79a77-1c0d-48d1-8f30-18d2217081a4","ios":"levelo://app?vid=1ef79a77-1c0d-48d1-8f30-18d2217081a4"},"vehicle_type_id":"4","last_reported":1726009706,"current_range_meters":13600,"station_id":"ce4bhc92rcd13ifvqetg","pricing_plan_id":"cebpf4jnsgd1na2vs0mg"},{"bike_id":"8f46fb95-7196-4600-a4bb-31374c79e4fd","system_id":"levelo_inurba_marseille","lat":43.24669,"lon":5.38166,"is_reserved":false,"is_disabled":false,"rental_uris":{"android":"levelo://app?vid=8f46fb95-7196-4600-a4bb-31374c79e4fd","ios":"levelo://app?vid=8f46fb95-7196-4600-a4bb-31374c79e4fd"},"vehicle_type_id":"4","last_reported":1726009706,"current_range_meters":39200,"station_id":"ce4bhih2rcd13ifvqfr0","pricing_plan_id":"cebpf4jnsgd1na2vs0mg"},{"bike_id":"30ac1b31-ef72-4741-a044-8e116b2f3f13","system_id":"levelo_inurba_marseille","lat":43.30877,"lon":5.39642,"is_reserved":false,"is_disabled":false,"rental_uris":{"android":"levelo://app?vid=30ac1b31-ef72-4741-a044-8e116b2f3f13","ios":"levelo://app?vid=30ac1b31-ef72-4741-a044-8e116b2f3f13"},"vehicle_type_id":"4","last_reported":1726009706,"current_range_meters":38000,"station_id":"ce4bh012rcd13ifvqcv0","pricing_plan_id":"cebpf4jnsgd1na2vs0mg"},{"bike_id":"e72f9d1f-419f-450b-86df-c8dd274dc578","system_id":"levelo_inurba_marseille","lat":43.31776,"lon":5.39007,"is_reserved":false,"is_disabled":false,"rental_uris":{"android":"levelo://app?vid=e72f9d1f-419f-450b-86df-c8dd274dc578","ios":"levelo://app?vid=e72f9d1f-419f-450b-86df-c8dd274dc578"},"vehicle_type_id":"4","last_reported":1726009706,"current_range_meters":10800,"station_id":"ce4bhqp2rcd13ifvqhng","pricing_plan_id":"cebpf4jnsgd1na2vs0mg"},{"bike_id":"7abb3655-b461-4e13-bc97-8c353f282d6b","system_id":"levelo_inurba_marseille","lat":43.23181,"lon":5.39983,"is_reserved":false,"is_disabled":false,"rental_uris":{"android":"levelo://app?vid=7abb3655-b461-4e13-bc97-8c353f282d6b","ios":"levelo://app?vid=7abb3655-b461-4e13-bc97-8c353f282d6b"},"vehicle_type_id":"4","last_reported":1726009706,"current_range_meters":8400,"station_id":"ce4bhn12rcd13ifvqgqg","pricing_plan_id":"cebpf4jnsgd1na2vs0mg"},{"bike_id":"cfdc2c5e-cc31-48a6-94ab-8adcc421dc10","system_id":"levelo_inurba_marseille","lat":43.26945,"lon":5.40252,"is_reserved":false,"is_disabled":false,"rental_uris":{"android":"levelo://app?vid=cfdc2c5e-cc31-48a6-94ab-8adcc421dc10","ios":"levelo://app?vid=cfdc2c5e-cc31-48a6-94ab-8adcc421dc10"},"vehicle_type_id":"4","last_reported":1726009706,"current_range_meters":26000,"station_id":"cjm6bp8fraef2m0cb0m0","pricing_plan_id":"cebpf4jnsgd1na2vs0mg"},{"bike_id":"3f48e559-de96-42ea-88b9-925d9064e054","system_id":"levelo_inurba_marseille","lat":43.31362,"lon":5.38495,"is_reserved":false,"is_disabled":false,"rental_uris":{"android":"levelo://app?vid=3f48e559-de96-42ea-88b9-925d9064e054","ios":"levelo://app?vid=3f48e559-de96-42ea-88b9-925d9064e054"},"vehicle_type_id":"4","last_reported":1726009706,"current_range_meters":10000,"station_id":"ce4bgt92rcd13ifvqcf0","pricing_plan_id":"cebpf4jnsgd1na2vs0mg"},{"bike_id":"2aa7771c-e547-4e4a-8df6-66b9fb32cded","system_id":"levelo_inurba_marseille","lat":43.28938,"lon":5.3963,"is_reserved":false,"is_disabled":false,"rental_uris":{"android":"levelo://app?vid=2aa7771c-e547-4e4a-8df6-66b9fb32cded","ios":"levelo://app?vid=2aa7771c-e547-4e4a-8df6-66b9fb32cded"},"vehicle_type_id":"4","last_reported":1726009706,"current_range_meters":24800,"station_id":"ce4bh3h2rcd13ifvqdn0","pricing_plan_id":"cebpf4jnsgd1na2vs0mg"},{"bike_id":"80bc4778-20e3-4749-a88a-a003b6b6f7ad","system_id":"levelo_inurba_marseille","lat":43.299018,"lon":5.374628,"is_reserved":false,"is_disabled":false,"rental_uris":{"android":"levelo://app?vid=80bc4778-20e3-4749-a88a-a003b6b6f7ad","ios":"levelo://app?vid=80bc4778-20e3-4749-a88a-a003b6b6f7ad"},"vehicle_type_id":"4","last_reported":1726009706,"current_range_meters":5600,"station_id":"ce4bgt92rcd13ifvqcf0","pricing_plan_id":"cebpf4jnsgd1na2vs0mg"},{"bike_id":"d77b662c-0d4d-4c3a-9264-2ad1ccbfd7ff","system_id":"levelo_inurba_marseille","lat":43.30141,"lon":5.38772,"is_reserved":false,"is_disabled":false,"rental_uris":{"android":"levelo://app?vid=d77b662c-0d4d-4c3a-9264-2ad1ccbfd7ff","ios":"levelo://app?vid=d77b662c-0d4d-4c3a-9264-2ad1ccbfd7ff"},"vehicle_type_id":"4","last_reported":1726009706,"current_range_meters":38800,"station_id":"ce4bghh2rcd13ifvqb60","pricing_plan_id":"cebpf4jnsgd1na2vs0mg"},{"bike_id":"09a7a1ad-315d-4983-a6e2-a22d1208f337","system_id":"levelo_inurba_marseille","lat":43.27325,"lon":5.39097,"is_reserved":false,"is_disabled":false,"rental_uris":{"android":"levelo://app?vid=09a7a1ad-315d-4983-a6e2-a22d1208f337","ios":"levelo://app?vid=09a7a1ad-315d-4983-a6e2-a22d1208f337"},"vehicle_type_id":"4","last_reported":1726009706,"current_range_meters":38800,"station_id":"ce4bhgp2rcd13ifvqfe0","pricing_plan_id":"cebpf4jnsgd1na2vs0mg"},{"bike_id":"60d8184b-7db1-45d6-ad2e-a06748581dd6","system_id":"levelo_inurba_marseille","lat":43.30133,"lon":5.39845,"is_reserved":false,"is_disabled":false,"rental_uris":{"android":"levelo://app?vid=60d8184b-7db1-45d6-ad2e-a06748581dd6","ios":"levelo://app?vid=60d8184b-7db1-45d6-ad2e-a06748581dd6"},"vehicle_type_id":"4","last_reported":1726009706,"current_range_meters":38400,"station_id":"ce4bh0h2rcd13ifvqd40","pricing_plan_id":"cebpf4jnsgd1na2vs0mg"},{"bike_id":"2d3e3ae7-05b6-4fc0-a64a-df935b3f58a2","system_id":"levelo_inurba_marseille","lat":43.31062,"lon":5.38358,"is_reserved":false,"is_disabled":false,"rental_uris":{"android":"levelo://app?vid=2d3e3ae7-05b6-4fc0-a64a-df935b3f58a2","ios":"levelo://app?vid=2d3e3ae7-05b6-4fc0-a64a-df935b3f58a2"},"vehicle_type_id":"4","last_reported":1726009706,"current_range_meters":38800,"station_id":"ce4bgv92rcd13ifvqcr0","pricing_plan_id":"cebpf4jnsgd1na2vs0mg"},{"bike_id":"262acde0-5e46-4b89-9744-86cc6676cec7","system_id":"levelo_inurba_marseille","lat":43.31272,"lon":5.40173,"is_reserved":false,"is_disabled":false,"rental_uris":{"android":"levelo://app?vid=262acde0-5e46-4b89-9744-86cc6676cec7","ios":"levelo://app?vid=262acde0-5e46-4b89-9744-86cc6676cec7"},"vehicle_type_id":"4","last_reported":1726009706,"current_range_meters":32400,"station_id":"ce4bh092rcd13ifvqd30","pricing_plan_id":"cebpf4jnsgd1na2vs0mg"},{"bike_id":"1836bf3a-473d-4a07-8219-109d380fba4b","system_id":"levelo_inurba_marseille","lat":43.30965,"lon":5.39052,"is_reserved":false,"is_disabled":false,"rental_uris":{"android":"levelo://app?vid=1836bf3a-473d-4a07-8219-109d380fba4b","ios":"levelo://app?vid=1836bf3a-473d-4a07-8219-109d380fba4b"},"vehicle_type_id":"4","last_reported":1726009706,"current_range_meters":29600,"station_id":"ce4bgup2rcd13ifvqco0","pricing_plan_id":"cebpf4jnsgd1na2vs0mg"},{"bike_id":"09ffcbdf-58a8-4a2b-b359-e87abe1f9d3d","system_id":"levelo_inurba_marseille","lat":43.28662,"lon":5.36351,"is_reserved":false,"is_disabled":false,"rental_uris":{"android":"levelo://app?vid=09ffcbdf-58a8-4a2b-b359-e87abe1f9d3d","ios":"levelo://app?vid=09ffcbdf-58a8-4a2b-b359-e87abe1f9d3d"},"vehicle_type_id":"4","last_reported":1726009706,"current_range_meters":36000,"station_id":"ce4bhah2rcd13ifvqej0","pricing_plan_id":"cebpf4jnsgd1na2vs0mg"},{"bike_id":"efc07193-6a27-4621-a593-eee5190ed64b","system_id":"levelo_inurba_marseille","lat":43.29777,"lon":5.37127,"is_reserved":false,"is_disabled":false,"rental_uris":{"android":"levelo://app?vid=efc07193-6a27-4621-a593-eee5190ed64b","ios":"levelo://app?vid=efc07193-6a27-4621-a593-eee5190ed64b"},"vehicle_type_id":"4","last_reported":1726009706,"current_range_meters":32000,"station_id":"ce4bgop2rcd13ifvqc1g","pricing_plan_id":"cebpf4jnsgd1na2vs0mg"},{"bike_id":"e5b123ca-7506-4eeb-b9eb-0ff4860b1d5d","system_id":"levelo_inurba_marseille","lat":43.27175,"lon":5.40995,"is_reserved":false,"is_disabled":false,"rental_uris":{"android":"levelo://app?vid=e5b123ca-7506-4eeb-b9eb-0ff4860b1d5d","ios":"levelo://app?vid=e5b123ca-7506-4eeb-b9eb-0ff4860b1d5d"},"vehicle_type_id":"4","last_reported":1726009706,"current_range_meters":34800,"station_id":"ce4bhl12rcd13ifvqgf0","pricing_plan_id":"cebpf4jnsgd1na2vs0mg"},{"bike_id":"1e5e8f19-3bab-4680-847c-e0a49335d88c","system_id":"levelo_inurba_marseille","lat":43.28698,"lon":5.39983,"is_reserved":false,"is_disabled":false,"rental_uris":{"android":"levelo://app?vid=1e5e8f19-3bab-4680-847c-e0a49335d88c","ios":"levelo://app?vid=1e5e8f19-3bab-4680-847c-e0a49335d88c"},"vehicle_type_id":"4","last_reported":1726009706,"current_range_meters":36800,"station_id":"ce4bho92rcd13ifvqh3g","pricing_plan_id":"cebpf4jnsgd1na2vs0mg"},{"bike_id":"6193a3b5-4741-4e20-892f-71f4056d0de9","system_id":"levelo_inurba_marseille","lat":43.23185,"lon":5.39991,"is_reserved":false,"is_disabled":false,"rental_uris":{"android":"levelo://app?vid=6193a3b5-4741-4e20-892f-71f4056d0de9","ios":"levelo://app?vid=6193a3b5-4741-4e20-892f-71f4056d0de9"},"vehicle_type_id":"4","last_reported":1726009706,"current_range_meters":39200,"station_id":"ce4bhn12rcd13ifvqgqg","pricing_plan_id":"cebpf4jnsgd1na2vs0mg"},{"bike_id":"00cf214c-b40b-46e3-8b2d-85826d178cf4","system_id":"levelo_inurba_marseille","lat":43.28458,"lon":5.35901,"is_reserved":false,"is_disabled":false,"rental_uris":{"android":"levelo://app?vid=00cf214c-b40b-46e3-8b2d-85826d178cf4","ios":"levelo://app?vid=00cf214c-b40b-46e3-8b2d-85826d178cf4"},"vehicle_type_id":"4","last_reported":1726009706,"current_range_meters":17600,"station_id":"ce4bhah2rcd13ifvqei0","pricing_plan_id":"cebpf4jnsgd1na2vs0mg"},{"bike_id":"1bc6d034-1c4e-4b81-95f7-9274b014bd03","system_id":"levelo_inurba_marseille","lat":43.28462,"lon":5.35897,"is_reserved":false,"is_disabled":false,"rental_uris":{"android":"levelo://app?vid=1bc6d034-1c4e-4b81-95f7-9274b014bd03","ios":"levelo://app?vid=1bc6d034-1c4e-4b81-95f7-9274b014bd03"},"vehicle_type_id":"4","last_reported":1726009706,"current_range_meters":32400,"station_id":"ce4bhah2rcd13ifvqei0","pricing_plan_id":"cebpf4jnsgd1na2vs0mg"},{"bike_id":"5e2608d4-e8f7-4b65-abbb-6f7b0a13c326","system_id":"levelo_inurba_marseille","lat":43.28434,"lon":5.39192,"is_reserved":false,"is_disabled":false,"rental_uris":{"android":"levelo://app?vid=5e2608d4-e8f7-4b65-abbb-6f7b0a13c326","ios":"levelo://app?vid=5e2608d4-e8f7-4b65-abbb-6f7b0a13c326"},"vehicle_type_id":"4","last_reported":1726009706,"current_range_meters":34000,"station_id":"ce4bhoh2rcd13ifvqh5g","pricing_plan_id":"cebpf4jnsgd1na2vs0mg"},{"bike_id":"f803caf1-6055-4aef-a0c1-a49a8dbd7a09","system_id":"levelo_inurba_marseille","lat":43.27828,"lon":5.39201,"is_reserved":false,"is_disabled":false,"rental_uris":{"android":"levelo://app?vid=f803caf1-6055-4aef-a0c1-a49a8dbd7a09","ios":"levelo://app?vid=f803caf1-6055-4aef-a0c1-a49a8dbd7a09"},"vehicle_type_id":"4","last_reported":1726009706,"current_range_meters":38800,"station_id":"ce4bhjp2rcd13ifvqga0","pricing_plan_id":"cebpf4jnsgd1na2vs0mg"},{"bike_id":"e3c8bccc-6c5a-486c-aec4-62058d07ed3b","system_id":"levelo_inurba_marseille","lat":43.2732,"lon":5.39104,"is_reserved":false,"is_disabled":false,"rental_uris":{"android":"levelo://app?vid=e3c8bccc-6c5a-486c-aec4-62058d07ed3b","ios":"levelo://app?vid=e3c8bccc-6c5a-486c-aec4-62058d07ed3b"},"vehicle_type_id":"4","last_reported":1726009706,"current_range_meters":38800,"station_id":"ce4bhgp2rcd13ifvqfe0","pricing_plan_id":"cebpf4jnsgd1na2vs0mg"},{"bike_id":"c280655b-da46-4f44-b4b9-5550f40c0e7d","system_id":"levelo_inurba_marseille","lat":43.32298,"lon":5.3827,"is_reserved":false,"is_disabled":false,"rental_uris":{"android":"levelo://app?vid=c280655b-da46-4f44-b4b9-5550f40c0e7d","ios":"levelo://app?vid=c280655b-da46-4f44-b4b9-5550f40c0e7d"},"vehicle_type_id":"4","last_reported":1726009706,"current_range_meters":22000,"station_id":"ce4bhr12rcd13ifvqhqg","pricing_plan_id":"cebpf4jnsgd1na2vs0mg"},{"bike_id":"d366d7a4-0426-4053-8099-780658e44800","system_id":"levelo_inurba_marseille","lat":43.31172,"lon":5.38713,"is_reserved":false,"is_disabled":false,"rental_uris":{"android":"levelo://app?vid=d366d7a4-0426-4053-8099-780658e44800","ios":"levelo://app?vid=d366d7a4-0426-4053-8099-780658e44800"},"vehicle_type_id":"4","last_reported":1726009706,"current_range_meters":11600,"station_id":"ce4bgv12rcd13ifvqcp0","pricing_plan_id":"cebpf4jnsgd1na2vs0mg"},{"bike_id":"c25508be-a553-4e86-b959-6cf74594e042","system_id":"levelo_inurba_marseille","lat":43.3118,"lon":5.38715,"is_reserved":false,"is_disabled":false,"rental_uris":{"android":"levelo://app?vid=c25508be-a553-4e86-b959-6cf74594e042","ios":"levelo://app?vid=c25508be-a553-4e86-b959-6cf74594e042"},"vehicle_type_id":"4","last_reported":1726009706,"current_range_meters":33200,"station_id":"ce4bgv12rcd13ifvqcp0","pricing_plan_id":"cebpf4jnsgd1na2vs0mg"},{"bike_id":"c8e0fcb6-1d3f-4d83-b861-1f56e6b3ab2c","system_id":"levelo_inurba_marseille","lat":43.32294,"lon":5.38268,"is_reserved":false,"is_disabled":false,"rental_uris":{"android":"levelo://app?vid=c8e0fcb6-1d3f-4d83-b861-1f56e6b3ab2c","ios":"levelo://app?vid=c8e0fcb6-1d3f-4d83-b861-1f56e6b3ab2c"},"vehicle_type_id":"4","last_reported":1726009706,"current_range_meters":34000,"station_id":"ce4bhr12rcd13ifvqhqg","pricing_plan_id":"cebpf4jnsgd1na2vs0mg"},{"bike_id":"6776db5f-50cd-4d20-b245-c2e33644fee2","system_id":"levelo_inurba_marseille","lat":43.30888,"lon":5.37194,"is_reserved":false,"is_disabled":false,"rental_uris":{"android":"levelo://app?vid=6776db5f-50cd-4d20-b245-c2e33644fee2","ios":"levelo://app?vid=6776db5f-50cd-4d20-b245-c2e33644fee2"},"vehicle_type_id":"4","last_reported":1726009706,"current_range_meters":18800,"station_id":"ce4bguh2rcd13ifvqckg","pricing_plan_id":"cebpf4jnsgd1na2vs0mg"},{"bike_id":"43be8d6b-5133-41b2-8694-09c5ae710ceb","system_id":"levelo_inurba_marseille","lat":43.29219,"lon":5.39337,"is_reserved":false,"is_disabled":false,"rental_uris":{"android":"levelo://app?vid=43be8d6b-5133-41b2-8694-09c5ae710ceb","ios":"levelo://app?vid=43be8d6b-5133-41b2-8694-09c5ae710ceb"},"vehicle_type_id":"4","last_reported":1726009706,"current_range_meters":4000,"station_id":"ce4bh192rcd13ifvqdd0","pricing_plan_id":"cebpf4jnsgd1na2vs0mg"},{"bike_id":"5d3be98b-48b5-4abe-87bb-9005d035a4a2","system_id":"levelo_inurba_marseille","lat":43.31328,"lon":5.39691,"is_reserved":false,"is_disabled":false,"rental_uris":{"android":"levelo://app?vid=5d3be98b-48b5-4abe-87bb-9005d035a4a2","ios":"levelo://app?vid=5d3be98b-48b5-4abe-87bb-9005d035a4a2"},"vehicle_type_id":"4","last_reported":1726009706,"current_range_meters":12800,"station_id":"ce4bgvp2rcd13ifvqcu0","pricing_plan_id":"cebpf4jnsgd1na2vs0mg"},{"bike_id":"01fae4bd-1ba0-4d91-84e8-0fb26eaaa2c8","system_id":"levelo_inurba_marseille","lat":43.29249,"lon":5.40912,"is_reserved":false,"is_disabled":false,"rental_uris":{"android":"levelo://app?vid=01fae4bd-1ba0-4d91-84e8-0fb26eaaa2c8","ios":"levelo://app?vid=01fae4bd-1ba0-4d91-84e8-0fb26eaaa2c8"},"vehicle_type_id":"4","last_reported":1726009706,"current_range_meters":35600,"station_id":"ce4bh192rcd13ifvqdc0","pricing_plan_id":"cebpf4jnsgd1na2vs0mg"},{"bike_id":"db8ae116-647d-4d8e-abc7-4eb1fbfe2ecf","system_id":"levelo_inurba_marseille","lat":43.29873,"lon":5.39741,"is_reserved":false,"is_disabled":false,"rental_uris":{"android":"levelo://app?vid=db8ae116-647d-4d8e-abc7-4eb1fbfe2ecf","ios":"levelo://app?vid=db8ae116-647d-4d8e-abc7-4eb1fbfe2ecf"},"vehicle_type_id":"4","last_reported":1726009706,"current_range_meters":6800,"station_id":"ce4bh0h2rcd13ifvqd50","pricing_plan_id":"cebpf4jnsgd1na2vs0mg"},{"bike_id":"61ae0702-59ac-4df9-a3df-3ffcc0cc3543","system_id":"levelo_inurba_marseille","lat":43.31331,"lon":5.39694,"is_reserved":false,"is_disabled":false,"rental_uris":{"android":"levelo://app?vid=61ae0702-59ac-4df9-a3df-3ffcc0cc3543","ios":"levelo://app?vid=61ae0702-59ac-4df9-a3df-3ffcc0cc3543"},"vehicle_type_id":"4","last_reported":1726009706,"current_range_meters":39200,"station_id":"ce4bgvp2rcd13ifvqcu0","pricing_plan_id":"cebpf4jnsgd1na2vs0mg"},{"bike_id":"0d542ff1-a6db-4734-b6d3-2959e000dad3","system_id":"levelo_inurba_marseille","lat":43.28048,"lon":5.36955,"is_reserved":false,"is_disabled":false,"rental_uris":{"android":"levelo://app?vid=0d542ff1-a6db-4734-b6d3-2959e000dad3","ios":"levelo://app?vid=0d542ff1-a6db-4734-b6d3-2959e000dad3"},"vehicle_type_id":"4","last_reported":1726009706,"current_range_meters":24400,"station_id":"ce4bha12rcd13ifvqef0","pricing_plan_id":"cebpf4jnsgd1na2vs0mg"},{"bike_id":"9610f388-60c6-49bb-84bb-4ea91a1f925b","system_id":"levelo_inurba_marseille","lat":43.29556,"lon":5.42273,"is_reserved":false,"is_disabled":false,"rental_uris":{"android":"levelo://app?vid=9610f388-60c6-49bb-84bb-4ea91a1f925b","ios":"levelo://app?vid=9610f388-60c6-49bb-84bb-4ea91a1f925b"},"vehicle_type_id":"4","last_reported":1726009706,"current_range_meters":8400,"station_id":"ce4bhph2rcd13ifvqhdg","pricing_plan_id":"cebpf4jnsgd1na2vs0mg"},{"bike_id":"b979827e-ffa2-4465-8490-36166590de00","system_id":"levelo_inurba_marseille","lat":43.24074,"lon":5.37767,"is_reserved":false,"is_disabled":false,"rental_uris":{"android":"levelo://app?vid=b979827e-ffa2-4465-8490-36166590de00","ios":"levelo://app?vid=b979827e-ffa2-4465-8490-36166590de00"},"vehicle_type_id":"4","last_reported":1726009706,"current_range_meters":38000,"station_id":"ce4bhnp2rcd13ifvqgvg","pricing_plan_id":"cebpf4jnsgd1na2vs0mg"},{"bike_id":"5e3a6a3f-47f9-4acc-ae12-f65778c0e611","system_id":"levelo_inurba_marseille","lat":43.31329,"lon":5.39689,"is_reserved":false,"is_disabled":false,"rental_uris":{"android":"levelo://app?vid=5e3a6a3f-47f9-4acc-ae12-f65778c0e611","ios":"levelo://app?vid=5e3a6a3f-47f9-4acc-ae12-f65778c0e611"},"vehicle_type_id":"4","last_reported":1726009706,"current_range_meters":8000,"station_id":"ce4bgvp2rcd13ifvqcu0","pricing_plan_id":"cebpf4jnsgd1na2vs0mg"},{"bike_id":"7ae6ca8b-92bb-41f1-9389-d4c5028bd475","system_id":"levelo_inurba_marseille","lat":43.29899,"lon":5.43661,"is_reserved":false,"is_disabled":false,"rental_uris":{"android":"levelo://app?vid=7ae6ca8b-92bb-41f1-9389-d4c5028bd475","ios":"levelo://app?vid=7ae6ca8b-92bb-41f1-9389-d4c5028bd475"},"vehicle_type_id":"4","last_reported":1726009706,"current_range_meters":23200,"station_id":"ce4bhpp2rcd13ifvqhfg","pricing_plan_id":"cebpf4jnsgd1na2vs0mg"},{"bike_id":"9c5d5cf2-9e08-41f8-afe7-3d0957aa1ead","system_id":"levelo_inurba_marseille","lat":43.29296,"lon":5.37461,"is_reserved":false,"is_disabled":false,"rental_uris":{"android":"levelo://app?vid=9c5d5cf2-9e08-41f8-afe7-3d0957aa1ead","ios":"levelo://app?vid=9c5d5cf2-9e08-41f8-afe7-3d0957aa1ead"},"vehicle_type_id":"4","last_reported":1726009706,"current_range_meters":33200,"station_id":"ce4bgi12rcd13ifvqb70","pricing_plan_id":"cebpf4jnsgd1na2vs0mg"},{"bike_id":"1a1a9292-1a7e-4b3a-8749-ddcaec5cb477","system_id":"levelo_inurba_marseille","lat":43.33024,"lon":5.3904,"is_reserved":false,"is_disabled":false,"rental_uris":{"android":"levelo://app?vid=1a1a9292-1a7e-4b3a-8749-ddcaec5cb477","ios":"levelo://app?vid=1a1a9292-1a7e-4b3a-8749-ddcaec5cb477"},"vehicle_type_id":"4","last_reported":1726009706,"current_range_meters":27200,"station_id":"ce4bhr92rcd13ifvqhrg","pricing_plan_id":"cebpf4jnsgd1na2vs0mg"},{"bike_id":"69eda0f2-b4e3-4334-adca-4d6836fcc9fd","system_id":"levelo_inurba_marseille","lat":43.32301,"lon":5.38264,"is_reserved":false,"is_disabled":false,"rental_uris":{"android":"levelo://app?vid=69eda0f2-b4e3-4334-adca-4d6836fcc9fd","ios":"levelo://app?vid=69eda0f2-b4e3-4334-adca-4d6836fcc9fd"},"vehicle_type_id":"4","last_reported":1726009706,"current_range_meters":36800,"station_id":"ce4bhr12rcd13ifvqhqg","pricing_plan_id":"cebpf4jnsgd1na2vs0mg"},{"bike_id":"927e3da6-e7cc-4a5c-a064-82f01ba43a49","system_id":"levelo_inurba_marseille","lat":43.32033,"lon":5.4156,"is_reserved":false,"is_disabled":false,"rental_uris":{"android":"levelo://app?vid=927e3da6-e7cc-4a5c-a064-82f01ba43a49","ios":"levelo://app?vid=927e3da6-e7cc-4a5c-a064-82f01ba43a49"},"vehicle_type_id":"4","last_reported":1726009706,"current_range_meters":9200,"station_id":"ce4bhq92rcd13ifvqhkg","pricing_plan_id":"cebpf4jnsgd1na2vs0mg"},{"bike_id":"55145fae-a8cb-41b8-a97f-efce85464954","system_id":"levelo_inurba_marseille","lat":43.33762,"lon":5.37462,"is_reserved":false,"is_disabled":false,"rental_uris":{"android":"levelo://app?vid=55145fae-a8cb-41b8-a97f-efce85464954","ios":"levelo://app?vid=55145fae-a8cb-41b8-a97f-efce85464954"},"vehicle_type_id":"4","last_reported":1726009706,"current_range_meters":30400,"station_id":"","pricing_plan_id":"cebpf4jnsgd1na2vs0mg"},{"bike_id":"f400d370-a20e-4ced-86f0-64f62510749c","system_id":"levelo_inurba_marseille","lat":43.3237,"lon":5.38926,"is_reserved":false,"is_disabled":false,"rental_uris":{"android":"levelo://app?vid=f400d370-a20e-4ced-86f0-64f62510749c","ios":"levelo://app?vid=f400d370-a20e-4ced-86f0-64f62510749c"},"vehicle_type_id":"4","last_reported":1726009706,"current_range_meters":16400,"station_id":"","pricing_plan_id":"cebpf4jnsgd1na2vs0mg"},{"bike_id":"5f549ef9-24b0-403c-982d-a23549a7d5bf","system_id":"levelo_inurba_marseille","lat":43.28944,"lon":5.364,"is_reserved":false,"is_disabled":false,"rental_uris":{"android":"levelo://app?vid=5f549ef9-24b0-403c-982d-a23549a7d5bf","ios":"levelo://app?vid=5f549ef9-24b0-403c-982d-a23549a7d5bf"},"vehicle_type_id":"4","last_reported":1726009706,"current_range_meters":24400,"station_id":"ce4bhc92rcd13ifvqetg","pricing_plan_id":"cebpf4jnsgd1na2vs0mg"},{"bike_id":"88d02e52-7466-442c-a697-a70eac9f6e7e","system_id":"levelo_inurba_marseille","lat":43.31726,"lon":5.42409,"is_reserved":false,"is_disabled":false,"rental_uris":{"android":"levelo://app?vid=88d02e52-7466-442c-a697-a70eac9f6e7e","ios":"levelo://app?vid=88d02e52-7466-442c-a697-a70eac9f6e7e"},"vehicle_type_id":"4","last_reported":1726009706,"current_range_meters":12000,"station_id":"ce4bhp92rcd13ifvqhbg","pricing_plan_id":"cebpf4jnsgd1na2vs0mg"},{"bike_id":"6b556058-d0b4-4003-a757-2a88c17f4ca7","system_id":"levelo_inurba_marseille","lat":43.31165,"lon":5.3872,"is_reserved":false,"is_disabled":false,"rental_uris":{"android":"levelo://app?vid=6b556058-d0b4-4003-a757-2a88c17f4ca7","ios":"levelo://app?vid=6b556058-d0b4-4003-a757-2a88c17f4ca7"},"vehicle_type_id":"4","last_reported":1726009706,"current_range_meters":22800,"station_id":"ce4bgv12rcd13ifvqcp0","pricing_plan_id":"cebpf4jnsgd1na2vs0mg"},{"bike_id":"9320b79d-cbc4-47e0-a8a1-39c7f9bbcffb","system_id":"levelo_inurba_marseille","lat":43.2467,"lon":5.38177,"is_reserved":false,"is_disabled":false,"rental_uris":{"android":"levelo://app?vid=9320b79d-cbc4-47e0-a8a1-39c7f9bbcffb","ios":"levelo://app?vid=9320b79d-cbc4-47e0-a8a1-39c7f9bbcffb"},"vehicle_type_id":"4","last_reported":1726009706,"current_range_meters":38800,"station_id":"ce4bhih2rcd13ifvqfr0","pricing_plan_id":"cebpf4jnsgd1na2vs0mg"},{"bike_id":"e9d8c7b2-62a1-4e01-b449-32058adc2bb5","system_id":"levelo_inurba_marseille","lat":43.31173,"lon":5.38712,"is_reserved":false,"is_disabled":false,"rental_uris":{"android":"levelo://app?vid=e9d8c7b2-62a1-4e01-b449-32058adc2bb5","ios":"levelo://app?vid=e9d8c7b2-62a1-4e01-b449-32058adc2bb5"},"vehicle_type_id":"4","last_reported":1726009706,"current_range_meters":35600,"station_id":"ce4bgv12rcd13ifvqcp0","pricing_plan_id":"cebpf4jnsgd1na2vs0mg"},{"bike_id":"4f98b9a6-3078-458b-b605-3b0ed6341dd8","system_id":"levelo_inurba_marseille","lat":43.287037,"lon":5.375093,"is_reserved":false,"is_disabled":false,"rental_uris":{"android":"levelo://app?vid=4f98b9a6-3078-458b-b605-3b0ed6341dd8","ios":"levelo://app?vid=4f98b9a6-3078-458b-b605-3b0ed6341dd8"},"vehicle_type_id":"4","last_reported":1726009706,"current_range_meters":32000,"station_id":"","pricing_plan_id":"cebpf4jnsgd1na2vs0mg"},{"bike_id":"7d7277b3-0e88-4b14-a1ef-96c490ea596f","system_id":"levelo_inurba_marseille","lat":43.28697,"lon":5.39986,"is_reserved":false,"is_disabled":false,"rental_uris":{"android":"levelo://app?vid=7d7277b3-0e88-4b14-a1ef-96c490ea596f","ios":"levelo://app?vid=7d7277b3-0e88-4b14-a1ef-96c490ea596f"},"vehicle_type_id":"4","last_reported":1726009706,"current_range_meters":32800,"station_id":"ce4bho92rcd13ifvqh3g","pricing_plan_id":"cebpf4jnsgd1na2vs0mg"},{"bike_id":"feed6fba-14b9-4531-8af7-958d1ed07067","system_id":"levelo_inurba_marseille","lat":43.30774,"lon":5.37657,"is_reserved":false,"is_disabled":false,"rental_uris":{"android":"levelo://app?vid=feed6fba-14b9-4531-8af7-958d1ed07067","ios":"levelo://app?vid=feed6fba-14b9-4531-8af7-958d1ed07067"},"vehicle_type_id":"4","last_reported":1726009706,"current_range_meters":6400,"station_id":"ce4bgv92rcd13ifvqcq0","pricing_plan_id":"cebpf4jnsgd1na2vs0mg"},{"bike_id":"ee6b71fa-0dd1-49c9-8406-c532a7e22428","system_id":"levelo_inurba_marseille","lat":43.31271,"lon":5.40177,"is_reserved":false,"is_disabled":false,"rental_uris":{"android":"levelo://app?vid=ee6b71fa-0dd1-49c9-8406-c532a7e22428","ios":"levelo://app?vid=ee6b71fa-0dd1-49c9-8406-c532a7e22428"},"vehicle_type_id":"4","last_reported":1726009706,"current_range_meters":21600,"station_id":"ce4bh092rcd13ifvqd30","pricing_plan_id":"cebpf4jnsgd1na2vs0mg"},{"bike_id":"1bf06025-aedf-460b-901a-d84a3fb14368","system_id":"levelo_inurba_marseille","lat":43.28696,"lon":5.39991,"is_reserved":false,"is_disabled":false,"rental_uris":{"android":"levelo://app?vid=1bf06025-aedf-460b-901a-d84a3fb14368","ios":"levelo://app?vid=1bf06025-aedf-460b-901a-d84a3fb14368"},"vehicle_type_id":"4","last_reported":1726009706,"current_range_meters":18800,"station_id":"ce4bho92rcd13ifvqh3g","pricing_plan_id":"cebpf4jnsgd1na2vs0mg"},{"bike_id":"a63f94bf-60a1-4f59-8038-f901c7e66c95","system_id":"levelo_inurba_marseille","lat":43.295613,"lon":5.422942,"is_reserved":false,"is_disabled":false,"rental_uris":{"android":"levelo://app?vid=a63f94bf-60a1-4f59-8038-f901c7e66c95","ios":"levelo://app?vid=a63f94bf-60a1-4f59-8038-f901c7e66c95"},"vehicle_type_id":"4","last_reported":1726009706,"current_range_meters":28400,"station_id":"ce4bhph2rcd13ifvqhdg","pricing_plan_id":"cebpf4jnsgd1na2vs0mg"},{"bike_id":"28a6dc6f-0df2-4ce0-8e42-abef2c4254c2","system_id":"levelo_inurba_marseille","lat":43.29899,"lon":5.43676,"is_reserved":false,"is_disabled":false,"rental_uris":{"android":"levelo://app?vid=28a6dc6f-0df2-4ce0-8e42-abef2c4254c2","ios":"levelo://app?vid=28a6dc6f-0df2-4ce0-8e42-abef2c4254c2"},"vehicle_type_id":"4","last_reported":1726009706,"current_range_meters":38800,"station_id":"ce4bhpp2rcd13ifvqhfg","pricing_plan_id":"cebpf4jnsgd1na2vs0mg"},{"bike_id":"34ec0220-b905-4c36-a8ef-ae15147576d2","system_id":"levelo_inurba_marseille","lat":43.25016,"lon":5.3892,"is_reserved":false,"is_disabled":false,"rental_uris":{"android":"levelo://app?vid=34ec0220-b905-4c36-a8ef-ae15147576d2","ios":"levelo://app?vid=34ec0220-b905-4c36-a8ef-ae15147576d2"},"vehicle_type_id":"4","last_reported":1726009706,"current_range_meters":28800,"station_id":"ce4bhgp2rcd13ifvqfd0","pricing_plan_id":"cebpf4jnsgd1na2vs0mg"},{"bike_id":"ad4169bd-c852-4513-aa84-dd9593e6c788","system_id":"levelo_inurba_marseille","lat":43.32334,"lon":5.40627,"is_reserved":false,"is_disabled":false,"rental_uris":{"android":"levelo://app?vid=ad4169bd-c852-4513-aa84-dd9593e6c788","ios":"levelo://app?vid=ad4169bd-c852-4513-aa84-dd9593e6c788"},"vehicle_type_id":"4","last_reported":1726009706,"current_range_meters":16000,"station_id":"ce4bhq92rcd13ifvqhjg","pricing_plan_id":"cebpf4jnsgd1na2vs0mg"},{"bike_id":"cec131b6-6c84-4899-9723-159f4b060af5","system_id":"levelo_inurba_marseille","lat":43.31684,"lon":5.37744,"is_reserved":false,"is_disabled":false,"rental_uris":{"android":"levelo://app?vid=cec131b6-6c84-4899-9723-159f4b060af5","ios":"levelo://app?vid=cec131b6-6c84-4899-9723-159f4b060af5"},"vehicle_type_id":"4","last_reported":1726009706,"current_range_meters":10000,"station_id":"ce4bgth2rcd13ifvqch0","pricing_plan_id":"cebpf4jnsgd1na2vs0mg"},{"bike_id":"a882960d-3ac7-4f77-bb51-aee566575fd6","system_id":"levelo_inurba_marseille","lat":43.27673,"lon":5.38892,"is_reserved":false,"is_disabled":false,"rental_uris":{"android":"levelo://app?vid=a882960d-3ac7-4f77-bb51-aee566575fd6","ios":"levelo://app?vid=a882960d-3ac7-4f77-bb51-aee566575fd6"},"vehicle_type_id":"4","last_reported":1726009706,"current_range_meters":38800,"station_id":"ce4bhi12rcd13ifvqfo0","pricing_plan_id":"cebpf4jnsgd1na2vs0mg"},{"bike_id":"e3ff2ff2-1096-4b7a-a3a2-7928d38557b8","system_id":"levelo_inurba_marseille","lat":43.2782,"lon":5.40713,"is_reserved":false,"is_disabled":false,"rental_uris":{"android":"levelo://app?vid=e3ff2ff2-1096-4b7a-a3a2-7928d38557b8","ios":"levelo://app?vid=e3ff2ff2-1096-4b7a-a3a2-7928d38557b8"},"vehicle_type_id":"4","last_reported":1726009706,"current_range_meters":12400,"station_id":"ce4bhnh2rcd13ifvqgtg","pricing_plan_id":"cebpf4jnsgd1na2vs0mg"},{"bike_id":"f426ac57-a8a8-46a3-8dae-a142ec571116","system_id":"levelo_inurba_marseille","lat":43.28572,"lon":5.39494,"is_reserved":false,"is_disabled":false,"rental_uris":{"android":"levelo://app?vid=f426ac57-a8a8-46a3-8dae-a142ec571116","ios":"levelo://app?vid=f426ac57-a8a8-46a3-8dae-a142ec571116"},"vehicle_type_id":"4","last_reported":1726009706,"current_range_meters":33600,"station_id":"ce4bh292rcd13ifvqdg0","pricing_plan_id":"cebpf4jnsgd1na2vs0mg"},{"bike_id":"c36eb76d-f384-43ff-9efb-066989c18b22","system_id":"levelo_inurba_marseille","lat":43.27571,"lon":5.3842,"is_reserved":false,"is_disabled":false,"rental_uris":{"android":"levelo://app?vid=c36eb76d-f384-43ff-9efb-066989c18b22","ios":"levelo://app?vid=c36eb76d-f384-43ff-9efb-066989c18b22"},"vehicle_type_id":"4","last_reported":1726009706,"current_range_meters":8800,"station_id":"ce4bhh92rcd13ifvqfi0","pricing_plan_id":"cebpf4jnsgd1na2vs0mg"},{"bike_id":"364a848a-d618-4a48-a16b-d6d37ae4402b","system_id":"levelo_inurba_marseille","lat":43.31077,"lon":5.385275,"is_reserved":false,"is_disabled":false,"rental_uris":{"android":"levelo://app?vid=364a848a-d618-4a48-a16b-d6d37ae4402b","ios":"levelo://app?vid=364a848a-d618-4a48-a16b-d6d37ae4402b"},"vehicle_type_id":"4","last_reported":1726009706,"current_range_meters":14000,"station_id":"ce4bgv12rcd13ifvqcp0","pricing_plan_id":"cebpf4jnsgd1na2vs0mg"},{"bike_id":"811b9bdc-6467-4ccf-9f51-8a47fd4e629b","system_id":"levelo_inurba_marseille","lat":43.29284,"lon":5.40131,"is_reserved":false,"is_disabled":false,"rental_uris":{"android":"levelo://app?vid=811b9bdc-6467-4ccf-9f51-8a47fd4e629b","ios":"levelo://app?vid=811b9bdc-6467-4ccf-9f51-8a47fd4e629b"},"vehicle_type_id":"4","last_reported":1726009706,"current_range_meters":35200,"station_id":"ce4bh312rcd13ifvqdk0","pricing_plan_id":"cebpf4jnsgd1na2vs0mg"},{"bike_id":"f9588990-7de1-4e0b-979b-31419c532106","system_id":"levelo_inurba_marseille","lat":43.28041,"lon":5.36943,"is_reserved":false,"is_disabled":false,"rental_uris":{"android":"levelo://app?vid=f9588990-7de1-4e0b-979b-31419c532106","ios":"levelo://app?vid=f9588990-7de1-4e0b-979b-31419c532106"},"vehicle_type_id":"4","last_reported":1726009706,"current_range_meters":12000,"station_id":"ce4bha12rcd13ifvqef0","pricing_plan_id":"cebpf4jnsgd1na2vs0mg"},{"bike_id":"ea547e96-58db-43e3-871c-6a5edbb3f391","system_id":"levelo_inurba_marseille","lat":43.27174,"lon":5.40996,"is_reserved":false,"is_disabled":false,"rental_uris":{"android":"levelo://app?vid=ea547e96-58db-43e3-871c-6a5edbb3f391","ios":"levelo://app?vid=ea547e96-58db-43e3-871c-6a5edbb3f391"},"vehicle_type_id":"4","last_reported":1726009706,"current_range_meters":30000,"station_id":"ce4bhl12rcd13ifvqgf0","pricing_plan_id":"cebpf4jnsgd1na2vs0mg"},{"bike_id":"d5df1b6d-3d3d-4339-90f3-edaf4836f9b3","system_id":"levelo_inurba_marseille","lat":43.28727,"lon":5.36085,"is_reserved":false,"is_disabled":false,"rental_uris":{"android":"levelo://app?vid=d5df1b6d-3d3d-4339-90f3-edaf4836f9b3","ios":"levelo://app?vid=d5df1b6d-3d3d-4339-90f3-edaf4836f9b3"},"vehicle_type_id":"4","last_reported":1726009706,"current_range_meters":11200,"station_id":"cki0cbj6b192h4jlfktg","pricing_plan_id":"cebpf4jnsgd1na2vs0mg"},{"bike_id":"2dfb5171-15aa-4d8e-83fc-de16ea1eed2e","system_id":"levelo_inurba_marseille","lat":43.24076,"lon":5.37756,"is_reserved":false,"is_disabled":false,"rental_uris":{"android":"levelo://app?vid=2dfb5171-15aa-4d8e-83fc-de16ea1eed2e","ios":"levelo://app?vid=2dfb5171-15aa-4d8e-83fc-de16ea1eed2e"},"vehicle_type_id":"4","last_reported":1726009706,"current_range_meters":35600,"station_id":"ce4bhnp2rcd13ifvqgvg","pricing_plan_id":"cebpf4jnsgd1na2vs0mg"},{"bike_id":"cec1f9c3-f935-49fa-9c33-44dd73c28b4d","system_id":"levelo_inurba_marseille","lat":43.32496,"lon":5.36563,"is_reserved":false,"is_disabled":false,"rental_uris":{"android":"levelo://app?vid=cec1f9c3-f935-49fa-9c33-44dd73c28b4d","ios":"levelo://app?vid=cec1f9c3-f935-49fa-9c33-44dd73c28b4d"},"vehicle_type_id":"4","last_reported":1726009706,"current_range_meters":38800,"station_id":"ce4bhs12rcd13ifvqhvg","pricing_plan_id":"cebpf4jnsgd1na2vs0mg"},{"bike_id":"36f58328-8f54-4fcf-bcca-0a753cccddb2","system_id":"levelo_inurba_marseille","lat":43.23195,"lon":5.35558,"is_reserved":false,"is_disabled":false,"rental_uris":{"android":"levelo://app?vid=36f58328-8f54-4fcf-bcca-0a753cccddb2","ios":"levelo://app?vid=36f58328-8f54-4fcf-bcca-0a753cccddb2"},"vehicle_type_id":"4","last_reported":1726009706,"current_range_meters":19200,"station_id":"ce4bhu92rcd13ifvqi70","pricing_plan_id":"cebpf4jnsgd1na2vs0mg"},{"bike_id":"44f32411-a978-4e5c-8794-5490ed45ba7d","system_id":"levelo_inurba_marseille","lat":43.33773,"lon":5.37451,"is_reserved":false,"is_disabled":false,"rental_uris":{"android":"levelo://app?vid=44f32411-a978-4e5c-8794-5490ed45ba7d","ios":"levelo://app?vid=44f32411-a978-4e5c-8794-5490ed45ba7d"},"vehicle_type_id":"4","last_reported":1726009706,"current_range_meters":36800,"station_id":"","pricing_plan_id":"cebpf4jnsgd1na2vs0mg"},