{"last_updated":1726733566,"ttl":30,"version":"2.2","data":{"bikes":[{"bike_id":"53f85c0f-9bc3-428d-8e67-2607741aa3ee","system_id":"levelo_inurba_marseille","lat":43.3254,"lon":5.4144,"is_reserved":false,"is_disabled":false,"rental_uris":{"android":"levelo://app?vid=53f85c0f-9bc3-428d-8e67-2607741aa3ee","ios":"levelo://app?vid=53f85c0f-9bc3-428d-8e67-2607741aa3ee"},"vehicle_type_id":"4","last_reported":1726733566,"current_range_meters":14000,"station_id":"ce4bhq12rcd13ifvqhhg","pricing_plan_id":"cebpf4jnsgd1na2vs0mg"},{"bike_id":"7254fac7-cb54-45cf-b5c1-7ab5cf195c30","system_id":"levelo_inurba_marseille","lat":43.293025,"lon":5.374571,"is_reserved":false,"is_disabled":false,"rental_uris":{"android":"levelo://app?vid=7254fac7-cb54-45cf-b5c1-7ab5cf195c30","ios":"levelo://app?vid=7254fac7-cb54-45cf-b5c1-7ab5cf195c30"},"vehicle_type_id":"4","last_reported":1726733566,"current_range_meters":12800,"station_id":"ce4bgi12rcd13ifvqb70","pricing_plan_id":"cebpf4jnsgd1na2vs0mg"},{"bike_id":"897a2a90-a513-4bc6-aa39-1ef51f15e559","system_id":"levelo_inurba_marseille","lat":43.26943,"lon":5.38647,"is_reserved":false,"is_disabled":false,"rental_uris":{"android":"levelo://app?vid=897a2a90-a513-4bc6-aa39-1ef51f15e559","ios":"levelo://app?vid=897a2a90-a513-4bc6-aa39-1ef51f15e559"},"vehicle_type_id":"4","last_reported":1726733566,"current_range_meters":28800,"station_id":"ce4bhh92rcd13ifvqfh0","pricing_plan_id":"cebpf4jnsgd1na2vs0mg"},{"bike_id":"270101bb-bd3f-4ff1-ada6-f9cc215e3b46","system_id":"levelo_inurba_marseille","lat":43.29515,"lon":5.3749,"is_reserved":false,"is_disabled":false,"rental_uris":{"android":"levelo://app?vid=270101bb-bd3f-4ff1-ada6-f9cc215e3b46","ios":"levelo://app?vid=270101bb-bd3f-4ff1-ada6-f9cc215e3b46"},"vehicle_type_id":"4","last_reported":1726733566,"current_range_meters":8800,"station_id":"ce4bgkp2rcd13ifvqbmg","pricing_plan_id":"cebpf4jnsgd1na2vs0mg"},{"bike_id":"8e365fa4-886c-4b6d-9fcc-b42c0ce88e83","system_id":"levelo_inurba_marseille","lat":43.2972,"lon":5.37683,"is_reserved":false,"is_disabled":false,"rental_uris":{"android":"levelo://app?vid=8e365fa4-886c-4b6d-9fcc-b42c0ce88e83","ios":"levelo://app?vid=8e365fa4-886c-4b6d-9fcc-b42c0ce88e83"},"vehicle_type_id":"4","last_reported":1726733566,"current_range_meters":39200,"station_id":"ce4bgkh2rcd13ifvqbl0","pricing_plan_id":"cebpf4jnsgd1na2vs0mg"},{"bike_id":"c9105248-875d-4d5c-92ee-fd4bfd5f62ce","system_id":"levelo_inurba_marseille","lat":43.29547,"lon":5.4229,"is_reserved":false,"is_disabled":false,"rental_uris":{"android":"levelo://app?vid=c9105248-875d-4d5c-92ee-fd4bfd5f62ce","ios":"levelo://app?vid=c9105248-875d-4d5c-92ee-fd4bfd5f62ce"},"vehicle_type_id":"4","last_reported":1726733566,"current_range_meters":35200,"station_id":"ce4bhph2rcd13ifvqhdg","pricing_plan_id":"cebpf4jnsgd1na2vs0mg"},{"bike_id":"706f489f-123a-4c57-83f7-c2d2263bd906","system_id":"levelo_inurba_marseille","lat":43.34141,"lon":5.40904,"is_reserved":false,"is_disabled":false,"rental_uris":{"android":"levelo://app?vid=706f489f-123a-4c57-83f7-c2d2263bd906","ios":"levelo://app?vid=706f489f-123a-4c57-83f7-c2d2263bd906"},"vehicle_type_id":"4","last_reported":1726733566,"current_range_meters":11600,"station_id":"ce4bhqh2rcd13ifvqhlg","pricing_plan_id":"cebpf4jnsgd1na2vs0mg"},{"bike_id":"70cccf6a-6f9f-43b0-a4d2-80222d66e7df","system_id":"levelo_inurba_marseille","lat":43.33632,"lon":5.41037,"is_reserved":false,"is_disabled":false,"rental_uris":{"android":"levelo://app?vid=70cccf6a-6f9f-43b0-a4d2-80222d66e7df","ios":"levelo://app?vid=70cccf6a-6f9f-43b0-a4d2-80222d66e7df"},"vehicle_type_id":"4","last_reported":1726733566,"current_range_meters":6800,"station_id":"ce4bhqh2rcd13ifvqhmg","pricing_plan_id":"cebpf4jnsgd1na2vs0mg"},{"bike_id":"b0b405a2-92c4-4d4d-ba0a-fbba7d42bcd1","system_id":"levelo_inurba_marseille","lat":43.30261,"lon":5.40075,"is_reserved":false,"is_disabled":false,"rental_uris":{"android":"levelo://app?vid=b0b405a2-92c4-4d4d-ba0a-fbba7d42bcd1","ios":"levelo://app?vid=b0b405a2-92c4-4d4d-ba0a-fbba7d42bcd1"},"vehicle_type_id":"4","last_reported":1726733566,"current_range_meters":26800,"station_id":"ce4bgvh2rcd13ifvqcs0","pricing_plan_id":"cebpf4jnsgd1na2vs0mg"},{"bike_id":"6cbf7334-272b-475e-b8aa-f44f29cebaae","system_id":"levelo_inurba_marseille","lat":43.30468,"lon":5.37905,"is_reserved":false,"is_disabled":false,"rental_uris":{"android":"levelo://app?vid=6cbf7334-272b-475e-b8aa-f44f29cebaae","ios":"levelo://app?vid=6cbf7334-272b-475e-b8aa-f44f29cebaae"},"vehicle_type_id":"4","last_reported":1726733566,"current_range_meters":38800,"station_id":"ce4bgup2rcd13ifvqcn0","pricing_plan_id":"cebpf4jnsgd1na2vs0mg"},{"bike_id":"ea518a3b-2ba6-4aef-8e8b-1da3cf82019a","system_id":"levelo_inurba_marseille","lat":43.27496,"lon":5.42454,"is_reserved":false,"is_disabled":false,"rental_uris":{"android":"levelo://app?vid=ea518a3b-2ba6-4aef-8e8b-1da3cf82019a","ios":"levelo://app?vid=ea518a3b-2ba6-4aef-8e8b-1da3cf82019a"},"vehicle_type_id":"4","last_reported":1726733566,"current_range_meters":6800,"station_id":"ce4bhn92rcd13ifvqgrg","pricing_plan_id":"cebpf4jnsgd1na2vs0mg"},{"bike_id":"9a8caa05-259e-4b84-bd68-de2f9c9d3fc6","system_id":"levelo_inurba_marseille","lat":43.30445,"lon":5.379,"is_reserved":false,"is_disabled":false,"rental_uris":{"android":"levelo://app?vid=9a8caa05-259e-4b84-bd68-de2f9c9d3fc6","ios":"levelo://app?vid=9a8caa05-259e-4b84-bd68-de2f9c9d3fc6"},"vehicle_type_id":"4","last_reported":1726733566,"current_range_meters":14400,"station_id":"ce4bgup2rcd13ifvqcn0","pricing_plan_id":"cebpf4jnsgd1na2vs0mg"},{"bike_id":"e532fd53-ad12-4848-82ea-70ac934c1c37","system_id":"levelo_inurba_marseille","lat":43.33755,"lon":5.37456,"is_reserved":false,"is_disabled":false,"rental_uris":{"android":"levelo://app?vid=e532fd53-ad12-4848-82ea-70ac934c1c37","ios":"levelo://app?vid=e532fd53-ad12-4848-82ea-70ac934c1c37"},"vehicle_type_id":"4","last_reported":1726733566,"current_range_meters":16000,"station_id":"","pricing_plan_id":"cebpf4jnsgd1na2vs0mg"},{"bike_id":"16aff90c-07c9-446e-b8cf-7b04ea13322c","system_id":"levelo_inurba_marseille","lat":43.28152,"lon":5.42635,"is_reserved":false,"is_disabled":false,"rental_uris":{"android":"levelo://app?vid=16aff90c-07c9-446e-b8cf-7b04ea13322c","ios":"levelo://app?vid=16aff90c-07c9-446e-b8cf-7b04ea13322c"},"vehicle_type_id":"4","last_reported":1726733566,"current_range_meters":36000,"station_id":"ce4bhnh2rcd13ifvqgug","pricing_plan_id":"cebpf4jnsgd1na2vs0mg"},{"bike_id":"9a7bef7e-aa27-4b3e-b3a0-16082888faf1","system_id":"levelo_inurba_marseille","lat":43.25935,"lon":5.40906,"is_reserved":false,"is_disabled":false,"rental_uris":{"android":"levelo://app?vid=9a7bef7e-aa27-4b3e-b3a0-16082888faf1","ios":"levelo://app?vid=9a7bef7e-aa27-4b3e-b3a0-16082888faf1"},"vehicle_type_id":"4","last_reported":1726733566,"current_range_meters":35600,"station_id":"ce4bhm92rcd13ifvqglg","pricing_plan_id":"cebpf4jnsgd1na2vs0mg"},{"bike_id":"1ea9c9d4-798f-4f17-87ef-b1fef3513275","system_id":"levelo_inurba_marseille","lat":43.3021,"lon":5.39466,"is_reserved":false,"is_disabled":false,"rental_uris":{"android":"levelo://app?vid=1ea9c9d4-798f-4f17-87ef-b1fef3513275","ios":"levelo://app?vid=1ea9c9d4-798f-4f17-87ef-b1fef3513275"},"vehicle_type_id":"4","last_reported":1726733566,"current_range_meters":39200,"station_id":"ce4bh0p2rcd13ifvqd70","pricing_plan_id":"cebpf4jnsgd1na2vs0mg"},{"bike_id":"ba671468-6022-443b-8c16-a1ff584a748a","system_id":"levelo_inurba_marseille","lat":43.32487,"lon":5.36555,"is_reserved":false,"is_disabled":false,"rental_uris":{"android":"levelo://app?vid=ba671468-6022-443b-8c16-a1ff584a748a","ios":"levelo://app?vid=ba671468-6022-443b-8c16-a1ff584a748a"},"vehicle_type_id":"4","last_reported":1726733566,"current_range_meters":36400,"station_id":"ce4bhs12rcd13ifvqhvg","pricing_plan_id":"cebpf4jnsgd1na2vs0mg"},{"bike_id":"a48c0f10-3a7a-4fe8-8343-dded0834619f","system_id":"levelo_inurba_marseille","lat":43.24073,"lon":5.37742,"is_reserved":false,"is_disabled":false,"rental_uris":{"android":"levelo://app?vid=a48c0f10-3a7a-4fe8-8343-dded0834619f","ios":"levelo://app?vid=a48c0f10-3a7a-4fe8-8343-dded0834619f"},"vehicle_type_id":"4","last_reported":1726733566,"current_range_meters":14400,"station_id":"ce4bhnp2rcd13ifvqgvg","pricing_plan_id":"cebpf4jnsgd1na2vs0mg"},{"bike_id":"ac9e3561-3b4d-4605-8c14-af14acce3214","system_id":"levelo_inurba_marseille","lat":43.24995,"lon":5.38938,"is_reserved":false,"is_disabled":false,"rental_uris":{"android":"levelo://app?vid=ac9e3561-3b4d-4605-8c14-af14acce3214","ios":"levelo://app?vid=ac9e3561-3b4d-4605-8c14-af14acce3214"},"vehicle_type_id":"4","last_reported":1726733566,"current_range_meters":31200,"station_id":"ce4bhgp2rcd13ifvqfd0","pricing_plan_id":"cebpf4jnsgd1na2vs0mg"},{"bike_id":"d7d44bd6-3589-4710-b211-c1c587d69caf","system_id":"levelo_inurba_marseille","lat":43.30957,"lon":5.39049,"is_reserved":false,"is_disabled":false,"rental_uris":{"android":"levelo://app?vid=d7d44bd6-3589-4710-b211-c1c587d69caf","ios":"levelo://app?vid=d7d44bd6-3589-4710-b211-c1c587d69caf"},"vehicle_type_id":"4","last_reported":1726733566,"current_range_meters":8000,"station_id":"ce4bgup2rcd13ifvqco0","pricing_plan_id":"cebpf4jnsgd1na2vs0mg"},{"bike_id":"4af403ff-232e-437f-a15e-03f83dae4a86","system_id":"levelo_inurba_marseille","lat":43.30534,"lon":5.36541,"is_reserved":false,"is_disabled":false,"rental_uris":{"android":"levelo://app?vid=4af403ff-232e-437f-a15e-03f83dae4a86","ios":"levelo://app?vid=4af403ff-232e-437f-a15e-03f83dae4a86"},"vehicle_type_id":"4","last_reported":1726733566,"current_range_meters":24800,"station_id":"ce4bgs12rcd13ifvqcag","pricing_plan_id":"cebpf4jnsgd1na2vs0mg"},{"bike_id":"64b8db7b-e020-426b-bc67-cc08026eaa92","system_id":"levelo_inurba_marseille","lat":43.29833,"lon":5.36261,"is_reserved":false,"is_disabled":false,"rental_uris":{"android":"levelo://app?vid=64b8db7b-e020-426b-bc67-cc08026eaa92","ios":"levelo://app?vid=64b8db7b-e020-426b-bc67-cc08026eaa92"},"vehicle_type_id":"4","last_reported":1726733566,"current_range_meters":38800,"station_id":"ce4bgpp2rcd13ifvqc3g","pricing_plan_id":"cebpf4jnsgd1na2vs0mg"},{"bike_id":"db2ee222-5d53-4b86-a557-9b6d736e3ee4","system_id":"levelo_inurba_marseille","lat":43.2961,"lon":5.3774,"is_reserved":false,"is_disabled":false,"rental_uris":{"android":"levelo://app?vid=db2ee222-5d53-4b86-a557-9b6d736e3ee4","ios":"levelo://app?vid=db2ee222-5d53-4b86-a557-9b6d736e3ee4"},"vehicle_type_id":"4","last_reported":1726733566,"current_range_meters":8800,"station_id":"ce4bgi92rcd13ifvqb90","pricing_plan_id":"cebpf4jnsgd1na2vs0mg"},{"bike_id":"422fb2d9-e531-4235-863b-a809f34dec48","system_id":"levelo_inurba_marseille","lat":43.29754,"lon":5.37101,"is_reserved":false,"is_disabled":false,"rental_uris":{"android":"levelo://app?vid=422fb2d9-e531-4235-863b-a809f34dec48","ios":"levelo://app?vid=422fb2d9-e531-4235-863b-a809f34dec48"},"vehicle_type_id":"4","last_reported":1726733566,"current_range_meters":28000,"station_id":"ce4bgop2rcd13ifvqc1g","pricing_plan_id":"cebpf4jnsgd1na2vs0mg"},{"bike_id":"e4ceb45b-ebcb-439f-b679-86d44ef39fd9","system_id":"levelo_inurba_marseille","lat":43.26926,"lon":5.38922,"is_reserved":false,"is_disabled":false,"rental_uris":{"android":"levelo://app?vid=e4ceb45b-ebcb-439f-b679-86d44ef39fd9","ios":"levelo://app?vid=e4ceb45b-ebcb-439f-b679-86d44ef39fd9"},"vehicle_type_id":"4","last_reported":1726733566,"current_range_meters":38800,"station_id":"ce4bhhh2rcd13ifvqfl0","pricing_plan_id":"cebpf4jnsgd1na2vs0mg"},{"bike_id":"27bc0813-b259-4a8e-9a00-f163953335c2","system_id":"levelo_inurba_marseille","lat":43.30136,"lon":5.38781,"is_reserved":false,"is_disabled":false,"rental_uris":{"android":"levelo://app?vid=27bc0813-b259-4a8e-9a00-f163953335c2","ios":"levelo://app?vid=27bc0813-b259-4a8e-9a00-f163953335c2"},"vehicle_type_id":"4","last_reported":1726733566,"current_range_meters":25600,"station_id":"ce4bghh2rcd13ifvqb60","pricing_plan_id":"cebpf4jnsgd1na2vs0mg"},{"bike_id":"09fe1c78-41f6-4b2d-83da-40dfca1a837d","system_id":"levelo_inurba_marseille","lat":43.241805,"lon":5.397252,"is_reserved":false,"is_disabled":false,"rental_uris":{"android":"levelo://app?vid=09fe1c78-41f6-4b2d-83da-40dfca1a837d","ios":"levelo://app?vid=09fe1c78-41f6-4b2d-83da-40dfca1a837d"},"vehicle_type_id":"4","last_reported":1726733566,"current_range_meters":24000,"station_id":"ce4bhn12rcd13ifvqgpg","pricing_plan_id":"cebpf4jnsgd1na2vs0mg"},{"bike_id":"7ba1d9e8-14fe-42e7-95c5-a233e76d15ab","system_id":"levelo_inurba_marseille","lat":43.29003,"lon":5.35613,"is_reserved":false,"is_disabled":false,"rental_uris":{"android":"levelo://app?vid=7ba1d9e8-14fe-42e7-95c5-a233e76d15ab","ios":"levelo://app?vid=7ba1d9e8-14fe-42e7-95c5-a233e76d15ab"},"vehicle_type_id":"4","last_reported":1726733566,"current_range_meters":11200,"station_id":"ce4bhb92rcd13ifvqen0","pricing_plan_id":"cebpf4jnsgd1na2vs0mg"},{"bike_id":"2bc21d36-e9c1-4ac7-aae9-a800945214f5","system_id":"levelo_inurba_marseille","lat":43.30137,"lon":5.37414,"is_reserved":false,"is_disabled":false,"rental_uris":{"android":"levelo://app?vid=2bc21d36-e9c1-4ac7-aae9-a800945214f5","ios":"levelo://app?vid=2bc21d36-e9c1-4ac7-aae9-a800945214f5"},"vehicle_type_id":"4","last_reported":1726733566,"current_range_meters":26800,"station_id":"ce4bgs92rcd13ifvqcc0","pricing_plan_id":"cebpf4jnsgd1na2vs0mg"},{"bike_id":"76f51dfb-fb90-46e0-a72c-0cb97f5049c4","system_id":"levelo_inurba_marseille","lat":43.26558,"lon":5.38993,"is_reserved":false,"is_disabled":false,"rental_uris":{"android":"levelo://app?vid=76f51dfb-fb90-46e0-a72c-0cb97f5049c4","ios":"levelo://app?vid=76f51dfb-fb90-46e0-a72c-0cb97f5049c4"},"vehicle_type_id":"4","last_reported":1726733566,"current_range_meters":16400,"station_id":"ce4bhe12rcd13ifvqf30","pricing_plan_id":"cebpf4jnsgd1na2vs0mg"},{"bike_id":"781f16a0-cc22-4498-ab74-3692f019830d","system_id":"levelo_inurba_marseille","lat":43.261993,"lon":5.379289,"is_reserved":false,"is_disabled":false,"rental_uris":{"android":"levelo://app?vid=781f16a0-cc22-4498-ab74-3692f019830d","ios":"levelo://app?vid=781f16a0-cc22-4498-ab74-3692f019830d"},"vehicle_type_id":"4","last_reported":1726733566,"current_range_meters":27600,"station_id":"ce4bhjp2rcd13ifvqg90","pricing_plan_id":"cebpf4jnsgd1na2vs0mg"},{"bike_id":"97ab6dd7-178d-4a04-b974-d241232e826a","system_id":"levelo_inurba_marseille","lat":43.30954,"lon":5.3902,"is_reserved":false,"is_disabled":false,"rental_uris":{"android":"levelo://app?vid=97ab6dd7-178d-4a04-b974-d241232e826a","ios":"levelo://app?vid=97ab6dd7-178d-4a04-b974-d241232e826a"},"vehicle_type_id":"4","last_reported":1726733566,"current_range_meters":33600,"station_id":"ce4bgup2rcd13ifvqco0","pricing_plan_id":"cebpf4jnsgd1na2vs0mg"},{"bike_id":"8985a7e5-d9b7-4ee6-9335-fd8939fcdf07","system_id":"levelo_inurba_marseille","lat":43.27498,"lon":5.4246,"is_reserved":false,"is_disabled":false,"rental_uris":{"android":"levelo://app?vid=8985a7e5-d9b7-4ee6-9335-fd8939fcdf07","ios":"levelo://app?vid=8985a7e5-d9b7-4ee6-9335-fd8939fcdf07"},"vehicle_type_id":"4","last_reported":1726733566,"current_range_meters":24400,"station_id":"ce4bhn92rcd13ifvqgrg","pricing_plan_id":"cebpf4jnsgd1na2vs0mg"},{"bike_id":"78cd0229-63f4-4790-99c6-4a9a185a91ac","system_id":"levelo_inurba_marseille","lat":43.26055,"lon":5.39393,"is_reserved":false,"is_disabled":false,"rental_uris":{"android":"levelo://app?vid=78cd0229-63f4-4790-99c6-4a9a185a91ac","ios":"levelo://app?vid=78cd0229-63f4-4790-99c6-4a9a185a91ac"},"vehicle_type_id":"4","last_reported":1726733566,"current_range_meters":39200,"station_id":"ce4bhh92rcd13ifvqfj0","pricing_plan_id":"cebpf4jnsgd1na2vs0mg"},{"bike_id":"94b792e3-4671-44d8-9241-f3fb87ab6fe9","system_id":"levelo_inurba_marseille","lat":43.233586,"lon":5.399507,"is_reserved":false,"is_disabled":false,"rental_uris":{"android":"levelo://app?vid=94b792e3-4671-44d8-9241-f3fb87ab6fe9","ios":"levelo://app?vid=94b792e3-4671-44d8-9241-f3fb87ab6fe9"},"vehicle_type_id":"4","last_reported":1726733566,"current_range_meters":24800,"station_id":"ce4bhn12rcd13ifvqgqg","pricing_plan_id":"cebpf4jnsgd1na2vs0mg"},{"bike_id":"5ee72852-9360-467f-8628-81c7887b89c6","system_id":"levelo_inurba_marseille","lat":43.24077,"lon":5.37758,"is_reserved":false,"is_disabled":false,"rental_uris":{"android":"levelo://app?vid=5ee72852-9360-467f-8628-81c7887b89c6","ios":"levelo://app?vid=5ee72852-9360-467f-8628-81c7887b89c6"},"vehicle_type_id":"4","last_reported":1726733566,"current_range_meters":16400,"station_id":"ce4bhnp2rcd13ifvqgvg","pricing_plan_id":"cebpf4jnsgd1na2vs0mg"},{"bike_id":"11b08ab6-4f6e-43f6-b1d9-99c6dde00483","system_id":"levelo_inurba_marseille","lat":43.29687,"lon":5.36584,"is_reserved":false,"is_disabled":false,"rental_uris":{"android":"levelo://app?vid=11b08ab6-4f6e-43f6-b1d9-99c6dde00483","ios":"levelo://app?vid=11b08ab6-4f6e-43f6-b1d9-99c6dde00483"},"vehicle_type_id":"4","last_reported":1726733566,"current_range_meters":34000,"station_id":"ce4bgn12rcd13ifvqbt0","pricing_plan_id":"cebpf4jnsgd1na2vs0mg"},{"bike_id":"036ab25f-0c34-4c45-8e88-1fc9200da6fd","system_id":"levelo_inurba_marseille","lat":43.27185,"lon":5.427,"is_reserved":false,"is_disabled":false,"rental_uris":{"android":"levelo://app?vid=036ab25f-0c34-4c45-8e88-1fc9200da6fd","ios":"levelo://app?vid=036ab25f-0c34-4c45-8e88-1fc9200da6fd"},"vehicle_type_id":"4","last_reported":1726733566,"current_range_meters":30800,"station_id":"","pricing_plan_id":"cebpf4jnsgd1na2vs0mg"},{"bike_id":"c2272d1c-de85-40c3-8a06-70b6bf4106b7","system_id":"levelo_inurba_marseille","lat":43.30799,"lon":5.43528,"is_reserved":false,"is_disabled":false,"rental_uris":{"android":"levelo://app?vid=c2272d1c-de85-40c3-8a06-70b6bf4106b7","ios":"levelo://app?vid=c2272d1c-de85-40c3-8a06-70b6bf4106b7"},"vehicle_type_id":"4","last_reported":1726733566,"current_range_meters":38000,"station_id":"ce4bhph2rcd13ifvqheg","pricing_plan_id":"cebpf4jnsgd1na2vs0mg"},{"bike_id":"c1d8a9f0-cde4-474f-8d86-26987bae3190","system_id":"levelo_inurba_marseille","lat":43.33598,"lon":5.41019,"is_reserved":false,"is_disabled":false,"rental_uris":{"android":"levelo://app?vid=c1d8a9f0-cde4-474f-8d86-26987bae3190","ios":"levelo://app?vid=c1d8a9f0-cde4-474f-8d86-26987bae3190"},"vehicle_type_id":"4","last_reported":1726733566,"current_range_meters":24000,"station_id":"ce4bhqh2rcd13ifvqhmg","pricing_plan_id":"cebpf4jnsgd1na2vs0mg"},{"bike_id":"3a25a5b1-9593-4cec-86f9-39274f1b1719","system_id":"levelo_inurba_marseille","lat":43.27543,"lon":5.38429,"is_reserved":false,"is_disabled":false,"rental_uris":{"android":"levelo://app?vid=3a25a5b1-9593-4cec-86f9-39274f1b1719","ios":"levelo://app?vid=3a25a5b1-9593-4cec-86f9-39274f1b1719"},"vehicle_type_id":"4","last_reported":1726733566,"current_range_meters":31200,"station_id":"ce4bhh92rcd13ifvqfi0","pricing_plan_id":"cebpf4jnsgd1na2vs0mg"},{"bike_id":"6ac0eb2f-9542-4934-b248-49828bcb22c2","system_id":"levelo_inurba_marseille","lat":43.27495,"lon":5.42448,"is_reserved":false,"is_disabled":false,"rental_uris":{"android":"levelo://app?vid=6ac0eb2f-9542-4934-b248-49828bcb22c2","ios":"levelo://app?vid=6ac0eb2f-9542-4934-b248-49828bcb22c2"},"vehicle_type_id":"4","last_reported":1726733566,"current_range_meters":21600,"station_id":"ce4bhn92rcd13ifvqgrg","pricing_plan_id":"cebpf4jnsgd1na2vs0mg"},{"bike_id":"38b7aaaa-5299-4007-8e90-4889ff1d3ce7","system_id":"levelo_inurba_marseille","lat":43.23149,"lon":5.43719,"is_reserved":false,"is_disabled":false,"rental_uris":{"android":"levelo://app?vid=38b7aaaa-5299-4007-8e90-4889ff1d3ce7","ios":"levelo://app?vid=38b7aaaa-5299-4007-8e90-4889ff1d3ce7"},"vehicle_type_id":"4","last_reported":1726733566,"current_range_meters":38800,"station_id":"ce4bhmp2rcd13ifvqgog","pricing_plan_id":"cebpf4jnsgd1na2vs0mg"},{"bike_id":"bd7fb4bb-674c-4d59-b3a7-b91fa80d5110","system_id":"levelo_inurba_marseille","lat":43.302089,"lon":5.394664,"is_reserved":false,"is_disabled":false,"rental_uris":{"android":"levelo://app?vid=bd7fb4bb-674c-4d59-b3a7-b91fa80d5110","ios":"levelo://app?vid=bd7fb4bb-674c-4d59-b3a7-b91fa80d5110"},"vehicle_type_id":"4","last_reported":1726733566,"current_range_meters":8800,"station_id":"ce4bh0p2rcd13ifvqd70","pricing_plan_id":"cebpf4jnsgd1na2vs0mg"},{"bike_id":"e1ce444d-97f6-4e08-b21f-14ca7b4d4ec2","system_id":"levelo_inurba_marseille","lat":43.2408,"lon":5.37749,"is_reserved":false,"is_disabled":false,"rental_uris":{"android":"levelo://app?vid=e1ce444d-97f6-4e08-b21f-14ca7b4d4ec2","ios":"levelo://app?vid=e1ce444d-97f6-4e08-b21f-14ca7b4d4ec2"},"vehicle_type_id":"4","last_reported":1726733566,"current_range_meters":36000,"station_id":"ce4bhnp2rcd13ifvqgvg","pricing_plan_id":"cebpf4jnsgd1na2vs0mg"},{"bike_id":"26f288b7-89b9-409b-9ddf-e2b7a23a52f6","system_id":"levelo_inurba_marseille","lat":43.33771,"lon":5.37443,"is_reserved":false,"is_disabled":false,"rental_uris":{"android":"levelo://app?vid=26f288b7-89b9-409b-9ddf-e2b7a23a52f6","ios":"levelo://app?vid=26f288b7-89b9-409b-9ddf-e2b7a23a52f6"},"vehicle_type_id":"4","last_reported":1726733566,"current_range_meters":38000,"station_id":"","pricing_plan_id":"cebpf4jnsgd1na2vs0mg"},{"bike_id":"7c01414b-caf6-4ee1-85f1-2c9de71dff39","system_id":"levelo_inurba_marseille","lat":43.3096,"lon":5.39059,"is_reserved":false,"is_disabled":false,"rental_uris":{"android":"levelo://app?vid=7c01414b-caf6-4ee1-85f1-2c9de71dff39","ios":"levelo://app?vid=7c01414b-caf6-4ee1-85f1-2c9de71dff39"},"vehicle_type_id":"4","last_reported":1726733566,"current_range_meters":38400,"station_id":"ce4bgup2rcd13ifvqco0","pricing_plan_id":"cebpf4jnsgd1na2vs0mg"},{"bike_id":"ddca4962-c40e-46ba-8aef-4fa6c38b3949","system_id":"levelo_inurba_marseille","lat":43.30139,"lon":5.38084,"is_reserved":false,"is_disabled":false,"rental_uris":{"android":"levelo://app?vid=ddca4962-c40e-46ba-8aef-4fa6c38b3949","ios":"levelo://app?vid=ddca4962-c40e-46ba-8aef-4fa6c38b3949"},"vehicle_type_id":"4","last_reported":1726733566,"current_range_meters":22000,"station_id":"ce4bgjp2rcd13ifvqbh0","pricing_plan_id":"cebpf4jnsgd1na2vs0mg"},{"bike_id":"31674790-8365-40d2-bdef-19029206a5f3","system_id":"levelo_inurba_marseille","lat":43.30466,"lon":5.37909,"is_reserved":false,"is_disabled":false,"rental_uris":{"android":"levelo://app?vid=31674790-8365-40d2-bdef-19029206a5f3","ios":"levelo://app?vid=31674790-8365-40d2-bdef-19029206a5f3"},"vehicle_type_id":"4","last_reported":1726733566,"current_range_meters":34800,"station_id":"ce4bgup2rcd13ifvqcn0","pricing_plan_id":"cebpf4jnsgd1na2vs0mg"},{"bike_id":"7a34f971-a4db-40c7-9ba9-7d8849a4f6eb","system_id":"levelo_inurba_marseille","lat":43.30131,"lon":5.37415,"is_reserved":false,"is_disabled":false,"rental_uris":{"android":"levelo://app?vid=7a34f971-a4db-40c7-9ba9-7d8849a4f6eb","ios":"levelo://app?vid=7a34f971-a4db-40c7-9ba9-7d8849a4f6eb"},"vehicle_type_id":"4","last_reported":1726733566,"current_range_meters":14400,"station_id":"ce4bgs92rcd13ifvqcc0","pricing_plan_id":"cebpf4jnsgd1na2vs0mg"},{"bike_id":"b3d81444-f632-4a95-88b6-a30aa314cc07","system_id":"levelo_inurba_marseille","lat":43.28153,"lon":5.42644,"is_reserved":false,"is_disabled":false,"rental_uris":{"android":"levelo://app?vid=b3d81444-f632-4a95-88b6-a30aa314cc07","ios":"levelo://app?vid=b3d81444-f632-4a95-88b6-a30aa314cc07"},"vehicle_type_id":"4","last_reported":1726733566,"current_range_meters":28000,"station_id":"ce4bhnh2rcd13ifvqgug","pricing_plan_id":"cebpf4jnsgd1na2vs0mg"},{"bike_id":"1e543bff-8d11-4c7f-b24e-74e644073541","system_id":"levelo_inurba_marseille","lat":43.33602,"lon":5.41011,"is_reserved":false,"is_disabled":false,"rental_uris":{"android":"levelo://app?vid=1e543bff-8d11-4c7f-b24e-74e644073541","ios":"levelo://app?vid=1e543bff-8d11-4c7f-b24e-74e644073541"},"vehicle_type_id":"4","last_reported":1726733566,"current_range_meters":24400,"station_id":"ce4bhqh2rcd13ifvqhmg","pricing_plan_id":"cebpf4jnsgd1na2vs0mg"},{"bike_id":"cc37381e-9335-4b4e-a554-8ca8c7c27f92","system_id":"levelo_inurba_marseille","lat":43.27488,"lon":5.4246,"is_reserved":false,"is_disabled":false,"rental_uris":{"android":"levelo://app?vid=cc37381e-9335-4b4e-a554-8ca8c7c27f92","ios":"levelo://app?vid=cc37381e-9335-4b4e-a554-8ca8c7c27f92"},"vehicle_type_id":"4","last_reported":1726733566,"current_range_meters":9200,"station_id":"ce4bhn92rcd13ifvqgrg","pricing_plan_id":"cebpf4jnsgd1na2vs0mg"},{"bike_id":"888ff640-8b2d-4406-bb74-d69912626280","system_id":"levelo_inurba_marseille","lat":43.3046,"lon":5.37901,"is_reserved":false,"is_disabled":false,"rental_uris":{"android":"levelo://app?vid=888ff640-8b2d-4406-bb74-d69912626280","ios":"levelo://app?vid=888ff640-8b2d-4406-bb74-d69912626280"},"vehicle_type_id":"4","last_reported":1726733566,"current_range_meters":38800,"station_id":"ce4bgup2rcd13ifvqcn0","pricing_plan_id":"cebpf4jnsgd1na2vs0mg"},{"bike_id":"a7ba0621-91e3-4669-b4dd-c57703025c57","system_id":"levelo_inurba_marseille","lat":43.3135,"lon":5.36701,"is_reserved":false,"is_disabled":false,"rental_uris":{"android":"levelo://app?vid=a7ba0621-91e3-4669-b4dd-c57703025c57","ios":"levelo://app?vid=a7ba0621-91e3-4669-b4dd-c57703025c57"},"vehicle_type_id":"4","last_reported":1726733566,"current_range_meters":34000,"station_id":"ce4bgr92rcd13ifvqc6g","pricing_plan_id":"cebpf4jnsgd1na2vs0mg"},{"bike_id":"cea90d14-d4cd-44bb-a828-f022d2c2c276","system_id":"levelo_inurba_marseille","lat":43.26946,"lon":5.38639,"is_reserved":false,"is_disabled":false,"rental_uris":{"android":"levelo://app?vid=cea90d14-d4cd-44bb-a828-f022d2c2c276","ios":"levelo://app?vid=cea90d14-d4cd-44bb-a828-f022d2c2c276"},"vehicle_type_id":"4","last_reported":1726733566,"current_range_meters":38000,"station_id":"ce4bhh92rcd13ifvqfh0","pricing_plan_id":"cebpf4jnsgd1na2vs0mg"},{"bike_id":"9252acf3-e294-40ab-8fdc-fbb38b1a9a7d","system_id":"levelo_inurba_marseille","lat":43.23965,"lon":5.36633,"is_reserved":false,"is_disabled":false,"rental_uris":{"android":"levelo://app?vid=9252acf3-e294-40ab-8fdc-fbb38b1a9a7d","ios":"levelo://app?vid=9252acf3-e294-40ab-8fdc-fbb38b1a9a7d"},"vehicle_type_id":"4","last_reported":1726733566,"current_range_meters":24800,"station_id":"ce4bhi12rcd13ifvqfp0","pricing_plan_id":"cebpf4jnsgd1na2vs0mg"},{"bike_id":"154787d4-03e2-4b4a-97d7-df4da2486b91","system_id":"levelo_inurba_marseille","lat":43.3046,"lon":5.37914,"is_reserved":false,"is_disabled":false,"rental_uris":{"android":"levelo://app?vid=154787d4-03e2-4b4a-97d7-df4da2486b91","ios":"levelo://app?vid=154787d4-03e2-4b4a-97d7-df4da2486b91"},"vehicle_type_id":"4","last_reported":1726733566,"current_range_meters":28400,"station_id":"ce4bgup2rcd13ifvqcn0","pricing_plan_id":"cebpf4jnsgd1na2vs0mg"},{"bike_id":"7b0e0d0e-650d-40d7-95d7-ab8fb85396b0","system_id":"levelo_inurba_marseille","lat":43.24069,"lon":5.37759,"is_reserved":false,"is_disabled":false,"rental_uris":{"android":"levelo://app?vid=7b0e0d0e-650d-40d7-95d7-ab8fb85396b0","ios":"levelo://app?vid=7b0e0d0e-650d-40d7-95d7-ab8fb85396b0"},"vehicle_type_id":"4","last_reported":1726733566,"current_range_meters":36000,"station_id":"ce4bhnp2rcd13ifvqgvg","pricing_plan_id":"cebpf4jnsgd1na2vs0mg"},{"bike_id":"a0ea4c20-eeae-4054-a4b5-699b69c4c176","system_id":"levelo_inurba_marseille","lat":43.29554,"lon":5.42276,"is_reserved":false,"is_disabled":false,"rental_uris":{"android":"levelo://app?vid=a0ea4c20-eeae-4054-a4b5-699b69c4c176","ios":"levelo://app?vid=a0ea4c20-eeae-4054-a4b5-699b69c4c176"},"vehicle_type_id":"4","last_reported":1726733566,"current_range_meters":14400,"station_id":"ce4bhph2rcd13ifvqhdg","pricing_plan_id":"cebpf4jnsgd1na2vs0mg"},{"bike_id":"f7f5db0e-acdc-46e3-a241-02bb5c5ee4fc","system_id":"levelo_inurba_marseille","lat":43.33606,"lon":5.4103,"is_reserved":false,"is_disabled":false,"rental_uris":{"android":"levelo://app?vid=f7f5db0e-acdc-46e3-a241-02bb5c5ee4fc","ios":"levelo://app?vid=f7f5db0e-acdc-46e3-a241-02bb5c5ee4fc"},"vehicle_type_id":"4","last_reported":1726733566,"current_range_meters":35600,"station_id":"ce4bhqh2rcd13ifvqhmg","pricing_plan_id":"cebpf4jnsgd1na2vs0mg"},{"bike_id":"81981891-9de1-4c9a-a20f-55d1f58fb677","system_id":"levelo_inurba_marseille","lat":43.27315,"lon":5.39075,"is_reserved":false,"is_disabled":false,"rental_uris":{"android":"levelo://app?vid=81981891-9de1-4c9a-a20f-55d1f58fb677","ios":"levelo://app?vid=81981891-9de1-4c9a-a20f-55d1f58fb677"},"vehicle_type_id":"4","last_reported":1726733566,"current_range_meters":38000,"station_id":"ce4bhgp2rcd13ifvqfe0","pricing_plan_id":"cebpf4jnsgd1na2vs0mg"},{"bike_id":"c41f96f4-8f35-4f19-a2f5-29cc43f449ce","system_id":"levelo_inurba_marseille","lat":43.27306,"lon":5.39072,"is_reserved":false,"is_disabled":false,"rental_uris":{"android":"levelo://app?vid=c41f96f4-8f35-4f19-a2f5-29cc43f449ce","ios":"levelo://app?vid=c41f96f4-8f35-4f19-a2f5-29cc43f449ce"},"vehicle_type_id":"4","last_reported":1726733566,"current_range_meters":4400,"station_id":"ce4bhgp2rcd13ifvqfe0","pricing_plan_id":"cebpf4jnsgd1na2vs0mg"},{"bike_id":"471f5d2b-6054-4015-b2d1-3adfb1b3fc49","system_id":"levelo_inurba_marseille","lat":43.2407,"lon":5.3776,"is_reserved":false,"is_disabled":false,"rental_uris":{"android":"levelo://app?vid=471f5d2b-6054-4015-b2d1-3adfb1b3fc49","ios":"levelo://app?vid=471f5d2b-6054-4015-b2d1-3adfb1b3fc49"},"vehicle_type_id":"4","last_reported":1726733566,"current_range_meters":7200,"station_id":"ce4bhnp2rcd13ifvqgvg","pricing_plan_id":"cebpf4jnsgd1na2vs0mg"},{"bike_id":"2f8944d6-8b2a-464d-8a19-ec487b750fad","system_id":"levelo_inurba_marseille","lat":43.24078,"lon":5.37751,"is_reserved":false,"is_disabled":false,"rental_uris":{"android":"levelo://app?vid=2f8944d6-8b2a-464d-8a19-ec487b750fad","ios":"levelo://app?vid=2f8944d6-8b2a-464d-8a19-ec487b750fad"},"vehicle_type_id":"4","last_reported":1726733566,"current_range_meters":34800,"station_id":"ce4bhnp2rcd13ifvqgvg","pricing_plan_id":"cebpf4jnsgd1na2vs0mg"},{"bike_id":"3478db76-45d7-45d3-b887-36ba03898ebd","system_id":"levelo_inurba_marseille","lat":43.23151,"lon":5.43712,"is_reserved":false,"is_disabled":false,"rental_uris":{"android":"levelo://app?vid=3478db76-45d7-45d3-b887-36ba03898ebd","ios":"levelo://app?vid=3478db76-45d7-45d3-b887-36ba03898ebd"},"vehicle_type_id":"4","last_reported":1726733566,"current_range_meters":39200,"station_id":"ce4bhmp2rcd13ifvqgog","pricing_plan_id":"cebpf4jnsgd1na2vs0mg"},{"bike_id":"c66fea3e-ccf5-4e0d-bdeb-1937d3f93366","system_id":"levelo_inurba_marseille","lat":43.27145,"lon":5.421907,"is_reserved":false,"is_disabled":false,"rental_uris":{"android":"levelo://app?vid=c66fea3e-ccf5-4e0d-bdeb-1937d3f93366","ios":"levelo://app?vid=c66fea3e-ccf5-4e0d-bdeb-1937d3f93366"},"vehicle_type_id":"4","last_reported":1726733566,"current_range_meters":26800,"station_id":"ce4bhk92rcd13ifvqgb0","pricing_plan_id":"cebpf4jnsgd1na2vs0mg"},{"bike_id":"853e6708-776b-4893-bf72-13102086e3de","system_id":"levelo_inurba_marseille","lat":43.26557,"lon":5.37292,"is_reserved":false,"is_disabled":false,"rental_uris":{"android":"levelo://app?vid=853e6708-776b-4893-bf72-13102086e3de","ios":"levelo://app?vid=853e6708-776b-4893-bf72-13102086e3de"},"vehicle_type_id":"4","last_reported":1726733566,"current_range_meters":24800,"station_id":"ce4bhg12rcd13ifvqf70","pricing_plan_id":"cebpf4jnsgd1na2vs0mg"},{"bike_id":"f038a968-9567-4ba6-a473-0d10a31aed44","system_id":"levelo_inurba_marseille","lat":43.29971,"lon":5.37186,"is_reserved":false,"is_disabled":false,"rental_uris":{"android":"levelo://app?vid=f038a968-9567-4ba6-a473-0d10a31aed44","ios":"levelo://app?vid=f038a968-9567-4ba6-a473-0d10a31aed44"},"vehicle_type_id":"4","last_reported":1726733566,"current_range_meters":10800,"station_id":"ce4bgr92rcd13ifvqc7g","pricing_plan_id":"cebpf4jnsgd1na2vs0mg"},{"bike_id":"2ddac43b-c3bc-41d6-85d4-b443eb8a122b","system_id":"levelo_inurba_marseille","lat":43.30143,"lon":5.38102,"is_reserved":false,"is_disabled":false,"rental_uris":{"android":"levelo://app?vid=2ddac43b-c3bc-41d6-85d4-b443eb8a122b","ios":"levelo://app?vid=2ddac43b-c3bc-41d6-85d4-b443eb8a122b"},"vehicle_type_id":"4","last_reported":1726733566,"current_range_meters":9600,"station_id":"ce4bgjp2rcd13ifvqbh0","pricing_plan_id":"cebpf4jnsgd1na2vs0mg"},{"bike_id":"c68065d0-098d-49a1-a6e6-6b7287bf251d","system_id":"levelo_inurba_marseille","lat":43.2418,"lon":5.39727,"is_reserved":false,"is_disabled":false,"rental_uris":{"android":"levelo://app?vid=c68065d0-098d-49a1-a6e6-6b7287bf251d","ios":"levelo://app?vid=c68065d0-098d-49a1-a6e6-6b7287bf251d"},"vehicle_type_id":"4","last_reported":1726733566,"current_range_meters":8400,"station_id":"ce4bhn12rcd13ifvqgpg","pricing_plan_id":"cebpf4jnsgd1na2vs0mg"},{"bike_id":"86d2fbbc-c469-4ea8-9619-326d1c533696","system_id":"levelo_inurba_marseille","lat":43.25488,"lon":5.37648,"is_reserved":false,"is_disabled":false,"rental_uris":{"android":"levelo://app?vid=86d2fbbc-c469-4ea8-9619-326d1c533696","ios":"levelo://app?vid=86d2fbbc-c469-4ea8-9619-326d1c533696"},"vehicle_type_id":"4","last_reported":1726733566,"current_range_meters":37600,"station_id":"ce4bhh12rcd13ifvqff0","pricing_plan_id":"cebpf4jnsgd1na2vs0mg"},{"bike_id":"67e3c1fd-cc33-408d-a8d2-3988da69d6ab","system_id":"levelo_inurba_marseille","lat":43.33606,"lon":5.41021,"is_reserved":false,"is_disabled":false,"rental_uris":{"android":"levelo://app?vid=67e3c1fd-cc33-408d-a8d2-3988da69d6ab","ios":"levelo://app?vid=67e3c1fd-cc33-408d-a8d2-3988da69d6ab"},"vehicle_type_id":"4","last_reported":1726733566,"current_range_meters":20000,"station_id":"ce4bhqh2rcd13ifvqhmg","pricing_plan_id":"cebpf4jnsgd1na2vs0mg"},{"bike_id":"a7ec649a-e17d-4f88-b0c2-2dd13506f258","system_id":"levelo_inurba_marseille","lat":43.28148,"lon":5.42641,"is_reserved":false,"is_disabled":false,"rental_uris":{"android":"levelo://app?vid=a7ec649a-e17d-4f88-b0c2-2dd13506f258","ios":"levelo://app?vid=a7ec649a-e17d-4f88-b0c2-2dd13506f258"},"vehicle_type_id":"4","last_reported":1726733566,"current_range_meters":20000,"station_id":"ce4bhnh2rcd13ifvqgug","pricing_plan_id":"cebpf4jnsgd1na2vs0mg"},{"bike_id":"fdc1b110-9b7c-4b3f-ad3d-6f9dc5cf5157","system_id":"levelo_inurba_marseille","lat":43.2955,"lon":5.42275,"is_reserved":false,"is_disabled":false,"rental_uris":{"android":"levelo://app?vid=fdc1b110-9b7c-4b3f-ad3d-6f9dc5cf5157","ios":"levelo://app?vid=fdc1b110-9b7c-4b3f-ad3d-6f9dc5cf5157"},"vehicle_type_id":"4","last_reported":1726733566,"current_range_meters":39200,"station_id":"ce4bhph2rcd13ifvqhdg","pricing_plan_id":"cebpf4jnsgd1na2vs0mg"},{"bike_id":"c58a09e0-e27d-474f-b410-f612c6647346","system_id":"levelo_inurba_marseille","lat":43.292816,"lon":5.368388,"is_reserved":false,"is_disabled":false,"rental_uris":{"android":"levelo://app?vid=c58a09e0-e27d-474f-b410-f612c6647346","ios":"levelo://app?vid=c58a09e0-e27d-474f-b410-f612c6647346"},"vehicle_type_id":"4","last_reported":1726733566,"current_range_meters":32400,"station_id":"ce4bhbp2rcd13ifvqesg","pricing_plan_id":"cebpf4jnsgd1na2vs0mg"},{"bike_id":"beb15bd0-b449-4862-b0ef-bc6b9508122c","system_id":"levelo_inurba_marseille","lat":43.27608,"lon":5.36112,"is_reserved":false,"is_disabled":false,"rental_uris":{"android":"levelo://app?vid=beb15bd0-b449-4862-b0ef-bc6b9508122c","ios":"levelo://app?vid=beb15bd0-b449-4862-b0ef-bc6b9508122c"},"vehicle_type_id":"4","last_reported":1726733566,"current_range_meters":4000,"station_id":"ce4bgj92rcd13ifvqbe0","pricing_plan_id":"cebpf4jnsgd1na2vs0mg"},{"bike_id":"fd758740-0063-4ae3-ae18-74f8ea08bbbf","system_id":"levelo_inurba_marseille","lat":43.290178,"lon":5.381243,"is_reserved":false,"is_disabled":false,"rental_uris":{"android":"levelo://app?vid=fd758740-0063-4ae3-ae18-74f8ea08bbbf","ios":"levelo://app?vid=fd758740-0063-4ae3-ae18-74f8ea08bbbf"},"vehicle_type_id":"4","last_reported":1726733566,"current_range_meters":5600,"station_id":"ce4bh4p2rcd13ifvqe1g","pricing_plan_id":"cebpf4jnsgd1na2vs0mg"},{"bike_id":"6edcec37-e8c4-4031-9542-b9ce5e55707b","system_id":"levelo_inurba_marseille","lat":43.25576,"lon":5.38242,"is_reserved":false,"is_disabled":false,"rental_uris":{"android":"levelo://app?vid=6edcec37-e8c4-4031-9542-b9ce5e55707b","ios":"levelo://app?vid=6edcec37-e8c4-4031-9542-b9ce5e55707b"},"vehicle_type_id":"4","last_reported":1726733566,"current_range_meters":18000,"station_id":"ce4bhih2rcd13ifvqfs0","pricing_plan_id":"cebpf4jnsgd1na2vs0mg"},{"bike_id":"a78358d4-2e0d-4d1b-9800-f677344b73bb","system_id":"levelo_inurba_marseille","lat":43.26944,"lon":5.38642,"is_reserved":false,"is_disabled":false,"rental_uris":{"android":"levelo://app?vid=a78358d4-2e0d-4d1b-9800-f677344b73bb","ios":"levelo://app?vid=a78358d4-2e0d-4d1b-9800-f677344b73bb"},"vehicle_type_id":"4","last_reported":1726733566,"current_range_meters":36400,"station_id":"ce4bhh92rcd13ifvqfh0","pricing_plan_id":"cebpf4jnsgd1na2vs0mg"},{"bike_id":"7296939a-e07b-445c-bd52-40cde8ccbba2","system_id":"levelo_inurba_marseille","lat":43.26023,"lon":5.37544,"is_reserved":false,"is_disabled":false,"rental_uris":{"android":"levelo://app?vid=7296939a-e07b-445c-bd52-40cde8ccbba2","ios":"levelo://app?vid=7296939a-e07b-445c-bd52-40cde8ccbba2"},"vehicle_type_id":"4","last_reported":1726733566,"current_range_meters":38000,"station_id":"ce4bhgh2rcd13ifvqfa0","pricing_plan_id":"cebpf4jnsgd1na2vs0mg"},{"bike_id":"a84ccf15-a62f-4b0b-9163-e457f54dff33","system_id":"levelo_inurba_marseille","lat":43.28152,"lon":5.42642,"is_reserved":false,"is_disabled":false,"rental_uris":{"android":"levelo://app?vid=a84ccf15-a62f-4b0b-9163-e457f54dff33","ios":"levelo://app?vid=a84ccf15-a62f-4b0b-9163-e457f54dff33"},"vehicle_type_id":"4","last_reported":1726733566,"current_range_meters":10000,"station_id":"ce4bhnh2rcd13ifvqgug","pricing_plan_id":"cebpf4jnsgd1na2vs0mg"},{"bike_id":"e669bd6c-abbe-4921-ba26-9fc661d40bbb","system_id":"levelo_inurba_marseille","lat":43.30535,"lon":5.36536,"is_reserved":false,"is_disabled":false,"rental_uris":{"android":"levelo://app?vid=e669bd6c-abbe-4921-ba26-9fc661d40bbb","ios":"levelo://app?vid=e669bd6c-abbe-4921-ba26-9fc661d40bbb"},"vehicle_type_id":"4","last_reported":1726733566,"current_range_meters":36000,"station_id":"ce4bgs12rcd13ifvqcag","pricing_plan_id":"cebpf4jnsgd1na2vs0mg"},{"bike_id":"51523a7c-bb1e-41a9-afc2-3721cc37c73c","system_id":"levelo_inurba_marseille","lat":43.25824,"lon":5.39441,"is_reserved":false,"is_disabled":false,"rental_uris":{"android":"levelo://app?vid=51523a7c-bb1e-41a9-afc2-3721cc37c73c","ios":"levelo://app?vid=51523a7c-bb1e-41a9-afc2-3721cc37c73c"},"vehicle_type_id":"4","last_reported":1726733566,"current_range_meters":38800,"station_id":"ce4bhip2rcd13ifvqft0","pricing_plan_id":"cebpf4jnsgd1na2vs0mg"},{"bike_id":"356cfe7d-8a0f-4d85-a739-7c2ea65146a0","system_id":"levelo_inurba_marseille","lat":43.24071,"lon":5.37745,"is_reserved":false,"is_disabled":false,"rental_uris":{"android":"levelo://app?vid=356cfe7d-8a0f-4d85-a739-7c2ea65146a0","ios":"levelo://app?vid=356cfe7d-8a0f-4d85-a739-7c2ea65146a0"},"vehicle_type_id":"4","last_reported":1726733566,"current_range_meters":25200,"station_id":"ce4bhnp2rcd13ifvqgvg","pricing_plan_id":"cebpf4jnsgd1na2vs0mg"},{"bike_id":"0c903ba0-b4e3-4fea-8c51-2aa3188cd2ff","system_id":"levelo_inurba_marseille","lat":43.27489,"lon":5.42459,"is_reserved":false,"is_disabled":false,"rental_uris":{"android":"levelo://app?vid=0c903ba0-b4e3-4fea-8c51-2aa3188cd2ff","ios":"levelo://app?vid=0c903ba0-b4e3-4fea-8c51-2aa3188cd2ff"},"vehicle_type_id":"4","last_reported":1726733566,"current_range_meters":29600,"station_id":"ce4bhn92rcd13ifvqgrg","pricing_plan_id":"cebpf4jnsgd1na2vs0mg"},{"bike_id":"376e4ba1-7a4d-4c07-bc97-59fafac349c4","system_id":"levelo_inurba_marseille","lat":43.24998,"lon":5.38924,"is_reserved":false,"is_disabled":false,"rental_uris":{"android":"levelo://app?vid=376e4ba1-7a4d-4c07-bc97-59fafac349c4","ios":"levelo://app?vid=376e4ba1-7a4d-4c07-bc97-59fafac349c4"},"vehicle_type_id":"4","last_reported":1726733566,"current_range_meters":24800,"station_id":"ce4bhgp2rcd13ifvqfd0","pricing_plan_id":"cebpf4jnsgd1na2vs0mg"},{"bike_id":"347897f0-b613-4602-b560-73f4c94dd261","system_id":"levelo_inurba_marseille","lat":43.2407,"lon":5.37757,"is_reserved":false,"is_disabled":false,"rental_uris":{"android":"levelo://app?vid=347897f0-b613-4602-b560-73f4c94dd261","ios":"levelo://app?vid=347897f0-b613-4602-b560-73f4c94dd261"},"vehicle_type_id":"4","last_reported":1726733566,"current_range_meters":36800,"station_id":"ce4bhnp2rcd13ifvqgvg","pricing_plan_id":"cebpf4jnsgd1na2vs0mg"},{"bike_id":"4637f38a-faa6-4c8b-ae8d-2112023d8ec3","system_id":"levelo_inurba_marseille","lat":43.25577,"lon":5.38237,"is_reserved":false,"is_disabled":false,"rental_uris":{"android":"levelo://app?vid=4637f38a-faa6-4c8b-ae8d-2112023d8ec3","ios":"levelo://app?vid=4637f38a-faa6-4c8b-ae8d-2112023d8ec3"},"vehicle_type_id":"4","last_reported":1726733566,"current_range_meters":39200,"station_id":"ce4bhih2rcd13ifvqfs0","pricing_plan_id":"cebpf4jnsgd1na2vs0mg"},{"bike_id":"691e6506-8e32-4623-a459-9431be43b593","system_id":"levelo_inurba_marseille","lat":43.27614,"lon":5.36119,"is_reserved":false,"is_disabled":false,"rental_uris":{"android":"levelo://app?vid=691e6506-8e32-4623-a459-9431be43b593","ios":"levelo://app?vid=691e6506-8e32-4623-a459-9431be43b593"},"vehicle_type_id":"4","last_reported":1726733566,"current_range_meters":38800,"station_id":"ce4bgj92rcd13ifvqbe0","pricing_plan_id":"cebpf4jnsgd1na2vs0mg"},{"bike_id":"c14df5ec-5654-4a36-8e67-00ca4eb77264","system_id":"levelo_inurba_marseille","lat":43.30609,"lon":5.37227,"is_reserved":false,"is_disabled":false,"rental_uris":{"android":"levelo://app?vid=c14df5ec-5654-4a36-8e67-00ca4eb77264","ios":"levelo://app?vid=c14df5ec-5654-4a36-8e67-00ca4eb77264"},"vehicle_type_id":"4","last_reported":1726733566,"current_range_meters":38000,"station_id":"ce4bgqh2rcd13ifvqc4g","pricing_plan_id":"cebpf4jnsgd1na2vs0mg"},{"bike_id":"aaeae615-2194-47c5-84e0-363507d6e824","system_id":"levelo_inurba_marseille","lat":43.3228,"lon":5.38266,"is_reserved":false,"is_disabled":false,"rental_uris":{"android":"levelo://app?vid=aaeae615-2194-47c5-84e0-363507d6e824","ios":"levelo://app?vid=aaeae615-2194-47c5-84e0-363507d6e824"},"vehicle_type_id":"4","last_reported":1726733566,"current_range_meters":24800,"station_id":"ce4bhr12rcd13ifvqhqg","pricing_plan_id":"cebpf4jnsgd1na2vs0mg"},{"bike_id":"1397a30c-d848-4ca4-b952-1fb1c2bd8c48","system_id":"levelo_inurba_marseille","lat":43.30149,"lon":5.38077,"is_reserved":false,"is_disabled":false,"rental_uris":{"android":"levelo://app?vid=1397a30c-d848-4ca4-b952-1fb1c2bd8c48","ios":"levelo://app?vid=1397a30c-d848-4ca4-b952-1fb1c2bd8c48"},"vehicle_type_id":"4","last_reported":1726733566,"current_range_meters":14800,"station_id":"ce4bgjp2rcd13ifvqbh0","pricing_plan_id":"cebpf4jnsgd1na2vs0mg"},{"bike_id":"6bea07ff-b7cf-43d7-9614-efd55ed0f2d6","system_id":"levelo_inurba_marseille","lat":43.24645,"lon":5.38894,"is_reserved":false,"is_disabled":false,"rental_uris":{"android":"levelo://app?vid=6bea07ff-b7cf-43d7-9614-efd55ed0f2d6","ios":"levelo://app?vid=6bea07ff-b7cf-43d7-9614-efd55ed0f2d6"},"vehicle_type_id":"4","last_reported":1726733566,"current_range_meters":27600,"station_id":"ce4bhg12rcd13ifvqf60","pricing_plan_id":"cebpf4jnsgd1na2vs0mg"},{"bike_id":"6b04faea-2c70-4e61-8aea-50dfd713833f","system_id":"levelo_inurba_marseille","lat":43.26939,"lon":5.38934,"is_reserved":false,"is_disabled":false,"rental_uris":{"android":"levelo://app?vid=6b04faea-2c70-4e61-8aea-50dfd713833f","ios":"levelo://app?vid=6b04faea-2c70-4e61-8aea-50dfd713833f"},"vehicle_type_id":"4","last_reported":1726733566,"current_range_meters":9600,"station_id":"ce4bhhh2rcd13ifvqfl0","pricing_plan_id":"cebpf4jnsgd1na2vs0mg"},{"bike_id":"667e0fe2-e718-4e5e-9981-7e0ecdc8ab33","system_id":"levelo_inurba_marseille","lat":43.31482,"lon":5.373,"is_reserved":false,"is_disabled":false,"rental_uris":{"android":"levelo://app?vid=667e0fe2-e718-4e5e-9981-7e0ecdc8ab33","ios":"levelo://app?vid=667e0fe2-e718-4e5e-9981-7e0ecdc8ab33"},"vehicle_type_id":"4","last_reported":1726733566,"current_range_meters":36800,"station_id":"ce4bgt12rcd13ifvqcd0","pricing_plan_id":"cebpf4jnsgd1na2vs0mg"},{"bike_id":"4e5e0e96-d8ba-4080-be1f-23c3018dc8d2","system_id":"levelo_inurba_marseille","lat":43.30905,"lon":5.36845,"is_reserved":false,"is_disabled":false,"rental_uris":{"android":"levelo://app?vid=4e5e0e96-d8ba-4080-be1f-23c3018dc8d2","ios":"levelo://app?vid=4e5e0e96-d8ba-4080-be1f-23c3018dc8d2"},"vehicle_type_id":"4","last_reported":1726733566,"current_range_meters":38000,"station_id":"ce4bgn92rcd13ifvqbvg","pricing_plan_id":"cebpf4jnsgd1na2vs0mg"},{"bike_id":"9be94feb-a495-4651-8693-da9a946157ae","system_id":"levelo_inurba_marseille","lat":43.25008,"lon":5.38919,"is_reserved":false,"is_disabled":false,"rental_uris":{"android":"levelo://app?vid=9be94feb-a495-4651-8693-da9a946157ae","ios":"levelo://app?vid=9be94feb-a495-4651-8693-da9a946157ae"},"vehicle_type_id":"4","last_reported":1726733566,"current_range_meters":16400,"station_id":"ce4bhgp2rcd13ifvqfd0","pricing_plan_id":"cebpf4jnsgd1na2vs0mg"},{"bike_id":"8ead9f13-0008-4329-aee0-b9d585135495","system_id":"levelo_inurba_marseille","lat":43.29034,"lon":5.39967,"is_reserved":false,"is_disabled":false,"rental_uris":{"android":"levelo://app?vid=8ead9f13-0008-4329-aee0-b9d585135495","ios":"levelo://app?vid=8ead9f13-0008-4329-aee0-b9d585135495"},"vehicle_type_id":"4","last_reported":1726733566,"current_range_meters":9600,"station_id":"ce4bh392rcd13ifvqdm0","pricing_plan_id":"cebpf4jnsgd1na2vs0mg"},{"bike_id":"5140205b-3fbb-4899-899b-f0c86015351b","system_id":"levelo_inurba_marseille","lat":43.28941,"lon":5.36398,"is_reserved":false,"is_disabled":false,"rental_uris":{"android":"levelo://app?vid=5140205b-3fbb-4899-899b-f0c86015351b","ios":"levelo://app?vid=5140205b-3fbb-4899-899b-f0c86015351b"},"vehicle_type_id":"4","last_reported":1726733566,"current_range_meters":17200,"station_id":"ce4bhc92rcd13ifvqetg","pricing_plan_id":"cebpf4jnsgd1na2vs0mg"},{"bike_id":"a5cd8307-20cc-4eb9-b57d-a4f6fffd25c4","system_id":"levelo_inurba_marseille","lat":43.26945,"lon":5.38631,"is_reserved":false,"is_disabled":false,"rental_uris":{"android":"levelo://app?vid=a5cd8307-20cc-4eb9-b57d-a4f6fffd25c4","ios":"levelo://app?vid=a5cd8307-20cc-4eb9-b57d-a4f6fffd25c4"},"vehicle_type_id":"4","last_reported":1726733566,"current_range_meters":6800,"station_id":"ce4bhh92rcd13ifvqfh0","pricing_plan_id":"cebpf4jnsgd1na2vs0mg"},{"bike_id":"5853071a-a7de-43ad-87c8-982495d79fa0","system_id":"levelo_inurba_marseille","lat":43.25009,"lon":5.38916,"is_reserved":false,"is_disabled":false,"rental_uris":{"android":"levelo://app?vid=5853071a-a7de-43ad-87c8-982495d79fa0","ios":"levelo://app?vid=5853071a-a7de-43ad-87c8-982495d79fa0"},"vehicle_type_id":"4","last_reported":1726733566,"current_range_meters":36000,"station_id":"ce4bhgp2rcd13ifvqfd0","pricing_plan_id":"cebpf4jnsgd1na2vs0mg"},{"bike_id":"6e5dc3c1-f09d-46ec-8ed6-c2c9bad036bb","system_id":"levelo_inurba_marseille","lat":43.2867,"lon":5.38688,"is_reserved":false,"is_disabled":false,"rental_uris":{"android":"levelo://app?vid=6e5dc3c1-f09d-46ec-8ed6-c2c9bad036bb","ios":"levelo://app?vid=6e5dc3c1-f09d-46ec-8ed6-c2c9bad036bb"},"vehicle_type_id":"4","last_reported":1726733566,"current_range_meters":38800,"station_id":"ce4bh492rcd13ifvqdug","pricing_plan_id":"cebpf4jnsgd1na2vs0mg"},{"bike_id":"9c44f16a-fe01-4e9e-83b9-f7d7a6714c52","system_id":"levelo_inurba_marseille","lat":43.29805,"lon":5.40405,"is_reserved":false,"is_disabled":false,"rental_uris":{"android":"levelo://app?vid=9c44f16a-fe01-4e9e-83b9-f7d7a6714c52","ios":"levelo://app?vid=9c44f16a-fe01-4e9e-83b9-f7d7a6714c52"},"vehicle_type_id":"4","last_reported":1726733566,"current_range_meters":24000,"station_id":"ce4bh112rcd13ifvqd90","pricing_plan_id":"cebpf4jnsgd1na2vs0mg"},{"bike_id":"e631b8a2-d40b-44b6-9396-30b5b3ab5f0b","system_id":"levelo_inurba_marseille","lat":43.295776,"lon":5.367509,"is_reserved":false,"is_disabled":false,"rental_uris":{"android":"levelo://app?vid=e631b8a2-d40b-44b6-9396-30b5b3ab5f0b","ios":"levelo://app?vid=e631b8a2-d40b-44b6-9396-30b5b3ab5f0b"},"vehicle_type_id":"4","last_reported":1726733566,"current_range_meters":5600,"station_id":"ce4bgph2rcd13ifvqc2g","pricing_plan_id":"cebpf4jnsgd1na2vs0mg"},{"bike_id":"02bb3f37-0be5-4a53-8ab2-0ad1754d6f88","system_id":"levelo_inurba_marseille","lat":43.30269,"lon":5.37697,"is_reserved":false,"is_disabled":false,"rental_uris":{"android":"levelo://app?vid=02bb3f37-0be5-4a53-8ab2-0ad1754d6f88","ios":"levelo://app?vid=02bb3f37-0be5-4a53-8ab2-0ad1754d6f88"},"vehicle_type_id":"4","last_reported":1726733566,"current_range_meters":39200,"station_id":"ce4bguh2rcd13ifvqcj0","pricing_plan_id":"cebpf4jnsgd1na2vs0mg"},{"bike_id":"c3b4545f-2047-4f1b-b5b3-41fa9095d593","system_id":"levelo_inurba_marseille","lat":43.29517,"lon":5.39403,"is_reserved":false,"is_disabled":false,"rental_uris":{"android":"levelo://app?vid=c3b4545f-2047-4f1b-b5b3-41fa9095d593","ios":"levelo://app?vid=c3b4545f-2047-4f1b-b5b3-41fa9095d593"},"vehicle_type_id":"4","last_reported":1726733566,"current_range_meters":37600,"station_id":"ce4bh292rcd13ifvqdf0","pricing_plan_id":"cebpf4jnsgd1na2vs0mg"},{"bike_id":"dd8d4f71-d58c-4e01-a96d-60ab9d281e12","system_id":"levelo_inurba_marseille","lat":43.27302,"lon":5.39079,"is_reserved":false,"is_disabled":false,"rental_uris":{"android":"levelo://app?vid=dd8d4f71-d58c-4e01-a96d-60ab9d281e12","ios":"levelo://app?vid=dd8d4f71-d58c-4e01-a96d-60ab9d281e12"},"vehicle_type_id":"4","last_reported":1726733566,"current_range_meters":22400,"station_id":"ce4bhgp2rcd13ifvqfe0","pricing_plan_id":"cebpf4jnsgd1na2vs0mg"},{"bike_id":"c99d3b3a-0176-4df5-b988-b6d29e126bad","system_id":"levelo_inurba_marseille","lat":43.231781,"lon":5.399926,"is_reserved":false,"is_disabled":false,"rental_uris":{"android":"levelo://app?vid=c99d3b3a-0176-4df5-b988-b6d29e126bad","ios":"levelo://app?vid=c99d3b3a-0176-4df5-b988-b6d29e126bad"},"vehicle_type_id":"4","last_reported":1726733566,"current_range_meters":38400,"station_id":"ce4bhn12rcd13ifvqgqg","pricing_plan_id":"cebpf4jnsgd1na2vs0mg"},{"bike_id":"7f85c424-76bf-4e62-aa08-945834d9fa36","system_id":"levelo_inurba_marseille","lat":43.30464,"lon":5.37902,"is_reserved":false,"is_disabled":false,"rental_uris":{"android":"levelo://app?vid=7f85c424-76bf-4e62-aa08-945834d9fa36","ios":"levelo://app?vid=7f85c424-76bf-4e62-aa08-945834d9fa36"},"vehicle_type_id":"4","last_reported":1726733566,"current_range_meters":39200,"station_id":"ce4bgup2rcd13ifvqcn0","pricing_plan_id":"cebpf4jnsgd1na2vs0mg"},{"bike_id":"5c59cc01-d461-43c5-8a64-d13f65e90a88","system_id":"levelo_inurba_marseille","lat":43.30911,"lon":5.3685,"is_reserved":false,"is_disabled":false,"rental_uris":{"android":"levelo://app?vid=5c59cc01-d461-43c5-8a64-d13f65e90a88","ios":"levelo://app?vid=5c59cc01-d461-43c5-8a64-d13f65e90a88"},"vehicle_type_id":"4","last_reported":1726733566,"current_range_meters":13600,"station_id":"ce4bgn92rcd13ifvqbvg","pricing_plan_id":"cebpf4jnsgd1na2vs0mg"},{"bike_id":"55fed244-caf4-46e6-99fc-fcd916ddb5b7","system_id":"levelo_inurba_marseille","lat":43.23207,"lon":5.35545,"is_reserved":false,"is_disabled":false,"rental_uris":{"android":"levelo://app?vid=55fed244-caf4-46e6-99fc-fcd916ddb5b7","ios":"levelo://app?vid=55fed244-caf4-46e6-99fc-fcd916ddb5b7"},"vehicle_type_id":"4","last_reported":1726733566,"current_range_meters":20000,"station_id":"ce4bhu92rcd13ifvqi70","pricing_plan_id":"cebpf4jnsgd1na2vs0mg"},{"bike_id":"180adcd2-2c07-4d51-b7cb-0c8da7c9902f","system_id":"levelo_inurba_marseille","lat":43.26199,"lon":5.3792,"is_reserved":false,"is_disabled":false,"rental_uris":{"android":"levelo://app?vid=180adcd2-2c07-4d51-b7cb-0c8da7c9902f","ios":"levelo://app?vid=180adcd2-2c07-4d51-b7cb-0c8da7c9902f"},"vehicle_type_id":"4","last_reported":1726733566,"current_range_meters":30400,"station_id":"ce4bhjp2rcd13ifvqg90","pricing_plan_id":"cebpf4jnsgd1na2vs0mg"},{"bike_id":"4d6f430e-a89c-4f5a-a87a-ca0e6d05c74c","system_id":"levelo_inurba_marseille","lat":43.25996,"lon":5.40817,"is_reserved":false,"is_disabled":false,"rental_uris":{"android":"levelo://app?vid=4d6f430e-a89c-4f5a-a87a-ca0e6d05c74c","ios":"levelo://app?vid=4d6f430e-a89c-4f5a-a87a-ca0e6d05c74c"},"vehicle_type_id":"4","last_reported":1726733566,"current_range_meters":30800,"station_id":"","pricing_plan_id":"cebpf4jnsgd1na2vs0mg"},{"bike_id":"080f94cd-b9ba-4839-83f7-bf5668e30024","system_id":"levelo_inurba_marseille","lat":43.24075,"lon":5.37763,"is_reserved":false,"is_disabled":false,"rental_uris":{"android":"levelo://app?vid=080f94cd-b9ba-4839-83f7-bf5668e30024","ios":"levelo://app?vid=080f94cd-b9ba-4839-83f7-bf5668e30024"},"vehicle_type_id":"4","last_reported":1726733566,"current_range_meters":28400,"station_id":"ce4bhnp2rcd13ifvqgvg","pricing_plan_id":"cebpf4jnsgd1na2vs0mg"},{"bike_id":"ee68800c-f319-4020-b038-a34d6349dff4","system_id":"levelo_inurba_marseille","lat":43.23145,"lon":5.43712,"is_reserved":false,"is_disabled":false,"rental_uris":{"android":"levelo://app?vid=ee68800c-f319-4020-b038-a34d6349dff4","ios":"levelo://app?vid=ee68800c-f319-4020-b038-a34d6349dff4"},"vehicle_type_id":"4","last_reported":1726733566,"current_range_meters":18800,"station_id":"ce4bhmp2rcd13ifvqgog","pricing_plan_id":"cebpf4jnsgd1na2vs0mg"},{"bike_id":"b1d6a91f-837f-4163-af80-6d333d9c1c9e","system_id":"levelo_inurba_marseille","lat":43.32532,"lon":5.41434,"is_reserved":false,"is_disabled":false,"rental_uris":{"android":"levelo://app?vid=b1d6a91f-837f-4163-af80-6d333d9c1c9e","ios":"levelo://app?vid=b1d6a91f-837f-4163-af80-6d333d9c1c9e"},"vehicle_type_id":"4","last_reported":1726733566,"current_range_meters":16800,"station_id":"ce4bhq12rcd13ifvqhhg","pricing_plan_id":"cebpf4jnsgd1na2vs0mg"},{"bike_id":"cab521ac-e937-4b29-8055-4647570b8c9a","system_id":"levelo_inurba_marseille","lat":43.31716,"lon":5.424,"is_reserved":false,"is_disabled":false,"rental_uris":{"android":"levelo://app?vid=cab521ac-e937-4b29-8055-4647570b8c9a","ios":"levelo://app?vid=cab521ac-e937-4b29-8055-4647570b8c9a"},"vehicle_type_id":"4","last_reported":1726733566,"current_range_meters":18800,"station_id":"ce4bhp92rcd13ifvqhbg","pricing_plan_id":"cebpf4jnsgd1na2vs0mg"},{"bike_id":"7b42264d-1304-4bec-8e93-6824d9e5ea1a","system_id":"levelo_inurba_marseille","lat":43.2815,"lon":5.4264,"is_reserved":false,"is_disabled":false,"rental_uris":{"android":"levelo://app?vid=7b42264d-1304-4bec-8e93-6824d9e5ea1a","ios":"levelo://app?vid=7b42264d-1304-4bec-8e93-6824d9e5ea1a"},"vehicle_type_id":"4","last_reported":1726733566,"current_range_meters":22800,"station_id":"ce4bhnh2rcd13ifvqgug","pricing_plan_id":"cebpf4jnsgd1na2vs0mg"},{"bike_id":"6021a272-0201-4e8d-a7f4-b3e296c4800f","system_id":"levelo_inurba_marseille","lat":43.30594,"lon":5.39363,"is_reserved":false,"is_disabled":false,"rental_uris":{"android":"levelo://app?vid=6021a272-0201-4e8d-a7f4-b3e296c4800f","ios":"levelo://app?vid=6021a272-0201-4e8d-a7f4-b3e296c4800f"},"vehicle_type_id":"4","last_reported":1726733566,"current_range_meters":5600,"station_id":"ce4bh0p2rcd13ifvqd80","pricing_plan_id":"cebpf4jnsgd1na2vs0mg"},{"bike_id":"6dd65f80-bc12-4cf3-ade3-78fd80b49797","system_id":"levelo_inurba_marseille","lat":43.25945,"lon":5.40895,"is_reserved":false,"is_disabled":false,"rental_uris":{"android":"levelo://app?vid=6dd65f80-bc12-4cf3-ade3-78fd80b49797","ios":"levelo://app?vid=6dd65f80-bc12-4cf3-ade3-78fd80b49797"},"vehicle_type_id":"4","last_reported":1726733566,"current_range_meters":20800,"station_id":"ce4bhm92rcd13ifvqglg","pricing_plan_id":"cebpf4jnsgd1na2vs0mg"},{"bike_id":"e9c12d1b-6da0-4cc3-83bb-95bd5eb4adbb","system_id":"levelo_inurba_marseille","lat":43.3013,"lon":5.3743,"is_reserved":false,"is_disabled":false,"rental_uris":{"android":"levelo://app?vid=e9c12d1b-6da0-4cc3-83bb-95bd5eb4adbb","ios":"levelo://app?vid=e9c12d1b-6da0-4cc3-83bb-95bd5eb4adbb"},"vehicle_type_id":"4","last_reported":1726733566,"current_range_meters":38800,"station_id":"ce4bgs92rcd13ifvqcc0","pricing_plan_id":"cebpf4jnsgd1na2vs0mg"},{"bike_id":"f1790ff8-1ddc-4c5f-9bb2-716596b83d20","system_id":"levelo_inurba_marseille","lat":43.28027,"lon":5.36939,"is_reserved":false,"is_disabled":false,"rental_uris":{"android":"levelo://app?vid=f1790ff8-1ddc-4c5f-9bb2-716596b83d20","ios":"levelo://app?vid=f1790ff8-1ddc-4c5f-9bb2-716596b83d20"},"vehicle_type_id":"4","last_reported":1726733566,"current_range_meters":19600,"station_id":"ce4bha12rcd13ifvqef0","pricing_plan_id":"cebpf4jnsgd1na2vs0mg"},{"bike_id":"2cbb6dd5-2ec8-4ba5-808a-c5301f897d27","system_id":"levelo_inurba_marseille","lat":43.23957,"lon":5.36627,"is_reserved":false,"is_disabled":false,"rental_uris":{"android":"levelo://app?vid=2cbb6dd5-2ec8-4ba5-808a-c5301f897d27","ios":"levelo://app?vid=2cbb6dd5-2ec8-4ba5-808a-c5301f897d27"},"vehicle_type_id":"4","last_reported":1726733566,"current_range_meters":24000,"station_id":"ce4bhi12rcd13ifvqfp0","pricing_plan_id":"cebpf4jnsgd1na2vs0mg"},{"bike_id":"60a6f6c2-c23b-4cfd-a0cb-c3d4101e03a6","system_id":"levelo_inurba_marseille","lat":43.29839,"lon":5.36263,"is_reserved":false,"is_disabled":false,"rental_uris":{"android":"levelo://app?vid=60a6f6c2-c23b-4cfd-a0cb-c3d4101e03a6","ios":"levelo://app?vid=60a6f6c2-c23b-4cfd-a0cb-c3d4101e03a6"},"vehicle_type_id":"4","last_reported":1726733566,"current_range_meters":33600,"station_id":"ce4bgpp2rcd13ifvqc3g","pricing_plan_id":"cebpf4jnsgd1na2vs0mg"},{"bike_id":"0af02ba3-ed9f-4559-92ed-0170773f320b","system_id":"levelo_inurba_marseille","lat":43.28667,"lon":5.38683,"is_reserved":false,"is_disabled":false,"rental_uris":{"android":"levelo://app?vid=0af02ba3-ed9f-4559-92ed-0170773f320b","ios":"levelo://app?vid=0af02ba3-ed9f-4559-92ed-0170773f320b"},"vehicle_type_id":"4","last_reported":1726733566,"current_range_meters":20400,"station_id":"ce4bh492rcd13ifvqdug","pricing_plan_id":"cebpf4jnsgd1na2vs0mg"},{"bike_id":"a271a571-7400-40e0-8e71-e83076131bee","system_id":"levelo_inurba_marseille","lat":43.24076,"lon":5.37753,"is_reserved":false,"is_disabled":false,"rental_uris":{"android":"levelo://app?vid=a271a571-7400-40e0-8e71-e83076131bee","ios":"levelo://app?vid=a271a571-7400-40e0-8e71-e83076131bee"},"vehicle_type_id":"4","last_reported":1726733566,"current_range_meters":35200,"station_id":"ce4bhnp2rcd13ifvqgvg","pricing_plan_id":"cebpf4jnsgd1na2vs0mg"},{"bike_id":"92302f36-89d5-4600-9a31-638bb75a4857","system_id":"levelo_inurba_marseille","lat":43.33607,"lon":5.41033,"is_reserved":false,"is_disabled":false,"rental_uris":{"android":"levelo://app?vid=92302f36-89d5-4600-9a31-638bb75a4857","ios":"levelo://app?vid=92302f36-89d5-4600-9a31-638bb75a4857"},"vehicle_type_id":"4","last_reported":1726733566,"current_range_meters":36800,"station_id":"ce4bhqh2rcd13ifvqhmg","pricing_plan_id":"cebpf4jnsgd1na2vs0mg"},{"bike_id":"a55e3dd3-dd83-4fb8-92d6-a45ca54e70dc","system_id":"levelo_inurba_marseille","lat":43.2558,"lon":5.38226,"is_reserved":false,"is_disabled":false,"rental_uris":{"android":"levelo://app?vid=a55e3dd3-dd83-4fb8-92d6-a45ca54e70dc","ios":"levelo://app?vid=a55e3dd3-dd83-4fb8-92d6-a45ca54e70dc"},"vehicle_type_id":"4","last_reported":1726733566,"current_range_meters":22800,"station_id":"ce4bhih2rcd13ifvqfs0","pricing_plan_id":"cebpf4jnsgd1na2vs0mg"},{"bike_id":"cbdee263-28c4-4479-ae53-620b05016a58","system_id":"levelo_inurba_marseille","lat":43.31358,"lon":5.36703,"is_reserved":false,"is_disabled":false,"rental_uris":{"android":"levelo://app?vid=cbdee263-28c4-4479-ae53-620b05016a58","ios":"levelo://app?vid=cbdee263-28c4-4479-ae53-620b05016a58"},"vehicle_type_id":"4","last_reported":1726733566,"current_range_meters":30800,"station_id":"ce4bgr92rcd13ifvqc6g","pricing_plan_id":"cebpf4jnsgd1na2vs0mg"},{"bike_id":"52fffaf1-dd98-4e0a-a39d-48011512624f","system_id":"levelo_inurba_marseille","lat":43.25498,"lon":5.3765,"is_reserved":false,"is_disabled":false,"rental_uris":{"android":"levelo://app?vid=52fffaf1-dd98-4e0a-a39d-48011512624f","ios":"levelo://app?vid=52fffaf1-dd98-4e0a-a39d-48011512624f"},"vehicle_type_id":"4","last_reported":1726733566,"current_range_meters":30000,"station_id":"ce4bhh12rcd13ifvqff0","pricing_plan_id":"cebpf4jnsgd1na2vs0mg"},{"bike_id":"54f0dbf5-a349-47b8-b649-bd849b46acd1","system_id":"levelo_inurba_marseille","lat":43.30139,"lon":5.37419,"is_reserved":false,"is_disabled":false,"rental_uris":{"android":"levelo://app?vid=54f0dbf5-a349-47b8-b649-bd849b46acd1","ios":"levelo://app?vid=54f0dbf5-a349-47b8-b649-bd849b46acd1"},"vehicle_type_id":"4","last_reported":1726733566,"current_range_meters":38400,"station_id":"ce4bgs92rcd13ifvqcc0","pricing_plan_id":"cebpf4jnsgd1na2vs0mg"},{"bike_id":"606df29d-1d1a-4907-a85c-55f3dd2b20b4","system_id":"levelo_inurba_marseille","lat":43.25938,"lon":5.40905,"is_reserved":false,"is_disabled":false,"rental_uris":{"android":"levelo://app?vid=606df29d-1d1a-4907-a85c-55f3dd2b20b4","ios":"levelo://app?vid=606df29d-1d1a-4907-a85c-55f3dd2b20b4"},"vehicle_type_id":"4","last_reported":1726733566,"current_range_meters":10800,"station_id":"ce4bhm92rcd13ifvqglg","pricing_plan_id":"cebpf4jnsgd1na2vs0mg"},{"bike_id":"229616a1-4a29-4b5c-acba-2a08605a9888","system_id":"levelo_inurba_marseille","lat":43.32273,"lon":5.38268,"is_reserved":false,"is_disabled":false,"rental_uris":{"android":"levelo://app?vid=229616a1-4a29-4b5c-acba-2a08605a9888","ios":"levelo://app?vid=229616a1-4a29-4b5c-acba-2a08605a9888"},"vehicle_type_id":"4","last_reported":1726733566,"current_range_meters":28000,"station_id":"ce4bhr12rcd13ifvqhqg","pricing_plan_id":"cebpf4jnsgd1na2vs0mg"},{"bike_id":"ab957eff-0a72-4c5a-a176-6c0e2015c982","system_id":"levelo_inurba_marseille","lat":43.298418,"lon":5.36424,"is_reserved":false,"is_disabled":false,"rental_uris":{"android":"levelo://app?vid=ab957eff-0a72-4c5a-a176-6c0e2015c982","ios":"levelo://app?vid=ab957eff-0a72-4c5a-a176-6c0e2015c982"},"vehicle_type_id":"4","last_reported":1726733566,"current_range_meters":20800,"station_id":"ce4bgpp2rcd13ifvqc3g","pricing_plan_id":"cebpf4jnsgd1na2vs0mg"},{"bike_id":"9c8d18c6-4f29-40f7-951a-badd986db1f2","system_id":"levelo_inurba_marseille","lat":43.24213,"lon":5.37944,"is_reserved":false,"is_disabled":false,"rental_uris":{"android":"levelo://app?vid=9c8d18c6-4f29-40f7-951a-badd986db1f2","ios":"levelo://app?vid=9c8d18c6-4f29-40f7-951a-badd986db1f2"},"vehicle_type_id":"4","last_reported":1726733566,"current_range_meters":32000,"station_id":"","pricing_plan_id":"cebpf4jnsgd1na2vs0mg"},{"bike_id":"d37aa318-9eec-42e5-ad66-edcb803356f0","system_id":"levelo_inurba_marseille","lat":43.27803,"lon":5.428,"is_reserved":false,"is_disabled":false,"rental_uris":{"android":"levelo://app?vid=d37aa318-9eec-42e5-ad66-edcb803356f0","ios":"levelo://app?vid=d37aa318-9eec-42e5-ad66-edcb803356f0"},"vehicle_type_id":"4","last_reported":1726733566,"current_range_meters":6400,"station_id":"","pricing_plan_id":"cebpf4jnsgd1na2vs0mg"},{"bike_id":"b51480c2-9b9c-41e3-9bfc-f3e2a0ce7444","system_id":"levelo_inurba_marseille","lat":43.23193,"lon":5.35547,"is_reserved":false,"is_disabled":false,"rental_uris":{"android":"levelo://app?vid=b51480c2-9b9c-41e3-9bfc-f3e2a0ce7444","ios":"levelo://app?vid=b51480c2-9b9c-41e3-9bfc-f3e2a0ce7444"},"vehicle_type_id":"4","last_reported":1726733566,"current_range_meters":39200,"station_id":"ce4bhu92rcd13ifvqi70","pricing_plan_id":"cebpf4jnsgd1na2vs0mg"},{"bike_id":"99bc560b-3038-410f-ba17-a53607539008","system_id":"levelo_inurba_marseille","lat":43.30904,"lon":5.36847,"is_reserved":false,"is_disabled":false,"rental_uris":{"android":"levelo://app?vid=99bc560b-3038-410f-ba17-a53607539008","ios":"levelo://app?vid=99bc560b-3038-410f-ba17-a53607539008"},"vehicle_type_id":"4","last_reported":1726733566,"current_range_meters":24400,"station_id":"ce4bgn92rcd13ifvqbvg","pricing_plan_id":"cebpf4jnsgd1na2vs0mg"},{"bike_id":"011c3d55-2368-40f1-b590-0f25bc645971","system_id":"levelo_inurba_marseille","lat":43.3361,"lon":5.41029,"is_reserved":false,"is_disabled":false,"rental_uris":{"android":"levelo://app?vid=011c3d55-2368-40f1-b590-0f25bc645971","ios":"levelo://app?vid=011c3d55-2368-40f1-b590-0f25bc645971"},"vehicle_type_id":"4","last_reported":1726733566,"current_range_meters":33600,"station_id":"ce4bhqh2rcd13ifvqhmg","pricing_plan_id":"cebpf4jnsgd1na2vs0mg"},{"bike_id":"bbf98b5f-9d4a-44dd-9803-f66613dc0499","system_id":"levelo_inurba_marseille","lat":43.27379,"lon":5.36249,"is_reserved":false,"is_disabled":false,"rental_uris":{"android":"levelo://app?vid=bbf98b5f-9d4a-44dd-9803-f66613dc0499","ios":"levelo://app?vid=bbf98b5f-9d4a-44dd-9803-f66613dc0499"},"vehicle_type_id":"4","last_reported":1726733566,"current_range_meters":36400,"station_id":"ce4bhbh2rcd13ifvqeo0","pricing_plan_id":"cebpf4jnsgd1na2vs0mg"},{"bike_id":"2b714e73-49f8-4f26-bb6d-7d72ce23aabc","system_id":"levelo_inurba_marseille","lat":43.23054,"lon":5.35493,"is_reserved":false,"is_disabled":false,"rental_uris":{"android":"levelo://app?vid=2b714e73-49f8-4f26-bb6d-7d72ce23aabc","ios":"levelo://app?vid=2b714e73-49f8-4f26-bb6d-7d72ce23aabc"},"vehicle_type_id":"4","last_reported":1726733566,"current_range_meters":3600,"station_id":"cpo3342slgdg3j2ifvpg","pricing_plan_id":"cebpf4jnsgd1na2vs0mg"},{"bike_id":"6abd6ed8-e9da-4163-9975-ae064d953b07","system_id":"levelo_inurba_marseille","lat":43.25937,"lon":5.40903,"is_reserved":false,"is_disabled":false,"rental_uris":{"android":"levelo://app?vid=6abd6ed8-e9da-4163-9975-ae064d953b07","ios":"levelo://app?vid=6abd6ed8-e9da-4163-9975-ae064d953b07"},"vehicle_type_id":"4","last_reported":1726733566,"current_range_meters":30800,"station_id":"ce4bhm92rcd13ifvqglg","pricing_plan_id":"cebpf4jnsgd1na2vs0mg"},{"bike_id":"87483675-10ba-4b90-9ed9-a62636228fd3","system_id":"levelo_inurba_marseille","lat":43.25938,"lon":5.40898,"is_reserved":false,"is_disabled":false,"rental_uris":{"android":"levelo://app?vid=87483675-10ba-4b90-9ed9-a62636228fd3","ios":"levelo://app?vid=87483675-10ba-4b90-9ed9-a62636228fd3"},"vehicle_type_id":"4","last_reported":1726733566,"current_range_meters":33600,"station_id":"ce4bhm92rcd13ifvqglg","pricing_plan_id":"cebpf4jnsgd1na2vs0mg"},{"bike_id":"2e64ac77-37d0-42c4-9b89-df897b66197d","system_id":"levelo_inurba_marseille","lat":43.29964,"lon":5.41321,"is_reserved":false,"is_disabled":false,"rental_uris":{"android":"levelo://app?vid=2e64ac77-37d0-42c4-9b89-df897b66197d","ios":"levelo://app?vid=2e64ac77-37d0-42c4-9b89-df897b66197d"},"vehicle_type_id":"4","last_reported":1726733566,"current_range_meters":39200,"station_id":"ce4bhp12rcd13ifvqh9g","pricing_plan_id":"cebpf4jnsgd1na2vs0mg"},{"bike_id":"12fd216c-4005-44e5-a188-d2b75f8e3663","system_id":"levelo_inurba_marseille","lat":43.29881,"lon":5.38115,"is_reserved":false,"is_disabled":false,"rental_uris":{"android":"levelo://app?vid=12fd216c-4005-44e5-a188-d2b75f8e3663","ios":"levelo://app?vid=12fd216c-4005-44e5-a188-d2b75f8e3663"},"vehicle_type_id":"4","last_reported":1726733566,"current_range_meters":36800,"station_id":"ce4bgj12rcd13ifvqbc0","pricing_plan_id":"cebpf4jnsgd1na2vs0mg"},{"bike_id":"5d5dc1f6-9826-4de9-8a09-ee5160bfd107","system_id":"levelo_inurba_marseille","lat":43.28347,"lon":5.381,"is_reserved":false,"is_disabled":false,"rental_uris":{"android":"levelo://app?vid=5d5dc1f6-9826-4de9-8a09-ee5160bfd107","ios":"levelo://app?vid=5d5dc1f6-9826-4de9-8a09-ee5160bfd107"},"vehicle_type_id":"4","last_reported":1726733566,"current_range_meters":37600,"station_id":"ce4bh412rcd13ifvqdr0","pricing_plan_id":"cebpf4jnsgd1na2vs0mg"},{"bike_id":"af2bef4f-9caa-4eea-a587-3f3222bd844b","system_id":"levelo_inurba_marseille","lat":43.2408,"lon":5.37749,"is_reserved":false,"is_disabled":false,"rental_uris":{"android":"levelo://app?vid=af2bef4f-9caa-4eea-a587-3f3222bd844b","ios":"levelo://app?vid=af2bef4f-9caa-4eea-a587-3f3222bd844b"},"vehicle_type_id":"4","last_reported":1726733566,"current_range_meters":35600,"station_id":"ce4bhnp2rcd13ifvqgvg","pricing_plan_id":"cebpf4jnsgd1na2vs0mg"},{"bike_id":"1996a7f0-d4d0-4c08-8598-e24e8c0cec76","system_id":"levelo_inurba_marseille","lat":43.29172,"lon":5.37171,"is_reserved":false,"is_disabled":false,"rental_uris":{"android":"levelo://app?vid=1996a7f0-d4d0-4c08-8598-e24e8c0cec76","ios":"levelo://app?vid=1996a7f0-d4d0-4c08-8598-e24e8c0cec76"},"vehicle_type_id":"4","last_reported":1726733566,"current_range_meters":14800,"station_id":"ce4bha92rcd13ifvqeh0","pricing_plan_id":"cebpf4jnsgd1na2vs0mg"},{"bike_id":"be5df729-f5f3-4260-8f93-c174d533b9fa","system_id":"levelo_inurba_marseille","lat":43.24997,"lon":5.38931,"is_reserved":false,"is_disabled":false,"rental_uris":{"android":"levelo://app?vid=be5df729-f5f3-4260-8f93-c174d533b9fa","ios":"levelo://app?vid=be5df729-f5f3-4260-8f93-c174d533b9fa"},"vehicle_type_id":"4","last_reported":1726733566,"current_range_meters":28800,"station_id":"ce4bhgp2rcd13ifvqfd0","pricing_plan_id":"cebpf4jnsgd1na2vs0mg"},{"bike_id":"bda43ea3-dbdd-4b08-a349-4b0d86fdb032","system_id":"levelo_inurba_marseille","lat":43.24073,"lon":5.37743,"is_reserved":false,"is_disabled":false,"rental_uris":{"android":"levelo://app?vid=bda43ea3-dbdd-4b08-a349-4b0d86fdb032","ios":"levelo://app?vid=bda43ea3-dbdd-4b08-a349-4b0d86fdb032"},"vehicle_type_id":"4","last_reported":1726733566,"current_range_meters":36400,"station_id":"ce4bhnp2rcd13ifvqgvg","pricing_plan_id":"cebpf4jnsgd1na2vs0mg"},{"bike_id":"7872948f-4eb5-4217-b532-0383a06374fd","system_id":"levelo_inurba_marseille","lat":43.25931,"lon":5.40907,"is_reserved":false,"is_disabled":false,"rental_uris":{"android":"levelo://app?vid=7872948f-4eb5-4217-b532-0383a06374fd","ios":"levelo://app?vid=7872948f-4eb5-4217-b532-0383a06374fd"},"vehicle_type_id":"4","last_reported":1726733566,"current_range_meters":28400,"station_id":"ce4bhm92rcd13ifvqglg","pricing_plan_id":"cebpf4jnsgd1na2vs0mg"},{"bike_id":"12601aad-f6d0-4629-8c6c-43891a6f9adf","system_id":"levelo_inurba_marseille","lat":43.2927,"lon":5.38449,"is_reserved":false,"is_disabled":false,"rental_uris":{"android":"levelo://app?vid=12601aad-f6d0-4629-8c6c-43891a6f9adf","ios":"levelo://app?vid=12601aad-f6d0-4629-8c6c-43891a6f9adf"},"vehicle_type_id":"4","last_reported":1726733566,"current_range_meters":38000,"station_id":"ce4bh692rcd13ifvqea0","pricing_plan_id":"cebpf4jnsgd1na2vs0mg"},{"bike_id":"6ad4bd65-2018-415b-af44-c744844bc858","system_id":"levelo_inurba_marseille","lat":43.24077,"lon":5.37757,"is_reserved":false,"is_disabled":false,"rental_uris":{"android":"levelo://app?vid=6ad4bd65-2018-415b-af44-c744844bc858","ios":"levelo://app?vid=6ad4bd65-2018-415b-af44-c744844bc858"},"vehicle_type_id":"4","last_reported":1726733566,"current_range_meters":14800,"station_id":"ce4bhnp2rcd13ifvqgvg","pricing_plan_id":"cebpf4jnsgd1na2vs0mg"},{"bike_id":"d62a3b6b-3952-4115-a9de-a42ba245ef79","system_id":"levelo_inurba_marseille","lat":43.29926,"lon":5.36538,"is_reserved":false,"is_disabled":false,"rental_uris":{"android":"levelo://app?vid=d62a3b6b-3952-4115-a9de-a42ba245ef79","ios":"levelo://app?vid=d62a3b6b-3952-4115-a9de-a42ba245ef79"},"vehicle_type_id":"4","last_reported":1726733566,"current_range_meters":28400,"station_id":"ce4bgm92rcd13ifvqbr0","pricing_plan_id":"cebpf4jnsgd1na2vs0mg"},{"bike_id":"83ca9bd0-3343-425c-8a8c-6e8a7e31c55f","system_id":"levelo_inurba_marseille","lat":43.31361,"lon":5.36709,"is_reserved":false,"is_disabled":false,"rental_uris":{"android":"levelo://app?vid=83ca9bd0-3343-425c-8a8c-6e8a7e31c55f","ios":"levelo://app?vid=83ca9bd0-3343-425c-8a8c-6e8a7e31c55f"},"vehicle_type_id":"4","last_reported":1726733566,"current_range_meters":38800,"station_id":"ce4bgr92rcd13ifvqc6g","pricing_plan_id":"cebpf4jnsgd1na2vs0mg"},{"bike_id":"3054afe6-4c88-4656-9a5d-c31a1a4a065f","system_id":"levelo_inurba_marseille","lat":43.32475,"lon":5.36583,"is_reserved":false,"is_disabled":false,"rental_uris":{"android":"levelo://app?vid=3054afe6-4c88-4656-9a5d-c31a1a4a065f","ios":"levelo://app?vid=3054afe6-4c88-4656-9a5d-c31a1a4a065f"},"vehicle_type_id":"4","last_reported":1726733566,"current_range_meters":34800,"station_id":"ce4bhs12rcd13ifvqhvg","pricing_plan_id":"cebpf4jnsgd1na2vs0mg"},{"bike_id":"0e4b3fff-8da9-4e63-a733-ee49c7744aed","system_id":"levelo_inurba_marseille","lat":43.29308,"lon":5.37175,"is_reserved":false,"is_disabled":false,"rental_uris":{"android":"levelo://app?vid=0e4b3fff-8da9-4e63-a733-ee49c7744aed","ios":"levelo://app?vid=0e4b3fff-8da9-4e63-a733-ee49c7744aed"},"vehicle_type_id":"4","last_reported":1726733566,"current_range_meters":25200,"station_id":"ce4bgh92rcd13ifvqb40","pricing_plan_id":"cebpf4jnsgd1na2vs0mg"},{"bike_id":"5e0f56f5-f149-429e-9dfd-69fe06337df6","system_id":"levelo_inurba_marseille","lat":43.30468,"lon":5.37925,"is_reserved":false,"is_disabled":false,"rental_uris":{"android":"levelo://app?vid=5e0f56f5-f149-429e-9dfd-69fe06337df6","ios":"levelo://app?vid=5e0f56f5-f149-429e-9dfd-69fe06337df6"},"vehicle_type_id":"4","last_reported":1726733566,"current_range_meters":24800,"station_id":"ce4bgup2rcd13ifvqcn0","pricing_plan_id":"cebpf4jnsgd1na2vs0mg"},{"bike_id":"e4889189-3c74-4ff5-8860-0ffbb1e05e7b","system_id":"levelo_inurba_marseille","lat":43.26952,"lon":5.38635,"is_reserved":false,"is_disabled":false,"rental_uris":{"android":"levelo://app?vid=e4889189-3c74-4ff5-8860-0ffbb1e05e7b","ios":"levelo://app?vid=e4889189-3c74-4ff5-8860-0ffbb1e05e7b"},"vehicle_type_id":"4","last_reported":1726733566,"current_range_meters":12000,"station_id":"ce4bhh92rcd13ifvqfh0","pricing_plan_id":"cebpf4jnsgd1na2vs0mg"},{"bike_id":"ff864caa-5642-4f22-9bc0-88f3132d8ae8","system_id":"levelo_inurba_marseille","lat":43.240723,"lon":5.377596,"is_reserved":false,"is_disabled":false,"rental_uris":{"android":"levelo://app?vid=ff864caa-5642-4f22-9bc0-88f3132d8ae8","ios":"levelo://app?vid=ff864caa-5642-4f22-9bc0-88f3132d8ae8"},"vehicle_type_id":"4","last_reported":1726733566,"current_range_meters":8800,"station_id":"ce4bhnp2rcd13ifvqgvg","pricing_plan_id":"cebpf4jnsgd1na2vs0mg"},{"bike_id":"1b612551-d8c7-46b4-8d2f-1954ea4f6d5b","system_id":"levelo_inurba_marseille","lat":43.29223,"lon":5.36072,"is_reserved":false,"is_disabled":false,"rental_uris":{"android":"levelo://app?vid=1b612551-d8c7-46b4-8d2f-1954ea4f6d5b","ios":"levelo://app?vid=1b612551-d8c7-46b4-8d2f-1954ea4f6d5b"},"vehicle_type_id":"4","last_reported":1726733566,"current_range_meters":38400,"station_id":"ce4bhbh2rcd13ifvqeqg","pricing_plan_id":"cebpf4jnsgd1na2vs0mg"},{"bike_id":"cef4b0d2-7a97-4074-b8c5-52c41fb39c88","system_id":"levelo_inurba_marseille","lat":43.33747,"lon":5.37446,"is_reserved":false,"is_disabled":false,"rental_uris":{"android":"levelo://app?vid=cef4b0d2-7a97-4074-b8c5-52c41fb39c88","ios":"levelo://app?vid=cef4b0d2-7a97-4074-b8c5-52c41fb39c88"},"vehicle_type_id":"4","last_reported":1726733566,"current_range_meters":38000,"station_id":"","pricing_plan_id":"cebpf4jnsgd1na2vs0mg"},{"bike_id":"8c1bf24b-5762-4b71-b6bc-7f23d25e6ef3","system_id":"levelo_inurba_marseille","lat":43.30596,"lon":5.39367,"is_reserved":false,"is_disabled":false,"rental_uris":{"android":"levelo://app?vid=8c1bf24b-5762-4b71-b6bc-7f23d25e6ef3","ios":"levelo://app?vid=8c1bf24b-5762-4b71-b6bc-7f23d25e6ef3"},"vehicle_type_id":"4","last_reported":1726733566,"current_range_meters":14400,"station_id":"ce4bh0p2rcd13ifvqd80","pricing_plan_id":"cebpf4jnsgd1na2vs0mg"},{"bike_id":"e0b9fde8-8bce-456d-bdb9-1dbe3347f9ce","system_id":"levelo_inurba_marseille","lat":43.23153,"lon":5.43719,"is_reserved":false,"is_disabled":false,"rental_uris":{"android":"levelo://app?vid=e0b9fde8-8bce-456d-bdb9-1dbe3347f9ce","ios":"levelo://app?vid=e0b9fde8-8bce-456d-bdb9-1dbe3347f9ce"},"vehicle_type_id":"4","last_reported":1726733566,"current_range_meters":8800,"station_id":"ce4bhmp2rcd13ifvqgog","pricing_plan_id":"cebpf4jnsgd1na2vs0mg"},{"bike_id":"7ed6941b-afc4-460f-8af3-ab9c555ffb27","system_id":"levelo_inurba_marseille","lat":43.30525,"lon":5.36723,"is_reserved":false,"is_disabled":false,"rental_uris":{"android":"levelo://app?vid=7ed6941b-afc4-460f-8af3-ab9c555ffb27","ios":"levelo://app?vid=7ed6941b-afc4-460f-8af3-ab9c555ffb27"},"vehicle_type_id":"4","last_reported":1726733566,"current_range_meters":39200,"station_id":"ce4bgrp2rcd13ifvqc9g","pricing_plan_id":"cebpf4jnsgd1na2vs0mg"},{"bike_id":"64d34ce2-f8d2-42ef-9297-13ee12e9dadb","system_id":"levelo_inurba_marseille","lat":43.24076,"lon":5.3776,"is_reserved":false,"is_disabled":false,"rental_uris":{"android":"levelo://app?vid=64d34ce2-f8d2-42ef-9297-13ee12e9dadb","ios":"levelo://app?vid=64d34ce2-f8d2-42ef-9297-13ee12e9dadb"},"vehicle_type_id":"4","last_reported":1726733566,"current_range_meters":36400,"station_id":"ce4bhnp2rcd13ifvqgvg","pricing_plan_id":"cebpf4jnsgd1na2vs0mg"},{"bike_id":"db5bed51-afb9-4548-98e9-7b7ae226c501","system_id":"levelo_inurba_marseille","lat":43.33756,"lon":5.37453,"is_reserved":false,"is_disabled":false,"rental_uris":{"android":"levelo://app?vid=db5bed51-afb9-4548-98e9-7b7ae226c501","ios":"levelo://app?vid=db5bed51-afb9-4548-98e9-7b7ae226c501"},"vehicle_type_id":"4","last_reported":1726733566,"current_range_meters":28800,"station_id":"","pricing_plan_id":"cebpf4jnsgd1na2vs0mg"},{"bike_id":"2d18bdf3-b839-4bd3-b0ec-633ade641185","system_id":"levelo_inurba_marseille","lat":43.29241,"lon":5.3994,"is_reserved":false,"is_disabled":false,"rental_uris":{"android":"levelo://app?vid=2d18bdf3-b839-4bd3-b0ec-633ade641185","ios":"levelo://app?vid=2d18bdf3-b839-4bd3-b0ec-633ade641185"},"vehicle_type_id":"4","last_reported":1726733566,"current_range_meters":36800,"station_id":"","pricing_plan_id":"cebpf4jnsgd1na2vs0mg"},{"bike_id":"6864a05c-76c0-4648-ae7c-db87fef70f83","system_id":"levelo_inurba_marseille","lat":43.2749,"lon":5.42448,"is_reserved":false,"is_disabled":false,"rental_uris":{"android":"levelo://app?vid=6864a05c-76c0-4648-ae7c-db87fef70f83","ios":"levelo://app?vid=6864a05c-76c0-4648-ae7c-db87fef70f83"},"vehicle_type_id":"4","last_reported":1726733566,"current_range_meters":7200,"station_id":"ce4bhn92rcd13ifvqgrg","pricing_plan_id":"cebpf4jnsgd1na2vs0mg"},{"bike_id":"f1925469-9217-450d-9259-fc5ba656a5ff","system_id":"levelo_inurba_marseille","lat":43.25929,"lon":5.40901,"is_reserved":false,"is_disabled":false,"rental_uris":{"android":"levelo://app?vid=f1925469-9217-450d-9259-fc5ba656a5ff","ios":"levelo://app?vid=f1925469-9217-450d-9259-fc5ba656a5ff"},"vehicle_type_id":"4","last_reported":1726733566,"current_range_meters":38000,"station_id":"ce4bhm92rcd13ifvqglg","pricing_plan_id":"cebpf4jnsgd1na2vs0mg"},{"bike_id":"69399783-5eae-4af9-ae4b-1495b2d249b1","system_id":"levelo_inurba_marseille","lat":43.24158,"lon":5.36402,"is_reserved":false,"is_disabled":false,"rental_uris":{"android":"levelo://app?vid=69399783-5eae-4af9-ae4b-1495b2d249b1","ios":"levelo://app?vid=69399783-5eae-4af9-ae4b-1495b2d249b1"},"vehicle_type_id":"4","last_reported":1726733566,"current_range_meters":34000,"station_id":"cpo36qri1sfpv3e86is0","pricing_plan_id":"cebpf4jnsgd1na2vs0mg"},{"bike_id":"3f513f49-e3b1-4c4c-bbdc-e5ae3b2b72d3","system_id":"levelo_inurba_marseille","lat":43.27485,"lon":5.42458,"is_reserved":false,"is_disabled":false,"rental_uris":{"android":"levelo://app?vid=3f513f49-e3b1-4c4c-bbdc-e5ae3b2b72d3","ios":"levelo://app?vid=3f513f49-e3b1-4c4c-bbdc-e5ae3b2b72d3"},"vehicle_type_id":"4","last_reported":1726733566,"current_range_meters":22000,"station_id":"ce4bhn92rcd13ifvqgrg","pricing_plan_id":"cebpf4jnsgd1na2vs0mg"},{"bike_id":"42fca651-4bb4-4b39-8dde-cd01124da3f6","system_id":"levelo_inurba_marseille","lat":43.26677,"lon":5.38265,"is_reserved":false,"is_disabled":false,"rental_uris":{"android":"levelo://app?vid=42fca651-4bb4-4b39-8dde-cd01124da3f6","ios":"levelo://app?vid=42fca651-4bb4-4b39-8dde-cd01124da3f6"},"vehicle_type_id":"4","last_reported":1726733566,"current_range_meters":28800,"station_id":"ce4bhg92rcd13ifvqf90","pricing_plan_id":"cebpf4jnsgd1na2vs0mg"},{"bike_id":"c07f4740-ebab-4d5c-b22e-deddf1ddd7da","system_id":"levelo_inurba_marseille","lat":43.2984,"lon":5.36265,"is_reserved":false,"is_disabled":false,"rental_uris":{"android":"levelo://app?vid=c07f4740-ebab-4d5c-b22e-deddf1ddd7da","ios":"levelo://app?vid=c07f4740-ebab-4d5c-b22e-deddf1ddd7da"},"vehicle_type_id":"4","last_reported":1726733566,"current_range_meters":33200,"station_id":"ce4bgpp2rcd13ifvqc3g","pricing_plan_id":"cebpf4jnsgd1na2vs0mg"},{"bike_id":"15974002-b466-4881-a3b8-3f18cb574325","system_id":"levelo_inurba_marseille","lat":43.27314,"lon":5.39088,"is_reserved":false,"is_disabled":false,"rental_uris":{"android":"levelo://app?vid=15974002-b466-4881-a3b8-3f18cb574325","ios":"levelo://app?vid=15974002-b466-4881-a3b8-3f18cb574325"},"vehicle_type_id":"4","last_reported":1726733566,"current_range_meters":19600,"station_id":"ce4bhgp2rcd13ifvqfe0","pricing_plan_id":"cebpf4jnsgd1na2vs0mg"},{"bike_id":"bf8ddfc3-e680-4d90-adc2-91a839c88fde","system_id":"levelo_inurba_marseille","lat":43.29516,"lon":5.37509,"is_reserved":false,"is_disabled":false,"rental_uris":{"android":"levelo://app?vid=bf8ddfc3-e680-4d90-adc2-91a839c88fde","ios":"levelo://app?vid=bf8ddfc3-e680-4d90-adc2-91a839c88fde"},"vehicle_type_id":"4","last_reported":1726733566,"current_range_meters":38800,"station_id":"ce4bgkp2rcd13ifvqbmg","pricing_plan_id":"cebpf4jnsgd1na2vs0mg"},{"bike_id":"a811345e-c046-4ee5-87fd-576f86d7c458","system_id":"levelo_inurba_marseille","lat":43.25932,"lon":5.40908,"is_reserved":false,"is_disabled":false,"rental_uris":{"android":"levelo://app?vid=a811345e-c046-4ee5-87fd-576f86d7c458","ios":"levelo://app?vid=a811345e-c046-4ee5-87fd-576f86d7c458"},"vehicle_type_id":"4","last_reported":1726733566,"current_range_meters":37600,"station_id":"ce4bhm92rcd13ifvqglg","pricing_plan_id":"cebpf4jnsgd1na2vs0mg"},{"bike_id":"a96ae8fd-9005-4030-9806-c68ea3752921","system_id":"levelo_inurba_marseille","lat":43.330229,"lon":5.390803,"is_reserved":false,"is_disabled":false,"rental_uris":{"android":"levelo://app?vid=a96ae8fd-9005-4030-9806-c68ea3752921","ios":"levelo://app?vid=a96ae8fd-9005-4030-9806-c68ea3752921"},"vehicle_type_id":"4","last_reported":1726733566,"current_range_meters":27200,"station_id":"ce4bhr92rcd13ifvqhrg","pricing_plan_id":"cebpf4jnsgd1na2vs0mg"},{"bike_id":"884b4613-2a72-46e8-b1fd-814e1222921b","system_id":"levelo_inurba_marseille","lat":43.30539,"lon":5.3671,"is_reserved":false,"is_disabled":false,"rental_uris":{"android":"levelo://app?vid=884b4613-2a72-46e8-b1fd-814e1222921b","ios":"levelo://app?vid=884b4613-2a72-46e8-b1fd-814e1222921b"},"vehicle_type_id":"4","last_reported":1726733566,"current_range_meters":12000,"station_id":"ce4bgrp2rcd13ifvqc9g","pricing_plan_id":"cebpf4jnsgd1na2vs0mg"},{"bike_id":"b84c025d-bde5-4a93-8ba6-905a2e6c603c","system_id":"levelo_inurba_marseille","lat":43.30132,"lon":5.37422,"is_reserved":false,"is_disabled":false,"rental_uris":{"android":"levelo://app?vid=b84c025d-bde5-4a93-8ba6-905a2e6c603c","ios":"levelo://app?vid=b84c025d-bde5-4a93-8ba6-905a2e6c603c"},"vehicle_type_id":"4","last_reported":1726733566,"current_range_meters":24800,"station_id":"ce4bgs92rcd13ifvqcc0","pricing_plan_id":"cebpf4jnsgd1na2vs0mg"},{"bike_id":"58014cc6-4f39-4119-a8a0-cdc0e2507820","system_id":"levelo_inurba_marseille","lat":43.32287,"lon":5.38269,"is_reserved":false,"is_disabled":false,"rental_uris":{"android":"levelo://app?vid=58014cc6-4f39-4119-a8a0-cdc0e2507820","ios":"levelo://app?vid=58014cc6-4f39-4119-a8a0-cdc0e2507820"},"vehicle_type_id":"4","last_reported":1726733566,"current_range_meters":39200,"station_id":"ce4bhr12rcd13ifvqhqg","pricing_plan_id":"cebpf4jnsgd1na2vs0mg"},{"bike_id":"c62c95b5-6f9e-42eb-9748-6689d3c1ea72","system_id":"levelo_inurba_marseille","lat":43.24169,"lon":5.39743,"is_reserved":false,"is_disabled":false,"rental_uris":{"android":"levelo://app?vid=c62c95b5-6f9e-42eb-9748-6689d3c1ea72","ios":"levelo://app?vid=c62c95b5-6f9e-42eb-9748-6689d3c1ea72"},"vehicle_type_id":"4","last_reported":1726733566,"current_range_meters":32000,"station_id":"ce4bhn12rcd13ifvqgpg","pricing_plan_id":"cebpf4jnsgd1na2vs0mg"},{"bike_id":"b375ad79-f0cb-4d47-9a12-a6895782b8ef","system_id":"levelo_inurba_marseille","lat":43.29982,"lon":5.37182,"is_reserved":false,"is_disabled":false,"rental_uris":{"android":"levelo://app?vid=b375ad79-f0cb-4d47-9a12-a6895782b8ef","ios":"levelo://app?vid=b375ad79-f0cb-4d47-9a12-a6895782b8ef"},"vehicle_type_id":"4","last_reported":1726733566,"current_range_meters":4400,"station_id":"ce4bgr92rcd13ifvqc7g","pricing_plan_id":"cebpf4jnsgd1na2vs0mg"},{"bike_id":"58a0977a-4560-4644-908f-41ef1eb01cb6","system_id":"levelo_inurba_marseille","lat":43.2694,"lon":5.38642,"is_reserved":false,"is_disabled":false,"rental_uris":{"android":"levelo://app?vid=58a0977a-4560-4644-908f-41ef1eb01cb6","ios":"levelo://app?vid=58a0977a-4560-4644-908f-41ef1eb01cb6"},"vehicle_type_id":"4","last_reported":1726733566,"current_range_meters":32000,"station_id":"ce4bhh92rcd13ifvqfh0","pricing_plan_id":"cebpf4jnsgd1na2vs0mg"},{"bike_id":"6d9d8363-0ea7-4bc1-943c-7be11a11f39b","system_id":"levelo_inurba_marseille","lat":43.32538,"lon":5.41432,"is_reserved":false,"is_disabled":false,"rental_uris":{"android":"levelo://app?vid=6d9d8363-0ea7-4bc1-943c-7be11a11f39b","ios":"levelo://app?vid=6d9d8363-0ea7-4bc1-943c-7be11a11f39b"},"vehicle_type_id":"4","last_reported":1726733566,"current_range_meters":30400,"station_id":"ce4bhq12rcd13ifvqhhg","pricing_plan_id":"cebpf4jnsgd1na2vs0mg"},{"bike_id":"9942a47b-d751-4701-8db6-fd3aae6ec433","system_id":"levelo_inurba_marseille","lat":43.27487,"lon":5.42459,"is_reserved":false,"is_disabled":false,"rental_uris":{"android":"levelo://app?vid=9942a47b-d751-4701-8db6-fd3aae6ec433","ios":"levelo://app?vid=9942a47b-d751-4701-8db6-fd3aae6ec433"},"vehicle_type_id":"4","last_reported":1726733566,"current_range_meters":30000,"station_id":"ce4bhn92rcd13ifvqgrg","pricing_plan_id":"cebpf4jnsgd1na2vs0mg"},{"bike_id":"7bb3dd62-7ae3-42e3-a621-f30be9c95877","system_id":"levelo_inurba_marseille","lat":43.24996,"lon":5.38928,"is_reserved":false,"is_disabled":false,"rental_uris":{"android":"levelo://app?vid=7bb3dd62-7ae3-42e3-a621-f30be9c95877","ios":"levelo://app?vid=7bb3dd62-7ae3-42e3-a621-f30be9c95877"},"vehicle_type_id":"4","last_reported":1726733566,"current_range_meters":33600,"station_id":"ce4bhgp2rcd13ifvqfd0","pricing_plan_id":"cebpf4jnsgd1na2vs0mg"},{"bike_id":"3a643a13-d852-4164-b5f1-2086ca5ef5c3","system_id":"levelo_inurba_marseille","lat":43.30302,"lon":5.36967,"is_reserved":false,"is_disabled":false,"rental_uris":{"android":"levelo://app?vid=3a643a13-d852-4164-b5f1-2086ca5ef5c3","ios":"levelo://app?vid=3a643a13-d852-4164-b5f1-2086ca5ef5c3"},"vehicle_type_id":"4","last_reported":1726733566,"current_range_meters":15200,"station_id":"","pricing_plan_id":"cebpf4jnsgd1na2vs0mg"},{"bike_id":"e3025b5e-44da-4858-bda9-17fe30d7bdb9","system_id":"levelo_inurba_marseille","lat":43.31342,"lon":5.36721,"is_reserved":false,"is_disabled":false,"rental_uris":{"android":"levelo://app?vid=e3025b5e-44da-4858-bda9-17fe30d7bdb9","ios":"levelo://app?vid=e3025b5e-44da-4858-bda9-17fe30d7bdb9"},"vehicle_type_id":"4","last_reported":1726733566,"current_range_meters":10800,"station_id":"ce4bgr92rcd13ifvqc6g","pricing_plan_id":"cebpf4jnsgd1na2vs0mg"},{"bike_id":"f4a274be-07e0-43fb-97a5-f5ef7a2d6f8a","system_id":"levelo_inurba_marseille","lat":43.26948,"lon":5.38643,"is_reserved":false,"is_disabled":false,"rental_uris":{"android":"levelo://app?vid=f4a274be-07e0-43fb-97a5-f5ef7a2d6f8a","ios":"levelo://app?vid=f4a274be-07e0-43fb-97a5-f5ef7a2d6f8a"},"vehicle_type_id":"4","last_reported":1726733566,"current_range_meters":26800,"station_id":"ce4bhh92rcd13ifvqfh0","pricing_plan_id":"cebpf4jnsgd1na2vs0mg"},{"bike_id":"17cd38d4-4da4-41dd-b1cb-62ac66828af3","system_id":"levelo_inurba_marseille","lat":43.30472,"lon":5.3791,"is_reserved":false,"is_disabled":false,"rental_uris":{"android":"levelo://app?vid=17cd38d4-4da4-41dd-b1cb-62ac66828af3","ios":"levelo://app?vid=17cd38d4-4da4-41dd-b1cb-62ac66828af3"},"vehicle_type_id":"4","last_reported":1726733566,"current_range_meters":25600,"station_id":"ce4bgup2rcd13ifvqcn0","pricing_plan_id":"cebpf4jnsgd1na2vs0mg"},{"bike_id":"b1f51ce9-8c30-4281-804b-4c3643a2a65b","system_id":"levelo_inurba_marseille","lat":43.30274,"lon":5.37697,"is_reserved":false,"is_disabled":false,"rental_uris":{"android":"levelo://app?vid=b1f51ce9-8c30-4281-804b-4c3643a2a65b","ios":"levelo://app?vid=b1f51ce9-8c30-4281-804b-4c3643a2a65b"},"vehicle_type_id":"4","last_reported":1726733566,"current_range_meters":39200,"station_id":"ce4bguh2rcd13ifvqcj0","pricing_plan_id":"cebpf4jnsgd1na2vs0mg"},{"bike_id":"15cd0306-fc06-484f-ac40-88af11264c42","system_id":"levelo_inurba_marseille","lat":43.27486,"lon":5.4246,"is_reserved":false,"is_disabled":false,"rental_uris":{"android":"levelo://app?vid=15cd0306-fc06-484f-ac40-88af11264c42","ios":"levelo://app?vid=15cd0306-fc06-484f-ac40-88af11264c42"},"vehicle_type_id":"4","last_reported":1726733566,"current_range_meters":28800,"station_id":"ce4bhn92rcd13ifvqgrg","pricing_plan_id":"cebpf4jnsgd1na2vs0mg"},{"bike_id":"1f413204-0b99-431d-9d1d-c5c507ee4a66","system_id":"levelo_inurba_marseille","lat":43.2695,"lon":5.38627,"is_reserved":false,"is_disabled":false,"rental_uris":{"android":"levelo://app?vid=1f413204-0b99-431d-9d1d-c5c507ee4a66","ios":"levelo://app?vid=1f413204-0b99-431d-9d1d-c5c507ee4a66"},"vehicle_type_id":"4","last_reported":1726733566,"current_range_meters":7200,"station_id":"ce4bhh92rcd13ifvqfh0","pricing_plan_id":"cebpf4jnsgd1na2vs0mg"},{"bike_id":"fb986fe7-8c15-4498-a389-29ce87e03bec","system_id":"levelo_inurba_marseille","lat":43.26958,"lon":5.38634,"is_reserved":false,"is_disabled":false,"rental_uris":{"android":"levelo://app?vid=fb986fe7-8c15-4498-a389-29ce87e03bec","ios":"levelo://app?vid=fb986fe7-8c15-4498-a389-29ce87e03bec"},"vehicle_type_id":"4","last_reported":1726733566,"current_range_meters":24800,"station_id":"ce4bhh92rcd13ifvqfh0","pricing_plan_id":"cebpf4jnsgd1na2vs0mg"},{"bike_id":"a5167d20-2104-475d-a982-32ed65c102d6","system_id":"levelo_inurba_marseille","lat":43.30546,"lon":5.36532,"is_reserved":false,"is_disabled":false,"rental_uris":{"android":"levelo://app?vid=a5167d20-2104-475d-a982-32ed65c102d6","ios":"levelo://app?vid=a5167d20-2104-475d-a982-32ed65c102d6"},"vehicle_type_id":"4","last_reported":1726733566,"current_range_meters":32400,"station_id":"ce4bgs12rcd13ifvqcag","pricing_plan_id":"cebpf4jnsgd1na2vs0mg"},{"bike_id":"526c2c1a-1265-49d0-a905-0aea83a07597","system_id":"levelo_inurba_marseille","lat":43.30133,"lon":5.37419,"is_reserved":false,"is_disabled":false,"rental_uris":{"android":"levelo://app?vid=526c2c1a-1265-49d0-a905-0aea83a07597","ios":"levelo://app?vid=526c2c1a-1265-49d0-a905-0aea83a07597"},"vehicle_type_id":"4","last_reported":1726733566,"current_range_meters":3600,"station_id":"ce4bgs92rcd13ifvqcc0","pricing_plan_id":"cebpf4jnsgd1na2vs0mg"},{"bike_id":"bcb7cdb4-7ba1-4986-bc10-71dce9cd7b22","system_id":"levelo_inurba_marseille","lat":43.30138,"lon":5.37422,"is_reserved":false,"is_disabled":false,"rental_uris":{"android":"levelo://app?vid=bcb7cdb4-7ba1-4986-bc10-71dce9cd7b22","ios":"levelo://app?vid=bcb7cdb4-7ba1-4986-bc10-71dce9cd7b22"},"vehicle_type_id":"4","last_reported":1726733566,"current_range_meters":30000,"station_id":"ce4bgs92rcd13ifvqcc0","pricing_plan_id":"cebpf4jnsgd1na2vs0mg"},{"bike_id":"7d54046c-3cf1-4344-8137-17101feedbd5","system_id":"levelo_inurba_marseille","lat":43.32288,"lon":5.38268,"is_reserved":false,"is_disabled":false,"rental_uris":{"android":"levelo://app?vid=7d54046c-3cf1-4344-8137-17101feedbd5","ios":"levelo://app?vid=7d54046c-3cf1-4344-8137-17101feedbd5"},"vehicle_type_id":"4","last_reported":1726733566,"current_range_meters":37600,"station_id":"ce4bhr12rcd13ifvqhqg","pricing_plan_id":"cebpf4jnsgd1na2vs0mg"},{"bike_id":"6b6c4fab-0bd1-4725-a1b7-466b87a727bc","system_id":"levelo_inurba_marseille","lat":43.30527,"lon":5.36538,"is_reserved":false,"is_disabled":false,"rental_uris":{"android":"levelo://app?vid=6b6c4fab-0bd1-4725-a1b7-466b87a727bc","ios":"levelo://app?vid=6b6c4fab-0bd1-4725-a1b7-466b87a727bc"},"vehicle_type_id":"4","last_reported":1726733566,"current_range_meters":26800,"station_id":"ce4bgs12rcd13ifvqcag","pricing_plan_id":"cebpf4jnsgd1na2vs0mg"},{"bike_id":"4018871b-e691-4492-a5fe-496f0cda8b66","system_id":"levelo_inurba_marseille","lat":43.27492,"lon":5.42456,"is_reserved":false,"is_disabled":false,"rental_uris":{"android":"levelo://app?vid=4018871b-e691-4492-a5fe-496f0cda8b66","ios":"levelo://app?vid=4018871b-e691-4492-a5fe-496f0cda8b66"},"vehicle_type_id":"4","last_reported":1726733566,"current_range_meters":36000,"station_id":"ce4bhn92rcd13ifvqgrg","pricing_plan_id":"cebpf4jnsgd1na2vs0mg"},{"bike_id":"e7f4f20b-5629-4181-a7a9-e8371542864f","system_id":"levelo_inurba_marseille","lat":43.28707,"lon":5.37937,"is_reserved":false,"is_disabled":false,"rental_uris":{"android":"levelo://app?vid=e7f4f20b-5629-4181-a7a9-e8371542864f","ios":"levelo://app?vid=e7f4f20b-5629-4181-a7a9-e8371542864f"},"vehicle_type_id":"4","last_reported":1726733566,"current_range_meters":34000,"station_id":"ce4bh9p2rcd13ifvqec0","pricing_plan_id":"cebpf4jnsgd1na2vs0mg"},{"bike_id":"3d60987c-b124-4c14-b227-d39bc2c8435b","system_id":"levelo_inurba_marseille","lat":43.30593,"lon":5.37207,"is_reserved":false,"is_disabled":false,"rental_uris":{"android":"levelo://app?vid=3d60987c-b124-4c14-b227-d39bc2c8435b","ios":"levelo://app?vid=3d60987c-b124-4c14-b227-d39bc2c8435b"},"vehicle_type_id":"4","last_reported":1726733566,"current_range_meters":38000,"station_id":"ce4bgqh2rcd13ifvqc4g","pricing_plan_id":"cebpf4jnsgd1na2vs0mg"},{"bike_id":"fa2e946d-01fe-4bb4-a2b0-55af60a0bcec","system_id":"levelo_inurba_marseille","lat":43.33721,"lon":5.39187,"is_reserved":false,"is_disabled":false,"rental_uris":{"android":"levelo://app?vid=fa2e946d-01fe-4bb4-a2b0-55af60a0bcec","ios":"levelo://app?vid=fa2e946d-01fe-4bb4-a2b0-55af60a0bcec"},"vehicle_type_id":"4","last_reported":1726733566,"current_range_meters":37600,"station_id":"ce4bhr92rcd13ifvqhsg","pricing_plan_id":"cebpf4jnsgd1na2vs0mg"},{"bike_id":"064d7dfa-67dd-42e7-b39a-2eb92dd50d9a","system_id":"levelo_inurba_marseille","lat":43.28408,"lon":5.37514,"is_reserved":false,"is_disabled":false,"rental_uris":{"android":"levelo://app?vid=064d7dfa-67dd-42e7-b39a-2eb92dd50d9a","ios":"levelo://app?vid=064d7dfa-67dd-42e7-b39a-2eb92dd50d9a"},"vehicle_type_id":"4","last_reported":1726733566,"current_range_meters":38400,"station_id":"ce4bh412rcd13ifvqds0","pricing_plan_id":"cebpf4jnsgd1na2vs0mg"},{"bike_id":"ba4475d2-dc26-48c6-81d7-f2405336a72a","system_id":"levelo_inurba_marseille","lat":43.26946,"lon":5.38646,"is_reserved":false,"is_disabled":false,"rental_uris":{"android":"levelo://app?vid=ba4475d2-dc26-48c6-81d7-f2405336a72a","ios":"levelo://app?vid=ba4475d2-dc26-48c6-81d7-f2405336a72a"},"vehicle_type_id":"4","last_reported":1726733566,"current_range_meters":26800,"station_id":"ce4bhh92rcd13ifvqfh0","pricing_plan_id":"cebpf4jnsgd1na2vs0mg"},{"bike_id":"6f25435d-a9fe-4de6-8921-4f4064a1c012","system_id":"levelo_inurba_marseille","lat":43.25933,"lon":5.40909,"is_reserved":false,"is_disabled":false,"rental_uris":{"android":"levelo://app?vid=6f25435d-a9fe-4de6-8921-4f4064a1c012","ios":"levelo://app?vid=6f25435d-a9fe-4de6-8921-4f4064a1c012"},"vehicle_type_id":"4","last_reported":1726733566,"current_range_meters":24000,"station_id":"ce4bhm92rcd13ifvqglg","pricing_plan_id":"cebpf4jnsgd1na2vs0mg"},{"bike_id":"fb95e360-3ae5-4207-8411-772bdf0faeee","system_id":"levelo_inurba_marseille","lat":43.24072,"lon":5.37758,"is_reserved":false,"is_disabled":false,"rental_uris":{"android":"levelo://app?vid=fb95e360-3ae5-4207-8411-772bdf0faeee","ios":"levelo://app?vid=fb95e360-3ae5-4207-8411-772bdf0faeee"},"vehicle_type_id":"4","last_reported":1726733566,"current_range_meters":30000,"station_id":"ce4bhnp2rcd13ifvqgvg","pricing_plan_id":"cebpf4jnsgd1na2vs0mg"},{"bike_id":"78794c1c-9411-4c93-b65f-78f0e0d65221","system_id":"levelo_inurba_marseille","lat":43.30906,"lon":5.36846,"is_reserved":false,"is_disabled":false,"rental_uris":{"android":"levelo://app?vid=78794c1c-9411-4c93-b65f-78f0e0d65221","ios":"levelo://app?vid=78794c1c-9411-4c93-b65f-78f0e0d65221"},"vehicle_type_id":"4","last_reported":1726733566,"current_range_meters":15200,"station_id":"ce4bgn92rcd13ifvqbvg","pricing_plan_id":"cebpf4jnsgd1na2vs0mg"},{"bike_id":"2e0ce6c6-d229-4ab4-8b2a-053cf1691ba7","system_id":"levelo_inurba_marseille","lat":43.30463,"lon":5.37905,"is_reserved":false,"is_disabled":false,"rental_uris":{"android":"levelo://app?vid=2e0ce6c6-d229-4ab4-8b2a-053cf1691ba7","ios":"levelo://app?vid=2e0ce6c6-d229-4ab4-8b2a-053cf1691ba7"},"vehicle_type_id":"4","last_reported":1726733566,"current_range_meters":36400,"station_id":"ce4bgup2rcd13ifvqcn0","pricing_plan_id":"cebpf4jnsgd1na2vs0mg"},{"bike_id":"54ca291b-80c4-4200-b970-028e3e2ee5ad","system_id":"levelo_inurba_marseille","lat":43.301468,"lon":5.387778,"is_reserved":false,"is_disabled":false,"rental_uris":{"android":"levelo://app?vid=54ca291b-80c4-4200-b970-028e3e2ee5ad","ios":"levelo://app?vid=54ca291b-80c4-4200-b970-028e3e2ee5ad"},"vehicle_type_id":"4","last_reported":1726733566,"current_range_meters":25200,"station_id":"ce4bghh2rcd13ifvqb60","pricing_plan_id":"cebpf4jnsgd1na2vs0mg"},{"bike_id":"2d848cd1-dbb4-470c-b06c-41dc66871ac2","system_id":"levelo_inurba_marseille","lat":43.26674,"lon":5.38265,"is_reserved":false,"is_disabled":false,"rental_uris":{"android":"levelo://app?vid=2d848cd1-dbb4-470c-b06c-41dc66871ac2","ios":"levelo://app?vid=2d848cd1-dbb4-470c-b06c-41dc66871ac2"},"vehicle_type_id":"4","last_reported":1726733566,"current_range_meters":2800,"station_id":"ce4bhg92rcd13ifvqf90","pricing_plan_id":"cebpf4jnsgd1na2vs0mg"},{"bike_id":"328d45f9-980e-4811-97c0-47d761861509","system_id":"levelo_inurba_marseille","lat":43.29847,"lon":5.37836,"is_reserved":false,"is_disabled":false,"rental_uris":{"android":"levelo://app?vid=328d45f9-980e-4811-97c0-47d761861509","ios":"levelo://app?vid=328d45f9-980e-4811-97c0-47d761861509"},"vehicle_type_id":"4","last_reported":1726733566,"current_range_meters":7200,"station_id":"ce4bgkh2rcd13ifvqbl0","pricing_plan_id":"cebpf4jnsgd1na2vs0mg"},{"bike_id":"01cd51da-b961-4bd0-adee-b192b3b29a9f","system_id":"levelo_inurba_marseille","lat":43.27486,"lon":5.42463,"is_reserved":false,"is_disabled":false,"rental_uris":{"android":"levelo://app?vid=01cd51da-b961-4bd0-adee-b192b3b29a9f","ios":"levelo://app?vid=01cd51da-b961-4bd0-adee-b192b3b29a9f"},"vehicle_type_id":"4","last_reported":1726733566,"current_range_meters":31200,"station_id":"ce4bhn92rcd13ifvqgrg","pricing_plan_id":"cebpf4jnsgd1na2vs0mg"},{"bike_id":"0a53c7b2-ed33-480d-b6e9-cdb6ce4e1eeb","system_id":"levelo_inurba_marseille","lat":43.26676,"lon":5.38263,"is_reserved":false,"is_disabled":false,"rental_uris":{"android":"levelo://app?vid=0a53c7b2-ed33-480d-b6e9-cdb6ce4e1eeb","ios":"levelo://app?vid=0a53c7b2-ed33-480d-b6e9-cdb6ce4e1eeb"},"vehicle_type_id":"4","last_reported":1726733566,"current_range_meters":39200,"station_id":"ce4bhg92rcd13ifvqf90","pricing_plan_id":"cebpf4jnsgd1na2vs0mg"},{"bike_id":"d2072c85-e5af-46db-a487-0b7c12e02cec","system_id":"levelo_inurba_marseille","lat":43.26199,"lon":5.37934,"is_reserved":false,"is_disabled":false,"rental_uris":{"android":"levelo://app?vid=d2072c85-e5af-46db-a487-0b7c12e02cec","ios":"levelo://app?vid=d2072c85-e5af-46db-a487-0b7c12e02cec"},"vehicle_type_id":"4","last_reported":1726733566,"current_range_meters":38800,"station_id":"ce4bhjp2rcd13ifvqg90","pricing_plan_id":"cebpf4jnsgd1na2vs0mg"},{"bike_id":"fa690805-233a-4a70-a9f3-33f1b67cdb1f","system_id":"levelo_inurba_marseille","lat":43.32286,"lon":5.38249,"is_reserved":false,"is_disabled":false,"rental_uris":{"android":"levelo://app?vid=fa690805-233a-4a70-a9f3-33f1b67cdb1f","ios":"levelo://app?vid=fa690805-233a-4a70-a9f3-33f1b67cdb1f"},"vehicle_type_id":"4","last_reported":1726733566,"current_range_meters":24800,"station_id":"ce4bhr12rcd13ifvqhqg","pricing_plan_id":"cebpf4jnsgd1na2vs0mg"},{"bike_id":"71a86551-9fba-4951-ba93-626be45a6760","system_id":"levelo_inurba_marseille","lat":43.25934,"lon":5.40912,"is_reserved":false,"is_disabled":false,"rental_uris":{"android":"levelo://app?vid=71a86551-9fba-4951-ba93-626be45a6760","ios":"levelo://app?vid=71a86551-9fba-4951-ba93-626be45a6760"},"vehicle_type_id":"4","last_reported":1726733566,"current_range_meters":22400,"station_id":"ce4bhm92rcd13ifvqglg","pricing_plan_id":"cebpf4jnsgd1na2vs0mg"},