{"last_updated":1750763396,"ttl":60,"version":"2.2","data":{"bikes":[{"bike_id":"3da29fb8-fc97-44c6-b9ac-31dd456b2fd4","system_id":"levelo_inurba_marseille","lat":43.33771,"lon":5.37424,"is_reserved":false,"is_disabled":true,"rental_uris":{"android":"levelo://app?vid=3da29fb8-fc97-44c6-b9ac-31dd456b2fd4","ios":"levelo://app?vid=3da29fb8-fc97-44c6-b9ac-31dd456b2fd4"},"vehicle_type_id":"4","last_reported":1750763396,"current_range_meters":0,"station_id":"","pricing_plan_id":"cebpf4jnsgd1na2vs0mg"},{"bike_id":"01861ad8-a8d7-4be6-816e-651927c87584","system_id":"levelo_inurba_marseille","lat":43.33751,"lon":5.37456,"is_reserved":false,"is_disabled":true,"rental_uris":{"android":"levelo://app?vid=01861ad8-a8d7-4be6-816e-651927c87584","ios":"levelo://app?vid=01861ad8-a8d7-4be6-816e-651927c87584"},"vehicle_type_id":"4","last_reported":1750763396,"current_range_meters":0,"station_id":"","pricing_plan_id":"cebpf4jnsgd1na2vs0mg"},{"bike_id":"f0a1d594-9817-42ab-a8d6-aea4947e8858","system_id":"levelo_inurba_marseille","lat":43.288299,"lon":5.434351,"is_reserved":false,"is_disabled":true,"rental_uris":{"android":"levelo://app?vid=f0a1d594-9817-42ab-a8d6-aea4947e8858","ios":"levelo://app?vid=f0a1d594-9817-42ab-a8d6-aea4947e8858"},"vehicle_type_id":"4","last_reported":1750763396,"current_range_meters":0,"station_id":"","pricing_plan_id":"cebpf4jnsgd1na2vs0mg"},{"bike_id":"62a493c7-4534-4419-ad43-0582de34a72a","system_id":"levelo_inurba_marseille","lat":43.21366,"lon":5.355183,"is_reserved":false,"is_disabled":true,"rental_uris":{"android":"levelo://app?vid=62a493c7-4534-4419-ad43-0582de34a72a","ios":"levelo://app?vid=62a493c7-4534-4419-ad43-0582de34a72a"},"vehicle_type_id":"4","last_reported":1750763396,"current_range_meters":0,"station_id":"","pricing_plan_id":"cebpf4jnsgd1na2vs0mg"},{"bike_id":"139d47bd-ff87-42d8-a4c6-89da4be6f80c","system_id":"levelo_inurba_marseille","lat":43.27962,"lon":5.44252,"is_reserved":false,"is_disabled":true,"rental_uris":{"android":"levelo://app?vid=139d47bd-ff87-42d8-a4c6-89da4be6f80c","ios":"levelo://app?vid=139d47bd-ff87-42d8-a4c6-89da4be6f80c"},"vehicle_type_id":"4","last_reported":1750763396,"current_range_meters":0,"station_id":"","pricing_plan_id":"cebpf4jnsgd1na2vs0mg"},{"bike_id":"d07b07aa-5732-4368-b606-c642421b7603","system_id":"levelo_inurba_marseille","lat":43.34346,"lon":5.34997,"is_reserved":false,"is_disabled":true,"rental_uris":{"android":"levelo://app?vid=d07b07aa-5732-4368-b606-c642421b7603","ios":"levelo://app?vid=d07b07aa-5732-4368-b606-c642421b7603"},"vehicle_type_id":"4","last_reported":1750763396,"current_range_meters":0,"station_id":"","pricing_plan_id":"cebpf4jnsgd1na2vs0mg"},{"bike_id":"d6ce388f-ca76-4c7c-9e3f-e6b4d12862f1","system_id":"levelo_inurba_marseille","lat":43.24534,"lon":5.41456,"is_reserved":false,"is_disabled":true,"rental_uris":{"android":"levelo://app?vid=d6ce388f-ca76-4c7c-9e3f-e6b4d12862f1","ios":"levelo://app?vid=d6ce388f-ca76-4c7c-9e3f-e6b4d12862f1"},"vehicle_type_id":"4","last_reported":1750763396,"current_range_meters":0,"station_id":"","pricing_plan_id":"cebpf4jnsgd1na2vs0mg"},{"bike_id":"3a3a1818-f20a-442b-bfcf-0e0a18008f43","system_id":"levelo_inurba_marseille","lat":43.26612,"lon":5.37491,"is_reserved":false,"is_disabled":true,"rental_uris":{"android":"levelo://app?vid=3a3a1818-f20a-442b-bfcf-0e0a18008f43","ios":"levelo://app?vid=3a3a1818-f20a-442b-bfcf-0e0a18008f43"},"vehicle_type_id":"4","last_reported":1750763396,"current_range_meters":0,"station_id":"","pricing_plan_id":"cebpf4jnsgd1na2vs0mg"},{"bike_id":"1077b5b0-6cc3-4ca3-a74a-ec713036c223","system_id":"levelo_inurba_marseille","lat":43.2973,"lon":5.38016,"is_reserved":false,"is_disabled":true,"rental_uris":{"android":"levelo://app?vid=1077b5b0-6cc3-4ca3-a74a-ec713036c223","ios":"levelo://app?vid=1077b5b0-6cc3-4ca3-a74a-ec713036c223"},"vehicle_type_id":"4","last_reported":1750763396,"current_range_meters":0,"station_id":"","pricing_plan_id":"cebpf4jnsgd1na2vs0mg"},{"bike_id":"d6609b4f-333b-43c1-9ebe-8726f5e76e88","system_id":"levelo_inurba_marseille","lat":43.337444,"lon":5.374475,"is_reserved":false,"is_disabled":true,"rental_uris":{"android":"levelo://app?vid=d6609b4f-333b-43c1-9ebe-8726f5e76e88","ios":"levelo://app?vid=d6609b4f-333b-43c1-9ebe-8726f5e76e88"},"vehicle_type_id":"4","last_reported":1750763396,"current_range_meters":0,"station_id":"","pricing_plan_id":"cebpf4jnsgd1na2vs0mg"},{"bike_id":"0503e1d2-ec4f-4cb3-9ea6-e4f3eb558d3e","system_id":"levelo_inurba_marseille","lat":43.29941,"lon":5.36962,"is_reserved":false,"is_disabled":true,"rental_uris":{"android":"levelo://app?vid=0503e1d2-ec4f-4cb3-9ea6-e4f3eb558d3e","ios":"levelo://app?vid=0503e1d2-ec4f-4cb3-9ea6-e4f3eb558d3e"},"vehicle_type_id":"4","last_reported":1750763396,"current_range_meters":0,"station_id":"","pricing_plan_id":"cebpf4jnsgd1na2vs0mg"},{"bike_id":"9cb193d0-906b-4ac2-85c5-eea810b1d20f","system_id":"levelo_inurba_marseille","lat":43.29415,"lon":5.43182,"is_reserved":false,"is_disabled":true,"rental_uris":{"android":"levelo://app?vid=9cb193d0-906b-4ac2-85c5-eea810b1d20f","ios":"levelo://app?vid=9cb193d0-906b-4ac2-85c5-eea810b1d20f"},"vehicle_type_id":"4","last_reported":1750763396,"current_range_meters":0,"station_id":"","pricing_plan_id":"cebpf4jnsgd1na2vs0mg"},{"bike_id":"bd17737b-22d2-4e4f-88e8-4eb661d864c4","system_id":"levelo_inurba_marseille","lat":43.29158,"lon":5.46072,"is_reserved":false,"is_disabled":true,"rental_uris":{"android":"levelo://app?vid=bd17737b-22d2-4e4f-88e8-4eb661d864c4","ios":"levelo://app?vid=bd17737b-22d2-4e4f-88e8-4eb661d864c4"},"vehicle_type_id":"4","last_reported":1750763396,"current_range_meters":0,"station_id":"","pricing_plan_id":"cebpf4jnsgd1na2vs0mg"},{"bike_id":"5aa00661-d581-4293-bff6-1039cc48d2b4","system_id":"levelo_inurba_marseille","lat":43.29586,"lon":5.37817,"is_reserved":false,"is_disabled":true,"rental_uris":{"android":"levelo://app?vid=5aa00661-d581-4293-bff6-1039cc48d2b4","ios":"levelo://app?vid=5aa00661-d581-4293-bff6-1039cc48d2b4"},"vehicle_type_id":"4","last_reported":1750763396,"current_range_meters":0,"station_id":"","pricing_plan_id":"cebpf4jnsgd1na2vs0mg"},{"bike_id":"0c86cdad-b64a-47bf-ba91-5b398064181c","system_id":"levelo_inurba_marseille","lat":43.384196,"lon":5.358629,"is_reserved":false,"is_disabled":true,"rental_uris":{"android":"levelo://app?vid=0c86cdad-b64a-47bf-ba91-5b398064181c","ios":"levelo://app?vid=0c86cdad-b64a-47bf-ba91-5b398064181c"},"vehicle_type_id":"4","last_reported":1750763396,"current_range_meters":0,"station_id":"","pricing_plan_id":"cebpf4jnsgd1na2vs0mg"},{"bike_id":"3ae686c2-a31e-4dfb-b572-490a494f332b","system_id":"levelo_inurba_marseille","lat":43.29797,"lon":5.38103,"is_reserved":false,"is_disabled":true,"rental_uris":{"android":"levelo://app?vid=3ae686c2-a31e-4dfb-b572-490a494f332b","ios":"levelo://app?vid=3ae686c2-a31e-4dfb-b572-490a494f332b"},"vehicle_type_id":"4","last_reported":1750763396,"current_range_meters":0,"station_id":"ce4bgip2rcd13ifvqbb0","pricing_plan_id":"cebpf4jnsgd1na2vs0mg"},{"bike_id":"e9e4c287-07e7-4653-a723-b140a8bbb3c9","system_id":"levelo_inurba_marseille","lat":43.30544,"lon":5.36548,"is_reserved":false,"is_disabled":true,"rental_uris":{"android":"levelo://app?vid=e9e4c287-07e7-4653-a723-b140a8bbb3c9","ios":"levelo://app?vid=e9e4c287-07e7-4653-a723-b140a8bbb3c9"},"vehicle_type_id":"4","last_reported":1750763396,"current_range_meters":0,"station_id":"ce4bgs12rcd13ifvqcag","pricing_plan_id":"cebpf4jnsgd1na2vs0mg"},{"bike_id":"89746c56-7ee6-49e4-8ab7-922eef7ad7da","system_id":"levelo_inurba_marseille","lat":43.29631,"lon":5.40605,"is_reserved":false,"is_disabled":true,"rental_uris":{"android":"levelo://app?vid=89746c56-7ee6-49e4-8ab7-922eef7ad7da","ios":"levelo://app?vid=89746c56-7ee6-49e4-8ab7-922eef7ad7da"},"vehicle_type_id":"4","last_reported":1750763396,"current_range_meters":0,"station_id":"ce4bh0h2rcd13ifvqd60","pricing_plan_id":"cebpf4jnsgd1na2vs0mg"},{"bike_id":"54f0861f-dc7e-42e4-922b-359f28fc63be","system_id":"levelo_inurba_marseille","lat":43.29,"lon":5.35607,"is_reserved":false,"is_disabled":true,"rental_uris":{"android":"levelo://app?vid=54f0861f-dc7e-42e4-922b-359f28fc63be","ios":"levelo://app?vid=54f0861f-dc7e-42e4-922b-359f28fc63be"},"vehicle_type_id":"4","last_reported":1750763396,"current_range_meters":0,"station_id":"ce4bhb92rcd13ifvqen0","pricing_plan_id":"cebpf4jnsgd1na2vs0mg"},{"bike_id":"cbd1d7c6-d886-4812-a433-b6cdaf6b1eea","system_id":"levelo_inurba_marseille","lat":43.27971,"lon":5.38747,"is_reserved":false,"is_disabled":true,"rental_uris":{"android":"levelo://app?vid=cbd1d7c6-d886-4812-a433-b6cdaf6b1eea","ios":"levelo://app?vid=cbd1d7c6-d886-4812-a433-b6cdaf6b1eea"},"vehicle_type_id":"4","last_reported":1750763396,"current_range_meters":0,"station_id":"ce4bhg12rcd13ifvqf80","pricing_plan_id":"cebpf4jnsgd1na2vs0mg"},{"bike_id":"3a4c556c-bed6-4f51-968f-06cb93538e3f","system_id":"levelo_inurba_marseille","lat":43.27317,"lon":5.39097,"is_reserved":false,"is_disabled":true,"rental_uris":{"android":"levelo://app?vid=3a4c556c-bed6-4f51-968f-06cb93538e3f","ios":"levelo://app?vid=3a4c556c-bed6-4f51-968f-06cb93538e3f"},"vehicle_type_id":"4","last_reported":1750763396,"current_range_meters":0,"station_id":"ce4bhgp2rcd13ifvqfe0","pricing_plan_id":"cebpf4jnsgd1na2vs0mg"},{"bike_id":"5673c335-3976-464e-a076-dc2780c1ee93","system_id":"levelo_inurba_marseille","lat":43.25492,"lon":5.37662,"is_reserved":false,"is_disabled":true,"rental_uris":{"android":"levelo://app?vid=5673c335-3976-464e-a076-dc2780c1ee93","ios":"levelo://app?vid=5673c335-3976-464e-a076-dc2780c1ee93"},"vehicle_type_id":"4","last_reported":1750763396,"current_range_meters":0,"station_id":"ce4bhh12rcd13ifvqff0","pricing_plan_id":"cebpf4jnsgd1na2vs0mg"},{"bike_id":"a0bbf6b9-68a7-41a1-8d0a-71de1221afe7","system_id":"levelo_inurba_marseille","lat":43.25573,"lon":5.38254,"is_reserved":false,"is_disabled":true,"rental_uris":{"android":"levelo://app?vid=a0bbf6b9-68a7-41a1-8d0a-71de1221afe7","ios":"levelo://app?vid=a0bbf6b9-68a7-41a1-8d0a-71de1221afe7"},"vehicle_type_id":"4","last_reported":1750763396,"current_range_meters":0,"station_id":"ce4bhih2rcd13ifvqfs0","pricing_plan_id":"cebpf4jnsgd1na2vs0mg"},{"bike_id":"67de2a11-350d-4aa0-bb07-bffb1929fb06","system_id":"levelo_inurba_marseille","lat":43.25939,"lon":5.40909,"is_reserved":false,"is_disabled":true,"rental_uris":{"android":"levelo://app?vid=67de2a11-350d-4aa0-bb07-bffb1929fb06","ios":"levelo://app?vid=67de2a11-350d-4aa0-bb07-bffb1929fb06"},"vehicle_type_id":"4","last_reported":1750763396,"current_range_meters":0,"station_id":"ce4bhm92rcd13ifvqglg","pricing_plan_id":"cebpf4jnsgd1na2vs0mg"},{"bike_id":"41c8c0a1-8e5d-49b3-b232-d30cbb38ba09","system_id":"levelo_inurba_marseille","lat":43.23148,"lon":5.43715,"is_reserved":false,"is_disabled":true,"rental_uris":{"android":"levelo://app?vid=41c8c0a1-8e5d-49b3-b232-d30cbb38ba09","ios":"levelo://app?vid=41c8c0a1-8e5d-49b3-b232-d30cbb38ba09"},"vehicle_type_id":"4","last_reported":1750763396,"current_range_meters":0,"station_id":"ce4bhmp2rcd13ifvqgog","pricing_plan_id":"cebpf4jnsgd1na2vs0mg"},{"bike_id":"e324236b-d280-44b2-8e88-455c30f219da","system_id":"levelo_inurba_marseille","lat":43.23181,"lon":5.43749,"is_reserved":false,"is_disabled":true,"rental_uris":{"android":"levelo://app?vid=e324236b-d280-44b2-8e88-455c30f219da","ios":"levelo://app?vid=e324236b-d280-44b2-8e88-455c30f219da"},"vehicle_type_id":"4","last_reported":1750763396,"current_range_meters":0,"station_id":"ce4bhmp2rcd13ifvqgog","pricing_plan_id":"cebpf4jnsgd1na2vs0mg"},{"bike_id":"75609910-19f3-4604-85e0-75aa7f7b41d6","system_id":"levelo_inurba_marseille","lat":43.23184,"lon":5.39975,"is_reserved":false,"is_disabled":true,"rental_uris":{"android":"levelo://app?vid=75609910-19f3-4604-85e0-75aa7f7b41d6","ios":"levelo://app?vid=75609910-19f3-4604-85e0-75aa7f7b41d6"},"vehicle_type_id":"4","last_reported":1750763396,"current_range_meters":0,"station_id":"ce4bhn12rcd13ifvqgqg","pricing_plan_id":"cebpf4jnsgd1na2vs0mg"},{"bike_id":"6ed4b87b-10be-4fb4-a0fa-72a2011497cf","system_id":"levelo_inurba_marseille","lat":43.24075,"lon":5.37758,"is_reserved":false,"is_disabled":true,"rental_uris":{"android":"levelo://app?vid=6ed4b87b-10be-4fb4-a0fa-72a2011497cf","ios":"levelo://app?vid=6ed4b87b-10be-4fb4-a0fa-72a2011497cf"},"vehicle_type_id":"4","last_reported":1750763396,"current_range_meters":0,"station_id":"ce4bhnp2rcd13ifvqgvg","pricing_plan_id":"cebpf4jnsgd1na2vs0mg"},{"bike_id":"bc96b989-693e-42b8-9c5d-40313f36dc09","system_id":"levelo_inurba_marseille","lat":43.33027,"lon":5.39043,"is_reserved":false,"is_disabled":true,"rental_uris":{"android":"levelo://app?vid=bc96b989-693e-42b8-9c5d-40313f36dc09","ios":"levelo://app?vid=bc96b989-693e-42b8-9c5d-40313f36dc09"},"vehicle_type_id":"4","last_reported":1750763396,"current_range_meters":0,"station_id":"ce4bhr92rcd13ifvqhrg","pricing_plan_id":"cebpf4jnsgd1na2vs0mg"},{"bike_id":"9a37d9b9-b186-4e5a-835f-813d367f04f0","system_id":"levelo_inurba_marseille","lat":43.23192,"lon":5.355524,"is_reserved":false,"is_disabled":true,"rental_uris":{"android":"levelo://app?vid=9a37d9b9-b186-4e5a-835f-813d367f04f0","ios":"levelo://app?vid=9a37d9b9-b186-4e5a-835f-813d367f04f0"},"vehicle_type_id":"4","last_reported":1750763396,"current_range_meters":0,"station_id":"ce4bhu92rcd13ifvqi70","pricing_plan_id":"cebpf4jnsgd1na2vs0mg"},{"bike_id":"3d07ef76-af52-42e0-81f1-5f4963c9ee29","system_id":"levelo_inurba_marseille","lat":43.294701,"lon":5.438349,"is_reserved":false,"is_disabled":true,"rental_uris":{"android":"levelo://app?vid=3d07ef76-af52-42e0-81f1-5f4963c9ee29","ios":"levelo://app?vid=3d07ef76-af52-42e0-81f1-5f4963c9ee29"},"vehicle_type_id":"4","last_reported":1750763396,"current_range_meters":400,"station_id":"","pricing_plan_id":"cebpf4jnsgd1na2vs0mg"},{"bike_id":"c8481f83-5416-492c-b8ce-b3e9b333c224","system_id":"levelo_inurba_marseille","lat":43.27933,"lon":5.39586,"is_reserved":false,"is_disabled":true,"rental_uris":{"android":"levelo://app?vid=c8481f83-5416-492c-b8ce-b3e9b333c224","ios":"levelo://app?vid=c8481f83-5416-492c-b8ce-b3e9b333c224"},"vehicle_type_id":"4","last_reported":1750763396,"current_range_meters":400,"station_id":"ce4bhf92rcd13ifvqf40","pricing_plan_id":"cebpf4jnsgd1na2vs0mg"},{"bike_id":"0032b41f-e702-48e0-a561-160b8fb6cb78","system_id":"levelo_inurba_marseille","lat":43.28948,"lon":5.39075,"is_reserved":false,"is_disabled":true,"rental_uris":{"android":"levelo://app?vid=0032b41f-e702-48e0-a561-160b8fb6cb78","ios":"levelo://app?vid=0032b41f-e702-48e0-a561-160b8fb6cb78"},"vehicle_type_id":"4","last_reported":1750763396,"current_range_meters":800,"station_id":"","pricing_plan_id":"cebpf4jnsgd1na2vs0mg"},{"bike_id":"a78b17ba-11d9-47c3-b552-f298278c927c","system_id":"levelo_inurba_marseille","lat":43.30936,"lon":5.40116,"is_reserved":false,"is_disabled":true,"rental_uris":{"android":"levelo://app?vid=a78b17ba-11d9-47c3-b552-f298278c927c","ios":"levelo://app?vid=a78b17ba-11d9-47c3-b552-f298278c927c"},"vehicle_type_id":"4","last_reported":1750763396,"current_range_meters":800,"station_id":"ce4bgvp2rcd13ifvqct0","pricing_plan_id":"cebpf4jnsgd1na2vs0mg"},{"bike_id":"517d17ad-b56a-40b5-9511-3b919462d193","system_id":"levelo_inurba_marseille","lat":43.28265,"lon":5.3507,"is_reserved":false,"is_disabled":true,"rental_uris":{"android":"levelo://app?vid=517d17ad-b56a-40b5-9511-3b919462d193","ios":"levelo://app?vid=517d17ad-b56a-40b5-9511-3b919462d193"},"vehicle_type_id":"4","last_reported":1750763396,"current_range_meters":800,"station_id":"ce4bhbp2rcd13ifvqerg","pricing_plan_id":"cebpf4jnsgd1na2vs0mg"},{"bike_id":"f26a4ff4-d91c-4359-a159-10d461060e35","system_id":"levelo_inurba_marseille","lat":43.27427,"lon":5.39421,"is_reserved":false,"is_disabled":true,"rental_uris":{"android":"levelo://app?vid=f26a4ff4-d91c-4359-a159-10d461060e35","ios":"levelo://app?vid=f26a4ff4-d91c-4359-a159-10d461060e35"},"vehicle_type_id":"4","last_reported":1750763396,"current_range_meters":800,"station_id":"ce4bhdp2rcd13ifvqf20","pricing_plan_id":"cebpf4jnsgd1na2vs0mg"},{"bike_id":"05edebc5-779b-4134-8502-f9698d7ca601","system_id":"levelo_inurba_marseille","lat":43.262259,"lon":5.404503,"is_reserved":false,"is_disabled":true,"rental_uris":{"android":"levelo://app?vid=05edebc5-779b-4134-8502-f9698d7ca601","ios":"levelo://app?vid=05edebc5-779b-4134-8502-f9698d7ca601"},"vehicle_type_id":"4","last_reported":1750763396,"current_range_meters":800,"station_id":"ce4bhmh2rcd13ifvqgmg","pricing_plan_id":"cebpf4jnsgd1na2vs0mg"},{"bike_id":"f66599f4-feb2-4a01-a285-77996e208323","system_id":"levelo_inurba_marseille","lat":43.30377,"lon":5.42483,"is_reserved":false,"is_disabled":true,"rental_uris":{"android":"levelo://app?vid=f66599f4-feb2-4a01-a285-77996e208323","ios":"levelo://app?vid=f66599f4-feb2-4a01-a285-77996e208323"},"vehicle_type_id":"4","last_reported":1750763396,"current_range_meters":800,"station_id":"ce4bhoh2rcd13ifvqh6g","pricing_plan_id":"cebpf4jnsgd1na2vs0mg"},{"bike_id":"838af8d8-b038-475c-85e1-88d24429d70f","system_id":"levelo_inurba_marseille","lat":43.30897,"lon":5.37209,"is_reserved":false,"is_disabled":true,"rental_uris":{"android":"levelo://app?vid=838af8d8-b038-475c-85e1-88d24429d70f","ios":"levelo://app?vid=838af8d8-b038-475c-85e1-88d24429d70f"},"vehicle_type_id":"4","last_reported":1750763396,"current_range_meters":1200,"station_id":"ce4bguh2rcd13ifvqckg","pricing_plan_id":"cebpf4jnsgd1na2vs0mg"},{"bike_id":"3572c305-5f01-49b7-821c-c271e70357de","system_id":"levelo_inurba_marseille","lat":43.24549,"lon":5.39524,"is_reserved":false,"is_disabled":true,"rental_uris":{"android":"levelo://app?vid=3572c305-5f01-49b7-821c-c271e70357de","ios":"levelo://app?vid=3572c305-5f01-49b7-821c-c271e70357de"},"vehicle_type_id":"4","last_reported":1750763396,"current_range_meters":1200,"station_id":"ce4bhlp2rcd13ifvqgjg","pricing_plan_id":"cebpf4jnsgd1na2vs0mg"},{"bike_id":"247c171f-c2cb-44a5-b981-9726cfbcf465","system_id":"levelo_inurba_marseille","lat":43.29573,"lon":5.39966,"is_reserved":false,"is_disabled":true,"rental_uris":{"android":"levelo://app?vid=247c171f-c2cb-44a5-b981-9726cfbcf465","ios":"levelo://app?vid=247c171f-c2cb-44a5-b981-9726cfbcf465"},"vehicle_type_id":"4","last_reported":1750763396,"current_range_meters":1600,"station_id":"ce4bh312rcd13ifvqdj0","pricing_plan_id":"cebpf4jnsgd1na2vs0mg"},{"bike_id":"921f5929-3b86-4db6-8252-bcb068ee2f75","system_id":"levelo_inurba_marseille","lat":43.28486,"lon":5.38417,"is_reserved":false,"is_disabled":true,"rental_uris":{"android":"levelo://app?vid=921f5929-3b86-4db6-8252-bcb068ee2f75","ios":"levelo://app?vid=921f5929-3b86-4db6-8252-bcb068ee2f75"},"vehicle_type_id":"4","last_reported":1750763396,"current_range_meters":1600,"station_id":"ce4bh512rcd13ifvqe3g","pricing_plan_id":"cebpf4jnsgd1na2vs0mg"},{"bike_id":"daf8f636-61be-471b-b81b-a319f64afe0e","system_id":"levelo_inurba_marseille","lat":43.2826,"lon":5.35083,"is_reserved":false,"is_disabled":true,"rental_uris":{"android":"levelo://app?vid=daf8f636-61be-471b-b81b-a319f64afe0e","ios":"levelo://app?vid=daf8f636-61be-471b-b81b-a319f64afe0e"},"vehicle_type_id":"4","last_reported":1750763396,"current_range_meters":1600,"station_id":"ce4bhbp2rcd13ifvqerg","pricing_plan_id":"cebpf4jnsgd1na2vs0mg"},{"bike_id":"8875ffce-18a1-463b-a0b3-3f3f6cace83f","system_id":"levelo_inurba_marseille","lat":43.275705,"lon":5.38413,"is_reserved":false,"is_disabled":true,"rental_uris":{"android":"levelo://app?vid=8875ffce-18a1-463b-a0b3-3f3f6cace83f","ios":"levelo://app?vid=8875ffce-18a1-463b-a0b3-3f3f6cace83f"},"vehicle_type_id":"4","last_reported":1750763396,"current_range_meters":2000,"station_id":"ce4bhh92rcd13ifvqfi0","pricing_plan_id":"cebpf4jnsgd1na2vs0mg"},{"bike_id":"85c58f10-925d-4344-b389-09267487a6fc","system_id":"levelo_inurba_marseille","lat":43.21169,"lon":5.42002,"is_reserved":false,"is_disabled":false,"rental_uris":{"android":"levelo://app?vid=85c58f10-925d-4344-b389-09267487a6fc","ios":"levelo://app?vid=85c58f10-925d-4344-b389-09267487a6fc"},"vehicle_type_id":"4","last_reported":1750763396,"current_range_meters":2800,"station_id":"","pricing_plan_id":"cebpf4jnsgd1na2vs0mg"},{"bike_id":"0892fa32-f8f5-4940-8609-6dd267d94374","system_id":"levelo_inurba_marseille","lat":43.2649,"lon":5.39541,"is_reserved":false,"is_disabled":false,"rental_uris":{"android":"levelo://app?vid=0892fa32-f8f5-4940-8609-6dd267d94374","ios":"levelo://app?vid=0892fa32-f8f5-4940-8609-6dd267d94374"},"vehicle_type_id":"4","last_reported":1750763396,"current_range_meters":2800,"station_id":"ce4bhi12rcd13ifvqfq0","pricing_plan_id":"cebpf4jnsgd1na2vs0mg"},{"bike_id":"0b939f17-8678-4996-b200-30767936a011","system_id":"levelo_inurba_marseille","lat":43.28158,"lon":5.42676,"is_reserved":false,"is_disabled":false,"rental_uris":{"android":"levelo://app?vid=0b939f17-8678-4996-b200-30767936a011","ios":"levelo://app?vid=0b939f17-8678-4996-b200-30767936a011"},"vehicle_type_id":"4","last_reported":1750763396,"current_range_meters":2800,"station_id":"ce4bhnh2rcd13ifvqgug","pricing_plan_id":"cebpf4jnsgd1na2vs0mg"},{"bike_id":"596be257-7947-4fad-9314-4f20a49a5eb6","system_id":"levelo_inurba_marseille","lat":43.29532,"lon":5.3855,"is_reserved":false,"is_disabled":false,"rental_uris":{"android":"levelo://app?vid=596be257-7947-4fad-9314-4f20a49a5eb6","ios":"levelo://app?vid=596be257-7947-4fad-9314-4f20a49a5eb6"},"vehicle_type_id":"4","last_reported":1750763396,"current_range_meters":3200,"station_id":"ce4bgih2rcd13ifvqba0","pricing_plan_id":"cebpf4jnsgd1na2vs0mg"},{"bike_id":"9c2ca8b7-b9be-4794-bd25-0dd99fea6b8e","system_id":"levelo_inurba_marseille","lat":43.27817,"lon":5.40716,"is_reserved":false,"is_disabled":false,"rental_uris":{"android":"levelo://app?vid=9c2ca8b7-b9be-4794-bd25-0dd99fea6b8e","ios":"levelo://app?vid=9c2ca8b7-b9be-4794-bd25-0dd99fea6b8e"},"vehicle_type_id":"4","last_reported":1750763396,"current_range_meters":3200,"station_id":"ce4bhnh2rcd13ifvqgtg","pricing_plan_id":"cebpf4jnsgd1na2vs0mg"},{"bike_id":"adb14e12-762f-44e9-959a-b7191d76c184","system_id":"levelo_inurba_marseille","lat":43.29495,"lon":5.38042,"is_reserved":false,"is_disabled":false,"rental_uris":{"android":"levelo://app?vid=adb14e12-762f-44e9-959a-b7191d76c184","ios":"levelo://app?vid=adb14e12-762f-44e9-959a-b7191d76c184"},"vehicle_type_id":"4","last_reported":1750763396,"current_range_meters":3600,"station_id":"","pricing_plan_id":"cebpf4jnsgd1na2vs0mg"},{"bike_id":"8c6de0c1-9eaf-4c18-8155-d956789067ae","system_id":"levelo_inurba_marseille","lat":43.27941,"lon":5.44251,"is_reserved":false,"is_disabled":false,"rental_uris":{"android":"levelo://app?vid=8c6de0c1-9eaf-4c18-8155-d956789067ae","ios":"levelo://app?vid=8c6de0c1-9eaf-4c18-8155-d956789067ae"},"vehicle_type_id":"4","last_reported":1750763396,"current_range_meters":4000,"station_id":"","pricing_plan_id":"cebpf4jnsgd1na2vs0mg"},{"bike_id":"a9e5e555-fdaf-49c0-b286-f0f2659b17d0","system_id":"levelo_inurba_marseille","lat":43.283195,"lon":5.432404,"is_reserved":false,"is_disabled":false,"rental_uris":{"android":"levelo://app?vid=a9e5e555-fdaf-49c0-b286-f0f2659b17d0","ios":"levelo://app?vid=a9e5e555-fdaf-49c0-b286-f0f2659b17d0"},"vehicle_type_id":"4","last_reported":1750763396,"current_range_meters":4000,"station_id":"","pricing_plan_id":"cebpf4jnsgd1na2vs0mg"},{"bike_id":"81eb4c05-73a6-4383-a80f-5682c28cbce5","system_id":"levelo_inurba_marseille","lat":43.303591,"lon":5.418824,"is_reserved":false,"is_disabled":false,"rental_uris":{"android":"levelo://app?vid=81eb4c05-73a6-4383-a80f-5682c28cbce5","ios":"levelo://app?vid=81eb4c05-73a6-4383-a80f-5682c28cbce5"},"vehicle_type_id":"4","last_reported":1750763396,"current_range_meters":4000,"station_id":"ce4bhop2rcd13ifvqh7g","pricing_plan_id":"cebpf4jnsgd1na2vs0mg"},{"bike_id":"d7c56714-1585-4954-976a-05b319c2a630","system_id":"levelo_inurba_marseille","lat":43.30758,"lon":5.37428,"is_reserved":false,"is_disabled":false,"rental_uris":{"android":"levelo://app?vid=d7c56714-1585-4954-976a-05b319c2a630","ios":"levelo://app?vid=d7c56714-1585-4954-976a-05b319c2a630"},"vehicle_type_id":"4","last_reported":1750763396,"current_range_meters":4800,"station_id":"","pricing_plan_id":"cebpf4jnsgd1na2vs0mg"},{"bike_id":"4e5a0015-e5ca-4d27-8035-03624875a53f","system_id":"levelo_inurba_marseille","lat":43.2849,"lon":5.38586,"is_reserved":false,"is_disabled":false,"rental_uris":{"android":"levelo://app?vid=4e5a0015-e5ca-4d27-8035-03624875a53f","ios":"levelo://app?vid=4e5a0015-e5ca-4d27-8035-03624875a53f"},"vehicle_type_id":"4","last_reported":1750763396,"current_range_meters":4800,"station_id":"ce4bh8p2rcd13ifvqeb0","pricing_plan_id":"cebpf4jnsgd1na2vs0mg"},{"bike_id":"101609ca-4415-4116-a064-d95bf8238d43","system_id":"levelo_inurba_marseille","lat":43.29292,"lon":5.36848,"is_reserved":false,"is_disabled":false,"rental_uris":{"android":"levelo://app?vid=101609ca-4415-4116-a064-d95bf8238d43","ios":"levelo://app?vid=101609ca-4415-4116-a064-d95bf8238d43"},"vehicle_type_id":"4","last_reported":1750763396,"current_range_meters":4800,"station_id":"ce4bhbp2rcd13ifvqesg","pricing_plan_id":"cebpf4jnsgd1na2vs0mg"},{"bike_id":"2ff9b9bc-bcfa-4dec-ae82-e7e8c5c5d118","system_id":"levelo_inurba_marseille","lat":43.28703,"lon":5.40002,"is_reserved":false,"is_disabled":false,"rental_uris":{"android":"levelo://app?vid=2ff9b9bc-bcfa-4dec-ae82-e7e8c5c5d118","ios":"levelo://app?vid=2ff9b9bc-bcfa-4dec-ae82-e7e8c5c5d118"},"vehicle_type_id":"4","last_reported":1750763396,"current_range_meters":4800,"station_id":"ce4bho92rcd13ifvqh3g","pricing_plan_id":"cebpf4jnsgd1na2vs0mg"},{"bike_id":"f10e38ce-c08a-4001-873a-ec3e8846285a","system_id":"levelo_inurba_marseille","lat":43.32966,"lon":5.38042,"is_reserved":false,"is_disabled":false,"rental_uris":{"android":"levelo://app?vid=f10e38ce-c08a-4001-873a-ec3e8846285a","ios":"levelo://app?vid=f10e38ce-c08a-4001-873a-ec3e8846285a"},"vehicle_type_id":"4","last_reported":1750763396,"current_range_meters":6000,"station_id":"","pricing_plan_id":"cebpf4jnsgd1na2vs0mg"},{"bike_id":"17d0afaa-6951-4dde-a43d-60017e75021c","system_id":"levelo_inurba_marseille","lat":43.291681,"lon":5.421175,"is_reserved":false,"is_disabled":false,"rental_uris":{"android":"levelo://app?vid=17d0afaa-6951-4dde-a43d-60017e75021c","ios":"levelo://app?vid=17d0afaa-6951-4dde-a43d-60017e75021c"},"vehicle_type_id":"4","last_reported":1750763396,"current_range_meters":6000,"station_id":"","pricing_plan_id":"cebpf4jnsgd1na2vs0mg"},{"bike_id":"44d9e508-b8b6-479f-bc1f-912b778f11d8","system_id":"levelo_inurba_marseille","lat":43.29571,"lon":5.37524,"is_reserved":false,"is_disabled":false,"rental_uris":{"android":"levelo://app?vid=44d9e508-b8b6-479f-bc1f-912b778f11d8","ios":"levelo://app?vid=44d9e508-b8b6-479f-bc1f-912b778f11d8"},"vehicle_type_id":"4","last_reported":1750763396,"current_range_meters":6000,"station_id":"ce4bgh92rcd13ifvqb50","pricing_plan_id":"cebpf4jnsgd1na2vs0mg"},{"bike_id":"adaddb7d-5f41-4df5-b42a-57f5a23a05ca","system_id":"levelo_inurba_marseille","lat":43.31485,"lon":5.37315,"is_reserved":false,"is_disabled":false,"rental_uris":{"android":"levelo://app?vid=adaddb7d-5f41-4df5-b42a-57f5a23a05ca","ios":"levelo://app?vid=adaddb7d-5f41-4df5-b42a-57f5a23a05ca"},"vehicle_type_id":"4","last_reported":1750763396,"current_range_meters":6000,"station_id":"ce4bgt12rcd13ifvqcd0","pricing_plan_id":"cebpf4jnsgd1na2vs0mg"},{"bike_id":"7b3425a0-bc87-4e07-8b83-ec3881216705","system_id":"levelo_inurba_marseille","lat":43.2594,"lon":5.40903,"is_reserved":false,"is_disabled":false,"rental_uris":{"android":"levelo://app?vid=7b3425a0-bc87-4e07-8b83-ec3881216705","ios":"levelo://app?vid=7b3425a0-bc87-4e07-8b83-ec3881216705"},"vehicle_type_id":"4","last_reported":1750763396,"current_range_meters":6000,"station_id":"ce4bhm92rcd13ifvqglg","pricing_plan_id":"cebpf4jnsgd1na2vs0mg"},{"bike_id":"834e62fc-b175-4418-a2eb-429676c8627e","system_id":"levelo_inurba_marseille","lat":43.28491,"lon":5.38412,"is_reserved":false,"is_disabled":false,"rental_uris":{"android":"levelo://app?vid=834e62fc-b175-4418-a2eb-429676c8627e","ios":"levelo://app?vid=834e62fc-b175-4418-a2eb-429676c8627e"},"vehicle_type_id":"4","last_reported":1750763396,"current_range_meters":6400,"station_id":"ce4bh512rcd13ifvqe3g","pricing_plan_id":"cebpf4jnsgd1na2vs0mg"},{"bike_id":"956c97b9-1b8a-455a-a971-ab87adde5a89","system_id":"levelo_inurba_marseille","lat":43.2862,"lon":5.35106,"is_reserved":false,"is_disabled":false,"rental_uris":{"android":"levelo://app?vid=956c97b9-1b8a-455a-a971-ab87adde5a89","ios":"levelo://app?vid=956c97b9-1b8a-455a-a971-ab87adde5a89"},"vehicle_type_id":"4","last_reported":1750763396,"current_range_meters":6400,"station_id":"ce4bhch2rcd13ifvqeug","pricing_plan_id":"cebpf4jnsgd1na2vs0mg"},{"bike_id":"581f9059-df33-41d9-9cae-687167e32b44","system_id":"levelo_inurba_marseille","lat":43.26559,"lon":5.38991,"is_reserved":false,"is_disabled":false,"rental_uris":{"android":"levelo://app?vid=581f9059-df33-41d9-9cae-687167e32b44","ios":"levelo://app?vid=581f9059-df33-41d9-9cae-687167e32b44"},"vehicle_type_id":"4","last_reported":1750763396,"current_range_meters":6400,"station_id":"ce4bhe12rcd13ifvqf30","pricing_plan_id":"cebpf4jnsgd1na2vs0mg"},{"bike_id":"6ed60de0-d4d8-4bcf-87eb-77bc6bd99ae7","system_id":"levelo_inurba_marseille","lat":43.30864,"lon":5.382,"is_reserved":false,"is_disabled":false,"rental_uris":{"android":"levelo://app?vid=6ed60de0-d4d8-4bcf-87eb-77bc6bd99ae7","ios":"levelo://app?vid=6ed60de0-d4d8-4bcf-87eb-77bc6bd99ae7"},"vehicle_type_id":"4","last_reported":1750763396,"current_range_meters":6800,"station_id":"","pricing_plan_id":"cebpf4jnsgd1na2vs0mg"},{"bike_id":"4c881007-2814-4bc6-af31-9fd2cd9aa4cb","system_id":"levelo_inurba_marseille","lat":43.30269,"lon":5.37698,"is_reserved":false,"is_disabled":false,"rental_uris":{"android":"levelo://app?vid=4c881007-2814-4bc6-af31-9fd2cd9aa4cb","ios":"levelo://app?vid=4c881007-2814-4bc6-af31-9fd2cd9aa4cb"},"vehicle_type_id":"4","last_reported":1750763396,"current_range_meters":6800,"station_id":"ce4bguh2rcd13ifvqcj0","pricing_plan_id":"cebpf4jnsgd1na2vs0mg"},{"bike_id":"1a25d7a5-011b-45e0-aa62-7d32a900389b","system_id":"levelo_inurba_marseille","lat":43.28413,"lon":5.34984,"is_reserved":false,"is_disabled":false,"rental_uris":{"android":"levelo://app?vid=1a25d7a5-011b-45e0-aa62-7d32a900389b","ios":"levelo://app?vid=1a25d7a5-011b-45e0-aa62-7d32a900389b"},"vehicle_type_id":"4","last_reported":1750763396,"current_range_meters":6800,"station_id":"ce4bhbh2rcd13ifvqepg","pricing_plan_id":"cebpf4jnsgd1na2vs0mg"},{"bike_id":"226beef2-6074-4a4f-a642-91fd6266add4","system_id":"levelo_inurba_marseille","lat":43.28438,"lon":5.39206,"is_reserved":false,"is_disabled":false,"rental_uris":{"android":"levelo://app?vid=226beef2-6074-4a4f-a642-91fd6266add4","ios":"levelo://app?vid=226beef2-6074-4a4f-a642-91fd6266add4"},"vehicle_type_id":"4","last_reported":1750763396,"current_range_meters":6800,"station_id":"ce4bhoh2rcd13ifvqh5g","pricing_plan_id":"cebpf4jnsgd1na2vs0mg"},{"bike_id":"37292929-c637-4018-9400-618a2a736d95","system_id":"levelo_inurba_marseille","lat":43.33722,"lon":5.39178,"is_reserved":false,"is_disabled":false,"rental_uris":{"android":"levelo://app?vid=37292929-c637-4018-9400-618a2a736d95","ios":"levelo://app?vid=37292929-c637-4018-9400-618a2a736d95"},"vehicle_type_id":"4","last_reported":1750763396,"current_range_meters":6800,"station_id":"ce4bhr92rcd13ifvqhsg","pricing_plan_id":"cebpf4jnsgd1na2vs0mg"},{"bike_id":"70764641-799a-4261-99bd-903918c1b74a","system_id":"levelo_inurba_marseille","lat":43.32973,"lon":5.38456,"is_reserved":false,"is_disabled":false,"rental_uris":{"android":"levelo://app?vid=70764641-799a-4261-99bd-903918c1b74a","ios":"levelo://app?vid=70764641-799a-4261-99bd-903918c1b74a"},"vehicle_type_id":"4","last_reported":1750763396,"current_range_meters":7200,"station_id":"","pricing_plan_id":"cebpf4jnsgd1na2vs0mg"},{"bike_id":"4b543435-a9b2-4c90-950c-d1e674db4fe8","system_id":"levelo_inurba_marseille","lat":43.295732,"lon":5.375175,"is_reserved":false,"is_disabled":false,"rental_uris":{"android":"levelo://app?vid=4b543435-a9b2-4c90-950c-d1e674db4fe8","ios":"levelo://app?vid=4b543435-a9b2-4c90-950c-d1e674db4fe8"},"vehicle_type_id":"4","last_reported":1750763396,"current_range_meters":7200,"station_id":"ce4bgh92rcd13ifvqb50","pricing_plan_id":"cebpf4jnsgd1na2vs0mg"},{"bike_id":"20942cfe-936a-46ca-b62e-9ad2167bf510","system_id":"levelo_inurba_marseille","lat":43.32105,"lon":5.36768,"is_reserved":false,"is_disabled":false,"rental_uris":{"android":"levelo://app?vid=20942cfe-936a-46ca-b62e-9ad2167bf510","ios":"levelo://app?vid=20942cfe-936a-46ca-b62e-9ad2167bf510"},"vehicle_type_id":"4","last_reported":1750763396,"current_range_meters":7200,"station_id":"ce4bhrh2rcd13ifvqhug","pricing_plan_id":"cebpf4jnsgd1na2vs0mg"},{"bike_id":"8740022a-1e9f-4a23-add7-7fc9dc4c6742","system_id":"levelo_inurba_marseille","lat":43.286774,"lon":5.351789,"is_reserved":false,"is_disabled":false,"rental_uris":{"android":"levelo://app?vid=8740022a-1e9f-4a23-add7-7fc9dc4c6742","ios":"levelo://app?vid=8740022a-1e9f-4a23-add7-7fc9dc4c6742"},"vehicle_type_id":"4","last_reported":1750763396,"current_range_meters":8000,"station_id":"","pricing_plan_id":"cebpf4jnsgd1na2vs0mg"},{"bike_id":"b4046495-e836-4134-a21f-8abbac7a6a84","system_id":"levelo_inurba_marseille","lat":43.299103,"lon":5.374813,"is_reserved":false,"is_disabled":false,"rental_uris":{"android":"levelo://app?vid=b4046495-e836-4134-a21f-8abbac7a6a84","ios":"levelo://app?vid=b4046495-e836-4134-a21f-8abbac7a6a84"},"vehicle_type_id":"4","last_reported":1750763396,"current_range_meters":8000,"station_id":"ce4bgjh2rcd13ifvqbg0","pricing_plan_id":"cebpf4jnsgd1na2vs0mg"},{"bike_id":"e746e79a-3800-4fea-b7a5-d7ac2497a2e1","system_id":"levelo_inurba_marseille","lat":43.305365,"lon":5.366958,"is_reserved":false,"is_disabled":false,"rental_uris":{"android":"levelo://app?vid=e746e79a-3800-4fea-b7a5-d7ac2497a2e1","ios":"levelo://app?vid=e746e79a-3800-4fea-b7a5-d7ac2497a2e1"},"vehicle_type_id":"4","last_reported":1750763396,"current_range_meters":8000,"station_id":"ce4bgrp2rcd13ifvqc9g","pricing_plan_id":"cebpf4jnsgd1na2vs0mg"},{"bike_id":"a6a66496-cea0-4968-ab6c-1a8870e8f10f","system_id":"levelo_inurba_marseille","lat":43.29632,"lon":5.40596,"is_reserved":false,"is_disabled":false,"rental_uris":{"android":"levelo://app?vid=a6a66496-cea0-4968-ab6c-1a8870e8f10f","ios":"levelo://app?vid=a6a66496-cea0-4968-ab6c-1a8870e8f10f"},"vehicle_type_id":"4","last_reported":1750763396,"current_range_meters":8000,"station_id":"ce4bh0h2rcd13ifvqd60","pricing_plan_id":"cebpf4jnsgd1na2vs0mg"},{"bike_id":"8cd73003-6275-4370-a76f-ac1503b70548","system_id":"levelo_inurba_marseille","lat":43.28491,"lon":5.38573,"is_reserved":false,"is_disabled":false,"rental_uris":{"android":"levelo://app?vid=8cd73003-6275-4370-a76f-ac1503b70548","ios":"levelo://app?vid=8cd73003-6275-4370-a76f-ac1503b70548"},"vehicle_type_id":"4","last_reported":1750763396,"current_range_meters":8000,"station_id":"ce4bh8p2rcd13ifvqeb0","pricing_plan_id":"cebpf4jnsgd1na2vs0mg"},{"bike_id":"87d92a9e-8a74-4c1e-ab5e-8583eca3bd49","system_id":"levelo_inurba_marseille","lat":43.28439,"lon":5.34998,"is_reserved":false,"is_disabled":false,"rental_uris":{"android":"levelo://app?vid=87d92a9e-8a74-4c1e-ab5e-8583eca3bd49","ios":"levelo://app?vid=87d92a9e-8a74-4c1e-ab5e-8583eca3bd49"},"vehicle_type_id":"4","last_reported":1750763396,"current_range_meters":8000,"station_id":"ce4bhbh2rcd13ifvqepg","pricing_plan_id":"cebpf4jnsgd1na2vs0mg"},{"bike_id":"0c05d705-1a2d-4d55-b70e-628effcec38f","system_id":"levelo_inurba_marseille","lat":43.24663,"lon":5.38892,"is_reserved":false,"is_disabled":false,"rental_uris":{"android":"levelo://app?vid=0c05d705-1a2d-4d55-b70e-628effcec38f","ios":"levelo://app?vid=0c05d705-1a2d-4d55-b70e-628effcec38f"},"vehicle_type_id":"4","last_reported":1750763396,"current_range_meters":8000,"station_id":"ce4bhg12rcd13ifvqf60","pricing_plan_id":"cebpf4jnsgd1na2vs0mg"},{"bike_id":"4050fd80-eca3-4ae7-98f7-d7274d689046","system_id":"levelo_inurba_marseille","lat":43.25867,"lon":5.39905,"is_reserved":false,"is_disabled":false,"rental_uris":{"android":"levelo://app?vid=4050fd80-eca3-4ae7-98f7-d7274d689046","ios":"levelo://app?vid=4050fd80-eca3-4ae7-98f7-d7274d689046"},"vehicle_type_id":"4","last_reported":1750763396,"current_range_meters":8000,"station_id":"ce4bhl92rcd13ifvqghg","pricing_plan_id":"cebpf4jnsgd1na2vs0mg"},{"bike_id":"49b16386-87bc-41c3-a2d7-5ada457a1b5d","system_id":"levelo_inurba_marseille","lat":43.27489,"lon":5.42435,"is_reserved":false,"is_disabled":false,"rental_uris":{"android":"levelo://app?vid=49b16386-87bc-41c3-a2d7-5ada457a1b5d","ios":"levelo://app?vid=49b16386-87bc-41c3-a2d7-5ada457a1b5d"},"vehicle_type_id":"4","last_reported":1750763396,"current_range_meters":8000,"station_id":"ce4bhn92rcd13ifvqgrg","pricing_plan_id":"cebpf4jnsgd1na2vs0mg"},{"bike_id":"d1dbc170-fe56-4491-9a11-c3d149082527","system_id":"levelo_inurba_marseille","lat":43.324814,"lon":5.365681,"is_reserved":false,"is_disabled":false,"rental_uris":{"android":"levelo://app?vid=d1dbc170-fe56-4491-9a11-c3d149082527","ios":"levelo://app?vid=d1dbc170-fe56-4491-9a11-c3d149082527"},"vehicle_type_id":"4","last_reported":1750763396,"current_range_meters":8000,"station_id":"ce4bhs12rcd13ifvqhvg","pricing_plan_id":"cebpf4jnsgd1na2vs0mg"},{"bike_id":"465d2323-f97d-48b0-a820-bc5fa54ae0fa","system_id":"levelo_inurba_marseille","lat":43.28394,"lon":5.45972,"is_reserved":false,"is_disabled":false,"rental_uris":{"android":"levelo://app?vid=465d2323-f97d-48b0-a820-bc5fa54ae0fa","ios":"levelo://app?vid=465d2323-f97d-48b0-a820-bc5fa54ae0fa"},"vehicle_type_id":"4","last_reported":1750763396,"current_range_meters":8400,"station_id":"","pricing_plan_id":"cebpf4jnsgd1na2vs0mg"},{"bike_id":"cecf2b45-1b4a-4d4c-854f-e788d480be4a","system_id":"levelo_inurba_marseille","lat":43.311291,"lon":5.377926,"is_reserved":false,"is_disabled":false,"rental_uris":{"android":"levelo://app?vid=cecf2b45-1b4a-4d4c-854f-e788d480be4a","ios":"levelo://app?vid=cecf2b45-1b4a-4d4c-854f-e788d480be4a"},"vehicle_type_id":"4","last_reported":1750763396,"current_range_meters":8400,"station_id":"","pricing_plan_id":"cebpf4jnsgd1na2vs0mg"},{"bike_id":"b03f484c-f1d4-4e89-90e6-72dc53b99482","system_id":"levelo_inurba_marseille","lat":43.31224,"lon":5.36869,"is_reserved":false,"is_disabled":false,"rental_uris":{"android":"levelo://app?vid=b03f484c-f1d4-4e89-90e6-72dc53b99482","ios":"levelo://app?vid=b03f484c-f1d4-4e89-90e6-72dc53b99482"},"vehicle_type_id":"4","last_reported":1750763396,"current_range_meters":8400,"station_id":"ce4bgl92rcd13ifvqbq0","pricing_plan_id":"cebpf4jnsgd1na2vs0mg"},{"bike_id":"d2956739-dfc1-48cd-b85b-e83cfeedddc5","system_id":"levelo_inurba_marseille","lat":43.31223,"lon":5.36876,"is_reserved":false,"is_disabled":false,"rental_uris":{"android":"levelo://app?vid=d2956739-dfc1-48cd-b85b-e83cfeedddc5","ios":"levelo://app?vid=d2956739-dfc1-48cd-b85b-e83cfeedddc5"},"vehicle_type_id":"4","last_reported":1750763396,"current_range_meters":8400,"station_id":"ce4bgl92rcd13ifvqbq0","pricing_plan_id":"cebpf4jnsgd1na2vs0mg"},{"bike_id":"1e76dcdc-afd2-40fe-9577-5429a7fc498c","system_id":"levelo_inurba_marseille","lat":43.29979,"lon":5.3718,"is_reserved":false,"is_disabled":false,"rental_uris":{"android":"levelo://app?vid=1e76dcdc-afd2-40fe-9577-5429a7fc498c","ios":"levelo://app?vid=1e76dcdc-afd2-40fe-9577-5429a7fc498c"},"vehicle_type_id":"4","last_reported":1750763396,"current_range_meters":8400,"station_id":"ce4bgr92rcd13ifvqc7g","pricing_plan_id":"cebpf4jnsgd1na2vs0mg"},{"bike_id":"96784955-b331-4a01-bc1e-1afe3afb807a","system_id":"levelo_inurba_marseille","lat":43.26569,"lon":5.39005,"is_reserved":false,"is_disabled":false,"rental_uris":{"android":"levelo://app?vid=96784955-b331-4a01-bc1e-1afe3afb807a","ios":"levelo://app?vid=96784955-b331-4a01-bc1e-1afe3afb807a"},"vehicle_type_id":"4","last_reported":1750763396,"current_range_meters":8400,"station_id":"ce4bhe12rcd13ifvqf30","pricing_plan_id":"cebpf4jnsgd1na2vs0mg"},{"bike_id":"069ac416-6109-4936-832f-da9b24eaf87f","system_id":"levelo_inurba_marseille","lat":43.26229,"lon":5.40451,"is_reserved":false,"is_disabled":false,"rental_uris":{"android":"levelo://app?vid=069ac416-6109-4936-832f-da9b24eaf87f","ios":"levelo://app?vid=069ac416-6109-4936-832f-da9b24eaf87f"},"vehicle_type_id":"4","last_reported":1750763396,"current_range_meters":8400,"station_id":"ce4bhmh2rcd13ifvqgmg","pricing_plan_id":"cebpf4jnsgd1na2vs0mg"},{"bike_id":"02b8caa6-5e2c-49d2-b361-2d267531c126","system_id":"levelo_inurba_marseille","lat":43.23151,"lon":5.43719,"is_reserved":false,"is_disabled":false,"rental_uris":{"android":"levelo://app?vid=02b8caa6-5e2c-49d2-b361-2d267531c126","ios":"levelo://app?vid=02b8caa6-5e2c-49d2-b361-2d267531c126"},"vehicle_type_id":"4","last_reported":1750763396,"current_range_meters":8400,"station_id":"ce4bhmp2rcd13ifvqgog","pricing_plan_id":"cebpf4jnsgd1na2vs0mg"},{"bike_id":"8db616e2-9b85-463c-b9ec-a921956427ff","system_id":"levelo_inurba_marseille","lat":43.32524,"lon":5.41488,"is_reserved":false,"is_disabled":false,"rental_uris":{"android":"levelo://app?vid=8db616e2-9b85-463c-b9ec-a921956427ff","ios":"levelo://app?vid=8db616e2-9b85-463c-b9ec-a921956427ff"},"vehicle_type_id":"4","last_reported":1750763396,"current_range_meters":8400,"station_id":"ce4bhq12rcd13ifvqhhg","pricing_plan_id":"cebpf4jnsgd1na2vs0mg"},{"bike_id":"8527eef5-3a92-4bba-b4de-34be96ff921e","system_id":"levelo_inurba_marseille","lat":43.324764,"lon":5.365782,"is_reserved":false,"is_disabled":false,"rental_uris":{"android":"levelo://app?vid=8527eef5-3a92-4bba-b4de-34be96ff921e","ios":"levelo://app?vid=8527eef5-3a92-4bba-b4de-34be96ff921e"},"vehicle_type_id":"4","last_reported":1750763396,"current_range_meters":8400,"station_id":"ce4bhs12rcd13ifvqhvg","pricing_plan_id":"cebpf4jnsgd1na2vs0mg"},{"bike_id":"c1b01407-745f-4fba-97ce-71ee29f671f1","system_id":"levelo_inurba_marseille","lat":43.30909,"lon":5.36853,"is_reserved":false,"is_disabled":false,"rental_uris":{"android":"levelo://app?vid=c1b01407-745f-4fba-97ce-71ee29f671f1","ios":"levelo://app?vid=c1b01407-745f-4fba-97ce-71ee29f671f1"},"vehicle_type_id":"4","last_reported":1750763396,"current_range_meters":8800,"station_id":"ce4bgn92rcd13ifvqbvg","pricing_plan_id":"cebpf4jnsgd1na2vs0mg"},{"bike_id":"15d1df25-cb03-494d-9b93-2cacf46fd96c","system_id":"levelo_inurba_marseille","lat":43.3054,"lon":5.36538,"is_reserved":false,"is_disabled":false,"rental_uris":{"android":"levelo://app?vid=15d1df25-cb03-494d-9b93-2cacf46fd96c","ios":"levelo://app?vid=15d1df25-cb03-494d-9b93-2cacf46fd96c"},"vehicle_type_id":"4","last_reported":1750763396,"current_range_meters":8800,"station_id":"ce4bgs12rcd13ifvqcag","pricing_plan_id":"cebpf4jnsgd1na2vs0mg"},{"bike_id":"e8577b2b-8661-4181-8e8d-0518acfa449c","system_id":"levelo_inurba_marseille","lat":43.28159,"lon":5.42642,"is_reserved":false,"is_disabled":false,"rental_uris":{"android":"levelo://app?vid=e8577b2b-8661-4181-8e8d-0518acfa449c","ios":"levelo://app?vid=e8577b2b-8661-4181-8e8d-0518acfa449c"},"vehicle_type_id":"4","last_reported":1750763396,"current_range_meters":8800,"station_id":"ce4bhnh2rcd13ifvqgug","pricing_plan_id":"cebpf4jnsgd1na2vs0mg"},{"bike_id":"af1ee2aa-9649-4a84-92f8-a833c0e1efe3","system_id":"levelo_inurba_marseille","lat":43.323516,"lon":5.367478,"is_reserved":false,"is_disabled":false,"rental_uris":{"android":"levelo://app?vid=af1ee2aa-9649-4a84-92f8-a833c0e1efe3","ios":"levelo://app?vid=af1ee2aa-9649-4a84-92f8-a833c0e1efe3"},"vehicle_type_id":"4","last_reported":1750763396,"current_range_meters":8800,"station_id":"ce4bhsh2rcd13ifvqi2g","pricing_plan_id":"cebpf4jnsgd1na2vs0mg"},{"bike_id":"e9cff86a-9e33-4f1f-9b79-97973deef205","system_id":"levelo_inurba_marseille","lat":43.26778,"lon":5.39492,"is_reserved":false,"is_disabled":false,"rental_uris":{"android":"levelo://app?vid=e9cff86a-9e33-4f1f-9b79-97973deef205","ios":"levelo://app?vid=e9cff86a-9e33-4f1f-9b79-97973deef205"},"vehicle_type_id":"4","last_reported":1750763396,"current_range_meters":9200,"station_id":"","pricing_plan_id":"cebpf4jnsgd1na2vs0mg"},{"bike_id":"6c8c210a-1b15-49e4-a17d-64131e4c33e5","system_id":"levelo_inurba_marseille","lat":43.29629,"lon":5.40591,"is_reserved":false,"is_disabled":false,"rental_uris":{"android":"levelo://app?vid=6c8c210a-1b15-49e4-a17d-64131e4c33e5","ios":"levelo://app?vid=6c8c210a-1b15-49e4-a17d-64131e4c33e5"},"vehicle_type_id":"4","last_reported":1750763396,"current_range_meters":9200,"station_id":"ce4bh0h2rcd13ifvqd60","pricing_plan_id":"cebpf4jnsgd1na2vs0mg"},{"bike_id":"11ae10ea-fcae-40a1-9af8-0c4c79a9261a","system_id":"levelo_inurba_marseille","lat":43.27915,"lon":5.37997,"is_reserved":false,"is_disabled":false,"rental_uris":{"android":"levelo://app?vid=11ae10ea-fcae-40a1-9af8-0c4c79a9261a","ios":"levelo://app?vid=11ae10ea-fcae-40a1-9af8-0c4c79a9261a"},"vehicle_type_id":"4","last_reported":1750763396,"current_range_meters":9200,"station_id":"ce4bhf92rcd13ifvqf50","pricing_plan_id":"cebpf4jnsgd1na2vs0mg"},{"bike_id":"588a5867-9970-4e05-8294-dd4e9469e6e5","system_id":"levelo_inurba_marseille","lat":43.26555,"lon":5.37285,"is_reserved":false,"is_disabled":false,"rental_uris":{"android":"levelo://app?vid=588a5867-9970-4e05-8294-dd4e9469e6e5","ios":"levelo://app?vid=588a5867-9970-4e05-8294-dd4e9469e6e5"},"vehicle_type_id":"4","last_reported":1750763396,"current_range_meters":9200,"station_id":"ce4bhg12rcd13ifvqf70","pricing_plan_id":"cebpf4jnsgd1na2vs0mg"},{"bike_id":"73f0613a-b681-469b-9478-3a5490a7609e","system_id":"levelo_inurba_marseille","lat":43.23153,"lon":5.43708,"is_reserved":false,"is_disabled":false,"rental_uris":{"android":"levelo://app?vid=73f0613a-b681-469b-9478-3a5490a7609e","ios":"levelo://app?vid=73f0613a-b681-469b-9478-3a5490a7609e"},"vehicle_type_id":"4","last_reported":1750763396,"current_range_meters":9200,"station_id":"ce4bhmp2rcd13ifvqgog","pricing_plan_id":"cebpf4jnsgd1na2vs0mg"},{"bike_id":"8b1bec8f-7c47-4261-bf9f-f1bb6397af1b","system_id":"levelo_inurba_marseille","lat":43.231464,"lon":5.437151,"is_reserved":false,"is_disabled":false,"rental_uris":{"android":"levelo://app?vid=8b1bec8f-7c47-4261-bf9f-f1bb6397af1b","ios":"levelo://app?vid=8b1bec8f-7c47-4261-bf9f-f1bb6397af1b"},"vehicle_type_id":"4","last_reported":1750763396,"current_range_meters":9200,"station_id":"ce4bhmp2rcd13ifvqgog","pricing_plan_id":"cebpf4jnsgd1na2vs0mg"},{"bike_id":"087f2159-7753-4646-b13a-36c8508d6b4f","system_id":"levelo_inurba_marseille","lat":43.32495,"lon":5.36549,"is_reserved":false,"is_disabled":false,"rental_uris":{"android":"levelo://app?vid=087f2159-7753-4646-b13a-36c8508d6b4f","ios":"levelo://app?vid=087f2159-7753-4646-b13a-36c8508d6b4f"},"vehicle_type_id":"4","last_reported":1750763396,"current_range_meters":9200,"station_id":"ce4bhs12rcd13ifvqhvg","pricing_plan_id":"cebpf4jnsgd1na2vs0mg"},{"bike_id":"a092c41c-0118-4d86-b43e-981a2615e33e","system_id":"levelo_inurba_marseille","lat":43.34701,"lon":5.34557,"is_reserved":false,"is_disabled":false,"rental_uris":{"android":"levelo://app?vid=a092c41c-0118-4d86-b43e-981a2615e33e","ios":"levelo://app?vid=a092c41c-0118-4d86-b43e-981a2615e33e"},"vehicle_type_id":"4","last_reported":1750763396,"current_range_meters":9600,"station_id":"","pricing_plan_id":"cebpf4jnsgd1na2vs0mg"},{"bike_id":"e127ef7e-24d3-4248-81fa-66c5e7c3e582","system_id":"levelo_inurba_marseille","lat":43.296179,"lon":5.379419,"is_reserved":false,"is_disabled":false,"rental_uris":{"android":"levelo://app?vid=e127ef7e-24d3-4248-81fa-66c5e7c3e582","ios":"levelo://app?vid=e127ef7e-24d3-4248-81fa-66c5e7c3e582"},"vehicle_type_id":"4","last_reported":1750763396,"current_range_meters":9600,"station_id":"","pricing_plan_id":"cebpf4jnsgd1na2vs0mg"},{"bike_id":"0e8d5a55-0a0e-400a-ac5f-e6c775b0b2a2","system_id":"levelo_inurba_marseille","lat":43.27605,"lon":5.36119,"is_reserved":false,"is_disabled":false,"rental_uris":{"android":"levelo://app?vid=0e8d5a55-0a0e-400a-ac5f-e6c775b0b2a2","ios":"levelo://app?vid=0e8d5a55-0a0e-400a-ac5f-e6c775b0b2a2"},"vehicle_type_id":"4","last_reported":1750763396,"current_range_meters":9600,"station_id":"ce4bgj92rcd13ifvqbe0","pricing_plan_id":"cebpf4jnsgd1na2vs0mg"},{"bike_id":"23eda1de-7440-4504-9e5b-607db57c6e71","system_id":"levelo_inurba_marseille","lat":43.31339,"lon":5.3671,"is_reserved":false,"is_disabled":false,"rental_uris":{"android":"levelo://app?vid=23eda1de-7440-4504-9e5b-607db57c6e71","ios":"levelo://app?vid=23eda1de-7440-4504-9e5b-607db57c6e71"},"vehicle_type_id":"4","last_reported":1750763396,"current_range_meters":9600,"station_id":"ce4bgr92rcd13ifvqc6g","pricing_plan_id":"cebpf4jnsgd1na2vs0mg"},{"bike_id":"0f8a17d8-ca6e-4acb-9bb7-92544d829fbf","system_id":"levelo_inurba_marseille","lat":43.31344,"lon":5.36777,"is_reserved":false,"is_disabled":false,"rental_uris":{"android":"levelo://app?vid=0f8a17d8-ca6e-4acb-9bb7-92544d829fbf","ios":"levelo://app?vid=0f8a17d8-ca6e-4acb-9bb7-92544d829fbf"},"vehicle_type_id":"4","last_reported":1750763396,"current_range_meters":9600,"station_id":"ce4bgr92rcd13ifvqc6g","pricing_plan_id":"cebpf4jnsgd1na2vs0mg"},{"bike_id":"2acc3284-ef33-4607-adcf-77e0558d12f7","system_id":"levelo_inurba_marseille","lat":43.29988,"lon":5.37178,"is_reserved":false,"is_disabled":false,"rental_uris":{"android":"levelo://app?vid=2acc3284-ef33-4607-adcf-77e0558d12f7","ios":"levelo://app?vid=2acc3284-ef33-4607-adcf-77e0558d12f7"},"vehicle_type_id":"4","last_reported":1750763396,"current_range_meters":9600,"station_id":"ce4bgr92rcd13ifvqc7g","pricing_plan_id":"cebpf4jnsgd1na2vs0mg"},{"bike_id":"e804c7c9-cf0f-4083-97ba-87365fab0f2b","system_id":"levelo_inurba_marseille","lat":43.28466,"lon":5.35882,"is_reserved":false,"is_disabled":false,"rental_uris":{"android":"levelo://app?vid=e804c7c9-cf0f-4083-97ba-87365fab0f2b","ios":"levelo://app?vid=e804c7c9-cf0f-4083-97ba-87365fab0f2b"},"vehicle_type_id":"4","last_reported":1750763396,"current_range_meters":9600,"station_id":"ce4bhah2rcd13ifvqei0","pricing_plan_id":"cebpf4jnsgd1na2vs0mg"},{"bike_id":"5a0aacc5-ee0a-40b0-849f-4f7c52706b8f","system_id":"levelo_inurba_marseille","lat":43.29004,"lon":5.35608,"is_reserved":false,"is_disabled":false,"rental_uris":{"android":"levelo://app?vid=5a0aacc5-ee0a-40b0-849f-4f7c52706b8f","ios":"levelo://app?vid=5a0aacc5-ee0a-40b0-849f-4f7c52706b8f"},"vehicle_type_id":"4","last_reported":1750763396,"current_range_meters":9600,"station_id":"ce4bhb92rcd13ifvqen0","pricing_plan_id":"cebpf4jnsgd1na2vs0mg"},{"bike_id":"4cd5164a-d55a-4627-ae6b-fa5c3d311f3f","system_id":"levelo_inurba_marseille","lat":43.23201,"lon":5.35551,"is_reserved":false,"is_disabled":false,"rental_uris":{"android":"levelo://app?vid=4cd5164a-d55a-4627-ae6b-fa5c3d311f3f","ios":"levelo://app?vid=4cd5164a-d55a-4627-ae6b-fa5c3d311f3f"},"vehicle_type_id":"4","last_reported":1750763396,"current_range_meters":9600,"station_id":"ce4bhu92rcd13ifvqi70","pricing_plan_id":"cebpf4jnsgd1na2vs0mg"},{"bike_id":"531ed5b1-c7cc-48c6-b8f2-68a920d805d9","system_id":"levelo_inurba_marseille","lat":43.269424,"lon":5.402617,"is_reserved":false,"is_disabled":false,"rental_uris":{"android":"levelo://app?vid=531ed5b1-c7cc-48c6-b8f2-68a920d805d9","ios":"levelo://app?vid=531ed5b1-c7cc-48c6-b8f2-68a920d805d9"},"vehicle_type_id":"4","last_reported":1750763396,"current_range_meters":10000,"station_id":"","pricing_plan_id":"cebpf4jnsgd1na2vs0mg"},{"bike_id":"9f754f6a-d755-48d0-bb43-98e338a9df6d","system_id":"levelo_inurba_marseille","lat":43.30905,"lon":5.36888,"is_reserved":false,"is_disabled":false,"rental_uris":{"android":"levelo://app?vid=9f754f6a-d755-48d0-bb43-98e338a9df6d","ios":"levelo://app?vid=9f754f6a-d755-48d0-bb43-98e338a9df6d"},"vehicle_type_id":"4","last_reported":1750763396,"current_range_meters":10000,"station_id":"ce4bgn92rcd13ifvqbvg","pricing_plan_id":"cebpf4jnsgd1na2vs0mg"},{"bike_id":"575c3ba3-89a4-44ac-9206-0407a92f442c","system_id":"levelo_inurba_marseille","lat":43.27109,"lon":5.4226,"is_reserved":false,"is_disabled":false,"rental_uris":{"android":"levelo://app?vid=575c3ba3-89a4-44ac-9206-0407a92f442c","ios":"levelo://app?vid=575c3ba3-89a4-44ac-9206-0407a92f442c"},"vehicle_type_id":"4","last_reported":1750763396,"current_range_meters":10000,"station_id":"ce4bhk92rcd13ifvqgb0","pricing_plan_id":"cebpf4jnsgd1na2vs0mg"},{"bike_id":"20ee7690-aced-4e48-9e5e-0d7fdfa26dae","system_id":"levelo_inurba_marseille","lat":43.33736,"lon":5.3919,"is_reserved":false,"is_disabled":false,"rental_uris":{"android":"levelo://app?vid=20ee7690-aced-4e48-9e5e-0d7fdfa26dae","ios":"levelo://app?vid=20ee7690-aced-4e48-9e5e-0d7fdfa26dae"},"vehicle_type_id":"4","last_reported":1750763396,"current_range_meters":10000,"station_id":"ce4bhr92rcd13ifvqhsg","pricing_plan_id":"cebpf4jnsgd1na2vs0mg"},{"bike_id":"cf4df708-b53f-4b70-b463-a9d5f81fd205","system_id":"levelo_inurba_marseille","lat":43.32499,"lon":5.36564,"is_reserved":false,"is_disabled":false,"rental_uris":{"android":"levelo://app?vid=cf4df708-b53f-4b70-b463-a9d5f81fd205","ios":"levelo://app?vid=cf4df708-b53f-4b70-b463-a9d5f81fd205"},"vehicle_type_id":"4","last_reported":1750763396,"current_range_meters":10000,"station_id":"ce4bhs12rcd13ifvqhvg","pricing_plan_id":"cebpf4jnsgd1na2vs0mg"},{"bike_id":"cada33e7-7feb-4285-bb16-b2e63d63815b","system_id":"levelo_inurba_marseille","lat":43.2367,"lon":5.3917,"is_reserved":false,"is_disabled":false,"rental_uris":{"android":"levelo://app?vid=cada33e7-7feb-4285-bb16-b2e63d63815b","ios":"levelo://app?vid=cada33e7-7feb-4285-bb16-b2e63d63815b"},"vehicle_type_id":"4","last_reported":1750763396,"current_range_meters":10800,"station_id":"","pricing_plan_id":"cebpf4jnsgd1na2vs0mg"},{"bike_id":"c2f682cf-019e-490c-8771-f17efbd86a62","system_id":"levelo_inurba_marseille","lat":43.31225,"lon":5.36856,"is_reserved":false,"is_disabled":false,"rental_uris":{"android":"levelo://app?vid=c2f682cf-019e-490c-8771-f17efbd86a62","ios":"levelo://app?vid=c2f682cf-019e-490c-8771-f17efbd86a62"},"vehicle_type_id":"4","last_reported":1750763396,"current_range_meters":10800,"station_id":"ce4bgl92rcd13ifvqbq0","pricing_plan_id":"cebpf4jnsgd1na2vs0mg"},{"bike_id":"11453444-4ae0-471d-93be-a047ef0b0d85","system_id":"levelo_inurba_marseille","lat":43.30881,"lon":5.36872,"is_reserved":false,"is_disabled":false,"rental_uris":{"android":"levelo://app?vid=11453444-4ae0-471d-93be-a047ef0b0d85","ios":"levelo://app?vid=11453444-4ae0-471d-93be-a047ef0b0d85"},"vehicle_type_id":"4","last_reported":1750763396,"current_range_meters":10800,"station_id":"ce4bgn92rcd13ifvqbvg","pricing_plan_id":"cebpf4jnsgd1na2vs0mg"},{"bike_id":"1840ada6-89b7-4736-8cd0-b8a9be0860e2","system_id":"levelo_inurba_marseille","lat":43.30533,"lon":5.36527,"is_reserved":false,"is_disabled":false,"rental_uris":{"android":"levelo://app?vid=1840ada6-89b7-4736-8cd0-b8a9be0860e2","ios":"levelo://app?vid=1840ada6-89b7-4736-8cd0-b8a9be0860e2"},"vehicle_type_id":"4","last_reported":1750763396,"current_range_meters":10800,"station_id":"ce4bgs12rcd13ifvqcag","pricing_plan_id":"cebpf4jnsgd1na2vs0mg"},{"bike_id":"6fe5101f-66f7-48e1-be36-0fb6268336db","system_id":"levelo_inurba_marseille","lat":43.29051,"lon":5.35909,"is_reserved":false,"is_disabled":false,"rental_uris":{"android":"levelo://app?vid=6fe5101f-66f7-48e1-be36-0fb6268336db","ios":"levelo://app?vid=6fe5101f-66f7-48e1-be36-0fb6268336db"},"vehicle_type_id":"4","last_reported":1750763396,"current_range_meters":10800,"station_id":"ce4bha92rcd13ifvqeg0","pricing_plan_id":"cebpf4jnsgd1na2vs0mg"},{"bike_id":"a7794009-9fb0-4d03-b8f8-6edf9031eddf","system_id":"levelo_inurba_marseille","lat":43.26572,"lon":5.39014,"is_reserved":false,"is_disabled":false,"rental_uris":{"android":"levelo://app?vid=a7794009-9fb0-4d03-b8f8-6edf9031eddf","ios":"levelo://app?vid=a7794009-9fb0-4d03-b8f8-6edf9031eddf"},"vehicle_type_id":"4","last_reported":1750763396,"current_range_meters":10800,"station_id":"ce4bhe12rcd13ifvqf30","pricing_plan_id":"cebpf4jnsgd1na2vs0mg"},{"bike_id":"fffec9ad-e46d-494a-b0cd-63e557351e88","system_id":"levelo_inurba_marseille","lat":43.26965,"lon":5.40257,"is_reserved":false,"is_disabled":false,"rental_uris":{"android":"levelo://app?vid=fffec9ad-e46d-494a-b0cd-63e557351e88","ios":"levelo://app?vid=fffec9ad-e46d-494a-b0cd-63e557351e88"},"vehicle_type_id":"4","last_reported":1750763396,"current_range_meters":10800,"station_id":"cjm6bp8fraef2m0cb0m0","pricing_plan_id":"cebpf4jnsgd1na2vs0mg"},{"bike_id":"82daa609-66e4-4b91-8a1c-a20f4b557675","system_id":"levelo_inurba_marseille","lat":43.30336,"lon":5.36691,"is_reserved":false,"is_disabled":false,"rental_uris":{"android":"levelo://app?vid=82daa609-66e4-4b91-8a1c-a20f4b557675","ios":"levelo://app?vid=82daa609-66e4-4b91-8a1c-a20f4b557675"},"vehicle_type_id":"4","last_reported":1750763396,"current_range_meters":11200,"station_id":"","pricing_plan_id":"cebpf4jnsgd1na2vs0mg"},{"bike_id":"11987b5c-26ac-4854-8322-bb533a1e4efa","system_id":"levelo_inurba_marseille","lat":43.2315,"lon":5.43737,"is_reserved":false,"is_disabled":false,"rental_uris":{"android":"levelo://app?vid=11987b5c-26ac-4854-8322-bb533a1e4efa","ios":"levelo://app?vid=11987b5c-26ac-4854-8322-bb533a1e4efa"},"vehicle_type_id":"4","last_reported":1750763396,"current_range_meters":11200,"station_id":"ce4bhmp2rcd13ifvqgog","pricing_plan_id":"cebpf4jnsgd1na2vs0mg"},{"bike_id":"0ea08d98-e9f2-4ca9-b0cd-ddaa569dd6a8","system_id":"levelo_inurba_marseille","lat":43.23183,"lon":5.39987,"is_reserved":false,"is_disabled":false,"rental_uris":{"android":"levelo://app?vid=0ea08d98-e9f2-4ca9-b0cd-ddaa569dd6a8","ios":"levelo://app?vid=0ea08d98-e9f2-4ca9-b0cd-ddaa569dd6a8"},"vehicle_type_id":"4","last_reported":1750763396,"current_range_meters":11200,"station_id":"ce4bhn12rcd13ifvqgqg","pricing_plan_id":"cebpf4jnsgd1na2vs0mg"},{"bike_id":"5a3c89c2-3450-4abf-8f80-3c018505aaa7","system_id":"levelo_inurba_marseille","lat":43.321143,"lon":5.367793,"is_reserved":false,"is_disabled":false,"rental_uris":{"android":"levelo://app?vid=5a3c89c2-3450-4abf-8f80-3c018505aaa7","ios":"levelo://app?vid=5a3c89c2-3450-4abf-8f80-3c018505aaa7"},"vehicle_type_id":"4","last_reported":1750763396,"current_range_meters":11200,"station_id":"ce4bhrh2rcd13ifvqhug","pricing_plan_id":"cebpf4jnsgd1na2vs0mg"},{"bike_id":"fc1021d2-7bd8-41cc-a566-5df5c9bc4ea6","system_id":"levelo_inurba_marseille","lat":43.211914,"lon":5.350716,"is_reserved":false,"is_disabled":false,"rental_uris":{"android":"levelo://app?vid=fc1021d2-7bd8-41cc-a566-5df5c9bc4ea6","ios":"levelo://app?vid=fc1021d2-7bd8-41cc-a566-5df5c9bc4ea6"},"vehicle_type_id":"4","last_reported":1750763396,"current_range_meters":11200,"station_id":"st_cvj6sg6p6f1abm77japg","pricing_plan_id":"cebpf4jnsgd1na2vs0mg"},{"bike_id":"ba7009b7-dbb9-4c29-8645-d0a68dca7b4f","system_id":"levelo_inurba_marseille","lat":43.312975,"lon":5.445535,"is_reserved":false,"is_disabled":false,"rental_uris":{"android":"levelo://app?vid=ba7009b7-dbb9-4c29-8645-d0a68dca7b4f","ios":"levelo://app?vid=ba7009b7-dbb9-4c29-8645-d0a68dca7b4f"},"vehicle_type_id":"4","last_reported":1750763396,"current_range_meters":11600,"station_id":"","pricing_plan_id":"cebpf4jnsgd1na2vs0mg"},{"bike_id":"450a3642-ad05-4765-9a3a-f8f356367bc2","system_id":"levelo_inurba_marseille","lat":43.30562,"lon":5.36503,"is_reserved":false,"is_disabled":false,"rental_uris":{"android":"levelo://app?vid=450a3642-ad05-4765-9a3a-f8f356367bc2","ios":"levelo://app?vid=450a3642-ad05-4765-9a3a-f8f356367bc2"},"vehicle_type_id":"4","last_reported":1750763396,"current_range_meters":11600,"station_id":"ce4bgs12rcd13ifvqcag","pricing_plan_id":"cebpf4jnsgd1na2vs0mg"},{"bike_id":"984455f4-d51a-4995-b34c-402f6c830235","system_id":"levelo_inurba_marseille","lat":43.26193,"lon":5.37888,"is_reserved":false,"is_disabled":false,"rental_uris":{"android":"levelo://app?vid=984455f4-d51a-4995-b34c-402f6c830235","ios":"levelo://app?vid=984455f4-d51a-4995-b34c-402f6c830235"},"vehicle_type_id":"4","last_reported":1750763396,"current_range_meters":11600,"station_id":"ce4bhjp2rcd13ifvqg90","pricing_plan_id":"cebpf4jnsgd1na2vs0mg"},{"bike_id":"d671bbab-c147-45fe-9cff-13d25c8e0b45","system_id":"levelo_inurba_marseille","lat":43.28174,"lon":5.39861,"is_reserved":false,"is_disabled":false,"rental_uris":{"android":"levelo://app?vid=d671bbab-c147-45fe-9cff-13d25c8e0b45","ios":"levelo://app?vid=d671bbab-c147-45fe-9cff-13d25c8e0b45"},"vehicle_type_id":"4","last_reported":1750763396,"current_range_meters":12000,"station_id":"","pricing_plan_id":"cebpf4jnsgd1na2vs0mg"},{"bike_id":"6241ad3c-25d1-4989-b4f7-21364dd84b91","system_id":"levelo_inurba_marseille","lat":43.30548,"lon":5.36529,"is_reserved":false,"is_disabled":false,"rental_uris":{"android":"levelo://app?vid=6241ad3c-25d1-4989-b4f7-21364dd84b91","ios":"levelo://app?vid=6241ad3c-25d1-4989-b4f7-21364dd84b91"},"vehicle_type_id":"4","last_reported":1750763396,"current_range_meters":12000,"station_id":"ce4bgs12rcd13ifvqcag","pricing_plan_id":"cebpf4jnsgd1na2vs0mg"},{"bike_id":"d3b4acd1-475d-43e1-bb04-3b5b22c96457","system_id":"levelo_inurba_marseille","lat":43.29899,"lon":5.43671,"is_reserved":false,"is_disabled":false,"rental_uris":{"android":"levelo://app?vid=d3b4acd1-475d-43e1-bb04-3b5b22c96457","ios":"levelo://app?vid=d3b4acd1-475d-43e1-bb04-3b5b22c96457"},"vehicle_type_id":"4","last_reported":1750763396,"current_range_meters":12000,"station_id":"ce4bhpp2rcd13ifvqhfg","pricing_plan_id":"cebpf4jnsgd1na2vs0mg"},{"bike_id":"9bba0450-8058-454f-bf64-d7d8d9cb601e","system_id":"levelo_inurba_marseille","lat":43.31248,"lon":5.36889,"is_reserved":false,"is_disabled":false,"rental_uris":{"android":"levelo://app?vid=9bba0450-8058-454f-bf64-d7d8d9cb601e","ios":"levelo://app?vid=9bba0450-8058-454f-bf64-d7d8d9cb601e"},"vehicle_type_id":"4","last_reported":1750763396,"current_range_meters":12400,"station_id":"ce4bgl92rcd13ifvqbq0","pricing_plan_id":"cebpf4jnsgd1na2vs0mg"},{"bike_id":"de002d9d-83b0-41e6-99fe-f9eb013d6ff3","system_id":"levelo_inurba_marseille","lat":43.21732,"lon":5.34629,"is_reserved":false,"is_disabled":false,"rental_uris":{"android":"levelo://app?vid=de002d9d-83b0-41e6-99fe-f9eb013d6ff3","ios":"levelo://app?vid=de002d9d-83b0-41e6-99fe-f9eb013d6ff3"},"vehicle_type_id":"4","last_reported":1750763396,"current_range_meters":12400,"station_id":"st_cvj6r9ubvosntc0bgbag","pricing_plan_id":"cebpf4jnsgd1na2vs0mg"},{"bike_id":"ff359b06-e82b-4518-b602-f9c62162a27d","system_id":"levelo_inurba_marseille","lat":43.21202,"lon":5.35091,"is_reserved":false,"is_disabled":false,"rental_uris":{"android":"levelo://app?vid=ff359b06-e82b-4518-b602-f9c62162a27d","ios":"levelo://app?vid=ff359b06-e82b-4518-b602-f9c62162a27d"},"vehicle_type_id":"4","last_reported":1750763396,"current_range_meters":12400,"station_id":"st_cvj6sg6p6f1abm77japg","pricing_plan_id":"cebpf4jnsgd1na2vs0mg"},{"bike_id":"095eabd1-5dcf-4106-9219-bdac4470d970","system_id":"levelo_inurba_marseille","lat":43.32851,"lon":5.43383,"is_reserved":false,"is_disabled":false,"rental_uris":{"android":"levelo://app?vid=095eabd1-5dcf-4106-9219-bdac4470d970","ios":"levelo://app?vid=095eabd1-5dcf-4106-9219-bdac4470d970"},"vehicle_type_id":"4","last_reported":1750763396,"current_range_meters":12800,"station_id":"","pricing_plan_id":"cebpf4jnsgd1na2vs0mg"},{"bike_id":"ea58c5af-7e24-472a-9042-4626112e91cb","system_id":"levelo_inurba_marseille","lat":43.291979,"lon":5.358054,"is_reserved":false,"is_disabled":false,"rental_uris":{"android":"levelo://app?vid=ea58c5af-7e24-472a-9042-4626112e91cb","ios":"levelo://app?vid=ea58c5af-7e24-472a-9042-4626112e91cb"},"vehicle_type_id":"4","last_reported":1750763396,"current_range_meters":12800,"station_id":"","pricing_plan_id":"cebpf4jnsgd1na2vs0mg"},{"bike_id":"beddf7a9-df76-4483-b772-34c74059dc6a","system_id":"levelo_inurba_marseille","lat":43.30144,"lon":5.38777,"is_reserved":false,"is_disabled":false,"rental_uris":{"android":"levelo://app?vid=beddf7a9-df76-4483-b772-34c74059dc6a","ios":"levelo://app?vid=beddf7a9-df76-4483-b772-34c74059dc6a"},"vehicle_type_id":"4","last_reported":1750763396,"current_range_meters":12800,"station_id":"ce4bghh2rcd13ifvqb60","pricing_plan_id":"cebpf4jnsgd1na2vs0mg"},{"bike_id":"45ede44d-b958-4b29-a7ac-798377844161","system_id":"levelo_inurba_marseille","lat":43.31238,"lon":5.36866,"is_reserved":false,"is_disabled":false,"rental_uris":{"android":"levelo://app?vid=45ede44d-b958-4b29-a7ac-798377844161","ios":"levelo://app?vid=45ede44d-b958-4b29-a7ac-798377844161"},"vehicle_type_id":"4","last_reported":1750763396,"current_range_meters":12800,"station_id":"ce4bgl92rcd13ifvqbq0","pricing_plan_id":"cebpf4jnsgd1na2vs0mg"},{"bike_id":"b52e43f5-eac3-4109-8b89-6c213d43f513","system_id":"levelo_inurba_marseille","lat":43.2997,"lon":5.37173,"is_reserved":false,"is_disabled":false,"rental_uris":{"android":"levelo://app?vid=b52e43f5-eac3-4109-8b89-6c213d43f513","ios":"levelo://app?vid=b52e43f5-eac3-4109-8b89-6c213d43f513"},"vehicle_type_id":"4","last_reported":1750763396,"current_range_meters":12800,"station_id":"ce4bgr92rcd13ifvqc7g","pricing_plan_id":"cebpf4jnsgd1na2vs0mg"},{"bike_id":"b6b861fa-fd27-43ad-89fb-4be1a264be92","system_id":"levelo_inurba_marseille","lat":43.25307,"lon":5.37497,"is_reserved":false,"is_disabled":false,"rental_uris":{"android":"levelo://app?vid=b6b861fa-fd27-43ad-89fb-4be1a264be92","ios":"levelo://app?vid=b6b861fa-fd27-43ad-89fb-4be1a264be92"},"vehicle_type_id":"4","last_reported":1750763396,"current_range_meters":13600,"station_id":"","pricing_plan_id":"cebpf4jnsgd1na2vs0mg"},{"bike_id":"3e0f5345-cfae-479a-9b41-9237c8726756","system_id":"levelo_inurba_marseille","lat":43.29682,"lon":5.36331,"is_reserved":false,"is_disabled":false,"rental_uris":{"android":"levelo://app?vid=3e0f5345-cfae-479a-9b41-9237c8726756","ios":"levelo://app?vid=3e0f5345-cfae-479a-9b41-9237c8726756"},"vehicle_type_id":"4","last_reported":1750763396,"current_range_meters":13600,"station_id":"","pricing_plan_id":"cebpf4jnsgd1na2vs0mg"},{"bike_id":"421db2de-9612-4637-8201-bea3335c1f96","system_id":"levelo_inurba_marseille","lat":43.29369,"lon":5.3786,"is_reserved":false,"is_disabled":false,"rental_uris":{"android":"levelo://app?vid=421db2de-9612-4637-8201-bea3335c1f96","ios":"levelo://app?vid=421db2de-9612-4637-8201-bea3335c1f96"},"vehicle_type_id":"4","last_reported":1750763396,"current_range_meters":13600,"station_id":"ce4bgjh2rcd13ifvqbf0","pricing_plan_id":"cebpf4jnsgd1na2vs0mg"},{"bike_id":"20d4f4c0-e94b-4c59-b410-33d83d647368","system_id":"levelo_inurba_marseille","lat":43.286134,"lon":5.351084,"is_reserved":false,"is_disabled":false,"rental_uris":{"android":"levelo://app?vid=20d4f4c0-e94b-4c59-b410-33d83d647368","ios":"levelo://app?vid=20d4f4c0-e94b-4c59-b410-33d83d647368"},"vehicle_type_id":"4","last_reported":1750763396,"current_range_meters":13600,"station_id":"ce4bhch2rcd13ifvqeug","pricing_plan_id":"cebpf4jnsgd1na2vs0mg"},{"bike_id":"58886eb6-f6f8-4a23-9c87-bca143bc1097","system_id":"levelo_inurba_marseille","lat":43.23197,"lon":5.35554,"is_reserved":false,"is_disabled":false,"rental_uris":{"android":"levelo://app?vid=58886eb6-f6f8-4a23-9c87-bca143bc1097","ios":"levelo://app?vid=58886eb6-f6f8-4a23-9c87-bca143bc1097"},"vehicle_type_id":"4","last_reported":1750763396,"current_range_meters":13600,"station_id":"ce4bhu92rcd13ifvqi70","pricing_plan_id":"cebpf4jnsgd1na2vs0mg"},{"bike_id":"e7a0df06-1fc3-4d8d-aa5d-17fc658bb87d","system_id":"levelo_inurba_marseille","lat":43.30541,"lon":5.36539,"is_reserved":false,"is_disabled":false,"rental_uris":{"android":"levelo://app?vid=e7a0df06-1fc3-4d8d-aa5d-17fc658bb87d","ios":"levelo://app?vid=e7a0df06-1fc3-4d8d-aa5d-17fc658bb87d"},"vehicle_type_id":"4","last_reported":1750763396,"current_range_meters":14000,"station_id":"ce4bgs12rcd13ifvqcag","pricing_plan_id":"cebpf4jnsgd1na2vs0mg"},{"bike_id":"a554455b-02a3-4243-a1d6-6c0959b9aa9e","system_id":"levelo_inurba_marseille","lat":43.32364,"lon":5.38886,"is_reserved":false,"is_disabled":false,"rental_uris":{"android":"levelo://app?vid=a554455b-02a3-4243-a1d6-6c0959b9aa9e","ios":"levelo://app?vid=a554455b-02a3-4243-a1d6-6c0959b9aa9e"},"vehicle_type_id":"4","last_reported":1750763396,"current_range_meters":14000,"station_id":"ce4bhqp2rcd13ifvqhog","pricing_plan_id":"cebpf4jnsgd1na2vs0mg"},{"bike_id":"11ebf4fb-e752-44af-81e3-7d28e8eee9cc","system_id":"levelo_inurba_marseille","lat":43.28119,"lon":5.43206,"is_reserved":false,"is_disabled":false,"rental_uris":{"android":"levelo://app?vid=11ebf4fb-e752-44af-81e3-7d28e8eee9cc","ios":"levelo://app?vid=11ebf4fb-e752-44af-81e3-7d28e8eee9cc"},"vehicle_type_id":"4","last_reported":1750763396,"current_range_meters":14400,"station_id":"","pricing_plan_id":"cebpf4jnsgd1na2vs0mg"},{"bike_id":"7c3f6852-4f29-42a9-a8c1-e2b82bb43fcf","system_id":"levelo_inurba_marseille","lat":43.29263,"lon":5.42704,"is_reserved":false,"is_disabled":false,"rental_uris":{"android":"levelo://app?vid=7c3f6852-4f29-42a9-a8c1-e2b82bb43fcf","ios":"levelo://app?vid=7c3f6852-4f29-42a9-a8c1-e2b82bb43fcf"},"vehicle_type_id":"4","last_reported":1750763396,"current_range_meters":14400,"station_id":"","pricing_plan_id":"cebpf4jnsgd1na2vs0mg"},{"bike_id":"281ef33c-3a64-46f4-991b-f0cfd40487b3","system_id":"levelo_inurba_marseille","lat":43.28481,"lon":5.38418,"is_reserved":false,"is_disabled":false,"rental_uris":{"android":"levelo://app?vid=281ef33c-3a64-46f4-991b-f0cfd40487b3","ios":"levelo://app?vid=281ef33c-3a64-46f4-991b-f0cfd40487b3"},"vehicle_type_id":"4","last_reported":1750763396,"current_range_meters":14400,"station_id":"ce4bh512rcd13ifvqe3g","pricing_plan_id":"cebpf4jnsgd1na2vs0mg"},{"bike_id":"23e3217e-8df1-4d4e-8091-7083281a35e7","system_id":"levelo_inurba_marseille","lat":43.27205,"lon":5.39183,"is_reserved":false,"is_disabled":false,"rental_uris":{"android":"levelo://app?vid=23e3217e-8df1-4d4e-8091-7083281a35e7","ios":"levelo://app?vid=23e3217e-8df1-4d4e-8091-7083281a35e7"},"vehicle_type_id":"4","last_reported":1750763396,"current_range_meters":14400,"station_id":"ce4bhhp2rcd13ifvqfm0","pricing_plan_id":"cebpf4jnsgd1na2vs0mg"},{"bike_id":"2ae406af-496c-4166-9487-1b1b831ac3ed","system_id":"levelo_inurba_marseille","lat":43.25121,"lon":5.40313,"is_reserved":false,"is_disabled":false,"rental_uris":{"android":"levelo://app?vid=2ae406af-496c-4166-9487-1b1b831ac3ed","ios":"levelo://app?vid=2ae406af-496c-4166-9487-1b1b831ac3ed"},"vehicle_type_id":"4","last_reported":1750763396,"current_range_meters":14400,"station_id":"ce4bhlh2rcd13ifvqgig","pricing_plan_id":"cebpf4jnsgd1na2vs0mg"},{"bike_id":"66765f18-3c92-4982-a41f-430cfa6690f6","system_id":"levelo_inurba_marseille","lat":43.32527,"lon":5.41448,"is_reserved":false,"is_disabled":false,"rental_uris":{"android":"levelo://app?vid=66765f18-3c92-4982-a41f-430cfa6690f6","ios":"levelo://app?vid=66765f18-3c92-4982-a41f-430cfa6690f6"},"vehicle_type_id":"4","last_reported":1750763396,"current_range_meters":14400,"station_id":"ce4bhq12rcd13ifvqhhg","pricing_plan_id":"cebpf4jnsgd1na2vs0mg"},{"bike_id":"f7d21a52-3225-4396-9d12-a1ed5d91e907","system_id":"levelo_inurba_marseille","lat":43.29211,"lon":5.38397,"is_reserved":false,"is_disabled":false,"rental_uris":{"android":"levelo://app?vid=f7d21a52-3225-4396-9d12-a1ed5d91e907","ios":"levelo://app?vid=f7d21a52-3225-4396-9d12-a1ed5d91e907"},"vehicle_type_id":"4","last_reported":1750763396,"current_range_meters":14800,"station_id":"","pricing_plan_id":"cebpf4jnsgd1na2vs0mg"},{"bike_id":"2c6e7c9f-c319-488f-97f2-12e7a44da27e","system_id":"levelo_inurba_marseille","lat":43.30552,"lon":5.36517,"is_reserved":false,"is_disabled":false,"rental_uris":{"android":"levelo://app?vid=2c6e7c9f-c319-488f-97f2-12e7a44da27e","ios":"levelo://app?vid=2c6e7c9f-c319-488f-97f2-12e7a44da27e"},"vehicle_type_id":"4","last_reported":1750763396,"current_range_meters":14800,"station_id":"ce4bgs12rcd13ifvqcag","pricing_plan_id":"cebpf4jnsgd1na2vs0mg"},{"bike_id":"099b519e-707f-4e59-bc4b-de4d6b61dfa8","system_id":"levelo_inurba_marseille","lat":43.2621,"lon":5.37442,"is_reserved":false,"is_disabled":false,"rental_uris":{"android":"levelo://app?vid=099b519e-707f-4e59-bc4b-de4d6b61dfa8","ios":"levelo://app?vid=099b519e-707f-4e59-bc4b-de4d6b61dfa8"},"vehicle_type_id":"4","last_reported":1750763396,"current_range_meters":14800,"station_id":"ce4bhgp2rcd13ifvqfc0","pricing_plan_id":"cebpf4jnsgd1na2vs0mg"},{"bike_id":"7ea3c9bd-f9bd-438e-b9e1-cdbe4f91c60d","system_id":"levelo_inurba_marseille","lat":43.22901,"lon":5.35303,"is_reserved":false,"is_disabled":false,"rental_uris":{"android":"levelo://app?vid=7ea3c9bd-f9bd-438e-b9e1-cdbe4f91c60d","ios":"levelo://app?vid=7ea3c9bd-f9bd-438e-b9e1-cdbe4f91c60d"},"vehicle_type_id":"4","last_reported":1750763396,"current_range_meters":15200,"station_id":"","pricing_plan_id":"cebpf4jnsgd1na2vs0mg"},{"bike_id":"d640a7b8-1397-43d6-a186-6115f601992f","system_id":"levelo_inurba_marseille","lat":43.312234,"lon":5.368518,"is_reserved":false,"is_disabled":false,"rental_uris":{"android":"levelo://app?vid=d640a7b8-1397-43d6-a186-6115f601992f","ios":"levelo://app?vid=d640a7b8-1397-43d6-a186-6115f601992f"},"vehicle_type_id":"4","last_reported":1750763396,"current_range_meters":15200,"station_id":"ce4bgl92rcd13ifvqbq0","pricing_plan_id":"cebpf4jnsgd1na2vs0mg"},{"bike_id":"9a0dca87-30f2-4ca4-b14d-4bcd7b0bfbd8","system_id":"levelo_inurba_marseille","lat":43.313497,"lon":5.36723,"is_reserved":false,"is_disabled":false,"rental_uris":{"android":"levelo://app?vid=9a0dca87-30f2-4ca4-b14d-4bcd7b0bfbd8","ios":"levelo://app?vid=9a0dca87-30f2-4ca4-b14d-4bcd7b0bfbd8"},"vehicle_type_id":"4","last_reported":1750763396,"current_range_meters":15200,"station_id":"ce4bgr92rcd13ifvqc6g","pricing_plan_id":"cebpf4jnsgd1na2vs0mg"},{"bike_id":"86a99c6d-4d34-49e2-9c6d-2a882f52b97e","system_id":"levelo_inurba_marseille","lat":43.27568,"lon":5.38406,"is_reserved":false,"is_disabled":false,"rental_uris":{"android":"levelo://app?vid=86a99c6d-4d34-49e2-9c6d-2a882f52b97e","ios":"levelo://app?vid=86a99c6d-4d34-49e2-9c6d-2a882f52b97e"},"vehicle_type_id":"4","last_reported":1750763396,"current_range_meters":15200,"station_id":"ce4bhh92rcd13ifvqfi0","pricing_plan_id":"cebpf4jnsgd1na2vs0mg"},{"bike_id":"cef721fd-afe4-48d0-89b0-0777a634e87f","system_id":"levelo_inurba_marseille","lat":43.244,"lon":5.37109,"is_reserved":false,"is_disabled":false,"rental_uris":{"android":"levelo://app?vid=cef721fd-afe4-48d0-89b0-0777a634e87f","ios":"levelo://app?vid=cef721fd-afe4-48d0-89b0-0777a634e87f"},"vehicle_type_id":"4","last_reported":1750763396,"current_range_meters":15200,"station_id":"ce4bhhh2rcd13ifvqfk0","pricing_plan_id":"cebpf4jnsgd1na2vs0mg"},{"bike_id":"68926176-3dcc-4058-a2fb-ab3e04992f57","system_id":"levelo_inurba_marseille","lat":43.231503,"lon":5.43717,"is_reserved":false,"is_disabled":false,"rental_uris":{"android":"levelo://app?vid=68926176-3dcc-4058-a2fb-ab3e04992f57","ios":"levelo://app?vid=68926176-3dcc-4058-a2fb-ab3e04992f57"},"vehicle_type_id":"4","last_reported":1750763396,"current_range_meters":15200,"station_id":"ce4bhmp2rcd13ifvqgog","pricing_plan_id":"cebpf4jnsgd1na2vs0mg"},{"bike_id":"3dec4a84-e6e4-46e1-bce6-d9d104da4ee6","system_id":"levelo_inurba_marseille","lat":43.23157,"lon":5.43761,"is_reserved":false,"is_disabled":false,"rental_uris":{"android":"levelo://app?vid=3dec4a84-e6e4-46e1-bce6-d9d104da4ee6","ios":"levelo://app?vid=3dec4a84-e6e4-46e1-bce6-d9d104da4ee6"},"vehicle_type_id":"4","last_reported":1750763396,"current_range_meters":15200,"station_id":"ce4bhmp2rcd13ifvqgog","pricing_plan_id":"cebpf4jnsgd1na2vs0mg"},{"bike_id":"51df9c8d-f116-4628-8c40-f3171ceea641","system_id":"levelo_inurba_marseille","lat":43.281215,"lon":5.445931,"is_reserved":false,"is_disabled":false,"rental_uris":{"android":"levelo://app?vid=51df9c8d-f116-4628-8c40-f3171ceea641","ios":"levelo://app?vid=51df9c8d-f116-4628-8c40-f3171ceea641"},"vehicle_type_id":"4","last_reported":1750763396,"current_range_meters":16000,"station_id":"","pricing_plan_id":"cebpf4jnsgd1na2vs0mg"},{"bike_id":"6af11411-eaec-434d-8aec-5ac25bed1ca3","system_id":"levelo_inurba_marseille","lat":43.31341,"lon":5.36733,"is_reserved":false,"is_disabled":false,"rental_uris":{"android":"levelo://app?vid=6af11411-eaec-434d-8aec-5ac25bed1ca3","ios":"levelo://app?vid=6af11411-eaec-434d-8aec-5ac25bed1ca3"},"vehicle_type_id":"4","last_reported":1750763396,"current_range_meters":16000,"station_id":"ce4bgr92rcd13ifvqc6g","pricing_plan_id":"cebpf4jnsgd1na2vs0mg"},{"bike_id":"26743e95-f872-4768-95e2-45f246ee7a3d","system_id":"levelo_inurba_marseille","lat":43.28404,"lon":5.34997,"is_reserved":false,"is_disabled":false,"rental_uris":{"android":"levelo://app?vid=26743e95-f872-4768-95e2-45f246ee7a3d","ios":"levelo://app?vid=26743e95-f872-4768-95e2-45f246ee7a3d"},"vehicle_type_id":"4","last_reported":1750763396,"current_range_meters":16000,"station_id":"ce4bhbh2rcd13ifvqepg","pricing_plan_id":"cebpf4jnsgd1na2vs0mg"},{"bike_id":"78f8dacb-b445-440a-9458-32d049d3edc6","system_id":"levelo_inurba_marseille","lat":43.28268,"lon":5.35062,"is_reserved":false,"is_disabled":false,"rental_uris":{"android":"levelo://app?vid=78f8dacb-b445-440a-9458-32d049d3edc6","ios":"levelo://app?vid=78f8dacb-b445-440a-9458-32d049d3edc6"},"vehicle_type_id":"4","last_reported":1750763396,"current_range_meters":16000,"station_id":"ce4bhbp2rcd13ifvqerg","pricing_plan_id":"cebpf4jnsgd1na2vs0mg"},{"bike_id":"35b14479-4a4d-4383-83de-c7fea66894b3","system_id":"levelo_inurba_marseille","lat":43.299,"lon":5.43667,"is_reserved":false,"is_disabled":false,"rental_uris":{"android":"levelo://app?vid=35b14479-4a4d-4383-83de-c7fea66894b3","ios":"levelo://app?vid=35b14479-4a4d-4383-83de-c7fea66894b3"},"vehicle_type_id":"4","last_reported":1750763396,"current_range_meters":16000,"station_id":"ce4bhpp2rcd13ifvqhfg","pricing_plan_id":"cebpf4jnsgd1na2vs0mg"},{"bike_id":"b87f5e37-a4df-4bc8-a944-6d6d09b0f782","system_id":"levelo_inurba_marseille","lat":43.30507,"lon":5.36645,"is_reserved":false,"is_disabled":false,"rental_uris":{"android":"levelo://app?vid=b87f5e37-a4df-4bc8-a944-6d6d09b0f782","ios":"levelo://app?vid=b87f5e37-a4df-4bc8-a944-6d6d09b0f782"},"vehicle_type_id":"4","last_reported":1750763396,"current_range_meters":16400,"station_id":"","pricing_plan_id":"cebpf4jnsgd1na2vs0mg"},{"bike_id":"37639598-87cb-49f2-bb28-e8116a49605f","system_id":"levelo_inurba_marseille","lat":43.22505,"lon":5.34791,"is_reserved":false,"is_disabled":false,"rental_uris":{"android":"levelo://app?vid=37639598-87cb-49f2-bb28-e8116a49605f","ios":"levelo://app?vid=37639598-87cb-49f2-bb28-e8116a49605f"},"vehicle_type_id":"4","last_reported":1750763396,"current_range_meters":16400,"station_id":"","pricing_plan_id":"cebpf4jnsgd1na2vs0mg"},{"bike_id":"51b217be-9488-41c1-b083-6d728251b280","system_id":"levelo_inurba_marseille","lat":43.243399,"lon":5.368841,"is_reserved":false,"is_disabled":false,"rental_uris":{"android":"levelo://app?vid=51b217be-9488-41c1-b083-6d728251b280","ios":"levelo://app?vid=51b217be-9488-41c1-b083-6d728251b280"},"vehicle_type_id":"4","last_reported":1750763396,"current_range_meters":16400,"station_id":"","pricing_plan_id":"cebpf4jnsgd1na2vs0mg"},{"bike_id":"ff1500cc-ac8f-45c9-881c-9fd6595094a3","system_id":"levelo_inurba_marseille","lat":43.31808,"lon":5.40219,"is_reserved":false,"is_disabled":false,"rental_uris":{"android":"levelo://app?vid=ff1500cc-ac8f-45c9-881c-9fd6595094a3","ios":"levelo://app?vid=ff1500cc-ac8f-45c9-881c-9fd6595094a3"},"vehicle_type_id":"4","last_reported":1750763396,"current_range_meters":16400,"station_id":"","pricing_plan_id":"cebpf4jnsgd1na2vs0mg"},{"bike_id":"3d39f4f7-5ecc-4e4b-808d-6584f2b02e94","system_id":"levelo_inurba_marseille","lat":43.312374,"lon":5.368795,"is_reserved":false,"is_disabled":false,"rental_uris":{"android":"levelo://app?vid=3d39f4f7-5ecc-4e4b-808d-6584f2b02e94","ios":"levelo://app?vid=3d39f4f7-5ecc-4e4b-808d-6584f2b02e94"},"vehicle_type_id":"4","last_reported":1750763396,"current_range_meters":16400,"station_id":"ce4bgl92rcd13ifvqbq0","pricing_plan_id":"cebpf4jnsgd1na2vs0mg"},{"bike_id":"70560b10-a18a-4ae6-b143-172467ca8cdc","system_id":"levelo_inurba_marseille","lat":43.30529,"lon":5.36546,"is_reserved":false,"is_disabled":false,"rental_uris":{"android":"levelo://app?vid=70560b10-a18a-4ae6-b143-172467ca8cdc","ios":"levelo://app?vid=70560b10-a18a-4ae6-b143-172467ca8cdc"},"vehicle_type_id":"4","last_reported":1750763396,"current_range_meters":16400,"station_id":"ce4bgs12rcd13ifvqcag","pricing_plan_id":"cebpf4jnsgd1na2vs0mg"},{"bike_id":"2aa41f90-2ca4-41dc-9522-66f1b7c27e10","system_id":"levelo_inurba_marseille","lat":43.27899,"lon":5.3804,"is_reserved":false,"is_disabled":false,"rental_uris":{"android":"levelo://app?vid=2aa41f90-2ca4-41dc-9522-66f1b7c27e10","ios":"levelo://app?vid=2aa41f90-2ca4-41dc-9522-66f1b7c27e10"},"vehicle_type_id":"4","last_reported":1750763396,"current_range_meters":16400,"station_id":"ce4bhf92rcd13ifvqf50","pricing_plan_id":"cebpf4jnsgd1na2vs0mg"},{"bike_id":"bf83ceeb-6145-4d01-b68d-f7e662e1be5a","system_id":"levelo_inurba_marseille","lat":43.258566,"lon":5.409789,"is_reserved":false,"is_disabled":false,"rental_uris":{"android":"levelo://app?vid=bf83ceeb-6145-4d01-b68d-f7e662e1be5a","ios":"levelo://app?vid=bf83ceeb-6145-4d01-b68d-f7e662e1be5a"},"vehicle_type_id":"4","last_reported":1750763396,"current_range_meters":16400,"station_id":"ce4bhkp2rcd13ifvqgd0","pricing_plan_id":"cebpf4jnsgd1na2vs0mg"},{"bike_id":"8cd3e3ea-2346-42fe-bba2-e7a68790f830","system_id":"levelo_inurba_marseille","lat":43.25946,"lon":5.40912,"is_reserved":false,"is_disabled":false,"rental_uris":{"android":"levelo://app?vid=8cd3e3ea-2346-42fe-bba2-e7a68790f830","ios":"levelo://app?vid=8cd3e3ea-2346-42fe-bba2-e7a68790f830"},"vehicle_type_id":"4","last_reported":1750763396,"current_range_meters":16400,"station_id":"ce4bhm92rcd13ifvqglg","pricing_plan_id":"cebpf4jnsgd1na2vs0mg"},{"bike_id":"17554c52-9615-46f6-b92a-7d0e6af39209","system_id":"levelo_inurba_marseille","lat":43.2314,"lon":5.43698,"is_reserved":false,"is_disabled":false,"rental_uris":{"android":"levelo://app?vid=17554c52-9615-46f6-b92a-7d0e6af39209","ios":"levelo://app?vid=17554c52-9615-46f6-b92a-7d0e6af39209"},"vehicle_type_id":"4","last_reported":1750763396,"current_range_meters":16400,"station_id":"ce4bhmp2rcd13ifvqgog","pricing_plan_id":"cebpf4jnsgd1na2vs0mg"},{"bike_id":"af112b62-19de-41d4-b8d7-e14d0172315d","system_id":"levelo_inurba_marseille","lat":43.32715,"lon":5.39204,"is_reserved":false,"is_disabled":false,"rental_uris":{"android":"levelo://app?vid=af112b62-19de-41d4-b8d7-e14d0172315d","ios":"levelo://app?vid=af112b62-19de-41d4-b8d7-e14d0172315d"},"vehicle_type_id":"4","last_reported":1750763396,"current_range_meters":16800,"station_id":"","pricing_plan_id":"cebpf4jnsgd1na2vs0mg"},{"bike_id":"9d17ba94-28b9-4307-96c9-7a19692d51f0","system_id":"levelo_inurba_marseille","lat":43.331004,"lon":5.393753,"is_reserved":false,"is_disabled":false,"rental_uris":{"android":"levelo://app?vid=9d17ba94-28b9-4307-96c9-7a19692d51f0","ios":"levelo://app?vid=9d17ba94-28b9-4307-96c9-7a19692d51f0"},"vehicle_type_id":"4","last_reported":1750763396,"current_range_meters":16800,"station_id":"","pricing_plan_id":"cebpf4jnsgd1na2vs0mg"},{"bike_id":"63a3828d-3de9-4b3d-ad35-19df5089dcfd","system_id":"levelo_inurba_marseille","lat":43.30314,"lon":5.36897,"is_reserved":false,"is_disabled":false,"rental_uris":{"android":"levelo://app?vid=63a3828d-3de9-4b3d-ad35-19df5089dcfd","ios":"levelo://app?vid=63a3828d-3de9-4b3d-ad35-19df5089dcfd"},"vehicle_type_id":"4","last_reported":1750763396,"current_range_meters":16800,"station_id":"ce4bgqh2rcd13ifvqc5g","pricing_plan_id":"cebpf4jnsgd1na2vs0mg"},{"bike_id":"d1fd1e3f-94bf-49fd-a697-fb2ea4893338","system_id":"levelo_inurba_marseille","lat":43.30797,"lon":5.38147,"is_reserved":false,"is_disabled":false,"rental_uris":{"android":"levelo://app?vid=d1fd1e3f-94bf-49fd-a697-fb2ea4893338","ios":"levelo://app?vid=d1fd1e3f-94bf-49fd-a697-fb2ea4893338"},"vehicle_type_id":"4","last_reported":1750763396,"current_range_meters":16800,"station_id":"ce4bgt12rcd13ifvqce0","pricing_plan_id":"cebpf4jnsgd1na2vs0mg"},{"bike_id":"ea253832-b8bd-4a85-850f-63d25959d942","system_id":"levelo_inurba_marseille","lat":43.266819,"lon":5.382626,"is_reserved":false,"is_disabled":false,"rental_uris":{"android":"levelo://app?vid=ea253832-b8bd-4a85-850f-63d25959d942","ios":"levelo://app?vid=ea253832-b8bd-4a85-850f-63d25959d942"},"vehicle_type_id":"4","last_reported":1750763396,"current_range_meters":16800,"station_id":"ce4bhg92rcd13ifvqf90","pricing_plan_id":"cebpf4jnsgd1na2vs0mg"},{"bike_id":"c0d21872-88bb-4af1-ad86-ea9c3a44b985","system_id":"levelo_inurba_marseille","lat":43.265259,"lon":5.395162,"is_reserved":false,"is_disabled":false,"rental_uris":{"android":"levelo://app?vid=c0d21872-88bb-4af1-ad86-ea9c3a44b985","ios":"levelo://app?vid=c0d21872-88bb-4af1-ad86-ea9c3a44b985"},"vehicle_type_id":"4","last_reported":1750763396,"current_range_meters":16800,"station_id":"ce4bhi12rcd13ifvqfq0","pricing_plan_id":"cebpf4jnsgd1na2vs0mg"},{"bike_id":"b8ce578d-7cf5-4a38-bd36-6a6897c9f454","system_id":"levelo_inurba_marseille","lat":43.29904,"lon":5.43666,"is_reserved":false,"is_disabled":false,"rental_uris":{"android":"levelo://app?vid=b8ce578d-7cf5-4a38-bd36-6a6897c9f454","ios":"levelo://app?vid=b8ce578d-7cf5-4a38-bd36-6a6897c9f454"},"vehicle_type_id":"4","last_reported":1750763396,"current_range_meters":16800,"station_id":"ce4bhpp2rcd13ifvqhfg","pricing_plan_id":"cebpf4jnsgd1na2vs0mg"},{"bike_id":"55c6f973-6ca9-4fbe-b330-6b9734dafc1e","system_id":"levelo_inurba_marseille","lat":43.33022,"lon":5.39045,"is_reserved":false,"is_disabled":false,"rental_uris":{"android":"levelo://app?vid=55c6f973-6ca9-4fbe-b330-6b9734dafc1e","ios":"levelo://app?vid=55c6f973-6ca9-4fbe-b330-6b9734dafc1e"},"vehicle_type_id":"4","last_reported":1750763396,"current_range_meters":16800,"station_id":"ce4bhr92rcd13ifvqhrg","pricing_plan_id":"cebpf4jnsgd1na2vs0mg"},{"bike_id":"f1d9ee1e-40b0-4436-9add-400906aba09e","system_id":"levelo_inurba_marseille","lat":43.32505,"lon":5.36567,"is_reserved":false,"is_disabled":false,"rental_uris":{"android":"levelo://app?vid=f1d9ee1e-40b0-4436-9add-400906aba09e","ios":"levelo://app?vid=f1d9ee1e-40b0-4436-9add-400906aba09e"},"vehicle_type_id":"4","last_reported":1750763396,"current_range_meters":16800,"station_id":"ce4bhs12rcd13ifvqhvg","pricing_plan_id":"cebpf4jnsgd1na2vs0mg"},{"bike_id":"98f6a20a-fd34-4f77-a03e-460e4ea070b7","system_id":"levelo_inurba_marseille","lat":43.32371,"lon":5.36735,"is_reserved":false,"is_disabled":false,"rental_uris":{"android":"levelo://app?vid=98f6a20a-fd34-4f77-a03e-460e4ea070b7","ios":"levelo://app?vid=98f6a20a-fd34-4f77-a03e-460e4ea070b7"},"vehicle_type_id":"4","last_reported":1750763396,"current_range_meters":16800,"station_id":"ce4bhsh2rcd13ifvqi2g","pricing_plan_id":"cebpf4jnsgd1na2vs0mg"},{"bike_id":"bb64eca6-f1c6-4168-a77d-9399664e41ab","system_id":"levelo_inurba_marseille","lat":43.278094,"lon":5.407165,"is_reserved":false,"is_disabled":false,"rental_uris":{"android":"levelo://app?vid=bb64eca6-f1c6-4168-a77d-9399664e41ab","ios":"levelo://app?vid=bb64eca6-f1c6-4168-a77d-9399664e41ab"},"vehicle_type_id":"4","last_reported":1750763396,"current_range_meters":17200,"station_id":"","pricing_plan_id":"cebpf4jnsgd1na2vs0mg"},{"bike_id":"24bec0ac-4c6c-4842-80e7-9983c2b33e58","system_id":"levelo_inurba_marseille","lat":43.211928,"lon":5.350697,"is_reserved":false,"is_disabled":false,"rental_uris":{"android":"levelo://app?vid=24bec0ac-4c6c-4842-80e7-9983c2b33e58","ios":"levelo://app?vid=24bec0ac-4c6c-4842-80e7-9983c2b33e58"},"vehicle_type_id":"4","last_reported":1750763396,"current_range_meters":17200,"station_id":"","pricing_plan_id":"cebpf4jnsgd1na2vs0mg"},{"bike_id":"7cd015d4-a64f-408d-885a-3044d1b6e974","system_id":"levelo_inurba_marseille","lat":43.23155,"lon":5.43705,"is_reserved":false,"is_disabled":false,"rental_uris":{"android":"levelo://app?vid=7cd015d4-a64f-408d-885a-3044d1b6e974","ios":"levelo://app?vid=7cd015d4-a64f-408d-885a-3044d1b6e974"},"vehicle_type_id":"4","last_reported":1750763396,"current_range_meters":17200,"station_id":"ce4bhmp2rcd13ifvqgog","pricing_plan_id":"cebpf4jnsgd1na2vs0mg"},{"bike_id":"22661bf3-ea9d-47cf-808c-84ffe3cf042e","system_id":"levelo_inurba_marseille","lat":43.22938,"lon":5.353796,"is_reserved":false,"is_disabled":false,"rental_uris":{"android":"levelo://app?vid=22661bf3-ea9d-47cf-808c-84ffe3cf042e","ios":"levelo://app?vid=22661bf3-ea9d-47cf-808c-84ffe3cf042e"},"vehicle_type_id":"4","last_reported":1750763396,"current_range_meters":17200,"station_id":"cpo3532slgdg3j2ikp40","pricing_plan_id":"cebpf4jnsgd1na2vs0mg"},{"bike_id":"26a14eba-87a9-47b8-9607-30bd0042d428","system_id":"levelo_inurba_marseille","lat":43.314447,"lon":5.394962,"is_reserved":false,"is_disabled":false,"rental_uris":{"android":"levelo://app?vid=26a14eba-87a9-47b8-9607-30bd0042d428","ios":"levelo://app?vid=26a14eba-87a9-47b8-9607-30bd0042d428"},"vehicle_type_id":"4","last_reported":1750763396,"current_range_meters":17600,"station_id":"","pricing_plan_id":"cebpf4jnsgd1na2vs0mg"},{"bike_id":"dfe1dcd7-5ca9-4034-bc31-0102149cd03c","system_id":"levelo_inurba_marseille","lat":43.3013,"lon":5.37403,"is_reserved":false,"is_disabled":false,"rental_uris":{"android":"levelo://app?vid=dfe1dcd7-5ca9-4034-bc31-0102149cd03c","ios":"levelo://app?vid=dfe1dcd7-5ca9-4034-bc31-0102149cd03c"},"vehicle_type_id":"4","last_reported":1750763396,"current_range_meters":17600,"station_id":"ce4bgs92rcd13ifvqcc0","pricing_plan_id":"cebpf4jnsgd1na2vs0mg"},{"bike_id":"999e38f5-8198-4bf9-82fb-8133953f7ad9","system_id":"levelo_inurba_marseille","lat":43.29005,"lon":5.3561,"is_reserved":false,"is_disabled":false,"rental_uris":{"android":"levelo://app?vid=999e38f5-8198-4bf9-82fb-8133953f7ad9","ios":"levelo://app?vid=999e38f5-8198-4bf9-82fb-8133953f7ad9"},"vehicle_type_id":"4","last_reported":1750763396,"current_range_meters":17600,"station_id":"ce4bhb92rcd13ifvqen0","pricing_plan_id":"cebpf4jnsgd1na2vs0mg"},{"bike_id":"e8218fd0-d111-45ad-8518-e3218de28df5","system_id":"levelo_inurba_marseille","lat":43.26682,"lon":5.38325,"is_reserved":false,"is_disabled":false,"rental_uris":{"android":"levelo://app?vid=e8218fd0-d111-45ad-8518-e3218de28df5","ios":"levelo://app?vid=e8218fd0-d111-45ad-8518-e3218de28df5"},"vehicle_type_id":"4","last_reported":1750763396,"current_range_meters":17600,"station_id":"ce4bhg92rcd13ifvqf90","pricing_plan_id":"cebpf4jnsgd1na2vs0mg"},{"bike_id":"0ed1637b-c1c3-4222-9ae3-3e571d6d6df5","system_id":"levelo_inurba_marseille","lat":43.24548,"lon":5.3952,"is_reserved":false,"is_disabled":false,"rental_uris":{"android":"levelo://app?vid=0ed1637b-c1c3-4222-9ae3-3e571d6d6df5","ios":"levelo://app?vid=0ed1637b-c1c3-4222-9ae3-3e571d6d6df5"},"vehicle_type_id":"4","last_reported":1750763396,"current_range_meters":17600,"station_id":"ce4bhlp2rcd13ifvqgjg","pricing_plan_id":"cebpf4jnsgd1na2vs0mg"},{"bike_id":"39486cc5-3a58-4e21-b1fd-7a6272ebbaec","system_id":"levelo_inurba_marseille","lat":43.23153,"lon":5.43714,"is_reserved":false,"is_disabled":false,"rental_uris":{"android":"levelo://app?vid=39486cc5-3a58-4e21-b1fd-7a6272ebbaec","ios":"levelo://app?vid=39486cc5-3a58-4e21-b1fd-7a6272ebbaec"},"vehicle_type_id":"4","last_reported":1750763396,"current_range_meters":17600,"station_id":"ce4bhmp2rcd13ifvqgog","pricing_plan_id":"cebpf4jnsgd1na2vs0mg"},{"bike_id":"97f657bd-fa9d-458f-b8a1-3646f3322584","system_id":"levelo_inurba_marseille","lat":43.24182,"lon":5.39725,"is_reserved":false,"is_disabled":false,"rental_uris":{"android":"levelo://app?vid=97f657bd-fa9d-458f-b8a1-3646f3322584","ios":"levelo://app?vid=97f657bd-fa9d-458f-b8a1-3646f3322584"},"vehicle_type_id":"4","last_reported":1750763396,"current_range_meters":17600,"station_id":"ce4bhn12rcd13ifvqgpg","pricing_plan_id":"cebpf4jnsgd1na2vs0mg"},{"bike_id":"b0179474-98d0-44ba-9c79-831da685c870","system_id":"levelo_inurba_marseille","lat":43.30566,"lon":5.36509,"is_reserved":false,"is_disabled":false,"rental_uris":{"android":"levelo://app?vid=b0179474-98d0-44ba-9c79-831da685c870","ios":"levelo://app?vid=b0179474-98d0-44ba-9c79-831da685c870"},"vehicle_type_id":"4","last_reported":1750763396,"current_range_meters":18000,"station_id":"ce4bgs12rcd13ifvqcag","pricing_plan_id":"cebpf4jnsgd1na2vs0mg"},{"bike_id":"42c80588-2de5-4175-aad1-1c05df5feb6c","system_id":"levelo_inurba_marseille","lat":43.30965,"lon":5.4016,"is_reserved":false,"is_disabled":false,"rental_uris":{"android":"levelo://app?vid=42c80588-2de5-4175-aad1-1c05df5feb6c","ios":"levelo://app?vid=42c80588-2de5-4175-aad1-1c05df5feb6c"},"vehicle_type_id":"4","last_reported":1750763396,"current_range_meters":18000,"station_id":"ce4bgvp2rcd13ifvqct0","pricing_plan_id":"cebpf4jnsgd1na2vs0mg"},{"bike_id":"1164aad6-f894-43e4-9775-681f009ded8c","system_id":"levelo_inurba_marseille","lat":43.29574,"lon":5.39971,"is_reserved":false,"is_disabled":false,"rental_uris":{"android":"levelo://app?vid=1164aad6-f894-43e4-9775-681f009ded8c","ios":"levelo://app?vid=1164aad6-f894-43e4-9775-681f009ded8c"},"vehicle_type_id":"4","last_reported":1750763396,"current_range_meters":18000,"station_id":"ce4bh312rcd13ifvqdj0","pricing_plan_id":"cebpf4jnsgd1na2vs0mg"},{"bike_id":"75aa936d-986d-4d3a-80a3-6c9540b11ac8","system_id":"levelo_inurba_marseille","lat":43.28491,"lon":5.38413,"is_reserved":false,"is_disabled":false,"rental_uris":{"android":"levelo://app?vid=75aa936d-986d-4d3a-80a3-6c9540b11ac8","ios":"levelo://app?vid=75aa936d-986d-4d3a-80a3-6c9540b11ac8"},"vehicle_type_id":"4","last_reported":1750763396,"current_range_meters":18000,"station_id":"ce4bh512rcd13ifvqe3g","pricing_plan_id":"cebpf4jnsgd1na2vs0mg"},{"bike_id":"a3955e86-a7c1-4245-97cb-0c53309e4447","system_id":"levelo_inurba_marseille","lat":43.23181,"lon":5.39988,"is_reserved":false,"is_disabled":false,"rental_uris":{"android":"levelo://app?vid=a3955e86-a7c1-4245-97cb-0c53309e4447","ios":"levelo://app?vid=a3955e86-a7c1-4245-97cb-0c53309e4447"},"vehicle_type_id":"4","last_reported":1750763396,"current_range_meters":18000,"station_id":"ce4bhn12rcd13ifvqgqg","pricing_plan_id":"cebpf4jnsgd1na2vs0mg"},{"bike_id":"602ab407-a79a-4fc2-8a9b-df3168b09d43","system_id":"levelo_inurba_marseille","lat":43.323621,"lon":5.367466,"is_reserved":false,"is_disabled":false,"rental_uris":{"android":"levelo://app?vid=602ab407-a79a-4fc2-8a9b-df3168b09d43","ios":"levelo://app?vid=602ab407-a79a-4fc2-8a9b-df3168b09d43"},"vehicle_type_id":"4","last_reported":1750763396,"current_range_meters":18000,"station_id":"ce4bhsh2rcd13ifvqi2g","pricing_plan_id":"cebpf4jnsgd1na2vs0mg"},{"bike_id":"e3cbe31d-3f2f-4c4c-a959-3bdba55d2dad","system_id":"levelo_inurba_marseille","lat":43.22924,"lon":5.35392,"is_reserved":false,"is_disabled":false,"rental_uris":{"android":"levelo://app?vid=e3cbe31d-3f2f-4c4c-a959-3bdba55d2dad","ios":"levelo://app?vid=e3cbe31d-3f2f-4c4c-a959-3bdba55d2dad"},"vehicle_type_id":"4","last_reported":1750763396,"current_range_meters":18000,"station_id":"cpo3532slgdg3j2ikp40","pricing_plan_id":"cebpf4jnsgd1na2vs0mg"},{"bike_id":"6d66f760-917a-49b1-b200-d585832e6166","system_id":"levelo_inurba_marseille","lat":43.229232,"lon":5.353763,"is_reserved":false,"is_disabled":false,"rental_uris":{"android":"levelo://app?vid=6d66f760-917a-49b1-b200-d585832e6166","ios":"levelo://app?vid=6d66f760-917a-49b1-b200-d585832e6166"},"vehicle_type_id":"4","last_reported":1750763396,"current_range_meters":18000,"station_id":"cpo3532slgdg3j2ikp40","pricing_plan_id":"cebpf4jnsgd1na2vs0mg"},{"bike_id":"ec1bbb20-efbe-404b-8beb-e922e0200c0c","system_id":"levelo_inurba_marseille","lat":43.29947,"lon":5.37024,"is_reserved":false,"is_disabled":false,"rental_uris":{"android":"levelo://app?vid=ec1bbb20-efbe-404b-8beb-e922e0200c0c","ios":"levelo://app?vid=ec1bbb20-efbe-404b-8beb-e922e0200c0c"},"vehicle_type_id":"4","last_reported":1750763396,"current_range_meters":18800,"station_id":"","pricing_plan_id":"cebpf4jnsgd1na2vs0mg"},{"bike_id":"a28f78eb-e5da-4726-b3c0-3f33f8ee965e","system_id":"levelo_inurba_marseille","lat":43.29732,"lon":5.377,"is_reserved":false,"is_disabled":false,"rental_uris":{"android":"levelo://app?vid=a28f78eb-e5da-4726-b3c0-3f33f8ee965e","ios":"levelo://app?vid=a28f78eb-e5da-4726-b3c0-3f33f8ee965e"},"vehicle_type_id":"4","last_reported":1750763396,"current_range_meters":18800,"station_id":"ce4bgkh2rcd13ifvqbl0","pricing_plan_id":"cebpf4jnsgd1na2vs0mg"},{"bike_id":"a5f1ed7e-2f7a-4af2-bd09-f1e3e78aa2aa","system_id":"levelo_inurba_marseille","lat":43.28069,"lon":5.37868,"is_reserved":false,"is_disabled":false,"rental_uris":{"android":"levelo://app?vid=a5f1ed7e-2f7a-4af2-bd09-f1e3e78aa2aa","ios":"levelo://app?vid=a5f1ed7e-2f7a-4af2-bd09-f1e3e78aa2aa"},"vehicle_type_id":"4","last_reported":1750763396,"current_range_meters":18800,"station_id":"ce4bha12rcd13ifvqee0","pricing_plan_id":"cebpf4jnsgd1na2vs0mg"},{"bike_id":"78e9dd26-915c-48ae-936d-219551dd3a1f","system_id":"levelo_inurba_marseille","lat":43.24186,"lon":5.39736,"is_reserved":false,"is_disabled":false,"rental_uris":{"android":"levelo://app?vid=78e9dd26-915c-48ae-936d-219551dd3a1f","ios":"levelo://app?vid=78e9dd26-915c-48ae-936d-219551dd3a1f"},"vehicle_type_id":"4","last_reported":1750763396,"current_range_meters":18800,"station_id":"ce4bhn12rcd13ifvqgpg","pricing_plan_id":"cebpf4jnsgd1na2vs0mg"},{"bike_id":"07dc2d24-8da0-4095-879f-c8dcc1e1324d","system_id":"levelo_inurba_marseille","lat":43.2418,"lon":5.39731,"is_reserved":false,"is_disabled":false,"rental_uris":{"android":"levelo://app?vid=07dc2d24-8da0-4095-879f-c8dcc1e1324d","ios":"levelo://app?vid=07dc2d24-8da0-4095-879f-c8dcc1e1324d"},"vehicle_type_id":"4","last_reported":1750763396,"current_range_meters":18800,"station_id":"ce4bhn12rcd13ifvqgpg","pricing_plan_id":"cebpf4jnsgd1na2vs0mg"},{"bike_id":"34190119-582d-43b4-bcc2-94567cb40b1f","system_id":"levelo_inurba_marseille","lat":43.32537,"lon":5.41434,"is_reserved":false,"is_disabled":false,"rental_uris":{"android":"levelo://app?vid=34190119-582d-43b4-bcc2-94567cb40b1f","ios":"levelo://app?vid=34190119-582d-43b4-bcc2-94567cb40b1f"},"vehicle_type_id":"4","last_reported":1750763396,"current_range_meters":18800,"station_id":"ce4bhq12rcd13ifvqhhg","pricing_plan_id":"cebpf4jnsgd1na2vs0mg"},{"bike_id":"3b951d47-daef-4f47-9b11-1cb55583c0cc","system_id":"levelo_inurba_marseille","lat":43.21183,"lon":5.35076,"is_reserved":false,"is_disabled":false,"rental_uris":{"android":"levelo://app?vid=3b951d47-daef-4f47-9b11-1cb55583c0cc","ios":"levelo://app?vid=3b951d47-daef-4f47-9b11-1cb55583c0cc"},"vehicle_type_id":"4","last_reported":1750763396,"current_range_meters":18800,"station_id":"st_cvj6sg6p6f1abm77japg","pricing_plan_id":"cebpf4jnsgd1na2vs0mg"},{"bike_id":"f4da8180-e66c-40be-b0dd-e95207ece69b","system_id":"levelo_inurba_marseille","lat":43.33762,"lon":5.37424,"is_reserved":false,"is_disabled":false,"rental_uris":{"android":"levelo://app?vid=f4da8180-e66c-40be-b0dd-e95207ece69b","ios":"levelo://app?vid=f4da8180-e66c-40be-b0dd-e95207ece69b"},"vehicle_type_id":"4","last_reported":1750763396,"current_range_meters":19200,"station_id":"","pricing_plan_id":"cebpf4jnsgd1na2vs0mg"},{"bike_id":"1596a95d-0cf4-4c1a-911e-752af0a473bb","system_id":"levelo_inurba_marseille","lat":43.30551,"lon":5.36532,"is_reserved":false,"is_disabled":false,"rental_uris":{"android":"levelo://app?vid=1596a95d-0cf4-4c1a-911e-752af0a473bb","ios":"levelo://app?vid=1596a95d-0cf4-4c1a-911e-752af0a473bb"},"vehicle_type_id":"4","last_reported":1750763396,"current_range_meters":19200,"station_id":"ce4bgs12rcd13ifvqcag","pricing_plan_id":"cebpf4jnsgd1na2vs0mg"},{"bike_id":"8fc36912-d7a7-4c5e-bf3c-ae03694d6ba3","system_id":"levelo_inurba_marseille","lat":43.21192,"lon":5.35076,"is_reserved":false,"is_disabled":false,"rental_uris":{"android":"levelo://app?vid=8fc36912-d7a7-4c5e-bf3c-ae03694d6ba3","ios":"levelo://app?vid=8fc36912-d7a7-4c5e-bf3c-ae03694d6ba3"},"vehicle_type_id":"4","last_reported":1750763396,"current_range_meters":19200,"station_id":"st_cvj6sg6p6f1abm77japg","pricing_plan_id":"cebpf4jnsgd1na2vs0mg"},