{"last_updated":1727564841,"ttl":60,"version":"2.2","data":{"bikes":[{"bike_id":"e003e6d5-3a4f-4fa6-b67b-c95797b7f8ee","system_id":"levelo_inurba_marseille","lat":43.29005,"lon":5.35616,"is_reserved":false,"is_disabled":false,"rental_uris":{"android":"levelo://app?vid=e003e6d5-3a4f-4fa6-b67b-c95797b7f8ee","ios":"levelo://app?vid=e003e6d5-3a4f-4fa6-b67b-c95797b7f8ee"},"vehicle_type_id":"4","last_reported":1727564842,"current_range_meters":22800,"station_id":"ce4bhb92rcd13ifvqen0","pricing_plan_id":"cebpf4jnsgd1na2vs0mg"},{"bike_id":"6103b553-d24f-40fb-9867-6ef9176545d9","system_id":"levelo_inurba_marseille","lat":43.27912,"lon":5.3958,"is_reserved":false,"is_disabled":false,"rental_uris":{"android":"levelo://app?vid=6103b553-d24f-40fb-9867-6ef9176545d9","ios":"levelo://app?vid=6103b553-d24f-40fb-9867-6ef9176545d9"},"vehicle_type_id":"4","last_reported":1727564842,"current_range_meters":38800,"station_id":"ce4bhf92rcd13ifvqf40","pricing_plan_id":"cebpf4jnsgd1na2vs0mg"},{"bike_id":"1f67e8a5-7545-4f70-9a7b-0b7f6b5a2813","system_id":"levelo_inurba_marseille","lat":43.28359,"lon":5.38634,"is_reserved":false,"is_disabled":false,"rental_uris":{"android":"levelo://app?vid=1f67e8a5-7545-4f70-9a7b-0b7f6b5a2813","ios":"levelo://app?vid=1f67e8a5-7545-4f70-9a7b-0b7f6b5a2813"},"vehicle_type_id":"4","last_reported":1727564842,"current_range_meters":16400,"station_id":"ce4bh492rcd13ifvqdvg","pricing_plan_id":"cebpf4jnsgd1na2vs0mg"},{"bike_id":"409f8e56-7b05-4fc8-983d-fadc6468525f","system_id":"levelo_inurba_marseille","lat":43.28439,"lon":5.39187,"is_reserved":false,"is_disabled":false,"rental_uris":{"android":"levelo://app?vid=409f8e56-7b05-4fc8-983d-fadc6468525f","ios":"levelo://app?vid=409f8e56-7b05-4fc8-983d-fadc6468525f"},"vehicle_type_id":"4","last_reported":1727564842,"current_range_meters":38800,"station_id":"ce4bhoh2rcd13ifvqh5g","pricing_plan_id":"cebpf4jnsgd1na2vs0mg"},{"bike_id":"d3c2fe0e-3f4e-4303-ae23-7f25f368fade","system_id":"levelo_inurba_marseille","lat":43.323685,"lon":5.388828,"is_reserved":false,"is_disabled":false,"rental_uris":{"android":"levelo://app?vid=d3c2fe0e-3f4e-4303-ae23-7f25f368fade","ios":"levelo://app?vid=d3c2fe0e-3f4e-4303-ae23-7f25f368fade"},"vehicle_type_id":"4","last_reported":1727564842,"current_range_meters":9200,"station_id":"ce4bhqp2rcd13ifvqhog","pricing_plan_id":"cebpf4jnsgd1na2vs0mg"},{"bike_id":"acf0da7d-e6b3-48a2-8905-5de8bc3b795a","system_id":"levelo_inurba_marseille","lat":43.31981,"lon":5.3814,"is_reserved":false,"is_disabled":false,"rental_uris":{"android":"levelo://app?vid=acf0da7d-e6b3-48a2-8905-5de8bc3b795a","ios":"levelo://app?vid=acf0da7d-e6b3-48a2-8905-5de8bc3b795a"},"vehicle_type_id":"4","last_reported":1727564842,"current_range_meters":11200,"station_id":"ce4bhr12rcd13ifvqhpg","pricing_plan_id":"cebpf4jnsgd1na2vs0mg"},{"bike_id":"0ea9e4c4-cc08-41d9-862d-a80f7d54740c","system_id":"levelo_inurba_marseille","lat":43.32286,"lon":5.38267,"is_reserved":false,"is_disabled":false,"rental_uris":{"android":"levelo://app?vid=0ea9e4c4-cc08-41d9-862d-a80f7d54740c","ios":"levelo://app?vid=0ea9e4c4-cc08-41d9-862d-a80f7d54740c"},"vehicle_type_id":"4","last_reported":1727564842,"current_range_meters":38000,"station_id":"ce4bhr12rcd13ifvqhqg","pricing_plan_id":"cebpf4jnsgd1na2vs0mg"},{"bike_id":"528c0120-9852-4405-bd39-4004c1135faf","system_id":"levelo_inurba_marseille","lat":43.29026,"lon":5.38117,"is_reserved":false,"is_disabled":false,"rental_uris":{"android":"levelo://app?vid=528c0120-9852-4405-bd39-4004c1135faf","ios":"levelo://app?vid=528c0120-9852-4405-bd39-4004c1135faf"},"vehicle_type_id":"4","last_reported":1727564842,"current_range_meters":12800,"station_id":"ce4bh2p2rcd13ifvqdi0","pricing_plan_id":"cebpf4jnsgd1na2vs0mg"},{"bike_id":"a7f78ba6-f302-4191-9898-adba7098a8f9","system_id":"levelo_inurba_marseille","lat":43.25001,"lon":5.38932,"is_reserved":false,"is_disabled":false,"rental_uris":{"android":"levelo://app?vid=a7f78ba6-f302-4191-9898-adba7098a8f9","ios":"levelo://app?vid=a7f78ba6-f302-4191-9898-adba7098a8f9"},"vehicle_type_id":"4","last_reported":1727564842,"current_range_meters":16000,"station_id":"ce4bhgp2rcd13ifvqfd0","pricing_plan_id":"cebpf4jnsgd1na2vs0mg"},{"bike_id":"92adb31e-8802-4aeb-86d0-52c5384d66db","system_id":"levelo_inurba_marseille","lat":43.2922,"lon":5.36079,"is_reserved":false,"is_disabled":false,"rental_uris":{"android":"levelo://app?vid=92adb31e-8802-4aeb-86d0-52c5384d66db","ios":"levelo://app?vid=92adb31e-8802-4aeb-86d0-52c5384d66db"},"vehicle_type_id":"4","last_reported":1727564842,"current_range_meters":10000,"station_id":"ce4bhbh2rcd13ifvqeqg","pricing_plan_id":"cebpf4jnsgd1na2vs0mg"},{"bike_id":"c5eb358b-f080-4e35-95a4-7d9c3590c335","system_id":"levelo_inurba_marseille","lat":43.24809,"lon":5.37461,"is_reserved":false,"is_disabled":false,"rental_uris":{"android":"levelo://app?vid=c5eb358b-f080-4e35-95a4-7d9c3590c335","ios":"levelo://app?vid=c5eb358b-f080-4e35-95a4-7d9c3590c335"},"vehicle_type_id":"4","last_reported":1727564842,"current_range_meters":38800,"station_id":"ce4bhgh2rcd13ifvqfb0","pricing_plan_id":"cebpf4jnsgd1na2vs0mg"},{"bike_id":"e8f339a7-5e65-4275-8576-718fc09f5e43","system_id":"levelo_inurba_marseille","lat":43.27611,"lon":5.36109,"is_reserved":false,"is_disabled":false,"rental_uris":{"android":"levelo://app?vid=e8f339a7-5e65-4275-8576-718fc09f5e43","ios":"levelo://app?vid=e8f339a7-5e65-4275-8576-718fc09f5e43"},"vehicle_type_id":"4","last_reported":1727564842,"current_range_meters":38800,"station_id":"ce4bgj92rcd13ifvqbe0","pricing_plan_id":"cebpf4jnsgd1na2vs0mg"},{"bike_id":"9584273c-3ac5-449a-9b2e-eb0039421ee5","system_id":"levelo_inurba_marseille","lat":43.29504,"lon":5.386759,"is_reserved":false,"is_disabled":false,"rental_uris":{"android":"levelo://app?vid=9584273c-3ac5-449a-9b2e-eb0039421ee5","ios":"levelo://app?vid=9584273c-3ac5-449a-9b2e-eb0039421ee5"},"vehicle_type_id":"4","last_reported":1727564842,"current_range_meters":34000,"station_id":"ce4bgih2rcd13ifvqba0","pricing_plan_id":"cebpf4jnsgd1na2vs0mg"},{"bike_id":"9ae9a0e9-1fff-4bed-b39c-08cfa9601a74","system_id":"levelo_inurba_marseille","lat":43.33602,"lon":5.41027,"is_reserved":false,"is_disabled":false,"rental_uris":{"android":"levelo://app?vid=9ae9a0e9-1fff-4bed-b39c-08cfa9601a74","ios":"levelo://app?vid=9ae9a0e9-1fff-4bed-b39c-08cfa9601a74"},"vehicle_type_id":"4","last_reported":1727564842,"current_range_meters":38800,"station_id":"ce4bhqh2rcd13ifvqhmg","pricing_plan_id":"cebpf4jnsgd1na2vs0mg"},{"bike_id":"9b5f5642-2491-4749-8ae4-e6530ea426af","system_id":"levelo_inurba_marseille","lat":43.24392,"lon":5.37062,"is_reserved":false,"is_disabled":false,"rental_uris":{"android":"levelo://app?vid=9b5f5642-2491-4749-8ae4-e6530ea426af","ios":"levelo://app?vid=9b5f5642-2491-4749-8ae4-e6530ea426af"},"vehicle_type_id":"4","last_reported":1727564842,"current_range_meters":37600,"station_id":"ce4bhhh2rcd13ifvqfk0","pricing_plan_id":"cebpf4jnsgd1na2vs0mg"},{"bike_id":"e673b20f-f89b-49a7-a8fd-a8caf9fb8574","system_id":"levelo_inurba_marseille","lat":43.31168,"lon":5.38709,"is_reserved":false,"is_disabled":false,"rental_uris":{"android":"levelo://app?vid=e673b20f-f89b-49a7-a8fd-a8caf9fb8574","ios":"levelo://app?vid=e673b20f-f89b-49a7-a8fd-a8caf9fb8574"},"vehicle_type_id":"4","last_reported":1727564842,"current_range_meters":38800,"station_id":"ce4bgv12rcd13ifvqcp0","pricing_plan_id":"cebpf4jnsgd1na2vs0mg"},{"bike_id":"9a47dcb1-61bb-411f-affb-55731480b4cc","system_id":"levelo_inurba_marseille","lat":43.23957,"lon":5.36621,"is_reserved":false,"is_disabled":false,"rental_uris":{"android":"levelo://app?vid=9a47dcb1-61bb-411f-affb-55731480b4cc","ios":"levelo://app?vid=9a47dcb1-61bb-411f-affb-55731480b4cc"},"vehicle_type_id":"4","last_reported":1727564842,"current_range_meters":38800,"station_id":"ce4bhi12rcd13ifvqfp0","pricing_plan_id":"cebpf4jnsgd1na2vs0mg"},{"bike_id":"6cdee923-02d8-4021-aff6-867175765a25","system_id":"levelo_inurba_marseille","lat":43.29007,"lon":5.35609,"is_reserved":false,"is_disabled":false,"rental_uris":{"android":"levelo://app?vid=6cdee923-02d8-4021-aff6-867175765a25","ios":"levelo://app?vid=6cdee923-02d8-4021-aff6-867175765a25"},"vehicle_type_id":"4","last_reported":1727564842,"current_range_meters":16000,"station_id":"ce4bhb92rcd13ifvqen0","pricing_plan_id":"cebpf4jnsgd1na2vs0mg"},{"bike_id":"ce8ca95c-b354-4b63-bfce-c9bd4a749e1e","system_id":"levelo_inurba_marseille","lat":43.30088,"lon":5.39082,"is_reserved":false,"is_disabled":false,"rental_uris":{"android":"levelo://app?vid=ce8ca95c-b354-4b63-bfce-c9bd4a749e1e","ios":"levelo://app?vid=ce8ca95c-b354-4b63-bfce-c9bd4a749e1e"},"vehicle_type_id":"4","last_reported":1727564842,"current_range_meters":8400,"station_id":"ce4bh192rcd13ifvqdb0","pricing_plan_id":"cebpf4jnsgd1na2vs0mg"},{"bike_id":"1e61a978-5a06-437a-8ade-7189be79c0db","system_id":"levelo_inurba_marseille","lat":43.2904,"lon":5.39945,"is_reserved":false,"is_disabled":false,"rental_uris":{"android":"levelo://app?vid=1e61a978-5a06-437a-8ade-7189be79c0db","ios":"levelo://app?vid=1e61a978-5a06-437a-8ade-7189be79c0db"},"vehicle_type_id":"4","last_reported":1727564842,"current_range_meters":21600,"station_id":"ce4bh392rcd13ifvqdm0","pricing_plan_id":"cebpf4jnsgd1na2vs0mg"},{"bike_id":"b8efdd5a-75f0-4643-b91f-c259e801562a","system_id":"levelo_inurba_marseille","lat":43.28349,"lon":5.38116,"is_reserved":false,"is_disabled":false,"rental_uris":{"android":"levelo://app?vid=b8efdd5a-75f0-4643-b91f-c259e801562a","ios":"levelo://app?vid=b8efdd5a-75f0-4643-b91f-c259e801562a"},"vehicle_type_id":"4","last_reported":1727564842,"current_range_meters":33600,"station_id":"ce4bh412rcd13ifvqdr0","pricing_plan_id":"cebpf4jnsgd1na2vs0mg"},{"bike_id":"737fadf7-7b87-481f-b8ab-a7b67cb77008","system_id":"levelo_inurba_marseille","lat":43.31067,"lon":5.38342,"is_reserved":false,"is_disabled":false,"rental_uris":{"android":"levelo://app?vid=737fadf7-7b87-481f-b8ab-a7b67cb77008","ios":"levelo://app?vid=737fadf7-7b87-481f-b8ab-a7b67cb77008"},"vehicle_type_id":"4","last_reported":1727564842,"current_range_meters":32000,"station_id":"ce4bgv92rcd13ifvqcr0","pricing_plan_id":"cebpf4jnsgd1na2vs0mg"},{"bike_id":"efb21e2e-5c82-417c-ab4e-ff8afd90868f","system_id":"levelo_inurba_marseille","lat":43.30797,"lon":5.43525,"is_reserved":false,"is_disabled":false,"rental_uris":{"android":"levelo://app?vid=efb21e2e-5c82-417c-ab4e-ff8afd90868f","ios":"levelo://app?vid=efb21e2e-5c82-417c-ab4e-ff8afd90868f"},"vehicle_type_id":"4","last_reported":1727564842,"current_range_meters":27600,"station_id":"ce4bhph2rcd13ifvqheg","pricing_plan_id":"cebpf4jnsgd1na2vs0mg"},{"bike_id":"a6563da1-c61b-46a8-896c-26658203a445","system_id":"levelo_inurba_marseille","lat":43.31165,"lon":5.38706,"is_reserved":false,"is_disabled":false,"rental_uris":{"android":"levelo://app?vid=a6563da1-c61b-46a8-896c-26658203a445","ios":"levelo://app?vid=a6563da1-c61b-46a8-896c-26658203a445"},"vehicle_type_id":"4","last_reported":1727564842,"current_range_meters":38800,"station_id":"ce4bgv12rcd13ifvqcp0","pricing_plan_id":"cebpf4jnsgd1na2vs0mg"},{"bike_id":"ad64f61c-6b7d-4e3b-a443-71c0a89e05ec","system_id":"levelo_inurba_marseille","lat":43.31367,"lon":5.38496,"is_reserved":false,"is_disabled":false,"rental_uris":{"android":"levelo://app?vid=ad64f61c-6b7d-4e3b-a443-71c0a89e05ec","ios":"levelo://app?vid=ad64f61c-6b7d-4e3b-a443-71c0a89e05ec"},"vehicle_type_id":"4","last_reported":1727564842,"current_range_meters":38800,"station_id":"ce4bgt92rcd13ifvqcf0","pricing_plan_id":"cebpf4jnsgd1na2vs0mg"},{"bike_id":"3cc28fbd-fe38-4f4f-bca8-5d016d46f403","system_id":"levelo_inurba_marseille","lat":43.27667,"lon":5.38889,"is_reserved":false,"is_disabled":false,"rental_uris":{"android":"levelo://app?vid=3cc28fbd-fe38-4f4f-bca8-5d016d46f403","ios":"levelo://app?vid=3cc28fbd-fe38-4f4f-bca8-5d016d46f403"},"vehicle_type_id":"4","last_reported":1727564842,"current_range_meters":37600,"station_id":"","pricing_plan_id":"cebpf4jnsgd1na2vs0mg"},{"bike_id":"65b9b958-16f1-411c-a2c7-3c2353d4d07c","system_id":"levelo_inurba_marseille","lat":43.31753,"lon":5.39006,"is_reserved":false,"is_disabled":false,"rental_uris":{"android":"levelo://app?vid=65b9b958-16f1-411c-a2c7-3c2353d4d07c","ios":"levelo://app?vid=65b9b958-16f1-411c-a2c7-3c2353d4d07c"},"vehicle_type_id":"4","last_reported":1727564842,"current_range_meters":20400,"station_id":"ce4bhqp2rcd13ifvqhng","pricing_plan_id":"cebpf4jnsgd1na2vs0mg"},{"bike_id":"1318bdc3-2821-40e3-a091-8f42f09db68d","system_id":"levelo_inurba_marseille","lat":43.23962,"lon":5.36637,"is_reserved":false,"is_disabled":false,"rental_uris":{"android":"levelo://app?vid=1318bdc3-2821-40e3-a091-8f42f09db68d","ios":"levelo://app?vid=1318bdc3-2821-40e3-a091-8f42f09db68d"},"vehicle_type_id":"4","last_reported":1727564842,"current_range_meters":39200,"station_id":"ce4bhi12rcd13ifvqfp0","pricing_plan_id":"cebpf4jnsgd1na2vs0mg"},{"bike_id":"a5564a9a-3d9e-405c-b3bf-4c7bb6eae734","system_id":"levelo_inurba_marseille","lat":43.2861,"lon":5.37063,"is_reserved":false,"is_disabled":false,"rental_uris":{"android":"levelo://app?vid=a5564a9a-3d9e-405c-b3bf-4c7bb6eae734","ios":"levelo://app?vid=a5564a9a-3d9e-405c-b3bf-4c7bb6eae734"},"vehicle_type_id":"4","last_reported":1727564842,"current_range_meters":38800,"station_id":"ce4bht12rcd13ifvqi60","pricing_plan_id":"cebpf4jnsgd1na2vs0mg"},{"bike_id":"068708ae-427f-4495-a710-061be8d8cd5c","system_id":"levelo_inurba_marseille","lat":43.28702,"lon":5.39976,"is_reserved":false,"is_disabled":false,"rental_uris":{"android":"levelo://app?vid=068708ae-427f-4495-a710-061be8d8cd5c","ios":"levelo://app?vid=068708ae-427f-4495-a710-061be8d8cd5c"},"vehicle_type_id":"4","last_reported":1727564842,"current_range_meters":20400,"station_id":"ce4bho92rcd13ifvqh3g","pricing_plan_id":"cebpf4jnsgd1na2vs0mg"},{"bike_id":"0521cc37-3a0f-4bc8-964a-96f026706e98","system_id":"levelo_inurba_marseille","lat":43.28018,"lon":5.36085,"is_reserved":false,"is_disabled":false,"rental_uris":{"android":"levelo://app?vid=0521cc37-3a0f-4bc8-964a-96f026706e98","ios":"levelo://app?vid=0521cc37-3a0f-4bc8-964a-96f026706e98"},"vehicle_type_id":"4","last_reported":1727564842,"current_range_meters":26000,"station_id":"","pricing_plan_id":"cebpf4jnsgd1na2vs0mg"},{"bike_id":"22b463e1-22d7-402e-91d5-802bf742d7f7","system_id":"levelo_inurba_marseille","lat":43.29539,"lon":5.42276,"is_reserved":false,"is_disabled":false,"rental_uris":{"android":"levelo://app?vid=22b463e1-22d7-402e-91d5-802bf742d7f7","ios":"levelo://app?vid=22b463e1-22d7-402e-91d5-802bf742d7f7"},"vehicle_type_id":"4","last_reported":1727564842,"current_range_meters":22400,"station_id":"ce4bhph2rcd13ifvqhdg","pricing_plan_id":"cebpf4jnsgd1na2vs0mg"},{"bike_id":"c529090c-5370-45e9-ba3f-f55585b5289b","system_id":"levelo_inurba_marseille","lat":43.25004,"lon":5.38933,"is_reserved":false,"is_disabled":false,"rental_uris":{"android":"levelo://app?vid=c529090c-5370-45e9-ba3f-f55585b5289b","ios":"levelo://app?vid=c529090c-5370-45e9-ba3f-f55585b5289b"},"vehicle_type_id":"4","last_reported":1727564842,"current_range_meters":30000,"station_id":"ce4bhgp2rcd13ifvqfd0","pricing_plan_id":"cebpf4jnsgd1na2vs0mg"},{"bike_id":"9a8b994e-668e-42de-9343-e3b421a19453","system_id":"levelo_inurba_marseille","lat":43.29976,"lon":5.37174,"is_reserved":false,"is_disabled":false,"rental_uris":{"android":"levelo://app?vid=9a8b994e-668e-42de-9343-e3b421a19453","ios":"levelo://app?vid=9a8b994e-668e-42de-9343-e3b421a19453"},"vehicle_type_id":"4","last_reported":1727564842,"current_range_meters":37600,"station_id":"ce4bgr92rcd13ifvqc7g","pricing_plan_id":"cebpf4jnsgd1na2vs0mg"},{"bike_id":"784443d8-15b4-46d7-b31f-5703c5b64e23","system_id":"levelo_inurba_marseille","lat":43.27375,"lon":5.36261,"is_reserved":false,"is_disabled":false,"rental_uris":{"android":"levelo://app?vid=784443d8-15b4-46d7-b31f-5703c5b64e23","ios":"levelo://app?vid=784443d8-15b4-46d7-b31f-5703c5b64e23"},"vehicle_type_id":"4","last_reported":1727564842,"current_range_meters":38800,"station_id":"ce4bhbh2rcd13ifvqeo0","pricing_plan_id":"cebpf4jnsgd1na2vs0mg"},{"bike_id":"8bbfb954-7ff3-43dc-ab19-55e66ad5a1ff","system_id":"levelo_inurba_marseille","lat":43.27373,"lon":5.36259,"is_reserved":false,"is_disabled":false,"rental_uris":{"android":"levelo://app?vid=8bbfb954-7ff3-43dc-ab19-55e66ad5a1ff","ios":"levelo://app?vid=8bbfb954-7ff3-43dc-ab19-55e66ad5a1ff"},"vehicle_type_id":"4","last_reported":1727564842,"current_range_meters":38800,"station_id":"ce4bhbh2rcd13ifvqeo0","pricing_plan_id":"cebpf4jnsgd1na2vs0mg"},{"bike_id":"c43bfb47-f661-42db-9c96-07abfa6154d1","system_id":"levelo_inurba_marseille","lat":43.287,"lon":5.39979,"is_reserved":false,"is_disabled":false,"rental_uris":{"android":"levelo://app?vid=c43bfb47-f661-42db-9c96-07abfa6154d1","ios":"levelo://app?vid=c43bfb47-f661-42db-9c96-07abfa6154d1"},"vehicle_type_id":"4","last_reported":1727564842,"current_range_meters":14000,"station_id":"ce4bho92rcd13ifvqh3g","pricing_plan_id":"cebpf4jnsgd1na2vs0mg"},{"bike_id":"1ce7c25b-6bd2-4b64-b4ae-543ea784fc5d","system_id":"levelo_inurba_marseille","lat":43.337444,"lon":5.374475,"is_reserved":false,"is_disabled":false,"rental_uris":{"android":"levelo://app?vid=1ce7c25b-6bd2-4b64-b4ae-543ea784fc5d","ios":"levelo://app?vid=1ce7c25b-6bd2-4b64-b4ae-543ea784fc5d"},"vehicle_type_id":"4","last_reported":1727564842,"current_range_meters":35200,"station_id":"","pricing_plan_id":"cebpf4jnsgd1na2vs0mg"},{"bike_id":"a1c3dd20-86c0-4dad-a795-b2047bec3f5b","system_id":"levelo_inurba_marseille","lat":43.31761,"lon":5.39016,"is_reserved":false,"is_disabled":false,"rental_uris":{"android":"levelo://app?vid=a1c3dd20-86c0-4dad-a795-b2047bec3f5b","ios":"levelo://app?vid=a1c3dd20-86c0-4dad-a795-b2047bec3f5b"},"vehicle_type_id":"4","last_reported":1727564842,"current_range_meters":38000,"station_id":"ce4bhqp2rcd13ifvqhng","pricing_plan_id":"cebpf4jnsgd1na2vs0mg"},{"bike_id":"35a6ca74-a0b6-4f73-bcf2-e86397ec7a04","system_id":"levelo_inurba_marseille","lat":43.24811,"lon":5.37466,"is_reserved":false,"is_disabled":false,"rental_uris":{"android":"levelo://app?vid=35a6ca74-a0b6-4f73-bcf2-e86397ec7a04","ios":"levelo://app?vid=35a6ca74-a0b6-4f73-bcf2-e86397ec7a04"},"vehicle_type_id":"4","last_reported":1727564842,"current_range_meters":4800,"station_id":"ce4bhgh2rcd13ifvqfb0","pricing_plan_id":"cebpf4jnsgd1na2vs0mg"},{"bike_id":"576a472c-bcf1-46a8-a7a6-1fe185026e3d","system_id":"levelo_inurba_marseille","lat":43.29793,"lon":5.39339,"is_reserved":false,"is_disabled":false,"rental_uris":{"android":"levelo://app?vid=576a472c-bcf1-46a8-a7a6-1fe185026e3d","ios":"levelo://app?vid=576a472c-bcf1-46a8-a7a6-1fe185026e3d"},"vehicle_type_id":"4","last_reported":1727564842,"current_range_meters":17600,"station_id":"chh1huq6cuj3fo74tm60","pricing_plan_id":"cebpf4jnsgd1na2vs0mg"},{"bike_id":"0c6a3edd-0259-43fd-a8d1-3d4bb6023605","system_id":"levelo_inurba_marseille","lat":43.24388,"lon":5.37051,"is_reserved":false,"is_disabled":false,"rental_uris":{"android":"levelo://app?vid=0c6a3edd-0259-43fd-a8d1-3d4bb6023605","ios":"levelo://app?vid=0c6a3edd-0259-43fd-a8d1-3d4bb6023605"},"vehicle_type_id":"4","last_reported":1727564842,"current_range_meters":39200,"station_id":"ce4bhhh2rcd13ifvqfk0","pricing_plan_id":"cebpf4jnsgd1na2vs0mg"},{"bike_id":"3c47f3c1-33e3-43ba-bf44-c2c58fdf3a91","system_id":"levelo_inurba_marseille","lat":43.29516,"lon":5.39405,"is_reserved":false,"is_disabled":false,"rental_uris":{"android":"levelo://app?vid=3c47f3c1-33e3-43ba-bf44-c2c58fdf3a91","ios":"levelo://app?vid=3c47f3c1-33e3-43ba-bf44-c2c58fdf3a91"},"vehicle_type_id":"4","last_reported":1727564842,"current_range_meters":8000,"station_id":"ce4bh292rcd13ifvqdf0","pricing_plan_id":"cebpf4jnsgd1na2vs0mg"},{"bike_id":"08c36d1e-77a7-4de5-beb1-abd12dc73382","system_id":"levelo_inurba_marseille","lat":43.248105,"lon":5.37459,"is_reserved":false,"is_disabled":false,"rental_uris":{"android":"levelo://app?vid=08c36d1e-77a7-4de5-beb1-abd12dc73382","ios":"levelo://app?vid=08c36d1e-77a7-4de5-beb1-abd12dc73382"},"vehicle_type_id":"4","last_reported":1727564842,"current_range_meters":38800,"station_id":"ce4bhgh2rcd13ifvqfb0","pricing_plan_id":"cebpf4jnsgd1na2vs0mg"},{"bike_id":"b54fdcda-42f0-4a1b-b3c7-a428d3775509","system_id":"levelo_inurba_marseille","lat":43.25866,"lon":5.39898,"is_reserved":false,"is_disabled":false,"rental_uris":{"android":"levelo://app?vid=b54fdcda-42f0-4a1b-b3c7-a428d3775509","ios":"levelo://app?vid=b54fdcda-42f0-4a1b-b3c7-a428d3775509"},"vehicle_type_id":"4","last_reported":1727564842,"current_range_meters":27200,"station_id":"ce4bhl92rcd13ifvqghg","pricing_plan_id":"cebpf4jnsgd1na2vs0mg"},{"bike_id":"8d67adc6-9428-4e01-b6cf-ca2c2102cff1","system_id":"levelo_inurba_marseille","lat":43.29795,"lon":5.39358,"is_reserved":false,"is_disabled":false,"rental_uris":{"android":"levelo://app?vid=8d67adc6-9428-4e01-b6cf-ca2c2102cff1","ios":"levelo://app?vid=8d67adc6-9428-4e01-b6cf-ca2c2102cff1"},"vehicle_type_id":"4","last_reported":1727564842,"current_range_meters":28400,"station_id":"chh1huq6cuj3fo74tm60","pricing_plan_id":"cebpf4jnsgd1na2vs0mg"},{"bike_id":"37e8e9aa-2e52-4101-b083-3093283218eb","system_id":"levelo_inurba_marseille","lat":43.31362,"lon":5.38498,"is_reserved":false,"is_disabled":false,"rental_uris":{"android":"levelo://app?vid=37e8e9aa-2e52-4101-b083-3093283218eb","ios":"levelo://app?vid=37e8e9aa-2e52-4101-b083-3093283218eb"},"vehicle_type_id":"4","last_reported":1727564842,"current_range_meters":20000,"station_id":"ce4bgt92rcd13ifvqcf0","pricing_plan_id":"cebpf4jnsgd1na2vs0mg"},{"bike_id":"6a52f468-9bf5-46c2-819d-2c732c18128e","system_id":"levelo_inurba_marseille","lat":43.23958,"lon":5.36632,"is_reserved":false,"is_disabled":false,"rental_uris":{"android":"levelo://app?vid=6a52f468-9bf5-46c2-819d-2c732c18128e","ios":"levelo://app?vid=6a52f468-9bf5-46c2-819d-2c732c18128e"},"vehicle_type_id":"4","last_reported":1727564842,"current_range_meters":38000,"station_id":"ce4bhi12rcd13ifvqfp0","pricing_plan_id":"cebpf4jnsgd1na2vs0mg"},{"bike_id":"6542600a-0331-4a7b-bf1b-8aced53610f0","system_id":"levelo_inurba_marseille","lat":43.2843,"lon":5.3918,"is_reserved":false,"is_disabled":false,"rental_uris":{"android":"levelo://app?vid=6542600a-0331-4a7b-bf1b-8aced53610f0","ios":"levelo://app?vid=6542600a-0331-4a7b-bf1b-8aced53610f0"},"vehicle_type_id":"4","last_reported":1727564842,"current_range_meters":17600,"station_id":"ce4bhoh2rcd13ifvqh5g","pricing_plan_id":"cebpf4jnsgd1na2vs0mg"},{"bike_id":"cdeae8c9-ba56-4b50-8d73-1e30acc71661","system_id":"levelo_inurba_marseille","lat":43.31987,"lon":5.38146,"is_reserved":false,"is_disabled":false,"rental_uris":{"android":"levelo://app?vid=cdeae8c9-ba56-4b50-8d73-1e30acc71661","ios":"levelo://app?vid=cdeae8c9-ba56-4b50-8d73-1e30acc71661"},"vehicle_type_id":"4","last_reported":1727564842,"current_range_meters":32400,"station_id":"ce4bhr12rcd13ifvqhpg","pricing_plan_id":"cebpf4jnsgd1na2vs0mg"},{"bike_id":"67b9eb05-c36e-4582-9b61-98d56d57348d","system_id":"levelo_inurba_marseille","lat":43.26045,"lon":5.3938,"is_reserved":false,"is_disabled":false,"rental_uris":{"android":"levelo://app?vid=67b9eb05-c36e-4582-9b61-98d56d57348d","ios":"levelo://app?vid=67b9eb05-c36e-4582-9b61-98d56d57348d"},"vehicle_type_id":"4","last_reported":1727564842,"current_range_meters":38800,"station_id":"ce4bhh92rcd13ifvqfj0","pricing_plan_id":"cebpf4jnsgd1na2vs0mg"},{"bike_id":"4d4842cd-4e24-4ddf-ada9-4c71cb2f461d","system_id":"levelo_inurba_marseille","lat":43.30956,"lon":5.39048,"is_reserved":false,"is_disabled":false,"rental_uris":{"android":"levelo://app?vid=4d4842cd-4e24-4ddf-ada9-4c71cb2f461d","ios":"levelo://app?vid=4d4842cd-4e24-4ddf-ada9-4c71cb2f461d"},"vehicle_type_id":"4","last_reported":1727564842,"current_range_meters":28000,"station_id":"ce4bgup2rcd13ifvqco0","pricing_plan_id":"cebpf4jnsgd1na2vs0mg"},{"bike_id":"c78ac9ce-df93-43b5-8ca4-8305df4c4bcd","system_id":"levelo_inurba_marseille","lat":43.31272,"lon":5.4017,"is_reserved":false,"is_disabled":false,"rental_uris":{"android":"levelo://app?vid=c78ac9ce-df93-43b5-8ca4-8305df4c4bcd","ios":"levelo://app?vid=c78ac9ce-df93-43b5-8ca4-8305df4c4bcd"},"vehicle_type_id":"4","last_reported":1727564842,"current_range_meters":38800,"station_id":"ce4bh092rcd13ifvqd30","pricing_plan_id":"cebpf4jnsgd1na2vs0mg"},{"bike_id":"a97bc587-7f27-4871-906b-7a9829f73fa5","system_id":"levelo_inurba_marseille","lat":43.299042,"lon":5.391609,"is_reserved":false,"is_disabled":false,"rental_uris":{"android":"levelo://app?vid=a97bc587-7f27-4871-906b-7a9829f73fa5","ios":"levelo://app?vid=a97bc587-7f27-4871-906b-7a9829f73fa5"},"vehicle_type_id":"4","last_reported":1727564842,"current_range_meters":9200,"station_id":"ce4bhlp2rcd13ifvqgjg","pricing_plan_id":"cebpf4jnsgd1na2vs0mg"},{"bike_id":"6811c9ec-ea64-44b4-93d3-158194024def","system_id":"levelo_inurba_marseille","lat":43.30537,"lon":5.38428,"is_reserved":false,"is_disabled":false,"rental_uris":{"android":"levelo://app?vid=6811c9ec-ea64-44b4-93d3-158194024def","ios":"levelo://app?vid=6811c9ec-ea64-44b4-93d3-158194024def"},"vehicle_type_id":"4","last_reported":1727564842,"current_range_meters":38800,"station_id":"ce4bgg92rcd13ifvqb30","pricing_plan_id":"cebpf4jnsgd1na2vs0mg"},{"bike_id":"1a08eb27-5616-4615-8c7f-aaa33811054b","system_id":"levelo_inurba_marseille","lat":43.24806,"lon":5.37454,"is_reserved":false,"is_disabled":false,"rental_uris":{"android":"levelo://app?vid=1a08eb27-5616-4615-8c7f-aaa33811054b","ios":"levelo://app?vid=1a08eb27-5616-4615-8c7f-aaa33811054b"},"vehicle_type_id":"4","last_reported":1727564842,"current_range_meters":36800,"station_id":"ce4bhgh2rcd13ifvqfb0","pricing_plan_id":"cebpf4jnsgd1na2vs0mg"},{"bike_id":"9cab4b77-e73b-485b-9196-05681379298d","system_id":"levelo_inurba_marseille","lat":43.32289,"lon":5.38262,"is_reserved":false,"is_disabled":false,"rental_uris":{"android":"levelo://app?vid=9cab4b77-e73b-485b-9196-05681379298d","ios":"levelo://app?vid=9cab4b77-e73b-485b-9196-05681379298d"},"vehicle_type_id":"4","last_reported":1727564842,"current_range_meters":38800,"station_id":"ce4bhr12rcd13ifvqhqg","pricing_plan_id":"cebpf4jnsgd1na2vs0mg"},{"bike_id":"815abeb5-1f5d-4787-8295-cfdd1932afe7","system_id":"levelo_inurba_marseille","lat":43.31163,"lon":5.38719,"is_reserved":false,"is_disabled":false,"rental_uris":{"android":"levelo://app?vid=815abeb5-1f5d-4787-8295-cfdd1932afe7","ios":"levelo://app?vid=815abeb5-1f5d-4787-8295-cfdd1932afe7"},"vehicle_type_id":"4","last_reported":1727564842,"current_range_meters":20400,"station_id":"ce4bgv12rcd13ifvqcp0","pricing_plan_id":"cebpf4jnsgd1na2vs0mg"},{"bike_id":"f6692a04-fd04-4663-94a3-4418e3afb60c","system_id":"levelo_inurba_marseille","lat":43.30795,"lon":5.38151,"is_reserved":false,"is_disabled":false,"rental_uris":{"android":"levelo://app?vid=f6692a04-fd04-4663-94a3-4418e3afb60c","ios":"levelo://app?vid=f6692a04-fd04-4663-94a3-4418e3afb60c"},"vehicle_type_id":"4","last_reported":1727564842,"current_range_meters":32400,"station_id":"ce4bgt12rcd13ifvqce0","pricing_plan_id":"cebpf4jnsgd1na2vs0mg"},{"bike_id":"8e047d7f-c072-44a2-8170-7786551c1be3","system_id":"levelo_inurba_marseille","lat":43.28698,"lon":5.39974,"is_reserved":false,"is_disabled":false,"rental_uris":{"android":"levelo://app?vid=8e047d7f-c072-44a2-8170-7786551c1be3","ios":"levelo://app?vid=8e047d7f-c072-44a2-8170-7786551c1be3"},"vehicle_type_id":"4","last_reported":1727564842,"current_range_meters":27200,"station_id":"ce4bho92rcd13ifvqh3g","pricing_plan_id":"cebpf4jnsgd1na2vs0mg"},{"bike_id":"72a50032-f006-4b59-a255-0479586609eb","system_id":"levelo_inurba_marseille","lat":43.295162,"lon":5.394026,"is_reserved":false,"is_disabled":false,"rental_uris":{"android":"levelo://app?vid=72a50032-f006-4b59-a255-0479586609eb","ios":"levelo://app?vid=72a50032-f006-4b59-a255-0479586609eb"},"vehicle_type_id":"4","last_reported":1727564842,"current_range_meters":33600,"station_id":"ce4bh292rcd13ifvqdf0","pricing_plan_id":"cebpf4jnsgd1na2vs0mg"},{"bike_id":"17727ddd-b3b2-4a18-af94-8a60b6428766","system_id":"levelo_inurba_marseille","lat":43.28691,"lon":5.37396,"is_reserved":false,"is_disabled":false,"rental_uris":{"android":"levelo://app?vid=17727ddd-b3b2-4a18-af94-8a60b6428766","ios":"levelo://app?vid=17727ddd-b3b2-4a18-af94-8a60b6428766"},"vehicle_type_id":"4","last_reported":1727564842,"current_range_meters":38800,"station_id":"ce4bh3p2rcd13ifvqdq0","pricing_plan_id":"cebpf4jnsgd1na2vs0mg"},{"bike_id":"56f7910d-52ac-4666-ae4d-1add0cdeeda1","system_id":"levelo_inurba_marseille","lat":43.30801,"lon":5.38152,"is_reserved":false,"is_disabled":false,"rental_uris":{"android":"levelo://app?vid=56f7910d-52ac-4666-ae4d-1add0cdeeda1","ios":"levelo://app?vid=56f7910d-52ac-4666-ae4d-1add0cdeeda1"},"vehicle_type_id":"4","last_reported":1727564842,"current_range_meters":24400,"station_id":"ce4bgt12rcd13ifvqce0","pricing_plan_id":"cebpf4jnsgd1na2vs0mg"},{"bike_id":"c461601d-3770-42d3-b850-f6196138e0e3","system_id":"levelo_inurba_marseille","lat":43.31326,"lon":5.39697,"is_reserved":false,"is_disabled":false,"rental_uris":{"android":"levelo://app?vid=c461601d-3770-42d3-b850-f6196138e0e3","ios":"levelo://app?vid=c461601d-3770-42d3-b850-f6196138e0e3"},"vehicle_type_id":"4","last_reported":1727564842,"current_range_meters":39200,"station_id":"ce4bgvp2rcd13ifvqcu0","pricing_plan_id":"cebpf4jnsgd1na2vs0mg"},{"bike_id":"6bd79052-280b-4428-8de8-892ce42e806e","system_id":"levelo_inurba_marseille","lat":43.31758,"lon":5.39019,"is_reserved":false,"is_disabled":false,"rental_uris":{"android":"levelo://app?vid=6bd79052-280b-4428-8de8-892ce42e806e","ios":"levelo://app?vid=6bd79052-280b-4428-8de8-892ce42e806e"},"vehicle_type_id":"4","last_reported":1727564842,"current_range_meters":38800,"station_id":"ce4bhqp2rcd13ifvqhng","pricing_plan_id":"cebpf4jnsgd1na2vs0mg"},{"bike_id":"2b4b9f8a-b664-4038-85db-d00dadde888d","system_id":"levelo_inurba_marseille","lat":43.30594,"lon":5.39352,"is_reserved":false,"is_disabled":false,"rental_uris":{"android":"levelo://app?vid=2b4b9f8a-b664-4038-85db-d00dadde888d","ios":"levelo://app?vid=2b4b9f8a-b664-4038-85db-d00dadde888d"},"vehicle_type_id":"4","last_reported":1727564842,"current_range_meters":36800,"station_id":"ce4bh0p2rcd13ifvqd80","pricing_plan_id":"cebpf4jnsgd1na2vs0mg"},{"bike_id":"741ae496-915d-4a18-91da-8cf3692d40b1","system_id":"levelo_inurba_marseille","lat":43.25507,"lon":5.37651,"is_reserved":false,"is_disabled":false,"rental_uris":{"android":"levelo://app?vid=741ae496-915d-4a18-91da-8cf3692d40b1","ios":"levelo://app?vid=741ae496-915d-4a18-91da-8cf3692d40b1"},"vehicle_type_id":"4","last_reported":1727564842,"current_range_meters":38800,"station_id":"ce4bhh12rcd13ifvqff0","pricing_plan_id":"cebpf4jnsgd1na2vs0mg"},{"bike_id":"d1599b49-6ff9-47aa-b9bc-2ebffe6b541c","system_id":"levelo_inurba_marseille","lat":43.31479,"lon":5.37307,"is_reserved":false,"is_disabled":false,"rental_uris":{"android":"levelo://app?vid=d1599b49-6ff9-47aa-b9bc-2ebffe6b541c","ios":"levelo://app?vid=d1599b49-6ff9-47aa-b9bc-2ebffe6b541c"},"vehicle_type_id":"4","last_reported":1727564842,"current_range_meters":38800,"station_id":"ce4bgt12rcd13ifvqcd0","pricing_plan_id":"cebpf4jnsgd1na2vs0mg"},{"bike_id":"7140e453-f332-495d-81d8-84ebfd05d324","system_id":"levelo_inurba_marseille","lat":43.25579,"lon":5.38232,"is_reserved":false,"is_disabled":false,"rental_uris":{"android":"levelo://app?vid=7140e453-f332-495d-81d8-84ebfd05d324","ios":"levelo://app?vid=7140e453-f332-495d-81d8-84ebfd05d324"},"vehicle_type_id":"4","last_reported":1727564842,"current_range_meters":24800,"station_id":"ce4bhih2rcd13ifvqfs0","pricing_plan_id":"cebpf4jnsgd1na2vs0mg"},{"bike_id":"cf2a99f0-171d-46e2-b5f9-b8e518581e33","system_id":"levelo_inurba_marseille","lat":43.23963,"lon":5.36625,"is_reserved":false,"is_disabled":false,"rental_uris":{"android":"levelo://app?vid=cf2a99f0-171d-46e2-b5f9-b8e518581e33","ios":"levelo://app?vid=cf2a99f0-171d-46e2-b5f9-b8e518581e33"},"vehicle_type_id":"4","last_reported":1727564842,"current_range_meters":36400,"station_id":"ce4bhi12rcd13ifvqfp0","pricing_plan_id":"cebpf4jnsgd1na2vs0mg"},{"bike_id":"e5f96fcd-0538-4d74-8ab8-d19e4df7cc95","system_id":"levelo_inurba_marseille","lat":43.31757,"lon":5.39015,"is_reserved":false,"is_disabled":false,"rental_uris":{"android":"levelo://app?vid=e5f96fcd-0538-4d74-8ab8-d19e4df7cc95","ios":"levelo://app?vid=e5f96fcd-0538-4d74-8ab8-d19e4df7cc95"},"vehicle_type_id":"4","last_reported":1727564842,"current_range_meters":12800,"station_id":"ce4bhqp2rcd13ifvqhng","pricing_plan_id":"cebpf4jnsgd1na2vs0mg"},{"bike_id":"e1e4a491-f30a-4aa2-a0ed-ba6d58ca431f","system_id":"levelo_inurba_marseille","lat":43.3096,"lon":5.39046,"is_reserved":false,"is_disabled":false,"rental_uris":{"android":"levelo://app?vid=e1e4a491-f30a-4aa2-a0ed-ba6d58ca431f","ios":"levelo://app?vid=e1e4a491-f30a-4aa2-a0ed-ba6d58ca431f"},"vehicle_type_id":"4","last_reported":1727564842,"current_range_meters":35200,"station_id":"ce4bgup2rcd13ifvqco0","pricing_plan_id":"cebpf4jnsgd1na2vs0mg"},{"bike_id":"a1585792-a705-409d-93a4-c31da8100088","system_id":"levelo_inurba_marseille","lat":43.23194,"lon":5.35564,"is_reserved":false,"is_disabled":false,"rental_uris":{"android":"levelo://app?vid=a1585792-a705-409d-93a4-c31da8100088","ios":"levelo://app?vid=a1585792-a705-409d-93a4-c31da8100088"},"vehicle_type_id":"4","last_reported":1727564842,"current_range_meters":12800,"station_id":"ce4bhu92rcd13ifvqi70","pricing_plan_id":"cebpf4jnsgd1na2vs0mg"},{"bike_id":"b8e2d9f3-2bfa-4db2-9db3-10638d12c8e0","system_id":"levelo_inurba_marseille","lat":43.27374,"lon":5.36252,"is_reserved":false,"is_disabled":false,"rental_uris":{"android":"levelo://app?vid=b8e2d9f3-2bfa-4db2-9db3-10638d12c8e0","ios":"levelo://app?vid=b8e2d9f3-2bfa-4db2-9db3-10638d12c8e0"},"vehicle_type_id":"4","last_reported":1727564842,"current_range_meters":38800,"station_id":"ce4bhbh2rcd13ifvqeo0","pricing_plan_id":"cebpf4jnsgd1na2vs0mg"},{"bike_id":"fdb61897-97d0-4689-adc4-02e79ee31d57","system_id":"levelo_inurba_marseille","lat":43.23959,"lon":5.36623,"is_reserved":false,"is_disabled":false,"rental_uris":{"android":"levelo://app?vid=fdb61897-97d0-4689-adc4-02e79ee31d57","ios":"levelo://app?vid=fdb61897-97d0-4689-adc4-02e79ee31d57"},"vehicle_type_id":"4","last_reported":1727564842,"current_range_meters":38000,"station_id":"ce4bhi12rcd13ifvqfp0","pricing_plan_id":"cebpf4jnsgd1na2vs0mg"},{"bike_id":"52f17877-110a-422d-89ae-fdeda162e6f3","system_id":"levelo_inurba_marseille","lat":43.23956,"lon":5.36628,"is_reserved":false,"is_disabled":false,"rental_uris":{"android":"levelo://app?vid=52f17877-110a-422d-89ae-fdeda162e6f3","ios":"levelo://app?vid=52f17877-110a-422d-89ae-fdeda162e6f3"},"vehicle_type_id":"4","last_reported":1727564842,"current_range_meters":9200,"station_id":"ce4bhi12rcd13ifvqfp0","pricing_plan_id":"cebpf4jnsgd1na2vs0mg"},{"bike_id":"7a8f28c6-ab6f-49c3-b59d-8e597cfc4655","system_id":"levelo_inurba_marseille","lat":43.33708,"lon":5.39168,"is_reserved":false,"is_disabled":false,"rental_uris":{"android":"levelo://app?vid=7a8f28c6-ab6f-49c3-b59d-8e597cfc4655","ios":"levelo://app?vid=7a8f28c6-ab6f-49c3-b59d-8e597cfc4655"},"vehicle_type_id":"4","last_reported":1727564842,"current_range_meters":21600,"station_id":"ce4bhr92rcd13ifvqhsg","pricing_plan_id":"cebpf4jnsgd1na2vs0mg"},{"bike_id":"a12cb5ac-2e0e-4f34-897a-86afd359af59","system_id":"levelo_inurba_marseille","lat":43.31337,"lon":5.39689,"is_reserved":false,"is_disabled":false,"rental_uris":{"android":"levelo://app?vid=a12cb5ac-2e0e-4f34-897a-86afd359af59","ios":"levelo://app?vid=a12cb5ac-2e0e-4f34-897a-86afd359af59"},"vehicle_type_id":"4","last_reported":1727564842,"current_range_meters":25200,"station_id":"ce4bgvp2rcd13ifvqcu0","pricing_plan_id":"cebpf4jnsgd1na2vs0mg"},{"bike_id":"0e548a5c-571e-41fa-a6d6-f1b4c1fe0b51","system_id":"levelo_inurba_marseille","lat":43.28978,"lon":5.37836,"is_reserved":false,"is_disabled":false,"rental_uris":{"android":"levelo://app?vid=0e548a5c-571e-41fa-a6d6-f1b4c1fe0b51","ios":"levelo://app?vid=0e548a5c-571e-41fa-a6d6-f1b4c1fe0b51"},"vehicle_type_id":"4","last_reported":1727564842,"current_range_meters":35600,"station_id":"","pricing_plan_id":"cebpf4jnsgd1na2vs0mg"},{"bike_id":"61bfd186-0f27-4fc9-b2b6-ffff2e6b74f7","system_id":"levelo_inurba_marseille","lat":43.27368,"lon":5.36256,"is_reserved":false,"is_disabled":false,"rental_uris":{"android":"levelo://app?vid=61bfd186-0f27-4fc9-b2b6-ffff2e6b74f7","ios":"levelo://app?vid=61bfd186-0f27-4fc9-b2b6-ffff2e6b74f7"},"vehicle_type_id":"4","last_reported":1727564842,"current_range_meters":38800,"station_id":"ce4bhbh2rcd13ifvqeo0","pricing_plan_id":"cebpf4jnsgd1na2vs0mg"},{"bike_id":"ab994941-8182-4cf4-af2e-1d33fc2c5393","system_id":"levelo_inurba_marseille","lat":43.25715,"lon":5.41093,"is_reserved":false,"is_disabled":false,"rental_uris":{"android":"levelo://app?vid=ab994941-8182-4cf4-af2e-1d33fc2c5393","ios":"levelo://app?vid=ab994941-8182-4cf4-af2e-1d33fc2c5393"},"vehicle_type_id":"4","last_reported":1727564842,"current_range_meters":6000,"station_id":"ce4bhkp2rcd13ifvqgd0","pricing_plan_id":"cebpf4jnsgd1na2vs0mg"},{"bike_id":"1347408c-e17f-4890-9dba-2621d2b63fef","system_id":"levelo_inurba_marseille","lat":43.28073,"lon":5.39643,"is_reserved":false,"is_disabled":false,"rental_uris":{"android":"levelo://app?vid=1347408c-e17f-4890-9dba-2621d2b63fef","ios":"levelo://app?vid=1347408c-e17f-4890-9dba-2621d2b63fef"},"vehicle_type_id":"4","last_reported":1727564842,"current_range_meters":38800,"station_id":"ce4bho12rcd13ifvqh2g","pricing_plan_id":"cebpf4jnsgd1na2vs0mg"},{"bike_id":"8706dbad-74a1-4401-bd4a-b4ae01455ac4","system_id":"levelo_inurba_marseille","lat":43.27621,"lon":5.36107,"is_reserved":false,"is_disabled":false,"rental_uris":{"android":"levelo://app?vid=8706dbad-74a1-4401-bd4a-b4ae01455ac4","ios":"levelo://app?vid=8706dbad-74a1-4401-bd4a-b4ae01455ac4"},"vehicle_type_id":"4","last_reported":1727564842,"current_range_meters":18800,"station_id":"ce4bgj92rcd13ifvqbe0","pricing_plan_id":"cebpf4jnsgd1na2vs0mg"},{"bike_id":"a3d8adc6-a419-41b7-9a8f-1b8309bbbc94","system_id":"levelo_inurba_marseille","lat":43.32532,"lon":5.41448,"is_reserved":false,"is_disabled":false,"rental_uris":{"android":"levelo://app?vid=a3d8adc6-a419-41b7-9a8f-1b8309bbbc94","ios":"levelo://app?vid=a3d8adc6-a419-41b7-9a8f-1b8309bbbc94"},"vehicle_type_id":"4","last_reported":1727564842,"current_range_meters":12400,"station_id":"ce4bhq12rcd13ifvqhhg","pricing_plan_id":"cebpf4jnsgd1na2vs0mg"},{"bike_id":"9e0e602a-711e-4e75-a4b3-f0d70db8f823","system_id":"levelo_inurba_marseille","lat":43.23961,"lon":5.36629,"is_reserved":false,"is_disabled":false,"rental_uris":{"android":"levelo://app?vid=9e0e602a-711e-4e75-a4b3-f0d70db8f823","ios":"levelo://app?vid=9e0e602a-711e-4e75-a4b3-f0d70db8f823"},"vehicle_type_id":"4","last_reported":1727564842,"current_range_meters":17600,"station_id":"ce4bhi12rcd13ifvqfp0","pricing_plan_id":"cebpf4jnsgd1na2vs0mg"},{"bike_id":"e16a0fba-bf83-4ebc-9fa7-631d4a652420","system_id":"levelo_inurba_marseille","lat":43.31885,"lon":5.40736,"is_reserved":false,"is_disabled":false,"rental_uris":{"android":"levelo://app?vid=e16a0fba-bf83-4ebc-9fa7-631d4a652420","ios":"levelo://app?vid=e16a0fba-bf83-4ebc-9fa7-631d4a652420"},"vehicle_type_id":"4","last_reported":1727564842,"current_range_meters":33600,"station_id":"ce4bhq12rcd13ifvqhig","pricing_plan_id":"cebpf4jnsgd1na2vs0mg"},{"bike_id":"594923ab-6151-46ef-b1e9-625586026106","system_id":"levelo_inurba_marseille","lat":43.31334,"lon":5.39696,"is_reserved":false,"is_disabled":false,"rental_uris":{"android":"levelo://app?vid=594923ab-6151-46ef-b1e9-625586026106","ios":"levelo://app?vid=594923ab-6151-46ef-b1e9-625586026106"},"vehicle_type_id":"4","last_reported":1727564842,"current_range_meters":6400,"station_id":"ce4bgvp2rcd13ifvqcu0","pricing_plan_id":"cebpf4jnsgd1na2vs0mg"},{"bike_id":"5dccdce7-b1a1-4eb6-81a2-8dca1382289c","system_id":"levelo_inurba_marseille","lat":43.33019,"lon":5.39038,"is_reserved":false,"is_disabled":false,"rental_uris":{"android":"levelo://app?vid=5dccdce7-b1a1-4eb6-81a2-8dca1382289c","ios":"levelo://app?vid=5dccdce7-b1a1-4eb6-81a2-8dca1382289c"},"vehicle_type_id":"4","last_reported":1727564842,"current_range_meters":38800,"station_id":"ce4bhr92rcd13ifvqhrg","pricing_plan_id":"cebpf4jnsgd1na2vs0mg"},{"bike_id":"2d527b57-f1c3-402a-bdb7-1a17c2c3785a","system_id":"levelo_inurba_marseille","lat":43.30599,"lon":5.3935,"is_reserved":false,"is_disabled":false,"rental_uris":{"android":"levelo://app?vid=2d527b57-f1c3-402a-bdb7-1a17c2c3785a","ios":"levelo://app?vid=2d527b57-f1c3-402a-bdb7-1a17c2c3785a"},"vehicle_type_id":"4","last_reported":1727564842,"current_range_meters":36800,"station_id":"ce4bh0p2rcd13ifvqd80","pricing_plan_id":"cebpf4jnsgd1na2vs0mg"},{"bike_id":"4b66f5f2-c486-47ac-bf11-139e5b2e7872","system_id":"levelo_inurba_marseille","lat":43.31084,"lon":5.42435,"is_reserved":false,"is_disabled":false,"rental_uris":{"android":"levelo://app?vid=4b66f5f2-c486-47ac-bf11-139e5b2e7872","ios":"levelo://app?vid=4b66f5f2-c486-47ac-bf11-139e5b2e7872"},"vehicle_type_id":"4","last_reported":1727564842,"current_range_meters":19200,"station_id":"ce4bhp92rcd13ifvqhag","pricing_plan_id":"cebpf4jnsgd1na2vs0mg"},{"bike_id":"8a718467-bb50-41c1-b95d-87fd286034b1","system_id":"levelo_inurba_marseille","lat":43.30141,"lon":5.38764,"is_reserved":false,"is_disabled":false,"rental_uris":{"android":"levelo://app?vid=8a718467-bb50-41c1-b95d-87fd286034b1","ios":"levelo://app?vid=8a718467-bb50-41c1-b95d-87fd286034b1"},"vehicle_type_id":"4","last_reported":1727564842,"current_range_meters":36000,"station_id":"ce4bghh2rcd13ifvqb60","pricing_plan_id":"cebpf4jnsgd1na2vs0mg"},{"bike_id":"b6656f53-9314-4454-8e05-036b69b8f48e","system_id":"levelo_inurba_marseille","lat":43.29615,"lon":5.37726,"is_reserved":false,"is_disabled":false,"rental_uris":{"android":"levelo://app?vid=b6656f53-9314-4454-8e05-036b69b8f48e","ios":"levelo://app?vid=b6656f53-9314-4454-8e05-036b69b8f48e"},"vehicle_type_id":"4","last_reported":1727564842,"current_range_meters":31200,"station_id":"ce4bgi92rcd13ifvqb90","pricing_plan_id":"cebpf4jnsgd1na2vs0mg"},{"bike_id":"c4d29d53-7958-4594-90bb-b85ab3fd69c4","system_id":"levelo_inurba_marseille","lat":43.31177,"lon":5.38719,"is_reserved":false,"is_disabled":false,"rental_uris":{"android":"levelo://app?vid=c4d29d53-7958-4594-90bb-b85ab3fd69c4","ios":"levelo://app?vid=c4d29d53-7958-4594-90bb-b85ab3fd69c4"},"vehicle_type_id":"4","last_reported":1727564842,"current_range_meters":18000,"station_id":"ce4bgv12rcd13ifvqcp0","pricing_plan_id":"cebpf4jnsgd1na2vs0mg"},{"bike_id":"801dee94-6df9-4ac7-b8ff-19b18de3acb6","system_id":"levelo_inurba_marseille","lat":43.31996,"lon":5.38148,"is_reserved":false,"is_disabled":false,"rental_uris":{"android":"levelo://app?vid=801dee94-6df9-4ac7-b8ff-19b18de3acb6","ios":"levelo://app?vid=801dee94-6df9-4ac7-b8ff-19b18de3acb6"},"vehicle_type_id":"4","last_reported":1727564842,"current_range_meters":25600,"station_id":"ce4bhr12rcd13ifvqhpg","pricing_plan_id":"cebpf4jnsgd1na2vs0mg"},{"bike_id":"6b0d248f-f1a6-4430-bf45-0b27e892fea5","system_id":"levelo_inurba_marseille","lat":43.30931,"lon":5.40139,"is_reserved":false,"is_disabled":false,"rental_uris":{"android":"levelo://app?vid=6b0d248f-f1a6-4430-bf45-0b27e892fea5","ios":"levelo://app?vid=6b0d248f-f1a6-4430-bf45-0b27e892fea5"},"vehicle_type_id":"4","last_reported":1727564842,"current_range_meters":26000,"station_id":"ce4bgvp2rcd13ifvqct0","pricing_plan_id":"cebpf4jnsgd1na2vs0mg"},{"bike_id":"848da01c-249f-40a1-a74f-e4a7991db9ba","system_id":"levelo_inurba_marseille","lat":43.27564,"lon":5.38418,"is_reserved":false,"is_disabled":false,"rental_uris":{"android":"levelo://app?vid=848da01c-249f-40a1-a74f-e4a7991db9ba","ios":"levelo://app?vid=848da01c-249f-40a1-a74f-e4a7991db9ba"},"vehicle_type_id":"4","last_reported":1727564842,"current_range_meters":8000,"station_id":"ce4bhh92rcd13ifvqfi0","pricing_plan_id":"cebpf4jnsgd1na2vs0mg"},{"bike_id":"51a833fb-04c3-4c75-8b05-606d48b9d3cc","system_id":"levelo_inurba_marseille","lat":43.305372,"lon":5.384228,"is_reserved":false,"is_disabled":false,"rental_uris":{"android":"levelo://app?vid=51a833fb-04c3-4c75-8b05-606d48b9d3cc","ios":"levelo://app?vid=51a833fb-04c3-4c75-8b05-606d48b9d3cc"},"vehicle_type_id":"4","last_reported":1727564842,"current_range_meters":36800,"station_id":"ce4bgg92rcd13ifvqb30","pricing_plan_id":"cebpf4jnsgd1na2vs0mg"},{"bike_id":"14e6435e-3051-4b48-9562-4e428d1050a4","system_id":"levelo_inurba_marseille","lat":43.311145,"lon":5.37759,"is_reserved":false,"is_disabled":false,"rental_uris":{"android":"levelo://app?vid=14e6435e-3051-4b48-9562-4e428d1050a4","ios":"levelo://app?vid=14e6435e-3051-4b48-9562-4e428d1050a4"},"vehicle_type_id":"4","last_reported":1727564842,"current_range_meters":38800,"station_id":"ce4bgt92rcd13ifvqcg0","pricing_plan_id":"cebpf4jnsgd1na2vs0mg"},{"bike_id":"8dd077bd-d470-4669-99dd-d53452d713ca","system_id":"levelo_inurba_marseille","lat":43.28463,"lon":5.38417,"is_reserved":false,"is_disabled":false,"rental_uris":{"android":"levelo://app?vid=8dd077bd-d470-4669-99dd-d53452d713ca","ios":"levelo://app?vid=8dd077bd-d470-4669-99dd-d53452d713ca"},"vehicle_type_id":"4","last_reported":1727564842,"current_range_meters":21600,"station_id":"ce4bh512rcd13ifvqe3g","pricing_plan_id":"cebpf4jnsgd1na2vs0mg"},{"bike_id":"9e9337df-c2fa-4e8d-ac82-750ae6700197","system_id":"levelo_inurba_marseille","lat":43.29306,"lon":5.37179,"is_reserved":false,"is_disabled":false,"rental_uris":{"android":"levelo://app?vid=9e9337df-c2fa-4e8d-ac82-750ae6700197","ios":"levelo://app?vid=9e9337df-c2fa-4e8d-ac82-750ae6700197"},"vehicle_type_id":"4","last_reported":1727564842,"current_range_meters":38800,"station_id":"ce4bgh92rcd13ifvqb40","pricing_plan_id":"cebpf4jnsgd1na2vs0mg"},{"bike_id":"258e025d-f605-4338-84a0-17f713af0b8d","system_id":"levelo_inurba_marseille","lat":43.24806,"lon":5.37452,"is_reserved":false,"is_disabled":false,"rental_uris":{"android":"levelo://app?vid=258e025d-f605-4338-84a0-17f713af0b8d","ios":"levelo://app?vid=258e025d-f605-4338-84a0-17f713af0b8d"},"vehicle_type_id":"4","last_reported":1727564842,"current_range_meters":38000,"station_id":"ce4bhgh2rcd13ifvqfb0","pricing_plan_id":"cebpf4jnsgd1na2vs0mg"},{"bike_id":"90f73edf-33c9-48aa-a208-1fdf5498db42","system_id":"levelo_inurba_marseille","lat":43.28708,"lon":5.3998,"is_reserved":false,"is_disabled":false,"rental_uris":{"android":"levelo://app?vid=90f73edf-33c9-48aa-a208-1fdf5498db42","ios":"levelo://app?vid=90f73edf-33c9-48aa-a208-1fdf5498db42"},"vehicle_type_id":"4","last_reported":1727564842,"current_range_meters":28400,"station_id":"ce4bho92rcd13ifvqh3g","pricing_plan_id":"cebpf4jnsgd1na2vs0mg"},{"bike_id":"48ac0a00-7daa-4c12-9a4d-5dab28220f2e","system_id":"levelo_inurba_marseille","lat":43.32357,"lon":5.38873,"is_reserved":false,"is_disabled":false,"rental_uris":{"android":"levelo://app?vid=48ac0a00-7daa-4c12-9a4d-5dab28220f2e","ios":"levelo://app?vid=48ac0a00-7daa-4c12-9a4d-5dab28220f2e"},"vehicle_type_id":"4","last_reported":1727564842,"current_range_meters":9200,"station_id":"ce4bhqp2rcd13ifvqhog","pricing_plan_id":"cebpf4jnsgd1na2vs0mg"},{"bike_id":"c6638d32-9ecd-4fa3-9332-f6c79a15bec5","system_id":"levelo_inurba_marseille","lat":43.28616,"lon":5.35111,"is_reserved":false,"is_disabled":false,"rental_uris":{"android":"levelo://app?vid=c6638d32-9ecd-4fa3-9332-f6c79a15bec5","ios":"levelo://app?vid=c6638d32-9ecd-4fa3-9332-f6c79a15bec5"},"vehicle_type_id":"4","last_reported":1727564842,"current_range_meters":38800,"station_id":"ce4bhch2rcd13ifvqeug","pricing_plan_id":"cebpf4jnsgd1na2vs0mg"},{"bike_id":"2b89b034-9d48-4061-89ca-7cd2f5925637","system_id":"levelo_inurba_marseille","lat":43.28655,"lon":5.36353,"is_reserved":false,"is_disabled":false,"rental_uris":{"android":"levelo://app?vid=2b89b034-9d48-4061-89ca-7cd2f5925637","ios":"levelo://app?vid=2b89b034-9d48-4061-89ca-7cd2f5925637"},"vehicle_type_id":"4","last_reported":1727564842,"current_range_meters":37600,"station_id":"ce4bhah2rcd13ifvqej0","pricing_plan_id":"cebpf4jnsgd1na2vs0mg"},{"bike_id":"109b3c0c-8bf1-4c6c-995c-e118c5a0c15c","system_id":"levelo_inurba_marseille","lat":43.27559,"lon":5.38411,"is_reserved":false,"is_disabled":false,"rental_uris":{"android":"levelo://app?vid=109b3c0c-8bf1-4c6c-995c-e118c5a0c15c","ios":"levelo://app?vid=109b3c0c-8bf1-4c6c-995c-e118c5a0c15c"},"vehicle_type_id":"4","last_reported":1727564842,"current_range_meters":38800,"station_id":"ce4bhh92rcd13ifvqfi0","pricing_plan_id":"cebpf4jnsgd1na2vs0mg"},{"bike_id":"e0597488-ca3d-4f29-b463-27df216e4321","system_id":"levelo_inurba_marseille","lat":43.28469,"lon":5.35892,"is_reserved":false,"is_disabled":false,"rental_uris":{"android":"levelo://app?vid=e0597488-ca3d-4f29-b463-27df216e4321","ios":"levelo://app?vid=e0597488-ca3d-4f29-b463-27df216e4321"},"vehicle_type_id":"4","last_reported":1727564842,"current_range_meters":38800,"station_id":"ce4bhah2rcd13ifvqei0","pricing_plan_id":"cebpf4jnsgd1na2vs0mg"},{"bike_id":"1f313afb-1cf8-4bb7-8831-2c9f193c2d0c","system_id":"levelo_inurba_marseille","lat":43.248,"lon":5.37449,"is_reserved":false,"is_disabled":false,"rental_uris":{"android":"levelo://app?vid=1f313afb-1cf8-4bb7-8831-2c9f193c2d0c","ios":"levelo://app?vid=1f313afb-1cf8-4bb7-8831-2c9f193c2d0c"},"vehicle_type_id":"4","last_reported":1727564842,"current_range_meters":38800,"station_id":"ce4bhgh2rcd13ifvqfb0","pricing_plan_id":"cebpf4jnsgd1na2vs0mg"},{"bike_id":"a63d4449-4f5a-4f1c-9a3c-27c8d74bd2a3","system_id":"levelo_inurba_marseille","lat":43.2439,"lon":5.37066,"is_reserved":false,"is_disabled":false,"rental_uris":{"android":"levelo://app?vid=a63d4449-4f5a-4f1c-9a3c-27c8d74bd2a3","ios":"levelo://app?vid=a63d4449-4f5a-4f1c-9a3c-27c8d74bd2a3"},"vehicle_type_id":"4","last_reported":1727564842,"current_range_meters":12800,"station_id":"ce4bhhh2rcd13ifvqfk0","pricing_plan_id":"cebpf4jnsgd1na2vs0mg"},{"bike_id":"f053546e-9417-4cdc-8c24-aa8dc21c1501","system_id":"levelo_inurba_marseille","lat":43.28454,"lon":5.35885,"is_reserved":false,"is_disabled":false,"rental_uris":{"android":"levelo://app?vid=f053546e-9417-4cdc-8c24-aa8dc21c1501","ios":"levelo://app?vid=f053546e-9417-4cdc-8c24-aa8dc21c1501"},"vehicle_type_id":"4","last_reported":1727564842,"current_range_meters":25600,"station_id":"ce4bhah2rcd13ifvqei0","pricing_plan_id":"cebpf4jnsgd1na2vs0mg"},{"bike_id":"34c11aa2-40d0-4638-9622-23d3133e83b9","system_id":"levelo_inurba_marseille","lat":43.2885,"lon":5.39314,"is_reserved":false,"is_disabled":false,"rental_uris":{"android":"levelo://app?vid=34c11aa2-40d0-4638-9622-23d3133e83b9","ios":"levelo://app?vid=34c11aa2-40d0-4638-9622-23d3133e83b9"},"vehicle_type_id":"4","last_reported":1727564842,"current_range_meters":36400,"station_id":"ce4bh2p2rcd13ifvqdi0","pricing_plan_id":"cebpf4jnsgd1na2vs0mg"},{"bike_id":"cf77d9c2-52e8-47ed-86bc-9c6c611e3b8a","system_id":"levelo_inurba_marseille","lat":43.31327,"lon":5.397,"is_reserved":false,"is_disabled":false,"rental_uris":{"android":"levelo://app?vid=cf77d9c2-52e8-47ed-86bc-9c6c611e3b8a","ios":"levelo://app?vid=cf77d9c2-52e8-47ed-86bc-9c6c611e3b8a"},"vehicle_type_id":"4","last_reported":1727564842,"current_range_meters":36800,"station_id":"ce4bgvp2rcd13ifvqcu0","pricing_plan_id":"cebpf4jnsgd1na2vs0mg"},{"bike_id":"3f3bfc8f-7d6e-42bc-b8da-67e417daceb8","system_id":"levelo_inurba_marseille","lat":43.30123,"lon":5.39857,"is_reserved":false,"is_disabled":false,"rental_uris":{"android":"levelo://app?vid=3f3bfc8f-7d6e-42bc-b8da-67e417daceb8","ios":"levelo://app?vid=3f3bfc8f-7d6e-42bc-b8da-67e417daceb8"},"vehicle_type_id":"4","last_reported":1727564842,"current_range_meters":28800,"station_id":"ce4bh0h2rcd13ifvqd40","pricing_plan_id":"cebpf4jnsgd1na2vs0mg"},{"bike_id":"bc7dc6a9-589f-4649-9e06-6ce7434d3293","system_id":"levelo_inurba_marseille","lat":43.2866,"lon":5.36351,"is_reserved":false,"is_disabled":false,"rental_uris":{"android":"levelo://app?vid=bc7dc6a9-589f-4649-9e06-6ce7434d3293","ios":"levelo://app?vid=bc7dc6a9-589f-4649-9e06-6ce7434d3293"},"vehicle_type_id":"4","last_reported":1727564842,"current_range_meters":24000,"station_id":"ce4bhah2rcd13ifvqej0","pricing_plan_id":"cebpf4jnsgd1na2vs0mg"},{"bike_id":"f8cd1665-2182-42bb-993d-799437deb95c","system_id":"levelo_inurba_marseille","lat":43.23191,"lon":5.355603,"is_reserved":false,"is_disabled":false,"rental_uris":{"android":"levelo://app?vid=f8cd1665-2182-42bb-993d-799437deb95c","ios":"levelo://app?vid=f8cd1665-2182-42bb-993d-799437deb95c"},"vehicle_type_id":"4","last_reported":1727564842,"current_range_meters":6400,"station_id":"ce4bhu92rcd13ifvqi70","pricing_plan_id":"cebpf4jnsgd1na2vs0mg"},{"bike_id":"3a3d637a-eaa6-4eb7-b082-99cadb91a9f4","system_id":"levelo_inurba_marseille","lat":43.29934,"lon":5.36556,"is_reserved":false,"is_disabled":false,"rental_uris":{"android":"levelo://app?vid=3a3d637a-eaa6-4eb7-b082-99cadb91a9f4","ios":"levelo://app?vid=3a3d637a-eaa6-4eb7-b082-99cadb91a9f4"},"vehicle_type_id":"4","last_reported":1727564842,"current_range_meters":19200,"station_id":"ce4bgm92rcd13ifvqbr0","pricing_plan_id":"cebpf4jnsgd1na2vs0mg"},{"bike_id":"0769877c-c4e7-47ae-99ae-b7d49750ae44","system_id":"levelo_inurba_marseille","lat":43.28695,"lon":5.39977,"is_reserved":false,"is_disabled":false,"rental_uris":{"android":"levelo://app?vid=0769877c-c4e7-47ae-99ae-b7d49750ae44","ios":"levelo://app?vid=0769877c-c4e7-47ae-99ae-b7d49750ae44"},"vehicle_type_id":"4","last_reported":1727564842,"current_range_meters":26000,"station_id":"ce4bho92rcd13ifvqh3g","pricing_plan_id":"cebpf4jnsgd1na2vs0mg"},{"bike_id":"03258a95-f64d-4d6e-b69b-95720d3fb3d9","system_id":"levelo_inurba_marseille","lat":43.29302,"lon":5.37466,"is_reserved":false,"is_disabled":false,"rental_uris":{"android":"levelo://app?vid=03258a95-f64d-4d6e-b69b-95720d3fb3d9","ios":"levelo://app?vid=03258a95-f64d-4d6e-b69b-95720d3fb3d9"},"vehicle_type_id":"4","last_reported":1727564842,"current_range_meters":38800,"station_id":"ce4bgi12rcd13ifvqb70","pricing_plan_id":"cebpf4jnsgd1na2vs0mg"},{"bike_id":"09821d9b-80c1-443f-9e66-63848c6692e3","system_id":"levelo_inurba_marseille","lat":43.3094,"lon":5.39028,"is_reserved":false,"is_disabled":false,"rental_uris":{"android":"levelo://app?vid=09821d9b-80c1-443f-9e66-63848c6692e3","ios":"levelo://app?vid=09821d9b-80c1-443f-9e66-63848c6692e3"},"vehicle_type_id":"4","last_reported":1727564842,"current_range_meters":10800,"station_id":"ce4bgup2rcd13ifvqco0","pricing_plan_id":"cebpf4jnsgd1na2vs0mg"},{"bike_id":"02c85c47-c574-4439-ab43-a1fe4054bee2","system_id":"levelo_inurba_marseille","lat":43.3096,"lon":5.3904,"is_reserved":false,"is_disabled":false,"rental_uris":{"android":"levelo://app?vid=02c85c47-c574-4439-ab43-a1fe4054bee2","ios":"levelo://app?vid=02c85c47-c574-4439-ab43-a1fe4054bee2"},"vehicle_type_id":"4","last_reported":1727564842,"current_range_meters":38800,"station_id":"ce4bgup2rcd13ifvqco0","pricing_plan_id":"cebpf4jnsgd1na2vs0mg"},{"bike_id":"f0a3a5b7-f641-4e91-a09b-77fe27253960","system_id":"levelo_inurba_marseille","lat":43.26562,"lon":5.39001,"is_reserved":false,"is_disabled":false,"rental_uris":{"android":"levelo://app?vid=f0a3a5b7-f641-4e91-a09b-77fe27253960","ios":"levelo://app?vid=f0a3a5b7-f641-4e91-a09b-77fe27253960"},"vehicle_type_id":"4","last_reported":1727564842,"current_range_meters":24800,"station_id":"ce4bhe12rcd13ifvqf30","pricing_plan_id":"cebpf4jnsgd1na2vs0mg"},{"bike_id":"98c5367f-8c22-4856-aaa7-6126d738d39f","system_id":"levelo_inurba_marseille","lat":43.30953,"lon":5.39039,"is_reserved":false,"is_disabled":false,"rental_uris":{"android":"levelo://app?vid=98c5367f-8c22-4856-aaa7-6126d738d39f","ios":"levelo://app?vid=98c5367f-8c22-4856-aaa7-6126d738d39f"},"vehicle_type_id":"4","last_reported":1727564842,"current_range_meters":30800,"station_id":"ce4bgup2rcd13ifvqco0","pricing_plan_id":"cebpf4jnsgd1na2vs0mg"},{"bike_id":"2d0b0bbd-5a31-4c40-acb0-100c5b8393aa","system_id":"levelo_inurba_marseille","lat":43.30945,"lon":5.39031,"is_reserved":false,"is_disabled":false,"rental_uris":{"android":"levelo://app?vid=2d0b0bbd-5a31-4c40-acb0-100c5b8393aa","ios":"levelo://app?vid=2d0b0bbd-5a31-4c40-acb0-100c5b8393aa"},"vehicle_type_id":"4","last_reported":1727564842,"current_range_meters":17600,"station_id":"ce4bgup2rcd13ifvqco0","pricing_plan_id":"cebpf4jnsgd1na2vs0mg"},{"bike_id":"ed84faff-17c5-48fb-8753-c2f883b40c1d","system_id":"levelo_inurba_marseille","lat":43.23967,"lon":5.36628,"is_reserved":false,"is_disabled":false,"rental_uris":{"android":"levelo://app?vid=ed84faff-17c5-48fb-8753-c2f883b40c1d","ios":"levelo://app?vid=ed84faff-17c5-48fb-8753-c2f883b40c1d"},"vehicle_type_id":"4","last_reported":1727564842,"current_range_meters":38800,"station_id":"ce4bhi12rcd13ifvqfp0","pricing_plan_id":"cebpf4jnsgd1na2vs0mg"},{"bike_id":"1fc6360b-b716-4868-9d7c-71fb261a0a10","system_id":"levelo_inurba_marseille","lat":43.31985,"lon":5.38143,"is_reserved":false,"is_disabled":false,"rental_uris":{"android":"levelo://app?vid=1fc6360b-b716-4868-9d7c-71fb261a0a10","ios":"levelo://app?vid=1fc6360b-b716-4868-9d7c-71fb261a0a10"},"vehicle_type_id":"4","last_reported":1727564842,"current_range_meters":30800,"station_id":"ce4bhr12rcd13ifvqhpg","pricing_plan_id":"cebpf4jnsgd1na2vs0mg"},{"bike_id":"3b170ecf-4bbb-421f-886d-94818fba1de8","system_id":"levelo_inurba_marseille","lat":43.28472,"lon":5.40013,"is_reserved":false,"is_disabled":false,"rental_uris":{"android":"levelo://app?vid=3b170ecf-4bbb-421f-886d-94818fba1de8","ios":"levelo://app?vid=3b170ecf-4bbb-421f-886d-94818fba1de8"},"vehicle_type_id":"4","last_reported":1727564842,"current_range_meters":35200,"station_id":"ce4bh2h2rcd13ifvqdh0","pricing_plan_id":"cebpf4jnsgd1na2vs0mg"},{"bike_id":"3d8c04ca-d2d1-4a3b-b928-49302d184469","system_id":"levelo_inurba_marseille","lat":43.30959,"lon":5.39046,"is_reserved":false,"is_disabled":false,"rental_uris":{"android":"levelo://app?vid=3d8c04ca-d2d1-4a3b-b928-49302d184469","ios":"levelo://app?vid=3d8c04ca-d2d1-4a3b-b928-49302d184469"},"vehicle_type_id":"4","last_reported":1727564842,"current_range_meters":30400,"station_id":"ce4bgup2rcd13ifvqco0","pricing_plan_id":"cebpf4jnsgd1na2vs0mg"},{"bike_id":"a84742ce-84eb-4d21-873c-4e72b449188c","system_id":"levelo_inurba_marseille","lat":43.26194,"lon":5.37923,"is_reserved":false,"is_disabled":false,"rental_uris":{"android":"levelo://app?vid=a84742ce-84eb-4d21-873c-4e72b449188c","ios":"levelo://app?vid=a84742ce-84eb-4d21-873c-4e72b449188c"},"vehicle_type_id":"4","last_reported":1727564842,"current_range_meters":37600,"station_id":"ce4bhjp2rcd13ifvqg90","pricing_plan_id":"cebpf4jnsgd1na2vs0mg"},{"bike_id":"b1fbf633-158f-4826-87cd-61ac506ccf65","system_id":"levelo_inurba_marseille","lat":43.33592,"lon":5.41012,"is_reserved":false,"is_disabled":false,"rental_uris":{"android":"levelo://app?vid=b1fbf633-158f-4826-87cd-61ac506ccf65","ios":"levelo://app?vid=b1fbf633-158f-4826-87cd-61ac506ccf65"},"vehicle_type_id":"4","last_reported":1727564842,"current_range_meters":32800,"station_id":"ce4bhqh2rcd13ifvqhmg","pricing_plan_id":"cebpf4jnsgd1na2vs0mg"},{"bike_id":"a3688464-e73a-4d75-ac1f-64edd469d10b","system_id":"levelo_inurba_marseille","lat":43.30603,"lon":5.37233,"is_reserved":false,"is_disabled":false,"rental_uris":{"android":"levelo://app?vid=a3688464-e73a-4d75-ac1f-64edd469d10b","ios":"levelo://app?vid=a3688464-e73a-4d75-ac1f-64edd469d10b"},"vehicle_type_id":"4","last_reported":1727564842,"current_range_meters":37600,"station_id":"ce4bgqh2rcd13ifvqc4g","pricing_plan_id":"cebpf4jnsgd1na2vs0mg"},{"bike_id":"5cd573b8-5052-49bb-ba78-0d21b050972f","system_id":"levelo_inurba_marseille","lat":43.30949,"lon":5.39035,"is_reserved":false,"is_disabled":false,"rental_uris":{"android":"levelo://app?vid=5cd573b8-5052-49bb-ba78-0d21b050972f","ios":"levelo://app?vid=5cd573b8-5052-49bb-ba78-0d21b050972f"},"vehicle_type_id":"4","last_reported":1727564842,"current_range_meters":34000,"station_id":"ce4bgup2rcd13ifvqco0","pricing_plan_id":"cebpf4jnsgd1na2vs0mg"},{"bike_id":"afdd99e8-0fcc-4f4f-ada2-3edeaee58dd3","system_id":"levelo_inurba_marseille","lat":43.29474,"lon":5.37771,"is_reserved":false,"is_disabled":false,"rental_uris":{"android":"levelo://app?vid=afdd99e8-0fcc-4f4f-ada2-3edeaee58dd3","ios":"levelo://app?vid=afdd99e8-0fcc-4f4f-ada2-3edeaee58dd3"},"vehicle_type_id":"4","last_reported":1727564842,"current_range_meters":38400,"station_id":"ce4bgip2rcd13ifvqbb0","pricing_plan_id":"cebpf4jnsgd1na2vs0mg"},{"bike_id":"2000b0dc-7109-49da-a6fc-edb22468d4e0","system_id":"levelo_inurba_marseille","lat":43.292712,"lon":5.401098,"is_reserved":false,"is_disabled":false,"rental_uris":{"android":"levelo://app?vid=2000b0dc-7109-49da-a6fc-edb22468d4e0","ios":"levelo://app?vid=2000b0dc-7109-49da-a6fc-edb22468d4e0"},"vehicle_type_id":"4","last_reported":1727564842,"current_range_meters":34000,"station_id":"ce4bh312rcd13ifvqdk0","pricing_plan_id":"cebpf4jnsgd1na2vs0mg"},{"bike_id":"e73d2f8f-2974-4cdf-987c-a13b580a58f4","system_id":"levelo_inurba_marseille","lat":43.30441,"lon":5.38884,"is_reserved":false,"is_disabled":false,"rental_uris":{"android":"levelo://app?vid=e73d2f8f-2974-4cdf-987c-a13b580a58f4","ios":"levelo://app?vid=e73d2f8f-2974-4cdf-987c-a13b580a58f4"},"vehicle_type_id":"4","last_reported":1727564842,"current_range_meters":31200,"station_id":"ce4bgk12rcd13ifvqbi0","pricing_plan_id":"cebpf4jnsgd1na2vs0mg"},{"bike_id":"f71847c8-2159-4faa-96a8-b0113de2b7b7","system_id":"levelo_inurba_marseille","lat":43.3171,"lon":5.37744,"is_reserved":false,"is_disabled":false,"rental_uris":{"android":"levelo://app?vid=f71847c8-2159-4faa-96a8-b0113de2b7b7","ios":"levelo://app?vid=f71847c8-2159-4faa-96a8-b0113de2b7b7"},"vehicle_type_id":"4","last_reported":1727564842,"current_range_meters":35200,"station_id":"ce4bgth2rcd13ifvqch0","pricing_plan_id":"cebpf4jnsgd1na2vs0mg"},{"bike_id":"1063f868-7464-4185-96c2-a25120d6f03a","system_id":"levelo_inurba_marseille","lat":43.29576,"lon":5.37511,"is_reserved":false,"is_disabled":false,"rental_uris":{"android":"levelo://app?vid=1063f868-7464-4185-96c2-a25120d6f03a","ios":"levelo://app?vid=1063f868-7464-4185-96c2-a25120d6f03a"},"vehicle_type_id":"4","last_reported":1727564842,"current_range_meters":37600,"station_id":"ce4bgh92rcd13ifvqb50","pricing_plan_id":"cebpf4jnsgd1na2vs0mg"},{"bike_id":"7cfbd935-09f5-4a64-9e66-38667ba738a9","system_id":"levelo_inurba_marseille","lat":43.30554,"lon":5.38443,"is_reserved":false,"is_disabled":false,"rental_uris":{"android":"levelo://app?vid=7cfbd935-09f5-4a64-9e66-38667ba738a9","ios":"levelo://app?vid=7cfbd935-09f5-4a64-9e66-38667ba738a9"},"vehicle_type_id":"4","last_reported":1727564842,"current_range_meters":28800,"station_id":"ce4bgg92rcd13ifvqb30","pricing_plan_id":"cebpf4jnsgd1na2vs0mg"},{"bike_id":"c4a8f360-1206-4f4f-a92d-ac3dc185d9ac","system_id":"levelo_inurba_marseille","lat":43.30959,"lon":5.39053,"is_reserved":false,"is_disabled":false,"rental_uris":{"android":"levelo://app?vid=c4a8f360-1206-4f4f-a92d-ac3dc185d9ac","ios":"levelo://app?vid=c4a8f360-1206-4f4f-a92d-ac3dc185d9ac"},"vehicle_type_id":"4","last_reported":1727564842,"current_range_meters":27600,"station_id":"ce4bgup2rcd13ifvqco0","pricing_plan_id":"cebpf4jnsgd1na2vs0mg"},{"bike_id":"eb35b74a-e100-4849-baf8-86135e114bef","system_id":"levelo_inurba_marseille","lat":43.23157,"lon":5.437,"is_reserved":false,"is_disabled":false,"rental_uris":{"android":"levelo://app?vid=eb35b74a-e100-4849-baf8-86135e114bef","ios":"levelo://app?vid=eb35b74a-e100-4849-baf8-86135e114bef"},"vehicle_type_id":"4","last_reported":1727564842,"current_range_meters":35200,"station_id":"ce4bhmp2rcd13ifvqgog","pricing_plan_id":"cebpf4jnsgd1na2vs0mg"},{"bike_id":"2c5a97ac-60a9-441b-b0fa-526625f2f517","system_id":"levelo_inurba_marseille","lat":43.32334,"lon":5.40623,"is_reserved":false,"is_disabled":false,"rental_uris":{"android":"levelo://app?vid=2c5a97ac-60a9-441b-b0fa-526625f2f517","ios":"levelo://app?vid=2c5a97ac-60a9-441b-b0fa-526625f2f517"},"vehicle_type_id":"4","last_reported":1727564842,"current_range_meters":13600,"station_id":"ce4bhq92rcd13ifvqhjg","pricing_plan_id":"cebpf4jnsgd1na2vs0mg"},{"bike_id":"dcf4fb0d-6321-43c4-8b76-2fcbd0e60f9a","system_id":"levelo_inurba_marseille","lat":43.29791,"lon":5.39336,"is_reserved":false,"is_disabled":false,"rental_uris":{"android":"levelo://app?vid=dcf4fb0d-6321-43c4-8b76-2fcbd0e60f9a","ios":"levelo://app?vid=dcf4fb0d-6321-43c4-8b76-2fcbd0e60f9a"},"vehicle_type_id":"4","last_reported":1727564842,"current_range_meters":28800,"station_id":"chh1huq6cuj3fo74tm60","pricing_plan_id":"cebpf4jnsgd1na2vs0mg"},{"bike_id":"2105a018-44f4-4476-a2b6-af2a39591938","system_id":"levelo_inurba_marseille","lat":43.25583,"lon":5.38232,"is_reserved":false,"is_disabled":false,"rental_uris":{"android":"levelo://app?vid=2105a018-44f4-4476-a2b6-af2a39591938","ios":"levelo://app?vid=2105a018-44f4-4476-a2b6-af2a39591938"},"vehicle_type_id":"4","last_reported":1727564842,"current_range_meters":19200,"station_id":"ce4bhih2rcd13ifvqfs0","pricing_plan_id":"cebpf4jnsgd1na2vs0mg"},{"bike_id":"8eb5911f-c95e-4f31-a6d6-b3cd459f46bc","system_id":"levelo_inurba_marseille","lat":43.324811,"lon":5.36575,"is_reserved":false,"is_disabled":false,"rental_uris":{"android":"levelo://app?vid=8eb5911f-c95e-4f31-a6d6-b3cd459f46bc","ios":"levelo://app?vid=8eb5911f-c95e-4f31-a6d6-b3cd459f46bc"},"vehicle_type_id":"4","last_reported":1727564842,"current_range_meters":39200,"station_id":"ce4bhs12rcd13ifvqhvg","pricing_plan_id":"cebpf4jnsgd1na2vs0mg"},{"bike_id":"d7b19a33-4e67-4f0a-9ae8-0d20f95631ff","system_id":"levelo_inurba_marseille","lat":43.28103,"lon":5.37844,"is_reserved":false,"is_disabled":false,"rental_uris":{"android":"levelo://app?vid=d7b19a33-4e67-4f0a-9ae8-0d20f95631ff","ios":"levelo://app?vid=d7b19a33-4e67-4f0a-9ae8-0d20f95631ff"},"vehicle_type_id":"4","last_reported":1727564842,"current_range_meters":16400,"station_id":"ce4bha12rcd13ifvqee0","pricing_plan_id":"cebpf4jnsgd1na2vs0mg"},{"bike_id":"16b7522c-3d76-48b0-b927-b37269d4490a","system_id":"levelo_inurba_marseille","lat":43.31369,"lon":5.38497,"is_reserved":false,"is_disabled":false,"rental_uris":{"android":"levelo://app?vid=16b7522c-3d76-48b0-b927-b37269d4490a","ios":"levelo://app?vid=16b7522c-3d76-48b0-b927-b37269d4490a"},"vehicle_type_id":"4","last_reported":1727564842,"current_range_meters":36000,"station_id":"ce4bgt92rcd13ifvqcf0","pricing_plan_id":"cebpf4jnsgd1na2vs0mg"},{"bike_id":"2cee1cba-5de8-4115-88f8-9dd26eb81e4e","system_id":"levelo_inurba_marseille","lat":43.284385,"lon":5.39196,"is_reserved":false,"is_disabled":false,"rental_uris":{"android":"levelo://app?vid=2cee1cba-5de8-4115-88f8-9dd26eb81e4e","ios":"levelo://app?vid=2cee1cba-5de8-4115-88f8-9dd26eb81e4e"},"vehicle_type_id":"4","last_reported":1727564842,"current_range_meters":36800,"station_id":"ce4bhoh2rcd13ifvqh5g","pricing_plan_id":"cebpf4jnsgd1na2vs0mg"},{"bike_id":"2be94c8e-9eff-4560-b3d0-7ab2bfd2bf7b","system_id":"levelo_inurba_marseille","lat":43.23961,"lon":5.36633,"is_reserved":false,"is_disabled":false,"rental_uris":{"android":"levelo://app?vid=2be94c8e-9eff-4560-b3d0-7ab2bfd2bf7b","ios":"levelo://app?vid=2be94c8e-9eff-4560-b3d0-7ab2bfd2bf7b"},"vehicle_type_id":"4","last_reported":1727564842,"current_range_meters":18000,"station_id":"ce4bhi12rcd13ifvqfp0","pricing_plan_id":"cebpf4jnsgd1na2vs0mg"},{"bike_id":"cabd2ff3-a077-4792-b48b-e296547083c4","system_id":"levelo_inurba_marseille","lat":43.303249,"lon":5.392107,"is_reserved":false,"is_disabled":false,"rental_uris":{"android":"levelo://app?vid=cabd2ff3-a077-4792-b48b-e296547083c4","ios":"levelo://app?vid=cabd2ff3-a077-4792-b48b-e296547083c4"},"vehicle_type_id":"4","last_reported":1727564842,"current_range_meters":24000,"station_id":"ce4bgkh2rcd13ifvqbk0","pricing_plan_id":"cebpf4jnsgd1na2vs0mg"},{"bike_id":"6a66b30d-b7e8-4317-88c5-fb9f52bf2878","system_id":"levelo_inurba_marseille","lat":43.239621,"lon":5.366176,"is_reserved":false,"is_disabled":false,"rental_uris":{"android":"levelo://app?vid=6a66b30d-b7e8-4317-88c5-fb9f52bf2878","ios":"levelo://app?vid=6a66b30d-b7e8-4317-88c5-fb9f52bf2878"},"vehicle_type_id":"4","last_reported":1727564842,"current_range_meters":0,"station_id":"ce4bhi12rcd13ifvqfp0","pricing_plan_id":"cebpf4jnsgd1na2vs0mg"},{"bike_id":"9de0b148-f770-4dd7-833c-4ccee05e3af0","system_id":"levelo_inurba_marseille","lat":43.32653,"lon":5.40996,"is_reserved":false,"is_disabled":false,"rental_uris":{"android":"levelo://app?vid=9de0b148-f770-4dd7-833c-4ccee05e3af0","ios":"levelo://app?vid=9de0b148-f770-4dd7-833c-4ccee05e3af0"},"vehicle_type_id":"4","last_reported":1727564842,"current_range_meters":28000,"station_id":"","pricing_plan_id":"cebpf4jnsgd1na2vs0mg"},{"bike_id":"5c2f38e6-c0e9-4e18-992e-ac7a76212032","system_id":"levelo_inurba_marseille","lat":43.29219,"lon":5.36068,"is_reserved":false,"is_disabled":false,"rental_uris":{"android":"levelo://app?vid=5c2f38e6-c0e9-4e18-992e-ac7a76212032","ios":"levelo://app?vid=5c2f38e6-c0e9-4e18-992e-ac7a76212032"},"vehicle_type_id":"4","last_reported":1727564842,"current_range_meters":8400,"station_id":"ce4bhbh2rcd13ifvqeqg","pricing_plan_id":"cebpf4jnsgd1na2vs0mg"},{"bike_id":"36e28af7-ddee-4540-a244-b5691f735fa0","system_id":"levelo_inurba_marseille","lat":43.31704,"lon":5.3776,"is_reserved":false,"is_disabled":false,"rental_uris":{"android":"levelo://app?vid=36e28af7-ddee-4540-a244-b5691f735fa0","ios":"levelo://app?vid=36e28af7-ddee-4540-a244-b5691f735fa0"},"vehicle_type_id":"4","last_reported":1727564842,"current_range_meters":9600,"station_id":"ce4bgth2rcd13ifvqch0","pricing_plan_id":"cebpf4jnsgd1na2vs0mg"},{"bike_id":"9efdf05c-571e-4c3a-a0bf-af0e0fbc032d","system_id":"levelo_inurba_marseille","lat":43.25084,"lon":5.39508,"is_reserved":false,"is_disabled":false,"rental_uris":{"android":"levelo://app?vid=9efdf05c-571e-4c3a-a0bf-af0e0fbc032d","ios":"levelo://app?vid=9efdf05c-571e-4c3a-a0bf-af0e0fbc032d"},"vehicle_type_id":"4","last_reported":1727564842,"current_range_meters":20800,"station_id":"ce4bhm12rcd13ifvqgkg","pricing_plan_id":"cebpf4jnsgd1na2vs0mg"},{"bike_id":"559ebd32-f4a0-411d-b560-2c2353c345c1","system_id":"levelo_inurba_marseille","lat":43.306495,"lon":5.400986,"is_reserved":false,"is_disabled":false,"rental_uris":{"android":"levelo://app?vid=559ebd32-f4a0-411d-b560-2c2353c345c1","ios":"levelo://app?vid=559ebd32-f4a0-411d-b560-2c2353c345c1"},"vehicle_type_id":"4","last_reported":1727564842,"current_range_meters":27200,"station_id":"ce4bh112rcd13ifvqda0","pricing_plan_id":"cebpf4jnsgd1na2vs0mg"},{"bike_id":"433a4133-e036-4f3d-910d-1e752d956d6e","system_id":"levelo_inurba_marseille","lat":43.28456,"lon":5.35892,"is_reserved":false,"is_disabled":false,"rental_uris":{"android":"levelo://app?vid=433a4133-e036-4f3d-910d-1e752d956d6e","ios":"levelo://app?vid=433a4133-e036-4f3d-910d-1e752d956d6e"},"vehicle_type_id":"4","last_reported":1727564842,"current_range_meters":38800,"station_id":"ce4bhah2rcd13ifvqei0","pricing_plan_id":"cebpf4jnsgd1na2vs0mg"},{"bike_id":"8537bd26-c143-480b-ac7c-86d2b5338011","system_id":"levelo_inurba_marseille","lat":43.26214,"lon":5.37444,"is_reserved":false,"is_disabled":false,"rental_uris":{"android":"levelo://app?vid=8537bd26-c143-480b-ac7c-86d2b5338011","ios":"levelo://app?vid=8537bd26-c143-480b-ac7c-86d2b5338011"},"vehicle_type_id":"4","last_reported":1727564842,"current_range_meters":38800,"station_id":"ce4bhgp2rcd13ifvqfc0","pricing_plan_id":"cebpf4jnsgd1na2vs0mg"},{"bike_id":"199f764e-7942-4511-a407-33ff4a7dc457","system_id":"levelo_inurba_marseille","lat":43.26028,"lon":5.37557,"is_reserved":false,"is_disabled":false,"rental_uris":{"android":"levelo://app?vid=199f764e-7942-4511-a407-33ff4a7dc457","ios":"levelo://app?vid=199f764e-7942-4511-a407-33ff4a7dc457"},"vehicle_type_id":"4","last_reported":1727564842,"current_range_meters":38800,"station_id":"ce4bhgh2rcd13ifvqfa0","pricing_plan_id":"cebpf4jnsgd1na2vs0mg"},{"bike_id":"4ae7d6ed-b2fd-4240-9fed-99236cc4d6c5","system_id":"levelo_inurba_marseille","lat":43.284051,"lon":5.374888,"is_reserved":false,"is_disabled":false,"rental_uris":{"android":"levelo://app?vid=4ae7d6ed-b2fd-4240-9fed-99236cc4d6c5","ios":"levelo://app?vid=4ae7d6ed-b2fd-4240-9fed-99236cc4d6c5"},"vehicle_type_id":"4","last_reported":1727564842,"current_range_meters":36800,"station_id":"ce4bh412rcd13ifvqds0","pricing_plan_id":"cebpf4jnsgd1na2vs0mg"},{"bike_id":"0701cf2a-674c-4c9d-af1e-6650acbaaf74","system_id":"levelo_inurba_marseille","lat":43.28375,"lon":5.37292,"is_reserved":false,"is_disabled":false,"rental_uris":{"android":"levelo://app?vid=0701cf2a-674c-4c9d-af1e-6650acbaaf74","ios":"levelo://app?vid=0701cf2a-674c-4c9d-af1e-6650acbaaf74"},"vehicle_type_id":"4","last_reported":1727564842,"current_range_meters":12800,"station_id":"","pricing_plan_id":"cebpf4jnsgd1na2vs0mg"},{"bike_id":"26d19603-8175-4b6f-aa29-c8a304bccb18","system_id":"levelo_inurba_marseille","lat":43.24172,"lon":5.39726,"is_reserved":false,"is_disabled":false,"rental_uris":{"android":"levelo://app?vid=26d19603-8175-4b6f-aa29-c8a304bccb18","ios":"levelo://app?vid=26d19603-8175-4b6f-aa29-c8a304bccb18"},"vehicle_type_id":"4","last_reported":1727564842,"current_range_meters":9600,"station_id":"ce4bhn12rcd13ifvqgpg","pricing_plan_id":"cebpf4jnsgd1na2vs0mg"},{"bike_id":"07b2ddc3-3bf0-43f2-a213-ce4b66d54f1f","system_id":"levelo_inurba_marseille","lat":43.31169,"lon":5.38713,"is_reserved":false,"is_disabled":false,"rental_uris":{"android":"levelo://app?vid=07b2ddc3-3bf0-43f2-a213-ce4b66d54f1f","ios":"levelo://app?vid=07b2ddc3-3bf0-43f2-a213-ce4b66d54f1f"},"vehicle_type_id":"4","last_reported":1727564842,"current_range_meters":21600,"station_id":"ce4bgv12rcd13ifvqcp0","pricing_plan_id":"cebpf4jnsgd1na2vs0mg"},{"bike_id":"0c047769-905a-4bc9-838c-7db10c5ad674","system_id":"levelo_inurba_marseille","lat":43.30949,"lon":5.39032,"is_reserved":false,"is_disabled":false,"rental_uris":{"android":"levelo://app?vid=0c047769-905a-4bc9-838c-7db10c5ad674","ios":"levelo://app?vid=0c047769-905a-4bc9-838c-7db10c5ad674"},"vehicle_type_id":"4","last_reported":1727564842,"current_range_meters":6400,"station_id":"","pricing_plan_id":"cebpf4jnsgd1na2vs0mg"},{"bike_id":"8dc67aea-8c43-4618-97ea-d8c40591f0a3","system_id":"levelo_inurba_marseille","lat":43.30884,"lon":5.396447,"is_reserved":false,"is_disabled":false,"rental_uris":{"android":"levelo://app?vid=8dc67aea-8c43-4618-97ea-d8c40591f0a3","ios":"levelo://app?vid=8dc67aea-8c43-4618-97ea-d8c40591f0a3"},"vehicle_type_id":"4","last_reported":1727564842,"current_range_meters":32000,"station_id":"ce4bh012rcd13ifvqcv0","pricing_plan_id":"cebpf4jnsgd1na2vs0mg"},{"bike_id":"85a015c0-c4c9-4a4f-b766-42ac9c9a1b08","system_id":"levelo_inurba_marseille","lat":43.30239,"lon":5.4005,"is_reserved":false,"is_disabled":false,"rental_uris":{"android":"levelo://app?vid=85a015c0-c4c9-4a4f-b766-42ac9c9a1b08","ios":"levelo://app?vid=85a015c0-c4c9-4a4f-b766-42ac9c9a1b08"},"vehicle_type_id":"4","last_reported":1727564842,"current_range_meters":22800,"station_id":"ce4bgvh2rcd13ifvqcs0","pricing_plan_id":"cebpf4jnsgd1na2vs0mg"},{"bike_id":"4f7e1d71-b7a8-4150-b80d-361b8d591f67","system_id":"levelo_inurba_marseille","lat":43.25578,"lon":5.38231,"is_reserved":false,"is_disabled":false,"rental_uris":{"android":"levelo://app?vid=4f7e1d71-b7a8-4150-b80d-361b8d591f67","ios":"levelo://app?vid=4f7e1d71-b7a8-4150-b80d-361b8d591f67"},"vehicle_type_id":"4","last_reported":1727564842,"current_range_meters":25200,"station_id":"ce4bhih2rcd13ifvqfs0","pricing_plan_id":"cebpf4jnsgd1na2vs0mg"},{"bike_id":"420580b5-10a3-4293-8084-f8846fbc415a","system_id":"levelo_inurba_marseille","lat":43.28271,"lon":5.35081,"is_reserved":false,"is_disabled":false,"rental_uris":{"android":"levelo://app?vid=420580b5-10a3-4293-8084-f8846fbc415a","ios":"levelo://app?vid=420580b5-10a3-4293-8084-f8846fbc415a"},"vehicle_type_id":"4","last_reported":1727564842,"current_range_meters":17200,"station_id":"ce4bhbp2rcd13ifvqerg","pricing_plan_id":"cebpf4jnsgd1na2vs0mg"},{"bike_id":"d275d077-d0e4-45f6-b800-93db28a2b4ff","system_id":"levelo_inurba_marseille","lat":43.31483,"lon":5.37306,"is_reserved":false,"is_disabled":false,"rental_uris":{"android":"levelo://app?vid=d275d077-d0e4-45f6-b800-93db28a2b4ff","ios":"levelo://app?vid=d275d077-d0e4-45f6-b800-93db28a2b4ff"},"vehicle_type_id":"4","last_reported":1727564842,"current_range_meters":10000,"station_id":"ce4bgt12rcd13ifvqcd0","pricing_plan_id":"cebpf4jnsgd1na2vs0mg"},{"bike_id":"f389741c-aa7d-460e-a8b7-712fd6efee59","system_id":"levelo_inurba_marseille","lat":43.27607,"lon":5.36118,"is_reserved":false,"is_disabled":false,"rental_uris":{"android":"levelo://app?vid=f389741c-aa7d-460e-a8b7-712fd6efee59","ios":"levelo://app?vid=f389741c-aa7d-460e-a8b7-712fd6efee59"},"vehicle_type_id":"4","last_reported":1727564842,"current_range_meters":38800,"station_id":"ce4bgj92rcd13ifvqbe0","pricing_plan_id":"cebpf4jnsgd1na2vs0mg"},{"bike_id":"6cdca13d-24d1-4302-912a-54d18c748242","system_id":"levelo_inurba_marseille","lat":43.31083,"lon":5.40132,"is_reserved":false,"is_disabled":false,"rental_uris":{"android":"levelo://app?vid=6cdca13d-24d1-4302-912a-54d18c748242","ios":"levelo://app?vid=6cdca13d-24d1-4302-912a-54d18c748242"},"vehicle_type_id":"4","last_reported":1727564842,"current_range_meters":7200,"station_id":"","pricing_plan_id":"cebpf4jnsgd1na2vs0mg"},{"bike_id":"8db0e5cd-2187-4a1e-887b-1a2f8d3b39de","system_id":"levelo_inurba_marseille","lat":43.32283,"lon":5.38271,"is_reserved":false,"is_disabled":false,"rental_uris":{"android":"levelo://app?vid=8db0e5cd-2187-4a1e-887b-1a2f8d3b39de","ios":"levelo://app?vid=8db0e5cd-2187-4a1e-887b-1a2f8d3b39de"},"vehicle_type_id":"4","last_reported":1727564842,"current_range_meters":22000,"station_id":"ce4bhr12rcd13ifvqhqg","pricing_plan_id":"cebpf4jnsgd1na2vs0mg"},{"bike_id":"4b02d02f-e4f8-4503-af33-737662778152","system_id":"levelo_inurba_marseille","lat":43.27986,"lon":5.40006,"is_reserved":false,"is_disabled":false,"rental_uris":{"android":"levelo://app?vid=4b02d02f-e4f8-4503-af33-737662778152","ios":"levelo://app?vid=4b02d02f-e4f8-4503-af33-737662778152"},"vehicle_type_id":"4","last_reported":1727564842,"current_range_meters":38800,"station_id":"ce4bho92rcd13ifvqh4g","pricing_plan_id":"cebpf4jnsgd1na2vs0mg"},{"bike_id":"7a00023f-56c4-4783-b2a5-18ce5d78331a","system_id":"levelo_inurba_marseille","lat":43.25088,"lon":5.39529,"is_reserved":false,"is_disabled":false,"rental_uris":{"android":"levelo://app?vid=7a00023f-56c4-4783-b2a5-18ce5d78331a","ios":"levelo://app?vid=7a00023f-56c4-4783-b2a5-18ce5d78331a"},"vehicle_type_id":"4","last_reported":1727564842,"current_range_meters":4800,"station_id":"ce4bhm12rcd13ifvqgkg","pricing_plan_id":"cebpf4jnsgd1na2vs0mg"},{"bike_id":"4189ce78-ba10-4b9f-926a-8ccc721e2613","system_id":"levelo_inurba_marseille","lat":43.27996,"lon":5.40009,"is_reserved":false,"is_disabled":false,"rental_uris":{"android":"levelo://app?vid=4189ce78-ba10-4b9f-926a-8ccc721e2613","ios":"levelo://app?vid=4189ce78-ba10-4b9f-926a-8ccc721e2613"},"vehicle_type_id":"4","last_reported":1727564842,"current_range_meters":38400,"station_id":"ce4bho92rcd13ifvqh4g","pricing_plan_id":"cebpf4jnsgd1na2vs0mg"},{"bike_id":"d95cafd2-6ec0-4b24-8abf-5f45e8563d38","system_id":"levelo_inurba_marseille","lat":43.26034,"lon":5.3755,"is_reserved":false,"is_disabled":false,"rental_uris":{"android":"levelo://app?vid=d95cafd2-6ec0-4b24-8abf-5f45e8563d38","ios":"levelo://app?vid=d95cafd2-6ec0-4b24-8abf-5f45e8563d38"},"vehicle_type_id":"4","last_reported":1727564842,"current_range_meters":36000,"station_id":"ce4bhgh2rcd13ifvqfa0","pricing_plan_id":"cebpf4jnsgd1na2vs0mg"},{"bike_id":"41520f05-81cc-425c-88bc-6a31e8b96652","system_id":"levelo_inurba_marseille","lat":43.31332,"lon":5.39698,"is_reserved":false,"is_disabled":false,"rental_uris":{"android":"levelo://app?vid=41520f05-81cc-425c-88bc-6a31e8b96652","ios":"levelo://app?vid=41520f05-81cc-425c-88bc-6a31e8b96652"},"vehicle_type_id":"4","last_reported":1727564842,"current_range_meters":32800,"station_id":"ce4bgvp2rcd13ifvqcu0","pricing_plan_id":"cebpf4jnsgd1na2vs0mg"},{"bike_id":"2826bb44-83d0-4acf-9f61-a5d095e8ecf2","system_id":"levelo_inurba_marseille","lat":43.2811,"lon":5.37836,"is_reserved":false,"is_disabled":false,"rental_uris":{"android":"levelo://app?vid=2826bb44-83d0-4acf-9f61-a5d095e8ecf2","ios":"levelo://app?vid=2826bb44-83d0-4acf-9f61-a5d095e8ecf2"},"vehicle_type_id":"4","last_reported":1727564842,"current_range_meters":33600,"station_id":"ce4bha12rcd13ifvqee0","pricing_plan_id":"cebpf4jnsgd1na2vs0mg"},{"bike_id":"62560815-6d30-4323-abfd-962fbf226d13","system_id":"levelo_inurba_marseille","lat":43.29034,"lon":5.39978,"is_reserved":false,"is_disabled":false,"rental_uris":{"android":"levelo://app?vid=62560815-6d30-4323-abfd-962fbf226d13","ios":"levelo://app?vid=62560815-6d30-4323-abfd-962fbf226d13"},"vehicle_type_id":"4","last_reported":1727564842,"current_range_meters":14800,"station_id":"ce4bh392rcd13ifvqdm0","pricing_plan_id":"cebpf4jnsgd1na2vs0mg"},{"bike_id":"5220e7ba-5183-450c-986e-1a09b217d618","system_id":"levelo_inurba_marseille","lat":43.28277,"lon":5.35085,"is_reserved":false,"is_disabled":false,"rental_uris":{"android":"levelo://app?vid=5220e7ba-5183-450c-986e-1a09b217d618","ios":"levelo://app?vid=5220e7ba-5183-450c-986e-1a09b217d618"},"vehicle_type_id":"4","last_reported":1727564842,"current_range_meters":38800,"station_id":"ce4bhbp2rcd13ifvqerg","pricing_plan_id":"cebpf4jnsgd1na2vs0mg"},{"bike_id":"3407da71-e9f5-4375-9956-506983640a2f","system_id":"levelo_inurba_marseille","lat":43.28999,"lon":5.3759,"is_reserved":false,"is_disabled":false,"rental_uris":{"android":"levelo://app?vid=3407da71-e9f5-4375-9956-506983640a2f","ios":"levelo://app?vid=3407da71-e9f5-4375-9956-506983640a2f"},"vehicle_type_id":"4","last_reported":1727564842,"current_range_meters":27200,"station_id":"ce4bh692rcd13ifvqe90","pricing_plan_id":"cebpf4jnsgd1na2vs0mg"},{"bike_id":"ba387b21-04b8-4645-802e-749078d7889d","system_id":"levelo_inurba_marseille","lat":43.26563,"lon":5.39011,"is_reserved":false,"is_disabled":false,"rental_uris":{"android":"levelo://app?vid=ba387b21-04b8-4645-802e-749078d7889d","ios":"levelo://app?vid=ba387b21-04b8-4645-802e-749078d7889d"},"vehicle_type_id":"4","last_reported":1727564842,"current_range_meters":10800,"station_id":"ce4bhe12rcd13ifvqf30","pricing_plan_id":"cebpf4jnsgd1na2vs0mg"},{"bike_id":"90229d46-e6dc-4cb2-8d31-13c4ced060e1","system_id":"levelo_inurba_marseille","lat":43.29625,"lon":5.40596,"is_reserved":false,"is_disabled":false,"rental_uris":{"android":"levelo://app?vid=90229d46-e6dc-4cb2-8d31-13c4ced060e1","ios":"levelo://app?vid=90229d46-e6dc-4cb2-8d31-13c4ced060e1"},"vehicle_type_id":"4","last_reported":1727564842,"current_range_meters":31200,"station_id":"ce4bh0h2rcd13ifvqd60","pricing_plan_id":"cebpf4jnsgd1na2vs0mg"},{"bike_id":"50706d55-3aa6-40fe-9c0c-e224fd895e38","system_id":"levelo_inurba_marseille","lat":43.31361,"lon":5.3849,"is_reserved":false,"is_disabled":false,"rental_uris":{"android":"levelo://app?vid=50706d55-3aa6-40fe-9c0c-e224fd895e38","ios":"levelo://app?vid=50706d55-3aa6-40fe-9c0c-e224fd895e38"},"vehicle_type_id":"4","last_reported":1727564842,"current_range_meters":30400,"station_id":"ce4bgt92rcd13ifvqcf0","pricing_plan_id":"cebpf4jnsgd1na2vs0mg"},{"bike_id":"24078e2f-d7b5-49f8-82e6-8835ab7c07b3","system_id":"levelo_inurba_marseille","lat":43.30125,"lon":5.39863,"is_reserved":false,"is_disabled":false,"rental_uris":{"android":"levelo://app?vid=24078e2f-d7b5-49f8-82e6-8835ab7c07b3","ios":"levelo://app?vid=24078e2f-d7b5-49f8-82e6-8835ab7c07b3"},"vehicle_type_id":"4","last_reported":1727564842,"current_range_meters":37600,"station_id":"ce4bh0h2rcd13ifvqd40","pricing_plan_id":"cebpf4jnsgd1na2vs0mg"},{"bike_id":"df4200b2-6a72-413d-9f09-d7539e057157","system_id":"levelo_inurba_marseille","lat":43.31164,"lon":5.38709,"is_reserved":false,"is_disabled":false,"rental_uris":{"android":"levelo://app?vid=df4200b2-6a72-413d-9f09-d7539e057157","ios":"levelo://app?vid=df4200b2-6a72-413d-9f09-d7539e057157"},"vehicle_type_id":"4","last_reported":1727564842,"current_range_meters":8800,"station_id":"ce4bgv12rcd13ifvqcp0","pricing_plan_id":"cebpf4jnsgd1na2vs0mg"},{"bike_id":"7363d669-645a-4bd6-bbf6-8d817ca7e68e","system_id":"levelo_inurba_marseille","lat":43.30431,"lon":5.38888,"is_reserved":false,"is_disabled":false,"rental_uris":{"android":"levelo://app?vid=7363d669-645a-4bd6-bbf6-8d817ca7e68e","ios":"levelo://app?vid=7363d669-645a-4bd6-bbf6-8d817ca7e68e"},"vehicle_type_id":"4","last_reported":1727564842,"current_range_meters":38800,"station_id":"ce4bgk12rcd13ifvqbi0","pricing_plan_id":"cebpf4jnsgd1na2vs0mg"},{"bike_id":"41ca4c63-8def-4c31-9103-fc1045ebe4a5","system_id":"levelo_inurba_marseille","lat":43.23192,"lon":5.35554,"is_reserved":false,"is_disabled":false,"rental_uris":{"android":"levelo://app?vid=41ca4c63-8def-4c31-9103-fc1045ebe4a5","ios":"levelo://app?vid=41ca4c63-8def-4c31-9103-fc1045ebe4a5"},"vehicle_type_id":"4","last_reported":1727564842,"current_range_meters":27200,"station_id":"ce4bhu92rcd13ifvqi70","pricing_plan_id":"cebpf4jnsgd1na2vs0mg"},{"bike_id":"ad2828b2-2852-44f7-a21b-241451c370b5","system_id":"levelo_inurba_marseille","lat":43.33019,"lon":5.39045,"is_reserved":false,"is_disabled":false,"rental_uris":{"android":"levelo://app?vid=ad2828b2-2852-44f7-a21b-241451c370b5","ios":"levelo://app?vid=ad2828b2-2852-44f7-a21b-241451c370b5"},"vehicle_type_id":"4","last_reported":1727564842,"current_range_meters":39200,"station_id":"ce4bhr92rcd13ifvqhrg","pricing_plan_id":"cebpf4jnsgd1na2vs0mg"},{"bike_id":"28704e94-6d32-447e-bf92-213dabd0e2e8","system_id":"levelo_inurba_marseille","lat":43.23188,"lon":5.39983,"is_reserved":false,"is_disabled":false,"rental_uris":{"android":"levelo://app?vid=28704e94-6d32-447e-bf92-213dabd0e2e8","ios":"levelo://app?vid=28704e94-6d32-447e-bf92-213dabd0e2e8"},"vehicle_type_id":"4","last_reported":1727564842,"current_range_meters":16800,"station_id":"ce4bhn12rcd13ifvqgqg","pricing_plan_id":"cebpf4jnsgd1na2vs0mg"},{"bike_id":"d874ff96-7db9-4a73-9ca7-36bb54017e3d","system_id":"levelo_inurba_marseille","lat":43.29264,"lon":5.36853,"is_reserved":false,"is_disabled":false,"rental_uris":{"android":"levelo://app?vid=d874ff96-7db9-4a73-9ca7-36bb54017e3d","ios":"levelo://app?vid=d874ff96-7db9-4a73-9ca7-36bb54017e3d"},"vehicle_type_id":"4","last_reported":1727564842,"current_range_meters":38800,"station_id":"ce4bhbp2rcd13ifvqesg","pricing_plan_id":"cebpf4jnsgd1na2vs0mg"},{"bike_id":"8f020b6a-2426-411b-8ad3-71a44f103914","system_id":"levelo_inurba_marseille","lat":43.33604,"lon":5.41036,"is_reserved":false,"is_disabled":false,"rental_uris":{"android":"levelo://app?vid=8f020b6a-2426-411b-8ad3-71a44f103914","ios":"levelo://app?vid=8f020b6a-2426-411b-8ad3-71a44f103914"},"vehicle_type_id":"4","last_reported":1727564842,"current_range_meters":19200,"station_id":"ce4bhqh2rcd13ifvqhmg","pricing_plan_id":"cebpf4jnsgd1na2vs0mg"},{"bike_id":"275b0a25-1a9f-498c-9202-be550b06c3de","system_id":"levelo_inurba_marseille","lat":43.32286,"lon":5.38264,"is_reserved":false,"is_disabled":false,"rental_uris":{"android":"levelo://app?vid=275b0a25-1a9f-498c-9202-be550b06c3de","ios":"levelo://app?vid=275b0a25-1a9f-498c-9202-be550b06c3de"},"vehicle_type_id":"4","last_reported":1727564842,"current_range_meters":38800,"station_id":"ce4bhr12rcd13ifvqhqg","pricing_plan_id":"cebpf4jnsgd1na2vs0mg"},{"bike_id":"589811c5-7952-408c-99c6-27831d825ec0","system_id":"levelo_inurba_marseille","lat":43.26197,"lon":5.3792,"is_reserved":false,"is_disabled":false,"rental_uris":{"android":"levelo://app?vid=589811c5-7952-408c-99c6-27831d825ec0","ios":"levelo://app?vid=589811c5-7952-408c-99c6-27831d825ec0"},"vehicle_type_id":"4","last_reported":1727564842,"current_range_meters":37600,"station_id":"ce4bhjp2rcd13ifvqg90","pricing_plan_id":"cebpf4jnsgd1na2vs0mg"},{"bike_id":"09e37162-6591-4201-b8f5-66f2cf1ed401","system_id":"levelo_inurba_marseille","lat":43.27314,"lon":5.39075,"is_reserved":false,"is_disabled":false,"rental_uris":{"android":"levelo://app?vid=09e37162-6591-4201-b8f5-66f2cf1ed401","ios":"levelo://app?vid=09e37162-6591-4201-b8f5-66f2cf1ed401"},"vehicle_type_id":"4","last_reported":1727564842,"current_range_meters":38000,"station_id":"ce4bhgp2rcd13ifvqfe0","pricing_plan_id":"cebpf4jnsgd1na2vs0mg"},{"bike_id":"e0448498-1923-4013-96e2-5aec4fc93af7","system_id":"levelo_inurba_marseille","lat":43.24797,"lon":5.37445,"is_reserved":false,"is_disabled":false,"rental_uris":{"android":"levelo://app?vid=e0448498-1923-4013-96e2-5aec4fc93af7","ios":"levelo://app?vid=e0448498-1923-4013-96e2-5aec4fc93af7"},"vehicle_type_id":"4","last_reported":1727564842,"current_range_meters":37600,"station_id":"ce4bhgh2rcd13ifvqfb0","pricing_plan_id":"cebpf4jnsgd1na2vs0mg"},{"bike_id":"0c3f0369-7cdf-4cba-a0db-09435ab8c8da","system_id":"levelo_inurba_marseille","lat":43.2319,"lon":5.39987,"is_reserved":false,"is_disabled":false,"rental_uris":{"android":"levelo://app?vid=0c3f0369-7cdf-4cba-a0db-09435ab8c8da","ios":"levelo://app?vid=0c3f0369-7cdf-4cba-a0db-09435ab8c8da"},"vehicle_type_id":"4","last_reported":1727564842,"current_range_meters":28800,"station_id":"ce4bhn12rcd13ifvqgqg","pricing_plan_id":"cebpf4jnsgd1na2vs0mg"},{"bike_id":"0df5d59f-82a7-48dc-a845-6aecb73c4853","system_id":"levelo_inurba_marseille","lat":43.31707,"lon":5.37773,"is_reserved":false,"is_disabled":false,"rental_uris":{"android":"levelo://app?vid=0df5d59f-82a7-48dc-a845-6aecb73c4853","ios":"levelo://app?vid=0df5d59f-82a7-48dc-a845-6aecb73c4853"},"vehicle_type_id":"4","last_reported":1727564842,"current_range_meters":38800,"station_id":"ce4bgth2rcd13ifvqch0","pricing_plan_id":"cebpf4jnsgd1na2vs0mg"},{"bike_id":"77643dcd-0518-4c6a-8cec-2c2c74faa607","system_id":"levelo_inurba_marseille","lat":43.30883,"lon":5.39627,"is_reserved":false,"is_disabled":false,"rental_uris":{"android":"levelo://app?vid=77643dcd-0518-4c6a-8cec-2c2c74faa607","ios":"levelo://app?vid=77643dcd-0518-4c6a-8cec-2c2c74faa607"},"vehicle_type_id":"4","last_reported":1727564842,"current_range_meters":9200,"station_id":"ce4bh012rcd13ifvqcv0","pricing_plan_id":"cebpf4jnsgd1na2vs0mg"},{"bike_id":"7cae8da8-36fc-4b61-9e74-80fcd16616d6","system_id":"levelo_inurba_marseille","lat":43.29272,"lon":5.40113,"is_reserved":false,"is_disabled":false,"rental_uris":{"android":"levelo://app?vid=7cae8da8-36fc-4b61-9e74-80fcd16616d6","ios":"levelo://app?vid=7cae8da8-36fc-4b61-9e74-80fcd16616d6"},"vehicle_type_id":"4","last_reported":1727564842,"current_range_meters":38800,"station_id":"ce4bh312rcd13ifvqdk0","pricing_plan_id":"cebpf4jnsgd1na2vs0mg"},{"bike_id":"2ba60df9-b1a6-4107-b93b-9feb97ba85f8","system_id":"levelo_inurba_marseille","lat":43.25496,"lon":5.37647,"is_reserved":false,"is_disabled":false,"rental_uris":{"android":"levelo://app?vid=2ba60df9-b1a6-4107-b93b-9feb97ba85f8","ios":"levelo://app?vid=2ba60df9-b1a6-4107-b93b-9feb97ba85f8"},"vehicle_type_id":"4","last_reported":1727564842,"current_range_meters":39200,"station_id":"ce4bhh12rcd13ifvqff0","pricing_plan_id":"cebpf4jnsgd1na2vs0mg"},{"bike_id":"578ce527-fa82-4bc5-9233-45e69a86eb22","system_id":"levelo_inurba_marseille","lat":43.31981,"lon":5.38135,"is_reserved":false,"is_disabled":false,"rental_uris":{"android":"levelo://app?vid=578ce527-fa82-4bc5-9233-45e69a86eb22","ios":"levelo://app?vid=578ce527-fa82-4bc5-9233-45e69a86eb22"},"vehicle_type_id":"4","last_reported":1727564842,"current_range_meters":38800,"station_id":"ce4bhr12rcd13ifvqhpg","pricing_plan_id":"cebpf4jnsgd1na2vs0mg"},{"bike_id":"304ffee2-053a-4207-b076-204e32afd088","system_id":"levelo_inurba_marseille","lat":43.24663,"lon":5.38164,"is_reserved":false,"is_disabled":false,"rental_uris":{"android":"levelo://app?vid=304ffee2-053a-4207-b076-204e32afd088","ios":"levelo://app?vid=304ffee2-053a-4207-b076-204e32afd088"},"vehicle_type_id":"4","last_reported":1727564842,"current_range_meters":19200,"station_id":"ce4bhih2rcd13ifvqfr0","pricing_plan_id":"cebpf4jnsgd1na2vs0mg"},{"bike_id":"d8e32f1c-4c32-4777-922d-4d90b15b71c7","system_id":"levelo_inurba_marseille","lat":43.30863,"lon":5.3685,"is_reserved":false,"is_disabled":false,"rental_uris":{"android":"levelo://app?vid=d8e32f1c-4c32-4777-922d-4d90b15b71c7","ios":"levelo://app?vid=d8e32f1c-4c32-4777-922d-4d90b15b71c7"},"vehicle_type_id":"4","last_reported":1727564842,"current_range_meters":8000,"station_id":"ce4bgn92rcd13ifvqbvg","pricing_plan_id":"cebpf4jnsgd1na2vs0mg"},{"bike_id":"b470945e-f45c-4291-ac95-d7061c9aab44","system_id":"levelo_inurba_marseille","lat":43.27368,"lon":5.41208,"is_reserved":false,"is_disabled":false,"rental_uris":{"android":"levelo://app?vid=b470945e-f45c-4291-ac95-d7061c9aab44","ios":"levelo://app?vid=b470945e-f45c-4291-ac95-d7061c9aab44"},"vehicle_type_id":"4","last_reported":1727564842,"current_range_meters":26800,"station_id":"","pricing_plan_id":"cebpf4jnsgd1na2vs0mg"},{"bike_id":"9d902e8b-725f-4e44-b2ba-48863c79d42a","system_id":"levelo_inurba_marseille","lat":43.2894,"lon":5.36625,"is_reserved":false,"is_disabled":false,"rental_uris":{"android":"levelo://app?vid=9d902e8b-725f-4e44-b2ba-48863c79d42a","ios":"levelo://app?vid=9d902e8b-725f-4e44-b2ba-48863c79d42a"},"vehicle_type_id":"4","last_reported":1727564842,"current_range_meters":36800,"station_id":"ce4bhap2rcd13ifvqek0","pricing_plan_id":"cebpf4jnsgd1na2vs0mg"},{"bike_id":"c4d88e23-9c2e-4527-9eab-b694d907a0bc","system_id":"levelo_inurba_marseille","lat":43.28927,"lon":5.36629,"is_reserved":false,"is_disabled":false,"rental_uris":{"android":"levelo://app?vid=c4d88e23-9c2e-4527-9eab-b694d907a0bc","ios":"levelo://app?vid=c4d88e23-9c2e-4527-9eab-b694d907a0bc"},"vehicle_type_id":"4","last_reported":1727564842,"current_range_meters":8000,"station_id":"ce4bhap2rcd13ifvqek0","pricing_plan_id":"cebpf4jnsgd1na2vs0mg"},{"bike_id":"e5bd8eea-1a45-47ca-bcb1-a3c35f96f172","system_id":"levelo_inurba_marseille","lat":43.30424,"lon":5.38878,"is_reserved":false,"is_disabled":false,"rental_uris":{"android":"levelo://app?vid=e5bd8eea-1a45-47ca-bcb1-a3c35f96f172","ios":"levelo://app?vid=e5bd8eea-1a45-47ca-bcb1-a3c35f96f172"},"vehicle_type_id":"4","last_reported":1727564842,"current_range_meters":32400,"station_id":"ce4bgk12rcd13ifvqbi0","pricing_plan_id":"cebpf4jnsgd1na2vs0mg"},{"bike_id":"1984cd8c-9023-4af1-9890-9bcafab5337a","system_id":"levelo_inurba_marseille","lat":43.309605,"lon":5.390338,"is_reserved":false,"is_disabled":false,"rental_uris":{"android":"levelo://app?vid=1984cd8c-9023-4af1-9890-9bcafab5337a","ios":"levelo://app?vid=1984cd8c-9023-4af1-9890-9bcafab5337a"},"vehicle_type_id":"4","last_reported":1727564842,"current_range_meters":38800,"station_id":"ce4bgup2rcd13ifvqco0","pricing_plan_id":"cebpf4jnsgd1na2vs0mg"},{"bike_id":"e4361fa2-90d9-45ff-9d8a-e7b112f4e011","system_id":"levelo_inurba_marseille","lat":43.28511,"lon":5.39126,"is_reserved":false,"is_disabled":false,"rental_uris":{"android":"levelo://app?vid=e4361fa2-90d9-45ff-9d8a-e7b112f4e011","ios":"levelo://app?vid=e4361fa2-90d9-45ff-9d8a-e7b112f4e011"},"vehicle_type_id":"4","last_reported":1727564842,"current_range_meters":30400,"station_id":"ce4bh3p2rcd13ifvqdp0","pricing_plan_id":"cebpf4jnsgd1na2vs0mg"},{"bike_id":"91c916b8-3f2f-498d-bb9c-07d5c9bf04ff","system_id":"levelo_inurba_marseille","lat":43.2482,"lon":5.37467,"is_reserved":false,"is_disabled":false,"rental_uris":{"android":"levelo://app?vid=91c916b8-3f2f-498d-bb9c-07d5c9bf04ff","ios":"levelo://app?vid=91c916b8-3f2f-498d-bb9c-07d5c9bf04ff"},"vehicle_type_id":"4","last_reported":1727564842,"current_range_meters":38800,"station_id":"ce4bhgh2rcd13ifvqfb0","pricing_plan_id":"cebpf4jnsgd1na2vs0mg"},{"bike_id":"e857968e-f56b-4d87-9c77-58233f291fc5","system_id":"levelo_inurba_marseille","lat":43.28705,"lon":5.37392,"is_reserved":false,"is_disabled":false,"rental_uris":{"android":"levelo://app?vid=e857968e-f56b-4d87-9c77-58233f291fc5","ios":"levelo://app?vid=e857968e-f56b-4d87-9c77-58233f291fc5"},"vehicle_type_id":"4","last_reported":1727564842,"current_range_meters":4800,"station_id":"ce4bh3p2rcd13ifvqdq0","pricing_plan_id":"cebpf4jnsgd1na2vs0mg"},{"bike_id":"7bdefe8e-48c2-4be5-979c-d38393613143","system_id":"levelo_inurba_marseille","lat":43.309456,"lon":5.390306,"is_reserved":false,"is_disabled":false,"rental_uris":{"android":"levelo://app?vid=7bdefe8e-48c2-4be5-979c-d38393613143","ios":"levelo://app?vid=7bdefe8e-48c2-4be5-979c-d38393613143"},"vehicle_type_id":"4","last_reported":1727564842,"current_range_meters":38800,"station_id":"ce4bgup2rcd13ifvqco0","pricing_plan_id":"cebpf4jnsgd1na2vs0mg"},{"bike_id":"6eff8d2d-61fa-4715-9388-b30a052d3e98","system_id":"levelo_inurba_marseille","lat":43.337444,"lon":5.374475,"is_reserved":false,"is_disabled":false,"rental_uris":{"android":"levelo://app?vid=6eff8d2d-61fa-4715-9388-b30a052d3e98","ios":"levelo://app?vid=6eff8d2d-61fa-4715-9388-b30a052d3e98"},"vehicle_type_id":"4","last_reported":1727564842,"current_range_meters":30800,"station_id":"","pricing_plan_id":"cebpf4jnsgd1na2vs0mg"},{"bike_id":"3fbe2bcb-7d20-4523-aec1-1148610f9d0a","system_id":"levelo_inurba_marseille","lat":43.2846,"lon":5.3589,"is_reserved":false,"is_disabled":false,"rental_uris":{"android":"levelo://app?vid=3fbe2bcb-7d20-4523-aec1-1148610f9d0a","ios":"levelo://app?vid=3fbe2bcb-7d20-4523-aec1-1148610f9d0a"},"vehicle_type_id":"4","last_reported":1727564842,"current_range_meters":17600,"station_id":"ce4bhah2rcd13ifvqei0","pricing_plan_id":"cebpf4jnsgd1na2vs0mg"},{"bike_id":"686b1310-0ea9-459e-9370-03e550210a94","system_id":"levelo_inurba_marseille","lat":43.310703,"lon":5.383547,"is_reserved":false,"is_disabled":false,"rental_uris":{"android":"levelo://app?vid=686b1310-0ea9-459e-9370-03e550210a94","ios":"levelo://app?vid=686b1310-0ea9-459e-9370-03e550210a94"},"vehicle_type_id":"4","last_reported":1727564842,"current_range_meters":28000,"station_id":"ce4bgv92rcd13ifvqcr0","pricing_plan_id":"cebpf4jnsgd1na2vs0mg"},{"bike_id":"49103c36-092f-43a6-a665-96ac4218adb8","system_id":"levelo_inurba_marseille","lat":43.32286,"lon":5.38259,"is_reserved":false,"is_disabled":false,"rental_uris":{"android":"levelo://app?vid=49103c36-092f-43a6-a665-96ac4218adb8","ios":"levelo://app?vid=49103c36-092f-43a6-a665-96ac4218adb8"},"vehicle_type_id":"4","last_reported":1727564842,"current_range_meters":38800,"station_id":"ce4bhr12rcd13ifvqhqg","pricing_plan_id":"cebpf4jnsgd1na2vs0mg"},{"bike_id":"f455a2dc-c631-4feb-a981-7691b6cd7fd9","system_id":"levelo_inurba_marseille","lat":43.23185,"lon":5.39983,"is_reserved":false,"is_disabled":false,"rental_uris":{"android":"levelo://app?vid=f455a2dc-c631-4feb-a981-7691b6cd7fd9","ios":"levelo://app?vid=f455a2dc-c631-4feb-a981-7691b6cd7fd9"},"vehicle_type_id":"4","last_reported":1727564842,"current_range_meters":17200,"station_id":"ce4bhn12rcd13ifvqgqg","pricing_plan_id":"cebpf4jnsgd1na2vs0mg"},{"bike_id":"05525aae-6c1b-4335-bec9-9ec70953a1c6","system_id":"levelo_inurba_marseille","lat":43.28561,"lon":5.39494,"is_reserved":false,"is_disabled":false,"rental_uris":{"android":"levelo://app?vid=05525aae-6c1b-4335-bec9-9ec70953a1c6","ios":"levelo://app?vid=05525aae-6c1b-4335-bec9-9ec70953a1c6"},"vehicle_type_id":"4","last_reported":1727564842,"current_range_meters":38800,"station_id":"ce4bh292rcd13ifvqdg0","pricing_plan_id":"cebpf4jnsgd1na2vs0mg"},{"bike_id":"c7816120-1f2d-49e2-90f7-ca880a9ea7a7","system_id":"levelo_inurba_marseille","lat":43.30135,"lon":5.39871,"is_reserved":false,"is_disabled":false,"rental_uris":{"android":"levelo://app?vid=c7816120-1f2d-49e2-90f7-ca880a9ea7a7","ios":"levelo://app?vid=c7816120-1f2d-49e2-90f7-ca880a9ea7a7"},"vehicle_type_id":"4","last_reported":1727564842,"current_range_meters":6000,"station_id":"ce4bh0h2rcd13ifvqd40","pricing_plan_id":"cebpf4jnsgd1na2vs0mg"},{"bike_id":"23934df0-fa34-4029-9401-92625150f27e","system_id":"levelo_inurba_marseille","lat":43.29186,"lon":5.35795,"is_reserved":false,"is_disabled":false,"rental_uris":{"android":"levelo://app?vid=23934df0-fa34-4029-9401-92625150f27e","ios":"levelo://app?vid=23934df0-fa34-4029-9401-92625150f27e"},"vehicle_type_id":"4","last_reported":1727564842,"current_range_meters":30800,"station_id":"ce4bhb12rcd13ifvqel0","pricing_plan_id":"cebpf4jnsgd1na2vs0mg"},