{"last_updated":1731171991,"ttl":60,"version":"2.2","data":{"bikes":[{"bike_id":"dcd8b508-2c18-4839-ab68-7b52cc2d3fb7","system_id":"levelo_inurba_marseille","lat":43.27072,"lon":5.42279,"is_reserved":false,"is_disabled":false,"rental_uris":{"android":"levelo://app?vid=dcd8b508-2c18-4839-ab68-7b52cc2d3fb7","ios":"levelo://app?vid=dcd8b508-2c18-4839-ab68-7b52cc2d3fb7"},"vehicle_type_id":"4","last_reported":1731171991,"current_range_meters":35600,"station_id":"ce4bhk92rcd13ifvqgb0","pricing_plan_id":"cebpf4jnsgd1na2vs0mg"},{"bike_id":"e94e2327-9eaf-4d26-bd7f-903afa708be6","system_id":"levelo_inurba_marseille","lat":43.33733,"lon":5.3921,"is_reserved":false,"is_disabled":false,"rental_uris":{"android":"levelo://app?vid=e94e2327-9eaf-4d26-bd7f-903afa708be6","ios":"levelo://app?vid=e94e2327-9eaf-4d26-bd7f-903afa708be6"},"vehicle_type_id":"4","last_reported":1731171991,"current_range_meters":18000,"station_id":"ce4bhr92rcd13ifvqhsg","pricing_plan_id":"cebpf4jnsgd1na2vs0mg"},{"bike_id":"68bb9078-c705-4e4c-81de-7ae7c7d86c43","system_id":"levelo_inurba_marseille","lat":43.31748,"lon":5.37795,"is_reserved":false,"is_disabled":false,"rental_uris":{"android":"levelo://app?vid=68bb9078-c705-4e4c-81de-7ae7c7d86c43","ios":"levelo://app?vid=68bb9078-c705-4e4c-81de-7ae7c7d86c43"},"vehicle_type_id":"4","last_reported":1731171991,"current_range_meters":28000,"station_id":"ce4bgth2rcd13ifvqch0","pricing_plan_id":"cebpf4jnsgd1na2vs0mg"},{"bike_id":"b1b45304-85de-47be-a140-b98549ece647","system_id":"levelo_inurba_marseille","lat":43.29792,"lon":5.38119,"is_reserved":false,"is_disabled":false,"rental_uris":{"android":"levelo://app?vid=b1b45304-85de-47be-a140-b98549ece647","ios":"levelo://app?vid=b1b45304-85de-47be-a140-b98549ece647"},"vehicle_type_id":"4","last_reported":1731171991,"current_range_meters":32800,"station_id":"ce4bgip2rcd13ifvqbb0","pricing_plan_id":"cebpf4jnsgd1na2vs0mg"},{"bike_id":"6acb1c09-719c-4713-9cd3-15ddfe6e22a9","system_id":"levelo_inurba_marseille","lat":43.29231,"lon":5.3607,"is_reserved":false,"is_disabled":false,"rental_uris":{"android":"levelo://app?vid=6acb1c09-719c-4713-9cd3-15ddfe6e22a9","ios":"levelo://app?vid=6acb1c09-719c-4713-9cd3-15ddfe6e22a9"},"vehicle_type_id":"4","last_reported":1731171991,"current_range_meters":14000,"station_id":"ce4bhbh2rcd13ifvqeqg","pricing_plan_id":"cebpf4jnsgd1na2vs0mg"},{"bike_id":"484b58b2-bd02-4bf8-b754-2ecb58efdae4","system_id":"levelo_inurba_marseille","lat":43.30331,"lon":5.40442,"is_reserved":false,"is_disabled":false,"rental_uris":{"android":"levelo://app?vid=484b58b2-bd02-4bf8-b754-2ecb58efdae4","ios":"levelo://app?vid=484b58b2-bd02-4bf8-b754-2ecb58efdae4"},"vehicle_type_id":"4","last_reported":1731171991,"current_range_meters":20000,"station_id":"ce4bh012rcd13ifvqd10","pricing_plan_id":"cebpf4jnsgd1na2vs0mg"},{"bike_id":"93343f8b-556c-40bb-8a0c-99b9004b097e","system_id":"levelo_inurba_marseille","lat":43.25939,"lon":5.40912,"is_reserved":false,"is_disabled":false,"rental_uris":{"android":"levelo://app?vid=93343f8b-556c-40bb-8a0c-99b9004b097e","ios":"levelo://app?vid=93343f8b-556c-40bb-8a0c-99b9004b097e"},"vehicle_type_id":"4","last_reported":1731171991,"current_range_meters":7200,"station_id":"ce4bhm92rcd13ifvqglg","pricing_plan_id":"cebpf4jnsgd1na2vs0mg"},{"bike_id":"acf1c3ba-85dd-430a-aa56-16544f80c95d","system_id":"levelo_inurba_marseille","lat":43.30885,"lon":5.39661,"is_reserved":false,"is_disabled":false,"rental_uris":{"android":"levelo://app?vid=acf1c3ba-85dd-430a-aa56-16544f80c95d","ios":"levelo://app?vid=acf1c3ba-85dd-430a-aa56-16544f80c95d"},"vehicle_type_id":"4","last_reported":1731171991,"current_range_meters":6400,"station_id":"ce4bh012rcd13ifvqcv0","pricing_plan_id":"cebpf4jnsgd1na2vs0mg"},{"bike_id":"9f993270-6fc4-4b46-923e-580eb0845f16","system_id":"levelo_inurba_marseille","lat":43.29624,"lon":5.3772,"is_reserved":false,"is_disabled":false,"rental_uris":{"android":"levelo://app?vid=9f993270-6fc4-4b46-923e-580eb0845f16","ios":"levelo://app?vid=9f993270-6fc4-4b46-923e-580eb0845f16"},"vehicle_type_id":"4","last_reported":1731171991,"current_range_meters":38800,"station_id":"ce4bgi92rcd13ifvqb90","pricing_plan_id":"cebpf4jnsgd1na2vs0mg"},{"bike_id":"cd20034e-b421-4446-91e0-7f4ee24db35f","system_id":"levelo_inurba_marseille","lat":43.29936,"lon":5.36548,"is_reserved":false,"is_disabled":false,"rental_uris":{"android":"levelo://app?vid=cd20034e-b421-4446-91e0-7f4ee24db35f","ios":"levelo://app?vid=cd20034e-b421-4446-91e0-7f4ee24db35f"},"vehicle_type_id":"4","last_reported":1731171991,"current_range_meters":30000,"station_id":"ce4bgm92rcd13ifvqbr0","pricing_plan_id":"cebpf4jnsgd1na2vs0mg"},{"bike_id":"1f085f34-9885-49e8-87ac-7230839d22be","system_id":"levelo_inurba_marseille","lat":43.28414,"lon":5.37509,"is_reserved":false,"is_disabled":false,"rental_uris":{"android":"levelo://app?vid=1f085f34-9885-49e8-87ac-7230839d22be","ios":"levelo://app?vid=1f085f34-9885-49e8-87ac-7230839d22be"},"vehicle_type_id":"4","last_reported":1731171991,"current_range_meters":5600,"station_id":"ce4bh412rcd13ifvqds0","pricing_plan_id":"cebpf4jnsgd1na2vs0mg"},{"bike_id":"b0ce08e5-7830-4ee3-b198-e5aa334409f8","system_id":"levelo_inurba_marseille","lat":43.28474,"lon":5.38419,"is_reserved":false,"is_disabled":false,"rental_uris":{"android":"levelo://app?vid=b0ce08e5-7830-4ee3-b198-e5aa334409f8","ios":"levelo://app?vid=b0ce08e5-7830-4ee3-b198-e5aa334409f8"},"vehicle_type_id":"4","last_reported":1731171991,"current_range_meters":29600,"station_id":"ce4bh512rcd13ifvqe3g","pricing_plan_id":"cebpf4jnsgd1na2vs0mg"},{"bike_id":"e949c9f3-dbbc-4023-afc4-75a7c1aab232","system_id":"levelo_inurba_marseille","lat":43.29584,"lon":5.37497,"is_reserved":false,"is_disabled":false,"rental_uris":{"android":"levelo://app?vid=e949c9f3-dbbc-4023-afc4-75a7c1aab232","ios":"levelo://app?vid=e949c9f3-dbbc-4023-afc4-75a7c1aab232"},"vehicle_type_id":"4","last_reported":1731171991,"current_range_meters":11600,"station_id":"ce4bgh92rcd13ifvqb50","pricing_plan_id":"cebpf4jnsgd1na2vs0mg"},{"bike_id":"b067ae9b-8f45-4e88-b6f7-faba74e7e1fe","system_id":"levelo_inurba_marseille","lat":43.25001,"lon":5.38926,"is_reserved":false,"is_disabled":false,"rental_uris":{"android":"levelo://app?vid=b067ae9b-8f45-4e88-b6f7-faba74e7e1fe","ios":"levelo://app?vid=b067ae9b-8f45-4e88-b6f7-faba74e7e1fe"},"vehicle_type_id":"4","last_reported":1731171991,"current_range_meters":31200,"station_id":"ce4bhgp2rcd13ifvqfd0","pricing_plan_id":"cebpf4jnsgd1na2vs0mg"},{"bike_id":"510592c8-a2ee-43d4-beed-e29e9bc3fb10","system_id":"levelo_inurba_marseille","lat":43.26786,"lon":5.39419,"is_reserved":false,"is_disabled":false,"rental_uris":{"android":"levelo://app?vid=510592c8-a2ee-43d4-beed-e29e9bc3fb10","ios":"levelo://app?vid=510592c8-a2ee-43d4-beed-e29e9bc3fb10"},"vehicle_type_id":"4","last_reported":1731171991,"current_range_meters":27600,"station_id":"ce4bhh12rcd13ifvqfg0","pricing_plan_id":"cebpf4jnsgd1na2vs0mg"},{"bike_id":"ba829419-f1d7-411f-ac2f-a5a1c1704a3b","system_id":"levelo_inurba_marseille","lat":43.30312,"lon":5.36903,"is_reserved":false,"is_disabled":false,"rental_uris":{"android":"levelo://app?vid=ba829419-f1d7-411f-ac2f-a5a1c1704a3b","ios":"levelo://app?vid=ba829419-f1d7-411f-ac2f-a5a1c1704a3b"},"vehicle_type_id":"4","last_reported":1731171991,"current_range_meters":38800,"station_id":"ce4bgqh2rcd13ifvqc5g","pricing_plan_id":"cebpf4jnsgd1na2vs0mg"},{"bike_id":"e4741e83-8d7f-4eba-a939-6b9a195f55bd","system_id":"levelo_inurba_marseille","lat":43.29149,"lon":5.35592,"is_reserved":false,"is_disabled":false,"rental_uris":{"android":"levelo://app?vid=e4741e83-8d7f-4eba-a939-6b9a195f55bd","ios":"levelo://app?vid=e4741e83-8d7f-4eba-a939-6b9a195f55bd"},"vehicle_type_id":"4","last_reported":1731171991,"current_range_meters":32000,"station_id":"","pricing_plan_id":"cebpf4jnsgd1na2vs0mg"},{"bike_id":"c13691b7-75c3-412e-9a4d-8e144dfb9b9b","system_id":"levelo_inurba_marseille","lat":43.25005,"lon":5.3893,"is_reserved":false,"is_disabled":false,"rental_uris":{"android":"levelo://app?vid=c13691b7-75c3-412e-9a4d-8e144dfb9b9b","ios":"levelo://app?vid=c13691b7-75c3-412e-9a4d-8e144dfb9b9b"},"vehicle_type_id":"4","last_reported":1731171991,"current_range_meters":7200,"station_id":"ce4bhgp2rcd13ifvqfd0","pricing_plan_id":"cebpf4jnsgd1na2vs0mg"},{"bike_id":"b9dd3f64-d7fc-4baa-82e1-95d09a6c0b85","system_id":"levelo_inurba_marseille","lat":43.30303,"lon":5.39209,"is_reserved":false,"is_disabled":false,"rental_uris":{"android":"levelo://app?vid=b9dd3f64-d7fc-4baa-82e1-95d09a6c0b85","ios":"levelo://app?vid=b9dd3f64-d7fc-4baa-82e1-95d09a6c0b85"},"vehicle_type_id":"4","last_reported":1731171991,"current_range_meters":38000,"station_id":"ce4bgkh2rcd13ifvqbk0","pricing_plan_id":"cebpf4jnsgd1na2vs0mg"},{"bike_id":"7e60aa39-74c3-4578-8793-b70420f46c78","system_id":"levelo_inurba_marseille","lat":43.27812,"lon":5.40711,"is_reserved":false,"is_disabled":false,"rental_uris":{"android":"levelo://app?vid=7e60aa39-74c3-4578-8793-b70420f46c78","ios":"levelo://app?vid=7e60aa39-74c3-4578-8793-b70420f46c78"},"vehicle_type_id":"4","last_reported":1731171991,"current_range_meters":9200,"station_id":"ce4bhnh2rcd13ifvqgtg","pricing_plan_id":"cebpf4jnsgd1na2vs0mg"},{"bike_id":"b9059161-bc2a-4853-8231-de961bd5f1e7","system_id":"levelo_inurba_marseille","lat":43.33723,"lon":5.39183,"is_reserved":false,"is_disabled":false,"rental_uris":{"android":"levelo://app?vid=b9059161-bc2a-4853-8231-de961bd5f1e7","ios":"levelo://app?vid=b9059161-bc2a-4853-8231-de961bd5f1e7"},"vehicle_type_id":"4","last_reported":1731171991,"current_range_meters":22400,"station_id":"ce4bhr92rcd13ifvqhsg","pricing_plan_id":"cebpf4jnsgd1na2vs0mg"},{"bike_id":"7ac36c98-5f7b-4304-a286-ea6f9baa0e94","system_id":"levelo_inurba_marseille","lat":43.24669,"lon":5.38173,"is_reserved":false,"is_disabled":false,"rental_uris":{"android":"levelo://app?vid=7ac36c98-5f7b-4304-a286-ea6f9baa0e94","ios":"levelo://app?vid=7ac36c98-5f7b-4304-a286-ea6f9baa0e94"},"vehicle_type_id":"4","last_reported":1731171991,"current_range_meters":38800,"station_id":"ce4bhih2rcd13ifvqfr0","pricing_plan_id":"cebpf4jnsgd1na2vs0mg"},{"bike_id":"842b65f8-a3af-443b-8d42-37ce5a79ba02","system_id":"levelo_inurba_marseille","lat":43.23962,"lon":5.36631,"is_reserved":false,"is_disabled":false,"rental_uris":{"android":"levelo://app?vid=842b65f8-a3af-443b-8d42-37ce5a79ba02","ios":"levelo://app?vid=842b65f8-a3af-443b-8d42-37ce5a79ba02"},"vehicle_type_id":"4","last_reported":1731171991,"current_range_meters":6000,"station_id":"ce4bhi12rcd13ifvqfp0","pricing_plan_id":"cebpf4jnsgd1na2vs0mg"},{"bike_id":"f4074fef-2e7e-488d-85e3-30ce8e31cfac","system_id":"levelo_inurba_marseille","lat":43.323944,"lon":5.411272,"is_reserved":false,"is_disabled":false,"rental_uris":{"android":"levelo://app?vid=f4074fef-2e7e-488d-85e3-30ce8e31cfac","ios":"levelo://app?vid=f4074fef-2e7e-488d-85e3-30ce8e31cfac"},"vehicle_type_id":"4","last_reported":1731171991,"current_range_meters":2800,"station_id":"ce4bhpp2rcd13ifvqhgg","pricing_plan_id":"cebpf4jnsgd1na2vs0mg"},{"bike_id":"9d060b47-c978-4432-b622-c8056cdba2bd","system_id":"levelo_inurba_marseille","lat":43.27065,"lon":5.42284,"is_reserved":false,"is_disabled":false,"rental_uris":{"android":"levelo://app?vid=9d060b47-c978-4432-b622-c8056cdba2bd","ios":"levelo://app?vid=9d060b47-c978-4432-b622-c8056cdba2bd"},"vehicle_type_id":"4","last_reported":1731171991,"current_range_meters":16400,"station_id":"ce4bhk92rcd13ifvqgb0","pricing_plan_id":"cebpf4jnsgd1na2vs0mg"},{"bike_id":"7f6039b9-3968-4840-8062-3d5a572ce874","system_id":"levelo_inurba_marseille","lat":43.29624,"lon":5.38787,"is_reserved":false,"is_disabled":false,"rental_uris":{"android":"levelo://app?vid=7f6039b9-3968-4840-8062-3d5a572ce874","ios":"levelo://app?vid=7f6039b9-3968-4840-8062-3d5a572ce874"},"vehicle_type_id":"4","last_reported":1731171991,"current_range_meters":36800,"station_id":"","pricing_plan_id":"cebpf4jnsgd1na2vs0mg"},{"bike_id":"122cbeb4-4c7f-4b94-abc1-12d4015ce49e","system_id":"levelo_inurba_marseille","lat":43.29417,"lon":5.38623,"is_reserved":false,"is_disabled":false,"rental_uris":{"android":"levelo://app?vid=122cbeb4-4c7f-4b94-abc1-12d4015ce49e","ios":"levelo://app?vid=122cbeb4-4c7f-4b94-abc1-12d4015ce49e"},"vehicle_type_id":"4","last_reported":1731171991,"current_range_meters":25600,"station_id":"ce4bh2h2rcd13ifvqdh0","pricing_plan_id":"cebpf4jnsgd1na2vs0mg"},{"bike_id":"1ba62461-8e4f-4719-9813-1bfebc62512d","system_id":"levelo_inurba_marseille","lat":43.29577,"lon":5.36752,"is_reserved":false,"is_disabled":false,"rental_uris":{"android":"levelo://app?vid=1ba62461-8e4f-4719-9813-1bfebc62512d","ios":"levelo://app?vid=1ba62461-8e4f-4719-9813-1bfebc62512d"},"vehicle_type_id":"4","last_reported":1731171991,"current_range_meters":36800,"station_id":"ce4bgph2rcd13ifvqc2g","pricing_plan_id":"cebpf4jnsgd1na2vs0mg"},{"bike_id":"5c37cb90-c48b-496b-8029-e60a720a6c00","system_id":"levelo_inurba_marseille","lat":43.2957,"lon":5.3751,"is_reserved":false,"is_disabled":false,"rental_uris":{"android":"levelo://app?vid=5c37cb90-c48b-496b-8029-e60a720a6c00","ios":"levelo://app?vid=5c37cb90-c48b-496b-8029-e60a720a6c00"},"vehicle_type_id":"4","last_reported":1731171991,"current_range_meters":38400,"station_id":"ce4bgh92rcd13ifvqb50","pricing_plan_id":"cebpf4jnsgd1na2vs0mg"},{"bike_id":"e6bfa2bc-9542-4691-95db-edae2daff427","system_id":"levelo_inurba_marseille","lat":43.28715,"lon":5.37394,"is_reserved":false,"is_disabled":false,"rental_uris":{"android":"levelo://app?vid=e6bfa2bc-9542-4691-95db-edae2daff427","ios":"levelo://app?vid=e6bfa2bc-9542-4691-95db-edae2daff427"},"vehicle_type_id":"4","last_reported":1731171991,"current_range_meters":28000,"station_id":"ce4bh3p2rcd13ifvqdq0","pricing_plan_id":"cebpf4jnsgd1na2vs0mg"},{"bike_id":"22c1039a-3f92-4394-9c5d-93bfb30a65e0","system_id":"levelo_inurba_marseille","lat":43.255,"lon":5.37651,"is_reserved":false,"is_disabled":false,"rental_uris":{"android":"levelo://app?vid=22c1039a-3f92-4394-9c5d-93bfb30a65e0","ios":"levelo://app?vid=22c1039a-3f92-4394-9c5d-93bfb30a65e0"},"vehicle_type_id":"4","last_reported":1731171991,"current_range_meters":20000,"station_id":"ce4bhh12rcd13ifvqff0","pricing_plan_id":"cebpf4jnsgd1na2vs0mg"},{"bike_id":"022a6c3f-2c40-4cbf-9753-f6fa44b0f843","system_id":"levelo_inurba_marseille","lat":43.31272,"lon":5.40172,"is_reserved":false,"is_disabled":false,"rental_uris":{"android":"levelo://app?vid=022a6c3f-2c40-4cbf-9753-f6fa44b0f843","ios":"levelo://app?vid=022a6c3f-2c40-4cbf-9753-f6fa44b0f843"},"vehicle_type_id":"4","last_reported":1731171991,"current_range_meters":38400,"station_id":"ce4bh092rcd13ifvqd30","pricing_plan_id":"cebpf4jnsgd1na2vs0mg"},{"bike_id":"20c8a7db-ed29-494d-99c4-35e53560c5bb","system_id":"levelo_inurba_marseille","lat":43.28034,"lon":5.36964,"is_reserved":false,"is_disabled":false,"rental_uris":{"android":"levelo://app?vid=20c8a7db-ed29-494d-99c4-35e53560c5bb","ios":"levelo://app?vid=20c8a7db-ed29-494d-99c4-35e53560c5bb"},"vehicle_type_id":"4","last_reported":1731171991,"current_range_meters":36800,"station_id":"ce4bha12rcd13ifvqef0","pricing_plan_id":"cebpf4jnsgd1na2vs0mg"},{"bike_id":"dc1f1268-1507-450d-886c-788f68f009d7","system_id":"levelo_inurba_marseille","lat":43.30002,"lon":5.37179,"is_reserved":false,"is_disabled":false,"rental_uris":{"android":"levelo://app?vid=dc1f1268-1507-450d-886c-788f68f009d7","ios":"levelo://app?vid=dc1f1268-1507-450d-886c-788f68f009d7"},"vehicle_type_id":"4","last_reported":1731171991,"current_range_meters":25200,"station_id":"ce4bgr92rcd13ifvqc7g","pricing_plan_id":"cebpf4jnsgd1na2vs0mg"},{"bike_id":"828a5fed-bfbb-4fb7-ac2d-ffaed39a8507","system_id":"levelo_inurba_marseille","lat":43.30456,"lon":5.37914,"is_reserved":false,"is_disabled":false,"rental_uris":{"android":"levelo://app?vid=828a5fed-bfbb-4fb7-ac2d-ffaed39a8507","ios":"levelo://app?vid=828a5fed-bfbb-4fb7-ac2d-ffaed39a8507"},"vehicle_type_id":"4","last_reported":1731171991,"current_range_meters":38800,"station_id":"ce4bgup2rcd13ifvqcn0","pricing_plan_id":"cebpf4jnsgd1na2vs0mg"},{"bike_id":"f02d1200-952c-40e4-9f6c-736ac33cf164","system_id":"levelo_inurba_marseille","lat":43.24082,"lon":5.37756,"is_reserved":false,"is_disabled":false,"rental_uris":{"android":"levelo://app?vid=f02d1200-952c-40e4-9f6c-736ac33cf164","ios":"levelo://app?vid=f02d1200-952c-40e4-9f6c-736ac33cf164"},"vehicle_type_id":"4","last_reported":1731171991,"current_range_meters":38800,"station_id":"ce4bhnp2rcd13ifvqgvg","pricing_plan_id":"cebpf4jnsgd1na2vs0mg"},{"bike_id":"29a72733-366a-469d-8900-47fdb5453f71","system_id":"levelo_inurba_marseille","lat":43.31262,"lon":5.40177,"is_reserved":false,"is_disabled":false,"rental_uris":{"android":"levelo://app?vid=29a72733-366a-469d-8900-47fdb5453f71","ios":"levelo://app?vid=29a72733-366a-469d-8900-47fdb5453f71"},"vehicle_type_id":"4","last_reported":1731171991,"current_range_meters":26800,"station_id":"ce4bh092rcd13ifvqd30","pricing_plan_id":"cebpf4jnsgd1na2vs0mg"},{"bike_id":"efa5dcf0-05b3-4a1f-aea3-3f3cfd6a4a06","system_id":"levelo_inurba_marseille","lat":43.2922,"lon":5.36055,"is_reserved":false,"is_disabled":false,"rental_uris":{"android":"levelo://app?vid=efa5dcf0-05b3-4a1f-aea3-3f3cfd6a4a06","ios":"levelo://app?vid=efa5dcf0-05b3-4a1f-aea3-3f3cfd6a4a06"},"vehicle_type_id":"4","last_reported":1731171991,"current_range_meters":34000,"station_id":"ce4bhbh2rcd13ifvqeqg","pricing_plan_id":"cebpf4jnsgd1na2vs0mg"},{"bike_id":"0b0d6975-bdda-44d6-a007-178d15f57e54","system_id":"levelo_inurba_marseille","lat":43.3199,"lon":5.38167,"is_reserved":false,"is_disabled":false,"rental_uris":{"android":"levelo://app?vid=0b0d6975-bdda-44d6-a007-178d15f57e54","ios":"levelo://app?vid=0b0d6975-bdda-44d6-a007-178d15f57e54"},"vehicle_type_id":"4","last_reported":1731171991,"current_range_meters":3600,"station_id":"ce4bhr12rcd13ifvqhpg","pricing_plan_id":"cebpf4jnsgd1na2vs0mg"},{"bike_id":"3dbceb94-9e68-4820-9d5f-ae038145ac84","system_id":"levelo_inurba_marseille","lat":43.29822,"lon":5.37645,"is_reserved":false,"is_disabled":false,"rental_uris":{"android":"levelo://app?vid=3dbceb94-9e68-4820-9d5f-ae038145ac84","ios":"levelo://app?vid=3dbceb94-9e68-4820-9d5f-ae038145ac84"},"vehicle_type_id":"4","last_reported":1731171991,"current_range_meters":37600,"station_id":"","pricing_plan_id":"cebpf4jnsgd1na2vs0mg"},{"bike_id":"71bb50a1-6cdb-4a6f-b24c-1cbd7c603ad3","system_id":"levelo_inurba_marseille","lat":43.3143,"lon":5.37413,"is_reserved":false,"is_disabled":false,"rental_uris":{"android":"levelo://app?vid=71bb50a1-6cdb-4a6f-b24c-1cbd7c603ad3","ios":"levelo://app?vid=71bb50a1-6cdb-4a6f-b24c-1cbd7c603ad3"},"vehicle_type_id":"4","last_reported":1731171991,"current_range_meters":27200,"station_id":"","pricing_plan_id":"cebpf4jnsgd1na2vs0mg"},{"bike_id":"c94909dd-e782-4a49-bf66-6d27f36ac2ee","system_id":"levelo_inurba_marseille","lat":43.29637,"lon":5.38082,"is_reserved":false,"is_disabled":false,"rental_uris":{"android":"levelo://app?vid=c94909dd-e782-4a49-bf66-6d27f36ac2ee","ios":"levelo://app?vid=c94909dd-e782-4a49-bf66-6d27f36ac2ee"},"vehicle_type_id":"4","last_reported":1731171991,"current_range_meters":34000,"station_id":"ce4bgl12rcd13ifvqbo0","pricing_plan_id":"cebpf4jnsgd1na2vs0mg"},{"bike_id":"b8fdd341-0697-41ca-82c9-e4253415f4e6","system_id":"levelo_inurba_marseille","lat":43.23053,"lon":5.35494,"is_reserved":false,"is_disabled":false,"rental_uris":{"android":"levelo://app?vid=b8fdd341-0697-41ca-82c9-e4253415f4e6","ios":"levelo://app?vid=b8fdd341-0697-41ca-82c9-e4253415f4e6"},"vehicle_type_id":"4","last_reported":1731171991,"current_range_meters":31200,"station_id":"cpo3342slgdg3j2ifvpg","pricing_plan_id":"cebpf4jnsgd1na2vs0mg"},{"bike_id":"e78690b3-93de-4dae-ac19-cc222737cf95","system_id":"levelo_inurba_marseille","lat":43.30907,"lon":5.36856,"is_reserved":false,"is_disabled":false,"rental_uris":{"android":"levelo://app?vid=e78690b3-93de-4dae-ac19-cc222737cf95","ios":"levelo://app?vid=e78690b3-93de-4dae-ac19-cc222737cf95"},"vehicle_type_id":"4","last_reported":1731171991,"current_range_meters":4000,"station_id":"","pricing_plan_id":"cebpf4jnsgd1na2vs0mg"},{"bike_id":"927db7cf-e6b7-4da8-bc60-cad18017e625","system_id":"levelo_inurba_marseille","lat":43.29198,"lon":5.35801,"is_reserved":false,"is_disabled":false,"rental_uris":{"android":"levelo://app?vid=927db7cf-e6b7-4da8-bc60-cad18017e625","ios":"levelo://app?vid=927db7cf-e6b7-4da8-bc60-cad18017e625"},"vehicle_type_id":"4","last_reported":1731171991,"current_range_meters":3600,"station_id":"ce4bhb12rcd13ifvqel0","pricing_plan_id":"cebpf4jnsgd1na2vs0mg"},{"bike_id":"1093d2a5-b6c8-4cc6-b161-5bc1ad36b2da","system_id":"levelo_inurba_marseille","lat":43.30458,"lon":5.37906,"is_reserved":false,"is_disabled":false,"rental_uris":{"android":"levelo://app?vid=1093d2a5-b6c8-4cc6-b161-5bc1ad36b2da","ios":"levelo://app?vid=1093d2a5-b6c8-4cc6-b161-5bc1ad36b2da"},"vehicle_type_id":"4","last_reported":1731171991,"current_range_meters":26800,"station_id":"ce4bgup2rcd13ifvqcn0","pricing_plan_id":"cebpf4jnsgd1na2vs0mg"},{"bike_id":"9273fa3f-8051-4693-b481-186e59c04091","system_id":"levelo_inurba_marseille","lat":43.29421,"lon":5.38622,"is_reserved":false,"is_disabled":false,"rental_uris":{"android":"levelo://app?vid=9273fa3f-8051-4693-b481-186e59c04091","ios":"levelo://app?vid=9273fa3f-8051-4693-b481-186e59c04091"},"vehicle_type_id":"4","last_reported":1731171991,"current_range_meters":17200,"station_id":"ce4bh2h2rcd13ifvqdh0","pricing_plan_id":"cebpf4jnsgd1na2vs0mg"},{"bike_id":"3e7a8dcb-fe3c-457b-bced-dfb63e9073e4","system_id":"levelo_inurba_marseille","lat":43.29312,"lon":5.37178,"is_reserved":false,"is_disabled":false,"rental_uris":{"android":"levelo://app?vid=3e7a8dcb-fe3c-457b-bced-dfb63e9073e4","ios":"levelo://app?vid=3e7a8dcb-fe3c-457b-bced-dfb63e9073e4"},"vehicle_type_id":"4","last_reported":1731171991,"current_range_meters":16800,"station_id":"ce4bgh92rcd13ifvqb40","pricing_plan_id":"cebpf4jnsgd1na2vs0mg"},{"bike_id":"b9d0bc02-8b8d-46ee-bb6e-da3b365f1431","system_id":"levelo_inurba_marseille","lat":43.30154,"lon":5.38088,"is_reserved":false,"is_disabled":false,"rental_uris":{"android":"levelo://app?vid=b9d0bc02-8b8d-46ee-bb6e-da3b365f1431","ios":"levelo://app?vid=b9d0bc02-8b8d-46ee-bb6e-da3b365f1431"},"vehicle_type_id":"4","last_reported":1731171991,"current_range_meters":38800,"station_id":"ce4bgjp2rcd13ifvqbh0","pricing_plan_id":"cebpf4jnsgd1na2vs0mg"},{"bike_id":"a3f93f81-4de2-44f6-8252-3b56395111a9","system_id":"levelo_inurba_marseille","lat":43.27172,"lon":5.40993,"is_reserved":false,"is_disabled":false,"rental_uris":{"android":"levelo://app?vid=a3f93f81-4de2-44f6-8252-3b56395111a9","ios":"levelo://app?vid=a3f93f81-4de2-44f6-8252-3b56395111a9"},"vehicle_type_id":"4","last_reported":1731171991,"current_range_meters":38800,"station_id":"ce4bhl12rcd13ifvqgf0","pricing_plan_id":"cebpf4jnsgd1na2vs0mg"},{"bike_id":"d2a7d86a-0890-4311-bcc6-70de1aeddd49","system_id":"levelo_inurba_marseille","lat":43.25487,"lon":5.37655,"is_reserved":false,"is_disabled":false,"rental_uris":{"android":"levelo://app?vid=d2a7d86a-0890-4311-bcc6-70de1aeddd49","ios":"levelo://app?vid=d2a7d86a-0890-4311-bcc6-70de1aeddd49"},"vehicle_type_id":"4","last_reported":1731171991,"current_range_meters":17200,"station_id":"ce4bhh12rcd13ifvqff0","pricing_plan_id":"cebpf4jnsgd1na2vs0mg"},{"bike_id":"2972f759-c98e-4fe7-9758-85d215895273","system_id":"levelo_inurba_marseille","lat":43.23955,"lon":5.36629,"is_reserved":false,"is_disabled":false,"rental_uris":{"android":"levelo://app?vid=2972f759-c98e-4fe7-9758-85d215895273","ios":"levelo://app?vid=2972f759-c98e-4fe7-9758-85d215895273"},"vehicle_type_id":"4","last_reported":1731171991,"current_range_meters":38800,"station_id":"ce4bhi12rcd13ifvqfp0","pricing_plan_id":"cebpf4jnsgd1na2vs0mg"},{"bike_id":"8bb1867a-1fa0-4a39-92bc-2409d12ff513","system_id":"levelo_inurba_marseille","lat":43.27073,"lon":5.42278,"is_reserved":false,"is_disabled":false,"rental_uris":{"android":"levelo://app?vid=8bb1867a-1fa0-4a39-92bc-2409d12ff513","ios":"levelo://app?vid=8bb1867a-1fa0-4a39-92bc-2409d12ff513"},"vehicle_type_id":"4","last_reported":1731171991,"current_range_meters":2800,"station_id":"ce4bhk92rcd13ifvqgb0","pricing_plan_id":"cebpf4jnsgd1na2vs0mg"},{"bike_id":"010d3bc6-1da9-4e2e-9558-6436a5780c21","system_id":"levelo_inurba_marseille","lat":43.23195,"lon":5.35555,"is_reserved":false,"is_disabled":false,"rental_uris":{"android":"levelo://app?vid=010d3bc6-1da9-4e2e-9558-6436a5780c21","ios":"levelo://app?vid=010d3bc6-1da9-4e2e-9558-6436a5780c21"},"vehicle_type_id":"4","last_reported":1731171991,"current_range_meters":26000,"station_id":"ce4bhu92rcd13ifvqi70","pricing_plan_id":"cebpf4jnsgd1na2vs0mg"},{"bike_id":"72eef838-ed9e-445c-8c44-92adfadd34f0","system_id":"levelo_inurba_marseille","lat":43.30957,"lon":5.379374,"is_reserved":false,"is_disabled":false,"rental_uris":{"android":"levelo://app?vid=72eef838-ed9e-445c-8c44-92adfadd34f0","ios":"levelo://app?vid=72eef838-ed9e-445c-8c44-92adfadd34f0"},"vehicle_type_id":"4","last_reported":1731171991,"current_range_meters":15200,"station_id":"ce4bhbh2rcd13ifvqeo0","pricing_plan_id":"cebpf4jnsgd1na2vs0mg"},{"bike_id":"49ce0533-aa65-4719-aee6-e3982b0750c0","system_id":"levelo_inurba_marseille","lat":43.27375,"lon":5.36263,"is_reserved":false,"is_disabled":false,"rental_uris":{"android":"levelo://app?vid=49ce0533-aa65-4719-aee6-e3982b0750c0","ios":"levelo://app?vid=49ce0533-aa65-4719-aee6-e3982b0750c0"},"vehicle_type_id":"4","last_reported":1731171991,"current_range_meters":39200,"station_id":"ce4bhbh2rcd13ifvqeo0","pricing_plan_id":"cebpf4jnsgd1na2vs0mg"},{"bike_id":"08454e51-5a45-4c90-a554-b4e5bfc3369d","system_id":"levelo_inurba_marseille","lat":43.27497,"lon":5.42451,"is_reserved":false,"is_disabled":false,"rental_uris":{"android":"levelo://app?vid=08454e51-5a45-4c90-a554-b4e5bfc3369d","ios":"levelo://app?vid=08454e51-5a45-4c90-a554-b4e5bfc3369d"},"vehicle_type_id":"4","last_reported":1731171991,"current_range_meters":17600,"station_id":"ce4bhn92rcd13ifvqgrg","pricing_plan_id":"cebpf4jnsgd1na2vs0mg"},{"bike_id":"6a62b2b8-f2f0-4278-9372-655c0ba000ef","system_id":"levelo_inurba_marseille","lat":43.29631,"lon":5.40594,"is_reserved":false,"is_disabled":false,"rental_uris":{"android":"levelo://app?vid=6a62b2b8-f2f0-4278-9372-655c0ba000ef","ios":"levelo://app?vid=6a62b2b8-f2f0-4278-9372-655c0ba000ef"},"vehicle_type_id":"4","last_reported":1731171991,"current_range_meters":26000,"station_id":"ce4bh0h2rcd13ifvqd60","pricing_plan_id":"cebpf4jnsgd1na2vs0mg"},{"bike_id":"2ad361b6-540e-4873-9e5b-6b5de9b52523","system_id":"levelo_inurba_marseille","lat":43.23967,"lon":5.36611,"is_reserved":false,"is_disabled":false,"rental_uris":{"android":"levelo://app?vid=2ad361b6-540e-4873-9e5b-6b5de9b52523","ios":"levelo://app?vid=2ad361b6-540e-4873-9e5b-6b5de9b52523"},"vehicle_type_id":"4","last_reported":1731171991,"current_range_meters":6800,"station_id":"ce4bhi12rcd13ifvqfp0","pricing_plan_id":"cebpf4jnsgd1na2vs0mg"},{"bike_id":"de625a6c-4516-418f-abce-1b52264bdad0","system_id":"levelo_inurba_marseille","lat":43.29265,"lon":5.38447,"is_reserved":false,"is_disabled":false,"rental_uris":{"android":"levelo://app?vid=de625a6c-4516-418f-abce-1b52264bdad0","ios":"levelo://app?vid=de625a6c-4516-418f-abce-1b52264bdad0"},"vehicle_type_id":"4","last_reported":1731171991,"current_range_meters":2000,"station_id":"ce4bh692rcd13ifvqea0","pricing_plan_id":"cebpf4jnsgd1na2vs0mg"},{"bike_id":"0778aa4d-aae0-4d31-84a7-e33ba159e0fc","system_id":"levelo_inurba_marseille","lat":43.3046,"lon":5.37911,"is_reserved":false,"is_disabled":false,"rental_uris":{"android":"levelo://app?vid=0778aa4d-aae0-4d31-84a7-e33ba159e0fc","ios":"levelo://app?vid=0778aa4d-aae0-4d31-84a7-e33ba159e0fc"},"vehicle_type_id":"4","last_reported":1731171991,"current_range_meters":36400,"station_id":"ce4bgup2rcd13ifvqcn0","pricing_plan_id":"cebpf4jnsgd1na2vs0mg"},{"bike_id":"39f17349-ada4-4402-b2d4-f4683db56d2d","system_id":"levelo_inurba_marseille","lat":43.27498,"lon":5.42454,"is_reserved":false,"is_disabled":false,"rental_uris":{"android":"levelo://app?vid=39f17349-ada4-4402-b2d4-f4683db56d2d","ios":"levelo://app?vid=39f17349-ada4-4402-b2d4-f4683db56d2d"},"vehicle_type_id":"4","last_reported":1731171991,"current_range_meters":38800,"station_id":"ce4bhn92rcd13ifvqgrg","pricing_plan_id":"cebpf4jnsgd1na2vs0mg"},{"bike_id":"b9478b1d-79e3-44c9-ae60-496dd5151f62","system_id":"levelo_inurba_marseille","lat":43.291575,"lon":5.3715,"is_reserved":false,"is_disabled":false,"rental_uris":{"android":"levelo://app?vid=b9478b1d-79e3-44c9-ae60-496dd5151f62","ios":"levelo://app?vid=b9478b1d-79e3-44c9-ae60-496dd5151f62"},"vehicle_type_id":"4","last_reported":1731171991,"current_range_meters":36400,"station_id":"ce4bha92rcd13ifvqeh0","pricing_plan_id":"cebpf4jnsgd1na2vs0mg"},{"bike_id":"aadcedab-778e-4452-9d99-932dd3734673","system_id":"levelo_inurba_marseille","lat":43.28942,"lon":5.36627,"is_reserved":false,"is_disabled":false,"rental_uris":{"android":"levelo://app?vid=aadcedab-778e-4452-9d99-932dd3734673","ios":"levelo://app?vid=aadcedab-778e-4452-9d99-932dd3734673"},"vehicle_type_id":"4","last_reported":1731171991,"current_range_meters":30800,"station_id":"ce4bhap2rcd13ifvqek0","pricing_plan_id":"cebpf4jnsgd1na2vs0mg"},{"bike_id":"4204c697-9142-4d6f-a64b-20f319f8c9a7","system_id":"levelo_inurba_marseille","lat":43.27063,"lon":5.42282,"is_reserved":false,"is_disabled":false,"rental_uris":{"android":"levelo://app?vid=4204c697-9142-4d6f-a64b-20f319f8c9a7","ios":"levelo://app?vid=4204c697-9142-4d6f-a64b-20f319f8c9a7"},"vehicle_type_id":"4","last_reported":1731171991,"current_range_meters":13600,"station_id":"ce4bhk92rcd13ifvqgb0","pricing_plan_id":"cebpf4jnsgd1na2vs0mg"},{"bike_id":"c42b62d5-7a91-4bd7-862a-c51eb0940054","system_id":"levelo_inurba_marseille","lat":43.29791,"lon":5.38103,"is_reserved":false,"is_disabled":false,"rental_uris":{"android":"levelo://app?vid=c42b62d5-7a91-4bd7-862a-c51eb0940054","ios":"levelo://app?vid=c42b62d5-7a91-4bd7-862a-c51eb0940054"},"vehicle_type_id":"4","last_reported":1731171991,"current_range_meters":26800,"station_id":"ce4bgip2rcd13ifvqbb0","pricing_plan_id":"cebpf4jnsgd1na2vs0mg"},{"bike_id":"de15f00a-25b1-4b9b-a102-3b4e4c3a83ba","system_id":"levelo_inurba_marseille","lat":43.30151,"lon":5.38084,"is_reserved":false,"is_disabled":false,"rental_uris":{"android":"levelo://app?vid=de15f00a-25b1-4b9b-a102-3b4e4c3a83ba","ios":"levelo://app?vid=de15f00a-25b1-4b9b-a102-3b4e4c3a83ba"},"vehicle_type_id":"4","last_reported":1731171991,"current_range_meters":29600,"station_id":"ce4bgjp2rcd13ifvqbh0","pricing_plan_id":"cebpf4jnsgd1na2vs0mg"},{"bike_id":"8f45d207-a042-493b-b949-4cdcf0c023b5","system_id":"levelo_inurba_marseille","lat":43.29193,"lon":5.35806,"is_reserved":false,"is_disabled":false,"rental_uris":{"android":"levelo://app?vid=8f45d207-a042-493b-b949-4cdcf0c023b5","ios":"levelo://app?vid=8f45d207-a042-493b-b949-4cdcf0c023b5"},"vehicle_type_id":"4","last_reported":1731171991,"current_range_meters":18000,"station_id":"ce4bhb12rcd13ifvqel0","pricing_plan_id":"cebpf4jnsgd1na2vs0mg"},{"bike_id":"84c3be44-368f-426b-bb15-9b851cdd1e14","system_id":"levelo_inurba_marseille","lat":43.288452,"lon":5.393108,"is_reserved":false,"is_disabled":false,"rental_uris":{"android":"levelo://app?vid=84c3be44-368f-426b-bb15-9b851cdd1e14","ios":"levelo://app?vid=84c3be44-368f-426b-bb15-9b851cdd1e14"},"vehicle_type_id":"4","last_reported":1731171991,"current_range_meters":38800,"station_id":"ce4bh2p2rcd13ifvqdi0","pricing_plan_id":"cebpf4jnsgd1na2vs0mg"},{"bike_id":"ebe483fe-063d-486e-bd62-145a299216a5","system_id":"levelo_inurba_marseille","lat":43.29687,"lon":5.37293,"is_reserved":false,"is_disabled":false,"rental_uris":{"android":"levelo://app?vid=ebe483fe-063d-486e-bd62-145a299216a5","ios":"levelo://app?vid=ebe483fe-063d-486e-bd62-145a299216a5"},"vehicle_type_id":"4","last_reported":1731171991,"current_range_meters":24400,"station_id":"ce4bgk12rcd13ifvqbj0","pricing_plan_id":"cebpf4jnsgd1na2vs0mg"},{"bike_id":"b4de7b9a-6515-49e3-b4f0-3d8149400129","system_id":"levelo_inurba_marseille","lat":43.30155,"lon":5.38093,"is_reserved":false,"is_disabled":false,"rental_uris":{"android":"levelo://app?vid=b4de7b9a-6515-49e3-b4f0-3d8149400129","ios":"levelo://app?vid=b4de7b9a-6515-49e3-b4f0-3d8149400129"},"vehicle_type_id":"4","last_reported":1731171991,"current_range_meters":36000,"station_id":"ce4bgjp2rcd13ifvqbh0","pricing_plan_id":"cebpf4jnsgd1na2vs0mg"},{"bike_id":"c8372882-7379-4a9e-a19a-bb200db5a875","system_id":"levelo_inurba_marseille","lat":43.296793,"lon":5.372971,"is_reserved":false,"is_disabled":false,"rental_uris":{"android":"levelo://app?vid=c8372882-7379-4a9e-a19a-bb200db5a875","ios":"levelo://app?vid=c8372882-7379-4a9e-a19a-bb200db5a875"},"vehicle_type_id":"4","last_reported":1731171991,"current_range_meters":38800,"station_id":"ce4bgk12rcd13ifvqbj0","pricing_plan_id":"cebpf4jnsgd1na2vs0mg"},{"bike_id":"55ca486f-b76d-4f09-9a75-2e896bf69ae7","system_id":"levelo_inurba_marseille","lat":43.289429,"lon":5.366399,"is_reserved":false,"is_disabled":false,"rental_uris":{"android":"levelo://app?vid=55ca486f-b76d-4f09-9a75-2e896bf69ae7","ios":"levelo://app?vid=55ca486f-b76d-4f09-9a75-2e896bf69ae7"},"vehicle_type_id":"4","last_reported":1731171991,"current_range_meters":6000,"station_id":"ce4bhap2rcd13ifvqek0","pricing_plan_id":"cebpf4jnsgd1na2vs0mg"},{"bike_id":"ef288286-229d-4b9a-a189-8d61840dcffb","system_id":"levelo_inurba_marseille","lat":43.23189,"lon":5.35549,"is_reserved":false,"is_disabled":false,"rental_uris":{"android":"levelo://app?vid=ef288286-229d-4b9a-a189-8d61840dcffb","ios":"levelo://app?vid=ef288286-229d-4b9a-a189-8d61840dcffb"},"vehicle_type_id":"4","last_reported":1731171991,"current_range_meters":32800,"station_id":"ce4bhu92rcd13ifvqi70","pricing_plan_id":"cebpf4jnsgd1na2vs0mg"},{"bike_id":"2b0ba1fc-2998-4aab-bda1-c81260e4d178","system_id":"levelo_inurba_marseille","lat":43.2901,"lon":5.38122,"is_reserved":false,"is_disabled":false,"rental_uris":{"android":"levelo://app?vid=2b0ba1fc-2998-4aab-bda1-c81260e4d178","ios":"levelo://app?vid=2b0ba1fc-2998-4aab-bda1-c81260e4d178"},"vehicle_type_id":"4","last_reported":1731171991,"current_range_meters":38000,"station_id":"ce4bh4p2rcd13ifvqe1g","pricing_plan_id":"cebpf4jnsgd1na2vs0mg"},{"bike_id":"19be0944-f636-46dc-b43a-d4c7cbb2665b","system_id":"levelo_inurba_marseille","lat":43.32661,"lon":5.40994,"is_reserved":false,"is_disabled":false,"rental_uris":{"android":"levelo://app?vid=19be0944-f636-46dc-b43a-d4c7cbb2665b","ios":"levelo://app?vid=19be0944-f636-46dc-b43a-d4c7cbb2665b"},"vehicle_type_id":"4","last_reported":1731171991,"current_range_meters":38800,"station_id":"ce4bhpp2rcd13ifvqhgg","pricing_plan_id":"cebpf4jnsgd1na2vs0mg"},{"bike_id":"1b273681-a149-4b44-af0d-27ca962351bc","system_id":"levelo_inurba_marseille","lat":43.29961,"lon":5.41331,"is_reserved":false,"is_disabled":false,"rental_uris":{"android":"levelo://app?vid=1b273681-a149-4b44-af0d-27ca962351bc","ios":"levelo://app?vid=1b273681-a149-4b44-af0d-27ca962351bc"},"vehicle_type_id":"4","last_reported":1731171991,"current_range_meters":36000,"station_id":"ce4bhp12rcd13ifvqh9g","pricing_plan_id":"cebpf4jnsgd1na2vs0mg"},{"bike_id":"81d75b94-235f-4d66-95b8-a1c86584fb9a","system_id":"levelo_inurba_marseille","lat":43.29906,"lon":5.38078,"is_reserved":false,"is_disabled":false,"rental_uris":{"android":"levelo://app?vid=81d75b94-235f-4d66-95b8-a1c86584fb9a","ios":"levelo://app?vid=81d75b94-235f-4d66-95b8-a1c86584fb9a"},"vehicle_type_id":"4","last_reported":1731171991,"current_range_meters":18000,"station_id":"","pricing_plan_id":"cebpf4jnsgd1na2vs0mg"},{"bike_id":"9ae20148-7f84-4ca9-881f-f3cdc365c4d8","system_id":"levelo_inurba_marseille","lat":43.28113,"lon":5.37836,"is_reserved":false,"is_disabled":false,"rental_uris":{"android":"levelo://app?vid=9ae20148-7f84-4ca9-881f-f3cdc365c4d8","ios":"levelo://app?vid=9ae20148-7f84-4ca9-881f-f3cdc365c4d8"},"vehicle_type_id":"4","last_reported":1731171991,"current_range_meters":28800,"station_id":"ce4bha12rcd13ifvqee0","pricing_plan_id":"cebpf4jnsgd1na2vs0mg"},{"bike_id":"12d777f0-c674-403d-a610-545dc982936d","system_id":"levelo_inurba_marseille","lat":43.30474,"lon":5.37908,"is_reserved":false,"is_disabled":false,"rental_uris":{"android":"levelo://app?vid=12d777f0-c674-403d-a610-545dc982936d","ios":"levelo://app?vid=12d777f0-c674-403d-a610-545dc982936d"},"vehicle_type_id":"4","last_reported":1731171991,"current_range_meters":36800,"station_id":"ce4bgup2rcd13ifvqcn0","pricing_plan_id":"cebpf4jnsgd1na2vs0mg"},{"bike_id":"c4fc6d8a-29c4-4ab8-81be-3b98031e1ada","system_id":"levelo_inurba_marseille","lat":43.29781,"lon":5.38103,"is_reserved":false,"is_disabled":false,"rental_uris":{"android":"levelo://app?vid=c4fc6d8a-29c4-4ab8-81be-3b98031e1ada","ios":"levelo://app?vid=c4fc6d8a-29c4-4ab8-81be-3b98031e1ada"},"vehicle_type_id":"4","last_reported":1731171991,"current_range_meters":36400,"station_id":"ce4bgip2rcd13ifvqbb0","pricing_plan_id":"cebpf4jnsgd1na2vs0mg"},{"bike_id":"375e0255-1ab8-46ee-98a9-4aa3f889748d","system_id":"levelo_inurba_marseille","lat":43.29261,"lon":5.40912,"is_reserved":false,"is_disabled":false,"rental_uris":{"android":"levelo://app?vid=375e0255-1ab8-46ee-98a9-4aa3f889748d","ios":"levelo://app?vid=375e0255-1ab8-46ee-98a9-4aa3f889748d"},"vehicle_type_id":"4","last_reported":1731171991,"current_range_meters":6800,"station_id":"ce4bh192rcd13ifvqdc0","pricing_plan_id":"cebpf4jnsgd1na2vs0mg"},{"bike_id":"5b44a142-acdf-4de7-a19d-cba601bb129e","system_id":"levelo_inurba_marseille","lat":43.28717,"lon":5.360906,"is_reserved":false,"is_disabled":false,"rental_uris":{"android":"levelo://app?vid=5b44a142-acdf-4de7-a19d-cba601bb129e","ios":"levelo://app?vid=5b44a142-acdf-4de7-a19d-cba601bb129e"},"vehicle_type_id":"4","last_reported":1731171991,"current_range_meters":26800,"station_id":"cki0cbj6b192h4jlfktg","pricing_plan_id":"cebpf4jnsgd1na2vs0mg"},{"bike_id":"6606b8a7-30d5-490f-ad48-75d5c1907f8b","system_id":"levelo_inurba_marseille","lat":43.29611,"lon":5.37715,"is_reserved":false,"is_disabled":false,"rental_uris":{"android":"levelo://app?vid=6606b8a7-30d5-490f-ad48-75d5c1907f8b","ios":"levelo://app?vid=6606b8a7-30d5-490f-ad48-75d5c1907f8b"},"vehicle_type_id":"4","last_reported":1731171991,"current_range_meters":38800,"station_id":"ce4bgi92rcd13ifvqb90","pricing_plan_id":"cebpf4jnsgd1na2vs0mg"},{"bike_id":"fbbe362b-7b29-4c8f-b506-484f07761f02","system_id":"levelo_inurba_marseille","lat":43.29915,"lon":5.37461,"is_reserved":false,"is_disabled":false,"rental_uris":{"android":"levelo://app?vid=fbbe362b-7b29-4c8f-b506-484f07761f02","ios":"levelo://app?vid=fbbe362b-7b29-4c8f-b506-484f07761f02"},"vehicle_type_id":"4","last_reported":1731171991,"current_range_meters":36800,"station_id":"ce4bgjh2rcd13ifvqbg0","pricing_plan_id":"cebpf4jnsgd1na2vs0mg"},{"bike_id":"15960287-54f7-422f-8523-edbf26f011a0","system_id":"levelo_inurba_marseille","lat":43.23968,"lon":5.3664,"is_reserved":false,"is_disabled":false,"rental_uris":{"android":"levelo://app?vid=15960287-54f7-422f-8523-edbf26f011a0","ios":"levelo://app?vid=15960287-54f7-422f-8523-edbf26f011a0"},"vehicle_type_id":"4","last_reported":1731171991,"current_range_meters":16000,"station_id":"ce4bhi12rcd13ifvqfp0","pricing_plan_id":"cebpf4jnsgd1na2vs0mg"},{"bike_id":"6463664d-8d71-4282-8618-f2c0c195f781","system_id":"levelo_inurba_marseille","lat":43.30152,"lon":5.3808,"is_reserved":false,"is_disabled":false,"rental_uris":{"android":"levelo://app?vid=6463664d-8d71-4282-8618-f2c0c195f781","ios":"levelo://app?vid=6463664d-8d71-4282-8618-f2c0c195f781"},"vehicle_type_id":"4","last_reported":1731171991,"current_range_meters":27600,"station_id":"ce4bgjp2rcd13ifvqbh0","pricing_plan_id":"cebpf4jnsgd1na2vs0mg"},{"bike_id":"ce4f6054-6803-4a50-b675-d53ef22d653f","system_id":"levelo_inurba_marseille","lat":43.26027,"lon":5.37557,"is_reserved":false,"is_disabled":false,"rental_uris":{"android":"levelo://app?vid=ce4f6054-6803-4a50-b675-d53ef22d653f","ios":"levelo://app?vid=ce4f6054-6803-4a50-b675-d53ef22d653f"},"vehicle_type_id":"4","last_reported":1731171991,"current_range_meters":35200,"station_id":"ce4bhgh2rcd13ifvqfa0","pricing_plan_id":"cebpf4jnsgd1na2vs0mg"},{"bike_id":"a2af0eca-530d-4954-b538-26140aa97bc7","system_id":"levelo_inurba_marseille","lat":43.27492,"lon":5.42455,"is_reserved":false,"is_disabled":false,"rental_uris":{"android":"levelo://app?vid=a2af0eca-530d-4954-b538-26140aa97bc7","ios":"levelo://app?vid=a2af0eca-530d-4954-b538-26140aa97bc7"},"vehicle_type_id":"4","last_reported":1731171991,"current_range_meters":27600,"station_id":"ce4bhn92rcd13ifvqgrg","pricing_plan_id":"cebpf4jnsgd1na2vs0mg"},{"bike_id":"ba4e9b3f-2a8e-4431-b57f-f6a1ee8edd37","system_id":"levelo_inurba_marseille","lat":43.301467,"lon":5.380897,"is_reserved":false,"is_disabled":false,"rental_uris":{"android":"levelo://app?vid=ba4e9b3f-2a8e-4431-b57f-f6a1ee8edd37","ios":"levelo://app?vid=ba4e9b3f-2a8e-4431-b57f-f6a1ee8edd37"},"vehicle_type_id":"4","last_reported":1731171991,"current_range_meters":19200,"station_id":"ce4bgjp2rcd13ifvqbh0","pricing_plan_id":"cebpf4jnsgd1na2vs0mg"},{"bike_id":"ae6ee6df-5779-49bd-a122-e5a8ebd03b7d","system_id":"levelo_inurba_marseille","lat":43.29323,"lon":5.37186,"is_reserved":false,"is_disabled":false,"rental_uris":{"android":"levelo://app?vid=ae6ee6df-5779-49bd-a122-e5a8ebd03b7d","ios":"levelo://app?vid=ae6ee6df-5779-49bd-a122-e5a8ebd03b7d"},"vehicle_type_id":"4","last_reported":1731171991,"current_range_meters":38800,"station_id":"ce4bgh92rcd13ifvqb40","pricing_plan_id":"cebpf4jnsgd1na2vs0mg"},{"bike_id":"66af5e8e-4247-444f-a614-0457a2f59daf","system_id":"levelo_inurba_marseille","lat":43.29772,"lon":5.37094,"is_reserved":false,"is_disabled":false,"rental_uris":{"android":"levelo://app?vid=66af5e8e-4247-444f-a614-0457a2f59daf","ios":"levelo://app?vid=66af5e8e-4247-444f-a614-0457a2f59daf"},"vehicle_type_id":"4","last_reported":1731171991,"current_range_meters":34800,"station_id":"ce4bgop2rcd13ifvqc1g","pricing_plan_id":"cebpf4jnsgd1na2vs0mg"},{"bike_id":"37fc3257-f988-4115-a0d3-dea211b820ff","system_id":"levelo_inurba_marseille","lat":43.30786,"lon":5.3716,"is_reserved":false,"is_disabled":false,"rental_uris":{"android":"levelo://app?vid=37fc3257-f988-4115-a0d3-dea211b820ff","ios":"levelo://app?vid=37fc3257-f988-4115-a0d3-dea211b820ff"},"vehicle_type_id":"4","last_reported":1731171991,"current_range_meters":32400,"station_id":"","pricing_plan_id":"cebpf4jnsgd1na2vs0mg"},{"bike_id":"48a5c018-2c8a-4185-b049-1c96e973e571","system_id":"levelo_inurba_marseille","lat":43.255,"lon":5.37652,"is_reserved":false,"is_disabled":false,"rental_uris":{"android":"levelo://app?vid=48a5c018-2c8a-4185-b049-1c96e973e571","ios":"levelo://app?vid=48a5c018-2c8a-4185-b049-1c96e973e571"},"vehicle_type_id":"4","last_reported":1731171991,"current_range_meters":35200,"station_id":"ce4bhh12rcd13ifvqff0","pricing_plan_id":"cebpf4jnsgd1na2vs0mg"},{"bike_id":"ea98b6c6-fc60-4b85-96f2-34a2894e0726","system_id":"levelo_inurba_marseille","lat":43.28368,"lon":5.38642,"is_reserved":false,"is_disabled":false,"rental_uris":{"android":"levelo://app?vid=ea98b6c6-fc60-4b85-96f2-34a2894e0726","ios":"levelo://app?vid=ea98b6c6-fc60-4b85-96f2-34a2894e0726"},"vehicle_type_id":"4","last_reported":1731171991,"current_range_meters":28400,"station_id":"ce4bh492rcd13ifvqdvg","pricing_plan_id":"cebpf4jnsgd1na2vs0mg"},{"bike_id":"4a33dbb2-5669-4f5d-ac8c-8d50d6b6b6d7","system_id":"levelo_inurba_marseille","lat":43.30881,"lon":5.39643,"is_reserved":false,"is_disabled":false,"rental_uris":{"android":"levelo://app?vid=4a33dbb2-5669-4f5d-ac8c-8d50d6b6b6d7","ios":"levelo://app?vid=4a33dbb2-5669-4f5d-ac8c-8d50d6b6b6d7"},"vehicle_type_id":"4","last_reported":1731171991,"current_range_meters":20000,"station_id":"ce4bh012rcd13ifvqcv0","pricing_plan_id":"cebpf4jnsgd1na2vs0mg"},{"bike_id":"55681b0b-1ab8-4c21-a1de-d2533c723ce0","system_id":"levelo_inurba_marseille","lat":43.30464,"lon":5.37908,"is_reserved":false,"is_disabled":false,"rental_uris":{"android":"levelo://app?vid=55681b0b-1ab8-4c21-a1de-d2533c723ce0","ios":"levelo://app?vid=55681b0b-1ab8-4c21-a1de-d2533c723ce0"},"vehicle_type_id":"4","last_reported":1731171991,"current_range_meters":32000,"station_id":"ce4bgup2rcd13ifvqcn0","pricing_plan_id":"cebpf4jnsgd1na2vs0mg"},{"bike_id":"c2b6a451-fc21-42df-9802-10ec99c7f27f","system_id":"levelo_inurba_marseille","lat":43.25117,"lon":5.40319,"is_reserved":false,"is_disabled":false,"rental_uris":{"android":"levelo://app?vid=c2b6a451-fc21-42df-9802-10ec99c7f27f","ios":"levelo://app?vid=c2b6a451-fc21-42df-9802-10ec99c7f27f"},"vehicle_type_id":"4","last_reported":1731171991,"current_range_meters":22800,"station_id":"ce4bhlh2rcd13ifvqgig","pricing_plan_id":"cebpf4jnsgd1na2vs0mg"},{"bike_id":"a9cfc9bc-dea7-466b-ac62-4a48663dc023","system_id":"levelo_inurba_marseille","lat":43.30425,"lon":5.38898,"is_reserved":false,"is_disabled":false,"rental_uris":{"android":"levelo://app?vid=a9cfc9bc-dea7-466b-ac62-4a48663dc023","ios":"levelo://app?vid=a9cfc9bc-dea7-466b-ac62-4a48663dc023"},"vehicle_type_id":"4","last_reported":1731171991,"current_range_meters":18800,"station_id":"ce4bgk12rcd13ifvqbi0","pricing_plan_id":"cebpf4jnsgd1na2vs0mg"},{"bike_id":"bba26f4c-9411-4493-8dd3-6cffa6822b64","system_id":"levelo_inurba_marseille","lat":43.26567,"lon":5.38985,"is_reserved":false,"is_disabled":false,"rental_uris":{"android":"levelo://app?vid=bba26f4c-9411-4493-8dd3-6cffa6822b64","ios":"levelo://app?vid=bba26f4c-9411-4493-8dd3-6cffa6822b64"},"vehicle_type_id":"4","last_reported":1731171991,"current_range_meters":11600,"station_id":"ce4bhe12rcd13ifvqf30","pricing_plan_id":"cebpf4jnsgd1na2vs0mg"},{"bike_id":"4506f01b-19a2-4ef0-83ec-fa2596b1432f","system_id":"levelo_inurba_marseille","lat":43.29374,"lon":5.37837,"is_reserved":false,"is_disabled":false,"rental_uris":{"android":"levelo://app?vid=4506f01b-19a2-4ef0-83ec-fa2596b1432f","ios":"levelo://app?vid=4506f01b-19a2-4ef0-83ec-fa2596b1432f"},"vehicle_type_id":"4","last_reported":1731171991,"current_range_meters":38000,"station_id":"ce4bgjh2rcd13ifvqbf0","pricing_plan_id":"cebpf4jnsgd1na2vs0mg"},{"bike_id":"a51d56de-6266-48f0-9ece-8f1d0d87e960","system_id":"levelo_inurba_marseille","lat":43.27376,"lon":5.36267,"is_reserved":false,"is_disabled":false,"rental_uris":{"android":"levelo://app?vid=a51d56de-6266-48f0-9ece-8f1d0d87e960","ios":"levelo://app?vid=a51d56de-6266-48f0-9ece-8f1d0d87e960"},"vehicle_type_id":"4","last_reported":1731171991,"current_range_meters":9200,"station_id":"ce4bhbh2rcd13ifvqeo0","pricing_plan_id":"cebpf4jnsgd1na2vs0mg"},{"bike_id":"c2603f44-8398-4b15-8e79-5897a063be21","system_id":"levelo_inurba_marseille","lat":43.2738,"lon":5.36271,"is_reserved":false,"is_disabled":false,"rental_uris":{"android":"levelo://app?vid=c2603f44-8398-4b15-8e79-5897a063be21","ios":"levelo://app?vid=c2603f44-8398-4b15-8e79-5897a063be21"},"vehicle_type_id":"4","last_reported":1731171991,"current_range_meters":24400,"station_id":"ce4bhbh2rcd13ifvqeo0","pricing_plan_id":"cebpf4jnsgd1na2vs0mg"},{"bike_id":"d32ea5ac-1146-4415-9c37-224aa2ca61f2","system_id":"levelo_inurba_marseille","lat":43.25499,"lon":5.37652,"is_reserved":false,"is_disabled":false,"rental_uris":{"android":"levelo://app?vid=d32ea5ac-1146-4415-9c37-224aa2ca61f2","ios":"levelo://app?vid=d32ea5ac-1146-4415-9c37-224aa2ca61f2"},"vehicle_type_id":"4","last_reported":1731171991,"current_range_meters":8800,"station_id":"ce4bhh12rcd13ifvqff0","pricing_plan_id":"cebpf4jnsgd1na2vs0mg"},{"bike_id":"96aef8c1-f007-442e-b872-036e6f6c58ad","system_id":"levelo_inurba_marseille","lat":43.31758,"lon":5.39018,"is_reserved":false,"is_disabled":false,"rental_uris":{"android":"levelo://app?vid=96aef8c1-f007-442e-b872-036e6f6c58ad","ios":"levelo://app?vid=96aef8c1-f007-442e-b872-036e6f6c58ad"},"vehicle_type_id":"4","last_reported":1731171991,"current_range_meters":38400,"station_id":"ce4bhqp2rcd13ifvqhng","pricing_plan_id":"cebpf4jnsgd1na2vs0mg"},{"bike_id":"4810ae9c-474a-4036-ad55-8e927152fcca","system_id":"levelo_inurba_marseille","lat":43.29797,"lon":5.38099,"is_reserved":false,"is_disabled":false,"rental_uris":{"android":"levelo://app?vid=4810ae9c-474a-4036-ad55-8e927152fcca","ios":"levelo://app?vid=4810ae9c-474a-4036-ad55-8e927152fcca"},"vehicle_type_id":"4","last_reported":1731171991,"current_range_meters":29600,"station_id":"ce4bgip2rcd13ifvqbb0","pricing_plan_id":"cebpf4jnsgd1na2vs0mg"},{"bike_id":"c21768f5-7c25-4d41-ab9d-61489aeb0814","system_id":"levelo_inurba_marseille","lat":43.2952,"lon":5.39044,"is_reserved":false,"is_disabled":false,"rental_uris":{"android":"levelo://app?vid=c21768f5-7c25-4d41-ab9d-61489aeb0814","ios":"levelo://app?vid=c21768f5-7c25-4d41-ab9d-61489aeb0814"},"vehicle_type_id":"4","last_reported":1731171991,"current_range_meters":30000,"station_id":"ce4bh3p2rcd13ifvqdp0","pricing_plan_id":"cebpf4jnsgd1na2vs0mg"},{"bike_id":"638b65b4-0ffd-48b3-82f1-6fafa46ae770","system_id":"levelo_inurba_marseille","lat":43.28612,"lon":5.37064,"is_reserved":false,"is_disabled":false,"rental_uris":{"android":"levelo://app?vid=638b65b4-0ffd-48b3-82f1-6fafa46ae770","ios":"levelo://app?vid=638b65b4-0ffd-48b3-82f1-6fafa46ae770"},"vehicle_type_id":"4","last_reported":1731171991,"current_range_meters":13600,"station_id":"ce4bht12rcd13ifvqi60","pricing_plan_id":"cebpf4jnsgd1na2vs0mg"},{"bike_id":"181fa628-fd06-4339-88f4-5d411c857699","system_id":"levelo_inurba_marseille","lat":43.27067,"lon":5.42284,"is_reserved":false,"is_disabled":false,"rental_uris":{"android":"levelo://app?vid=181fa628-fd06-4339-88f4-5d411c857699","ios":"levelo://app?vid=181fa628-fd06-4339-88f4-5d411c857699"},"vehicle_type_id":"4","last_reported":1731171991,"current_range_meters":13600,"station_id":"ce4bhk92rcd13ifvqgb0","pricing_plan_id":"cebpf4jnsgd1na2vs0mg"},{"bike_id":"f9c6f562-3ed5-4877-a79b-a0a61d1acf9a","system_id":"levelo_inurba_marseille","lat":43.28003,"lon":5.40014,"is_reserved":false,"is_disabled":false,"rental_uris":{"android":"levelo://app?vid=f9c6f562-3ed5-4877-a79b-a0a61d1acf9a","ios":"levelo://app?vid=f9c6f562-3ed5-4877-a79b-a0a61d1acf9a"},"vehicle_type_id":"4","last_reported":1731171991,"current_range_meters":3600,"station_id":"ce4bho92rcd13ifvqh4g","pricing_plan_id":"cebpf4jnsgd1na2vs0mg"},{"bike_id":"764ab749-70ca-4b73-a35f-c0abe15547f3","system_id":"levelo_inurba_marseille","lat":43.30152,"lon":5.38089,"is_reserved":false,"is_disabled":false,"rental_uris":{"android":"levelo://app?vid=764ab749-70ca-4b73-a35f-c0abe15547f3","ios":"levelo://app?vid=764ab749-70ca-4b73-a35f-c0abe15547f3"},"vehicle_type_id":"4","last_reported":1731171991,"current_range_meters":34000,"station_id":"ce4bgjp2rcd13ifvqbh0","pricing_plan_id":"cebpf4jnsgd1na2vs0mg"},{"bike_id":"e662ba77-e6b8-4482-8937-6e11fab5b336","system_id":"levelo_inurba_marseille","lat":43.33026,"lon":5.39042,"is_reserved":false,"is_disabled":false,"rental_uris":{"android":"levelo://app?vid=e662ba77-e6b8-4482-8937-6e11fab5b336","ios":"levelo://app?vid=e662ba77-e6b8-4482-8937-6e11fab5b336"},"vehicle_type_id":"4","last_reported":1731171991,"current_range_meters":10000,"station_id":"ce4bhr92rcd13ifvqhrg","pricing_plan_id":"cebpf4jnsgd1na2vs0mg"},{"bike_id":"27e15419-d9b0-4647-890e-e21a7149b1cd","system_id":"levelo_inurba_marseille","lat":43.27063,"lon":5.4228,"is_reserved":false,"is_disabled":false,"rental_uris":{"android":"levelo://app?vid=27e15419-d9b0-4647-890e-e21a7149b1cd","ios":"levelo://app?vid=27e15419-d9b0-4647-890e-e21a7149b1cd"},"vehicle_type_id":"4","last_reported":1731171991,"current_range_meters":10800,"station_id":"ce4bhk92rcd13ifvqgb0","pricing_plan_id":"cebpf4jnsgd1na2vs0mg"},{"bike_id":"55f47cbb-4cd2-4214-9965-9e0698b16e2e","system_id":"levelo_inurba_marseille","lat":43.32366,"lon":5.36769,"is_reserved":false,"is_disabled":false,"rental_uris":{"android":"levelo://app?vid=55f47cbb-4cd2-4214-9965-9e0698b16e2e","ios":"levelo://app?vid=55f47cbb-4cd2-4214-9965-9e0698b16e2e"},"vehicle_type_id":"4","last_reported":1731171991,"current_range_meters":38800,"station_id":"ce4bhsh2rcd13ifvqi2g","pricing_plan_id":"cebpf4jnsgd1na2vs0mg"},{"bike_id":"afcd6141-7b94-40da-8188-06bc30394200","system_id":"levelo_inurba_marseille","lat":43.304707,"lon":5.379074,"is_reserved":false,"is_disabled":false,"rental_uris":{"android":"levelo://app?vid=afcd6141-7b94-40da-8188-06bc30394200","ios":"levelo://app?vid=afcd6141-7b94-40da-8188-06bc30394200"},"vehicle_type_id":"4","last_reported":1731171991,"current_range_meters":32800,"station_id":"ce4bgup2rcd13ifvqcn0","pricing_plan_id":"cebpf4jnsgd1na2vs0mg"},{"bike_id":"d4d2039d-7616-4c0c-910c-0f5355caf5da","system_id":"levelo_inurba_marseille","lat":43.30155,"lon":5.38091,"is_reserved":false,"is_disabled":false,"rental_uris":{"android":"levelo://app?vid=d4d2039d-7616-4c0c-910c-0f5355caf5da","ios":"levelo://app?vid=d4d2039d-7616-4c0c-910c-0f5355caf5da"},"vehicle_type_id":"4","last_reported":1731171991,"current_range_meters":38800,"station_id":"ce4bgjp2rcd13ifvqbh0","pricing_plan_id":"cebpf4jnsgd1na2vs0mg"},{"bike_id":"c781151a-006d-4f1d-8ff4-67f182809701","system_id":"levelo_inurba_marseille","lat":43.29254,"lon":5.38439,"is_reserved":false,"is_disabled":false,"rental_uris":{"android":"levelo://app?vid=c781151a-006d-4f1d-8ff4-67f182809701","ios":"levelo://app?vid=c781151a-006d-4f1d-8ff4-67f182809701"},"vehicle_type_id":"4","last_reported":1731171991,"current_range_meters":38000,"station_id":"ce4bh692rcd13ifvqea0","pricing_plan_id":"cebpf4jnsgd1na2vs0mg"},{"bike_id":"0d93b31b-854a-4c31-b287-70df5cbe7d07","system_id":"levelo_inurba_marseille","lat":43.24076,"lon":5.37737,"is_reserved":false,"is_disabled":false,"rental_uris":{"android":"levelo://app?vid=0d93b31b-854a-4c31-b287-70df5cbe7d07","ios":"levelo://app?vid=0d93b31b-854a-4c31-b287-70df5cbe7d07"},"vehicle_type_id":"4","last_reported":1731171991,"current_range_meters":16000,"station_id":"ce4bhnp2rcd13ifvqgvg","pricing_plan_id":"cebpf4jnsgd1na2vs0mg"},{"bike_id":"85c204c1-37d6-4b73-b6e0-dc44c53e6048","system_id":"levelo_inurba_marseille","lat":43.25498,"lon":5.37661,"is_reserved":false,"is_disabled":false,"rental_uris":{"android":"levelo://app?vid=85c204c1-37d6-4b73-b6e0-dc44c53e6048","ios":"levelo://app?vid=85c204c1-37d6-4b73-b6e0-dc44c53e6048"},"vehicle_type_id":"4","last_reported":1731171991,"current_range_meters":8000,"station_id":"ce4bhh12rcd13ifvqff0","pricing_plan_id":"cebpf4jnsgd1na2vs0mg"},{"bike_id":"e2abec00-3ef2-41a5-b9f5-46bbbaa02e60","system_id":"levelo_inurba_marseille","lat":43.25497,"lon":5.37654,"is_reserved":false,"is_disabled":false,"rental_uris":{"android":"levelo://app?vid=e2abec00-3ef2-41a5-b9f5-46bbbaa02e60","ios":"levelo://app?vid=e2abec00-3ef2-41a5-b9f5-46bbbaa02e60"},"vehicle_type_id":"4","last_reported":1731171991,"current_range_meters":6400,"station_id":"ce4bhh12rcd13ifvqff0","pricing_plan_id":"cebpf4jnsgd1na2vs0mg"},{"bike_id":"a05f6093-2e60-4227-87bb-95241619c447","system_id":"levelo_inurba_marseille","lat":43.28346,"lon":5.38112,"is_reserved":false,"is_disabled":false,"rental_uris":{"android":"levelo://app?vid=a05f6093-2e60-4227-87bb-95241619c447","ios":"levelo://app?vid=a05f6093-2e60-4227-87bb-95241619c447"},"vehicle_type_id":"4","last_reported":1731171991,"current_range_meters":6400,"station_id":"ce4bh412rcd13ifvqdr0","pricing_plan_id":"cebpf4jnsgd1na2vs0mg"},{"bike_id":"685ebe3a-4c02-4038-9eca-7476b3aecc2a","system_id":"levelo_inurba_marseille","lat":43.25496,"lon":5.37654,"is_reserved":false,"is_disabled":false,"rental_uris":{"android":"levelo://app?vid=685ebe3a-4c02-4038-9eca-7476b3aecc2a","ios":"levelo://app?vid=685ebe3a-4c02-4038-9eca-7476b3aecc2a"},"vehicle_type_id":"4","last_reported":1731171991,"current_range_meters":9200,"station_id":"ce4bhh12rcd13ifvqff0","pricing_plan_id":"cebpf4jnsgd1na2vs0mg"},{"bike_id":"97c5bd96-2fe9-4f13-b430-bba1694a52f3","system_id":"levelo_inurba_marseille","lat":43.24663,"lon":5.38171,"is_reserved":false,"is_disabled":false,"rental_uris":{"android":"levelo://app?vid=97c5bd96-2fe9-4f13-b430-bba1694a52f3","ios":"levelo://app?vid=97c5bd96-2fe9-4f13-b430-bba1694a52f3"},"vehicle_type_id":"4","last_reported":1731171991,"current_range_meters":24000,"station_id":"ce4bhih2rcd13ifvqfr0","pricing_plan_id":"cebpf4jnsgd1na2vs0mg"},{"bike_id":"90621bbd-90aa-4473-9ffe-cceb8a6e7a9f","system_id":"levelo_inurba_marseille","lat":43.23179,"lon":5.39991,"is_reserved":false,"is_disabled":false,"rental_uris":{"android":"levelo://app?vid=90621bbd-90aa-4473-9ffe-cceb8a6e7a9f","ios":"levelo://app?vid=90621bbd-90aa-4473-9ffe-cceb8a6e7a9f"},"vehicle_type_id":"4","last_reported":1731171991,"current_range_meters":8400,"station_id":"ce4bhn12rcd13ifvqgqg","pricing_plan_id":"cebpf4jnsgd1na2vs0mg"},{"bike_id":"c7057ba6-697b-4814-876e-11ed214bec97","system_id":"levelo_inurba_marseille","lat":43.30307,"lon":5.37718,"is_reserved":false,"is_disabled":false,"rental_uris":{"android":"levelo://app?vid=c7057ba6-697b-4814-876e-11ed214bec97","ios":"levelo://app?vid=c7057ba6-697b-4814-876e-11ed214bec97"},"vehicle_type_id":"4","last_reported":1731171991,"current_range_meters":38000,"station_id":"ce4bguh2rcd13ifvqcj0","pricing_plan_id":"cebpf4jnsgd1na2vs0mg"},{"bike_id":"99ee7c5d-6e65-4a9b-a86a-ad54643ebf7a","system_id":"levelo_inurba_marseille","lat":43.31359,"lon":5.38493,"is_reserved":false,"is_disabled":false,"rental_uris":{"android":"levelo://app?vid=99ee7c5d-6e65-4a9b-a86a-ad54643ebf7a","ios":"levelo://app?vid=99ee7c5d-6e65-4a9b-a86a-ad54643ebf7a"},"vehicle_type_id":"4","last_reported":1731171991,"current_range_meters":4400,"station_id":"ce4bgt92rcd13ifvqcf0","pricing_plan_id":"cebpf4jnsgd1na2vs0mg"},{"bike_id":"1b641421-2e55-46f2-aa52-a5bd61345632","system_id":"levelo_inurba_marseille","lat":43.24169,"lon":5.36398,"is_reserved":false,"is_disabled":false,"rental_uris":{"android":"levelo://app?vid=1b641421-2e55-46f2-aa52-a5bd61345632","ios":"levelo://app?vid=1b641421-2e55-46f2-aa52-a5bd61345632"},"vehicle_type_id":"4","last_reported":1731171991,"current_range_meters":16400,"station_id":"cpo36qri1sfpv3e86is0","pricing_plan_id":"cebpf4jnsgd1na2vs0mg"},{"bike_id":"c6a0e24a-b8a4-4e38-abe9-60cf37378467","system_id":"levelo_inurba_marseille","lat":43.29104,"lon":5.38093,"is_reserved":false,"is_disabled":false,"rental_uris":{"android":"levelo://app?vid=c6a0e24a-b8a4-4e38-abe9-60cf37378467","ios":"levelo://app?vid=c6a0e24a-b8a4-4e38-abe9-60cf37378467"},"vehicle_type_id":"4","last_reported":1731171991,"current_range_meters":19600,"station_id":"ce4bh3h2rcd13ifvqdn0","pricing_plan_id":"cebpf4jnsgd1na2vs0mg"},{"bike_id":"bc751ed5-3244-47df-bc4c-018804591f90","system_id":"levelo_inurba_marseille","lat":43.24995,"lon":5.38934,"is_reserved":false,"is_disabled":false,"rental_uris":{"android":"levelo://app?vid=bc751ed5-3244-47df-bc4c-018804591f90","ios":"levelo://app?vid=bc751ed5-3244-47df-bc4c-018804591f90"},"vehicle_type_id":"4","last_reported":1731171991,"current_range_meters":7200,"station_id":"ce4bhgp2rcd13ifvqfd0","pricing_plan_id":"cebpf4jnsgd1na2vs0mg"},{"bike_id":"07704a86-dbed-425a-854d-11b1a4e3d84c","system_id":"levelo_inurba_marseille","lat":43.33756,"lon":5.37445,"is_reserved":false,"is_disabled":false,"rental_uris":{"android":"levelo://app?vid=07704a86-dbed-425a-854d-11b1a4e3d84c","ios":"levelo://app?vid=07704a86-dbed-425a-854d-11b1a4e3d84c"},"vehicle_type_id":"4","last_reported":1731171991,"current_range_meters":36400,"station_id":"","pricing_plan_id":"cebpf4jnsgd1na2vs0mg"},{"bike_id":"79b39923-b687-4420-a58b-1f85feafef16","system_id":"levelo_inurba_marseille","lat":43.299055,"lon":5.374945,"is_reserved":false,"is_disabled":false,"rental_uris":{"android":"levelo://app?vid=79b39923-b687-4420-a58b-1f85feafef16","ios":"levelo://app?vid=79b39923-b687-4420-a58b-1f85feafef16"},"vehicle_type_id":"4","last_reported":1731171991,"current_range_meters":38800,"station_id":"ce4bgjh2rcd13ifvqbg0","pricing_plan_id":"cebpf4jnsgd1na2vs0mg"},{"bike_id":"81abc5b8-f7c3-49f1-865e-3d42da567318","system_id":"levelo_inurba_marseille","lat":43.29533,"lon":5.38545,"is_reserved":false,"is_disabled":false,"rental_uris":{"android":"levelo://app?vid=81abc5b8-f7c3-49f1-865e-3d42da567318","ios":"levelo://app?vid=81abc5b8-f7c3-49f1-865e-3d42da567318"},"vehicle_type_id":"4","last_reported":1731171991,"current_range_meters":28000,"station_id":"ce4bgih2rcd13ifvqba0","pricing_plan_id":"cebpf4jnsgd1na2vs0mg"},{"bike_id":"0b74ce83-e6b1-4485-8ca6-3897f29a426e","system_id":"levelo_inurba_marseille","lat":43.23956,"lon":5.36631,"is_reserved":false,"is_disabled":false,"rental_uris":{"android":"levelo://app?vid=0b74ce83-e6b1-4485-8ca6-3897f29a426e","ios":"levelo://app?vid=0b74ce83-e6b1-4485-8ca6-3897f29a426e"},"vehicle_type_id":"4","last_reported":1731171991,"current_range_meters":15200,"station_id":"ce4bhi12rcd13ifvqfp0","pricing_plan_id":"cebpf4jnsgd1na2vs0mg"},{"bike_id":"835b9f54-f694-4ea1-a472-2236c5b2aea2","system_id":"levelo_inurba_marseille","lat":43.2826,"lon":5.35062,"is_reserved":false,"is_disabled":false,"rental_uris":{"android":"levelo://app?vid=835b9f54-f694-4ea1-a472-2236c5b2aea2","ios":"levelo://app?vid=835b9f54-f694-4ea1-a472-2236c5b2aea2"},"vehicle_type_id":"4","last_reported":1731171991,"current_range_meters":15200,"station_id":"ce4bhbp2rcd13ifvqerg","pricing_plan_id":"cebpf4jnsgd1na2vs0mg"},{"bike_id":"0dde4cf8-75fa-4189-a27e-aeb51a29dc47","system_id":"levelo_inurba_marseille","lat":43.29625,"lon":5.40595,"is_reserved":false,"is_disabled":false,"rental_uris":{"android":"levelo://app?vid=0dde4cf8-75fa-4189-a27e-aeb51a29dc47","ios":"levelo://app?vid=0dde4cf8-75fa-4189-a27e-aeb51a29dc47"},"vehicle_type_id":"4","last_reported":1731171991,"current_range_meters":18800,"station_id":"ce4bh0h2rcd13ifvqd60","pricing_plan_id":"cebpf4jnsgd1na2vs0mg"},{"bike_id":"5ac771a0-9dd5-41c1-9d5a-e162148fe515","system_id":"levelo_inurba_marseille","lat":43.25502,"lon":5.37648,"is_reserved":false,"is_disabled":false,"rental_uris":{"android":"levelo://app?vid=5ac771a0-9dd5-41c1-9d5a-e162148fe515","ios":"levelo://app?vid=5ac771a0-9dd5-41c1-9d5a-e162148fe515"},"vehicle_type_id":"4","last_reported":1731171991,"current_range_meters":14000,"station_id":"ce4bhh12rcd13ifvqff0","pricing_plan_id":"cebpf4jnsgd1na2vs0mg"},{"bike_id":"737e318d-f108-4c95-991e-c706599395c0","system_id":"levelo_inurba_marseille","lat":43.30157,"lon":5.38086,"is_reserved":false,"is_disabled":false,"rental_uris":{"android":"levelo://app?vid=737e318d-f108-4c95-991e-c706599395c0","ios":"levelo://app?vid=737e318d-f108-4c95-991e-c706599395c0"},"vehicle_type_id":"4","last_reported":1731171991,"current_range_meters":33600,"station_id":"ce4bgjp2rcd13ifvqbh0","pricing_plan_id":"cebpf4jnsgd1na2vs0mg"},{"bike_id":"896a2ba9-5285-4686-975d-79ddd9cd99a3","system_id":"levelo_inurba_marseille","lat":43.25824,"lon":5.39439,"is_reserved":false,"is_disabled":false,"rental_uris":{"android":"levelo://app?vid=896a2ba9-5285-4686-975d-79ddd9cd99a3","ios":"levelo://app?vid=896a2ba9-5285-4686-975d-79ddd9cd99a3"},"vehicle_type_id":"4","last_reported":1731171991,"current_range_meters":38800,"station_id":"ce4bhip2rcd13ifvqft0","pricing_plan_id":"cebpf4jnsgd1na2vs0mg"},{"bike_id":"2bcd0373-2da6-484e-89cc-cb4a3e3f15ac","system_id":"levelo_inurba_marseille","lat":43.29253,"lon":5.38451,"is_reserved":false,"is_disabled":false,"rental_uris":{"android":"levelo://app?vid=2bcd0373-2da6-484e-89cc-cb4a3e3f15ac","ios":"levelo://app?vid=2bcd0373-2da6-484e-89cc-cb4a3e3f15ac"},"vehicle_type_id":"4","last_reported":1731171991,"current_range_meters":22000,"station_id":"ce4bh692rcd13ifvqea0","pricing_plan_id":"cebpf4jnsgd1na2vs0mg"},{"bike_id":"06e18623-9bcd-4028-a772-e7e227902101","system_id":"levelo_inurba_marseille","lat":43.28703,"lon":5.39985,"is_reserved":false,"is_disabled":false,"rental_uris":{"android":"levelo://app?vid=06e18623-9bcd-4028-a772-e7e227902101","ios":"levelo://app?vid=06e18623-9bcd-4028-a772-e7e227902101"},"vehicle_type_id":"4","last_reported":1731171991,"current_range_meters":3600,"station_id":"ce4bho92rcd13ifvqh3g","pricing_plan_id":"cebpf4jnsgd1na2vs0mg"},{"bike_id":"a73c1509-60fb-4a1f-acdc-f1f9e200ecaa","system_id":"levelo_inurba_marseille","lat":43.32659,"lon":5.40997,"is_reserved":false,"is_disabled":false,"rental_uris":{"android":"levelo://app?vid=a73c1509-60fb-4a1f-acdc-f1f9e200ecaa","ios":"levelo://app?vid=a73c1509-60fb-4a1f-acdc-f1f9e200ecaa"},"vehicle_type_id":"4","last_reported":1731171991,"current_range_meters":16400,"station_id":"ce4bhpp2rcd13ifvqhgg","pricing_plan_id":"cebpf4jnsgd1na2vs0mg"},{"bike_id":"baac3be3-010c-4ab7-b814-2af962c842f8","system_id":"levelo_inurba_marseille","lat":43.28364,"lon":5.37527,"is_reserved":false,"is_disabled":false,"rental_uris":{"android":"levelo://app?vid=baac3be3-010c-4ab7-b814-2af962c842f8","ios":"levelo://app?vid=baac3be3-010c-4ab7-b814-2af962c842f8"},"vehicle_type_id":"4","last_reported":1731171991,"current_range_meters":30000,"station_id":"ce4bh412rcd13ifvqds0","pricing_plan_id":"cebpf4jnsgd1na2vs0mg"},{"bike_id":"410ff738-641f-4bfd-97d1-9c301f38940f","system_id":"levelo_inurba_marseille","lat":43.28037,"lon":5.36938,"is_reserved":false,"is_disabled":false,"rental_uris":{"android":"levelo://app?vid=410ff738-641f-4bfd-97d1-9c301f38940f","ios":"levelo://app?vid=410ff738-641f-4bfd-97d1-9c301f38940f"},"vehicle_type_id":"4","last_reported":1731171991,"current_range_meters":24400,"station_id":"ce4bha12rcd13ifvqef0","pricing_plan_id":"cebpf4jnsgd1na2vs0mg"},{"bike_id":"153b7ff0-4860-49f2-baf2-71c24452214b","system_id":"levelo_inurba_marseille","lat":43.29795,"lon":5.38126,"is_reserved":false,"is_disabled":false,"rental_uris":{"android":"levelo://app?vid=153b7ff0-4860-49f2-baf2-71c24452214b","ios":"levelo://app?vid=153b7ff0-4860-49f2-baf2-71c24452214b"},"vehicle_type_id":"4","last_reported":1731171991,"current_range_meters":19600,"station_id":"ce4bgip2rcd13ifvqbb0","pricing_plan_id":"cebpf4jnsgd1na2vs0mg"},{"bike_id":"04e73d53-7cb9-44d9-a016-4853b5ab5831","system_id":"levelo_inurba_marseille","lat":43.29787,"lon":5.3934,"is_reserved":false,"is_disabled":false,"rental_uris":{"android":"levelo://app?vid=04e73d53-7cb9-44d9-a016-4853b5ab5831","ios":"levelo://app?vid=04e73d53-7cb9-44d9-a016-4853b5ab5831"},"vehicle_type_id":"4","last_reported":1731171991,"current_range_meters":17600,"station_id":"chh1huq6cuj3fo74tm60","pricing_plan_id":"cebpf4jnsgd1na2vs0mg"},{"bike_id":"651525a9-9541-42c5-a26d-932929a74330","system_id":"levelo_inurba_marseille","lat":43.27499,"lon":5.42456,"is_reserved":false,"is_disabled":false,"rental_uris":{"android":"levelo://app?vid=651525a9-9541-42c5-a26d-932929a74330","ios":"levelo://app?vid=651525a9-9541-42c5-a26d-932929a74330"},"vehicle_type_id":"4","last_reported":1731171991,"current_range_meters":27600,"station_id":"ce4bhn92rcd13ifvqgrg","pricing_plan_id":"cebpf4jnsgd1na2vs0mg"},{"bike_id":"588b57e8-53f3-4bdf-a9eb-006ce33eb3cc","system_id":"levelo_inurba_marseille","lat":43.32475,"lon":5.36567,"is_reserved":false,"is_disabled":false,"rental_uris":{"android":"levelo://app?vid=588b57e8-53f3-4bdf-a9eb-006ce33eb3cc","ios":"levelo://app?vid=588b57e8-53f3-4bdf-a9eb-006ce33eb3cc"},"vehicle_type_id":"4","last_reported":1731171991,"current_range_meters":40000,"station_id":"ce4bhs12rcd13ifvqhvg","pricing_plan_id":"cebpf4jnsgd1na2vs0mg"},{"bike_id":"c48eca37-84d8-445e-b66f-c452247de6b7","system_id":"levelo_inurba_marseille","lat":43.25501,"lon":5.37655,"is_reserved":false,"is_disabled":false,"rental_uris":{"android":"levelo://app?vid=c48eca37-84d8-445e-b66f-c452247de6b7","ios":"levelo://app?vid=c48eca37-84d8-445e-b66f-c452247de6b7"},"vehicle_type_id":"4","last_reported":1731171991,"current_range_meters":8000,"station_id":"ce4bhh12rcd13ifvqff0","pricing_plan_id":"cebpf4jnsgd1na2vs0mg"},{"bike_id":"40f593b1-c6b4-4056-9082-85c23863896b","system_id":"levelo_inurba_marseille","lat":43.25486,"lon":5.37648,"is_reserved":false,"is_disabled":false,"rental_uris":{"android":"levelo://app?vid=40f593b1-c6b4-4056-9082-85c23863896b","ios":"levelo://app?vid=40f593b1-c6b4-4056-9082-85c23863896b"},"vehicle_type_id":"4","last_reported":1731171991,"current_range_meters":38800,"station_id":"ce4bhh12rcd13ifvqff0","pricing_plan_id":"cebpf4jnsgd1na2vs0mg"},{"bike_id":"5e6225c0-2d39-469c-8147-59151b03250f","system_id":"levelo_inurba_marseille","lat":43.31704,"lon":5.404915,"is_reserved":false,"is_disabled":false,"rental_uris":{"android":"levelo://app?vid=5e6225c0-2d39-469c-8147-59151b03250f","ios":"levelo://app?vid=5e6225c0-2d39-469c-8147-59151b03250f"},"vehicle_type_id":"4","last_reported":1731171991,"current_range_meters":38800,"station_id":"ce4bh012rcd13ifvqd00","pricing_plan_id":"cebpf4jnsgd1na2vs0mg"},{"bike_id":"31ba1574-58e8-4c23-889d-e3a00b1f4e1c","system_id":"levelo_inurba_marseille","lat":43.2905,"lon":5.35918,"is_reserved":false,"is_disabled":false,"rental_uris":{"android":"levelo://app?vid=31ba1574-58e8-4c23-889d-e3a00b1f4e1c","ios":"levelo://app?vid=31ba1574-58e8-4c23-889d-e3a00b1f4e1c"},"vehicle_type_id":"4","last_reported":1731171991,"current_range_meters":37600,"station_id":"ce4bha92rcd13ifvqeg0","pricing_plan_id":"cebpf4jnsgd1na2vs0mg"},{"bike_id":"b4eb30bc-dd09-4cbf-8ece-3b8ada662aaf","system_id":"levelo_inurba_marseille","lat":43.2501,"lon":5.38915,"is_reserved":false,"is_disabled":false,"rental_uris":{"android":"levelo://app?vid=b4eb30bc-dd09-4cbf-8ece-3b8ada662aaf","ios":"levelo://app?vid=b4eb30bc-dd09-4cbf-8ece-3b8ada662aaf"},"vehicle_type_id":"4","last_reported":1731171991,"current_range_meters":18800,"station_id":"ce4bhgp2rcd13ifvqfd0","pricing_plan_id":"cebpf4jnsgd1na2vs0mg"},{"bike_id":"cac698fe-afb1-44ef-9ef2-e7865851ef98","system_id":"levelo_inurba_marseille","lat":43.30541,"lon":5.38436,"is_reserved":false,"is_disabled":false,"rental_uris":{"android":"levelo://app?vid=cac698fe-afb1-44ef-9ef2-e7865851ef98","ios":"levelo://app?vid=cac698fe-afb1-44ef-9ef2-e7865851ef98"},"vehicle_type_id":"4","last_reported":1731171991,"current_range_meters":10800,"station_id":"ce4bgg92rcd13ifvqb30","pricing_plan_id":"cebpf4jnsgd1na2vs0mg"},{"bike_id":"d19d38e7-34df-44f8-bbe6-4862f8fbaa71","system_id":"levelo_inurba_marseille","lat":43.24076,"lon":5.37761,"is_reserved":false,"is_disabled":false,"rental_uris":{"android":"levelo://app?vid=d19d38e7-34df-44f8-bbe6-4862f8fbaa71","ios":"levelo://app?vid=d19d38e7-34df-44f8-bbe6-4862f8fbaa71"},"vehicle_type_id":"4","last_reported":1731171991,"current_range_meters":27200,"station_id":"ce4bhnp2rcd13ifvqgvg","pricing_plan_id":"cebpf4jnsgd1na2vs0mg"},{"bike_id":"be94c940-c56d-4132-af66-fedb762b3e0f","system_id":"levelo_inurba_marseille","lat":43.23188,"lon":5.35558,"is_reserved":false,"is_disabled":false,"rental_uris":{"android":"levelo://app?vid=be94c940-c56d-4132-af66-fedb762b3e0f","ios":"levelo://app?vid=be94c940-c56d-4132-af66-fedb762b3e0f"},"vehicle_type_id":"4","last_reported":1731171991,"current_range_meters":36800,"station_id":"ce4bhu92rcd13ifvqi70","pricing_plan_id":"cebpf4jnsgd1na2vs0mg"},{"bike_id":"18a8bb28-37bf-4594-b2aa-34ef7e391f6a","system_id":"levelo_inurba_marseille","lat":43.24073,"lon":5.3776,"is_reserved":false,"is_disabled":false,"rental_uris":{"android":"levelo://app?vid=18a8bb28-37bf-4594-b2aa-34ef7e391f6a","ios":"levelo://app?vid=18a8bb28-37bf-4594-b2aa-34ef7e391f6a"},"vehicle_type_id":"4","last_reported":1731171991,"current_range_meters":13600,"station_id":"ce4bhnp2rcd13ifvqgvg","pricing_plan_id":"cebpf4jnsgd1na2vs0mg"},{"bike_id":"1ecc329a-3fe2-4bfa-9cd5-4e19a6eded96","system_id":"levelo_inurba_marseille","lat":43.29972,"lon":5.37186,"is_reserved":false,"is_disabled":false,"rental_uris":{"android":"levelo://app?vid=1ecc329a-3fe2-4bfa-9cd5-4e19a6eded96","ios":"levelo://app?vid=1ecc329a-3fe2-4bfa-9cd5-4e19a6eded96"},"vehicle_type_id":"4","last_reported":1731171991,"current_range_meters":38800,"station_id":"ce4bgr92rcd13ifvqc7g","pricing_plan_id":"cebpf4jnsgd1na2vs0mg"},{"bike_id":"0136ca85-b603-4280-83ec-0d22e36976ba","system_id":"levelo_inurba_marseille","lat":43.28475,"lon":5.38558,"is_reserved":false,"is_disabled":false,"rental_uris":{"android":"levelo://app?vid=0136ca85-b603-4280-83ec-0d22e36976ba","ios":"levelo://app?vid=0136ca85-b603-4280-83ec-0d22e36976ba"},"vehicle_type_id":"4","last_reported":1731171991,"current_range_meters":5600,"station_id":"ce4bh8p2rcd13ifvqeb0","pricing_plan_id":"cebpf4jnsgd1na2vs0mg"},{"bike_id":"600044bd-a572-493d-a7fa-0e926cfd9a2d","system_id":"levelo_inurba_marseille","lat":43.29535,"lon":5.37507,"is_reserved":false,"is_disabled":false,"rental_uris":{"android":"levelo://app?vid=600044bd-a572-493d-a7fa-0e926cfd9a2d","ios":"levelo://app?vid=600044bd-a572-493d-a7fa-0e926cfd9a2d"},"vehicle_type_id":"4","last_reported":1731171991,"current_range_meters":38800,"station_id":"ce4bgkp2rcd13ifvqbmg","pricing_plan_id":"cebpf4jnsgd1na2vs0mg"},{"bike_id":"59868b42-de70-478e-a32f-dc4c32a312ba","system_id":"levelo_inurba_marseille","lat":43.26938,"lon":5.40254,"is_reserved":false,"is_disabled":false,"rental_uris":{"android":"levelo://app?vid=59868b42-de70-478e-a32f-dc4c32a312ba","ios":"levelo://app?vid=59868b42-de70-478e-a32f-dc4c32a312ba"},"vehicle_type_id":"4","last_reported":1731171991,"current_range_meters":12800,"station_id":"cjm6bp8fraef2m0cb0m0","pricing_plan_id":"cebpf4jnsgd1na2vs0mg"},{"bike_id":"799051fd-d983-438d-b1a6-f94aa3428752","system_id":"levelo_inurba_marseille","lat":43.2955,"lon":5.42295,"is_reserved":false,"is_disabled":false,"rental_uris":{"android":"levelo://app?vid=799051fd-d983-438d-b1a6-f94aa3428752","ios":"levelo://app?vid=799051fd-d983-438d-b1a6-f94aa3428752"},"vehicle_type_id":"4","last_reported":1731171991,"current_range_meters":38800,"station_id":"ce4bhph2rcd13ifvqhdg","pricing_plan_id":"cebpf4jnsgd1na2vs0mg"},{"bike_id":"42911603-79cc-4bdc-b1af-c2f11553c796","system_id":"levelo_inurba_marseille","lat":43.29718,"lon":5.37688,"is_reserved":false,"is_disabled":false,"rental_uris":{"android":"levelo://app?vid=42911603-79cc-4bdc-b1af-c2f11553c796","ios":"levelo://app?vid=42911603-79cc-4bdc-b1af-c2f11553c796"},"vehicle_type_id":"4","last_reported":1731171991,"current_range_meters":38800,"station_id":"ce4bgkh2rcd13ifvqbl0","pricing_plan_id":"cebpf4jnsgd1na2vs0mg"},{"bike_id":"f2f045cd-dd70-47c3-b598-ff5e317338e9","system_id":"levelo_inurba_marseille","lat":43.29597,"lon":5.38099,"is_reserved":false,"is_disabled":false,"rental_uris":{"android":"levelo://app?vid=f2f045cd-dd70-47c3-b598-ff5e317338e9","ios":"levelo://app?vid=f2f045cd-dd70-47c3-b598-ff5e317338e9"},"vehicle_type_id":"4","last_reported":1731171991,"current_range_meters":6800,"station_id":"ce4bgl12rcd13ifvqbo0","pricing_plan_id":"cebpf4jnsgd1na2vs0mg"},{"bike_id":"8ea5a4b9-b10c-42a7-ac58-98765967d46b","system_id":"levelo_inurba_marseille","lat":43.28475,"lon":5.38419,"is_reserved":false,"is_disabled":false,"rental_uris":{"android":"levelo://app?vid=8ea5a4b9-b10c-42a7-ac58-98765967d46b","ios":"levelo://app?vid=8ea5a4b9-b10c-42a7-ac58-98765967d46b"},"vehicle_type_id":"4","last_reported":1731171991,"current_range_meters":18800,"station_id":"ce4bh512rcd13ifvqe3g","pricing_plan_id":"cebpf4jnsgd1na2vs0mg"},{"bike_id":"e88390ed-9b8a-46d8-8c93-37fd4498fc79","system_id":"levelo_inurba_marseille","lat":43.3078,"lon":5.43537,"is_reserved":false,"is_disabled":false,"rental_uris":{"android":"levelo://app?vid=e88390ed-9b8a-46d8-8c93-37fd4498fc79","ios":"levelo://app?vid=e88390ed-9b8a-46d8-8c93-37fd4498fc79"},"vehicle_type_id":"4","last_reported":1731171991,"current_range_meters":39200,"station_id":"ce4bhph2rcd13ifvqheg","pricing_plan_id":"cebpf4jnsgd1na2vs0mg"},{"bike_id":"ff240a66-882f-4043-999b-84a56f525886","system_id":"levelo_inurba_marseille","lat":43.31329,"lon":5.39697,"is_reserved":false,"is_disabled":false,"rental_uris":{"android":"levelo://app?vid=ff240a66-882f-4043-999b-84a56f525886","ios":"levelo://app?vid=ff240a66-882f-4043-999b-84a56f525886"},"vehicle_type_id":"4","last_reported":1731171991,"current_range_meters":10800,"station_id":"ce4bgvp2rcd13ifvqcu0","pricing_plan_id":"cebpf4jnsgd1na2vs0mg"},{"bike_id":"a00f5d3d-7f03-4287-8f8f-2af329910765","system_id":"levelo_inurba_marseille","lat":43.31329,"lon":5.39696,"is_reserved":false,"is_disabled":false,"rental_uris":{"android":"levelo://app?vid=a00f5d3d-7f03-4287-8f8f-2af329910765","ios":"levelo://app?vid=a00f5d3d-7f03-4287-8f8f-2af329910765"},"vehicle_type_id":"4","last_reported":1731171991,"current_range_meters":18800,"station_id":"ce4bgvp2rcd13ifvqcu0","pricing_plan_id":"cebpf4jnsgd1na2vs0mg"},{"bike_id":"9c3980a2-9013-4d3b-9c5a-84e3826495c4","system_id":"levelo_inurba_marseille","lat":43.29621,"lon":5.37726,"is_reserved":false,"is_disabled":false,"rental_uris":{"android":"levelo://app?vid=9c3980a2-9013-4d3b-9c5a-84e3826495c4","ios":"levelo://app?vid=9c3980a2-9013-4d3b-9c5a-84e3826495c4"},"vehicle_type_id":"4","last_reported":1731171991,"current_range_meters":36400,"station_id":"ce4bgi92rcd13ifvqb90","pricing_plan_id":"cebpf4jnsgd1na2vs0mg"},{"bike_id":"2a1f5fcd-60ce-44ae-94c9-aa37859f7d8c","system_id":"levelo_inurba_marseille","lat":43.27056,"lon":5.40266,"is_reserved":false,"is_disabled":false,"rental_uris":{"android":"levelo://app?vid=2a1f5fcd-60ce-44ae-94c9-aa37859f7d8c","ios":"levelo://app?vid=2a1f5fcd-60ce-44ae-94c9-aa37859f7d8c"},"vehicle_type_id":"4","last_reported":1731171991,"current_range_meters":9200,"station_id":"ce4bhk92rcd13ifvqgc0","pricing_plan_id":"cebpf4jnsgd1na2vs0mg"},{"bike_id":"7174c3dc-0523-4c37-9102-3815a5cee164","system_id":"levelo_inurba_marseille","lat":43.2923,"lon":5.36072,"is_reserved":false,"is_disabled":false,"rental_uris":{"android":"levelo://app?vid=7174c3dc-0523-4c37-9102-3815a5cee164","ios":"levelo://app?vid=7174c3dc-0523-4c37-9102-3815a5cee164"},"vehicle_type_id":"4","last_reported":1731171991,"current_range_meters":38800,"station_id":"ce4bhbh2rcd13ifvqeqg","pricing_plan_id":"cebpf4jnsgd1na2vs0mg"},{"bike_id":"b6778b5b-579b-419a-8491-6086cf783779","system_id":"levelo_inurba_marseille","lat":43.2978,"lon":5.39341,"is_reserved":false,"is_disabled":false,"rental_uris":{"android":"levelo://app?vid=b6778b5b-579b-419a-8491-6086cf783779","ios":"levelo://app?vid=b6778b5b-579b-419a-8491-6086cf783779"},"vehicle_type_id":"4","last_reported":1731171991,"current_range_meters":19200,"station_id":"chh1huq6cuj3fo74tm60","pricing_plan_id":"cebpf4jnsgd1na2vs0mg"},{"bike_id":"e3d3ae9f-33fe-4caf-9531-145c5c4901c5","system_id":"levelo_inurba_marseille","lat":43.3093,"lon":5.40148,"is_reserved":false,"is_disabled":false,"rental_uris":{"android":"levelo://app?vid=e3d3ae9f-33fe-4caf-9531-145c5c4901c5","ios":"levelo://app?vid=e3d3ae9f-33fe-4caf-9531-145c5c4901c5"},"vehicle_type_id":"4","last_reported":1731171991,"current_range_meters":32800,"station_id":"ce4bgvp2rcd13ifvqct0","pricing_plan_id":"cebpf4jnsgd1na2vs0mg"},{"bike_id":"7e7be88e-2387-4ac1-8672-4e3f2accb589","system_id":"levelo_inurba_marseille","lat":43.23194,"lon":5.3556,"is_reserved":false,"is_disabled":false,"rental_uris":{"android":"levelo://app?vid=7e7be88e-2387-4ac1-8672-4e3f2accb589","ios":"levelo://app?vid=7e7be88e-2387-4ac1-8672-4e3f2accb589"},"vehicle_type_id":"4","last_reported":1731171991,"current_range_meters":14000,"station_id":"ce4bhu92rcd13ifvqi70","pricing_plan_id":"cebpf4jnsgd1na2vs0mg"},{"bike_id":"d3ddac6b-acf6-477b-8daf-ad49aba87662","system_id":"levelo_inurba_marseille","lat":43.27063,"lon":5.42279,"is_reserved":false,"is_disabled":false,"rental_uris":{"android":"levelo://app?vid=d3ddac6b-acf6-477b-8daf-ad49aba87662","ios":"levelo://app?vid=d3ddac6b-acf6-477b-8daf-ad49aba87662"},"vehicle_type_id":"4","last_reported":1731171991,"current_range_meters":25200,"station_id":"ce4bhk92rcd13ifvqgb0","pricing_plan_id":"cebpf4jnsgd1na2vs0mg"},{"bike_id":"c2c69928-73f3-4afe-b908-10f94a355c64","system_id":"levelo_inurba_marseille","lat":43.28614,"lon":5.37062,"is_reserved":false,"is_disabled":false,"rental_uris":{"android":"levelo://app?vid=c2c69928-73f3-4afe-b908-10f94a355c64","ios":"levelo://app?vid=c2c69928-73f3-4afe-b908-10f94a355c64"},"vehicle_type_id":"4","last_reported":1731171991,"current_range_meters":20000,"station_id":"ce4bht12rcd13ifvqi60","pricing_plan_id":"cebpf4jnsgd1na2vs0mg"},{"bike_id":"c6329ef6-f603-4278-bb59-872fc4d4b30c","system_id":"levelo_inurba_marseille","lat":43.25,"lon":5.38927,"is_reserved":false,"is_disabled":false,"rental_uris":{"android":"levelo://app?vid=c6329ef6-f603-4278-bb59-872fc4d4b30c","ios":"levelo://app?vid=c6329ef6-f603-4278-bb59-872fc4d4b30c"},"vehicle_type_id":"4","last_reported":1731171991,"current_range_meters":16000,"station_id":"ce4bhgp2rcd13ifvqfd0","pricing_plan_id":"cebpf4jnsgd1na2vs0mg"},{"bike_id":"d19e5eb0-2685-46af-ac05-ba35c619ec1a","system_id":"levelo_inurba_marseille","lat":43.31228,"lon":5.36847,"is_reserved":false,"is_disabled":false,"rental_uris":{"android":"levelo://app?vid=d19e5eb0-2685-46af-ac05-ba35c619ec1a","ios":"levelo://app?vid=d19e5eb0-2685-46af-ac05-ba35c619ec1a"},"vehicle_type_id":"4","last_reported":1731171991,"current_range_meters":25200,"station_id":"ce4bgl92rcd13ifvqbq0","pricing_plan_id":"cebpf4jnsgd1na2vs0mg"},{"bike_id":"23a09310-7bf7-417c-96dc-1a367e1a6715","system_id":"levelo_inurba_marseille","lat":43.30443,"lon":5.38894,"is_reserved":false,"is_disabled":false,"rental_uris":{"android":"levelo://app?vid=23a09310-7bf7-417c-96dc-1a367e1a6715","ios":"levelo://app?vid=23a09310-7bf7-417c-96dc-1a367e1a6715"},"vehicle_type_id":"4","last_reported":1731171991,"current_range_meters":36800,"station_id":"ce4bgk12rcd13ifvqbi0","pricing_plan_id":"cebpf4jnsgd1na2vs0mg"},{"bike_id":"fa2a5e5c-6495-412b-a165-472e0f27db6f","system_id":"levelo_inurba_marseille","lat":43.25499,"lon":5.37653,"is_reserved":false,"is_disabled":false,"rental_uris":{"android":"levelo://app?vid=fa2a5e5c-6495-412b-a165-472e0f27db6f","ios":"levelo://app?vid=fa2a5e5c-6495-412b-a165-472e0f27db6f"},"vehicle_type_id":"4","last_reported":1731171991,"current_range_meters":22000,"station_id":"ce4bhh12rcd13ifvqff0","pricing_plan_id":"cebpf4jnsgd1na2vs0mg"},{"bike_id":"12e8b14c-bc42-4790-9dcd-6ecd2e54a95f","system_id":"levelo_inurba_marseille","lat":43.295311,"lon":5.375011,"is_reserved":false,"is_disabled":false,"rental_uris":{"android":"levelo://app?vid=12e8b14c-bc42-4790-9dcd-6ecd2e54a95f","ios":"levelo://app?vid=12e8b14c-bc42-4790-9dcd-6ecd2e54a95f"},"vehicle_type_id":"4","last_reported":1731171991,"current_range_meters":10800,"station_id":"ce4bh492rcd13ifvqdug","pricing_plan_id":"cebpf4jnsgd1na2vs0mg"},{"bike_id":"79a4e5c5-77a3-46af-a59b-3b03afdf8829","system_id":"levelo_inurba_marseille","lat":43.32483,"lon":5.36575,"is_reserved":false,"is_disabled":false,"rental_uris":{"android":"levelo://app?vid=79a4e5c5-77a3-46af-a59b-3b03afdf8829","ios":"levelo://app?vid=79a4e5c5-77a3-46af-a59b-3b03afdf8829"},"vehicle_type_id":"4","last_reported":1731171991,"current_range_meters":17600,"station_id":"ce4bhs12rcd13ifvqhvg","pricing_plan_id":"cebpf4jnsgd1na2vs0mg"},{"bike_id":"e5a47c2f-39ec-4834-acf6-a8beb0b7263e","system_id":"levelo_inurba_marseille","lat":43.29698,"lon":5.37699,"is_reserved":false,"is_disabled":false,"rental_uris":{"android":"levelo://app?vid=e5a47c2f-39ec-4834-acf6-a8beb0b7263e","ios":"levelo://app?vid=e5a47c2f-39ec-4834-acf6-a8beb0b7263e"},"vehicle_type_id":"4","last_reported":1731171991,"current_range_meters":8000,"station_id":"ce4bgkh2rcd13ifvqbl0","pricing_plan_id":"cebpf4jnsgd1na2vs0mg"},{"bike_id":"e6884b43-a02c-415b-bc18-776b91b4db82","system_id":"levelo_inurba_marseille","lat":43.29978,"lon":5.38494,"is_reserved":false,"is_disabled":false,"rental_uris":{"android":"levelo://app?vid=e6884b43-a02c-415b-bc18-776b91b4db82","ios":"levelo://app?vid=e6884b43-a02c-415b-bc18-776b91b4db82"},"vehicle_type_id":"4","last_reported":1731171991,"current_range_meters":36800,"station_id":"ce4bgv12rcd13ifvqcp0","pricing_plan_id":"cebpf4jnsgd1na2vs0mg"},{"bike_id":"9f07fe55-67fb-4796-b41a-e2d2f90f1438","system_id":"levelo_inurba_marseille","lat":43.29174,"lon":5.37167,"is_reserved":false,"is_disabled":false,"rental_uris":{"android":"levelo://app?vid=9f07fe55-67fb-4796-b41a-e2d2f90f1438","ios":"levelo://app?vid=9f07fe55-67fb-4796-b41a-e2d2f90f1438"},"vehicle_type_id":"4","last_reported":1731171991,"current_range_meters":22400,"station_id":"ce4bha92rcd13ifvqeh0","pricing_plan_id":"cebpf4jnsgd1na2vs0mg"},{"bike_id":"49f94053-3923-4548-b22e-441c0fd03212","system_id":"levelo_inurba_marseille","lat":43.29972,"lon":5.37193,"is_reserved":false,"is_disabled":false,"rental_uris":{"android":"levelo://app?vid=49f94053-3923-4548-b22e-441c0fd03212","ios":"levelo://app?vid=49f94053-3923-4548-b22e-441c0fd03212"},"vehicle_type_id":"4","last_reported":1731171991,"current_range_meters":38800,"station_id":"ce4bgr92rcd13ifvqc7g","pricing_plan_id":"cebpf4jnsgd1na2vs0mg"},{"bike_id":"105f5d19-11c3-4e6d-9bda-4d5ac20f78e0","system_id":"levelo_inurba_marseille","lat":43.28608,"lon":5.35104,"is_reserved":false,"is_disabled":false,"rental_uris":{"android":"levelo://app?vid=105f5d19-11c3-4e6d-9bda-4d5ac20f78e0","ios":"levelo://app?vid=105f5d19-11c3-4e6d-9bda-4d5ac20f78e0"},"vehicle_type_id":"4","last_reported":1731171991,"current_range_meters":24000,"station_id":"ce4bhch2rcd13ifvqeug","pricing_plan_id":"cebpf4jnsgd1na2vs0mg"},{"bike_id":"4241b018-66ce-4c7c-a516-a31e62b3b1e5","system_id":"levelo_inurba_marseille","lat":43.29093,"lon":5.38147,"is_reserved":false,"is_disabled":false,"rental_uris":{"android":"levelo://app?vid=4241b018-66ce-4c7c-a516-a31e62b3b1e5","ios":"levelo://app?vid=4241b018-66ce-4c7c-a516-a31e62b3b1e5"},"vehicle_type_id":"4","last_reported":1731171991,"current_range_meters":28400,"station_id":"ce4bh512rcd13ifvqe2g","pricing_plan_id":"cebpf4jnsgd1na2vs0mg"},{"bike_id":"795e3900-36bb-4430-977d-b334f9a9ea13","system_id":"levelo_inurba_marseille","lat":43.29924,"lon":5.36573,"is_reserved":false,"is_disabled":false,"rental_uris":{"android":"levelo://app?vid=795e3900-36bb-4430-977d-b334f9a9ea13","ios":"levelo://app?vid=795e3900-36bb-4430-977d-b334f9a9ea13"},"vehicle_type_id":"4","last_reported":1731171991,"current_range_meters":34800,"station_id":"ce4bgm92rcd13ifvqbr0","pricing_plan_id":"cebpf4jnsgd1na2vs0mg"},{"bike_id":"3abeba9c-ec5f-4aca-9a82-3c5a9a70add6","system_id":"levelo_inurba_marseille","lat":43.304681,"lon":5.379042,"is_reserved":false,"is_disabled":false,"rental_uris":{"android":"levelo://app?vid=3abeba9c-ec5f-4aca-9a82-3c5a9a70add6","ios":"levelo://app?vid=3abeba9c-ec5f-4aca-9a82-3c5a9a70add6"},"vehicle_type_id":"4","last_reported":1731171991,"current_range_meters":38800,"station_id":"ce4bgup2rcd13ifvqcn0","pricing_plan_id":"cebpf4jnsgd1na2vs0mg"},{"bike_id":"1168dd88-14da-4b8f-9702-5ebe00af9269","system_id":"levelo_inurba_marseille","lat":43.29929,"lon":5.36548,"is_reserved":false,"is_disabled":false,"rental_uris":{"android":"levelo://app?vid=1168dd88-14da-4b8f-9702-5ebe00af9269","ios":"levelo://app?vid=1168dd88-14da-4b8f-9702-5ebe00af9269"},"vehicle_type_id":"4","last_reported":1731171991,"current_range_meters":19600,"station_id":"ce4bgm92rcd13ifvqbr0","pricing_plan_id":"cebpf4jnsgd1na2vs0mg"},{"bike_id":"993cfec3-726b-442f-962d-e0f2012e30e3","system_id":"levelo_inurba_marseille","lat":43.25489,"lon":5.37649,"is_reserved":false,"is_disabled":false,"rental_uris":{"android":"levelo://app?vid=993cfec3-726b-442f-962d-e0f2012e30e3","ios":"levelo://app?vid=993cfec3-726b-442f-962d-e0f2012e30e3"},"vehicle_type_id":"4","last_reported":1731171991,"current_range_meters":25600,"station_id":"ce4bhh12rcd13ifvqff0","pricing_plan_id":"cebpf4jnsgd1na2vs0mg"},{"bike_id":"16edd5e5-0497-4831-bb6b-d18eb7e92293","system_id":"levelo_inurba_marseille","lat":43.24814,"lon":5.3746,"is_reserved":false,"is_disabled":false,"rental_uris":{"android":"levelo://app?vid=16edd5e5-0497-4831-bb6b-d18eb7e92293","ios":"levelo://app?vid=16edd5e5-0497-4831-bb6b-d18eb7e92293"},"vehicle_type_id":"4","last_reported":1731171991,"current_range_meters":34800,"station_id":"ce4bhgh2rcd13ifvqfb0","pricing_plan_id":"cebpf4jnsgd1na2vs0mg"},{"bike_id":"71e34017-f380-4a89-82cc-36f368859a16","system_id":"levelo_inurba_marseille","lat":43.30268,"lon":5.37717,"is_reserved":false,"is_disabled":false,"rental_uris":{"android":"levelo://app?vid=71e34017-f380-4a89-82cc-36f368859a16","ios":"levelo://app?vid=71e34017-f380-4a89-82cc-36f368859a16"},"vehicle_type_id":"4","last_reported":1731171991,"current_range_meters":11200,"station_id":"ce4bguh2rcd13ifvqcj0","pricing_plan_id":"cebpf4jnsgd1na2vs0mg"},{"bike_id":"fefa82e0-7137-4251-99d5-7443c07b02d0","system_id":"levelo_inurba_marseille","lat":43.317118,"lon":5.437085,"is_reserved":false,"is_disabled":false,"rental_uris":{"android":"levelo://app?vid=fefa82e0-7137-4251-99d5-7443c07b02d0","ios":"levelo://app?vid=fefa82e0-7137-4251-99d5-7443c07b02d0"},"vehicle_type_id":"4","last_reported":1731171991,"current_range_meters":37600,"station_id":"ce4bhp92rcd13ifvqhcg","pricing_plan_id":"cebpf4jnsgd1na2vs0mg"},{"bike_id":"89f76e50-05c7-45fa-88fd-eeb90fa30da8","system_id":"levelo_inurba_marseille","lat":43.31364,"lon":5.38495,"is_reserved":false,"is_disabled":false,"rental_uris":{"android":"levelo://app?vid=89f76e50-05c7-45fa-88fd-eeb90fa30da8","ios":"levelo://app?vid=89f76e50-05c7-45fa-88fd-eeb90fa30da8"},"vehicle_type_id":"4","last_reported":1731171991,"current_range_meters":16800,"station_id":"ce4bgt92rcd13ifvqcf0","pricing_plan_id":"cebpf4jnsgd1na2vs0mg"},{"bike_id":"95007c58-312b-4dc0-9e2b-d4c4495a66fd","system_id":"levelo_inurba_marseille","lat":43.29526,"lon":5.38544,"is_reserved":false,"is_disabled":false,"rental_uris":{"android":"levelo://app?vid=95007c58-312b-4dc0-9e2b-d4c4495a66fd","ios":"levelo://app?vid=95007c58-312b-4dc0-9e2b-d4c4495a66fd"},"vehicle_type_id":"4","last_reported":1731171991,"current_range_meters":4400,"station_id":"ce4bgih2rcd13ifvqba0","pricing_plan_id":"cebpf4jnsgd1na2vs0mg"},{"bike_id":"0d4b4f25-2641-43f8-9f29-c179062ee33f","system_id":"levelo_inurba_marseille","lat":43.30431,"lon":5.38897,"is_reserved":false,"is_disabled":false,"rental_uris":{"android":"levelo://app?vid=0d4b4f25-2641-43f8-9f29-c179062ee33f","ios":"levelo://app?vid=0d4b4f25-2641-43f8-9f29-c179062ee33f"},"vehicle_type_id":"4","last_reported":1731171991,"current_range_meters":31200,"station_id":"ce4bgk12rcd13ifvqbi0","pricing_plan_id":"cebpf4jnsgd1na2vs0mg"},{"bike_id":"3eab29fa-384d-42b3-8a97-9582e857ca12","system_id":"levelo_inurba_marseille","lat":43.255,"lon":5.37647,"is_reserved":false,"is_disabled":false,"rental_uris":{"android":"levelo://app?vid=3eab29fa-384d-42b3-8a97-9582e857ca12","ios":"levelo://app?vid=3eab29fa-384d-42b3-8a97-9582e857ca12"},"vehicle_type_id":"4","last_reported":1731171991,"current_range_meters":38800,"station_id":"ce4bhh12rcd13ifvqff0","pricing_plan_id":"cebpf4jnsgd1na2vs0mg"},{"bike_id":"537d9b0b-e4da-4a9e-b767-2cbba9eebd1a","system_id":"levelo_inurba_marseille","lat":43.28471,"lon":5.38423,"is_reserved":false,"is_disabled":false,"rental_uris":{"android":"levelo://app?vid=537d9b0b-e4da-4a9e-b767-2cbba9eebd1a","ios":"levelo://app?vid=537d9b0b-e4da-4a9e-b767-2cbba9eebd1a"},"vehicle_type_id":"4","last_reported":1731171991,"current_range_meters":19600,"station_id":"ce4bh512rcd13ifvqe3g","pricing_plan_id":"cebpf4jnsgd1na2vs0mg"},{"bike_id":"29a5111c-6a91-467f-af6c-f5e031031b3e","system_id":"levelo_inurba_marseille","lat":43.29705,"lon":5.3661,"is_reserved":false,"is_disabled":false,"rental_uris":{"android":"levelo://app?vid=29a5111c-6a91-467f-af6c-f5e031031b3e","ios":"levelo://app?vid=29a5111c-6a91-467f-af6c-f5e031031b3e"},"vehicle_type_id":"4","last_reported":1731171991,"current_range_meters":28400,"station_id":"ce4bgn12rcd13ifvqbt0","pricing_plan_id":"cebpf4jnsgd1na2vs0mg"},{"bike_id":"9604c761-9835-4ccb-9637-d937fcb70031","system_id":"levelo_inurba_marseille","lat":43.30467,"lon":5.37914,"is_reserved":false,"is_disabled":false,"rental_uris":{"android":"levelo://app?vid=9604c761-9835-4ccb-9637-d937fcb70031","ios":"levelo://app?vid=9604c761-9835-4ccb-9637-d937fcb70031"},"vehicle_type_id":"4","last_reported":1731171991,"current_range_meters":38800,"station_id":"ce4bgup2rcd13ifvqcn0","pricing_plan_id":"cebpf4jnsgd1na2vs0mg"},{"bike_id":"21f1cbee-81d5-444b-bae6-64cba53226cf","system_id":"levelo_inurba_marseille","lat":43.250068,"lon":5.3893,"is_reserved":false,"is_disabled":false,"rental_uris":{"android":"levelo://app?vid=21f1cbee-81d5-444b-bae6-64cba53226cf","ios":"levelo://app?vid=21f1cbee-81d5-444b-bae6-64cba53226cf"},"vehicle_type_id":"4","last_reported":1731171991,"current_range_meters":18000,"station_id":"ce4bhgp2rcd13ifvqfd0","pricing_plan_id":"cebpf4jnsgd1na2vs0mg"},{"bike_id":"0cb9d0bd-7862-49ba-8713-3e2763756398","system_id":"levelo_inurba_marseille","lat":43.23965,"lon":5.36636,"is_reserved":false,"is_disabled":false,"rental_uris":{"android":"levelo://app?vid=0cb9d0bd-7862-49ba-8713-3e2763756398","ios":"levelo://app?vid=0cb9d0bd-7862-49ba-8713-3e2763756398"},"vehicle_type_id":"4","last_reported":1731171991,"current_range_meters":28000,"station_id":"ce4bhi12rcd13ifvqfp0","pricing_plan_id":"cebpf4jnsgd1na2vs0mg"},{"bike_id":"634d684f-d35e-4da5-b37f-bbfb7442baa7","system_id":"levelo_inurba_marseille","lat":43.33731,"lon":5.39182,"is_reserved":false,"is_disabled":false,"rental_uris":{"android":"levelo://app?vid=634d684f-d35e-4da5-b37f-bbfb7442baa7","ios":"levelo://app?vid=634d684f-d35e-4da5-b37f-bbfb7442baa7"},"vehicle_type_id":"4","last_reported":1731171991,"current_range_meters":19200,"station_id":"ce4bhr92rcd13ifvqhsg","pricing_plan_id":"cebpf4jnsgd1na2vs0mg"},{"bike_id":"2de5f43c-949d-483d-8929-c428d6c5328f","system_id":"levelo_inurba_marseille","lat":43.297,"lon":5.3661,"is_reserved":false,"is_disabled":false,"rental_uris":{"android":"levelo://app?vid=2de5f43c-949d-483d-8929-c428d6c5328f","ios":"levelo://app?vid=2de5f43c-949d-483d-8929-c428d6c5328f"},"vehicle_type_id":"4","last_reported":1731171991,"current_range_meters":7200,"station_id":"ce4bgn12rcd13ifvqbt0","pricing_plan_id":"cebpf4jnsgd1na2vs0mg"},{"bike_id":"4afc81e5-f625-4e8d-a652-c388b3df9e66","system_id":"levelo_inurba_marseille","lat":43.29929,"lon":5.365621,"is_reserved":false,"is_disabled":false,"rental_uris":{"android":"levelo://app?vid=4afc81e5-f625-4e8d-a652-c388b3df9e66","ios":"levelo://app?vid=4afc81e5-f625-4e8d-a652-c388b3df9e66"},"vehicle_type_id":"4","last_reported":1731171991,"current_range_meters":16800,"station_id":"ce4bgm92rcd13ifvqbr0","pricing_plan_id":"cebpf4jnsgd1na2vs0mg"},{"bike_id":"e22c2421-bfe8-434b-aa4a-13555dd96b87","system_id":"levelo_inurba_marseille","lat":43.29974,"lon":5.37181,"is_reserved":false,"is_disabled":false,"rental_uris":{"android":"levelo://app?vid=e22c2421-bfe8-434b-aa4a-13555dd96b87","ios":"levelo://app?vid=e22c2421-bfe8-434b-aa4a-13555dd96b87"},"vehicle_type_id":"4","last_reported":1731171991,"current_range_meters":38800,"station_id":"ce4bgr92rcd13ifvqc7g","pricing_plan_id":"cebpf4jnsgd1na2vs0mg"},{"bike_id":"cd1b86e7-9170-4fd7-927b-da5fedb387ff","system_id":"levelo_inurba_marseille","lat":43.23196,"lon":5.35548,"is_reserved":false,"is_disabled":false,"rental_uris":{"android":"levelo://app?vid=cd1b86e7-9170-4fd7-927b-da5fedb387ff","ios":"levelo://app?vid=cd1b86e7-9170-4fd7-927b-da5fedb387ff"},"vehicle_type_id":"4","last_reported":1731171991,"current_range_meters":38400,"station_id":"ce4bhu92rcd13ifvqi70","pricing_plan_id":"cebpf4jnsgd1na2vs0mg"},{"bike_id":"73e6719a-8887-42e9-a46c-a8a1dea37879","system_id":"levelo_inurba_marseille","lat":43.30878,"lon":5.3966,"is_reserved":false,"is_disabled":false,"rental_uris":{"android":"levelo://app?vid=73e6719a-8887-42e9-a46c-a8a1dea37879","ios":"levelo://app?vid=73e6719a-8887-42e9-a46c-a8a1dea37879"},"vehicle_type_id":"4","last_reported":1731171991,"current_range_meters":3200,"station_id":"ce4bh012rcd13ifvqcv0","pricing_plan_id":"cebpf4jnsgd1na2vs0mg"},{"bike_id":"92d10030-6bbf-4b13-8747-6eaf1d5803ed","system_id":"levelo_inurba_marseille","lat":43.24082,"lon":5.3774,"is_reserved":false,"is_disabled":false,"rental_uris":{"android":"levelo://app?vid=92d10030-6bbf-4b13-8747-6eaf1d5803ed","ios":"levelo://app?vid=92d10030-6bbf-4b13-8747-6eaf1d5803ed"},"vehicle_type_id":"4","last_reported":1731171991,"current_range_meters":24800,"station_id":"ce4bhnp2rcd13ifvqgvg","pricing_plan_id":"cebpf4jnsgd1na2vs0mg"},{"bike_id":"277421e9-ff7d-43e4-bbf0-398dd3825257","system_id":"levelo_inurba_marseille","lat":43.30161,"lon":5.3809,"is_reserved":false,"is_disabled":false,"rental_uris":{"android":"levelo://app?vid=277421e9-ff7d-43e4-bbf0-398dd3825257","ios":"levelo://app?vid=277421e9-ff7d-43e4-bbf0-398dd3825257"},"vehicle_type_id":"4","last_reported":1731171991,"current_range_meters":38800,"station_id":"ce4bgjp2rcd13ifvqbh0","pricing_plan_id":"cebpf4jnsgd1na2vs0mg"},{"bike_id":"d99218a4-3db4-4383-8bb9-90505c8b1bf9","system_id":"levelo_inurba_marseille","lat":43.30164,"lon":5.38084,"is_reserved":false,"is_disabled":false,"rental_uris":{"android":"levelo://app?vid=d99218a4-3db4-4383-8bb9-90505c8b1bf9","ios":"levelo://app?vid=d99218a4-3db4-4383-8bb9-90505c8b1bf9"},"vehicle_type_id":"4","last_reported":1731171991,"current_range_meters":27200,"station_id":"ce4bgjp2rcd13ifvqbh0","pricing_plan_id":"cebpf4jnsgd1na2vs0mg"},{"bike_id":"a20f251f-ac9e-4806-8bc9-21ba2287da91","system_id":"levelo_inurba_marseille","lat":43.305365,"lon":5.384228,"is_reserved":false,"is_disabled":false,"rental_uris":{"android":"levelo://app?vid=a20f251f-ac9e-4806-8bc9-21ba2287da91","ios":"levelo://app?vid=a20f251f-ac9e-4806-8bc9-21ba2287da91"},"vehicle_type_id":"4","last_reported":1731171991,"current_range_meters":33600,"station_id":"ce4bgg92rcd13ifvqb30","pricing_plan_id":"cebpf4jnsgd1na2vs0mg"},{"bike_id":"a311e75d-ad29-4abd-9f12-bd65c0f08bd4","system_id":"levelo_inurba_marseille","lat":43.29932,"lon":5.36548,"is_reserved":false,"is_disabled":false,"rental_uris":{"android":"levelo://app?vid=a311e75d-ad29-4abd-9f12-bd65c0f08bd4","ios":"levelo://app?vid=a311e75d-ad29-4abd-9f12-bd65c0f08bd4"},"vehicle_type_id":"4","last_reported":1731171991,"current_range_meters":38800,"station_id":"ce4bgm92rcd13ifvqbr0","pricing_plan_id":"cebpf4jnsgd1na2vs0mg"},{"bike_id":"35b50c16-4c41-467b-8ed0-92aa69fdd7db","system_id":"levelo_inurba_marseille","lat":43.29195,"lon":5.39321,"is_reserved":false,"is_disabled":false,"rental_uris":{"android":"levelo://app?vid=35b50c16-4c41-467b-8ed0-92aa69fdd7db","ios":"levelo://app?vid=35b50c16-4c41-467b-8ed0-92aa69fdd7db"},"vehicle_type_id":"4","last_reported":1731171991,"current_range_meters":14400,"station_id":"ce4bh192rcd13ifvqdd0","pricing_plan_id":"cebpf4jnsgd1na2vs0mg"},{"bike_id":"beb27925-f896-4bde-9fee-a40720968781","system_id":"levelo_inurba_marseille","lat":43.23198,"lon":5.35555,"is_reserved":false,"is_disabled":false,"rental_uris":{"android":"levelo://app?vid=beb27925-f896-4bde-9fee-a40720968781","ios":"levelo://app?vid=beb27925-f896-4bde-9fee-a40720968781"},"vehicle_type_id":"4","last_reported":1731171991,"current_range_meters":24400,"station_id":"ce4bhu92rcd13ifvqi70","pricing_plan_id":"cebpf4jnsgd1na2vs0mg"},{"bike_id":"cac17d27-fcf1-4519-8285-cc188e9e6481","system_id":"levelo_inurba_marseille","lat":43.286194,"lon":5.351169,"is_reserved":false,"is_disabled":false,"rental_uris":{"android":"levelo://app?vid=cac17d27-fcf1-4519-8285-cc188e9e6481","ios":"levelo://app?vid=cac17d27-fcf1-4519-8285-cc188e9e6481"},"vehicle_type_id":"4","last_reported":1731171991,"current_range_meters":26800,"station_id":"ce4bh492rcd13ifvqdug","pricing_plan_id":"cebpf4jnsgd1na2vs0mg"},{"bike_id":"b7d31951-b067-4d64-9399-34f3abaf529a","system_id":"levelo_inurba_marseille","lat":43.27188,"lon":5.40998,"is_reserved":false,"is_disabled":false,"rental_uris":{"android":"levelo://app?vid=b7d31951-b067-4d64-9399-34f3abaf529a","ios":"levelo://app?vid=b7d31951-b067-4d64-9399-34f3abaf529a"},"vehicle_type_id":"4","last_reported":1731171991,"current_range_meters":8000,"station_id":"ce4bhl12rcd13ifvqgf0","pricing_plan_id":"cebpf4jnsgd1na2vs0mg"},{"bike_id":"fd1d34b6-e76d-4369-8165-ac86a9563816","system_id":"levelo_inurba_marseille","lat":43.28725,"lon":5.37946,"is_reserved":false,"is_disabled":false,"rental_uris":{"android":"levelo://app?vid=fd1d34b6-e76d-4369-8165-ac86a9563816","ios":"levelo://app?vid=fd1d34b6-e76d-4369-8165-ac86a9563816"},"vehicle_type_id":"4","last_reported":1731171991,"current_range_meters":30800,"station_id":"ce4bh9p2rcd13ifvqec0","pricing_plan_id":"cebpf4jnsgd1na2vs0mg"},