{"last_updated":1736532798,"ttl":60,"version":"2.2","data":{"bikes":[{"bike_id":"13651857-1f8b-438f-8787-5a938cced51f","system_id":"levelo_inurba_marseille","lat":43.3229,"lon":5.38273,"is_reserved":false,"is_disabled":false,"rental_uris":{"android":"levelo://app?vid=13651857-1f8b-438f-8787-5a938cced51f","ios":"levelo://app?vid=13651857-1f8b-438f-8787-5a938cced51f"},"vehicle_type_id":"4","last_reported":1736532799,"current_range_meters":14800,"station_id":"ce4bhr12rcd13ifvqhqg","pricing_plan_id":"cebpf4jnsgd1na2vs0mg"},{"bike_id":"14a8245a-9128-40d3-8265-cf1423d2fdc8","system_id":"levelo_inurba_marseille","lat":43.24807,"lon":5.3744,"is_reserved":false,"is_disabled":false,"rental_uris":{"android":"levelo://app?vid=14a8245a-9128-40d3-8265-cf1423d2fdc8","ios":"levelo://app?vid=14a8245a-9128-40d3-8265-cf1423d2fdc8"},"vehicle_type_id":"4","last_reported":1736532799,"current_range_meters":38800,"station_id":"ce4bhgh2rcd13ifvqfb0","pricing_plan_id":"cebpf4jnsgd1na2vs0mg"},{"bike_id":"9ff24b9e-60a3-48d4-8cde-0ae6dfde2dc8","system_id":"levelo_inurba_marseille","lat":43.33031,"lon":5.3902,"is_reserved":false,"is_disabled":false,"rental_uris":{"android":"levelo://app?vid=9ff24b9e-60a3-48d4-8cde-0ae6dfde2dc8","ios":"levelo://app?vid=9ff24b9e-60a3-48d4-8cde-0ae6dfde2dc8"},"vehicle_type_id":"4","last_reported":1736532799,"current_range_meters":32800,"station_id":"ce4bhr92rcd13ifvqhrg","pricing_plan_id":"cebpf4jnsgd1na2vs0mg"},{"bike_id":"3b123673-8d4f-4068-abd8-f46ee5ced2ff","system_id":"levelo_inurba_marseille","lat":43.28464,"lon":5.3589,"is_reserved":false,"is_disabled":false,"rental_uris":{"android":"levelo://app?vid=3b123673-8d4f-4068-abd8-f46ee5ced2ff","ios":"levelo://app?vid=3b123673-8d4f-4068-abd8-f46ee5ced2ff"},"vehicle_type_id":"4","last_reported":1736532799,"current_range_meters":14800,"station_id":"ce4bhah2rcd13ifvqei0","pricing_plan_id":"cebpf4jnsgd1na2vs0mg"},{"bike_id":"42034ff5-e6b0-40c2-8baa-a33bc13731d4","system_id":"levelo_inurba_marseille","lat":43.25932,"lon":5.4091,"is_reserved":false,"is_disabled":true,"rental_uris":{"android":"levelo://app?vid=42034ff5-e6b0-40c2-8baa-a33bc13731d4","ios":"levelo://app?vid=42034ff5-e6b0-40c2-8baa-a33bc13731d4"},"vehicle_type_id":"4","last_reported":1736532799,"current_range_meters":28400,"station_id":"ce4bhm92rcd13ifvqglg","pricing_plan_id":"cebpf4jnsgd1na2vs0mg"},{"bike_id":"7e75c14d-ef56-4ad5-af1b-03dc964629d0","system_id":"levelo_inurba_marseille","lat":43.30804,"lon":5.3818,"is_reserved":false,"is_disabled":false,"rental_uris":{"android":"levelo://app?vid=7e75c14d-ef56-4ad5-af1b-03dc964629d0","ios":"levelo://app?vid=7e75c14d-ef56-4ad5-af1b-03dc964629d0"},"vehicle_type_id":"4","last_reported":1736532799,"current_range_meters":18000,"station_id":"ce4bgt12rcd13ifvqce0","pricing_plan_id":"cebpf4jnsgd1na2vs0mg"},{"bike_id":"02fa8d23-b641-466a-8661-f76f63fb8c6e","system_id":"levelo_inurba_marseille","lat":43.31541,"lon":5.38031,"is_reserved":false,"is_disabled":false,"rental_uris":{"android":"levelo://app?vid=02fa8d23-b641-466a-8661-f76f63fb8c6e","ios":"levelo://app?vid=02fa8d23-b641-466a-8661-f76f63fb8c6e"},"vehicle_type_id":"4","last_reported":1736532799,"current_range_meters":33600,"station_id":"ce4bhsp2rcd13ifvqi50","pricing_plan_id":"cebpf4jnsgd1na2vs0mg"},{"bike_id":"cca8daa2-835d-4373-8bf2-da5672d50807","system_id":"levelo_inurba_marseille","lat":43.285696,"lon":5.39495,"is_reserved":false,"is_disabled":false,"rental_uris":{"android":"levelo://app?vid=cca8daa2-835d-4373-8bf2-da5672d50807","ios":"levelo://app?vid=cca8daa2-835d-4373-8bf2-da5672d50807"},"vehicle_type_id":"4","last_reported":1736532799,"current_range_meters":6800,"station_id":"ce4bh292rcd13ifvqdg0","pricing_plan_id":"cebpf4jnsgd1na2vs0mg"},{"bike_id":"a444a04d-7a75-4bb0-b921-23a4f692b157","system_id":"levelo_inurba_marseille","lat":43.24653,"lon":5.38886,"is_reserved":false,"is_disabled":false,"rental_uris":{"android":"levelo://app?vid=a444a04d-7a75-4bb0-b921-23a4f692b157","ios":"levelo://app?vid=a444a04d-7a75-4bb0-b921-23a4f692b157"},"vehicle_type_id":"4","last_reported":1736532799,"current_range_meters":23200,"station_id":"ce4bhg12rcd13ifvqf60","pricing_plan_id":"cebpf4jnsgd1na2vs0mg"},{"bike_id":"5a762258-d500-42df-b83f-ab05844e2483","system_id":"levelo_inurba_marseille","lat":43.30798,"lon":5.37656,"is_reserved":false,"is_disabled":false,"rental_uris":{"android":"levelo://app?vid=5a762258-d500-42df-b83f-ab05844e2483","ios":"levelo://app?vid=5a762258-d500-42df-b83f-ab05844e2483"},"vehicle_type_id":"4","last_reported":1736532799,"current_range_meters":14000,"station_id":"ce4bgv92rcd13ifvqcq0","pricing_plan_id":"cebpf4jnsgd1na2vs0mg"},{"bike_id":"d59514d8-e824-42e2-84c4-ef69c2665da3","system_id":"levelo_inurba_marseille","lat":43.24805,"lon":5.37457,"is_reserved":false,"is_disabled":false,"rental_uris":{"android":"levelo://app?vid=d59514d8-e824-42e2-84c4-ef69c2665da3","ios":"levelo://app?vid=d59514d8-e824-42e2-84c4-ef69c2665da3"},"vehicle_type_id":"4","last_reported":1736532799,"current_range_meters":20400,"station_id":"ce4bhgh2rcd13ifvqfb0","pricing_plan_id":"cebpf4jnsgd1na2vs0mg"},{"bike_id":"9b9f7a00-78fa-4c6e-9a55-5c7cdd99b601","system_id":"levelo_inurba_marseille","lat":43.280401,"lon":5.369443,"is_reserved":false,"is_disabled":false,"rental_uris":{"android":"levelo://app?vid=9b9f7a00-78fa-4c6e-9a55-5c7cdd99b601","ios":"levelo://app?vid=9b9f7a00-78fa-4c6e-9a55-5c7cdd99b601"},"vehicle_type_id":"4","last_reported":1736532799,"current_range_meters":39200,"station_id":"ce4bha12rcd13ifvqef0","pricing_plan_id":"cebpf4jnsgd1na2vs0mg"},{"bike_id":"13b473bc-816f-467e-ae12-cfad637a890c","system_id":"levelo_inurba_marseille","lat":43.27425,"lon":5.39412,"is_reserved":false,"is_disabled":true,"rental_uris":{"android":"levelo://app?vid=13b473bc-816f-467e-ae12-cfad637a890c","ios":"levelo://app?vid=13b473bc-816f-467e-ae12-cfad637a890c"},"vehicle_type_id":"4","last_reported":1736532799,"current_range_meters":1200,"station_id":"ce4bhdp2rcd13ifvqf20","pricing_plan_id":"cebpf4jnsgd1na2vs0mg"},{"bike_id":"dffbbb25-2165-42a0-aab0-b8331c3e0eec","system_id":"levelo_inurba_marseille","lat":43.26059,"lon":5.39393,"is_reserved":false,"is_disabled":false,"rental_uris":{"android":"levelo://app?vid=dffbbb25-2165-42a0-aab0-b8331c3e0eec","ios":"levelo://app?vid=dffbbb25-2165-42a0-aab0-b8331c3e0eec"},"vehicle_type_id":"4","last_reported":1736532799,"current_range_meters":27600,"station_id":"ce4bhh92rcd13ifvqfj0","pricing_plan_id":"cebpf4jnsgd1na2vs0mg"},{"bike_id":"e9c300c1-93e2-4fc5-bf64-e457d9629d55","system_id":"levelo_inurba_marseille","lat":43.29629,"lon":5.40606,"is_reserved":false,"is_disabled":false,"rental_uris":{"android":"levelo://app?vid=e9c300c1-93e2-4fc5-bf64-e457d9629d55","ios":"levelo://app?vid=e9c300c1-93e2-4fc5-bf64-e457d9629d55"},"vehicle_type_id":"4","last_reported":1736532799,"current_range_meters":19600,"station_id":"ce4bh0h2rcd13ifvqd60","pricing_plan_id":"cebpf4jnsgd1na2vs0mg"},{"bike_id":"004c2ac5-7f25-4e48-8a80-9a02537f6ba6","system_id":"levelo_inurba_marseille","lat":43.32108,"lon":5.36783,"is_reserved":false,"is_disabled":false,"rental_uris":{"android":"levelo://app?vid=004c2ac5-7f25-4e48-8a80-9a02537f6ba6","ios":"levelo://app?vid=004c2ac5-7f25-4e48-8a80-9a02537f6ba6"},"vehicle_type_id":"4","last_reported":1736532799,"current_range_meters":35200,"station_id":"ce4bhrh2rcd13ifvqhug","pricing_plan_id":"cebpf4jnsgd1na2vs0mg"},{"bike_id":"d85da1f2-1749-499b-9085-d73ce92a7849","system_id":"levelo_inurba_marseille","lat":43.2867,"lon":5.36347,"is_reserved":false,"is_disabled":false,"rental_uris":{"android":"levelo://app?vid=d85da1f2-1749-499b-9085-d73ce92a7849","ios":"levelo://app?vid=d85da1f2-1749-499b-9085-d73ce92a7849"},"vehicle_type_id":"4","last_reported":1736532799,"current_range_meters":32000,"station_id":"ce4bhah2rcd13ifvqej0","pricing_plan_id":"cebpf4jnsgd1na2vs0mg"},{"bike_id":"aca9d58c-8821-4d79-88c1-67c3a044952f","system_id":"levelo_inurba_marseille","lat":43.33024,"lon":5.39031,"is_reserved":false,"is_disabled":false,"rental_uris":{"android":"levelo://app?vid=aca9d58c-8821-4d79-88c1-67c3a044952f","ios":"levelo://app?vid=aca9d58c-8821-4d79-88c1-67c3a044952f"},"vehicle_type_id":"4","last_reported":1736532799,"current_range_meters":24800,"station_id":"ce4bhr92rcd13ifvqhrg","pricing_plan_id":"cebpf4jnsgd1na2vs0mg"},{"bike_id":"d0c2e49e-c88a-4228-a4af-08fc675b9fc8","system_id":"levelo_inurba_marseille","lat":43.23182,"lon":5.39994,"is_reserved":false,"is_disabled":false,"rental_uris":{"android":"levelo://app?vid=d0c2e49e-c88a-4228-a4af-08fc675b9fc8","ios":"levelo://app?vid=d0c2e49e-c88a-4228-a4af-08fc675b9fc8"},"vehicle_type_id":"4","last_reported":1736532799,"current_range_meters":22000,"station_id":"ce4bhn12rcd13ifvqgqg","pricing_plan_id":"cebpf4jnsgd1na2vs0mg"},{"bike_id":"0754a3a6-d8ad-4e11-a0fd-2e381f851794","system_id":"levelo_inurba_marseille","lat":43.33703,"lon":5.39181,"is_reserved":false,"is_disabled":false,"rental_uris":{"android":"levelo://app?vid=0754a3a6-d8ad-4e11-a0fd-2e381f851794","ios":"levelo://app?vid=0754a3a6-d8ad-4e11-a0fd-2e381f851794"},"vehicle_type_id":"4","last_reported":1736532799,"current_range_meters":5600,"station_id":"ce4bhr92rcd13ifvqhsg","pricing_plan_id":"cebpf4jnsgd1na2vs0mg"},{"bike_id":"9f35e75c-ba6d-4f8b-b521-eefbbebfb95e","system_id":"levelo_inurba_marseille","lat":43.24676,"lon":5.38155,"is_reserved":false,"is_disabled":false,"rental_uris":{"android":"levelo://app?vid=9f35e75c-ba6d-4f8b-b521-eefbbebfb95e","ios":"levelo://app?vid=9f35e75c-ba6d-4f8b-b521-eefbbebfb95e"},"vehicle_type_id":"4","last_reported":1736532799,"current_range_meters":16000,"station_id":"ce4bhih2rcd13ifvqfr0","pricing_plan_id":"cebpf4jnsgd1na2vs0mg"},{"bike_id":"c1dea8eb-dedb-48c3-82b9-ba4d059a0755","system_id":"levelo_inurba_marseille","lat":43.26548,"lon":5.37304,"is_reserved":false,"is_disabled":true,"rental_uris":{"android":"levelo://app?vid=c1dea8eb-dedb-48c3-82b9-ba4d059a0755","ios":"levelo://app?vid=c1dea8eb-dedb-48c3-82b9-ba4d059a0755"},"vehicle_type_id":"4","last_reported":1736532799,"current_range_meters":12800,"station_id":"ce4bhg12rcd13ifvqf70","pricing_plan_id":"cebpf4jnsgd1na2vs0mg"},{"bike_id":"666c0c92-428a-4f95-8531-2a4d6f4a5bb0","system_id":"levelo_inurba_marseille","lat":43.24706,"lon":5.38113,"is_reserved":false,"is_disabled":false,"rental_uris":{"android":"levelo://app?vid=666c0c92-428a-4f95-8531-2a4d6f4a5bb0","ios":"levelo://app?vid=666c0c92-428a-4f95-8531-2a4d6f4a5bb0"},"vehicle_type_id":"4","last_reported":1736532799,"current_range_meters":10800,"station_id":"","pricing_plan_id":"cebpf4jnsgd1na2vs0mg"},{"bike_id":"3e35ef7b-3237-4c6e-a7b1-693543e13672","system_id":"levelo_inurba_marseille","lat":43.24654,"lon":5.38882,"is_reserved":false,"is_disabled":false,"rental_uris":{"android":"levelo://app?vid=3e35ef7b-3237-4c6e-a7b1-693543e13672","ios":"levelo://app?vid=3e35ef7b-3237-4c6e-a7b1-693543e13672"},"vehicle_type_id":"4","last_reported":1736532799,"current_range_meters":32400,"station_id":"ce4bhg12rcd13ifvqf60","pricing_plan_id":"cebpf4jnsgd1na2vs0mg"},{"bike_id":"4d4bfeef-a0c2-46e7-aa7d-4029e91ebb61","system_id":"levelo_inurba_marseille","lat":43.31123,"lon":5.37781,"is_reserved":false,"is_disabled":false,"rental_uris":{"android":"levelo://app?vid=4d4bfeef-a0c2-46e7-aa7d-4029e91ebb61","ios":"levelo://app?vid=4d4bfeef-a0c2-46e7-aa7d-4029e91ebb61"},"vehicle_type_id":"4","last_reported":1736532799,"current_range_meters":35600,"station_id":"ce4bgt92rcd13ifvqcg0","pricing_plan_id":"cebpf4jnsgd1na2vs0mg"},{"bike_id":"70288361-f4e5-4843-8676-92bd7962b8cc","system_id":"levelo_inurba_marseille","lat":43.30811,"lon":5.43531,"is_reserved":false,"is_disabled":false,"rental_uris":{"android":"levelo://app?vid=70288361-f4e5-4843-8676-92bd7962b8cc","ios":"levelo://app?vid=70288361-f4e5-4843-8676-92bd7962b8cc"},"vehicle_type_id":"4","last_reported":1736532799,"current_range_meters":18800,"station_id":"ce4bhph2rcd13ifvqheg","pricing_plan_id":"cebpf4jnsgd1na2vs0mg"},{"bike_id":"71cf82d9-2798-42b4-a4cc-4ab59dd88803","system_id":"levelo_inurba_marseille","lat":43.23182,"lon":5.39989,"is_reserved":false,"is_disabled":false,"rental_uris":{"android":"levelo://app?vid=71cf82d9-2798-42b4-a4cc-4ab59dd88803","ios":"levelo://app?vid=71cf82d9-2798-42b4-a4cc-4ab59dd88803"},"vehicle_type_id":"4","last_reported":1736532799,"current_range_meters":10000,"station_id":"ce4bhn12rcd13ifvqgqg","pricing_plan_id":"cebpf4jnsgd1na2vs0mg"},{"bike_id":"dcb2126a-d21d-4ccc-8dd5-f93c643abd4d","system_id":"levelo_inurba_marseille","lat":43.28922,"lon":5.38422,"is_reserved":false,"is_disabled":true,"rental_uris":{"android":"levelo://app?vid=dcb2126a-d21d-4ccc-8dd5-f93c643abd4d","ios":"levelo://app?vid=dcb2126a-d21d-4ccc-8dd5-f93c643abd4d"},"vehicle_type_id":"4","last_reported":1736532799,"current_range_meters":12000,"station_id":"ce4bh612rcd13ifvqe6g","pricing_plan_id":"cebpf4jnsgd1na2vs0mg"},{"bike_id":"40aa582d-815a-4ab4-b49f-d3b3d622ee04","system_id":"levelo_inurba_marseille","lat":43.230612,"lon":5.354917,"is_reserved":false,"is_disabled":false,"rental_uris":{"android":"levelo://app?vid=40aa582d-815a-4ab4-b49f-d3b3d622ee04","ios":"levelo://app?vid=40aa582d-815a-4ab4-b49f-d3b3d622ee04"},"vehicle_type_id":"4","last_reported":1736532799,"current_range_meters":7200,"station_id":"cpo3342slgdg3j2ifvpg","pricing_plan_id":"cebpf4jnsgd1na2vs0mg"},{"bike_id":"6b750947-fb43-40e2-9931-495446cc2b3f","system_id":"levelo_inurba_marseille","lat":43.22929,"lon":5.35382,"is_reserved":false,"is_disabled":false,"rental_uris":{"android":"levelo://app?vid=6b750947-fb43-40e2-9931-495446cc2b3f","ios":"levelo://app?vid=6b750947-fb43-40e2-9931-495446cc2b3f"},"vehicle_type_id":"4","last_reported":1736532799,"current_range_meters":38800,"station_id":"cpo3532slgdg3j2ikp40","pricing_plan_id":"cebpf4jnsgd1na2vs0mg"},{"bike_id":"934b8807-fcef-4969-a9db-c817c6560258","system_id":"levelo_inurba_marseille","lat":43.29534,"lon":5.38545,"is_reserved":false,"is_disabled":false,"rental_uris":{"android":"levelo://app?vid=934b8807-fcef-4969-a9db-c817c6560258","ios":"levelo://app?vid=934b8807-fcef-4969-a9db-c817c6560258"},"vehicle_type_id":"4","last_reported":1736532799,"current_range_meters":15200,"station_id":"ce4bgih2rcd13ifvqba0","pricing_plan_id":"cebpf4jnsgd1na2vs0mg"},{"bike_id":"a695196c-79fc-477c-ba43-5e8d0411f6ec","system_id":"levelo_inurba_marseille","lat":43.3022,"lon":5.39454,"is_reserved":false,"is_disabled":false,"rental_uris":{"android":"levelo://app?vid=a695196c-79fc-477c-ba43-5e8d0411f6ec","ios":"levelo://app?vid=a695196c-79fc-477c-ba43-5e8d0411f6ec"},"vehicle_type_id":"4","last_reported":1736532799,"current_range_meters":36800,"station_id":"ce4bh0p2rcd13ifvqd70","pricing_plan_id":"cebpf4jnsgd1na2vs0mg"},{"bike_id":"5b79b006-d7c3-4b04-9541-c9d77e2d63cb","system_id":"levelo_inurba_marseille","lat":43.31709,"lon":5.40475,"is_reserved":false,"is_disabled":true,"rental_uris":{"android":"levelo://app?vid=5b79b006-d7c3-4b04-9541-c9d77e2d63cb","ios":"levelo://app?vid=5b79b006-d7c3-4b04-9541-c9d77e2d63cb"},"vehicle_type_id":"4","last_reported":1736532799,"current_range_meters":16400,"station_id":"ce4bh012rcd13ifvqd00","pricing_plan_id":"cebpf4jnsgd1na2vs0mg"},{"bike_id":"1f5ef9f6-050f-4f79-a9ce-badba66ed461","system_id":"levelo_inurba_marseille","lat":43.28643,"lon":5.40025,"is_reserved":false,"is_disabled":false,"rental_uris":{"android":"levelo://app?vid=1f5ef9f6-050f-4f79-a9ce-badba66ed461","ios":"levelo://app?vid=1f5ef9f6-050f-4f79-a9ce-badba66ed461"},"vehicle_type_id":"4","last_reported":1736532799,"current_range_meters":24400,"station_id":"","pricing_plan_id":"cebpf4jnsgd1na2vs0mg"},{"bike_id":"4af16076-0c4c-4b77-bf13-a9dfad761f4a","system_id":"levelo_inurba_marseille","lat":43.26034,"lon":5.3755,"is_reserved":false,"is_disabled":false,"rental_uris":{"android":"levelo://app?vid=4af16076-0c4c-4b77-bf13-a9dfad761f4a","ios":"levelo://app?vid=4af16076-0c4c-4b77-bf13-a9dfad761f4a"},"vehicle_type_id":"4","last_reported":1736532799,"current_range_meters":34000,"station_id":"ce4bhgh2rcd13ifvqfa0","pricing_plan_id":"cebpf4jnsgd1na2vs0mg"},{"bike_id":"79da2544-1cc6-4479-aa5c-48161bc5839b","system_id":"levelo_inurba_marseille","lat":43.304156,"lon":5.397491,"is_reserved":false,"is_disabled":true,"rental_uris":{"android":"levelo://app?vid=79da2544-1cc6-4479-aa5c-48161bc5839b","ios":"levelo://app?vid=79da2544-1cc6-4479-aa5c-48161bc5839b"},"vehicle_type_id":"4","last_reported":1736532799,"current_range_meters":30400,"station_id":"ce4bh092rcd13ifvqd20","pricing_plan_id":"cebpf4jnsgd1na2vs0mg"},{"bike_id":"6d907632-b7a4-409f-98d5-031bae93ab87","system_id":"levelo_inurba_marseille","lat":43.23969,"lon":5.36608,"is_reserved":false,"is_disabled":false,"rental_uris":{"android":"levelo://app?vid=6d907632-b7a4-409f-98d5-031bae93ab87","ios":"levelo://app?vid=6d907632-b7a4-409f-98d5-031bae93ab87"},"vehicle_type_id":"4","last_reported":1736532799,"current_range_meters":38800,"station_id":"ce4bhi12rcd13ifvqfp0","pricing_plan_id":"cebpf4jnsgd1na2vs0mg"},{"bike_id":"5306c4a6-4e51-4db9-be96-d22f1a788fe1","system_id":"levelo_inurba_marseille","lat":43.27839,"lon":5.39214,"is_reserved":false,"is_disabled":false,"rental_uris":{"android":"levelo://app?vid=5306c4a6-4e51-4db9-be96-d22f1a788fe1","ios":"levelo://app?vid=5306c4a6-4e51-4db9-be96-d22f1a788fe1"},"vehicle_type_id":"4","last_reported":1736532799,"current_range_meters":16400,"station_id":"ce4bhjp2rcd13ifvqga0","pricing_plan_id":"cebpf4jnsgd1na2vs0mg"},{"bike_id":"ee16fe39-b18e-48da-88ff-f544c7f1dc64","system_id":"levelo_inurba_marseille","lat":43.287,"lon":5.37388,"is_reserved":false,"is_disabled":false,"rental_uris":{"android":"levelo://app?vid=ee16fe39-b18e-48da-88ff-f544c7f1dc64","ios":"levelo://app?vid=ee16fe39-b18e-48da-88ff-f544c7f1dc64"},"vehicle_type_id":"4","last_reported":1736532799,"current_range_meters":34000,"station_id":"ce4bh3p2rcd13ifvqdq0","pricing_plan_id":"cebpf4jnsgd1na2vs0mg"},{"bike_id":"effc1ad2-81ea-450d-94d8-ec07ff8f2ba0","system_id":"levelo_inurba_marseille","lat":43.24546,"lon":5.39529,"is_reserved":false,"is_disabled":false,"rental_uris":{"android":"levelo://app?vid=effc1ad2-81ea-450d-94d8-ec07ff8f2ba0","ios":"levelo://app?vid=effc1ad2-81ea-450d-94d8-ec07ff8f2ba0"},"vehicle_type_id":"4","last_reported":1736532799,"current_range_meters":37600,"station_id":"ce4bhlp2rcd13ifvqgjg","pricing_plan_id":"cebpf4jnsgd1na2vs0mg"},{"bike_id":"d8327471-e10e-4e1d-a46b-c43156fc0620","system_id":"levelo_inurba_marseille","lat":43.26779,"lon":5.39431,"is_reserved":false,"is_disabled":true,"rental_uris":{"android":"levelo://app?vid=d8327471-e10e-4e1d-a46b-c43156fc0620","ios":"levelo://app?vid=d8327471-e10e-4e1d-a46b-c43156fc0620"},"vehicle_type_id":"4","last_reported":1736532799,"current_range_meters":2800,"station_id":"ce4bhh12rcd13ifvqfg0","pricing_plan_id":"cebpf4jnsgd1na2vs0mg"},{"bike_id":"a50a1f12-ffba-4207-9ae9-445f638a09fb","system_id":"levelo_inurba_marseille","lat":43.29201,"lon":5.39323,"is_reserved":false,"is_disabled":false,"rental_uris":{"android":"levelo://app?vid=a50a1f12-ffba-4207-9ae9-445f638a09fb","ios":"levelo://app?vid=a50a1f12-ffba-4207-9ae9-445f638a09fb"},"vehicle_type_id":"4","last_reported":1736532799,"current_range_meters":19600,"station_id":"ce4bh192rcd13ifvqdd0","pricing_plan_id":"cebpf4jnsgd1na2vs0mg"},{"bike_id":"1e4652f2-30e2-4f03-86f9-f7057516dcd0","system_id":"levelo_inurba_marseille","lat":43.29659,"lon":5.40237,"is_reserved":false,"is_disabled":false,"rental_uris":{"android":"levelo://app?vid=1e4652f2-30e2-4f03-86f9-f7057516dcd0","ios":"levelo://app?vid=1e4652f2-30e2-4f03-86f9-f7057516dcd0"},"vehicle_type_id":"4","last_reported":1736532799,"current_range_meters":24400,"station_id":"","pricing_plan_id":"cebpf4jnsgd1na2vs0mg"},{"bike_id":"f8f038bf-963e-4cc7-92aa-d346a08a0d6a","system_id":"levelo_inurba_marseille","lat":43.27431,"lon":5.39393,"is_reserved":false,"is_disabled":false,"rental_uris":{"android":"levelo://app?vid=f8f038bf-963e-4cc7-92aa-d346a08a0d6a","ios":"levelo://app?vid=f8f038bf-963e-4cc7-92aa-d346a08a0d6a"},"vehicle_type_id":"4","last_reported":1736532799,"current_range_meters":38000,"station_id":"ce4bhdp2rcd13ifvqf20","pricing_plan_id":"cebpf4jnsgd1na2vs0mg"},{"bike_id":"c0b21104-fdbd-4548-a6af-f0a8553ce1f9","system_id":"levelo_inurba_marseille","lat":43.33022,"lon":5.39038,"is_reserved":false,"is_disabled":false,"rental_uris":{"android":"levelo://app?vid=c0b21104-fdbd-4548-a6af-f0a8553ce1f9","ios":"levelo://app?vid=c0b21104-fdbd-4548-a6af-f0a8553ce1f9"},"vehicle_type_id":"4","last_reported":1736532799,"current_range_meters":20800,"station_id":"ce4bhr92rcd13ifvqhrg","pricing_plan_id":"cebpf4jnsgd1na2vs0mg"},{"bike_id":"426ee80e-06b0-4d0f-86a5-ea8ad64aaa11","system_id":"levelo_inurba_marseille","lat":43.28919,"lon":5.43761,"is_reserved":false,"is_disabled":false,"rental_uris":{"android":"levelo://app?vid=426ee80e-06b0-4d0f-86a5-ea8ad64aaa11","ios":"levelo://app?vid=426ee80e-06b0-4d0f-86a5-ea8ad64aaa11"},"vehicle_type_id":"4","last_reported":1736532799,"current_range_meters":20400,"station_id":"","pricing_plan_id":"cebpf4jnsgd1na2vs0mg"},{"bike_id":"26491b22-048e-49d2-8b5b-1125a0e063bf","system_id":"levelo_inurba_marseille","lat":43.28617,"lon":5.35108,"is_reserved":false,"is_disabled":false,"rental_uris":{"android":"levelo://app?vid=26491b22-048e-49d2-8b5b-1125a0e063bf","ios":"levelo://app?vid=26491b22-048e-49d2-8b5b-1125a0e063bf"},"vehicle_type_id":"4","last_reported":1736532799,"current_range_meters":3600,"station_id":"ce4bhch2rcd13ifvqeug","pricing_plan_id":"cebpf4jnsgd1na2vs0mg"},{"bike_id":"2039bc11-10bb-4f26-8c10-683967de2914","system_id":"levelo_inurba_marseille","lat":43.33015,"lon":5.39051,"is_reserved":false,"is_disabled":false,"rental_uris":{"android":"levelo://app?vid=2039bc11-10bb-4f26-8c10-683967de2914","ios":"levelo://app?vid=2039bc11-10bb-4f26-8c10-683967de2914"},"vehicle_type_id":"4","last_reported":1736532799,"current_range_meters":21600,"station_id":"ce4bhr92rcd13ifvqhrg","pricing_plan_id":"cebpf4jnsgd1na2vs0mg"},{"bike_id":"5ca61d7c-4cce-4318-abf1-81f79230ef6c","system_id":"levelo_inurba_marseille","lat":43.31003,"lon":5.37522,"is_reserved":false,"is_disabled":false,"rental_uris":{"android":"levelo://app?vid=5ca61d7c-4cce-4318-abf1-81f79230ef6c","ios":"levelo://app?vid=5ca61d7c-4cce-4318-abf1-81f79230ef6c"},"vehicle_type_id":"4","last_reported":1736532799,"current_range_meters":25600,"station_id":"","pricing_plan_id":"cebpf4jnsgd1na2vs0mg"},{"bike_id":"314d0b94-da02-4586-aafe-32947b2151c1","system_id":"levelo_inurba_marseille","lat":43.25831,"lon":5.39432,"is_reserved":false,"is_disabled":true,"rental_uris":{"android":"levelo://app?vid=314d0b94-da02-4586-aafe-32947b2151c1","ios":"levelo://app?vid=314d0b94-da02-4586-aafe-32947b2151c1"},"vehicle_type_id":"4","last_reported":1736532799,"current_range_meters":8400,"station_id":"ce4bhip2rcd13ifvqft0","pricing_plan_id":"cebpf4jnsgd1na2vs0mg"},{"bike_id":"b27cc99f-6b66-4ab0-833d-ef1cae10794f","system_id":"levelo_inurba_marseille","lat":43.25863,"lon":5.39901,"is_reserved":false,"is_disabled":false,"rental_uris":{"android":"levelo://app?vid=b27cc99f-6b66-4ab0-833d-ef1cae10794f","ios":"levelo://app?vid=b27cc99f-6b66-4ab0-833d-ef1cae10794f"},"vehicle_type_id":"4","last_reported":1736532799,"current_range_meters":11600,"station_id":"ce4bhl92rcd13ifvqghg","pricing_plan_id":"cebpf4jnsgd1na2vs0mg"},{"bike_id":"819e9877-d561-4552-865a-627808046d3d","system_id":"levelo_inurba_marseille","lat":43.29964,"lon":5.38526,"is_reserved":false,"is_disabled":true,"rental_uris":{"android":"levelo://app?vid=819e9877-d561-4552-865a-627808046d3d","ios":"levelo://app?vid=819e9877-d561-4552-865a-627808046d3d"},"vehicle_type_id":"4","last_reported":1736532799,"current_range_meters":27600,"station_id":"ce4bgj92rcd13ifvqbd0","pricing_plan_id":"cebpf4jnsgd1na2vs0mg"},{"bike_id":"64e22768-79ef-4593-847f-a621c4893945","system_id":"levelo_inurba_marseille","lat":43.31531,"lon":5.38044,"is_reserved":false,"is_disabled":false,"rental_uris":{"android":"levelo://app?vid=64e22768-79ef-4593-847f-a621c4893945","ios":"levelo://app?vid=64e22768-79ef-4593-847f-a621c4893945"},"vehicle_type_id":"4","last_reported":1736532799,"current_range_meters":39200,"station_id":"ce4bhsp2rcd13ifvqi50","pricing_plan_id":"cebpf4jnsgd1na2vs0mg"},{"bike_id":"f6f01d19-4721-43cb-97f3-af3a9a43751b","system_id":"levelo_inurba_marseille","lat":43.24185,"lon":5.39731,"is_reserved":false,"is_disabled":true,"rental_uris":{"android":"levelo://app?vid=f6f01d19-4721-43cb-97f3-af3a9a43751b","ios":"levelo://app?vid=f6f01d19-4721-43cb-97f3-af3a9a43751b"},"vehicle_type_id":"4","last_reported":1736532799,"current_range_meters":38800,"station_id":"ce4bhn12rcd13ifvqgpg","pricing_plan_id":"cebpf4jnsgd1na2vs0mg"},{"bike_id":"da57ace3-6c1d-47a8-845c-545023a4ef67","system_id":"levelo_inurba_marseille","lat":43.27988,"lon":5.40001,"is_reserved":false,"is_disabled":false,"rental_uris":{"android":"levelo://app?vid=da57ace3-6c1d-47a8-845c-545023a4ef67","ios":"levelo://app?vid=da57ace3-6c1d-47a8-845c-545023a4ef67"},"vehicle_type_id":"4","last_reported":1736532799,"current_range_meters":19600,"station_id":"ce4bho92rcd13ifvqh4g","pricing_plan_id":"cebpf4jnsgd1na2vs0mg"},{"bike_id":"2395d740-1958-4b2e-9961-b89776967215","system_id":"levelo_inurba_marseille","lat":43.29269,"lon":5.38444,"is_reserved":false,"is_disabled":false,"rental_uris":{"android":"levelo://app?vid=2395d740-1958-4b2e-9961-b89776967215","ios":"levelo://app?vid=2395d740-1958-4b2e-9961-b89776967215"},"vehicle_type_id":"4","last_reported":1736532799,"current_range_meters":26000,"station_id":"ce4bh692rcd13ifvqea0","pricing_plan_id":"cebpf4jnsgd1na2vs0mg"},{"bike_id":"afe1dfde-0d60-4886-b6a1-cd2ad9b42bf7","system_id":"levelo_inurba_marseille","lat":43.32164,"lon":5.37882,"is_reserved":false,"is_disabled":false,"rental_uris":{"android":"levelo://app?vid=afe1dfde-0d60-4886-b6a1-cd2ad9b42bf7","ios":"levelo://app?vid=afe1dfde-0d60-4886-b6a1-cd2ad9b42bf7"},"vehicle_type_id":"4","last_reported":1736532799,"current_range_meters":28800,"station_id":"","pricing_plan_id":"cebpf4jnsgd1na2vs0mg"},{"bike_id":"d8d3686c-741b-4f35-82c4-cf34f58809e1","system_id":"levelo_inurba_marseille","lat":43.2657,"lon":5.39008,"is_reserved":false,"is_disabled":false,"rental_uris":{"android":"levelo://app?vid=d8d3686c-741b-4f35-82c4-cf34f58809e1","ios":"levelo://app?vid=d8d3686c-741b-4f35-82c4-cf34f58809e1"},"vehicle_type_id":"4","last_reported":1736532799,"current_range_meters":7200,"station_id":"ce4bhe12rcd13ifvqf30","pricing_plan_id":"cebpf4jnsgd1na2vs0mg"},{"bike_id":"80609ff8-7d7d-4ae2-9159-aea837c7c52b","system_id":"levelo_inurba_marseille","lat":43.23958,"lon":5.36627,"is_reserved":false,"is_disabled":false,"rental_uris":{"android":"levelo://app?vid=80609ff8-7d7d-4ae2-9159-aea837c7c52b","ios":"levelo://app?vid=80609ff8-7d7d-4ae2-9159-aea837c7c52b"},"vehicle_type_id":"4","last_reported":1736532799,"current_range_meters":14800,"station_id":"ce4bhi12rcd13ifvqfp0","pricing_plan_id":"cebpf4jnsgd1na2vs0mg"},{"bike_id":"f60782f4-8667-4260-932a-2f8255b4100f","system_id":"levelo_inurba_marseille","lat":43.321088,"lon":5.367655,"is_reserved":false,"is_disabled":false,"rental_uris":{"android":"levelo://app?vid=f60782f4-8667-4260-932a-2f8255b4100f","ios":"levelo://app?vid=f60782f4-8667-4260-932a-2f8255b4100f"},"vehicle_type_id":"4","last_reported":1736532799,"current_range_meters":19200,"station_id":"ce4bhrh2rcd13ifvqhug","pricing_plan_id":"cebpf4jnsgd1na2vs0mg"},{"bike_id":"5951e8dc-d5c9-4e2f-95ec-297eb91e72c1","system_id":"levelo_inurba_marseille","lat":43.29902,"lon":5.39719,"is_reserved":false,"is_disabled":false,"rental_uris":{"android":"levelo://app?vid=5951e8dc-d5c9-4e2f-95ec-297eb91e72c1","ios":"levelo://app?vid=5951e8dc-d5c9-4e2f-95ec-297eb91e72c1"},"vehicle_type_id":"4","last_reported":1736532799,"current_range_meters":38800,"station_id":"ce4bh0h2rcd13ifvqd50","pricing_plan_id":"cebpf4jnsgd1na2vs0mg"},{"bike_id":"6d639964-e180-47ac-9635-c60477582ce2","system_id":"levelo_inurba_marseille","lat":43.27837,"lon":5.39216,"is_reserved":false,"is_disabled":false,"rental_uris":{"android":"levelo://app?vid=6d639964-e180-47ac-9635-c60477582ce2","ios":"levelo://app?vid=6d639964-e180-47ac-9635-c60477582ce2"},"vehicle_type_id":"4","last_reported":1736532799,"current_range_meters":17600,"station_id":"ce4bhjp2rcd13ifvqga0","pricing_plan_id":"cebpf4jnsgd1na2vs0mg"},{"bike_id":"5edb9b21-4917-4f45-9961-6635931db922","system_id":"levelo_inurba_marseille","lat":43.22936,"lon":5.3538,"is_reserved":false,"is_disabled":false,"rental_uris":{"android":"levelo://app?vid=5edb9b21-4917-4f45-9961-6635931db922","ios":"levelo://app?vid=5edb9b21-4917-4f45-9961-6635931db922"},"vehicle_type_id":"4","last_reported":1736532799,"current_range_meters":38800,"station_id":"cpo3532slgdg3j2ikp40","pricing_plan_id":"cebpf4jnsgd1na2vs0mg"},{"bike_id":"6c16b955-c13c-49a6-a5bb-29559922d02c","system_id":"levelo_inurba_marseille","lat":43.23969,"lon":5.3663,"is_reserved":false,"is_disabled":false,"rental_uris":{"android":"levelo://app?vid=6c16b955-c13c-49a6-a5bb-29559922d02c","ios":"levelo://app?vid=6c16b955-c13c-49a6-a5bb-29559922d02c"},"vehicle_type_id":"4","last_reported":1736532799,"current_range_meters":24800,"station_id":"ce4bhi12rcd13ifvqfp0","pricing_plan_id":"cebpf4jnsgd1na2vs0mg"},{"bike_id":"acc57c46-0c06-4767-b429-edb19e5dc1a2","system_id":"levelo_inurba_marseille","lat":43.30133,"lon":5.39864,"is_reserved":false,"is_disabled":true,"rental_uris":{"android":"levelo://app?vid=acc57c46-0c06-4767-b429-edb19e5dc1a2","ios":"levelo://app?vid=acc57c46-0c06-4767-b429-edb19e5dc1a2"},"vehicle_type_id":"4","last_reported":1736532799,"current_range_meters":30400,"station_id":"ce4bh0h2rcd13ifvqd40","pricing_plan_id":"cebpf4jnsgd1na2vs0mg"},{"bike_id":"d2254c43-cd36-4a61-b549-63ea6c5c163f","system_id":"levelo_inurba_marseille","lat":43.2927,"lon":5.40937,"is_reserved":false,"is_disabled":false,"rental_uris":{"android":"levelo://app?vid=d2254c43-cd36-4a61-b549-63ea6c5c163f","ios":"levelo://app?vid=d2254c43-cd36-4a61-b549-63ea6c5c163f"},"vehicle_type_id":"4","last_reported":1736532799,"current_range_meters":10800,"station_id":"ce4bh192rcd13ifvqdc0","pricing_plan_id":"cebpf4jnsgd1na2vs0mg"},{"bike_id":"8db64967-6cad-41cf-a6c6-09ca77252301","system_id":"levelo_inurba_marseille","lat":43.29793,"lon":5.39345,"is_reserved":false,"is_disabled":false,"rental_uris":{"android":"levelo://app?vid=8db64967-6cad-41cf-a6c6-09ca77252301","ios":"levelo://app?vid=8db64967-6cad-41cf-a6c6-09ca77252301"},"vehicle_type_id":"4","last_reported":1736532799,"current_range_meters":37600,"station_id":"chh1huq6cuj3fo74tm60","pricing_plan_id":"cebpf4jnsgd1na2vs0mg"},{"bike_id":"06d43a92-35d5-45c0-b6f6-ea798e599b88","system_id":"levelo_inurba_marseille","lat":43.31362,"lon":5.38494,"is_reserved":false,"is_disabled":false,"rental_uris":{"android":"levelo://app?vid=06d43a92-35d5-45c0-b6f6-ea798e599b88","ios":"levelo://app?vid=06d43a92-35d5-45c0-b6f6-ea798e599b88"},"vehicle_type_id":"4","last_reported":1736532799,"current_range_meters":13600,"station_id":"ce4bgt92rcd13ifvqcf0","pricing_plan_id":"cebpf4jnsgd1na2vs0mg"},{"bike_id":"bba3f4b5-9467-4634-9e15-6c0b580b826b","system_id":"levelo_inurba_marseille","lat":43.30185,"lon":5.39781,"is_reserved":false,"is_disabled":false,"rental_uris":{"android":"levelo://app?vid=bba3f4b5-9467-4634-9e15-6c0b580b826b","ios":"levelo://app?vid=bba3f4b5-9467-4634-9e15-6c0b580b826b"},"vehicle_type_id":"4","last_reported":1736532799,"current_range_meters":28000,"station_id":"ce4bh192rcd13ifvqdb0","pricing_plan_id":"cebpf4jnsgd1na2vs0mg"},{"bike_id":"2b9f9611-d71b-4f9a-b814-a64ed7dfc055","system_id":"levelo_inurba_marseille","lat":43.25119,"lon":5.40335,"is_reserved":false,"is_disabled":true,"rental_uris":{"android":"levelo://app?vid=2b9f9611-d71b-4f9a-b814-a64ed7dfc055","ios":"levelo://app?vid=2b9f9611-d71b-4f9a-b814-a64ed7dfc055"},"vehicle_type_id":"4","last_reported":1736532799,"current_range_meters":0,"station_id":"ce4bhlh2rcd13ifvqgig","pricing_plan_id":"cebpf4jnsgd1na2vs0mg"},{"bike_id":"4cbf2f69-4796-401f-aea5-81030062be5d","system_id":"levelo_inurba_marseille","lat":43.27819,"lon":5.40704,"is_reserved":false,"is_disabled":false,"rental_uris":{"android":"levelo://app?vid=4cbf2f69-4796-401f-aea5-81030062be5d","ios":"levelo://app?vid=4cbf2f69-4796-401f-aea5-81030062be5d"},"vehicle_type_id":"4","last_reported":1736532799,"current_range_meters":3600,"station_id":"ce4bhnh2rcd13ifvqgtg","pricing_plan_id":"cebpf4jnsgd1na2vs0mg"},{"bike_id":"066fc890-cce1-4b7e-a941-320c51e991c9","system_id":"levelo_inurba_marseille","lat":43.23958,"lon":5.36629,"is_reserved":false,"is_disabled":false,"rental_uris":{"android":"levelo://app?vid=066fc890-cce1-4b7e-a941-320c51e991c9","ios":"levelo://app?vid=066fc890-cce1-4b7e-a941-320c51e991c9"},"vehicle_type_id":"4","last_reported":1736532799,"current_range_meters":25200,"station_id":"ce4bhi12rcd13ifvqfp0","pricing_plan_id":"cebpf4jnsgd1na2vs0mg"},{"bike_id":"8efb91c3-fc5c-43f1-9bc0-a667f9b9677f","system_id":"levelo_inurba_marseille","lat":43.29006,"lon":5.35614,"is_reserved":false,"is_disabled":false,"rental_uris":{"android":"levelo://app?vid=8efb91c3-fc5c-43f1-9bc0-a667f9b9677f","ios":"levelo://app?vid=8efb91c3-fc5c-43f1-9bc0-a667f9b9677f"},"vehicle_type_id":"4","last_reported":1736532799,"current_range_meters":36000,"station_id":"ce4bhb92rcd13ifvqen0","pricing_plan_id":"cebpf4jnsgd1na2vs0mg"},{"bike_id":"ea3a94db-ec18-4446-9d80-d220f0e661e9","system_id":"levelo_inurba_marseille","lat":43.28429,"lon":5.34993,"is_reserved":false,"is_disabled":false,"rental_uris":{"android":"levelo://app?vid=ea3a94db-ec18-4446-9d80-d220f0e661e9","ios":"levelo://app?vid=ea3a94db-ec18-4446-9d80-d220f0e661e9"},"vehicle_type_id":"4","last_reported":1736532799,"current_range_meters":26000,"station_id":"ce4bhbh2rcd13ifvqepg","pricing_plan_id":"cebpf4jnsgd1na2vs0mg"},{"bike_id":"b1cd05bd-cc6d-452b-8b8c-f24ee7fb627f","system_id":"levelo_inurba_marseille","lat":43.25838,"lon":5.39437,"is_reserved":false,"is_disabled":false,"rental_uris":{"android":"levelo://app?vid=b1cd05bd-cc6d-452b-8b8c-f24ee7fb627f","ios":"levelo://app?vid=b1cd05bd-cc6d-452b-8b8c-f24ee7fb627f"},"vehicle_type_id":"4","last_reported":1736532799,"current_range_meters":36000,"station_id":"ce4bhip2rcd13ifvqft0","pricing_plan_id":"cebpf4jnsgd1na2vs0mg"},{"bike_id":"afc85b9b-cc39-4377-bc63-19b64d54cf13","system_id":"levelo_inurba_marseille","lat":43.30546,"lon":5.38414,"is_reserved":false,"is_disabled":false,"rental_uris":{"android":"levelo://app?vid=afc85b9b-cc39-4377-bc63-19b64d54cf13","ios":"levelo://app?vid=afc85b9b-cc39-4377-bc63-19b64d54cf13"},"vehicle_type_id":"4","last_reported":1736532799,"current_range_meters":24800,"station_id":"ce4bgg92rcd13ifvqb30","pricing_plan_id":"cebpf4jnsgd1na2vs0mg"},{"bike_id":"60837108-ef53-47ef-8c11-be76ae038eaf","system_id":"levelo_inurba_marseille","lat":43.33018,"lon":5.39035,"is_reserved":false,"is_disabled":false,"rental_uris":{"android":"levelo://app?vid=60837108-ef53-47ef-8c11-be76ae038eaf","ios":"levelo://app?vid=60837108-ef53-47ef-8c11-be76ae038eaf"},"vehicle_type_id":"4","last_reported":1736532799,"current_range_meters":20000,"station_id":"ce4bhr92rcd13ifvqhrg","pricing_plan_id":"cebpf4jnsgd1na2vs0mg"},{"bike_id":"5d169989-f1ea-436a-988c-6cc6ba335896","system_id":"levelo_inurba_marseille","lat":43.29959,"lon":5.4132,"is_reserved":false,"is_disabled":false,"rental_uris":{"android":"levelo://app?vid=5d169989-f1ea-436a-988c-6cc6ba335896","ios":"levelo://app?vid=5d169989-f1ea-436a-988c-6cc6ba335896"},"vehicle_type_id":"4","last_reported":1736532799,"current_range_meters":31200,"station_id":"ce4bhp12rcd13ifvqh9g","pricing_plan_id":"cebpf4jnsgd1na2vs0mg"},{"bike_id":"5cc98ad2-6f34-4e99-a1cb-e0f73ff602cd","system_id":"levelo_inurba_marseille","lat":43.27999,"lon":5.39995,"is_reserved":false,"is_disabled":false,"rental_uris":{"android":"levelo://app?vid=5cc98ad2-6f34-4e99-a1cb-e0f73ff602cd","ios":"levelo://app?vid=5cc98ad2-6f34-4e99-a1cb-e0f73ff602cd"},"vehicle_type_id":"4","last_reported":1736532799,"current_range_meters":24800,"station_id":"ce4bho92rcd13ifvqh4g","pricing_plan_id":"cebpf4jnsgd1na2vs0mg"},{"bike_id":"45ee8ca2-f3d7-4f52-8fa4-17c621717fd4","system_id":"levelo_inurba_marseille","lat":43.29881,"lon":5.38917,"is_reserved":false,"is_disabled":false,"rental_uris":{"android":"levelo://app?vid=45ee8ca2-f3d7-4f52-8fa4-17c621717fd4","ios":"levelo://app?vid=45ee8ca2-f3d7-4f52-8fa4-17c621717fd4"},"vehicle_type_id":"4","last_reported":1736532799,"current_range_meters":14400,"station_id":"ce4bh392rcd13ifvqdl0","pricing_plan_id":"cebpf4jnsgd1na2vs0mg"},{"bike_id":"14260f59-5e6c-465e-be91-94b0442db1da","system_id":"levelo_inurba_marseille","lat":43.27841,"lon":5.39207,"is_reserved":false,"is_disabled":false,"rental_uris":{"android":"levelo://app?vid=14260f59-5e6c-465e-be91-94b0442db1da","ios":"levelo://app?vid=14260f59-5e6c-465e-be91-94b0442db1da"},"vehicle_type_id":"4","last_reported":1736532799,"current_range_meters":38800,"station_id":"ce4bhjp2rcd13ifvqga0","pricing_plan_id":"cebpf4jnsgd1na2vs0mg"},{"bike_id":"1d855b4d-57ac-4a16-9d00-83dd2b153664","system_id":"levelo_inurba_marseille","lat":43.28922,"lon":5.38392,"is_reserved":false,"is_disabled":false,"rental_uris":{"android":"levelo://app?vid=1d855b4d-57ac-4a16-9d00-83dd2b153664","ios":"levelo://app?vid=1d855b4d-57ac-4a16-9d00-83dd2b153664"},"vehicle_type_id":"4","last_reported":1736532799,"current_range_meters":30000,"station_id":"ce4bh612rcd13ifvqe6g","pricing_plan_id":"cebpf4jnsgd1na2vs0mg"},{"bike_id":"500056b2-1001-4a80-96b0-5bebdccfd39a","system_id":"levelo_inurba_marseille","lat":43.28929,"lon":5.36388,"is_reserved":false,"is_disabled":false,"rental_uris":{"android":"levelo://app?vid=500056b2-1001-4a80-96b0-5bebdccfd39a","ios":"levelo://app?vid=500056b2-1001-4a80-96b0-5bebdccfd39a"},"vehicle_type_id":"4","last_reported":1736532799,"current_range_meters":21600,"station_id":"ce4bhc92rcd13ifvqetg","pricing_plan_id":"cebpf4jnsgd1na2vs0mg"},{"bike_id":"b258479f-7366-46de-bbf1-a5992d37e474","system_id":"levelo_inurba_marseille","lat":43.25498,"lon":5.3765,"is_reserved":false,"is_disabled":false,"rental_uris":{"android":"levelo://app?vid=b258479f-7366-46de-bbf1-a5992d37e474","ios":"levelo://app?vid=b258479f-7366-46de-bbf1-a5992d37e474"},"vehicle_type_id":"4","last_reported":1736532799,"current_range_meters":28000,"station_id":"ce4bhh12rcd13ifvqff0","pricing_plan_id":"cebpf4jnsgd1na2vs0mg"},{"bike_id":"bc72b692-fa80-4572-afe8-0e7949eae868","system_id":"levelo_inurba_marseille","lat":43.33739,"lon":5.37436,"is_reserved":false,"is_disabled":false,"rental_uris":{"android":"levelo://app?vid=bc72b692-fa80-4572-afe8-0e7949eae868","ios":"levelo://app?vid=bc72b692-fa80-4572-afe8-0e7949eae868"},"vehicle_type_id":"4","last_reported":1736532799,"current_range_meters":26000,"station_id":"","pricing_plan_id":"cebpf4jnsgd1na2vs0mg"},{"bike_id":"7cad7323-44ff-4211-9bfe-b9c3d2973cf4","system_id":"levelo_inurba_marseille","lat":43.28159,"lon":5.42639,"is_reserved":false,"is_disabled":false,"rental_uris":{"android":"levelo://app?vid=7cad7323-44ff-4211-9bfe-b9c3d2973cf4","ios":"levelo://app?vid=7cad7323-44ff-4211-9bfe-b9c3d2973cf4"},"vehicle_type_id":"4","last_reported":1736532799,"current_range_meters":22800,"station_id":"ce4bhnh2rcd13ifvqgug","pricing_plan_id":"cebpf4jnsgd1na2vs0mg"},{"bike_id":"403b6456-c595-432f-9fb5-fe207e40ff7b","system_id":"levelo_inurba_marseille","lat":43.27184,"lon":5.40985,"is_reserved":false,"is_disabled":false,"rental_uris":{"android":"levelo://app?vid=403b6456-c595-432f-9fb5-fe207e40ff7b","ios":"levelo://app?vid=403b6456-c595-432f-9fb5-fe207e40ff7b"},"vehicle_type_id":"4","last_reported":1736532799,"current_range_meters":32800,"station_id":"ce4bhl12rcd13ifvqgf0","pricing_plan_id":"cebpf4jnsgd1na2vs0mg"},{"bike_id":"1e8db9a3-2ed9-4cde-b01f-3f669fcdb327","system_id":"levelo_inurba_marseille","lat":43.2953,"lon":5.38544,"is_reserved":false,"is_disabled":false,"rental_uris":{"android":"levelo://app?vid=1e8db9a3-2ed9-4cde-b01f-3f669fcdb327","ios":"levelo://app?vid=1e8db9a3-2ed9-4cde-b01f-3f669fcdb327"},"vehicle_type_id":"4","last_reported":1736532799,"current_range_meters":5600,"station_id":"ce4bgih2rcd13ifvqba0","pricing_plan_id":"cebpf4jnsgd1na2vs0mg"},{"bike_id":"f0e4deed-94ea-4281-b6e0-5908e42da7a6","system_id":"levelo_inurba_marseille","lat":43.30813,"lon":5.38146,"is_reserved":false,"is_disabled":false,"rental_uris":{"android":"levelo://app?vid=f0e4deed-94ea-4281-b6e0-5908e42da7a6","ios":"levelo://app?vid=f0e4deed-94ea-4281-b6e0-5908e42da7a6"},"vehicle_type_id":"4","last_reported":1736532799,"current_range_meters":22800,"station_id":"ce4bgt12rcd13ifvqce0","pricing_plan_id":"cebpf4jnsgd1na2vs0mg"},{"bike_id":"e28483d1-4b50-47d3-8f68-bbbc48a67024","system_id":"levelo_inurba_marseille","lat":43.29058,"lon":5.37171,"is_reserved":false,"is_disabled":true,"rental_uris":{"android":"levelo://app?vid=e28483d1-4b50-47d3-8f68-bbbc48a67024","ios":"levelo://app?vid=e28483d1-4b50-47d3-8f68-bbbc48a67024"},"vehicle_type_id":"4","last_reported":1736532799,"current_range_meters":30800,"station_id":"ce4bh5p2rcd13ifvqe4g","pricing_plan_id":"cebpf4jnsgd1na2vs0mg"},{"bike_id":"60271d0f-3a77-4626-8905-d712a41f6304","system_id":"levelo_inurba_marseille","lat":43.28468,"lon":5.35904,"is_reserved":false,"is_disabled":false,"rental_uris":{"android":"levelo://app?vid=60271d0f-3a77-4626-8905-d712a41f6304","ios":"levelo://app?vid=60271d0f-3a77-4626-8905-d712a41f6304"},"vehicle_type_id":"4","last_reported":1736532799,"current_range_meters":38000,"station_id":"ce4bhah2rcd13ifvqei0","pricing_plan_id":"cebpf4jnsgd1na2vs0mg"},{"bike_id":"88fdc2da-580d-4a81-8ef7-524ef516fb19","system_id":"levelo_inurba_marseille","lat":43.29547,"lon":5.42273,"is_reserved":false,"is_disabled":false,"rental_uris":{"android":"levelo://app?vid=88fdc2da-580d-4a81-8ef7-524ef516fb19","ios":"levelo://app?vid=88fdc2da-580d-4a81-8ef7-524ef516fb19"},"vehicle_type_id":"4","last_reported":1736532799,"current_range_meters":16000,"station_id":"ce4bhph2rcd13ifvqhdg","pricing_plan_id":"cebpf4jnsgd1na2vs0mg"},{"bike_id":"ea85eaf0-fde0-43c4-b882-10e3bd598be8","system_id":"levelo_inurba_marseille","lat":43.25111,"lon":5.40324,"is_reserved":false,"is_disabled":true,"rental_uris":{"android":"levelo://app?vid=ea85eaf0-fde0-43c4-b882-10e3bd598be8","ios":"levelo://app?vid=ea85eaf0-fde0-43c4-b882-10e3bd598be8"},"vehicle_type_id":"4","last_reported":1736532799,"current_range_meters":8400,"station_id":"ce4bhlh2rcd13ifvqgig","pricing_plan_id":"cebpf4jnsgd1na2vs0mg"},{"bike_id":"ce3911f4-d940-41e3-a1b8-935c8c7794b9","system_id":"levelo_inurba_marseille","lat":43.295793,"lon":5.374983,"is_reserved":false,"is_disabled":true,"rental_uris":{"android":"levelo://app?vid=ce3911f4-d940-41e3-a1b8-935c8c7794b9","ios":"levelo://app?vid=ce3911f4-d940-41e3-a1b8-935c8c7794b9"},"vehicle_type_id":"4","last_reported":1736532799,"current_range_meters":0,"station_id":"ce4bgh92rcd13ifvqb50","pricing_plan_id":"cebpf4jnsgd1na2vs0mg"},{"bike_id":"7a0a8a69-615c-43f3-a001-073b74f4a57b","system_id":"levelo_inurba_marseille","lat":43.25589,"lon":5.38214,"is_reserved":false,"is_disabled":false,"rental_uris":{"android":"levelo://app?vid=7a0a8a69-615c-43f3-a001-073b74f4a57b","ios":"levelo://app?vid=7a0a8a69-615c-43f3-a001-073b74f4a57b"},"vehicle_type_id":"4","last_reported":1736532799,"current_range_meters":26000,"station_id":"ce4bhih2rcd13ifvqfs0","pricing_plan_id":"cebpf4jnsgd1na2vs0mg"},{"bike_id":"97eb0168-eab9-4cb8-bac6-e8fd23bd5e05","system_id":"levelo_inurba_marseille","lat":43.28459,"lon":5.35891,"is_reserved":false,"is_disabled":false,"rental_uris":{"android":"levelo://app?vid=97eb0168-eab9-4cb8-bac6-e8fd23bd5e05","ios":"levelo://app?vid=97eb0168-eab9-4cb8-bac6-e8fd23bd5e05"},"vehicle_type_id":"4","last_reported":1736532799,"current_range_meters":24800,"station_id":"ce4bhah2rcd13ifvqei0","pricing_plan_id":"cebpf4jnsgd1na2vs0mg"},{"bike_id":"04b99ebe-7927-40e6-9554-a7aa6d8ff5da","system_id":"levelo_inurba_marseille","lat":43.33006,"lon":5.3903,"is_reserved":false,"is_disabled":false,"rental_uris":{"android":"levelo://app?vid=04b99ebe-7927-40e6-9554-a7aa6d8ff5da","ios":"levelo://app?vid=04b99ebe-7927-40e6-9554-a7aa6d8ff5da"},"vehicle_type_id":"4","last_reported":1736532799,"current_range_meters":38800,"station_id":"ce4bhr92rcd13ifvqhrg","pricing_plan_id":"cebpf4jnsgd1na2vs0mg"},{"bike_id":"62f71cd3-b1ad-4aec-b7a4-4d5d9597e025","system_id":"levelo_inurba_marseille","lat":43.29192,"lon":5.35798,"is_reserved":false,"is_disabled":false,"rental_uris":{"android":"levelo://app?vid=62f71cd3-b1ad-4aec-b7a4-4d5d9597e025","ios":"levelo://app?vid=62f71cd3-b1ad-4aec-b7a4-4d5d9597e025"},"vehicle_type_id":"4","last_reported":1736532799,"current_range_meters":18800,"station_id":"ce4bhb12rcd13ifvqel0","pricing_plan_id":"cebpf4jnsgd1na2vs0mg"},{"bike_id":"09a66bfe-2710-4c15-bafe-b69e36210fc5","system_id":"levelo_inurba_marseille","lat":43.29541,"lon":5.38529,"is_reserved":false,"is_disabled":true,"rental_uris":{"android":"levelo://app?vid=09a66bfe-2710-4c15-bafe-b69e36210fc5","ios":"levelo://app?vid=09a66bfe-2710-4c15-bafe-b69e36210fc5"},"vehicle_type_id":"4","last_reported":1736532799,"current_range_meters":800,"station_id":"ce4bgih2rcd13ifvqba0","pricing_plan_id":"cebpf4jnsgd1na2vs0mg"},{"bike_id":"7aa80fa7-0a70-466e-9938-dea38841b13f","system_id":"levelo_inurba_marseille","lat":43.30805,"lon":5.43049,"is_reserved":false,"is_disabled":false,"rental_uris":{"android":"levelo://app?vid=7aa80fa7-0a70-466e-9938-dea38841b13f","ios":"levelo://app?vid=7aa80fa7-0a70-466e-9938-dea38841b13f"},"vehicle_type_id":"4","last_reported":1736532799,"current_range_meters":27600,"station_id":"ce4bhop2rcd13ifvqh7g","pricing_plan_id":"cebpf4jnsgd1na2vs0mg"},{"bike_id":"6299f7d3-868e-4b54-a91c-89c7189fcc8a","system_id":"levelo_inurba_marseille","lat":43.31071,"lon":5.38356,"is_reserved":false,"is_disabled":true,"rental_uris":{"android":"levelo://app?vid=6299f7d3-868e-4b54-a91c-89c7189fcc8a","ios":"levelo://app?vid=6299f7d3-868e-4b54-a91c-89c7189fcc8a"},"vehicle_type_id":"4","last_reported":1736532799,"current_range_meters":2000,"station_id":"ce4bgv92rcd13ifvqcr0","pricing_plan_id":"cebpf4jnsgd1na2vs0mg"},{"bike_id":"848b8a79-1822-452e-a5b1-f1121411546d","system_id":"levelo_inurba_marseille","lat":43.24549,"lon":5.39507,"is_reserved":false,"is_disabled":false,"rental_uris":{"android":"levelo://app?vid=848b8a79-1822-452e-a5b1-f1121411546d","ios":"levelo://app?vid=848b8a79-1822-452e-a5b1-f1121411546d"},"vehicle_type_id":"4","last_reported":1736532799,"current_range_meters":18800,"station_id":"ce4bhlp2rcd13ifvqgjg","pricing_plan_id":"cebpf4jnsgd1na2vs0mg"},{"bike_id":"707e63f0-a2b2-4cac-a79d-a17365970245","system_id":"levelo_inurba_marseille","lat":43.24066,"lon":5.3778,"is_reserved":false,"is_disabled":false,"rental_uris":{"android":"levelo://app?vid=707e63f0-a2b2-4cac-a79d-a17365970245","ios":"levelo://app?vid=707e63f0-a2b2-4cac-a79d-a17365970245"},"vehicle_type_id":"4","last_reported":1736532799,"current_range_meters":28800,"station_id":"ce4bhnp2rcd13ifvqgvg","pricing_plan_id":"cebpf4jnsgd1na2vs0mg"},{"bike_id":"dbb4c427-4b5a-46ce-a89f-0d3563c49e73","system_id":"levelo_inurba_marseille","lat":43.24806,"lon":5.37443,"is_reserved":false,"is_disabled":false,"rental_uris":{"android":"levelo://app?vid=dbb4c427-4b5a-46ce-a89f-0d3563c49e73","ios":"levelo://app?vid=dbb4c427-4b5a-46ce-a89f-0d3563c49e73"},"vehicle_type_id":"4","last_reported":1736532799,"current_range_meters":38000,"station_id":"ce4bhgh2rcd13ifvqfb0","pricing_plan_id":"cebpf4jnsgd1na2vs0mg"},{"bike_id":"f44c842b-443a-479c-8dff-e651d36a46cf","system_id":"levelo_inurba_marseille","lat":43.317157,"lon":5.377607,"is_reserved":false,"is_disabled":false,"rental_uris":{"android":"levelo://app?vid=f44c842b-443a-479c-8dff-e651d36a46cf","ios":"levelo://app?vid=f44c842b-443a-479c-8dff-e651d36a46cf"},"vehicle_type_id":"4","last_reported":1736532799,"current_range_meters":26000,"station_id":"ce4bgth2rcd13ifvqch0","pricing_plan_id":"cebpf4jnsgd1na2vs0mg"},{"bike_id":"fae25706-b625-400e-b8c0-b50197067313","system_id":"levelo_inurba_marseille","lat":43.23195,"lon":5.39988,"is_reserved":false,"is_disabled":false,"rental_uris":{"android":"levelo://app?vid=fae25706-b625-400e-b8c0-b50197067313","ios":"levelo://app?vid=fae25706-b625-400e-b8c0-b50197067313"},"vehicle_type_id":"4","last_reported":1736532799,"current_range_meters":18000,"station_id":"ce4bhn12rcd13ifvqgqg","pricing_plan_id":"cebpf4jnsgd1na2vs0mg"},{"bike_id":"11f6b9b9-6690-43ce-8f3b-6593a03ea04b","system_id":"levelo_inurba_marseille","lat":43.2835,"lon":5.38108,"is_reserved":false,"is_disabled":false,"rental_uris":{"android":"levelo://app?vid=11f6b9b9-6690-43ce-8f3b-6593a03ea04b","ios":"levelo://app?vid=11f6b9b9-6690-43ce-8f3b-6593a03ea04b"},"vehicle_type_id":"4","last_reported":1736532799,"current_range_meters":32400,"station_id":"ce4bh412rcd13ifvqdr0","pricing_plan_id":"cebpf4jnsgd1na2vs0mg"},{"bike_id":"5fa2e3a5-e832-42e6-a5a6-81071c6ff0f0","system_id":"levelo_inurba_marseille","lat":43.28445,"lon":5.35864,"is_reserved":false,"is_disabled":false,"rental_uris":{"android":"levelo://app?vid=5fa2e3a5-e832-42e6-a5a6-81071c6ff0f0","ios":"levelo://app?vid=5fa2e3a5-e832-42e6-a5a6-81071c6ff0f0"},"vehicle_type_id":"4","last_reported":1736532799,"current_range_meters":39200,"station_id":"ce4bhah2rcd13ifvqei0","pricing_plan_id":"cebpf4jnsgd1na2vs0mg"},{"bike_id":"bb09aba3-e725-4db5-9d0b-860b910730c7","system_id":"levelo_inurba_marseille","lat":43.31336,"lon":5.39683,"is_reserved":false,"is_disabled":true,"rental_uris":{"android":"levelo://app?vid=bb09aba3-e725-4db5-9d0b-860b910730c7","ios":"levelo://app?vid=bb09aba3-e725-4db5-9d0b-860b910730c7"},"vehicle_type_id":"4","last_reported":1736532799,"current_range_meters":4800,"station_id":"ce4bgvp2rcd13ifvqcu0","pricing_plan_id":"cebpf4jnsgd1na2vs0mg"},{"bike_id":"38e706b4-6464-42d4-8066-33a618a88244","system_id":"levelo_inurba_marseille","lat":43.29571,"lon":5.37519,"is_reserved":false,"is_disabled":false,"rental_uris":{"android":"levelo://app?vid=38e706b4-6464-42d4-8066-33a618a88244","ios":"levelo://app?vid=38e706b4-6464-42d4-8066-33a618a88244"},"vehicle_type_id":"4","last_reported":1736532799,"current_range_meters":27600,"station_id":"ce4bgh92rcd13ifvqb50","pricing_plan_id":"cebpf4jnsgd1na2vs0mg"},{"bike_id":"1ff4d6af-d168-4206-80a1-8f85ab0c0a00","system_id":"levelo_inurba_marseille","lat":43.25866,"lon":5.39896,"is_reserved":false,"is_disabled":true,"rental_uris":{"android":"levelo://app?vid=1ff4d6af-d168-4206-80a1-8f85ab0c0a00","ios":"levelo://app?vid=1ff4d6af-d168-4206-80a1-8f85ab0c0a00"},"vehicle_type_id":"4","last_reported":1736532799,"current_range_meters":22800,"station_id":"ce4bhl92rcd13ifvqghg","pricing_plan_id":"cebpf4jnsgd1na2vs0mg"},{"bike_id":"8bec6a21-65c7-4332-932d-c24ff8b2a5e8","system_id":"levelo_inurba_marseille","lat":43.28003,"lon":5.40008,"is_reserved":false,"is_disabled":false,"rental_uris":{"android":"levelo://app?vid=8bec6a21-65c7-4332-932d-c24ff8b2a5e8","ios":"levelo://app?vid=8bec6a21-65c7-4332-932d-c24ff8b2a5e8"},"vehicle_type_id":"4","last_reported":1736532799,"current_range_meters":26000,"station_id":"ce4bho92rcd13ifvqh4g","pricing_plan_id":"cebpf4jnsgd1na2vs0mg"},{"bike_id":"1d174f3c-56fd-4bd2-841f-15687ff97534","system_id":"levelo_inurba_marseille","lat":43.30132,"lon":5.39879,"is_reserved":false,"is_disabled":true,"rental_uris":{"android":"levelo://app?vid=1d174f3c-56fd-4bd2-841f-15687ff97534","ios":"levelo://app?vid=1d174f3c-56fd-4bd2-841f-15687ff97534"},"vehicle_type_id":"4","last_reported":1736532799,"current_range_meters":0,"station_id":"ce4bh0h2rcd13ifvqd40","pricing_plan_id":"cebpf4jnsgd1na2vs0mg"},{"bike_id":"750dedb6-a00f-4b07-bc2f-3484aab220a6","system_id":"levelo_inurba_marseille","lat":43.33023,"lon":5.3904,"is_reserved":false,"is_disabled":false,"rental_uris":{"android":"levelo://app?vid=750dedb6-a00f-4b07-bc2f-3484aab220a6","ios":"levelo://app?vid=750dedb6-a00f-4b07-bc2f-3484aab220a6"},"vehicle_type_id":"4","last_reported":1736532799,"current_range_meters":22800,"station_id":"ce4bhr92rcd13ifvqhrg","pricing_plan_id":"cebpf4jnsgd1na2vs0mg"},{"bike_id":"a71ca81b-e713-45f7-9cf4-bb6fb2381c98","system_id":"levelo_inurba_marseille","lat":43.2468,"lon":5.38159,"is_reserved":false,"is_disabled":false,"rental_uris":{"android":"levelo://app?vid=a71ca81b-e713-45f7-9cf4-bb6fb2381c98","ios":"levelo://app?vid=a71ca81b-e713-45f7-9cf4-bb6fb2381c98"},"vehicle_type_id":"4","last_reported":1736532799,"current_range_meters":16400,"station_id":"ce4bhih2rcd13ifvqfr0","pricing_plan_id":"cebpf4jnsgd1na2vs0mg"},{"bike_id":"d4b9ec52-492e-41b6-8dae-be3aec56cf81","system_id":"levelo_inurba_marseille","lat":43.286177,"lon":5.35095,"is_reserved":false,"is_disabled":false,"rental_uris":{"android":"levelo://app?vid=d4b9ec52-492e-41b6-8dae-be3aec56cf81","ios":"levelo://app?vid=d4b9ec52-492e-41b6-8dae-be3aec56cf81"},"vehicle_type_id":"4","last_reported":1736532799,"current_range_meters":9600,"station_id":"ce4bhch2rcd13ifvqeug","pricing_plan_id":"cebpf4jnsgd1na2vs0mg"},{"bike_id":"458c3d58-e6a5-4d1a-8df2-05d9cb3e0072","system_id":"levelo_inurba_marseille","lat":43.25583,"lon":5.38221,"is_reserved":false,"is_disabled":false,"rental_uris":{"android":"levelo://app?vid=458c3d58-e6a5-4d1a-8df2-05d9cb3e0072","ios":"levelo://app?vid=458c3d58-e6a5-4d1a-8df2-05d9cb3e0072"},"vehicle_type_id":"4","last_reported":1736532799,"current_range_meters":16000,"station_id":"ce4bhih2rcd13ifvqfs0","pricing_plan_id":"cebpf4jnsgd1na2vs0mg"},{"bike_id":"10f7d31a-ef8d-4e8a-acbf-8aa9a8c72143","system_id":"levelo_inurba_marseille","lat":43.244,"lon":5.37063,"is_reserved":false,"is_disabled":false,"rental_uris":{"android":"levelo://app?vid=10f7d31a-ef8d-4e8a-acbf-8aa9a8c72143","ios":"levelo://app?vid=10f7d31a-ef8d-4e8a-acbf-8aa9a8c72143"},"vehicle_type_id":"4","last_reported":1736532799,"current_range_meters":22400,"station_id":"ce4bhhh2rcd13ifvqfk0","pricing_plan_id":"cebpf4jnsgd1na2vs0mg"},{"bike_id":"6e6dbc29-f312-4058-8890-f74d6b5e2ac3","system_id":"levelo_inurba_marseille","lat":43.26191,"lon":5.37451,"is_reserved":false,"is_disabled":false,"rental_uris":{"android":"levelo://app?vid=6e6dbc29-f312-4058-8890-f74d6b5e2ac3","ios":"levelo://app?vid=6e6dbc29-f312-4058-8890-f74d6b5e2ac3"},"vehicle_type_id":"4","last_reported":1736532799,"current_range_meters":27600,"station_id":"ce4bhgp2rcd13ifvqfc0","pricing_plan_id":"cebpf4jnsgd1na2vs0mg"},{"bike_id":"a715245f-026e-4218-a620-37a4533e8a37","system_id":"levelo_inurba_marseille","lat":43.2903,"lon":5.38136,"is_reserved":false,"is_disabled":false,"rental_uris":{"android":"levelo://app?vid=a715245f-026e-4218-a620-37a4533e8a37","ios":"levelo://app?vid=a715245f-026e-4218-a620-37a4533e8a37"},"vehicle_type_id":"4","last_reported":1736532799,"current_range_meters":38400,"station_id":"ce4bh4p2rcd13ifvqe1g","pricing_plan_id":"cebpf4jnsgd1na2vs0mg"},{"bike_id":"b9fe5075-801a-4cf2-998a-0e8e43c22ad5","system_id":"levelo_inurba_marseille","lat":43.29304,"lon":5.38409,"is_reserved":false,"is_disabled":false,"rental_uris":{"android":"levelo://app?vid=b9fe5075-801a-4cf2-998a-0e8e43c22ad5","ios":"levelo://app?vid=b9fe5075-801a-4cf2-998a-0e8e43c22ad5"},"vehicle_type_id":"4","last_reported":1736532799,"current_range_meters":38800,"station_id":"ce4bh692rcd13ifvqea0","pricing_plan_id":"cebpf4jnsgd1na2vs0mg"},{"bike_id":"ae29e0de-7b5a-45d6-ace3-313c5e88010a","system_id":"levelo_inurba_marseille","lat":43.27985,"lon":5.41654,"is_reserved":false,"is_disabled":true,"rental_uris":{"android":"levelo://app?vid=ae29e0de-7b5a-45d6-ace3-313c5e88010a","ios":"levelo://app?vid=ae29e0de-7b5a-45d6-ace3-313c5e88010a"},"vehicle_type_id":"4","last_reported":1736532799,"current_range_meters":4800,"station_id":"ce4bho12rcd13ifvqh1g","pricing_plan_id":"cebpf4jnsgd1na2vs0mg"},{"bike_id":"e8ea3030-9739-4219-9c6a-0ed76ed814d7","system_id":"levelo_inurba_marseille","lat":43.29573,"lon":5.37513,"is_reserved":false,"is_disabled":false,"rental_uris":{"android":"levelo://app?vid=e8ea3030-9739-4219-9c6a-0ed76ed814d7","ios":"levelo://app?vid=e8ea3030-9739-4219-9c6a-0ed76ed814d7"},"vehicle_type_id":"4","last_reported":1736532799,"current_range_meters":33600,"station_id":"ce4bgh92rcd13ifvqb50","pricing_plan_id":"cebpf4jnsgd1na2vs0mg"},{"bike_id":"572f0254-11cf-4ef2-b3f9-66737ed8298a","system_id":"levelo_inurba_marseille","lat":43.28421,"lon":5.34988,"is_reserved":false,"is_disabled":true,"rental_uris":{"android":"levelo://app?vid=572f0254-11cf-4ef2-b3f9-66737ed8298a","ios":"levelo://app?vid=572f0254-11cf-4ef2-b3f9-66737ed8298a"},"vehicle_type_id":"4","last_reported":1736532799,"current_range_meters":2000,"station_id":"ce4bhbh2rcd13ifvqepg","pricing_plan_id":"cebpf4jnsgd1na2vs0mg"},{"bike_id":"81e650fb-946f-4e41-a04f-8169232bb99d","system_id":"levelo_inurba_marseille","lat":43.23186,"lon":5.39976,"is_reserved":false,"is_disabled":false,"rental_uris":{"android":"levelo://app?vid=81e650fb-946f-4e41-a04f-8169232bb99d","ios":"levelo://app?vid=81e650fb-946f-4e41-a04f-8169232bb99d"},"vehicle_type_id":"4","last_reported":1736532799,"current_range_meters":35200,"station_id":"ce4bhn12rcd13ifvqgqg","pricing_plan_id":"cebpf4jnsgd1na2vs0mg"},{"bike_id":"c150f8af-fc8f-4eb5-ac98-0b06dadf4ce0","system_id":"levelo_inurba_marseille","lat":43.25583,"lon":5.38228,"is_reserved":false,"is_disabled":false,"rental_uris":{"android":"levelo://app?vid=c150f8af-fc8f-4eb5-ac98-0b06dadf4ce0","ios":"levelo://app?vid=c150f8af-fc8f-4eb5-ac98-0b06dadf4ce0"},"vehicle_type_id":"4","last_reported":1736532799,"current_range_meters":32400,"station_id":"ce4bhih2rcd13ifvqfs0","pricing_plan_id":"cebpf4jnsgd1na2vs0mg"},{"bike_id":"f0fb8bfb-285b-4d03-adbf-fe52517bb93c","system_id":"levelo_inurba_marseille","lat":43.23192,"lon":5.35538,"is_reserved":false,"is_disabled":false,"rental_uris":{"android":"levelo://app?vid=f0fb8bfb-285b-4d03-adbf-fe52517bb93c","ios":"levelo://app?vid=f0fb8bfb-285b-4d03-adbf-fe52517bb93c"},"vehicle_type_id":"4","last_reported":1736532799,"current_range_meters":38800,"station_id":"ce4bhu92rcd13ifvqi70","pricing_plan_id":"cebpf4jnsgd1na2vs0mg"},{"bike_id":"2699aa44-e054-4052-825f-54a662a06c6e","system_id":"levelo_inurba_marseille","lat":43.2319,"lon":5.39981,"is_reserved":false,"is_disabled":false,"rental_uris":{"android":"levelo://app?vid=2699aa44-e054-4052-825f-54a662a06c6e","ios":"levelo://app?vid=2699aa44-e054-4052-825f-54a662a06c6e"},"vehicle_type_id":"4","last_reported":1736532799,"current_range_meters":38800,"station_id":"ce4bhn12rcd13ifvqgqg","pricing_plan_id":"cebpf4jnsgd1na2vs0mg"},{"bike_id":"61754fba-3376-4768-8c7c-511ea5daf5e6","system_id":"levelo_inurba_marseille","lat":43.314435,"lon":5.373752,"is_reserved":false,"is_disabled":false,"rental_uris":{"android":"levelo://app?vid=61754fba-3376-4768-8c7c-511ea5daf5e6","ios":"levelo://app?vid=61754fba-3376-4768-8c7c-511ea5daf5e6"},"vehicle_type_id":"4","last_reported":1736532799,"current_range_meters":4800,"station_id":"","pricing_plan_id":"cebpf4jnsgd1na2vs0mg"},{"bike_id":"4eea0f9a-8371-44e1-8ec2-1b8667eafdd9","system_id":"levelo_inurba_marseille","lat":43.286186,"lon":5.350952,"is_reserved":false,"is_disabled":false,"rental_uris":{"android":"levelo://app?vid=4eea0f9a-8371-44e1-8ec2-1b8667eafdd9","ios":"levelo://app?vid=4eea0f9a-8371-44e1-8ec2-1b8667eafdd9"},"vehicle_type_id":"4","last_reported":1736532799,"current_range_meters":38800,"station_id":"ce4bhch2rcd13ifvqeug","pricing_plan_id":"cebpf4jnsgd1na2vs0mg"},{"bike_id":"30653996-9326-4bca-864c-21ac92f61041","system_id":"levelo_inurba_marseille","lat":43.24644,"lon":5.38886,"is_reserved":false,"is_disabled":false,"rental_uris":{"android":"levelo://app?vid=30653996-9326-4bca-864c-21ac92f61041","ios":"levelo://app?vid=30653996-9326-4bca-864c-21ac92f61041"},"vehicle_type_id":"4","last_reported":1736532799,"current_range_meters":36800,"station_id":"ce4bhg12rcd13ifvqf60","pricing_plan_id":"cebpf4jnsgd1na2vs0mg"},{"bike_id":"cc8c290d-dfca-49b3-a00c-c69750d8ab65","system_id":"levelo_inurba_marseille","lat":43.29304,"lon":5.37461,"is_reserved":false,"is_disabled":false,"rental_uris":{"android":"levelo://app?vid=cc8c290d-dfca-49b3-a00c-c69750d8ab65","ios":"levelo://app?vid=cc8c290d-dfca-49b3-a00c-c69750d8ab65"},"vehicle_type_id":"4","last_reported":1736532799,"current_range_meters":38800,"station_id":"ce4bgi12rcd13ifvqb70","pricing_plan_id":"cebpf4jnsgd1na2vs0mg"},{"bike_id":"98dc3769-3866-4e66-8cf4-d2a6b45113e8","system_id":"levelo_inurba_marseille","lat":43.295537,"lon":5.422843,"is_reserved":false,"is_disabled":true,"rental_uris":{"android":"levelo://app?vid=98dc3769-3866-4e66-8cf4-d2a6b45113e8","ios":"levelo://app?vid=98dc3769-3866-4e66-8cf4-d2a6b45113e8"},"vehicle_type_id":"4","last_reported":1736532799,"current_range_meters":800,"station_id":"ce4bhph2rcd13ifvqhdg","pricing_plan_id":"cebpf4jnsgd1na2vs0mg"},{"bike_id":"cffdbb96-5acd-4130-9896-e23d0afde4e8","system_id":"levelo_inurba_marseille","lat":43.27556,"lon":5.38386,"is_reserved":false,"is_disabled":false,"rental_uris":{"android":"levelo://app?vid=cffdbb96-5acd-4130-9896-e23d0afde4e8","ios":"levelo://app?vid=cffdbb96-5acd-4130-9896-e23d0afde4e8"},"vehicle_type_id":"4","last_reported":1736532799,"current_range_meters":32000,"station_id":"ce4bhh92rcd13ifvqfi0","pricing_plan_id":"cebpf4jnsgd1na2vs0mg"},{"bike_id":"b704bf42-2bc7-4506-b669-8ca7a3330fef","system_id":"levelo_inurba_marseille","lat":43.28157,"lon":5.42639,"is_reserved":false,"is_disabled":true,"rental_uris":{"android":"levelo://app?vid=b704bf42-2bc7-4506-b669-8ca7a3330fef","ios":"levelo://app?vid=b704bf42-2bc7-4506-b669-8ca7a3330fef"},"vehicle_type_id":"4","last_reported":1736532799,"current_range_meters":36000,"station_id":"ce4bhnh2rcd13ifvqgug","pricing_plan_id":"cebpf4jnsgd1na2vs0mg"},{"bike_id":"04c144bb-885d-4367-8bc8-e2ccfca26ca3","system_id":"levelo_inurba_marseille","lat":43.31331,"lon":5.39673,"is_reserved":false,"is_disabled":true,"rental_uris":{"android":"levelo://app?vid=04c144bb-885d-4367-8bc8-e2ccfca26ca3","ios":"levelo://app?vid=04c144bb-885d-4367-8bc8-e2ccfca26ca3"},"vehicle_type_id":"4","last_reported":1736532799,"current_range_meters":24800,"station_id":"ce4bgvp2rcd13ifvqcu0","pricing_plan_id":"cebpf4jnsgd1na2vs0mg"},{"bike_id":"e460d899-92ee-41d8-b097-366515f9fb3c","system_id":"levelo_inurba_marseille","lat":43.29193,"lon":5.35813,"is_reserved":false,"is_disabled":false,"rental_uris":{"android":"levelo://app?vid=e460d899-92ee-41d8-b097-366515f9fb3c","ios":"levelo://app?vid=e460d899-92ee-41d8-b097-366515f9fb3c"},"vehicle_type_id":"4","last_reported":1736532799,"current_range_meters":6400,"station_id":"ce4bhb12rcd13ifvqel0","pricing_plan_id":"cebpf4jnsgd1na2vs0mg"},{"bike_id":"0e36b4f2-c7ff-48f9-ac07-e17c655b74ab","system_id":"levelo_inurba_marseille","lat":43.29635,"lon":5.40602,"is_reserved":false,"is_disabled":false,"rental_uris":{"android":"levelo://app?vid=0e36b4f2-c7ff-48f9-ac07-e17c655b74ab","ios":"levelo://app?vid=0e36b4f2-c7ff-48f9-ac07-e17c655b74ab"},"vehicle_type_id":"4","last_reported":1736532799,"current_range_meters":13600,"station_id":"ce4bh0h2rcd13ifvqd60","pricing_plan_id":"cebpf4jnsgd1na2vs0mg"},{"bike_id":"0ad7d306-b5d8-41c5-9fb2-25ad126a56ac","system_id":"levelo_inurba_marseille","lat":43.31161,"lon":5.38722,"is_reserved":false,"is_disabled":false,"rental_uris":{"android":"levelo://app?vid=0ad7d306-b5d8-41c5-9fb2-25ad126a56ac","ios":"levelo://app?vid=0ad7d306-b5d8-41c5-9fb2-25ad126a56ac"},"vehicle_type_id":"4","last_reported":1736532799,"current_range_meters":20000,"station_id":"ce4bgv12rcd13ifvqcp0","pricing_plan_id":"cebpf4jnsgd1na2vs0mg"},{"bike_id":"38352b29-897c-4fa7-be31-9c23452e3a93","system_id":"levelo_inurba_marseille","lat":43.29882,"lon":5.39736,"is_reserved":false,"is_disabled":false,"rental_uris":{"android":"levelo://app?vid=38352b29-897c-4fa7-be31-9c23452e3a93","ios":"levelo://app?vid=38352b29-897c-4fa7-be31-9c23452e3a93"},"vehicle_type_id":"4","last_reported":1736532799,"current_range_meters":22800,"station_id":"ce4bh0h2rcd13ifvqd50","pricing_plan_id":"cebpf4jnsgd1na2vs0mg"},{"bike_id":"7475f743-fa68-4b23-ab37-60e01b01184f","system_id":"levelo_inurba_marseille","lat":43.32131,"lon":5.3679,"is_reserved":false,"is_disabled":false,"rental_uris":{"android":"levelo://app?vid=7475f743-fa68-4b23-ab37-60e01b01184f","ios":"levelo://app?vid=7475f743-fa68-4b23-ab37-60e01b01184f"},"vehicle_type_id":"4","last_reported":1736532799,"current_range_meters":30800,"station_id":"ce4bhrh2rcd13ifvqhug","pricing_plan_id":"cebpf4jnsgd1na2vs0mg"},{"bike_id":"e2744ec8-2f1a-4025-9ec0-6a07f5db3fc4","system_id":"levelo_inurba_marseille","lat":43.25496,"lon":5.37651,"is_reserved":false,"is_disabled":false,"rental_uris":{"android":"levelo://app?vid=e2744ec8-2f1a-4025-9ec0-6a07f5db3fc4","ios":"levelo://app?vid=e2744ec8-2f1a-4025-9ec0-6a07f5db3fc4"},"vehicle_type_id":"4","last_reported":1736532799,"current_range_meters":22400,"station_id":"ce4bhh12rcd13ifvqff0","pricing_plan_id":"cebpf4jnsgd1na2vs0mg"},{"bike_id":"39e8b8db-a45b-47ac-924f-708d2b3bef9a","system_id":"levelo_inurba_marseille","lat":43.28633,"lon":5.35095,"is_reserved":false,"is_disabled":false,"rental_uris":{"android":"levelo://app?vid=39e8b8db-a45b-47ac-924f-708d2b3bef9a","ios":"levelo://app?vid=39e8b8db-a45b-47ac-924f-708d2b3bef9a"},"vehicle_type_id":"4","last_reported":1736532799,"current_range_meters":17600,"station_id":"ce4bhch2rcd13ifvqeug","pricing_plan_id":"cebpf4jnsgd1na2vs0mg"},{"bike_id":"19cd70fa-94f6-4311-b979-95daca7a79a7","system_id":"levelo_inurba_marseille","lat":43.29636,"lon":5.40592,"is_reserved":false,"is_disabled":false,"rental_uris":{"android":"levelo://app?vid=19cd70fa-94f6-4311-b979-95daca7a79a7","ios":"levelo://app?vid=19cd70fa-94f6-4311-b979-95daca7a79a7"},"vehicle_type_id":"4","last_reported":1736532799,"current_range_meters":8400,"station_id":"ce4bh0h2rcd13ifvqd60","pricing_plan_id":"cebpf4jnsgd1na2vs0mg"},{"bike_id":"9dc78587-d7ac-49d8-af65-170170b3c758","system_id":"levelo_inurba_marseille","lat":43.29245,"lon":5.371459,"is_reserved":false,"is_disabled":false,"rental_uris":{"android":"levelo://app?vid=9dc78587-d7ac-49d8-af65-170170b3c758","ios":"levelo://app?vid=9dc78587-d7ac-49d8-af65-170170b3c758"},"vehicle_type_id":"4","last_reported":1736532799,"current_range_meters":29600,"station_id":"","pricing_plan_id":"cebpf4jnsgd1na2vs0mg"},{"bike_id":"9be01537-e054-45c4-92d8-0b0eb1e034b4","system_id":"levelo_inurba_marseille","lat":43.27814,"lon":5.4071,"is_reserved":false,"is_disabled":false,"rental_uris":{"android":"levelo://app?vid=9be01537-e054-45c4-92d8-0b0eb1e034b4","ios":"levelo://app?vid=9be01537-e054-45c4-92d8-0b0eb1e034b4"},"vehicle_type_id":"4","last_reported":1736532799,"current_range_meters":16400,"station_id":"ce4bhnh2rcd13ifvqgtg","pricing_plan_id":"cebpf4jnsgd1na2vs0mg"},{"bike_id":"e2544aba-a350-44bf-ba9f-d261b2f4eb98","system_id":"levelo_inurba_marseille","lat":43.27949,"lon":5.41039,"is_reserved":false,"is_disabled":true,"rental_uris":{"android":"levelo://app?vid=e2544aba-a350-44bf-ba9f-d261b2f4eb98","ios":"levelo://app?vid=e2544aba-a350-44bf-ba9f-d261b2f4eb98"},"vehicle_type_id":"4","last_reported":1736532799,"current_range_meters":800,"station_id":"ce4bhnp2rcd13ifvqh0g","pricing_plan_id":"cebpf4jnsgd1na2vs0mg"},{"bike_id":"2eb264c8-1e8d-4f17-a831-3cda07857865","system_id":"levelo_inurba_marseille","lat":43.32116,"lon":5.36785,"is_reserved":false,"is_disabled":false,"rental_uris":{"android":"levelo://app?vid=2eb264c8-1e8d-4f17-a831-3cda07857865","ios":"levelo://app?vid=2eb264c8-1e8d-4f17-a831-3cda07857865"},"vehicle_type_id":"4","last_reported":1736532799,"current_range_meters":33600,"station_id":"ce4bhrh2rcd13ifvqhug","pricing_plan_id":"cebpf4jnsgd1na2vs0mg"},{"bike_id":"505fd087-15ee-406d-801d-55ac33c7ad6e","system_id":"levelo_inurba_marseille","lat":43.311696,"lon":5.38728,"is_reserved":false,"is_disabled":false,"rental_uris":{"android":"levelo://app?vid=505fd087-15ee-406d-801d-55ac33c7ad6e","ios":"levelo://app?vid=505fd087-15ee-406d-801d-55ac33c7ad6e"},"vehicle_type_id":"4","last_reported":1736532799,"current_range_meters":16000,"station_id":"ce4bgv12rcd13ifvqcp0","pricing_plan_id":"cebpf4jnsgd1na2vs0mg"},{"bike_id":"01f84a3b-c80f-4192-a995-f9def44fe600","system_id":"levelo_inurba_marseille","lat":43.29779,"lon":5.38101,"is_reserved":false,"is_disabled":false,"rental_uris":{"android":"levelo://app?vid=01f84a3b-c80f-4192-a995-f9def44fe600","ios":"levelo://app?vid=01f84a3b-c80f-4192-a995-f9def44fe600"},"vehicle_type_id":"4","last_reported":1736532799,"current_range_meters":38800,"station_id":"ce4bgip2rcd13ifvqbb0","pricing_plan_id":"cebpf4jnsgd1na2vs0mg"},{"bike_id":"1e2223a2-c032-49e7-8dbf-982df86a0520","system_id":"levelo_inurba_marseille","lat":43.229345,"lon":5.353794,"is_reserved":false,"is_disabled":false,"rental_uris":{"android":"levelo://app?vid=1e2223a2-c032-49e7-8dbf-982df86a0520","ios":"levelo://app?vid=1e2223a2-c032-49e7-8dbf-982df86a0520"},"vehicle_type_id":"4","last_reported":1736532799,"current_range_meters":31200,"station_id":"cpo3532slgdg3j2ikp40","pricing_plan_id":"cebpf4jnsgd1na2vs0mg"},{"bike_id":"129b6db2-1c87-4994-b2ac-4ebb49efeb04","system_id":"levelo_inurba_marseille","lat":43.29891,"lon":5.3973,"is_reserved":false,"is_disabled":false,"rental_uris":{"android":"levelo://app?vid=129b6db2-1c87-4994-b2ac-4ebb49efeb04","ios":"levelo://app?vid=129b6db2-1c87-4994-b2ac-4ebb49efeb04"},"vehicle_type_id":"4","last_reported":1736532799,"current_range_meters":38800,"station_id":"ce4bh0h2rcd13ifvqd50","pricing_plan_id":"cebpf4jnsgd1na2vs0mg"},{"bike_id":"aa8ac0ca-89b2-472c-abe3-0a86d5057c87","system_id":"levelo_inurba_marseille","lat":43.26057,"lon":5.39393,"is_reserved":false,"is_disabled":false,"rental_uris":{"android":"levelo://app?vid=aa8ac0ca-89b2-472c-abe3-0a86d5057c87","ios":"levelo://app?vid=aa8ac0ca-89b2-472c-abe3-0a86d5057c87"},"vehicle_type_id":"4","last_reported":1736532799,"current_range_meters":8800,"station_id":"ce4bhh92rcd13ifvqfj0","pricing_plan_id":"cebpf4jnsgd1na2vs0mg"},{"bike_id":"5f2cf356-122a-4d24-85ba-e38bc4612223","system_id":"levelo_inurba_marseille","lat":43.25581,"lon":5.38235,"is_reserved":false,"is_disabled":true,"rental_uris":{"android":"levelo://app?vid=5f2cf356-122a-4d24-85ba-e38bc4612223","ios":"levelo://app?vid=5f2cf356-122a-4d24-85ba-e38bc4612223"},"vehicle_type_id":"4","last_reported":1736532799,"current_range_meters":36800,"station_id":"ce4bhih2rcd13ifvqfs0","pricing_plan_id":"cebpf4jnsgd1na2vs0mg"},{"bike_id":"be8a233f-ad85-41b2-af03-bfa1e3033438","system_id":"levelo_inurba_marseille","lat":43.23192,"lon":5.35541,"is_reserved":false,"is_disabled":false,"rental_uris":{"android":"levelo://app?vid=be8a233f-ad85-41b2-af03-bfa1e3033438","ios":"levelo://app?vid=be8a233f-ad85-41b2-af03-bfa1e3033438"},"vehicle_type_id":"4","last_reported":1736532799,"current_range_meters":24000,"station_id":"ce4bhu92rcd13ifvqi70","pricing_plan_id":"cebpf4jnsgd1na2vs0mg"},{"bike_id":"d7284d59-0fa0-4e55-88c3-9102035d8a99","system_id":"levelo_inurba_marseille","lat":43.3024,"lon":5.400745,"is_reserved":false,"is_disabled":true,"rental_uris":{"android":"levelo://app?vid=d7284d59-0fa0-4e55-88c3-9102035d8a99","ios":"levelo://app?vid=d7284d59-0fa0-4e55-88c3-9102035d8a99"},"vehicle_type_id":"4","last_reported":1736532799,"current_range_meters":12800,"station_id":"ce4bgvh2rcd13ifvqcs0","pricing_plan_id":"cebpf4jnsgd1na2vs0mg"},{"bike_id":"bb77e5b4-91f6-4df9-8158-2ce9f1f4fdfb","system_id":"levelo_inurba_marseille","lat":43.28861,"lon":5.35872,"is_reserved":false,"is_disabled":false,"rental_uris":{"android":"levelo://app?vid=bb77e5b4-91f6-4df9-8158-2ce9f1f4fdfb","ios":"levelo://app?vid=bb77e5b4-91f6-4df9-8158-2ce9f1f4fdfb"},"vehicle_type_id":"4","last_reported":1736532799,"current_range_meters":19600,"station_id":"ce4bhb12rcd13ifvqem0","pricing_plan_id":"cebpf4jnsgd1na2vs0mg"},{"bike_id":"30c4bea9-3a5e-47d0-abdc-e9627cd661ab","system_id":"levelo_inurba_marseille","lat":43.29572,"lon":5.37526,"is_reserved":false,"is_disabled":false,"rental_uris":{"android":"levelo://app?vid=30c4bea9-3a5e-47d0-abdc-e9627cd661ab","ios":"levelo://app?vid=30c4bea9-3a5e-47d0-abdc-e9627cd661ab"},"vehicle_type_id":"4","last_reported":1736532799,"current_range_meters":25200,"station_id":"ce4bgh92rcd13ifvqb50","pricing_plan_id":"cebpf4jnsgd1na2vs0mg"},{"bike_id":"dae48010-81d5-405a-8a91-7a7fe69b7096","system_id":"levelo_inurba_marseille","lat":43.30601,"lon":5.37235,"is_reserved":false,"is_disabled":true,"rental_uris":{"android":"levelo://app?vid=dae48010-81d5-405a-8a91-7a7fe69b7096","ios":"levelo://app?vid=dae48010-81d5-405a-8a91-7a7fe69b7096"},"vehicle_type_id":"4","last_reported":1736532799,"current_range_meters":1600,"station_id":"ce4bgqh2rcd13ifvqc4g","pricing_plan_id":"cebpf4jnsgd1na2vs0mg"},{"bike_id":"17f686eb-44c9-47a8-95d9-5b09edd3f547","system_id":"levelo_inurba_marseille","lat":43.29205,"lon":5.39336,"is_reserved":false,"is_disabled":false,"rental_uris":{"android":"levelo://app?vid=17f686eb-44c9-47a8-95d9-5b09edd3f547","ios":"levelo://app?vid=17f686eb-44c9-47a8-95d9-5b09edd3f547"},"vehicle_type_id":"4","last_reported":1736532799,"current_range_meters":20000,"station_id":"ce4bh192rcd13ifvqdd0","pricing_plan_id":"cebpf4jnsgd1na2vs0mg"},{"bike_id":"c0bb9f44-db82-448e-b526-30e3930379a7","system_id":"levelo_inurba_marseille","lat":43.30796,"lon":5.38159,"is_reserved":false,"is_disabled":false,"rental_uris":{"android":"levelo://app?vid=c0bb9f44-db82-448e-b526-30e3930379a7","ios":"levelo://app?vid=c0bb9f44-db82-448e-b526-30e3930379a7"},"vehicle_type_id":"4","last_reported":1736532799,"current_range_meters":9200,"station_id":"ce4bgt12rcd13ifvqce0","pricing_plan_id":"cebpf4jnsgd1na2vs0mg"},{"bike_id":"0751221b-37bf-4486-a78f-e3467767c553","system_id":"levelo_inurba_marseille","lat":43.2558,"lon":5.3825,"is_reserved":false,"is_disabled":false,"rental_uris":{"android":"levelo://app?vid=0751221b-37bf-4486-a78f-e3467767c553","ios":"levelo://app?vid=0751221b-37bf-4486-a78f-e3467767c553"},"vehicle_type_id":"4","last_reported":1736532799,"current_range_meters":39200,"station_id":"ce4bhih2rcd13ifvqfs0","pricing_plan_id":"cebpf4jnsgd1na2vs0mg"},{"bike_id":"ccf26e7a-4c4e-4eba-a2f3-3eea82b9d828","system_id":"levelo_inurba_marseille","lat":43.28697,"lon":5.37397,"is_reserved":false,"is_disabled":false,"rental_uris":{"android":"levelo://app?vid=ccf26e7a-4c4e-4eba-a2f3-3eea82b9d828","ios":"levelo://app?vid=ccf26e7a-4c4e-4eba-a2f3-3eea82b9d828"},"vehicle_type_id":"4","last_reported":1736532799,"current_range_meters":32800,"station_id":"ce4bh3p2rcd13ifvqdq0","pricing_plan_id":"cebpf4jnsgd1na2vs0mg"},{"bike_id":"ca72bb38-6596-47b1-91c2-1d6f232cb29d","system_id":"levelo_inurba_marseille","lat":43.27367,"lon":5.36249,"is_reserved":false,"is_disabled":false,"rental_uris":{"android":"levelo://app?vid=ca72bb38-6596-47b1-91c2-1d6f232cb29d","ios":"levelo://app?vid=ca72bb38-6596-47b1-91c2-1d6f232cb29d"},"vehicle_type_id":"4","last_reported":1736532799,"current_range_meters":38800,"station_id":"ce4bhbh2rcd13ifvqeo0","pricing_plan_id":"cebpf4jnsgd1na2vs0mg"},{"bike_id":"10b087d3-b27a-4384-ae75-250401046e12","system_id":"levelo_inurba_marseille","lat":43.31528,"lon":5.38028,"is_reserved":false,"is_disabled":false,"rental_uris":{"android":"levelo://app?vid=10b087d3-b27a-4384-ae75-250401046e12","ios":"levelo://app?vid=10b087d3-b27a-4384-ae75-250401046e12"},"vehicle_type_id":"4","last_reported":1736532799,"current_range_meters":6800,"station_id":"ce4bhsp2rcd13ifvqi50","pricing_plan_id":"cebpf4jnsgd1na2vs0mg"},{"bike_id":"6c003428-d731-4ac5-9d43-a417d9eab70c","system_id":"levelo_inurba_marseille","lat":43.28677,"lon":5.38658,"is_reserved":false,"is_disabled":true,"rental_uris":{"android":"levelo://app?vid=6c003428-d731-4ac5-9d43-a417d9eab70c","ios":"levelo://app?vid=6c003428-d731-4ac5-9d43-a417d9eab70c"},"vehicle_type_id":"4","last_reported":1736532799,"current_range_meters":0,"station_id":"ce4bh492rcd13ifvqdug","pricing_plan_id":"cebpf4jnsgd1na2vs0mg"},{"bike_id":"ad28bd53-1c8c-44ea-9a1c-1e5a5b2498fe","system_id":"levelo_inurba_marseille","lat":43.24154,"lon":5.36393,"is_reserved":false,"is_disabled":false,"rental_uris":{"android":"levelo://app?vid=ad28bd53-1c8c-44ea-9a1c-1e5a5b2498fe","ios":"levelo://app?vid=ad28bd53-1c8c-44ea-9a1c-1e5a5b2498fe"},"vehicle_type_id":"4","last_reported":1736532799,"current_range_meters":9200,"station_id":"cpo36qri1sfpv3e86is0","pricing_plan_id":"cebpf4jnsgd1na2vs0mg"},{"bike_id":"30b4f19a-5b8b-4ac5-8a89-8b14fe041003","system_id":"levelo_inurba_marseille","lat":43.2481,"lon":5.37454,"is_reserved":false,"is_disabled":false,"rental_uris":{"android":"levelo://app?vid=30b4f19a-5b8b-4ac5-8a89-8b14fe041003","ios":"levelo://app?vid=30b4f19a-5b8b-4ac5-8a89-8b14fe041003"},"vehicle_type_id":"4","last_reported":1736532799,"current_range_meters":22400,"station_id":"ce4bhgh2rcd13ifvqfb0","pricing_plan_id":"cebpf4jnsgd1na2vs0mg"},{"bike_id":"682413df-e501-4581-a7ab-2beec4a5896c","system_id":"levelo_inurba_marseille","lat":43.29266,"lon":5.38445,"is_reserved":false,"is_disabled":false,"rental_uris":{"android":"levelo://app?vid=682413df-e501-4581-a7ab-2beec4a5896c","ios":"levelo://app?vid=682413df-e501-4581-a7ab-2beec4a5896c"},"vehicle_type_id":"4","last_reported":1736532799,"current_range_meters":24400,"station_id":"ce4bh692rcd13ifvqea0","pricing_plan_id":"cebpf4jnsgd1na2vs0mg"},{"bike_id":"a038c538-855e-4adf-8e22-c5c7b372f901","system_id":"levelo_inurba_marseille","lat":43.30212,"lon":5.39476,"is_reserved":false,"is_disabled":false,"rental_uris":{"android":"levelo://app?vid=a038c538-855e-4adf-8e22-c5c7b372f901","ios":"levelo://app?vid=a038c538-855e-4adf-8e22-c5c7b372f901"},"vehicle_type_id":"4","last_reported":1736532799,"current_range_meters":12400,"station_id":"ce4bh0p2rcd13ifvqd70","pricing_plan_id":"cebpf4jnsgd1na2vs0mg"},{"bike_id":"e2dab698-0f67-4975-bae4-e0aee614e17a","system_id":"levelo_inurba_marseille","lat":43.25584,"lon":5.38241,"is_reserved":false,"is_disabled":false,"rental_uris":{"android":"levelo://app?vid=e2dab698-0f67-4975-bae4-e0aee614e17a","ios":"levelo://app?vid=e2dab698-0f67-4975-bae4-e0aee614e17a"},"vehicle_type_id":"4","last_reported":1736532799,"current_range_meters":32800,"station_id":"ce4bhih2rcd13ifvqfs0","pricing_plan_id":"cebpf4jnsgd1na2vs0mg"},{"bike_id":"0208b712-2691-47c5-873b-b1063dec2acf","system_id":"levelo_inurba_marseille","lat":43.30899,"lon":5.39653,"is_reserved":false,"is_disabled":false,"rental_uris":{"android":"levelo://app?vid=0208b712-2691-47c5-873b-b1063dec2acf","ios":"levelo://app?vid=0208b712-2691-47c5-873b-b1063dec2acf"},"vehicle_type_id":"4","last_reported":1736532799,"current_range_meters":6000,"station_id":"ce4bh012rcd13ifvqcv0","pricing_plan_id":"cebpf4jnsgd1na2vs0mg"},{"bike_id":"71a3091e-3542-45c0-aafd-125914f1fcc9","system_id":"levelo_inurba_marseille","lat":43.28452,"lon":5.35892,"is_reserved":false,"is_disabled":false,"rental_uris":{"android":"levelo://app?vid=71a3091e-3542-45c0-aafd-125914f1fcc9","ios":"levelo://app?vid=71a3091e-3542-45c0-aafd-125914f1fcc9"},"vehicle_type_id":"4","last_reported":1736532799,"current_range_meters":39200,"station_id":"ce4bhah2rcd13ifvqei0","pricing_plan_id":"cebpf4jnsgd1na2vs0mg"},{"bike_id":"b8acbba0-a715-4ced-a2aa-0517db10ac9d","system_id":"levelo_inurba_marseille","lat":43.22923,"lon":5.35382,"is_reserved":false,"is_disabled":true,"rental_uris":{"android":"levelo://app?vid=b8acbba0-a715-4ced-a2aa-0517db10ac9d","ios":"levelo://app?vid=b8acbba0-a715-4ced-a2aa-0517db10ac9d"},"vehicle_type_id":"4","last_reported":1736532799,"current_range_meters":38800,"station_id":"cpo3532slgdg3j2ikp40","pricing_plan_id":"cebpf4jnsgd1na2vs0mg"},{"bike_id":"3ea451c7-0219-4ce2-a73b-612927dbeb96","system_id":"levelo_inurba_marseille","lat":43.2481,"lon":5.37458,"is_reserved":false,"is_disabled":false,"rental_uris":{"android":"levelo://app?vid=3ea451c7-0219-4ce2-a73b-612927dbeb96","ios":"levelo://app?vid=3ea451c7-0219-4ce2-a73b-612927dbeb96"},"vehicle_type_id":"4","last_reported":1736532799,"current_range_meters":30800,"station_id":"ce4bhgh2rcd13ifvqfb0","pricing_plan_id":"cebpf4jnsgd1na2vs0mg"},{"bike_id":"ae06a8b8-c8ea-41a8-aa51-2e096adfc2a4","system_id":"levelo_inurba_marseille","lat":43.28564,"lon":5.39483,"is_reserved":false,"is_disabled":false,"rental_uris":{"android":"levelo://app?vid=ae06a8b8-c8ea-41a8-aa51-2e096adfc2a4","ios":"levelo://app?vid=ae06a8b8-c8ea-41a8-aa51-2e096adfc2a4"},"vehicle_type_id":"4","last_reported":1736532799,"current_range_meters":6800,"station_id":"ce4bh292rcd13ifvqdg0","pricing_plan_id":"cebpf4jnsgd1na2vs0mg"},{"bike_id":"47737218-3f2f-4c2d-997a-d46c97be69f5","system_id":"levelo_inurba_marseille","lat":43.29526,"lon":5.39046,"is_reserved":false,"is_disabled":false,"rental_uris":{"android":"levelo://app?vid=47737218-3f2f-4c2d-997a-d46c97be69f5","ios":"levelo://app?vid=47737218-3f2f-4c2d-997a-d46c97be69f5"},"vehicle_type_id":"4","last_reported":1736532799,"current_range_meters":16000,"station_id":"ce4bh3p2rcd13ifvqdp0","pricing_plan_id":"cebpf4jnsgd1na2vs0mg"},{"bike_id":"ad113f76-a766-497a-90be-d1902352af36","system_id":"levelo_inurba_marseille","lat":43.32097,"lon":5.36772,"is_reserved":false,"is_disabled":false,"rental_uris":{"android":"levelo://app?vid=ad113f76-a766-497a-90be-d1902352af36","ios":"levelo://app?vid=ad113f76-a766-497a-90be-d1902352af36"},"vehicle_type_id":"4","last_reported":1736532799,"current_range_meters":38000,"station_id":"ce4bhrh2rcd13ifvqhug","pricing_plan_id":"cebpf4jnsgd1na2vs0mg"},{"bike_id":"3a67e5b2-507e-4780-af39-f83a7f874166","system_id":"levelo_inurba_marseille","lat":43.30813,"lon":5.38162,"is_reserved":false,"is_disabled":false,"rental_uris":{"android":"levelo://app?vid=3a67e5b2-507e-4780-af39-f83a7f874166","ios":"levelo://app?vid=3a67e5b2-507e-4780-af39-f83a7f874166"},"vehicle_type_id":"4","last_reported":1736532799,"current_range_meters":36400,"station_id":"ce4bgt12rcd13ifvqce0","pricing_plan_id":"cebpf4jnsgd1na2vs0mg"},{"bike_id":"492eaeaa-12ec-45d5-becd-2f0b35e16c8d","system_id":"levelo_inurba_marseille","lat":43.24168,"lon":5.36379,"is_reserved":false,"is_disabled":false,"rental_uris":{"android":"levelo://app?vid=492eaeaa-12ec-45d5-becd-2f0b35e16c8d","ios":"levelo://app?vid=492eaeaa-12ec-45d5-becd-2f0b35e16c8d"},"vehicle_type_id":"4","last_reported":1736532799,"current_range_meters":12400,"station_id":"cpo36qri1sfpv3e86is0","pricing_plan_id":"cebpf4jnsgd1na2vs0mg"},{"bike_id":"a76bdc52-670b-42f0-a6bc-f0e47359d3dd","system_id":"levelo_inurba_marseille","lat":43.27175,"lon":5.41002,"is_reserved":false,"is_disabled":false,"rental_uris":{"android":"levelo://app?vid=a76bdc52-670b-42f0-a6bc-f0e47359d3dd","ios":"levelo://app?vid=a76bdc52-670b-42f0-a6bc-f0e47359d3dd"},"vehicle_type_id":"4","last_reported":1736532799,"current_range_meters":22400,"station_id":"ce4bhl12rcd13ifvqgf0","pricing_plan_id":"cebpf4jnsgd1na2vs0mg"},{"bike_id":"377730c6-0336-4c78-9c46-cdee41ff19a9","system_id":"levelo_inurba_marseille","lat":43.28038,"lon":5.41119,"is_reserved":false,"is_disabled":false,"rental_uris":{"android":"levelo://app?vid=377730c6-0336-4c78-9c46-cdee41ff19a9","ios":"levelo://app?vid=377730c6-0336-4c78-9c46-cdee41ff19a9"},"vehicle_type_id":"4","last_reported":1736532799,"current_range_meters":5600,"station_id":"","pricing_plan_id":"cebpf4jnsgd1na2vs0mg"},{"bike_id":"69689a84-aa34-48e6-8abf-e56354e3d93c","system_id":"levelo_inurba_marseille","lat":43.2953,"lon":5.37506,"is_reserved":false,"is_disabled":true,"rental_uris":{"android":"levelo://app?vid=69689a84-aa34-48e6-8abf-e56354e3d93c","ios":"levelo://app?vid=69689a84-aa34-48e6-8abf-e56354e3d93c"},"vehicle_type_id":"4","last_reported":1736532799,"current_range_meters":33600,"station_id":"ce4bgkp2rcd13ifvqbmg","pricing_plan_id":"cebpf4jnsgd1na2vs0mg"},{"bike_id":"266859f2-18fe-482a-8c9f-5bdad982c716","system_id":"levelo_inurba_marseille","lat":43.28042,"lon":5.41106,"is_reserved":false,"is_disabled":false,"rental_uris":{"android":"levelo://app?vid=266859f2-18fe-482a-8c9f-5bdad982c716","ios":"levelo://app?vid=266859f2-18fe-482a-8c9f-5bdad982c716"},"vehicle_type_id":"4","last_reported":1736532799,"current_range_meters":2800,"station_id":"","pricing_plan_id":"cebpf4jnsgd1na2vs0mg"},{"bike_id":"ff3cf7ff-a120-4d85-8f37-ab2aef89a1f7","system_id":"levelo_inurba_marseille","lat":43.2892,"lon":5.38383,"is_reserved":false,"is_disabled":false,"rental_uris":{"android":"levelo://app?vid=ff3cf7ff-a120-4d85-8f37-ab2aef89a1f7","ios":"levelo://app?vid=ff3cf7ff-a120-4d85-8f37-ab2aef89a1f7"},"vehicle_type_id":"4","last_reported":1736532799,"current_range_meters":38400,"station_id":"ce4bh612rcd13ifvqe6g","pricing_plan_id":"cebpf4jnsgd1na2vs0mg"},{"bike_id":"e575b3b9-9302-4cbc-9507-50645a611ef1","system_id":"levelo_inurba_marseille","lat":43.30601,"lon":5.37232,"is_reserved":false,"is_disabled":false,"rental_uris":{"android":"levelo://app?vid=e575b3b9-9302-4cbc-9507-50645a611ef1","ios":"levelo://app?vid=e575b3b9-9302-4cbc-9507-50645a611ef1"},"vehicle_type_id":"4","last_reported":1736532799,"current_range_meters":16800,"station_id":"ce4bgqh2rcd13ifvqc4g","pricing_plan_id":"cebpf4jnsgd1na2vs0mg"},{"bike_id":"b220aa6c-5993-48c4-993e-81ac503e93fd","system_id":"levelo_inurba_marseille","lat":43.276032,"lon":5.38937,"is_reserved":false,"is_disabled":false,"rental_uris":{"android":"levelo://app?vid=b220aa6c-5993-48c4-993e-81ac503e93fd","ios":"levelo://app?vid=b220aa6c-5993-48c4-993e-81ac503e93fd"},"vehicle_type_id":"4","last_reported":1736532799,"current_range_meters":12000,"station_id":"ce4bhg12rcd13ifvqf80","pricing_plan_id":"cebpf4jnsgd1na2vs0mg"},{"bike_id":"488fd8ee-6f2a-4850-ae35-10cc3debe4b2","system_id":"levelo_inurba_marseille","lat":43.27972,"lon":5.3874,"is_reserved":false,"is_disabled":true,"rental_uris":{"android":"levelo://app?vid=488fd8ee-6f2a-4850-ae35-10cc3debe4b2","ios":"levelo://app?vid=488fd8ee-6f2a-4850-ae35-10cc3debe4b2"},"vehicle_type_id":"4","last_reported":1736532799,"current_range_meters":800,"station_id":"ce4bhg12rcd13ifvqf80","pricing_plan_id":"cebpf4jnsgd1na2vs0mg"},{"bike_id":"3aff0150-e280-4a7d-a4df-32cb4cc997aa","system_id":"levelo_inurba_marseille","lat":43.28928,"lon":5.38403,"is_reserved":false,"is_disabled":false,"rental_uris":{"android":"levelo://app?vid=3aff0150-e280-4a7d-a4df-32cb4cc997aa","ios":"levelo://app?vid=3aff0150-e280-4a7d-a4df-32cb4cc997aa"},"vehicle_type_id":"4","last_reported":1736532799,"current_range_meters":8400,"station_id":"ce4bh612rcd13ifvqe6g","pricing_plan_id":"cebpf4jnsgd1na2vs0mg"},{"bike_id":"79d4d31b-e814-4db1-9d24-013e65778338","system_id":"levelo_inurba_marseille","lat":43.261953,"lon":5.374443,"is_reserved":false,"is_disabled":false,"rental_uris":{"android":"levelo://app?vid=79d4d31b-e814-4db1-9d24-013e65778338","ios":"levelo://app?vid=79d4d31b-e814-4db1-9d24-013e65778338"},"vehicle_type_id":"4","last_reported":1736532799,"current_range_meters":20800,"station_id":"ce4bhgp2rcd13ifvqfc0","pricing_plan_id":"cebpf4jnsgd1na2vs0mg"},{"bike_id":"6af51161-f618-4e60-b764-b63e850cffba","system_id":"levelo_inurba_marseille","lat":43.2953,"lon":5.39046,"is_reserved":false,"is_disabled":false,"rental_uris":{"android":"levelo://app?vid=6af51161-f618-4e60-b764-b63e850cffba","ios":"levelo://app?vid=6af51161-f618-4e60-b764-b63e850cffba"},"vehicle_type_id":"4","last_reported":1736532799,"current_range_meters":25200,"station_id":"ce4bh3p2rcd13ifvqdp0","pricing_plan_id":"cebpf4jnsgd1na2vs0mg"},{"bike_id":"53d9b011-4f69-4c78-9c02-dcd82eb1bbd1","system_id":"levelo_inurba_marseille","lat":43.30538,"lon":5.36698,"is_reserved":false,"is_disabled":false,"rental_uris":{"android":"levelo://app?vid=53d9b011-4f69-4c78-9c02-dcd82eb1bbd1","ios":"levelo://app?vid=53d9b011-4f69-4c78-9c02-dcd82eb1bbd1"},"vehicle_type_id":"4","last_reported":1736532799,"current_range_meters":34000,"station_id":"ce4bgrp2rcd13ifvqc9g","pricing_plan_id":"cebpf4jnsgd1na2vs0mg"},{"bike_id":"397fea56-09c9-4a12-a6fd-90334c90b0ad","system_id":"levelo_inurba_marseille","lat":43.24071,"lon":5.37763,"is_reserved":false,"is_disabled":false,"rental_uris":{"android":"levelo://app?vid=397fea56-09c9-4a12-a6fd-90334c90b0ad","ios":"levelo://app?vid=397fea56-09c9-4a12-a6fd-90334c90b0ad"},"vehicle_type_id":"4","last_reported":1736532799,"current_range_meters":30000,"station_id":"ce4bhnp2rcd13ifvqgvg","pricing_plan_id":"cebpf4jnsgd1na2vs0mg"},{"bike_id":"3a9366c6-502a-444b-b374-6877acc3af2b","system_id":"levelo_inurba_marseille","lat":43.3173,"lon":5.42392,"is_reserved":false,"is_disabled":false,"rental_uris":{"android":"levelo://app?vid=3a9366c6-502a-444b-b374-6877acc3af2b","ios":"levelo://app?vid=3a9366c6-502a-444b-b374-6877acc3af2b"},"vehicle_type_id":"4","last_reported":1736532799,"current_range_meters":14400,"station_id":"ce4bhp92rcd13ifvqhbg","pricing_plan_id":"cebpf4jnsgd1na2vs0mg"},{"bike_id":"ea482d96-0b68-4d90-96e9-567ed5fae9d8","system_id":"levelo_inurba_marseille","lat":43.29229,"lon":5.36063,"is_reserved":false,"is_disabled":true,"rental_uris":{"android":"levelo://app?vid=ea482d96-0b68-4d90-96e9-567ed5fae9d8","ios":"levelo://app?vid=ea482d96-0b68-4d90-96e9-567ed5fae9d8"},"vehicle_type_id":"4","last_reported":1736532799,"current_range_meters":0,"station_id":"ce4bhbh2rcd13ifvqeqg","pricing_plan_id":"cebpf4jnsgd1na2vs0mg"},{"bike_id":"b9619dd7-91f7-432e-b0ef-695b4d3f299d","system_id":"levelo_inurba_marseille","lat":43.319897,"lon":5.38154,"is_reserved":false,"is_disabled":false,"rental_uris":{"android":"levelo://app?vid=b9619dd7-91f7-432e-b0ef-695b4d3f299d","ios":"levelo://app?vid=b9619dd7-91f7-432e-b0ef-695b4d3f299d"},"vehicle_type_id":"4","last_reported":1736532799,"current_range_meters":19200,"station_id":"ce4bhr12rcd13ifvqhpg","pricing_plan_id":"cebpf4jnsgd1na2vs0mg"},{"bike_id":"ada73a19-195c-43d9-b6df-26a14256e824","system_id":"levelo_inurba_marseille","lat":43.290394,"lon":5.386758,"is_reserved":false,"is_disabled":false,"rental_uris":{"android":"levelo://app?vid=ada73a19-195c-43d9-b6df-26a14256e824","ios":"levelo://app?vid=ada73a19-195c-43d9-b6df-26a14256e824"},"vehicle_type_id":"4","last_reported":1736532799,"current_range_meters":8800,"station_id":"ce4bh4p2rcd13ifvqe0g","pricing_plan_id":"cebpf4jnsgd1na2vs0mg"},{"bike_id":"53d82437-41a8-4eb5-9037-4dd1786ebe60","system_id":"levelo_inurba_marseille","lat":43.28725,"lon":5.37951,"is_reserved":false,"is_disabled":false,"rental_uris":{"android":"levelo://app?vid=53d82437-41a8-4eb5-9037-4dd1786ebe60","ios":"levelo://app?vid=53d82437-41a8-4eb5-9037-4dd1786ebe60"},"vehicle_type_id":"4","last_reported":1736532799,"current_range_meters":24400,"station_id":"ce4bh9p2rcd13ifvqec0","pricing_plan_id":"cebpf4jnsgd1na2vs0mg"},{"bike_id":"0e0ae4e3-bac1-4f38-890f-4448bfa8cb6b","system_id":"levelo_inurba_marseille","lat":43.31484,"lon":5.37309,"is_reserved":false,"is_disabled":false,"rental_uris":{"android":"levelo://app?vid=0e0ae4e3-bac1-4f38-890f-4448bfa8cb6b","ios":"levelo://app?vid=0e0ae4e3-bac1-4f38-890f-4448bfa8cb6b"},"vehicle_type_id":"4","last_reported":1736532799,"current_range_meters":33200,"station_id":"ce4bgt12rcd13ifvqcd0","pricing_plan_id":"cebpf4jnsgd1na2vs0mg"},{"bike_id":"dd62d67c-4f50-4bbd-af10-63fe520a99b4","system_id":"levelo_inurba_marseille","lat":43.30321,"lon":5.36904,"is_reserved":false,"is_disabled":true,"rental_uris":{"android":"levelo://app?vid=dd62d67c-4f50-4bbd-af10-63fe520a99b4","ios":"levelo://app?vid=dd62d67c-4f50-4bbd-af10-63fe520a99b4"},"vehicle_type_id":"4","last_reported":1736532799,"current_range_meters":34000,"station_id":"ce4bgqh2rcd13ifvqc5g","pricing_plan_id":"cebpf4jnsgd1na2vs0mg"},{"bike_id":"ca2450e7-5c66-4bdc-b528-943118702b91","system_id":"levelo_inurba_marseille","lat":43.33735,"lon":5.39183,"is_reserved":false,"is_disabled":false,"rental_uris":{"android":"levelo://app?vid=ca2450e7-5c66-4bdc-b528-943118702b91","ios":"levelo://app?vid=ca2450e7-5c66-4bdc-b528-943118702b91"},"vehicle_type_id":"4","last_reported":1736532799,"current_range_meters":39200,"station_id":"ce4bhr92rcd13ifvqhsg","pricing_plan_id":"cebpf4jnsgd1na2vs0mg"},{"bike_id":"be97934a-efd5-43dc-a20c-fded1b4a0387","system_id":"levelo_inurba_marseille","lat":43.2396,"lon":5.36632,"is_reserved":false,"is_disabled":false,"rental_uris":{"android":"levelo://app?vid=be97934a-efd5-43dc-a20c-fded1b4a0387","ios":"levelo://app?vid=be97934a-efd5-43dc-a20c-fded1b4a0387"},"vehicle_type_id":"4","last_reported":1736532799,"current_range_meters":38800,"station_id":"ce4bhi12rcd13ifvqfp0","pricing_plan_id":"cebpf4jnsgd1na2vs0mg"},{"bike_id":"d5f7e953-050c-4cea-99af-495b991331e3","system_id":"levelo_inurba_marseille","lat":43.31766,"lon":5.37589,"is_reserved":false,"is_disabled":false,"rental_uris":{"android":"levelo://app?vid=d5f7e953-050c-4cea-99af-495b991331e3","ios":"levelo://app?vid=d5f7e953-050c-4cea-99af-495b991331e3"},"vehicle_type_id":"4","last_reported":1736532799,"current_range_meters":38800,"station_id":"","pricing_plan_id":"cebpf4jnsgd1na2vs0mg"},{"bike_id":"0ec43b96-9f68-4d9d-9cca-661e0ae9446e","system_id":"levelo_inurba_marseille","lat":43.29303,"lon":5.37482,"is_reserved":false,"is_disabled":false,"rental_uris":{"android":"levelo://app?vid=0ec43b96-9f68-4d9d-9cca-661e0ae9446e","ios":"levelo://app?vid=0ec43b96-9f68-4d9d-9cca-661e0ae9446e"},"vehicle_type_id":"4","last_reported":1736532799,"current_range_meters":25200,"station_id":"ce4bgi12rcd13ifvqb70","pricing_plan_id":"cebpf4jnsgd1na2vs0mg"},{"bike_id":"a1164a90-2dc8-4478-8d43-814a6b95fb9e","system_id":"levelo_inurba_marseille","lat":43.33763,"lon":5.37444,"is_reserved":false,"is_disabled":false,"rental_uris":{"android":"levelo://app?vid=a1164a90-2dc8-4478-8d43-814a6b95fb9e","ios":"levelo://app?vid=a1164a90-2dc8-4478-8d43-814a6b95fb9e"},"vehicle_type_id":"4","last_reported":1736532799,"current_range_meters":38400,"station_id":"","pricing_plan_id":"cebpf4jnsgd1na2vs0mg"},{"bike_id":"449be7c9-9937-40da-bd0e-1faa363dd0f3","system_id":"levelo_inurba_marseille","lat":43.27565,"lon":5.3844,"is_reserved":false,"is_disabled":false,"rental_uris":{"android":"levelo://app?vid=449be7c9-9937-40da-bd0e-1faa363dd0f3","ios":"levelo://app?vid=449be7c9-9937-40da-bd0e-1faa363dd0f3"},"vehicle_type_id":"4","last_reported":1736532799,"current_range_meters":17600,"station_id":"ce4bhh92rcd13ifvqfi0","pricing_plan_id":"cebpf4jnsgd1na2vs0mg"},{"bike_id":"4da7a6f8-3a06-4392-ac1e-7174348dbf96","system_id":"levelo_inurba_marseille","lat":43.29522,"lon":5.39408,"is_reserved":false,"is_disabled":false,"rental_uris":{"android":"levelo://app?vid=4da7a6f8-3a06-4392-ac1e-7174348dbf96","ios":"levelo://app?vid=4da7a6f8-3a06-4392-ac1e-7174348dbf96"},"vehicle_type_id":"4","last_reported":1736532799,"current_range_meters":24400,"station_id":"ce4bh292rcd13ifvqdf0","pricing_plan_id":"cebpf4jnsgd1na2vs0mg"},{"bike_id":"b3cb95fb-9c38-4961-8032-9e7e1343adcd","system_id":"levelo_inurba_marseille","lat":43.3235,"lon":5.38891,"is_reserved":false,"is_disabled":false,"rental_uris":{"android":"levelo://app?vid=b3cb95fb-9c38-4961-8032-9e7e1343adcd","ios":"levelo://app?vid=b3cb95fb-9c38-4961-8032-9e7e1343adcd"},"vehicle_type_id":"4","last_reported":1736532799,"current_range_meters":26000,"station_id":"ce4bhqp2rcd13ifvqhog","pricing_plan_id":"cebpf4jnsgd1na2vs0mg"},{"bike_id":"edc5994e-f672-4beb-abd6-cf58610554e8","system_id":"levelo_inurba_marseille","lat":43.28468,"lon":5.35894,"is_reserved":false,"is_disabled":false,"rental_uris":{"android":"levelo://app?vid=edc5994e-f672-4beb-abd6-cf58610554e8","ios":"levelo://app?vid=edc5994e-f672-4beb-abd6-cf58610554e8"},"vehicle_type_id":"4","last_reported":1736532799,"current_range_meters":14400,"station_id":"ce4bhah2rcd13ifvqei0","pricing_plan_id":"cebpf4jnsgd1na2vs0mg"},{"bike_id":"6fdecff2-2545-405f-8c66-4d246590b289","system_id":"levelo_inurba_marseille","lat":43.241639,"lon":5.363994,"is_reserved":false,"is_disabled":false,"rental_uris":{"android":"levelo://app?vid=6fdecff2-2545-405f-8c66-4d246590b289","ios":"levelo://app?vid=6fdecff2-2545-405f-8c66-4d246590b289"},"vehicle_type_id":"4","last_reported":1736532799,"current_range_meters":12800,"station_id":"cpo36qri1sfpv3e86is0","pricing_plan_id":"cebpf4jnsgd1na2vs0mg"},{"bike_id":"d40d9428-a2fe-4f4e-a58b-7e600af87521","system_id":"levelo_inurba_marseille","lat":43.26055,"lon":5.39387,"is_reserved":false,"is_disabled":false,"rental_uris":{"android":"levelo://app?vid=d40d9428-a2fe-4f4e-a58b-7e600af87521","ios":"levelo://app?vid=d40d9428-a2fe-4f4e-a58b-7e600af87521"},"vehicle_type_id":"4","last_reported":1736532799,"current_range_meters":38800,"station_id":"ce4bhh92rcd13ifvqfj0","pricing_plan_id":"cebpf4jnsgd1na2vs0mg"},{"bike_id":"f3907bd7-d4e8-44e7-9038-90dfb776fcfa","system_id":"levelo_inurba_marseille","lat":43.30598,"lon":5.39364,"is_reserved":false,"is_disabled":true,"rental_uris":{"android":"levelo://app?vid=f3907bd7-d4e8-44e7-9038-90dfb776fcfa","ios":"levelo://app?vid=f3907bd7-d4e8-44e7-9038-90dfb776fcfa"},"vehicle_type_id":"4","last_reported":1736532799,"current_range_meters":800,"station_id":"ce4bh0p2rcd13ifvqd80","pricing_plan_id":"cebpf4jnsgd1na2vs0mg"},{"bike_id":"cb3fcc9a-db4e-4110-b6dc-a684c13ad5c0","system_id":"levelo_inurba_marseille","lat":43.33436,"lon":5.40078,"is_reserved":false,"is_disabled":false,"rental_uris":{"android":"levelo://app?vid=cb3fcc9a-db4e-4110-b6dc-a684c13ad5c0","ios":"levelo://app?vid=cb3fcc9a-db4e-4110-b6dc-a684c13ad5c0"},"vehicle_type_id":"4","last_reported":1736532799,"current_range_meters":3200,"station_id":"","pricing_plan_id":"cebpf4jnsgd1na2vs0mg"},{"bike_id":"eabaf27b-72f2-4249-9a2c-a32234730eb2","system_id":"levelo_inurba_marseille","lat":43.30754,"lon":5.37876,"is_reserved":false,"is_disabled":false,"rental_uris":{"android":"levelo://app?vid=eabaf27b-72f2-4249-9a2c-a32234730eb2","ios":"levelo://app?vid=eabaf27b-72f2-4249-9a2c-a32234730eb2"},"vehicle_type_id":"4","last_reported":1736532799,"current_range_meters":5600,"station_id":"","pricing_plan_id":"cebpf4jnsgd1na2vs0mg"},{"bike_id":"c749d56f-7857-443c-98ea-890d43273ec3","system_id":"levelo_inurba_marseille","lat":43.31177,"lon":5.38719,"is_reserved":false,"is_disabled":false,"rental_uris":{"android":"levelo://app?vid=c749d56f-7857-443c-98ea-890d43273ec3","ios":"levelo://app?vid=c749d56f-7857-443c-98ea-890d43273ec3"},"vehicle_type_id":"4","last_reported":1736532799,"current_range_meters":32400,"station_id":"ce4bgv12rcd13ifvqcp0","pricing_plan_id":"cebpf4jnsgd1na2vs0mg"},{"bike_id":"c19ac43c-25c8-47c2-9551-7bb58b5b5508","system_id":"levelo_inurba_marseille","lat":43.337561,"lon":5.374573,"is_reserved":false,"is_disabled":false,"rental_uris":{"android":"levelo://app?vid=c19ac43c-25c8-47c2-9551-7bb58b5b5508","ios":"levelo://app?vid=c19ac43c-25c8-47c2-9551-7bb58b5b5508"},"vehicle_type_id":"4","last_reported":1736532799,"current_range_meters":36800,"station_id":"","pricing_plan_id":"cebpf4jnsgd1na2vs0mg"},{"bike_id":"3197a5ce-9bb5-42cc-bd6f-3306363b5040","system_id":"levelo_inurba_marseille","lat":43.29042,"lon":5.37571,"is_reserved":false,"is_disabled":false,"rental_uris":{"android":"levelo://app?vid=3197a5ce-9bb5-42cc-bd6f-3306363b5040","ios":"levelo://app?vid=3197a5ce-9bb5-42cc-bd6f-3306363b5040"},"vehicle_type_id":"4","last_reported":1736532799,"current_range_meters":9600,"station_id":"ce4bh692rcd13ifvqe90","pricing_plan_id":"cebpf4jnsgd1na2vs0mg"},{"bike_id":"5656daa8-5ee0-414b-a982-cd6ae9ed077d","system_id":"levelo_inurba_marseille","lat":43.29574,"lon":5.37522,"is_reserved":false,"is_disabled":true,"rental_uris":{"android":"levelo://app?vid=5656daa8-5ee0-414b-a982-cd6ae9ed077d","ios":"levelo://app?vid=5656daa8-5ee0-414b-a982-cd6ae9ed077d"},"vehicle_type_id":"4","last_reported":1736532799,"current_range_meters":1200,"station_id":"ce4bgh92rcd13ifvqb50","pricing_plan_id":"cebpf4jnsgd1na2vs0mg"},{"bike_id":"42e7528a-7ded-4a89-a8bd-f2b300f381eb","system_id":"levelo_inurba_marseille","lat":43.29268,"lon":5.3845,"is_reserved":false,"is_disabled":false,"rental_uris":{"android":"levelo://app?vid=42e7528a-7ded-4a89-a8bd-f2b300f381eb","ios":"levelo://app?vid=42e7528a-7ded-4a89-a8bd-f2b300f381eb"},"vehicle_type_id":"4","last_reported":1736532799,"current_range_meters":5600,"station_id":"ce4bh692rcd13ifvqea0","pricing_plan_id":"cebpf4jnsgd1na2vs0mg"},