{"last_updated":1740416886,"ttl":60,"version":"2.2","data":{"bikes":[{"bike_id":"22cf2a20-c233-4c2b-b527-0e0d5efb91a5","system_id":"levelo_inurba_marseille","lat":43.276207,"lon":5.361082,"is_reserved":false,"is_disabled":false,"rental_uris":{"android":"levelo://app?vid=22cf2a20-c233-4c2b-b527-0e0d5efb91a5","ios":"levelo://app?vid=22cf2a20-c233-4c2b-b527-0e0d5efb91a5"},"vehicle_type_id":"4","last_reported":1740416886,"current_range_meters":3600,"station_id":"ce4bgj92rcd13ifvqbe0","pricing_plan_id":"cebpf4jnsgd1na2vs0mg"},{"bike_id":"36b86b30-e24c-4a86-847f-edff3732ae9c","system_id":"levelo_inurba_marseille","lat":43.28915,"lon":5.38383,"is_reserved":false,"is_disabled":false,"rental_uris":{"android":"levelo://app?vid=36b86b30-e24c-4a86-847f-edff3732ae9c","ios":"levelo://app?vid=36b86b30-e24c-4a86-847f-edff3732ae9c"},"vehicle_type_id":"4","last_reported":1740416886,"current_range_meters":6400,"station_id":"ce4bh612rcd13ifvqe6g","pricing_plan_id":"cebpf4jnsgd1na2vs0mg"},{"bike_id":"567afc8d-7b31-4781-8e6a-b0fad5382503","system_id":"levelo_inurba_marseille","lat":43.29408,"lon":5.38629,"is_reserved":false,"is_disabled":false,"rental_uris":{"android":"levelo://app?vid=567afc8d-7b31-4781-8e6a-b0fad5382503","ios":"levelo://app?vid=567afc8d-7b31-4781-8e6a-b0fad5382503"},"vehicle_type_id":"4","last_reported":1740416886,"current_range_meters":3200,"station_id":"ce4bh2h2rcd13ifvqdh0","pricing_plan_id":"cebpf4jnsgd1na2vs0mg"},{"bike_id":"1c824817-8cbe-42ac-a0f8-372e4bb1b174","system_id":"levelo_inurba_marseille","lat":43.29251,"lon":5.40901,"is_reserved":false,"is_disabled":false,"rental_uris":{"android":"levelo://app?vid=1c824817-8cbe-42ac-a0f8-372e4bb1b174","ios":"levelo://app?vid=1c824817-8cbe-42ac-a0f8-372e4bb1b174"},"vehicle_type_id":"4","last_reported":1740416886,"current_range_meters":1600,"station_id":"ce4bh192rcd13ifvqdc0","pricing_plan_id":"cebpf4jnsgd1na2vs0mg"},{"bike_id":"60271cf2-7abf-4594-8441-222f06c403e1","system_id":"levelo_inurba_marseille","lat":43.29413,"lon":5.38624,"is_reserved":false,"is_disabled":false,"rental_uris":{"android":"levelo://app?vid=60271cf2-7abf-4594-8441-222f06c403e1","ios":"levelo://app?vid=60271cf2-7abf-4594-8441-222f06c403e1"},"vehicle_type_id":"4","last_reported":1740416886,"current_range_meters":3600,"station_id":"ce4bh2h2rcd13ifvqdh0","pricing_plan_id":"cebpf4jnsgd1na2vs0mg"},{"bike_id":"cec7406a-6644-4772-b69c-e56d58afa920","system_id":"levelo_inurba_marseille","lat":43.29779,"lon":5.39332,"is_reserved":false,"is_disabled":false,"rental_uris":{"android":"levelo://app?vid=cec7406a-6644-4772-b69c-e56d58afa920","ios":"levelo://app?vid=cec7406a-6644-4772-b69c-e56d58afa920"},"vehicle_type_id":"4","last_reported":1740416886,"current_range_meters":3600,"station_id":"chh1huq6cuj3fo74tm60","pricing_plan_id":"cebpf4jnsgd1na2vs0mg"},{"bike_id":"ba309a77-72f8-4421-b53e-c331b78a1e3f","system_id":"levelo_inurba_marseille","lat":43.29537,"lon":5.38551,"is_reserved":false,"is_disabled":false,"rental_uris":{"android":"levelo://app?vid=ba309a77-72f8-4421-b53e-c331b78a1e3f","ios":"levelo://app?vid=ba309a77-72f8-4421-b53e-c331b78a1e3f"},"vehicle_type_id":"4","last_reported":1740416886,"current_range_meters":4800,"station_id":"ce4bgih2rcd13ifvqba0","pricing_plan_id":"cebpf4jnsgd1na2vs0mg"},{"bike_id":"50a03b29-b76f-4fb2-91d7-00d2a75d785c","system_id":"levelo_inurba_marseille","lat":43.29257,"lon":5.37613,"is_reserved":false,"is_disabled":true,"rental_uris":{"android":"levelo://app?vid=50a03b29-b76f-4fb2-91d7-00d2a75d785c","ios":"levelo://app?vid=50a03b29-b76f-4fb2-91d7-00d2a75d785c"},"vehicle_type_id":"4","last_reported":1740416886,"current_range_meters":4400,"station_id":"ce4bgi12rcd13ifvqb80","pricing_plan_id":"cebpf4jnsgd1na2vs0mg"},{"bike_id":"26c4790b-a71b-4d70-bf87-4eb8e5ee6d28","system_id":"levelo_inurba_marseille","lat":43.30946,"lon":5.39028,"is_reserved":false,"is_disabled":false,"rental_uris":{"android":"levelo://app?vid=26c4790b-a71b-4d70-bf87-4eb8e5ee6d28","ios":"levelo://app?vid=26c4790b-a71b-4d70-bf87-4eb8e5ee6d28"},"vehicle_type_id":"4","last_reported":1740416886,"current_range_meters":4400,"station_id":"ce4bgup2rcd13ifvqco0","pricing_plan_id":"cebpf4jnsgd1na2vs0mg"},{"bike_id":"413dc171-4546-4050-9354-c607ae4433bf","system_id":"levelo_inurba_marseille","lat":43.30168,"lon":5.39585,"is_reserved":false,"is_disabled":true,"rental_uris":{"android":"levelo://app?vid=413dc171-4546-4050-9354-c607ae4433bf","ios":"levelo://app?vid=413dc171-4546-4050-9354-c607ae4433bf"},"vehicle_type_id":"4","last_reported":1740416886,"current_range_meters":4800,"station_id":"","pricing_plan_id":"cebpf4jnsgd1na2vs0mg"},{"bike_id":"c31330c5-97ae-498d-ae41-a0306e72b8d1","system_id":"levelo_inurba_marseille","lat":43.28417,"lon":5.37512,"is_reserved":false,"is_disabled":false,"rental_uris":{"android":"levelo://app?vid=c31330c5-97ae-498d-ae41-a0306e72b8d1","ios":"levelo://app?vid=c31330c5-97ae-498d-ae41-a0306e72b8d1"},"vehicle_type_id":"4","last_reported":1740416886,"current_range_meters":4800,"station_id":"ce4bh412rcd13ifvqds0","pricing_plan_id":"cebpf4jnsgd1na2vs0mg"},{"bike_id":"a14b3fb1-2d8d-465c-9be3-0d82b8699fa5","system_id":"levelo_inurba_marseille","lat":43.27998,"lon":5.40021,"is_reserved":false,"is_disabled":false,"rental_uris":{"android":"levelo://app?vid=a14b3fb1-2d8d-465c-9be3-0d82b8699fa5","ios":"levelo://app?vid=a14b3fb1-2d8d-465c-9be3-0d82b8699fa5"},"vehicle_type_id":"4","last_reported":1740416886,"current_range_meters":5600,"station_id":"ce4bho92rcd13ifvqh4g","pricing_plan_id":"cebpf4jnsgd1na2vs0mg"},{"bike_id":"9906d319-71ba-41e2-b34b-e416cab953b8","system_id":"levelo_inurba_marseille","lat":43.26222,"lon":5.40446,"is_reserved":false,"is_disabled":false,"rental_uris":{"android":"levelo://app?vid=9906d319-71ba-41e2-b34b-e416cab953b8","ios":"levelo://app?vid=9906d319-71ba-41e2-b34b-e416cab953b8"},"vehicle_type_id":"4","last_reported":1740416886,"current_range_meters":5600,"station_id":"ce4bhmh2rcd13ifvqgmg","pricing_plan_id":"cebpf4jnsgd1na2vs0mg"},{"bike_id":"27699fa5-042b-4659-b2f6-8c2d1453966a","system_id":"levelo_inurba_marseille","lat":43.31992,"lon":5.38163,"is_reserved":false,"is_disabled":false,"rental_uris":{"android":"levelo://app?vid=27699fa5-042b-4659-b2f6-8c2d1453966a","ios":"levelo://app?vid=27699fa5-042b-4659-b2f6-8c2d1453966a"},"vehicle_type_id":"4","last_reported":1740416886,"current_range_meters":6400,"station_id":"ce4bhr12rcd13ifvqhpg","pricing_plan_id":"cebpf4jnsgd1na2vs0mg"},{"bike_id":"cd8dd8a3-b879-465a-be79-517e301a0435","system_id":"levelo_inurba_marseille","lat":43.28367,"lon":5.38646,"is_reserved":false,"is_disabled":false,"rental_uris":{"android":"levelo://app?vid=cd8dd8a3-b879-465a-be79-517e301a0435","ios":"levelo://app?vid=cd8dd8a3-b879-465a-be79-517e301a0435"},"vehicle_type_id":"4","last_reported":1740416886,"current_range_meters":6400,"station_id":"ce4bh492rcd13ifvqdvg","pricing_plan_id":"cebpf4jnsgd1na2vs0mg"},{"bike_id":"0e6b43f9-ac9a-4646-a269-02ebba163a48","system_id":"levelo_inurba_marseille","lat":43.294172,"lon":5.386187,"is_reserved":false,"is_disabled":false,"rental_uris":{"android":"levelo://app?vid=0e6b43f9-ac9a-4646-a269-02ebba163a48","ios":"levelo://app?vid=0e6b43f9-ac9a-4646-a269-02ebba163a48"},"vehicle_type_id":"4","last_reported":1740416886,"current_range_meters":3600,"station_id":"ce4bh092rcd13ifvqd30","pricing_plan_id":"cebpf4jnsgd1na2vs0mg"},{"bike_id":"94db924d-da60-412b-bf45-4b88180b3d33","system_id":"levelo_inurba_marseille","lat":43.28161,"lon":5.42635,"is_reserved":false,"is_disabled":false,"rental_uris":{"android":"levelo://app?vid=94db924d-da60-412b-bf45-4b88180b3d33","ios":"levelo://app?vid=94db924d-da60-412b-bf45-4b88180b3d33"},"vehicle_type_id":"4","last_reported":1740416886,"current_range_meters":6400,"station_id":"ce4bhnh2rcd13ifvqgug","pricing_plan_id":"cebpf4jnsgd1na2vs0mg"},{"bike_id":"cf777730-a31e-4b67-a1bf-a15efcc3ddf7","system_id":"levelo_inurba_marseille","lat":43.286101,"lon":5.351074,"is_reserved":false,"is_disabled":false,"rental_uris":{"android":"levelo://app?vid=cf777730-a31e-4b67-a1bf-a15efcc3ddf7","ios":"levelo://app?vid=cf777730-a31e-4b67-a1bf-a15efcc3ddf7"},"vehicle_type_id":"4","last_reported":1740416886,"current_range_meters":6400,"station_id":"ce4bhch2rcd13ifvqeug","pricing_plan_id":"cebpf4jnsgd1na2vs0mg"},{"bike_id":"d9568535-deea-4b2e-b21c-68057ec27ba8","system_id":"levelo_inurba_marseille","lat":43.30603,"lon":5.37199,"is_reserved":false,"is_disabled":false,"rental_uris":{"android":"levelo://app?vid=d9568535-deea-4b2e-b21c-68057ec27ba8","ios":"levelo://app?vid=d9568535-deea-4b2e-b21c-68057ec27ba8"},"vehicle_type_id":"4","last_reported":1740416886,"current_range_meters":6400,"station_id":"ce4bgqh2rcd13ifvqc4g","pricing_plan_id":"cebpf4jnsgd1na2vs0mg"},{"bike_id":"16a64962-c840-403e-8215-260ce50518b7","system_id":"levelo_inurba_marseille","lat":43.28159,"lon":5.42636,"is_reserved":false,"is_disabled":false,"rental_uris":{"android":"levelo://app?vid=16a64962-c840-403e-8215-260ce50518b7","ios":"levelo://app?vid=16a64962-c840-403e-8215-260ce50518b7"},"vehicle_type_id":"4","last_reported":1740416886,"current_range_meters":4800,"station_id":"ce4bhnh2rcd13ifvqgug","pricing_plan_id":"cebpf4jnsgd1na2vs0mg"},{"bike_id":"3095385b-d4a0-4cfe-b50e-c3aacbb0c915","system_id":"levelo_inurba_marseille","lat":43.26038,"lon":5.37559,"is_reserved":false,"is_disabled":false,"rental_uris":{"android":"levelo://app?vid=3095385b-d4a0-4cfe-b50e-c3aacbb0c915","ios":"levelo://app?vid=3095385b-d4a0-4cfe-b50e-c3aacbb0c915"},"vehicle_type_id":"4","last_reported":1740416886,"current_range_meters":7200,"station_id":"ce4bhgh2rcd13ifvqfa0","pricing_plan_id":"cebpf4jnsgd1na2vs0mg"},{"bike_id":"5104cd01-ef7f-473d-89b0-2c99b12f18d1","system_id":"levelo_inurba_marseille","lat":43.28704,"lon":5.37392,"is_reserved":false,"is_disabled":false,"rental_uris":{"android":"levelo://app?vid=5104cd01-ef7f-473d-89b0-2c99b12f18d1","ios":"levelo://app?vid=5104cd01-ef7f-473d-89b0-2c99b12f18d1"},"vehicle_type_id":"4","last_reported":1740416886,"current_range_meters":7200,"station_id":"ce4bh3p2rcd13ifvqdq0","pricing_plan_id":"cebpf4jnsgd1na2vs0mg"},{"bike_id":"1b466ab1-4a88-46b7-a933-e46596c5f952","system_id":"levelo_inurba_marseille","lat":43.29607,"lon":5.40615,"is_reserved":false,"is_disabled":false,"rental_uris":{"android":"levelo://app?vid=1b466ab1-4a88-46b7-a933-e46596c5f952","ios":"levelo://app?vid=1b466ab1-4a88-46b7-a933-e46596c5f952"},"vehicle_type_id":"4","last_reported":1740416886,"current_range_meters":4800,"station_id":"ce4bh0h2rcd13ifvqd60","pricing_plan_id":"cebpf4jnsgd1na2vs0mg"},{"bike_id":"30837410-fa04-4e7b-beea-36ee971273aa","system_id":"levelo_inurba_marseille","lat":43.29781,"lon":5.39339,"is_reserved":false,"is_disabled":false,"rental_uris":{"android":"levelo://app?vid=30837410-fa04-4e7b-beea-36ee971273aa","ios":"levelo://app?vid=30837410-fa04-4e7b-beea-36ee971273aa"},"vehicle_type_id":"4","last_reported":1740416886,"current_range_meters":7200,"station_id":"chh1huq6cuj3fo74tm60","pricing_plan_id":"cebpf4jnsgd1na2vs0mg"},{"bike_id":"25d011f9-7e45-49a9-a4db-7831e86625a8","system_id":"levelo_inurba_marseille","lat":43.28082,"lon":5.39659,"is_reserved":false,"is_disabled":false,"rental_uris":{"android":"levelo://app?vid=25d011f9-7e45-49a9-a4db-7831e86625a8","ios":"levelo://app?vid=25d011f9-7e45-49a9-a4db-7831e86625a8"},"vehicle_type_id":"4","last_reported":1740416886,"current_range_meters":7200,"station_id":"ce4bho12rcd13ifvqh2g","pricing_plan_id":"cebpf4jnsgd1na2vs0mg"},{"bike_id":"c1a7b9fc-f9d9-43fe-a6d2-2df1526ca53b","system_id":"levelo_inurba_marseille","lat":43.25565,"lon":5.38232,"is_reserved":false,"is_disabled":false,"rental_uris":{"android":"levelo://app?vid=c1a7b9fc-f9d9-43fe-a6d2-2df1526ca53b","ios":"levelo://app?vid=c1a7b9fc-f9d9-43fe-a6d2-2df1526ca53b"},"vehicle_type_id":"4","last_reported":1740416886,"current_range_meters":7200,"station_id":"ce4bhih2rcd13ifvqfs0","pricing_plan_id":"cebpf4jnsgd1na2vs0mg"},{"bike_id":"7f511d4c-3679-4649-9e3c-08f174d59879","system_id":"levelo_inurba_marseille","lat":43.30412,"lon":5.41289,"is_reserved":false,"is_disabled":false,"rental_uris":{"android":"levelo://app?vid=7f511d4c-3679-4649-9e3c-08f174d59879","ios":"levelo://app?vid=7f511d4c-3679-4649-9e3c-08f174d59879"},"vehicle_type_id":"4","last_reported":1740416886,"current_range_meters":7200,"station_id":"ce4bhop2rcd13ifvqh8g","pricing_plan_id":"cebpf4jnsgd1na2vs0mg"},{"bike_id":"0138c2d1-b24e-4b37-a0b5-8434c375e239","system_id":"levelo_inurba_marseille","lat":43.32368,"lon":5.38881,"is_reserved":false,"is_disabled":false,"rental_uris":{"android":"levelo://app?vid=0138c2d1-b24e-4b37-a0b5-8434c375e239","ios":"levelo://app?vid=0138c2d1-b24e-4b37-a0b5-8434c375e239"},"vehicle_type_id":"4","last_reported":1740416886,"current_range_meters":1600,"station_id":"ce4bhqp2rcd13ifvqhog","pricing_plan_id":"cebpf4jnsgd1na2vs0mg"},{"bike_id":"cd5c1ea1-9bdc-4c38-b0ed-adaf22fb8a20","system_id":"levelo_inurba_marseille","lat":43.283598,"lon":5.386633,"is_reserved":false,"is_disabled":false,"rental_uris":{"android":"levelo://app?vid=cd5c1ea1-9bdc-4c38-b0ed-adaf22fb8a20","ios":"levelo://app?vid=cd5c1ea1-9bdc-4c38-b0ed-adaf22fb8a20"},"vehicle_type_id":"4","last_reported":1740416886,"current_range_meters":8000,"station_id":"ce4bh3h2rcd13ifvqdn0","pricing_plan_id":"cebpf4jnsgd1na2vs0mg"},{"bike_id":"dc0a924c-b307-4cea-a1c1-770f79dc3f83","system_id":"levelo_inurba_marseille","lat":43.27678,"lon":5.38879,"is_reserved":false,"is_disabled":false,"rental_uris":{"android":"levelo://app?vid=dc0a924c-b307-4cea-a1c1-770f79dc3f83","ios":"levelo://app?vid=dc0a924c-b307-4cea-a1c1-770f79dc3f83"},"vehicle_type_id":"4","last_reported":1740416886,"current_range_meters":8000,"station_id":"ce4bhi12rcd13ifvqfo0","pricing_plan_id":"cebpf4jnsgd1na2vs0mg"},{"bike_id":"3f89e495-3275-4079-8dc4-5ae95b75f822","system_id":"levelo_inurba_marseille","lat":43.28102,"lon":5.37841,"is_reserved":false,"is_disabled":true,"rental_uris":{"android":"levelo://app?vid=3f89e495-3275-4079-8dc4-5ae95b75f822","ios":"levelo://app?vid=3f89e495-3275-4079-8dc4-5ae95b75f822"},"vehicle_type_id":"4","last_reported":1740416886,"current_range_meters":8400,"station_id":"ce4bha12rcd13ifvqee0","pricing_plan_id":"cebpf4jnsgd1na2vs0mg"},{"bike_id":"33fdafc3-5446-4951-a6ab-4353a5deaee8","system_id":"levelo_inurba_marseille","lat":43.26938,"lon":5.40256,"is_reserved":false,"is_disabled":false,"rental_uris":{"android":"levelo://app?vid=33fdafc3-5446-4951-a6ab-4353a5deaee8","ios":"levelo://app?vid=33fdafc3-5446-4951-a6ab-4353a5deaee8"},"vehicle_type_id":"4","last_reported":1740416886,"current_range_meters":8000,"station_id":"cjm6bp8fraef2m0cb0m0","pricing_plan_id":"cebpf4jnsgd1na2vs0mg"},{"bike_id":"bb93516f-cef0-4c2a-8f96-d19490ddd056","system_id":"levelo_inurba_marseille","lat":43.27174,"lon":5.40996,"is_reserved":false,"is_disabled":false,"rental_uris":{"android":"levelo://app?vid=bb93516f-cef0-4c2a-8f96-d19490ddd056","ios":"levelo://app?vid=bb93516f-cef0-4c2a-8f96-d19490ddd056"},"vehicle_type_id":"4","last_reported":1740416886,"current_range_meters":8400,"station_id":"ce4bhl12rcd13ifvqgf0","pricing_plan_id":"cebpf4jnsgd1na2vs0mg"},{"bike_id":"5bca1cb7-97f3-4e81-8b33-3927b81c3f6d","system_id":"levelo_inurba_marseille","lat":43.29139,"lon":5.37969,"is_reserved":false,"is_disabled":false,"rental_uris":{"android":"levelo://app?vid=5bca1cb7-97f3-4e81-8b33-3927b81c3f6d","ios":"levelo://app?vid=5bca1cb7-97f3-4e81-8b33-3927b81c3f6d"},"vehicle_type_id":"4","last_reported":1740416886,"current_range_meters":8400,"station_id":"","pricing_plan_id":"cebpf4jnsgd1na2vs0mg"},{"bike_id":"92612a50-ca9d-4f20-9e47-88f08b7e6808","system_id":"levelo_inurba_marseille","lat":43.28151,"lon":5.42654,"is_reserved":false,"is_disabled":false,"rental_uris":{"android":"levelo://app?vid=92612a50-ca9d-4f20-9e47-88f08b7e6808","ios":"levelo://app?vid=92612a50-ca9d-4f20-9e47-88f08b7e6808"},"vehicle_type_id":"4","last_reported":1740416886,"current_range_meters":8800,"station_id":"ce4bhnh2rcd13ifvqgug","pricing_plan_id":"cebpf4jnsgd1na2vs0mg"},{"bike_id":"d5a5b1cf-8def-4209-b638-317902f7a0c1","system_id":"levelo_inurba_marseille","lat":43.27994,"lon":5.40021,"is_reserved":false,"is_disabled":false,"rental_uris":{"android":"levelo://app?vid=d5a5b1cf-8def-4209-b638-317902f7a0c1","ios":"levelo://app?vid=d5a5b1cf-8def-4209-b638-317902f7a0c1"},"vehicle_type_id":"4","last_reported":1740416886,"current_range_meters":8400,"station_id":"ce4bho92rcd13ifvqh4g","pricing_plan_id":"cebpf4jnsgd1na2vs0mg"},{"bike_id":"2c325d15-acb4-4d45-8e7f-02538547190c","system_id":"levelo_inurba_marseille","lat":43.29257,"lon":5.40904,"is_reserved":false,"is_disabled":false,"rental_uris":{"android":"levelo://app?vid=2c325d15-acb4-4d45-8e7f-02538547190c","ios":"levelo://app?vid=2c325d15-acb4-4d45-8e7f-02538547190c"},"vehicle_type_id":"4","last_reported":1740416886,"current_range_meters":8400,"station_id":"ce4bh192rcd13ifvqdc0","pricing_plan_id":"cebpf4jnsgd1na2vs0mg"},{"bike_id":"6449ff9a-2e69-4061-8d31-6f2d288447f4","system_id":"levelo_inurba_marseille","lat":43.29897,"lon":5.43671,"is_reserved":false,"is_disabled":false,"rental_uris":{"android":"levelo://app?vid=6449ff9a-2e69-4061-8d31-6f2d288447f4","ios":"levelo://app?vid=6449ff9a-2e69-4061-8d31-6f2d288447f4"},"vehicle_type_id":"4","last_reported":1740416886,"current_range_meters":8800,"station_id":"ce4bhpp2rcd13ifvqhfg","pricing_plan_id":"cebpf4jnsgd1na2vs0mg"},{"bike_id":"7764cb33-5426-4b94-909c-ac480986db17","system_id":"levelo_inurba_marseille","lat":43.29333,"lon":5.37227,"is_reserved":false,"is_disabled":false,"rental_uris":{"android":"levelo://app?vid=7764cb33-5426-4b94-909c-ac480986db17","ios":"levelo://app?vid=7764cb33-5426-4b94-909c-ac480986db17"},"vehicle_type_id":"4","last_reported":1740416886,"current_range_meters":8400,"station_id":"ce4bgh92rcd13ifvqb40","pricing_plan_id":"cebpf4jnsgd1na2vs0mg"},{"bike_id":"41bc532d-89de-46c5-a6de-2b6cf13ff2a2","system_id":"levelo_inurba_marseille","lat":43.29874,"lon":5.39742,"is_reserved":false,"is_disabled":false,"rental_uris":{"android":"levelo://app?vid=41bc532d-89de-46c5-a6de-2b6cf13ff2a2","ios":"levelo://app?vid=41bc532d-89de-46c5-a6de-2b6cf13ff2a2"},"vehicle_type_id":"4","last_reported":1740416886,"current_range_meters":8000,"station_id":"ce4bh0h2rcd13ifvqd50","pricing_plan_id":"cebpf4jnsgd1na2vs0mg"},{"bike_id":"c9753de8-be4a-44d0-98c9-3aec09e55963","system_id":"levelo_inurba_marseille","lat":43.25108,"lon":5.40314,"is_reserved":false,"is_disabled":false,"rental_uris":{"android":"levelo://app?vid=c9753de8-be4a-44d0-98c9-3aec09e55963","ios":"levelo://app?vid=c9753de8-be4a-44d0-98c9-3aec09e55963"},"vehicle_type_id":"4","last_reported":1740416886,"current_range_meters":8400,"station_id":"ce4bhlh2rcd13ifvqgig","pricing_plan_id":"cebpf4jnsgd1na2vs0mg"},{"bike_id":"bd1c9204-109d-453d-a655-cc2878aad0c5","system_id":"levelo_inurba_marseille","lat":43.29905,"lon":5.43668,"is_reserved":false,"is_disabled":false,"rental_uris":{"android":"levelo://app?vid=bd1c9204-109d-453d-a655-cc2878aad0c5","ios":"levelo://app?vid=bd1c9204-109d-453d-a655-cc2878aad0c5"},"vehicle_type_id":"4","last_reported":1740416886,"current_range_meters":8800,"station_id":"ce4bhpp2rcd13ifvqhfg","pricing_plan_id":"cebpf4jnsgd1na2vs0mg"},{"bike_id":"f80a79d6-1c74-4e76-8ed2-23203ade1d35","system_id":"levelo_inurba_marseille","lat":43.27811,"lon":5.40719,"is_reserved":false,"is_disabled":false,"rental_uris":{"android":"levelo://app?vid=f80a79d6-1c74-4e76-8ed2-23203ade1d35","ios":"levelo://app?vid=f80a79d6-1c74-4e76-8ed2-23203ade1d35"},"vehicle_type_id":"4","last_reported":1740416886,"current_range_meters":9200,"station_id":"ce4bhnh2rcd13ifvqgtg","pricing_plan_id":"cebpf4jnsgd1na2vs0mg"},{"bike_id":"b21c77a5-e540-4cda-8ea5-f87eb6cea310","system_id":"levelo_inurba_marseille","lat":43.29299,"lon":5.3744,"is_reserved":false,"is_disabled":true,"rental_uris":{"android":"levelo://app?vid=b21c77a5-e540-4cda-8ea5-f87eb6cea310","ios":"levelo://app?vid=b21c77a5-e540-4cda-8ea5-f87eb6cea310"},"vehicle_type_id":"4","last_reported":1740416886,"current_range_meters":8800,"station_id":"ce4bgi12rcd13ifvqb70","pricing_plan_id":"cebpf4jnsgd1na2vs0mg"},{"bike_id":"4f917ef3-380d-43f1-aeec-2d7ada25c502","system_id":"levelo_inurba_marseille","lat":43.29708,"lon":5.37694,"is_reserved":false,"is_disabled":false,"rental_uris":{"android":"levelo://app?vid=4f917ef3-380d-43f1-aeec-2d7ada25c502","ios":"levelo://app?vid=4f917ef3-380d-43f1-aeec-2d7ada25c502"},"vehicle_type_id":"4","last_reported":1740416886,"current_range_meters":8800,"station_id":"ce4bgkh2rcd13ifvqbl0","pricing_plan_id":"cebpf4jnsgd1na2vs0mg"},{"bike_id":"7e26a3e9-4c57-4918-aa17-698a0ce4ac78","system_id":"levelo_inurba_marseille","lat":43.30663,"lon":5.37541,"is_reserved":false,"is_disabled":false,"rental_uris":{"android":"levelo://app?vid=7e26a3e9-4c57-4918-aa17-698a0ce4ac78","ios":"levelo://app?vid=7e26a3e9-4c57-4918-aa17-698a0ce4ac78"},"vehicle_type_id":"4","last_reported":1740416886,"current_range_meters":8800,"station_id":"","pricing_plan_id":"cebpf4jnsgd1na2vs0mg"},{"bike_id":"17da1feb-9abe-4e1d-9544-5a842d8f1b8a","system_id":"levelo_inurba_marseille","lat":43.27809,"lon":5.40722,"is_reserved":false,"is_disabled":false,"rental_uris":{"android":"levelo://app?vid=17da1feb-9abe-4e1d-9544-5a842d8f1b8a","ios":"levelo://app?vid=17da1feb-9abe-4e1d-9544-5a842d8f1b8a"},"vehicle_type_id":"4","last_reported":1740416886,"current_range_meters":8000,"station_id":"ce4bhnh2rcd13ifvqgtg","pricing_plan_id":"cebpf4jnsgd1na2vs0mg"},{"bike_id":"87bbda1f-0db0-4d79-a046-a87b5e94995a","system_id":"levelo_inurba_marseille","lat":43.2416,"lon":5.36408,"is_reserved":false,"is_disabled":false,"rental_uris":{"android":"levelo://app?vid=87bbda1f-0db0-4d79-a046-a87b5e94995a","ios":"levelo://app?vid=87bbda1f-0db0-4d79-a046-a87b5e94995a"},"vehicle_type_id":"4","last_reported":1740416886,"current_range_meters":9200,"station_id":"cpo36qri1sfpv3e86is0","pricing_plan_id":"cebpf4jnsgd1na2vs0mg"},{"bike_id":"5f618fd8-4c1d-4b98-9d96-80413e9c5e2b","system_id":"levelo_inurba_marseille","lat":43.32356,"lon":5.40594,"is_reserved":false,"is_disabled":true,"rental_uris":{"android":"levelo://app?vid=5f618fd8-4c1d-4b98-9d96-80413e9c5e2b","ios":"levelo://app?vid=5f618fd8-4c1d-4b98-9d96-80413e9c5e2b"},"vehicle_type_id":"4","last_reported":1740416886,"current_range_meters":8000,"station_id":"ce4bhq92rcd13ifvqhjg","pricing_plan_id":"cebpf4jnsgd1na2vs0mg"},{"bike_id":"6b766a2d-7556-4a59-923d-af7387ae79d0","system_id":"levelo_inurba_marseille","lat":43.27427,"lon":5.39425,"is_reserved":false,"is_disabled":false,"rental_uris":{"android":"levelo://app?vid=6b766a2d-7556-4a59-923d-af7387ae79d0","ios":"levelo://app?vid=6b766a2d-7556-4a59-923d-af7387ae79d0"},"vehicle_type_id":"4","last_reported":1740416886,"current_range_meters":8000,"station_id":"ce4bhdp2rcd13ifvqf20","pricing_plan_id":"cebpf4jnsgd1na2vs0mg"},{"bike_id":"4c676afd-aabb-48c7-9c62-f89205cd3f4a","system_id":"levelo_inurba_marseille","lat":43.2782,"lon":5.40709,"is_reserved":false,"is_disabled":false,"rental_uris":{"android":"levelo://app?vid=4c676afd-aabb-48c7-9c62-f89205cd3f4a","ios":"levelo://app?vid=4c676afd-aabb-48c7-9c62-f89205cd3f4a"},"vehicle_type_id":"4","last_reported":1740416886,"current_range_meters":9200,"station_id":"ce4bhnh2rcd13ifvqgtg","pricing_plan_id":"cebpf4jnsgd1na2vs0mg"},{"bike_id":"1bd16171-6d1b-43ac-be98-603123df3bc6","system_id":"levelo_inurba_marseille","lat":43.28,"lon":5.40004,"is_reserved":false,"is_disabled":false,"rental_uris":{"android":"levelo://app?vid=1bd16171-6d1b-43ac-be98-603123df3bc6","ios":"levelo://app?vid=1bd16171-6d1b-43ac-be98-603123df3bc6"},"vehicle_type_id":"4","last_reported":1740416886,"current_range_meters":8800,"station_id":"ce4bho92rcd13ifvqh4g","pricing_plan_id":"cebpf4jnsgd1na2vs0mg"},{"bike_id":"13491213-052e-4cb3-8aca-a80fb82d2c4b","system_id":"levelo_inurba_marseille","lat":43.28493,"lon":5.38424,"is_reserved":false,"is_disabled":false,"rental_uris":{"android":"levelo://app?vid=13491213-052e-4cb3-8aca-a80fb82d2c4b","ios":"levelo://app?vid=13491213-052e-4cb3-8aca-a80fb82d2c4b"},"vehicle_type_id":"4","last_reported":1740416886,"current_range_meters":9600,"station_id":"ce4bh512rcd13ifvqe3g","pricing_plan_id":"cebpf4jnsgd1na2vs0mg"},{"bike_id":"2f27be1b-5998-425e-bfe3-7c34ec43118e","system_id":"levelo_inurba_marseille","lat":43.305393,"lon":5.36547,"is_reserved":false,"is_disabled":false,"rental_uris":{"android":"levelo://app?vid=2f27be1b-5998-425e-bfe3-7c34ec43118e","ios":"levelo://app?vid=2f27be1b-5998-425e-bfe3-7c34ec43118e"},"vehicle_type_id":"4","last_reported":1740416886,"current_range_meters":9600,"station_id":"ce4bgs12rcd13ifvqcag","pricing_plan_id":"cebpf4jnsgd1na2vs0mg"},{"bike_id":"216bb77f-c769-4011-8970-e66d63254aa2","system_id":"levelo_inurba_marseille","lat":43.29897,"lon":5.37843,"is_reserved":false,"is_disabled":false,"rental_uris":{"android":"levelo://app?vid=216bb77f-c769-4011-8970-e66d63254aa2","ios":"levelo://app?vid=216bb77f-c769-4011-8970-e66d63254aa2"},"vehicle_type_id":"4","last_reported":1740416886,"current_range_meters":9600,"station_id":"","pricing_plan_id":"cebpf4jnsgd1na2vs0mg"},{"bike_id":"ca93cda7-8664-403b-923b-6b3fa53931d7","system_id":"levelo_inurba_marseille","lat":43.31689,"lon":5.40472,"is_reserved":false,"is_disabled":false,"rental_uris":{"android":"levelo://app?vid=ca93cda7-8664-403b-923b-6b3fa53931d7","ios":"levelo://app?vid=ca93cda7-8664-403b-923b-6b3fa53931d7"},"vehicle_type_id":"4","last_reported":1740416886,"current_range_meters":9600,"station_id":"ce4bh012rcd13ifvqd00","pricing_plan_id":"cebpf4jnsgd1na2vs0mg"},{"bike_id":"f9ce514c-1078-46dc-b4fc-748ea4f1d5b6","system_id":"levelo_inurba_marseille","lat":43.29631,"lon":5.40605,"is_reserved":false,"is_disabled":false,"rental_uris":{"android":"levelo://app?vid=f9ce514c-1078-46dc-b4fc-748ea4f1d5b6","ios":"levelo://app?vid=f9ce514c-1078-46dc-b4fc-748ea4f1d5b6"},"vehicle_type_id":"4","last_reported":1740416886,"current_range_meters":10000,"station_id":"ce4bh0h2rcd13ifvqd60","pricing_plan_id":"cebpf4jnsgd1na2vs0mg"},{"bike_id":"fce4390c-85d6-49d1-83a8-cd1a7d0e0795","system_id":"levelo_inurba_marseille","lat":43.29005,"lon":5.35607,"is_reserved":false,"is_disabled":false,"rental_uris":{"android":"levelo://app?vid=fce4390c-85d6-49d1-83a8-cd1a7d0e0795","ios":"levelo://app?vid=fce4390c-85d6-49d1-83a8-cd1a7d0e0795"},"vehicle_type_id":"4","last_reported":1740416886,"current_range_meters":9200,"station_id":"ce4bhb92rcd13ifvqen0","pricing_plan_id":"cebpf4jnsgd1na2vs0mg"},{"bike_id":"5b59a4bc-b28e-4ca0-b490-9361b75beff5","system_id":"levelo_inurba_marseille","lat":43.28706,"lon":5.37398,"is_reserved":false,"is_disabled":false,"rental_uris":{"android":"levelo://app?vid=5b59a4bc-b28e-4ca0-b490-9361b75beff5","ios":"levelo://app?vid=5b59a4bc-b28e-4ca0-b490-9361b75beff5"},"vehicle_type_id":"4","last_reported":1740416886,"current_range_meters":9600,"station_id":"ce4bh3p2rcd13ifvqdq0","pricing_plan_id":"cebpf4jnsgd1na2vs0mg"},{"bike_id":"73f98104-d216-4e82-b499-5ee1d7648ac2","system_id":"levelo_inurba_marseille","lat":43.30359,"lon":5.41867,"is_reserved":false,"is_disabled":false,"rental_uris":{"android":"levelo://app?vid=73f98104-d216-4e82-b499-5ee1d7648ac2","ios":"levelo://app?vid=73f98104-d216-4e82-b499-5ee1d7648ac2"},"vehicle_type_id":"4","last_reported":1740416886,"current_range_meters":9600,"station_id":"ce4bhop2rcd13ifvqh7g","pricing_plan_id":"cebpf4jnsgd1na2vs0mg"},{"bike_id":"8ff45032-200a-4827-a59e-f11a6731bea9","system_id":"levelo_inurba_marseille","lat":43.27923,"lon":5.3957,"is_reserved":false,"is_disabled":false,"rental_uris":{"android":"levelo://app?vid=8ff45032-200a-4827-a59e-f11a6731bea9","ios":"levelo://app?vid=8ff45032-200a-4827-a59e-f11a6731bea9"},"vehicle_type_id":"4","last_reported":1740416886,"current_range_meters":9600,"station_id":"ce4bhf92rcd13ifvqf40","pricing_plan_id":"cebpf4jnsgd1na2vs0mg"},{"bike_id":"bb4761a0-50c4-4b1b-83f9-45fb89331c4e","system_id":"levelo_inurba_marseille","lat":43.30799,"lon":5.43525,"is_reserved":false,"is_disabled":false,"rental_uris":{"android":"levelo://app?vid=bb4761a0-50c4-4b1b-83f9-45fb89331c4e","ios":"levelo://app?vid=bb4761a0-50c4-4b1b-83f9-45fb89331c4e"},"vehicle_type_id":"4","last_reported":1740416886,"current_range_meters":10000,"station_id":"ce4bhph2rcd13ifvqheg","pricing_plan_id":"cebpf4jnsgd1na2vs0mg"},{"bike_id":"d1a43ab3-ce5c-40ce-aef7-1889fc5c0bcf","system_id":"levelo_inurba_marseille","lat":43.29715,"lon":5.36613,"is_reserved":false,"is_disabled":false,"rental_uris":{"android":"levelo://app?vid=d1a43ab3-ce5c-40ce-aef7-1889fc5c0bcf","ios":"levelo://app?vid=d1a43ab3-ce5c-40ce-aef7-1889fc5c0bcf"},"vehicle_type_id":"4","last_reported":1740416886,"current_range_meters":10000,"station_id":"ce4bgn12rcd13ifvqbt0","pricing_plan_id":"cebpf4jnsgd1na2vs0mg"},{"bike_id":"734f28fb-4a9a-40a3-9d66-f28f686ab40d","system_id":"levelo_inurba_marseille","lat":43.27943,"lon":5.41042,"is_reserved":false,"is_disabled":false,"rental_uris":{"android":"levelo://app?vid=734f28fb-4a9a-40a3-9d66-f28f686ab40d","ios":"levelo://app?vid=734f28fb-4a9a-40a3-9d66-f28f686ab40d"},"vehicle_type_id":"4","last_reported":1740416886,"current_range_meters":10800,"station_id":"ce4bhnp2rcd13ifvqh0g","pricing_plan_id":"cebpf4jnsgd1na2vs0mg"},{"bike_id":"406b7bc1-ee87-4c62-982c-380749e00457","system_id":"levelo_inurba_marseille","lat":43.28696,"lon":5.37399,"is_reserved":false,"is_disabled":false,"rental_uris":{"android":"levelo://app?vid=406b7bc1-ee87-4c62-982c-380749e00457","ios":"levelo://app?vid=406b7bc1-ee87-4c62-982c-380749e00457"},"vehicle_type_id":"4","last_reported":1740416886,"current_range_meters":10000,"station_id":"ce4bh3p2rcd13ifvqdq0","pricing_plan_id":"cebpf4jnsgd1na2vs0mg"},{"bike_id":"0aa262c1-4d86-427b-a94d-dae9276155b8","system_id":"levelo_inurba_marseille","lat":43.30929,"lon":5.4014,"is_reserved":false,"is_disabled":false,"rental_uris":{"android":"levelo://app?vid=0aa262c1-4d86-427b-a94d-dae9276155b8","ios":"levelo://app?vid=0aa262c1-4d86-427b-a94d-dae9276155b8"},"vehicle_type_id":"4","last_reported":1740416886,"current_range_meters":9600,"station_id":"ce4bgvp2rcd13ifvqct0","pricing_plan_id":"cebpf4jnsgd1na2vs0mg"},{"bike_id":"2c79d0e9-b47c-4e9e-90d0-9d0bb000588f","system_id":"levelo_inurba_marseille","lat":43.29515,"lon":5.39413,"is_reserved":false,"is_disabled":false,"rental_uris":{"android":"levelo://app?vid=2c79d0e9-b47c-4e9e-90d0-9d0bb000588f","ios":"levelo://app?vid=2c79d0e9-b47c-4e9e-90d0-9d0bb000588f"},"vehicle_type_id":"4","last_reported":1740416886,"current_range_meters":10000,"station_id":"ce4bh292rcd13ifvqdf0","pricing_plan_id":"cebpf4jnsgd1na2vs0mg"},{"bike_id":"c901caf9-df01-4766-9c46-292cc1e0f71c","system_id":"levelo_inurba_marseille","lat":43.25815,"lon":5.39426,"is_reserved":false,"is_disabled":false,"rental_uris":{"android":"levelo://app?vid=c901caf9-df01-4766-9c46-292cc1e0f71c","ios":"levelo://app?vid=c901caf9-df01-4766-9c46-292cc1e0f71c"},"vehicle_type_id":"4","last_reported":1740416886,"current_range_meters":14800,"station_id":"ce4bhip2rcd13ifvqft0","pricing_plan_id":"cebpf4jnsgd1na2vs0mg"},{"bike_id":"a090b4ca-e4f9-44c8-9458-050ddd28baeb","system_id":"levelo_inurba_marseille","lat":43.29713,"lon":5.36603,"is_reserved":false,"is_disabled":false,"rental_uris":{"android":"levelo://app?vid=a090b4ca-e4f9-44c8-9458-050ddd28baeb","ios":"levelo://app?vid=a090b4ca-e4f9-44c8-9458-050ddd28baeb"},"vehicle_type_id":"4","last_reported":1740416886,"current_range_meters":10800,"station_id":"ce4bgn12rcd13ifvqbt0","pricing_plan_id":"cebpf4jnsgd1na2vs0mg"},{"bike_id":"fafbf55f-8c8d-4d7d-8ad5-72ea0693ee68","system_id":"levelo_inurba_marseille","lat":43.31329,"lon":5.39695,"is_reserved":false,"is_disabled":false,"rental_uris":{"android":"levelo://app?vid=fafbf55f-8c8d-4d7d-8ad5-72ea0693ee68","ios":"levelo://app?vid=fafbf55f-8c8d-4d7d-8ad5-72ea0693ee68"},"vehicle_type_id":"4","last_reported":1740416886,"current_range_meters":12800,"station_id":"ce4bgvp2rcd13ifvqcu0","pricing_plan_id":"cebpf4jnsgd1na2vs0mg"},{"bike_id":"e58731b8-1aec-46b1-8c29-20c7c63187c0","system_id":"levelo_inurba_marseille","lat":43.30304,"lon":5.36899,"is_reserved":false,"is_disabled":false,"rental_uris":{"android":"levelo://app?vid=e58731b8-1aec-46b1-8c29-20c7c63187c0","ios":"levelo://app?vid=e58731b8-1aec-46b1-8c29-20c7c63187c0"},"vehicle_type_id":"4","last_reported":1740416886,"current_range_meters":10800,"station_id":"ce4bgqh2rcd13ifvqc5g","pricing_plan_id":"cebpf4jnsgd1na2vs0mg"},{"bike_id":"253e6fe0-3e30-4f90-996e-c7e6fe3931d7","system_id":"levelo_inurba_marseille","lat":43.29414,"lon":5.3863,"is_reserved":false,"is_disabled":false,"rental_uris":{"android":"levelo://app?vid=253e6fe0-3e30-4f90-996e-c7e6fe3931d7","ios":"levelo://app?vid=253e6fe0-3e30-4f90-996e-c7e6fe3931d7"},"vehicle_type_id":"4","last_reported":1740416886,"current_range_meters":11200,"station_id":"ce4bh2h2rcd13ifvqdh0","pricing_plan_id":"cebpf4jnsgd1na2vs0mg"},{"bike_id":"a3976c3b-e839-46de-9cfe-072db869ec53","system_id":"levelo_inurba_marseille","lat":43.30096,"lon":5.36581,"is_reserved":false,"is_disabled":false,"rental_uris":{"android":"levelo://app?vid=a3976c3b-e839-46de-9cfe-072db869ec53","ios":"levelo://app?vid=a3976c3b-e839-46de-9cfe-072db869ec53"},"vehicle_type_id":"4","last_reported":1740416886,"current_range_meters":18800,"station_id":"ce4bgt12rcd13ifvqcd0","pricing_plan_id":"cebpf4jnsgd1na2vs0mg"},{"bike_id":"e907b9c8-b046-4e3a-b3a1-4a2b562de0bf","system_id":"levelo_inurba_marseille","lat":43.30242,"lon":5.40051,"is_reserved":false,"is_disabled":false,"rental_uris":{"android":"levelo://app?vid=e907b9c8-b046-4e3a-b3a1-4a2b562de0bf","ios":"levelo://app?vid=e907b9c8-b046-4e3a-b3a1-4a2b562de0bf"},"vehicle_type_id":"4","last_reported":1740416886,"current_range_meters":12000,"station_id":"ce4bgvh2rcd13ifvqcs0","pricing_plan_id":"cebpf4jnsgd1na2vs0mg"},{"bike_id":"86860870-0465-4362-b4fa-0e77d2b6a885","system_id":"levelo_inurba_marseille","lat":43.31286,"lon":5.40164,"is_reserved":false,"is_disabled":false,"rental_uris":{"android":"levelo://app?vid=86860870-0465-4362-b4fa-0e77d2b6a885","ios":"levelo://app?vid=86860870-0465-4362-b4fa-0e77d2b6a885"},"vehicle_type_id":"4","last_reported":1740416886,"current_range_meters":10800,"station_id":"ce4bh092rcd13ifvqd30","pricing_plan_id":"cebpf4jnsgd1na2vs0mg"},{"bike_id":"79d400e1-2408-4791-91ed-b92b16f32e6d","system_id":"levelo_inurba_marseille","lat":43.30852,"lon":5.37815,"is_reserved":false,"is_disabled":false,"rental_uris":{"android":"levelo://app?vid=79d400e1-2408-4791-91ed-b92b16f32e6d","ios":"levelo://app?vid=79d400e1-2408-4791-91ed-b92b16f32e6d"},"vehicle_type_id":"4","last_reported":1740416886,"current_range_meters":12000,"station_id":"","pricing_plan_id":"cebpf4jnsgd1na2vs0mg"},{"bike_id":"be8a93cd-ed1d-4e83-bd5f-4105eafdfb00","system_id":"levelo_inurba_marseille","lat":43.24801,"lon":5.37455,"is_reserved":false,"is_disabled":false,"rental_uris":{"android":"levelo://app?vid=be8a93cd-ed1d-4e83-bd5f-4105eafdfb00","ios":"levelo://app?vid=be8a93cd-ed1d-4e83-bd5f-4105eafdfb00"},"vehicle_type_id":"4","last_reported":1740416886,"current_range_meters":12400,"station_id":"ce4bhgh2rcd13ifvqfb0","pricing_plan_id":"cebpf4jnsgd1na2vs0mg"},{"bike_id":"e52f4a18-c5a5-4065-8057-d98ba13d9175","system_id":"levelo_inurba_marseille","lat":43.31482,"lon":5.38811,"is_reserved":false,"is_disabled":false,"rental_uris":{"android":"levelo://app?vid=e52f4a18-c5a5-4065-8057-d98ba13d9175","ios":"levelo://app?vid=e52f4a18-c5a5-4065-8057-d98ba13d9175"},"vehicle_type_id":"4","last_reported":1740416886,"current_range_meters":12400,"station_id":"ce4bh012rcd13ifvqd00","pricing_plan_id":"cebpf4jnsgd1na2vs0mg"},{"bike_id":"446313c8-37fc-4f36-b9c3-a1d481dfb62b","system_id":"levelo_inurba_marseille","lat":43.26822,"lon":5.41112,"is_reserved":false,"is_disabled":false,"rental_uris":{"android":"levelo://app?vid=446313c8-37fc-4f36-b9c3-a1d481dfb62b","ios":"levelo://app?vid=446313c8-37fc-4f36-b9c3-a1d481dfb62b"},"vehicle_type_id":"4","last_reported":1740416886,"current_range_meters":11600,"station_id":"","pricing_plan_id":"cebpf4jnsgd1na2vs0mg"},{"bike_id":"1a0b050f-f33f-48d2-9894-613d93a341cc","system_id":"levelo_inurba_marseille","lat":43.23171,"lon":5.39975,"is_reserved":false,"is_disabled":false,"rental_uris":{"android":"levelo://app?vid=1a0b050f-f33f-48d2-9894-613d93a341cc","ios":"levelo://app?vid=1a0b050f-f33f-48d2-9894-613d93a341cc"},"vehicle_type_id":"4","last_reported":1740416886,"current_range_meters":11600,"station_id":"ce4bhn12rcd13ifvqgqg","pricing_plan_id":"cebpf4jnsgd1na2vs0mg"},{"bike_id":"402585af-7abe-45a1-a3cb-dd645d762601","system_id":"levelo_inurba_marseille","lat":43.24181,"lon":5.39731,"is_reserved":false,"is_disabled":false,"rental_uris":{"android":"levelo://app?vid=402585af-7abe-45a1-a3cb-dd645d762601","ios":"levelo://app?vid=402585af-7abe-45a1-a3cb-dd645d762601"},"vehicle_type_id":"4","last_reported":1740416886,"current_range_meters":12000,"station_id":"ce4bhn12rcd13ifvqgpg","pricing_plan_id":"cebpf4jnsgd1na2vs0mg"},{"bike_id":"f78ce0ab-fea7-4f30-87c5-d4d1a88ca19c","system_id":"levelo_inurba_marseille","lat":43.29715,"lon":5.37706,"is_reserved":false,"is_disabled":false,"rental_uris":{"android":"levelo://app?vid=f78ce0ab-fea7-4f30-87c5-d4d1a88ca19c","ios":"levelo://app?vid=f78ce0ab-fea7-4f30-87c5-d4d1a88ca19c"},"vehicle_type_id":"4","last_reported":1740416886,"current_range_meters":12000,"station_id":"ce4bgkh2rcd13ifvqbl0","pricing_plan_id":"cebpf4jnsgd1na2vs0mg"},{"bike_id":"508c7df7-0bb1-49d6-b9e6-cd8c72f32852","system_id":"levelo_inurba_marseille","lat":43.30551,"lon":5.36545,"is_reserved":false,"is_disabled":false,"rental_uris":{"android":"levelo://app?vid=508c7df7-0bb1-49d6-b9e6-cd8c72f32852","ios":"levelo://app?vid=508c7df7-0bb1-49d6-b9e6-cd8c72f32852"},"vehicle_type_id":"4","last_reported":1740416886,"current_range_meters":12000,"station_id":"ce4bgs12rcd13ifvqcag","pricing_plan_id":"cebpf4jnsgd1na2vs0mg"},{"bike_id":"49e0c1f0-443c-4369-9608-adefba4a58af","system_id":"levelo_inurba_marseille","lat":43.31166,"lon":5.38719,"is_reserved":false,"is_disabled":false,"rental_uris":{"android":"levelo://app?vid=49e0c1f0-443c-4369-9608-adefba4a58af","ios":"levelo://app?vid=49e0c1f0-443c-4369-9608-adefba4a58af"},"vehicle_type_id":"4","last_reported":1740416886,"current_range_meters":12800,"station_id":"ce4bgv12rcd13ifvqcp0","pricing_plan_id":"cebpf4jnsgd1na2vs0mg"},{"bike_id":"31805087-a5b7-49f2-b349-68c3e31fe2bc","system_id":"levelo_inurba_marseille","lat":43.29783,"lon":5.39336,"is_reserved":false,"is_disabled":false,"rental_uris":{"android":"levelo://app?vid=31805087-a5b7-49f2-b349-68c3e31fe2bc","ios":"levelo://app?vid=31805087-a5b7-49f2-b349-68c3e31fe2bc"},"vehicle_type_id":"4","last_reported":1740416886,"current_range_meters":14800,"station_id":"chh1huq6cuj3fo74tm60","pricing_plan_id":"cebpf4jnsgd1na2vs0mg"},{"bike_id":"d6e9473b-dc2e-415e-a49b-32762a351f28","system_id":"levelo_inurba_marseille","lat":43.28853,"lon":5.35837,"is_reserved":false,"is_disabled":false,"rental_uris":{"android":"levelo://app?vid=d6e9473b-dc2e-415e-a49b-32762a351f28","ios":"levelo://app?vid=d6e9473b-dc2e-415e-a49b-32762a351f28"},"vehicle_type_id":"4","last_reported":1740416886,"current_range_meters":12800,"station_id":"ce4bhb12rcd13ifvqem0","pricing_plan_id":"cebpf4jnsgd1na2vs0mg"},{"bike_id":"bf5a075c-8e53-42c4-9339-772477fb5e95","system_id":"levelo_inurba_marseille","lat":43.30935,"lon":5.40146,"is_reserved":false,"is_disabled":false,"rental_uris":{"android":"levelo://app?vid=bf5a075c-8e53-42c4-9339-772477fb5e95","ios":"levelo://app?vid=bf5a075c-8e53-42c4-9339-772477fb5e95"},"vehicle_type_id":"4","last_reported":1740416886,"current_range_meters":12400,"station_id":"ce4bgvp2rcd13ifvqct0","pricing_plan_id":"cebpf4jnsgd1na2vs0mg"},{"bike_id":"d90fc6d7-871e-4fc4-950b-c963063affa1","system_id":"levelo_inurba_marseille","lat":43.2507,"lon":5.39547,"is_reserved":false,"is_disabled":false,"rental_uris":{"android":"levelo://app?vid=d90fc6d7-871e-4fc4-950b-c963063affa1","ios":"levelo://app?vid=d90fc6d7-871e-4fc4-950b-c963063affa1"},"vehicle_type_id":"4","last_reported":1740416886,"current_range_meters":12400,"station_id":"ce4bhm12rcd13ifvqgkg","pricing_plan_id":"cebpf4jnsgd1na2vs0mg"},{"bike_id":"a6ad5861-0ad0-4c2d-9ac9-17d9bbd5ca0f","system_id":"levelo_inurba_marseille","lat":43.29049,"lon":5.35908,"is_reserved":false,"is_disabled":false,"rental_uris":{"android":"levelo://app?vid=a6ad5861-0ad0-4c2d-9ac9-17d9bbd5ca0f","ios":"levelo://app?vid=a6ad5861-0ad0-4c2d-9ac9-17d9bbd5ca0f"},"vehicle_type_id":"4","last_reported":1740416886,"current_range_meters":12800,"station_id":"ce4bha92rcd13ifvqeg0","pricing_plan_id":"cebpf4jnsgd1na2vs0mg"},{"bike_id":"054a8c13-e003-4a19-8213-3d429c22f36e","system_id":"levelo_inurba_marseille","lat":43.241626,"lon":5.364055,"is_reserved":false,"is_disabled":false,"rental_uris":{"android":"levelo://app?vid=054a8c13-e003-4a19-8213-3d429c22f36e","ios":"levelo://app?vid=054a8c13-e003-4a19-8213-3d429c22f36e"},"vehicle_type_id":"4","last_reported":1740416886,"current_range_meters":12800,"station_id":"cpo36qri1sfpv3e86is0","pricing_plan_id":"cebpf4jnsgd1na2vs0mg"},{"bike_id":"0a1736ef-767f-4d04-aada-b1c3f8601044","system_id":"levelo_inurba_marseille","lat":43.27807,"lon":5.40715,"is_reserved":false,"is_disabled":false,"rental_uris":{"android":"levelo://app?vid=0a1736ef-767f-4d04-aada-b1c3f8601044","ios":"levelo://app?vid=0a1736ef-767f-4d04-aada-b1c3f8601044"},"vehicle_type_id":"4","last_reported":1740416886,"current_range_meters":12800,"station_id":"ce4bhnh2rcd13ifvqgtg","pricing_plan_id":"cebpf4jnsgd1na2vs0mg"},{"bike_id":"0144e2c5-911f-4fc6-8fb2-704879b2a0b0","system_id":"levelo_inurba_marseille","lat":43.29329,"lon":5.41147,"is_reserved":false,"is_disabled":false,"rental_uris":{"android":"levelo://app?vid=0144e2c5-911f-4fc6-8fb2-704879b2a0b0","ios":"levelo://app?vid=0144e2c5-911f-4fc6-8fb2-704879b2a0b0"},"vehicle_type_id":"4","last_reported":1740416886,"current_range_meters":12800,"station_id":"","pricing_plan_id":"cebpf4jnsgd1na2vs0mg"},{"bike_id":"d7a301bd-2a48-44bf-bc69-dddc1ff99095","system_id":"levelo_inurba_marseille","lat":43.31323,"lon":5.39692,"is_reserved":false,"is_disabled":false,"rental_uris":{"android":"levelo://app?vid=d7a301bd-2a48-44bf-bc69-dddc1ff99095","ios":"levelo://app?vid=d7a301bd-2a48-44bf-bc69-dddc1ff99095"},"vehicle_type_id":"4","last_reported":1740416886,"current_range_meters":12800,"station_id":"ce4bgvp2rcd13ifvqcu0","pricing_plan_id":"cebpf4jnsgd1na2vs0mg"},{"bike_id":"b04ee311-4dce-46f4-a606-d6cd72c4ec39","system_id":"levelo_inurba_marseille","lat":43.269466,"lon":5.40249,"is_reserved":false,"is_disabled":false,"rental_uris":{"android":"levelo://app?vid=b04ee311-4dce-46f4-a606-d6cd72c4ec39","ios":"levelo://app?vid=b04ee311-4dce-46f4-a606-d6cd72c4ec39"},"vehicle_type_id":"4","last_reported":1740416886,"current_range_meters":13600,"station_id":"cjm6bp8fraef2m0cb0m0","pricing_plan_id":"cebpf4jnsgd1na2vs0mg"},{"bike_id":"674cb057-5d42-4512-ae8c-448c1f63016b","system_id":"levelo_inurba_marseille","lat":43.30362,"lon":5.39443,"is_reserved":false,"is_disabled":false,"rental_uris":{"android":"levelo://app?vid=674cb057-5d42-4512-ae8c-448c1f63016b","ios":"levelo://app?vid=674cb057-5d42-4512-ae8c-448c1f63016b"},"vehicle_type_id":"4","last_reported":1740416886,"current_range_meters":13600,"station_id":"","pricing_plan_id":"cebpf4jnsgd1na2vs0mg"},{"bike_id":"4536875f-604a-454e-9383-c4f436e97a01","system_id":"levelo_inurba_marseille","lat":43.2809,"lon":5.3966,"is_reserved":false,"is_disabled":false,"rental_uris":{"android":"levelo://app?vid=4536875f-604a-454e-9383-c4f436e97a01","ios":"levelo://app?vid=4536875f-604a-454e-9383-c4f436e97a01"},"vehicle_type_id":"4","last_reported":1740416886,"current_range_meters":13600,"station_id":"ce4bho12rcd13ifvqh2g","pricing_plan_id":"cebpf4jnsgd1na2vs0mg"},{"bike_id":"98f7bb86-2cf6-4daa-8868-358051f51767","system_id":"levelo_inurba_marseille","lat":43.29708,"lon":5.36604,"is_reserved":false,"is_disabled":false,"rental_uris":{"android":"levelo://app?vid=98f7bb86-2cf6-4daa-8868-358051f51767","ios":"levelo://app?vid=98f7bb86-2cf6-4daa-8868-358051f51767"},"vehicle_type_id":"4","last_reported":1740416886,"current_range_meters":12800,"station_id":"ce4bgn12rcd13ifvqbt0","pricing_plan_id":"cebpf4jnsgd1na2vs0mg"},{"bike_id":"5f5ba0a9-a369-45b5-8819-e331d0af7407","system_id":"levelo_inurba_marseille","lat":43.29629,"lon":5.37155,"is_reserved":false,"is_disabled":false,"rental_uris":{"android":"levelo://app?vid=5f5ba0a9-a369-45b5-8819-e331d0af7407","ios":"levelo://app?vid=5f5ba0a9-a369-45b5-8819-e331d0af7407"},"vehicle_type_id":"4","last_reported":1740416886,"current_range_meters":12000,"station_id":"ce4bgnh2rcd13ifvqc0g","pricing_plan_id":"cebpf4jnsgd1na2vs0mg"},{"bike_id":"d73c3964-ce51-40e1-ae4f-0fd05117f610","system_id":"levelo_inurba_marseille","lat":43.29201,"lon":5.35823,"is_reserved":false,"is_disabled":false,"rental_uris":{"android":"levelo://app?vid=d73c3964-ce51-40e1-ae4f-0fd05117f610","ios":"levelo://app?vid=d73c3964-ce51-40e1-ae4f-0fd05117f610"},"vehicle_type_id":"4","last_reported":1740416886,"current_range_meters":14400,"station_id":"ce4bhb12rcd13ifvqel0","pricing_plan_id":"cebpf4jnsgd1na2vs0mg"},{"bike_id":"d9539a63-7677-4fd2-a172-046d356a2529","system_id":"levelo_inurba_marseille","lat":43.29999,"lon":5.37189,"is_reserved":false,"is_disabled":false,"rental_uris":{"android":"levelo://app?vid=d9539a63-7677-4fd2-a172-046d356a2529","ios":"levelo://app?vid=d9539a63-7677-4fd2-a172-046d356a2529"},"vehicle_type_id":"4","last_reported":1740416886,"current_range_meters":13600,"station_id":"ce4bgr92rcd13ifvqc7g","pricing_plan_id":"cebpf4jnsgd1na2vs0mg"},{"bike_id":"7af9eac6-5cce-4285-943f-d1a9a36e5f54","system_id":"levelo_inurba_marseille","lat":43.28458,"lon":5.35887,"is_reserved":false,"is_disabled":false,"rental_uris":{"android":"levelo://app?vid=7af9eac6-5cce-4285-943f-d1a9a36e5f54","ios":"levelo://app?vid=7af9eac6-5cce-4285-943f-d1a9a36e5f54"},"vehicle_type_id":"4","last_reported":1740416886,"current_range_meters":15200,"station_id":"ce4bhah2rcd13ifvqei0","pricing_plan_id":"cebpf4jnsgd1na2vs0mg"},{"bike_id":"130ab319-f673-4e36-9717-343d196c6cce","system_id":"levelo_inurba_marseille","lat":43.23172,"lon":5.39977,"is_reserved":false,"is_disabled":false,"rental_uris":{"android":"levelo://app?vid=130ab319-f673-4e36-9717-343d196c6cce","ios":"levelo://app?vid=130ab319-f673-4e36-9717-343d196c6cce"},"vehicle_type_id":"4","last_reported":1740416886,"current_range_meters":14000,"station_id":"ce4bhn12rcd13ifvqgqg","pricing_plan_id":"cebpf4jnsgd1na2vs0mg"},{"bike_id":"7333f5f0-71fa-4cf2-9e94-a5d02574b956","system_id":"levelo_inurba_marseille","lat":43.28366,"lon":5.38645,"is_reserved":false,"is_disabled":false,"rental_uris":{"android":"levelo://app?vid=7333f5f0-71fa-4cf2-9e94-a5d02574b956","ios":"levelo://app?vid=7333f5f0-71fa-4cf2-9e94-a5d02574b956"},"vehicle_type_id":"4","last_reported":1740416886,"current_range_meters":12000,"station_id":"ce4bh492rcd13ifvqdvg","pricing_plan_id":"cebpf4jnsgd1na2vs0mg"},{"bike_id":"c53b4608-6351-4e7d-bbc2-039dd7b21339","system_id":"levelo_inurba_marseille","lat":43.26883,"lon":5.36868,"is_reserved":false,"is_disabled":false,"rental_uris":{"android":"levelo://app?vid=c53b4608-6351-4e7d-bbc2-039dd7b21339","ios":"levelo://app?vid=c53b4608-6351-4e7d-bbc2-039dd7b21339"},"vehicle_type_id":"4","last_reported":1740416886,"current_range_meters":14000,"station_id":"ce4bhgh2rcd13ifvqfb0","pricing_plan_id":"cebpf4jnsgd1na2vs0mg"},{"bike_id":"dc86b0d3-3360-49b4-9f3f-5c2f2e8eb085","system_id":"levelo_inurba_marseille","lat":43.23961,"lon":5.36656,"is_reserved":false,"is_disabled":false,"rental_uris":{"android":"levelo://app?vid=dc86b0d3-3360-49b4-9f3f-5c2f2e8eb085","ios":"levelo://app?vid=dc86b0d3-3360-49b4-9f3f-5c2f2e8eb085"},"vehicle_type_id":"4","last_reported":1740416886,"current_range_meters":14000,"station_id":"ce4bhi12rcd13ifvqfp0","pricing_plan_id":"cebpf4jnsgd1na2vs0mg"},{"bike_id":"c852c45e-c0db-4e45-9e92-d1eb30544639","system_id":"levelo_inurba_marseille","lat":43.24178,"lon":5.39729,"is_reserved":false,"is_disabled":false,"rental_uris":{"android":"levelo://app?vid=c852c45e-c0db-4e45-9e92-d1eb30544639","ios":"levelo://app?vid=c852c45e-c0db-4e45-9e92-d1eb30544639"},"vehicle_type_id":"4","last_reported":1740416886,"current_range_meters":14400,"station_id":"ce4bhn12rcd13ifvqgpg","pricing_plan_id":"cebpf4jnsgd1na2vs0mg"},{"bike_id":"d5eb0445-4433-4185-b90d-7c156c67d846","system_id":"levelo_inurba_marseille","lat":43.29191,"lon":5.3932,"is_reserved":false,"is_disabled":false,"rental_uris":{"android":"levelo://app?vid=d5eb0445-4433-4185-b90d-7c156c67d846","ios":"levelo://app?vid=d5eb0445-4433-4185-b90d-7c156c67d846"},"vehicle_type_id":"4","last_reported":1740416886,"current_range_meters":14400,"station_id":"ce4bh192rcd13ifvqdd0","pricing_plan_id":"cebpf4jnsgd1na2vs0mg"},{"bike_id":"547bd370-f9a4-4384-b763-03be389cfb7f","system_id":"levelo_inurba_marseille","lat":43.312176,"lon":5.401244,"is_reserved":false,"is_disabled":false,"rental_uris":{"android":"levelo://app?vid=547bd370-f9a4-4384-b763-03be389cfb7f","ios":"levelo://app?vid=547bd370-f9a4-4384-b763-03be389cfb7f"},"vehicle_type_id":"4","last_reported":1740416886,"current_range_meters":14400,"station_id":"ce4bgvp2rcd13ifvqcu0","pricing_plan_id":"cebpf4jnsgd1na2vs0mg"},{"bike_id":"6a1af0ff-fbc9-4754-8230-2e8067773c5d","system_id":"levelo_inurba_marseille","lat":43.28944,"lon":5.36412,"is_reserved":false,"is_disabled":false,"rental_uris":{"android":"levelo://app?vid=6a1af0ff-fbc9-4754-8230-2e8067773c5d","ios":"levelo://app?vid=6a1af0ff-fbc9-4754-8230-2e8067773c5d"},"vehicle_type_id":"4","last_reported":1740416886,"current_range_meters":14000,"station_id":"ce4bhc92rcd13ifvqetg","pricing_plan_id":"cebpf4jnsgd1na2vs0mg"},{"bike_id":"116e1eb5-613f-4526-a0b7-0cb9d94439fe","system_id":"levelo_inurba_marseille","lat":43.2958,"lon":5.37522,"is_reserved":false,"is_disabled":false,"rental_uris":{"android":"levelo://app?vid=116e1eb5-613f-4526-a0b7-0cb9d94439fe","ios":"levelo://app?vid=116e1eb5-613f-4526-a0b7-0cb9d94439fe"},"vehicle_type_id":"4","last_reported":1740416886,"current_range_meters":14800,"station_id":"ce4bgh92rcd13ifvqb50","pricing_plan_id":"cebpf4jnsgd1na2vs0mg"},{"bike_id":"27c3a5dd-ac9b-4f4a-963b-24f45ab3f2dd","system_id":"levelo_inurba_marseille","lat":43.25131,"lon":5.40339,"is_reserved":false,"is_disabled":false,"rental_uris":{"android":"levelo://app?vid=27c3a5dd-ac9b-4f4a-963b-24f45ab3f2dd","ios":"levelo://app?vid=27c3a5dd-ac9b-4f4a-963b-24f45ab3f2dd"},"vehicle_type_id":"4","last_reported":1740416886,"current_range_meters":14800,"station_id":"ce4bhlh2rcd13ifvqgig","pricing_plan_id":"cebpf4jnsgd1na2vs0mg"},{"bike_id":"d2610799-3b25-4010-8a8a-a9ba4108f5fb","system_id":"levelo_inurba_marseille","lat":43.25009,"lon":5.38931,"is_reserved":false,"is_disabled":false,"rental_uris":{"android":"levelo://app?vid=d2610799-3b25-4010-8a8a-a9ba4108f5fb","ios":"levelo://app?vid=d2610799-3b25-4010-8a8a-a9ba4108f5fb"},"vehicle_type_id":"4","last_reported":1740416886,"current_range_meters":15200,"station_id":"ce4bhgp2rcd13ifvqfd0","pricing_plan_id":"cebpf4jnsgd1na2vs0mg"},{"bike_id":"127773f6-ab0d-4fe2-ab7d-0f6eb64654e9","system_id":"levelo_inurba_marseille","lat":43.30183,"lon":5.36633,"is_reserved":false,"is_disabled":false,"rental_uris":{"android":"levelo://app?vid=127773f6-ab0d-4fe2-ab7d-0f6eb64654e9","ios":"levelo://app?vid=127773f6-ab0d-4fe2-ab7d-0f6eb64654e9"},"vehicle_type_id":"4","last_reported":1740416886,"current_range_meters":15200,"station_id":"ce4bgrh2rcd13ifvqc8g","pricing_plan_id":"cebpf4jnsgd1na2vs0mg"},{"bike_id":"45fe7840-4422-4624-b0ce-d0c37bff5dc3","system_id":"levelo_inurba_marseille","lat":43.32367,"lon":5.38884,"is_reserved":false,"is_disabled":false,"rental_uris":{"android":"levelo://app?vid=45fe7840-4422-4624-b0ce-d0c37bff5dc3","ios":"levelo://app?vid=45fe7840-4422-4624-b0ce-d0c37bff5dc3"},"vehicle_type_id":"4","last_reported":1740416886,"current_range_meters":15200,"station_id":"ce4bhqp2rcd13ifvqhog","pricing_plan_id":"cebpf4jnsgd1na2vs0mg"},{"bike_id":"a9f238df-8d0d-4ea2-9e32-72272684dc3f","system_id":"levelo_inurba_marseille","lat":43.32343,"lon":5.3898,"is_reserved":false,"is_disabled":false,"rental_uris":{"android":"levelo://app?vid=a9f238df-8d0d-4ea2-9e32-72272684dc3f","ios":"levelo://app?vid=a9f238df-8d0d-4ea2-9e32-72272684dc3f"},"vehicle_type_id":"4","last_reported":1740416886,"current_range_meters":15200,"station_id":"ce4bhqp2rcd13ifvqhog","pricing_plan_id":"cebpf4jnsgd1na2vs0mg"},{"bike_id":"634b666b-f908-4a89-919f-1b9bd0a6c9f0","system_id":"levelo_inurba_marseille","lat":43.295258,"lon":5.394059,"is_reserved":false,"is_disabled":false,"rental_uris":{"android":"levelo://app?vid=634b666b-f908-4a89-919f-1b9bd0a6c9f0","ios":"levelo://app?vid=634b666b-f908-4a89-919f-1b9bd0a6c9f0"},"vehicle_type_id":"4","last_reported":1740416886,"current_range_meters":15200,"station_id":"ce4bh292rcd13ifvqdf0","pricing_plan_id":"cebpf4jnsgd1na2vs0mg"},{"bike_id":"6f9eb619-ce1a-440a-9085-673242f78425","system_id":"levelo_inurba_marseille","lat":43.29496,"lon":5.37529,"is_reserved":false,"is_disabled":true,"rental_uris":{"android":"levelo://app?vid=6f9eb619-ce1a-440a-9085-673242f78425","ios":"levelo://app?vid=6f9eb619-ce1a-440a-9085-673242f78425"},"vehicle_type_id":"4","last_reported":1740416886,"current_range_meters":16000,"station_id":"","pricing_plan_id":"cebpf4jnsgd1na2vs0mg"},{"bike_id":"eeb37f17-a9e7-45cc-895d-da42575fb0fc","system_id":"levelo_inurba_marseille","lat":43.24168,"lon":5.36393,"is_reserved":false,"is_disabled":false,"rental_uris":{"android":"levelo://app?vid=eeb37f17-a9e7-45cc-895d-da42575fb0fc","ios":"levelo://app?vid=eeb37f17-a9e7-45cc-895d-da42575fb0fc"},"vehicle_type_id":"4","last_reported":1740416886,"current_range_meters":16000,"station_id":"cpo36qri1sfpv3e86is0","pricing_plan_id":"cebpf4jnsgd1na2vs0mg"},{"bike_id":"760eb658-016e-422a-925a-e97810424e09","system_id":"levelo_inurba_marseille","lat":43.27947,"lon":5.41054,"is_reserved":false,"is_disabled":false,"rental_uris":{"android":"levelo://app?vid=760eb658-016e-422a-925a-e97810424e09","ios":"levelo://app?vid=760eb658-016e-422a-925a-e97810424e09"},"vehicle_type_id":"4","last_reported":1740416886,"current_range_meters":14400,"station_id":"ce4bhnp2rcd13ifvqh0g","pricing_plan_id":"cebpf4jnsgd1na2vs0mg"},{"bike_id":"06134c6a-59c4-42ff-98f5-bf85ae4f71d3","system_id":"levelo_inurba_marseille","lat":43.28075,"lon":5.39662,"is_reserved":false,"is_disabled":false,"rental_uris":{"android":"levelo://app?vid=06134c6a-59c4-42ff-98f5-bf85ae4f71d3","ios":"levelo://app?vid=06134c6a-59c4-42ff-98f5-bf85ae4f71d3"},"vehicle_type_id":"4","last_reported":1740416886,"current_range_meters":15200,"station_id":"ce4bho12rcd13ifvqh2g","pricing_plan_id":"cebpf4jnsgd1na2vs0mg"},{"bike_id":"490e0b2f-1cb1-49dd-90c6-d8ed026aeda8","system_id":"levelo_inurba_marseille","lat":43.30512,"lon":5.3671,"is_reserved":false,"is_disabled":false,"rental_uris":{"android":"levelo://app?vid=490e0b2f-1cb1-49dd-90c6-d8ed026aeda8","ios":"levelo://app?vid=490e0b2f-1cb1-49dd-90c6-d8ed026aeda8"},"vehicle_type_id":"4","last_reported":1740416886,"current_range_meters":16000,"station_id":"ce4bgrp2rcd13ifvqc9g","pricing_plan_id":"cebpf4jnsgd1na2vs0mg"},{"bike_id":"5435865c-3120-44b2-a6c3-b3611ddd99d3","system_id":"levelo_inurba_marseille","lat":43.32352,"lon":5.38926,"is_reserved":false,"is_disabled":false,"rental_uris":{"android":"levelo://app?vid=5435865c-3120-44b2-a6c3-b3611ddd99d3","ios":"levelo://app?vid=5435865c-3120-44b2-a6c3-b3611ddd99d3"},"vehicle_type_id":"4","last_reported":1740416886,"current_range_meters":16400,"station_id":"ce4bhqp2rcd13ifvqhog","pricing_plan_id":"cebpf4jnsgd1na2vs0mg"},{"bike_id":"8c810781-25a0-42fb-90d7-1f0ca9d75d19","system_id":"levelo_inurba_marseille","lat":43.31113,"lon":5.37781,"is_reserved":false,"is_disabled":false,"rental_uris":{"android":"levelo://app?vid=8c810781-25a0-42fb-90d7-1f0ca9d75d19","ios":"levelo://app?vid=8c810781-25a0-42fb-90d7-1f0ca9d75d19"},"vehicle_type_id":"4","last_reported":1740416886,"current_range_meters":15200,"station_id":"ce4bgt92rcd13ifvqcg0","pricing_plan_id":"cebpf4jnsgd1na2vs0mg"},{"bike_id":"763a38cd-b50b-4187-a9a7-e0318d9aae60","system_id":"levelo_inurba_marseille","lat":43.25007,"lon":5.38926,"is_reserved":false,"is_disabled":false,"rental_uris":{"android":"levelo://app?vid=763a38cd-b50b-4187-a9a7-e0318d9aae60","ios":"levelo://app?vid=763a38cd-b50b-4187-a9a7-e0318d9aae60"},"vehicle_type_id":"4","last_reported":1740416886,"current_range_meters":16000,"station_id":"ce4bhgp2rcd13ifvqfd0","pricing_plan_id":"cebpf4jnsgd1na2vs0mg"},{"bike_id":"a7716a8e-8f13-4750-9628-e02b6768f579","system_id":"levelo_inurba_marseille","lat":43.28982,"lon":5.37831,"is_reserved":false,"is_disabled":false,"rental_uris":{"android":"levelo://app?vid=a7716a8e-8f13-4750-9628-e02b6768f579","ios":"levelo://app?vid=a7716a8e-8f13-4750-9628-e02b6768f579"},"vehicle_type_id":"4","last_reported":1740416886,"current_range_meters":16000,"station_id":"ce4bh9p2rcd13ifvqed0","pricing_plan_id":"cebpf4jnsgd1na2vs0mg"},{"bike_id":"abef7188-d18a-451c-9be1-a5cb1a90671b","system_id":"levelo_inurba_marseille","lat":43.23052,"lon":5.3549,"is_reserved":false,"is_disabled":false,"rental_uris":{"android":"levelo://app?vid=abef7188-d18a-451c-9be1-a5cb1a90671b","ios":"levelo://app?vid=abef7188-d18a-451c-9be1-a5cb1a90671b"},"vehicle_type_id":"4","last_reported":1740416886,"current_range_meters":16400,"station_id":"","pricing_plan_id":"cebpf4jnsgd1na2vs0mg"},{"bike_id":"46c21bd9-3b36-4f71-b5c0-01e3bc72fff0","system_id":"levelo_inurba_marseille","lat":43.28014,"lon":5.36949,"is_reserved":false,"is_disabled":false,"rental_uris":{"android":"levelo://app?vid=46c21bd9-3b36-4f71-b5c0-01e3bc72fff0","ios":"levelo://app?vid=46c21bd9-3b36-4f71-b5c0-01e3bc72fff0"},"vehicle_type_id":"4","last_reported":1740416886,"current_range_meters":16400,"station_id":"ce4bha12rcd13ifvqef0","pricing_plan_id":"cebpf4jnsgd1na2vs0mg"},{"bike_id":"05f51bd6-bf8c-4b6c-ba2f-d7bf7cec3006","system_id":"levelo_inurba_marseille","lat":43.23187,"lon":5.35552,"is_reserved":false,"is_disabled":false,"rental_uris":{"android":"levelo://app?vid=05f51bd6-bf8c-4b6c-ba2f-d7bf7cec3006","ios":"levelo://app?vid=05f51bd6-bf8c-4b6c-ba2f-d7bf7cec3006"},"vehicle_type_id":"4","last_reported":1740416886,"current_range_meters":16400,"station_id":"ce4bhu92rcd13ifvqi70","pricing_plan_id":"cebpf4jnsgd1na2vs0mg"},{"bike_id":"3a533f59-81a3-421b-803a-a73b0fea47ce","system_id":"levelo_inurba_marseille","lat":43.27966,"lon":5.3875,"is_reserved":false,"is_disabled":false,"rental_uris":{"android":"levelo://app?vid=3a533f59-81a3-421b-803a-a73b0fea47ce","ios":"levelo://app?vid=3a533f59-81a3-421b-803a-a73b0fea47ce"},"vehicle_type_id":"4","last_reported":1740416886,"current_range_meters":16800,"station_id":"ce4bhg12rcd13ifvqf80","pricing_plan_id":"cebpf4jnsgd1na2vs0mg"},{"bike_id":"db75fc77-6691-492c-841f-694d229022ab","system_id":"levelo_inurba_marseille","lat":43.27812,"lon":5.40717,"is_reserved":false,"is_disabled":false,"rental_uris":{"android":"levelo://app?vid=db75fc77-6691-492c-841f-694d229022ab","ios":"levelo://app?vid=db75fc77-6691-492c-841f-694d229022ab"},"vehicle_type_id":"4","last_reported":1740416886,"current_range_meters":17200,"station_id":"ce4bhnh2rcd13ifvqgtg","pricing_plan_id":"cebpf4jnsgd1na2vs0mg"},{"bike_id":"8aae0aa4-e6fe-4737-86e2-9017e9eb323e","system_id":"levelo_inurba_marseille","lat":43.262812,"lon":5.396647,"is_reserved":false,"is_disabled":false,"rental_uris":{"android":"levelo://app?vid=8aae0aa4-e6fe-4737-86e2-9017e9eb323e","ios":"levelo://app?vid=8aae0aa4-e6fe-4737-86e2-9017e9eb323e"},"vehicle_type_id":"4","last_reported":1740416886,"current_range_meters":16800,"station_id":"ce4bhi12rcd13ifvqfq0","pricing_plan_id":"cebpf4jnsgd1na2vs0mg"},{"bike_id":"0370990f-c327-4020-9766-a038677c33bb","system_id":"levelo_inurba_marseille","lat":43.24181,"lon":5.39721,"is_reserved":false,"is_disabled":false,"rental_uris":{"android":"levelo://app?vid=0370990f-c327-4020-9766-a038677c33bb","ios":"levelo://app?vid=0370990f-c327-4020-9766-a038677c33bb"},"vehicle_type_id":"4","last_reported":1740416886,"current_range_meters":16800,"station_id":"ce4bhn12rcd13ifvqgpg","pricing_plan_id":"cebpf4jnsgd1na2vs0mg"},{"bike_id":"de54b84e-d754-4cf9-97ed-7d6cd44576a6","system_id":"levelo_inurba_marseille","lat":43.27817,"lon":5.40707,"is_reserved":false,"is_disabled":false,"rental_uris":{"android":"levelo://app?vid=de54b84e-d754-4cf9-97ed-7d6cd44576a6","ios":"levelo://app?vid=de54b84e-d754-4cf9-97ed-7d6cd44576a6"},"vehicle_type_id":"4","last_reported":1740416886,"current_range_meters":16800,"station_id":"ce4bhnh2rcd13ifvqgtg","pricing_plan_id":"cebpf4jnsgd1na2vs0mg"},{"bike_id":"2cbfb110-56d6-42fe-ae10-a88a293e47e3","system_id":"levelo_inurba_marseille","lat":43.295197,"lon":5.394293,"is_reserved":false,"is_disabled":false,"rental_uris":{"android":"levelo://app?vid=2cbfb110-56d6-42fe-ae10-a88a293e47e3","ios":"levelo://app?vid=2cbfb110-56d6-42fe-ae10-a88a293e47e3"},"vehicle_type_id":"4","last_reported":1740416886,"current_range_meters":16800,"station_id":"ce4bh292rcd13ifvqdf0","pricing_plan_id":"cebpf4jnsgd1na2vs0mg"},{"bike_id":"1c2f3bdc-68fa-40a8-b99e-fcf41f32f9e4","system_id":"levelo_inurba_marseille","lat":43.29214,"lon":5.40506,"is_reserved":false,"is_disabled":false,"rental_uris":{"android":"levelo://app?vid=1c2f3bdc-68fa-40a8-b99e-fcf41f32f9e4","ios":"levelo://app?vid=1c2f3bdc-68fa-40a8-b99e-fcf41f32f9e4"},"vehicle_type_id":"4","last_reported":1740416886,"current_range_meters":16800,"station_id":"","pricing_plan_id":"cebpf4jnsgd1na2vs0mg"},{"bike_id":"c9a1858d-786d-4197-a639-046d237805f3","system_id":"levelo_inurba_marseille","lat":43.28429,"lon":5.37517,"is_reserved":false,"is_disabled":false,"rental_uris":{"android":"levelo://app?vid=c9a1858d-786d-4197-a639-046d237805f3","ios":"levelo://app?vid=c9a1858d-786d-4197-a639-046d237805f3"},"vehicle_type_id":"4","last_reported":1740416886,"current_range_meters":17200,"station_id":"ce4bh412rcd13ifvqds0","pricing_plan_id":"cebpf4jnsgd1na2vs0mg"},{"bike_id":"5faee633-5ab7-4ab2-a448-d2dc4e3c7ffd","system_id":"levelo_inurba_marseille","lat":43.29234,"lon":5.36547,"is_reserved":false,"is_disabled":false,"rental_uris":{"android":"levelo://app?vid=5faee633-5ab7-4ab2-a448-d2dc4e3c7ffd","ios":"levelo://app?vid=5faee633-5ab7-4ab2-a448-d2dc4e3c7ffd"},"vehicle_type_id":"4","last_reported":1740416886,"current_range_meters":16800,"station_id":"ce4bgt12rcd13ifvqcd0","pricing_plan_id":"cebpf4jnsgd1na2vs0mg"},{"bike_id":"ffa25a92-a349-411e-b891-225d73b13ad3","system_id":"levelo_inurba_marseille","lat":43.29164,"lon":5.37166,"is_reserved":false,"is_disabled":false,"rental_uris":{"android":"levelo://app?vid=ffa25a92-a349-411e-b891-225d73b13ad3","ios":"levelo://app?vid=ffa25a92-a349-411e-b891-225d73b13ad3"},"vehicle_type_id":"4","last_reported":1740416886,"current_range_meters":16400,"station_id":"ce4bha92rcd13ifvqeh0","pricing_plan_id":"cebpf4jnsgd1na2vs0mg"},{"bike_id":"2d50fb33-49cb-450e-a873-325ea39b74f3","system_id":"levelo_inurba_marseille","lat":43.29706,"lon":5.36617,"is_reserved":false,"is_disabled":false,"rental_uris":{"android":"levelo://app?vid=2d50fb33-49cb-450e-a873-325ea39b74f3","ios":"levelo://app?vid=2d50fb33-49cb-450e-a873-325ea39b74f3"},"vehicle_type_id":"4","last_reported":1740416886,"current_range_meters":16800,"station_id":"ce4bgn12rcd13ifvqbt0","pricing_plan_id":"cebpf4jnsgd1na2vs0mg"},{"bike_id":"254b67b1-580a-4ebb-b883-ef27f702d657","system_id":"levelo_inurba_marseille","lat":43.28144,"lon":5.42648,"is_reserved":false,"is_disabled":false,"rental_uris":{"android":"levelo://app?vid=254b67b1-580a-4ebb-b883-ef27f702d657","ios":"levelo://app?vid=254b67b1-580a-4ebb-b883-ef27f702d657"},"vehicle_type_id":"4","last_reported":1740416886,"current_range_meters":17200,"station_id":"ce4bhnh2rcd13ifvqgug","pricing_plan_id":"cebpf4jnsgd1na2vs0mg"},{"bike_id":"db61d5ff-f584-4fa1-aedd-6bbf4e5e52f9","system_id":"levelo_inurba_marseille","lat":43.30326,"lon":5.36908,"is_reserved":false,"is_disabled":false,"rental_uris":{"android":"levelo://app?vid=db61d5ff-f584-4fa1-aedd-6bbf4e5e52f9","ios":"levelo://app?vid=db61d5ff-f584-4fa1-aedd-6bbf4e5e52f9"},"vehicle_type_id":"4","last_reported":1740416886,"current_range_meters":17600,"station_id":"ce4bgqh2rcd13ifvqc5g","pricing_plan_id":"cebpf4jnsgd1na2vs0mg"},{"bike_id":"27df2c47-30b9-42a1-a17f-d05f9ce10835","system_id":"levelo_inurba_marseille","lat":43.28412,"lon":5.3751,"is_reserved":false,"is_disabled":false,"rental_uris":{"android":"levelo://app?vid=27df2c47-30b9-42a1-a17f-d05f9ce10835","ios":"levelo://app?vid=27df2c47-30b9-42a1-a17f-d05f9ce10835"},"vehicle_type_id":"4","last_reported":1740416886,"current_range_meters":17200,"station_id":"ce4bh412rcd13ifvqds0","pricing_plan_id":"cebpf4jnsgd1na2vs0mg"},{"bike_id":"38a79727-1930-4e6b-89dc-be580da3729c","system_id":"levelo_inurba_marseille","lat":43.28477,"lon":5.38426,"is_reserved":false,"is_disabled":false,"rental_uris":{"android":"levelo://app?vid=38a79727-1930-4e6b-89dc-be580da3729c","ios":"levelo://app?vid=38a79727-1930-4e6b-89dc-be580da3729c"},"vehicle_type_id":"4","last_reported":1740416886,"current_range_meters":17200,"station_id":"ce4bh512rcd13ifvqe3g","pricing_plan_id":"cebpf4jnsgd1na2vs0mg"},{"bike_id":"a2035039-b045-448f-89e4-7f0c3ab7c431","system_id":"levelo_inurba_marseille","lat":43.27811,"lon":5.40713,"is_reserved":false,"is_disabled":false,"rental_uris":{"android":"levelo://app?vid=a2035039-b045-448f-89e4-7f0c3ab7c431","ios":"levelo://app?vid=a2035039-b045-448f-89e4-7f0c3ab7c431"},"vehicle_type_id":"4","last_reported":1740416886,"current_range_meters":17200,"station_id":"ce4bhnh2rcd13ifvqgtg","pricing_plan_id":"cebpf4jnsgd1na2vs0mg"},{"bike_id":"2802703d-63b8-4f4f-83a7-ba55cf9c200e","system_id":"levelo_inurba_marseille","lat":43.30543,"lon":5.3673,"is_reserved":false,"is_disabled":false,"rental_uris":{"android":"levelo://app?vid=2802703d-63b8-4f4f-83a7-ba55cf9c200e","ios":"levelo://app?vid=2802703d-63b8-4f4f-83a7-ba55cf9c200e"},"vehicle_type_id":"4","last_reported":1740416886,"current_range_meters":17200,"station_id":"ce4bgrp2rcd13ifvqc9g","pricing_plan_id":"cebpf4jnsgd1na2vs0mg"},{"bike_id":"1fcfb0dd-8825-4705-9aee-1a9a26ba78f1","system_id":"levelo_inurba_marseille","lat":43.28109,"lon":5.37844,"is_reserved":false,"is_disabled":false,"rental_uris":{"android":"levelo://app?vid=1fcfb0dd-8825-4705-9aee-1a9a26ba78f1","ios":"levelo://app?vid=1fcfb0dd-8825-4705-9aee-1a9a26ba78f1"},"vehicle_type_id":"4","last_reported":1740416886,"current_range_meters":17600,"station_id":"ce4bha12rcd13ifvqee0","pricing_plan_id":"cebpf4jnsgd1na2vs0mg"},{"bike_id":"9062f7b6-9c81-49b8-a1bd-5df58202afcd","system_id":"levelo_inurba_marseille","lat":43.31704,"lon":5.43714,"is_reserved":false,"is_disabled":false,"rental_uris":{"android":"levelo://app?vid=9062f7b6-9c81-49b8-a1bd-5df58202afcd","ios":"levelo://app?vid=9062f7b6-9c81-49b8-a1bd-5df58202afcd"},"vehicle_type_id":"4","last_reported":1740416886,"current_range_meters":17600,"station_id":"ce4bhp92rcd13ifvqhcg","pricing_plan_id":"cebpf4jnsgd1na2vs0mg"},{"bike_id":"8514fc45-931a-4d33-8ebd-119ca23a33dc","system_id":"levelo_inurba_marseille","lat":43.27826,"lon":5.40701,"is_reserved":false,"is_disabled":false,"rental_uris":{"android":"levelo://app?vid=8514fc45-931a-4d33-8ebd-119ca23a33dc","ios":"levelo://app?vid=8514fc45-931a-4d33-8ebd-119ca23a33dc"},"vehicle_type_id":"4","last_reported":1740416886,"current_range_meters":16800,"station_id":"ce4bhnh2rcd13ifvqgtg","pricing_plan_id":"cebpf4jnsgd1na2vs0mg"},{"bike_id":"6d671fa3-b1ce-4470-905e-4421960aae20","system_id":"levelo_inurba_marseille","lat":43.25944,"lon":5.40947,"is_reserved":false,"is_disabled":false,"rental_uris":{"android":"levelo://app?vid=6d671fa3-b1ce-4470-905e-4421960aae20","ios":"levelo://app?vid=6d671fa3-b1ce-4470-905e-4421960aae20"},"vehicle_type_id":"4","last_reported":1740416886,"current_range_meters":17200,"station_id":"ce4bhm92rcd13ifvqglg","pricing_plan_id":"cebpf4jnsgd1na2vs0mg"},{"bike_id":"9bae5e49-3723-4acb-a61e-79e9e71e4940","system_id":"levelo_inurba_marseille","lat":43.304291,"lon":5.39745,"is_reserved":false,"is_disabled":false,"rental_uris":{"android":"levelo://app?vid=9bae5e49-3723-4acb-a61e-79e9e71e4940","ios":"levelo://app?vid=9bae5e49-3723-4acb-a61e-79e9e71e4940"},"vehicle_type_id":"4","last_reported":1740416886,"current_range_meters":17200,"station_id":"ce4bh092rcd13ifvqd20","pricing_plan_id":"cebpf4jnsgd1na2vs0mg"},{"bike_id":"9eb6e4e2-e3be-4354-8bec-9312b61b3777","system_id":"levelo_inurba_marseille","lat":43.29321,"lon":5.41153,"is_reserved":false,"is_disabled":false,"rental_uris":{"android":"levelo://app?vid=9eb6e4e2-e3be-4354-8bec-9312b61b3777","ios":"levelo://app?vid=9eb6e4e2-e3be-4354-8bec-9312b61b3777"},"vehicle_type_id":"4","last_reported":1740416886,"current_range_meters":17200,"station_id":"","pricing_plan_id":"cebpf4jnsgd1na2vs0mg"},{"bike_id":"e5668c6a-872c-4c8f-a9f3-82602d14accf","system_id":"levelo_inurba_marseille","lat":43.28481,"lon":5.38418,"is_reserved":false,"is_disabled":false,"rental_uris":{"android":"levelo://app?vid=e5668c6a-872c-4c8f-a9f3-82602d14accf","ios":"levelo://app?vid=e5668c6a-872c-4c8f-a9f3-82602d14accf"},"vehicle_type_id":"4","last_reported":1740416886,"current_range_meters":17600,"station_id":"ce4bh512rcd13ifvqe3g","pricing_plan_id":"cebpf4jnsgd1na2vs0mg"},{"bike_id":"78f8e3e8-8c80-41ad-8737-6c151e49196c","system_id":"levelo_inurba_marseille","lat":43.29258,"lon":5.40907,"is_reserved":false,"is_disabled":false,"rental_uris":{"android":"levelo://app?vid=78f8e3e8-8c80-41ad-8737-6c151e49196c","ios":"levelo://app?vid=78f8e3e8-8c80-41ad-8737-6c151e49196c"},"vehicle_type_id":"4","last_reported":1740416886,"current_range_meters":17600,"station_id":"ce4bh192rcd13ifvqdc0","pricing_plan_id":"cebpf4jnsgd1na2vs0mg"},{"bike_id":"1e8204d6-9c2d-49d2-a3e4-b9b5a368d21f","system_id":"levelo_inurba_marseille","lat":43.30354,"lon":5.41877,"is_reserved":false,"is_disabled":false,"rental_uris":{"android":"levelo://app?vid=1e8204d6-9c2d-49d2-a3e4-b9b5a368d21f","ios":"levelo://app?vid=1e8204d6-9c2d-49d2-a3e4-b9b5a368d21f"},"vehicle_type_id":"4","last_reported":1740416886,"current_range_meters":17600,"station_id":"ce4bhop2rcd13ifvqh7g","pricing_plan_id":"cebpf4jnsgd1na2vs0mg"},{"bike_id":"c0056d99-c038-4e3e-a1a5-11748316c132","system_id":"levelo_inurba_marseille","lat":43.29441,"lon":5.39765,"is_reserved":false,"is_disabled":false,"rental_uris":{"android":"levelo://app?vid=c0056d99-c038-4e3e-a1a5-11748316c132","ios":"levelo://app?vid=c0056d99-c038-4e3e-a1a5-11748316c132"},"vehicle_type_id":"4","last_reported":1740416886,"current_range_meters":18000,"station_id":"ce4bh3h2rcd13ifvqdo0","pricing_plan_id":"cebpf4jnsgd1na2vs0mg"},{"bike_id":"2d056d3e-837d-4fd5-9b05-bd38c6107b01","system_id":"levelo_inurba_marseille","lat":43.28461,"lon":5.35894,"is_reserved":false,"is_disabled":false,"rental_uris":{"android":"levelo://app?vid=2d056d3e-837d-4fd5-9b05-bd38c6107b01","ios":"levelo://app?vid=2d056d3e-837d-4fd5-9b05-bd38c6107b01"},"vehicle_type_id":"4","last_reported":1740416886,"current_range_meters":17600,"station_id":"ce4bhah2rcd13ifvqei0","pricing_plan_id":"cebpf4jnsgd1na2vs0mg"},{"bike_id":"e9450d61-7e12-49ac-9e64-6fdcd904c3ba","system_id":"levelo_inurba_marseille","lat":43.30312,"lon":5.36918,"is_reserved":false,"is_disabled":false,"rental_uris":{"android":"levelo://app?vid=e9450d61-7e12-49ac-9e64-6fdcd904c3ba","ios":"levelo://app?vid=e9450d61-7e12-49ac-9e64-6fdcd904c3ba"},"vehicle_type_id":"4","last_reported":1740416886,"current_range_meters":17600,"station_id":"ce4bgqh2rcd13ifvqc5g","pricing_plan_id":"cebpf4jnsgd1na2vs0mg"},{"bike_id":"02d5ce1a-922f-4ad2-95aa-9f96f248121d","system_id":"levelo_inurba_marseille","lat":43.24181,"lon":5.39715,"is_reserved":false,"is_disabled":false,"rental_uris":{"android":"levelo://app?vid=02d5ce1a-922f-4ad2-95aa-9f96f248121d","ios":"levelo://app?vid=02d5ce1a-922f-4ad2-95aa-9f96f248121d"},"vehicle_type_id":"4","last_reported":1740416886,"current_range_meters":19600,"station_id":"ce4bhn12rcd13ifvqgpg","pricing_plan_id":"cebpf4jnsgd1na2vs0mg"},{"bike_id":"8afc8459-94f9-401d-8b44-8a5a9ace93ae","system_id":"levelo_inurba_marseille","lat":43.29444,"lon":5.39749,"is_reserved":false,"is_disabled":false,"rental_uris":{"android":"levelo://app?vid=8afc8459-94f9-401d-8b44-8a5a9ace93ae","ios":"levelo://app?vid=8afc8459-94f9-401d-8b44-8a5a9ace93ae"},"vehicle_type_id":"4","last_reported":1740416886,"current_range_meters":17200,"station_id":"ce4bh3h2rcd13ifvqdo0","pricing_plan_id":"cebpf4jnsgd1na2vs0mg"},{"bike_id":"c3d0fefa-5db4-49bd-a964-1a22da440d36","system_id":"levelo_inurba_marseille","lat":43.269559,"lon":5.386313,"is_reserved":false,"is_disabled":false,"rental_uris":{"android":"levelo://app?vid=c3d0fefa-5db4-49bd-a964-1a22da440d36","ios":"levelo://app?vid=c3d0fefa-5db4-49bd-a964-1a22da440d36"},"vehicle_type_id":"4","last_reported":1740416886,"current_range_meters":17600,"station_id":"","pricing_plan_id":"cebpf4jnsgd1na2vs0mg"},{"bike_id":"afe2cb48-d4ce-4d0a-85bf-bfabf56025fb","system_id":"levelo_inurba_marseille","lat":43.290332,"lon":5.3756,"is_reserved":false,"is_disabled":false,"rental_uris":{"android":"levelo://app?vid=afe2cb48-d4ce-4d0a-85bf-bfabf56025fb","ios":"levelo://app?vid=afe2cb48-d4ce-4d0a-85bf-bfabf56025fb"},"vehicle_type_id":"4","last_reported":1740416886,"current_range_meters":17600,"station_id":"ce4bh692rcd13ifvqe90","pricing_plan_id":"cebpf4jnsgd1na2vs0mg"},{"bike_id":"635db070-a41a-47ca-b56d-0dd882894e37","system_id":"levelo_inurba_marseille","lat":43.26227,"lon":5.40452,"is_reserved":false,"is_disabled":false,"rental_uris":{"android":"levelo://app?vid=635db070-a41a-47ca-b56d-0dd882894e37","ios":"levelo://app?vid=635db070-a41a-47ca-b56d-0dd882894e37"},"vehicle_type_id":"4","last_reported":1740416886,"current_range_meters":19200,"station_id":"ce4bhmh2rcd13ifvqgmg","pricing_plan_id":"cebpf4jnsgd1na2vs0mg"},{"bike_id":"23029b33-e2fc-4349-9d5e-b78f1ee32e8a","system_id":"levelo_inurba_marseille","lat":43.29566,"lon":5.39984,"is_reserved":false,"is_disabled":false,"rental_uris":{"android":"levelo://app?vid=23029b33-e2fc-4349-9d5e-b78f1ee32e8a","ios":"levelo://app?vid=23029b33-e2fc-4349-9d5e-b78f1ee32e8a"},"vehicle_type_id":"4","last_reported":1740416886,"current_range_meters":18800,"station_id":"ce4bh312rcd13ifvqdj0","pricing_plan_id":"cebpf4jnsgd1na2vs0mg"},{"bike_id":"46814d2f-dec0-460c-883a-bfd2811fc0e2","system_id":"levelo_inurba_marseille","lat":43.29586,"lon":5.36736,"is_reserved":false,"is_disabled":false,"rental_uris":{"android":"levelo://app?vid=46814d2f-dec0-460c-883a-bfd2811fc0e2","ios":"levelo://app?vid=46814d2f-dec0-460c-883a-bfd2811fc0e2"},"vehicle_type_id":"4","last_reported":1740416886,"current_range_meters":18000,"station_id":"ce4bgph2rcd13ifvqc2g","pricing_plan_id":"cebpf4jnsgd1na2vs0mg"},{"bike_id":"f2b1efce-c6a7-42b1-9368-cb4af550c473","system_id":"levelo_inurba_marseille","lat":43.27965,"lon":5.38746,"is_reserved":false,"is_disabled":false,"rental_uris":{"android":"levelo://app?vid=f2b1efce-c6a7-42b1-9368-cb4af550c473","ios":"levelo://app?vid=f2b1efce-c6a7-42b1-9368-cb4af550c473"},"vehicle_type_id":"4","last_reported":1740416886,"current_range_meters":17600,"station_id":"ce4bhg12rcd13ifvqf80","pricing_plan_id":"cebpf4jnsgd1na2vs0mg"},{"bike_id":"15e8c3b2-b3d1-4809-9c2d-6569456398d1","system_id":"levelo_inurba_marseille","lat":43.29123,"lon":5.3823,"is_reserved":false,"is_disabled":false,"rental_uris":{"android":"levelo://app?vid=15e8c3b2-b3d1-4809-9c2d-6569456398d1","ios":"levelo://app?vid=15e8c3b2-b3d1-4809-9c2d-6569456398d1"},"vehicle_type_id":"4","last_reported":1740416886,"current_range_meters":18000,"station_id":"ce4bh692rcd13ifvqea0","pricing_plan_id":"cebpf4jnsgd1na2vs0mg"},{"bike_id":"d3a624d3-140c-4015-8254-af12ae2df535","system_id":"levelo_inurba_marseille","lat":43.29895,"lon":5.39746,"is_reserved":false,"is_disabled":false,"rental_uris":{"android":"levelo://app?vid=d3a624d3-140c-4015-8254-af12ae2df535","ios":"levelo://app?vid=d3a624d3-140c-4015-8254-af12ae2df535"},"vehicle_type_id":"4","last_reported":1740416886,"current_range_meters":18000,"station_id":"ce4bh0h2rcd13ifvqd50","pricing_plan_id":"cebpf4jnsgd1na2vs0mg"},{"bike_id":"3b79d148-3dd1-4ed8-a634-d3f4847e1345","system_id":"levelo_inurba_marseille","lat":43.28962,"lon":5.37835,"is_reserved":false,"is_disabled":false,"rental_uris":{"android":"levelo://app?vid=3b79d148-3dd1-4ed8-a634-d3f4847e1345","ios":"levelo://app?vid=3b79d148-3dd1-4ed8-a634-d3f4847e1345"},"vehicle_type_id":"4","last_reported":1740416886,"current_range_meters":18000,"station_id":"ce4bh9p2rcd13ifvqed0","pricing_plan_id":"cebpf4jnsgd1na2vs0mg"},{"bike_id":"a1917333-e0b9-4ea4-a9c7-24ed9b4e8f1f","system_id":"levelo_inurba_marseille","lat":43.28842,"lon":5.39306,"is_reserved":false,"is_disabled":false,"rental_uris":{"android":"levelo://app?vid=a1917333-e0b9-4ea4-a9c7-24ed9b4e8f1f","ios":"levelo://app?vid=a1917333-e0b9-4ea4-a9c7-24ed9b4e8f1f"},"vehicle_type_id":"4","last_reported":1740416886,"current_range_meters":18000,"station_id":"ce4bh2p2rcd13ifvqdi0","pricing_plan_id":"cebpf4jnsgd1na2vs0mg"},{"bike_id":"f640980b-ce02-4cf9-af90-6525d75ab9c2","system_id":"levelo_inurba_marseille","lat":43.289337,"lon":5.366509,"is_reserved":false,"is_disabled":false,"rental_uris":{"android":"levelo://app?vid=f640980b-ce02-4cf9-af90-6525d75ab9c2","ios":"levelo://app?vid=f640980b-ce02-4cf9-af90-6525d75ab9c2"},"vehicle_type_id":"4","last_reported":1740416886,"current_range_meters":18800,"station_id":"ce4bhap2rcd13ifvqek0","pricing_plan_id":"cebpf4jnsgd1na2vs0mg"},{"bike_id":"780136cd-89a2-4de8-969f-5f3926c1a6da","system_id":"levelo_inurba_marseille","lat":43.29264,"lon":5.38435,"is_reserved":false,"is_disabled":false,"rental_uris":{"android":"levelo://app?vid=780136cd-89a2-4de8-969f-5f3926c1a6da","ios":"levelo://app?vid=780136cd-89a2-4de8-969f-5f3926c1a6da"},"vehicle_type_id":"4","last_reported":1740416886,"current_range_meters":18000,"station_id":"ce4bh692rcd13ifvqea0","pricing_plan_id":"cebpf4jnsgd1na2vs0mg"},{"bike_id":"303f5834-4b0b-4222-95cc-7cbe4362e149","system_id":"levelo_inurba_marseille","lat":43.28712,"lon":5.3739,"is_reserved":false,"is_disabled":false,"rental_uris":{"android":"levelo://app?vid=303f5834-4b0b-4222-95cc-7cbe4362e149","ios":"levelo://app?vid=303f5834-4b0b-4222-95cc-7cbe4362e149"},"vehicle_type_id":"4","last_reported":1740416886,"current_range_meters":18800,"station_id":"ce4bh3p2rcd13ifvqdq0","pricing_plan_id":"cebpf4jnsgd1na2vs0mg"},{"bike_id":"694a5d0a-ec43-42d6-9cff-0aa9bcfb4aeb","system_id":"levelo_inurba_marseille","lat":43.28151,"lon":5.42642,"is_reserved":false,"is_disabled":false,"rental_uris":{"android":"levelo://app?vid=694a5d0a-ec43-42d6-9cff-0aa9bcfb4aeb","ios":"levelo://app?vid=694a5d0a-ec43-42d6-9cff-0aa9bcfb4aeb"},"vehicle_type_id":"4","last_reported":1740416886,"current_range_meters":18800,"station_id":"ce4bhnh2rcd13ifvqgug","pricing_plan_id":"cebpf4jnsgd1na2vs0mg"},{"bike_id":"1696368e-626f-442f-8f30-59dad33cba02","system_id":"levelo_inurba_marseille","lat":43.3133,"lon":5.397,"is_reserved":false,"is_disabled":false,"rental_uris":{"android":"levelo://app?vid=1696368e-626f-442f-8f30-59dad33cba02","ios":"levelo://app?vid=1696368e-626f-442f-8f30-59dad33cba02"},"vehicle_type_id":"4","last_reported":1740416886,"current_range_meters":18000,"station_id":"ce4bgvp2rcd13ifvqcu0","pricing_plan_id":"cebpf4jnsgd1na2vs0mg"},{"bike_id":"8c6d99e3-425a-49f0-8765-29c482b97d46","system_id":"levelo_inurba_marseille","lat":43.23179,"lon":5.39995,"is_reserved":false,"is_disabled":false,"rental_uris":{"android":"levelo://app?vid=8c6d99e3-425a-49f0-8765-29c482b97d46","ios":"levelo://app?vid=8c6d99e3-425a-49f0-8765-29c482b97d46"},"vehicle_type_id":"4","last_reported":1740416886,"current_range_meters":18800,"station_id":"ce4bhn12rcd13ifvqgqg","pricing_plan_id":"cebpf4jnsgd1na2vs0mg"},{"bike_id":"7c45866a-bd99-4c12-9747-66203f12a96e","system_id":"levelo_inurba_marseille","lat":43.23149,"lon":5.35517,"is_reserved":false,"is_disabled":false,"rental_uris":{"android":"levelo://app?vid=7c45866a-bd99-4c12-9747-66203f12a96e","ios":"levelo://app?vid=7c45866a-bd99-4c12-9747-66203f12a96e"},"vehicle_type_id":"4","last_reported":1740416886,"current_range_meters":18800,"station_id":"","pricing_plan_id":"cebpf4jnsgd1na2vs0mg"},{"bike_id":"29337d22-1a09-4901-a9a5-65a64cb4e2dc","system_id":"levelo_inurba_marseille","lat":43.28708,"lon":5.37404,"is_reserved":false,"is_disabled":false,"rental_uris":{"android":"levelo://app?vid=29337d22-1a09-4901-a9a5-65a64cb4e2dc","ios":"levelo://app?vid=29337d22-1a09-4901-a9a5-65a64cb4e2dc"},"vehicle_type_id":"4","last_reported":1740416886,"current_range_meters":17600,"station_id":"ce4bh3p2rcd13ifvqdq0","pricing_plan_id":"cebpf4jnsgd1na2vs0mg"},{"bike_id":"1fca217b-48ce-4aa8-b7ad-8e1d614c736d","system_id":"levelo_inurba_marseille","lat":43.28485,"lon":5.38409,"is_reserved":false,"is_disabled":false,"rental_uris":{"android":"levelo://app?vid=1fca217b-48ce-4aa8-b7ad-8e1d614c736d","ios":"levelo://app?vid=1fca217b-48ce-4aa8-b7ad-8e1d614c736d"},"vehicle_type_id":"4","last_reported":1740416886,"current_range_meters":18800,"station_id":"ce4bh512rcd13ifvqe3g","pricing_plan_id":"cebpf4jnsgd1na2vs0mg"},{"bike_id":"e5e85314-3dd2-4e88-b544-790c3c4f2ae7","system_id":"levelo_inurba_marseille","lat":43.28565,"lon":5.39501,"is_reserved":false,"is_disabled":false,"rental_uris":{"android":"levelo://app?vid=e5e85314-3dd2-4e88-b544-790c3c4f2ae7","ios":"levelo://app?vid=e5e85314-3dd2-4e88-b544-790c3c4f2ae7"},"vehicle_type_id":"4","last_reported":1740416886,"current_range_meters":18800,"station_id":"ce4bh292rcd13ifvqdg0","pricing_plan_id":"cebpf4jnsgd1na2vs0mg"},{"bike_id":"de1fca4c-3b86-495b-a11f-77751a415a53","system_id":"levelo_inurba_marseille","lat":43.28437,"lon":5.35903,"is_reserved":false,"is_disabled":false,"rental_uris":{"android":"levelo://app?vid=de1fca4c-3b86-495b-a11f-77751a415a53","ios":"levelo://app?vid=de1fca4c-3b86-495b-a11f-77751a415a53"},"vehicle_type_id":"4","last_reported":1740416886,"current_range_meters":19200,"station_id":"ce4bhah2rcd13ifvqei0","pricing_plan_id":"cebpf4jnsgd1na2vs0mg"},{"bike_id":"c68f3a0b-e764-4bf3-9b63-b72387fdffb5","system_id":"levelo_inurba_marseille","lat":43.28827,"lon":5.35872,"is_reserved":false,"is_disabled":false,"rental_uris":{"android":"levelo://app?vid=c68f3a0b-e764-4bf3-9b63-b72387fdffb5","ios":"levelo://app?vid=c68f3a0b-e764-4bf3-9b63-b72387fdffb5"},"vehicle_type_id":"4","last_reported":1740416886,"current_range_meters":19200,"station_id":"ce4bhb12rcd13ifvqem0","pricing_plan_id":"cebpf4jnsgd1na2vs0mg"},{"bike_id":"62c36d63-aa19-4297-b04d-6e861d8be381","system_id":"levelo_inurba_marseille","lat":43.24182,"lon":5.39725,"is_reserved":false,"is_disabled":false,"rental_uris":{"android":"levelo://app?vid=62c36d63-aa19-4297-b04d-6e861d8be381","ios":"levelo://app?vid=62c36d63-aa19-4297-b04d-6e861d8be381"},"vehicle_type_id":"4","last_reported":1740416886,"current_range_meters":19200,"station_id":"ce4bhn12rcd13ifvqgpg","pricing_plan_id":"cebpf4jnsgd1na2vs0mg"},{"bike_id":"67462c7c-fcd4-47dc-94d8-9d7a33d5da2f","system_id":"levelo_inurba_marseille","lat":43.27942,"lon":5.41049,"is_reserved":false,"is_disabled":false,"rental_uris":{"android":"levelo://app?vid=67462c7c-fcd4-47dc-94d8-9d7a33d5da2f","ios":"levelo://app?vid=67462c7c-fcd4-47dc-94d8-9d7a33d5da2f"},"vehicle_type_id":"4","last_reported":1740416886,"current_range_meters":18000,"station_id":"ce4bhnp2rcd13ifvqh0g","pricing_plan_id":"cebpf4jnsgd1na2vs0mg"},{"bike_id":"26d883bf-a245-4743-b2e4-67f509acd214","system_id":"levelo_inurba_marseille","lat":43.25579,"lon":5.38231,"is_reserved":false,"is_disabled":false,"rental_uris":{"android":"levelo://app?vid=26d883bf-a245-4743-b2e4-67f509acd214","ios":"levelo://app?vid=26d883bf-a245-4743-b2e4-67f509acd214"},"vehicle_type_id":"4","last_reported":1740416886,"current_range_meters":19600,"station_id":"ce4bhih2rcd13ifvqfs0","pricing_plan_id":"cebpf4jnsgd1na2vs0mg"},{"bike_id":"1b946669-658f-41f3-8d98-98f83548ea9d","system_id":"levelo_inurba_marseille","lat":43.31269,"lon":5.4017,"is_reserved":false,"is_disabled":false,"rental_uris":{"android":"levelo://app?vid=1b946669-658f-41f3-8d98-98f83548ea9d","ios":"levelo://app?vid=1b946669-658f-41f3-8d98-98f83548ea9d"},"vehicle_type_id":"4","last_reported":1740416886,"current_range_meters":19600,"station_id":"ce4bh092rcd13ifvqd30","pricing_plan_id":"cebpf4jnsgd1na2vs0mg"},{"bike_id":"3e55e0a7-4277-4692-af37-c2adab02ebb9","system_id":"levelo_inurba_marseille","lat":43.25727,"lon":5.41098,"is_reserved":false,"is_disabled":false,"rental_uris":{"android":"levelo://app?vid=3e55e0a7-4277-4692-af37-c2adab02ebb9","ios":"levelo://app?vid=3e55e0a7-4277-4692-af37-c2adab02ebb9"},"vehicle_type_id":"4","last_reported":1740416886,"current_range_meters":19600,"station_id":"ce4bhkp2rcd13ifvqgd0","pricing_plan_id":"cebpf4jnsgd1na2vs0mg"},{"bike_id":"b0229e24-ee44-4973-aeb2-67a4ded783a5","system_id":"levelo_inurba_marseille","lat":43.299128,"lon":5.374927,"is_reserved":false,"is_disabled":false,"rental_uris":{"android":"levelo://app?vid=b0229e24-ee44-4973-aeb2-67a4ded783a5","ios":"levelo://app?vid=b0229e24-ee44-4973-aeb2-67a4ded783a5"},"vehicle_type_id":"4","last_reported":1740416886,"current_range_meters":19200,"station_id":"ce4bhb12rcd13ifvqel0","pricing_plan_id":"cebpf4jnsgd1na2vs0mg"},{"bike_id":"0d9dabad-2f42-4397-9580-47238a62d005","system_id":"levelo_inurba_marseille","lat":43.305505,"lon":5.366875,"is_reserved":false,"is_disabled":false,"rental_uris":{"android":"levelo://app?vid=0d9dabad-2f42-4397-9580-47238a62d005","ios":"levelo://app?vid=0d9dabad-2f42-4397-9580-47238a62d005"},"vehicle_type_id":"4","last_reported":1740416886,"current_range_meters":20000,"station_id":"ce4bgrp2rcd13ifvqc9g","pricing_plan_id":"cebpf4jnsgd1na2vs0mg"},{"bike_id":"cfd82043-be34-4590-a6ac-fe9d1d421d48","system_id":"levelo_inurba_marseille","lat":43.2835,"lon":5.38114,"is_reserved":false,"is_disabled":false,"rental_uris":{"android":"levelo://app?vid=cfd82043-be34-4590-a6ac-fe9d1d421d48","ios":"levelo://app?vid=cfd82043-be34-4590-a6ac-fe9d1d421d48"},"vehicle_type_id":"4","last_reported":1740416886,"current_range_meters":20000,"station_id":"ce4bh412rcd13ifvqdr0","pricing_plan_id":"cebpf4jnsgd1na2vs0mg"},{"bike_id":"5c610b69-6ff8-4c2b-80df-0a297a5dab39","system_id":"levelo_inurba_marseille","lat":43.23193,"lon":5.3998,"is_reserved":false,"is_disabled":false,"rental_uris":{"android":"levelo://app?vid=5c610b69-6ff8-4c2b-80df-0a297a5dab39","ios":"levelo://app?vid=5c610b69-6ff8-4c2b-80df-0a297a5dab39"},"vehicle_type_id":"4","last_reported":1740416886,"current_range_meters":19600,"station_id":"ce4bhn12rcd13ifvqgqg","pricing_plan_id":"cebpf4jnsgd1na2vs0mg"},{"bike_id":"4e07a012-c91b-47bb-ade0-3caa279dc7bc","system_id":"levelo_inurba_marseille","lat":43.2952,"lon":5.39058,"is_reserved":false,"is_disabled":false,"rental_uris":{"android":"levelo://app?vid=4e07a012-c91b-47bb-ade0-3caa279dc7bc","ios":"levelo://app?vid=4e07a012-c91b-47bb-ade0-3caa279dc7bc"},"vehicle_type_id":"4","last_reported":1740416886,"current_range_meters":19200,"station_id":"ce4bh3p2rcd13ifvqdp0","pricing_plan_id":"cebpf4jnsgd1na2vs0mg"},{"bike_id":"2c5b41d8-2247-4fb1-8662-067a63dc29af","system_id":"levelo_inurba_marseille","lat":43.29921,"lon":5.36528,"is_reserved":false,"is_disabled":false,"rental_uris":{"android":"levelo://app?vid=2c5b41d8-2247-4fb1-8662-067a63dc29af","ios":"levelo://app?vid=2c5b41d8-2247-4fb1-8662-067a63dc29af"},"vehicle_type_id":"4","last_reported":1740416886,"current_range_meters":20000,"station_id":"ce4bgm92rcd13ifvqbr0","pricing_plan_id":"cebpf4jnsgd1na2vs0mg"},{"bike_id":"57080749-e4a5-4346-b64e-6ea7879563a8","system_id":"levelo_inurba_marseille","lat":43.297546,"lon":5.380974,"is_reserved":false,"is_disabled":false,"rental_uris":{"android":"levelo://app?vid=57080749-e4a5-4346-b64e-6ea7879563a8","ios":"levelo://app?vid=57080749-e4a5-4346-b64e-6ea7879563a8"},"vehicle_type_id":"4","last_reported":1740416886,"current_range_meters":20800,"station_id":"ce4bgi92rcd13ifvqb90","pricing_plan_id":"cebpf4jnsgd1na2vs0mg"},{"bike_id":"49667479-3d05-4a63-b64b-192f43b61c62","system_id":"levelo_inurba_marseille","lat":43.28939,"lon":5.36409,"is_reserved":false,"is_disabled":false,"rental_uris":{"android":"levelo://app?vid=49667479-3d05-4a63-b64b-192f43b61c62","ios":"levelo://app?vid=49667479-3d05-4a63-b64b-192f43b61c62"},"vehicle_type_id":"4","last_reported":1740416886,"current_range_meters":19600,"station_id":"ce4bhc92rcd13ifvqetg","pricing_plan_id":"cebpf4jnsgd1na2vs0mg"},{"bike_id":"6608f6c4-9bea-43fa-bf71-a9ba81579e36","system_id":"levelo_inurba_marseille","lat":43.29879,"lon":5.38919,"is_reserved":false,"is_disabled":false,"rental_uris":{"android":"levelo://app?vid=6608f6c4-9bea-43fa-bf71-a9ba81579e36","ios":"levelo://app?vid=6608f6c4-9bea-43fa-bf71-a9ba81579e36"},"vehicle_type_id":"4","last_reported":1740416886,"current_range_meters":20000,"station_id":"ce4bh392rcd13ifvqdl0","pricing_plan_id":"cebpf4jnsgd1na2vs0mg"},{"bike_id":"4879d064-39cf-4af4-84fe-2e121100282f","system_id":"levelo_inurba_marseille","lat":43.26051,"lon":5.39399,"is_reserved":false,"is_disabled":false,"rental_uris":{"android":"levelo://app?vid=4879d064-39cf-4af4-84fe-2e121100282f","ios":"levelo://app?vid=4879d064-39cf-4af4-84fe-2e121100282f"},"vehicle_type_id":"4","last_reported":1740416886,"current_range_meters":19600,"station_id":"ce4bhh92rcd13ifvqfj0","pricing_plan_id":"cebpf4jnsgd1na2vs0mg"},{"bike_id":"bdf6eb74-93df-4f60-85c1-74f490a39e7e","system_id":"levelo_inurba_marseille","lat":43.30455,"lon":5.37898,"is_reserved":false,"is_disabled":false,"rental_uris":{"android":"levelo://app?vid=bdf6eb74-93df-4f60-85c1-74f490a39e7e","ios":"levelo://app?vid=bdf6eb74-93df-4f60-85c1-74f490a39e7e"},"vehicle_type_id":"4","last_reported":1740416886,"current_range_meters":20000,"station_id":"ce4bgup2rcd13ifvqcn0","pricing_plan_id":"cebpf4jnsgd1na2vs0mg"},{"bike_id":"c7f2ac42-f475-4455-b462-1f2fcce42f7f","system_id":"levelo_inurba_marseille","lat":43.29424,"lon":5.38648,"is_reserved":false,"is_disabled":false,"rental_uris":{"android":"levelo://app?vid=c7f2ac42-f475-4455-b462-1f2fcce42f7f","ios":"levelo://app?vid=c7f2ac42-f475-4455-b462-1f2fcce42f7f"},"vehicle_type_id":"4","last_reported":1740416886,"current_range_meters":20000,"station_id":"ce4bh2h2rcd13ifvqdh0","pricing_plan_id":"cebpf4jnsgd1na2vs0mg"},{"bike_id":"c6a36f08-ce5f-45a3-8813-39608040a9bb","system_id":"levelo_inurba_marseille","lat":43.27998,"lon":5.40012,"is_reserved":false,"is_disabled":false,"rental_uris":{"android":"levelo://app?vid=c6a36f08-ce5f-45a3-8813-39608040a9bb","ios":"levelo://app?vid=c6a36f08-ce5f-45a3-8813-39608040a9bb"},"vehicle_type_id":"4","last_reported":1740416886,"current_range_meters":20000,"station_id":"ce4bho92rcd13ifvqh4g","pricing_plan_id":"cebpf4jnsgd1na2vs0mg"},{"bike_id":"37eafe9d-79f9-45ce-a1af-71f01dd452fb","system_id":"levelo_inurba_marseille","lat":43.28458,"lon":5.3589,"is_reserved":false,"is_disabled":false,"rental_uris":{"android":"levelo://app?vid=37eafe9d-79f9-45ce-a1af-71f01dd452fb","ios":"levelo://app?vid=37eafe9d-79f9-45ce-a1af-71f01dd452fb"},"vehicle_type_id":"4","last_reported":1740416886,"current_range_meters":20000,"station_id":"ce4bhah2rcd13ifvqei0","pricing_plan_id":"cebpf4jnsgd1na2vs0mg"},{"bike_id":"80a02e80-7339-4ad5-9cb5-3f3bf6655494","system_id":"levelo_inurba_marseille","lat":43.2318,"lon":5.3999,"is_reserved":false,"is_disabled":false,"rental_uris":{"android":"levelo://app?vid=80a02e80-7339-4ad5-9cb5-3f3bf6655494","ios":"levelo://app?vid=80a02e80-7339-4ad5-9cb5-3f3bf6655494"},"vehicle_type_id":"4","last_reported":1740416886,"current_range_meters":22000,"station_id":"ce4bhn12rcd13ifvqgqg","pricing_plan_id":"cebpf4jnsgd1na2vs0mg"},{"bike_id":"fe6f623f-055c-4e18-93c3-af890a40f9cc","system_id":"levelo_inurba_marseille","lat":43.31996,"lon":5.38168,"is_reserved":false,"is_disabled":false,"rental_uris":{"android":"levelo://app?vid=fe6f623f-055c-4e18-93c3-af890a40f9cc","ios":"levelo://app?vid=fe6f623f-055c-4e18-93c3-af890a40f9cc"},"vehicle_type_id":"4","last_reported":1740416886,"current_range_meters":20000,"station_id":"ce4bhr12rcd13ifvqhpg","pricing_plan_id":"cebpf4jnsgd1na2vs0mg"},{"bike_id":"7a2fb4c8-6ce6-4396-b7dc-6498ca0ee4df","system_id":"levelo_inurba_marseille","lat":43.288391,"lon":5.399941,"is_reserved":false,"is_disabled":false,"rental_uris":{"android":"levelo://app?vid=7a2fb4c8-6ce6-4396-b7dc-6498ca0ee4df","ios":"levelo://app?vid=7a2fb4c8-6ce6-4396-b7dc-6498ca0ee4df"},"vehicle_type_id":"4","last_reported":1740416886,"current_range_meters":20800,"station_id":"ce4bho92rcd13ifvqh3g","pricing_plan_id":"cebpf4jnsgd1na2vs0mg"},{"bike_id":"342f6faa-d7db-4869-a8c6-15f071610b9c","system_id":"levelo_inurba_marseille","lat":43.307895,"lon":5.435269,"is_reserved":false,"is_disabled":false,"rental_uris":{"android":"levelo://app?vid=342f6faa-d7db-4869-a8c6-15f071610b9c","ios":"levelo://app?vid=342f6faa-d7db-4869-a8c6-15f071610b9c"},"vehicle_type_id":"4","last_reported":1740416886,"current_range_meters":20000,"station_id":"ce4bhpp2rcd13ifvqhfg","pricing_plan_id":"cebpf4jnsgd1na2vs0mg"},{"bike_id":"99a6215f-6506-4f6e-9c5e-ddad7f4be2a5","system_id":"levelo_inurba_marseille","lat":43.29902,"lon":5.4366,"is_reserved":false,"is_disabled":false,"rental_uris":{"android":"levelo://app?vid=99a6215f-6506-4f6e-9c5e-ddad7f4be2a5","ios":"levelo://app?vid=99a6215f-6506-4f6e-9c5e-ddad7f4be2a5"},"vehicle_type_id":"4","last_reported":1740416886,"current_range_meters":20400,"station_id":"ce4bhpp2rcd13ifvqhfg","pricing_plan_id":"cebpf4jnsgd1na2vs0mg"},{"bike_id":"c3eaf577-384f-49be-90a6-7d88e2904d90","system_id":"levelo_inurba_marseille","lat":43.33599,"lon":5.4099,"is_reserved":false,"is_disabled":true,"rental_uris":{"android":"levelo://app?vid=c3eaf577-384f-49be-90a6-7d88e2904d90","ios":"levelo://app?vid=c3eaf577-384f-49be-90a6-7d88e2904d90"},"vehicle_type_id":"4","last_reported":1740416886,"current_range_meters":20400,"station_id":"ce4bhqh2rcd13ifvqhmg","pricing_plan_id":"cebpf4jnsgd1na2vs0mg"},{"bike_id":"8140536f-d4f8-472f-83af-0e094b3f960a","system_id":"levelo_inurba_marseille","lat":43.31074,"lon":5.4243,"is_reserved":false,"is_disabled":false,"rental_uris":{"android":"levelo://app?vid=8140536f-d4f8-472f-83af-0e094b3f960a","ios":"levelo://app?vid=8140536f-d4f8-472f-83af-0e094b3f960a"},"vehicle_type_id":"4","last_reported":1740416886,"current_range_meters":20400,"station_id":"ce4bhp92rcd13ifvqhag","pricing_plan_id":"cebpf4jnsgd1na2vs0mg"},{"bike_id":"f006bf52-7d11-46c9-8693-b08feb2e49e9","system_id":"levelo_inurba_marseille","lat":43.28423,"lon":5.34975,"is_reserved":false,"is_disabled":false,"rental_uris":{"android":"levelo://app?vid=f006bf52-7d11-46c9-8693-b08feb2e49e9","ios":"levelo://app?vid=f006bf52-7d11-46c9-8693-b08feb2e49e9"},"vehicle_type_id":"4","last_reported":1740416886,"current_range_meters":20400,"station_id":"ce4bhbh2rcd13ifvqepg","pricing_plan_id":"cebpf4jnsgd1na2vs0mg"},{"bike_id":"79007cdc-de5e-4efc-afda-b6d1d12f249d","system_id":"levelo_inurba_marseille","lat":43.27997,"lon":5.4167,"is_reserved":false,"is_disabled":false,"rental_uris":{"android":"levelo://app?vid=79007cdc-de5e-4efc-afda-b6d1d12f249d","ios":"levelo://app?vid=79007cdc-de5e-4efc-afda-b6d1d12f249d"},"vehicle_type_id":"4","last_reported":1740416886,"current_range_meters":21600,"station_id":"ce4bho12rcd13ifvqh1g","pricing_plan_id":"cebpf4jnsgd1na2vs0mg"},{"bike_id":"9576f82c-2dea-4cd8-b077-f0e24f9bd76b","system_id":"levelo_inurba_marseille","lat":43.28456,"lon":5.35896,"is_reserved":false,"is_disabled":false,"rental_uris":{"android":"levelo://app?vid=9576f82c-2dea-4cd8-b077-f0e24f9bd76b","ios":"levelo://app?vid=9576f82c-2dea-4cd8-b077-f0e24f9bd76b"},"vehicle_type_id":"4","last_reported":1740416886,"current_range_meters":20800,"station_id":"ce4bhah2rcd13ifvqei0","pricing_plan_id":"cebpf4jnsgd1na2vs0mg"},{"bike_id":"d8f5a6c5-b803-4e79-aace-db5a952b2a12","system_id":"levelo_inurba_marseille","lat":43.31482,"lon":5.37311,"is_reserved":false,"is_disabled":false,"rental_uris":{"android":"levelo://app?vid=d8f5a6c5-b803-4e79-aace-db5a952b2a12","ios":"levelo://app?vid=d8f5a6c5-b803-4e79-aace-db5a952b2a12"},"vehicle_type_id":"4","last_reported":1740416886,"current_range_meters":22000,"station_id":"ce4bgt12rcd13ifvqcd0","pricing_plan_id":"cebpf4jnsgd1na2vs0mg"},{"bike_id":"e2bbe779-9d2d-4987-ba23-70de0030ffcb","system_id":"levelo_inurba_marseille","lat":43.2573,"lon":5.41089,"is_reserved":false,"is_disabled":false,"rental_uris":{"android":"levelo://app?vid=e2bbe779-9d2d-4987-ba23-70de0030ffcb","ios":"levelo://app?vid=e2bbe779-9d2d-4987-ba23-70de0030ffcb"},"vehicle_type_id":"4","last_reported":1740416886,"current_range_meters":20800,"station_id":"ce4bhkp2rcd13ifvqgd0","pricing_plan_id":"cebpf4jnsgd1na2vs0mg"},{"bike_id":"931b1ce4-7c15-4755-9d37-125a5e202beb","system_id":"levelo_inurba_marseille","lat":43.30308,"lon":5.36888,"is_reserved":false,"is_disabled":false,"rental_uris":{"android":"levelo://app?vid=931b1ce4-7c15-4755-9d37-125a5e202beb","ios":"levelo://app?vid=931b1ce4-7c15-4755-9d37-125a5e202beb"},"vehicle_type_id":"4","last_reported":1740416886,"current_range_meters":20800,"station_id":"ce4bgqh2rcd13ifvqc5g","pricing_plan_id":"cebpf4jnsgd1na2vs0mg"},{"bike_id":"030de6f3-1c41-45ed-9cbc-a440e8e816c0","system_id":"levelo_inurba_marseille","lat":43.32105,"lon":5.36769,"is_reserved":false,"is_disabled":false,"rental_uris":{"android":"levelo://app?vid=030de6f3-1c41-45ed-9cbc-a440e8e816c0","ios":"levelo://app?vid=030de6f3-1c41-45ed-9cbc-a440e8e816c0"},"vehicle_type_id":"4","last_reported":1740416886,"current_range_meters":21600,"station_id":"ce4bhrh2rcd13ifvqhug","pricing_plan_id":"cebpf4jnsgd1na2vs0mg"},{"bike_id":"4c7f9784-a0df-416c-8083-daf481a7f498","system_id":"levelo_inurba_marseille","lat":43.29934,"lon":5.36548,"is_reserved":false,"is_disabled":false,"rental_uris":{"android":"levelo://app?vid=4c7f9784-a0df-416c-8083-daf481a7f498","ios":"levelo://app?vid=4c7f9784-a0df-416c-8083-daf481a7f498"},"vehicle_type_id":"4","last_reported":1740416886,"current_range_meters":20800,"station_id":"ce4bgm92rcd13ifvqbr0","pricing_plan_id":"cebpf4jnsgd1na2vs0mg"},{"bike_id":"a9c06b5f-6c2f-4392-a548-0468045c24ed","system_id":"levelo_inurba_marseille","lat":43.30306,"lon":5.36899,"is_reserved":false,"is_disabled":true,"rental_uris":{"android":"levelo://app?vid=a9c06b5f-6c2f-4392-a548-0468045c24ed","ios":"levelo://app?vid=a9c06b5f-6c2f-4392-a548-0468045c24ed"},"vehicle_type_id":"4","last_reported":1740416886,"current_range_meters":21600,"station_id":"ce4bgqh2rcd13ifvqc5g","pricing_plan_id":"cebpf4jnsgd1na2vs0mg"},{"bike_id":"7b66f7ab-74b6-4c7a-b0c1-9fa82923b37a","system_id":"levelo_inurba_marseille","lat":43.28417,"lon":5.37511,"is_reserved":false,"is_disabled":false,"rental_uris":{"android":"levelo://app?vid=7b66f7ab-74b6-4c7a-b0c1-9fa82923b37a","ios":"levelo://app?vid=7b66f7ab-74b6-4c7a-b0c1-9fa82923b37a"},"vehicle_type_id":"4","last_reported":1740416886,"current_range_meters":21600,"station_id":"ce4bh412rcd13ifvqds0","pricing_plan_id":"cebpf4jnsgd1na2vs0mg"},{"bike_id":"1890f224-bb89-48d0-a6bb-31f8f1f658fa","system_id":"levelo_inurba_marseille","lat":43.31163,"lon":5.38721,"is_reserved":false,"is_disabled":false,"rental_uris":{"android":"levelo://app?vid=1890f224-bb89-48d0-a6bb-31f8f1f658fa","ios":"levelo://app?vid=1890f224-bb89-48d0-a6bb-31f8f1f658fa"},"vehicle_type_id":"4","last_reported":1740416886,"current_range_meters":21600,"station_id":"ce4bgv12rcd13ifvqcp0","pricing_plan_id":"cebpf4jnsgd1na2vs0mg"},{"bike_id":"94f899bf-bd3f-4434-8c4e-567d061290da","system_id":"levelo_inurba_marseille","lat":43.28355,"lon":5.38116,"is_reserved":false,"is_disabled":false,"rental_uris":{"android":"levelo://app?vid=94f899bf-bd3f-4434-8c4e-567d061290da","ios":"levelo://app?vid=94f899bf-bd3f-4434-8c4e-567d061290da"},"vehicle_type_id":"4","last_reported":1740416886,"current_range_meters":22000,"station_id":"ce4bh412rcd13ifvqdr0","pricing_plan_id":"cebpf4jnsgd1na2vs0mg"},