{"last_updated":1740082224,"ttl":60,"version":"2.2","data":{"bikes":[{"bike_id":"01b7315d-5d0f-4dd1-a01e-2b36cddbe5c5","system_id":"levelo_inurba_marseille","lat":43.29793,"lon":5.39354,"is_reserved":false,"is_disabled":false,"rental_uris":{"android":"levelo://app?vid=01b7315d-5d0f-4dd1-a01e-2b36cddbe5c5","ios":"levelo://app?vid=01b7315d-5d0f-4dd1-a01e-2b36cddbe5c5"},"vehicle_type_id":"4","last_reported":1740082224,"current_range_meters":2800,"station_id":"chh1huq6cuj3fo74tm60","pricing_plan_id":"cebpf4jnsgd1na2vs0mg"},{"bike_id":"adb3d6df-7149-4295-84c9-8f4cb47f9c0e","system_id":"levelo_inurba_marseille","lat":43.27274,"lon":5.40671,"is_reserved":false,"is_disabled":true,"rental_uris":{"android":"levelo://app?vid=adb3d6df-7149-4295-84c9-8f4cb47f9c0e","ios":"levelo://app?vid=adb3d6df-7149-4295-84c9-8f4cb47f9c0e"},"vehicle_type_id":"4","last_reported":1740082224,"current_range_meters":2800,"station_id":"","pricing_plan_id":"cebpf4jnsgd1na2vs0mg"},{"bike_id":"6b955827-2e85-4f87-af5b-e3b5f5cb4bc6","system_id":"levelo_inurba_marseille","lat":43.25122,"lon":5.40321,"is_reserved":false,"is_disabled":false,"rental_uris":{"android":"levelo://app?vid=6b955827-2e85-4f87-af5b-e3b5f5cb4bc6","ios":"levelo://app?vid=6b955827-2e85-4f87-af5b-e3b5f5cb4bc6"},"vehicle_type_id":"4","last_reported":1740082224,"current_range_meters":2000,"station_id":"ce4bhlh2rcd13ifvqgig","pricing_plan_id":"cebpf4jnsgd1na2vs0mg"},{"bike_id":"c048177d-f9ab-4c30-b1ca-130af5282eb9","system_id":"levelo_inurba_marseille","lat":43.29266,"lon":5.38443,"is_reserved":false,"is_disabled":false,"rental_uris":{"android":"levelo://app?vid=c048177d-f9ab-4c30-b1ca-130af5282eb9","ios":"levelo://app?vid=c048177d-f9ab-4c30-b1ca-130af5282eb9"},"vehicle_type_id":"4","last_reported":1740082224,"current_range_meters":3200,"station_id":"","pricing_plan_id":"cebpf4jnsgd1na2vs0mg"},{"bike_id":"7916848d-1058-4652-881a-691f9e289178","system_id":"levelo_inurba_marseille","lat":43.30259,"lon":5.40063,"is_reserved":false,"is_disabled":false,"rental_uris":{"android":"levelo://app?vid=7916848d-1058-4652-881a-691f9e289178","ios":"levelo://app?vid=7916848d-1058-4652-881a-691f9e289178"},"vehicle_type_id":"4","last_reported":1740082224,"current_range_meters":2800,"station_id":"ce4bgvh2rcd13ifvqcs0","pricing_plan_id":"cebpf4jnsgd1na2vs0mg"},{"bike_id":"885ccb29-4c6d-4fe4-87f3-8fb799c3b6c3","system_id":"levelo_inurba_marseille","lat":43.296312,"lon":5.371594,"is_reserved":false,"is_disabled":false,"rental_uris":{"android":"levelo://app?vid=885ccb29-4c6d-4fe4-87f3-8fb799c3b6c3","ios":"levelo://app?vid=885ccb29-4c6d-4fe4-87f3-8fb799c3b6c3"},"vehicle_type_id":"4","last_reported":1740082224,"current_range_meters":3200,"station_id":"ce4bgnh2rcd13ifvqc0g","pricing_plan_id":"cebpf4jnsgd1na2vs0mg"},{"bike_id":"c8cfd975-c77c-415a-aebc-401c044113f8","system_id":"levelo_inurba_marseille","lat":43.31175,"lon":5.38715,"is_reserved":false,"is_disabled":false,"rental_uris":{"android":"levelo://app?vid=c8cfd975-c77c-415a-aebc-401c044113f8","ios":"levelo://app?vid=c8cfd975-c77c-415a-aebc-401c044113f8"},"vehicle_type_id":"4","last_reported":1740082224,"current_range_meters":3200,"station_id":"ce4bgv12rcd13ifvqcp0","pricing_plan_id":"cebpf4jnsgd1na2vs0mg"},{"bike_id":"b7b07fe5-f425-4974-ab62-896bc7be3e00","system_id":"levelo_inurba_marseille","lat":43.29793,"lon":5.38101,"is_reserved":false,"is_disabled":false,"rental_uris":{"android":"levelo://app?vid=b7b07fe5-f425-4974-ab62-896bc7be3e00","ios":"levelo://app?vid=b7b07fe5-f425-4974-ab62-896bc7be3e00"},"vehicle_type_id":"4","last_reported":1740082224,"current_range_meters":3600,"station_id":"ce4bgip2rcd13ifvqbb0","pricing_plan_id":"cebpf4jnsgd1na2vs0mg"},{"bike_id":"82491dc4-71a9-4eaf-8b7d-8d66543a5fc6","system_id":"levelo_inurba_marseille","lat":43.28848,"lon":5.39329,"is_reserved":false,"is_disabled":false,"rental_uris":{"android":"levelo://app?vid=82491dc4-71a9-4eaf-8b7d-8d66543a5fc6","ios":"levelo://app?vid=82491dc4-71a9-4eaf-8b7d-8d66543a5fc6"},"vehicle_type_id":"4","last_reported":1740082224,"current_range_meters":4400,"station_id":"","pricing_plan_id":"cebpf4jnsgd1na2vs0mg"},{"bike_id":"9198c6ef-bd5b-45d9-bd7b-e058d791d44b","system_id":"levelo_inurba_marseille","lat":43.24817,"lon":5.37461,"is_reserved":false,"is_disabled":true,"rental_uris":{"android":"levelo://app?vid=9198c6ef-bd5b-45d9-bd7b-e058d791d44b","ios":"levelo://app?vid=9198c6ef-bd5b-45d9-bd7b-e058d791d44b"},"vehicle_type_id":"4","last_reported":1740082224,"current_range_meters":4400,"station_id":"","pricing_plan_id":"cebpf4jnsgd1na2vs0mg"},{"bike_id":"af5676b7-8a48-4f24-91f8-292cd110e92b","system_id":"levelo_inurba_marseille","lat":43.30356,"lon":5.41881,"is_reserved":false,"is_disabled":false,"rental_uris":{"android":"levelo://app?vid=af5676b7-8a48-4f24-91f8-292cd110e92b","ios":"levelo://app?vid=af5676b7-8a48-4f24-91f8-292cd110e92b"},"vehicle_type_id":"4","last_reported":1740082224,"current_range_meters":4400,"station_id":"ce4bhop2rcd13ifvqh7g","pricing_plan_id":"cebpf4jnsgd1na2vs0mg"},{"bike_id":"85019284-01e9-438a-9aeb-77cc3e5e74d4","system_id":"levelo_inurba_marseille","lat":43.28143,"lon":5.42644,"is_reserved":false,"is_disabled":false,"rental_uris":{"android":"levelo://app?vid=85019284-01e9-438a-9aeb-77cc3e5e74d4","ios":"levelo://app?vid=85019284-01e9-438a-9aeb-77cc3e5e74d4"},"vehicle_type_id":"4","last_reported":1740082224,"current_range_meters":5600,"station_id":"ce4bhnh2rcd13ifvqgug","pricing_plan_id":"cebpf4jnsgd1na2vs0mg"},{"bike_id":"00aa40ea-ace4-4502-b25e-7295a4a552e2","system_id":"levelo_inurba_marseille","lat":43.2931,"lon":5.37172,"is_reserved":false,"is_disabled":false,"rental_uris":{"android":"levelo://app?vid=00aa40ea-ace4-4502-b25e-7295a4a552e2","ios":"levelo://app?vid=00aa40ea-ace4-4502-b25e-7295a4a552e2"},"vehicle_type_id":"4","last_reported":1740082224,"current_range_meters":5600,"station_id":"","pricing_plan_id":"cebpf4jnsgd1na2vs0mg"},{"bike_id":"39644f4c-7452-4653-8df7-9c7cef84e13d","system_id":"levelo_inurba_marseille","lat":43.25655,"lon":5.39409,"is_reserved":false,"is_disabled":true,"rental_uris":{"android":"levelo://app?vid=39644f4c-7452-4653-8df7-9c7cef84e13d","ios":"levelo://app?vid=39644f4c-7452-4653-8df7-9c7cef84e13d"},"vehicle_type_id":"4","last_reported":1740082224,"current_range_meters":5600,"station_id":"ce4bhh92rcd13ifvqfj0","pricing_plan_id":"cebpf4jnsgd1na2vs0mg"},{"bike_id":"7e05100a-9b55-40be-b6b6-e592d4933e52","system_id":"levelo_inurba_marseille","lat":43.23962,"lon":5.36639,"is_reserved":false,"is_disabled":false,"rental_uris":{"android":"levelo://app?vid=7e05100a-9b55-40be-b6b6-e592d4933e52","ios":"levelo://app?vid=7e05100a-9b55-40be-b6b6-e592d4933e52"},"vehicle_type_id":"4","last_reported":1740082224,"current_range_meters":6000,"station_id":"","pricing_plan_id":"cebpf4jnsgd1na2vs0mg"},{"bike_id":"03ec2e9f-fe3b-44e4-9988-3c39b2ef386f","system_id":"levelo_inurba_marseille","lat":43.293187,"lon":5.371467,"is_reserved":false,"is_disabled":false,"rental_uris":{"android":"levelo://app?vid=03ec2e9f-fe3b-44e4-9988-3c39b2ef386f","ios":"levelo://app?vid=03ec2e9f-fe3b-44e4-9988-3c39b2ef386f"},"vehicle_type_id":"4","last_reported":1740082224,"current_range_meters":6000,"station_id":"ce4bh192rcd13ifvqdd0","pricing_plan_id":"cebpf4jnsgd1na2vs0mg"},{"bike_id":"a03bda17-4354-475e-88cf-1bf82028ae16","system_id":"levelo_inurba_marseille","lat":43.30153,"lon":5.39847,"is_reserved":false,"is_disabled":false,"rental_uris":{"android":"levelo://app?vid=a03bda17-4354-475e-88cf-1bf82028ae16","ios":"levelo://app?vid=a03bda17-4354-475e-88cf-1bf82028ae16"},"vehicle_type_id":"4","last_reported":1740082224,"current_range_meters":6000,"station_id":"ce4bh0h2rcd13ifvqd40","pricing_plan_id":"cebpf4jnsgd1na2vs0mg"},{"bike_id":"26402195-cc5c-44fb-9785-5f3ebabfb569","system_id":"levelo_inurba_marseille","lat":43.26485,"lon":5.39563,"is_reserved":false,"is_disabled":false,"rental_uris":{"android":"levelo://app?vid=26402195-cc5c-44fb-9785-5f3ebabfb569","ios":"levelo://app?vid=26402195-cc5c-44fb-9785-5f3ebabfb569"},"vehicle_type_id":"4","last_reported":1740082224,"current_range_meters":6400,"station_id":"ce4bhi12rcd13ifvqfq0","pricing_plan_id":"cebpf4jnsgd1na2vs0mg"},{"bike_id":"1e826498-95b9-4b40-b6a5-e63a70e9e100","system_id":"levelo_inurba_marseille","lat":43.29783,"lon":5.38101,"is_reserved":false,"is_disabled":false,"rental_uris":{"android":"levelo://app?vid=1e826498-95b9-4b40-b6a5-e63a70e9e100","ios":"levelo://app?vid=1e826498-95b9-4b40-b6a5-e63a70e9e100"},"vehicle_type_id":"4","last_reported":1740082224,"current_range_meters":6400,"station_id":"","pricing_plan_id":"cebpf4jnsgd1na2vs0mg"},{"bike_id":"ab84dbbf-6c53-481f-8523-7f2e10cec44b","system_id":"levelo_inurba_marseille","lat":43.2952,"lon":5.39041,"is_reserved":false,"is_disabled":false,"rental_uris":{"android":"levelo://app?vid=ab84dbbf-6c53-481f-8523-7f2e10cec44b","ios":"levelo://app?vid=ab84dbbf-6c53-481f-8523-7f2e10cec44b"},"vehicle_type_id":"4","last_reported":1740082224,"current_range_meters":6400,"station_id":"ce4bh3p2rcd13ifvqdp0","pricing_plan_id":"cebpf4jnsgd1na2vs0mg"},{"bike_id":"816e3e7b-b107-4001-b79f-e380ada67102","system_id":"levelo_inurba_marseille","lat":43.24158,"lon":5.36409,"is_reserved":false,"is_disabled":false,"rental_uris":{"android":"levelo://app?vid=816e3e7b-b107-4001-b79f-e380ada67102","ios":"levelo://app?vid=816e3e7b-b107-4001-b79f-e380ada67102"},"vehicle_type_id":"4","last_reported":1740082224,"current_range_meters":6400,"station_id":"cpo36qri1sfpv3e86is0","pricing_plan_id":"cebpf4jnsgd1na2vs0mg"},{"bike_id":"6eb49ef1-8f05-48e9-ae97-81183fd5077b","system_id":"levelo_inurba_marseille","lat":43.30885,"lon":5.37195,"is_reserved":false,"is_disabled":false,"rental_uris":{"android":"levelo://app?vid=6eb49ef1-8f05-48e9-ae97-81183fd5077b","ios":"levelo://app?vid=6eb49ef1-8f05-48e9-ae97-81183fd5077b"},"vehicle_type_id":"4","last_reported":1740082224,"current_range_meters":6400,"station_id":"ce4bguh2rcd13ifvqckg","pricing_plan_id":"cebpf4jnsgd1na2vs0mg"},{"bike_id":"071d380f-647a-44d0-bf40-dced64038ac2","system_id":"levelo_inurba_marseille","lat":43.29905,"lon":5.43652,"is_reserved":false,"is_disabled":false,"rental_uris":{"android":"levelo://app?vid=071d380f-647a-44d0-bf40-dced64038ac2","ios":"levelo://app?vid=071d380f-647a-44d0-bf40-dced64038ac2"},"vehicle_type_id":"4","last_reported":1740082224,"current_range_meters":6400,"station_id":"ce4bhpp2rcd13ifvqhfg","pricing_plan_id":"cebpf4jnsgd1na2vs0mg"},{"bike_id":"ef15fab2-7f44-44a6-bf0b-e09d65ceb192","system_id":"levelo_inurba_marseille","lat":43.29981,"lon":5.37182,"is_reserved":false,"is_disabled":false,"rental_uris":{"android":"levelo://app?vid=ef15fab2-7f44-44a6-bf0b-e09d65ceb192","ios":"levelo://app?vid=ef15fab2-7f44-44a6-bf0b-e09d65ceb192"},"vehicle_type_id":"4","last_reported":1740082224,"current_range_meters":6400,"station_id":"ce4bgr92rcd13ifvqc7g","pricing_plan_id":"cebpf4jnsgd1na2vs0mg"},{"bike_id":"4a808a73-93a5-430e-af77-2d4dd396417c","system_id":"levelo_inurba_marseille","lat":43.29602,"lon":5.38091,"is_reserved":false,"is_disabled":false,"rental_uris":{"android":"levelo://app?vid=4a808a73-93a5-430e-af77-2d4dd396417c","ios":"levelo://app?vid=4a808a73-93a5-430e-af77-2d4dd396417c"},"vehicle_type_id":"4","last_reported":1740082224,"current_range_meters":6800,"station_id":"ce4bgl12rcd13ifvqbo0","pricing_plan_id":"cebpf4jnsgd1na2vs0mg"},{"bike_id":"3fa131c8-d3bf-4fb9-b400-1daf371dcaa7","system_id":"levelo_inurba_marseille","lat":43.27198,"lon":5.41027,"is_reserved":false,"is_disabled":false,"rental_uris":{"android":"levelo://app?vid=3fa131c8-d3bf-4fb9-b400-1daf371dcaa7","ios":"levelo://app?vid=3fa131c8-d3bf-4fb9-b400-1daf371dcaa7"},"vehicle_type_id":"4","last_reported":1740082224,"current_range_meters":6800,"station_id":"ce4bhl12rcd13ifvqgf0","pricing_plan_id":"cebpf4jnsgd1na2vs0mg"},{"bike_id":"4b81ad09-8e5a-4edd-8cab-1cbc89bbb9a4","system_id":"levelo_inurba_marseille","lat":43.27994,"lon":5.41659,"is_reserved":false,"is_disabled":false,"rental_uris":{"android":"levelo://app?vid=4b81ad09-8e5a-4edd-8cab-1cbc89bbb9a4","ios":"levelo://app?vid=4b81ad09-8e5a-4edd-8cab-1cbc89bbb9a4"},"vehicle_type_id":"4","last_reported":1740082224,"current_range_meters":6800,"station_id":"ce4bho12rcd13ifvqh1g","pricing_plan_id":"cebpf4jnsgd1na2vs0mg"},{"bike_id":"0a5b31df-7a9f-4f70-8643-7a772eb8ebd3","system_id":"levelo_inurba_marseille","lat":43.30147,"lon":5.39863,"is_reserved":false,"is_disabled":false,"rental_uris":{"android":"levelo://app?vid=0a5b31df-7a9f-4f70-8643-7a772eb8ebd3","ios":"levelo://app?vid=0a5b31df-7a9f-4f70-8643-7a772eb8ebd3"},"vehicle_type_id":"4","last_reported":1740082224,"current_range_meters":6800,"station_id":"ce4bh0h2rcd13ifvqd40","pricing_plan_id":"cebpf4jnsgd1na2vs0mg"},{"bike_id":"52f424fd-9081-4951-9324-694ed161d0a1","system_id":"levelo_inurba_marseille","lat":43.25864,"lon":5.39946,"is_reserved":false,"is_disabled":false,"rental_uris":{"android":"levelo://app?vid=52f424fd-9081-4951-9324-694ed161d0a1","ios":"levelo://app?vid=52f424fd-9081-4951-9324-694ed161d0a1"},"vehicle_type_id":"4","last_reported":1740082224,"current_range_meters":6800,"station_id":"ce4bhl92rcd13ifvqghg","pricing_plan_id":"cebpf4jnsgd1na2vs0mg"},{"bike_id":"f027fe38-3f5d-42fa-b16a-68ca60104c09","system_id":"levelo_inurba_marseille","lat":43.24164,"lon":5.36409,"is_reserved":false,"is_disabled":false,"rental_uris":{"android":"levelo://app?vid=f027fe38-3f5d-42fa-b16a-68ca60104c09","ios":"levelo://app?vid=f027fe38-3f5d-42fa-b16a-68ca60104c09"},"vehicle_type_id":"4","last_reported":1740082224,"current_range_meters":6800,"station_id":"","pricing_plan_id":"cebpf4jnsgd1na2vs0mg"},{"bike_id":"43748242-f6c0-4fa0-93fe-60606c0e9299","system_id":"levelo_inurba_marseille","lat":43.30135,"lon":5.38784,"is_reserved":false,"is_disabled":false,"rental_uris":{"android":"levelo://app?vid=43748242-f6c0-4fa0-93fe-60606c0e9299","ios":"levelo://app?vid=43748242-f6c0-4fa0-93fe-60606c0e9299"},"vehicle_type_id":"4","last_reported":1740082224,"current_range_meters":6800,"station_id":"ce4bghh2rcd13ifvqb60","pricing_plan_id":"cebpf4jnsgd1na2vs0mg"},{"bike_id":"f8a1eefe-5190-4327-95c3-8138f343fe57","system_id":"levelo_inurba_marseille","lat":43.31188,"lon":5.39348,"is_reserved":false,"is_disabled":false,"rental_uris":{"android":"levelo://app?vid=f8a1eefe-5190-4327-95c3-8138f343fe57","ios":"levelo://app?vid=f8a1eefe-5190-4327-95c3-8138f343fe57"},"vehicle_type_id":"4","last_reported":1740082224,"current_range_meters":6800,"station_id":"ce4bgqh2rcd13ifvqc4g","pricing_plan_id":"cebpf4jnsgd1na2vs0mg"},{"bike_id":"9886568f-958d-4928-a1e0-1fa86a9dc3cb","system_id":"levelo_inurba_marseille","lat":43.29226,"lon":5.39511,"is_reserved":false,"is_disabled":false,"rental_uris":{"android":"levelo://app?vid=9886568f-958d-4928-a1e0-1fa86a9dc3cb","ios":"levelo://app?vid=9886568f-958d-4928-a1e0-1fa86a9dc3cb"},"vehicle_type_id":"4","last_reported":1740082224,"current_range_meters":7200,"station_id":"","pricing_plan_id":"cebpf4jnsgd1na2vs0mg"},{"bike_id":"d5173bbe-86f4-4afc-a8e0-76d62e3a8b83","system_id":"levelo_inurba_marseille","lat":43.23964,"lon":5.36631,"is_reserved":false,"is_disabled":false,"rental_uris":{"android":"levelo://app?vid=d5173bbe-86f4-4afc-a8e0-76d62e3a8b83","ios":"levelo://app?vid=d5173bbe-86f4-4afc-a8e0-76d62e3a8b83"},"vehicle_type_id":"4","last_reported":1740082224,"current_range_meters":7200,"station_id":"ce4bhi12rcd13ifvqfp0","pricing_plan_id":"cebpf4jnsgd1na2vs0mg"},{"bike_id":"093d36c4-f304-46a9-8792-5d9e19e468fc","system_id":"levelo_inurba_marseille","lat":43.299,"lon":5.43666,"is_reserved":false,"is_disabled":false,"rental_uris":{"android":"levelo://app?vid=093d36c4-f304-46a9-8792-5d9e19e468fc","ios":"levelo://app?vid=093d36c4-f304-46a9-8792-5d9e19e468fc"},"vehicle_type_id":"4","last_reported":1740082224,"current_range_meters":7200,"station_id":"ce4bhpp2rcd13ifvqhfg","pricing_plan_id":"cebpf4jnsgd1na2vs0mg"},{"bike_id":"34d14ec0-9a1d-4d07-8158-52ff5d0c0371","system_id":"levelo_inurba_marseille","lat":43.29437,"lon":5.38042,"is_reserved":false,"is_disabled":false,"rental_uris":{"android":"levelo://app?vid=34d14ec0-9a1d-4d07-8158-52ff5d0c0371","ios":"levelo://app?vid=34d14ec0-9a1d-4d07-8158-52ff5d0c0371"},"vehicle_type_id":"4","last_reported":1740082224,"current_range_meters":7200,"station_id":"","pricing_plan_id":"cebpf4jnsgd1na2vs0mg"},{"bike_id":"5df3d392-66fa-40a3-b57c-c53fcb2bf3d5","system_id":"levelo_inurba_marseille","lat":43.28273,"lon":5.35074,"is_reserved":false,"is_disabled":false,"rental_uris":{"android":"levelo://app?vid=5df3d392-66fa-40a3-b57c-c53fcb2bf3d5","ios":"levelo://app?vid=5df3d392-66fa-40a3-b57c-c53fcb2bf3d5"},"vehicle_type_id":"4","last_reported":1740082224,"current_range_meters":7200,"station_id":"","pricing_plan_id":"cebpf4jnsgd1na2vs0mg"},{"bike_id":"fc971b16-bef3-4b6d-813c-ffc8ffa48842","system_id":"levelo_inurba_marseille","lat":43.2841,"lon":5.34986,"is_reserved":false,"is_disabled":true,"rental_uris":{"android":"levelo://app?vid=fc971b16-bef3-4b6d-813c-ffc8ffa48842","ios":"levelo://app?vid=fc971b16-bef3-4b6d-813c-ffc8ffa48842"},"vehicle_type_id":"4","last_reported":1740082224,"current_range_meters":7200,"station_id":"","pricing_plan_id":"cebpf4jnsgd1na2vs0mg"},{"bike_id":"ac59dd06-c9f1-44e5-8048-9253ebe8ac2b","system_id":"levelo_inurba_marseille","lat":43.29609,"lon":5.38105,"is_reserved":false,"is_disabled":false,"rental_uris":{"android":"levelo://app?vid=ac59dd06-c9f1-44e5-8048-9253ebe8ac2b","ios":"levelo://app?vid=ac59dd06-c9f1-44e5-8048-9253ebe8ac2b"},"vehicle_type_id":"4","last_reported":1740082224,"current_range_meters":7200,"station_id":"","pricing_plan_id":"cebpf4jnsgd1na2vs0mg"},{"bike_id":"b64778c2-2434-4409-b125-e965a1fd469a","system_id":"levelo_inurba_marseille","lat":43.30307,"lon":5.36689,"is_reserved":false,"is_disabled":false,"rental_uris":{"android":"levelo://app?vid=b64778c2-2434-4409-b125-e965a1fd469a","ios":"levelo://app?vid=b64778c2-2434-4409-b125-e965a1fd469a"},"vehicle_type_id":"4","last_reported":1740082224,"current_range_meters":7200,"station_id":"ce4bgs12rcd13ifvqcag","pricing_plan_id":"cebpf4jnsgd1na2vs0mg"},{"bike_id":"5180f318-4948-4085-aaf1-5f3160b57dbe","system_id":"levelo_inurba_marseille","lat":43.276179,"lon":5.361058,"is_reserved":false,"is_disabled":false,"rental_uris":{"android":"levelo://app?vid=5180f318-4948-4085-aaf1-5f3160b57dbe","ios":"levelo://app?vid=5180f318-4948-4085-aaf1-5f3160b57dbe"},"vehicle_type_id":"4","last_reported":1740082224,"current_range_meters":7200,"station_id":"","pricing_plan_id":"cebpf4jnsgd1na2vs0mg"},{"bike_id":"72108fed-3215-41fb-b9c1-3e03b1835c07","system_id":"levelo_inurba_marseille","lat":43.29897,"lon":5.43671,"is_reserved":false,"is_disabled":false,"rental_uris":{"android":"levelo://app?vid=72108fed-3215-41fb-b9c1-3e03b1835c07","ios":"levelo://app?vid=72108fed-3215-41fb-b9c1-3e03b1835c07"},"vehicle_type_id":"4","last_reported":1740082224,"current_range_meters":8000,"station_id":"ce4bhpp2rcd13ifvqhfg","pricing_plan_id":"cebpf4jnsgd1na2vs0mg"},{"bike_id":"63c4cf47-dbff-4d5e-a88a-080b99df99de","system_id":"levelo_inurba_marseille","lat":43.29525,"lon":5.38896,"is_reserved":false,"is_disabled":true,"rental_uris":{"android":"levelo://app?vid=63c4cf47-dbff-4d5e-a88a-080b99df99de","ios":"levelo://app?vid=63c4cf47-dbff-4d5e-a88a-080b99df99de"},"vehicle_type_id":"4","last_reported":1740082224,"current_range_meters":8000,"station_id":"","pricing_plan_id":"cebpf4jnsgd1na2vs0mg"},{"bike_id":"a00fb5cd-e0d2-4f96-befb-5275c0df0c87","system_id":"levelo_inurba_marseille","lat":43.28,"lon":5.41671,"is_reserved":false,"is_disabled":false,"rental_uris":{"android":"levelo://app?vid=a00fb5cd-e0d2-4f96-befb-5275c0df0c87","ios":"levelo://app?vid=a00fb5cd-e0d2-4f96-befb-5275c0df0c87"},"vehicle_type_id":"4","last_reported":1740082224,"current_range_meters":8000,"station_id":"ce4bho12rcd13ifvqh1g","pricing_plan_id":"cebpf4jnsgd1na2vs0mg"},{"bike_id":"c17b7898-6573-47f3-bf46-316cc5c99a8a","system_id":"levelo_inurba_marseille","lat":43.28011,"lon":5.39996,"is_reserved":false,"is_disabled":false,"rental_uris":{"android":"levelo://app?vid=c17b7898-6573-47f3-bf46-316cc5c99a8a","ios":"levelo://app?vid=c17b7898-6573-47f3-bf46-316cc5c99a8a"},"vehicle_type_id":"4","last_reported":1740082224,"current_range_meters":8000,"station_id":"","pricing_plan_id":"cebpf4jnsgd1na2vs0mg"},{"bike_id":"6a42c576-5a0f-4382-9cda-da4678b65ca1","system_id":"levelo_inurba_marseille","lat":43.29783,"lon":5.38126,"is_reserved":false,"is_disabled":false,"rental_uris":{"android":"levelo://app?vid=6a42c576-5a0f-4382-9cda-da4678b65ca1","ios":"levelo://app?vid=6a42c576-5a0f-4382-9cda-da4678b65ca1"},"vehicle_type_id":"4","last_reported":1740082224,"current_range_meters":8000,"station_id":"","pricing_plan_id":"cebpf4jnsgd1na2vs0mg"},{"bike_id":"684f5b02-6f34-4875-b8b8-5db0f93943d9","system_id":"levelo_inurba_marseille","lat":43.27807,"lon":5.40709,"is_reserved":false,"is_disabled":false,"rental_uris":{"android":"levelo://app?vid=684f5b02-6f34-4875-b8b8-5db0f93943d9","ios":"levelo://app?vid=684f5b02-6f34-4875-b8b8-5db0f93943d9"},"vehicle_type_id":"4","last_reported":1740082224,"current_range_meters":8000,"station_id":"","pricing_plan_id":"cebpf4jnsgd1na2vs0mg"},{"bike_id":"120a1038-be58-4361-80b4-0796eba705fb","system_id":"levelo_inurba_marseille","lat":43.26816,"lon":5.40257,"is_reserved":false,"is_disabled":false,"rental_uris":{"android":"levelo://app?vid=120a1038-be58-4361-80b4-0796eba705fb","ios":"levelo://app?vid=120a1038-be58-4361-80b4-0796eba705fb"},"vehicle_type_id":"4","last_reported":1740082224,"current_range_meters":8000,"station_id":"ce501612rcd8frsf0b60","pricing_plan_id":"cebpf4jnsgd1na2vs0mg"},{"bike_id":"c000902f-c5f9-4784-8f8c-254f920ace9e","system_id":"levelo_inurba_marseille","lat":43.3373,"lon":5.39177,"is_reserved":false,"is_disabled":false,"rental_uris":{"android":"levelo://app?vid=c000902f-c5f9-4784-8f8c-254f920ace9e","ios":"levelo://app?vid=c000902f-c5f9-4784-8f8c-254f920ace9e"},"vehicle_type_id":"4","last_reported":1740082224,"current_range_meters":8000,"station_id":"ce4bhr92rcd13ifvqhsg","pricing_plan_id":"cebpf4jnsgd1na2vs0mg"},{"bike_id":"7bba333f-0ece-4786-b9b4-daaa20fde672","system_id":"levelo_inurba_marseille","lat":43.29268,"lon":5.38451,"is_reserved":false,"is_disabled":false,"rental_uris":{"android":"levelo://app?vid=7bba333f-0ece-4786-b9b4-daaa20fde672","ios":"levelo://app?vid=7bba333f-0ece-4786-b9b4-daaa20fde672"},"vehicle_type_id":"4","last_reported":1740082224,"current_range_meters":8000,"station_id":"","pricing_plan_id":"cebpf4jnsgd1na2vs0mg"},{"bike_id":"9f6a2693-1280-4649-88e6-509075bff685","system_id":"levelo_inurba_marseille","lat":43.26566,"lon":5.39012,"is_reserved":false,"is_disabled":false,"rental_uris":{"android":"levelo://app?vid=9f6a2693-1280-4649-88e6-509075bff685","ios":"levelo://app?vid=9f6a2693-1280-4649-88e6-509075bff685"},"vehicle_type_id":"4","last_reported":1740082224,"current_range_meters":8400,"station_id":"ce4bhe12rcd13ifvqf30","pricing_plan_id":"cebpf4jnsgd1na2vs0mg"},{"bike_id":"0159f1ae-6ef2-48d9-aa07-b34ffde8d712","system_id":"levelo_inurba_marseille","lat":43.28348,"lon":5.38096,"is_reserved":false,"is_disabled":false,"rental_uris":{"android":"levelo://app?vid=0159f1ae-6ef2-48d9-aa07-b34ffde8d712","ios":"levelo://app?vid=0159f1ae-6ef2-48d9-aa07-b34ffde8d712"},"vehicle_type_id":"4","last_reported":1740082224,"current_range_meters":8400,"station_id":"","pricing_plan_id":"cebpf4jnsgd1na2vs0mg"},{"bike_id":"ef408eb4-5c5d-4e5c-a946-678f4a1cf958","system_id":"levelo_inurba_marseille","lat":43.29029,"lon":5.3864,"is_reserved":false,"is_disabled":false,"rental_uris":{"android":"levelo://app?vid=ef408eb4-5c5d-4e5c-a946-678f4a1cf958","ios":"levelo://app?vid=ef408eb4-5c5d-4e5c-a946-678f4a1cf958"},"vehicle_type_id":"4","last_reported":1740082224,"current_range_meters":8400,"station_id":"ce4bh4p2rcd13ifvqe0g","pricing_plan_id":"cebpf4jnsgd1na2vs0mg"},{"bike_id":"2424308a-7a4c-46fe-b3f8-3a9c4bd76ba7","system_id":"levelo_inurba_marseille","lat":43.29425,"lon":5.38613,"is_reserved":false,"is_disabled":false,"rental_uris":{"android":"levelo://app?vid=2424308a-7a4c-46fe-b3f8-3a9c4bd76ba7","ios":"levelo://app?vid=2424308a-7a4c-46fe-b3f8-3a9c4bd76ba7"},"vehicle_type_id":"4","last_reported":1740082224,"current_range_meters":8400,"station_id":"","pricing_plan_id":"cebpf4jnsgd1na2vs0mg"},{"bike_id":"9b0ee213-f890-4354-ae28-cdfc215b3277","system_id":"levelo_inurba_marseille","lat":43.26213,"lon":5.37442,"is_reserved":false,"is_disabled":false,"rental_uris":{"android":"levelo://app?vid=9b0ee213-f890-4354-ae28-cdfc215b3277","ios":"levelo://app?vid=9b0ee213-f890-4354-ae28-cdfc215b3277"},"vehicle_type_id":"4","last_reported":1740082224,"current_range_meters":8400,"station_id":"","pricing_plan_id":"cebpf4jnsgd1na2vs0mg"},{"bike_id":"8cbf3cfb-7324-4014-94a6-4ce8dc497f9b","system_id":"levelo_inurba_marseille","lat":43.26209,"lon":5.37446,"is_reserved":false,"is_disabled":false,"rental_uris":{"android":"levelo://app?vid=8cbf3cfb-7324-4014-94a6-4ce8dc497f9b","ios":"levelo://app?vid=8cbf3cfb-7324-4014-94a6-4ce8dc497f9b"},"vehicle_type_id":"4","last_reported":1740082224,"current_range_meters":8400,"station_id":"","pricing_plan_id":"cebpf4jnsgd1na2vs0mg"},{"bike_id":"104b15c6-bf74-407c-9a34-de8a1be58e4f","system_id":"levelo_inurba_marseille","lat":43.29212,"lon":5.3733,"is_reserved":false,"is_disabled":false,"rental_uris":{"android":"levelo://app?vid=104b15c6-bf74-407c-9a34-de8a1be58e4f","ios":"levelo://app?vid=104b15c6-bf74-407c-9a34-de8a1be58e4f"},"vehicle_type_id":"4","last_reported":1740082224,"current_range_meters":8400,"station_id":"","pricing_plan_id":"cebpf4jnsgd1na2vs0mg"},{"bike_id":"15f25508-0363-46a9-b0fc-c285bc18de20","system_id":"levelo_inurba_marseille","lat":43.26242,"lon":5.40379,"is_reserved":false,"is_disabled":false,"rental_uris":{"android":"levelo://app?vid=15f25508-0363-46a9-b0fc-c285bc18de20","ios":"levelo://app?vid=15f25508-0363-46a9-b0fc-c285bc18de20"},"vehicle_type_id":"4","last_reported":1740082224,"current_range_meters":8400,"station_id":"ce4bhmh2rcd13ifvqgmg","pricing_plan_id":"cebpf4jnsgd1na2vs0mg"},{"bike_id":"88d25907-c1a3-419e-8d05-762fa8550602","system_id":"levelo_inurba_marseille","lat":43.30338,"lon":5.40435,"is_reserved":false,"is_disabled":false,"rental_uris":{"android":"levelo://app?vid=88d25907-c1a3-419e-8d05-762fa8550602","ios":"levelo://app?vid=88d25907-c1a3-419e-8d05-762fa8550602"},"vehicle_type_id":"4","last_reported":1740082224,"current_range_meters":8400,"station_id":"ce4bh012rcd13ifvqd10","pricing_plan_id":"cebpf4jnsgd1na2vs0mg"},{"bike_id":"00c5e219-33d0-415a-8191-c7b6b636975f","system_id":"levelo_inurba_marseille","lat":43.29266,"lon":5.38451,"is_reserved":false,"is_disabled":false,"rental_uris":{"android":"levelo://app?vid=00c5e219-33d0-415a-8191-c7b6b636975f","ios":"levelo://app?vid=00c5e219-33d0-415a-8191-c7b6b636975f"},"vehicle_type_id":"4","last_reported":1740082224,"current_range_meters":8400,"station_id":"","pricing_plan_id":"cebpf4jnsgd1na2vs0mg"},{"bike_id":"5f9ede52-c720-4107-a864-980fb2608395","system_id":"levelo_inurba_marseille","lat":43.2411,"lon":5.38683,"is_reserved":false,"is_disabled":false,"rental_uris":{"android":"levelo://app?vid=5f9ede52-c720-4107-a864-980fb2608395","ios":"levelo://app?vid=5f9ede52-c720-4107-a864-980fb2608395"},"vehicle_type_id":"4","last_reported":1740082224,"current_range_meters":8800,"station_id":"","pricing_plan_id":"cebpf4jnsgd1na2vs0mg"},{"bike_id":"2ff9c241-f571-4d7b-b294-391e7b4adde1","system_id":"levelo_inurba_marseille","lat":43.279876,"lon":5.416609,"is_reserved":false,"is_disabled":false,"rental_uris":{"android":"levelo://app?vid=2ff9c241-f571-4d7b-b294-391e7b4adde1","ios":"levelo://app?vid=2ff9c241-f571-4d7b-b294-391e7b4adde1"},"vehicle_type_id":"4","last_reported":1740082224,"current_range_meters":8800,"station_id":"ce4bho12rcd13ifvqh1g","pricing_plan_id":"cebpf4jnsgd1na2vs0mg"},{"bike_id":"519499c1-02cb-4389-a009-32ff994757a6","system_id":"levelo_inurba_marseille","lat":43.29261,"lon":5.38461,"is_reserved":false,"is_disabled":false,"rental_uris":{"android":"levelo://app?vid=519499c1-02cb-4389-a009-32ff994757a6","ios":"levelo://app?vid=519499c1-02cb-4389-a009-32ff994757a6"},"vehicle_type_id":"4","last_reported":1740082224,"current_range_meters":8800,"station_id":"","pricing_plan_id":"cebpf4jnsgd1na2vs0mg"},{"bike_id":"fffa6545-5d24-4ac5-a202-f3a5df76fda6","system_id":"levelo_inurba_marseille","lat":43.28162,"lon":5.42644,"is_reserved":false,"is_disabled":false,"rental_uris":{"android":"levelo://app?vid=fffa6545-5d24-4ac5-a202-f3a5df76fda6","ios":"levelo://app?vid=fffa6545-5d24-4ac5-a202-f3a5df76fda6"},"vehicle_type_id":"4","last_reported":1740082224,"current_range_meters":8800,"station_id":"ce4bhnh2rcd13ifvqgug","pricing_plan_id":"cebpf4jnsgd1na2vs0mg"},{"bike_id":"ff49336e-8a61-45a9-b761-8efb6c7b10fb","system_id":"levelo_inurba_marseille","lat":43.28667,"lon":5.38674,"is_reserved":false,"is_disabled":false,"rental_uris":{"android":"levelo://app?vid=ff49336e-8a61-45a9-b761-8efb6c7b10fb","ios":"levelo://app?vid=ff49336e-8a61-45a9-b761-8efb6c7b10fb"},"vehicle_type_id":"4","last_reported":1740082224,"current_range_meters":8800,"station_id":"ce4bh492rcd13ifvqdug","pricing_plan_id":"cebpf4jnsgd1na2vs0mg"},{"bike_id":"26779595-c177-40e8-a988-d5570ab1009d","system_id":"levelo_inurba_marseille","lat":43.29195,"lon":5.39783,"is_reserved":false,"is_disabled":false,"rental_uris":{"android":"levelo://app?vid=26779595-c177-40e8-a988-d5570ab1009d","ios":"levelo://app?vid=26779595-c177-40e8-a988-d5570ab1009d"},"vehicle_type_id":"4","last_reported":1740082224,"current_range_meters":8800,"station_id":"","pricing_plan_id":"cebpf4jnsgd1na2vs0mg"},{"bike_id":"6d3a1bc9-0168-46a0-8d06-2b755db45b0a","system_id":"levelo_inurba_marseille","lat":43.23066,"lon":5.35518,"is_reserved":false,"is_disabled":false,"rental_uris":{"android":"levelo://app?vid=6d3a1bc9-0168-46a0-8d06-2b755db45b0a","ios":"levelo://app?vid=6d3a1bc9-0168-46a0-8d06-2b755db45b0a"},"vehicle_type_id":"4","last_reported":1740082224,"current_range_meters":9200,"station_id":"cpo3342slgdg3j2ifvpg","pricing_plan_id":"cebpf4jnsgd1na2vs0mg"},{"bike_id":"75c3b000-71de-4e19-95fe-5c0617c926ab","system_id":"levelo_inurba_marseille","lat":43.2867,"lon":5.38665,"is_reserved":false,"is_disabled":false,"rental_uris":{"android":"levelo://app?vid=75c3b000-71de-4e19-95fe-5c0617c926ab","ios":"levelo://app?vid=75c3b000-71de-4e19-95fe-5c0617c926ab"},"vehicle_type_id":"4","last_reported":1740082224,"current_range_meters":9200,"station_id":"ce4bh492rcd13ifvqdug","pricing_plan_id":"cebpf4jnsgd1na2vs0mg"},{"bike_id":"d90448d0-ec8e-4614-9302-a8184ad50b9a","system_id":"levelo_inurba_marseille","lat":43.28156,"lon":5.42647,"is_reserved":false,"is_disabled":false,"rental_uris":{"android":"levelo://app?vid=d90448d0-ec8e-4614-9302-a8184ad50b9a","ios":"levelo://app?vid=d90448d0-ec8e-4614-9302-a8184ad50b9a"},"vehicle_type_id":"4","last_reported":1740082224,"current_range_meters":9200,"station_id":"ce4bhnh2rcd13ifvqgug","pricing_plan_id":"cebpf4jnsgd1na2vs0mg"},{"bike_id":"663d8a82-bf07-4220-8c45-2544d40f6a17","system_id":"levelo_inurba_marseille","lat":43.29274,"lon":5.3844,"is_reserved":false,"is_disabled":false,"rental_uris":{"android":"levelo://app?vid=663d8a82-bf07-4220-8c45-2544d40f6a17","ios":"levelo://app?vid=663d8a82-bf07-4220-8c45-2544d40f6a17"},"vehicle_type_id":"4","last_reported":1740082224,"current_range_meters":9200,"station_id":"","pricing_plan_id":"cebpf4jnsgd1na2vs0mg"},{"bike_id":"4f1afaa9-d3bf-4519-a8be-60178da1a43b","system_id":"levelo_inurba_marseille","lat":43.29803,"lon":5.38128,"is_reserved":false,"is_disabled":false,"rental_uris":{"android":"levelo://app?vid=4f1afaa9-d3bf-4519-a8be-60178da1a43b","ios":"levelo://app?vid=4f1afaa9-d3bf-4519-a8be-60178da1a43b"},"vehicle_type_id":"4","last_reported":1740082224,"current_range_meters":9200,"station_id":"","pricing_plan_id":"cebpf4jnsgd1na2vs0mg"},{"bike_id":"0d34eb8c-c749-410b-a515-4800435ee933","system_id":"levelo_inurba_marseille","lat":43.24162,"lon":5.36401,"is_reserved":false,"is_disabled":false,"rental_uris":{"android":"levelo://app?vid=0d34eb8c-c749-410b-a515-4800435ee933","ios":"levelo://app?vid=0d34eb8c-c749-410b-a515-4800435ee933"},"vehicle_type_id":"4","last_reported":1740082224,"current_range_meters":9200,"station_id":"cpo36qri1sfpv3e86is0","pricing_plan_id":"cebpf4jnsgd1na2vs0mg"},{"bike_id":"a924690f-5eaa-41b4-9d8f-51fce574fc50","system_id":"levelo_inurba_marseille","lat":43.27496,"lon":5.4245,"is_reserved":false,"is_disabled":false,"rental_uris":{"android":"levelo://app?vid=a924690f-5eaa-41b4-9d8f-51fce574fc50","ios":"levelo://app?vid=a924690f-5eaa-41b4-9d8f-51fce574fc50"},"vehicle_type_id":"4","last_reported":1740082224,"current_range_meters":9200,"station_id":"ce4bhn92rcd13ifvqgrg","pricing_plan_id":"cebpf4jnsgd1na2vs0mg"},{"bike_id":"f95a5649-643a-48c0-a1cd-8a1ae7759c5b","system_id":"levelo_inurba_marseille","lat":43.30658,"lon":5.40062,"is_reserved":false,"is_disabled":false,"rental_uris":{"android":"levelo://app?vid=f95a5649-643a-48c0-a1cd-8a1ae7759c5b","ios":"levelo://app?vid=f95a5649-643a-48c0-a1cd-8a1ae7759c5b"},"vehicle_type_id":"4","last_reported":1740082224,"current_range_meters":9200,"station_id":"ce4bh112rcd13ifvqda0","pricing_plan_id":"cebpf4jnsgd1na2vs0mg"},{"bike_id":"f296bc0a-8f37-42c1-88bd-1ec3f64cd834","system_id":"levelo_inurba_marseille","lat":43.31085,"lon":5.42428,"is_reserved":false,"is_disabled":false,"rental_uris":{"android":"levelo://app?vid=f296bc0a-8f37-42c1-88bd-1ec3f64cd834","ios":"levelo://app?vid=f296bc0a-8f37-42c1-88bd-1ec3f64cd834"},"vehicle_type_id":"4","last_reported":1740082224,"current_range_meters":9200,"station_id":"ce4bhp92rcd13ifvqhag","pricing_plan_id":"cebpf4jnsgd1na2vs0mg"},{"bike_id":"5044071c-40c2-4214-9f51-829d903f922e","system_id":"levelo_inurba_marseille","lat":43.2582,"lon":5.3942,"is_reserved":false,"is_disabled":false,"rental_uris":{"android":"levelo://app?vid=5044071c-40c2-4214-9f51-829d903f922e","ios":"levelo://app?vid=5044071c-40c2-4214-9f51-829d903f922e"},"vehicle_type_id":"4","last_reported":1740082224,"current_range_meters":9200,"station_id":"ce4bhip2rcd13ifvqft0","pricing_plan_id":"cebpf4jnsgd1na2vs0mg"},{"bike_id":"ff083d96-1fe8-4388-b1fb-a058bee43b2d","system_id":"levelo_inurba_marseille","lat":43.27173,"lon":5.40998,"is_reserved":false,"is_disabled":false,"rental_uris":{"android":"levelo://app?vid=ff083d96-1fe8-4388-b1fb-a058bee43b2d","ios":"levelo://app?vid=ff083d96-1fe8-4388-b1fb-a058bee43b2d"},"vehicle_type_id":"4","last_reported":1740082224,"current_range_meters":9200,"station_id":"ce4bhl12rcd13ifvqgf0","pricing_plan_id":"cebpf4jnsgd1na2vs0mg"},{"bike_id":"d9ed4ce9-95b4-4067-a245-f49daf56af4a","system_id":"levelo_inurba_marseille","lat":43.26805,"lon":5.40241,"is_reserved":false,"is_disabled":false,"rental_uris":{"android":"levelo://app?vid=d9ed4ce9-95b4-4067-a245-f49daf56af4a","ios":"levelo://app?vid=d9ed4ce9-95b4-4067-a245-f49daf56af4a"},"vehicle_type_id":"4","last_reported":1740082224,"current_range_meters":9600,"station_id":"ce501612rcd8frsf0b60","pricing_plan_id":"cebpf4jnsgd1na2vs0mg"},{"bike_id":"77ac049b-6848-4db1-94df-a16d6879e316","system_id":"levelo_inurba_marseille","lat":43.23196,"lon":5.35548,"is_reserved":false,"is_disabled":false,"rental_uris":{"android":"levelo://app?vid=77ac049b-6848-4db1-94df-a16d6879e316","ios":"levelo://app?vid=77ac049b-6848-4db1-94df-a16d6879e316"},"vehicle_type_id":"4","last_reported":1740082224,"current_range_meters":9600,"station_id":"","pricing_plan_id":"cebpf4jnsgd1na2vs0mg"},{"bike_id":"ed56012a-438d-47c3-91d0-6b59e479a8f0","system_id":"levelo_inurba_marseille","lat":43.25089,"lon":5.39534,"is_reserved":false,"is_disabled":false,"rental_uris":{"android":"levelo://app?vid=ed56012a-438d-47c3-91d0-6b59e479a8f0","ios":"levelo://app?vid=ed56012a-438d-47c3-91d0-6b59e479a8f0"},"vehicle_type_id":"4","last_reported":1740082224,"current_range_meters":9600,"station_id":"ce4bhm12rcd13ifvqgkg","pricing_plan_id":"cebpf4jnsgd1na2vs0mg"},{"bike_id":"33edd2a5-7310-41e5-b4d5-68a66e8bad37","system_id":"levelo_inurba_marseille","lat":43.28172,"lon":5.42644,"is_reserved":false,"is_disabled":false,"rental_uris":{"android":"levelo://app?vid=33edd2a5-7310-41e5-b4d5-68a66e8bad37","ios":"levelo://app?vid=33edd2a5-7310-41e5-b4d5-68a66e8bad37"},"vehicle_type_id":"4","last_reported":1740082224,"current_range_meters":9600,"station_id":"","pricing_plan_id":"cebpf4jnsgd1na2vs0mg"},{"bike_id":"4ad80d49-8ed8-4d6b-9551-fdca2b59ae07","system_id":"levelo_inurba_marseille","lat":43.2943,"lon":5.38311,"is_reserved":false,"is_disabled":false,"rental_uris":{"android":"levelo://app?vid=4ad80d49-8ed8-4d6b-9551-fdca2b59ae07","ios":"levelo://app?vid=4ad80d49-8ed8-4d6b-9551-fdca2b59ae07"},"vehicle_type_id":"4","last_reported":1740082224,"current_range_meters":9600,"station_id":"","pricing_plan_id":"cebpf4jnsgd1na2vs0mg"},{"bike_id":"23c7f17d-4517-4dd4-a3a7-dfe044723d32","system_id":"levelo_inurba_marseille","lat":43.30556,"lon":5.38418,"is_reserved":false,"is_disabled":true,"rental_uris":{"android":"levelo://app?vid=23c7f17d-4517-4dd4-a3a7-dfe044723d32","ios":"levelo://app?vid=23c7f17d-4517-4dd4-a3a7-dfe044723d32"},"vehicle_type_id":"4","last_reported":1740082224,"current_range_meters":9600,"station_id":"ce4bgg92rcd13ifvqb30","pricing_plan_id":"cebpf4jnsgd1na2vs0mg"},{"bike_id":"341bae22-75f3-4766-8fd7-413e8c4a7fee","system_id":"levelo_inurba_marseille","lat":43.26814,"lon":5.40258,"is_reserved":false,"is_disabled":false,"rental_uris":{"android":"levelo://app?vid=341bae22-75f3-4766-8fd7-413e8c4a7fee","ios":"levelo://app?vid=341bae22-75f3-4766-8fd7-413e8c4a7fee"},"vehicle_type_id":"4","last_reported":1740082224,"current_range_meters":9600,"station_id":"ce501612rcd8frsf0b60","pricing_plan_id":"cebpf4jnsgd1na2vs0mg"},{"bike_id":"7b19744e-f24f-4b7d-94e9-2a8fd4a78d0d","system_id":"levelo_inurba_marseille","lat":43.23196,"lon":5.355559,"is_reserved":false,"is_disabled":false,"rental_uris":{"android":"levelo://app?vid=7b19744e-f24f-4b7d-94e9-2a8fd4a78d0d","ios":"levelo://app?vid=7b19744e-f24f-4b7d-94e9-2a8fd4a78d0d"},"vehicle_type_id":"4","last_reported":1740082224,"current_range_meters":9600,"station_id":"","pricing_plan_id":"cebpf4jnsgd1na2vs0mg"},{"bike_id":"188985ae-9cba-4f2e-aa81-f928630b246b","system_id":"levelo_inurba_marseille","lat":43.29421,"lon":5.3863,"is_reserved":false,"is_disabled":false,"rental_uris":{"android":"levelo://app?vid=188985ae-9cba-4f2e-aa81-f928630b246b","ios":"levelo://app?vid=188985ae-9cba-4f2e-aa81-f928630b246b"},"vehicle_type_id":"4","last_reported":1740082224,"current_range_meters":9600,"station_id":"ce4bh2h2rcd13ifvqdh0","pricing_plan_id":"cebpf4jnsgd1na2vs0mg"},{"bike_id":"891edfda-e8cf-46c6-87e6-e41aab3fddcf","system_id":"levelo_inurba_marseille","lat":43.29299,"lon":5.37454,"is_reserved":false,"is_disabled":false,"rental_uris":{"android":"levelo://app?vid=891edfda-e8cf-46c6-87e6-e41aab3fddcf","ios":"levelo://app?vid=891edfda-e8cf-46c6-87e6-e41aab3fddcf"},"vehicle_type_id":"4","last_reported":1740082224,"current_range_meters":9600,"station_id":"","pricing_plan_id":"cebpf4jnsgd1na2vs0mg"},{"bike_id":"d53e619b-6fc4-4f68-816e-bf827608289f","system_id":"levelo_inurba_marseille","lat":43.29598,"lon":5.3808,"is_reserved":false,"is_disabled":false,"rental_uris":{"android":"levelo://app?vid=d53e619b-6fc4-4f68-816e-bf827608289f","ios":"levelo://app?vid=d53e619b-6fc4-4f68-816e-bf827608289f"},"vehicle_type_id":"4","last_reported":1740082224,"current_range_meters":9600,"station_id":"","pricing_plan_id":"cebpf4jnsgd1na2vs0mg"},{"bike_id":"57fe6fca-4b32-46a9-ab09-ed33edc750c6","system_id":"levelo_inurba_marseille","lat":43.23964,"lon":5.3663,"is_reserved":false,"is_disabled":false,"rental_uris":{"android":"levelo://app?vid=57fe6fca-4b32-46a9-ab09-ed33edc750c6","ios":"levelo://app?vid=57fe6fca-4b32-46a9-ab09-ed33edc750c6"},"vehicle_type_id":"4","last_reported":1740082224,"current_range_meters":9600,"station_id":"","pricing_plan_id":"cebpf4jnsgd1na2vs0mg"},{"bike_id":"fefd3b09-e6bc-4985-9a8a-e7c851301ba3","system_id":"levelo_inurba_marseille","lat":43.29424,"lon":5.38625,"is_reserved":false,"is_disabled":false,"rental_uris":{"android":"levelo://app?vid=fefd3b09-e6bc-4985-9a8a-e7c851301ba3","ios":"levelo://app?vid=fefd3b09-e6bc-4985-9a8a-e7c851301ba3"},"vehicle_type_id":"4","last_reported":1740082224,"current_range_meters":10000,"station_id":"","pricing_plan_id":"cebpf4jnsgd1na2vs0mg"},{"bike_id":"f73b08ac-41f9-43d3-8a61-dbc0f3e94025","system_id":"levelo_inurba_marseille","lat":43.24653,"lon":5.38895,"is_reserved":false,"is_disabled":false,"rental_uris":{"android":"levelo://app?vid=f73b08ac-41f9-43d3-8a61-dbc0f3e94025","ios":"levelo://app?vid=f73b08ac-41f9-43d3-8a61-dbc0f3e94025"},"vehicle_type_id":"4","last_reported":1740082224,"current_range_meters":10000,"station_id":"ce4bhg12rcd13ifvqf60","pricing_plan_id":"cebpf4jnsgd1na2vs0mg"},{"bike_id":"1f88bb58-2e59-4fff-81b3-925538f61279","system_id":"levelo_inurba_marseille","lat":43.29265,"lon":5.3843,"is_reserved":false,"is_disabled":true,"rental_uris":{"android":"levelo://app?vid=1f88bb58-2e59-4fff-81b3-925538f61279","ios":"levelo://app?vid=1f88bb58-2e59-4fff-81b3-925538f61279"},"vehicle_type_id":"4","last_reported":1740082224,"current_range_meters":10000,"station_id":"ce4bh692rcd13ifvqea0","pricing_plan_id":"cebpf4jnsgd1na2vs0mg"},{"bike_id":"40aaaa96-9b05-40cc-bcd2-afd2b3c6bec7","system_id":"levelo_inurba_marseille","lat":43.2942,"lon":5.38627,"is_reserved":false,"is_disabled":false,"rental_uris":{"android":"levelo://app?vid=40aaaa96-9b05-40cc-bcd2-afd2b3c6bec7","ios":"levelo://app?vid=40aaaa96-9b05-40cc-bcd2-afd2b3c6bec7"},"vehicle_type_id":"4","last_reported":1740082224,"current_range_meters":10000,"station_id":"","pricing_plan_id":"cebpf4jnsgd1na2vs0mg"},{"bike_id":"473b17b1-142d-4d27-b91c-3781d2e4f5c4","system_id":"levelo_inurba_marseille","lat":43.28578,"lon":5.39465,"is_reserved":false,"is_disabled":false,"rental_uris":{"android":"levelo://app?vid=473b17b1-142d-4d27-b91c-3781d2e4f5c4","ios":"levelo://app?vid=473b17b1-142d-4d27-b91c-3781d2e4f5c4"},"vehicle_type_id":"4","last_reported":1740082224,"current_range_meters":10000,"station_id":"ce4bh292rcd13ifvqdg0","pricing_plan_id":"cebpf4jnsgd1na2vs0mg"},{"bike_id":"532687a0-e14a-4819-9541-67a8e47d2646","system_id":"levelo_inurba_marseille","lat":43.30885,"lon":5.37187,"is_reserved":false,"is_disabled":false,"rental_uris":{"android":"levelo://app?vid=532687a0-e14a-4819-9541-67a8e47d2646","ios":"levelo://app?vid=532687a0-e14a-4819-9541-67a8e47d2646"},"vehicle_type_id":"4","last_reported":1740082224,"current_range_meters":10000,"station_id":"ce4bguh2rcd13ifvqckg","pricing_plan_id":"cebpf4jnsgd1na2vs0mg"},{"bike_id":"a2517ea6-a40b-4901-979b-4128336954ae","system_id":"levelo_inurba_marseille","lat":43.28163,"lon":5.42641,"is_reserved":false,"is_disabled":false,"rental_uris":{"android":"levelo://app?vid=a2517ea6-a40b-4901-979b-4128336954ae","ios":"levelo://app?vid=a2517ea6-a40b-4901-979b-4128336954ae"},"vehicle_type_id":"4","last_reported":1740082224,"current_range_meters":10000,"station_id":"ce4bhnh2rcd13ifvqgug","pricing_plan_id":"cebpf4jnsgd1na2vs0mg"},{"bike_id":"6003fffe-1c3a-4608-baf3-dfdfad8bdae4","system_id":"levelo_inurba_marseille","lat":43.28705,"lon":5.39975,"is_reserved":false,"is_disabled":false,"rental_uris":{"android":"levelo://app?vid=6003fffe-1c3a-4608-baf3-dfdfad8bdae4","ios":"levelo://app?vid=6003fffe-1c3a-4608-baf3-dfdfad8bdae4"},"vehicle_type_id":"4","last_reported":1740082224,"current_range_meters":10800,"station_id":"","pricing_plan_id":"cebpf4jnsgd1na2vs0mg"},{"bike_id":"2ed6dc8a-0c28-4c9b-a2cd-706cf3326667","system_id":"levelo_inurba_marseille","lat":43.30218,"lon":5.39465,"is_reserved":false,"is_disabled":false,"rental_uris":{"android":"levelo://app?vid=2ed6dc8a-0c28-4c9b-a2cd-706cf3326667","ios":"levelo://app?vid=2ed6dc8a-0c28-4c9b-a2cd-706cf3326667"},"vehicle_type_id":"4","last_reported":1740082224,"current_range_meters":10800,"station_id":"","pricing_plan_id":"cebpf4jnsgd1na2vs0mg"},{"bike_id":"4c3e476c-1774-424a-ac84-b02d1d6b5ba9","system_id":"levelo_inurba_marseille","lat":43.26793,"lon":5.3941,"is_reserved":false,"is_disabled":false,"rental_uris":{"android":"levelo://app?vid=4c3e476c-1774-424a-ac84-b02d1d6b5ba9","ios":"levelo://app?vid=4c3e476c-1774-424a-ac84-b02d1d6b5ba9"},"vehicle_type_id":"4","last_reported":1740082224,"current_range_meters":18800,"station_id":"ce4bhh12rcd13ifvqfg0","pricing_plan_id":"cebpf4jnsgd1na2vs0mg"},{"bike_id":"8439e5ff-51a4-4276-91e2-2f9b865b64e3","system_id":"levelo_inurba_marseille","lat":43.29267,"lon":5.38427,"is_reserved":false,"is_disabled":false,"rental_uris":{"android":"levelo://app?vid=8439e5ff-51a4-4276-91e2-2f9b865b64e3","ios":"levelo://app?vid=8439e5ff-51a4-4276-91e2-2f9b865b64e3"},"vehicle_type_id":"4","last_reported":1740082224,"current_range_meters":10800,"station_id":"","pricing_plan_id":"cebpf4jnsgd1na2vs0mg"},{"bike_id":"601afe4a-25bf-4b56-a5ec-02075de1ee82","system_id":"levelo_inurba_marseille","lat":43.230696,"lon":5.354983,"is_reserved":false,"is_disabled":false,"rental_uris":{"android":"levelo://app?vid=601afe4a-25bf-4b56-a5ec-02075de1ee82","ios":"levelo://app?vid=601afe4a-25bf-4b56-a5ec-02075de1ee82"},"vehicle_type_id":"4","last_reported":1740082224,"current_range_meters":10800,"station_id":"cpo3342slgdg3j2ifvpg","pricing_plan_id":"cebpf4jnsgd1na2vs0mg"},{"bike_id":"3c641678-c50f-4208-a4c5-859114f85709","system_id":"levelo_inurba_marseille","lat":43.30104,"lon":5.39077,"is_reserved":false,"is_disabled":false,"rental_uris":{"android":"levelo://app?vid=3c641678-c50f-4208-a4c5-859114f85709","ios":"levelo://app?vid=3c641678-c50f-4208-a4c5-859114f85709"},"vehicle_type_id":"4","last_reported":1740082224,"current_range_meters":10800,"station_id":"","pricing_plan_id":"cebpf4jnsgd1na2vs0mg"},{"bike_id":"635050f9-a2c9-4910-8267-ff5a32e2982d","system_id":"levelo_inurba_marseille","lat":43.24839,"lon":5.37448,"is_reserved":false,"is_disabled":true,"rental_uris":{"android":"levelo://app?vid=635050f9-a2c9-4910-8267-ff5a32e2982d","ios":"levelo://app?vid=635050f9-a2c9-4910-8267-ff5a32e2982d"},"vehicle_type_id":"4","last_reported":1740082224,"current_range_meters":10800,"station_id":"","pricing_plan_id":"cebpf4jnsgd1na2vs0mg"},{"bike_id":"1868982e-79f6-4759-b824-f1b16523ddcc","system_id":"levelo_inurba_marseille","lat":43.3206,"lon":5.41486,"is_reserved":false,"is_disabled":false,"rental_uris":{"android":"levelo://app?vid=1868982e-79f6-4759-b824-f1b16523ddcc","ios":"levelo://app?vid=1868982e-79f6-4759-b824-f1b16523ddcc"},"vehicle_type_id":"4","last_reported":1740082224,"current_range_meters":11200,"station_id":"ce4bhq92rcd13ifvqhkg","pricing_plan_id":"cebpf4jnsgd1na2vs0mg"},{"bike_id":"b1393330-1979-46bc-b9d3-a486fb4996ba","system_id":"levelo_inurba_marseille","lat":43.29252,"lon":5.38443,"is_reserved":false,"is_disabled":false,"rental_uris":{"android":"levelo://app?vid=b1393330-1979-46bc-b9d3-a486fb4996ba","ios":"levelo://app?vid=b1393330-1979-46bc-b9d3-a486fb4996ba"},"vehicle_type_id":"4","last_reported":1740082224,"current_range_meters":11200,"station_id":"","pricing_plan_id":"cebpf4jnsgd1na2vs0mg"},{"bike_id":"eb3d6de2-43db-47ec-887f-f0f23f8e7694","system_id":"levelo_inurba_marseille","lat":43.27183,"lon":5.40985,"is_reserved":false,"is_disabled":false,"rental_uris":{"android":"levelo://app?vid=eb3d6de2-43db-47ec-887f-f0f23f8e7694","ios":"levelo://app?vid=eb3d6de2-43db-47ec-887f-f0f23f8e7694"},"vehicle_type_id":"4","last_reported":1740082224,"current_range_meters":11200,"station_id":"ce4bhl12rcd13ifvqgf0","pricing_plan_id":"cebpf4jnsgd1na2vs0mg"},{"bike_id":"e72439bb-8b6d-4bd3-a9c4-c984d973de2a","system_id":"levelo_inurba_marseille","lat":43.29873,"lon":5.38923,"is_reserved":false,"is_disabled":false,"rental_uris":{"android":"levelo://app?vid=e72439bb-8b6d-4bd3-a9c4-c984d973de2a","ios":"levelo://app?vid=e72439bb-8b6d-4bd3-a9c4-c984d973de2a"},"vehicle_type_id":"4","last_reported":1740082224,"current_range_meters":11200,"station_id":"ce4bh392rcd13ifvqdl0","pricing_plan_id":"cebpf4jnsgd1na2vs0mg"},{"bike_id":"ca901b68-9a91-4c4d-a945-d2156b0c65f1","system_id":"levelo_inurba_marseille","lat":43.28412,"lon":5.37512,"is_reserved":false,"is_disabled":false,"rental_uris":{"android":"levelo://app?vid=ca901b68-9a91-4c4d-a945-d2156b0c65f1","ios":"levelo://app?vid=ca901b68-9a91-4c4d-a945-d2156b0c65f1"},"vehicle_type_id":"4","last_reported":1740082224,"current_range_meters":11600,"station_id":"ce4bh412rcd13ifvqds0","pricing_plan_id":"cebpf4jnsgd1na2vs0mg"},{"bike_id":"978bb6d5-23c4-44bf-b0ea-6ebdb61a85a0","system_id":"levelo_inurba_marseille","lat":43.29424,"lon":5.3865,"is_reserved":false,"is_disabled":false,"rental_uris":{"android":"levelo://app?vid=978bb6d5-23c4-44bf-b0ea-6ebdb61a85a0","ios":"levelo://app?vid=978bb6d5-23c4-44bf-b0ea-6ebdb61a85a0"},"vehicle_type_id":"4","last_reported":1740082224,"current_range_meters":11600,"station_id":"ce4bh2h2rcd13ifvqdh0","pricing_plan_id":"cebpf4jnsgd1na2vs0mg"},{"bike_id":"e81876e2-f50a-43e3-b7f2-9019ccbde871","system_id":"levelo_inurba_marseille","lat":43.29038,"lon":5.38636,"is_reserved":false,"is_disabled":false,"rental_uris":{"android":"levelo://app?vid=e81876e2-f50a-43e3-b7f2-9019ccbde871","ios":"levelo://app?vid=e81876e2-f50a-43e3-b7f2-9019ccbde871"},"vehicle_type_id":"4","last_reported":1740082224,"current_range_meters":11600,"station_id":"ce4bh4p2rcd13ifvqe0g","pricing_plan_id":"cebpf4jnsgd1na2vs0mg"},{"bike_id":"69c1445b-0afa-4445-bac9-8ce3af227eb9","system_id":"levelo_inurba_marseille","lat":43.30887,"lon":5.39654,"is_reserved":false,"is_disabled":false,"rental_uris":{"android":"levelo://app?vid=69c1445b-0afa-4445-bac9-8ce3af227eb9","ios":"levelo://app?vid=69c1445b-0afa-4445-bac9-8ce3af227eb9"},"vehicle_type_id":"4","last_reported":1740082224,"current_range_meters":11200,"station_id":"ce4bh012rcd13ifvqcv0","pricing_plan_id":"cebpf4jnsgd1na2vs0mg"},{"bike_id":"76a127d3-77c2-483d-acf4-d4cd9dcde57d","system_id":"levelo_inurba_marseille","lat":43.27378,"lon":5.362438,"is_reserved":false,"is_disabled":false,"rental_uris":{"android":"levelo://app?vid=76a127d3-77c2-483d-acf4-d4cd9dcde57d","ios":"levelo://app?vid=76a127d3-77c2-483d-acf4-d4cd9dcde57d"},"vehicle_type_id":"4","last_reported":1740082224,"current_range_meters":11600,"station_id":"ce4bhbh2rcd13ifvqeo0","pricing_plan_id":"cebpf4jnsgd1na2vs0mg"},{"bike_id":"04306cbe-57d6-4c2f-86d0-c0525799ae62","system_id":"levelo_inurba_marseille","lat":43.2926,"lon":5.40135,"is_reserved":false,"is_disabled":false,"rental_uris":{"android":"levelo://app?vid=04306cbe-57d6-4c2f-86d0-c0525799ae62","ios":"levelo://app?vid=04306cbe-57d6-4c2f-86d0-c0525799ae62"},"vehicle_type_id":"4","last_reported":1740082224,"current_range_meters":11600,"station_id":"ce4bh312rcd13ifvqdk0","pricing_plan_id":"cebpf4jnsgd1na2vs0mg"},{"bike_id":"bfa1afdd-6221-4a91-82bd-d18819a67e02","system_id":"levelo_inurba_marseille","lat":43.244238,"lon":5.370237,"is_reserved":false,"is_disabled":false,"rental_uris":{"android":"levelo://app?vid=bfa1afdd-6221-4a91-82bd-d18819a67e02","ios":"levelo://app?vid=bfa1afdd-6221-4a91-82bd-d18819a67e02"},"vehicle_type_id":"4","last_reported":1740082224,"current_range_meters":11600,"station_id":"ce4bhnp2rcd13ifvqgvg","pricing_plan_id":"cebpf4jnsgd1na2vs0mg"},{"bike_id":"40eca1cb-3b66-4c15-baea-f929bf387e72","system_id":"levelo_inurba_marseille","lat":43.29183,"lon":5.37137,"is_reserved":false,"is_disabled":false,"rental_uris":{"android":"levelo://app?vid=40eca1cb-3b66-4c15-baea-f929bf387e72","ios":"levelo://app?vid=40eca1cb-3b66-4c15-baea-f929bf387e72"},"vehicle_type_id":"4","last_reported":1740082224,"current_range_meters":11600,"station_id":"ce4bha92rcd13ifvqeh0","pricing_plan_id":"cebpf4jnsgd1na2vs0mg"},{"bike_id":"8becd64c-893d-4a08-8876-b1598e031c70","system_id":"levelo_inurba_marseille","lat":43.27963,"lon":5.38691,"is_reserved":false,"is_disabled":true,"rental_uris":{"android":"levelo://app?vid=8becd64c-893d-4a08-8876-b1598e031c70","ios":"levelo://app?vid=8becd64c-893d-4a08-8876-b1598e031c70"},"vehicle_type_id":"4","last_reported":1740082224,"current_range_meters":12000,"station_id":"","pricing_plan_id":"cebpf4jnsgd1na2vs0mg"},{"bike_id":"ae48ce6a-cb3a-4ec2-9d3c-ec942733b445","system_id":"levelo_inurba_marseille","lat":43.23969,"lon":5.36642,"is_reserved":false,"is_disabled":false,"rental_uris":{"android":"levelo://app?vid=ae48ce6a-cb3a-4ec2-9d3c-ec942733b445","ios":"levelo://app?vid=ae48ce6a-cb3a-4ec2-9d3c-ec942733b445"},"vehicle_type_id":"4","last_reported":1740082224,"current_range_meters":12000,"station_id":"ce4bhi12rcd13ifvqfp0","pricing_plan_id":"cebpf4jnsgd1na2vs0mg"},{"bike_id":"db9b827c-403b-4a76-a0fe-754002583eb0","system_id":"levelo_inurba_marseille","lat":43.26497,"lon":5.39545,"is_reserved":false,"is_disabled":false,"rental_uris":{"android":"levelo://app?vid=db9b827c-403b-4a76-a0fe-754002583eb0","ios":"levelo://app?vid=db9b827c-403b-4a76-a0fe-754002583eb0"},"vehicle_type_id":"4","last_reported":1740082224,"current_range_meters":12000,"station_id":"ce4bhi12rcd13ifvqfq0","pricing_plan_id":"cebpf4jnsgd1na2vs0mg"},{"bike_id":"d4e427a9-982d-4a41-b5ed-132012b7876f","system_id":"levelo_inurba_marseille","lat":43.30467,"lon":5.36716,"is_reserved":false,"is_disabled":false,"rental_uris":{"android":"levelo://app?vid=d4e427a9-982d-4a41-b5ed-132012b7876f","ios":"levelo://app?vid=d4e427a9-982d-4a41-b5ed-132012b7876f"},"vehicle_type_id":"4","last_reported":1740082224,"current_range_meters":12000,"station_id":"","pricing_plan_id":"cebpf4jnsgd1na2vs0mg"},{"bike_id":"da380c58-ce0d-4c0b-a44e-8fa1b5271b75","system_id":"levelo_inurba_marseille","lat":43.28928,"lon":5.38406,"is_reserved":false,"is_disabled":false,"rental_uris":{"android":"levelo://app?vid=da380c58-ce0d-4c0b-a44e-8fa1b5271b75","ios":"levelo://app?vid=da380c58-ce0d-4c0b-a44e-8fa1b5271b75"},"vehicle_type_id":"4","last_reported":1740082224,"current_range_meters":12000,"station_id":"ce4bh612rcd13ifvqe6g","pricing_plan_id":"cebpf4jnsgd1na2vs0mg"},{"bike_id":"b2e67dbc-fc09-4bb3-b2c4-66f6713846cb","system_id":"levelo_inurba_marseille","lat":43.29257,"lon":5.38446,"is_reserved":false,"is_disabled":false,"rental_uris":{"android":"levelo://app?vid=b2e67dbc-fc09-4bb3-b2c4-66f6713846cb","ios":"levelo://app?vid=b2e67dbc-fc09-4bb3-b2c4-66f6713846cb"},"vehicle_type_id":"4","last_reported":1740082224,"current_range_meters":12000,"station_id":"ce4bh692rcd13ifvqea0","pricing_plan_id":"cebpf4jnsgd1na2vs0mg"},{"bike_id":"d4ea16c8-511e-446d-9284-98ee045f9c1d","system_id":"levelo_inurba_marseille","lat":43.29879,"lon":5.38909,"is_reserved":false,"is_disabled":false,"rental_uris":{"android":"levelo://app?vid=d4ea16c8-511e-446d-9284-98ee045f9c1d","ios":"levelo://app?vid=d4ea16c8-511e-446d-9284-98ee045f9c1d"},"vehicle_type_id":"4","last_reported":1740082224,"current_range_meters":12000,"station_id":"ce4bh392rcd13ifvqdl0","pricing_plan_id":"cebpf4jnsgd1na2vs0mg"},{"bike_id":"c17d48e1-60b9-4db3-99fa-3e7c243c8c7a","system_id":"levelo_inurba_marseille","lat":43.29308,"lon":5.37442,"is_reserved":false,"is_disabled":false,"rental_uris":{"android":"levelo://app?vid=c17d48e1-60b9-4db3-99fa-3e7c243c8c7a","ios":"levelo://app?vid=c17d48e1-60b9-4db3-99fa-3e7c243c8c7a"},"vehicle_type_id":"4","last_reported":1740082224,"current_range_meters":12000,"station_id":"ce4bgi12rcd13ifvqb70","pricing_plan_id":"cebpf4jnsgd1na2vs0mg"},{"bike_id":"49046599-4f4c-475a-9b9e-eeec31935a8f","system_id":"levelo_inurba_marseille","lat":43.30064,"lon":5.37042,"is_reserved":false,"is_disabled":false,"rental_uris":{"android":"levelo://app?vid=49046599-4f4c-475a-9b9e-eeec31935a8f","ios":"levelo://app?vid=49046599-4f4c-475a-9b9e-eeec31935a8f"},"vehicle_type_id":"4","last_reported":1740082224,"current_range_meters":12400,"station_id":"","pricing_plan_id":"cebpf4jnsgd1na2vs0mg"},{"bike_id":"2248a686-da6b-4ef8-880e-8db6a1c23aab","system_id":"levelo_inurba_marseille","lat":43.27389,"lon":5.36255,"is_reserved":false,"is_disabled":false,"rental_uris":{"android":"levelo://app?vid=2248a686-da6b-4ef8-880e-8db6a1c23aab","ios":"levelo://app?vid=2248a686-da6b-4ef8-880e-8db6a1c23aab"},"vehicle_type_id":"4","last_reported":1740082224,"current_range_meters":12400,"station_id":"","pricing_plan_id":"cebpf4jnsgd1na2vs0mg"},{"bike_id":"a605b267-7cff-43d6-b09c-f90d86883265","system_id":"levelo_inurba_marseille","lat":43.30333,"lon":5.40433,"is_reserved":false,"is_disabled":false,"rental_uris":{"android":"levelo://app?vid=a605b267-7cff-43d6-b09c-f90d86883265","ios":"levelo://app?vid=a605b267-7cff-43d6-b09c-f90d86883265"},"vehicle_type_id":"4","last_reported":1740082224,"current_range_meters":12400,"station_id":"ce4bh012rcd13ifvqd10","pricing_plan_id":"cebpf4jnsgd1na2vs0mg"},{"bike_id":"2c05b014-d74b-41e9-adb0-e2896d0c635e","system_id":"levelo_inurba_marseille","lat":43.26231,"lon":5.37439,"is_reserved":false,"is_disabled":false,"rental_uris":{"android":"levelo://app?vid=2c05b014-d74b-41e9-adb0-e2896d0c635e","ios":"levelo://app?vid=2c05b014-d74b-41e9-adb0-e2896d0c635e"},"vehicle_type_id":"4","last_reported":1740082224,"current_range_meters":12400,"station_id":"","pricing_plan_id":"cebpf4jnsgd1na2vs0mg"},{"bike_id":"50df017b-d245-4ca9-8ba2-fd8553e444e3","system_id":"levelo_inurba_marseille","lat":43.28094,"lon":5.39663,"is_reserved":false,"is_disabled":false,"rental_uris":{"android":"levelo://app?vid=50df017b-d245-4ca9-8ba2-fd8553e444e3","ios":"levelo://app?vid=50df017b-d245-4ca9-8ba2-fd8553e444e3"},"vehicle_type_id":"4","last_reported":1740082224,"current_range_meters":12800,"station_id":"ce4bho12rcd13ifvqh2g","pricing_plan_id":"cebpf4jnsgd1na2vs0mg"},{"bike_id":"149d8985-eade-45fb-8852-dcf993418135","system_id":"levelo_inurba_marseille","lat":43.29587,"lon":5.42235,"is_reserved":false,"is_disabled":false,"rental_uris":{"android":"levelo://app?vid=149d8985-eade-45fb-8852-dcf993418135","ios":"levelo://app?vid=149d8985-eade-45fb-8852-dcf993418135"},"vehicle_type_id":"4","last_reported":1740082224,"current_range_meters":12800,"station_id":"","pricing_plan_id":"cebpf4jnsgd1na2vs0mg"},{"bike_id":"e53b91c8-67fd-4f40-acea-7f7adf31cf25","system_id":"levelo_inurba_marseille","lat":43.29762,"lon":5.38108,"is_reserved":false,"is_disabled":false,"rental_uris":{"android":"levelo://app?vid=e53b91c8-67fd-4f40-acea-7f7adf31cf25","ios":"levelo://app?vid=e53b91c8-67fd-4f40-acea-7f7adf31cf25"},"vehicle_type_id":"4","last_reported":1740082224,"current_range_meters":12800,"station_id":"","pricing_plan_id":"cebpf4jnsgd1na2vs0mg"},{"bike_id":"7abc3a5e-e525-439a-b1ec-078fe3005167","system_id":"levelo_inurba_marseille","lat":43.30468,"lon":5.37928,"is_reserved":false,"is_disabled":false,"rental_uris":{"android":"levelo://app?vid=7abc3a5e-e525-439a-b1ec-078fe3005167","ios":"levelo://app?vid=7abc3a5e-e525-439a-b1ec-078fe3005167"},"vehicle_type_id":"4","last_reported":1740082224,"current_range_meters":12800,"station_id":"ce4bgup2rcd13ifvqcn0","pricing_plan_id":"cebpf4jnsgd1na2vs0mg"},{"bike_id":"cb12c915-7081-498c-91c3-a2448243cab0","system_id":"levelo_inurba_marseille","lat":43.28343,"lon":5.3812,"is_reserved":false,"is_disabled":false,"rental_uris":{"android":"levelo://app?vid=cb12c915-7081-498c-91c3-a2448243cab0","ios":"levelo://app?vid=cb12c915-7081-498c-91c3-a2448243cab0"},"vehicle_type_id":"4","last_reported":1740082224,"current_range_meters":12800,"station_id":"ce4bh412rcd13ifvqdr0","pricing_plan_id":"cebpf4jnsgd1na2vs0mg"},{"bike_id":"6eb4f32d-f2af-42dc-874a-cb190830b15f","system_id":"levelo_inurba_marseille","lat":43.298692,"lon":5.400988,"is_reserved":false,"is_disabled":false,"rental_uris":{"android":"levelo://app?vid=6eb4f32d-f2af-42dc-874a-cb190830b15f","ios":"levelo://app?vid=6eb4f32d-f2af-42dc-874a-cb190830b15f"},"vehicle_type_id":"4","last_reported":1740082224,"current_range_meters":12800,"station_id":"ce4bhr12rcd13ifvqhqg","pricing_plan_id":"cebpf4jnsgd1na2vs0mg"},{"bike_id":"084e191a-cfd5-466f-98d6-cc7dcc79c52e","system_id":"levelo_inurba_marseille","lat":43.241933,"lon":5.397102,"is_reserved":false,"is_disabled":false,"rental_uris":{"android":"levelo://app?vid=084e191a-cfd5-466f-98d6-cc7dcc79c52e","ios":"levelo://app?vid=084e191a-cfd5-466f-98d6-cc7dcc79c52e"},"vehicle_type_id":"4","last_reported":1740082224,"current_range_meters":12800,"station_id":"ce4bh3h2rcd13ifvqdo0","pricing_plan_id":"cebpf4jnsgd1na2vs0mg"},{"bike_id":"6947745c-09a1-4853-9447-033c03358229","system_id":"levelo_inurba_marseille","lat":43.29523,"lon":5.39048,"is_reserved":false,"is_disabled":false,"rental_uris":{"android":"levelo://app?vid=6947745c-09a1-4853-9447-033c03358229","ios":"levelo://app?vid=6947745c-09a1-4853-9447-033c03358229"},"vehicle_type_id":"4","last_reported":1740082224,"current_range_meters":13600,"station_id":"ce4bh3p2rcd13ifvqdp0","pricing_plan_id":"cebpf4jnsgd1na2vs0mg"},{"bike_id":"a79cc390-3434-485d-99ae-344c97a34fce","system_id":"levelo_inurba_marseille","lat":43.28195,"lon":5.42604,"is_reserved":false,"is_disabled":false,"rental_uris":{"android":"levelo://app?vid=a79cc390-3434-485d-99ae-344c97a34fce","ios":"levelo://app?vid=a79cc390-3434-485d-99ae-344c97a34fce"},"vehicle_type_id":"4","last_reported":1740082224,"current_range_meters":13600,"station_id":"ce4bhnh2rcd13ifvqgug","pricing_plan_id":"cebpf4jnsgd1na2vs0mg"},{"bike_id":"0d347db9-b36b-4170-9fe1-c0b25a88d631","system_id":"levelo_inurba_marseille","lat":43.31273,"lon":5.40175,"is_reserved":false,"is_disabled":false,"rental_uris":{"android":"levelo://app?vid=0d347db9-b36b-4170-9fe1-c0b25a88d631","ios":"levelo://app?vid=0d347db9-b36b-4170-9fe1-c0b25a88d631"},"vehicle_type_id":"4","last_reported":1740082224,"current_range_meters":13600,"station_id":"ce4bh092rcd13ifvqd30","pricing_plan_id":"cebpf4jnsgd1na2vs0mg"},{"bike_id":"3447e7b6-f8ed-4872-a45f-cf3cd80ed8ad","system_id":"levelo_inurba_marseille","lat":43.29734,"lon":5.37952,"is_reserved":false,"is_disabled":false,"rental_uris":{"android":"levelo://app?vid=3447e7b6-f8ed-4872-a45f-cf3cd80ed8ad","ios":"levelo://app?vid=3447e7b6-f8ed-4872-a45f-cf3cd80ed8ad"},"vehicle_type_id":"4","last_reported":1740082224,"current_range_meters":13600,"station_id":"ce4bguh2rcd13ifvqckg","pricing_plan_id":"cebpf4jnsgd1na2vs0mg"},{"bike_id":"362cc11e-0a02-4fcf-97ec-a79e786f3aca","system_id":"levelo_inurba_marseille","lat":43.26058,"lon":5.39393,"is_reserved":false,"is_disabled":false,"rental_uris":{"android":"levelo://app?vid=362cc11e-0a02-4fcf-97ec-a79e786f3aca","ios":"levelo://app?vid=362cc11e-0a02-4fcf-97ec-a79e786f3aca"},"vehicle_type_id":"4","last_reported":1740082224,"current_range_meters":13600,"station_id":"ce4bhh92rcd13ifvqfj0","pricing_plan_id":"cebpf4jnsgd1na2vs0mg"},{"bike_id":"233f3d57-b377-4a2b-b0d5-fb8e93135603","system_id":"levelo_inurba_marseille","lat":43.2973,"lon":5.3769,"is_reserved":false,"is_disabled":false,"rental_uris":{"android":"levelo://app?vid=233f3d57-b377-4a2b-b0d5-fb8e93135603","ios":"levelo://app?vid=233f3d57-b377-4a2b-b0d5-fb8e93135603"},"vehicle_type_id":"4","last_reported":1740082224,"current_range_meters":13600,"station_id":"ce4bgkh2rcd13ifvqbl0","pricing_plan_id":"cebpf4jnsgd1na2vs0mg"},{"bike_id":"b8a10d9d-c182-4335-a086-16597dfcc7f7","system_id":"levelo_inurba_marseille","lat":43.28723,"lon":5.37922,"is_reserved":false,"is_disabled":false,"rental_uris":{"android":"levelo://app?vid=b8a10d9d-c182-4335-a086-16597dfcc7f7","ios":"levelo://app?vid=b8a10d9d-c182-4335-a086-16597dfcc7f7"},"vehicle_type_id":"4","last_reported":1740082224,"current_range_meters":13600,"station_id":"ce4bh9p2rcd13ifvqec0","pricing_plan_id":"cebpf4jnsgd1na2vs0mg"},{"bike_id":"0a56f9d1-0a16-443d-8e0e-b767591ef2e6","system_id":"levelo_inurba_marseille","lat":43.26814,"lon":5.40248,"is_reserved":false,"is_disabled":false,"rental_uris":{"android":"levelo://app?vid=0a56f9d1-0a16-443d-8e0e-b767591ef2e6","ios":"levelo://app?vid=0a56f9d1-0a16-443d-8e0e-b767591ef2e6"},"vehicle_type_id":"4","last_reported":1740082224,"current_range_meters":14000,"station_id":"ce501612rcd8frsf0b60","pricing_plan_id":"cebpf4jnsgd1na2vs0mg"},{"bike_id":"103a41f5-486a-4899-b496-5ebccfdb3e04","system_id":"levelo_inurba_marseille","lat":43.24809,"lon":5.37453,"is_reserved":false,"is_disabled":false,"rental_uris":{"android":"levelo://app?vid=103a41f5-486a-4899-b496-5ebccfdb3e04","ios":"levelo://app?vid=103a41f5-486a-4899-b496-5ebccfdb3e04"},"vehicle_type_id":"4","last_reported":1740082224,"current_range_meters":13600,"station_id":"ce4bhgh2rcd13ifvqfb0","pricing_plan_id":"cebpf4jnsgd1na2vs0mg"},{"bike_id":"2c3dd84b-8279-45eb-a250-06b9d5131f67","system_id":"levelo_inurba_marseille","lat":43.27434,"lon":5.39406,"is_reserved":false,"is_disabled":false,"rental_uris":{"android":"levelo://app?vid=2c3dd84b-8279-45eb-a250-06b9d5131f67","ios":"levelo://app?vid=2c3dd84b-8279-45eb-a250-06b9d5131f67"},"vehicle_type_id":"4","last_reported":1740082224,"current_range_meters":13600,"station_id":"ce4bhdp2rcd13ifvqf20","pricing_plan_id":"cebpf4jnsgd1na2vs0mg"},{"bike_id":"9f78ff7b-6e57-459f-8197-ad27a2db23a8","system_id":"levelo_inurba_marseille","lat":43.29539,"lon":5.38563,"is_reserved":false,"is_disabled":false,"rental_uris":{"android":"levelo://app?vid=9f78ff7b-6e57-459f-8197-ad27a2db23a8","ios":"levelo://app?vid=9f78ff7b-6e57-459f-8197-ad27a2db23a8"},"vehicle_type_id":"4","last_reported":1740082224,"current_range_meters":14000,"station_id":"ce4bgih2rcd13ifvqba0","pricing_plan_id":"cebpf4jnsgd1na2vs0mg"},{"bike_id":"9a28e5e0-170b-4170-937a-cd966726dbb7","system_id":"levelo_inurba_marseille","lat":43.29322,"lon":5.37122,"is_reserved":false,"is_disabled":false,"rental_uris":{"android":"levelo://app?vid=9a28e5e0-170b-4170-937a-cd966726dbb7","ios":"levelo://app?vid=9a28e5e0-170b-4170-937a-cd966726dbb7"},"vehicle_type_id":"4","last_reported":1740082224,"current_range_meters":14400,"station_id":"","pricing_plan_id":"cebpf4jnsgd1na2vs0mg"},{"bike_id":"ce0caea6-6d1c-48ef-b0eb-fae6199eb4e1","system_id":"levelo_inurba_marseille","lat":43.23066,"lon":5.35508,"is_reserved":false,"is_disabled":false,"rental_uris":{"android":"levelo://app?vid=ce0caea6-6d1c-48ef-b0eb-fae6199eb4e1","ios":"levelo://app?vid=ce0caea6-6d1c-48ef-b0eb-fae6199eb4e1"},"vehicle_type_id":"4","last_reported":1740082224,"current_range_meters":14400,"station_id":"cpo3342slgdg3j2ifvpg","pricing_plan_id":"cebpf4jnsgd1na2vs0mg"},{"bike_id":"20463398-593d-4e39-b885-1b761836b416","system_id":"levelo_inurba_marseille","lat":43.24079,"lon":5.37743,"is_reserved":false,"is_disabled":false,"rental_uris":{"android":"levelo://app?vid=20463398-593d-4e39-b885-1b761836b416","ios":"levelo://app?vid=20463398-593d-4e39-b885-1b761836b416"},"vehicle_type_id":"4","last_reported":1740082224,"current_range_meters":14400,"station_id":"ce4bhnp2rcd13ifvqgvg","pricing_plan_id":"cebpf4jnsgd1na2vs0mg"},{"bike_id":"6106393f-3645-48aa-b132-3d2def6b4674","system_id":"levelo_inurba_marseille","lat":43.30444,"lon":5.3809,"is_reserved":false,"is_disabled":false,"rental_uris":{"android":"levelo://app?vid=6106393f-3645-48aa-b132-3d2def6b4674","ios":"levelo://app?vid=6106393f-3645-48aa-b132-3d2def6b4674"},"vehicle_type_id":"4","last_reported":1740082224,"current_range_meters":14400,"station_id":"ce4bgv92rcd13ifvqcq0","pricing_plan_id":"cebpf4jnsgd1na2vs0mg"},{"bike_id":"231f5e6e-c478-4a74-bd9f-c725b0ae6253","system_id":"levelo_inurba_marseille","lat":43.27908,"lon":5.38005,"is_reserved":false,"is_disabled":false,"rental_uris":{"android":"levelo://app?vid=231f5e6e-c478-4a74-bd9f-c725b0ae6253","ios":"levelo://app?vid=231f5e6e-c478-4a74-bd9f-c725b0ae6253"},"vehicle_type_id":"4","last_reported":1740082224,"current_range_meters":14400,"station_id":"ce4bhf92rcd13ifvqf50","pricing_plan_id":"cebpf4jnsgd1na2vs0mg"},{"bike_id":"406b4489-1b93-4a45-8cd2-f8858f770c97","system_id":"levelo_inurba_marseille","lat":43.25509,"lon":5.37643,"is_reserved":false,"is_disabled":false,"rental_uris":{"android":"levelo://app?vid=406b4489-1b93-4a45-8cd2-f8858f770c97","ios":"levelo://app?vid=406b4489-1b93-4a45-8cd2-f8858f770c97"},"vehicle_type_id":"4","last_reported":1740082224,"current_range_meters":14400,"station_id":"ce4bhh12rcd13ifvqff0","pricing_plan_id":"cebpf4jnsgd1na2vs0mg"},{"bike_id":"7fd6ae63-e7b3-4553-8ba2-57f135372ad7","system_id":"levelo_inurba_marseille","lat":43.25089,"lon":5.39512,"is_reserved":false,"is_disabled":false,"rental_uris":{"android":"levelo://app?vid=7fd6ae63-e7b3-4553-8ba2-57f135372ad7","ios":"levelo://app?vid=7fd6ae63-e7b3-4553-8ba2-57f135372ad7"},"vehicle_type_id":"4","last_reported":1740082224,"current_range_meters":14800,"station_id":"ce4bhm12rcd13ifvqgkg","pricing_plan_id":"cebpf4jnsgd1na2vs0mg"},{"bike_id":"5c0f18fe-4e4e-486a-9733-8d353738b008","system_id":"levelo_inurba_marseille","lat":43.28486,"lon":5.38534,"is_reserved":false,"is_disabled":false,"rental_uris":{"android":"levelo://app?vid=5c0f18fe-4e4e-486a-9733-8d353738b008","ios":"levelo://app?vid=5c0f18fe-4e4e-486a-9733-8d353738b008"},"vehicle_type_id":"4","last_reported":1740082224,"current_range_meters":14800,"station_id":"ce4bh8p2rcd13ifvqeb0","pricing_plan_id":"cebpf4jnsgd1na2vs0mg"},{"bike_id":"76a1d742-84f2-439e-8b87-72eb73bf6cb6","system_id":"levelo_inurba_marseille","lat":43.26213,"lon":5.3744,"is_reserved":false,"is_disabled":false,"rental_uris":{"android":"levelo://app?vid=76a1d742-84f2-439e-8b87-72eb73bf6cb6","ios":"levelo://app?vid=76a1d742-84f2-439e-8b87-72eb73bf6cb6"},"vehicle_type_id":"4","last_reported":1740082224,"current_range_meters":14800,"station_id":"ce4bhgp2rcd13ifvqfc0","pricing_plan_id":"cebpf4jnsgd1na2vs0mg"},{"bike_id":"3774a75a-f074-4684-b9d3-50abcc849c7b","system_id":"levelo_inurba_marseille","lat":43.28074,"lon":5.3964,"is_reserved":false,"is_disabled":false,"rental_uris":{"android":"levelo://app?vid=3774a75a-f074-4684-b9d3-50abcc849c7b","ios":"levelo://app?vid=3774a75a-f074-4684-b9d3-50abcc849c7b"},"vehicle_type_id":"4","last_reported":1740082224,"current_range_meters":15200,"station_id":"ce4bho12rcd13ifvqh2g","pricing_plan_id":"cebpf4jnsgd1na2vs0mg"},{"bike_id":"b057d0fa-33b6-477d-bbb3-30b06e8791c4","system_id":"levelo_inurba_marseille","lat":43.28397,"lon":5.37507,"is_reserved":false,"is_disabled":false,"rental_uris":{"android":"levelo://app?vid=b057d0fa-33b6-477d-bbb3-30b06e8791c4","ios":"levelo://app?vid=b057d0fa-33b6-477d-bbb3-30b06e8791c4"},"vehicle_type_id":"4","last_reported":1740082224,"current_range_meters":15200,"station_id":"ce4bh412rcd13ifvqds0","pricing_plan_id":"cebpf4jnsgd1na2vs0mg"},{"bike_id":"b253065d-1074-4a51-bc2b-4e15dba86004","system_id":"levelo_inurba_marseille","lat":43.23069,"lon":5.35486,"is_reserved":false,"is_disabled":false,"rental_uris":{"android":"levelo://app?vid=b253065d-1074-4a51-bc2b-4e15dba86004","ios":"levelo://app?vid=b253065d-1074-4a51-bc2b-4e15dba86004"},"vehicle_type_id":"4","last_reported":1740082224,"current_range_meters":15200,"station_id":"cpo3342slgdg3j2ifvpg","pricing_plan_id":"cebpf4jnsgd1na2vs0mg"},{"bike_id":"2a728cc4-f63d-43a0-8393-e5675285ea80","system_id":"levelo_inurba_marseille","lat":43.29798,"lon":5.38048,"is_reserved":false,"is_disabled":false,"rental_uris":{"android":"levelo://app?vid=2a728cc4-f63d-43a0-8393-e5675285ea80","ios":"levelo://app?vid=2a728cc4-f63d-43a0-8393-e5675285ea80"},"vehicle_type_id":"4","last_reported":1740082224,"current_range_meters":16000,"station_id":"","pricing_plan_id":"cebpf4jnsgd1na2vs0mg"},{"bike_id":"00ab42ce-e183-48e4-b298-d1c3399236a7","system_id":"levelo_inurba_marseille","lat":43.26812,"lon":5.40256,"is_reserved":false,"is_disabled":false,"rental_uris":{"android":"levelo://app?vid=00ab42ce-e183-48e4-b298-d1c3399236a7","ios":"levelo://app?vid=00ab42ce-e183-48e4-b298-d1c3399236a7"},"vehicle_type_id":"4","last_reported":1740082224,"current_range_meters":16000,"station_id":"","pricing_plan_id":"cebpf4jnsgd1na2vs0mg"},{"bike_id":"cc6f2e87-35b3-47bb-8103-9bd75abaf1e9","system_id":"levelo_inurba_marseille","lat":43.24662,"lon":5.3816,"is_reserved":false,"is_disabled":false,"rental_uris":{"android":"levelo://app?vid=cc6f2e87-35b3-47bb-8103-9bd75abaf1e9","ios":"levelo://app?vid=cc6f2e87-35b3-47bb-8103-9bd75abaf1e9"},"vehicle_type_id":"4","last_reported":1740082224,"current_range_meters":16000,"station_id":"ce4bhih2rcd13ifvqfr0","pricing_plan_id":"cebpf4jnsgd1na2vs0mg"},{"bike_id":"1736bdf7-065e-458a-8be8-137efe82e48a","system_id":"levelo_inurba_marseille","lat":43.33097,"lon":5.39055,"is_reserved":false,"is_disabled":false,"rental_uris":{"android":"levelo://app?vid=1736bdf7-065e-458a-8be8-137efe82e48a","ios":"levelo://app?vid=1736bdf7-065e-458a-8be8-137efe82e48a"},"vehicle_type_id":"4","last_reported":1740082224,"current_range_meters":16000,"station_id":"ce4bhqp2rcd13ifvqhog","pricing_plan_id":"cebpf4jnsgd1na2vs0mg"},{"bike_id":"87891dce-3352-4418-9015-a26c990ecd6e","system_id":"levelo_inurba_marseille","lat":43.23078,"lon":5.35497,"is_reserved":false,"is_disabled":false,"rental_uris":{"android":"levelo://app?vid=87891dce-3352-4418-9015-a26c990ecd6e","ios":"levelo://app?vid=87891dce-3352-4418-9015-a26c990ecd6e"},"vehicle_type_id":"4","last_reported":1740082224,"current_range_meters":16000,"station_id":"cpo3342slgdg3j2ifvpg","pricing_plan_id":"cebpf4jnsgd1na2vs0mg"},{"bike_id":"790b0ff7-55c5-4c35-9f2a-78c4076d7d17","system_id":"levelo_inurba_marseille","lat":43.27968,"lon":5.3851,"is_reserved":false,"is_disabled":false,"rental_uris":{"android":"levelo://app?vid=790b0ff7-55c5-4c35-9f2a-78c4076d7d17","ios":"levelo://app?vid=790b0ff7-55c5-4c35-9f2a-78c4076d7d17"},"vehicle_type_id":"4","last_reported":1740082224,"current_range_meters":16000,"station_id":"","pricing_plan_id":"cebpf4jnsgd1na2vs0mg"},{"bike_id":"df5ae48a-c324-4b45-93b7-11b77bf7c6f8","system_id":"levelo_inurba_marseille","lat":43.24381,"lon":5.37052,"is_reserved":false,"is_disabled":false,"rental_uris":{"android":"levelo://app?vid=df5ae48a-c324-4b45-93b7-11b77bf7c6f8","ios":"levelo://app?vid=df5ae48a-c324-4b45-93b7-11b77bf7c6f8"},"vehicle_type_id":"4","last_reported":1740082224,"current_range_meters":16000,"station_id":"ce4bhhh2rcd13ifvqfk0","pricing_plan_id":"cebpf4jnsgd1na2vs0mg"},{"bike_id":"08ac09c4-6f5c-4102-9080-551603ba8f2c","system_id":"levelo_inurba_marseille","lat":43.29802,"lon":5.38087,"is_reserved":false,"is_disabled":false,"rental_uris":{"android":"levelo://app?vid=08ac09c4-6f5c-4102-9080-551603ba8f2c","ios":"levelo://app?vid=08ac09c4-6f5c-4102-9080-551603ba8f2c"},"vehicle_type_id":"4","last_reported":1740082224,"current_range_meters":16000,"station_id":"ce4bgip2rcd13ifvqbb0","pricing_plan_id":"cebpf4jnsgd1na2vs0mg"},{"bike_id":"19b817e1-b268-47e2-953e-34b4241c6f49","system_id":"levelo_inurba_marseille","lat":43.2928,"lon":5.3843,"is_reserved":false,"is_disabled":false,"rental_uris":{"android":"levelo://app?vid=19b817e1-b268-47e2-953e-34b4241c6f49","ios":"levelo://app?vid=19b817e1-b268-47e2-953e-34b4241c6f49"},"vehicle_type_id":"4","last_reported":1740082224,"current_range_meters":16000,"station_id":"ce4bh692rcd13ifvqea0","pricing_plan_id":"cebpf4jnsgd1na2vs0mg"},{"bike_id":"0707d46b-12d8-485a-8e3d-ffdee638c4c6","system_id":"levelo_inurba_marseille","lat":43.30129,"lon":5.38804,"is_reserved":false,"is_disabled":false,"rental_uris":{"android":"levelo://app?vid=0707d46b-12d8-485a-8e3d-ffdee638c4c6","ios":"levelo://app?vid=0707d46b-12d8-485a-8e3d-ffdee638c4c6"},"vehicle_type_id":"4","last_reported":1740082224,"current_range_meters":16000,"station_id":"","pricing_plan_id":"cebpf4jnsgd1na2vs0mg"},{"bike_id":"a9bc54cf-1663-4727-bc90-a50bc5b21601","system_id":"levelo_inurba_marseille","lat":43.29265,"lon":5.38441,"is_reserved":false,"is_disabled":false,"rental_uris":{"android":"levelo://app?vid=a9bc54cf-1663-4727-bc90-a50bc5b21601","ios":"levelo://app?vid=a9bc54cf-1663-4727-bc90-a50bc5b21601"},"vehicle_type_id":"4","last_reported":1740082224,"current_range_meters":16000,"station_id":"","pricing_plan_id":"cebpf4jnsgd1na2vs0mg"},{"bike_id":"e385752e-a969-4716-bfcb-8e46f58b5798","system_id":"levelo_inurba_marseille","lat":43.30205,"lon":5.3948,"is_reserved":false,"is_disabled":false,"rental_uris":{"android":"levelo://app?vid=e385752e-a969-4716-bfcb-8e46f58b5798","ios":"levelo://app?vid=e385752e-a969-4716-bfcb-8e46f58b5798"},"vehicle_type_id":"4","last_reported":1740082224,"current_range_meters":16000,"station_id":"ce4bh0p2rcd13ifvqd70","pricing_plan_id":"cebpf4jnsgd1na2vs0mg"},{"bike_id":"4e11b30d-0226-4b04-813f-4404772688cd","system_id":"levelo_inurba_marseille","lat":43.29005,"lon":5.37169,"is_reserved":false,"is_disabled":false,"rental_uris":{"android":"levelo://app?vid=4e11b30d-0226-4b04-813f-4404772688cd","ios":"levelo://app?vid=4e11b30d-0226-4b04-813f-4404772688cd"},"vehicle_type_id":"4","last_reported":1740082224,"current_range_meters":16400,"station_id":"","pricing_plan_id":"cebpf4jnsgd1na2vs0mg"},{"bike_id":"ad484dc4-a807-4549-846d-2aa55284d983","system_id":"levelo_inurba_marseille","lat":43.278096,"lon":5.407144,"is_reserved":false,"is_disabled":false,"rental_uris":{"android":"levelo://app?vid=ad484dc4-a807-4549-846d-2aa55284d983","ios":"levelo://app?vid=ad484dc4-a807-4549-846d-2aa55284d983"},"vehicle_type_id":"4","last_reported":1740082224,"current_range_meters":16000,"station_id":"","pricing_plan_id":"cebpf4jnsgd1na2vs0mg"},{"bike_id":"12ef8137-2fe9-49ab-b515-2d8a19e68049","system_id":"levelo_inurba_marseille","lat":43.28867,"lon":5.35838,"is_reserved":false,"is_disabled":false,"rental_uris":{"android":"levelo://app?vid=12ef8137-2fe9-49ab-b515-2d8a19e68049","ios":"levelo://app?vid=12ef8137-2fe9-49ab-b515-2d8a19e68049"},"vehicle_type_id":"4","last_reported":1740082224,"current_range_meters":16400,"station_id":"ce4bhb12rcd13ifvqem0","pricing_plan_id":"cebpf4jnsgd1na2vs0mg"},{"bike_id":"7e0da6c8-7bc9-400b-a11b-694d2fdd997b","system_id":"levelo_inurba_marseille","lat":43.25087,"lon":5.39504,"is_reserved":false,"is_disabled":false,"rental_uris":{"android":"levelo://app?vid=7e0da6c8-7bc9-400b-a11b-694d2fdd997b","ios":"levelo://app?vid=7e0da6c8-7bc9-400b-a11b-694d2fdd997b"},"vehicle_type_id":"4","last_reported":1740082224,"current_range_meters":16400,"station_id":"ce4bhm12rcd13ifvqgkg","pricing_plan_id":"cebpf4jnsgd1na2vs0mg"},{"bike_id":"94b3215c-ea3b-4ff2-905b-12606a360285","system_id":"levelo_inurba_marseille","lat":43.29791,"lon":5.3809,"is_reserved":false,"is_disabled":false,"rental_uris":{"android":"levelo://app?vid=94b3215c-ea3b-4ff2-905b-12606a360285","ios":"levelo://app?vid=94b3215c-ea3b-4ff2-905b-12606a360285"},"vehicle_type_id":"4","last_reported":1740082224,"current_range_meters":16400,"station_id":"ce4bgip2rcd13ifvqbb0","pricing_plan_id":"cebpf4jnsgd1na2vs0mg"},{"bike_id":"4347ac42-d6bd-4898-bb54-db9da5fa21c6","system_id":"levelo_inurba_marseille","lat":43.26812,"lon":5.4025,"is_reserved":false,"is_disabled":false,"rental_uris":{"android":"levelo://app?vid=4347ac42-d6bd-4898-bb54-db9da5fa21c6","ios":"levelo://app?vid=4347ac42-d6bd-4898-bb54-db9da5fa21c6"},"vehicle_type_id":"4","last_reported":1740082224,"current_range_meters":16400,"station_id":"ce501612rcd8frsf0b60","pricing_plan_id":"cebpf4jnsgd1na2vs0mg"},{"bike_id":"bfe7aae5-9c0b-4cf1-af56-51edc8194bd4","system_id":"levelo_inurba_marseille","lat":43.28694,"lon":5.37374,"is_reserved":false,"is_disabled":false,"rental_uris":{"android":"levelo://app?vid=bfe7aae5-9c0b-4cf1-af56-51edc8194bd4","ios":"levelo://app?vid=bfe7aae5-9c0b-4cf1-af56-51edc8194bd4"},"vehicle_type_id":"4","last_reported":1740082224,"current_range_meters":16400,"station_id":"","pricing_plan_id":"cebpf4jnsgd1na2vs0mg"},{"bike_id":"e52db31e-24f3-4625-9dd7-5ba58981e77b","system_id":"levelo_inurba_marseille","lat":43.30662,"lon":5.40056,"is_reserved":false,"is_disabled":false,"rental_uris":{"android":"levelo://app?vid=e52db31e-24f3-4625-9dd7-5ba58981e77b","ios":"levelo://app?vid=e52db31e-24f3-4625-9dd7-5ba58981e77b"},"vehicle_type_id":"4","last_reported":1740082224,"current_range_meters":16000,"station_id":"ce4bh112rcd13ifvqda0","pricing_plan_id":"cebpf4jnsgd1na2vs0mg"},{"bike_id":"e2486147-a2a4-4a5f-91d0-44a136b0956a","system_id":"levelo_inurba_marseille","lat":43.27515,"lon":5.43435,"is_reserved":false,"is_disabled":false,"rental_uris":{"android":"levelo://app?vid=e2486147-a2a4-4a5f-91d0-44a136b0956a","ios":"levelo://app?vid=e2486147-a2a4-4a5f-91d0-44a136b0956a"},"vehicle_type_id":"4","last_reported":1740082224,"current_range_meters":16800,"station_id":"","pricing_plan_id":"cebpf4jnsgd1na2vs0mg"},{"bike_id":"6e7bc9e4-4f1a-4318-93da-1bc3ecd960b8","system_id":"levelo_inurba_marseille","lat":43.27001,"lon":5.40198,"is_reserved":false,"is_disabled":false,"rental_uris":{"android":"levelo://app?vid=6e7bc9e4-4f1a-4318-93da-1bc3ecd960b8","ios":"levelo://app?vid=6e7bc9e4-4f1a-4318-93da-1bc3ecd960b8"},"vehicle_type_id":"4","last_reported":1740082224,"current_range_meters":16800,"station_id":"cjm6bp8fraef2m0cb0m0","pricing_plan_id":"cebpf4jnsgd1na2vs0mg"},{"bike_id":"55b602b4-3be1-4c06-abc5-2fc79dac14fa","system_id":"levelo_inurba_marseille","lat":43.28101,"lon":5.37845,"is_reserved":false,"is_disabled":false,"rental_uris":{"android":"levelo://app?vid=55b602b4-3be1-4c06-abc5-2fc79dac14fa","ios":"levelo://app?vid=55b602b4-3be1-4c06-abc5-2fc79dac14fa"},"vehicle_type_id":"4","last_reported":1740082224,"current_range_meters":16800,"station_id":"ce4bha12rcd13ifvqee0","pricing_plan_id":"cebpf4jnsgd1na2vs0mg"},{"bike_id":"ebfdce7d-43e9-43c8-b1eb-8da04fdaf8b8","system_id":"levelo_inurba_marseille","lat":43.29816,"lon":5.38089,"is_reserved":false,"is_disabled":false,"rental_uris":{"android":"levelo://app?vid=ebfdce7d-43e9-43c8-b1eb-8da04fdaf8b8","ios":"levelo://app?vid=ebfdce7d-43e9-43c8-b1eb-8da04fdaf8b8"},"vehicle_type_id":"4","last_reported":1740082224,"current_range_meters":16800,"station_id":"ce4bgip2rcd13ifvqbb0","pricing_plan_id":"cebpf4jnsgd1na2vs0mg"},{"bike_id":"4079cda2-7fb5-4ac9-a6d3-cb818ac7e6b4","system_id":"levelo_inurba_marseille","lat":43.24394,"lon":5.37051,"is_reserved":false,"is_disabled":false,"rental_uris":{"android":"levelo://app?vid=4079cda2-7fb5-4ac9-a6d3-cb818ac7e6b4","ios":"levelo://app?vid=4079cda2-7fb5-4ac9-a6d3-cb818ac7e6b4"},"vehicle_type_id":"4","last_reported":1740082224,"current_range_meters":16400,"station_id":"ce4bhhh2rcd13ifvqfk0","pricing_plan_id":"cebpf4jnsgd1na2vs0mg"},{"bike_id":"f800bf4a-a88e-43ea-b4b8-11875d2f53c7","system_id":"levelo_inurba_marseille","lat":43.24826,"lon":5.37468,"is_reserved":false,"is_disabled":true,"rental_uris":{"android":"levelo://app?vid=f800bf4a-a88e-43ea-b4b8-11875d2f53c7","ios":"levelo://app?vid=f800bf4a-a88e-43ea-b4b8-11875d2f53c7"},"vehicle_type_id":"4","last_reported":1740082224,"current_range_meters":16800,"station_id":"","pricing_plan_id":"cebpf4jnsgd1na2vs0mg"},{"bike_id":"80acc978-d0a1-4a64-bce2-d50d858ac917","system_id":"levelo_inurba_marseille","lat":43.29417,"lon":5.38625,"is_reserved":false,"is_disabled":false,"rental_uris":{"android":"levelo://app?vid=80acc978-d0a1-4a64-bce2-d50d858ac917","ios":"levelo://app?vid=80acc978-d0a1-4a64-bce2-d50d858ac917"},"vehicle_type_id":"4","last_reported":1740082224,"current_range_meters":16800,"station_id":"","pricing_plan_id":"cebpf4jnsgd1na2vs0mg"},{"bike_id":"3a18a060-43b3-487c-bb23-8493264d5ba4","system_id":"levelo_inurba_marseille","lat":43.2418,"lon":5.36407,"is_reserved":false,"is_disabled":true,"rental_uris":{"android":"levelo://app?vid=3a18a060-43b3-487c-bb23-8493264d5ba4","ios":"levelo://app?vid=3a18a060-43b3-487c-bb23-8493264d5ba4"},"vehicle_type_id":"4","last_reported":1740082224,"current_range_meters":16800,"station_id":"","pricing_plan_id":"cebpf4jnsgd1na2vs0mg"},{"bike_id":"e7abbdd7-814c-4d95-b2fc-b046b9b3ff56","system_id":"levelo_inurba_marseille","lat":43.27811,"lon":5.40709,"is_reserved":false,"is_disabled":false,"rental_uris":{"android":"levelo://app?vid=e7abbdd7-814c-4d95-b2fc-b046b9b3ff56","ios":"levelo://app?vid=e7abbdd7-814c-4d95-b2fc-b046b9b3ff56"},"vehicle_type_id":"4","last_reported":1740082224,"current_range_meters":16800,"station_id":"","pricing_plan_id":"cebpf4jnsgd1na2vs0mg"},{"bike_id":"4aefe304-65aa-44a0-a904-b764903e36bd","system_id":"levelo_inurba_marseille","lat":43.30118,"lon":5.38806,"is_reserved":false,"is_disabled":true,"rental_uris":{"android":"levelo://app?vid=4aefe304-65aa-44a0-a904-b764903e36bd","ios":"levelo://app?vid=4aefe304-65aa-44a0-a904-b764903e36bd"},"vehicle_type_id":"4","last_reported":1740082224,"current_range_meters":16800,"station_id":"ce4bghh2rcd13ifvqb60","pricing_plan_id":"cebpf4jnsgd1na2vs0mg"},{"bike_id":"6a41d4d5-6ce6-4940-8b60-f1b1f72587c0","system_id":"levelo_inurba_marseille","lat":43.230672,"lon":5.354889,"is_reserved":false,"is_disabled":false,"rental_uris":{"android":"levelo://app?vid=6a41d4d5-6ce6-4940-8b60-f1b1f72587c0","ios":"levelo://app?vid=6a41d4d5-6ce6-4940-8b60-f1b1f72587c0"},"vehicle_type_id":"4","last_reported":1740082224,"current_range_meters":16800,"station_id":"cpo3342slgdg3j2ifvpg","pricing_plan_id":"cebpf4jnsgd1na2vs0mg"},{"bike_id":"39911775-b352-437f-a831-cbaa657f922a","system_id":"levelo_inurba_marseille","lat":43.287,"lon":5.37373,"is_reserved":false,"is_disabled":false,"rental_uris":{"android":"levelo://app?vid=39911775-b352-437f-a831-cbaa657f922a","ios":"levelo://app?vid=39911775-b352-437f-a831-cbaa657f922a"},"vehicle_type_id":"4","last_reported":1740082224,"current_range_meters":16800,"station_id":"ce4bh3p2rcd13ifvqdq0","pricing_plan_id":"cebpf4jnsgd1na2vs0mg"},{"bike_id":"d197c3e2-5cd1-4d93-ab59-1160e04fed3d","system_id":"levelo_inurba_marseille","lat":43.29299,"lon":5.37468,"is_reserved":false,"is_disabled":false,"rental_uris":{"android":"levelo://app?vid=d197c3e2-5cd1-4d93-ab59-1160e04fed3d","ios":"levelo://app?vid=d197c3e2-5cd1-4d93-ab59-1160e04fed3d"},"vehicle_type_id":"4","last_reported":1740082224,"current_range_meters":16800,"station_id":"","pricing_plan_id":"cebpf4jnsgd1na2vs0mg"},{"bike_id":"48bd32f5-5372-4c45-b865-3dbde016939c","system_id":"levelo_inurba_marseille","lat":43.26564,"lon":5.39016,"is_reserved":false,"is_disabled":false,"rental_uris":{"android":"levelo://app?vid=48bd32f5-5372-4c45-b865-3dbde016939c","ios":"levelo://app?vid=48bd32f5-5372-4c45-b865-3dbde016939c"},"vehicle_type_id":"4","last_reported":1740082224,"current_range_meters":17200,"station_id":"ce4bhe12rcd13ifvqf30","pricing_plan_id":"cebpf4jnsgd1na2vs0mg"},{"bike_id":"99e8db59-f48c-4d67-9859-2d75762818c4","system_id":"levelo_inurba_marseille","lat":43.29602,"lon":5.38101,"is_reserved":false,"is_disabled":false,"rental_uris":{"android":"levelo://app?vid=99e8db59-f48c-4d67-9859-2d75762818c4","ios":"levelo://app?vid=99e8db59-f48c-4d67-9859-2d75762818c4"},"vehicle_type_id":"4","last_reported":1740082224,"current_range_meters":17200,"station_id":"ce4bgl12rcd13ifvqbo0","pricing_plan_id":"cebpf4jnsgd1na2vs0mg"},{"bike_id":"74b952a1-95ad-4200-9283-e9fcf7ad9967","system_id":"levelo_inurba_marseille","lat":43.29035,"lon":5.38642,"is_reserved":false,"is_disabled":false,"rental_uris":{"android":"levelo://app?vid=74b952a1-95ad-4200-9283-e9fcf7ad9967","ios":"levelo://app?vid=74b952a1-95ad-4200-9283-e9fcf7ad9967"},"vehicle_type_id":"4","last_reported":1740082224,"current_range_meters":16800,"station_id":"ce4bh4p2rcd13ifvqe0g","pricing_plan_id":"cebpf4jnsgd1na2vs0mg"},{"bike_id":"700ba57b-266c-43e6-b9df-dd7077f527b0","system_id":"levelo_inurba_marseille","lat":43.29424,"lon":5.38625,"is_reserved":false,"is_disabled":false,"rental_uris":{"android":"levelo://app?vid=700ba57b-266c-43e6-b9df-dd7077f527b0","ios":"levelo://app?vid=700ba57b-266c-43e6-b9df-dd7077f527b0"},"vehicle_type_id":"4","last_reported":1740082224,"current_range_meters":17200,"station_id":"ce4bh2h2rcd13ifvqdh0","pricing_plan_id":"cebpf4jnsgd1na2vs0mg"},{"bike_id":"44e45a0d-80e4-4777-b789-c9ff84761c0c","system_id":"levelo_inurba_marseille","lat":43.29285,"lon":5.39447,"is_reserved":false,"is_disabled":false,"rental_uris":{"android":"levelo://app?vid=44e45a0d-80e4-4777-b789-c9ff84761c0c","ios":"levelo://app?vid=44e45a0d-80e4-4777-b789-c9ff84761c0c"},"vehicle_type_id":"4","last_reported":1740082224,"current_range_meters":17200,"station_id":"","pricing_plan_id":"cebpf4jnsgd1na2vs0mg"},{"bike_id":"10030f0f-da1f-4690-9cc0-e6c3a4fbfad4","system_id":"levelo_inurba_marseille","lat":43.30923,"lon":5.40161,"is_reserved":false,"is_disabled":false,"rental_uris":{"android":"levelo://app?vid=10030f0f-da1f-4690-9cc0-e6c3a4fbfad4","ios":"levelo://app?vid=10030f0f-da1f-4690-9cc0-e6c3a4fbfad4"},"vehicle_type_id":"4","last_reported":1740082224,"current_range_meters":17200,"station_id":"","pricing_plan_id":"cebpf4jnsgd1na2vs0mg"},{"bike_id":"05c803e1-6bd9-421a-90e0-182fda04ecc7","system_id":"levelo_inurba_marseille","lat":43.27178,"lon":5.40989,"is_reserved":false,"is_disabled":false,"rental_uris":{"android":"levelo://app?vid=05c803e1-6bd9-421a-90e0-182fda04ecc7","ios":"levelo://app?vid=05c803e1-6bd9-421a-90e0-182fda04ecc7"},"vehicle_type_id":"4","last_reported":1740082224,"current_range_meters":17600,"station_id":"ce4bhl12rcd13ifvqgf0","pricing_plan_id":"cebpf4jnsgd1na2vs0mg"},{"bike_id":"426b9ecc-ba5f-4d00-a300-d8a037622108","system_id":"levelo_inurba_marseille","lat":43.29269,"lon":5.38438,"is_reserved":false,"is_disabled":false,"rental_uris":{"android":"levelo://app?vid=426b9ecc-ba5f-4d00-a300-d8a037622108","ios":"levelo://app?vid=426b9ecc-ba5f-4d00-a300-d8a037622108"},"vehicle_type_id":"4","last_reported":1740082224,"current_range_meters":17600,"station_id":"","pricing_plan_id":"cebpf4jnsgd1na2vs0mg"},{"bike_id":"2adc5cea-c5b1-4244-93fa-680922a7766b","system_id":"levelo_inurba_marseille","lat":43.291992,"lon":5.393255,"is_reserved":false,"is_disabled":false,"rental_uris":{"android":"levelo://app?vid=2adc5cea-c5b1-4244-93fa-680922a7766b","ios":"levelo://app?vid=2adc5cea-c5b1-4244-93fa-680922a7766b"},"vehicle_type_id":"4","last_reported":1740082224,"current_range_meters":17600,"station_id":"ce4bh192rcd13ifvqdd0","pricing_plan_id":"cebpf4jnsgd1na2vs0mg"},{"bike_id":"d2b0e72e-8682-4290-a5dd-e520b2d99f29","system_id":"levelo_inurba_marseille","lat":43.30131,"lon":5.39862,"is_reserved":false,"is_disabled":false,"rental_uris":{"android":"levelo://app?vid=d2b0e72e-8682-4290-a5dd-e520b2d99f29","ios":"levelo://app?vid=d2b0e72e-8682-4290-a5dd-e520b2d99f29"},"vehicle_type_id":"4","last_reported":1740082224,"current_range_meters":17600,"station_id":"ce4bh0h2rcd13ifvqd40","pricing_plan_id":"cebpf4jnsgd1na2vs0mg"},{"bike_id":"89fb68ec-1aa9-4c97-8b89-632e005ea687","system_id":"levelo_inurba_marseille","lat":43.337444,"lon":5.374475,"is_reserved":false,"is_disabled":true,"rental_uris":{"android":"levelo://app?vid=89fb68ec-1aa9-4c97-8b89-632e005ea687","ios":"levelo://app?vid=89fb68ec-1aa9-4c97-8b89-632e005ea687"},"vehicle_type_id":"4","last_reported":1740082224,"current_range_meters":17600,"station_id":"","pricing_plan_id":"cebpf4jnsgd1na2vs0mg"},{"bike_id":"628d16e9-f173-4118-b3f1-8310c918aaf2","system_id":"levelo_inurba_marseille","lat":43.28841,"lon":5.39318,"is_reserved":false,"is_disabled":false,"rental_uris":{"android":"levelo://app?vid=628d16e9-f173-4118-b3f1-8310c918aaf2","ios":"levelo://app?vid=628d16e9-f173-4118-b3f1-8310c918aaf2"},"vehicle_type_id":"4","last_reported":1740082224,"current_range_meters":17600,"station_id":"ce4bh2p2rcd13ifvqdi0","pricing_plan_id":"cebpf4jnsgd1na2vs0mg"},{"bike_id":"1773ae1e-c63b-4de8-97f8-67d298e19fcc","system_id":"levelo_inurba_marseille","lat":43.288531,"lon":5.358674,"is_reserved":false,"is_disabled":false,"rental_uris":{"android":"levelo://app?vid=1773ae1e-c63b-4de8-97f8-67d298e19fcc","ios":"levelo://app?vid=1773ae1e-c63b-4de8-97f8-67d298e19fcc"},"vehicle_type_id":"4","last_reported":1740082224,"current_range_meters":18000,"station_id":"ce4bhb12rcd13ifvqem0","pricing_plan_id":"cebpf4jnsgd1na2vs0mg"},{"bike_id":"06050d19-ddc8-47df-982b-5a3290117915","system_id":"levelo_inurba_marseille","lat":43.27176,"lon":5.40992,"is_reserved":false,"is_disabled":false,"rental_uris":{"android":"levelo://app?vid=06050d19-ddc8-47df-982b-5a3290117915","ios":"levelo://app?vid=06050d19-ddc8-47df-982b-5a3290117915"},"vehicle_type_id":"4","last_reported":1740082224,"current_range_meters":18000,"station_id":"","pricing_plan_id":"cebpf4jnsgd1na2vs0mg"},{"bike_id":"e88e1378-a370-4013-94d7-c49bd70768f8","system_id":"levelo_inurba_marseille","lat":43.29098,"lon":5.38164,"is_reserved":false,"is_disabled":false,"rental_uris":{"android":"levelo://app?vid=e88e1378-a370-4013-94d7-c49bd70768f8","ios":"levelo://app?vid=e88e1378-a370-4013-94d7-c49bd70768f8"},"vehicle_type_id":"4","last_reported":1740082224,"current_range_meters":17600,"station_id":"","pricing_plan_id":"cebpf4jnsgd1na2vs0mg"},{"bike_id":"f30983c8-a477-4151-8928-f31c7cb3d3fc","system_id":"levelo_inurba_marseille","lat":43.29428,"lon":5.38635,"is_reserved":false,"is_disabled":false,"rental_uris":{"android":"levelo://app?vid=f30983c8-a477-4151-8928-f31c7cb3d3fc","ios":"levelo://app?vid=f30983c8-a477-4151-8928-f31c7cb3d3fc"},"vehicle_type_id":"4","last_reported":1740082224,"current_range_meters":18000,"station_id":"ce4bh2h2rcd13ifvqdh0","pricing_plan_id":"cebpf4jnsgd1na2vs0mg"},{"bike_id":"8758dbc3-17ca-421e-aeaf-8acf5cee482f","system_id":"levelo_inurba_marseille","lat":43.287,"lon":5.39986,"is_reserved":false,"is_disabled":false,"rental_uris":{"android":"levelo://app?vid=8758dbc3-17ca-421e-aeaf-8acf5cee482f","ios":"levelo://app?vid=8758dbc3-17ca-421e-aeaf-8acf5cee482f"},"vehicle_type_id":"4","last_reported":1740082224,"current_range_meters":18000,"station_id":"","pricing_plan_id":"cebpf4jnsgd1na2vs0mg"},{"bike_id":"463ccdfd-6016-4857-8eed-21b338cb3b66","system_id":"levelo_inurba_marseille","lat":43.28945,"lon":5.36659,"is_reserved":false,"is_disabled":false,"rental_uris":{"android":"levelo://app?vid=463ccdfd-6016-4857-8eed-21b338cb3b66","ios":"levelo://app?vid=463ccdfd-6016-4857-8eed-21b338cb3b66"},"vehicle_type_id":"4","last_reported":1740082224,"current_range_meters":18000,"station_id":"","pricing_plan_id":"cebpf4jnsgd1na2vs0mg"},{"bike_id":"f19ae394-0419-40e9-af63-4635c4a491c4","system_id":"levelo_inurba_marseille","lat":43.30425,"lon":5.39752,"is_reserved":false,"is_disabled":false,"rental_uris":{"android":"levelo://app?vid=f19ae394-0419-40e9-af63-4635c4a491c4","ios":"levelo://app?vid=f19ae394-0419-40e9-af63-4635c4a491c4"},"vehicle_type_id":"4","last_reported":1740082224,"current_range_meters":18000,"station_id":"ce4bh092rcd13ifvqd20","pricing_plan_id":"cebpf4jnsgd1na2vs0mg"},{"bike_id":"3ec36903-4270-44f7-9f5b-786af4524519","system_id":"levelo_inurba_marseille","lat":43.28151,"lon":5.42655,"is_reserved":false,"is_disabled":false,"rental_uris":{"android":"levelo://app?vid=3ec36903-4270-44f7-9f5b-786af4524519","ios":"levelo://app?vid=3ec36903-4270-44f7-9f5b-786af4524519"},"vehicle_type_id":"4","last_reported":1740082224,"current_range_meters":18000,"station_id":"ce4bhnh2rcd13ifvqgug","pricing_plan_id":"cebpf4jnsgd1na2vs0mg"},{"bike_id":"206b78bc-3e2c-4227-9004-444e635d202a","system_id":"levelo_inurba_marseille","lat":43.2902,"lon":5.38126,"is_reserved":false,"is_disabled":false,"rental_uris":{"android":"levelo://app?vid=206b78bc-3e2c-4227-9004-444e635d202a","ios":"levelo://app?vid=206b78bc-3e2c-4227-9004-444e635d202a"},"vehicle_type_id":"4","last_reported":1740082224,"current_range_meters":18000,"station_id":"ce4bh4p2rcd13ifvqe1g","pricing_plan_id":"cebpf4jnsgd1na2vs0mg"},{"bike_id":"75b5f4fb-0c49-422f-9831-059225f51683","system_id":"levelo_inurba_marseille","lat":43.29617,"lon":5.37719,"is_reserved":false,"is_disabled":false,"rental_uris":{"android":"levelo://app?vid=75b5f4fb-0c49-422f-9831-059225f51683","ios":"levelo://app?vid=75b5f4fb-0c49-422f-9831-059225f51683"},"vehicle_type_id":"4","last_reported":1740082224,"current_range_meters":18000,"station_id":"","pricing_plan_id":"cebpf4jnsgd1na2vs0mg"},{"bike_id":"0e0e070a-3ad7-4c8e-9085-e801b02a2401","system_id":"levelo_inurba_marseille","lat":43.29422,"lon":5.38626,"is_reserved":false,"is_disabled":false,"rental_uris":{"android":"levelo://app?vid=0e0e070a-3ad7-4c8e-9085-e801b02a2401","ios":"levelo://app?vid=0e0e070a-3ad7-4c8e-9085-e801b02a2401"},"vehicle_type_id":"4","last_reported":1740082224,"current_range_meters":18000,"station_id":"","pricing_plan_id":"cebpf4jnsgd1na2vs0mg"},{"bike_id":"87a55807-f2fb-4fff-8578-eaa4b8c19e0e","system_id":"levelo_inurba_marseille","lat":43.2962,"lon":5.38126,"is_reserved":false,"is_disabled":false,"rental_uris":{"android":"levelo://app?vid=87a55807-f2fb-4fff-8578-eaa4b8c19e0e","ios":"levelo://app?vid=87a55807-f2fb-4fff-8578-eaa4b8c19e0e"},"vehicle_type_id":"4","last_reported":1740082224,"current_range_meters":18000,"station_id":"","pricing_plan_id":"cebpf4jnsgd1na2vs0mg"},{"bike_id":"f68f0750-554e-4bac-958e-6cb17ea43878","system_id":"levelo_inurba_marseille","lat":43.26564,"lon":5.39002,"is_reserved":false,"is_disabled":false,"rental_uris":{"android":"levelo://app?vid=f68f0750-554e-4bac-958e-6cb17ea43878","ios":"levelo://app?vid=f68f0750-554e-4bac-958e-6cb17ea43878"},"vehicle_type_id":"4","last_reported":1740082224,"current_range_meters":18800,"station_id":"ce4bhe12rcd13ifvqf30","pricing_plan_id":"cebpf4jnsgd1na2vs0mg"},{"bike_id":"ebe8f273-5739-4753-ba61-e13e57e5e3ea","system_id":"levelo_inurba_marseille","lat":43.265747,"lon":5.390208,"is_reserved":false,"is_disabled":true,"rental_uris":{"android":"levelo://app?vid=ebe8f273-5739-4753-ba61-e13e57e5e3ea","ios":"levelo://app?vid=ebe8f273-5739-4753-ba61-e13e57e5e3ea"},"vehicle_type_id":"4","last_reported":1740082224,"current_range_meters":18800,"station_id":"","pricing_plan_id":"cebpf4jnsgd1na2vs0mg"},{"bike_id":"dbcd2d64-f458-4722-b447-77b07171beab","system_id":"levelo_inurba_marseille","lat":43.30889,"lon":5.37179,"is_reserved":false,"is_disabled":false,"rental_uris":{"android":"levelo://app?vid=dbcd2d64-f458-4722-b447-77b07171beab","ios":"levelo://app?vid=dbcd2d64-f458-4722-b447-77b07171beab"},"vehicle_type_id":"4","last_reported":1740082224,"current_range_meters":18000,"station_id":"ce4bguh2rcd13ifvqckg","pricing_plan_id":"cebpf4jnsgd1na2vs0mg"},{"bike_id":"15645e3d-5dd6-4bfa-9b38-2475ddfc1093","system_id":"levelo_inurba_marseille","lat":43.27818,"lon":5.40695,"is_reserved":false,"is_disabled":false,"rental_uris":{"android":"levelo://app?vid=15645e3d-5dd6-4bfa-9b38-2475ddfc1093","ios":"levelo://app?vid=15645e3d-5dd6-4bfa-9b38-2475ddfc1093"},"vehicle_type_id":"4","last_reported":1740082224,"current_range_meters":18800,"station_id":"ce4bhnh2rcd13ifvqgtg","pricing_plan_id":"cebpf4jnsgd1na2vs0mg"},{"bike_id":"8af2d6c9-eb2a-4c0f-8b17-b8e7e34705bc","system_id":"levelo_inurba_marseille","lat":43.29889,"lon":5.38896,"is_reserved":false,"is_disabled":false,"rental_uris":{"android":"levelo://app?vid=8af2d6c9-eb2a-4c0f-8b17-b8e7e34705bc","ios":"levelo://app?vid=8af2d6c9-eb2a-4c0f-8b17-b8e7e34705bc"},"vehicle_type_id":"4","last_reported":1740082224,"current_range_meters":18800,"station_id":"ce4bh392rcd13ifvqdl0","pricing_plan_id":"cebpf4jnsgd1na2vs0mg"},{"bike_id":"8d9ffb85-8011-478e-846e-93493b1494a6","system_id":"levelo_inurba_marseille","lat":43.2512,"lon":5.40318,"is_reserved":false,"is_disabled":false,"rental_uris":{"android":"levelo://app?vid=8d9ffb85-8011-478e-846e-93493b1494a6","ios":"levelo://app?vid=8d9ffb85-8011-478e-846e-93493b1494a6"},"vehicle_type_id":"4","last_reported":1740082224,"current_range_meters":18000,"station_id":"ce4bhlh2rcd13ifvqgig","pricing_plan_id":"cebpf4jnsgd1na2vs0mg"},{"bike_id":"945b4db8-b222-4d36-afd6-8aa6eb3af332","system_id":"levelo_inurba_marseille","lat":43.30094,"lon":5.39083,"is_reserved":false,"is_disabled":false,"rental_uris":{"android":"levelo://app?vid=945b4db8-b222-4d36-afd6-8aa6eb3af332","ios":"levelo://app?vid=945b4db8-b222-4d36-afd6-8aa6eb3af332"},"vehicle_type_id":"4","last_reported":1740082224,"current_range_meters":18800,"station_id":"ce4bh192rcd13ifvqdb0","pricing_plan_id":"cebpf4jnsgd1na2vs0mg"},{"bike_id":"3daa770b-5216-455c-9dda-7849b1581511","system_id":"levelo_inurba_marseille","lat":43.28412,"lon":5.35014,"is_reserved":false,"is_disabled":false,"rental_uris":{"android":"levelo://app?vid=3daa770b-5216-455c-9dda-7849b1581511","ios":"levelo://app?vid=3daa770b-5216-455c-9dda-7849b1581511"},"vehicle_type_id":"4","last_reported":1740082224,"current_range_meters":18800,"station_id":"ce4bhbh2rcd13ifvqepg","pricing_plan_id":"cebpf4jnsgd1na2vs0mg"},