{"last_updated":1723828037,"ttl":30,"version":"2.2","data":{"bikes":[{"bike_id":"2aa9b172-6266-4ceb-b0fc-5e51f49c9dd6","system_id":"levelo_inurba_marseille","lat":43.312239,"lon":5.368562,"is_reserved":false,"is_disabled":false,"rental_uris":{"android":"levelo://app?vid=2aa9b172-6266-4ceb-b0fc-5e51f49c9dd6","ios":"levelo://app?vid=2aa9b172-6266-4ceb-b0fc-5e51f49c9dd6"},"vehicle_type_id":"4","last_reported":1723828037,"current_range_meters":18000,"station_id":"ce4bgl92rcd13ifvqbq0","pricing_plan_id":"cebpf4jnsgd1na2vs0mg"},{"bike_id":"0c8231ed-1405-456c-b4c8-acb46d56cb59","system_id":"levelo_inurba_marseille","lat":43.312239,"lon":5.368562,"is_reserved":false,"is_disabled":false,"rental_uris":{"android":"levelo://app?vid=0c8231ed-1405-456c-b4c8-acb46d56cb59","ios":"levelo://app?vid=0c8231ed-1405-456c-b4c8-acb46d56cb59"},"vehicle_type_id":"4","last_reported":1723828037,"current_range_meters":0,"station_id":"ce4bgl92rcd13ifvqbq0","pricing_plan_id":"cebpf4jnsgd1na2vs0mg"},{"bike_id":"efb088f1-3e40-4f7a-9531-854c3cef744a","system_id":"levelo_inurba_marseille","lat":43.309076,"lon":5.368465,"is_reserved":false,"is_disabled":false,"rental_uris":{"android":"levelo://app?vid=efb088f1-3e40-4f7a-9531-854c3cef744a","ios":"levelo://app?vid=efb088f1-3e40-4f7a-9531-854c3cef744a"},"vehicle_type_id":"4","last_reported":1723828037,"current_range_meters":28800,"station_id":"ce4bgn92rcd13ifvqbvg","pricing_plan_id":"cebpf4jnsgd1na2vs0mg"},{"bike_id":"6db0315c-f348-4a6f-be50-98fce62a4f5c","system_id":"levelo_inurba_marseille","lat":43.309076,"lon":5.368465,"is_reserved":false,"is_disabled":false,"rental_uris":{"android":"levelo://app?vid=6db0315c-f348-4a6f-be50-98fce62a4f5c","ios":"levelo://app?vid=6db0315c-f348-4a6f-be50-98fce62a4f5c"},"vehicle_type_id":"4","last_reported":1723828037,"current_range_meters":8000,"station_id":"ce4bgn92rcd13ifvqbvg","pricing_plan_id":"cebpf4jnsgd1na2vs0mg"},{"bike_id":"5c948882-2d69-4ae6-847d-4b19e81be75b","system_id":"levelo_inurba_marseille","lat":43.309076,"lon":5.368465,"is_reserved":false,"is_disabled":false,"rental_uris":{"android":"levelo://app?vid=5c948882-2d69-4ae6-847d-4b19e81be75b","ios":"levelo://app?vid=5c948882-2d69-4ae6-847d-4b19e81be75b"},"vehicle_type_id":"4","last_reported":1723828037,"current_range_meters":21200,"station_id":"ce4bgn92rcd13ifvqbvg","pricing_plan_id":"cebpf4jnsgd1na2vs0mg"},{"bike_id":"0bec9390-194d-4d6b-86e2-9b9427187de3","system_id":"levelo_inurba_marseille","lat":43.309076,"lon":5.368465,"is_reserved":false,"is_disabled":false,"rental_uris":{"android":"levelo://app?vid=0bec9390-194d-4d6b-86e2-9b9427187de3","ios":"levelo://app?vid=0bec9390-194d-4d6b-86e2-9b9427187de3"},"vehicle_type_id":"4","last_reported":1723828037,"current_range_meters":27200,"station_id":"ce4bgn92rcd13ifvqbvg","pricing_plan_id":"cebpf4jnsgd1na2vs0mg"},{"bike_id":"1ffa884a-0f61-4153-82c0-2039526efd81","system_id":"levelo_inurba_marseille","lat":43.31478,"lon":5.37303,"is_reserved":false,"is_disabled":false,"rental_uris":{"android":"levelo://app?vid=1ffa884a-0f61-4153-82c0-2039526efd81","ios":"levelo://app?vid=1ffa884a-0f61-4153-82c0-2039526efd81"},"vehicle_type_id":"4","last_reported":1723828037,"current_range_meters":26800,"station_id":"ce4bgt12rcd13ifvqcd0","pricing_plan_id":"cebpf4jnsgd1na2vs0mg"},{"bike_id":"d1f85d2c-81eb-44f2-8b72-eafede32ee44","system_id":"levelo_inurba_marseille","lat":43.30555,"lon":5.36534,"is_reserved":false,"is_disabled":false,"rental_uris":{"android":"levelo://app?vid=d1f85d2c-81eb-44f2-8b72-eafede32ee44","ios":"levelo://app?vid=d1f85d2c-81eb-44f2-8b72-eafede32ee44"},"vehicle_type_id":"4","last_reported":1723828037,"current_range_meters":22000,"station_id":"ce4bgs12rcd13ifvqcag","pricing_plan_id":"cebpf4jnsgd1na2vs0mg"},{"bike_id":"a7804f22-7994-4ef9-bb29-e44369665f3c","system_id":"levelo_inurba_marseille","lat":43.30541,"lon":5.36711,"is_reserved":false,"is_disabled":false,"rental_uris":{"android":"levelo://app?vid=a7804f22-7994-4ef9-bb29-e44369665f3c","ios":"levelo://app?vid=a7804f22-7994-4ef9-bb29-e44369665f3c"},"vehicle_type_id":"4","last_reported":1723828037,"current_range_meters":0,"station_id":"ce4bgrp2rcd13ifvqc9g","pricing_plan_id":"cebpf4jnsgd1na2vs0mg"},{"bike_id":"1d712967-0733-4a5d-bdce-a527c459c21b","system_id":"levelo_inurba_marseille","lat":43.30537,"lon":5.367345,"is_reserved":false,"is_disabled":false,"rental_uris":{"android":"levelo://app?vid=1d712967-0733-4a5d-bdce-a527c459c21b","ios":"levelo://app?vid=1d712967-0733-4a5d-bdce-a527c459c21b"},"vehicle_type_id":"4","last_reported":1723828037,"current_range_meters":24800,"station_id":"ce4bgrp2rcd13ifvqc9g","pricing_plan_id":"cebpf4jnsgd1na2vs0mg"},{"bike_id":"711e9c30-efd2-44ed-8dc1-85f5642dde3c","system_id":"levelo_inurba_marseille","lat":43.305714,"lon":5.365633,"is_reserved":false,"is_disabled":false,"rental_uris":{"android":"levelo://app?vid=711e9c30-efd2-44ed-8dc1-85f5642dde3c","ios":"levelo://app?vid=711e9c30-efd2-44ed-8dc1-85f5642dde3c"},"vehicle_type_id":"4","last_reported":1723828037,"current_range_meters":14000,"station_id":"ce4bgs12rcd13ifvqcag","pricing_plan_id":"cebpf4jnsgd1na2vs0mg"},{"bike_id":"21496dd2-759f-41a7-827a-c0152d4ef111","system_id":"levelo_inurba_marseille","lat":43.30539,"lon":5.36543,"is_reserved":false,"is_disabled":false,"rental_uris":{"android":"levelo://app?vid=21496dd2-759f-41a7-827a-c0152d4ef111","ios":"levelo://app?vid=21496dd2-759f-41a7-827a-c0152d4ef111"},"vehicle_type_id":"4","last_reported":1723828037,"current_range_meters":3600,"station_id":"ce4bgs12rcd13ifvqcag","pricing_plan_id":"cebpf4jnsgd1na2vs0mg"},{"bike_id":"53bf87cb-8079-4046-a515-383b6e13713e","system_id":"levelo_inurba_marseille","lat":43.305706,"lon":5.365654,"is_reserved":false,"is_disabled":false,"rental_uris":{"android":"levelo://app?vid=53bf87cb-8079-4046-a515-383b6e13713e","ios":"levelo://app?vid=53bf87cb-8079-4046-a515-383b6e13713e"},"vehicle_type_id":"4","last_reported":1723828037,"current_range_meters":31200,"station_id":"ce4bgs12rcd13ifvqcag","pricing_plan_id":"cebpf4jnsgd1na2vs0mg"},{"bike_id":"6bdca4f9-e438-4809-97e5-c870d61837c1","system_id":"levelo_inurba_marseille","lat":43.305989,"lon":5.37225,"is_reserved":false,"is_disabled":false,"rental_uris":{"android":"levelo://app?vid=6bdca4f9-e438-4809-97e5-c870d61837c1","ios":"levelo://app?vid=6bdca4f9-e438-4809-97e5-c870d61837c1"},"vehicle_type_id":"4","last_reported":1723828037,"current_range_meters":17600,"station_id":"ce4bgqh2rcd13ifvqc4g","pricing_plan_id":"cebpf4jnsgd1na2vs0mg"},{"bike_id":"3fcb0979-bd3a-4e8a-a5bf-3b75d15d616d","system_id":"levelo_inurba_marseille","lat":43.317075,"lon":5.377367,"is_reserved":false,"is_disabled":false,"rental_uris":{"android":"levelo://app?vid=3fcb0979-bd3a-4e8a-a5bf-3b75d15d616d","ios":"levelo://app?vid=3fcb0979-bd3a-4e8a-a5bf-3b75d15d616d"},"vehicle_type_id":"4","last_reported":1723828037,"current_range_meters":23200,"station_id":"ce4bgth2rcd13ifvqch0","pricing_plan_id":"cebpf4jnsgd1na2vs0mg"},{"bike_id":"6ae941de-ddd9-49e9-ad12-6a3d257d9981","system_id":"levelo_inurba_marseille","lat":43.317075,"lon":5.377367,"is_reserved":false,"is_disabled":false,"rental_uris":{"android":"levelo://app?vid=6ae941de-ddd9-49e9-ad12-6a3d257d9981","ios":"levelo://app?vid=6ae941de-ddd9-49e9-ad12-6a3d257d9981"},"vehicle_type_id":"4","last_reported":1723828037,"current_range_meters":26000,"station_id":"ce4bgth2rcd13ifvqch0","pricing_plan_id":"cebpf4jnsgd1na2vs0mg"},{"bike_id":"6f3b0fff-03c6-4bf2-bf94-008f2d7ba3a4","system_id":"levelo_inurba_marseille","lat":43.3137,"lon":5.3792,"is_reserved":false,"is_disabled":false,"rental_uris":{"android":"levelo://app?vid=6f3b0fff-03c6-4bf2-bf94-008f2d7ba3a4","ios":"levelo://app?vid=6f3b0fff-03c6-4bf2-bf94-008f2d7ba3a4"},"vehicle_type_id":"4","last_reported":1723828037,"current_range_meters":6000,"station_id":"","pricing_plan_id":"cebpf4jnsgd1na2vs0mg"},{"bike_id":"9889a590-72de-4057-b360-9a65a922c72e","system_id":"levelo_inurba_marseille","lat":43.303046,"lon":5.368981,"is_reserved":false,"is_disabled":false,"rental_uris":{"android":"levelo://app?vid=9889a590-72de-4057-b360-9a65a922c72e","ios":"levelo://app?vid=9889a590-72de-4057-b360-9a65a922c72e"},"vehicle_type_id":"4","last_reported":1723828037,"current_range_meters":3600,"station_id":"ce4bgqh2rcd13ifvqc5g","pricing_plan_id":"cebpf4jnsgd1na2vs0mg"},{"bike_id":"570ab7be-0612-4383-9d87-ba909e813420","system_id":"levelo_inurba_marseille","lat":43.315289,"lon":5.380349,"is_reserved":false,"is_disabled":false,"rental_uris":{"android":"levelo://app?vid=570ab7be-0612-4383-9d87-ba909e813420","ios":"levelo://app?vid=570ab7be-0612-4383-9d87-ba909e813420"},"vehicle_type_id":"4","last_reported":1723828037,"current_range_meters":18000,"station_id":"ce4bhsp2rcd13ifvqi50","pricing_plan_id":"cebpf4jnsgd1na2vs0mg"},{"bike_id":"ef996c23-dcd4-4856-a7da-f37a8588aa52","system_id":"levelo_inurba_marseille","lat":43.301939,"lon":5.366286,"is_reserved":false,"is_disabled":false,"rental_uris":{"android":"levelo://app?vid=ef996c23-dcd4-4856-a7da-f37a8588aa52","ios":"levelo://app?vid=ef996c23-dcd4-4856-a7da-f37a8588aa52"},"vehicle_type_id":"4","last_reported":1723828037,"current_range_meters":21200,"station_id":"ce4bgrh2rcd13ifvqc8g","pricing_plan_id":"cebpf4jnsgd1na2vs0mg"},{"bike_id":"11608705-30e1-4374-9427-4cfefc3da681","system_id":"levelo_inurba_marseille","lat":43.301939,"lon":5.366286,"is_reserved":false,"is_disabled":false,"rental_uris":{"android":"levelo://app?vid=11608705-30e1-4374-9427-4cfefc3da681","ios":"levelo://app?vid=11608705-30e1-4374-9427-4cfefc3da681"},"vehicle_type_id":"4","last_reported":1723828037,"current_range_meters":9600,"station_id":"ce4bgrh2rcd13ifvqc8g","pricing_plan_id":"cebpf4jnsgd1na2vs0mg"},{"bike_id":"c749df16-fef8-4574-b240-17235e602a7e","system_id":"levelo_inurba_marseille","lat":43.308012,"lon":5.381511,"is_reserved":false,"is_disabled":false,"rental_uris":{"android":"levelo://app?vid=c749df16-fef8-4574-b240-17235e602a7e","ios":"levelo://app?vid=c749df16-fef8-4574-b240-17235e602a7e"},"vehicle_type_id":"4","last_reported":1723828037,"current_range_meters":4000,"station_id":"ce4bgt12rcd13ifvqce0","pricing_plan_id":"cebpf4jnsgd1na2vs0mg"},{"bike_id":"ef271e28-eb97-4e3b-8dc3-1e88a99d1af9","system_id":"levelo_inurba_marseille","lat":43.308012,"lon":5.381511,"is_reserved":false,"is_disabled":false,"rental_uris":{"android":"levelo://app?vid=ef271e28-eb97-4e3b-8dc3-1e88a99d1af9","ios":"levelo://app?vid=ef271e28-eb97-4e3b-8dc3-1e88a99d1af9"},"vehicle_type_id":"4","last_reported":1723828037,"current_range_meters":18400,"station_id":"ce4bgt12rcd13ifvqce0","pricing_plan_id":"cebpf4jnsgd1na2vs0mg"},{"bike_id":"30a0fe46-b99a-40d4-8da1-2890a467d8aa","system_id":"levelo_inurba_marseille","lat":43.308012,"lon":5.381511,"is_reserved":false,"is_disabled":false,"rental_uris":{"android":"levelo://app?vid=30a0fe46-b99a-40d4-8da1-2890a467d8aa","ios":"levelo://app?vid=30a0fe46-b99a-40d4-8da1-2890a467d8aa"},"vehicle_type_id":"4","last_reported":1723828037,"current_range_meters":7200,"station_id":"ce4bgt12rcd13ifvqce0","pricing_plan_id":"cebpf4jnsgd1na2vs0mg"},{"bike_id":"ce24a967-2164-4fde-b8b9-1f1777cbbb28","system_id":"levelo_inurba_marseille","lat":43.324771,"lon":5.36557,"is_reserved":false,"is_disabled":false,"rental_uris":{"android":"levelo://app?vid=ce24a967-2164-4fde-b8b9-1f1777cbbb28","ios":"levelo://app?vid=ce24a967-2164-4fde-b8b9-1f1777cbbb28"},"vehicle_type_id":"4","last_reported":1723828037,"current_range_meters":20400,"station_id":"ce4bhs12rcd13ifvqhvg","pricing_plan_id":"cebpf4jnsgd1na2vs0mg"},{"bike_id":"15325579-9ddc-4d26-9cfe-ce28942afc27","system_id":"levelo_inurba_marseille","lat":43.324771,"lon":5.36557,"is_reserved":false,"is_disabled":false,"rental_uris":{"android":"levelo://app?vid=15325579-9ddc-4d26-9cfe-ce28942afc27","ios":"levelo://app?vid=15325579-9ddc-4d26-9cfe-ce28942afc27"},"vehicle_type_id":"4","last_reported":1723828037,"current_range_meters":6800,"station_id":"ce4bhs12rcd13ifvqhvg","pricing_plan_id":"cebpf4jnsgd1na2vs0mg"},{"bike_id":"f2ef0f05-350c-4b46-afdf-859ee10c40f2","system_id":"levelo_inurba_marseille","lat":43.324771,"lon":5.36557,"is_reserved":false,"is_disabled":false,"rental_uris":{"android":"levelo://app?vid=f2ef0f05-350c-4b46-afdf-859ee10c40f2","ios":"levelo://app?vid=f2ef0f05-350c-4b46-afdf-859ee10c40f2"},"vehicle_type_id":"4","last_reported":1723828037,"current_range_meters":21200,"station_id":"ce4bhs12rcd13ifvqhvg","pricing_plan_id":"cebpf4jnsgd1na2vs0mg"},{"bike_id":"1cc1a06a-9534-4f77-a6ce-b9613dd45db2","system_id":"levelo_inurba_marseille","lat":43.324771,"lon":5.36557,"is_reserved":false,"is_disabled":false,"rental_uris":{"android":"levelo://app?vid=1cc1a06a-9534-4f77-a6ce-b9613dd45db2","ios":"levelo://app?vid=1cc1a06a-9534-4f77-a6ce-b9613dd45db2"},"vehicle_type_id":"4","last_reported":1723828037,"current_range_meters":15200,"station_id":"ce4bhs12rcd13ifvqhvg","pricing_plan_id":"cebpf4jnsgd1na2vs0mg"},{"bike_id":"6472a88b-9da4-4029-9f21-391a56f4cfc1","system_id":"levelo_inurba_marseille","lat":43.324771,"lon":5.36557,"is_reserved":false,"is_disabled":false,"rental_uris":{"android":"levelo://app?vid=6472a88b-9da4-4029-9f21-391a56f4cfc1","ios":"levelo://app?vid=6472a88b-9da4-4029-9f21-391a56f4cfc1"},"vehicle_type_id":"4","last_reported":1723828037,"current_range_meters":31600,"station_id":"ce4bhs12rcd13ifvqhvg","pricing_plan_id":"cebpf4jnsgd1na2vs0mg"},{"bike_id":"94077f2b-f47f-48d7-8e74-d50d3804e489","system_id":"levelo_inurba_marseille","lat":43.324771,"lon":5.36557,"is_reserved":false,"is_disabled":false,"rental_uris":{"android":"levelo://app?vid=94077f2b-f47f-48d7-8e74-d50d3804e489","ios":"levelo://app?vid=94077f2b-f47f-48d7-8e74-d50d3804e489"},"vehicle_type_id":"4","last_reported":1723828037,"current_range_meters":15200,"station_id":"ce4bhs12rcd13ifvqhvg","pricing_plan_id":"cebpf4jnsgd1na2vs0mg"},{"bike_id":"5a2741d8-697b-4ed8-8c0b-57f762126b01","system_id":"levelo_inurba_marseille","lat":43.324771,"lon":5.36557,"is_reserved":false,"is_disabled":false,"rental_uris":{"android":"levelo://app?vid=5a2741d8-697b-4ed8-8c0b-57f762126b01","ios":"levelo://app?vid=5a2741d8-697b-4ed8-8c0b-57f762126b01"},"vehicle_type_id":"4","last_reported":1723828037,"current_range_meters":24400,"station_id":"ce4bhs12rcd13ifvqhvg","pricing_plan_id":"cebpf4jnsgd1na2vs0mg"},{"bike_id":"edd52fff-d71f-4b44-8b00-5583186ff434","system_id":"levelo_inurba_marseille","lat":43.324771,"lon":5.36557,"is_reserved":false,"is_disabled":false,"rental_uris":{"android":"levelo://app?vid=edd52fff-d71f-4b44-8b00-5583186ff434","ios":"levelo://app?vid=edd52fff-d71f-4b44-8b00-5583186ff434"},"vehicle_type_id":"4","last_reported":1723828037,"current_range_meters":19600,"station_id":"ce4bhs12rcd13ifvqhvg","pricing_plan_id":"cebpf4jnsgd1na2vs0mg"},{"bike_id":"f9ad0309-7f53-4d9b-9ddf-f24ce78ffb0d","system_id":"levelo_inurba_marseille","lat":43.324771,"lon":5.36557,"is_reserved":false,"is_disabled":false,"rental_uris":{"android":"levelo://app?vid=f9ad0309-7f53-4d9b-9ddf-f24ce78ffb0d","ios":"levelo://app?vid=f9ad0309-7f53-4d9b-9ddf-f24ce78ffb0d"},"vehicle_type_id":"4","last_reported":1723828037,"current_range_meters":3600,"station_id":"ce4bhs12rcd13ifvqhvg","pricing_plan_id":"cebpf4jnsgd1na2vs0mg"},{"bike_id":"ca38bb0f-4641-46c2-8c69-df1ac2afc96c","system_id":"levelo_inurba_marseille","lat":43.324771,"lon":5.36557,"is_reserved":false,"is_disabled":false,"rental_uris":{"android":"levelo://app?vid=ca38bb0f-4641-46c2-8c69-df1ac2afc96c","ios":"levelo://app?vid=ca38bb0f-4641-46c2-8c69-df1ac2afc96c"},"vehicle_type_id":"4","last_reported":1723828037,"current_range_meters":10400,"station_id":"ce4bhs12rcd13ifvqhvg","pricing_plan_id":"cebpf4jnsgd1na2vs0mg"},{"bike_id":"1e7cd12c-db2f-43d9-96f2-7f518969ee2c","system_id":"levelo_inurba_marseille","lat":43.302784,"lon":5.377158,"is_reserved":false,"is_disabled":false,"rental_uris":{"android":"levelo://app?vid=1e7cd12c-db2f-43d9-96f2-7f518969ee2c","ios":"levelo://app?vid=1e7cd12c-db2f-43d9-96f2-7f518969ee2c"},"vehicle_type_id":"4","last_reported":1723828037,"current_range_meters":26000,"station_id":"ce4bguh2rcd13ifvqcj0","pricing_plan_id":"cebpf4jnsgd1na2vs0mg"},{"bike_id":"486a1502-8e0e-44ef-bd93-2703b92b76dc","system_id":"levelo_inurba_marseille","lat":43.302784,"lon":5.377158,"is_reserved":false,"is_disabled":false,"rental_uris":{"android":"levelo://app?vid=486a1502-8e0e-44ef-bd93-2703b92b76dc","ios":"levelo://app?vid=486a1502-8e0e-44ef-bd93-2703b92b76dc"},"vehicle_type_id":"4","last_reported":1723828037,"current_range_meters":30000,"station_id":"ce4bguh2rcd13ifvqcj0","pricing_plan_id":"cebpf4jnsgd1na2vs0mg"},{"bike_id":"86001490-0543-4bd0-9ec8-680a92437b3a","system_id":"levelo_inurba_marseille","lat":43.302784,"lon":5.377158,"is_reserved":false,"is_disabled":false,"rental_uris":{"android":"levelo://app?vid=86001490-0543-4bd0-9ec8-680a92437b3a","ios":"levelo://app?vid=86001490-0543-4bd0-9ec8-680a92437b3a"},"vehicle_type_id":"4","last_reported":1723828037,"current_range_meters":0,"station_id":"ce4bguh2rcd13ifvqcj0","pricing_plan_id":"cebpf4jnsgd1na2vs0mg"},{"bike_id":"e15ca0af-23b5-4e87-b8b2-674b8f1f8390","system_id":"levelo_inurba_marseille","lat":43.302784,"lon":5.377158,"is_reserved":false,"is_disabled":false,"rental_uris":{"android":"levelo://app?vid=e15ca0af-23b5-4e87-b8b2-674b8f1f8390","ios":"levelo://app?vid=e15ca0af-23b5-4e87-b8b2-674b8f1f8390"},"vehicle_type_id":"4","last_reported":1723828037,"current_range_meters":22000,"station_id":"ce4bguh2rcd13ifvqcj0","pricing_plan_id":"cebpf4jnsgd1na2vs0mg"},{"bike_id":"d41321f0-495e-4b4c-9513-44db93355f7b","system_id":"levelo_inurba_marseille","lat":43.30143,"lon":5.37413,"is_reserved":false,"is_disabled":false,"rental_uris":{"android":"levelo://app?vid=d41321f0-495e-4b4c-9513-44db93355f7b","ios":"levelo://app?vid=d41321f0-495e-4b4c-9513-44db93355f7b"},"vehicle_type_id":"4","last_reported":1723828037,"current_range_meters":20000,"station_id":"ce4bgs92rcd13ifvqcc0","pricing_plan_id":"cebpf4jnsgd1na2vs0mg"},{"bike_id":"bdcecf34-e18c-4a7c-a4bc-bbae46812d9c","system_id":"levelo_inurba_marseille","lat":43.30143,"lon":5.37413,"is_reserved":false,"is_disabled":false,"rental_uris":{"android":"levelo://app?vid=bdcecf34-e18c-4a7c-a4bc-bbae46812d9c","ios":"levelo://app?vid=bdcecf34-e18c-4a7c-a4bc-bbae46812d9c"},"vehicle_type_id":"4","last_reported":1723828037,"current_range_meters":1200,"station_id":"ce4bgs92rcd13ifvqcc0","pricing_plan_id":"cebpf4jnsgd1na2vs0mg"},{"bike_id":"8767707f-c27d-4407-a494-772242e1fa6c","system_id":"levelo_inurba_marseille","lat":43.30143,"lon":5.37413,"is_reserved":false,"is_disabled":false,"rental_uris":{"android":"levelo://app?vid=8767707f-c27d-4407-a494-772242e1fa6c","ios":"levelo://app?vid=8767707f-c27d-4407-a494-772242e1fa6c"},"vehicle_type_id":"4","last_reported":1723828037,"current_range_meters":8000,"station_id":"ce4bgs92rcd13ifvqcc0","pricing_plan_id":"cebpf4jnsgd1na2vs0mg"},{"bike_id":"95641c49-ae04-4ec5-9d70-ad914e27ca51","system_id":"levelo_inurba_marseille","lat":43.302784,"lon":5.377158,"is_reserved":false,"is_disabled":false,"rental_uris":{"android":"levelo://app?vid=95641c49-ae04-4ec5-9d70-ad914e27ca51","ios":"levelo://app?vid=95641c49-ae04-4ec5-9d70-ad914e27ca51"},"vehicle_type_id":"4","last_reported":1723828037,"current_range_meters":14800,"station_id":"ce4bguh2rcd13ifvqcj0","pricing_plan_id":"cebpf4jnsgd1na2vs0mg"},{"bike_id":"0ad53721-b284-4ed1-91fa-12dee594b6d7","system_id":"levelo_inurba_marseille","lat":43.30141,"lon":5.37413,"is_reserved":false,"is_disabled":false,"rental_uris":{"android":"levelo://app?vid=0ad53721-b284-4ed1-91fa-12dee594b6d7","ios":"levelo://app?vid=0ad53721-b284-4ed1-91fa-12dee594b6d7"},"vehicle_type_id":"4","last_reported":1723828037,"current_range_meters":30400,"station_id":"ce4bgs92rcd13ifvqcc0","pricing_plan_id":"cebpf4jnsgd1na2vs0mg"},{"bike_id":"4979e2d9-9755-4fc0-aa4e-4979b7919747","system_id":"levelo_inurba_marseille","lat":43.301429,"lon":5.37413,"is_reserved":false,"is_disabled":false,"rental_uris":{"android":"levelo://app?vid=4979e2d9-9755-4fc0-aa4e-4979b7919747","ios":"levelo://app?vid=4979e2d9-9755-4fc0-aa4e-4979b7919747"},"vehicle_type_id":"4","last_reported":1723828037,"current_range_meters":26800,"station_id":"ce4bgs92rcd13ifvqcc0","pricing_plan_id":"cebpf4jnsgd1na2vs0mg"},{"bike_id":"4b345eda-d0ba-485f-acd3-30733e9347ef","system_id":"levelo_inurba_marseille","lat":43.302784,"lon":5.377158,"is_reserved":false,"is_disabled":false,"rental_uris":{"android":"levelo://app?vid=4b345eda-d0ba-485f-acd3-30733e9347ef","ios":"levelo://app?vid=4b345eda-d0ba-485f-acd3-30733e9347ef"},"vehicle_type_id":"4","last_reported":1723828037,"current_range_meters":6000,"station_id":"ce4bguh2rcd13ifvqcj0","pricing_plan_id":"cebpf4jnsgd1na2vs0mg"},{"bike_id":"d962edc1-d50a-4f74-9cdd-99e101fe03d6","system_id":"levelo_inurba_marseille","lat":43.302784,"lon":5.377158,"is_reserved":false,"is_disabled":false,"rental_uris":{"android":"levelo://app?vid=d962edc1-d50a-4f74-9cdd-99e101fe03d6","ios":"levelo://app?vid=d962edc1-d50a-4f74-9cdd-99e101fe03d6"},"vehicle_type_id":"4","last_reported":1723828037,"current_range_meters":11200,"station_id":"ce4bguh2rcd13ifvqcj0","pricing_plan_id":"cebpf4jnsgd1na2vs0mg"},{"bike_id":"e19eba3f-ca4e-4c88-85c7-6a2b83da2f90","system_id":"levelo_inurba_marseille","lat":43.30143,"lon":5.37413,"is_reserved":false,"is_disabled":false,"rental_uris":{"android":"levelo://app?vid=e19eba3f-ca4e-4c88-85c7-6a2b83da2f90","ios":"levelo://app?vid=e19eba3f-ca4e-4c88-85c7-6a2b83da2f90"},"vehicle_type_id":"4","last_reported":1723828037,"current_range_meters":24800,"station_id":"ce4bgs92rcd13ifvqcc0","pricing_plan_id":"cebpf4jnsgd1na2vs0mg"},{"bike_id":"3002f280-7517-4418-82ef-061406a0cac0","system_id":"levelo_inurba_marseille","lat":43.325242,"lon":5.369292,"is_reserved":false,"is_disabled":false,"rental_uris":{"android":"levelo://app?vid=3002f280-7517-4418-82ef-061406a0cac0","ios":"levelo://app?vid=3002f280-7517-4418-82ef-061406a0cac0"},"vehicle_type_id":"4","last_reported":1723828037,"current_range_meters":6400,"station_id":"","pricing_plan_id":"cebpf4jnsgd1na2vs0mg"},{"bike_id":"36ce6485-efc9-404f-8fd5-eb614b6a7fd2","system_id":"levelo_inurba_marseille","lat":43.302784,"lon":5.377158,"is_reserved":false,"is_disabled":false,"rental_uris":{"android":"levelo://app?vid=36ce6485-efc9-404f-8fd5-eb614b6a7fd2","ios":"levelo://app?vid=36ce6485-efc9-404f-8fd5-eb614b6a7fd2"},"vehicle_type_id":"4","last_reported":1723828037,"current_range_meters":29200,"station_id":"ce4bguh2rcd13ifvqcj0","pricing_plan_id":"cebpf4jnsgd1na2vs0mg"},{"bike_id":"ce02ec92-1446-4adf-a543-f97cf98b6137","system_id":"levelo_inurba_marseille","lat":43.30582,"lon":5.38198,"is_reserved":false,"is_disabled":false,"rental_uris":{"android":"levelo://app?vid=ce02ec92-1446-4adf-a543-f97cf98b6137","ios":"levelo://app?vid=ce02ec92-1446-4adf-a543-f97cf98b6137"},"vehicle_type_id":"4","last_reported":1723828037,"current_range_meters":26400,"station_id":"","pricing_plan_id":"cebpf4jnsgd1na2vs0mg"},{"bike_id":"762d4440-1261-4bcc-94c3-7ff3b30c8deb","system_id":"levelo_inurba_marseille","lat":43.313571,"lon":5.384829,"is_reserved":false,"is_disabled":false,"rental_uris":{"android":"levelo://app?vid=762d4440-1261-4bcc-94c3-7ff3b30c8deb","ios":"levelo://app?vid=762d4440-1261-4bcc-94c3-7ff3b30c8deb"},"vehicle_type_id":"4","last_reported":1723828037,"current_range_meters":14400,"station_id":"ce4bgt92rcd13ifvqcf0","pricing_plan_id":"cebpf4jnsgd1na2vs0mg"},{"bike_id":"cade6b3b-1d6a-4fb4-9aa0-ea5afd9b526d","system_id":"levelo_inurba_marseille","lat":43.313571,"lon":5.384829,"is_reserved":false,"is_disabled":false,"rental_uris":{"android":"levelo://app?vid=cade6b3b-1d6a-4fb4-9aa0-ea5afd9b526d","ios":"levelo://app?vid=cade6b3b-1d6a-4fb4-9aa0-ea5afd9b526d"},"vehicle_type_id":"4","last_reported":1723828037,"current_range_meters":7200,"station_id":"ce4bgt92rcd13ifvqcf0","pricing_plan_id":"cebpf4jnsgd1na2vs0mg"},{"bike_id":"8b61964a-1c13-4b41-a550-849a09209fa9","system_id":"levelo_inurba_marseille","lat":43.313571,"lon":5.384829,"is_reserved":false,"is_disabled":false,"rental_uris":{"android":"levelo://app?vid=8b61964a-1c13-4b41-a550-849a09209fa9","ios":"levelo://app?vid=8b61964a-1c13-4b41-a550-849a09209fa9"},"vehicle_type_id":"4","last_reported":1723828037,"current_range_meters":22400,"station_id":"ce4bgt92rcd13ifvqcf0","pricing_plan_id":"cebpf4jnsgd1na2vs0mg"},{"bike_id":"300e3a8d-8747-4da0-afcd-1dc8d1b079fb","system_id":"levelo_inurba_marseille","lat":43.29942,"lon":5.36534,"is_reserved":false,"is_disabled":false,"rental_uris":{"android":"levelo://app?vid=300e3a8d-8747-4da0-afcd-1dc8d1b079fb","ios":"levelo://app?vid=300e3a8d-8747-4da0-afcd-1dc8d1b079fb"},"vehicle_type_id":"4","last_reported":1723828037,"current_range_meters":30800,"station_id":"ce4bgm92rcd13ifvqbr0","pricing_plan_id":"cebpf4jnsgd1na2vs0mg"},{"bike_id":"edb9291b-2b13-4b1c-9f75-56b10e8eff5e","system_id":"levelo_inurba_marseille","lat":43.299724,"lon":5.371829,"is_reserved":false,"is_disabled":false,"rental_uris":{"android":"levelo://app?vid=edb9291b-2b13-4b1c-9f75-56b10e8eff5e","ios":"levelo://app?vid=edb9291b-2b13-4b1c-9f75-56b10e8eff5e"},"vehicle_type_id":"4","last_reported":1723828037,"current_range_meters":10000,"station_id":"ce4bgr92rcd13ifvqc7g","pricing_plan_id":"cebpf4jnsgd1na2vs0mg"},{"bike_id":"e09a5ec5-6298-4be4-9680-4c78b7e31c17","system_id":"levelo_inurba_marseille","lat":43.2993,"lon":5.36537,"is_reserved":false,"is_disabled":false,"rental_uris":{"android":"levelo://app?vid=e09a5ec5-6298-4be4-9680-4c78b7e31c17","ios":"levelo://app?vid=e09a5ec5-6298-4be4-9680-4c78b7e31c17"},"vehicle_type_id":"4","last_reported":1723828037,"current_range_meters":400,"station_id":"ce4bgm92rcd13ifvqbr0","pricing_plan_id":"cebpf4jnsgd1na2vs0mg"},{"bike_id":"f4bb82aa-3d7e-4385-85c7-5b03e7cceb50","system_id":"levelo_inurba_marseille","lat":43.31224,"lon":5.38639,"is_reserved":false,"is_disabled":false,"rental_uris":{"android":"levelo://app?vid=f4bb82aa-3d7e-4385-85c7-5b03e7cceb50","ios":"levelo://app?vid=f4bb82aa-3d7e-4385-85c7-5b03e7cceb50"},"vehicle_type_id":"4","last_reported":1723828037,"current_range_meters":11200,"station_id":"","pricing_plan_id":"cebpf4jnsgd1na2vs0mg"},{"bike_id":"91de11d4-8315-45d3-8374-bd7308c152f7","system_id":"levelo_inurba_marseille","lat":43.298433,"lon":5.362774,"is_reserved":false,"is_disabled":false,"rental_uris":{"android":"levelo://app?vid=91de11d4-8315-45d3-8374-bd7308c152f7","ios":"levelo://app?vid=91de11d4-8315-45d3-8374-bd7308c152f7"},"vehicle_type_id":"4","last_reported":1723828037,"current_range_meters":0,"station_id":"ce4bgpp2rcd13ifvqc3g","pricing_plan_id":"cebpf4jnsgd1na2vs0mg"},{"bike_id":"e48896ce-aeed-4527-9bcd-9520292277be","system_id":"levelo_inurba_marseille","lat":43.298433,"lon":5.362774,"is_reserved":false,"is_disabled":false,"rental_uris":{"android":"levelo://app?vid=e48896ce-aeed-4527-9bcd-9520292277be","ios":"levelo://app?vid=e48896ce-aeed-4527-9bcd-9520292277be"},"vehicle_type_id":"4","last_reported":1723828037,"current_range_meters":6000,"station_id":"ce4bgpp2rcd13ifvqc3g","pricing_plan_id":"cebpf4jnsgd1na2vs0mg"},{"bike_id":"42c88e72-ffd1-4e1f-9d45-77fef1990292","system_id":"levelo_inurba_marseille","lat":43.298473,"lon":5.362657,"is_reserved":false,"is_disabled":false,"rental_uris":{"android":"levelo://app?vid=42c88e72-ffd1-4e1f-9d45-77fef1990292","ios":"levelo://app?vid=42c88e72-ffd1-4e1f-9d45-77fef1990292"},"vehicle_type_id":"4","last_reported":1723828037,"current_range_meters":18800,"station_id":"ce4bgpp2rcd13ifvqc3g","pricing_plan_id":"cebpf4jnsgd1na2vs0mg"},{"bike_id":"1d956524-8fb5-4642-8324-55f50f93954c","system_id":"levelo_inurba_marseille","lat":43.29847,"lon":5.36263,"is_reserved":false,"is_disabled":false,"rental_uris":{"android":"levelo://app?vid=1d956524-8fb5-4642-8324-55f50f93954c","ios":"levelo://app?vid=1d956524-8fb5-4642-8324-55f50f93954c"},"vehicle_type_id":"4","last_reported":1723828037,"current_range_meters":27200,"station_id":"ce4bgpp2rcd13ifvqc3g","pricing_plan_id":"cebpf4jnsgd1na2vs0mg"},{"bike_id":"573353c8-e8bd-4309-8079-12c7e883208a","system_id":"levelo_inurba_marseille","lat":43.298433,"lon":5.362774,"is_reserved":false,"is_disabled":false,"rental_uris":{"android":"levelo://app?vid=573353c8-e8bd-4309-8079-12c7e883208a","ios":"levelo://app?vid=573353c8-e8bd-4309-8079-12c7e883208a"},"vehicle_type_id":"4","last_reported":1723828037,"current_range_meters":1200,"station_id":"ce4bgpp2rcd13ifvqc3g","pricing_plan_id":"cebpf4jnsgd1na2vs0mg"},{"bike_id":"2c58e2da-1ca0-400c-92d8-0cebdc6c14f7","system_id":"levelo_inurba_marseille","lat":43.305364,"lon":5.384119,"is_reserved":false,"is_disabled":false,"rental_uris":{"android":"levelo://app?vid=2c58e2da-1ca0-400c-92d8-0cebdc6c14f7","ios":"levelo://app?vid=2c58e2da-1ca0-400c-92d8-0cebdc6c14f7"},"vehicle_type_id":"4","last_reported":1723828037,"current_range_meters":20800,"station_id":"ce4bgg92rcd13ifvqb30","pricing_plan_id":"cebpf4jnsgd1na2vs0mg"},{"bike_id":"a3f52049-f799-4b2d-b92f-1a64e47a6816","system_id":"levelo_inurba_marseille","lat":43.2981,"lon":5.36575,"is_reserved":false,"is_disabled":false,"rental_uris":{"android":"levelo://app?vid=a3f52049-f799-4b2d-b92f-1a64e47a6816","ios":"levelo://app?vid=a3f52049-f799-4b2d-b92f-1a64e47a6816"},"vehicle_type_id":"4","last_reported":1723828037,"current_range_meters":0,"station_id":"","pricing_plan_id":"cebpf4jnsgd1na2vs0mg"},{"bike_id":"3a641000-52c9-42a8-9ca0-7852a2bc2508","system_id":"levelo_inurba_marseille","lat":43.298433,"lon":5.362774,"is_reserved":false,"is_disabled":false,"rental_uris":{"android":"levelo://app?vid=3a641000-52c9-42a8-9ca0-7852a2bc2508","ios":"levelo://app?vid=3a641000-52c9-42a8-9ca0-7852a2bc2508"},"vehicle_type_id":"4","last_reported":1723828037,"current_range_meters":20400,"station_id":"ce4bgpp2rcd13ifvqc3g","pricing_plan_id":"cebpf4jnsgd1na2vs0mg"},{"bike_id":"9a663924-a9b6-40f7-b6e9-9611c36ac3ba","system_id":"levelo_inurba_marseille","lat":43.311722,"lon":5.387247,"is_reserved":false,"is_disabled":false,"rental_uris":{"android":"levelo://app?vid=9a663924-a9b6-40f7-b6e9-9611c36ac3ba","ios":"levelo://app?vid=9a663924-a9b6-40f7-b6e9-9611c36ac3ba"},"vehicle_type_id":"4","last_reported":1723828037,"current_range_meters":18800,"station_id":"ce4bgv12rcd13ifvqcp0","pricing_plan_id":"cebpf4jnsgd1na2vs0mg"},{"bike_id":"ce9d38d2-5466-4d7b-a9c7-fc5654c14ce4","system_id":"levelo_inurba_marseille","lat":43.298433,"lon":5.362774,"is_reserved":false,"is_disabled":false,"rental_uris":{"android":"levelo://app?vid=ce9d38d2-5466-4d7b-a9c7-fc5654c14ce4","ios":"levelo://app?vid=ce9d38d2-5466-4d7b-a9c7-fc5654c14ce4"},"vehicle_type_id":"4","last_reported":1723828037,"current_range_meters":24000,"station_id":"ce4bgpp2rcd13ifvqc3g","pricing_plan_id":"cebpf4jnsgd1na2vs0mg"},{"bike_id":"aee29c4e-e308-48d6-bb51-2096ae5fe32b","system_id":"levelo_inurba_marseille","lat":43.311722,"lon":5.387247,"is_reserved":false,"is_disabled":false,"rental_uris":{"android":"levelo://app?vid=aee29c4e-e308-48d6-bb51-2096ae5fe32b","ios":"levelo://app?vid=aee29c4e-e308-48d6-bb51-2096ae5fe32b"},"vehicle_type_id":"4","last_reported":1723828037,"current_range_meters":3600,"station_id":"ce4bgv12rcd13ifvqcp0","pricing_plan_id":"cebpf4jnsgd1na2vs0mg"},{"bike_id":"fa3edc00-76fd-437b-8fe4-5c106d1fb1c9","system_id":"levelo_inurba_marseille","lat":43.311722,"lon":5.387247,"is_reserved":false,"is_disabled":false,"rental_uris":{"android":"levelo://app?vid=fa3edc00-76fd-437b-8fe4-5c106d1fb1c9","ios":"levelo://app?vid=fa3edc00-76fd-437b-8fe4-5c106d1fb1c9"},"vehicle_type_id":"4","last_reported":1723828037,"current_range_meters":18000,"station_id":"ce4bgv12rcd13ifvqcp0","pricing_plan_id":"cebpf4jnsgd1na2vs0mg"},{"bike_id":"0d1162aa-81c2-4d4a-98db-0abdbed9e86b","system_id":"levelo_inurba_marseille","lat":43.311722,"lon":5.387247,"is_reserved":false,"is_disabled":false,"rental_uris":{"android":"levelo://app?vid=0d1162aa-81c2-4d4a-98db-0abdbed9e86b","ios":"levelo://app?vid=0d1162aa-81c2-4d4a-98db-0abdbed9e86b"},"vehicle_type_id":"4","last_reported":1723828037,"current_range_meters":28800,"station_id":"ce4bgv12rcd13ifvqcp0","pricing_plan_id":"cebpf4jnsgd1na2vs0mg"},{"bike_id":"1ed33a5e-dd0a-4292-a5e4-87693b5f7ebb","system_id":"levelo_inurba_marseille","lat":43.301417,"lon":5.3809,"is_reserved":false,"is_disabled":false,"rental_uris":{"android":"levelo://app?vid=1ed33a5e-dd0a-4292-a5e4-87693b5f7ebb","ios":"levelo://app?vid=1ed33a5e-dd0a-4292-a5e4-87693b5f7ebb"},"vehicle_type_id":"4","last_reported":1723828037,"current_range_meters":15600,"station_id":"ce4bgjp2rcd13ifvqbh0","pricing_plan_id":"cebpf4jnsgd1na2vs0mg"},{"bike_id":"f4c60cfd-a1e9-42ae-92ab-9fbe1e219df6","system_id":"levelo_inurba_marseille","lat":43.30157,"lon":5.38086,"is_reserved":false,"is_disabled":false,"rental_uris":{"android":"levelo://app?vid=f4c60cfd-a1e9-42ae-92ab-9fbe1e219df6","ios":"levelo://app?vid=f4c60cfd-a1e9-42ae-92ab-9fbe1e219df6"},"vehicle_type_id":"4","last_reported":1723828037,"current_range_meters":4000,"station_id":"ce4bgjp2rcd13ifvqbh0","pricing_plan_id":"cebpf4jnsgd1na2vs0mg"},{"bike_id":"2065aa61-68c5-40d9-90b6-26d1a1d1c8ad","system_id":"levelo_inurba_marseille","lat":43.322872,"lon":5.382756,"is_reserved":false,"is_disabled":false,"rental_uris":{"android":"levelo://app?vid=2065aa61-68c5-40d9-90b6-26d1a1d1c8ad","ios":"levelo://app?vid=2065aa61-68c5-40d9-90b6-26d1a1d1c8ad"},"vehicle_type_id":"4","last_reported":1723828037,"current_range_meters":27600,"station_id":"ce4bhr12rcd13ifvqhqg","pricing_plan_id":"cebpf4jnsgd1na2vs0mg"},{"bike_id":"a3806e42-ac23-40ae-a8b3-99ba034ef535","system_id":"levelo_inurba_marseille","lat":43.297163,"lon":5.365866,"is_reserved":false,"is_disabled":false,"rental_uris":{"android":"levelo://app?vid=a3806e42-ac23-40ae-a8b3-99ba034ef535","ios":"levelo://app?vid=a3806e42-ac23-40ae-a8b3-99ba034ef535"},"vehicle_type_id":"4","last_reported":1723828037,"current_range_meters":15600,"station_id":"ce4bgn12rcd13ifvqbt0","pricing_plan_id":"cebpf4jnsgd1na2vs0mg"},{"bike_id":"358d7a6b-8264-469d-809b-d3c41c2f4ab9","system_id":"levelo_inurba_marseille","lat":43.2968,"lon":5.37291,"is_reserved":false,"is_disabled":false,"rental_uris":{"android":"levelo://app?vid=358d7a6b-8264-469d-809b-d3c41c2f4ab9","ios":"levelo://app?vid=358d7a6b-8264-469d-809b-d3c41c2f4ab9"},"vehicle_type_id":"4","last_reported":1723828037,"current_range_meters":27600,"station_id":"ce4bgk12rcd13ifvqbj0","pricing_plan_id":"cebpf4jnsgd1na2vs0mg"},{"bike_id":"21e7d917-3e86-458b-9f8d-2c5537d01a5d","system_id":"levelo_inurba_marseille","lat":43.29728,"lon":5.37691,"is_reserved":false,"is_disabled":false,"rental_uris":{"android":"levelo://app?vid=21e7d917-3e86-458b-9f8d-2c5537d01a5d","ios":"levelo://app?vid=21e7d917-3e86-458b-9f8d-2c5537d01a5d"},"vehicle_type_id":"4","last_reported":1723828037,"current_range_meters":24800,"station_id":"ce4bgkh2rcd13ifvqbl0","pricing_plan_id":"cebpf4jnsgd1na2vs0mg"},{"bike_id":"541a9855-30ca-43cc-ae81-3a910e41821a","system_id":"levelo_inurba_marseille","lat":43.29726,"lon":5.37688,"is_reserved":false,"is_disabled":false,"rental_uris":{"android":"levelo://app?vid=541a9855-30ca-43cc-ae81-3a910e41821a","ios":"levelo://app?vid=541a9855-30ca-43cc-ae81-3a910e41821a"},"vehicle_type_id":"4","last_reported":1723828037,"current_range_meters":27200,"station_id":"ce4bgkh2rcd13ifvqbl0","pricing_plan_id":"cebpf4jnsgd1na2vs0mg"},{"bike_id":"1a7859ec-18ec-422a-a2a9-7b8ac6926471","system_id":"levelo_inurba_marseille","lat":43.296921,"lon":5.376579,"is_reserved":false,"is_disabled":false,"rental_uris":{"android":"levelo://app?vid=1a7859ec-18ec-422a-a2a9-7b8ac6926471","ios":"levelo://app?vid=1a7859ec-18ec-422a-a2a9-7b8ac6926471"},"vehicle_type_id":"4","last_reported":1723828037,"current_range_meters":1600,"station_id":"ce4bgkh2rcd13ifvqbl0","pricing_plan_id":"cebpf4jnsgd1na2vs0mg"},{"bike_id":"f503e6d4-7da5-4991-95c7-5b93c190f340","system_id":"levelo_inurba_marseille","lat":43.296921,"lon":5.376579,"is_reserved":false,"is_disabled":false,"rental_uris":{"android":"levelo://app?vid=f503e6d4-7da5-4991-95c7-5b93c190f340","ios":"levelo://app?vid=f503e6d4-7da5-4991-95c7-5b93c190f340"},"vehicle_type_id":"4","last_reported":1723828037,"current_range_meters":31200,"station_id":"ce4bgkh2rcd13ifvqbl0","pricing_plan_id":"cebpf4jnsgd1na2vs0mg"},{"bike_id":"0293e8fc-0ff8-4f0d-bd25-25ef7dd5fa36","system_id":"levelo_inurba_marseille","lat":43.29723,"lon":5.37699,"is_reserved":false,"is_disabled":false,"rental_uris":{"android":"levelo://app?vid=0293e8fc-0ff8-4f0d-bd25-25ef7dd5fa36","ios":"levelo://app?vid=0293e8fc-0ff8-4f0d-bd25-25ef7dd5fa36"},"vehicle_type_id":"4","last_reported":1723828037,"current_range_meters":24400,"station_id":"ce4bgkh2rcd13ifvqbl0","pricing_plan_id":"cebpf4jnsgd1na2vs0mg"},{"bike_id":"e1922306-a39e-432d-990c-c1aa21c31ba7","system_id":"levelo_inurba_marseille","lat":43.296935,"lon":5.376544,"is_reserved":false,"is_disabled":false,"rental_uris":{"android":"levelo://app?vid=e1922306-a39e-432d-990c-c1aa21c31ba7","ios":"levelo://app?vid=e1922306-a39e-432d-990c-c1aa21c31ba7"},"vehicle_type_id":"4","last_reported":1723828037,"current_range_meters":22400,"station_id":"ce4bgkh2rcd13ifvqbl0","pricing_plan_id":"cebpf4jnsgd1na2vs0mg"},{"bike_id":"437ec4ac-3117-4f0e-b788-a9ec57a42201","system_id":"levelo_inurba_marseille","lat":43.299028,"lon":5.381509,"is_reserved":false,"is_disabled":false,"rental_uris":{"android":"levelo://app?vid=437ec4ac-3117-4f0e-b788-a9ec57a42201","ios":"levelo://app?vid=437ec4ac-3117-4f0e-b788-a9ec57a42201"},"vehicle_type_id":"4","last_reported":1723828037,"current_range_meters":29600,"station_id":"ce4bgj12rcd13ifvqbc0","pricing_plan_id":"cebpf4jnsgd1na2vs0mg"},{"bike_id":"bf675196-66b7-4f23-a7d1-39d42bbde0bc","system_id":"levelo_inurba_marseille","lat":43.296921,"lon":5.376579,"is_reserved":false,"is_disabled":false,"rental_uris":{"android":"levelo://app?vid=bf675196-66b7-4f23-a7d1-39d42bbde0bc","ios":"levelo://app?vid=bf675196-66b7-4f23-a7d1-39d42bbde0bc"},"vehicle_type_id":"4","last_reported":1723828037,"current_range_meters":5200,"station_id":"ce4bgkh2rcd13ifvqbl0","pricing_plan_id":"cebpf4jnsgd1na2vs0mg"},{"bike_id":"bd3e02d9-6e72-41c2-bdf1-abf9f15f466c","system_id":"levelo_inurba_marseille","lat":43.296921,"lon":5.376579,"is_reserved":false,"is_disabled":false,"rental_uris":{"android":"levelo://app?vid=bd3e02d9-6e72-41c2-bdf1-abf9f15f466c","ios":"levelo://app?vid=bd3e02d9-6e72-41c2-bdf1-abf9f15f466c"},"vehicle_type_id":"4","last_reported":1723828037,"current_range_meters":23200,"station_id":"ce4bgkh2rcd13ifvqbl0","pricing_plan_id":"cebpf4jnsgd1na2vs0mg"},{"bike_id":"c5cb8606-eb5a-44de-8d0c-1967aa0026ae","system_id":"levelo_inurba_marseille","lat":43.29717,"lon":5.377,"is_reserved":false,"is_disabled":false,"rental_uris":{"android":"levelo://app?vid=c5cb8606-eb5a-44de-8d0c-1967aa0026ae","ios":"levelo://app?vid=c5cb8606-eb5a-44de-8d0c-1967aa0026ae"},"vehicle_type_id":"4","last_reported":1723828037,"current_range_meters":24800,"station_id":"ce4bgkh2rcd13ifvqbl0","pricing_plan_id":"cebpf4jnsgd1na2vs0mg"},{"bike_id":"af853860-9b31-4d60-892c-f9b32db111ba","system_id":"levelo_inurba_marseille","lat":43.299028,"lon":5.381509,"is_reserved":false,"is_disabled":false,"rental_uris":{"android":"levelo://app?vid=af853860-9b31-4d60-892c-f9b32db111ba","ios":"levelo://app?vid=af853860-9b31-4d60-892c-f9b32db111ba"},"vehicle_type_id":"4","last_reported":1723828037,"current_range_meters":25200,"station_id":"ce4bgj12rcd13ifvqbc0","pricing_plan_id":"cebpf4jnsgd1na2vs0mg"},{"bike_id":"55633ec7-1a8b-451d-9942-531809147dbc","system_id":"levelo_inurba_marseille","lat":43.299028,"lon":5.381509,"is_reserved":false,"is_disabled":false,"rental_uris":{"android":"levelo://app?vid=55633ec7-1a8b-451d-9942-531809147dbc","ios":"levelo://app?vid=55633ec7-1a8b-451d-9942-531809147dbc"},"vehicle_type_id":"4","last_reported":1723828037,"current_range_meters":16400,"station_id":"ce4bgj12rcd13ifvqbc0","pricing_plan_id":"cebpf4jnsgd1na2vs0mg"},{"bike_id":"097d2e9b-3940-4663-8c4a-a9dab44c6385","system_id":"levelo_inurba_marseille","lat":43.299028,"lon":5.381509,"is_reserved":false,"is_disabled":false,"rental_uris":{"android":"levelo://app?vid=097d2e9b-3940-4663-8c4a-a9dab44c6385","ios":"levelo://app?vid=097d2e9b-3940-4663-8c4a-a9dab44c6385"},"vehicle_type_id":"4","last_reported":1723828037,"current_range_meters":26000,"station_id":"ce4bgj12rcd13ifvqbc0","pricing_plan_id":"cebpf4jnsgd1na2vs0mg"},{"bike_id":"30bb2d67-11c7-4dfa-87ca-74f011953c8b","system_id":"levelo_inurba_marseille","lat":43.296921,"lon":5.376579,"is_reserved":false,"is_disabled":false,"rental_uris":{"android":"levelo://app?vid=30bb2d67-11c7-4dfa-87ca-74f011953c8b","ios":"levelo://app?vid=30bb2d67-11c7-4dfa-87ca-74f011953c8b"},"vehicle_type_id":"4","last_reported":1723828037,"current_range_meters":11200,"station_id":"ce4bgkh2rcd13ifvqbl0","pricing_plan_id":"cebpf4jnsgd1na2vs0mg"},{"bike_id":"dc9d66af-2216-47ed-957c-6b5246f3cc69","system_id":"levelo_inurba_marseille","lat":43.296921,"lon":5.376579,"is_reserved":false,"is_disabled":false,"rental_uris":{"android":"levelo://app?vid=dc9d66af-2216-47ed-957c-6b5246f3cc69","ios":"levelo://app?vid=dc9d66af-2216-47ed-957c-6b5246f3cc69"},"vehicle_type_id":"4","last_reported":1723828037,"current_range_meters":24400,"station_id":"ce4bgkh2rcd13ifvqbl0","pricing_plan_id":"cebpf4jnsgd1na2vs0mg"},{"bike_id":"64be9365-3bfa-4317-b2e6-efaa81b7e9cb","system_id":"levelo_inurba_marseille","lat":43.296921,"lon":5.376579,"is_reserved":false,"is_disabled":false,"rental_uris":{"android":"levelo://app?vid=64be9365-3bfa-4317-b2e6-efaa81b7e9cb","ios":"levelo://app?vid=64be9365-3bfa-4317-b2e6-efaa81b7e9cb"},"vehicle_type_id":"4","last_reported":1723828037,"current_range_meters":11600,"station_id":"ce4bgkh2rcd13ifvqbl0","pricing_plan_id":"cebpf4jnsgd1na2vs0mg"},{"bike_id":"880bfada-7069-4ad7-9f9f-269493d7bc7f","system_id":"levelo_inurba_marseille","lat":43.2991,"lon":5.38145,"is_reserved":false,"is_disabled":false,"rental_uris":{"android":"levelo://app?vid=880bfada-7069-4ad7-9f9f-269493d7bc7f","ios":"levelo://app?vid=880bfada-7069-4ad7-9f9f-269493d7bc7f"},"vehicle_type_id":"4","last_reported":1723828037,"current_range_meters":31200,"station_id":"ce4bgj12rcd13ifvqbc0","pricing_plan_id":"cebpf4jnsgd1na2vs0mg"},{"bike_id":"f19b5422-1395-49a9-94b4-66969aab91b3","system_id":"levelo_inurba_marseille","lat":43.296921,"lon":5.376579,"is_reserved":false,"is_disabled":false,"rental_uris":{"android":"levelo://app?vid=f19b5422-1395-49a9-94b4-66969aab91b3","ios":"levelo://app?vid=f19b5422-1395-49a9-94b4-66969aab91b3"},"vehicle_type_id":"4","last_reported":1723828037,"current_range_meters":0,"station_id":"ce4bgkh2rcd13ifvqbl0","pricing_plan_id":"cebpf4jnsgd1na2vs0mg"},{"bike_id":"3f876144-2c5b-4468-83d1-86b11b3a2fb5","system_id":"levelo_inurba_marseille","lat":43.309589,"lon":5.390258,"is_reserved":false,"is_disabled":false,"rental_uris":{"android":"levelo://app?vid=3f876144-2c5b-4468-83d1-86b11b3a2fb5","ios":"levelo://app?vid=3f876144-2c5b-4468-83d1-86b11b3a2fb5"},"vehicle_type_id":"4","last_reported":1723828037,"current_range_meters":24000,"station_id":"ce4bgup2rcd13ifvqco0","pricing_plan_id":"cebpf4jnsgd1na2vs0mg"},{"bike_id":"db6cefed-7425-468f-8ee1-4d22cab99f17","system_id":"levelo_inurba_marseille","lat":43.299028,"lon":5.381509,"is_reserved":false,"is_disabled":false,"rental_uris":{"android":"levelo://app?vid=db6cefed-7425-468f-8ee1-4d22cab99f17","ios":"levelo://app?vid=db6cefed-7425-468f-8ee1-4d22cab99f17"},"vehicle_type_id":"4","last_reported":1723828037,"current_range_meters":22000,"station_id":"ce4bgj12rcd13ifvqbc0","pricing_plan_id":"cebpf4jnsgd1na2vs0mg"},{"bike_id":"184a8269-b0ca-4706-acf7-ccdc8e50392b","system_id":"levelo_inurba_marseille","lat":43.29908,"lon":5.38145,"is_reserved":false,"is_disabled":false,"rental_uris":{"android":"levelo://app?vid=184a8269-b0ca-4706-acf7-ccdc8e50392b","ios":"levelo://app?vid=184a8269-b0ca-4706-acf7-ccdc8e50392b"},"vehicle_type_id":"4","last_reported":1723828037,"current_range_meters":31200,"station_id":"ce4bgj12rcd13ifvqbc0","pricing_plan_id":"cebpf4jnsgd1na2vs0mg"},{"bike_id":"3b71dcbb-1dd5-4ad7-9cc5-6b0f4a96a4dd","system_id":"levelo_inurba_marseille","lat":43.3095,"lon":5.39028,"is_reserved":false,"is_disabled":false,"rental_uris":{"android":"levelo://app?vid=3b71dcbb-1dd5-4ad7-9cc5-6b0f4a96a4dd","ios":"levelo://app?vid=3b71dcbb-1dd5-4ad7-9cc5-6b0f4a96a4dd"},"vehicle_type_id":"4","last_reported":1723828037,"current_range_meters":3200,"station_id":"ce4bgup2rcd13ifvqco0","pricing_plan_id":"cebpf4jnsgd1na2vs0mg"},{"bike_id":"6d19e127-ea28-4fae-9ea9-63fc26ca6ad5","system_id":"levelo_inurba_marseille","lat":43.299028,"lon":5.381509,"is_reserved":false,"is_disabled":false,"rental_uris":{"android":"levelo://app?vid=6d19e127-ea28-4fae-9ea9-63fc26ca6ad5","ios":"levelo://app?vid=6d19e127-ea28-4fae-9ea9-63fc26ca6ad5"},"vehicle_type_id":"4","last_reported":1723828037,"current_range_meters":31600,"station_id":"ce4bgj12rcd13ifvqbc0","pricing_plan_id":"cebpf4jnsgd1na2vs0mg"},{"bike_id":"160d8fa3-e3b9-4aa4-921c-cee4e9e484f2","system_id":"levelo_inurba_marseille","lat":43.299028,"lon":5.381509,"is_reserved":false,"is_disabled":false,"rental_uris":{"android":"levelo://app?vid=160d8fa3-e3b9-4aa4-921c-cee4e9e484f2","ios":"levelo://app?vid=160d8fa3-e3b9-4aa4-921c-cee4e9e484f2"},"vehicle_type_id":"4","last_reported":1723828037,"current_range_meters":10000,"station_id":"ce4bgj12rcd13ifvqbc0","pricing_plan_id":"cebpf4jnsgd1na2vs0mg"},{"bike_id":"2ba3f437-a542-4b1c-9347-a05561bf018f","system_id":"levelo_inurba_marseille","lat":43.309589,"lon":5.390258,"is_reserved":false,"is_disabled":false,"rental_uris":{"android":"levelo://app?vid=2ba3f437-a542-4b1c-9347-a05561bf018f","ios":"levelo://app?vid=2ba3f437-a542-4b1c-9347-a05561bf018f"},"vehicle_type_id":"4","last_reported":1723828037,"current_range_meters":4800,"station_id":"ce4bgup2rcd13ifvqco0","pricing_plan_id":"cebpf4jnsgd1na2vs0mg"},{"bike_id":"af827add-9713-4f73-9b83-eb7fba32754f","system_id":"levelo_inurba_marseille","lat":43.309589,"lon":5.390258,"is_reserved":false,"is_disabled":false,"rental_uris":{"android":"levelo://app?vid=af827add-9713-4f73-9b83-eb7fba32754f","ios":"levelo://app?vid=af827add-9713-4f73-9b83-eb7fba32754f"},"vehicle_type_id":"4","last_reported":1723828037,"current_range_meters":16000,"station_id":"ce4bgup2rcd13ifvqco0","pricing_plan_id":"cebpf4jnsgd1na2vs0mg"},{"bike_id":"5fdd442c-d04f-4271-ac3d-3d9ce980f35d","system_id":"levelo_inurba_marseille","lat":43.317557,"lon":5.390173,"is_reserved":false,"is_disabled":false,"rental_uris":{"android":"levelo://app?vid=5fdd442c-d04f-4271-ac3d-3d9ce980f35d","ios":"levelo://app?vid=5fdd442c-d04f-4271-ac3d-3d9ce980f35d"},"vehicle_type_id":"4","last_reported":1723828037,"current_range_meters":20400,"station_id":"ce4bhqp2rcd13ifvqhng","pricing_plan_id":"cebpf4jnsgd1na2vs0mg"},{"bike_id":"96de4920-b221-4316-8aa6-538ee4b9fb79","system_id":"levelo_inurba_marseille","lat":43.29896,"lon":5.38208,"is_reserved":false,"is_disabled":false,"rental_uris":{"android":"levelo://app?vid=96de4920-b221-4316-8aa6-538ee4b9fb79","ios":"levelo://app?vid=96de4920-b221-4316-8aa6-538ee4b9fb79"},"vehicle_type_id":"4","last_reported":1723828037,"current_range_meters":21200,"station_id":"ce4bgj12rcd13ifvqbc0","pricing_plan_id":"cebpf4jnsgd1na2vs0mg"},{"bike_id":"864dbf84-46a8-4a39-9e14-a484ee7bed9e","system_id":"levelo_inurba_marseille","lat":43.29747,"lon":5.37937,"is_reserved":false,"is_disabled":false,"rental_uris":{"android":"levelo://app?vid=864dbf84-46a8-4a39-9e14-a484ee7bed9e","ios":"levelo://app?vid=864dbf84-46a8-4a39-9e14-a484ee7bed9e"},"vehicle_type_id":"4","last_reported":1723828037,"current_range_meters":10400,"station_id":"","pricing_plan_id":"cebpf4jnsgd1na2vs0mg"},{"bike_id":"f21be2a9-a92b-45d0-b3e8-36d592937cce","system_id":"levelo_inurba_marseille","lat":43.29791,"lon":5.38092,"is_reserved":false,"is_disabled":false,"rental_uris":{"android":"levelo://app?vid=f21be2a9-a92b-45d0-b3e8-36d592937cce","ios":"levelo://app?vid=f21be2a9-a92b-45d0-b3e8-36d592937cce"},"vehicle_type_id":"4","last_reported":1723828037,"current_range_meters":0,"station_id":"ce4bgip2rcd13ifvqbb0","pricing_plan_id":"cebpf4jnsgd1na2vs0mg"},{"bike_id":"38fe6ac4-9e06-4b8a-b04e-e5485c489e2d","system_id":"levelo_inurba_marseille","lat":43.296263,"lon":5.377094,"is_reserved":false,"is_disabled":false,"rental_uris":{"android":"levelo://app?vid=38fe6ac4-9e06-4b8a-b04e-e5485c489e2d","ios":"levelo://app?vid=38fe6ac4-9e06-4b8a-b04e-e5485c489e2d"},"vehicle_type_id":"4","last_reported":1723828037,"current_range_meters":0,"station_id":"ce4bgi92rcd13ifvqb90","pricing_plan_id":"cebpf4jnsgd1na2vs0mg"},{"bike_id":"1144477c-8ed9-45e1-ab02-287d33a4d70b","system_id":"levelo_inurba_marseille","lat":43.304274,"lon":5.388873,"is_reserved":false,"is_disabled":false,"rental_uris":{"android":"levelo://app?vid=1144477c-8ed9-45e1-ab02-287d33a4d70b","ios":"levelo://app?vid=1144477c-8ed9-45e1-ab02-287d33a4d70b"},"vehicle_type_id":"4","last_reported":1723828037,"current_range_meters":18800,"station_id":"ce4bgk12rcd13ifvqbi0","pricing_plan_id":"cebpf4jnsgd1na2vs0mg"},{"bike_id":"4b54b94a-deb2-4647-8627-e30f58aa104c","system_id":"levelo_inurba_marseille","lat":43.295748,"lon":5.37522,"is_reserved":false,"is_disabled":false,"rental_uris":{"android":"levelo://app?vid=4b54b94a-deb2-4647-8627-e30f58aa104c","ios":"levelo://app?vid=4b54b94a-deb2-4647-8627-e30f58aa104c"},"vehicle_type_id":"4","last_reported":1723828037,"current_range_meters":14400,"station_id":"ce4bgh92rcd13ifvqb50","pricing_plan_id":"cebpf4jnsgd1na2vs0mg"},{"bike_id":"31c23a3d-584d-4092-b714-0d417c665625","system_id":"levelo_inurba_marseille","lat":43.295748,"lon":5.37522,"is_reserved":false,"is_disabled":false,"rental_uris":{"android":"levelo://app?vid=31c23a3d-584d-4092-b714-0d417c665625","ios":"levelo://app?vid=31c23a3d-584d-4092-b714-0d417c665625"},"vehicle_type_id":"4","last_reported":1723828037,"current_range_meters":14800,"station_id":"ce4bgh92rcd13ifvqb50","pricing_plan_id":"cebpf4jnsgd1na2vs0mg"},{"bike_id":"7fbff144-62f4-4245-91bf-c3e3611f9e05","system_id":"levelo_inurba_marseille","lat":43.295748,"lon":5.37522,"is_reserved":false,"is_disabled":false,"rental_uris":{"android":"levelo://app?vid=7fbff144-62f4-4245-91bf-c3e3611f9e05","ios":"levelo://app?vid=7fbff144-62f4-4245-91bf-c3e3611f9e05"},"vehicle_type_id":"4","last_reported":1723828037,"current_range_meters":15200,"station_id":"ce4bgh92rcd13ifvqb50","pricing_plan_id":"cebpf4jnsgd1na2vs0mg"},{"bike_id":"01e0733e-d777-42bf-9496-3d82dcf15929","system_id":"levelo_inurba_marseille","lat":43.29566,"lon":5.37507,"is_reserved":false,"is_disabled":false,"rental_uris":{"android":"levelo://app?vid=01e0733e-d777-42bf-9496-3d82dcf15929","ios":"levelo://app?vid=01e0733e-d777-42bf-9496-3d82dcf15929"},"vehicle_type_id":"4","last_reported":1723828037,"current_range_meters":14800,"station_id":"ce4bgh92rcd13ifvqb50","pricing_plan_id":"cebpf4jnsgd1na2vs0mg"},{"bike_id":"fd86ab5b-d2fc-497a-b450-758daf77b267","system_id":"levelo_inurba_marseille","lat":43.295279,"lon":5.375048,"is_reserved":false,"is_disabled":false,"rental_uris":{"android":"levelo://app?vid=fd86ab5b-d2fc-497a-b450-758daf77b267","ios":"levelo://app?vid=fd86ab5b-d2fc-497a-b450-758daf77b267"},"vehicle_type_id":"4","last_reported":1723828037,"current_range_meters":5200,"station_id":"ce4bgkp2rcd13ifvqbmg","pricing_plan_id":"cebpf4jnsgd1na2vs0mg"},{"bike_id":"ad5b4922-72a4-4900-83f8-f738c75bea60","system_id":"levelo_inurba_marseille","lat":43.295279,"lon":5.375048,"is_reserved":false,"is_disabled":false,"rental_uris":{"android":"levelo://app?vid=ad5b4922-72a4-4900-83f8-f738c75bea60","ios":"levelo://app?vid=ad5b4922-72a4-4900-83f8-f738c75bea60"},"vehicle_type_id":"4","last_reported":1723828037,"current_range_meters":11200,"station_id":"ce4bgkp2rcd13ifvqbmg","pricing_plan_id":"cebpf4jnsgd1na2vs0mg"},{"bike_id":"1c4ba3fc-25a3-45f2-934d-ae30ac381ce4","system_id":"levelo_inurba_marseille","lat":43.299707,"lon":5.384859,"is_reserved":false,"is_disabled":false,"rental_uris":{"android":"levelo://app?vid=1c4ba3fc-25a3-45f2-934d-ae30ac381ce4","ios":"levelo://app?vid=1c4ba3fc-25a3-45f2-934d-ae30ac381ce4"},"vehicle_type_id":"4","last_reported":1723828037,"current_range_meters":28000,"station_id":"ce4bgj92rcd13ifvqbd0","pricing_plan_id":"cebpf4jnsgd1na2vs0mg"},{"bike_id":"c3d07312-4113-42c1-880b-eebfd13e02fb","system_id":"levelo_inurba_marseille","lat":43.299724,"lon":5.384848,"is_reserved":false,"is_disabled":false,"rental_uris":{"android":"levelo://app?vid=c3d07312-4113-42c1-880b-eebfd13e02fb","ios":"levelo://app?vid=c3d07312-4113-42c1-880b-eebfd13e02fb"},"vehicle_type_id":"4","last_reported":1723828037,"current_range_meters":21200,"station_id":"ce4bgj92rcd13ifvqbd0","pricing_plan_id":"cebpf4jnsgd1na2vs0mg"},{"bike_id":"53391472-6a44-4ddb-a53a-7631134825a7","system_id":"levelo_inurba_marseille","lat":43.295279,"lon":5.375048,"is_reserved":false,"is_disabled":false,"rental_uris":{"android":"levelo://app?vid=53391472-6a44-4ddb-a53a-7631134825a7","ios":"levelo://app?vid=53391472-6a44-4ddb-a53a-7631134825a7"},"vehicle_type_id":"4","last_reported":1723828037,"current_range_meters":10400,"station_id":"ce4bgkp2rcd13ifvqbmg","pricing_plan_id":"cebpf4jnsgd1na2vs0mg"},{"bike_id":"ccc5c506-a7d2-4497-ac41-1edc953ad97c","system_id":"levelo_inurba_marseille","lat":43.295279,"lon":5.375048,"is_reserved":false,"is_disabled":false,"rental_uris":{"android":"levelo://app?vid=ccc5c506-a7d2-4497-ac41-1edc953ad97c","ios":"levelo://app?vid=ccc5c506-a7d2-4497-ac41-1edc953ad97c"},"vehicle_type_id":"4","last_reported":1723828037,"current_range_meters":14000,"station_id":"ce4bgkp2rcd13ifvqbmg","pricing_plan_id":"cebpf4jnsgd1na2vs0mg"},{"bike_id":"5b4417c6-165b-4da9-9b81-f5e5e6beedae","system_id":"levelo_inurba_marseille","lat":43.295279,"lon":5.375048,"is_reserved":false,"is_disabled":false,"rental_uris":{"android":"levelo://app?vid=5b4417c6-165b-4da9-9b81-f5e5e6beedae","ios":"levelo://app?vid=5b4417c6-165b-4da9-9b81-f5e5e6beedae"},"vehicle_type_id":"4","last_reported":1723828037,"current_range_meters":26400,"station_id":"ce4bgkp2rcd13ifvqbmg","pricing_plan_id":"cebpf4jnsgd1na2vs0mg"},{"bike_id":"db2bb809-29d2-4c1d-8777-174beed4a6db","system_id":"levelo_inurba_marseille","lat":43.295279,"lon":5.375048,"is_reserved":false,"is_disabled":false,"rental_uris":{"android":"levelo://app?vid=db2bb809-29d2-4c1d-8777-174beed4a6db","ios":"levelo://app?vid=db2bb809-29d2-4c1d-8777-174beed4a6db"},"vehicle_type_id":"4","last_reported":1723828037,"current_range_meters":12000,"station_id":"ce4bgkp2rcd13ifvqbmg","pricing_plan_id":"cebpf4jnsgd1na2vs0mg"},{"bike_id":"d967c1d5-95c3-47ce-aba5-eb5d71f6f0cb","system_id":"levelo_inurba_marseille","lat":43.295279,"lon":5.375048,"is_reserved":false,"is_disabled":false,"rental_uris":{"android":"levelo://app?vid=d967c1d5-95c3-47ce-aba5-eb5d71f6f0cb","ios":"levelo://app?vid=d967c1d5-95c3-47ce-aba5-eb5d71f6f0cb"},"vehicle_type_id":"4","last_reported":1723828037,"current_range_meters":26000,"station_id":"ce4bgkp2rcd13ifvqbmg","pricing_plan_id":"cebpf4jnsgd1na2vs0mg"},{"bike_id":"f3e2f630-43d3-4b8f-bdc0-8722f0cb7d0d","system_id":"levelo_inurba_marseille","lat":43.295279,"lon":5.375048,"is_reserved":false,"is_disabled":false,"rental_uris":{"android":"levelo://app?vid=f3e2f630-43d3-4b8f-bdc0-8722f0cb7d0d","ios":"levelo://app?vid=f3e2f630-43d3-4b8f-bdc0-8722f0cb7d0d"},"vehicle_type_id":"4","last_reported":1723828037,"current_range_meters":31200,"station_id":"ce4bgkp2rcd13ifvqbmg","pricing_plan_id":"cebpf4jnsgd1na2vs0mg"},{"bike_id":"ee4c3273-eedc-4045-9f62-998db0cb9129","system_id":"levelo_inurba_marseille","lat":43.295279,"lon":5.375048,"is_reserved":false,"is_disabled":false,"rental_uris":{"android":"levelo://app?vid=ee4c3273-eedc-4045-9f62-998db0cb9129","ios":"levelo://app?vid=ee4c3273-eedc-4045-9f62-998db0cb9129"},"vehicle_type_id":"4","last_reported":1723828037,"current_range_meters":0,"station_id":"ce4bgkp2rcd13ifvqbmg","pricing_plan_id":"cebpf4jnsgd1na2vs0mg"},{"bike_id":"13894dde-e839-4a78-92bb-1129af576334","system_id":"levelo_inurba_marseille","lat":43.295279,"lon":5.375048,"is_reserved":false,"is_disabled":false,"rental_uris":{"android":"levelo://app?vid=13894dde-e839-4a78-92bb-1129af576334","ios":"levelo://app?vid=13894dde-e839-4a78-92bb-1129af576334"},"vehicle_type_id":"4","last_reported":1723828037,"current_range_meters":5200,"station_id":"ce4bgkp2rcd13ifvqbmg","pricing_plan_id":"cebpf4jnsgd1na2vs0mg"},{"bike_id":"d5107e52-1857-43fd-ad42-ebb91b707944","system_id":"levelo_inurba_marseille","lat":43.295279,"lon":5.375048,"is_reserved":false,"is_disabled":false,"rental_uris":{"android":"levelo://app?vid=d5107e52-1857-43fd-ad42-ebb91b707944","ios":"levelo://app?vid=d5107e52-1857-43fd-ad42-ebb91b707944"},"vehicle_type_id":"4","last_reported":1723828037,"current_range_meters":28400,"station_id":"ce4bgkp2rcd13ifvqbmg","pricing_plan_id":"cebpf4jnsgd1na2vs0mg"},{"bike_id":"06ec2fc6-2803-459d-aa33-427eac5d348b","system_id":"levelo_inurba_marseille","lat":43.295279,"lon":5.375048,"is_reserved":false,"is_disabled":false,"rental_uris":{"android":"levelo://app?vid=06ec2fc6-2803-459d-aa33-427eac5d348b","ios":"levelo://app?vid=06ec2fc6-2803-459d-aa33-427eac5d348b"},"vehicle_type_id":"4","last_reported":1723828037,"current_range_meters":11200,"station_id":"ce4bgkp2rcd13ifvqbmg","pricing_plan_id":"cebpf4jnsgd1na2vs0mg"},{"bike_id":"a21e1228-54a3-46ff-9297-0952ee59152f","system_id":"levelo_inurba_marseille","lat":43.295279,"lon":5.375048,"is_reserved":false,"is_disabled":false,"rental_uris":{"android":"levelo://app?vid=a21e1228-54a3-46ff-9297-0952ee59152f","ios":"levelo://app?vid=a21e1228-54a3-46ff-9297-0952ee59152f"},"vehicle_type_id":"4","last_reported":1723828037,"current_range_meters":29600,"station_id":"ce4bgkp2rcd13ifvqbmg","pricing_plan_id":"cebpf4jnsgd1na2vs0mg"},{"bike_id":"d8e5a22e-35d6-4f2c-80ca-846e42d525fc","system_id":"levelo_inurba_marseille","lat":43.295279,"lon":5.375048,"is_reserved":false,"is_disabled":false,"rental_uris":{"android":"levelo://app?vid=d8e5a22e-35d6-4f2c-80ca-846e42d525fc","ios":"levelo://app?vid=d8e5a22e-35d6-4f2c-80ca-846e42d525fc"},"vehicle_type_id":"4","last_reported":1723828037,"current_range_meters":22400,"station_id":"ce4bgkp2rcd13ifvqbmg","pricing_plan_id":"cebpf4jnsgd1na2vs0mg"},{"bike_id":"71d959ec-82d1-412e-80fb-ca8a4a55b26d","system_id":"levelo_inurba_marseille","lat":43.295279,"lon":5.375048,"is_reserved":false,"is_disabled":false,"rental_uris":{"android":"levelo://app?vid=71d959ec-82d1-412e-80fb-ca8a4a55b26d","ios":"levelo://app?vid=71d959ec-82d1-412e-80fb-ca8a4a55b26d"},"vehicle_type_id":"4","last_reported":1723828037,"current_range_meters":17200,"station_id":"ce4bgkp2rcd13ifvqbmg","pricing_plan_id":"cebpf4jnsgd1na2vs0mg"},{"bike_id":"c0b4827c-2685-4da8-b816-65146719ef96","system_id":"levelo_inurba_marseille","lat":43.299571,"lon":5.385285,"is_reserved":false,"is_disabled":false,"rental_uris":{"android":"levelo://app?vid=c0b4827c-2685-4da8-b816-65146719ef96","ios":"levelo://app?vid=c0b4827c-2685-4da8-b816-65146719ef96"},"vehicle_type_id":"4","last_reported":1723828037,"current_range_meters":8800,"station_id":"","pricing_plan_id":"cebpf4jnsgd1na2vs0mg"},{"bike_id":"95516c70-d8dc-4460-8c76-2cb7b847cd24","system_id":"levelo_inurba_marseille","lat":43.300795,"lon":5.386932,"is_reserved":false,"is_disabled":false,"rental_uris":{"android":"levelo://app?vid=95516c70-d8dc-4460-8c76-2cb7b847cd24","ios":"levelo://app?vid=95516c70-d8dc-4460-8c76-2cb7b847cd24"},"vehicle_type_id":"4","last_reported":1723828037,"current_range_meters":0,"station_id":"","pricing_plan_id":"cebpf4jnsgd1na2vs0mg"},{"bike_id":"b15d4e82-d22f-4543-8f3d-ad8461f85bda","system_id":"levelo_inurba_marseille","lat":43.301396,"lon":5.387812,"is_reserved":false,"is_disabled":false,"rental_uris":{"android":"levelo://app?vid=b15d4e82-d22f-4543-8f3d-ad8461f85bda","ios":"levelo://app?vid=b15d4e82-d22f-4543-8f3d-ad8461f85bda"},"vehicle_type_id":"4","last_reported":1723828037,"current_range_meters":26800,"station_id":"ce4bghh2rcd13ifvqb60","pricing_plan_id":"cebpf4jnsgd1na2vs0mg"},{"bike_id":"2c068b5b-efac-4551-b48a-1b9e52295ebd","system_id":"levelo_inurba_marseille","lat":43.301396,"lon":5.387812,"is_reserved":false,"is_disabled":false,"rental_uris":{"android":"levelo://app?vid=2c068b5b-efac-4551-b48a-1b9e52295ebd","ios":"levelo://app?vid=2c068b5b-efac-4551-b48a-1b9e52295ebd"},"vehicle_type_id":"4","last_reported":1723828037,"current_range_meters":0,"station_id":"ce4bghh2rcd13ifvqb60","pricing_plan_id":"cebpf4jnsgd1na2vs0mg"},{"bike_id":"a0ba02c9-6703-463a-89ed-0d92cbbd9321","system_id":"levelo_inurba_marseille","lat":43.301396,"lon":5.387812,"is_reserved":false,"is_disabled":false,"rental_uris":{"android":"levelo://app?vid=a0ba02c9-6703-463a-89ed-0d92cbbd9321","ios":"levelo://app?vid=a0ba02c9-6703-463a-89ed-0d92cbbd9321"},"vehicle_type_id":"4","last_reported":1723828037,"current_range_meters":22400,"station_id":"ce4bghh2rcd13ifvqb60","pricing_plan_id":"cebpf4jnsgd1na2vs0mg"},{"bike_id":"b5ec65bb-2c13-4cbc-a7f2-40fac48d4315","system_id":"levelo_inurba_marseille","lat":43.301396,"lon":5.387812,"is_reserved":false,"is_disabled":false,"rental_uris":{"android":"levelo://app?vid=b5ec65bb-2c13-4cbc-a7f2-40fac48d4315","ios":"levelo://app?vid=b5ec65bb-2c13-4cbc-a7f2-40fac48d4315"},"vehicle_type_id":"4","last_reported":1723828037,"current_range_meters":3200,"station_id":"ce4bghh2rcd13ifvqb60","pricing_plan_id":"cebpf4jnsgd1na2vs0mg"},{"bike_id":"fdcfabf3-406c-463c-95a6-42813ecb3da2","system_id":"levelo_inurba_marseille","lat":43.301396,"lon":5.387812,"is_reserved":false,"is_disabled":false,"rental_uris":{"android":"levelo://app?vid=fdcfabf3-406c-463c-95a6-42813ecb3da2","ios":"levelo://app?vid=fdcfabf3-406c-463c-95a6-42813ecb3da2"},"vehicle_type_id":"4","last_reported":1723828037,"current_range_meters":15200,"station_id":"ce4bghh2rcd13ifvqb60","pricing_plan_id":"cebpf4jnsgd1na2vs0mg"},{"bike_id":"7d6f02b9-e900-4d91-b002-805bcd401650","system_id":"levelo_inurba_marseille","lat":43.301396,"lon":5.387812,"is_reserved":false,"is_disabled":false,"rental_uris":{"android":"levelo://app?vid=7d6f02b9-e900-4d91-b002-805bcd401650","ios":"levelo://app?vid=7d6f02b9-e900-4d91-b002-805bcd401650"},"vehicle_type_id":"4","last_reported":1723828037,"current_range_meters":3200,"station_id":"ce4bghh2rcd13ifvqb60","pricing_plan_id":"cebpf4jnsgd1na2vs0mg"},{"bike_id":"c34ba3e9-c426-4132-9db3-6329ac8d10a2","system_id":"levelo_inurba_marseille","lat":43.301396,"lon":5.387812,"is_reserved":false,"is_disabled":false,"rental_uris":{"android":"levelo://app?vid=c34ba3e9-c426-4132-9db3-6329ac8d10a2","ios":"levelo://app?vid=c34ba3e9-c426-4132-9db3-6329ac8d10a2"},"vehicle_type_id":"4","last_reported":1723828037,"current_range_meters":30000,"station_id":"ce4bghh2rcd13ifvqb60","pricing_plan_id":"cebpf4jnsgd1na2vs0mg"},{"bike_id":"831fc33b-c86b-4782-aa4d-ab21027af608","system_id":"levelo_inurba_marseille","lat":43.32367,"lon":5.388836,"is_reserved":false,"is_disabled":false,"rental_uris":{"android":"levelo://app?vid=831fc33b-c86b-4782-aa4d-ab21027af608","ios":"levelo://app?vid=831fc33b-c86b-4782-aa4d-ab21027af608"},"vehicle_type_id":"4","last_reported":1723828037,"current_range_meters":4400,"station_id":"ce4bhqp2rcd13ifvqhog","pricing_plan_id":"cebpf4jnsgd1na2vs0mg"},{"bike_id":"9d6f3c30-713a-4e39-9517-dd7018421823","system_id":"levelo_inurba_marseille","lat":43.32367,"lon":5.388836,"is_reserved":false,"is_disabled":false,"rental_uris":{"android":"levelo://app?vid=9d6f3c30-713a-4e39-9517-dd7018421823","ios":"levelo://app?vid=9d6f3c30-713a-4e39-9517-dd7018421823"},"vehicle_type_id":"4","last_reported":1723828037,"current_range_meters":0,"station_id":"ce4bhqp2rcd13ifvqhog","pricing_plan_id":"cebpf4jnsgd1na2vs0mg"},{"bike_id":"8b48190d-8d8f-43a6-823c-61c6b5e5a6de","system_id":"levelo_inurba_marseille","lat":43.32367,"lon":5.388836,"is_reserved":false,"is_disabled":false,"rental_uris":{"android":"levelo://app?vid=8b48190d-8d8f-43a6-823c-61c6b5e5a6de","ios":"levelo://app?vid=8b48190d-8d8f-43a6-823c-61c6b5e5a6de"},"vehicle_type_id":"4","last_reported":1723828037,"current_range_meters":22000,"station_id":"ce4bhqp2rcd13ifvqhog","pricing_plan_id":"cebpf4jnsgd1na2vs0mg"},{"bike_id":"b820cec9-ff92-4eba-940e-c12d878eb4e9","system_id":"levelo_inurba_marseille","lat":43.32367,"lon":5.388836,"is_reserved":false,"is_disabled":false,"rental_uris":{"android":"levelo://app?vid=b820cec9-ff92-4eba-940e-c12d878eb4e9","ios":"levelo://app?vid=b820cec9-ff92-4eba-940e-c12d878eb4e9"},"vehicle_type_id":"4","last_reported":1723828037,"current_range_meters":2400,"station_id":"ce4bhqp2rcd13ifvqhog","pricing_plan_id":"cebpf4jnsgd1na2vs0mg"},{"bike_id":"0abb2f62-ae69-4e02-8934-c62d03a114c1","system_id":"levelo_inurba_marseille","lat":43.29601,"lon":5.381084,"is_reserved":false,"is_disabled":false,"rental_uris":{"android":"levelo://app?vid=0abb2f62-ae69-4e02-8934-c62d03a114c1","ios":"levelo://app?vid=0abb2f62-ae69-4e02-8934-c62d03a114c1"},"vehicle_type_id":"4","last_reported":1723828037,"current_range_meters":10400,"station_id":"ce4bgl12rcd13ifvqbo0","pricing_plan_id":"cebpf4jnsgd1na2vs0mg"},{"bike_id":"ef51062a-1a86-4a9a-9c8a-ee0064bdbf53","system_id":"levelo_inurba_marseille","lat":43.29601,"lon":5.381084,"is_reserved":false,"is_disabled":false,"rental_uris":{"android":"levelo://app?vid=ef51062a-1a86-4a9a-9c8a-ee0064bdbf53","ios":"levelo://app?vid=ef51062a-1a86-4a9a-9c8a-ee0064bdbf53"},"vehicle_type_id":"4","last_reported":1723828037,"current_range_meters":7200,"station_id":"ce4bgl12rcd13ifvqbo0","pricing_plan_id":"cebpf4jnsgd1na2vs0mg"},{"bike_id":"c3aebfc7-a3cd-47d2-afb0-16a7658ae6ca","system_id":"levelo_inurba_marseille","lat":43.29317,"lon":5.37182,"is_reserved":false,"is_disabled":false,"rental_uris":{"android":"levelo://app?vid=c3aebfc7-a3cd-47d2-afb0-16a7658ae6ca","ios":"levelo://app?vid=c3aebfc7-a3cd-47d2-afb0-16a7658ae6ca"},"vehicle_type_id":"4","last_reported":1723828037,"current_range_meters":0,"station_id":"ce4bgh92rcd13ifvqb40","pricing_plan_id":"cebpf4jnsgd1na2vs0mg"},{"bike_id":"abdcb605-01a3-4469-b9a1-7938759979d8","system_id":"levelo_inurba_marseille","lat":43.293123,"lon":5.37167,"is_reserved":false,"is_disabled":false,"rental_uris":{"android":"levelo://app?vid=abdcb605-01a3-4469-b9a1-7938759979d8","ios":"levelo://app?vid=abdcb605-01a3-4469-b9a1-7938759979d8"},"vehicle_type_id":"4","last_reported":1723828037,"current_range_meters":21200,"station_id":"ce4bgh92rcd13ifvqb40","pricing_plan_id":"cebpf4jnsgd1na2vs0mg"},{"bike_id":"e2353cb0-a3b2-4f25-9f0c-b282f74a286b","system_id":"levelo_inurba_marseille","lat":43.29313,"lon":5.37182,"is_reserved":false,"is_disabled":false,"rental_uris":{"android":"levelo://app?vid=e2353cb0-a3b2-4f25-9f0c-b282f74a286b","ios":"levelo://app?vid=e2353cb0-a3b2-4f25-9f0c-b282f74a286b"},"vehicle_type_id":"4","last_reported":1723828037,"current_range_meters":17600,"station_id":"ce4bgh92rcd13ifvqb40","pricing_plan_id":"cebpf4jnsgd1na2vs0mg"},{"bike_id":"5b9c2db8-78a8-4921-945b-01616a40a32f","system_id":"levelo_inurba_marseille","lat":43.2931,"lon":5.37169,"is_reserved":false,"is_disabled":false,"rental_uris":{"android":"levelo://app?vid=5b9c2db8-78a8-4921-945b-01616a40a32f","ios":"levelo://app?vid=5b9c2db8-78a8-4921-945b-01616a40a32f"},"vehicle_type_id":"4","last_reported":1723828037,"current_range_meters":18000,"station_id":"ce4bgh92rcd13ifvqb40","pricing_plan_id":"cebpf4jnsgd1na2vs0mg"},{"bike_id":"ecf499ea-43e9-4303-a40a-abfd5e7fc48b","system_id":"levelo_inurba_marseille","lat":43.2931,"lon":5.37169,"is_reserved":false,"is_disabled":false,"rental_uris":{"android":"levelo://app?vid=ecf499ea-43e9-4303-a40a-abfd5e7fc48b","ios":"levelo://app?vid=ecf499ea-43e9-4303-a40a-abfd5e7fc48b"},"vehicle_type_id":"4","last_reported":1723828037,"current_range_meters":1200,"station_id":"ce4bgh92rcd13ifvqb40","pricing_plan_id":"cebpf4jnsgd1na2vs0mg"},{"bike_id":"64040d50-79c4-47bc-a4fa-9aa9d7a29b8b","system_id":"levelo_inurba_marseille","lat":43.293091,"lon":5.371842,"is_reserved":false,"is_disabled":false,"rental_uris":{"android":"levelo://app?vid=64040d50-79c4-47bc-a4fa-9aa9d7a29b8b","ios":"levelo://app?vid=64040d50-79c4-47bc-a4fa-9aa9d7a29b8b"},"vehicle_type_id":"4","last_reported":1723828037,"current_range_meters":27200,"station_id":"ce4bgh92rcd13ifvqb40","pricing_plan_id":"cebpf4jnsgd1na2vs0mg"},{"bike_id":"62320cdf-360d-438b-bb22-67fe1067720b","system_id":"levelo_inurba_marseille","lat":43.293249,"lon":5.371578,"is_reserved":false,"is_disabled":false,"rental_uris":{"android":"levelo://app?vid=62320cdf-360d-438b-bb22-67fe1067720b","ios":"levelo://app?vid=62320cdf-360d-438b-bb22-67fe1067720b"},"vehicle_type_id":"4","last_reported":1723828037,"current_range_meters":27600,"station_id":"ce4bgh92rcd13ifvqb40","pricing_plan_id":"cebpf4jnsgd1na2vs0mg"},{"bike_id":"a951d2a3-96c7-4cbc-be24-5341812ba48a","system_id":"levelo_inurba_marseille","lat":43.292749,"lon":5.368402,"is_reserved":false,"is_disabled":false,"rental_uris":{"android":"levelo://app?vid=a951d2a3-96c7-4cbc-be24-5341812ba48a","ios":"levelo://app?vid=a951d2a3-96c7-4cbc-be24-5341812ba48a"},"vehicle_type_id":"4","last_reported":1723828037,"current_range_meters":13200,"station_id":"ce4bhbp2rcd13ifvqesg","pricing_plan_id":"cebpf4jnsgd1na2vs0mg"},{"bike_id":"753cbc1d-f394-4ecd-bcca-59dcf3e8f675","system_id":"levelo_inurba_marseille","lat":43.292749,"lon":5.368402,"is_reserved":false,"is_disabled":false,"rental_uris":{"android":"levelo://app?vid=753cbc1d-f394-4ecd-bcca-59dcf3e8f675","ios":"levelo://app?vid=753cbc1d-f394-4ecd-bcca-59dcf3e8f675"},"vehicle_type_id":"4","last_reported":1723828037,"current_range_meters":5600,"station_id":"ce4bhbp2rcd13ifvqesg","pricing_plan_id":"cebpf4jnsgd1na2vs0mg"},{"bike_id":"6a2927d3-0c4d-4f52-bdc2-315f3498ca09","system_id":"levelo_inurba_marseille","lat":43.29306,"lon":5.37165,"is_reserved":false,"is_disabled":false,"rental_uris":{"android":"levelo://app?vid=6a2927d3-0c4d-4f52-bdc2-315f3498ca09","ios":"levelo://app?vid=6a2927d3-0c4d-4f52-bdc2-315f3498ca09"},"vehicle_type_id":"4","last_reported":1723828037,"current_range_meters":23600,"station_id":"ce4bgh92rcd13ifvqb40","pricing_plan_id":"cebpf4jnsgd1na2vs0mg"},{"bike_id":"699dcf38-3bfc-4e10-a91f-6abe755a60a5","system_id":"levelo_inurba_marseille","lat":43.29303,"lon":5.37173,"is_reserved":false,"is_disabled":false,"rental_uris":{"android":"levelo://app?vid=699dcf38-3bfc-4e10-a91f-6abe755a60a5","ios":"levelo://app?vid=699dcf38-3bfc-4e10-a91f-6abe755a60a5"},"vehicle_type_id":"4","last_reported":1723828037,"current_range_meters":11200,"station_id":"ce4bgh92rcd13ifvqb40","pricing_plan_id":"cebpf4jnsgd1na2vs0mg"},{"bike_id":"a9be00f7-deca-44d5-a3a7-4197cc7191aa","system_id":"levelo_inurba_marseille","lat":43.29304,"lon":5.37181,"is_reserved":false,"is_disabled":false,"rental_uris":{"android":"levelo://app?vid=a9be00f7-deca-44d5-a3a7-4197cc7191aa","ios":"levelo://app?vid=a9be00f7-deca-44d5-a3a7-4197cc7191aa"},"vehicle_type_id":"4","last_reported":1723828037,"current_range_meters":25600,"station_id":"ce4bgh92rcd13ifvqb40","pricing_plan_id":"cebpf4jnsgd1na2vs0mg"},{"bike_id":"af0e6c22-a615-4cfb-91a9-f0eaf4abf531","system_id":"levelo_inurba_marseille","lat":43.292749,"lon":5.368402,"is_reserved":false,"is_disabled":false,"rental_uris":{"android":"levelo://app?vid=af0e6c22-a615-4cfb-91a9-f0eaf4abf531","ios":"levelo://app?vid=af0e6c22-a615-4cfb-91a9-f0eaf4abf531"},"vehicle_type_id":"4","last_reported":1723828037,"current_range_meters":4800,"station_id":"ce4bhbp2rcd13ifvqesg","pricing_plan_id":"cebpf4jnsgd1na2vs0mg"},{"bike_id":"64a634dc-cccb-4a14-99c2-a038d4b5f91d","system_id":"levelo_inurba_marseille","lat":43.292977,"lon":5.37154,"is_reserved":false,"is_disabled":false,"rental_uris":{"android":"levelo://app?vid=64a634dc-cccb-4a14-99c2-a038d4b5f91d","ios":"levelo://app?vid=64a634dc-cccb-4a14-99c2-a038d4b5f91d"},"vehicle_type_id":"4","last_reported":1723828037,"current_range_meters":27600,"station_id":"ce4bgh92rcd13ifvqb40","pricing_plan_id":"cebpf4jnsgd1na2vs0mg"},{"bike_id":"bc4aad92-6dfe-431e-96d7-64e8339c93d4","system_id":"levelo_inurba_marseille","lat":43.292749,"lon":5.368402,"is_reserved":false,"is_disabled":false,"rental_uris":{"android":"levelo://app?vid=bc4aad92-6dfe-431e-96d7-64e8339c93d4","ios":"levelo://app?vid=bc4aad92-6dfe-431e-96d7-64e8339c93d4"},"vehicle_type_id":"4","last_reported":1723828037,"current_range_meters":30400,"station_id":"ce4bhbp2rcd13ifvqesg","pricing_plan_id":"cebpf4jnsgd1na2vs0mg"},{"bike_id":"f7713193-4cfe-4345-b559-1be43a4ef113","system_id":"levelo_inurba_marseille","lat":43.292749,"lon":5.368402,"is_reserved":false,"is_disabled":false,"rental_uris":{"android":"levelo://app?vid=f7713193-4cfe-4345-b559-1be43a4ef113","ios":"levelo://app?vid=f7713193-4cfe-4345-b559-1be43a4ef113"},"vehicle_type_id":"4","last_reported":1723828037,"current_range_meters":8800,"station_id":"ce4bhbp2rcd13ifvqesg","pricing_plan_id":"cebpf4jnsgd1na2vs0mg"},{"bike_id":"f38fa803-c2e9-4b17-ad96-bf95f011eb03","system_id":"levelo_inurba_marseille","lat":43.29233,"lon":5.36474,"is_reserved":false,"is_disabled":false,"rental_uris":{"android":"levelo://app?vid=f38fa803-c2e9-4b17-ad96-bf95f011eb03","ios":"levelo://app?vid=f38fa803-c2e9-4b17-ad96-bf95f011eb03"},"vehicle_type_id":"4","last_reported":1723828037,"current_range_meters":12400,"station_id":"","pricing_plan_id":"cebpf4jnsgd1na2vs0mg"},{"bike_id":"2daf7d2b-0aea-4331-b2d9-d20d4f195772","system_id":"levelo_inurba_marseille","lat":43.293009,"lon":5.374584,"is_reserved":false,"is_disabled":false,"rental_uris":{"android":"levelo://app?vid=2daf7d2b-0aea-4331-b2d9-d20d4f195772","ios":"levelo://app?vid=2daf7d2b-0aea-4331-b2d9-d20d4f195772"},"vehicle_type_id":"4","last_reported":1723828037,"current_range_meters":6800,"station_id":"ce4bgi12rcd13ifvqb70","pricing_plan_id":"cebpf4jnsgd1na2vs0mg"},{"bike_id":"99d8e087-412d-4ec2-9225-9421d0405683","system_id":"levelo_inurba_marseille","lat":43.30592,"lon":5.39351,"is_reserved":false,"is_disabled":false,"rental_uris":{"android":"levelo://app?vid=99d8e087-412d-4ec2-9225-9421d0405683","ios":"levelo://app?vid=99d8e087-412d-4ec2-9225-9421d0405683"},"vehicle_type_id":"4","last_reported":1723828037,"current_range_meters":3200,"station_id":"","pricing_plan_id":"cebpf4jnsgd1na2vs0mg"},{"bike_id":"88791d02-0034-46d3-874e-8fa528de8daf","system_id":"levelo_inurba_marseille","lat":43.305994,"lon":5.393687,"is_reserved":false,"is_disabled":false,"rental_uris":{"android":"levelo://app?vid=88791d02-0034-46d3-874e-8fa528de8daf","ios":"levelo://app?vid=88791d02-0034-46d3-874e-8fa528de8daf"},"vehicle_type_id":"4","last_reported":1723828037,"current_range_meters":14800,"station_id":"ce4bh0p2rcd13ifvqd80","pricing_plan_id":"cebpf4jnsgd1na2vs0mg"},{"bike_id":"3e6e1b0b-ccb7-4686-8e5e-b37fc52cdc5e","system_id":"levelo_inurba_marseille","lat":43.305994,"lon":5.393687,"is_reserved":false,"is_disabled":false,"rental_uris":{"android":"levelo://app?vid=3e6e1b0b-ccb7-4686-8e5e-b37fc52cdc5e","ios":"levelo://app?vid=3e6e1b0b-ccb7-4686-8e5e-b37fc52cdc5e"},"vehicle_type_id":"4","last_reported":1723828037,"current_range_meters":19200,"station_id":"ce4bh0p2rcd13ifvqd80","pricing_plan_id":"cebpf4jnsgd1na2vs0mg"},{"bike_id":"80765f92-aace-4c2c-8cd7-523b8b47c3d1","system_id":"levelo_inurba_marseille","lat":43.293009,"lon":5.374584,"is_reserved":false,"is_disabled":false,"rental_uris":{"android":"levelo://app?vid=80765f92-aace-4c2c-8cd7-523b8b47c3d1","ios":"levelo://app?vid=80765f92-aace-4c2c-8cd7-523b8b47c3d1"},"vehicle_type_id":"4","last_reported":1723828037,"current_range_meters":0,"station_id":"ce4bgi12rcd13ifvqb70","pricing_plan_id":"cebpf4jnsgd1na2vs0mg"},{"bike_id":"4900bc7a-7ce2-4f37-8f0b-64bd6c297de2","system_id":"levelo_inurba_marseille","lat":43.29292,"lon":5.37458,"is_reserved":false,"is_disabled":false,"rental_uris":{"android":"levelo://app?vid=4900bc7a-7ce2-4f37-8f0b-64bd6c297de2","ios":"levelo://app?vid=4900bc7a-7ce2-4f37-8f0b-64bd6c297de2"},"vehicle_type_id":"4","last_reported":1723828037,"current_range_meters":0,"station_id":"ce4bgi12rcd13ifvqb70","pricing_plan_id":"cebpf4jnsgd1na2vs0mg"},{"bike_id":"3f391f7c-5a0d-4b47-b9c4-c7287b2b21b3","system_id":"levelo_inurba_marseille","lat":43.302992,"lon":5.392136,"is_reserved":false,"is_disabled":false,"rental_uris":{"android":"levelo://app?vid=3f391f7c-5a0d-4b47-b9c4-c7287b2b21b3","ios":"levelo://app?vid=3f391f7c-5a0d-4b47-b9c4-c7287b2b21b3"},"vehicle_type_id":"4","last_reported":1723828037,"current_range_meters":28800,"station_id":"ce4bgkh2rcd13ifvqbk0","pricing_plan_id":"cebpf4jnsgd1na2vs0mg"},{"bike_id":"b393222c-a11b-46c0-8bfe-823cbc5398b6","system_id":"levelo_inurba_marseille","lat":43.292311,"lon":5.360731,"is_reserved":false,"is_disabled":false,"rental_uris":{"android":"levelo://app?vid=b393222c-a11b-46c0-8bfe-823cbc5398b6","ios":"levelo://app?vid=b393222c-a11b-46c0-8bfe-823cbc5398b6"},"vehicle_type_id":"4","last_reported":1723828037,"current_range_meters":30000,"station_id":"ce4bhbh2rcd13ifvqeqg","pricing_plan_id":"cebpf4jnsgd1na2vs0mg"},{"bike_id":"a9d2cc4d-6463-4765-84e0-2a2f1bf36e39","system_id":"levelo_inurba_marseille","lat":43.292311,"lon":5.360731,"is_reserved":false,"is_disabled":false,"rental_uris":{"android":"levelo://app?vid=a9d2cc4d-6463-4765-84e0-2a2f1bf36e39","ios":"levelo://app?vid=a9d2cc4d-6463-4765-84e0-2a2f1bf36e39"},"vehicle_type_id":"4","last_reported":1723828037,"current_range_meters":0,"station_id":"ce4bhbh2rcd13ifvqeqg","pricing_plan_id":"cebpf4jnsgd1na2vs0mg"},{"bike_id":"8f2d17d4-cbae-4b1e-9d10-0c6c6d3fe940","system_id":"levelo_inurba_marseille","lat":43.292311,"lon":5.360731,"is_reserved":false,"is_disabled":false,"rental_uris":{"android":"levelo://app?vid=8f2d17d4-cbae-4b1e-9d10-0c6c6d3fe940","ios":"levelo://app?vid=8f2d17d4-cbae-4b1e-9d10-0c6c6d3fe940"},"vehicle_type_id":"4","last_reported":1723828037,"current_range_meters":14000,"station_id":"ce4bhbh2rcd13ifvqeqg","pricing_plan_id":"cebpf4jnsgd1na2vs0mg"},{"bike_id":"849fb5d7-0e05-424f-b2fb-1840c9832da6","system_id":"levelo_inurba_marseille","lat":43.313723,"lon":5.39597,"is_reserved":false,"is_disabled":false,"rental_uris":{"android":"levelo://app?vid=849fb5d7-0e05-424f-b2fb-1840c9832da6","ios":"levelo://app?vid=849fb5d7-0e05-424f-b2fb-1840c9832da6"},"vehicle_type_id":"4","last_reported":1723828037,"current_range_meters":20800,"station_id":"","pricing_plan_id":"cebpf4jnsgd1na2vs0mg"},{"bike_id":"6ad210b1-8ed2-41e6-8bf3-32f61bddb71c","system_id":"levelo_inurba_marseille","lat":43.29172,"lon":5.37139,"is_reserved":false,"is_disabled":false,"rental_uris":{"android":"levelo://app?vid=6ad210b1-8ed2-41e6-8bf3-32f61bddb71c","ios":"levelo://app?vid=6ad210b1-8ed2-41e6-8bf3-32f61bddb71c"},"vehicle_type_id":"4","last_reported":1723828037,"current_range_meters":26000,"station_id":"ce4bha92rcd13ifvqeh0","pricing_plan_id":"cebpf4jnsgd1na2vs0mg"},{"bike_id":"8842fbf2-10dd-4c93-a8b5-74e23d269318","system_id":"levelo_inurba_marseille","lat":43.2988,"lon":5.38908,"is_reserved":false,"is_disabled":false,"rental_uris":{"android":"levelo://app?vid=8842fbf2-10dd-4c93-a8b5-74e23d269318","ios":"levelo://app?vid=8842fbf2-10dd-4c93-a8b5-74e23d269318"},"vehicle_type_id":"4","last_reported":1723828037,"current_range_meters":400,"station_id":"ce4bh392rcd13ifvqdl0","pricing_plan_id":"cebpf4jnsgd1na2vs0mg"},{"bike_id":"22b987cf-8d82-4e40-8714-d4d3b7eeca1d","system_id":"levelo_inurba_marseille","lat":43.298764,"lon":5.388973,"is_reserved":false,"is_disabled":false,"rental_uris":{"android":"levelo://app?vid=22b987cf-8d82-4e40-8714-d4d3b7eeca1d","ios":"levelo://app?vid=22b987cf-8d82-4e40-8714-d4d3b7eeca1d"},"vehicle_type_id":"4","last_reported":1723828037,"current_range_meters":1600,"station_id":"ce4bh392rcd13ifvqdl0","pricing_plan_id":"cebpf4jnsgd1na2vs0mg"},{"bike_id":"c80028f6-658a-48c6-8426-941f7f417452","system_id":"levelo_inurba_marseille","lat":43.286591,"lon":5.363346,"is_reserved":false,"is_disabled":false,"rental_uris":{"android":"levelo://app?vid=c80028f6-658a-48c6-8426-941f7f417452","ios":"levelo://app?vid=c80028f6-658a-48c6-8426-941f7f417452"},"vehicle_type_id":"4","last_reported":1723828037,"current_range_meters":28000,"station_id":"ce4bhah2rcd13ifvqej0","pricing_plan_id":"cebpf4jnsgd1na2vs0mg"},{"bike_id":"bd1fe66a-51cc-44ca-ba36-e3174ef358ee","system_id":"levelo_inurba_marseille","lat":43.294162,"lon":5.386292,"is_reserved":false,"is_disabled":false,"rental_uris":{"android":"levelo://app?vid=bd1fe66a-51cc-44ca-ba36-e3174ef358ee","ios":"levelo://app?vid=bd1fe66a-51cc-44ca-ba36-e3174ef358ee"},"vehicle_type_id":"4","last_reported":1723828037,"current_range_meters":400,"station_id":"ce4bh2h2rcd13ifvqdh0","pricing_plan_id":"cebpf4jnsgd1na2vs0mg"},{"bike_id":"2e9195d8-3aa8-4fe6-8065-2d847c5203a1","system_id":"levelo_inurba_marseille","lat":43.292005,"lon":5.357875,"is_reserved":false,"is_disabled":false,"rental_uris":{"android":"levelo://app?vid=2e9195d8-3aa8-4fe6-8065-2d847c5203a1","ios":"levelo://app?vid=2e9195d8-3aa8-4fe6-8065-2d847c5203a1"},"vehicle_type_id":"4","last_reported":1723828037,"current_range_meters":400,"station_id":"ce4bhb12rcd13ifvqel0","pricing_plan_id":"cebpf4jnsgd1na2vs0mg"},{"bike_id":"6a96e5c1-3883-40f9-98f2-d70d8f11af51","system_id":"levelo_inurba_marseille","lat":43.29195,"lon":5.357963,"is_reserved":false,"is_disabled":false,"rental_uris":{"android":"levelo://app?vid=6a96e5c1-3883-40f9-98f2-d70d8f11af51","ios":"levelo://app?vid=6a96e5c1-3883-40f9-98f2-d70d8f11af51"},"vehicle_type_id":"4","last_reported":1723828037,"current_range_meters":17200,"station_id":"ce4bhb12rcd13ifvqel0","pricing_plan_id":"cebpf4jnsgd1na2vs0mg"},{"bike_id":"7b0e55e9-3e98-4882-8bb0-c26f760a1c2d","system_id":"levelo_inurba_marseille","lat":43.291923,"lon":5.35799,"is_reserved":false,"is_disabled":false,"rental_uris":{"android":"levelo://app?vid=7b0e55e9-3e98-4882-8bb0-c26f760a1c2d","ios":"levelo://app?vid=7b0e55e9-3e98-4882-8bb0-c26f760a1c2d"},"vehicle_type_id":"4","last_reported":1723828037,"current_range_meters":0,"station_id":"ce4bhb12rcd13ifvqel0","pricing_plan_id":"cebpf4jnsgd1na2vs0mg"},{"bike_id":"c5e71391-bcc6-47fa-8992-befb80f0acc4","system_id":"levelo_inurba_marseille","lat":43.313291,"lon":5.396838,"is_reserved":false,"is_disabled":false,"rental_uris":{"android":"levelo://app?vid=c5e71391-bcc6-47fa-8992-befb80f0acc4","ios":"levelo://app?vid=c5e71391-bcc6-47fa-8992-befb80f0acc4"},"vehicle_type_id":"4","last_reported":1723828037,"current_range_meters":19600,"station_id":"ce4bgvp2rcd13ifvqcu0","pricing_plan_id":"cebpf4jnsgd1na2vs0mg"},{"bike_id":"c51ed28b-39fd-4171-837c-bc0a73fd5291","system_id":"levelo_inurba_marseille","lat":43.29189,"lon":5.35806,"is_reserved":false,"is_disabled":false,"rental_uris":{"android":"levelo://app?vid=c51ed28b-39fd-4171-837c-bc0a73fd5291","ios":"levelo://app?vid=c51ed28b-39fd-4171-837c-bc0a73fd5291"},"vehicle_type_id":"4","last_reported":1723828037,"current_range_meters":0,"station_id":"ce4bhb12rcd13ifvqel0","pricing_plan_id":"cebpf4jnsgd1na2vs0mg"},{"bike_id":"e7f3f4c2-0e8d-4a7c-acd1-8e1118534d96","system_id":"levelo_inurba_marseille","lat":43.313291,"lon":5.396838,"is_reserved":false,"is_disabled":false,"rental_uris":{"android":"levelo://app?vid=e7f3f4c2-0e8d-4a7c-acd1-8e1118534d96","ios":"levelo://app?vid=e7f3f4c2-0e8d-4a7c-acd1-8e1118534d96"},"vehicle_type_id":"4","last_reported":1723828037,"current_range_meters":18800,"station_id":"ce4bgvp2rcd13ifvqcu0","pricing_plan_id":"cebpf4jnsgd1na2vs0mg"},{"bike_id":"b764bdb9-86c4-42b3-8511-907ec550a42b","system_id":"levelo_inurba_marseille","lat":43.309038,"lon":5.396546,"is_reserved":false,"is_disabled":false,"rental_uris":{"android":"levelo://app?vid=b764bdb9-86c4-42b3-8511-907ec550a42b","ios":"levelo://app?vid=b764bdb9-86c4-42b3-8511-907ec550a42b"},"vehicle_type_id":"4","last_reported":1723828037,"current_range_meters":24800,"station_id":"ce4bh012rcd13ifvqcv0","pricing_plan_id":"cebpf4jnsgd1na2vs0mg"},{"bike_id":"c03a7cfb-b74f-4dd1-b552-fa39962c3621","system_id":"levelo_inurba_marseille","lat":43.31329,"lon":5.39698,"is_reserved":false,"is_disabled":false,"rental_uris":{"android":"levelo://app?vid=c03a7cfb-b74f-4dd1-b552-fa39962c3621","ios":"levelo://app?vid=c03a7cfb-b74f-4dd1-b552-fa39962c3621"},"vehicle_type_id":"4","last_reported":1723828037,"current_range_meters":0,"station_id":"ce4bgvp2rcd13ifvqcu0","pricing_plan_id":"cebpf4jnsgd1na2vs0mg"},{"bike_id":"82670a4b-3f87-4730-8327-584fb89f3195","system_id":"levelo_inurba_marseille","lat":43.309038,"lon":5.396546,"is_reserved":false,"is_disabled":false,"rental_uris":{"android":"levelo://app?vid=82670a4b-3f87-4730-8327-584fb89f3195","ios":"levelo://app?vid=82670a4b-3f87-4730-8327-584fb89f3195"},"vehicle_type_id":"4","last_reported":1723828037,"current_range_meters":11600,"station_id":"ce4bh012rcd13ifvqcv0","pricing_plan_id":"cebpf4jnsgd1na2vs0mg"},{"bike_id":"c78021ed-3a5b-48a0-9717-9af1996653cf","system_id":"levelo_inurba_marseille","lat":43.309047,"lon":5.396551,"is_reserved":false,"is_disabled":false,"rental_uris":{"android":"levelo://app?vid=c78021ed-3a5b-48a0-9717-9af1996653cf","ios":"levelo://app?vid=c78021ed-3a5b-48a0-9717-9af1996653cf"},"vehicle_type_id":"4","last_reported":1723828037,"current_range_meters":7600,"station_id":"ce4bh012rcd13ifvqcv0","pricing_plan_id":"cebpf4jnsgd1na2vs0mg"},{"bike_id":"346f4dcf-8ca4-447e-8479-eb1e89636f29","system_id":"levelo_inurba_marseille","lat":43.309038,"lon":5.396546,"is_reserved":false,"is_disabled":false,"rental_uris":{"android":"levelo://app?vid=346f4dcf-8ca4-447e-8479-eb1e89636f29","ios":"levelo://app?vid=346f4dcf-8ca4-447e-8479-eb1e89636f29"},"vehicle_type_id":"4","last_reported":1723828037,"current_range_meters":17200,"station_id":"ce4bh012rcd13ifvqcv0","pricing_plan_id":"cebpf4jnsgd1na2vs0mg"},{"bike_id":"9acc7243-5de5-4b72-b233-af6a21033e30","system_id":"levelo_inurba_marseille","lat":43.29531,"lon":5.38527,"is_reserved":false,"is_disabled":false,"rental_uris":{"android":"levelo://app?vid=9acc7243-5de5-4b72-b233-af6a21033e30","ios":"levelo://app?vid=9acc7243-5de5-4b72-b233-af6a21033e30"},"vehicle_type_id":"4","last_reported":1723828037,"current_range_meters":7200,"station_id":"ce4bgih2rcd13ifvqba0","pricing_plan_id":"cebpf4jnsgd1na2vs0mg"},{"bike_id":"077affc4-ee76-4f95-9e60-aa2548000bb2","system_id":"levelo_inurba_marseille","lat":43.29529,"lon":5.385581,"is_reserved":false,"is_disabled":false,"rental_uris":{"android":"levelo://app?vid=077affc4-ee76-4f95-9e60-aa2548000bb2","ios":"levelo://app?vid=077affc4-ee76-4f95-9e60-aa2548000bb2"},"vehicle_type_id":"4","last_reported":1723828037,"current_range_meters":22000,"station_id":"ce4bgih2rcd13ifvqba0","pricing_plan_id":"cebpf4jnsgd1na2vs0mg"},{"bike_id":"0144317c-5b27-412f-b88a-68fd348a4183","system_id":"levelo_inurba_marseille","lat":43.309038,"lon":5.396546,"is_reserved":false,"is_disabled":false,"rental_uris":{"android":"levelo://app?vid=0144317c-5b27-412f-b88a-68fd348a4183","ios":"levelo://app?vid=0144317c-5b27-412f-b88a-68fd348a4183"},"vehicle_type_id":"4","last_reported":1723828037,"current_range_meters":12800,"station_id":"ce4bh012rcd13ifvqcv0","pricing_plan_id":"cebpf4jnsgd1na2vs0mg"},{"bike_id":"ac535b22-82de-4778-8b81-9d26800b12fa","system_id":"levelo_inurba_marseille","lat":43.29529,"lon":5.385581,"is_reserved":false,"is_disabled":false,"rental_uris":{"android":"levelo://app?vid=ac535b22-82de-4778-8b81-9d26800b12fa","ios":"levelo://app?vid=ac535b22-82de-4778-8b81-9d26800b12fa"},"vehicle_type_id":"4","last_reported":1723828037,"current_range_meters":17200,"station_id":"ce4bgih2rcd13ifvqba0","pricing_plan_id":"cebpf4jnsgd1na2vs0mg"},{"bike_id":"8110adaa-26a0-4521-87bd-cb9edfb8face","system_id":"levelo_inurba_marseille","lat":43.29529,"lon":5.385581,"is_reserved":false,"is_disabled":false,"rental_uris":{"android":"levelo://app?vid=8110adaa-26a0-4521-87bd-cb9edfb8face","ios":"levelo://app?vid=8110adaa-26a0-4521-87bd-cb9edfb8face"},"vehicle_type_id":"4","last_reported":1723828037,"current_range_meters":8000,"station_id":"ce4bgih2rcd13ifvqba0","pricing_plan_id":"cebpf4jnsgd1na2vs0mg"},{"bike_id":"1341079f-3733-4968-bbb8-cfc2ef2e47a3","system_id":"levelo_inurba_marseille","lat":43.29529,"lon":5.385581,"is_reserved":false,"is_disabled":false,"rental_uris":{"android":"levelo://app?vid=1341079f-3733-4968-bbb8-cfc2ef2e47a3","ios":"levelo://app?vid=1341079f-3733-4968-bbb8-cfc2ef2e47a3"},"vehicle_type_id":"4","last_reported":1723828037,"current_range_meters":10400,"station_id":"ce4bgih2rcd13ifvqba0","pricing_plan_id":"cebpf4jnsgd1na2vs0mg"},{"bike_id":"3cd7904c-83e1-4182-b193-4a412e02e630","system_id":"levelo_inurba_marseille","lat":43.290779,"lon":5.371482,"is_reserved":false,"is_disabled":false,"rental_uris":{"android":"levelo://app?vid=3cd7904c-83e1-4182-b193-4a412e02e630","ios":"levelo://app?vid=3cd7904c-83e1-4182-b193-4a412e02e630"},"vehicle_type_id":"4","last_reported":1723828037,"current_range_meters":28000,"station_id":"ce4bh5p2rcd13ifvqe4g","pricing_plan_id":"cebpf4jnsgd1na2vs0mg"},{"bike_id":"bb94d015-9623-4785-bed6-35a09789efa2","system_id":"levelo_inurba_marseille","lat":43.290779,"lon":5.371482,"is_reserved":false,"is_disabled":false,"rental_uris":{"android":"levelo://app?vid=bb94d015-9623-4785-bed6-35a09789efa2","ios":"levelo://app?vid=bb94d015-9623-4785-bed6-35a09789efa2"},"vehicle_type_id":"4","last_reported":1723828037,"current_range_meters":5600,"station_id":"ce4bh5p2rcd13ifvqe4g","pricing_plan_id":"cebpf4jnsgd1na2vs0mg"},{"bike_id":"78d2bdde-c109-48a3-918c-fe2f4a017734","system_id":"levelo_inurba_marseille","lat":43.290624,"lon":5.359245,"is_reserved":false,"is_disabled":false,"rental_uris":{"android":"levelo://app?vid=78d2bdde-c109-48a3-918c-fe2f4a017734","ios":"levelo://app?vid=78d2bdde-c109-48a3-918c-fe2f4a017734"},"vehicle_type_id":"4","last_reported":1723828037,"current_range_meters":23200,"station_id":"ce4bha92rcd13ifvqeg0","pricing_plan_id":"cebpf4jnsgd1na2vs0mg"},{"bike_id":"df642cbc-af0d-4f70-9eab-10427f04c3d0","system_id":"levelo_inurba_marseille","lat":43.30207,"lon":5.39465,"is_reserved":false,"is_disabled":false,"rental_uris":{"android":"levelo://app?vid=df642cbc-af0d-4f70-9eab-10427f04c3d0","ios":"levelo://app?vid=df642cbc-af0d-4f70-9eab-10427f04c3d0"},"vehicle_type_id":"4","last_reported":1723828037,"current_range_meters":0,"station_id":"ce4bh0p2rcd13ifvqd70","pricing_plan_id":"cebpf4jnsgd1na2vs0mg"},{"bike_id":"c6129870-3a3c-4f65-8b68-8a74a7c7080c","system_id":"levelo_inurba_marseille","lat":43.290631,"lon":5.359244,"is_reserved":false,"is_disabled":false,"rental_uris":{"android":"levelo://app?vid=c6129870-3a3c-4f65-8b68-8a74a7c7080c","ios":"levelo://app?vid=c6129870-3a3c-4f65-8b68-8a74a7c7080c"},"vehicle_type_id":"4","last_reported":1723828037,"current_range_meters":24400,"station_id":"ce4bha92rcd13ifvqeg0","pricing_plan_id":"cebpf4jnsgd1na2vs0mg"},{"bike_id":"5e98f147-e923-44fe-a2a0-691634cb7a0a","system_id":"levelo_inurba_marseille","lat":43.290624,"lon":5.359245,"is_reserved":false,"is_disabled":false,"rental_uris":{"android":"levelo://app?vid=5e98f147-e923-44fe-a2a0-691634cb7a0a","ios":"levelo://app?vid=5e98f147-e923-44fe-a2a0-691634cb7a0a"},"vehicle_type_id":"4","last_reported":1723828037,"current_range_meters":29600,"station_id":"ce4bha92rcd13ifvqeg0","pricing_plan_id":"cebpf4jnsgd1na2vs0mg"},{"bike_id":"2e1ecf1f-224a-45cc-aa17-c81034027523","system_id":"levelo_inurba_marseille","lat":43.290453,"lon":5.359133,"is_reserved":false,"is_disabled":false,"rental_uris":{"android":"levelo://app?vid=2e1ecf1f-224a-45cc-aa17-c81034027523","ios":"levelo://app?vid=2e1ecf1f-224a-45cc-aa17-c81034027523"},"vehicle_type_id":"4","last_reported":1723828037,"current_range_meters":4400,"station_id":"ce4bha92rcd13ifvqeg0","pricing_plan_id":"cebpf4jnsgd1na2vs0mg"},{"bike_id":"046e60f6-46ca-4c1d-a89e-7f64fde034f2","system_id":"levelo_inurba_marseille","lat":43.290434,"lon":5.359147,"is_reserved":false,"is_disabled":false,"rental_uris":{"android":"levelo://app?vid=046e60f6-46ca-4c1d-a89e-7f64fde034f2","ios":"levelo://app?vid=046e60f6-46ca-4c1d-a89e-7f64fde034f2"},"vehicle_type_id":"4","last_reported":1723828037,"current_range_meters":16800,"station_id":"ce4bha92rcd13ifvqeg0","pricing_plan_id":"cebpf4jnsgd1na2vs0mg"},{"bike_id":"efa915c3-c18c-4faa-96bd-05122a7196ea","system_id":"levelo_inurba_marseille","lat":43.290686,"lon":5.357837,"is_reserved":false,"is_disabled":false,"rental_uris":{"android":"levelo://app?vid=efa915c3-c18c-4faa-96bd-05122a7196ea","ios":"levelo://app?vid=efa915c3-c18c-4faa-96bd-05122a7196ea"},"vehicle_type_id":"4","last_reported":1723828037,"current_range_meters":20400,"station_id":"","pricing_plan_id":"cebpf4jnsgd1na2vs0mg"},{"bike_id":"67c0e80a-0ea0-413b-8d60-483fea5b7727","system_id":"levelo_inurba_marseille","lat":43.289184,"lon":5.366408,"is_reserved":false,"is_disabled":false,"rental_uris":{"android":"levelo://app?vid=67c0e80a-0ea0-413b-8d60-483fea5b7727","ios":"levelo://app?vid=67c0e80a-0ea0-413b-8d60-483fea5b7727"},"vehicle_type_id":"4","last_reported":1723828037,"current_range_meters":17600,"station_id":"ce4bhap2rcd13ifvqek0","pricing_plan_id":"cebpf4jnsgd1na2vs0mg"},{"bike_id":"85d5f035-9c60-4172-b8c3-39b89e71722e","system_id":"levelo_inurba_marseille","lat":43.294153,"lon":5.386305,"is_reserved":false,"is_disabled":false,"rental_uris":{"android":"levelo://app?vid=85d5f035-9c60-4172-b8c3-39b89e71722e","ios":"levelo://app?vid=85d5f035-9c60-4172-b8c3-39b89e71722e"},"vehicle_type_id":"4","last_reported":1723828037,"current_range_meters":14800,"station_id":"ce4bh2h2rcd13ifvqdh0","pricing_plan_id":"cebpf4jnsgd1na2vs0mg"},{"bike_id":"73118b6f-ba6e-4cdb-8328-3a6e590c6fb6","system_id":"levelo_inurba_marseille","lat":43.294153,"lon":5.386305,"is_reserved":false,"is_disabled":false,"rental_uris":{"android":"levelo://app?vid=73118b6f-ba6e-4cdb-8328-3a6e590c6fb6","ios":"levelo://app?vid=73118b6f-ba6e-4cdb-8328-3a6e590c6fb6"},"vehicle_type_id":"4","last_reported":1723828037,"current_range_meters":18000,"station_id":"ce4bh2h2rcd13ifvqdh0","pricing_plan_id":"cebpf4jnsgd1na2vs0mg"},{"bike_id":"f2bb243b-d62b-43bd-bb11-3b03a7738b65","system_id":"levelo_inurba_marseille","lat":43.294162,"lon":5.386292,"is_reserved":false,"is_disabled":false,"rental_uris":{"android":"levelo://app?vid=f2bb243b-d62b-43bd-bb11-3b03a7738b65","ios":"levelo://app?vid=f2bb243b-d62b-43bd-bb11-3b03a7738b65"},"vehicle_type_id":"4","last_reported":1723828037,"current_range_meters":14800,"station_id":"ce4bh2h2rcd13ifvqdh0","pricing_plan_id":"cebpf4jnsgd1na2vs0mg"},{"bike_id":"a4822a62-9f03-4366-abac-0c99918225d2","system_id":"levelo_inurba_marseille","lat":43.289184,"lon":5.366408,"is_reserved":false,"is_disabled":false,"rental_uris":{"android":"levelo://app?vid=a4822a62-9f03-4366-abac-0c99918225d2","ios":"levelo://app?vid=a4822a62-9f03-4366-abac-0c99918225d2"},"vehicle_type_id":"4","last_reported":1723828037,"current_range_meters":14400,"station_id":"ce4bhap2rcd13ifvqek0","pricing_plan_id":"cebpf4jnsgd1na2vs0mg"},{"bike_id":"29d16e81-aee1-47b4-aebc-5625573f1940","system_id":"levelo_inurba_marseille","lat":43.294153,"lon":5.386305,"is_reserved":false,"is_disabled":false,"rental_uris":{"android":"levelo://app?vid=29d16e81-aee1-47b4-aebc-5625573f1940","ios":"levelo://app?vid=29d16e81-aee1-47b4-aebc-5625573f1940"},"vehicle_type_id":"4","last_reported":1723828037,"current_range_meters":8000,"station_id":"ce4bh2h2rcd13ifvqdh0","pricing_plan_id":"cebpf4jnsgd1na2vs0mg"},{"bike_id":"f1dd9620-b064-4d4f-b0a6-0bf0ccc9e32a","system_id":"levelo_inurba_marseille","lat":43.294162,"lon":5.386292,"is_reserved":false,"is_disabled":false,"rental_uris":{"android":"levelo://app?vid=f1dd9620-b064-4d4f-b0a6-0bf0ccc9e32a","ios":"levelo://app?vid=f1dd9620-b064-4d4f-b0a6-0bf0ccc9e32a"},"vehicle_type_id":"4","last_reported":1723828037,"current_range_meters":9600,"station_id":"ce4bh2h2rcd13ifvqdh0","pricing_plan_id":"cebpf4jnsgd1na2vs0mg"},{"bike_id":"3e7c3db2-002a-480d-8ac8-9d830e5f4edc","system_id":"levelo_inurba_marseille","lat":43.294153,"lon":5.386305,"is_reserved":false,"is_disabled":false,"rental_uris":{"android":"levelo://app?vid=3e7c3db2-002a-480d-8ac8-9d830e5f4edc","ios":"levelo://app?vid=3e7c3db2-002a-480d-8ac8-9d830e5f4edc"},"vehicle_type_id":"4","last_reported":1723828037,"current_range_meters":4800,"station_id":"ce4bh2h2rcd13ifvqdh0","pricing_plan_id":"cebpf4jnsgd1na2vs0mg"},{"bike_id":"a7ba9b6e-5b59-4fdc-8d45-33e1d40b347b","system_id":"levelo_inurba_marseille","lat":43.294162,"lon":5.386292,"is_reserved":false,"is_disabled":false,"rental_uris":{"android":"levelo://app?vid=a7ba9b6e-5b59-4fdc-8d45-33e1d40b347b","ios":"levelo://app?vid=a7ba9b6e-5b59-4fdc-8d45-33e1d40b347b"},"vehicle_type_id":"4","last_reported":1723828037,"current_range_meters":8800,"station_id":"ce4bh2h2rcd13ifvqdh0","pricing_plan_id":"cebpf4jnsgd1na2vs0mg"},{"bike_id":"50088453-ef7e-4d30-a845-6fbabbeaa751","system_id":"levelo_inurba_marseille","lat":43.294162,"lon":5.386292,"is_reserved":false,"is_disabled":false,"rental_uris":{"android":"levelo://app?vid=50088453-ef7e-4d30-a845-6fbabbeaa751","ios":"levelo://app?vid=50088453-ef7e-4d30-a845-6fbabbeaa751"},"vehicle_type_id":"4","last_reported":1723828037,"current_range_meters":20000,"station_id":"ce4bh2h2rcd13ifvqdh0","pricing_plan_id":"cebpf4jnsgd1na2vs0mg"},{"bike_id":"7e8efeac-e217-44f0-aa07-5191a0f41b09","system_id":"levelo_inurba_marseille","lat":43.294162,"lon":5.386292,"is_reserved":false,"is_disabled":false,"rental_uris":{"android":"levelo://app?vid=7e8efeac-e217-44f0-aa07-5191a0f41b09","ios":"levelo://app?vid=7e8efeac-e217-44f0-aa07-5191a0f41b09"},"vehicle_type_id":"4","last_reported":1723828037,"current_range_meters":0,"station_id":"ce4bh2h2rcd13ifvqdh0","pricing_plan_id":"cebpf4jnsgd1na2vs0mg"},{"bike_id":"bf6e59ee-c808-4d6a-a521-7d2992811575","system_id":"levelo_inurba_marseille","lat":43.290327,"lon":5.375711,"is_reserved":false,"is_disabled":false,"rental_uris":{"android":"levelo://app?vid=bf6e59ee-c808-4d6a-a521-7d2992811575","ios":"levelo://app?vid=bf6e59ee-c808-4d6a-a521-7d2992811575"},"vehicle_type_id":"4","last_reported":1723828037,"current_range_meters":28000,"station_id":"ce4bh692rcd13ifvqe90","pricing_plan_id":"cebpf4jnsgd1na2vs0mg"},{"bike_id":"79d1337b-dc13-45cb-92c2-06a52a037eaa","system_id":"levelo_inurba_marseille","lat":43.294162,"lon":5.386292,"is_reserved":false,"is_disabled":false,"rental_uris":{"android":"levelo://app?vid=79d1337b-dc13-45cb-92c2-06a52a037eaa","ios":"levelo://app?vid=79d1337b-dc13-45cb-92c2-06a52a037eaa"},"vehicle_type_id":"4","last_reported":1723828037,"current_range_meters":27200,"station_id":"ce4bh2h2rcd13ifvqdh0","pricing_plan_id":"cebpf4jnsgd1na2vs0mg"},{"bike_id":"e9f58f31-9cff-4f6c-8d94-a5b0e17c6ce2","system_id":"levelo_inurba_marseille","lat":43.294153,"lon":5.386305,"is_reserved":false,"is_disabled":false,"rental_uris":{"android":"levelo://app?vid=e9f58f31-9cff-4f6c-8d94-a5b0e17c6ce2","ios":"levelo://app?vid=e9f58f31-9cff-4f6c-8d94-a5b0e17c6ce2"},"vehicle_type_id":"4","last_reported":1723828037,"current_range_meters":9200,"station_id":"ce4bh2h2rcd13ifvqdh0","pricing_plan_id":"cebpf4jnsgd1na2vs0mg"},{"bike_id":"141a8fe8-c669-481d-ab15-fe077fbcaa27","system_id":"levelo_inurba_marseille","lat":43.294162,"lon":5.386292,"is_reserved":false,"is_disabled":false,"rental_uris":{"android":"levelo://app?vid=141a8fe8-c669-481d-ab15-fe077fbcaa27","ios":"levelo://app?vid=141a8fe8-c669-481d-ab15-fe077fbcaa27"},"vehicle_type_id":"4","last_reported":1723828037,"current_range_meters":29200,"station_id":"ce4bh2h2rcd13ifvqdh0","pricing_plan_id":"cebpf4jnsgd1na2vs0mg"},{"bike_id":"9872a721-334c-456a-9aac-16685a80a57d","system_id":"levelo_inurba_marseille","lat":43.289184,"lon":5.366408,"is_reserved":false,"is_disabled":false,"rental_uris":{"android":"levelo://app?vid=9872a721-334c-456a-9aac-16685a80a57d","ios":"levelo://app?vid=9872a721-334c-456a-9aac-16685a80a57d"},"vehicle_type_id":"4","last_reported":1723828037,"current_range_meters":7600,"station_id":"ce4bhap2rcd13ifvqek0","pricing_plan_id":"cebpf4jnsgd1na2vs0mg"},{"bike_id":"d19ce654-5e30-446b-89a9-4332dec1d668","system_id":"levelo_inurba_marseille","lat":43.294162,"lon":5.386292,"is_reserved":false,"is_disabled":false,"rental_uris":{"android":"levelo://app?vid=d19ce654-5e30-446b-89a9-4332dec1d668","ios":"levelo://app?vid=d19ce654-5e30-446b-89a9-4332dec1d668"},