{"last_updated":1746612715,"ttl":60,"version":"2.2","data":{"bikes":[{"bike_id":"1ff0b162-3a63-4862-bd8b-e109f4673f38","system_id":"levelo_inurba_marseille","lat":43.337691,"lon":5.374698,"is_reserved":false,"is_disabled":true,"rental_uris":{"android":"levelo://app?vid=1ff0b162-3a63-4862-bd8b-e109f4673f38","ios":"levelo://app?vid=1ff0b162-3a63-4862-bd8b-e109f4673f38"},"vehicle_type_id":"4","last_reported":1746612715,"current_range_meters":0,"station_id":"","pricing_plan_id":"cebpf4jnsgd1na2vs0mg"},{"bike_id":"545631c8-05b7-4070-95e3-52dc096addb5","system_id":"levelo_inurba_marseille","lat":43.27207,"lon":5.36468,"is_reserved":false,"is_disabled":true,"rental_uris":{"android":"levelo://app?vid=545631c8-05b7-4070-95e3-52dc096addb5","ios":"levelo://app?vid=545631c8-05b7-4070-95e3-52dc096addb5"},"vehicle_type_id":"4","last_reported":1746612715,"current_range_meters":0,"station_id":"","pricing_plan_id":"cebpf4jnsgd1na2vs0mg"},{"bike_id":"66b646b3-6352-44bb-9bfb-21570512e3e5","system_id":"levelo_inurba_marseille","lat":43.281215,"lon":5.404103,"is_reserved":false,"is_disabled":true,"rental_uris":{"android":"levelo://app?vid=66b646b3-6352-44bb-9bfb-21570512e3e5","ios":"levelo://app?vid=66b646b3-6352-44bb-9bfb-21570512e3e5"},"vehicle_type_id":"4","last_reported":1746612715,"current_range_meters":0,"station_id":"","pricing_plan_id":"cebpf4jnsgd1na2vs0mg"},{"bike_id":"b56eeeb9-9ded-4dd2-9efa-c8d4f8a5e387","system_id":"levelo_inurba_marseille","lat":43.27363,"lon":5.42208,"is_reserved":false,"is_disabled":true,"rental_uris":{"android":"levelo://app?vid=b56eeeb9-9ded-4dd2-9efa-c8d4f8a5e387","ios":"levelo://app?vid=b56eeeb9-9ded-4dd2-9efa-c8d4f8a5e387"},"vehicle_type_id":"4","last_reported":1746612715,"current_range_meters":0,"station_id":"","pricing_plan_id":"cebpf4jnsgd1na2vs0mg"},{"bike_id":"88c3c6c1-a33a-48ed-b2a4-48c16332184c","system_id":"levelo_inurba_marseille","lat":43.27939,"lon":5.37411,"is_reserved":false,"is_disabled":true,"rental_uris":{"android":"levelo://app?vid=88c3c6c1-a33a-48ed-b2a4-48c16332184c","ios":"levelo://app?vid=88c3c6c1-a33a-48ed-b2a4-48c16332184c"},"vehicle_type_id":"4","last_reported":1746612715,"current_range_meters":0,"station_id":"","pricing_plan_id":"cebpf4jnsgd1na2vs0mg"},{"bike_id":"2d251c8d-e9d0-476f-8622-cb88831f30c3","system_id":"levelo_inurba_marseille","lat":43.27002,"lon":5.38793,"is_reserved":false,"is_disabled":true,"rental_uris":{"android":"levelo://app?vid=2d251c8d-e9d0-476f-8622-cb88831f30c3","ios":"levelo://app?vid=2d251c8d-e9d0-476f-8622-cb88831f30c3"},"vehicle_type_id":"4","last_reported":1746612715,"current_range_meters":0,"station_id":"","pricing_plan_id":"cebpf4jnsgd1na2vs0mg"},{"bike_id":"7bec4825-29e9-489d-a874-9d8aa98e3cae","system_id":"levelo_inurba_marseille","lat":43.29712,"lon":5.36608,"is_reserved":false,"is_disabled":true,"rental_uris":{"android":"levelo://app?vid=7bec4825-29e9-489d-a874-9d8aa98e3cae","ios":"levelo://app?vid=7bec4825-29e9-489d-a874-9d8aa98e3cae"},"vehicle_type_id":"4","last_reported":1746612715,"current_range_meters":0,"station_id":"ce4bgn12rcd13ifvqbt0","pricing_plan_id":"cebpf4jnsgd1na2vs0mg"},{"bike_id":"7de83f95-aad7-4ead-96c1-723c7e365f46","system_id":"levelo_inurba_marseille","lat":43.259,"lon":5.40882,"is_reserved":false,"is_disabled":true,"rental_uris":{"android":"levelo://app?vid=7de83f95-aad7-4ead-96c1-723c7e365f46","ios":"levelo://app?vid=7de83f95-aad7-4ead-96c1-723c7e365f46"},"vehicle_type_id":"4","last_reported":1746612715,"current_range_meters":0,"station_id":"ce4bhm92rcd13ifvqglg","pricing_plan_id":"cebpf4jnsgd1na2vs0mg"},{"bike_id":"f9b25e78-d719-4308-8cdc-5f33ccc40d88","system_id":"levelo_inurba_marseille","lat":43.27066,"lon":5.42279,"is_reserved":false,"is_disabled":true,"rental_uris":{"android":"levelo://app?vid=f9b25e78-d719-4308-8cdc-5f33ccc40d88","ios":"levelo://app?vid=f9b25e78-d719-4308-8cdc-5f33ccc40d88"},"vehicle_type_id":"4","last_reported":1746612715,"current_range_meters":400,"station_id":"ce4bhk92rcd13ifvqgb0","pricing_plan_id":"cebpf4jnsgd1na2vs0mg"},{"bike_id":"98cf5e39-7de5-4a22-ba79-5c02c758e7dc","system_id":"levelo_inurba_marseille","lat":43.27506,"lon":5.42444,"is_reserved":false,"is_disabled":true,"rental_uris":{"android":"levelo://app?vid=98cf5e39-7de5-4a22-ba79-5c02c758e7dc","ios":"levelo://app?vid=98cf5e39-7de5-4a22-ba79-5c02c758e7dc"},"vehicle_type_id":"4","last_reported":1746612715,"current_range_meters":400,"station_id":"ce4bhn92rcd13ifvqgrg","pricing_plan_id":"cebpf4jnsgd1na2vs0mg"},{"bike_id":"07279b5f-51d6-4d72-8baa-03cbedf122cb","system_id":"levelo_inurba_marseille","lat":43.231506,"lon":5.437155,"is_reserved":false,"is_disabled":true,"rental_uris":{"android":"levelo://app?vid=07279b5f-51d6-4d72-8baa-03cbedf122cb","ios":"levelo://app?vid=07279b5f-51d6-4d72-8baa-03cbedf122cb"},"vehicle_type_id":"4","last_reported":1746612715,"current_range_meters":800,"station_id":"ce4bhmp2rcd13ifvqgog","pricing_plan_id":"cebpf4jnsgd1na2vs0mg"},{"bike_id":"0f2ab741-0cae-43bb-b4b1-5f2b8cf6e88e","system_id":"levelo_inurba_marseille","lat":43.297791,"lon":5.393344,"is_reserved":false,"is_disabled":true,"rental_uris":{"android":"levelo://app?vid=0f2ab741-0cae-43bb-b4b1-5f2b8cf6e88e","ios":"levelo://app?vid=0f2ab741-0cae-43bb-b4b1-5f2b8cf6e88e"},"vehicle_type_id":"4","last_reported":1746612715,"current_range_meters":800,"station_id":"chh1huq6cuj3fo74tm60","pricing_plan_id":"cebpf4jnsgd1na2vs0mg"},{"bike_id":"9afdaa32-5437-40bb-b5dc-0e42f55a33ee","system_id":"levelo_inurba_marseille","lat":43.25411,"lon":5.41852,"is_reserved":false,"is_disabled":true,"rental_uris":{"android":"levelo://app?vid=9afdaa32-5437-40bb-b5dc-0e42f55a33ee","ios":"levelo://app?vid=9afdaa32-5437-40bb-b5dc-0e42f55a33ee"},"vehicle_type_id":"4","last_reported":1746612715,"current_range_meters":1200,"station_id":"","pricing_plan_id":"cebpf4jnsgd1na2vs0mg"},{"bike_id":"4d1339ae-19f8-43fc-b6b8-80dba0ae94e3","system_id":"levelo_inurba_marseille","lat":43.29385,"lon":5.382349,"is_reserved":false,"is_disabled":true,"rental_uris":{"android":"levelo://app?vid=4d1339ae-19f8-43fc-b6b8-80dba0ae94e3","ios":"levelo://app?vid=4d1339ae-19f8-43fc-b6b8-80dba0ae94e3"},"vehicle_type_id":"4","last_reported":1746612715,"current_range_meters":1200,"station_id":"ce4bgl12rcd13ifvqbo0","pricing_plan_id":"cebpf4jnsgd1na2vs0mg"},{"bike_id":"1f563d19-c9b5-426b-bb29-d8dbd2aa4133","system_id":"levelo_inurba_marseille","lat":43.336059,"lon":5.410355,"is_reserved":false,"is_disabled":true,"rental_uris":{"android":"levelo://app?vid=1f563d19-c9b5-426b-bb29-d8dbd2aa4133","ios":"levelo://app?vid=1f563d19-c9b5-426b-bb29-d8dbd2aa4133"},"vehicle_type_id":"4","last_reported":1746612715,"current_range_meters":1600,"station_id":"ce4bhqh2rcd13ifvqhmg","pricing_plan_id":"cebpf4jnsgd1na2vs0mg"},{"bike_id":"a38c2d49-7988-4ef8-83e8-42a2504085da","system_id":"levelo_inurba_marseille","lat":43.24552,"lon":5.41191,"is_reserved":false,"is_disabled":true,"rental_uris":{"android":"levelo://app?vid=a38c2d49-7988-4ef8-83e8-42a2504085da","ios":"levelo://app?vid=a38c2d49-7988-4ef8-83e8-42a2504085da"},"vehicle_type_id":"4","last_reported":1746612715,"current_range_meters":2000,"station_id":"","pricing_plan_id":"cebpf4jnsgd1na2vs0mg"},{"bike_id":"83cc1842-773c-46bc-8be1-caa63d83c3c2","system_id":"levelo_inurba_marseille","lat":43.25877,"lon":5.39531,"is_reserved":false,"is_disabled":true,"rental_uris":{"android":"levelo://app?vid=83cc1842-773c-46bc-8be1-caa63d83c3c2","ios":"levelo://app?vid=83cc1842-773c-46bc-8be1-caa63d83c3c2"},"vehicle_type_id":"4","last_reported":1746612715,"current_range_meters":2000,"station_id":"","pricing_plan_id":"cebpf4jnsgd1na2vs0mg"},{"bike_id":"1c171d4c-514a-4c08-8ea1-016e6ff17a0b","system_id":"levelo_inurba_marseille","lat":43.32534,"lon":5.41431,"is_reserved":false,"is_disabled":true,"rental_uris":{"android":"levelo://app?vid=1c171d4c-514a-4c08-8ea1-016e6ff17a0b","ios":"levelo://app?vid=1c171d4c-514a-4c08-8ea1-016e6ff17a0b"},"vehicle_type_id":"4","last_reported":1746612715,"current_range_meters":2000,"station_id":"ce4bhq12rcd13ifvqhhg","pricing_plan_id":"cebpf4jnsgd1na2vs0mg"},{"bike_id":"0662a96e-3c05-4097-a86c-05029ef66813","system_id":"levelo_inurba_marseille","lat":43.29173,"lon":5.37155,"is_reserved":false,"is_disabled":false,"rental_uris":{"android":"levelo://app?vid=0662a96e-3c05-4097-a86c-05029ef66813","ios":"levelo://app?vid=0662a96e-3c05-4097-a86c-05029ef66813"},"vehicle_type_id":"4","last_reported":1746612715,"current_range_meters":4000,"station_id":"ce4bha92rcd13ifvqeh0","pricing_plan_id":"cebpf4jnsgd1na2vs0mg"},{"bike_id":"57c8addf-f7fc-4b94-a755-1dc5336ae390","system_id":"levelo_inurba_marseille","lat":43.30612,"lon":5.37222,"is_reserved":false,"is_disabled":false,"rental_uris":{"android":"levelo://app?vid=57c8addf-f7fc-4b94-a755-1dc5336ae390","ios":"levelo://app?vid=57c8addf-f7fc-4b94-a755-1dc5336ae390"},"vehicle_type_id":"4","last_reported":1746612715,"current_range_meters":4400,"station_id":"ce4bgqh2rcd13ifvqc4g","pricing_plan_id":"cebpf4jnsgd1na2vs0mg"},{"bike_id":"2eb32346-9599-449a-98c8-ce4ee301ed76","system_id":"levelo_inurba_marseille","lat":43.29073,"lon":5.3717,"is_reserved":false,"is_disabled":false,"rental_uris":{"android":"levelo://app?vid=2eb32346-9599-449a-98c8-ce4ee301ed76","ios":"levelo://app?vid=2eb32346-9599-449a-98c8-ce4ee301ed76"},"vehicle_type_id":"4","last_reported":1746612715,"current_range_meters":4400,"station_id":"ce4bh5p2rcd13ifvqe4g","pricing_plan_id":"cebpf4jnsgd1na2vs0mg"},{"bike_id":"0e20adfd-0e5f-44f4-ba58-ce29098810aa","system_id":"levelo_inurba_marseille","lat":43.29007,"lon":5.35609,"is_reserved":false,"is_disabled":false,"rental_uris":{"android":"levelo://app?vid=0e20adfd-0e5f-44f4-ba58-ce29098810aa","ios":"levelo://app?vid=0e20adfd-0e5f-44f4-ba58-ce29098810aa"},"vehicle_type_id":"4","last_reported":1746612715,"current_range_meters":4400,"station_id":"ce4bhb92rcd13ifvqen0","pricing_plan_id":"cebpf4jnsgd1na2vs0mg"},{"bike_id":"9d8f73eb-df09-4699-86a7-d631e2319093","system_id":"levelo_inurba_marseille","lat":43.2626,"lon":5.37417,"is_reserved":false,"is_disabled":false,"rental_uris":{"android":"levelo://app?vid=9d8f73eb-df09-4699-86a7-d631e2319093","ios":"levelo://app?vid=9d8f73eb-df09-4699-86a7-d631e2319093"},"vehicle_type_id":"4","last_reported":1746612715,"current_range_meters":5600,"station_id":"","pricing_plan_id":"cebpf4jnsgd1na2vs0mg"},{"bike_id":"bbaea77f-2ee7-4d07-a532-b8d58f36da74","system_id":"levelo_inurba_marseille","lat":43.29572,"lon":5.37522,"is_reserved":false,"is_disabled":false,"rental_uris":{"android":"levelo://app?vid=bbaea77f-2ee7-4d07-a532-b8d58f36da74","ios":"levelo://app?vid=bbaea77f-2ee7-4d07-a532-b8d58f36da74"},"vehicle_type_id":"4","last_reported":1746612715,"current_range_meters":5600,"station_id":"ce4bgh92rcd13ifvqb50","pricing_plan_id":"cebpf4jnsgd1na2vs0mg"},{"bike_id":"00f22954-95c0-46d1-b8c9-72cbbd1e1259","system_id":"levelo_inurba_marseille","lat":43.24547,"lon":5.3953,"is_reserved":false,"is_disabled":true,"rental_uris":{"android":"levelo://app?vid=00f22954-95c0-46d1-b8c9-72cbbd1e1259","ios":"levelo://app?vid=00f22954-95c0-46d1-b8c9-72cbbd1e1259"},"vehicle_type_id":"4","last_reported":1746612715,"current_range_meters":5600,"station_id":"ce4bhlp2rcd13ifvqgjg","pricing_plan_id":"cebpf4jnsgd1na2vs0mg"},{"bike_id":"59aa4fb2-8e6e-49ed-aa8f-b86f1f0ca619","system_id":"levelo_inurba_marseille","lat":43.23147,"lon":5.43704,"is_reserved":false,"is_disabled":false,"rental_uris":{"android":"levelo://app?vid=59aa4fb2-8e6e-49ed-aa8f-b86f1f0ca619","ios":"levelo://app?vid=59aa4fb2-8e6e-49ed-aa8f-b86f1f0ca619"},"vehicle_type_id":"4","last_reported":1746612715,"current_range_meters":5600,"station_id":"ce4bhmp2rcd13ifvqgog","pricing_plan_id":"cebpf4jnsgd1na2vs0mg"},{"bike_id":"716be4e6-8897-47ed-9d82-c4587a36b7c1","system_id":"levelo_inurba_marseille","lat":43.29275,"lon":5.37617,"is_reserved":false,"is_disabled":false,"rental_uris":{"android":"levelo://app?vid=716be4e6-8897-47ed-9d82-c4587a36b7c1","ios":"levelo://app?vid=716be4e6-8897-47ed-9d82-c4587a36b7c1"},"vehicle_type_id":"4","last_reported":1746612715,"current_range_meters":6000,"station_id":"ce4bgi12rcd13ifvqb80","pricing_plan_id":"cebpf4jnsgd1na2vs0mg"},{"bike_id":"00cee77f-50b5-4824-97d1-e304f7be2636","system_id":"levelo_inurba_marseille","lat":43.246489,"lon":5.388926,"is_reserved":false,"is_disabled":false,"rental_uris":{"android":"levelo://app?vid=00cee77f-50b5-4824-97d1-e304f7be2636","ios":"levelo://app?vid=00cee77f-50b5-4824-97d1-e304f7be2636"},"vehicle_type_id":"4","last_reported":1746612715,"current_range_meters":6400,"station_id":"","pricing_plan_id":"cebpf4jnsgd1na2vs0mg"},{"bike_id":"7735f831-86a3-46b0-8e7b-1ab594c8e639","system_id":"levelo_inurba_marseille","lat":43.25928,"lon":5.40843,"is_reserved":false,"is_disabled":false,"rental_uris":{"android":"levelo://app?vid=7735f831-86a3-46b0-8e7b-1ab594c8e639","ios":"levelo://app?vid=7735f831-86a3-46b0-8e7b-1ab594c8e639"},"vehicle_type_id":"4","last_reported":1746612715,"current_range_meters":6400,"station_id":"ce4bhm92rcd13ifvqglg","pricing_plan_id":"cebpf4jnsgd1na2vs0mg"},{"bike_id":"5bb7e41e-3f33-4c47-a08f-c83f8c72d2e7","system_id":"levelo_inurba_marseille","lat":43.27491,"lon":5.42453,"is_reserved":false,"is_disabled":false,"rental_uris":{"android":"levelo://app?vid=5bb7e41e-3f33-4c47-a08f-c83f8c72d2e7","ios":"levelo://app?vid=5bb7e41e-3f33-4c47-a08f-c83f8c72d2e7"},"vehicle_type_id":"4","last_reported":1746612715,"current_range_meters":6400,"station_id":"ce4bhn92rcd13ifvqgrg","pricing_plan_id":"cebpf4jnsgd1na2vs0mg"},{"bike_id":"099c0da2-7d68-4ff6-a775-50bcbfeab94e","system_id":"levelo_inurba_marseille","lat":43.33594,"lon":5.41002,"is_reserved":false,"is_disabled":false,"rental_uris":{"android":"levelo://app?vid=099c0da2-7d68-4ff6-a775-50bcbfeab94e","ios":"levelo://app?vid=099c0da2-7d68-4ff6-a775-50bcbfeab94e"},"vehicle_type_id":"4","last_reported":1746612715,"current_range_meters":6400,"station_id":"ce4bhqh2rcd13ifvqhmg","pricing_plan_id":"cebpf4jnsgd1na2vs0mg"},{"bike_id":"c2fff035-6128-402a-b38b-ebc94261b3d8","system_id":"levelo_inurba_marseille","lat":43.21229,"lon":5.35089,"is_reserved":false,"is_disabled":false,"rental_uris":{"android":"levelo://app?vid=c2fff035-6128-402a-b38b-ebc94261b3d8","ios":"levelo://app?vid=c2fff035-6128-402a-b38b-ebc94261b3d8"},"vehicle_type_id":"4","last_reported":1746612715,"current_range_meters":6800,"station_id":"","pricing_plan_id":"cebpf4jnsgd1na2vs0mg"},{"bike_id":"c0faf23e-81a7-4ca3-895d-283152fd6265","system_id":"levelo_inurba_marseille","lat":43.29587,"lon":5.39605,"is_reserved":false,"is_disabled":false,"rental_uris":{"android":"levelo://app?vid=c0faf23e-81a7-4ca3-895d-283152fd6265","ios":"levelo://app?vid=c0faf23e-81a7-4ca3-895d-283152fd6265"},"vehicle_type_id":"4","last_reported":1746612715,"current_range_meters":6800,"station_id":"","pricing_plan_id":"cebpf4jnsgd1na2vs0mg"},{"bike_id":"3e9abd31-89f7-4c2a-a114-fb5f3a915978","system_id":"levelo_inurba_marseille","lat":43.29265,"lon":5.37615,"is_reserved":false,"is_disabled":false,"rental_uris":{"android":"levelo://app?vid=3e9abd31-89f7-4c2a-a114-fb5f3a915978","ios":"levelo://app?vid=3e9abd31-89f7-4c2a-a114-fb5f3a915978"},"vehicle_type_id":"4","last_reported":1746612715,"current_range_meters":6800,"station_id":"ce4bgi12rcd13ifvqb80","pricing_plan_id":"cebpf4jnsgd1na2vs0mg"},{"bike_id":"22481273-018f-4728-94a3-82ca74a45a66","system_id":"levelo_inurba_marseille","lat":43.30598,"lon":5.39365,"is_reserved":false,"is_disabled":false,"rental_uris":{"android":"levelo://app?vid=22481273-018f-4728-94a3-82ca74a45a66","ios":"levelo://app?vid=22481273-018f-4728-94a3-82ca74a45a66"},"vehicle_type_id":"4","last_reported":1746612715,"current_range_meters":6800,"station_id":"ce4bh0p2rcd13ifvqd80","pricing_plan_id":"cebpf4jnsgd1na2vs0mg"},{"bike_id":"dc14f7a4-5db2-4669-bcf2-e93e80b84632","system_id":"levelo_inurba_marseille","lat":43.26234,"lon":5.4046,"is_reserved":false,"is_disabled":false,"rental_uris":{"android":"levelo://app?vid=dc14f7a4-5db2-4669-bcf2-e93e80b84632","ios":"levelo://app?vid=dc14f7a4-5db2-4669-bcf2-e93e80b84632"},"vehicle_type_id":"4","last_reported":1746612715,"current_range_meters":6800,"station_id":"ce4bhmh2rcd13ifvqgmg","pricing_plan_id":"cebpf4jnsgd1na2vs0mg"},{"bike_id":"503569af-07db-461f-918e-29f89d0c1c24","system_id":"levelo_inurba_marseille","lat":43.22464,"lon":5.34758,"is_reserved":false,"is_disabled":false,"rental_uris":{"android":"levelo://app?vid=503569af-07db-461f-918e-29f89d0c1c24","ios":"levelo://app?vid=503569af-07db-461f-918e-29f89d0c1c24"},"vehicle_type_id":"4","last_reported":1746612715,"current_range_meters":6800,"station_id":"st_cvj5dfep6f1abm77gieg","pricing_plan_id":"cebpf4jnsgd1na2vs0mg"},{"bike_id":"c9592205-9409-4f74-aed1-7c4141a58caa","system_id":"levelo_inurba_marseille","lat":43.27137,"lon":5.36362,"is_reserved":false,"is_disabled":false,"rental_uris":{"android":"levelo://app?vid=c9592205-9409-4f74-aed1-7c4141a58caa","ios":"levelo://app?vid=c9592205-9409-4f74-aed1-7c4141a58caa"},"vehicle_type_id":"4","last_reported":1746612715,"current_range_meters":7200,"station_id":"","pricing_plan_id":"cebpf4jnsgd1na2vs0mg"},{"bike_id":"ca6a0d1e-40d3-4dc2-b584-6aaab9ad3b00","system_id":"levelo_inurba_marseille","lat":43.2621,"lon":5.37441,"is_reserved":false,"is_disabled":false,"rental_uris":{"android":"levelo://app?vid=ca6a0d1e-40d3-4dc2-b584-6aaab9ad3b00","ios":"levelo://app?vid=ca6a0d1e-40d3-4dc2-b584-6aaab9ad3b00"},"vehicle_type_id":"4","last_reported":1746612715,"current_range_meters":7200,"station_id":"ce4bhgp2rcd13ifvqfc0","pricing_plan_id":"cebpf4jnsgd1na2vs0mg"},{"bike_id":"b4bac287-3615-423a-bca2-a11fb80cb066","system_id":"levelo_inurba_marseille","lat":43.23058,"lon":5.35485,"is_reserved":false,"is_disabled":false,"rental_uris":{"android":"levelo://app?vid=b4bac287-3615-423a-bca2-a11fb80cb066","ios":"levelo://app?vid=b4bac287-3615-423a-bca2-a11fb80cb066"},"vehicle_type_id":"4","last_reported":1746612715,"current_range_meters":7200,"station_id":"cpo3342slgdg3j2ifvpg","pricing_plan_id":"cebpf4jnsgd1na2vs0mg"},{"bike_id":"4ee8dd85-a161-4076-956a-2a316c76f32d","system_id":"levelo_inurba_marseille","lat":43.31223,"lon":5.3687,"is_reserved":false,"is_disabled":false,"rental_uris":{"android":"levelo://app?vid=4ee8dd85-a161-4076-956a-2a316c76f32d","ios":"levelo://app?vid=4ee8dd85-a161-4076-956a-2a316c76f32d"},"vehicle_type_id":"4","last_reported":1746612715,"current_range_meters":8000,"station_id":"ce4bgl92rcd13ifvqbq0","pricing_plan_id":"cebpf4jnsgd1na2vs0mg"},{"bike_id":"617e28ad-6d1b-4800-a3c2-f25c312f27f2","system_id":"levelo_inurba_marseille","lat":43.26214,"lon":5.37437,"is_reserved":false,"is_disabled":false,"rental_uris":{"android":"levelo://app?vid=617e28ad-6d1b-4800-a3c2-f25c312f27f2","ios":"levelo://app?vid=617e28ad-6d1b-4800-a3c2-f25c312f27f2"},"vehicle_type_id":"4","last_reported":1746612715,"current_range_meters":8000,"station_id":"ce4bhgp2rcd13ifvqfc0","pricing_plan_id":"cebpf4jnsgd1na2vs0mg"},{"bike_id":"fd00d248-c27c-47cd-a3e2-42b1c7d0d8a9","system_id":"levelo_inurba_marseille","lat":43.23196,"lon":5.35555,"is_reserved":false,"is_disabled":false,"rental_uris":{"android":"levelo://app?vid=fd00d248-c27c-47cd-a3e2-42b1c7d0d8a9","ios":"levelo://app?vid=fd00d248-c27c-47cd-a3e2-42b1c7d0d8a9"},"vehicle_type_id":"4","last_reported":1746612715,"current_range_meters":8000,"station_id":"ce4bhu92rcd13ifvqi70","pricing_plan_id":"cebpf4jnsgd1na2vs0mg"},{"bike_id":"943d0601-5d73-468b-922c-7ef604961a21","system_id":"levelo_inurba_marseille","lat":43.212,"lon":5.35068,"is_reserved":false,"is_disabled":false,"rental_uris":{"android":"levelo://app?vid=943d0601-5d73-468b-922c-7ef604961a21","ios":"levelo://app?vid=943d0601-5d73-468b-922c-7ef604961a21"},"vehicle_type_id":"4","last_reported":1746612715,"current_range_meters":8000,"station_id":"st_cvj6sg6p6f1abm77japg","pricing_plan_id":"cebpf4jnsgd1na2vs0mg"},{"bike_id":"3185f3bd-afcb-40f2-94a4-747557095a72","system_id":"levelo_inurba_marseille","lat":43.30578,"lon":5.36683,"is_reserved":false,"is_disabled":false,"rental_uris":{"android":"levelo://app?vid=3185f3bd-afcb-40f2-94a4-747557095a72","ios":"levelo://app?vid=3185f3bd-afcb-40f2-94a4-747557095a72"},"vehicle_type_id":"4","last_reported":1746612715,"current_range_meters":8400,"station_id":"","pricing_plan_id":"cebpf4jnsgd1na2vs0mg"},{"bike_id":"eb5d602e-a3ab-4f37-972a-9b57ce940f3b","system_id":"levelo_inurba_marseille","lat":43.31339,"lon":5.36667,"is_reserved":false,"is_disabled":false,"rental_uris":{"android":"levelo://app?vid=eb5d602e-a3ab-4f37-972a-9b57ce940f3b","ios":"levelo://app?vid=eb5d602e-a3ab-4f37-972a-9b57ce940f3b"},"vehicle_type_id":"4","last_reported":1746612715,"current_range_meters":8400,"station_id":"ce4bgr92rcd13ifvqc6g","pricing_plan_id":"cebpf4jnsgd1na2vs0mg"},{"bike_id":"b1d7eb78-9507-43c3-ac68-2b2ff2c7c6c6","system_id":"levelo_inurba_marseille","lat":43.292074,"lon":5.358162,"is_reserved":false,"is_disabled":false,"rental_uris":{"android":"levelo://app?vid=b1d7eb78-9507-43c3-ac68-2b2ff2c7c6c6","ios":"levelo://app?vid=b1d7eb78-9507-43c3-ac68-2b2ff2c7c6c6"},"vehicle_type_id":"4","last_reported":1746612715,"current_range_meters":8400,"station_id":"ce4bhb12rcd13ifvqel0","pricing_plan_id":"cebpf4jnsgd1na2vs0mg"},{"bike_id":"ee7740d5-9b0d-421b-acf8-15608b4ca052","system_id":"levelo_inurba_marseille","lat":43.231946,"lon":5.35556,"is_reserved":false,"is_disabled":false,"rental_uris":{"android":"levelo://app?vid=ee7740d5-9b0d-421b-acf8-15608b4ca052","ios":"levelo://app?vid=ee7740d5-9b0d-421b-acf8-15608b4ca052"},"vehicle_type_id":"4","last_reported":1746612715,"current_range_meters":8400,"station_id":"ce4bhu92rcd13ifvqi70","pricing_plan_id":"cebpf4jnsgd1na2vs0mg"},{"bike_id":"f909d878-88c2-447a-bc4f-82f1db2e243c","system_id":"levelo_inurba_marseille","lat":43.31225,"lon":5.36917,"is_reserved":false,"is_disabled":false,"rental_uris":{"android":"levelo://app?vid=f909d878-88c2-447a-bc4f-82f1db2e243c","ios":"levelo://app?vid=f909d878-88c2-447a-bc4f-82f1db2e243c"},"vehicle_type_id":"4","last_reported":1746612715,"current_range_meters":8800,"station_id":"ce4bgl92rcd13ifvqbq0","pricing_plan_id":"cebpf4jnsgd1na2vs0mg"},{"bike_id":"bd3b2178-bd6a-4801-b79f-10fa8392d3d4","system_id":"levelo_inurba_marseille","lat":43.31221,"lon":5.36862,"is_reserved":false,"is_disabled":false,"rental_uris":{"android":"levelo://app?vid=bd3b2178-bd6a-4801-b79f-10fa8392d3d4","ios":"levelo://app?vid=bd3b2178-bd6a-4801-b79f-10fa8392d3d4"},"vehicle_type_id":"4","last_reported":1746612715,"current_range_meters":8800,"station_id":"ce4bgl92rcd13ifvqbq0","pricing_plan_id":"cebpf4jnsgd1na2vs0mg"},{"bike_id":"b8473e14-df10-4bf9-abe3-37cfdad6200a","system_id":"levelo_inurba_marseille","lat":43.31338,"lon":5.36668,"is_reserved":false,"is_disabled":false,"rental_uris":{"android":"levelo://app?vid=b8473e14-df10-4bf9-abe3-37cfdad6200a","ios":"levelo://app?vid=b8473e14-df10-4bf9-abe3-37cfdad6200a"},"vehicle_type_id":"4","last_reported":1746612715,"current_range_meters":8800,"station_id":"ce4bgr92rcd13ifvqc6g","pricing_plan_id":"cebpf4jnsgd1na2vs0mg"},{"bike_id":"d5fee40b-76d8-41c5-92b0-bc3427530055","system_id":"levelo_inurba_marseille","lat":43.33584,"lon":5.40965,"is_reserved":false,"is_disabled":false,"rental_uris":{"android":"levelo://app?vid=d5fee40b-76d8-41c5-92b0-bc3427530055","ios":"levelo://app?vid=d5fee40b-76d8-41c5-92b0-bc3427530055"},"vehicle_type_id":"4","last_reported":1746612715,"current_range_meters":9200,"station_id":"","pricing_plan_id":"cebpf4jnsgd1na2vs0mg"},{"bike_id":"ded9bd18-bc9a-4e74-9959-ea6270ccd83d","system_id":"levelo_inurba_marseille","lat":43.30554,"lon":5.36543,"is_reserved":false,"is_disabled":false,"rental_uris":{"android":"levelo://app?vid=ded9bd18-bc9a-4e74-9959-ea6270ccd83d","ios":"levelo://app?vid=ded9bd18-bc9a-4e74-9959-ea6270ccd83d"},"vehicle_type_id":"4","last_reported":1746612715,"current_range_meters":9200,"station_id":"ce4bgs12rcd13ifvqcag","pricing_plan_id":"cebpf4jnsgd1na2vs0mg"},{"bike_id":"d377b92f-f423-4fa6-b979-5afd9145ee01","system_id":"levelo_inurba_marseille","lat":43.311334,"lon":5.384152,"is_reserved":false,"is_disabled":false,"rental_uris":{"android":"levelo://app?vid=d377b92f-f423-4fa6-b979-5afd9145ee01","ios":"levelo://app?vid=d377b92f-f423-4fa6-b979-5afd9145ee01"},"vehicle_type_id":"4","last_reported":1746612715,"current_range_meters":9200,"station_id":"ce4bh2h2rcd13ifvqdh0","pricing_plan_id":"cebpf4jnsgd1na2vs0mg"},{"bike_id":"e2cea721-ea68-4d34-bd76-01c6b198eb92","system_id":"levelo_inurba_marseille","lat":43.27995,"lon":5.4164,"is_reserved":false,"is_disabled":false,"rental_uris":{"android":"levelo://app?vid=e2cea721-ea68-4d34-bd76-01c6b198eb92","ios":"levelo://app?vid=e2cea721-ea68-4d34-bd76-01c6b198eb92"},"vehicle_type_id":"4","last_reported":1746612715,"current_range_meters":9200,"station_id":"ce4bho12rcd13ifvqh1g","pricing_plan_id":"cebpf4jnsgd1na2vs0mg"},{"bike_id":"74ffed79-62ee-4e39-81bf-7e3bf612711c","system_id":"levelo_inurba_marseille","lat":43.31225,"lon":5.36864,"is_reserved":false,"is_disabled":false,"rental_uris":{"android":"levelo://app?vid=74ffed79-62ee-4e39-81bf-7e3bf612711c","ios":"levelo://app?vid=74ffed79-62ee-4e39-81bf-7e3bf612711c"},"vehicle_type_id":"4","last_reported":1746612715,"current_range_meters":9600,"station_id":"ce4bgl92rcd13ifvqbq0","pricing_plan_id":"cebpf4jnsgd1na2vs0mg"},{"bike_id":"dbf42f42-14c0-4947-9e03-00c6b4f1ba7e","system_id":"levelo_inurba_marseille","lat":43.26239,"lon":5.37425,"is_reserved":false,"is_disabled":false,"rental_uris":{"android":"levelo://app?vid=dbf42f42-14c0-4947-9e03-00c6b4f1ba7e","ios":"levelo://app?vid=dbf42f42-14c0-4947-9e03-00c6b4f1ba7e"},"vehicle_type_id":"4","last_reported":1746612715,"current_range_meters":9600,"station_id":"ce4bhgp2rcd13ifvqfc0","pricing_plan_id":"cebpf4jnsgd1na2vs0mg"},{"bike_id":"d3ef327c-d068-4d78-9e15-3f1728773188","system_id":"levelo_inurba_marseille","lat":43.31889,"lon":5.40754,"is_reserved":false,"is_disabled":false,"rental_uris":{"android":"levelo://app?vid=d3ef327c-d068-4d78-9e15-3f1728773188","ios":"levelo://app?vid=d3ef327c-d068-4d78-9e15-3f1728773188"},"vehicle_type_id":"4","last_reported":1746612715,"current_range_meters":9600,"station_id":"ce4bhq12rcd13ifvqhig","pricing_plan_id":"cebpf4jnsgd1na2vs0mg"},{"bike_id":"c7741849-e541-44df-8dea-1d3f1b8cc5f0","system_id":"levelo_inurba_marseille","lat":43.33032,"lon":5.390385,"is_reserved":false,"is_disabled":false,"rental_uris":{"android":"levelo://app?vid=c7741849-e541-44df-8dea-1d3f1b8cc5f0","ios":"levelo://app?vid=c7741849-e541-44df-8dea-1d3f1b8cc5f0"},"vehicle_type_id":"4","last_reported":1746612715,"current_range_meters":9600,"station_id":"ce4bhr92rcd13ifvqhrg","pricing_plan_id":"cebpf4jnsgd1na2vs0mg"},{"bike_id":"8a5554a2-b62f-4371-8d49-519ad97fb9f1","system_id":"levelo_inurba_marseille","lat":43.33022,"lon":5.39032,"is_reserved":false,"is_disabled":false,"rental_uris":{"android":"levelo://app?vid=8a5554a2-b62f-4371-8d49-519ad97fb9f1","ios":"levelo://app?vid=8a5554a2-b62f-4371-8d49-519ad97fb9f1"},"vehicle_type_id":"4","last_reported":1746612715,"current_range_meters":9600,"station_id":"ce4bhr92rcd13ifvqhrg","pricing_plan_id":"cebpf4jnsgd1na2vs0mg"},{"bike_id":"39121ab1-5745-446b-964b-6e88ce63dfb9","system_id":"levelo_inurba_marseille","lat":43.27911,"lon":5.39576,"is_reserved":false,"is_disabled":false,"rental_uris":{"android":"levelo://app?vid=39121ab1-5745-446b-964b-6e88ce63dfb9","ios":"levelo://app?vid=39121ab1-5745-446b-964b-6e88ce63dfb9"},"vehicle_type_id":"4","last_reported":1746612715,"current_range_meters":10000,"station_id":"ce4bhf92rcd13ifvqf40","pricing_plan_id":"cebpf4jnsgd1na2vs0mg"},{"bike_id":"17616a2b-7660-4f92-a213-fb06bfd905e7","system_id":"levelo_inurba_marseille","lat":43.33608,"lon":5.41025,"is_reserved":false,"is_disabled":false,"rental_uris":{"android":"levelo://app?vid=17616a2b-7660-4f92-a213-fb06bfd905e7","ios":"levelo://app?vid=17616a2b-7660-4f92-a213-fb06bfd905e7"},"vehicle_type_id":"4","last_reported":1746612715,"current_range_meters":10000,"station_id":"ce4bhqh2rcd13ifvqhmg","pricing_plan_id":"cebpf4jnsgd1na2vs0mg"},{"bike_id":"8e6de374-7e07-47cf-a8c0-9b1a411738b5","system_id":"levelo_inurba_marseille","lat":43.33778,"lon":5.37435,"is_reserved":false,"is_disabled":false,"rental_uris":{"android":"levelo://app?vid=8e6de374-7e07-47cf-a8c0-9b1a411738b5","ios":"levelo://app?vid=8e6de374-7e07-47cf-a8c0-9b1a411738b5"},"vehicle_type_id":"4","last_reported":1746612715,"current_range_meters":10800,"station_id":"","pricing_plan_id":"cebpf4jnsgd1na2vs0mg"},{"bike_id":"3b0d9435-660a-4662-80fe-0bb2dc632a90","system_id":"levelo_inurba_marseille","lat":43.288878,"lon":5.382121,"is_reserved":false,"is_disabled":false,"rental_uris":{"android":"levelo://app?vid=3b0d9435-660a-4662-80fe-0bb2dc632a90","ios":"levelo://app?vid=3b0d9435-660a-4662-80fe-0bb2dc632a90"},"vehicle_type_id":"4","last_reported":1746612715,"current_range_meters":10800,"station_id":"ce4bgkh2rcd13ifvqbk0","pricing_plan_id":"cebpf4jnsgd1na2vs0mg"},{"bike_id":"f72214c1-3d76-43e9-8812-ecec20e497e1","system_id":"levelo_inurba_marseille","lat":43.28002,"lon":5.41665,"is_reserved":false,"is_disabled":false,"rental_uris":{"android":"levelo://app?vid=f72214c1-3d76-43e9-8812-ecec20e497e1","ios":"levelo://app?vid=f72214c1-3d76-43e9-8812-ecec20e497e1"},"vehicle_type_id":"4","last_reported":1746612715,"current_range_meters":10800,"station_id":"ce4bho12rcd13ifvqh1g","pricing_plan_id":"cebpf4jnsgd1na2vs0mg"},{"bike_id":"c65b64f5-a38f-4b33-a48f-6bb6c6b32a53","system_id":"levelo_inurba_marseille","lat":43.21197,"lon":5.3508,"is_reserved":false,"is_disabled":false,"rental_uris":{"android":"levelo://app?vid=c65b64f5-a38f-4b33-a48f-6bb6c6b32a53","ios":"levelo://app?vid=c65b64f5-a38f-4b33-a48f-6bb6c6b32a53"},"vehicle_type_id":"4","last_reported":1746612715,"current_range_meters":10800,"station_id":"st_cvj6sg6p6f1abm77japg","pricing_plan_id":"cebpf4jnsgd1na2vs0mg"},{"bike_id":"75ba69fa-2440-45bb-8c13-666f88491ebf","system_id":"levelo_inurba_marseille","lat":43.30542,"lon":5.36521,"is_reserved":false,"is_disabled":false,"rental_uris":{"android":"levelo://app?vid=75ba69fa-2440-45bb-8c13-666f88491ebf","ios":"levelo://app?vid=75ba69fa-2440-45bb-8c13-666f88491ebf"},"vehicle_type_id":"4","last_reported":1746612715,"current_range_meters":11200,"station_id":"ce4bgs12rcd13ifvqcag","pricing_plan_id":"cebpf4jnsgd1na2vs0mg"},{"bike_id":"36a06a48-150d-4364-8281-b9872fa505bf","system_id":"levelo_inurba_marseille","lat":43.29008,"lon":5.35616,"is_reserved":false,"is_disabled":false,"rental_uris":{"android":"levelo://app?vid=36a06a48-150d-4364-8281-b9872fa505bf","ios":"levelo://app?vid=36a06a48-150d-4364-8281-b9872fa505bf"},"vehicle_type_id":"4","last_reported":1746612715,"current_range_meters":11200,"station_id":"ce4bhb92rcd13ifvqen0","pricing_plan_id":"cebpf4jnsgd1na2vs0mg"},{"bike_id":"0cefc7d7-450c-4243-8483-b9d12009d242","system_id":"levelo_inurba_marseille","lat":43.24171,"lon":5.36396,"is_reserved":false,"is_disabled":false,"rental_uris":{"android":"levelo://app?vid=0cefc7d7-450c-4243-8483-b9d12009d242","ios":"levelo://app?vid=0cefc7d7-450c-4243-8483-b9d12009d242"},"vehicle_type_id":"4","last_reported":1746612715,"current_range_meters":11200,"station_id":"cpo36qri1sfpv3e86is0","pricing_plan_id":"cebpf4jnsgd1na2vs0mg"},{"bike_id":"741922f7-49ff-4751-a228-5a73f2c8c24d","system_id":"levelo_inurba_marseille","lat":43.241687,"lon":5.363985,"is_reserved":false,"is_disabled":false,"rental_uris":{"android":"levelo://app?vid=741922f7-49ff-4751-a228-5a73f2c8c24d","ios":"levelo://app?vid=741922f7-49ff-4751-a228-5a73f2c8c24d"},"vehicle_type_id":"4","last_reported":1746612715,"current_range_meters":11200,"station_id":"cpo36qri1sfpv3e86is0","pricing_plan_id":"cebpf4jnsgd1na2vs0mg"},{"bike_id":"bf33f1c2-0f18-47c7-8682-8f777a29eac6","system_id":"levelo_inurba_marseille","lat":43.31121,"lon":5.37766,"is_reserved":false,"is_disabled":false,"rental_uris":{"android":"levelo://app?vid=bf33f1c2-0f18-47c7-8682-8f777a29eac6","ios":"levelo://app?vid=bf33f1c2-0f18-47c7-8682-8f777a29eac6"},"vehicle_type_id":"4","last_reported":1746612715,"current_range_meters":11600,"station_id":"ce4bgt92rcd13ifvqcg0","pricing_plan_id":"cebpf4jnsgd1na2vs0mg"},{"bike_id":"ffd69fc4-2bf2-4974-bea3-28e0f37fb6a9","system_id":"levelo_inurba_marseille","lat":43.31076,"lon":5.38353,"is_reserved":false,"is_disabled":false,"rental_uris":{"android":"levelo://app?vid=ffd69fc4-2bf2-4974-bea3-28e0f37fb6a9","ios":"levelo://app?vid=ffd69fc4-2bf2-4974-bea3-28e0f37fb6a9"},"vehicle_type_id":"4","last_reported":1746612715,"current_range_meters":12000,"station_id":"ce4bgv92rcd13ifvqcr0","pricing_plan_id":"cebpf4jnsgd1na2vs0mg"},{"bike_id":"2714f713-c769-4f6a-ac44-441a635e9cba","system_id":"levelo_inurba_marseille","lat":43.21636,"lon":5.34277,"is_reserved":false,"is_disabled":false,"rental_uris":{"android":"levelo://app?vid=2714f713-c769-4f6a-ac44-441a635e9cba","ios":"levelo://app?vid=2714f713-c769-4f6a-ac44-441a635e9cba"},"vehicle_type_id":"4","last_reported":1746612715,"current_range_meters":12400,"station_id":"","pricing_plan_id":"cebpf4jnsgd1na2vs0mg"},{"bike_id":"da19ed5a-7645-43fa-a1c9-48a118e0e9a3","system_id":"levelo_inurba_marseille","lat":43.29263,"lon":5.40914,"is_reserved":false,"is_disabled":false,"rental_uris":{"android":"levelo://app?vid=da19ed5a-7645-43fa-a1c9-48a118e0e9a3","ios":"levelo://app?vid=da19ed5a-7645-43fa-a1c9-48a118e0e9a3"},"vehicle_type_id":"4","last_reported":1746612715,"current_range_meters":12400,"station_id":"ce4bh192rcd13ifvqdc0","pricing_plan_id":"cebpf4jnsgd1na2vs0mg"},{"bike_id":"c846124a-913b-44c3-b966-d3139ba004b5","system_id":"levelo_inurba_marseille","lat":43.30552,"lon":5.36533,"is_reserved":false,"is_disabled":false,"rental_uris":{"android":"levelo://app?vid=c846124a-913b-44c3-b966-d3139ba004b5","ios":"levelo://app?vid=c846124a-913b-44c3-b966-d3139ba004b5"},"vehicle_type_id":"4","last_reported":1746612715,"current_range_meters":12800,"station_id":"ce4bgs12rcd13ifvqcag","pricing_plan_id":"cebpf4jnsgd1na2vs0mg"},{"bike_id":"0894f087-1793-4c32-8bd6-b22216f5bc08","system_id":"levelo_inurba_marseille","lat":43.22936,"lon":5.35376,"is_reserved":false,"is_disabled":false,"rental_uris":{"android":"levelo://app?vid=0894f087-1793-4c32-8bd6-b22216f5bc08","ios":"levelo://app?vid=0894f087-1793-4c32-8bd6-b22216f5bc08"},"vehicle_type_id":"4","last_reported":1746612715,"current_range_meters":12800,"station_id":"cpo3532slgdg3j2ikp40","pricing_plan_id":"cebpf4jnsgd1na2vs0mg"},{"bike_id":"12d25d0a-4fe4-4ec6-8a91-2c2bf9fc2504","system_id":"levelo_inurba_marseille","lat":43.31337,"lon":5.36723,"is_reserved":false,"is_disabled":false,"rental_uris":{"android":"levelo://app?vid=12d25d0a-4fe4-4ec6-8a91-2c2bf9fc2504","ios":"levelo://app?vid=12d25d0a-4fe4-4ec6-8a91-2c2bf9fc2504"},"vehicle_type_id":"4","last_reported":1746612715,"current_range_meters":13600,"station_id":"ce4bgr92rcd13ifvqc6g","pricing_plan_id":"cebpf4jnsgd1na2vs0mg"},{"bike_id":"6ddc9ccf-628a-43c3-9a1e-42642881a68c","system_id":"levelo_inurba_marseille","lat":43.26061,"lon":5.39397,"is_reserved":false,"is_disabled":false,"rental_uris":{"android":"levelo://app?vid=6ddc9ccf-628a-43c3-9a1e-42642881a68c","ios":"levelo://app?vid=6ddc9ccf-628a-43c3-9a1e-42642881a68c"},"vehicle_type_id":"4","last_reported":1746612715,"current_range_meters":13600,"station_id":"ce4bhh92rcd13ifvqfj0","pricing_plan_id":"cebpf4jnsgd1na2vs0mg"},{"bike_id":"a43278df-4e81-4b9f-addd-f05b442cbaa5","system_id":"levelo_inurba_marseille","lat":43.2592,"lon":5.40872,"is_reserved":false,"is_disabled":false,"rental_uris":{"android":"levelo://app?vid=a43278df-4e81-4b9f-addd-f05b442cbaa5","ios":"levelo://app?vid=a43278df-4e81-4b9f-addd-f05b442cbaa5"},"vehicle_type_id":"4","last_reported":1746612715,"current_range_meters":13600,"station_id":"ce4bhm92rcd13ifvqglg","pricing_plan_id":"cebpf4jnsgd1na2vs0mg"},{"bike_id":"c220a6d3-494e-41f8-a481-c28783f1a812","system_id":"levelo_inurba_marseille","lat":43.27817,"lon":5.40719,"is_reserved":false,"is_disabled":false,"rental_uris":{"android":"levelo://app?vid=c220a6d3-494e-41f8-a481-c28783f1a812","ios":"levelo://app?vid=c220a6d3-494e-41f8-a481-c28783f1a812"},"vehicle_type_id":"4","last_reported":1746612715,"current_range_meters":13600,"station_id":"ce4bhnh2rcd13ifvqgtg","pricing_plan_id":"cebpf4jnsgd1na2vs0mg"},{"bike_id":"6cce1156-f773-4808-ad62-c8ccf484b6ea","system_id":"levelo_inurba_marseille","lat":43.31225,"lon":5.36877,"is_reserved":false,"is_disabled":false,"rental_uris":{"android":"levelo://app?vid=6cce1156-f773-4808-ad62-c8ccf484b6ea","ios":"levelo://app?vid=6cce1156-f773-4808-ad62-c8ccf484b6ea"},"vehicle_type_id":"4","last_reported":1746612715,"current_range_meters":14800,"station_id":"ce4bgl92rcd13ifvqbq0","pricing_plan_id":"cebpf4jnsgd1na2vs0mg"},{"bike_id":"47fdd7f8-e4df-4edc-bf26-a92cf466959a","system_id":"levelo_inurba_marseille","lat":43.2594,"lon":5.40901,"is_reserved":false,"is_disabled":false,"rental_uris":{"android":"levelo://app?vid=47fdd7f8-e4df-4edc-bf26-a92cf466959a","ios":"levelo://app?vid=47fdd7f8-e4df-4edc-bf26-a92cf466959a"},"vehicle_type_id":"4","last_reported":1746612715,"current_range_meters":14800,"station_id":"ce4bhm92rcd13ifvqglg","pricing_plan_id":"cebpf4jnsgd1na2vs0mg"},{"bike_id":"ca9427a5-76a3-436c-bf30-a47cb7ec9c1e","system_id":"levelo_inurba_marseille","lat":43.23193,"lon":5.35557,"is_reserved":false,"is_disabled":false,"rental_uris":{"android":"levelo://app?vid=ca9427a5-76a3-436c-bf30-a47cb7ec9c1e","ios":"levelo://app?vid=ca9427a5-76a3-436c-bf30-a47cb7ec9c1e"},"vehicle_type_id":"4","last_reported":1746612715,"current_range_meters":14800,"station_id":"ce4bhu92rcd13ifvqi70","pricing_plan_id":"cebpf4jnsgd1na2vs0mg"},{"bike_id":"90384ce3-0cb2-4a43-91e2-44d97efa93de","system_id":"levelo_inurba_marseille","lat":43.259279,"lon":5.40916,"is_reserved":false,"is_disabled":false,"rental_uris":{"android":"levelo://app?vid=90384ce3-0cb2-4a43-91e2-44d97efa93de","ios":"levelo://app?vid=90384ce3-0cb2-4a43-91e2-44d97efa93de"},"vehicle_type_id":"4","last_reported":1746612715,"current_range_meters":15200,"station_id":"ce4bhm92rcd13ifvqglg","pricing_plan_id":"cebpf4jnsgd1na2vs0mg"},{"bike_id":"25a5fe2d-c149-47ad-a876-809075f6c85f","system_id":"levelo_inurba_marseille","lat":43.31339,"lon":5.36705,"is_reserved":false,"is_disabled":false,"rental_uris":{"android":"levelo://app?vid=25a5fe2d-c149-47ad-a876-809075f6c85f","ios":"levelo://app?vid=25a5fe2d-c149-47ad-a876-809075f6c85f"},"vehicle_type_id":"4","last_reported":1746612715,"current_range_meters":16000,"station_id":"ce4bgr92rcd13ifvqc6g","pricing_plan_id":"cebpf4jnsgd1na2vs0mg"},{"bike_id":"4989e7f7-ed92-4345-bb0c-6351154c9419","system_id":"levelo_inurba_marseille","lat":43.28942,"lon":5.36643,"is_reserved":false,"is_disabled":false,"rental_uris":{"android":"levelo://app?vid=4989e7f7-ed92-4345-bb0c-6351154c9419","ios":"levelo://app?vid=4989e7f7-ed92-4345-bb0c-6351154c9419"},"vehicle_type_id":"4","last_reported":1746612715,"current_range_meters":16000,"station_id":"ce4bhap2rcd13ifvqek0","pricing_plan_id":"cebpf4jnsgd1na2vs0mg"},{"bike_id":"ee78e03a-0afa-4176-9461-8cd9d0c929c1","system_id":"levelo_inurba_marseille","lat":43.26573,"lon":5.37288,"is_reserved":false,"is_disabled":false,"rental_uris":{"android":"levelo://app?vid=ee78e03a-0afa-4176-9461-8cd9d0c929c1","ios":"levelo://app?vid=ee78e03a-0afa-4176-9461-8cd9d0c929c1"},"vehicle_type_id":"4","last_reported":1746612715,"current_range_meters":16000,"station_id":"ce4bhg12rcd13ifvqf70","pricing_plan_id":"cebpf4jnsgd1na2vs0mg"},{"bike_id":"d81a163d-42b3-4fff-9bc4-5855a03ede4d","system_id":"levelo_inurba_marseille","lat":43.23957,"lon":5.36637,"is_reserved":false,"is_disabled":false,"rental_uris":{"android":"levelo://app?vid=d81a163d-42b3-4fff-9bc4-5855a03ede4d","ios":"levelo://app?vid=d81a163d-42b3-4fff-9bc4-5855a03ede4d"},"vehicle_type_id":"4","last_reported":1746612715,"current_range_meters":16000,"station_id":"ce4bhi12rcd13ifvqfp0","pricing_plan_id":"cebpf4jnsgd1na2vs0mg"},{"bike_id":"7fb601c2-34c8-4c04-8462-d134ca8070cf","system_id":"levelo_inurba_marseille","lat":43.27071,"lon":5.42275,"is_reserved":false,"is_disabled":false,"rental_uris":{"android":"levelo://app?vid=7fb601c2-34c8-4c04-8462-d134ca8070cf","ios":"levelo://app?vid=7fb601c2-34c8-4c04-8462-d134ca8070cf"},"vehicle_type_id":"4","last_reported":1746612715,"current_range_meters":16000,"station_id":"ce4bhk92rcd13ifvqgb0","pricing_plan_id":"cebpf4jnsgd1na2vs0mg"},{"bike_id":"47c36b03-4567-4e44-bd14-262b55ce62fc","system_id":"levelo_inurba_marseille","lat":43.25907,"lon":5.40877,"is_reserved":false,"is_disabled":false,"rental_uris":{"android":"levelo://app?vid=47c36b03-4567-4e44-bd14-262b55ce62fc","ios":"levelo://app?vid=47c36b03-4567-4e44-bd14-262b55ce62fc"},"vehicle_type_id":"4","last_reported":1746612715,"current_range_meters":16400,"station_id":"ce4bhm92rcd13ifvqglg","pricing_plan_id":"cebpf4jnsgd1na2vs0mg"},{"bike_id":"fe64d731-d67c-4d77-9da4-68123d43a29a","system_id":"levelo_inurba_marseille","lat":43.309347,"lon":5.401426,"is_reserved":false,"is_disabled":false,"rental_uris":{"android":"levelo://app?vid=fe64d731-d67c-4d77-9da4-68123d43a29a","ios":"levelo://app?vid=fe64d731-d67c-4d77-9da4-68123d43a29a"},"vehicle_type_id":"4","last_reported":1746612715,"current_range_meters":16800,"station_id":"","pricing_plan_id":"cebpf4jnsgd1na2vs0mg"},{"bike_id":"b186ca0e-4c18-4ff9-a002-fe49c0bbedec","system_id":"levelo_inurba_marseille","lat":43.2962,"lon":5.37748,"is_reserved":false,"is_disabled":false,"rental_uris":{"android":"levelo://app?vid=b186ca0e-4c18-4ff9-a002-fe49c0bbedec","ios":"levelo://app?vid=b186ca0e-4c18-4ff9-a002-fe49c0bbedec"},"vehicle_type_id":"4","last_reported":1746612715,"current_range_meters":16800,"station_id":"ce4bgi92rcd13ifvqb90","pricing_plan_id":"cebpf4jnsgd1na2vs0mg"},{"bike_id":"490e9dc6-b899-427b-aa1c-385eaa0aa6ec","system_id":"levelo_inurba_marseille","lat":43.28363,"lon":5.38652,"is_reserved":false,"is_disabled":false,"rental_uris":{"android":"levelo://app?vid=490e9dc6-b899-427b-aa1c-385eaa0aa6ec","ios":"levelo://app?vid=490e9dc6-b899-427b-aa1c-385eaa0aa6ec"},"vehicle_type_id":"4","last_reported":1746612715,"current_range_meters":16800,"station_id":"ce4bh492rcd13ifvqdvg","pricing_plan_id":"cebpf4jnsgd1na2vs0mg"},{"bike_id":"c94038f8-dcd7-46f9-a5a5-a58f7807d3cd","system_id":"levelo_inurba_marseille","lat":43.23186,"lon":5.39986,"is_reserved":false,"is_disabled":false,"rental_uris":{"android":"levelo://app?vid=c94038f8-dcd7-46f9-a5a5-a58f7807d3cd","ios":"levelo://app?vid=c94038f8-dcd7-46f9-a5a5-a58f7807d3cd"},"vehicle_type_id":"4","last_reported":1746612715,"current_range_meters":17200,"station_id":"ce4bhn12rcd13ifvqgqg","pricing_plan_id":"cebpf4jnsgd1na2vs0mg"},{"bike_id":"2c064b92-eb8e-4785-b6d7-fab160cee685","system_id":"levelo_inurba_marseille","lat":43.27969,"lon":5.4106,"is_reserved":false,"is_disabled":false,"rental_uris":{"android":"levelo://app?vid=2c064b92-eb8e-4785-b6d7-fab160cee685","ios":"levelo://app?vid=2c064b92-eb8e-4785-b6d7-fab160cee685"},"vehicle_type_id":"4","last_reported":1746612715,"current_range_meters":17200,"station_id":"ce4bhnp2rcd13ifvqh0g","pricing_plan_id":"cebpf4jnsgd1na2vs0mg"},{"bike_id":"af8bd9b9-657c-497f-aa24-c58b3ced6a70","system_id":"levelo_inurba_marseille","lat":43.31093,"lon":5.4243,"is_reserved":false,"is_disabled":false,"rental_uris":{"android":"levelo://app?vid=af8bd9b9-657c-497f-aa24-c58b3ced6a70","ios":"levelo://app?vid=af8bd9b9-657c-497f-aa24-c58b3ced6a70"},"vehicle_type_id":"4","last_reported":1746612715,"current_range_meters":17200,"station_id":"ce4bhp92rcd13ifvqhag","pricing_plan_id":"cebpf4jnsgd1na2vs0mg"},{"bike_id":"94a3f5fb-60a0-4ba4-8b3e-3759629e9c4a","system_id":"levelo_inurba_marseille","lat":43.336016,"lon":5.410191,"is_reserved":false,"is_disabled":false,"rental_uris":{"android":"levelo://app?vid=94a3f5fb-60a0-4ba4-8b3e-3759629e9c4a","ios":"levelo://app?vid=94a3f5fb-60a0-4ba4-8b3e-3759629e9c4a"},"vehicle_type_id":"4","last_reported":1746612715,"current_range_meters":17200,"station_id":"ce4bhqh2rcd13ifvqhmg","pricing_plan_id":"cebpf4jnsgd1na2vs0mg"},{"bike_id":"b8bb0d6d-d682-4df7-80c5-da64e9c95891","system_id":"levelo_inurba_marseille","lat":43.259411,"lon":5.409009,"is_reserved":false,"is_disabled":false,"rental_uris":{"android":"levelo://app?vid=b8bb0d6d-d682-4df7-80c5-da64e9c95891","ios":"levelo://app?vid=b8bb0d6d-d682-4df7-80c5-da64e9c95891"},"vehicle_type_id":"4","last_reported":1746612715,"current_range_meters":17600,"station_id":"ce4bhm92rcd13ifvqglg","pricing_plan_id":"cebpf4jnsgd1na2vs0mg"},{"bike_id":"63af6f78-57d5-4f3d-9494-a6d72ff84dc1","system_id":"levelo_inurba_marseille","lat":43.21225,"lon":5.3508,"is_reserved":false,"is_disabled":false,"rental_uris":{"android":"levelo://app?vid=63af6f78-57d5-4f3d-9494-a6d72ff84dc1","ios":"levelo://app?vid=63af6f78-57d5-4f3d-9494-a6d72ff84dc1"},"vehicle_type_id":"4","last_reported":1746612715,"current_range_meters":17600,"station_id":"st_cvj6sg6p6f1abm77japg","pricing_plan_id":"cebpf4jnsgd1na2vs0mg"},{"bike_id":"2ef2ebd1-bdfa-4679-8156-f62d2ffdfb1d","system_id":"levelo_inurba_marseille","lat":43.29265,"lon":5.3761,"is_reserved":false,"is_disabled":false,"rental_uris":{"android":"levelo://app?vid=2ef2ebd1-bdfa-4679-8156-f62d2ffdfb1d","ios":"levelo://app?vid=2ef2ebd1-bdfa-4679-8156-f62d2ffdfb1d"},"vehicle_type_id":"4","last_reported":1746612715,"current_range_meters":18000,"station_id":"ce4bgi12rcd13ifvqb80","pricing_plan_id":"cebpf4jnsgd1na2vs0mg"},{"bike_id":"caa6fd07-36d5-4eea-b528-9734e84e8de0","system_id":"levelo_inurba_marseille","lat":43.30541,"lon":5.36556,"is_reserved":false,"is_disabled":false,"rental_uris":{"android":"levelo://app?vid=caa6fd07-36d5-4eea-b528-9734e84e8de0","ios":"levelo://app?vid=caa6fd07-36d5-4eea-b528-9734e84e8de0"},"vehicle_type_id":"4","last_reported":1746612715,"current_range_meters":18000,"station_id":"ce4bgs12rcd13ifvqcag","pricing_plan_id":"cebpf4jnsgd1na2vs0mg"},{"bike_id":"64136aeb-44a0-490d-9f50-de3f7b9cbb4c","system_id":"levelo_inurba_marseille","lat":43.27049,"lon":5.40257,"is_reserved":false,"is_disabled":false,"rental_uris":{"android":"levelo://app?vid=64136aeb-44a0-490d-9f50-de3f7b9cbb4c","ios":"levelo://app?vid=64136aeb-44a0-490d-9f50-de3f7b9cbb4c"},"vehicle_type_id":"4","last_reported":1746612715,"current_range_meters":18000,"station_id":"ce4bhk92rcd13ifvqgc0","pricing_plan_id":"cebpf4jnsgd1na2vs0mg"},{"bike_id":"bb745cee-af37-4b23-afc5-3d5aa5ce7aed","system_id":"levelo_inurba_marseille","lat":43.262233,"lon":5.404386,"is_reserved":false,"is_disabled":false,"rental_uris":{"android":"levelo://app?vid=bb745cee-af37-4b23-afc5-3d5aa5ce7aed","ios":"levelo://app?vid=bb745cee-af37-4b23-afc5-3d5aa5ce7aed"},"vehicle_type_id":"4","last_reported":1746612715,"current_range_meters":18000,"station_id":"ce4bhmh2rcd13ifvqgmg","pricing_plan_id":"cebpf4jnsgd1na2vs0mg"},{"bike_id":"65e0f670-0f03-44fb-8e56-22260fb3caee","system_id":"levelo_inurba_marseille","lat":43.31106,"lon":5.42428,"is_reserved":false,"is_disabled":false,"rental_uris":{"android":"levelo://app?vid=65e0f670-0f03-44fb-8e56-22260fb3caee","ios":"levelo://app?vid=65e0f670-0f03-44fb-8e56-22260fb3caee"},"vehicle_type_id":"4","last_reported":1746612715,"current_range_meters":18000,"station_id":"ce4bhp92rcd13ifvqhag","pricing_plan_id":"cebpf4jnsgd1na2vs0mg"},{"bike_id":"47d2fd70-6980-4296-bfaf-01fe22c02520","system_id":"levelo_inurba_marseille","lat":43.30809,"lon":5.43525,"is_reserved":false,"is_disabled":false,"rental_uris":{"android":"levelo://app?vid=47d2fd70-6980-4296-bfaf-01fe22c02520","ios":"levelo://app?vid=47d2fd70-6980-4296-bfaf-01fe22c02520"},"vehicle_type_id":"4","last_reported":1746612715,"current_range_meters":18000,"station_id":"ce4bhph2rcd13ifvqheg","pricing_plan_id":"cebpf4jnsgd1na2vs0mg"},{"bike_id":"c49cdde5-7f81-4b0f-8d87-dad52fd4424e","system_id":"levelo_inurba_marseille","lat":43.29636,"lon":5.406,"is_reserved":false,"is_disabled":false,"rental_uris":{"android":"levelo://app?vid=c49cdde5-7f81-4b0f-8d87-dad52fd4424e","ios":"levelo://app?vid=c49cdde5-7f81-4b0f-8d87-dad52fd4424e"},"vehicle_type_id":"4","last_reported":1746612715,"current_range_meters":18800,"station_id":"ce4bh0h2rcd13ifvqd60","pricing_plan_id":"cebpf4jnsgd1na2vs0mg"},{"bike_id":"d874ceda-6029-4ecd-bd33-7af5923467fc","system_id":"levelo_inurba_marseille","lat":43.288537,"lon":5.358463,"is_reserved":false,"is_disabled":false,"rental_uris":{"android":"levelo://app?vid=d874ceda-6029-4ecd-bd33-7af5923467fc","ios":"levelo://app?vid=d874ceda-6029-4ecd-bd33-7af5923467fc"},"vehicle_type_id":"4","last_reported":1746612715,"current_range_meters":18800,"station_id":"ce4bhb12rcd13ifvqem0","pricing_plan_id":"cebpf4jnsgd1na2vs0mg"},{"bike_id":"6f5987c6-f4a0-4296-839c-364ea9a42c49","system_id":"levelo_inurba_marseille","lat":43.30564,"lon":5.36697,"is_reserved":false,"is_disabled":false,"rental_uris":{"android":"levelo://app?vid=6f5987c6-f4a0-4296-839c-364ea9a42c49","ios":"levelo://app?vid=6f5987c6-f4a0-4296-839c-364ea9a42c49"},"vehicle_type_id":"4","last_reported":1746612715,"current_range_meters":19200,"station_id":"ce4bgrp2rcd13ifvqc9g","pricing_plan_id":"cebpf4jnsgd1na2vs0mg"},{"bike_id":"1d542622-f5e7-453d-ac3d-edc676e58d8a","system_id":"levelo_inurba_marseille","lat":43.26554,"lon":5.37285,"is_reserved":false,"is_disabled":false,"rental_uris":{"android":"levelo://app?vid=1d542622-f5e7-453d-ac3d-edc676e58d8a","ios":"levelo://app?vid=1d542622-f5e7-453d-ac3d-edc676e58d8a"},"vehicle_type_id":"4","last_reported":1746612715,"current_range_meters":19200,"station_id":"ce4bhg12rcd13ifvqf70","pricing_plan_id":"cebpf4jnsgd1na2vs0mg"},{"bike_id":"0c966390-6984-4bc7-a793-18d9bcddc50c","system_id":"levelo_inurba_marseille","lat":43.27497,"lon":5.42445,"is_reserved":false,"is_disabled":false,"rental_uris":{"android":"levelo://app?vid=0c966390-6984-4bc7-a793-18d9bcddc50c","ios":"levelo://app?vid=0c966390-6984-4bc7-a793-18d9bcddc50c"},"vehicle_type_id":"4","last_reported":1746612715,"current_range_meters":19200,"station_id":"ce4bhn92rcd13ifvqgrg","pricing_plan_id":"cebpf4jnsgd1na2vs0mg"},{"bike_id":"23d330fb-2e41-42de-a705-ca9c1fb9e6c7","system_id":"levelo_inurba_marseille","lat":43.31482,"lon":5.37311,"is_reserved":false,"is_disabled":false,"rental_uris":{"android":"levelo://app?vid=23d330fb-2e41-42de-a705-ca9c1fb9e6c7","ios":"levelo://app?vid=23d330fb-2e41-42de-a705-ca9c1fb9e6c7"},"vehicle_type_id":"4","last_reported":1746612715,"current_range_meters":19600,"station_id":"ce4bgt12rcd13ifvqcd0","pricing_plan_id":"cebpf4jnsgd1na2vs0mg"},{"bike_id":"9a709650-c551-4005-bb43-d73f607a0cd1","system_id":"levelo_inurba_marseille","lat":43.24401,"lon":5.37046,"is_reserved":false,"is_disabled":false,"rental_uris":{"android":"levelo://app?vid=9a709650-c551-4005-bb43-d73f607a0cd1","ios":"levelo://app?vid=9a709650-c551-4005-bb43-d73f607a0cd1"},"vehicle_type_id":"4","last_reported":1746612715,"current_range_meters":19600,"station_id":"ce4bhhh2rcd13ifvqfk0","pricing_plan_id":"cebpf4jnsgd1na2vs0mg"},{"bike_id":"8a810db1-03c4-49ad-917c-59e8b224c353","system_id":"levelo_inurba_marseille","lat":43.33738,"lon":5.39176,"is_reserved":false,"is_disabled":false,"rental_uris":{"android":"levelo://app?vid=8a810db1-03c4-49ad-917c-59e8b224c353","ios":"levelo://app?vid=8a810db1-03c4-49ad-917c-59e8b224c353"},"vehicle_type_id":"4","last_reported":1746612715,"current_range_meters":19600,"station_id":"ce4bhr92rcd13ifvqhsg","pricing_plan_id":"cebpf4jnsgd1na2vs0mg"},{"bike_id":"46f83161-f60c-4f7c-9541-c0bb26d0ae24","system_id":"levelo_inurba_marseille","lat":43.21761,"lon":5.34608,"is_reserved":false,"is_disabled":false,"rental_uris":{"android":"levelo://app?vid=46f83161-f60c-4f7c-9541-c0bb26d0ae24","ios":"levelo://app?vid=46f83161-f60c-4f7c-9541-c0bb26d0ae24"},"vehicle_type_id":"4","last_reported":1746612715,"current_range_meters":19600,"station_id":"st_cvj6r9ubvosntc0bgbag","pricing_plan_id":"cebpf4jnsgd1na2vs0mg"},{"bike_id":"61b7bf8c-00ae-4280-9015-f0af790fa2b1","system_id":"levelo_inurba_marseille","lat":43.33588,"lon":5.40952,"is_reserved":false,"is_disabled":false,"rental_uris":{"android":"levelo://app?vid=61b7bf8c-00ae-4280-9015-f0af790fa2b1","ios":"levelo://app?vid=61b7bf8c-00ae-4280-9015-f0af790fa2b1"},"vehicle_type_id":"4","last_reported":1746612715,"current_range_meters":20000,"station_id":"","pricing_plan_id":"cebpf4jnsgd1na2vs0mg"},{"bike_id":"f76c5ef8-7451-4ee1-8411-3617fe0f883c","system_id":"levelo_inurba_marseille","lat":43.27625,"lon":5.36103,"is_reserved":false,"is_disabled":false,"rental_uris":{"android":"levelo://app?vid=f76c5ef8-7451-4ee1-8411-3617fe0f883c","ios":"levelo://app?vid=f76c5ef8-7451-4ee1-8411-3617fe0f883c"},"vehicle_type_id":"4","last_reported":1746612715,"current_range_meters":20000,"station_id":"ce4bgj92rcd13ifvqbe0","pricing_plan_id":"cebpf4jnsgd1na2vs0mg"},{"bike_id":"b5775ca1-748e-4cd6-9392-09595003dc6d","system_id":"levelo_inurba_marseille","lat":43.3123,"lon":5.36866,"is_reserved":false,"is_disabled":false,"rental_uris":{"android":"levelo://app?vid=b5775ca1-748e-4cd6-9392-09595003dc6d","ios":"levelo://app?vid=b5775ca1-748e-4cd6-9392-09595003dc6d"},"vehicle_type_id":"4","last_reported":1746612715,"current_range_meters":20000,"station_id":"ce4bgl92rcd13ifvqbq0","pricing_plan_id":"cebpf4jnsgd1na2vs0mg"},{"bike_id":"c0cd3821-e87c-44a2-9ec4-f941c33073f4","system_id":"levelo_inurba_marseille","lat":43.3053,"lon":5.36517,"is_reserved":false,"is_disabled":false,"rental_uris":{"android":"levelo://app?vid=c0cd3821-e87c-44a2-9ec4-f941c33073f4","ios":"levelo://app?vid=c0cd3821-e87c-44a2-9ec4-f941c33073f4"},"vehicle_type_id":"4","last_reported":1746612715,"current_range_meters":20000,"station_id":"ce4bgs12rcd13ifvqcag","pricing_plan_id":"cebpf4jnsgd1na2vs0mg"},{"bike_id":"8fb84519-1818-4453-ac93-2b5cea68f7f2","system_id":"levelo_inurba_marseille","lat":43.25722,"lon":5.411,"is_reserved":false,"is_disabled":false,"rental_uris":{"android":"levelo://app?vid=8fb84519-1818-4453-ac93-2b5cea68f7f2","ios":"levelo://app?vid=8fb84519-1818-4453-ac93-2b5cea68f7f2"},"vehicle_type_id":"4","last_reported":1746612715,"current_range_meters":20000,"station_id":"ce4bhkp2rcd13ifvqgd0","pricing_plan_id":"cebpf4jnsgd1na2vs0mg"},{"bike_id":"e5401d68-eac2-492e-9113-2f9588f85793","system_id":"levelo_inurba_marseille","lat":43.24082,"lon":5.37744,"is_reserved":false,"is_disabled":false,"rental_uris":{"android":"levelo://app?vid=e5401d68-eac2-492e-9113-2f9588f85793","ios":"levelo://app?vid=e5401d68-eac2-492e-9113-2f9588f85793"},"vehicle_type_id":"4","last_reported":1746612715,"current_range_meters":20000,"station_id":"ce4bhnp2rcd13ifvqgvg","pricing_plan_id":"cebpf4jnsgd1na2vs0mg"},{"bike_id":"5685c192-af0e-432e-a78b-7859fcd0e0d6","system_id":"levelo_inurba_marseille","lat":43.30949,"lon":5.37896,"is_reserved":false,"is_disabled":false,"rental_uris":{"android":"levelo://app?vid=5685c192-af0e-432e-a78b-7859fcd0e0d6","ios":"levelo://app?vid=5685c192-af0e-432e-a78b-7859fcd0e0d6"},"vehicle_type_id":"4","last_reported":1746612715,"current_range_meters":20400,"station_id":"","pricing_plan_id":"cebpf4jnsgd1na2vs0mg"},{"bike_id":"c2740abf-b98e-4ee7-87e5-06ebfa656c7f","system_id":"levelo_inurba_marseille","lat":43.29809,"lon":5.38087,"is_reserved":false,"is_disabled":false,"rental_uris":{"android":"levelo://app?vid=c2740abf-b98e-4ee7-87e5-06ebfa656c7f","ios":"levelo://app?vid=c2740abf-b98e-4ee7-87e5-06ebfa656c7f"},"vehicle_type_id":"4","last_reported":1746612715,"current_range_meters":20400,"station_id":"ce4bgip2rcd13ifvqbb0","pricing_plan_id":"cebpf4jnsgd1na2vs0mg"},{"bike_id":"0fdba2f9-d5f2-4b3a-bb7a-4daafd2c8c6f","system_id":"levelo_inurba_marseille","lat":43.28617,"lon":5.35105,"is_reserved":false,"is_disabled":false,"rental_uris":{"android":"levelo://app?vid=0fdba2f9-d5f2-4b3a-bb7a-4daafd2c8c6f","ios":"levelo://app?vid=0fdba2f9-d5f2-4b3a-bb7a-4daafd2c8c6f"},"vehicle_type_id":"4","last_reported":1746612715,"current_range_meters":20400,"station_id":"ce4bhch2rcd13ifvqeug","pricing_plan_id":"cebpf4jnsgd1na2vs0mg"},{"bike_id":"801c3058-120b-4c28-9c5c-792ae5534fb3","system_id":"levelo_inurba_marseille","lat":43.29233,"lon":5.36076,"is_reserved":false,"is_disabled":false,"rental_uris":{"android":"levelo://app?vid=801c3058-120b-4c28-9c5c-792ae5534fb3","ios":"levelo://app?vid=801c3058-120b-4c28-9c5c-792ae5534fb3"},"vehicle_type_id":"4","last_reported":1746612715,"current_range_meters":20800,"station_id":"ce4bhbh2rcd13ifvqeqg","pricing_plan_id":"cebpf4jnsgd1na2vs0mg"},{"bike_id":"d94c20e4-06da-46e7-91de-34f9559e18ac","system_id":"levelo_inurba_marseille","lat":43.26558,"lon":5.37284,"is_reserved":false,"is_disabled":false,"rental_uris":{"android":"levelo://app?vid=d94c20e4-06da-46e7-91de-34f9559e18ac","ios":"levelo://app?vid=d94c20e4-06da-46e7-91de-34f9559e18ac"},"vehicle_type_id":"4","last_reported":1746612715,"current_range_meters":20800,"station_id":"ce4bhg12rcd13ifvqf70","pricing_plan_id":"cebpf4jnsgd1na2vs0mg"},{"bike_id":"410296ab-7b57-4129-8bcc-caf3835768ac","system_id":"levelo_inurba_marseille","lat":43.27994,"lon":5.41666,"is_reserved":false,"is_disabled":false,"rental_uris":{"android":"levelo://app?vid=410296ab-7b57-4129-8bcc-caf3835768ac","ios":"levelo://app?vid=410296ab-7b57-4129-8bcc-caf3835768ac"},"vehicle_type_id":"4","last_reported":1746612715,"current_range_meters":20800,"station_id":"ce4bho12rcd13ifvqh1g","pricing_plan_id":"cebpf4jnsgd1na2vs0mg"},{"bike_id":"3bb6014d-6874-4749-a9a0-abc762dc7af3","system_id":"levelo_inurba_marseille","lat":43.30538,"lon":5.36542,"is_reserved":false,"is_disabled":false,"rental_uris":{"android":"levelo://app?vid=3bb6014d-6874-4749-a9a0-abc762dc7af3","ios":"levelo://app?vid=3bb6014d-6874-4749-a9a0-abc762dc7af3"},"vehicle_type_id":"4","last_reported":1746612715,"current_range_meters":21600,"station_id":"ce4bgs12rcd13ifvqcag","pricing_plan_id":"cebpf4jnsgd1na2vs0mg"},{"bike_id":"1c1b5f56-2e2b-49ee-8b95-edd74e231f05","system_id":"levelo_inurba_marseille","lat":43.29556,"lon":5.42295,"is_reserved":false,"is_disabled":false,"rental_uris":{"android":"levelo://app?vid=1c1b5f56-2e2b-49ee-8b95-edd74e231f05","ios":"levelo://app?vid=1c1b5f56-2e2b-49ee-8b95-edd74e231f05"},"vehicle_type_id":"4","last_reported":1746612715,"current_range_meters":21600,"station_id":"ce4bhph2rcd13ifvqhdg","pricing_plan_id":"cebpf4jnsgd1na2vs0mg"},{"bike_id":"70a29a45-574c-4ff1-aca3-740aa0e705be","system_id":"levelo_inurba_marseille","lat":43.24153,"lon":5.36428,"is_reserved":false,"is_disabled":false,"rental_uris":{"android":"levelo://app?vid=70a29a45-574c-4ff1-aca3-740aa0e705be","ios":"levelo://app?vid=70a29a45-574c-4ff1-aca3-740aa0e705be"},"vehicle_type_id":"4","last_reported":1746612715,"current_range_meters":21600,"station_id":"cpo36qri1sfpv3e86is0","pricing_plan_id":"cebpf4jnsgd1na2vs0mg"},{"bike_id":"78b3b055-8eb3-4107-aca9-14207ba6f5bf","system_id":"levelo_inurba_marseille","lat":43.28159,"lon":5.402125,"is_reserved":false,"is_disabled":false,"rental_uris":{"android":"levelo://app?vid=78b3b055-8eb3-4107-aca9-14207ba6f5bf","ios":"levelo://app?vid=78b3b055-8eb3-4107-aca9-14207ba6f5bf"},"vehicle_type_id":"4","last_reported":1746612715,"current_range_meters":22000,"station_id":"","pricing_plan_id":"cebpf4jnsgd1na2vs0mg"},{"bike_id":"c88e8600-b98d-4d03-a751-95970359f5ca","system_id":"levelo_inurba_marseille","lat":43.29276,"lon":5.37619,"is_reserved":false,"is_disabled":false,"rental_uris":{"android":"levelo://app?vid=c88e8600-b98d-4d03-a751-95970359f5ca","ios":"levelo://app?vid=c88e8600-b98d-4d03-a751-95970359f5ca"},"vehicle_type_id":"4","last_reported":1746612715,"current_range_meters":22000,"station_id":"ce4bgi12rcd13ifvqb80","pricing_plan_id":"cebpf4jnsgd1na2vs0mg"},{"bike_id":"2c02d4b2-d24d-43b7-b291-4c662bffab1c","system_id":"levelo_inurba_marseille","lat":43.30532,"lon":5.36536,"is_reserved":false,"is_disabled":false,"rental_uris":{"android":"levelo://app?vid=2c02d4b2-d24d-43b7-b291-4c662bffab1c","ios":"levelo://app?vid=2c02d4b2-d24d-43b7-b291-4c662bffab1c"},"vehicle_type_id":"4","last_reported":1746612715,"current_range_meters":22000,"station_id":"ce4bgs12rcd13ifvqcag","pricing_plan_id":"cebpf4jnsgd1na2vs0mg"},{"bike_id":"a53d40e5-9c79-4264-96d2-9dcb729527f2","system_id":"levelo_inurba_marseille","lat":43.302,"lon":5.37205,"is_reserved":false,"is_disabled":false,"rental_uris":{"android":"levelo://app?vid=a53d40e5-9c79-4264-96d2-9dcb729527f2","ios":"levelo://app?vid=a53d40e5-9c79-4264-96d2-9dcb729527f2"},"vehicle_type_id":"4","last_reported":1746612715,"current_range_meters":22400,"station_id":"","pricing_plan_id":"cebpf4jnsgd1na2vs0mg"},{"bike_id":"5340ee3a-3715-406b-865c-69b21e34c993","system_id":"levelo_inurba_marseille","lat":43.23963,"lon":5.36628,"is_reserved":false,"is_disabled":false,"rental_uris":{"android":"levelo://app?vid=5340ee3a-3715-406b-865c-69b21e34c993","ios":"levelo://app?vid=5340ee3a-3715-406b-865c-69b21e34c993"},"vehicle_type_id":"4","last_reported":1746612715,"current_range_meters":22400,"station_id":"ce4bhi12rcd13ifvqfp0","pricing_plan_id":"cebpf4jnsgd1na2vs0mg"},{"bike_id":"61773464-18ea-4477-b785-2b5e8184d3c2","system_id":"levelo_inurba_marseille","lat":43.325482,"lon":5.414522,"is_reserved":false,"is_disabled":false,"rental_uris":{"android":"levelo://app?vid=61773464-18ea-4477-b785-2b5e8184d3c2","ios":"levelo://app?vid=61773464-18ea-4477-b785-2b5e8184d3c2"},"vehicle_type_id":"4","last_reported":1746612715,"current_range_meters":22400,"station_id":"ce4bhq12rcd13ifvqhhg","pricing_plan_id":"cebpf4jnsgd1na2vs0mg"},{"bike_id":"5db4f57f-84df-4bf4-9bd3-cb08d409d519","system_id":"levelo_inurba_marseille","lat":43.29061,"lon":5.35909,"is_reserved":false,"is_disabled":false,"rental_uris":{"android":"levelo://app?vid=5db4f57f-84df-4bf4-9bd3-cb08d409d519","ios":"levelo://app?vid=5db4f57f-84df-4bf4-9bd3-cb08d409d519"},"vehicle_type_id":"4","last_reported":1746612715,"current_range_meters":22800,"station_id":"ce4bha92rcd13ifvqeg0","pricing_plan_id":"cebpf4jnsgd1na2vs0mg"},{"bike_id":"d9511953-4470-4721-9dee-7f3f6240a1f1","system_id":"levelo_inurba_marseille","lat":43.24808,"lon":5.3744,"is_reserved":false,"is_disabled":false,"rental_uris":{"android":"levelo://app?vid=d9511953-4470-4721-9dee-7f3f6240a1f1","ios":"levelo://app?vid=d9511953-4470-4721-9dee-7f3f6240a1f1"},"vehicle_type_id":"4","last_reported":1746612715,"current_range_meters":22800,"station_id":"ce4bhgh2rcd13ifvqfb0","pricing_plan_id":"cebpf4jnsgd1na2vs0mg"},{"bike_id":"db81ab1d-6ef0-42ef-a265-93340d0c10ca","system_id":"levelo_inurba_marseille","lat":43.23969,"lon":5.3663,"is_reserved":false,"is_disabled":false,"rental_uris":{"android":"levelo://app?vid=db81ab1d-6ef0-42ef-a265-93340d0c10ca","ios":"levelo://app?vid=db81ab1d-6ef0-42ef-a265-93340d0c10ca"},"vehicle_type_id":"4","last_reported":1746612715,"current_range_meters":22800,"station_id":"ce4bhi12rcd13ifvqfp0","pricing_plan_id":"cebpf4jnsgd1na2vs0mg"},{"bike_id":"67a540a8-6eb5-49f7-b795-4cef3405eb5a","system_id":"levelo_inurba_marseille","lat":43.25928,"lon":5.40904,"is_reserved":false,"is_disabled":false,"rental_uris":{"android":"levelo://app?vid=67a540a8-6eb5-49f7-b795-4cef3405eb5a","ios":"levelo://app?vid=67a540a8-6eb5-49f7-b795-4cef3405eb5a"},"vehicle_type_id":"4","last_reported":1746612715,"current_range_meters":22800,"station_id":"ce4bhm92rcd13ifvqglg","pricing_plan_id":"cebpf4jnsgd1na2vs0mg"},{"bike_id":"74dfcb2f-a38e-46fd-a9a4-88a9c0d71f4a","system_id":"levelo_inurba_marseille","lat":43.25917,"lon":5.40874,"is_reserved":false,"is_disabled":false,"rental_uris":{"android":"levelo://app?vid=74dfcb2f-a38e-46fd-a9a4-88a9c0d71f4a","ios":"levelo://app?vid=74dfcb2f-a38e-46fd-a9a4-88a9c0d71f4a"},"vehicle_type_id":"4","last_reported":1746612715,"current_range_meters":22800,"station_id":"ce4bhm92rcd13ifvqglg","pricing_plan_id":"cebpf4jnsgd1na2vs0mg"},{"bike_id":"aaad2336-2ad8-412d-ae48-070f832e292f","system_id":"levelo_inurba_marseille","lat":43.275,"lon":5.42468,"is_reserved":false,"is_disabled":false,"rental_uris":{"android":"levelo://app?vid=aaad2336-2ad8-412d-ae48-070f832e292f","ios":"levelo://app?vid=aaad2336-2ad8-412d-ae48-070f832e292f"},"vehicle_type_id":"4","last_reported":1746612715,"current_range_meters":22800,"station_id":"ce4bhn92rcd13ifvqgrg","pricing_plan_id":"cebpf4jnsgd1na2vs0mg"},{"bike_id":"eff7be74-0c57-42e0-aa90-db4a9169cb8e","system_id":"levelo_inurba_marseille","lat":43.32542,"lon":5.41427,"is_reserved":false,"is_disabled":false,"rental_uris":{"android":"levelo://app?vid=eff7be74-0c57-42e0-aa90-db4a9169cb8e","ios":"levelo://app?vid=eff7be74-0c57-42e0-aa90-db4a9169cb8e"},"vehicle_type_id":"4","last_reported":1746612715,"current_range_meters":22800,"station_id":"ce4bhq12rcd13ifvqhhg","pricing_plan_id":"cebpf4jnsgd1na2vs0mg"},{"bike_id":"339df808-39b3-44e1-9e60-6a628acbcec6","system_id":"levelo_inurba_marseille","lat":43.23192,"lon":5.35556,"is_reserved":false,"is_disabled":false,"rental_uris":{"android":"levelo://app?vid=339df808-39b3-44e1-9e60-6a628acbcec6","ios":"levelo://app?vid=339df808-39b3-44e1-9e60-6a628acbcec6"},"vehicle_type_id":"4","last_reported":1746612715,"current_range_meters":22800,"station_id":"ce4bhu92rcd13ifvqi70","pricing_plan_id":"cebpf4jnsgd1na2vs0mg"},{"bike_id":"96807fab-53a4-4e67-82ed-d73ce1829fe1","system_id":"levelo_inurba_marseille","lat":43.313887,"lon":5.366947,"is_reserved":false,"is_disabled":false,"rental_uris":{"android":"levelo://app?vid=96807fab-53a4-4e67-82ed-d73ce1829fe1","ios":"levelo://app?vid=96807fab-53a4-4e67-82ed-d73ce1829fe1"},"vehicle_type_id":"4","last_reported":1746612715,"current_range_meters":23200,"station_id":"","pricing_plan_id":"cebpf4jnsgd1na2vs0mg"},{"bike_id":"ff807334-3ad3-4e40-bbde-648eb2b1c45b","system_id":"levelo_inurba_marseille","lat":43.21231,"lon":5.35075,"is_reserved":false,"is_disabled":false,"rental_uris":{"android":"levelo://app?vid=ff807334-3ad3-4e40-bbde-648eb2b1c45b","ios":"levelo://app?vid=ff807334-3ad3-4e40-bbde-648eb2b1c45b"},"vehicle_type_id":"4","last_reported":1746612715,"current_range_meters":23200,"station_id":"","pricing_plan_id":"cebpf4jnsgd1na2vs0mg"},{"bike_id":"7654d39b-e07e-4f31-8685-fcda43cdd918","system_id":"levelo_inurba_marseille","lat":43.30542,"lon":5.36552,"is_reserved":false,"is_disabled":false,"rental_uris":{"android":"levelo://app?vid=7654d39b-e07e-4f31-8685-fcda43cdd918","ios":"levelo://app?vid=7654d39b-e07e-4f31-8685-fcda43cdd918"},"vehicle_type_id":"4","last_reported":1746612715,"current_range_meters":23200,"station_id":"ce4bgs12rcd13ifvqcag","pricing_plan_id":"cebpf4jnsgd1na2vs0mg"},{"bike_id":"41d33bca-bf18-4c2a-a93b-1aef72dc49f3","system_id":"levelo_inurba_marseille","lat":43.29225,"lon":5.36058,"is_reserved":false,"is_disabled":false,"rental_uris":{"android":"levelo://app?vid=41d33bca-bf18-4c2a-a93b-1aef72dc49f3","ios":"levelo://app?vid=41d33bca-bf18-4c2a-a93b-1aef72dc49f3"},"vehicle_type_id":"4","last_reported":1746612715,"current_range_meters":23200,"station_id":"ce4bhbh2rcd13ifvqeqg","pricing_plan_id":"cebpf4jnsgd1na2vs0mg"},{"bike_id":"5545e5f3-6379-4d16-8527-ea6f67b4fa46","system_id":"levelo_inurba_marseille","lat":43.25938,"lon":5.40875,"is_reserved":false,"is_disabled":false,"rental_uris":{"android":"levelo://app?vid=5545e5f3-6379-4d16-8527-ea6f67b4fa46","ios":"levelo://app?vid=5545e5f3-6379-4d16-8527-ea6f67b4fa46"},"vehicle_type_id":"4","last_reported":1746612715,"current_range_meters":23200,"station_id":"ce4bhm92rcd13ifvqglg","pricing_plan_id":"cebpf4jnsgd1na2vs0mg"},{"bike_id":"cd874f70-1452-439c-826e-8a11a9645db3","system_id":"levelo_inurba_marseille","lat":43.32657,"lon":5.409973,"is_reserved":false,"is_disabled":false,"rental_uris":{"android":"levelo://app?vid=cd874f70-1452-439c-826e-8a11a9645db3","ios":"levelo://app?vid=cd874f70-1452-439c-826e-8a11a9645db3"},"vehicle_type_id":"4","last_reported":1746612715,"current_range_meters":23200,"station_id":"ce4bhpp2rcd13ifvqhgg","pricing_plan_id":"cebpf4jnsgd1na2vs0mg"},{"bike_id":"1ea25817-a2a4-4899-8dac-02e7ba61f088","system_id":"levelo_inurba_marseille","lat":43.29263,"lon":5.37628,"is_reserved":false,"is_disabled":false,"rental_uris":{"android":"levelo://app?vid=1ea25817-a2a4-4899-8dac-02e7ba61f088","ios":"levelo://app?vid=1ea25817-a2a4-4899-8dac-02e7ba61f088"},"vehicle_type_id":"4","last_reported":1746612715,"current_range_meters":24000,"station_id":"ce4bgi12rcd13ifvqb80","pricing_plan_id":"cebpf4jnsgd1na2vs0mg"},{"bike_id":"ea24b8b0-c527-40b0-afd1-e53441cb456e","system_id":"levelo_inurba_marseille","lat":43.30535,"lon":5.36531,"is_reserved":false,"is_disabled":false,"rental_uris":{"android":"levelo://app?vid=ea24b8b0-c527-40b0-afd1-e53441cb456e","ios":"levelo://app?vid=ea24b8b0-c527-40b0-afd1-e53441cb456e"},"vehicle_type_id":"4","last_reported":1746612715,"current_range_meters":24000,"station_id":"ce4bgs12rcd13ifvqcag","pricing_plan_id":"cebpf4jnsgd1na2vs0mg"},{"bike_id":"c258143e-3520-4e41-81b6-694c7cefe7ef","system_id":"levelo_inurba_marseille","lat":43.29202,"lon":5.35803,"is_reserved":false,"is_disabled":false,"rental_uris":{"android":"levelo://app?vid=c258143e-3520-4e41-81b6-694c7cefe7ef","ios":"levelo://app?vid=c258143e-3520-4e41-81b6-694c7cefe7ef"},"vehicle_type_id":"4","last_reported":1746612715,"current_range_meters":24000,"station_id":"ce4bhb12rcd13ifvqel0","pricing_plan_id":"cebpf4jnsgd1na2vs0mg"},{"bike_id":"deb79c29-e446-4f7a-83f8-447a1ea83a21","system_id":"levelo_inurba_marseille","lat":43.30773,"lon":5.38262,"is_reserved":false,"is_disabled":false,"rental_uris":{"android":"levelo://app?vid=deb79c29-e446-4f7a-83f8-447a1ea83a21","ios":"levelo://app?vid=deb79c29-e446-4f7a-83f8-447a1ea83a21"},"vehicle_type_id":"4","last_reported":1746612715,"current_range_meters":24400,"station_id":"","pricing_plan_id":"cebpf4jnsgd1na2vs0mg"},{"bike_id":"9cba1a44-525d-483d-8899-5595fe172b37","system_id":"levelo_inurba_marseille","lat":43.33608,"lon":5.40955,"is_reserved":false,"is_disabled":false,"rental_uris":{"android":"levelo://app?vid=9cba1a44-525d-483d-8899-5595fe172b37","ios":"levelo://app?vid=9cba1a44-525d-483d-8899-5595fe172b37"},"vehicle_type_id":"4","last_reported":1746612715,"current_range_meters":24400,"station_id":"","pricing_plan_id":"cebpf4jnsgd1na2vs0mg"},{"bike_id":"c54bf8eb-07b3-4341-bb68-7c918d04487d","system_id":"levelo_inurba_marseille","lat":43.309149,"lon":5.3685,"is_reserved":false,"is_disabled":false,"rental_uris":{"android":"levelo://app?vid=c54bf8eb-07b3-4341-bb68-7c918d04487d","ios":"levelo://app?vid=c54bf8eb-07b3-4341-bb68-7c918d04487d"},"vehicle_type_id":"4","last_reported":1746612715,"current_range_meters":24400,"station_id":"ce4bgn92rcd13ifvqbvg","pricing_plan_id":"cebpf4jnsgd1na2vs0mg"},{"bike_id":"a5ed9c2e-853c-469f-ad0c-54aa4e1b2ef8","system_id":"levelo_inurba_marseille","lat":43.30953,"lon":5.3906,"is_reserved":false,"is_disabled":false,"rental_uris":{"android":"levelo://app?vid=a5ed9c2e-853c-469f-ad0c-54aa4e1b2ef8","ios":"levelo://app?vid=a5ed9c2e-853c-469f-ad0c-54aa4e1b2ef8"},"vehicle_type_id":"4","last_reported":1746612715,"current_range_meters":24400,"station_id":"ce4bgup2rcd13ifvqco0","pricing_plan_id":"cebpf4jnsgd1na2vs0mg"},{"bike_id":"fffd3d76-da5d-43ca-9730-1eea3ac64f2c","system_id":"levelo_inurba_marseille","lat":43.25939,"lon":5.40884,"is_reserved":false,"is_disabled":false,"rental_uris":{"android":"levelo://app?vid=fffd3d76-da5d-43ca-9730-1eea3ac64f2c","ios":"levelo://app?vid=fffd3d76-da5d-43ca-9730-1eea3ac64f2c"},"vehicle_type_id":"4","last_reported":1746612715,"current_range_meters":24400,"station_id":"ce4bhm92rcd13ifvqglg","pricing_plan_id":"cebpf4jnsgd1na2vs0mg"},{"bike_id":"0b4768f5-eff7-4811-ada7-e1138dcdb437","system_id":"levelo_inurba_marseille","lat":43.25979,"lon":5.40877,"is_reserved":false,"is_disabled":false,"rental_uris":{"android":"levelo://app?vid=0b4768f5-eff7-4811-ada7-e1138dcdb437","ios":"levelo://app?vid=0b4768f5-eff7-4811-ada7-e1138dcdb437"},"vehicle_type_id":"4","last_reported":1746612715,"current_range_meters":24800,"station_id":"","pricing_plan_id":"cebpf4jnsgd1na2vs0mg"},{"bike_id":"db7282b4-81ab-4a37-bad5-9d4589e9fd77","system_id":"levelo_inurba_marseille","lat":43.30913,"lon":5.36853,"is_reserved":false,"is_disabled":false,"rental_uris":{"android":"levelo://app?vid=db7282b4-81ab-4a37-bad5-9d4589e9fd77","ios":"levelo://app?vid=db7282b4-81ab-4a37-bad5-9d4589e9fd77"},"vehicle_type_id":"4","last_reported":1746612715,"current_range_meters":24800,"station_id":"ce4bgn92rcd13ifvqbvg","pricing_plan_id":"cebpf4jnsgd1na2vs0mg"},{"bike_id":"0433ea9b-e2d5-4c74-87f9-7212340b8bc3","system_id":"levelo_inurba_marseille","lat":43.28274,"lon":5.35056,"is_reserved":false,"is_disabled":false,"rental_uris":{"android":"levelo://app?vid=0433ea9b-e2d5-4c74-87f9-7212340b8bc3","ios":"levelo://app?vid=0433ea9b-e2d5-4c74-87f9-7212340b8bc3"},"vehicle_type_id":"4","last_reported":1746612715,"current_range_meters":24800,"station_id":"ce4bhbp2rcd13ifvqerg","pricing_plan_id":"cebpf4jnsgd1na2vs0mg"},{"bike_id":"75f2b3e2-41d1-42b4-8558-91039ee38dba","system_id":"levelo_inurba_marseille","lat":43.26575,"lon":5.37292,"is_reserved":false,"is_disabled":false,"rental_uris":{"android":"levelo://app?vid=75f2b3e2-41d1-42b4-8558-91039ee38dba","ios":"levelo://app?vid=75f2b3e2-41d1-42b4-8558-91039ee38dba"},"vehicle_type_id":"4","last_reported":1746612715,"current_range_meters":24800,"station_id":"ce4bhg12rcd13ifvqf70","pricing_plan_id":"cebpf4jnsgd1na2vs0mg"},{"bike_id":"504d1db7-5893-40bd-bd06-39195dce8d14","system_id":"levelo_inurba_marseille","lat":43.262301,"lon":5.404491,"is_reserved":false,"is_disabled":false,"rental_uris":{"android":"levelo://app?vid=504d1db7-5893-40bd-bd06-39195dce8d14","ios":"levelo://app?vid=504d1db7-5893-40bd-bd06-39195dce8d14"},"vehicle_type_id":"4","last_reported":1746612715,"current_range_meters":24800,"station_id":"ce4bhmh2rcd13ifvqgmg","pricing_plan_id":"cebpf4jnsgd1na2vs0mg"},{"bike_id":"e77514b6-cdf9-4d68-871f-49a0bdc8f537","system_id":"levelo_inurba_marseille","lat":43.32546,"lon":5.41432,"is_reserved":false,"is_disabled":false,"rental_uris":{"android":"levelo://app?vid=e77514b6-cdf9-4d68-871f-49a0bdc8f537","ios":"levelo://app?vid=e77514b6-cdf9-4d68-871f-49a0bdc8f537"},"vehicle_type_id":"4","last_reported":1746612715,"current_range_meters":24800,"station_id":"ce4bhq12rcd13ifvqhhg","pricing_plan_id":"cebpf4jnsgd1na2vs0mg"},{"bike_id":"e3e242c0-f561-4e5c-bc18-fa486ff74090","system_id":"levelo_inurba_marseille","lat":43.24181,"lon":5.36405,"is_reserved":false,"is_disabled":false,"rental_uris":{"android":"levelo://app?vid=e3e242c0-f561-4e5c-bc18-fa486ff74090","ios":"levelo://app?vid=e3e242c0-f561-4e5c-bc18-fa486ff74090"},"vehicle_type_id":"4","last_reported":1746612715,"current_range_meters":24800,"station_id":"cpo36qri1sfpv3e86is0","pricing_plan_id":"cebpf4jnsgd1na2vs0mg"},{"bike_id":"f73d450b-fde6-4898-99b1-916875a407c6","system_id":"levelo_inurba_marseille","lat":43.22505,"lon":5.34777,"is_reserved":false,"is_disabled":false,"rental_uris":{"android":"levelo://app?vid=f73d450b-fde6-4898-99b1-916875a407c6","ios":"levelo://app?vid=f73d450b-fde6-4898-99b1-916875a407c6"},"vehicle_type_id":"4","last_reported":1746612715,"current_range_meters":24800,"station_id":"st_cvj5dfep6f1abm77gieg","pricing_plan_id":"cebpf4jnsgd1na2vs0mg"},{"bike_id":"4946e6da-9c94-4a8e-bc7c-3938e341f47d","system_id":"levelo_inurba_marseille","lat":43.21754,"lon":5.34592,"is_reserved":false,"is_disabled":false,"rental_uris":{"android":"levelo://app?vid=4946e6da-9c94-4a8e-bc7c-3938e341f47d","ios":"levelo://app?vid=4946e6da-9c94-4a8e-bc7c-3938e341f47d"},"vehicle_type_id":"4","last_reported":1746612715,"current_range_meters":24800,"station_id":"st_cvj6r9ubvosntc0bgbag","pricing_plan_id":"cebpf4jnsgd1na2vs0mg"},{"bike_id":"50d50b4c-dfde-4fe7-9f64-40adbbf93d18","system_id":"levelo_inurba_marseille","lat":43.32426,"lon":5.38398,"is_reserved":false,"is_disabled":false,"rental_uris":{"android":"levelo://app?vid=50d50b4c-dfde-4fe7-9f64-40adbbf93d18","ios":"levelo://app?vid=50d50b4c-dfde-4fe7-9f64-40adbbf93d18"},"vehicle_type_id":"4","last_reported":1746612715,"current_range_meters":25200,"station_id":"","pricing_plan_id":"cebpf4jnsgd1na2vs0mg"},{"bike_id":"f22c64ec-0f55-471f-b720-1a6cc178369e","system_id":"levelo_inurba_marseille","lat":43.3143,"lon":5.36781,"is_reserved":false,"is_disabled":false,"rental_uris":{"android":"levelo://app?vid=f22c64ec-0f55-471f-b720-1a6cc178369e","ios":"levelo://app?vid=f22c64ec-0f55-471f-b720-1a6cc178369e"},"vehicle_type_id":"4","last_reported":1746612715,"current_range_meters":25200,"station_id":"","pricing_plan_id":"cebpf4jnsgd1na2vs0mg"},{"bike_id":"35f34e7a-37bd-4eb8-8c9b-70b6216a9936","system_id":"levelo_inurba_marseille","lat":43.30544,"lon":5.36558,"is_reserved":false,"is_disabled":false,"rental_uris":{"android":"levelo://app?vid=35f34e7a-37bd-4eb8-8c9b-70b6216a9936","ios":"levelo://app?vid=35f34e7a-37bd-4eb8-8c9b-70b6216a9936"},"vehicle_type_id":"4","last_reported":1746612715,"current_range_meters":25200,"station_id":"ce4bgs12rcd13ifvqcag","pricing_plan_id":"cebpf4jnsgd1na2vs0mg"},{"bike_id":"22a5c2d1-184c-4055-9770-a37d865c1f8b","system_id":"levelo_inurba_marseille","lat":43.272,"lon":5.40992,"is_reserved":false,"is_disabled":false,"rental_uris":{"android":"levelo://app?vid=22a5c2d1-184c-4055-9770-a37d865c1f8b","ios":"levelo://app?vid=22a5c2d1-184c-4055-9770-a37d865c1f8b"},"vehicle_type_id":"4","last_reported":1746612715,"current_range_meters":25200,"station_id":"ce4bhl12rcd13ifvqgf0","pricing_plan_id":"cebpf4jnsgd1na2vs0mg"},{"bike_id":"f10a941d-6e85-423b-abfd-8a6490b05797","system_id":"levelo_inurba_marseille","lat":43.31715,"lon":5.43706,"is_reserved":false,"is_disabled":false,"rental_uris":{"android":"levelo://app?vid=f10a941d-6e85-423b-abfd-8a6490b05797","ios":"levelo://app?vid=f10a941d-6e85-423b-abfd-8a6490b05797"},"vehicle_type_id":"4","last_reported":1746612715,"current_range_meters":25200,"station_id":"ce4bhp92rcd13ifvqhcg","pricing_plan_id":"cebpf4jnsgd1na2vs0mg"},{"bike_id":"1f6f4af9-a9c6-471d-816b-fae910eb6286","system_id":"levelo_inurba_marseille","lat":43.32656,"lon":5.40982,"is_reserved":false,"is_disabled":false,"rental_uris":{"android":"levelo://app?vid=1f6f4af9-a9c6-471d-816b-fae910eb6286","ios":"levelo://app?vid=1f6f4af9-a9c6-471d-816b-fae910eb6286"},"vehicle_type_id":"4","last_reported":1746612715,"current_range_meters":25200,"station_id":"ce4bhpp2rcd13ifvqhgg","pricing_plan_id":"cebpf4jnsgd1na2vs0mg"},{"bike_id":"ce4b8159-c0b3-4a1f-8d63-28fbe483f5b1","system_id":"levelo_inurba_marseille","lat":43.33721,"lon":5.39184,"is_reserved":false,"is_disabled":false,"rental_uris":{"android":"levelo://app?vid=ce4b8159-c0b3-4a1f-8d63-28fbe483f5b1","ios":"levelo://app?vid=ce4b8159-c0b3-4a1f-8d63-28fbe483f5b1"},"vehicle_type_id":"4","last_reported":1746612715,"current_range_meters":25200,"station_id":"ce4bhr92rcd13ifvqhsg","pricing_plan_id":"cebpf4jnsgd1na2vs0mg"},{"bike_id":"70a576ca-d174-4f91-9c54-aa0e357f1ba9","system_id":"levelo_inurba_marseille","lat":43.30918,"lon":5.36848,"is_reserved":false,"is_disabled":false,"rental_uris":{"android":"levelo://app?vid=70a576ca-d174-4f91-9c54-aa0e357f1ba9","ios":"levelo://app?vid=70a576ca-d174-4f91-9c54-aa0e357f1ba9"},"vehicle_type_id":"4","last_reported":1746612715,"current_range_meters":25600,"station_id":"ce4bgn92rcd13ifvqbvg","pricing_plan_id":"cebpf4jnsgd1na2vs0mg"},{"bike_id":"4390308a-eddc-478b-be17-c691df3e99e0","system_id":"levelo_inurba_marseille","lat":43.302805,"lon":5.377917,"is_reserved":false,"is_disabled":false,"rental_uris":{"android":"levelo://app?vid=4390308a-eddc-478b-be17-c691df3e99e0","ios":"levelo://app?vid=4390308a-eddc-478b-be17-c691df3e99e0"},"vehicle_type_id":"4","last_reported":1746612715,"current_range_meters":25600,"station_id":"ce4bgv12rcd13ifvqcp0","pricing_plan_id":"cebpf4jnsgd1na2vs0mg"},{"bike_id":"ea82de6d-ac64-4009-85ec-16c578e46aba","system_id":"levelo_inurba_marseille","lat":43.29441,"lon":5.39753,"is_reserved":false,"is_disabled":false,"rental_uris":{"android":"levelo://app?vid=ea82de6d-ac64-4009-85ec-16c578e46aba","ios":"levelo://app?vid=ea82de6d-ac64-4009-85ec-16c578e46aba"},"vehicle_type_id":"4","last_reported":1746612715,"current_range_meters":25600,"station_id":"ce4bh3h2rcd13ifvqdo0","pricing_plan_id":"cebpf4jnsgd1na2vs0mg"},{"bike_id":"cb9b6d59-79a8-451b-a034-53d59f718ffe","system_id":"levelo_inurba_marseille","lat":43.261741,"lon":5.379021,"is_reserved":false,"is_disabled":false,"rental_uris":{"android":"levelo://app?vid=cb9b6d59-79a8-451b-a034-53d59f718ffe","ios":"levelo://app?vid=cb9b6d59-79a8-451b-a034-53d59f718ffe"},"vehicle_type_id":"4","last_reported":1746612715,"current_range_meters":25600,"station_id":"ce4bhjp2rcd13ifvqg90","pricing_plan_id":"cebpf4jnsgd1na2vs0mg"},{"bike_id":"c1041c9f-2085-470a-b13c-f88fd8323115","system_id":"levelo_inurba_marseille","lat":43.27782,"lon":5.38669,"is_reserved":false,"is_disabled":false,"rental_uris":{"android":"levelo://app?vid=c1041c9f-2085-470a-b13c-f88fd8323115","ios":"levelo://app?vid=c1041c9f-2085-470a-b13c-f88fd8323115"},"vehicle_type_id":"4","last_reported":1746612715,"current_range_meters":26000,"station_id":"","pricing_plan_id":"cebpf4jnsgd1na2vs0mg"},{"bike_id":"4e786479-c0e3-4c70-97db-557108e21cef","system_id":"levelo_inurba_marseille","lat":43.28705,"lon":5.3999,"is_reserved":false,"is_disabled":false,"rental_uris":{"android":"levelo://app?vid=4e786479-c0e3-4c70-97db-557108e21cef","ios":"levelo://app?vid=4e786479-c0e3-4c70-97db-557108e21cef"},"vehicle_type_id":"4","last_reported":1746612715,"current_range_meters":26000,"station_id":"","pricing_plan_id":"cebpf4jnsgd1na2vs0mg"},{"bike_id":"7fcc1d4a-4992-49dd-bb9d-45de13dee03a","system_id":"levelo_inurba_marseille","lat":43.298445,"lon":5.362698,"is_reserved":false,"is_disabled":false,"rental_uris":{"android":"levelo://app?vid=7fcc1d4a-4992-49dd-bb9d-45de13dee03a","ios":"levelo://app?vid=7fcc1d4a-4992-49dd-bb9d-45de13dee03a"},"vehicle_type_id":"4","last_reported":1746612715,"current_range_meters":26000,"station_id":"ce4bgpp2rcd13ifvqc3g","pricing_plan_id":"cebpf4jnsgd1na2vs0mg"},{"bike_id":"10f9297d-7dcd-4169-a091-ba5d621e46a4","system_id":"levelo_inurba_marseille","lat":43.31317,"lon":5.3675,"is_reserved":false,"is_disabled":false,"rental_uris":{"android":"levelo://app?vid=10f9297d-7dcd-4169-a091-ba5d621e46a4","ios":"levelo://app?vid=10f9297d-7dcd-4169-a091-ba5d621e46a4"},"vehicle_type_id":"4","last_reported":1746612715,"current_range_meters":26000,"station_id":"ce4bgr92rcd13ifvqc6g","pricing_plan_id":"cebpf4jnsgd1na2vs0mg"},{"bike_id":"9ee6b6a8-306f-41b6-b6d7-ff4dac5e0cc0","system_id":"levelo_inurba_marseille","lat":43.291988,"lon":5.393226,"is_reserved":false,"is_disabled":false,"rental_uris":{"android":"levelo://app?vid=9ee6b6a8-306f-41b6-b6d7-ff4dac5e0cc0","ios":"levelo://app?vid=9ee6b6a8-306f-41b6-b6d7-ff4dac5e0cc0"},"vehicle_type_id":"4","last_reported":1746612715,"current_range_meters":26000,"station_id":"ce4bh192rcd13ifvqdd0","pricing_plan_id":"cebpf4jnsgd1na2vs0mg"},{"bike_id":"8ac7f638-dda8-423d-82a5-d0fe5189f6e2","system_id":"levelo_inurba_marseille","lat":43.25865,"lon":5.3991,"is_reserved":false,"is_disabled":false,"rental_uris":{"android":"levelo://app?vid=8ac7f638-dda8-423d-82a5-d0fe5189f6e2","ios":"levelo://app?vid=8ac7f638-dda8-423d-82a5-d0fe5189f6e2"},"vehicle_type_id":"4","last_reported":1746612715,"current_range_meters":26000,"station_id":"ce4bhl92rcd13ifvqghg","pricing_plan_id":"cebpf4jnsgd1na2vs0mg"},{"bike_id":"1f7739e4-ee34-4499-9849-1cb3a5ffa5bf","system_id":"levelo_inurba_marseille","lat":43.259368,"lon":5.409,"is_reserved":false,"is_disabled":false,"rental_uris":{"android":"levelo://app?vid=1f7739e4-ee34-4499-9849-1cb3a5ffa5bf","ios":"levelo://app?vid=1f7739e4-ee34-4499-9849-1cb3a5ffa5bf"},"vehicle_type_id":"4","last_reported":1746612715,"current_range_meters":26000,"station_id":"ce4bhm92rcd13ifvqglg","pricing_plan_id":"cebpf4jnsgd1na2vs0mg"},{"bike_id":"cae56fa5-f9d3-4b43-a387-0fea59b8bab5","system_id":"levelo_inurba_marseille","lat":43.33029,"lon":5.39038,"is_reserved":false,"is_disabled":false,"rental_uris":{"android":"levelo://app?vid=cae56fa5-f9d3-4b43-a387-0fea59b8bab5","ios":"levelo://app?vid=cae56fa5-f9d3-4b43-a387-0fea59b8bab5"},"vehicle_type_id":"4","last_reported":1746612715,"current_range_meters":26000,"station_id":"ce4bhr92rcd13ifvqhrg","pricing_plan_id":"cebpf4jnsgd1na2vs0mg"},{"bike_id":"3143a22a-76e5-48bf-9434-fe70e7548a5a","system_id":"levelo_inurba_marseille","lat":43.250963,"lon":5.403381,"is_reserved":false,"is_disabled":false,"rental_uris":{"android":"levelo://app?vid=3143a22a-76e5-48bf-9434-fe70e7548a5a","ios":"levelo://app?vid=3143a22a-76e5-48bf-9434-fe70e7548a5a"},"vehicle_type_id":"4","last_reported":1746612715,"current_range_meters":26800,"station_id":"","pricing_plan_id":"cebpf4jnsgd1na2vs0mg"},{"bike_id":"0d9ef74a-dc72-47a2-97cb-176f30d4c43d","system_id":"levelo_inurba_marseille","lat":43.30913,"lon":5.36855,"is_reserved":false,"is_disabled":false,"rental_uris":{"android":"levelo://app?vid=0d9ef74a-dc72-47a2-97cb-176f30d4c43d","ios":"levelo://app?vid=0d9ef74a-dc72-47a2-97cb-176f30d4c43d"},"vehicle_type_id":"4","last_reported":1746612715,"current_range_meters":26800,"station_id":"ce4bgn92rcd13ifvqbvg","pricing_plan_id":"cebpf4jnsgd1na2vs0mg"},{"bike_id":"ff4a8081-8ce9-4fb4-8970-6eaa0ca3bedb","system_id":"levelo_inurba_marseille","lat":43.29849,"lon":5.36278,"is_reserved":false,"is_disabled":false,"rental_uris":{"android":"levelo://app?vid=ff4a8081-8ce9-4fb4-8970-6eaa0ca3bedb","ios":"levelo://app?vid=ff4a8081-8ce9-4fb4-8970-6eaa0ca3bedb"},"vehicle_type_id":"4","last_reported":1746612715,"current_range_meters":26800,"station_id":"ce4bgpp2rcd13ifvqc3g","pricing_plan_id":"cebpf4jnsgd1na2vs0mg"},{"bike_id":"951d3e97-beb6-42a0-b7fe-561b030bd929","system_id":"levelo_inurba_marseille","lat":43.30521,"lon":5.36511,"is_reserved":false,"is_disabled":false,"rental_uris":{"android":"levelo://app?vid=951d3e97-beb6-42a0-b7fe-561b030bd929","ios":"levelo://app?vid=951d3e97-beb6-42a0-b7fe-561b030bd929"},"vehicle_type_id":"4","last_reported":1746612715,"current_range_meters":26800,"station_id":"ce4bgs12rcd13ifvqcag","pricing_plan_id":"cebpf4jnsgd1na2vs0mg"},{"bike_id":"30880345-4e2e-4c4a-9831-a1a30f0bae64","system_id":"levelo_inurba_marseille","lat":43.23966,"lon":5.3663,"is_reserved":false,"is_disabled":false,"rental_uris":{"android":"levelo://app?vid=30880345-4e2e-4c4a-9831-a1a30f0bae64","ios":"levelo://app?vid=30880345-4e2e-4c4a-9831-a1a30f0bae64"},"vehicle_type_id":"4","last_reported":1746612715,"current_range_meters":26800,"station_id":"ce4bhi12rcd13ifvqfp0","pricing_plan_id":"cebpf4jnsgd1na2vs0mg"},{"bike_id":"d138c871-c8f6-429a-bafc-a8cd057c3e95","system_id":"levelo_inurba_marseille","lat":43.24673,"lon":5.38174,"is_reserved":false,"is_disabled":false,"rental_uris":{"android":"levelo://app?vid=d138c871-c8f6-429a-bafc-a8cd057c3e95","ios":"levelo://app?vid=d138c871-c8f6-429a-bafc-a8cd057c3e95"},"vehicle_type_id":"4","last_reported":1746612715,"current_range_meters":26800,"station_id":"ce4bhih2rcd13ifvqfr0","pricing_plan_id":"cebpf4jnsgd1na2vs0mg"},{"bike_id":"6b01c0dd-005b-42b4-81b6-9b4cc709d63e","system_id":"levelo_inurba_marseille","lat":43.33723,"lon":5.39188,"is_reserved":false,"is_disabled":false,"rental_uris":{"android":"levelo://app?vid=6b01c0dd-005b-42b4-81b6-9b4cc709d63e","ios":"levelo://app?vid=6b01c0dd-005b-42b4-81b6-9b4cc709d63e"},"vehicle_type_id":"4","last_reported":1746612715,"current_range_meters":26800,"station_id":"ce4bhr92rcd13ifvqhsg","pricing_plan_id":"cebpf4jnsgd1na2vs0mg"},{"bike_id":"810be292-74b3-4801-9244-2f2f15637ada","system_id":"levelo_inurba_marseille","lat":43.30935,"lon":5.4015,"is_reserved":false,"is_disabled":false,"rental_uris":{"android":"levelo://app?vid=810be292-74b3-4801-9244-2f2f15637ada","ios":"levelo://app?vid=810be292-74b3-4801-9244-2f2f15637ada"},"vehicle_type_id":"4","last_reported":1746612715,"current_range_meters":27200,"station_id":"ce4bgvp2rcd13ifvqct0","pricing_plan_id":"cebpf4jnsgd1na2vs0mg"},{"bike_id":"5215766a-5323-4645-b8c8-9bfe5da5b19c","system_id":"levelo_inurba_marseille","lat":43.26688,"lon":5.38265,"is_reserved":false,"is_disabled":false,"rental_uris":{"android":"levelo://app?vid=5215766a-5323-4645-b8c8-9bfe5da5b19c","ios":"levelo://app?vid=5215766a-5323-4645-b8c8-9bfe5da5b19c"},"vehicle_type_id":"4","last_reported":1746612715,"current_range_meters":27200,"station_id":"ce4bhg92rcd13ifvqf90","pricing_plan_id":"cebpf4jnsgd1na2vs0mg"},{"bike_id":"86de1bc6-478a-4a3f-839b-c1c7eb422693","system_id":"levelo_inurba_marseille","lat":43.29267,"lon":5.37619,"is_reserved":false,"is_disabled":false,"rental_uris":{"android":"levelo://app?vid=86de1bc6-478a-4a3f-839b-c1c7eb422693","ios":"levelo://app?vid=86de1bc6-478a-4a3f-839b-c1c7eb422693"},"vehicle_type_id":"4","last_reported":1746612715,"current_range_meters":27600,"station_id":"ce4bgi12rcd13ifvqb80","pricing_plan_id":"cebpf4jnsgd1na2vs0mg"},{"bike_id":"f819edca-2553-4590-b199-bf262de3225c","system_id":"levelo_inurba_marseille","lat":43.29722,"lon":5.37705,"is_reserved":false,"is_disabled":false,"rental_uris":{"android":"levelo://app?vid=f819edca-2553-4590-b199-bf262de3225c","ios":"levelo://app?vid=f819edca-2553-4590-b199-bf262de3225c"},"vehicle_type_id":"4","last_reported":1746612715,"current_range_meters":27600,"station_id":"ce4bgkh2rcd13ifvqbl0","pricing_plan_id":"cebpf4jnsgd1na2vs0mg"},{"bike_id":"e57cb8ba-9aff-4573-8cb9-4381ac4309df","system_id":"levelo_inurba_marseille","lat":43.312165,"lon":5.368506,"is_reserved":false,"is_disabled":false,"rental_uris":{"android":"levelo://app?vid=e57cb8ba-9aff-4573-8cb9-4381ac4309df","ios":"levelo://app?vid=e57cb8ba-9aff-4573-8cb9-4381ac4309df"},"vehicle_type_id":"4","last_reported":1746612715,"current_range_meters":27600,"station_id":"ce4bgl92rcd13ifvqbq0","pricing_plan_id":"cebpf4jnsgd1na2vs0mg"},{"bike_id":"e76b61d8-501d-448b-82f0-2e3b68a01848","system_id":"levelo_inurba_marseille","lat":43.29931,"lon":5.36546,"is_reserved":false,"is_disabled":false,"rental_uris":{"android":"levelo://app?vid=e76b61d8-501d-448b-82f0-2e3b68a01848","ios":"levelo://app?vid=e76b61d8-501d-448b-82f0-2e3b68a01848"},"vehicle_type_id":"4","last_reported":1746612715,"current_range_meters":27600,"station_id":"ce4bgm92rcd13ifvqbr0","pricing_plan_id":"cebpf4jnsgd1na2vs0mg"},{"bike_id":"924edb05-d3c2-40b9-800d-ab6e26bff687","system_id":"levelo_inurba_marseille","lat":43.3127,"lon":5.40172,"is_reserved":false,"is_disabled":false,"rental_uris":{"android":"levelo://app?vid=924edb05-d3c2-40b9-800d-ab6e26bff687","ios":"levelo://app?vid=924edb05-d3c2-40b9-800d-ab6e26bff687"},"vehicle_type_id":"4","last_reported":1746612715,"current_range_meters":27600,"station_id":"ce4bh092rcd13ifvqd30","pricing_plan_id":"cebpf4jnsgd1na2vs0mg"},{"bike_id":"97162219-daa8-41e0-ba18-ba3579d1d514","system_id":"levelo_inurba_marseille","lat":43.2621,"lon":5.37445,"is_reserved":false,"is_disabled":false,"rental_uris":{"android":"levelo://app?vid=97162219-daa8-41e0-ba18-ba3579d1d514","ios":"levelo://app?vid=97162219-daa8-41e0-ba18-ba3579d1d514"},"vehicle_type_id":"4","last_reported":1746612715,"current_range_meters":27600,"station_id":"ce4bhgp2rcd13ifvqfc0","pricing_plan_id":"cebpf4jnsgd1na2vs0mg"},{"bike_id":"97bc0adb-a5f9-42b1-b6f7-fee61d952ccc","system_id":"levelo_inurba_marseille","lat":43.2439,"lon":5.37064,"is_reserved":false,"is_disabled":false,"rental_uris":{"android":"levelo://app?vid=97bc0adb-a5f9-42b1-b6f7-fee61d952ccc","ios":"levelo://app?vid=97bc0adb-a5f9-42b1-b6f7-fee61d952ccc"},"vehicle_type_id":"4","last_reported":1746612715,"current_range_meters":27600,"station_id":"ce4bhhh2rcd13ifvqfk0","pricing_plan_id":"cebpf4jnsgd1na2vs0mg"},{"bike_id":"7d6fd1b9-0a30-4643-947c-a097790f0c22","system_id":"levelo_inurba_marseille","lat":43.25916,"lon":5.40871,"is_reserved":false,"is_disabled":false,"rental_uris":{"android":"levelo://app?vid=7d6fd1b9-0a30-4643-947c-a097790f0c22","ios":"levelo://app?vid=7d6fd1b9-0a30-4643-947c-a097790f0c22"},"vehicle_type_id":"4","last_reported":1746612715,"current_range_meters":27600,"station_id":"ce4bhm92rcd13ifvqglg","pricing_plan_id":"cebpf4jnsgd1na2vs0mg"},{"bike_id":"418f88a7-dcd3-4f4f-88bd-78607d331dd2","system_id":"levelo_inurba_marseille","lat":43.2751,"lon":5.42434,"is_reserved":false,"is_disabled":false,"rental_uris":{"android":"levelo://app?vid=418f88a7-dcd3-4f4f-88bd-78607d331dd2","ios":"levelo://app?vid=418f88a7-dcd3-4f4f-88bd-78607d331dd2"},"vehicle_type_id":"4","last_reported":1746612715,"current_range_meters":27600,"station_id":"ce4bhn92rcd13ifvqgrg","pricing_plan_id":"cebpf4jnsgd1na2vs0mg"},{"bike_id":"b1c32f74-024d-47c3-9105-3441a86719c1","system_id":"levelo_inurba_marseille","lat":43.32483,"lon":5.36574,"is_reserved":false,"is_disabled":false,"rental_uris":{"android":"levelo://app?vid=b1c32f74-024d-47c3-9105-3441a86719c1","ios":"levelo://app?vid=b1c32f74-024d-47c3-9105-3441a86719c1"},"vehicle_type_id":"4","last_reported":1746612715,"current_range_meters":27600,"station_id":"ce4bhs12rcd13ifvqhvg","pricing_plan_id":"cebpf4jnsgd1na2vs0mg"},{"bike_id":"b3e3e315-0baf-4fc9-9ad7-62c986163ea6","system_id":"levelo_inurba_marseille","lat":43.2937,"lon":5.37866,"is_reserved":false,"is_disabled":false,"rental_uris":{"android":"levelo://app?vid=b3e3e315-0baf-4fc9-9ad7-62c986163ea6","ios":"levelo://app?vid=b3e3e315-0baf-4fc9-9ad7-62c986163ea6"},"vehicle_type_id":"4","last_reported":1746612715,"current_range_meters":28000,"station_id":"ce4bgjh2rcd13ifvqbf0","pricing_plan_id":"cebpf4jnsgd1na2vs0mg"},{"bike_id":"b2958a45-1cfc-4a20-a0a1-d76aa4f8e8aa","system_id":"levelo_inurba_marseille","lat":43.31236,"lon":5.36887,"is_reserved":false,"is_disabled":false,"rental_uris":{"android":"levelo://app?vid=b2958a45-1cfc-4a20-a0a1-d76aa4f8e8aa","ios":"levelo://app?vid=b2958a45-1cfc-4a20-a0a1-d76aa4f8e8aa"},"vehicle_type_id":"4","last_reported":1746612715,"current_range_meters":28000,"station_id":"ce4bgl92rcd13ifvqbq0","pricing_plan_id":"cebpf4jnsgd1na2vs0mg"},{"bike_id":"357d5bf1-093b-4678-9971-e595170ec177","system_id":"levelo_inurba_marseille","lat":43.29621,"lon":5.37167,"is_reserved":false,"is_disabled":false,"rental_uris":{"android":"levelo://app?vid=357d5bf1-093b-4678-9971-e595170ec177","ios":"levelo://app?vid=357d5bf1-093b-4678-9971-e595170ec177"},"vehicle_type_id":"4","last_reported":1746612715,"current_range_meters":28000,"station_id":"ce4bgnh2rcd13ifvqc0g","pricing_plan_id":"cebpf4jnsgd1na2vs0mg"},{"bike_id":"2b953ad9-f5aa-44be-aae0-304824462b7c","system_id":"levelo_inurba_marseille","lat":43.31335,"lon":5.36692,"is_reserved":false,"is_disabled":false,"rental_uris":{"android":"levelo://app?vid=2b953ad9-f5aa-44be-aae0-304824462b7c","ios":"levelo://app?vid=2b953ad9-f5aa-44be-aae0-304824462b7c"},"vehicle_type_id":"4","last_reported":1746612715,"current_range_meters":28000,"station_id":"ce4bgr92rcd13ifvqc6g","pricing_plan_id":"cebpf4jnsgd1na2vs0mg"},{"bike_id":"5f22428d-2f27-4d5c-ac48-a6d8571d3e13","system_id":"levelo_inurba_marseille","lat":43.25908,"lon":5.40893,"is_reserved":false,"is_disabled":false,"rental_uris":{"android":"levelo://app?vid=5f22428d-2f27-4d5c-ac48-a6d8571d3e13","ios":"levelo://app?vid=5f22428d-2f27-4d5c-ac48-a6d8571d3e13"},"vehicle_type_id":"4","last_reported":1746612715,"current_range_meters":28000,"station_id":"ce4bhm92rcd13ifvqglg","pricing_plan_id":"cebpf4jnsgd1na2vs0mg"},{"bike_id":"545e5687-b7df-4883-81be-75a8925d5f91","system_id":"levelo_inurba_marseille","lat":43.337444,"lon":5.374475,"is_reserved":false,"is_disabled":false,"rental_uris":{"android":"levelo://app?vid=545e5687-b7df-4883-81be-75a8925d5f91","ios":"levelo://app?vid=545e5687-b7df-4883-81be-75a8925d5f91"},"vehicle_type_id":"4","last_reported":1746612715,"current_range_meters":28400,"station_id":"","pricing_plan_id":"cebpf4jnsgd1na2vs0mg"},{"bike_id":"a4eec7e9-7d2f-40f6-b974-ddcd6f49ae81","system_id":"levelo_inurba_marseille","lat":43.29547,"lon":5.37518,"is_reserved":false,"is_disabled":false,"rental_uris":{"android":"levelo://app?vid=a4eec7e9-7d2f-40f6-b974-ddcd6f49ae81","ios":"levelo://app?vid=a4eec7e9-7d2f-40f6-b974-ddcd6f49ae81"},"vehicle_type_id":"4","last_reported":1746612715,"current_range_meters":28400,"station_id":"ce4bgkp2rcd13ifvqbmg","pricing_plan_id":"cebpf4jnsgd1na2vs0mg"},{"bike_id":"2dd98b20-ff63-4c91-bb98-c846bf30907f","system_id":"levelo_inurba_marseille","lat":43.30804,"lon":5.38148,"is_reserved":false,"is_disabled":false,"rental_uris":{"android":"levelo://app?vid=2dd98b20-ff63-4c91-bb98-c846bf30907f","ios":"levelo://app?vid=2dd98b20-ff63-4c91-bb98-c846bf30907f"},"vehicle_type_id":"4","last_reported":1746612715,"current_range_meters":28400,"station_id":"ce4bgt12rcd13ifvqce0","pricing_plan_id":"cebpf4jnsgd1na2vs0mg"},{"bike_id":"a4574e39-dd43-4b5b-b730-d7c344b1bf89","system_id":"levelo_inurba_marseille","lat":43.24806,"lon":5.37447,"is_reserved":false,"is_disabled":false,"rental_uris":{"android":"levelo://app?vid=a4574e39-dd43-4b5b-b730-d7c344b1bf89","ios":"levelo://app?vid=a4574e39-dd43-4b5b-b730-d7c344b1bf89"},"vehicle_type_id":"4","last_reported":1746612715,"current_range_meters":28400,"station_id":"ce4bhgh2rcd13ifvqfb0","pricing_plan_id":"cebpf4jnsgd1na2vs0mg"},{"bike_id":"b4916f77-8145-4cdb-a46d-db50bb41fde4","system_id":"levelo_inurba_marseille","lat":43.2706,"lon":5.40257,"is_reserved":false,"is_disabled":false,"rental_uris":{"android":"levelo://app?vid=b4916f77-8145-4cdb-a46d-db50bb41fde4","ios":"levelo://app?vid=b4916f77-8145-4cdb-a46d-db50bb41fde4"},"vehicle_type_id":"4","last_reported":1746612715,"current_range_meters":28400,"station_id":"ce4bhk92rcd13ifvqgc0","pricing_plan_id":"cebpf4jnsgd1na2vs0mg"},{"bike_id":"03421a9f-6a43-4d9e-9815-ecfe4f495c4f","system_id":"levelo_inurba_marseille","lat":43.25935,"lon":5.40895,"is_reserved":false,"is_disabled":false,"rental_uris":{"android":"levelo://app?vid=03421a9f-6a43-4d9e-9815-ecfe4f495c4f","ios":"levelo://app?vid=03421a9f-6a43-4d9e-9815-ecfe4f495c4f"},"vehicle_type_id":"4","last_reported":1746612715,"current_range_meters":28400,"station_id":"ce4bhm92rcd13ifvqglg","pricing_plan_id":"cebpf4jnsgd1na2vs0mg"},{"bike_id":"69a73a20-3dad-4fb5-9f60-28dc31be6527","system_id":"levelo_inurba_marseille","lat":43.2753,"lon":5.42457,"is_reserved":false,"is_disabled":false,"rental_uris":{"android":"levelo://app?vid=69a73a20-3dad-4fb5-9f60-28dc31be6527","ios":"levelo://app?vid=69a73a20-3dad-4fb5-9f60-28dc31be6527"},"vehicle_type_id":"4","last_reported":1746612715,"current_range_meters":28400,"station_id":"ce4bhn92rcd13ifvqgrg","pricing_plan_id":"cebpf4jnsgd1na2vs0mg"},{"bike_id":"bb62b544-69f4-4380-8953-363de94f6d0b","system_id":"levelo_inurba_marseille","lat":43.335953,"lon":5.410217,"is_reserved":false,"is_disabled":false,"rental_uris":{"android":"levelo://app?vid=bb62b544-69f4-4380-8953-363de94f6d0b","ios":"levelo://app?vid=bb62b544-69f4-4380-8953-363de94f6d0b"},"vehicle_type_id":"4","last_reported":1746612715,"current_range_meters":28400,"station_id":"ce4bhqh2rcd13ifvqhmg","pricing_plan_id":"cebpf4jnsgd1na2vs0mg"},{"bike_id":"7dd541b9-e858-4734-8b38-bf5cec4a45d8","system_id":"levelo_inurba_marseille","lat":43.30119,"lon":5.37163,"is_reserved":false,"is_disabled":false,"rental_uris":{"android":"levelo://app?vid=7dd541b9-e858-4734-8b38-bf5cec4a45d8","ios":"levelo://app?vid=7dd541b9-e858-4734-8b38-bf5cec4a45d8"},"vehicle_type_id":"4","last_reported":1746612715,"current_range_meters":28800,"station_id":"","pricing_plan_id":"cebpf4jnsgd1na2vs0mg"},{"bike_id":"72fccf6c-8d1a-4891-87a7-e9920aead05e","system_id":"levelo_inurba_marseille","lat":43.30324,"lon":5.36902,"is_reserved":false,"is_disabled":false,"rental_uris":{"android":"levelo://app?vid=72fccf6c-8d1a-4891-87a7-e9920aead05e","ios":"levelo://app?vid=72fccf6c-8d1a-4891-87a7-e9920aead05e"},"vehicle_type_id":"4","last_reported":1746612715,"current_range_meters":28800,"station_id":"ce4bgqh2rcd13ifvqc5g","pricing_plan_id":"cebpf4jnsgd1na2vs0mg"},{"bike_id":"1e821725-b32c-4c4b-abae-d8ae58e48b06","system_id":"levelo_inurba_marseille","lat":43.29068,"lon":5.35919,"is_reserved":false,"is_disabled":false,"rental_uris":{"android":"levelo://app?vid=1e821725-b32c-4c4b-abae-d8ae58e48b06","ios":"levelo://app?vid=1e821725-b32c-4c4b-abae-d8ae58e48b06"},"vehicle_type_id":"4","last_reported":1746612715,"current_range_meters":28800,"station_id":"ce4bha92rcd13ifvqeg0","pricing_plan_id":"cebpf4jnsgd1na2vs0mg"},