{"last_updated":1747901649,"ttl":60,"version":"2.2","data":{"bikes":[{"bike_id":"c0b9fd4f-e181-46ce-b0bf-f5119973334f","system_id":"levelo_inurba_marseille","lat":43.33771,"lon":5.37424,"is_reserved":false,"is_disabled":true,"rental_uris":{"android":"levelo://app?vid=c0b9fd4f-e181-46ce-b0bf-f5119973334f","ios":"levelo://app?vid=c0b9fd4f-e181-46ce-b0bf-f5119973334f"},"vehicle_type_id":"4","last_reported":1747901649,"current_range_meters":0,"station_id":"","pricing_plan_id":"cebpf4jnsgd1na2vs0mg"},{"bike_id":"99f73d8c-ff21-451c-8082-80384eaeabfc","system_id":"levelo_inurba_marseille","lat":43.305619,"lon":5.401669,"is_reserved":false,"is_disabled":true,"rental_uris":{"android":"levelo://app?vid=99f73d8c-ff21-451c-8082-80384eaeabfc","ios":"levelo://app?vid=99f73d8c-ff21-451c-8082-80384eaeabfc"},"vehicle_type_id":"4","last_reported":1747901649,"current_range_meters":0,"station_id":"","pricing_plan_id":"cebpf4jnsgd1na2vs0mg"},{"bike_id":"c306fa7d-481e-4ae3-9585-ff4c1f5ddcb9","system_id":"levelo_inurba_marseille","lat":43.35001,"lon":5.37924,"is_reserved":false,"is_disabled":true,"rental_uris":{"android":"levelo://app?vid=c306fa7d-481e-4ae3-9585-ff4c1f5ddcb9","ios":"levelo://app?vid=c306fa7d-481e-4ae3-9585-ff4c1f5ddcb9"},"vehicle_type_id":"4","last_reported":1747901649,"current_range_meters":0,"station_id":"","pricing_plan_id":"cebpf4jnsgd1na2vs0mg"},{"bike_id":"8f0f531d-6a65-4647-8a6f-baa3d982f42f","system_id":"levelo_inurba_marseille","lat":43.28141,"lon":5.42559,"is_reserved":false,"is_disabled":true,"rental_uris":{"android":"levelo://app?vid=8f0f531d-6a65-4647-8a6f-baa3d982f42f","ios":"levelo://app?vid=8f0f531d-6a65-4647-8a6f-baa3d982f42f"},"vehicle_type_id":"4","last_reported":1747901649,"current_range_meters":0,"station_id":"","pricing_plan_id":"cebpf4jnsgd1na2vs0mg"},{"bike_id":"e3cbe215-c566-4c05-8a2b-9292fd480fe5","system_id":"levelo_inurba_marseille","lat":43.27014,"lon":5.40116,"is_reserved":false,"is_disabled":true,"rental_uris":{"android":"levelo://app?vid=e3cbe215-c566-4c05-8a2b-9292fd480fe5","ios":"levelo://app?vid=e3cbe215-c566-4c05-8a2b-9292fd480fe5"},"vehicle_type_id":"4","last_reported":1747901649,"current_range_meters":0,"station_id":"","pricing_plan_id":"cebpf4jnsgd1na2vs0mg"},{"bike_id":"3dc9bdf1-c6a9-45a5-a068-39a7601ce50b","system_id":"levelo_inurba_marseille","lat":43.26074,"lon":5.39401,"is_reserved":false,"is_disabled":true,"rental_uris":{"android":"levelo://app?vid=3dc9bdf1-c6a9-45a5-a068-39a7601ce50b","ios":"levelo://app?vid=3dc9bdf1-c6a9-45a5-a068-39a7601ce50b"},"vehicle_type_id":"4","last_reported":1747901649,"current_range_meters":0,"station_id":"","pricing_plan_id":"cebpf4jnsgd1na2vs0mg"},{"bike_id":"a5bcf3ab-5daa-4dec-898b-27b2e944e103","system_id":"levelo_inurba_marseille","lat":43.27306,"lon":5.40992,"is_reserved":false,"is_disabled":true,"rental_uris":{"android":"levelo://app?vid=a5bcf3ab-5daa-4dec-898b-27b2e944e103","ios":"levelo://app?vid=a5bcf3ab-5daa-4dec-898b-27b2e944e103"},"vehicle_type_id":"4","last_reported":1747901649,"current_range_meters":0,"station_id":"","pricing_plan_id":"cebpf4jnsgd1na2vs0mg"},{"bike_id":"4c451455-b081-43c2-b901-9d6314d820be","system_id":"levelo_inurba_marseille","lat":43.27936,"lon":5.38707,"is_reserved":false,"is_disabled":true,"rental_uris":{"android":"levelo://app?vid=4c451455-b081-43c2-b901-9d6314d820be","ios":"levelo://app?vid=4c451455-b081-43c2-b901-9d6314d820be"},"vehicle_type_id":"4","last_reported":1747901649,"current_range_meters":0,"station_id":"","pricing_plan_id":"cebpf4jnsgd1na2vs0mg"},{"bike_id":"79c4b0e6-719b-4903-ac96-107b5995b617","system_id":"levelo_inurba_marseille","lat":43.233733,"lon":5.360069,"is_reserved":false,"is_disabled":true,"rental_uris":{"android":"levelo://app?vid=79c4b0e6-719b-4903-ac96-107b5995b617","ios":"levelo://app?vid=79c4b0e6-719b-4903-ac96-107b5995b617"},"vehicle_type_id":"4","last_reported":1747901649,"current_range_meters":0,"station_id":"","pricing_plan_id":"cebpf4jnsgd1na2vs0mg"},{"bike_id":"e9dd3aa4-b5e7-4480-926d-d7f537719bfa","system_id":"levelo_inurba_marseille","lat":43.230331,"lon":5.401847,"is_reserved":false,"is_disabled":true,"rental_uris":{"android":"levelo://app?vid=e9dd3aa4-b5e7-4480-926d-d7f537719bfa","ios":"levelo://app?vid=e9dd3aa4-b5e7-4480-926d-d7f537719bfa"},"vehicle_type_id":"4","last_reported":1747901649,"current_range_meters":0,"station_id":"","pricing_plan_id":"cebpf4jnsgd1na2vs0mg"},{"bike_id":"14603e41-b2dd-4757-a53c-2e366aa4f983","system_id":"levelo_inurba_marseille","lat":43.26987,"lon":5.4283,"is_reserved":false,"is_disabled":true,"rental_uris":{"android":"levelo://app?vid=14603e41-b2dd-4757-a53c-2e366aa4f983","ios":"levelo://app?vid=14603e41-b2dd-4757-a53c-2e366aa4f983"},"vehicle_type_id":"4","last_reported":1747901649,"current_range_meters":0,"station_id":"","pricing_plan_id":"cebpf4jnsgd1na2vs0mg"},{"bike_id":"28f5641c-3b88-45e6-8a4e-c4db2aff452a","system_id":"levelo_inurba_marseille","lat":43.28055,"lon":5.36918,"is_reserved":false,"is_disabled":true,"rental_uris":{"android":"levelo://app?vid=28f5641c-3b88-45e6-8a4e-c4db2aff452a","ios":"levelo://app?vid=28f5641c-3b88-45e6-8a4e-c4db2aff452a"},"vehicle_type_id":"4","last_reported":1747901649,"current_range_meters":0,"station_id":"ce4bha12rcd13ifvqef0","pricing_plan_id":"cebpf4jnsgd1na2vs0mg"},{"bike_id":"7c09595c-ddcc-418f-943a-329ee3c0e818","system_id":"levelo_inurba_marseille","lat":43.29271,"lon":5.36838,"is_reserved":false,"is_disabled":true,"rental_uris":{"android":"levelo://app?vid=7c09595c-ddcc-418f-943a-329ee3c0e818","ios":"levelo://app?vid=7c09595c-ddcc-418f-943a-329ee3c0e818"},"vehicle_type_id":"4","last_reported":1747901649,"current_range_meters":0,"station_id":"ce4bhbp2rcd13ifvqesg","pricing_plan_id":"cebpf4jnsgd1na2vs0mg"},{"bike_id":"459224c1-2dac-44e2-a70f-41c202d37cb3","system_id":"levelo_inurba_marseille","lat":43.27954,"lon":5.38715,"is_reserved":false,"is_disabled":true,"rental_uris":{"android":"levelo://app?vid=459224c1-2dac-44e2-a70f-41c202d37cb3","ios":"levelo://app?vid=459224c1-2dac-44e2-a70f-41c202d37cb3"},"vehicle_type_id":"4","last_reported":1747901649,"current_range_meters":0,"station_id":"ce4bhg12rcd13ifvqf80","pricing_plan_id":"cebpf4jnsgd1na2vs0mg"},{"bike_id":"3e85ada9-2212-497e-9726-9ddff5b3b78a","system_id":"levelo_inurba_marseille","lat":43.26681,"lon":5.38261,"is_reserved":false,"is_disabled":true,"rental_uris":{"android":"levelo://app?vid=3e85ada9-2212-497e-9726-9ddff5b3b78a","ios":"levelo://app?vid=3e85ada9-2212-497e-9726-9ddff5b3b78a"},"vehicle_type_id":"4","last_reported":1747901649,"current_range_meters":0,"station_id":"ce4bhg92rcd13ifvqf90","pricing_plan_id":"cebpf4jnsgd1na2vs0mg"},{"bike_id":"d1624019-07d7-41bc-a98e-77b36bc167b9","system_id":"levelo_inurba_marseille","lat":43.25876,"lon":5.39892,"is_reserved":false,"is_disabled":true,"rental_uris":{"android":"levelo://app?vid=d1624019-07d7-41bc-a98e-77b36bc167b9","ios":"levelo://app?vid=d1624019-07d7-41bc-a98e-77b36bc167b9"},"vehicle_type_id":"4","last_reported":1747901649,"current_range_meters":0,"station_id":"ce4bhl92rcd13ifvqghg","pricing_plan_id":"cebpf4jnsgd1na2vs0mg"},{"bike_id":"85eaca89-9437-48d0-9bca-a254337b88db","system_id":"levelo_inurba_marseille","lat":43.274613,"lon":5.409674,"is_reserved":false,"is_disabled":true,"rental_uris":{"android":"levelo://app?vid=85eaca89-9437-48d0-9bca-a254337b88db","ios":"levelo://app?vid=85eaca89-9437-48d0-9bca-a254337b88db"},"vehicle_type_id":"4","last_reported":1747901649,"current_range_meters":400,"station_id":"","pricing_plan_id":"cebpf4jnsgd1na2vs0mg"},{"bike_id":"baa44ce7-427c-4993-ae02-274fbb8c1a23","system_id":"levelo_inurba_marseille","lat":43.29916,"lon":5.3654,"is_reserved":false,"is_disabled":true,"rental_uris":{"android":"levelo://app?vid=baa44ce7-427c-4993-ae02-274fbb8c1a23","ios":"levelo://app?vid=baa44ce7-427c-4993-ae02-274fbb8c1a23"},"vehicle_type_id":"4","last_reported":1747901649,"current_range_meters":400,"station_id":"ce4bgm92rcd13ifvqbr0","pricing_plan_id":"cebpf4jnsgd1na2vs0mg"},{"bike_id":"bf9a47c3-1332-47d3-9f10-1c6263f4cc25","system_id":"levelo_inurba_marseille","lat":43.30953,"lon":5.39035,"is_reserved":false,"is_disabled":true,"rental_uris":{"android":"levelo://app?vid=bf9a47c3-1332-47d3-9f10-1c6263f4cc25","ios":"levelo://app?vid=bf9a47c3-1332-47d3-9f10-1c6263f4cc25"},"vehicle_type_id":"4","last_reported":1747901649,"current_range_meters":400,"station_id":"ce4bgup2rcd13ifvqco0","pricing_plan_id":"cebpf4jnsgd1na2vs0mg"},{"bike_id":"5c68561c-28de-40ad-a285-2f59f9116211","system_id":"levelo_inurba_marseille","lat":43.33606,"lon":5.41034,"is_reserved":false,"is_disabled":true,"rental_uris":{"android":"levelo://app?vid=5c68561c-28de-40ad-a285-2f59f9116211","ios":"levelo://app?vid=5c68561c-28de-40ad-a285-2f59f9116211"},"vehicle_type_id":"4","last_reported":1747901649,"current_range_meters":400,"station_id":"ce4bhqh2rcd13ifvqhmg","pricing_plan_id":"cebpf4jnsgd1na2vs0mg"},{"bike_id":"70c5c5ad-5e66-4a49-9450-c4d67d96b788","system_id":"levelo_inurba_marseille","lat":43.27091,"lon":5.42715,"is_reserved":false,"is_disabled":true,"rental_uris":{"android":"levelo://app?vid=70c5c5ad-5e66-4a49-9450-c4d67d96b788","ios":"levelo://app?vid=70c5c5ad-5e66-4a49-9450-c4d67d96b788"},"vehicle_type_id":"4","last_reported":1747901649,"current_range_meters":800,"station_id":"","pricing_plan_id":"cebpf4jnsgd1na2vs0mg"},{"bike_id":"9ae0f876-afec-4474-959c-a8ed39b16730","system_id":"levelo_inurba_marseille","lat":43.27431,"lon":5.39426,"is_reserved":false,"is_disabled":true,"rental_uris":{"android":"levelo://app?vid=9ae0f876-afec-4474-959c-a8ed39b16730","ios":"levelo://app?vid=9ae0f876-afec-4474-959c-a8ed39b16730"},"vehicle_type_id":"4","last_reported":1747901649,"current_range_meters":800,"station_id":"ce4bhdp2rcd13ifvqf20","pricing_plan_id":"cebpf4jnsgd1na2vs0mg"},{"bike_id":"ca1ef42c-a88e-4a5c-bdc1-61570156b583","system_id":"levelo_inurba_marseille","lat":43.23149,"lon":5.4372,"is_reserved":false,"is_disabled":true,"rental_uris":{"android":"levelo://app?vid=ca1ef42c-a88e-4a5c-bdc1-61570156b583","ios":"levelo://app?vid=ca1ef42c-a88e-4a5c-bdc1-61570156b583"},"vehicle_type_id":"4","last_reported":1747901649,"current_range_meters":800,"station_id":"ce4bhmp2rcd13ifvqgog","pricing_plan_id":"cebpf4jnsgd1na2vs0mg"},{"bike_id":"8c49333a-4d73-42d6-866d-43001ed64431","system_id":"levelo_inurba_marseille","lat":43.21757,"lon":5.3459,"is_reserved":false,"is_disabled":true,"rental_uris":{"android":"levelo://app?vid=8c49333a-4d73-42d6-866d-43001ed64431","ios":"levelo://app?vid=8c49333a-4d73-42d6-866d-43001ed64431"},"vehicle_type_id":"4","last_reported":1747901649,"current_range_meters":800,"station_id":"st_cvj6r9ubvosntc0bgbag","pricing_plan_id":"cebpf4jnsgd1na2vs0mg"},{"bike_id":"fc784f6c-4a71-4542-8c04-3200d5f12242","system_id":"levelo_inurba_marseille","lat":43.3052,"lon":5.38181,"is_reserved":false,"is_disabled":true,"rental_uris":{"android":"levelo://app?vid=fc784f6c-4a71-4542-8c04-3200d5f12242","ios":"levelo://app?vid=fc784f6c-4a71-4542-8c04-3200d5f12242"},"vehicle_type_id":"4","last_reported":1747901649,"current_range_meters":1200,"station_id":"","pricing_plan_id":"cebpf4jnsgd1na2vs0mg"},{"bike_id":"8821936a-ed67-4225-8458-b8d62cad46ab","system_id":"levelo_inurba_marseille","lat":43.23186,"lon":5.35586,"is_reserved":false,"is_disabled":true,"rental_uris":{"android":"levelo://app?vid=8821936a-ed67-4225-8458-b8d62cad46ab","ios":"levelo://app?vid=8821936a-ed67-4225-8458-b8d62cad46ab"},"vehicle_type_id":"4","last_reported":1747901649,"current_range_meters":1200,"station_id":"ce4bhu92rcd13ifvqi70","pricing_plan_id":"cebpf4jnsgd1na2vs0mg"},{"bike_id":"071b8808-9e19-47d5-85da-8ffdc73325b2","system_id":"levelo_inurba_marseille","lat":43.29788,"lon":5.3809,"is_reserved":false,"is_disabled":true,"rental_uris":{"android":"levelo://app?vid=071b8808-9e19-47d5-85da-8ffdc73325b2","ios":"levelo://app?vid=071b8808-9e19-47d5-85da-8ffdc73325b2"},"vehicle_type_id":"4","last_reported":1747901649,"current_range_meters":1600,"station_id":"ce4bgip2rcd13ifvqbb0","pricing_plan_id":"cebpf4jnsgd1na2vs0mg"},{"bike_id":"17880693-f0d5-464d-8b36-084e8c1d7cb9","system_id":"levelo_inurba_marseille","lat":43.25135,"lon":5.40304,"is_reserved":false,"is_disabled":true,"rental_uris":{"android":"levelo://app?vid=17880693-f0d5-464d-8b36-084e8c1d7cb9","ios":"levelo://app?vid=17880693-f0d5-464d-8b36-084e8c1d7cb9"},"vehicle_type_id":"4","last_reported":1747901649,"current_range_meters":1600,"station_id":"ce4bhlh2rcd13ifvqgig","pricing_plan_id":"cebpf4jnsgd1na2vs0mg"},{"bike_id":"15dcdbbd-a41e-43eb-9ed6-26ec15ce7a50","system_id":"levelo_inurba_marseille","lat":43.21425,"lon":5.34109,"is_reserved":false,"is_disabled":true,"rental_uris":{"android":"levelo://app?vid=15dcdbbd-a41e-43eb-9ed6-26ec15ce7a50","ios":"levelo://app?vid=15dcdbbd-a41e-43eb-9ed6-26ec15ce7a50"},"vehicle_type_id":"4","last_reported":1747901649,"current_range_meters":2000,"station_id":"","pricing_plan_id":"cebpf4jnsgd1na2vs0mg"},{"bike_id":"b39b5564-25b6-482c-a8ed-75595ba2f676","system_id":"levelo_inurba_marseille","lat":43.27054,"lon":5.42287,"is_reserved":false,"is_disabled":true,"rental_uris":{"android":"levelo://app?vid=b39b5564-25b6-482c-a8ed-75595ba2f676","ios":"levelo://app?vid=b39b5564-25b6-482c-a8ed-75595ba2f676"},"vehicle_type_id":"4","last_reported":1747901649,"current_range_meters":2000,"station_id":"ce4bhk92rcd13ifvqgb0","pricing_plan_id":"cebpf4jnsgd1na2vs0mg"},{"bike_id":"b9874766-6903-4dcc-ab85-d483afda310b","system_id":"levelo_inurba_marseille","lat":43.25929,"lon":5.409,"is_reserved":false,"is_disabled":true,"rental_uris":{"android":"levelo://app?vid=b9874766-6903-4dcc-ab85-d483afda310b","ios":"levelo://app?vid=b9874766-6903-4dcc-ab85-d483afda310b"},"vehicle_type_id":"4","last_reported":1747901649,"current_range_meters":2000,"station_id":"ce4bhm92rcd13ifvqglg","pricing_plan_id":"cebpf4jnsgd1na2vs0mg"},{"bike_id":"4972981d-8f04-4be0-aa68-565598d0dbe6","system_id":"levelo_inurba_marseille","lat":43.21195,"lon":5.35075,"is_reserved":false,"is_disabled":true,"rental_uris":{"android":"levelo://app?vid=4972981d-8f04-4be0-aa68-565598d0dbe6","ios":"levelo://app?vid=4972981d-8f04-4be0-aa68-565598d0dbe6"},"vehicle_type_id":"4","last_reported":1747901649,"current_range_meters":2000,"station_id":"st_cvj6sg6p6f1abm77japg","pricing_plan_id":"cebpf4jnsgd1na2vs0mg"},{"bike_id":"3d1e4e9a-c99a-4008-a77d-416895b1f654","system_id":"levelo_inurba_marseille","lat":43.31219,"lon":5.36872,"is_reserved":false,"is_disabled":false,"rental_uris":{"android":"levelo://app?vid=3d1e4e9a-c99a-4008-a77d-416895b1f654","ios":"levelo://app?vid=3d1e4e9a-c99a-4008-a77d-416895b1f654"},"vehicle_type_id":"4","last_reported":1747901649,"current_range_meters":2800,"station_id":"ce4bgl92rcd13ifvqbq0","pricing_plan_id":"cebpf4jnsgd1na2vs0mg"},{"bike_id":"538b94d2-9a3e-4acc-9dbd-505954b85ed7","system_id":"levelo_inurba_marseille","lat":43.30949,"lon":5.39018,"is_reserved":false,"is_disabled":false,"rental_uris":{"android":"levelo://app?vid=538b94d2-9a3e-4acc-9dbd-505954b85ed7","ios":"levelo://app?vid=538b94d2-9a3e-4acc-9dbd-505954b85ed7"},"vehicle_type_id":"4","last_reported":1747901649,"current_range_meters":2800,"station_id":"ce4bgup2rcd13ifvqco0","pricing_plan_id":"cebpf4jnsgd1na2vs0mg"},{"bike_id":"793f615e-1e36-4c9d-8d04-7f52ceccb565","system_id":"levelo_inurba_marseille","lat":43.23155,"lon":5.43705,"is_reserved":false,"is_disabled":false,"rental_uris":{"android":"levelo://app?vid=793f615e-1e36-4c9d-8d04-7f52ceccb565","ios":"levelo://app?vid=793f615e-1e36-4c9d-8d04-7f52ceccb565"},"vehicle_type_id":"4","last_reported":1747901649,"current_range_meters":2800,"station_id":"ce4bhmp2rcd13ifvqgog","pricing_plan_id":"cebpf4jnsgd1na2vs0mg"},{"bike_id":"6bbb3ae4-3edd-4b00-9ef1-2eee7e19ed9b","system_id":"levelo_inurba_marseille","lat":43.30423,"lon":5.36828,"is_reserved":false,"is_disabled":false,"rental_uris":{"android":"levelo://app?vid=6bbb3ae4-3edd-4b00-9ef1-2eee7e19ed9b","ios":"levelo://app?vid=6bbb3ae4-3edd-4b00-9ef1-2eee7e19ed9b"},"vehicle_type_id":"4","last_reported":1747901649,"current_range_meters":3200,"station_id":"","pricing_plan_id":"cebpf4jnsgd1na2vs0mg"},{"bike_id":"6bf1b2a1-4f49-4bd2-ad2d-888585ebe386","system_id":"levelo_inurba_marseille","lat":43.29502,"lon":5.37726,"is_reserved":false,"is_disabled":false,"rental_uris":{"android":"levelo://app?vid=6bf1b2a1-4f49-4bd2-ad2d-888585ebe386","ios":"levelo://app?vid=6bf1b2a1-4f49-4bd2-ad2d-888585ebe386"},"vehicle_type_id":"4","last_reported":1747901649,"current_range_meters":3200,"station_id":"","pricing_plan_id":"cebpf4jnsgd1na2vs0mg"},{"bike_id":"97008aa4-1571-4de4-a123-56c182689e2c","system_id":"levelo_inurba_marseille","lat":43.29033,"lon":5.39998,"is_reserved":false,"is_disabled":false,"rental_uris":{"android":"levelo://app?vid=97008aa4-1571-4de4-a123-56c182689e2c","ios":"levelo://app?vid=97008aa4-1571-4de4-a123-56c182689e2c"},"vehicle_type_id":"4","last_reported":1747901649,"current_range_meters":3200,"station_id":"ce4bh392rcd13ifvqdm0","pricing_plan_id":"cebpf4jnsgd1na2vs0mg"},{"bike_id":"addacb63-eaa1-4b88-b2d5-f495030c26ce","system_id":"levelo_inurba_marseille","lat":43.2315,"lon":5.43723,"is_reserved":false,"is_disabled":false,"rental_uris":{"android":"levelo://app?vid=addacb63-eaa1-4b88-b2d5-f495030c26ce","ios":"levelo://app?vid=addacb63-eaa1-4b88-b2d5-f495030c26ce"},"vehicle_type_id":"4","last_reported":1747901649,"current_range_meters":3200,"station_id":"ce4bhmp2rcd13ifvqgog","pricing_plan_id":"cebpf4jnsgd1na2vs0mg"},{"bike_id":"71f69d4a-a7ec-4520-a299-c8867f57bd71","system_id":"levelo_inurba_marseille","lat":43.27965,"lon":5.41027,"is_reserved":false,"is_disabled":false,"rental_uris":{"android":"levelo://app?vid=71f69d4a-a7ec-4520-a299-c8867f57bd71","ios":"levelo://app?vid=71f69d4a-a7ec-4520-a299-c8867f57bd71"},"vehicle_type_id":"4","last_reported":1747901649,"current_range_meters":3200,"station_id":"ce4bhnp2rcd13ifvqh0g","pricing_plan_id":"cebpf4jnsgd1na2vs0mg"},{"bike_id":"5281ff50-15a3-4882-a775-51088d6a98cc","system_id":"levelo_inurba_marseille","lat":43.31519,"lon":5.37233,"is_reserved":false,"is_disabled":false,"rental_uris":{"android":"levelo://app?vid=5281ff50-15a3-4882-a775-51088d6a98cc","ios":"levelo://app?vid=5281ff50-15a3-4882-a775-51088d6a98cc"},"vehicle_type_id":"4","last_reported":1747901649,"current_range_meters":3600,"station_id":"","pricing_plan_id":"cebpf4jnsgd1na2vs0mg"},{"bike_id":"a9bddc27-58e2-436a-a4d2-703568928319","system_id":"levelo_inurba_marseille","lat":43.30141,"lon":5.38786,"is_reserved":false,"is_disabled":false,"rental_uris":{"android":"levelo://app?vid=a9bddc27-58e2-436a-a4d2-703568928319","ios":"levelo://app?vid=a9bddc27-58e2-436a-a4d2-703568928319"},"vehicle_type_id":"4","last_reported":1747901649,"current_range_meters":3600,"station_id":"ce4bghh2rcd13ifvqb60","pricing_plan_id":"cebpf4jnsgd1na2vs0mg"},{"bike_id":"0c4b6638-f1ec-460e-8063-7863c3cfd732","system_id":"levelo_inurba_marseille","lat":43.21764,"lon":5.34583,"is_reserved":false,"is_disabled":false,"rental_uris":{"android":"levelo://app?vid=0c4b6638-f1ec-460e-8063-7863c3cfd732","ios":"levelo://app?vid=0c4b6638-f1ec-460e-8063-7863c3cfd732"},"vehicle_type_id":"4","last_reported":1747901649,"current_range_meters":3600,"station_id":"st_cvj6r9ubvosntc0bgbag","pricing_plan_id":"cebpf4jnsgd1na2vs0mg"},{"bike_id":"9e0c62a0-2e7a-4382-b045-4eb1e2622728","system_id":"levelo_inurba_marseille","lat":43.2978,"lon":5.39335,"is_reserved":false,"is_disabled":false,"rental_uris":{"android":"levelo://app?vid=9e0c62a0-2e7a-4382-b045-4eb1e2622728","ios":"levelo://app?vid=9e0c62a0-2e7a-4382-b045-4eb1e2622728"},"vehicle_type_id":"4","last_reported":1747901649,"current_range_meters":4000,"station_id":"chh1huq6cuj3fo74tm60","pricing_plan_id":"cebpf4jnsgd1na2vs0mg"},{"bike_id":"b8b511c7-6f48-45be-97af-1e0036b54cc5","system_id":"levelo_inurba_marseille","lat":43.27367,"lon":5.4241,"is_reserved":false,"is_disabled":false,"rental_uris":{"android":"levelo://app?vid=b8b511c7-6f48-45be-97af-1e0036b54cc5","ios":"levelo://app?vid=b8b511c7-6f48-45be-97af-1e0036b54cc5"},"vehicle_type_id":"4","last_reported":1747901649,"current_range_meters":4400,"station_id":"","pricing_plan_id":"cebpf4jnsgd1na2vs0mg"},{"bike_id":"f7c3e8a6-eda6-4497-8d7b-a61625a3ad7f","system_id":"levelo_inurba_marseille","lat":43.30299,"lon":5.36883,"is_reserved":false,"is_disabled":false,"rental_uris":{"android":"levelo://app?vid=f7c3e8a6-eda6-4497-8d7b-a61625a3ad7f","ios":"levelo://app?vid=f7c3e8a6-eda6-4497-8d7b-a61625a3ad7f"},"vehicle_type_id":"4","last_reported":1747901649,"current_range_meters":4400,"station_id":"ce4bgqh2rcd13ifvqc5g","pricing_plan_id":"cebpf4jnsgd1na2vs0mg"},{"bike_id":"e8162579-a5ad-485f-ad83-fec8a2ebe7e1","system_id":"levelo_inurba_marseille","lat":43.26826,"lon":5.39099,"is_reserved":false,"is_disabled":false,"rental_uris":{"android":"levelo://app?vid=e8162579-a5ad-485f-ad83-fec8a2ebe7e1","ios":"levelo://app?vid=e8162579-a5ad-485f-ad83-fec8a2ebe7e1"},"vehicle_type_id":"4","last_reported":1747901649,"current_range_meters":4800,"station_id":"","pricing_plan_id":"cebpf4jnsgd1na2vs0mg"},{"bike_id":"3552fbf2-b43a-446f-93f5-d695fc251b73","system_id":"levelo_inurba_marseille","lat":43.252584,"lon":5.37489,"is_reserved":false,"is_disabled":false,"rental_uris":{"android":"levelo://app?vid=3552fbf2-b43a-446f-93f5-d695fc251b73","ios":"levelo://app?vid=3552fbf2-b43a-446f-93f5-d695fc251b73"},"vehicle_type_id":"4","last_reported":1747901649,"current_range_meters":4800,"station_id":"","pricing_plan_id":"cebpf4jnsgd1na2vs0mg"},{"bike_id":"fad268c7-5ead-4090-b820-6567068ce0e0","system_id":"levelo_inurba_marseille","lat":43.3148,"lon":5.37309,"is_reserved":false,"is_disabled":false,"rental_uris":{"android":"levelo://app?vid=fad268c7-5ead-4090-b820-6567068ce0e0","ios":"levelo://app?vid=fad268c7-5ead-4090-b820-6567068ce0e0"},"vehicle_type_id":"4","last_reported":1747901649,"current_range_meters":4800,"station_id":"ce4bgt12rcd13ifvqcd0","pricing_plan_id":"cebpf4jnsgd1na2vs0mg"},{"bike_id":"54a6f274-ac43-4307-8d78-8d3d20f7a974","system_id":"levelo_inurba_marseille","lat":43.30588,"lon":5.39354,"is_reserved":false,"is_disabled":false,"rental_uris":{"android":"levelo://app?vid=54a6f274-ac43-4307-8d78-8d3d20f7a974","ios":"levelo://app?vid=54a6f274-ac43-4307-8d78-8d3d20f7a974"},"vehicle_type_id":"4","last_reported":1747901649,"current_range_meters":4800,"station_id":"ce4bh0p2rcd13ifvqd80","pricing_plan_id":"cebpf4jnsgd1na2vs0mg"},{"bike_id":"dc234a0d-15f5-400e-91a7-04e8cc857578","system_id":"levelo_inurba_marseille","lat":43.28358,"lon":5.38646,"is_reserved":false,"is_disabled":false,"rental_uris":{"android":"levelo://app?vid=dc234a0d-15f5-400e-91a7-04e8cc857578","ios":"levelo://app?vid=dc234a0d-15f5-400e-91a7-04e8cc857578"},"vehicle_type_id":"4","last_reported":1747901649,"current_range_meters":4800,"station_id":"ce4bh492rcd13ifvqdvg","pricing_plan_id":"cebpf4jnsgd1na2vs0mg"},{"bike_id":"ff6bde35-ecad-4a05-8560-8c70ae884466","system_id":"levelo_inurba_marseille","lat":43.26681,"lon":5.38263,"is_reserved":false,"is_disabled":false,"rental_uris":{"android":"levelo://app?vid=ff6bde35-ecad-4a05-8560-8c70ae884466","ios":"levelo://app?vid=ff6bde35-ecad-4a05-8560-8c70ae884466"},"vehicle_type_id":"4","last_reported":1747901649,"current_range_meters":4800,"station_id":"ce4bhg92rcd13ifvqf90","pricing_plan_id":"cebpf4jnsgd1na2vs0mg"},{"bike_id":"1ff4dd87-bf56-4ab1-8365-aad71fcb827c","system_id":"levelo_inurba_marseille","lat":43.3267,"lon":5.42784,"is_reserved":false,"is_disabled":false,"rental_uris":{"android":"levelo://app?vid=1ff4dd87-bf56-4ab1-8365-aad71fcb827c","ios":"levelo://app?vid=1ff4dd87-bf56-4ab1-8365-aad71fcb827c"},"vehicle_type_id":"4","last_reported":1747901649,"current_range_meters":5600,"station_id":"","pricing_plan_id":"cebpf4jnsgd1na2vs0mg"},{"bike_id":"277a02a8-4ca3-478f-8d9c-37e383658162","system_id":"levelo_inurba_marseille","lat":43.29565,"lon":5.37506,"is_reserved":false,"is_disabled":false,"rental_uris":{"android":"levelo://app?vid=277a02a8-4ca3-478f-8d9c-37e383658162","ios":"levelo://app?vid=277a02a8-4ca3-478f-8d9c-37e383658162"},"vehicle_type_id":"4","last_reported":1747901649,"current_range_meters":5600,"station_id":"ce4bgh92rcd13ifvqb50","pricing_plan_id":"cebpf4jnsgd1na2vs0mg"},{"bike_id":"7234fab5-5eaf-4463-9edd-d2285a645b1e","system_id":"levelo_inurba_marseille","lat":43.27915,"lon":5.39579,"is_reserved":false,"is_disabled":false,"rental_uris":{"android":"levelo://app?vid=7234fab5-5eaf-4463-9edd-d2285a645b1e","ios":"levelo://app?vid=7234fab5-5eaf-4463-9edd-d2285a645b1e"},"vehicle_type_id":"4","last_reported":1747901649,"current_range_meters":5600,"station_id":"ce4bhf92rcd13ifvqf40","pricing_plan_id":"cebpf4jnsgd1na2vs0mg"},{"bike_id":"7b19ae3d-375f-484a-ac22-3d52f30e632f","system_id":"levelo_inurba_marseille","lat":43.23213,"lon":5.39979,"is_reserved":false,"is_disabled":false,"rental_uris":{"android":"levelo://app?vid=7b19ae3d-375f-484a-ac22-3d52f30e632f","ios":"levelo://app?vid=7b19ae3d-375f-484a-ac22-3d52f30e632f"},"vehicle_type_id":"4","last_reported":1747901649,"current_range_meters":5600,"station_id":"ce4bhn12rcd13ifvqgqg","pricing_plan_id":"cebpf4jnsgd1na2vs0mg"},{"bike_id":"e9559e9a-4562-4bb6-9aec-77afc81194ae","system_id":"levelo_inurba_marseille","lat":43.3046,"lon":5.37904,"is_reserved":false,"is_disabled":false,"rental_uris":{"android":"levelo://app?vid=e9559e9a-4562-4bb6-9aec-77afc81194ae","ios":"levelo://app?vid=e9559e9a-4562-4bb6-9aec-77afc81194ae"},"vehicle_type_id":"4","last_reported":1747901649,"current_range_meters":6000,"station_id":"ce4bgup2rcd13ifvqcn0","pricing_plan_id":"cebpf4jnsgd1na2vs0mg"},{"bike_id":"9241d1a5-4bb6-4f35-afca-6efaa0076822","system_id":"levelo_inurba_marseille","lat":43.26772,"lon":5.39448,"is_reserved":false,"is_disabled":false,"rental_uris":{"android":"levelo://app?vid=9241d1a5-4bb6-4f35-afca-6efaa0076822","ios":"levelo://app?vid=9241d1a5-4bb6-4f35-afca-6efaa0076822"},"vehicle_type_id":"4","last_reported":1747901649,"current_range_meters":6000,"station_id":"ce4bhh12rcd13ifvqfg0","pricing_plan_id":"cebpf4jnsgd1na2vs0mg"},{"bike_id":"739411a1-d513-47ef-ae34-093ea78ce6a1","system_id":"levelo_inurba_marseille","lat":43.313,"lon":5.36906,"is_reserved":false,"is_disabled":false,"rental_uris":{"android":"levelo://app?vid=739411a1-d513-47ef-ae34-093ea78ce6a1","ios":"levelo://app?vid=739411a1-d513-47ef-ae34-093ea78ce6a1"},"vehicle_type_id":"4","last_reported":1747901649,"current_range_meters":6400,"station_id":"","pricing_plan_id":"cebpf4jnsgd1na2vs0mg"},{"bike_id":"103450c0-eff4-42bc-bcce-ed42d8883806","system_id":"levelo_inurba_marseille","lat":43.286518,"lon":5.415512,"is_reserved":false,"is_disabled":false,"rental_uris":{"android":"levelo://app?vid=103450c0-eff4-42bc-bcce-ed42d8883806","ios":"levelo://app?vid=103450c0-eff4-42bc-bcce-ed42d8883806"},"vehicle_type_id":"4","last_reported":1747901649,"current_range_meters":6400,"station_id":"","pricing_plan_id":"cebpf4jnsgd1na2vs0mg"},{"bike_id":"bfc504d2-3afa-4e58-bc86-9837c521a728","system_id":"levelo_inurba_marseille","lat":43.29293,"lon":5.37457,"is_reserved":false,"is_disabled":false,"rental_uris":{"android":"levelo://app?vid=bfc504d2-3afa-4e58-bc86-9837c521a728","ios":"levelo://app?vid=bfc504d2-3afa-4e58-bc86-9837c521a728"},"vehicle_type_id":"4","last_reported":1747901649,"current_range_meters":6400,"station_id":"ce4bgi12rcd13ifvqb70","pricing_plan_id":"cebpf4jnsgd1na2vs0mg"},{"bike_id":"6ed3e102-ab84-4bd7-9267-9617398f0839","system_id":"levelo_inurba_marseille","lat":43.30936,"lon":5.40139,"is_reserved":false,"is_disabled":false,"rental_uris":{"android":"levelo://app?vid=6ed3e102-ab84-4bd7-9267-9617398f0839","ios":"levelo://app?vid=6ed3e102-ab84-4bd7-9267-9617398f0839"},"vehicle_type_id":"4","last_reported":1747901649,"current_range_meters":6400,"station_id":"ce4bgvp2rcd13ifvqct0","pricing_plan_id":"cebpf4jnsgd1na2vs0mg"},{"bike_id":"045ad9e6-a6f9-4cc4-9310-e2402c5313a8","system_id":"levelo_inurba_marseille","lat":43.27208,"lon":5.3918,"is_reserved":false,"is_disabled":false,"rental_uris":{"android":"levelo://app?vid=045ad9e6-a6f9-4cc4-9310-e2402c5313a8","ios":"levelo://app?vid=045ad9e6-a6f9-4cc4-9310-e2402c5313a8"},"vehicle_type_id":"4","last_reported":1747901649,"current_range_meters":6400,"station_id":"ce4bhhp2rcd13ifvqfm0","pricing_plan_id":"cebpf4jnsgd1na2vs0mg"},{"bike_id":"69bdbb0d-0a97-4511-abda-2f9fe90f4b78","system_id":"levelo_inurba_marseille","lat":43.27172,"lon":5.409909,"is_reserved":false,"is_disabled":false,"rental_uris":{"android":"levelo://app?vid=69bdbb0d-0a97-4511-abda-2f9fe90f4b78","ios":"levelo://app?vid=69bdbb0d-0a97-4511-abda-2f9fe90f4b78"},"vehicle_type_id":"4","last_reported":1747901649,"current_range_meters":6400,"station_id":"ce4bhl12rcd13ifvqgf0","pricing_plan_id":"cebpf4jnsgd1na2vs0mg"},{"bike_id":"82d9224e-c124-406b-bd49-1d2e39a4165e","system_id":"levelo_inurba_marseille","lat":43.23184,"lon":5.39979,"is_reserved":false,"is_disabled":false,"rental_uris":{"android":"levelo://app?vid=82d9224e-c124-406b-bd49-1d2e39a4165e","ios":"levelo://app?vid=82d9224e-c124-406b-bd49-1d2e39a4165e"},"vehicle_type_id":"4","last_reported":1747901649,"current_range_meters":6400,"station_id":"ce4bhn12rcd13ifvqgqg","pricing_plan_id":"cebpf4jnsgd1na2vs0mg"},{"bike_id":"523c51a0-4f9e-4594-9a7b-b8d370f02cd8","system_id":"levelo_inurba_marseille","lat":43.24083,"lon":5.37745,"is_reserved":false,"is_disabled":false,"rental_uris":{"android":"levelo://app?vid=523c51a0-4f9e-4594-9a7b-b8d370f02cd8","ios":"levelo://app?vid=523c51a0-4f9e-4594-9a7b-b8d370f02cd8"},"vehicle_type_id":"4","last_reported":1747901649,"current_range_meters":6400,"station_id":"ce4bhnp2rcd13ifvqgvg","pricing_plan_id":"cebpf4jnsgd1na2vs0mg"},{"bike_id":"47c68b3e-66f9-4e8c-9820-ab039038b62e","system_id":"levelo_inurba_marseille","lat":43.267807,"lon":5.3942,"is_reserved":false,"is_disabled":false,"rental_uris":{"android":"levelo://app?vid=47c68b3e-66f9-4e8c-9820-ab039038b62e","ios":"levelo://app?vid=47c68b3e-66f9-4e8c-9820-ab039038b62e"},"vehicle_type_id":"4","last_reported":1747901649,"current_range_meters":6800,"station_id":"","pricing_plan_id":"cebpf4jnsgd1na2vs0mg"},{"bike_id":"1ccb170d-a0eb-4550-ba99-adc1eaef095a","system_id":"levelo_inurba_marseille","lat":43.30948,"lon":5.39048,"is_reserved":false,"is_disabled":false,"rental_uris":{"android":"levelo://app?vid=1ccb170d-a0eb-4550-ba99-adc1eaef095a","ios":"levelo://app?vid=1ccb170d-a0eb-4550-ba99-adc1eaef095a"},"vehicle_type_id":"4","last_reported":1747901649,"current_range_meters":6800,"station_id":"ce4bgup2rcd13ifvqco0","pricing_plan_id":"cebpf4jnsgd1na2vs0mg"},{"bike_id":"0f94b375-b9c0-470f-bfe5-b7b55655b58e","system_id":"levelo_inurba_marseille","lat":43.30938,"lon":5.39072,"is_reserved":false,"is_disabled":false,"rental_uris":{"android":"levelo://app?vid=0f94b375-b9c0-470f-bfe5-b7b55655b58e","ios":"levelo://app?vid=0f94b375-b9c0-470f-bfe5-b7b55655b58e"},"vehicle_type_id":"4","last_reported":1747901649,"current_range_meters":6800,"station_id":"ce4bgup2rcd13ifvqco0","pricing_plan_id":"cebpf4jnsgd1na2vs0mg"},{"bike_id":"46ecdef1-fbb4-44f2-9b4f-39386ff4251d","system_id":"levelo_inurba_marseille","lat":43.31677,"lon":5.40477,"is_reserved":false,"is_disabled":false,"rental_uris":{"android":"levelo://app?vid=46ecdef1-fbb4-44f2-9b4f-39386ff4251d","ios":"levelo://app?vid=46ecdef1-fbb4-44f2-9b4f-39386ff4251d"},"vehicle_type_id":"4","last_reported":1747901649,"current_range_meters":6800,"station_id":"ce4bh012rcd13ifvqd00","pricing_plan_id":"cebpf4jnsgd1na2vs0mg"},{"bike_id":"3794907a-e963-4733-a7bc-f526881e79c4","system_id":"levelo_inurba_marseille","lat":43.28964,"lon":5.37844,"is_reserved":false,"is_disabled":false,"rental_uris":{"android":"levelo://app?vid=3794907a-e963-4733-a7bc-f526881e79c4","ios":"levelo://app?vid=3794907a-e963-4733-a7bc-f526881e79c4"},"vehicle_type_id":"4","last_reported":1747901649,"current_range_meters":6800,"station_id":"ce4bh9p2rcd13ifvqed0","pricing_plan_id":"cebpf4jnsgd1na2vs0mg"},{"bike_id":"00fb2770-ac61-478b-b941-add6986a4e4d","system_id":"levelo_inurba_marseille","lat":43.2917,"lon":5.37155,"is_reserved":false,"is_disabled":false,"rental_uris":{"android":"levelo://app?vid=00fb2770-ac61-478b-b941-add6986a4e4d","ios":"levelo://app?vid=00fb2770-ac61-478b-b941-add6986a4e4d"},"vehicle_type_id":"4","last_reported":1747901649,"current_range_meters":6800,"station_id":"ce4bha92rcd13ifvqeh0","pricing_plan_id":"cebpf4jnsgd1na2vs0mg"},{"bike_id":"8e7d5e71-bc4a-4ff4-8617-fd4806f723f8","system_id":"levelo_inurba_marseille","lat":43.29227,"lon":5.36069,"is_reserved":false,"is_disabled":false,"rental_uris":{"android":"levelo://app?vid=8e7d5e71-bc4a-4ff4-8617-fd4806f723f8","ios":"levelo://app?vid=8e7d5e71-bc4a-4ff4-8617-fd4806f723f8"},"vehicle_type_id":"4","last_reported":1747901649,"current_range_meters":6800,"station_id":"ce4bhbh2rcd13ifvqeqg","pricing_plan_id":"cebpf4jnsgd1na2vs0mg"},{"bike_id":"61f955a0-48db-41b6-96c9-ce5b3df1d6fc","system_id":"levelo_inurba_marseille","lat":43.2653,"lon":5.39035,"is_reserved":false,"is_disabled":false,"rental_uris":{"android":"levelo://app?vid=61f955a0-48db-41b6-96c9-ce5b3df1d6fc","ios":"levelo://app?vid=61f955a0-48db-41b6-96c9-ce5b3df1d6fc"},"vehicle_type_id":"4","last_reported":1747901649,"current_range_meters":6800,"station_id":"ce4bhe12rcd13ifvqf30","pricing_plan_id":"cebpf4jnsgd1na2vs0mg"},{"bike_id":"87c37c14-8780-451e-bf3f-8825721121e6","system_id":"levelo_inurba_marseille","lat":43.26957,"lon":5.38633,"is_reserved":false,"is_disabled":false,"rental_uris":{"android":"levelo://app?vid=87c37c14-8780-451e-bf3f-8825721121e6","ios":"levelo://app?vid=87c37c14-8780-451e-bf3f-8825721121e6"},"vehicle_type_id":"4","last_reported":1747901649,"current_range_meters":6800,"station_id":"ce4bhh92rcd13ifvqfh0","pricing_plan_id":"cebpf4jnsgd1na2vs0mg"},{"bike_id":"0abe70e2-9e4c-4a90-813a-16b0b5ef9087","system_id":"levelo_inurba_marseille","lat":43.24078,"lon":5.37753,"is_reserved":false,"is_disabled":false,"rental_uris":{"android":"levelo://app?vid=0abe70e2-9e4c-4a90-813a-16b0b5ef9087","ios":"levelo://app?vid=0abe70e2-9e4c-4a90-813a-16b0b5ef9087"},"vehicle_type_id":"4","last_reported":1747901649,"current_range_meters":6800,"station_id":"ce4bhnp2rcd13ifvqgvg","pricing_plan_id":"cebpf4jnsgd1na2vs0mg"},{"bike_id":"df106770-a124-4ecf-95cd-288da587773b","system_id":"levelo_inurba_marseille","lat":43.287206,"lon":5.382764,"is_reserved":false,"is_disabled":false,"rental_uris":{"android":"levelo://app?vid=df106770-a124-4ecf-95cd-288da587773b","ios":"levelo://app?vid=df106770-a124-4ecf-95cd-288da587773b"},"vehicle_type_id":"4","last_reported":1747901649,"current_range_meters":7200,"station_id":"","pricing_plan_id":"cebpf4jnsgd1na2vs0mg"},{"bike_id":"a2cf77dd-d42f-4f4b-a0f2-dccc0717a3af","system_id":"levelo_inurba_marseille","lat":43.24809,"lon":5.37456,"is_reserved":false,"is_disabled":false,"rental_uris":{"android":"levelo://app?vid=a2cf77dd-d42f-4f4b-a0f2-dccc0717a3af","ios":"levelo://app?vid=a2cf77dd-d42f-4f4b-a0f2-dccc0717a3af"},"vehicle_type_id":"4","last_reported":1747901649,"current_range_meters":7200,"station_id":"ce4bhgh2rcd13ifvqfb0","pricing_plan_id":"cebpf4jnsgd1na2vs0mg"},{"bike_id":"8e98266b-c3e0-4a48-b419-5e08dc76db7b","system_id":"levelo_inurba_marseille","lat":43.26213,"lon":5.37444,"is_reserved":false,"is_disabled":false,"rental_uris":{"android":"levelo://app?vid=8e98266b-c3e0-4a48-b419-5e08dc76db7b","ios":"levelo://app?vid=8e98266b-c3e0-4a48-b419-5e08dc76db7b"},"vehicle_type_id":"4","last_reported":1747901649,"current_range_meters":7200,"station_id":"ce4bhgp2rcd13ifvqfc0","pricing_plan_id":"cebpf4jnsgd1na2vs0mg"},{"bike_id":"86f56d60-e89c-4781-b302-594e276899e2","system_id":"levelo_inurba_marseille","lat":43.27497,"lon":5.42453,"is_reserved":false,"is_disabled":false,"rental_uris":{"android":"levelo://app?vid=86f56d60-e89c-4781-b302-594e276899e2","ios":"levelo://app?vid=86f56d60-e89c-4781-b302-594e276899e2"},"vehicle_type_id":"4","last_reported":1747901649,"current_range_meters":7200,"station_id":"ce4bhn92rcd13ifvqgrg","pricing_plan_id":"cebpf4jnsgd1na2vs0mg"},{"bike_id":"dc53f8be-ab14-4142-9f04-5d373c92c9a5","system_id":"levelo_inurba_marseille","lat":43.21744,"lon":5.34606,"is_reserved":false,"is_disabled":false,"rental_uris":{"android":"levelo://app?vid=dc53f8be-ab14-4142-9f04-5d373c92c9a5","ios":"levelo://app?vid=dc53f8be-ab14-4142-9f04-5d373c92c9a5"},"vehicle_type_id":"4","last_reported":1747901649,"current_range_meters":7200,"station_id":"st_cvj6r9ubvosntc0bgbag","pricing_plan_id":"cebpf4jnsgd1na2vs0mg"},{"bike_id":"dbfd2c5d-e715-4962-8cca-1904ceaeac77","system_id":"levelo_inurba_marseille","lat":43.301291,"lon":5.387719,"is_reserved":false,"is_disabled":false,"rental_uris":{"android":"levelo://app?vid=dbfd2c5d-e715-4962-8cca-1904ceaeac77","ios":"levelo://app?vid=dbfd2c5d-e715-4962-8cca-1904ceaeac77"},"vehicle_type_id":"4","last_reported":1747901649,"current_range_meters":8000,"station_id":"ce4bghh2rcd13ifvqb60","pricing_plan_id":"cebpf4jnsgd1na2vs0mg"},{"bike_id":"58fadc06-e073-46ce-87b8-a8f4a543c2ef","system_id":"levelo_inurba_marseille","lat":43.31484,"lon":5.37303,"is_reserved":false,"is_disabled":false,"rental_uris":{"android":"levelo://app?vid=58fadc06-e073-46ce-87b8-a8f4a543c2ef","ios":"levelo://app?vid=58fadc06-e073-46ce-87b8-a8f4a543c2ef"},"vehicle_type_id":"4","last_reported":1747901649,"current_range_meters":8000,"station_id":"ce4bgt12rcd13ifvqcd0","pricing_plan_id":"cebpf4jnsgd1na2vs0mg"},{"bike_id":"ed32722b-dcaa-422a-8ef6-9aa3766179ee","system_id":"levelo_inurba_marseille","lat":43.273637,"lon":5.362677,"is_reserved":false,"is_disabled":false,"rental_uris":{"android":"levelo://app?vid=ed32722b-dcaa-422a-8ef6-9aa3766179ee","ios":"levelo://app?vid=ed32722b-dcaa-422a-8ef6-9aa3766179ee"},"vehicle_type_id":"4","last_reported":1747901649,"current_range_meters":8000,"station_id":"ce4bhbh2rcd13ifvqeo0","pricing_plan_id":"cebpf4jnsgd1na2vs0mg"},{"bike_id":"59345bae-86dc-416e-8965-cf92492d4e9f","system_id":"levelo_inurba_marseille","lat":43.27214,"lon":5.39194,"is_reserved":false,"is_disabled":false,"rental_uris":{"android":"levelo://app?vid=59345bae-86dc-416e-8965-cf92492d4e9f","ios":"levelo://app?vid=59345bae-86dc-416e-8965-cf92492d4e9f"},"vehicle_type_id":"4","last_reported":1747901649,"current_range_meters":8000,"station_id":"ce4bhhp2rcd13ifvqfm0","pricing_plan_id":"cebpf4jnsgd1na2vs0mg"},{"bike_id":"d9259aeb-c7e1-461b-8d1b-82cf648a18be","system_id":"levelo_inurba_marseille","lat":43.27206,"lon":5.39165,"is_reserved":false,"is_disabled":false,"rental_uris":{"android":"levelo://app?vid=d9259aeb-c7e1-461b-8d1b-82cf648a18be","ios":"levelo://app?vid=d9259aeb-c7e1-461b-8d1b-82cf648a18be"},"vehicle_type_id":"4","last_reported":1747901649,"current_range_meters":8000,"station_id":"ce4bhhp2rcd13ifvqfm0","pricing_plan_id":"cebpf4jnsgd1na2vs0mg"},{"bike_id":"bce56298-b6ff-43bd-a27f-7aa672a2c25c","system_id":"levelo_inurba_marseille","lat":43.26499,"lon":5.39535,"is_reserved":false,"is_disabled":false,"rental_uris":{"android":"levelo://app?vid=bce56298-b6ff-43bd-a27f-7aa672a2c25c","ios":"levelo://app?vid=bce56298-b6ff-43bd-a27f-7aa672a2c25c"},"vehicle_type_id":"4","last_reported":1747901649,"current_range_meters":8000,"station_id":"ce4bhi12rcd13ifvqfq0","pricing_plan_id":"cebpf4jnsgd1na2vs0mg"},{"bike_id":"90871573-0091-4d09-b36a-3b7c677f7d35","system_id":"levelo_inurba_marseille","lat":43.27067,"lon":5.42281,"is_reserved":false,"is_disabled":false,"rental_uris":{"android":"levelo://app?vid=90871573-0091-4d09-b36a-3b7c677f7d35","ios":"levelo://app?vid=90871573-0091-4d09-b36a-3b7c677f7d35"},"vehicle_type_id":"4","last_reported":1747901649,"current_range_meters":8000,"station_id":"ce4bhk92rcd13ifvqgb0","pricing_plan_id":"cebpf4jnsgd1na2vs0mg"},{"bike_id":"8f55b03b-0e2f-42ce-8c8e-3a98af37a7d5","system_id":"levelo_inurba_marseille","lat":43.27072,"lon":5.42289,"is_reserved":false,"is_disabled":false,"rental_uris":{"android":"levelo://app?vid=8f55b03b-0e2f-42ce-8c8e-3a98af37a7d5","ios":"levelo://app?vid=8f55b03b-0e2f-42ce-8c8e-3a98af37a7d5"},"vehicle_type_id":"4","last_reported":1747901649,"current_range_meters":8000,"station_id":"ce4bhk92rcd13ifvqgb0","pricing_plan_id":"cebpf4jnsgd1na2vs0mg"},{"bike_id":"c48345e1-43dd-4a08-bbd5-11142242a160","system_id":"levelo_inurba_marseille","lat":43.274987,"lon":5.424534,"is_reserved":false,"is_disabled":false,"rental_uris":{"android":"levelo://app?vid=c48345e1-43dd-4a08-bbd5-11142242a160","ios":"levelo://app?vid=c48345e1-43dd-4a08-bbd5-11142242a160"},"vehicle_type_id":"4","last_reported":1747901649,"current_range_meters":8000,"station_id":"ce4bhn92rcd13ifvqgrg","pricing_plan_id":"cebpf4jnsgd1na2vs0mg"},{"bike_id":"3fe3d6c4-138a-47df-b6b4-e6f19e8f7d46","system_id":"levelo_inurba_marseille","lat":43.214311,"lon":5.341396,"is_reserved":false,"is_disabled":false,"rental_uris":{"android":"levelo://app?vid=3fe3d6c4-138a-47df-b6b4-e6f19e8f7d46","ios":"levelo://app?vid=3fe3d6c4-138a-47df-b6b4-e6f19e8f7d46"},"vehicle_type_id":"4","last_reported":1747901649,"current_range_meters":8400,"station_id":"","pricing_plan_id":"cebpf4jnsgd1na2vs0mg"},{"bike_id":"f48fa774-7388-435c-b321-61c435524286","system_id":"levelo_inurba_marseille","lat":43.30127,"lon":5.387859,"is_reserved":false,"is_disabled":false,"rental_uris":{"android":"levelo://app?vid=f48fa774-7388-435c-b321-61c435524286","ios":"levelo://app?vid=f48fa774-7388-435c-b321-61c435524286"},"vehicle_type_id":"4","last_reported":1747901649,"current_range_meters":8400,"station_id":"ce4bghh2rcd13ifvqb60","pricing_plan_id":"cebpf4jnsgd1na2vs0mg"},{"bike_id":"838a95bf-e052-4a8c-8735-9a739b0dd2f9","system_id":"levelo_inurba_marseille","lat":43.30805,"lon":5.38156,"is_reserved":false,"is_disabled":false,"rental_uris":{"android":"levelo://app?vid=838a95bf-e052-4a8c-8735-9a739b0dd2f9","ios":"levelo://app?vid=838a95bf-e052-4a8c-8735-9a739b0dd2f9"},"vehicle_type_id":"4","last_reported":1747901649,"current_range_meters":8400,"station_id":"ce4bgt12rcd13ifvqce0","pricing_plan_id":"cebpf4jnsgd1na2vs0mg"},{"bike_id":"2bde6a92-2687-47c9-abc9-1318d2e412f1","system_id":"levelo_inurba_marseille","lat":43.30089,"lon":5.39088,"is_reserved":false,"is_disabled":false,"rental_uris":{"android":"levelo://app?vid=2bde6a92-2687-47c9-abc9-1318d2e412f1","ios":"levelo://app?vid=2bde6a92-2687-47c9-abc9-1318d2e412f1"},"vehicle_type_id":"4","last_reported":1747901649,"current_range_meters":8400,"station_id":"ce4bh192rcd13ifvqdb0","pricing_plan_id":"cebpf4jnsgd1na2vs0mg"},{"bike_id":"581a6e6c-e473-4f25-a2ee-c212dc4f923b","system_id":"levelo_inurba_marseille","lat":43.28267,"lon":5.35071,"is_reserved":false,"is_disabled":false,"rental_uris":{"android":"levelo://app?vid=581a6e6c-e473-4f25-a2ee-c212dc4f923b","ios":"levelo://app?vid=581a6e6c-e473-4f25-a2ee-c212dc4f923b"},"vehicle_type_id":"4","last_reported":1747901649,"current_range_meters":8400,"station_id":"ce4bhbp2rcd13ifvqerg","pricing_plan_id":"cebpf4jnsgd1na2vs0mg"},{"bike_id":"e41c9cf2-e1b5-4807-96e6-a9b03102f34e","system_id":"levelo_inurba_marseille","lat":43.286,"lon":5.35112,"is_reserved":false,"is_disabled":false,"rental_uris":{"android":"levelo://app?vid=e41c9cf2-e1b5-4807-96e6-a9b03102f34e","ios":"levelo://app?vid=e41c9cf2-e1b5-4807-96e6-a9b03102f34e"},"vehicle_type_id":"4","last_reported":1747901649,"current_range_meters":8400,"station_id":"ce4bhch2rcd13ifvqeug","pricing_plan_id":"cebpf4jnsgd1na2vs0mg"},{"bike_id":"4aca9e1b-cb0e-4df2-b158-cc27958ba86c","system_id":"levelo_inurba_marseille","lat":43.25581,"lon":5.3823,"is_reserved":false,"is_disabled":false,"rental_uris":{"android":"levelo://app?vid=4aca9e1b-cb0e-4df2-b158-cc27958ba86c","ios":"levelo://app?vid=4aca9e1b-cb0e-4df2-b158-cc27958ba86c"},"vehicle_type_id":"4","last_reported":1747901649,"current_range_meters":8400,"station_id":"ce4bhih2rcd13ifvqfs0","pricing_plan_id":"cebpf4jnsgd1na2vs0mg"},{"bike_id":"6741b9fd-eb98-48ea-8d07-67ebca9468a9","system_id":"levelo_inurba_marseille","lat":43.245473,"lon":5.395204,"is_reserved":false,"is_disabled":false,"rental_uris":{"android":"levelo://app?vid=6741b9fd-eb98-48ea-8d07-67ebca9468a9","ios":"levelo://app?vid=6741b9fd-eb98-48ea-8d07-67ebca9468a9"},"vehicle_type_id":"4","last_reported":1747901649,"current_range_meters":8400,"station_id":"ce4bhlp2rcd13ifvqgjg","pricing_plan_id":"cebpf4jnsgd1na2vs0mg"},{"bike_id":"2f34c329-54fe-438b-a307-b47c6ac8481c","system_id":"levelo_inurba_marseille","lat":43.29894,"lon":5.43673,"is_reserved":false,"is_disabled":false,"rental_uris":{"android":"levelo://app?vid=2f34c329-54fe-438b-a307-b47c6ac8481c","ios":"levelo://app?vid=2f34c329-54fe-438b-a307-b47c6ac8481c"},"vehicle_type_id":"4","last_reported":1747901649,"current_range_meters":8400,"station_id":"ce4bhpp2rcd13ifvqhfg","pricing_plan_id":"cebpf4jnsgd1na2vs0mg"},{"bike_id":"37a40661-a730-4b3b-b0b5-15accd50b9e8","system_id":"levelo_inurba_marseille","lat":43.320046,"lon":5.381428,"is_reserved":false,"is_disabled":false,"rental_uris":{"android":"levelo://app?vid=37a40661-a730-4b3b-b0b5-15accd50b9e8","ios":"levelo://app?vid=37a40661-a730-4b3b-b0b5-15accd50b9e8"},"vehicle_type_id":"4","last_reported":1747901649,"current_range_meters":8400,"station_id":"ce4bhr12rcd13ifvqhpg","pricing_plan_id":"cebpf4jnsgd1na2vs0mg"},{"bike_id":"501dd2f9-e74b-421d-b986-25d65ccc6e54","system_id":"levelo_inurba_marseille","lat":43.32299,"lon":5.38277,"is_reserved":false,"is_disabled":false,"rental_uris":{"android":"levelo://app?vid=501dd2f9-e74b-421d-b986-25d65ccc6e54","ios":"levelo://app?vid=501dd2f9-e74b-421d-b986-25d65ccc6e54"},"vehicle_type_id":"4","last_reported":1747901649,"current_range_meters":8400,"station_id":"ce4bhr12rcd13ifvqhqg","pricing_plan_id":"cebpf4jnsgd1na2vs0mg"},{"bike_id":"f21508a3-2fe6-488c-b06c-b10e2d07dc31","system_id":"levelo_inurba_marseille","lat":43.217544,"lon":5.345988,"is_reserved":false,"is_disabled":false,"rental_uris":{"android":"levelo://app?vid=f21508a3-2fe6-488c-b06c-b10e2d07dc31","ios":"levelo://app?vid=f21508a3-2fe6-488c-b06c-b10e2d07dc31"},"vehicle_type_id":"4","last_reported":1747901649,"current_range_meters":8400,"station_id":"st_cvj6r9ubvosntc0bgbag","pricing_plan_id":"cebpf4jnsgd1na2vs0mg"},{"bike_id":"f73a7aa2-715d-40f4-bb07-aa8bf6d5803b","system_id":"levelo_inurba_marseille","lat":43.29302,"lon":5.37169,"is_reserved":false,"is_disabled":false,"rental_uris":{"android":"levelo://app?vid=f73a7aa2-715d-40f4-bb07-aa8bf6d5803b","ios":"levelo://app?vid=f73a7aa2-715d-40f4-bb07-aa8bf6d5803b"},"vehicle_type_id":"4","last_reported":1747901649,"current_range_meters":8800,"station_id":"ce4bgh92rcd13ifvqb40","pricing_plan_id":"cebpf4jnsgd1na2vs0mg"},{"bike_id":"094390ad-c784-4fd9-afa7-2c89ee0d9794","system_id":"levelo_inurba_marseille","lat":43.31215,"lon":5.36836,"is_reserved":false,"is_disabled":false,"rental_uris":{"android":"levelo://app?vid=094390ad-c784-4fd9-afa7-2c89ee0d9794","ios":"levelo://app?vid=094390ad-c784-4fd9-afa7-2c89ee0d9794"},"vehicle_type_id":"4","last_reported":1747901649,"current_range_meters":8800,"station_id":"ce4bgl92rcd13ifvqbq0","pricing_plan_id":"cebpf4jnsgd1na2vs0mg"},{"bike_id":"57f119c9-f74f-4f1c-96d5-e5625c0ecb47","system_id":"levelo_inurba_marseille","lat":43.30545,"lon":5.36549,"is_reserved":false,"is_disabled":false,"rental_uris":{"android":"levelo://app?vid=57f119c9-f74f-4f1c-96d5-e5625c0ecb47","ios":"levelo://app?vid=57f119c9-f74f-4f1c-96d5-e5625c0ecb47"},"vehicle_type_id":"4","last_reported":1747901649,"current_range_meters":8800,"station_id":"ce4bgs12rcd13ifvqcag","pricing_plan_id":"cebpf4jnsgd1na2vs0mg"},{"bike_id":"f5368fdd-0730-429f-997f-737a3475351e","system_id":"levelo_inurba_marseille","lat":43.3133,"lon":5.39694,"is_reserved":false,"is_disabled":false,"rental_uris":{"android":"levelo://app?vid=f5368fdd-0730-429f-997f-737a3475351e","ios":"levelo://app?vid=f5368fdd-0730-429f-997f-737a3475351e"},"vehicle_type_id":"4","last_reported":1747901649,"current_range_meters":8800,"station_id":"ce4bgvp2rcd13ifvqcu0","pricing_plan_id":"cebpf4jnsgd1na2vs0mg"},{"bike_id":"94bc2147-98e6-4f05-a046-261e5df72191","system_id":"levelo_inurba_marseille","lat":43.29099,"lon":5.38141,"is_reserved":false,"is_disabled":false,"rental_uris":{"android":"levelo://app?vid=94bc2147-98e6-4f05-a046-261e5df72191","ios":"levelo://app?vid=94bc2147-98e6-4f05-a046-261e5df72191"},"vehicle_type_id":"4","last_reported":1747901649,"current_range_meters":8800,"station_id":"ce4bh512rcd13ifvqe2g","pricing_plan_id":"cebpf4jnsgd1na2vs0mg"},{"bike_id":"1e2627a3-89c8-41aa-bd7e-6fccf3610f6b","system_id":"levelo_inurba_marseille","lat":43.27209,"lon":5.391943,"is_reserved":false,"is_disabled":false,"rental_uris":{"android":"levelo://app?vid=1e2627a3-89c8-41aa-bd7e-6fccf3610f6b","ios":"levelo://app?vid=1e2627a3-89c8-41aa-bd7e-6fccf3610f6b"},"vehicle_type_id":"4","last_reported":1747901649,"current_range_meters":8800,"station_id":"ce4bhhp2rcd13ifvqfm0","pricing_plan_id":"cebpf4jnsgd1na2vs0mg"},{"bike_id":"3f07b0fa-41ab-40eb-930e-62ccc37660d0","system_id":"levelo_inurba_marseille","lat":43.26498,"lon":5.39541,"is_reserved":false,"is_disabled":false,"rental_uris":{"android":"levelo://app?vid=3f07b0fa-41ab-40eb-930e-62ccc37660d0","ios":"levelo://app?vid=3f07b0fa-41ab-40eb-930e-62ccc37660d0"},"vehicle_type_id":"4","last_reported":1747901649,"current_range_meters":8800,"station_id":"ce4bhi12rcd13ifvqfq0","pricing_plan_id":"cebpf4jnsgd1na2vs0mg"},{"bike_id":"9029d97b-c500-451f-a29e-283780a4ea48","system_id":"levelo_inurba_marseille","lat":43.31371,"lon":5.36672,"is_reserved":false,"is_disabled":false,"rental_uris":{"android":"levelo://app?vid=9029d97b-c500-451f-a29e-283780a4ea48","ios":"levelo://app?vid=9029d97b-c500-451f-a29e-283780a4ea48"},"vehicle_type_id":"4","last_reported":1747901649,"current_range_meters":9200,"station_id":"ce4bgr92rcd13ifvqc6g","pricing_plan_id":"cebpf4jnsgd1na2vs0mg"},{"bike_id":"6f1ec9b7-43ec-4d93-b69e-d78cefe3c0cf","system_id":"levelo_inurba_marseille","lat":43.25941,"lon":5.40896,"is_reserved":false,"is_disabled":false,"rental_uris":{"android":"levelo://app?vid=6f1ec9b7-43ec-4d93-b69e-d78cefe3c0cf","ios":"levelo://app?vid=6f1ec9b7-43ec-4d93-b69e-d78cefe3c0cf"},"vehicle_type_id":"4","last_reported":1747901649,"current_range_meters":9200,"station_id":"ce4bhm92rcd13ifvqglg","pricing_plan_id":"cebpf4jnsgd1na2vs0mg"},{"bike_id":"102accff-382b-42a7-8e25-14dcd6289725","system_id":"levelo_inurba_marseille","lat":43.26807,"lon":5.40255,"is_reserved":false,"is_disabled":false,"rental_uris":{"android":"levelo://app?vid=102accff-382b-42a7-8e25-14dcd6289725","ios":"levelo://app?vid=102accff-382b-42a7-8e25-14dcd6289725"},"vehicle_type_id":"4","last_reported":1747901649,"current_range_meters":9200,"station_id":"ce501612rcd8frsf0b60","pricing_plan_id":"cebpf4jnsgd1na2vs0mg"},{"bike_id":"4d220435-47a8-4d82-80db-a1284cf3e4c5","system_id":"levelo_inurba_marseille","lat":43.28708,"lon":5.38688,"is_reserved":false,"is_disabled":false,"rental_uris":{"android":"levelo://app?vid=4d220435-47a8-4d82-80db-a1284cf3e4c5","ios":"levelo://app?vid=4d220435-47a8-4d82-80db-a1284cf3e4c5"},"vehicle_type_id":"4","last_reported":1747901649,"current_range_meters":9600,"station_id":"","pricing_plan_id":"cebpf4jnsgd1na2vs0mg"},{"bike_id":"bf0a4127-eafe-40f1-ab88-2d62d722be21","system_id":"levelo_inurba_marseille","lat":43.251081,"lon":5.403286,"is_reserved":false,"is_disabled":false,"rental_uris":{"android":"levelo://app?vid=bf0a4127-eafe-40f1-ab88-2d62d722be21","ios":"levelo://app?vid=bf0a4127-eafe-40f1-ab88-2d62d722be21"},"vehicle_type_id":"4","last_reported":1747901649,"current_range_meters":9600,"station_id":"","pricing_plan_id":"cebpf4jnsgd1na2vs0mg"},{"bike_id":"a94fbda2-c4ac-4a7a-beaf-709b0d4d8b59","system_id":"levelo_inurba_marseille","lat":43.29709,"lon":5.37706,"is_reserved":false,"is_disabled":false,"rental_uris":{"android":"levelo://app?vid=a94fbda2-c4ac-4a7a-beaf-709b0d4d8b59","ios":"levelo://app?vid=a94fbda2-c4ac-4a7a-beaf-709b0d4d8b59"},"vehicle_type_id":"4","last_reported":1747901649,"current_range_meters":9600,"station_id":"ce4bgkh2rcd13ifvqbl0","pricing_plan_id":"cebpf4jnsgd1na2vs0mg"},{"bike_id":"40082cca-a7a2-4d69-9727-bd72824c6c32","system_id":"levelo_inurba_marseille","lat":43.2719,"lon":5.40977,"is_reserved":false,"is_disabled":false,"rental_uris":{"android":"levelo://app?vid=40082cca-a7a2-4d69-9727-bd72824c6c32","ios":"levelo://app?vid=40082cca-a7a2-4d69-9727-bd72824c6c32"},"vehicle_type_id":"4","last_reported":1747901649,"current_range_meters":9600,"station_id":"ce4bhl12rcd13ifvqgf0","pricing_plan_id":"cebpf4jnsgd1na2vs0mg"},{"bike_id":"14feda73-7baf-4b64-8ae9-79f4fe7d4a5f","system_id":"levelo_inurba_marseille","lat":43.32383,"lon":5.36789,"is_reserved":false,"is_disabled":false,"rental_uris":{"android":"levelo://app?vid=14feda73-7baf-4b64-8ae9-79f4fe7d4a5f","ios":"levelo://app?vid=14feda73-7baf-4b64-8ae9-79f4fe7d4a5f"},"vehicle_type_id":"4","last_reported":1747901649,"current_range_meters":9600,"station_id":"ce4bhsh2rcd13ifvqi2g","pricing_plan_id":"cebpf4jnsgd1na2vs0mg"},{"bike_id":"0addefdf-df9c-488f-bc45-7711d6a3b3c9","system_id":"levelo_inurba_marseille","lat":43.29794,"lon":5.3809,"is_reserved":false,"is_disabled":false,"rental_uris":{"android":"levelo://app?vid=0addefdf-df9c-488f-bc45-7711d6a3b3c9","ios":"levelo://app?vid=0addefdf-df9c-488f-bc45-7711d6a3b3c9"},"vehicle_type_id":"4","last_reported":1747901649,"current_range_meters":10000,"station_id":"ce4bgip2rcd13ifvqbb0","pricing_plan_id":"cebpf4jnsgd1na2vs0mg"},{"bike_id":"d3541e06-31b4-471c-92f6-02e333ed7599","system_id":"levelo_inurba_marseille","lat":43.31219,"lon":5.36852,"is_reserved":false,"is_disabled":false,"rental_uris":{"android":"levelo://app?vid=d3541e06-31b4-471c-92f6-02e333ed7599","ios":"levelo://app?vid=d3541e06-31b4-471c-92f6-02e333ed7599"},"vehicle_type_id":"4","last_reported":1747901649,"current_range_meters":10000,"station_id":"ce4bgl92rcd13ifvqbq0","pricing_plan_id":"cebpf4jnsgd1na2vs0mg"},{"bike_id":"be7b3ca8-aede-4a6e-a7cc-d4475ce51a70","system_id":"levelo_inurba_marseille","lat":43.30137,"lon":5.37419,"is_reserved":false,"is_disabled":false,"rental_uris":{"android":"levelo://app?vid=be7b3ca8-aede-4a6e-a7cc-d4475ce51a70","ios":"levelo://app?vid=be7b3ca8-aede-4a6e-a7cc-d4475ce51a70"},"vehicle_type_id":"4","last_reported":1747901649,"current_range_meters":10000,"station_id":"ce4bgs92rcd13ifvqcc0","pricing_plan_id":"cebpf4jnsgd1na2vs0mg"},{"bike_id":"bc65b64c-cedb-4c28-bb39-f0d64f3cac09","system_id":"levelo_inurba_marseille","lat":43.26686,"lon":5.3827,"is_reserved":false,"is_disabled":false,"rental_uris":{"android":"levelo://app?vid=bc65b64c-cedb-4c28-bb39-f0d64f3cac09","ios":"levelo://app?vid=bc65b64c-cedb-4c28-bb39-f0d64f3cac09"},"vehicle_type_id":"4","last_reported":1747901649,"current_range_meters":10000,"station_id":"ce4bhg92rcd13ifvqf90","pricing_plan_id":"cebpf4jnsgd1na2vs0mg"},{"bike_id":"9091ab35-a768-48b5-b481-63734b573894","system_id":"levelo_inurba_marseille","lat":43.24069,"lon":5.3776,"is_reserved":false,"is_disabled":false,"rental_uris":{"android":"levelo://app?vid=9091ab35-a768-48b5-b481-63734b573894","ios":"levelo://app?vid=9091ab35-a768-48b5-b481-63734b573894"},"vehicle_type_id":"4","last_reported":1747901649,"current_range_meters":10000,"station_id":"ce4bhnp2rcd13ifvqgvg","pricing_plan_id":"cebpf4jnsgd1na2vs0mg"},{"bike_id":"f9fb40c0-1fcd-48cb-8e26-3f2dc0fb2451","system_id":"levelo_inurba_marseille","lat":43.33751,"lon":5.37509,"is_reserved":false,"is_disabled":false,"rental_uris":{"android":"levelo://app?vid=f9fb40c0-1fcd-48cb-8e26-3f2dc0fb2451","ios":"levelo://app?vid=f9fb40c0-1fcd-48cb-8e26-3f2dc0fb2451"},"vehicle_type_id":"4","last_reported":1747901649,"current_range_meters":10800,"station_id":"","pricing_plan_id":"cebpf4jnsgd1na2vs0mg"},{"bike_id":"27653dcd-dec9-4f13-b172-8968c20c1725","system_id":"levelo_inurba_marseille","lat":43.23851,"lon":5.431,"is_reserved":false,"is_disabled":false,"rental_uris":{"android":"levelo://app?vid=27653dcd-dec9-4f13-b172-8968c20c1725","ios":"levelo://app?vid=27653dcd-dec9-4f13-b172-8968c20c1725"},"vehicle_type_id":"4","last_reported":1747901649,"current_range_meters":10800,"station_id":"","pricing_plan_id":"cebpf4jnsgd1na2vs0mg"},{"bike_id":"155f02f5-caba-4b5e-86df-d9e4c6380f50","system_id":"levelo_inurba_marseille","lat":43.270122,"lon":5.406506,"is_reserved":false,"is_disabled":false,"rental_uris":{"android":"levelo://app?vid=155f02f5-caba-4b5e-86df-d9e4c6380f50","ios":"levelo://app?vid=155f02f5-caba-4b5e-86df-d9e4c6380f50"},"vehicle_type_id":"4","last_reported":1747901649,"current_range_meters":10800,"station_id":"","pricing_plan_id":"cebpf4jnsgd1na2vs0mg"},{"bike_id":"f4678bf1-7e58-4957-82ea-86724aa4182b","system_id":"levelo_inurba_marseille","lat":43.3089,"lon":5.37188,"is_reserved":false,"is_disabled":false,"rental_uris":{"android":"levelo://app?vid=f4678bf1-7e58-4957-82ea-86724aa4182b","ios":"levelo://app?vid=f4678bf1-7e58-4957-82ea-86724aa4182b"},"vehicle_type_id":"4","last_reported":1747901649,"current_range_meters":10800,"station_id":"ce4bguh2rcd13ifvqckg","pricing_plan_id":"cebpf4jnsgd1na2vs0mg"},{"bike_id":"8870fea4-a3da-456c-984b-5743496eb3f1","system_id":"levelo_inurba_marseille","lat":43.291,"lon":5.381382,"is_reserved":false,"is_disabled":false,"rental_uris":{"android":"levelo://app?vid=8870fea4-a3da-456c-984b-5743496eb3f1","ios":"levelo://app?vid=8870fea4-a3da-456c-984b-5743496eb3f1"},"vehicle_type_id":"4","last_reported":1747901649,"current_range_meters":10800,"station_id":"ce4bh512rcd13ifvqe2g","pricing_plan_id":"cebpf4jnsgd1na2vs0mg"},{"bike_id":"04e6558c-381d-4e2e-98ff-a065c3caa4f4","system_id":"levelo_inurba_marseille","lat":43.26057,"lon":5.39398,"is_reserved":false,"is_disabled":false,"rental_uris":{"android":"levelo://app?vid=04e6558c-381d-4e2e-98ff-a065c3caa4f4","ios":"levelo://app?vid=04e6558c-381d-4e2e-98ff-a065c3caa4f4"},"vehicle_type_id":"4","last_reported":1747901649,"current_range_meters":10800,"station_id":"ce4bhh92rcd13ifvqfj0","pricing_plan_id":"cebpf4jnsgd1na2vs0mg"},{"bike_id":"5485c417-c53b-4353-b99b-31ac467da04f","system_id":"levelo_inurba_marseille","lat":43.24552,"lon":5.3951,"is_reserved":false,"is_disabled":false,"rental_uris":{"android":"levelo://app?vid=5485c417-c53b-4353-b99b-31ac467da04f","ios":"levelo://app?vid=5485c417-c53b-4353-b99b-31ac467da04f"},"vehicle_type_id":"4","last_reported":1747901649,"current_range_meters":10800,"station_id":"ce4bhlp2rcd13ifvqgjg","pricing_plan_id":"cebpf4jnsgd1na2vs0mg"},{"bike_id":"4574f5e4-ff6f-4daf-8951-f7c94d971ca9","system_id":"levelo_inurba_marseille","lat":43.26231,"lon":5.40464,"is_reserved":false,"is_disabled":false,"rental_uris":{"android":"levelo://app?vid=4574f5e4-ff6f-4daf-8951-f7c94d971ca9","ios":"levelo://app?vid=4574f5e4-ff6f-4daf-8951-f7c94d971ca9"},"vehicle_type_id":"4","last_reported":1747901649,"current_range_meters":10800,"station_id":"ce4bhmh2rcd13ifvqgmg","pricing_plan_id":"cebpf4jnsgd1na2vs0mg"},{"bike_id":"1aa405fb-5b9d-48c8-8bad-9ac8ce771daf","system_id":"levelo_inurba_marseille","lat":43.27812,"lon":5.40715,"is_reserved":false,"is_disabled":false,"rental_uris":{"android":"levelo://app?vid=1aa405fb-5b9d-48c8-8bad-9ac8ce771daf","ios":"levelo://app?vid=1aa405fb-5b9d-48c8-8bad-9ac8ce771daf"},"vehicle_type_id":"4","last_reported":1747901649,"current_range_meters":10800,"station_id":"ce4bhnh2rcd13ifvqgtg","pricing_plan_id":"cebpf4jnsgd1na2vs0mg"},{"bike_id":"feaf7be4-fe23-45f7-8636-d4ccad002b89","system_id":"levelo_inurba_marseille","lat":43.24067,"lon":5.37765,"is_reserved":false,"is_disabled":false,"rental_uris":{"android":"levelo://app?vid=feaf7be4-fe23-45f7-8636-d4ccad002b89","ios":"levelo://app?vid=feaf7be4-fe23-45f7-8636-d4ccad002b89"},"vehicle_type_id":"4","last_reported":1747901649,"current_range_meters":10800,"station_id":"ce4bhnp2rcd13ifvqgvg","pricing_plan_id":"cebpf4jnsgd1na2vs0mg"},{"bike_id":"8132eb19-17ba-4103-8ae2-89937a2d2be2","system_id":"levelo_inurba_marseille","lat":43.33608,"lon":5.41035,"is_reserved":false,"is_disabled":false,"rental_uris":{"android":"levelo://app?vid=8132eb19-17ba-4103-8ae2-89937a2d2be2","ios":"levelo://app?vid=8132eb19-17ba-4103-8ae2-89937a2d2be2"},"vehicle_type_id":"4","last_reported":1747901649,"current_range_meters":10800,"station_id":"ce4bhqh2rcd13ifvqhmg","pricing_plan_id":"cebpf4jnsgd1na2vs0mg"},{"bike_id":"74a90f79-8a54-4a0b-8e34-c0e01bd7f17e","system_id":"levelo_inurba_marseille","lat":43.26799,"lon":5.40263,"is_reserved":false,"is_disabled":false,"rental_uris":{"android":"levelo://app?vid=74a90f79-8a54-4a0b-8e34-c0e01bd7f17e","ios":"levelo://app?vid=74a90f79-8a54-4a0b-8e34-c0e01bd7f17e"},"vehicle_type_id":"4","last_reported":1747901649,"current_range_meters":10800,"station_id":"ce501612rcd8frsf0b60","pricing_plan_id":"cebpf4jnsgd1na2vs0mg"},{"bike_id":"a0bba8cd-b3a7-4d5a-b39f-be6e2593fb6e","system_id":"levelo_inurba_marseille","lat":43.29949,"lon":5.37171,"is_reserved":false,"is_disabled":false,"rental_uris":{"android":"levelo://app?vid=a0bba8cd-b3a7-4d5a-b39f-be6e2593fb6e","ios":"levelo://app?vid=a0bba8cd-b3a7-4d5a-b39f-be6e2593fb6e"},"vehicle_type_id":"4","last_reported":1747901649,"current_range_meters":11200,"station_id":"ce4bgr92rcd13ifvqc7g","pricing_plan_id":"cebpf4jnsgd1na2vs0mg"},{"bike_id":"103aad19-b6ba-4849-b223-344be6a04b96","system_id":"levelo_inurba_marseille","lat":43.30947,"lon":5.39033,"is_reserved":false,"is_disabled":false,"rental_uris":{"android":"levelo://app?vid=103aad19-b6ba-4849-b223-344be6a04b96","ios":"levelo://app?vid=103aad19-b6ba-4849-b223-344be6a04b96"},"vehicle_type_id":"4","last_reported":1747901649,"current_range_meters":11200,"station_id":"ce4bgup2rcd13ifvqco0","pricing_plan_id":"cebpf4jnsgd1na2vs0mg"},{"bike_id":"68b71b40-e68d-4a1f-b6ac-144c296b89f3","system_id":"levelo_inurba_marseille","lat":43.28665,"lon":5.36338,"is_reserved":false,"is_disabled":false,"rental_uris":{"android":"levelo://app?vid=68b71b40-e68d-4a1f-b6ac-144c296b89f3","ios":"levelo://app?vid=68b71b40-e68d-4a1f-b6ac-144c296b89f3"},"vehicle_type_id":"4","last_reported":1747901649,"current_range_meters":11200,"station_id":"ce4bhah2rcd13ifvqej0","pricing_plan_id":"cebpf4jnsgd1na2vs0mg"},{"bike_id":"86fce640-9d52-4a60-a1e9-895bee8d740b","system_id":"levelo_inurba_marseille","lat":43.2465,"lon":5.389,"is_reserved":false,"is_disabled":false,"rental_uris":{"android":"levelo://app?vid=86fce640-9d52-4a60-a1e9-895bee8d740b","ios":"levelo://app?vid=86fce640-9d52-4a60-a1e9-895bee8d740b"},"vehicle_type_id":"4","last_reported":1747901649,"current_range_meters":11200,"station_id":"ce4bhg12rcd13ifvqf60","pricing_plan_id":"cebpf4jnsgd1na2vs0mg"},{"bike_id":"22c37e99-6402-4f7c-a990-8266a39b1c4a","system_id":"levelo_inurba_marseille","lat":43.266774,"lon":5.382679,"is_reserved":false,"is_disabled":false,"rental_uris":{"android":"levelo://app?vid=22c37e99-6402-4f7c-a990-8266a39b1c4a","ios":"levelo://app?vid=22c37e99-6402-4f7c-a990-8266a39b1c4a"},"vehicle_type_id":"4","last_reported":1747901649,"current_range_meters":11200,"station_id":"ce4bhg92rcd13ifvqf90","pricing_plan_id":"cebpf4jnsgd1na2vs0mg"},{"bike_id":"6f71ac47-7465-48a4-acaf-39d385ce6a26","system_id":"levelo_inurba_marseille","lat":43.26795,"lon":5.39412,"is_reserved":false,"is_disabled":false,"rental_uris":{"android":"levelo://app?vid=6f71ac47-7465-48a4-acaf-39d385ce6a26","ios":"levelo://app?vid=6f71ac47-7465-48a4-acaf-39d385ce6a26"},"vehicle_type_id":"4","last_reported":1747901649,"current_range_meters":11200,"station_id":"ce4bhh12rcd13ifvqfg0","pricing_plan_id":"cebpf4jnsgd1na2vs0mg"},{"bike_id":"4ad770ab-f129-4de2-889c-7fa4bb24a833","system_id":"levelo_inurba_marseille","lat":43.26951,"lon":5.38627,"is_reserved":false,"is_disabled":false,"rental_uris":{"android":"levelo://app?vid=4ad770ab-f129-4de2-889c-7fa4bb24a833","ios":"levelo://app?vid=4ad770ab-f129-4de2-889c-7fa4bb24a833"},"vehicle_type_id":"4","last_reported":1747901649,"current_range_meters":11200,"station_id":"ce4bhh92rcd13ifvqfh0","pricing_plan_id":"cebpf4jnsgd1na2vs0mg"},{"bike_id":"7dfdfdc8-9c79-46b6-9a4b-924773b53f29","system_id":"levelo_inurba_marseille","lat":43.26862,"lon":5.39166,"is_reserved":false,"is_disabled":false,"rental_uris":{"android":"levelo://app?vid=7dfdfdc8-9c79-46b6-9a4b-924773b53f29","ios":"levelo://app?vid=7dfdfdc8-9c79-46b6-9a4b-924773b53f29"},"vehicle_type_id":"4","last_reported":1747901649,"current_range_meters":11600,"station_id":"","pricing_plan_id":"cebpf4jnsgd1na2vs0mg"},{"bike_id":"9767c04d-069a-481b-96a3-bfde06604d9a","system_id":"levelo_inurba_marseille","lat":43.29039,"lon":5.39956,"is_reserved":false,"is_disabled":false,"rental_uris":{"android":"levelo://app?vid=9767c04d-069a-481b-96a3-bfde06604d9a","ios":"levelo://app?vid=9767c04d-069a-481b-96a3-bfde06604d9a"},"vehicle_type_id":"4","last_reported":1747901649,"current_range_meters":11600,"station_id":"ce4bh392rcd13ifvqdm0","pricing_plan_id":"cebpf4jnsgd1na2vs0mg"},{"bike_id":"6a970dc8-e377-45fb-a27d-19233b1ce6f9","system_id":"levelo_inurba_marseille","lat":43.247925,"lon":5.374799,"is_reserved":false,"is_disabled":false,"rental_uris":{"android":"levelo://app?vid=6a970dc8-e377-45fb-a27d-19233b1ce6f9","ios":"levelo://app?vid=6a970dc8-e377-45fb-a27d-19233b1ce6f9"},"vehicle_type_id":"4","last_reported":1747901649,"current_range_meters":11600,"station_id":"ce4bhgh2rcd13ifvqfb0","pricing_plan_id":"cebpf4jnsgd1na2vs0mg"},{"bike_id":"dc61c065-6ed1-487e-9ecf-5a93a8f61ca7","system_id":"levelo_inurba_marseille","lat":43.23171,"lon":5.39955,"is_reserved":false,"is_disabled":false,"rental_uris":{"android":"levelo://app?vid=dc61c065-6ed1-487e-9ecf-5a93a8f61ca7","ios":"levelo://app?vid=dc61c065-6ed1-487e-9ecf-5a93a8f61ca7"},"vehicle_type_id":"4","last_reported":1747901649,"current_range_meters":11600,"station_id":"ce4bhn12rcd13ifvqgqg","pricing_plan_id":"cebpf4jnsgd1na2vs0mg"},{"bike_id":"0d183917-2ff5-4a96-adad-98ffbbd3132f","system_id":"levelo_inurba_marseille","lat":43.29553,"lon":5.42286,"is_reserved":false,"is_disabled":false,"rental_uris":{"android":"levelo://app?vid=0d183917-2ff5-4a96-adad-98ffbbd3132f","ios":"levelo://app?vid=0d183917-2ff5-4a96-adad-98ffbbd3132f"},"vehicle_type_id":"4","last_reported":1747901649,"current_range_meters":11600,"station_id":"ce4bhph2rcd13ifvqhdg","pricing_plan_id":"cebpf4jnsgd1na2vs0mg"},{"bike_id":"87c4eccc-bb65-48f9-8b4c-4b27ebc9c1f5","system_id":"levelo_inurba_marseille","lat":43.21766,"lon":5.34596,"is_reserved":false,"is_disabled":false,"rental_uris":{"android":"levelo://app?vid=87c4eccc-bb65-48f9-8b4c-4b27ebc9c1f5","ios":"levelo://app?vid=87c4eccc-bb65-48f9-8b4c-4b27ebc9c1f5"},"vehicle_type_id":"4","last_reported":1747901649,"current_range_meters":11600,"station_id":"st_cvj6r9ubvosntc0bgbag","pricing_plan_id":"cebpf4jnsgd1na2vs0mg"},{"bike_id":"2f169391-0e61-4da9-8453-c0645c8cc2a0","system_id":"levelo_inurba_marseille","lat":43.30134,"lon":5.37413,"is_reserved":false,"is_disabled":false,"rental_uris":{"android":"levelo://app?vid=2f169391-0e61-4da9-8453-c0645c8cc2a0","ios":"levelo://app?vid=2f169391-0e61-4da9-8453-c0645c8cc2a0"},"vehicle_type_id":"4","last_reported":1747901649,"current_range_meters":12000,"station_id":"ce4bgs92rcd13ifvqcc0","pricing_plan_id":"cebpf4jnsgd1na2vs0mg"},{"bike_id":"de98edf1-a383-49d5-859b-2f3bc3e62ee7","system_id":"levelo_inurba_marseille","lat":43.31363,"lon":5.38489,"is_reserved":false,"is_disabled":false,"rental_uris":{"android":"levelo://app?vid=de98edf1-a383-49d5-859b-2f3bc3e62ee7","ios":"levelo://app?vid=de98edf1-a383-49d5-859b-2f3bc3e62ee7"},"vehicle_type_id":"4","last_reported":1747901649,"current_range_meters":12000,"station_id":"ce4bgt92rcd13ifvqcf0","pricing_plan_id":"cebpf4jnsgd1na2vs0mg"},{"bike_id":"181850f1-f7d3-4f46-b0a3-62993ff1e2da","system_id":"levelo_inurba_marseille","lat":43.26226,"lon":5.40453,"is_reserved":false,"is_disabled":false,"rental_uris":{"android":"levelo://app?vid=181850f1-f7d3-4f46-b0a3-62993ff1e2da","ios":"levelo://app?vid=181850f1-f7d3-4f46-b0a3-62993ff1e2da"},"vehicle_type_id":"4","last_reported":1747901649,"current_range_meters":12000,"station_id":"ce4bhmh2rcd13ifvqgmg","pricing_plan_id":"cebpf4jnsgd1na2vs0mg"},{"bike_id":"9415b23c-6344-4bc6-b354-4d25ce992eb5","system_id":"levelo_inurba_marseille","lat":43.27495,"lon":5.42452,"is_reserved":false,"is_disabled":false,"rental_uris":{"android":"levelo://app?vid=9415b23c-6344-4bc6-b354-4d25ce992eb5","ios":"levelo://app?vid=9415b23c-6344-4bc6-b354-4d25ce992eb5"},"vehicle_type_id":"4","last_reported":1747901649,"current_range_meters":12000,"station_id":"ce4bhn92rcd13ifvqgrg","pricing_plan_id":"cebpf4jnsgd1na2vs0mg"},{"bike_id":"83dcb05a-b642-4b2d-b4b5-ab66b762a8f5","system_id":"levelo_inurba_marseille","lat":43.29787,"lon":5.38104,"is_reserved":false,"is_disabled":false,"rental_uris":{"android":"levelo://app?vid=83dcb05a-b642-4b2d-b4b5-ab66b762a8f5","ios":"levelo://app?vid=83dcb05a-b642-4b2d-b4b5-ab66b762a8f5"},"vehicle_type_id":"4","last_reported":1747901649,"current_range_meters":12400,"station_id":"ce4bgip2rcd13ifvqbb0","pricing_plan_id":"cebpf4jnsgd1na2vs0mg"},{"bike_id":"84f2ef45-8f8c-450d-9a56-9926e212404d","system_id":"levelo_inurba_marseille","lat":43.30526,"lon":5.36711,"is_reserved":false,"is_disabled":false,"rental_uris":{"android":"levelo://app?vid=84f2ef45-8f8c-450d-9a56-9926e212404d","ios":"levelo://app?vid=84f2ef45-8f8c-450d-9a56-9926e212404d"},"vehicle_type_id":"4","last_reported":1747901649,"current_range_meters":12400,"station_id":"ce4bgrp2rcd13ifvqc9g","pricing_plan_id":"cebpf4jnsgd1na2vs0mg"},{"bike_id":"00ca9a86-834a-474f-81b1-769537e734da","system_id":"levelo_inurba_marseille","lat":43.30948,"lon":5.390284,"is_reserved":false,"is_disabled":false,"rental_uris":{"android":"levelo://app?vid=00ca9a86-834a-474f-81b1-769537e734da","ios":"levelo://app?vid=00ca9a86-834a-474f-81b1-769537e734da"},"vehicle_type_id":"4","last_reported":1747901649,"current_range_meters":12400,"station_id":"ce4bgup2rcd13ifvqco0","pricing_plan_id":"cebpf4jnsgd1na2vs0mg"},{"bike_id":"ef06f956-28cf-4ba0-a12c-41d28d7d0f6a","system_id":"levelo_inurba_marseille","lat":43.26209,"lon":5.37422,"is_reserved":false,"is_disabled":false,"rental_uris":{"android":"levelo://app?vid=ef06f956-28cf-4ba0-a12c-41d28d7d0f6a","ios":"levelo://app?vid=ef06f956-28cf-4ba0-a12c-41d28d7d0f6a"},"vehicle_type_id":"4","last_reported":1747901649,"current_range_meters":12400,"station_id":"ce4bhgp2rcd13ifvqfc0","pricing_plan_id":"cebpf4jnsgd1na2vs0mg"},{"bike_id":"454fe956-8c5a-4a46-a4f6-74fe6bf33c90","system_id":"levelo_inurba_marseille","lat":43.26802,"lon":5.40259,"is_reserved":false,"is_disabled":false,"rental_uris":{"android":"levelo://app?vid=454fe956-8c5a-4a46-a4f6-74fe6bf33c90","ios":"levelo://app?vid=454fe956-8c5a-4a46-a4f6-74fe6bf33c90"},"vehicle_type_id":"4","last_reported":1747901649,"current_range_meters":12400,"station_id":"ce501612rcd8frsf0b60","pricing_plan_id":"cebpf4jnsgd1na2vs0mg"},{"bike_id":"e75389f6-919f-4165-ae31-bdd131757190","system_id":"levelo_inurba_marseille","lat":43.30747,"lon":5.42441,"is_reserved":false,"is_disabled":false,"rental_uris":{"android":"levelo://app?vid=e75389f6-919f-4165-ae31-bdd131757190","ios":"levelo://app?vid=e75389f6-919f-4165-ae31-bdd131757190"},"vehicle_type_id":"4","last_reported":1747901649,"current_range_meters":12400,"station_id":"st_cvj6ca6bvosntc0bfgr0","pricing_plan_id":"cebpf4jnsgd1na2vs0mg"},{"bike_id":"78d49291-681f-4be3-9463-21f523d16837","system_id":"levelo_inurba_marseille","lat":43.30922,"lon":5.40157,"is_reserved":false,"is_disabled":false,"rental_uris":{"android":"levelo://app?vid=78d49291-681f-4be3-9463-21f523d16837","ios":"levelo://app?vid=78d49291-681f-4be3-9463-21f523d16837"},"vehicle_type_id":"4","last_reported":1747901649,"current_range_meters":12800,"station_id":"ce4bgvp2rcd13ifvqct0","pricing_plan_id":"cebpf4jnsgd1na2vs0mg"},{"bike_id":"a0b8760b-0d3e-45ef-b262-9fee688b1263","system_id":"levelo_inurba_marseille","lat":43.28346,"lon":5.381,"is_reserved":false,"is_disabled":false,"rental_uris":{"android":"levelo://app?vid=a0b8760b-0d3e-45ef-b262-9fee688b1263","ios":"levelo://app?vid=a0b8760b-0d3e-45ef-b262-9fee688b1263"},"vehicle_type_id":"4","last_reported":1747901649,"current_range_meters":12800,"station_id":"ce4bh412rcd13ifvqdr0","pricing_plan_id":"cebpf4jnsgd1na2vs0mg"},{"bike_id":"1fbabb97-62f0-4a93-b947-ece62f4d7180","system_id":"levelo_inurba_marseille","lat":43.26489,"lon":5.39546,"is_reserved":false,"is_disabled":false,"rental_uris":{"android":"levelo://app?vid=1fbabb97-62f0-4a93-b947-ece62f4d7180","ios":"levelo://app?vid=1fbabb97-62f0-4a93-b947-ece62f4d7180"},"vehicle_type_id":"4","last_reported":1747901649,"current_range_meters":12800,"station_id":"ce4bhi12rcd13ifvqfq0","pricing_plan_id":"cebpf4jnsgd1na2vs0mg"},{"bike_id":"0dca6de3-57ba-443d-8da5-6f1412249b6a","system_id":"levelo_inurba_marseille","lat":43.25934,"lon":5.40924,"is_reserved":false,"is_disabled":false,"rental_uris":{"android":"levelo://app?vid=0dca6de3-57ba-443d-8da5-6f1412249b6a","ios":"levelo://app?vid=0dca6de3-57ba-443d-8da5-6f1412249b6a"},"vehicle_type_id":"4","last_reported":1747901649,"current_range_meters":12800,"station_id":"ce4bhm92rcd13ifvqglg","pricing_plan_id":"cebpf4jnsgd1na2vs0mg"},{"bike_id":"d8ef93ab-6594-4205-bec9-cbf07e2aa23e","system_id":"levelo_inurba_marseille","lat":43.24171,"lon":5.36394,"is_reserved":false,"is_disabled":false,"rental_uris":{"android":"levelo://app?vid=d8ef93ab-6594-4205-bec9-cbf07e2aa23e","ios":"levelo://app?vid=d8ef93ab-6594-4205-bec9-cbf07e2aa23e"},"vehicle_type_id":"4","last_reported":1747901649,"current_range_meters":12800,"station_id":"cpo36qri1sfpv3e86is0","pricing_plan_id":"cebpf4jnsgd1na2vs0mg"},{"bike_id":"acf11393-d4d7-4d5d-9ab9-948237951d21","system_id":"levelo_inurba_marseille","lat":43.30948,"lon":5.39037,"is_reserved":false,"is_disabled":false,"rental_uris":{"android":"levelo://app?vid=acf11393-d4d7-4d5d-9ab9-948237951d21","ios":"levelo://app?vid=acf11393-d4d7-4d5d-9ab9-948237951d21"},"vehicle_type_id":"4","last_reported":1747901649,"current_range_meters":13600,"station_id":"ce4bgup2rcd13ifvqco0","pricing_plan_id":"cebpf4jnsgd1na2vs0mg"},{"bike_id":"2058a78d-3db4-471f-936e-6ae11f1e3c82","system_id":"levelo_inurba_marseille","lat":43.300935,"lon":5.390705,"is_reserved":false,"is_disabled":false,"rental_uris":{"android":"levelo://app?vid=2058a78d-3db4-471f-936e-6ae11f1e3c82","ios":"levelo://app?vid=2058a78d-3db4-471f-936e-6ae11f1e3c82"},"vehicle_type_id":"4","last_reported":1747901649,"current_range_meters":13600,"station_id":"ce4bh192rcd13ifvqdb0","pricing_plan_id":"cebpf4jnsgd1na2vs0mg"},{"bike_id":"1a5a7ae7-c4f1-4b2a-9a16-99a5497b0c61","system_id":"levelo_inurba_marseille","lat":43.25577,"lon":5.38222,"is_reserved":false,"is_disabled":false,"rental_uris":{"android":"levelo://app?vid=1a5a7ae7-c4f1-4b2a-9a16-99a5497b0c61","ios":"levelo://app?vid=1a5a7ae7-c4f1-4b2a-9a16-99a5497b0c61"},"vehicle_type_id":"4","last_reported":1747901649,"current_range_meters":13600,"station_id":"ce4bhih2rcd13ifvqfs0","pricing_plan_id":"cebpf4jnsgd1na2vs0mg"},{"bike_id":"730e0997-f1d5-4fd7-93d1-34bd545d4c3e","system_id":"levelo_inurba_marseille","lat":43.2418,"lon":5.3973,"is_reserved":false,"is_disabled":false,"rental_uris":{"android":"levelo://app?vid=730e0997-f1d5-4fd7-93d1-34bd545d4c3e","ios":"levelo://app?vid=730e0997-f1d5-4fd7-93d1-34bd545d4c3e"},"vehicle_type_id":"4","last_reported":1747901649,"current_range_meters":13600,"station_id":"ce4bhn12rcd13ifvqgpg","pricing_plan_id":"cebpf4jnsgd1na2vs0mg"},{"bike_id":"e96594c2-3a51-4fd7-80fd-fa7778807678","system_id":"levelo_inurba_marseille","lat":43.32465,"lon":5.36557,"is_reserved":false,"is_disabled":false,"rental_uris":{"android":"levelo://app?vid=e96594c2-3a51-4fd7-80fd-fa7778807678","ios":"levelo://app?vid=e96594c2-3a51-4fd7-80fd-fa7778807678"},"vehicle_type_id":"4","last_reported":1747901649,"current_range_meters":13600,"station_id":"ce4bhs12rcd13ifvqhvg","pricing_plan_id":"cebpf4jnsgd1na2vs0mg"},{"bike_id":"5c159cfc-03b1-4c79-883c-89448a2514c1","system_id":"levelo_inurba_marseille","lat":43.29852,"lon":5.36255,"is_reserved":false,"is_disabled":false,"rental_uris":{"android":"levelo://app?vid=5c159cfc-03b1-4c79-883c-89448a2514c1","ios":"levelo://app?vid=5c159cfc-03b1-4c79-883c-89448a2514c1"},"vehicle_type_id":"4","last_reported":1747901649,"current_range_meters":14000,"station_id":"ce4bgpp2rcd13ifvqc3g","pricing_plan_id":"cebpf4jnsgd1na2vs0mg"},{"bike_id":"873a2975-888c-4c94-8e40-a4b5a5ad77e2","system_id":"levelo_inurba_marseille","lat":43.309594,"lon":5.390534,"is_reserved":false,"is_disabled":false,"rental_uris":{"android":"levelo://app?vid=873a2975-888c-4c94-8e40-a4b5a5ad77e2","ios":"levelo://app?vid=873a2975-888c-4c94-8e40-a4b5a5ad77e2"},"vehicle_type_id":"4","last_reported":1747901649,"current_range_meters":14000,"station_id":"ce4bgup2rcd13ifvqco0","pricing_plan_id":"cebpf4jnsgd1na2vs0mg"},{"bike_id":"f9223343-51dd-4eb0-a255-7d7bd8e5d0ef","system_id":"levelo_inurba_marseille","lat":43.31191,"lon":5.40165,"is_reserved":false,"is_disabled":false,"rental_uris":{"android":"levelo://app?vid=f9223343-51dd-4eb0-a255-7d7bd8e5d0ef","ios":"levelo://app?vid=f9223343-51dd-4eb0-a255-7d7bd8e5d0ef"},"vehicle_type_id":"4","last_reported":1747901649,"current_range_meters":14400,"station_id":"","pricing_plan_id":"cebpf4jnsgd1na2vs0mg"},{"bike_id":"0858c7c5-09f5-4a8c-97f6-3cd7929e8923","system_id":"levelo_inurba_marseille","lat":43.3095,"lon":5.3901,"is_reserved":false,"is_disabled":false,"rental_uris":{"android":"levelo://app?vid=0858c7c5-09f5-4a8c-97f6-3cd7929e8923","ios":"levelo://app?vid=0858c7c5-09f5-4a8c-97f6-3cd7929e8923"},"vehicle_type_id":"4","last_reported":1747901649,"current_range_meters":14400,"station_id":"ce4bgup2rcd13ifvqco0","pricing_plan_id":"cebpf4jnsgd1na2vs0mg"},{"bike_id":"3c5b057d-5cb3-4998-a58a-448844050ea6","system_id":"levelo_inurba_marseille","lat":43.27493,"lon":5.42452,"is_reserved":false,"is_disabled":false,"rental_uris":{"android":"levelo://app?vid=3c5b057d-5cb3-4998-a58a-448844050ea6","ios":"levelo://app?vid=3c5b057d-5cb3-4998-a58a-448844050ea6"},"vehicle_type_id":"4","last_reported":1747901649,"current_range_meters":14400,"station_id":"ce4bhn92rcd13ifvqgrg","pricing_plan_id":"cebpf4jnsgd1na2vs0mg"},{"bike_id":"fb37c12e-72aa-4e9a-8b92-5c6606bf83ba","system_id":"levelo_inurba_marseille","lat":43.32538,"lon":5.41429,"is_reserved":false,"is_disabled":false,"rental_uris":{"android":"levelo://app?vid=fb37c12e-72aa-4e9a-8b92-5c6606bf83ba","ios":"levelo://app?vid=fb37c12e-72aa-4e9a-8b92-5c6606bf83ba"},"vehicle_type_id":"4","last_reported":1747901649,"current_range_meters":14400,"station_id":"ce4bhq12rcd13ifvqhhg","pricing_plan_id":"cebpf4jnsgd1na2vs0mg"},{"bike_id":"c8d9d230-fe7d-40b3-9cf2-c78d18c62cbc","system_id":"levelo_inurba_marseille","lat":43.29693,"lon":5.37281,"is_reserved":false,"is_disabled":false,"rental_uris":{"android":"levelo://app?vid=c8d9d230-fe7d-40b3-9cf2-c78d18c62cbc","ios":"levelo://app?vid=c8d9d230-fe7d-40b3-9cf2-c78d18c62cbc"},"vehicle_type_id":"4","last_reported":1747901649,"current_range_meters":14800,"station_id":"ce4bgk12rcd13ifvqbj0","pricing_plan_id":"cebpf4jnsgd1na2vs0mg"},{"bike_id":"d670c373-073e-4377-a761-bc5fea735f24","system_id":"levelo_inurba_marseille","lat":43.29712,"lon":5.37699,"is_reserved":false,"is_disabled":false,"rental_uris":{"android":"levelo://app?vid=d670c373-073e-4377-a761-bc5fea735f24","ios":"levelo://app?vid=d670c373-073e-4377-a761-bc5fea735f24"},"vehicle_type_id":"4","last_reported":1747901649,"current_range_meters":14800,"station_id":"ce4bgkh2rcd13ifvqbl0","pricing_plan_id":"cebpf4jnsgd1na2vs0mg"},{"bike_id":"03a5aaf1-91ae-4267-adfa-99068eaae509","system_id":"levelo_inurba_marseille","lat":43.30534,"lon":5.36717,"is_reserved":false,"is_disabled":false,"rental_uris":{"android":"levelo://app?vid=03a5aaf1-91ae-4267-adfa-99068eaae509","ios":"levelo://app?vid=03a5aaf1-91ae-4267-adfa-99068eaae509"},"vehicle_type_id":"4","last_reported":1747901649,"current_range_meters":14800,"station_id":"ce4bgrp2rcd13ifvqc9g","pricing_plan_id":"cebpf4jnsgd1na2vs0mg"},{"bike_id":"dd86348f-ba03-440c-a4a1-04277442b6e6","system_id":"levelo_inurba_marseille","lat":43.28726,"lon":5.37945,"is_reserved":false,"is_disabled":false,"rental_uris":{"android":"levelo://app?vid=dd86348f-ba03-440c-a4a1-04277442b6e6","ios":"levelo://app?vid=dd86348f-ba03-440c-a4a1-04277442b6e6"},"vehicle_type_id":"4","last_reported":1747901649,"current_range_meters":14800,"station_id":"ce4bh9p2rcd13ifvqec0","pricing_plan_id":"cebpf4jnsgd1na2vs0mg"},{"bike_id":"1ac1b0ee-ec0f-42ca-aba5-be99a51af258","system_id":"levelo_inurba_marseille","lat":43.27494,"lon":5.424568,"is_reserved":false,"is_disabled":false,"rental_uris":{"android":"levelo://app?vid=1ac1b0ee-ec0f-42ca-aba5-be99a51af258","ios":"levelo://app?vid=1ac1b0ee-ec0f-42ca-aba5-be99a51af258"},"vehicle_type_id":"4","last_reported":1747901649,"current_range_meters":14800,"station_id":"ce4bhn92rcd13ifvqgrg","pricing_plan_id":"cebpf4jnsgd1na2vs0mg"},{"bike_id":"b0e2bb50-4653-4867-9bc7-ff530f726a3a","system_id":"levelo_inurba_marseille","lat":43.336173,"lon":5.41032,"is_reserved":false,"is_disabled":false,"rental_uris":{"android":"levelo://app?vid=b0e2bb50-4653-4867-9bc7-ff530f726a3a","ios":"levelo://app?vid=b0e2bb50-4653-4867-9bc7-ff530f726a3a"},"vehicle_type_id":"4","last_reported":1747901649,"current_range_meters":14800,"station_id":"ce4bhqh2rcd13ifvqhmg","pricing_plan_id":"cebpf4jnsgd1na2vs0mg"},{"bike_id":"78b8a23c-af4a-423b-907d-71c2cfddf417","system_id":"levelo_inurba_marseille","lat":43.30546,"lon":5.36525,"is_reserved":false,"is_disabled":false,"rental_uris":{"android":"levelo://app?vid=78b8a23c-af4a-423b-907d-71c2cfddf417","ios":"levelo://app?vid=78b8a23c-af4a-423b-907d-71c2cfddf417"},"vehicle_type_id":"4","last_reported":1747901649,"current_range_meters":15200,"station_id":"ce4bgs12rcd13ifvqcag","pricing_plan_id":"cebpf4jnsgd1na2vs0mg"},{"bike_id":"f14904a6-4cde-4bdb-98d9-35bd44369534","system_id":"levelo_inurba_marseille","lat":43.27918,"lon":5.39579,"is_reserved":false,"is_disabled":false,"rental_uris":{"android":"levelo://app?vid=f14904a6-4cde-4bdb-98d9-35bd44369534","ios":"levelo://app?vid=f14904a6-4cde-4bdb-98d9-35bd44369534"},"vehicle_type_id":"4","last_reported":1747901649,"current_range_meters":15200,"station_id":"ce4bhf92rcd13ifvqf40","pricing_plan_id":"cebpf4jnsgd1na2vs0mg"},{"bike_id":"1f9f50e5-d449-441c-a551-f789b1eaece1","system_id":"levelo_inurba_marseille","lat":43.260749,"lon":5.393967,"is_reserved":false,"is_disabled":false,"rental_uris":{"android":"levelo://app?vid=1f9f50e5-d449-441c-a551-f789b1eaece1","ios":"levelo://app?vid=1f9f50e5-d449-441c-a551-f789b1eaece1"},"vehicle_type_id":"4","last_reported":1747901649,"current_range_meters":15200,"station_id":"ce4bhh92rcd13ifvqfj0","pricing_plan_id":"cebpf4jnsgd1na2vs0mg"},{"bike_id":"c2285a02-ae83-49f4-a4d4-2f0f0bcd3c5b","system_id":"levelo_inurba_marseille","lat":43.30913,"lon":5.36836,"is_reserved":false,"is_disabled":false,"rental_uris":{"android":"levelo://app?vid=c2285a02-ae83-49f4-a4d4-2f0f0bcd3c5b","ios":"levelo://app?vid=c2285a02-ae83-49f4-a4d4-2f0f0bcd3c5b"},"vehicle_type_id":"4","last_reported":1747901649,"current_range_meters":16000,"station_id":"","pricing_plan_id":"cebpf4jnsgd1na2vs0mg"},{"bike_id":"97dbe0a3-a550-4280-97ae-b685c8af052d","system_id":"levelo_inurba_marseille","lat":43.29007,"lon":5.38142,"is_reserved":false,"is_disabled":false,"rental_uris":{"android":"levelo://app?vid=97dbe0a3-a550-4280-97ae-b685c8af052d","ios":"levelo://app?vid=97dbe0a3-a550-4280-97ae-b685c8af052d"},"vehicle_type_id":"4","last_reported":1747901649,"current_range_meters":16000,"station_id":"ce4bh4p2rcd13ifvqe1g","pricing_plan_id":"cebpf4jnsgd1na2vs0mg"},{"bike_id":"e3e19b90-9823-4b53-b8a7-4c599b3176c2","system_id":"levelo_inurba_marseille","lat":43.251034,"lon":5.403376,"is_reserved":false,"is_disabled":false,"rental_uris":{"android":"levelo://app?vid=e3e19b90-9823-4b53-b8a7-4c599b3176c2","ios":"levelo://app?vid=e3e19b90-9823-4b53-b8a7-4c599b3176c2"},"vehicle_type_id":"4","last_reported":1747901649,"current_range_meters":16000,"station_id":"ce4bhlh2rcd13ifvqgig","pricing_plan_id":"cebpf4jnsgd1na2vs0mg"},{"bike_id":"46537b52-a5b6-4581-b7be-425c860a7d5c","system_id":"levelo_inurba_marseille","lat":43.241855,"lon":5.397239,"is_reserved":false,"is_disabled":false,"rental_uris":{"android":"levelo://app?vid=46537b52-a5b6-4581-b7be-425c860a7d5c","ios":"levelo://app?vid=46537b52-a5b6-4581-b7be-425c860a7d5c"},"vehicle_type_id":"4","last_reported":1747901649,"current_range_meters":16000,"station_id":"ce4bhn12rcd13ifvqgpg","pricing_plan_id":"cebpf4jnsgd1na2vs0mg"},{"bike_id":"84f00b51-2429-41be-8a43-83978d7764de","system_id":"levelo_inurba_marseille","lat":43.27498,"lon":5.42461,"is_reserved":false,"is_disabled":false,"rental_uris":{"android":"levelo://app?vid=84f00b51-2429-41be-8a43-83978d7764de","ios":"levelo://app?vid=84f00b51-2429-41be-8a43-83978d7764de"},"vehicle_type_id":"4","last_reported":1747901649,"current_range_meters":16000,"station_id":"ce4bhn92rcd13ifvqgrg","pricing_plan_id":"cebpf4jnsgd1na2vs0mg"},{"bike_id":"e9f20639-4ef6-4a87-95a1-e03b64e2b7de","system_id":"levelo_inurba_marseille","lat":43.2783,"lon":5.40694,"is_reserved":false,"is_disabled":false,"rental_uris":{"android":"levelo://app?vid=e9f20639-4ef6-4a87-95a1-e03b64e2b7de","ios":"levelo://app?vid=e9f20639-4ef6-4a87-95a1-e03b64e2b7de"},"vehicle_type_id":"4","last_reported":1747901649,"current_range_meters":16000,"station_id":"ce4bhnh2rcd13ifvqgtg","pricing_plan_id":"cebpf4jnsgd1na2vs0mg"},{"bike_id":"01b607b0-67f9-49ea-b6f3-3774ee1c8af9","system_id":"levelo_inurba_marseille","lat":43.24059,"lon":5.37762,"is_reserved":false,"is_disabled":false,"rental_uris":{"android":"levelo://app?vid=01b607b0-67f9-49ea-b6f3-3774ee1c8af9","ios":"levelo://app?vid=01b607b0-67f9-49ea-b6f3-3774ee1c8af9"},"vehicle_type_id":"4","last_reported":1747901649,"current_range_meters":16000,"station_id":"ce4bhnp2rcd13ifvqgvg","pricing_plan_id":"cebpf4jnsgd1na2vs0mg"},{"bike_id":"64e8d141-7d8b-48cf-90b9-b154ac715691","system_id":"levelo_inurba_marseille","lat":43.2975,"lon":5.38076,"is_reserved":false,"is_disabled":false,"rental_uris":{"android":"levelo://app?vid=64e8d141-7d8b-48cf-90b9-b154ac715691","ios":"levelo://app?vid=64e8d141-7d8b-48cf-90b9-b154ac715691"},"vehicle_type_id":"4","last_reported":1747901649,"current_range_meters":16400,"station_id":"","pricing_plan_id":"cebpf4jnsgd1na2vs0mg"},{"bike_id":"69b0ddea-e6bf-4e1e-aceb-85c67da32f69","system_id":"levelo_inurba_marseille","lat":43.29026,"lon":5.381272,"is_reserved":false,"is_disabled":false,"rental_uris":{"android":"levelo://app?vid=69b0ddea-e6bf-4e1e-aceb-85c67da32f69","ios":"levelo://app?vid=69b0ddea-e6bf-4e1e-aceb-85c67da32f69"},"vehicle_type_id":"4","last_reported":1747901649,"current_range_meters":16400,"station_id":"ce4bgop2rcd13ifvqc1g","pricing_plan_id":"cebpf4jnsgd1na2vs0mg"},{"bike_id":"5550bce6-ccb5-409c-b2f6-177d6683ab88","system_id":"levelo_inurba_marseille","lat":43.33604,"lon":5.4104,"is_reserved":false,"is_disabled":false,"rental_uris":{"android":"levelo://app?vid=5550bce6-ccb5-409c-b2f6-177d6683ab88","ios":"levelo://app?vid=5550bce6-ccb5-409c-b2f6-177d6683ab88"},"vehicle_type_id":"4","last_reported":1747901649,"current_range_meters":16400,"station_id":"ce4bhqh2rcd13ifvqhmg","pricing_plan_id":"cebpf4jnsgd1na2vs0mg"},{"bike_id":"e307b94c-fa59-4182-91e2-cae2f896c5e1","system_id":"levelo_inurba_marseille","lat":43.321038,"lon":5.367777,"is_reserved":false,"is_disabled":false,"rental_uris":{"android":"levelo://app?vid=e307b94c-fa59-4182-91e2-cae2f896c5e1","ios":"levelo://app?vid=e307b94c-fa59-4182-91e2-cae2f896c5e1"},"vehicle_type_id":"4","last_reported":1747901649,"current_range_meters":16400,"station_id":"ce4bhrh2rcd13ifvqhug","pricing_plan_id":"cebpf4jnsgd1na2vs0mg"},{"bike_id":"48ea8974-3fb9-4bda-b3eb-3f3919ec67a2","system_id":"levelo_inurba_marseille","lat":43.26808,"lon":5.40263,"is_reserved":false,"is_disabled":false,"rental_uris":{"android":"levelo://app?vid=48ea8974-3fb9-4bda-b3eb-3f3919ec67a2","ios":"levelo://app?vid=48ea8974-3fb9-4bda-b3eb-3f3919ec67a2"},"vehicle_type_id":"4","last_reported":1747901649,"current_range_meters":16400,"station_id":"ce501612rcd8frsf0b60","pricing_plan_id":"cebpf4jnsgd1na2vs0mg"},{"bike_id":"60109853-dcc4-441a-a95f-c7edc277f6f7","system_id":"levelo_inurba_marseille","lat":43.29841,"lon":5.36263,"is_reserved":false,"is_disabled":false,"rental_uris":{"android":"levelo://app?vid=60109853-dcc4-441a-a95f-c7edc277f6f7","ios":"levelo://app?vid=60109853-dcc4-441a-a95f-c7edc277f6f7"},"vehicle_type_id":"4","last_reported":1747901649,"current_range_meters":16800,"station_id":"ce4bgpp2rcd13ifvqc3g","pricing_plan_id":"cebpf4jnsgd1na2vs0mg"},{"bike_id":"124ab8f5-c613-4e9a-a2f1-2092d5de6e85","system_id":"levelo_inurba_marseille","lat":43.30288,"lon":5.36938,"is_reserved":false,"is_disabled":false,"rental_uris":{"android":"levelo://app?vid=124ab8f5-c613-4e9a-a2f1-2092d5de6e85","ios":"levelo://app?vid=124ab8f5-c613-4e9a-a2f1-2092d5de6e85"},"vehicle_type_id":"4","last_reported":1747901649,"current_range_meters":16800,"station_id":"ce4bgqh2rcd13ifvqc5g","pricing_plan_id":"cebpf4jnsgd1na2vs0mg"},{"bike_id":"987d2991-8e5d-4da5-93b6-43a0c3e79a15","system_id":"levelo_inurba_marseille","lat":43.29962,"lon":5.37175,"is_reserved":false,"is_disabled":false,"rental_uris":{"android":"levelo://app?vid=987d2991-8e5d-4da5-93b6-43a0c3e79a15","ios":"levelo://app?vid=987d2991-8e5d-4da5-93b6-43a0c3e79a15"},"vehicle_type_id":"4","last_reported":1747901649,"current_range_meters":16800,"station_id":"ce4bgr92rcd13ifvqc7g","pricing_plan_id":"cebpf4jnsgd1na2vs0mg"},{"bike_id":"8d56dcd7-70d6-4aa7-8c63-811a32528965","system_id":"levelo_inurba_marseille","lat":43.28943,"lon":5.36391,"is_reserved":false,"is_disabled":false,"rental_uris":{"android":"levelo://app?vid=8d56dcd7-70d6-4aa7-8c63-811a32528965","ios":"levelo://app?vid=8d56dcd7-70d6-4aa7-8c63-811a32528965"},"vehicle_type_id":"4","last_reported":1747901649,"current_range_meters":16800,"station_id":"ce4bhc92rcd13ifvqetg","pricing_plan_id":"cebpf4jnsgd1na2vs0mg"},{"bike_id":"504baffc-ad18-42f1-ba3c-e8815f65a9f8","system_id":"levelo_inurba_marseille","lat":43.26565,"lon":5.39042,"is_reserved":false,"is_disabled":false,"rental_uris":{"android":"levelo://app?vid=504baffc-ad18-42f1-ba3c-e8815f65a9f8","ios":"levelo://app?vid=504baffc-ad18-42f1-ba3c-e8815f65a9f8"},"vehicle_type_id":"4","last_reported":1747901649,"current_range_meters":16800,"station_id":"ce4bhe12rcd13ifvqf30","pricing_plan_id":"cebpf4jnsgd1na2vs0mg"},{"bike_id":"aeeedd9d-21b0-4b54-93e3-74a63297bbbf","system_id":"levelo_inurba_marseille","lat":43.240498,"lon":5.377114,"is_reserved":false,"is_disabled":false,"rental_uris":{"android":"levelo://app?vid=aeeedd9d-21b0-4b54-93e3-74a63297bbbf","ios":"levelo://app?vid=aeeedd9d-21b0-4b54-93e3-74a63297bbbf"},"vehicle_type_id":"4","last_reported":1747901649,"current_range_meters":16800,"station_id":"ce4bhnp2rcd13ifvqgvg","pricing_plan_id":"cebpf4jnsgd1na2vs0mg"},{"bike_id":"41bef200-0210-46a9-afd1-c001d345c4b0","system_id":"levelo_inurba_marseille","lat":43.33653,"lon":5.37842,"is_reserved":false,"is_disabled":false,"rental_uris":{"android":"levelo://app?vid=41bef200-0210-46a9-afd1-c001d345c4b0","ios":"levelo://app?vid=41bef200-0210-46a9-afd1-c001d345c4b0"},"vehicle_type_id":"4","last_reported":1747901649,"current_range_meters":17200,"station_id":"","pricing_plan_id":"cebpf4jnsgd1na2vs0mg"},{"bike_id":"66221673-8560-4e6b-9c3a-eed7aa26bdda","system_id":"levelo_inurba_marseille","lat":43.26954,"lon":5.38623,"is_reserved":false,"is_disabled":false,"rental_uris":{"android":"levelo://app?vid=66221673-8560-4e6b-9c3a-eed7aa26bdda","ios":"levelo://app?vid=66221673-8560-4e6b-9c3a-eed7aa26bdda"},"vehicle_type_id":"4","last_reported":1747901649,"current_range_meters":17200,"station_id":"ce4bhh92rcd13ifvqfh0","pricing_plan_id":"cebpf4jnsgd1na2vs0mg"},{"bike_id":"e569e9f8-3f3a-457e-8faa-4c0d86bf9b28","system_id":"levelo_inurba_marseille","lat":43.26058,"lon":5.39389,"is_reserved":false,"is_disabled":false,"rental_uris":{"android":"levelo://app?vid=e569e9f8-3f3a-457e-8faa-4c0d86bf9b28","ios":"levelo://app?vid=e569e9f8-3f3a-457e-8faa-4c0d86bf9b28"},"vehicle_type_id":"4","last_reported":1747901649,"current_range_meters":17200,"station_id":"ce4bhh92rcd13ifvqfj0","pricing_plan_id":"cebpf4jnsgd1na2vs0mg"},{"bike_id":"9d009e49-50fd-44ce-a336-f3e45a754c39","system_id":"levelo_inurba_marseille","lat":43.24662,"lon":5.38174,"is_reserved":false,"is_disabled":false,"rental_uris":{"android":"levelo://app?vid=9d009e49-50fd-44ce-a336-f3e45a754c39","ios":"levelo://app?vid=9d009e49-50fd-44ce-a336-f3e45a754c39"},"vehicle_type_id":"4","last_reported":1747901649,"current_range_meters":17200,"station_id":"ce4bhih2rcd13ifvqfr0","pricing_plan_id":"cebpf4jnsgd1na2vs0mg"},{"bike_id":"0bbbaff3-0dbe-42db-b1d6-4aa4f46e17fd","system_id":"levelo_inurba_marseille","lat":43.32483,"lon":5.36549,"is_reserved":false,"is_disabled":false,"rental_uris":{"android":"levelo://app?vid=0bbbaff3-0dbe-42db-b1d6-4aa4f46e17fd","ios":"levelo://app?vid=0bbbaff3-0dbe-42db-b1d6-4aa4f46e17fd"},"vehicle_type_id":"4","last_reported":1747901649,"current_range_meters":17200,"station_id":"ce4bhs12rcd13ifvqhvg","pricing_plan_id":"cebpf4jnsgd1na2vs0mg"},{"bike_id":"605be4bf-deee-4b33-a4cb-0294e9797557","system_id":"levelo_inurba_marseille","lat":43.23062,"lon":5.35503,"is_reserved":false,"is_disabled":false,"rental_uris":{"android":"levelo://app?vid=605be4bf-deee-4b33-a4cb-0294e9797557","ios":"levelo://app?vid=605be4bf-deee-4b33-a4cb-0294e9797557"},"vehicle_type_id":"4","last_reported":1747901649,"current_range_meters":17200,"station_id":"cpo3342slgdg3j2ifvpg","pricing_plan_id":"cebpf4jnsgd1na2vs0mg"},{"bike_id":"f0d3f824-aa3f-487d-9b17-e99f6f68f733","system_id":"levelo_inurba_marseille","lat":43.31491,"lon":5.37292,"is_reserved":false,"is_disabled":false,"rental_uris":{"android":"levelo://app?vid=f0d3f824-aa3f-487d-9b17-e99f6f68f733","ios":"levelo://app?vid=f0d3f824-aa3f-487d-9b17-e99f6f68f733"},"vehicle_type_id":"4","last_reported":1747901649,"current_range_meters":17600,"station_id":"ce4bgt12rcd13ifvqcd0","pricing_plan_id":"cebpf4jnsgd1na2vs0mg"},{"bike_id":"e5e94367-a52e-4db2-9b83-8db365660e30","system_id":"levelo_inurba_marseille","lat":43.259,"lon":5.40917,"is_reserved":false,"is_disabled":false,"rental_uris":{"android":"levelo://app?vid=e5e94367-a52e-4db2-9b83-8db365660e30","ios":"levelo://app?vid=e5e94367-a52e-4db2-9b83-8db365660e30"},"vehicle_type_id":"4","last_reported":1747901649,"current_range_meters":17600,"station_id":"ce4bhm92rcd13ifvqglg","pricing_plan_id":"cebpf4jnsgd1na2vs0mg"},{"bike_id":"6dde22b3-be2c-4353-838d-05c85608e4d3","system_id":"levelo_inurba_marseille","lat":43.32358,"lon":5.36748,"is_reserved":false,"is_disabled":false,"rental_uris":{"android":"levelo://app?vid=6dde22b3-be2c-4353-838d-05c85608e4d3","ios":"levelo://app?vid=6dde22b3-be2c-4353-838d-05c85608e4d3"},"vehicle_type_id":"4","last_reported":1747901649,"current_range_meters":17600,"station_id":"ce4bhsh2rcd13ifvqi2g","pricing_plan_id":"cebpf4jnsgd1na2vs0mg"},{"bike_id":"c0a363d1-3bb5-4d7a-a4e8-50a1272c1a00","system_id":"levelo_inurba_marseille","lat":43.23198,"lon":5.35537,"is_reserved":false,"is_disabled":false,"rental_uris":{"android":"levelo://app?vid=c0a363d1-3bb5-4d7a-a4e8-50a1272c1a00","ios":"levelo://app?vid=c0a363d1-3bb5-4d7a-a4e8-50a1272c1a00"},"vehicle_type_id":"4","last_reported":1747901649,"current_range_meters":17600,"station_id":"ce4bhu92rcd13ifvqi70","pricing_plan_id":"cebpf4jnsgd1na2vs0mg"},{"bike_id":"37844bcf-e6b5-4f86-9cc0-88711b06431d","system_id":"levelo_inurba_marseille","lat":43.302894,"lon":5.372854,"is_reserved":false,"is_disabled":false,"rental_uris":{"android":"levelo://app?vid=37844bcf-e6b5-4f86-9cc0-88711b06431d","ios":"levelo://app?vid=37844bcf-e6b5-4f86-9cc0-88711b06431d"},"vehicle_type_id":"4","last_reported":1747901649,"current_range_meters":18000,"station_id":"","pricing_plan_id":"cebpf4jnsgd1na2vs0mg"},{"bike_id":"0e81d7d5-1d06-48e3-8278-e8b0ba786610","system_id":"levelo_inurba_marseille","lat":43.30573,"lon":5.36673,"is_reserved":false,"is_disabled":false,"rental_uris":{"android":"levelo://app?vid=0e81d7d5-1d06-48e3-8278-e8b0ba786610","ios":"levelo://app?vid=0e81d7d5-1d06-48e3-8278-e8b0ba786610"},"vehicle_type_id":"4","last_reported":1747901649,"current_range_meters":18000,"station_id":"","pricing_plan_id":"cebpf4jnsgd1na2vs0mg"},{"bike_id":"4c841fab-8479-4462-844e-3c8e3c8bc588","system_id":"levelo_inurba_marseille","lat":43.3043,"lon":5.38888,"is_reserved":false,"is_disabled":false,"rental_uris":{"android":"levelo://app?vid=4c841fab-8479-4462-844e-3c8e3c8bc588","ios":"levelo://app?vid=4c841fab-8479-4462-844e-3c8e3c8bc588"},"vehicle_type_id":"4","last_reported":1747901649,"current_range_meters":18000,"station_id":"ce4bgk12rcd13ifvqbi0","pricing_plan_id":"cebpf4jnsgd1na2vs0mg"},{"bike_id":"9b4af3c1-9b57-4c48-a4c0-6037a1b4a081","system_id":"levelo_inurba_marseille","lat":43.325,"lon":5.36558,"is_reserved":false,"is_disabled":false,"rental_uris":{"android":"levelo://app?vid=9b4af3c1-9b57-4c48-a4c0-6037a1b4a081","ios":"levelo://app?vid=9b4af3c1-9b57-4c48-a4c0-6037a1b4a081"},"vehicle_type_id":"4","last_reported":1747901649,"current_range_meters":18000,"station_id":"ce4bhs12rcd13ifvqhvg","pricing_plan_id":"cebpf4jnsgd1na2vs0mg"},{"bike_id":"1a340bac-8012-4c7c-b50a-247d19f083a9","system_id":"levelo_inurba_marseille","lat":43.22505,"lon":5.34772,"is_reserved":false,"is_disabled":false,"rental_uris":{"android":"levelo://app?vid=1a340bac-8012-4c7c-b50a-247d19f083a9","ios":"levelo://app?vid=1a340bac-8012-4c7c-b50a-247d19f083a9"},"vehicle_type_id":"4","last_reported":1747901649,"current_range_meters":18000,"station_id":"st_cvj5dfep6f1abm77gieg","pricing_plan_id":"cebpf4jnsgd1na2vs0mg"},{"bike_id":"beb93ece-8a2b-401d-b7e3-ad77b01ce941","system_id":"levelo_inurba_marseille","lat":43.21752,"lon":5.34601,"is_reserved":false,"is_disabled":false,"rental_uris":{"android":"levelo://app?vid=beb93ece-8a2b-401d-b7e3-ad77b01ce941","ios":"levelo://app?vid=beb93ece-8a2b-401d-b7e3-ad77b01ce941"},"vehicle_type_id":"4","last_reported":1747901649,"current_range_meters":18000,"station_id":"st_cvj6r9ubvosntc0bgbag","pricing_plan_id":"cebpf4jnsgd1na2vs0mg"},{"bike_id":"2ddb24cb-f872-44d4-bcc1-9e19c13c22a1","system_id":"levelo_inurba_marseille","lat":43.30902,"lon":5.36859,"is_reserved":false,"is_disabled":false,"rental_uris":{"android":"levelo://app?vid=2ddb24cb-f872-44d4-bcc1-9e19c13c22a1","ios":"levelo://app?vid=2ddb24cb-f872-44d4-bcc1-9e19c13c22a1"},"vehicle_type_id":"4","last_reported":1747901649,"current_range_meters":18800,"station_id":"ce4bgn92rcd13ifvqbvg","pricing_plan_id":"cebpf4jnsgd1na2vs0mg"},{"bike_id":"4a9502eb-d846-41f5-bd79-1aca7b4e34d5","system_id":"levelo_inurba_marseille","lat":43.31484,"lon":5.37305,"is_reserved":false,"is_disabled":false,"rental_uris":{"android":"levelo://app?vid=4a9502eb-d846-41f5-bd79-1aca7b4e34d5","ios":"levelo://app?vid=4a9502eb-d846-41f5-bd79-1aca7b4e34d5"},"vehicle_type_id":"4","last_reported":1747901649,"current_range_meters":18800,"station_id":"ce4bgt12rcd13ifvqcd0","pricing_plan_id":"cebpf4jnsgd1na2vs0mg"},{"bike_id":"deb6a5ed-943f-4e95-b8f5-b5ecbd33a89b","system_id":"levelo_inurba_marseille","lat":43.26955,"lon":5.38618,"is_reserved":false,"is_disabled":false,"rental_uris":{"android":"levelo://app?vid=deb6a5ed-943f-4e95-b8f5-b5ecbd33a89b","ios":"levelo://app?vid=deb6a5ed-943f-4e95-b8f5-b5ecbd33a89b"},"vehicle_type_id":"4","last_reported":1747901649,"current_range_meters":18800,"station_id":"ce4bhh92rcd13ifvqfh0","pricing_plan_id":"cebpf4jnsgd1na2vs0mg"},{"bike_id":"03c812a5-62e2-43ea-8462-7667c3c90999","system_id":"levelo_inurba_marseille","lat":43.26961,"lon":5.38627,"is_reserved":false,"is_disabled":false,"rental_uris":{"android":"levelo://app?vid=03c812a5-62e2-43ea-8462-7667c3c90999","ios":"levelo://app?vid=03c812a5-62e2-43ea-8462-7667c3c90999"},"vehicle_type_id":"4","last_reported":1747901649,"current_range_meters":18800,"station_id":"ce4bhh92rcd13ifvqfh0","pricing_plan_id":"cebpf4jnsgd1na2vs0mg"},{"bike_id":"d092c209-52d2-4944-b034-55a1c3b86174","system_id":"levelo_inurba_marseille","lat":43.24702,"lon":5.38134,"is_reserved":false,"is_disabled":false,"rental_uris":{"android":"levelo://app?vid=d092c209-52d2-4944-b034-55a1c3b86174","ios":"levelo://app?vid=d092c209-52d2-4944-b034-55a1c3b86174"},