{"last_updated":1740816677,"ttl":60,"version":"2.2","data":{"bikes":[{"bike_id":"15e11633-ffb8-42e9-95ff-828ddb6f7e4d","system_id":"levelo_inurba_marseille","lat":43.28466,"lon":5.39153,"is_reserved":false,"is_disabled":false,"rental_uris":{"android":"levelo://app?vid=15e11633-ffb8-42e9-95ff-828ddb6f7e4d","ios":"levelo://app?vid=15e11633-ffb8-42e9-95ff-828ddb6f7e4d"},"vehicle_type_id":"4","last_reported":1740816677,"current_range_meters":2800,"station_id":"","pricing_plan_id":"cebpf4jnsgd1na2vs0mg"},{"bike_id":"e3dc1858-1b7a-43fe-8de1-72642a354c17","system_id":"levelo_inurba_marseille","lat":43.2436,"lon":5.38441,"is_reserved":false,"is_disabled":false,"rental_uris":{"android":"levelo://app?vid=e3dc1858-1b7a-43fe-8de1-72642a354c17","ios":"levelo://app?vid=e3dc1858-1b7a-43fe-8de1-72642a354c17"},"vehicle_type_id":"4","last_reported":1740816677,"current_range_meters":2800,"station_id":"","pricing_plan_id":"cebpf4jnsgd1na2vs0mg"},{"bike_id":"0493e61c-88e3-4b10-8817-43304f39babf","system_id":"levelo_inurba_marseille","lat":43.29034,"lon":5.39982,"is_reserved":false,"is_disabled":false,"rental_uris":{"android":"levelo://app?vid=0493e61c-88e3-4b10-8817-43304f39babf","ios":"levelo://app?vid=0493e61c-88e3-4b10-8817-43304f39babf"},"vehicle_type_id":"4","last_reported":1740816677,"current_range_meters":2800,"station_id":"ce4bh392rcd13ifvqdm0","pricing_plan_id":"cebpf4jnsgd1na2vs0mg"},{"bike_id":"4e21c123-fed3-4db6-ad81-45cccdae0542","system_id":"levelo_inurba_marseille","lat":43.24163,"lon":5.36412,"is_reserved":false,"is_disabled":true,"rental_uris":{"android":"levelo://app?vid=4e21c123-fed3-4db6-ad81-45cccdae0542","ios":"levelo://app?vid=4e21c123-fed3-4db6-ad81-45cccdae0542"},"vehicle_type_id":"4","last_reported":1740816677,"current_range_meters":3200,"station_id":"cpo36qri1sfpv3e86is0","pricing_plan_id":"cebpf4jnsgd1na2vs0mg"},{"bike_id":"89a7517e-6658-46c5-a615-9e427ec79029","system_id":"levelo_inurba_marseille","lat":43.257213,"lon":5.418099,"is_reserved":false,"is_disabled":false,"rental_uris":{"android":"levelo://app?vid=89a7517e-6658-46c5-a615-9e427ec79029","ios":"levelo://app?vid=89a7517e-6658-46c5-a615-9e427ec79029"},"vehicle_type_id":"4","last_reported":1740816677,"current_range_meters":3200,"station_id":"","pricing_plan_id":"cebpf4jnsgd1na2vs0mg"},{"bike_id":"a9a19c6c-0bed-4d1f-a200-55a2f4d3052e","system_id":"levelo_inurba_marseille","lat":43.290046,"lon":5.426034,"is_reserved":false,"is_disabled":false,"rental_uris":{"android":"levelo://app?vid=a9a19c6c-0bed-4d1f-a200-55a2f4d3052e","ios":"levelo://app?vid=a9a19c6c-0bed-4d1f-a200-55a2f4d3052e"},"vehicle_type_id":"4","last_reported":1740816677,"current_range_meters":3200,"station_id":"","pricing_plan_id":"cebpf4jnsgd1na2vs0mg"},{"bike_id":"998d6610-5c9e-4fef-bc13-b5e8f80f0779","system_id":"levelo_inurba_marseille","lat":43.30152,"lon":5.38083,"is_reserved":false,"is_disabled":false,"rental_uris":{"android":"levelo://app?vid=998d6610-5c9e-4fef-bc13-b5e8f80f0779","ios":"levelo://app?vid=998d6610-5c9e-4fef-bc13-b5e8f80f0779"},"vehicle_type_id":"4","last_reported":1740816677,"current_range_meters":3600,"station_id":"ce4bgjp2rcd13ifvqbh0","pricing_plan_id":"cebpf4jnsgd1na2vs0mg"},{"bike_id":"1f4208fb-928d-4743-80df-73c1f8230d96","system_id":"levelo_inurba_marseille","lat":43.28685,"lon":5.38671,"is_reserved":false,"is_disabled":false,"rental_uris":{"android":"levelo://app?vid=1f4208fb-928d-4743-80df-73c1f8230d96","ios":"levelo://app?vid=1f4208fb-928d-4743-80df-73c1f8230d96"},"vehicle_type_id":"4","last_reported":1740816677,"current_range_meters":3600,"station_id":"ce4bh492rcd13ifvqdug","pricing_plan_id":"cebpf4jnsgd1na2vs0mg"},{"bike_id":"99f066ad-cc8b-4107-a73f-79785478aaf0","system_id":"levelo_inurba_marseille","lat":43.27084,"lon":5.42254,"is_reserved":false,"is_disabled":false,"rental_uris":{"android":"levelo://app?vid=99f066ad-cc8b-4107-a73f-79785478aaf0","ios":"levelo://app?vid=99f066ad-cc8b-4107-a73f-79785478aaf0"},"vehicle_type_id":"4","last_reported":1740816677,"current_range_meters":3600,"station_id":"ce4bhk92rcd13ifvqgb0","pricing_plan_id":"cebpf4jnsgd1na2vs0mg"},{"bike_id":"9b94e473-384b-487d-bf65-7e7fb4a4a34d","system_id":"levelo_inurba_marseille","lat":43.27963,"lon":5.38728,"is_reserved":false,"is_disabled":false,"rental_uris":{"android":"levelo://app?vid=9b94e473-384b-487d-bf65-7e7fb4a4a34d","ios":"levelo://app?vid=9b94e473-384b-487d-bf65-7e7fb4a4a34d"},"vehicle_type_id":"4","last_reported":1740816677,"current_range_meters":3600,"station_id":"ce4bhg12rcd13ifvqf80","pricing_plan_id":"cebpf4jnsgd1na2vs0mg"},{"bike_id":"126a6c48-c6b7-402b-a859-30646ce710a2","system_id":"levelo_inurba_marseille","lat":43.24992,"lon":5.38954,"is_reserved":false,"is_disabled":false,"rental_uris":{"android":"levelo://app?vid=126a6c48-c6b7-402b-a859-30646ce710a2","ios":"levelo://app?vid=126a6c48-c6b7-402b-a859-30646ce710a2"},"vehicle_type_id":"4","last_reported":1740816677,"current_range_meters":3600,"station_id":"ce4bhgp2rcd13ifvqfd0","pricing_plan_id":"cebpf4jnsgd1na2vs0mg"},{"bike_id":"4c3cbff4-8fcd-449f-9462-8524115108b2","system_id":"levelo_inurba_marseille","lat":43.26211,"lon":5.37929,"is_reserved":false,"is_disabled":true,"rental_uris":{"android":"levelo://app?vid=4c3cbff4-8fcd-449f-9462-8524115108b2","ios":"levelo://app?vid=4c3cbff4-8fcd-449f-9462-8524115108b2"},"vehicle_type_id":"4","last_reported":1740816677,"current_range_meters":3600,"station_id":"ce4bhjp2rcd13ifvqg90","pricing_plan_id":"cebpf4jnsgd1na2vs0mg"},{"bike_id":"2a398520-3240-4d1e-8947-c64008cd4a40","system_id":"levelo_inurba_marseille","lat":43.2397,"lon":5.36642,"is_reserved":false,"is_disabled":false,"rental_uris":{"android":"levelo://app?vid=2a398520-3240-4d1e-8947-c64008cd4a40","ios":"levelo://app?vid=2a398520-3240-4d1e-8947-c64008cd4a40"},"vehicle_type_id":"4","last_reported":1740816677,"current_range_meters":4000,"station_id":"ce4bhi12rcd13ifvqfp0","pricing_plan_id":"cebpf4jnsgd1na2vs0mg"},{"bike_id":"a862b8a7-c72a-4010-b828-4a28cb339708","system_id":"levelo_inurba_marseille","lat":43.30879,"lon":5.3963,"is_reserved":false,"is_disabled":false,"rental_uris":{"android":"levelo://app?vid=a862b8a7-c72a-4010-b828-4a28cb339708","ios":"levelo://app?vid=a862b8a7-c72a-4010-b828-4a28cb339708"},"vehicle_type_id":"4","last_reported":1740816677,"current_range_meters":4400,"station_id":"ce4bh012rcd13ifvqcv0","pricing_plan_id":"cebpf4jnsgd1na2vs0mg"},{"bike_id":"3ce0759e-2098-4910-8ea7-8f696b3f2aad","system_id":"levelo_inurba_marseille","lat":43.28845,"lon":5.35844,"is_reserved":false,"is_disabled":false,"rental_uris":{"android":"levelo://app?vid=3ce0759e-2098-4910-8ea7-8f696b3f2aad","ios":"levelo://app?vid=3ce0759e-2098-4910-8ea7-8f696b3f2aad"},"vehicle_type_id":"4","last_reported":1740816677,"current_range_meters":4400,"station_id":"ce4bhb12rcd13ifvqem0","pricing_plan_id":"cebpf4jnsgd1na2vs0mg"},{"bike_id":"f32ea091-8d65-493c-8fff-13bbf53faa68","system_id":"levelo_inurba_marseille","lat":43.31713,"lon":5.4371,"is_reserved":false,"is_disabled":false,"rental_uris":{"android":"levelo://app?vid=f32ea091-8d65-493c-8fff-13bbf53faa68","ios":"levelo://app?vid=f32ea091-8d65-493c-8fff-13bbf53faa68"},"vehicle_type_id":"4","last_reported":1740816677,"current_range_meters":4400,"station_id":"ce4bhp92rcd13ifvqhcg","pricing_plan_id":"cebpf4jnsgd1na2vs0mg"},{"bike_id":"43c32004-94fe-4598-87ba-734917dbcf43","system_id":"levelo_inurba_marseille","lat":43.292605,"lon":5.376294,"is_reserved":false,"is_disabled":false,"rental_uris":{"android":"levelo://app?vid=43c32004-94fe-4598-87ba-734917dbcf43","ios":"levelo://app?vid=43c32004-94fe-4598-87ba-734917dbcf43"},"vehicle_type_id":"4","last_reported":1740816677,"current_range_meters":4400,"station_id":"ce4bgi12rcd13ifvqb80","pricing_plan_id":"cebpf4jnsgd1na2vs0mg"},{"bike_id":"dcff507d-3819-435b-8033-cab0f880c6a6","system_id":"levelo_inurba_marseille","lat":43.26489,"lon":5.39559,"is_reserved":false,"is_disabled":false,"rental_uris":{"android":"levelo://app?vid=dcff507d-3819-435b-8033-cab0f880c6a6","ios":"levelo://app?vid=dcff507d-3819-435b-8033-cab0f880c6a6"},"vehicle_type_id":"4","last_reported":1740816677,"current_range_meters":4400,"station_id":"ce4bhi12rcd13ifvqfq0","pricing_plan_id":"cebpf4jnsgd1na2vs0mg"},{"bike_id":"b0961ef4-6501-49d7-8896-c02018ffbe07","system_id":"levelo_inurba_marseille","lat":43.27053,"lon":5.4027,"is_reserved":false,"is_disabled":false,"rental_uris":{"android":"levelo://app?vid=b0961ef4-6501-49d7-8896-c02018ffbe07","ios":"levelo://app?vid=b0961ef4-6501-49d7-8896-c02018ffbe07"},"vehicle_type_id":"4","last_reported":1740816677,"current_range_meters":4800,"station_id":"ce4bhk92rcd13ifvqgc0","pricing_plan_id":"cebpf4jnsgd1na2vs0mg"},{"bike_id":"f9bb54c4-934b-4938-9a6d-c97575b45eeb","system_id":"levelo_inurba_marseille","lat":43.30879,"lon":5.39638,"is_reserved":false,"is_disabled":false,"rental_uris":{"android":"levelo://app?vid=f9bb54c4-934b-4938-9a6d-c97575b45eeb","ios":"levelo://app?vid=f9bb54c4-934b-4938-9a6d-c97575b45eeb"},"vehicle_type_id":"4","last_reported":1740816677,"current_range_meters":4800,"station_id":"ce4bh012rcd13ifvqcv0","pricing_plan_id":"cebpf4jnsgd1na2vs0mg"},{"bike_id":"9ffbe43c-ee88-45fe-9103-84b71e3d2b6c","system_id":"levelo_inurba_marseille","lat":43.24991,"lon":5.38972,"is_reserved":false,"is_disabled":false,"rental_uris":{"android":"levelo://app?vid=9ffbe43c-ee88-45fe-9103-84b71e3d2b6c","ios":"levelo://app?vid=9ffbe43c-ee88-45fe-9103-84b71e3d2b6c"},"vehicle_type_id":"4","last_reported":1740816677,"current_range_meters":4800,"station_id":"ce4bhgp2rcd13ifvqfd0","pricing_plan_id":"cebpf4jnsgd1na2vs0mg"},{"bike_id":"f8b25d90-893f-43e7-b6af-489918142ddb","system_id":"levelo_inurba_marseille","lat":43.29609,"lon":5.38093,"is_reserved":false,"is_disabled":false,"rental_uris":{"android":"levelo://app?vid=f8b25d90-893f-43e7-b6af-489918142ddb","ios":"levelo://app?vid=f8b25d90-893f-43e7-b6af-489918142ddb"},"vehicle_type_id":"4","last_reported":1740816677,"current_range_meters":4800,"station_id":"ce4bgl12rcd13ifvqbo0","pricing_plan_id":"cebpf4jnsgd1na2vs0mg"},{"bike_id":"17ddbbb5-11e9-4dea-8d48-8df35a23e77a","system_id":"levelo_inurba_marseille","lat":43.317581,"lon":5.390134,"is_reserved":false,"is_disabled":false,"rental_uris":{"android":"levelo://app?vid=17ddbbb5-11e9-4dea-8d48-8df35a23e77a","ios":"levelo://app?vid=17ddbbb5-11e9-4dea-8d48-8df35a23e77a"},"vehicle_type_id":"4","last_reported":1740816677,"current_range_meters":4800,"station_id":"ce4bhqp2rcd13ifvqhng","pricing_plan_id":"cebpf4jnsgd1na2vs0mg"},{"bike_id":"399e0757-7703-4c42-b09b-102d9225da71","system_id":"levelo_inurba_marseille","lat":43.281056,"lon":5.378317,"is_reserved":false,"is_disabled":false,"rental_uris":{"android":"levelo://app?vid=399e0757-7703-4c42-b09b-102d9225da71","ios":"levelo://app?vid=399e0757-7703-4c42-b09b-102d9225da71"},"vehicle_type_id":"4","last_reported":1740816677,"current_range_meters":4400,"station_id":"ce4bgip2rcd13ifvqbb0","pricing_plan_id":"cebpf4jnsgd1na2vs0mg"},{"bike_id":"0f249e1b-083b-4101-9737-979a46268405","system_id":"levelo_inurba_marseille","lat":43.30154,"lon":5.38085,"is_reserved":false,"is_disabled":false,"rental_uris":{"android":"levelo://app?vid=0f249e1b-083b-4101-9737-979a46268405","ios":"levelo://app?vid=0f249e1b-083b-4101-9737-979a46268405"},"vehicle_type_id":"4","last_reported":1740816677,"current_range_meters":5600,"station_id":"ce4bgjp2rcd13ifvqbh0","pricing_plan_id":"cebpf4jnsgd1na2vs0mg"},{"bike_id":"fe1154c3-b6d2-4f1c-ac1d-93c98fc370f9","system_id":"levelo_inurba_marseille","lat":43.260975,"lon":5.393995,"is_reserved":false,"is_disabled":false,"rental_uris":{"android":"levelo://app?vid=fe1154c3-b6d2-4f1c-ac1d-93c98fc370f9","ios":"levelo://app?vid=fe1154c3-b6d2-4f1c-ac1d-93c98fc370f9"},"vehicle_type_id":"4","last_reported":1740816677,"current_range_meters":5600,"station_id":"ce4bhh92rcd13ifvqfj0","pricing_plan_id":"cebpf4jnsgd1na2vs0mg"},{"bike_id":"bbf1c499-6f0f-476f-917e-153d5525548b","system_id":"levelo_inurba_marseille","lat":43.28858,"lon":5.35833,"is_reserved":false,"is_disabled":false,"rental_uris":{"android":"levelo://app?vid=bbf1c499-6f0f-476f-917e-153d5525548b","ios":"levelo://app?vid=bbf1c499-6f0f-476f-917e-153d5525548b"},"vehicle_type_id":"4","last_reported":1740816677,"current_range_meters":5600,"station_id":"ce4bhb12rcd13ifvqem0","pricing_plan_id":"cebpf4jnsgd1na2vs0mg"},{"bike_id":"19586554-7c18-40a9-b8fb-ec6921d0923c","system_id":"levelo_inurba_marseille","lat":43.30314,"lon":5.40429,"is_reserved":false,"is_disabled":false,"rental_uris":{"android":"levelo://app?vid=19586554-7c18-40a9-b8fb-ec6921d0923c","ios":"levelo://app?vid=19586554-7c18-40a9-b8fb-ec6921d0923c"},"vehicle_type_id":"4","last_reported":1740816677,"current_range_meters":6000,"station_id":"ce4bh012rcd13ifvqd10","pricing_plan_id":"cebpf4jnsgd1na2vs0mg"},{"bike_id":"05ae5011-ede9-4de9-ada6-b3bdf493ab17","system_id":"levelo_inurba_marseille","lat":43.29717,"lon":5.37705,"is_reserved":false,"is_disabled":false,"rental_uris":{"android":"levelo://app?vid=05ae5011-ede9-4de9-ada6-b3bdf493ab17","ios":"levelo://app?vid=05ae5011-ede9-4de9-ada6-b3bdf493ab17"},"vehicle_type_id":"4","last_reported":1740816677,"current_range_meters":11200,"station_id":"ce4bgkh2rcd13ifvqbl0","pricing_plan_id":"cebpf4jnsgd1na2vs0mg"},{"bike_id":"a6f9897a-4620-48a9-84b8-2e8058aab062","system_id":"levelo_inurba_marseille","lat":43.29551,"lon":5.42278,"is_reserved":false,"is_disabled":false,"rental_uris":{"android":"levelo://app?vid=a6f9897a-4620-48a9-84b8-2e8058aab062","ios":"levelo://app?vid=a6f9897a-4620-48a9-84b8-2e8058aab062"},"vehicle_type_id":"4","last_reported":1740816677,"current_range_meters":6000,"station_id":"ce4bhph2rcd13ifvqhdg","pricing_plan_id":"cebpf4jnsgd1na2vs0mg"},{"bike_id":"710cdcfc-c5a8-42f2-8aec-331a2bd230ab","system_id":"levelo_inurba_marseille","lat":43.26551,"lon":5.37291,"is_reserved":false,"is_disabled":false,"rental_uris":{"android":"levelo://app?vid=710cdcfc-c5a8-42f2-8aec-331a2bd230ab","ios":"levelo://app?vid=710cdcfc-c5a8-42f2-8aec-331a2bd230ab"},"vehicle_type_id":"4","last_reported":1740816677,"current_range_meters":6000,"station_id":"ce4bhg12rcd13ifvqf70","pricing_plan_id":"cebpf4jnsgd1na2vs0mg"},{"bike_id":"121f184f-90a0-4e66-9d33-06a22d0922f3","system_id":"levelo_inurba_marseille","lat":43.24166,"lon":5.36399,"is_reserved":false,"is_disabled":false,"rental_uris":{"android":"levelo://app?vid=121f184f-90a0-4e66-9d33-06a22d0922f3","ios":"levelo://app?vid=121f184f-90a0-4e66-9d33-06a22d0922f3"},"vehicle_type_id":"4","last_reported":1740816677,"current_range_meters":6000,"station_id":"cpo36qri1sfpv3e86is0","pricing_plan_id":"cebpf4jnsgd1na2vs0mg"},{"bike_id":"5f6af30d-6f9d-422c-8fa1-e9658f8b1b82","system_id":"levelo_inurba_marseille","lat":43.24396,"lon":5.37064,"is_reserved":false,"is_disabled":false,"rental_uris":{"android":"levelo://app?vid=5f6af30d-6f9d-422c-8fa1-e9658f8b1b82","ios":"levelo://app?vid=5f6af30d-6f9d-422c-8fa1-e9658f8b1b82"},"vehicle_type_id":"4","last_reported":1740816677,"current_range_meters":6000,"station_id":"ce4bhhh2rcd13ifvqfk0","pricing_plan_id":"cebpf4jnsgd1na2vs0mg"},{"bike_id":"9753fb54-7bac-4c39-b532-b7089220649f","system_id":"levelo_inurba_marseille","lat":43.31082,"lon":5.42435,"is_reserved":false,"is_disabled":false,"rental_uris":{"android":"levelo://app?vid=9753fb54-7bac-4c39-b532-b7089220649f","ios":"levelo://app?vid=9753fb54-7bac-4c39-b532-b7089220649f"},"vehicle_type_id":"4","last_reported":1740816677,"current_range_meters":6000,"station_id":"ce4bhp92rcd13ifvqhag","pricing_plan_id":"cebpf4jnsgd1na2vs0mg"},{"bike_id":"f26c35c1-6d74-4839-8620-0ecaba4ac374","system_id":"levelo_inurba_marseille","lat":43.25012,"lon":5.38921,"is_reserved":false,"is_disabled":false,"rental_uris":{"android":"levelo://app?vid=f26c35c1-6d74-4839-8620-0ecaba4ac374","ios":"levelo://app?vid=f26c35c1-6d74-4839-8620-0ecaba4ac374"},"vehicle_type_id":"4","last_reported":1740816677,"current_range_meters":6000,"station_id":"ce4bhgp2rcd13ifvqfd0","pricing_plan_id":"cebpf4jnsgd1na2vs0mg"},{"bike_id":"67ce8cfb-6f6b-425f-bc83-c1ca88627e6b","system_id":"levelo_inurba_marseille","lat":43.29267,"lon":5.37614,"is_reserved":false,"is_disabled":false,"rental_uris":{"android":"levelo://app?vid=67ce8cfb-6f6b-425f-bc83-c1ca88627e6b","ios":"levelo://app?vid=67ce8cfb-6f6b-425f-bc83-c1ca88627e6b"},"vehicle_type_id":"4","last_reported":1740816677,"current_range_meters":6000,"station_id":"ce4bgi12rcd13ifvqb80","pricing_plan_id":"cebpf4jnsgd1na2vs0mg"},{"bike_id":"f3ccd960-2448-4c68-a82a-99dbf6a5c11a","system_id":"levelo_inurba_marseille","lat":43.302929,"lon":5.397052,"is_reserved":false,"is_disabled":false,"rental_uris":{"android":"levelo://app?vid=f3ccd960-2448-4c68-a82a-99dbf6a5c11a","ios":"levelo://app?vid=f3ccd960-2448-4c68-a82a-99dbf6a5c11a"},"vehicle_type_id":"4","last_reported":1740816677,"current_range_meters":6400,"station_id":"ce4bgvp2rcd13ifvqcu0","pricing_plan_id":"cebpf4jnsgd1na2vs0mg"},{"bike_id":"0e07936b-b5f4-4ce0-90ff-73c063994f1c","system_id":"levelo_inurba_marseille","lat":43.3049,"lon":5.37251,"is_reserved":false,"is_disabled":false,"rental_uris":{"android":"levelo://app?vid=0e07936b-b5f4-4ce0-90ff-73c063994f1c","ios":"levelo://app?vid=0e07936b-b5f4-4ce0-90ff-73c063994f1c"},"vehicle_type_id":"4","last_reported":1740816677,"current_range_meters":6000,"station_id":"","pricing_plan_id":"cebpf4jnsgd1na2vs0mg"},{"bike_id":"acdc8b02-f703-4dec-886d-cf203c0b1b29","system_id":"levelo_inurba_marseille","lat":43.28424,"lon":5.37523,"is_reserved":false,"is_disabled":false,"rental_uris":{"android":"levelo://app?vid=acdc8b02-f703-4dec-886d-cf203c0b1b29","ios":"levelo://app?vid=acdc8b02-f703-4dec-886d-cf203c0b1b29"},"vehicle_type_id":"4","last_reported":1740816677,"current_range_meters":6400,"station_id":"ce4bh412rcd13ifvqds0","pricing_plan_id":"cebpf4jnsgd1na2vs0mg"},{"bike_id":"ff0c16a2-18f2-4f54-a133-ed9bc481d444","system_id":"levelo_inurba_marseille","lat":43.25715,"lon":5.41033,"is_reserved":false,"is_disabled":false,"rental_uris":{"android":"levelo://app?vid=ff0c16a2-18f2-4f54-a133-ed9bc481d444","ios":"levelo://app?vid=ff0c16a2-18f2-4f54-a133-ed9bc481d444"},"vehicle_type_id":"4","last_reported":1740816677,"current_range_meters":6400,"station_id":"","pricing_plan_id":"cebpf4jnsgd1na2vs0mg"},{"bike_id":"56bed51d-e692-4c85-bdaa-ba5c0247548c","system_id":"levelo_inurba_marseille","lat":43.25555,"lon":5.38291,"is_reserved":false,"is_disabled":false,"rental_uris":{"android":"levelo://app?vid=56bed51d-e692-4c85-bdaa-ba5c0247548c","ios":"levelo://app?vid=56bed51d-e692-4c85-bdaa-ba5c0247548c"},"vehicle_type_id":"4","last_reported":1740816677,"current_range_meters":6400,"station_id":"ce4bhih2rcd13ifvqfs0","pricing_plan_id":"cebpf4jnsgd1na2vs0mg"},{"bike_id":"ad63f7de-e082-486a-986c-5f0cb3c10b35","system_id":"levelo_inurba_marseille","lat":43.23958,"lon":5.366259,"is_reserved":false,"is_disabled":false,"rental_uris":{"android":"levelo://app?vid=ad63f7de-e082-486a-986c-5f0cb3c10b35","ios":"levelo://app?vid=ad63f7de-e082-486a-986c-5f0cb3c10b35"},"vehicle_type_id":"4","last_reported":1740816677,"current_range_meters":6400,"station_id":"ce4bhi12rcd13ifvqfp0","pricing_plan_id":"cebpf4jnsgd1na2vs0mg"},{"bike_id":"7d6b2d46-7002-45ce-ba03-574510292fd0","system_id":"levelo_inurba_marseille","lat":43.26685,"lon":5.38308,"is_reserved":false,"is_disabled":false,"rental_uris":{"android":"levelo://app?vid=7d6b2d46-7002-45ce-ba03-574510292fd0","ios":"levelo://app?vid=7d6b2d46-7002-45ce-ba03-574510292fd0"},"vehicle_type_id":"4","last_reported":1740816677,"current_range_meters":6400,"station_id":"ce4bhg92rcd13ifvqf90","pricing_plan_id":"cebpf4jnsgd1na2vs0mg"},{"bike_id":"49e0a034-277f-4658-83cf-83e39377ef50","system_id":"levelo_inurba_marseille","lat":43.2949,"lon":5.37923,"is_reserved":false,"is_disabled":false,"rental_uris":{"android":"levelo://app?vid=49e0a034-277f-4658-83cf-83e39377ef50","ios":"levelo://app?vid=49e0a034-277f-4658-83cf-83e39377ef50"},"vehicle_type_id":"4","last_reported":1740816677,"current_range_meters":6400,"station_id":"","pricing_plan_id":"cebpf4jnsgd1na2vs0mg"},{"bike_id":"c8a651e6-531a-46ab-a6dc-31bbee135b70","system_id":"levelo_inurba_marseille","lat":43.25113,"lon":5.40328,"is_reserved":false,"is_disabled":false,"rental_uris":{"android":"levelo://app?vid=c8a651e6-531a-46ab-a6dc-31bbee135b70","ios":"levelo://app?vid=c8a651e6-531a-46ab-a6dc-31bbee135b70"},"vehicle_type_id":"4","last_reported":1740816677,"current_range_meters":6400,"station_id":"ce4bhlh2rcd13ifvqgig","pricing_plan_id":"cebpf4jnsgd1na2vs0mg"},{"bike_id":"a5fb912c-641b-4cc4-973e-9fc5734f03c3","system_id":"levelo_inurba_marseille","lat":43.29421,"lon":5.38618,"is_reserved":false,"is_disabled":false,"rental_uris":{"android":"levelo://app?vid=a5fb912c-641b-4cc4-973e-9fc5734f03c3","ios":"levelo://app?vid=a5fb912c-641b-4cc4-973e-9fc5734f03c3"},"vehicle_type_id":"4","last_reported":1740816677,"current_range_meters":6400,"station_id":"ce4bh2h2rcd13ifvqdh0","pricing_plan_id":"cebpf4jnsgd1na2vs0mg"},{"bike_id":"f5527591-8017-4310-bd2a-712d9017ed61","system_id":"levelo_inurba_marseille","lat":43.299605,"lon":5.413203,"is_reserved":false,"is_disabled":false,"rental_uris":{"android":"levelo://app?vid=f5527591-8017-4310-bd2a-712d9017ed61","ios":"levelo://app?vid=f5527591-8017-4310-bd2a-712d9017ed61"},"vehicle_type_id":"4","last_reported":1740816677,"current_range_meters":6400,"station_id":"ce4bhp12rcd13ifvqh9g","pricing_plan_id":"cebpf4jnsgd1na2vs0mg"},{"bike_id":"226a8882-f9a8-4396-9381-34f5723ed2b0","system_id":"levelo_inurba_marseille","lat":43.30466,"lon":5.37898,"is_reserved":false,"is_disabled":false,"rental_uris":{"android":"levelo://app?vid=226a8882-f9a8-4396-9381-34f5723ed2b0","ios":"levelo://app?vid=226a8882-f9a8-4396-9381-34f5723ed2b0"},"vehicle_type_id":"4","last_reported":1740816677,"current_range_meters":6000,"station_id":"ce4bgup2rcd13ifvqcn0","pricing_plan_id":"cebpf4jnsgd1na2vs0mg"},{"bike_id":"b4dbab5b-a553-4a07-b9c9-91f23ecef021","system_id":"levelo_inurba_marseille","lat":43.29579,"lon":5.37524,"is_reserved":false,"is_disabled":false,"rental_uris":{"android":"levelo://app?vid=b4dbab5b-a553-4a07-b9c9-91f23ecef021","ios":"levelo://app?vid=b4dbab5b-a553-4a07-b9c9-91f23ecef021"},"vehicle_type_id":"4","last_reported":1740816677,"current_range_meters":4000,"station_id":"ce4bgh92rcd13ifvqb50","pricing_plan_id":"cebpf4jnsgd1na2vs0mg"},{"bike_id":"6e1f9cb9-07de-4fa0-8bc2-5513211ced82","system_id":"levelo_inurba_marseille","lat":43.27209,"lon":5.39192,"is_reserved":false,"is_disabled":false,"rental_uris":{"android":"levelo://app?vid=6e1f9cb9-07de-4fa0-8bc2-5513211ced82","ios":"levelo://app?vid=6e1f9cb9-07de-4fa0-8bc2-5513211ced82"},"vehicle_type_id":"4","last_reported":1740816677,"current_range_meters":6400,"station_id":"ce4bhhp2rcd13ifvqfm0","pricing_plan_id":"cebpf4jnsgd1na2vs0mg"},{"bike_id":"d051aaac-2cdc-493d-b578-96e3f44e7c11","system_id":"levelo_inurba_marseille","lat":43.28344,"lon":5.38111,"is_reserved":false,"is_disabled":false,"rental_uris":{"android":"levelo://app?vid=d051aaac-2cdc-493d-b578-96e3f44e7c11","ios":"levelo://app?vid=d051aaac-2cdc-493d-b578-96e3f44e7c11"},"vehicle_type_id":"4","last_reported":1740816677,"current_range_meters":6400,"station_id":"ce4bh412rcd13ifvqdr0","pricing_plan_id":"cebpf4jnsgd1na2vs0mg"},{"bike_id":"bcb3dd3d-4bbe-4a55-8cc6-0ab0579bcdbe","system_id":"levelo_inurba_marseille","lat":43.317086,"lon":5.377606,"is_reserved":false,"is_disabled":false,"rental_uris":{"android":"levelo://app?vid=bcb3dd3d-4bbe-4a55-8cc6-0ab0579bcdbe","ios":"levelo://app?vid=bcb3dd3d-4bbe-4a55-8cc6-0ab0579bcdbe"},"vehicle_type_id":"4","last_reported":1740816677,"current_range_meters":6400,"station_id":"ce4bgth2rcd13ifvqch0","pricing_plan_id":"cebpf4jnsgd1na2vs0mg"},{"bike_id":"30e7b67a-f475-49e1-965c-d20bad0aa561","system_id":"levelo_inurba_marseille","lat":43.3113,"lon":5.37755,"is_reserved":false,"is_disabled":false,"rental_uris":{"android":"levelo://app?vid=30e7b67a-f475-49e1-965c-d20bad0aa561","ios":"levelo://app?vid=30e7b67a-f475-49e1-965c-d20bad0aa561"},"vehicle_type_id":"4","last_reported":1740816677,"current_range_meters":6800,"station_id":"ce4bgt92rcd13ifvqcg0","pricing_plan_id":"cebpf4jnsgd1na2vs0mg"},{"bike_id":"b863546c-ce0d-4edd-86e7-43296d23c10b","system_id":"levelo_inurba_marseille","lat":43.30441,"lon":5.37929,"is_reserved":false,"is_disabled":false,"rental_uris":{"android":"levelo://app?vid=b863546c-ce0d-4edd-86e7-43296d23c10b","ios":"levelo://app?vid=b863546c-ce0d-4edd-86e7-43296d23c10b"},"vehicle_type_id":"4","last_reported":1740816677,"current_range_meters":6800,"station_id":"ce4bgup2rcd13ifvqcn0","pricing_plan_id":"cebpf4jnsgd1na2vs0mg"},{"bike_id":"06b3e65f-9e46-4142-8463-ddadde000990","system_id":"levelo_inurba_marseille","lat":43.2679,"lon":5.39415,"is_reserved":false,"is_disabled":false,"rental_uris":{"android":"levelo://app?vid=06b3e65f-9e46-4142-8463-ddadde000990","ios":"levelo://app?vid=06b3e65f-9e46-4142-8463-ddadde000990"},"vehicle_type_id":"4","last_reported":1740816677,"current_range_meters":6800,"station_id":"ce4bhh12rcd13ifvqfg0","pricing_plan_id":"cebpf4jnsgd1na2vs0mg"},{"bike_id":"f60d8407-dd47-40ce-a8f8-77c2c975bbf2","system_id":"levelo_inurba_marseille","lat":43.29285,"lon":5.37465,"is_reserved":false,"is_disabled":false,"rental_uris":{"android":"levelo://app?vid=f60d8407-dd47-40ce-a8f8-77c2c975bbf2","ios":"levelo://app?vid=f60d8407-dd47-40ce-a8f8-77c2c975bbf2"},"vehicle_type_id":"4","last_reported":1740816677,"current_range_meters":6800,"station_id":"ce4bgi12rcd13ifvqb70","pricing_plan_id":"cebpf4jnsgd1na2vs0mg"},{"bike_id":"be99602a-a631-49ac-9994-bada14a93daf","system_id":"levelo_inurba_marseille","lat":43.24745,"lon":5.41198,"is_reserved":false,"is_disabled":false,"rental_uris":{"android":"levelo://app?vid=be99602a-a631-49ac-9994-bada14a93daf","ios":"levelo://app?vid=be99602a-a631-49ac-9994-bada14a93daf"},"vehicle_type_id":"4","last_reported":1740816677,"current_range_meters":6800,"station_id":"","pricing_plan_id":"cebpf4jnsgd1na2vs0mg"},{"bike_id":"ff6232bd-bedd-48c4-b562-1193456ded22","system_id":"levelo_inurba_marseille","lat":43.25098,"lon":5.39477,"is_reserved":false,"is_disabled":false,"rental_uris":{"android":"levelo://app?vid=ff6232bd-bedd-48c4-b562-1193456ded22","ios":"levelo://app?vid=ff6232bd-bedd-48c4-b562-1193456ded22"},"vehicle_type_id":"4","last_reported":1740816677,"current_range_meters":6800,"station_id":"ce4bhm12rcd13ifvqgkg","pricing_plan_id":"cebpf4jnsgd1na2vs0mg"},{"bike_id":"3de9aeda-1f9a-4bbc-8b90-e02a49e56ca9","system_id":"levelo_inurba_marseille","lat":43.23184,"lon":5.35567,"is_reserved":false,"is_disabled":false,"rental_uris":{"android":"levelo://app?vid=3de9aeda-1f9a-4bbc-8b90-e02a49e56ca9","ios":"levelo://app?vid=3de9aeda-1f9a-4bbc-8b90-e02a49e56ca9"},"vehicle_type_id":"4","last_reported":1740816677,"current_range_meters":6800,"station_id":"ce4bhu92rcd13ifvqi70","pricing_plan_id":"cebpf4jnsgd1na2vs0mg"},{"bike_id":"9eb62bd7-0fdc-491b-9eef-be0a9f73fbfb","system_id":"levelo_inurba_marseille","lat":43.24161,"lon":5.36414,"is_reserved":false,"is_disabled":false,"rental_uris":{"android":"levelo://app?vid=9eb62bd7-0fdc-491b-9eef-be0a9f73fbfb","ios":"levelo://app?vid=9eb62bd7-0fdc-491b-9eef-be0a9f73fbfb"},"vehicle_type_id":"4","last_reported":1740816677,"current_range_meters":7200,"station_id":"cpo36qri1sfpv3e86is0","pricing_plan_id":"cebpf4jnsgd1na2vs0mg"},{"bike_id":"b8aa61af-0144-4b73-bf44-1bf8a0a7d324","system_id":"levelo_inurba_marseille","lat":43.25578,"lon":5.38227,"is_reserved":false,"is_disabled":false,"rental_uris":{"android":"levelo://app?vid=b8aa61af-0144-4b73-bf44-1bf8a0a7d324","ios":"levelo://app?vid=b8aa61af-0144-4b73-bf44-1bf8a0a7d324"},"vehicle_type_id":"4","last_reported":1740816677,"current_range_meters":7200,"station_id":"ce4bhih2rcd13ifvqfs0","pricing_plan_id":"cebpf4jnsgd1na2vs0mg"},{"bike_id":"d4918d6a-5525-4be8-b0c4-7af64b54343d","system_id":"levelo_inurba_marseille","lat":43.24185,"lon":5.36401,"is_reserved":false,"is_disabled":false,"rental_uris":{"android":"levelo://app?vid=d4918d6a-5525-4be8-b0c4-7af64b54343d","ios":"levelo://app?vid=d4918d6a-5525-4be8-b0c4-7af64b54343d"},"vehicle_type_id":"4","last_reported":1740816677,"current_range_meters":7200,"station_id":"cpo36qri1sfpv3e86is0","pricing_plan_id":"cebpf4jnsgd1na2vs0mg"},{"bike_id":"3874d6de-75ee-4d7d-b315-9d4eade65643","system_id":"levelo_inurba_marseille","lat":43.30141,"lon":5.38787,"is_reserved":false,"is_disabled":false,"rental_uris":{"android":"levelo://app?vid=3874d6de-75ee-4d7d-b315-9d4eade65643","ios":"levelo://app?vid=3874d6de-75ee-4d7d-b315-9d4eade65643"},"vehicle_type_id":"4","last_reported":1740816677,"current_range_meters":7200,"station_id":"ce4bghh2rcd13ifvqb60","pricing_plan_id":"cebpf4jnsgd1na2vs0mg"},{"bike_id":"5327f625-0311-4e62-a895-ceadc4ce1f5f","system_id":"levelo_inurba_marseille","lat":43.2707,"lon":5.42291,"is_reserved":false,"is_disabled":false,"rental_uris":{"android":"levelo://app?vid=5327f625-0311-4e62-a895-ceadc4ce1f5f","ios":"levelo://app?vid=5327f625-0311-4e62-a895-ceadc4ce1f5f"},"vehicle_type_id":"4","last_reported":1740816677,"current_range_meters":7200,"station_id":"ce4bhk92rcd13ifvqgb0","pricing_plan_id":"cebpf4jnsgd1na2vs0mg"},{"bike_id":"25bd4e2e-2167-4e7e-abf4-6f51f36287cf","system_id":"levelo_inurba_marseille","lat":43.30921,"lon":5.4017,"is_reserved":false,"is_disabled":false,"rental_uris":{"android":"levelo://app?vid=25bd4e2e-2167-4e7e-abf4-6f51f36287cf","ios":"levelo://app?vid=25bd4e2e-2167-4e7e-abf4-6f51f36287cf"},"vehicle_type_id":"4","last_reported":1740816677,"current_range_meters":7200,"station_id":"ce4bgvp2rcd13ifvqct0","pricing_plan_id":"cebpf4jnsgd1na2vs0mg"},{"bike_id":"446d45a3-fd79-446d-8d83-629477ddabe7","system_id":"levelo_inurba_marseille","lat":43.30862,"lon":5.39657,"is_reserved":false,"is_disabled":false,"rental_uris":{"android":"levelo://app?vid=446d45a3-fd79-446d-8d83-629477ddabe7","ios":"levelo://app?vid=446d45a3-fd79-446d-8d83-629477ddabe7"},"vehicle_type_id":"4","last_reported":1740816677,"current_range_meters":7200,"station_id":"ce4bh012rcd13ifvqcv0","pricing_plan_id":"cebpf4jnsgd1na2vs0mg"},{"bike_id":"5f6aca36-5f18-4dfb-b7ef-619885b034a1","system_id":"levelo_inurba_marseille","lat":43.30589,"lon":5.39357,"is_reserved":false,"is_disabled":false,"rental_uris":{"android":"levelo://app?vid=5f6aca36-5f18-4dfb-b7ef-619885b034a1","ios":"levelo://app?vid=5f6aca36-5f18-4dfb-b7ef-619885b034a1"},"vehicle_type_id":"4","last_reported":1740816677,"current_range_meters":7200,"station_id":"ce4bh0p2rcd13ifvqd80","pricing_plan_id":"cebpf4jnsgd1na2vs0mg"},{"bike_id":"0eb726cf-dede-4df2-bdd0-a778a2d75252","system_id":"levelo_inurba_marseille","lat":43.32336,"lon":5.4065,"is_reserved":false,"is_disabled":false,"rental_uris":{"android":"levelo://app?vid=0eb726cf-dede-4df2-bdd0-a778a2d75252","ios":"levelo://app?vid=0eb726cf-dede-4df2-bdd0-a778a2d75252"},"vehicle_type_id":"4","last_reported":1740816677,"current_range_meters":7200,"station_id":"ce4bhq92rcd13ifvqhjg","pricing_plan_id":"cebpf4jnsgd1na2vs0mg"},{"bike_id":"d653e336-1cf9-47f2-9441-15e65abb981a","system_id":"levelo_inurba_marseille","lat":43.274101,"lon":5.414752,"is_reserved":false,"is_disabled":false,"rental_uris":{"android":"levelo://app?vid=d653e336-1cf9-47f2-9441-15e65abb981a","ios":"levelo://app?vid=d653e336-1cf9-47f2-9441-15e65abb981a"},"vehicle_type_id":"4","last_reported":1740816677,"current_range_meters":7200,"station_id":"","pricing_plan_id":"cebpf4jnsgd1na2vs0mg"},{"bike_id":"a1866f5d-c65f-4013-a887-862db84a5c62","system_id":"levelo_inurba_marseille","lat":43.26697,"lon":5.38252,"is_reserved":false,"is_disabled":false,"rental_uris":{"android":"levelo://app?vid=a1866f5d-c65f-4013-a887-862db84a5c62","ios":"levelo://app?vid=a1866f5d-c65f-4013-a887-862db84a5c62"},"vehicle_type_id":"4","last_reported":1740816677,"current_range_meters":8000,"station_id":"ce4bhg92rcd13ifvqf90","pricing_plan_id":"cebpf4jnsgd1na2vs0mg"},{"bike_id":"620ba232-2d97-4cfe-bdaf-3a50962fd2de","system_id":"levelo_inurba_marseille","lat":43.2782,"lon":5.40723,"is_reserved":false,"is_disabled":false,"rental_uris":{"android":"levelo://app?vid=620ba232-2d97-4cfe-bdaf-3a50962fd2de","ios":"levelo://app?vid=620ba232-2d97-4cfe-bdaf-3a50962fd2de"},"vehicle_type_id":"4","last_reported":1740816677,"current_range_meters":8000,"station_id":"ce4bhnh2rcd13ifvqgtg","pricing_plan_id":"cebpf4jnsgd1na2vs0mg"},{"bike_id":"c340135b-1332-41cc-a788-80cee236fdb2","system_id":"levelo_inurba_marseille","lat":43.28593,"lon":5.37086,"is_reserved":false,"is_disabled":false,"rental_uris":{"android":"levelo://app?vid=c340135b-1332-41cc-a788-80cee236fdb2","ios":"levelo://app?vid=c340135b-1332-41cc-a788-80cee236fdb2"},"vehicle_type_id":"4","last_reported":1740816677,"current_range_meters":8000,"station_id":"ce4bht12rcd13ifvqi60","pricing_plan_id":"cebpf4jnsgd1na2vs0mg"},{"bike_id":"b374d9dc-b81c-42d7-b33f-038a885e17e6","system_id":"levelo_inurba_marseille","lat":43.31975,"lon":5.38743,"is_reserved":false,"is_disabled":false,"rental_uris":{"android":"levelo://app?vid=b374d9dc-b81c-42d7-b33f-038a885e17e6","ios":"levelo://app?vid=b374d9dc-b81c-42d7-b33f-038a885e17e6"},"vehicle_type_id":"4","last_reported":1740816677,"current_range_meters":8400,"station_id":"","pricing_plan_id":"cebpf4jnsgd1na2vs0mg"},{"bike_id":"a6b0102f-9a56-451b-a956-615313556a81","system_id":"levelo_inurba_marseille","lat":43.29164,"lon":5.37165,"is_reserved":false,"is_disabled":false,"rental_uris":{"android":"levelo://app?vid=a6b0102f-9a56-451b-a956-615313556a81","ios":"levelo://app?vid=a6b0102f-9a56-451b-a956-615313556a81"},"vehicle_type_id":"4","last_reported":1740816677,"current_range_meters":8000,"station_id":"ce4bha92rcd13ifvqeh0","pricing_plan_id":"cebpf4jnsgd1na2vs0mg"},{"bike_id":"6d2e59c8-5bed-45cb-a705-3f8ad1da2114","system_id":"levelo_inurba_marseille","lat":43.28059,"lon":5.39659,"is_reserved":false,"is_disabled":false,"rental_uris":{"android":"levelo://app?vid=6d2e59c8-5bed-45cb-a705-3f8ad1da2114","ios":"levelo://app?vid=6d2e59c8-5bed-45cb-a705-3f8ad1da2114"},"vehicle_type_id":"4","last_reported":1740816677,"current_range_meters":8000,"station_id":"ce4bho12rcd13ifvqh2g","pricing_plan_id":"cebpf4jnsgd1na2vs0mg"},{"bike_id":"0e15b3af-18e3-47bf-b11e-f11b559cbb76","system_id":"levelo_inurba_marseille","lat":43.25307,"lon":5.39286,"is_reserved":false,"is_disabled":false,"rental_uris":{"android":"levelo://app?vid=0e15b3af-18e3-47bf-b11e-f11b559cbb76","ios":"levelo://app?vid=0e15b3af-18e3-47bf-b11e-f11b559cbb76"},"vehicle_type_id":"4","last_reported":1740816677,"current_range_meters":8000,"station_id":"","pricing_plan_id":"cebpf4jnsgd1na2vs0mg"},{"bike_id":"468cc411-5a10-46f4-8919-d9a120794357","system_id":"levelo_inurba_marseille","lat":43.28,"lon":5.40015,"is_reserved":false,"is_disabled":false,"rental_uris":{"android":"levelo://app?vid=468cc411-5a10-46f4-8919-d9a120794357","ios":"levelo://app?vid=468cc411-5a10-46f4-8919-d9a120794357"},"vehicle_type_id":"4","last_reported":1740816677,"current_range_meters":8000,"station_id":"ce4bho92rcd13ifvqh4g","pricing_plan_id":"cebpf4jnsgd1na2vs0mg"},{"bike_id":"58545227-9992-4785-b1de-f71fc2d15972","system_id":"levelo_inurba_marseille","lat":43.28472,"lon":5.39135,"is_reserved":false,"is_disabled":false,"rental_uris":{"android":"levelo://app?vid=58545227-9992-4785-b1de-f71fc2d15972","ios":"levelo://app?vid=58545227-9992-4785-b1de-f71fc2d15972"},"vehicle_type_id":"4","last_reported":1740816677,"current_range_meters":8000,"station_id":"","pricing_plan_id":"cebpf4jnsgd1na2vs0mg"},{"bike_id":"9458a132-a20d-4812-9334-707d5e3ec62b","system_id":"levelo_inurba_marseille","lat":43.2846,"lon":5.35895,"is_reserved":false,"is_disabled":false,"rental_uris":{"android":"levelo://app?vid=9458a132-a20d-4812-9334-707d5e3ec62b","ios":"levelo://app?vid=9458a132-a20d-4812-9334-707d5e3ec62b"},"vehicle_type_id":"4","last_reported":1740816677,"current_range_meters":8000,"station_id":"ce4bhah2rcd13ifvqei0","pricing_plan_id":"cebpf4jnsgd1na2vs0mg"},{"bike_id":"75d8355e-fbae-4823-84cb-c3272bfff602","system_id":"levelo_inurba_marseille","lat":43.27495,"lon":5.42451,"is_reserved":false,"is_disabled":false,"rental_uris":{"android":"levelo://app?vid=75d8355e-fbae-4823-84cb-c3272bfff602","ios":"levelo://app?vid=75d8355e-fbae-4823-84cb-c3272bfff602"},"vehicle_type_id":"4","last_reported":1740816677,"current_range_meters":4800,"station_id":"ce4bhn92rcd13ifvqgrg","pricing_plan_id":"cebpf4jnsgd1na2vs0mg"},{"bike_id":"8dbd79ab-8d7e-44ba-9f11-4afd7e562df1","system_id":"levelo_inurba_marseille","lat":43.25004,"lon":5.38929,"is_reserved":false,"is_disabled":false,"rental_uris":{"android":"levelo://app?vid=8dbd79ab-8d7e-44ba-9f11-4afd7e562df1","ios":"levelo://app?vid=8dbd79ab-8d7e-44ba-9f11-4afd7e562df1"},"vehicle_type_id":"4","last_reported":1740816677,"current_range_meters":8000,"station_id":"ce4bhgp2rcd13ifvqfd0","pricing_plan_id":"cebpf4jnsgd1na2vs0mg"},{"bike_id":"d450afcf-676c-402c-8f2f-edc15cb61862","system_id":"levelo_inurba_marseille","lat":43.248039,"lon":5.374576,"is_reserved":false,"is_disabled":false,"rental_uris":{"android":"levelo://app?vid=d450afcf-676c-402c-8f2f-edc15cb61862","ios":"levelo://app?vid=d450afcf-676c-402c-8f2f-edc15cb61862"},"vehicle_type_id":"4","last_reported":1740816677,"current_range_meters":8000,"station_id":"ce4bhgh2rcd13ifvqfb0","pricing_plan_id":"cebpf4jnsgd1na2vs0mg"},{"bike_id":"abb4df5e-f3b6-49f0-9956-aa5abcc3ede9","system_id":"levelo_inurba_marseille","lat":43.23187,"lon":5.3555,"is_reserved":false,"is_disabled":false,"rental_uris":{"android":"levelo://app?vid=abb4df5e-f3b6-49f0-9956-aa5abcc3ede9","ios":"levelo://app?vid=abb4df5e-f3b6-49f0-9956-aa5abcc3ede9"},"vehicle_type_id":"4","last_reported":1740816677,"current_range_meters":8400,"station_id":"ce4bhu92rcd13ifvqi70","pricing_plan_id":"cebpf4jnsgd1na2vs0mg"},{"bike_id":"44a9b49b-687c-42ec-b31a-1a2a7b71f3f8","system_id":"levelo_inurba_marseille","lat":43.23186,"lon":5.39977,"is_reserved":false,"is_disabled":false,"rental_uris":{"android":"levelo://app?vid=44a9b49b-687c-42ec-b31a-1a2a7b71f3f8","ios":"levelo://app?vid=44a9b49b-687c-42ec-b31a-1a2a7b71f3f8"},"vehicle_type_id":"4","last_reported":1740816677,"current_range_meters":8400,"station_id":"ce4bhn12rcd13ifvqgqg","pricing_plan_id":"cebpf4jnsgd1na2vs0mg"},{"bike_id":"73b59bd6-240d-4f85-92a3-b23b3e6d114c","system_id":"levelo_inurba_marseille","lat":43.31721,"lon":5.42413,"is_reserved":false,"is_disabled":false,"rental_uris":{"android":"levelo://app?vid=73b59bd6-240d-4f85-92a3-b23b3e6d114c","ios":"levelo://app?vid=73b59bd6-240d-4f85-92a3-b23b3e6d114c"},"vehicle_type_id":"4","last_reported":1740816677,"current_range_meters":8400,"station_id":"ce4bhp92rcd13ifvqhbg","pricing_plan_id":"cebpf4jnsgd1na2vs0mg"},{"bike_id":"749fee80-dfaa-43de-aa58-d21bbf5e0792","system_id":"levelo_inurba_marseille","lat":43.231879,"lon":5.399911,"is_reserved":false,"is_disabled":false,"rental_uris":{"android":"levelo://app?vid=749fee80-dfaa-43de-aa58-d21bbf5e0792","ios":"levelo://app?vid=749fee80-dfaa-43de-aa58-d21bbf5e0792"},"vehicle_type_id":"4","last_reported":1740816677,"current_range_meters":8400,"station_id":"ce4bhn12rcd13ifvqgqg","pricing_plan_id":"cebpf4jnsgd1na2vs0mg"},{"bike_id":"c8f101ad-3299-4103-b362-e3fae3ea96b1","system_id":"levelo_inurba_marseille","lat":43.280728,"lon":5.396474,"is_reserved":false,"is_disabled":false,"rental_uris":{"android":"levelo://app?vid=c8f101ad-3299-4103-b362-e3fae3ea96b1","ios":"levelo://app?vid=c8f101ad-3299-4103-b362-e3fae3ea96b1"},"vehicle_type_id":"4","last_reported":1740816677,"current_range_meters":8400,"station_id":"ce4bho12rcd13ifvqh2g","pricing_plan_id":"cebpf4jnsgd1na2vs0mg"},{"bike_id":"35a4782e-5d2e-4fb8-8175-5ce018572fa7","system_id":"levelo_inurba_marseille","lat":43.3002,"lon":5.37717,"is_reserved":false,"is_disabled":false,"rental_uris":{"android":"levelo://app?vid=35a4782e-5d2e-4fb8-8175-5ce018572fa7","ios":"levelo://app?vid=35a4782e-5d2e-4fb8-8175-5ce018572fa7"},"vehicle_type_id":"4","last_reported":1740816677,"current_range_meters":8400,"station_id":"","pricing_plan_id":"cebpf4jnsgd1na2vs0mg"},{"bike_id":"2b4615ec-d1e9-4cda-8266-4761376aec6e","system_id":"levelo_inurba_marseille","lat":43.31704,"lon":5.43712,"is_reserved":false,"is_disabled":false,"rental_uris":{"android":"levelo://app?vid=2b4615ec-d1e9-4cda-8266-4761376aec6e","ios":"levelo://app?vid=2b4615ec-d1e9-4cda-8266-4761376aec6e"},"vehicle_type_id":"4","last_reported":1740816677,"current_range_meters":8400,"station_id":"ce4bhp92rcd13ifvqhcg","pricing_plan_id":"cebpf4jnsgd1na2vs0mg"},{"bike_id":"d5481c01-2984-43f7-9ca9-876cf6aa8921","system_id":"levelo_inurba_marseille","lat":43.27989,"lon":5.4003,"is_reserved":false,"is_disabled":false,"rental_uris":{"android":"levelo://app?vid=d5481c01-2984-43f7-9ca9-876cf6aa8921","ios":"levelo://app?vid=d5481c01-2984-43f7-9ca9-876cf6aa8921"},"vehicle_type_id":"4","last_reported":1740816677,"current_range_meters":8400,"station_id":"ce4bho92rcd13ifvqh4g","pricing_plan_id":"cebpf4jnsgd1na2vs0mg"},{"bike_id":"e8e574a6-d13a-4906-9b60-657faa08b971","system_id":"levelo_inurba_marseille","lat":43.26795,"lon":5.40268,"is_reserved":false,"is_disabled":false,"rental_uris":{"android":"levelo://app?vid=e8e574a6-d13a-4906-9b60-657faa08b971","ios":"levelo://app?vid=e8e574a6-d13a-4906-9b60-657faa08b971"},"vehicle_type_id":"4","last_reported":1740816677,"current_range_meters":8400,"station_id":"ce501612rcd8frsf0b60","pricing_plan_id":"cebpf4jnsgd1na2vs0mg"},{"bike_id":"8b5d8a73-739a-4423-9065-e57917690a80","system_id":"levelo_inurba_marseille","lat":43.30153,"lon":5.39845,"is_reserved":false,"is_disabled":false,"rental_uris":{"android":"levelo://app?vid=8b5d8a73-739a-4423-9065-e57917690a80","ios":"levelo://app?vid=8b5d8a73-739a-4423-9065-e57917690a80"},"vehicle_type_id":"4","last_reported":1740816677,"current_range_meters":8400,"station_id":"ce4bh0h2rcd13ifvqd40","pricing_plan_id":"cebpf4jnsgd1na2vs0mg"},{"bike_id":"be047da3-12fb-470e-9d78-68641c40dc2c","system_id":"levelo_inurba_marseille","lat":43.28635,"lon":5.41029,"is_reserved":false,"is_disabled":false,"rental_uris":{"android":"levelo://app?vid=be047da3-12fb-470e-9d78-68641c40dc2c","ios":"levelo://app?vid=be047da3-12fb-470e-9d78-68641c40dc2c"},"vehicle_type_id":"4","last_reported":1740816677,"current_range_meters":8400,"station_id":"","pricing_plan_id":"cebpf4jnsgd1na2vs0mg"},{"bike_id":"a5841749-abe8-4b38-b48c-2deb88c2d094","system_id":"levelo_inurba_marseille","lat":43.31683,"lon":5.3778,"is_reserved":false,"is_disabled":false,"rental_uris":{"android":"levelo://app?vid=a5841749-abe8-4b38-b48c-2deb88c2d094","ios":"levelo://app?vid=a5841749-abe8-4b38-b48c-2deb88c2d094"},"vehicle_type_id":"4","last_reported":1740816677,"current_range_meters":8400,"station_id":"ce4bgth2rcd13ifvqch0","pricing_plan_id":"cebpf4jnsgd1na2vs0mg"},{"bike_id":"70823d4f-1737-4ad5-acc6-e8b1c03f44f8","system_id":"levelo_inurba_marseille","lat":43.29804,"lon":5.40422,"is_reserved":false,"is_disabled":false,"rental_uris":{"android":"levelo://app?vid=70823d4f-1737-4ad5-acc6-e8b1c03f44f8","ios":"levelo://app?vid=70823d4f-1737-4ad5-acc6-e8b1c03f44f8"},"vehicle_type_id":"4","last_reported":1740816677,"current_range_meters":8400,"station_id":"ce4bh112rcd13ifvqd90","pricing_plan_id":"cebpf4jnsgd1na2vs0mg"},{"bike_id":"9ab1e11a-72bc-4e65-b1ea-5612162e5eb6","system_id":"levelo_inurba_marseille","lat":43.27555,"lon":5.3843,"is_reserved":false,"is_disabled":false,"rental_uris":{"android":"levelo://app?vid=9ab1e11a-72bc-4e65-b1ea-5612162e5eb6","ios":"levelo://app?vid=9ab1e11a-72bc-4e65-b1ea-5612162e5eb6"},"vehicle_type_id":"4","last_reported":1740816677,"current_range_meters":8800,"station_id":"ce4bhh92rcd13ifvqfi0","pricing_plan_id":"cebpf4jnsgd1na2vs0mg"},{"bike_id":"bb113d46-ee53-44da-bdcc-afcf6081c369","system_id":"levelo_inurba_marseille","lat":43.27908,"lon":5.39592,"is_reserved":false,"is_disabled":false,"rental_uris":{"android":"levelo://app?vid=bb113d46-ee53-44da-bdcc-afcf6081c369","ios":"levelo://app?vid=bb113d46-ee53-44da-bdcc-afcf6081c369"},"vehicle_type_id":"4","last_reported":1740816677,"current_range_meters":8800,"station_id":"ce4bhf92rcd13ifvqf40","pricing_plan_id":"cebpf4jnsgd1na2vs0mg"},{"bike_id":"339fc872-d35e-45c4-8ec3-41f92e08a676","system_id":"levelo_inurba_marseille","lat":43.28418,"lon":5.37525,"is_reserved":false,"is_disabled":false,"rental_uris":{"android":"levelo://app?vid=339fc872-d35e-45c4-8ec3-41f92e08a676","ios":"levelo://app?vid=339fc872-d35e-45c4-8ec3-41f92e08a676"},"vehicle_type_id":"4","last_reported":1740816677,"current_range_meters":8800,"station_id":"ce4bh412rcd13ifvqds0","pricing_plan_id":"cebpf4jnsgd1na2vs0mg"},{"bike_id":"9133aa9f-1fe1-4d82-86fe-901632455e42","system_id":"levelo_inurba_marseille","lat":43.31259,"lon":5.40172,"is_reserved":false,"is_disabled":false,"rental_uris":{"android":"levelo://app?vid=9133aa9f-1fe1-4d82-86fe-901632455e42","ios":"levelo://app?vid=9133aa9f-1fe1-4d82-86fe-901632455e42"},"vehicle_type_id":"4","last_reported":1740816677,"current_range_meters":8800,"station_id":"ce4bh092rcd13ifvqd30","pricing_plan_id":"cebpf4jnsgd1na2vs0mg"},{"bike_id":"fd71114b-03a7-4a32-bca0-dcdcb4323926","system_id":"levelo_inurba_marseille","lat":43.31074,"lon":5.38367,"is_reserved":false,"is_disabled":false,"rental_uris":{"android":"levelo://app?vid=fd71114b-03a7-4a32-bca0-dcdcb4323926","ios":"levelo://app?vid=fd71114b-03a7-4a32-bca0-dcdcb4323926"},"vehicle_type_id":"4","last_reported":1740816677,"current_range_meters":8800,"station_id":"ce4bgv92rcd13ifvqcr0","pricing_plan_id":"cebpf4jnsgd1na2vs0mg"},{"bike_id":"56f52fa2-7c62-4643-83f7-4117c587a4c4","system_id":"levelo_inurba_marseille","lat":43.279196,"lon":5.395929,"is_reserved":false,"is_disabled":false,"rental_uris":{"android":"levelo://app?vid=56f52fa2-7c62-4643-83f7-4117c587a4c4","ios":"levelo://app?vid=56f52fa2-7c62-4643-83f7-4117c587a4c4"},"vehicle_type_id":"4","last_reported":1740816677,"current_range_meters":8800,"station_id":"ce4bhf92rcd13ifvqf40","pricing_plan_id":"cebpf4jnsgd1na2vs0mg"},{"bike_id":"22f4b01e-89e9-48fd-8796-40f17b996afa","system_id":"levelo_inurba_marseille","lat":43.28387,"lon":5.38617,"is_reserved":false,"is_disabled":false,"rental_uris":{"android":"levelo://app?vid=22f4b01e-89e9-48fd-8796-40f17b996afa","ios":"levelo://app?vid=22f4b01e-89e9-48fd-8796-40f17b996afa"},"vehicle_type_id":"4","last_reported":1740816677,"current_range_meters":8800,"station_id":"ce4bh492rcd13ifvqdvg","pricing_plan_id":"cebpf4jnsgd1na2vs0mg"},{"bike_id":"a5fd71ea-4807-4e2d-a716-448c8cd70326","system_id":"levelo_inurba_marseille","lat":43.26548,"lon":5.37301,"is_reserved":false,"is_disabled":false,"rental_uris":{"android":"levelo://app?vid=a5fd71ea-4807-4e2d-a716-448c8cd70326","ios":"levelo://app?vid=a5fd71ea-4807-4e2d-a716-448c8cd70326"},"vehicle_type_id":"4","last_reported":1740816677,"current_range_meters":8800,"station_id":"ce4bhg12rcd13ifvqf70","pricing_plan_id":"cebpf4jnsgd1na2vs0mg"},{"bike_id":"7182befa-9a6c-49d3-acb0-e8c44e21d25e","system_id":"levelo_inurba_marseille","lat":43.255785,"lon":5.382489,"is_reserved":false,"is_disabled":false,"rental_uris":{"android":"levelo://app?vid=7182befa-9a6c-49d3-acb0-e8c44e21d25e","ios":"levelo://app?vid=7182befa-9a6c-49d3-acb0-e8c44e21d25e"},"vehicle_type_id":"4","last_reported":1740816677,"current_range_meters":9200,"station_id":"ce4bhih2rcd13ifvqfs0","pricing_plan_id":"cebpf4jnsgd1na2vs0mg"},{"bike_id":"bd4d047f-c101-4bc6-bd96-59ee035f5a00","system_id":"levelo_inurba_marseille","lat":43.28762,"lon":5.38933,"is_reserved":false,"is_disabled":false,"rental_uris":{"android":"levelo://app?vid=bd4d047f-c101-4bc6-bd96-59ee035f5a00","ios":"levelo://app?vid=bd4d047f-c101-4bc6-bd96-59ee035f5a00"},"vehicle_type_id":"4","last_reported":1740816677,"current_range_meters":9200,"station_id":"","pricing_plan_id":"cebpf4jnsgd1na2vs0mg"},{"bike_id":"257c4849-dc72-4ebc-b295-ab798a49160b","system_id":"levelo_inurba_marseille","lat":43.2618,"lon":5.38131,"is_reserved":false,"is_disabled":false,"rental_uris":{"android":"levelo://app?vid=257c4849-dc72-4ebc-b295-ab798a49160b","ios":"levelo://app?vid=257c4849-dc72-4ebc-b295-ab798a49160b"},"vehicle_type_id":"4","last_reported":1740816677,"current_range_meters":9200,"station_id":"","pricing_plan_id":"cebpf4jnsgd1na2vs0mg"},{"bike_id":"1bd12fce-bf31-4057-8a98-1d871de5fb2e","system_id":"levelo_inurba_marseille","lat":43.30596,"lon":5.39331,"is_reserved":false,"is_disabled":false,"rental_uris":{"android":"levelo://app?vid=1bd12fce-bf31-4057-8a98-1d871de5fb2e","ios":"levelo://app?vid=1bd12fce-bf31-4057-8a98-1d871de5fb2e"},"vehicle_type_id":"4","last_reported":1740816677,"current_range_meters":9200,"station_id":"ce4bh0p2rcd13ifvqd80","pricing_plan_id":"cebpf4jnsgd1na2vs0mg"},{"bike_id":"3f5e4c77-943b-4a46-b257-614bf13afec4","system_id":"levelo_inurba_marseille","lat":43.241697,"lon":5.364011,"is_reserved":false,"is_disabled":false,"rental_uris":{"android":"levelo://app?vid=3f5e4c77-943b-4a46-b257-614bf13afec4","ios":"levelo://app?vid=3f5e4c77-943b-4a46-b257-614bf13afec4"},"vehicle_type_id":"4","last_reported":1740816677,"current_range_meters":9200,"station_id":"cpo36qri1sfpv3e86is0","pricing_plan_id":"cebpf4jnsgd1na2vs0mg"},{"bike_id":"b3aa44fa-d281-4cdc-901e-fe96b30fb89b","system_id":"levelo_inurba_marseille","lat":43.30154,"lon":5.38085,"is_reserved":false,"is_disabled":false,"rental_uris":{"android":"levelo://app?vid=b3aa44fa-d281-4cdc-901e-fe96b30fb89b","ios":"levelo://app?vid=b3aa44fa-d281-4cdc-901e-fe96b30fb89b"},"vehicle_type_id":"4","last_reported":1740816677,"current_range_meters":9200,"station_id":"ce4bgjp2rcd13ifvqbh0","pricing_plan_id":"cebpf4jnsgd1na2vs0mg"},{"bike_id":"c676db48-685f-457a-94dc-42d91965c973","system_id":"levelo_inurba_marseille","lat":43.301612,"lon":5.380868,"is_reserved":false,"is_disabled":false,"rental_uris":{"android":"levelo://app?vid=c676db48-685f-457a-94dc-42d91965c973","ios":"levelo://app?vid=c676db48-685f-457a-94dc-42d91965c973"},"vehicle_type_id":"4","last_reported":1740816677,"current_range_meters":9200,"station_id":"ce4bgjp2rcd13ifvqbh0","pricing_plan_id":"cebpf4jnsgd1na2vs0mg"},{"bike_id":"bcf10ec7-0dc7-4b31-90db-9fddabad3e7a","system_id":"levelo_inurba_marseille","lat":43.30514,"lon":5.3675,"is_reserved":false,"is_disabled":true,"rental_uris":{"android":"levelo://app?vid=bcf10ec7-0dc7-4b31-90db-9fddabad3e7a","ios":"levelo://app?vid=bcf10ec7-0dc7-4b31-90db-9fddabad3e7a"},"vehicle_type_id":"4","last_reported":1740816677,"current_range_meters":9200,"station_id":"ce4bgrp2rcd13ifvqc9g","pricing_plan_id":"cebpf4jnsgd1na2vs0mg"},{"bike_id":"74469fe3-b461-464b-9457-4ed48ae0337f","system_id":"levelo_inurba_marseille","lat":43.284,"lon":5.37537,"is_reserved":false,"is_disabled":false,"rental_uris":{"android":"levelo://app?vid=74469fe3-b461-464b-9457-4ed48ae0337f","ios":"levelo://app?vid=74469fe3-b461-464b-9457-4ed48ae0337f"},"vehicle_type_id":"4","last_reported":1740816677,"current_range_meters":9200,"station_id":"ce4bh412rcd13ifvqds0","pricing_plan_id":"cebpf4jnsgd1na2vs0mg"},{"bike_id":"2838e291-a54c-44d6-be8a-2d9b39e97553","system_id":"levelo_inurba_marseille","lat":43.26569,"lon":5.39006,"is_reserved":false,"is_disabled":false,"rental_uris":{"android":"levelo://app?vid=2838e291-a54c-44d6-be8a-2d9b39e97553","ios":"levelo://app?vid=2838e291-a54c-44d6-be8a-2d9b39e97553"},"vehicle_type_id":"4","last_reported":1740816677,"current_range_meters":9200,"station_id":"ce4bhe12rcd13ifvqf30","pricing_plan_id":"cebpf4jnsgd1na2vs0mg"},{"bike_id":"94d93eb2-b5f5-4f0b-ae0e-88e26f1e4d83","system_id":"levelo_inurba_marseille","lat":43.27404,"lon":5.39396,"is_reserved":false,"is_disabled":false,"rental_uris":{"android":"levelo://app?vid=94d93eb2-b5f5-4f0b-ae0e-88e26f1e4d83","ios":"levelo://app?vid=94d93eb2-b5f5-4f0b-ae0e-88e26f1e4d83"},"vehicle_type_id":"4","last_reported":1740816677,"current_range_meters":9600,"station_id":"ce4bhdp2rcd13ifvqf20","pricing_plan_id":"cebpf4jnsgd1na2vs0mg"},{"bike_id":"121435d4-63c2-4b22-b180-dd01286308d1","system_id":"levelo_inurba_marseille","lat":43.30862,"lon":5.39626,"is_reserved":false,"is_disabled":false,"rental_uris":{"android":"levelo://app?vid=121435d4-63c2-4b22-b180-dd01286308d1","ios":"levelo://app?vid=121435d4-63c2-4b22-b180-dd01286308d1"},"vehicle_type_id":"4","last_reported":1740816677,"current_range_meters":9600,"station_id":"","pricing_plan_id":"cebpf4jnsgd1na2vs0mg"},{"bike_id":"4987fcf8-7b90-4329-86bc-2c15e872fcde","system_id":"levelo_inurba_marseille","lat":43.27075,"lon":5.40266,"is_reserved":false,"is_disabled":false,"rental_uris":{"android":"levelo://app?vid=4987fcf8-7b90-4329-86bc-2c15e872fcde","ios":"levelo://app?vid=4987fcf8-7b90-4329-86bc-2c15e872fcde"},"vehicle_type_id":"4","last_reported":1740816677,"current_range_meters":9600,"station_id":"ce4bhk92rcd13ifvqgc0","pricing_plan_id":"cebpf4jnsgd1na2vs0mg"},{"bike_id":"ecca3b0e-547b-4862-af6d-61592d83807c","system_id":"levelo_inurba_marseille","lat":43.33608,"lon":5.40992,"is_reserved":false,"is_disabled":false,"rental_uris":{"android":"levelo://app?vid=ecca3b0e-547b-4862-af6d-61592d83807c","ios":"levelo://app?vid=ecca3b0e-547b-4862-af6d-61592d83807c"},"vehicle_type_id":"4","last_reported":1740816677,"current_range_meters":9600,"station_id":"ce4bhqh2rcd13ifvqhmg","pricing_plan_id":"cebpf4jnsgd1na2vs0mg"},{"bike_id":"b1b57f6a-4bd7-4b0e-869b-21504e29f5ea","system_id":"levelo_inurba_marseille","lat":43.23205,"lon":5.35527,"is_reserved":false,"is_disabled":false,"rental_uris":{"android":"levelo://app?vid=b1b57f6a-4bd7-4b0e-869b-21504e29f5ea","ios":"levelo://app?vid=b1b57f6a-4bd7-4b0e-869b-21504e29f5ea"},"vehicle_type_id":"4","last_reported":1740816677,"current_range_meters":9600,"station_id":"ce4bhu92rcd13ifvqi70","pricing_plan_id":"cebpf4jnsgd1na2vs0mg"},{"bike_id":"a25a4bca-1a72-419f-af06-cf47c412ca14","system_id":"levelo_inurba_marseille","lat":43.30787,"lon":5.43569,"is_reserved":false,"is_disabled":false,"rental_uris":{"android":"levelo://app?vid=a25a4bca-1a72-419f-af06-cf47c412ca14","ios":"levelo://app?vid=a25a4bca-1a72-419f-af06-cf47c412ca14"},"vehicle_type_id":"4","last_reported":1740816677,"current_range_meters":9600,"station_id":"ce4bhph2rcd13ifvqheg","pricing_plan_id":"cebpf4jnsgd1na2vs0mg"},{"bike_id":"ab245cfe-76c6-40c0-9fb9-a9eecf86e3f4","system_id":"levelo_inurba_marseille","lat":43.289299,"lon":5.363996,"is_reserved":false,"is_disabled":false,"rental_uris":{"android":"levelo://app?vid=ab245cfe-76c6-40c0-9fb9-a9eecf86e3f4","ios":"levelo://app?vid=ab245cfe-76c6-40c0-9fb9-a9eecf86e3f4"},"vehicle_type_id":"4","last_reported":1740816677,"current_range_meters":9600,"station_id":"ce4bhc92rcd13ifvqetg","pricing_plan_id":"cebpf4jnsgd1na2vs0mg"},{"bike_id":"c7d67377-930f-4ec5-a1da-4f9a3603e244","system_id":"levelo_inurba_marseille","lat":43.31076,"lon":5.38367,"is_reserved":false,"is_disabled":false,"rental_uris":{"android":"levelo://app?vid=c7d67377-930f-4ec5-a1da-4f9a3603e244","ios":"levelo://app?vid=c7d67377-930f-4ec5-a1da-4f9a3603e244"},"vehicle_type_id":"4","last_reported":1740816677,"current_range_meters":9600,"station_id":"ce4bgv92rcd13ifvqcr0","pricing_plan_id":"cebpf4jnsgd1na2vs0mg"},{"bike_id":"3763b731-b3ca-449f-b3ce-1c6707e93699","system_id":"levelo_inurba_marseille","lat":43.23966,"lon":5.36637,"is_reserved":false,"is_disabled":false,"rental_uris":{"android":"levelo://app?vid=3763b731-b3ca-449f-b3ce-1c6707e93699","ios":"levelo://app?vid=3763b731-b3ca-449f-b3ce-1c6707e93699"},"vehicle_type_id":"4","last_reported":1740816677,"current_range_meters":8400,"station_id":"ce4bhi12rcd13ifvqfp0","pricing_plan_id":"cebpf4jnsgd1na2vs0mg"},{"bike_id":"d1f960fc-a9ff-4a16-afec-36a3bcca7f90","system_id":"levelo_inurba_marseille","lat":43.27262,"lon":5.39145,"is_reserved":false,"is_disabled":false,"rental_uris":{"android":"levelo://app?vid=d1f960fc-a9ff-4a16-afec-36a3bcca7f90","ios":"levelo://app?vid=d1f960fc-a9ff-4a16-afec-36a3bcca7f90"},"vehicle_type_id":"4","last_reported":1740816677,"current_range_meters":10000,"station_id":"","pricing_plan_id":"cebpf4jnsgd1na2vs0mg"},{"bike_id":"da3e6042-465d-4378-9a06-2b5cff3c2c8d","system_id":"levelo_inurba_marseille","lat":43.30474,"lon":5.37906,"is_reserved":false,"is_disabled":false,"rental_uris":{"android":"levelo://app?vid=da3e6042-465d-4378-9a06-2b5cff3c2c8d","ios":"levelo://app?vid=da3e6042-465d-4378-9a06-2b5cff3c2c8d"},"vehicle_type_id":"4","last_reported":1740816677,"current_range_meters":10000,"station_id":"ce4bgup2rcd13ifvqcn0","pricing_plan_id":"cebpf4jnsgd1na2vs0mg"},{"bike_id":"38e4208e-f256-4294-9ec9-809b58394803","system_id":"levelo_inurba_marseille","lat":43.31341,"lon":5.39722,"is_reserved":false,"is_disabled":false,"rental_uris":{"android":"levelo://app?vid=38e4208e-f256-4294-9ec9-809b58394803","ios":"levelo://app?vid=38e4208e-f256-4294-9ec9-809b58394803"},"vehicle_type_id":"4","last_reported":1740816677,"current_range_meters":10000,"station_id":"ce4bgvp2rcd13ifvqcu0","pricing_plan_id":"cebpf4jnsgd1na2vs0mg"},{"bike_id":"38e4258e-1e57-458c-b389-42600d0bd3da","system_id":"levelo_inurba_marseille","lat":43.3088,"lon":5.39633,"is_reserved":false,"is_disabled":false,"rental_uris":{"android":"levelo://app?vid=38e4258e-1e57-458c-b389-42600d0bd3da","ios":"levelo://app?vid=38e4258e-1e57-458c-b389-42600d0bd3da"},"vehicle_type_id":"4","last_reported":1740816677,"current_range_meters":10000,"station_id":"ce4bh012rcd13ifvqcv0","pricing_plan_id":"cebpf4jnsgd1na2vs0mg"},{"bike_id":"8f405042-bed3-494d-85ed-0b34b8de15fc","system_id":"levelo_inurba_marseille","lat":43.26939,"lon":5.38925,"is_reserved":false,"is_disabled":false,"rental_uris":{"android":"levelo://app?vid=8f405042-bed3-494d-85ed-0b34b8de15fc","ios":"levelo://app?vid=8f405042-bed3-494d-85ed-0b34b8de15fc"},"vehicle_type_id":"4","last_reported":1740816677,"current_range_meters":10000,"station_id":"ce4bhhh2rcd13ifvqfl0","pricing_plan_id":"cebpf4jnsgd1na2vs0mg"},{"bike_id":"10e0b7b4-1f78-4c31-bd18-a1e33aa836ce","system_id":"levelo_inurba_marseille","lat":43.33608,"lon":5.41032,"is_reserved":false,"is_disabled":false,"rental_uris":{"android":"levelo://app?vid=10e0b7b4-1f78-4c31-bd18-a1e33aa836ce","ios":"levelo://app?vid=10e0b7b4-1f78-4c31-bd18-a1e33aa836ce"},"vehicle_type_id":"4","last_reported":1740816677,"current_range_meters":10000,"station_id":"ce4bhqh2rcd13ifvqhmg","pricing_plan_id":"cebpf4jnsgd1na2vs0mg"},{"bike_id":"b1622d65-390e-4e97-87c5-1db91f68d5aa","system_id":"levelo_inurba_marseille","lat":43.30313,"lon":5.40442,"is_reserved":false,"is_disabled":false,"rental_uris":{"android":"levelo://app?vid=b1622d65-390e-4e97-87c5-1db91f68d5aa","ios":"levelo://app?vid=b1622d65-390e-4e97-87c5-1db91f68d5aa"},"vehicle_type_id":"4","last_reported":1740816677,"current_range_meters":10000,"station_id":"ce4bh012rcd13ifvqd10","pricing_plan_id":"cebpf4jnsgd1na2vs0mg"},{"bike_id":"364b209e-752e-45ea-b26c-06b2552c1833","system_id":"levelo_inurba_marseille","lat":43.23184,"lon":5.35568,"is_reserved":false,"is_disabled":false,"rental_uris":{"android":"levelo://app?vid=364b209e-752e-45ea-b26c-06b2552c1833","ios":"levelo://app?vid=364b209e-752e-45ea-b26c-06b2552c1833"},"vehicle_type_id":"4","last_reported":1740816677,"current_range_meters":10000,"station_id":"ce4bhu92rcd13ifvqi70","pricing_plan_id":"cebpf4jnsgd1na2vs0mg"},{"bike_id":"b08dbcf0-1e3c-421f-93f6-a17fac885ab4","system_id":"levelo_inurba_marseille","lat":43.27369,"lon":5.36262,"is_reserved":false,"is_disabled":false,"rental_uris":{"android":"levelo://app?vid=b08dbcf0-1e3c-421f-93f6-a17fac885ab4","ios":"levelo://app?vid=b08dbcf0-1e3c-421f-93f6-a17fac885ab4"},"vehicle_type_id":"4","last_reported":1740816677,"current_range_meters":10000,"station_id":"ce4bhbh2rcd13ifvqeo0","pricing_plan_id":"cebpf4jnsgd1na2vs0mg"},{"bike_id":"be10b658-6853-4344-941a-dc3e450af712","system_id":"levelo_inurba_marseille","lat":43.25087,"lon":5.39505,"is_reserved":false,"is_disabled":false,"rental_uris":{"android":"levelo://app?vid=be10b658-6853-4344-941a-dc3e450af712","ios":"levelo://app?vid=be10b658-6853-4344-941a-dc3e450af712"},"vehicle_type_id":"4","last_reported":1740816677,"current_range_meters":10000,"station_id":"ce4bhm12rcd13ifvqgkg","pricing_plan_id":"cebpf4jnsgd1na2vs0mg"},{"bike_id":"44344a94-31eb-4715-9cad-57e31236f5ee","system_id":"levelo_inurba_marseille","lat":43.30308,"lon":5.36918,"is_reserved":false,"is_disabled":false,"rental_uris":{"android":"levelo://app?vid=44344a94-31eb-4715-9cad-57e31236f5ee","ios":"levelo://app?vid=44344a94-31eb-4715-9cad-57e31236f5ee"},"vehicle_type_id":"4","last_reported":1740816677,"current_range_meters":10000,"station_id":"ce4bgqh2rcd13ifvqc5g","pricing_plan_id":"cebpf4jnsgd1na2vs0mg"},{"bike_id":"87b985b0-b21a-457b-876e-995bf2ff8f5e","system_id":"levelo_inurba_marseille","lat":43.32093,"lon":5.36807,"is_reserved":false,"is_disabled":false,"rental_uris":{"android":"levelo://app?vid=87b985b0-b21a-457b-876e-995bf2ff8f5e","ios":"levelo://app?vid=87b985b0-b21a-457b-876e-995bf2ff8f5e"},"vehicle_type_id":"4","last_reported":1740816677,"current_range_meters":10000,"station_id":"ce4bhrh2rcd13ifvqhug","pricing_plan_id":"cebpf4jnsgd1na2vs0mg"},{"bike_id":"49e9cdc7-76a5-4b66-ae2d-61c73beb73a8","system_id":"levelo_inurba_marseille","lat":43.24165,"lon":5.36414,"is_reserved":false,"is_disabled":false,"rental_uris":{"android":"levelo://app?vid=49e9cdc7-76a5-4b66-ae2d-61c73beb73a8","ios":"levelo://app?vid=49e9cdc7-76a5-4b66-ae2d-61c73beb73a8"},"vehicle_type_id":"4","last_reported":1740816677,"current_range_meters":10000,"station_id":"cpo36qri1sfpv3e86is0","pricing_plan_id":"cebpf4jnsgd1na2vs0mg"},{"bike_id":"05cc6ffa-20dc-486a-9bd5-c3143ae1663b","system_id":"levelo_inurba_marseille","lat":43.27925,"lon":5.39587,"is_reserved":false,"is_disabled":false,"rental_uris":{"android":"levelo://app?vid=05cc6ffa-20dc-486a-9bd5-c3143ae1663b","ios":"levelo://app?vid=05cc6ffa-20dc-486a-9bd5-c3143ae1663b"},"vehicle_type_id":"4","last_reported":1740816677,"current_range_meters":10000,"station_id":"ce4bhf92rcd13ifvqf40","pricing_plan_id":"cebpf4jnsgd1na2vs0mg"},{"bike_id":"593edb3c-7add-4a3d-9dbe-95cef549de0d","system_id":"levelo_inurba_marseille","lat":43.23074,"lon":5.35489,"is_reserved":false,"is_disabled":false,"rental_uris":{"android":"levelo://app?vid=593edb3c-7add-4a3d-9dbe-95cef549de0d","ios":"levelo://app?vid=593edb3c-7add-4a3d-9dbe-95cef549de0d"},"vehicle_type_id":"4","last_reported":1740816677,"current_range_meters":10000,"station_id":"cpo3342slgdg3j2ifvpg","pricing_plan_id":"cebpf4jnsgd1na2vs0mg"},{"bike_id":"64d98dfb-93e3-49bb-934d-e6575fc50da9","system_id":"levelo_inurba_marseille","lat":43.25588,"lon":5.38253,"is_reserved":false,"is_disabled":false,"rental_uris":{"android":"levelo://app?vid=64d98dfb-93e3-49bb-934d-e6575fc50da9","ios":"levelo://app?vid=64d98dfb-93e3-49bb-934d-e6575fc50da9"},"vehicle_type_id":"4","last_reported":1740816677,"current_range_meters":10800,"station_id":"ce4bhih2rcd13ifvqfs0","pricing_plan_id":"cebpf4jnsgd1na2vs0mg"},{"bike_id":"7d9d849c-c5d6-4bc9-adff-7d7a82f1ca03","system_id":"levelo_inurba_marseille","lat":43.30308,"lon":5.41959,"is_reserved":false,"is_disabled":false,"rental_uris":{"android":"levelo://app?vid=7d9d849c-c5d6-4bc9-adff-7d7a82f1ca03","ios":"levelo://app?vid=7d9d849c-c5d6-4bc9-adff-7d7a82f1ca03"},"vehicle_type_id":"4","last_reported":1740816677,"current_range_meters":10800,"station_id":"","pricing_plan_id":"cebpf4jnsgd1na2vs0mg"},{"bike_id":"152d5173-ed9c-4346-9b22-eb5f34e49026","system_id":"levelo_inurba_marseille","lat":43.28011,"lon":5.40015,"is_reserved":false,"is_disabled":false,"rental_uris":{"android":"levelo://app?vid=152d5173-ed9c-4346-9b22-eb5f34e49026","ios":"levelo://app?vid=152d5173-ed9c-4346-9b22-eb5f34e49026"},"vehicle_type_id":"4","last_reported":1740816677,"current_range_meters":10800,"station_id":"ce4bho92rcd13ifvqh4g","pricing_plan_id":"cebpf4jnsgd1na2vs0mg"},{"bike_id":"a0413a2e-da7a-4e75-97a5-df9e4003a7ae","system_id":"levelo_inurba_marseille","lat":43.30249,"lon":5.37757,"is_reserved":false,"is_disabled":false,"rental_uris":{"android":"levelo://app?vid=a0413a2e-da7a-4e75-97a5-df9e4003a7ae","ios":"levelo://app?vid=a0413a2e-da7a-4e75-97a5-df9e4003a7ae"},"vehicle_type_id":"4","last_reported":1740816677,"current_range_meters":10800,"station_id":"ce4bguh2rcd13ifvqcj0","pricing_plan_id":"cebpf4jnsgd1na2vs0mg"},{"bike_id":"60d4e3af-a938-45a6-a89b-d7fe9130f2cc","system_id":"levelo_inurba_marseille","lat":43.24175,"lon":5.39717,"is_reserved":false,"is_disabled":false,"rental_uris":{"android":"levelo://app?vid=60d4e3af-a938-45a6-a89b-d7fe9130f2cc","ios":"levelo://app?vid=60d4e3af-a938-45a6-a89b-d7fe9130f2cc"},"vehicle_type_id":"4","last_reported":1740816677,"current_range_meters":10800,"station_id":"ce4bhn12rcd13ifvqgpg","pricing_plan_id":"cebpf4jnsgd1na2vs0mg"},{"bike_id":"53b23b24-07e8-4870-8ab7-c63d39038125","system_id":"levelo_inurba_marseille","lat":43.29415,"lon":5.38626,"is_reserved":false,"is_disabled":false,"rental_uris":{"android":"levelo://app?vid=53b23b24-07e8-4870-8ab7-c63d39038125","ios":"levelo://app?vid=53b23b24-07e8-4870-8ab7-c63d39038125"},"vehicle_type_id":"4","last_reported":1740816677,"current_range_meters":10000,"station_id":"ce4bh2h2rcd13ifvqdh0","pricing_plan_id":"cebpf4jnsgd1na2vs0mg"},{"bike_id":"1e074596-6371-403b-bb6f-4fe434ac26ad","system_id":"levelo_inurba_marseille","lat":43.2844,"lon":5.39172,"is_reserved":false,"is_disabled":false,"rental_uris":{"android":"levelo://app?vid=1e074596-6371-403b-bb6f-4fe434ac26ad","ios":"levelo://app?vid=1e074596-6371-403b-bb6f-4fe434ac26ad"},"vehicle_type_id":"4","last_reported":1740816677,"current_range_meters":10800,"station_id":"ce4bhoh2rcd13ifvqh5g","pricing_plan_id":"cebpf4jnsgd1na2vs0mg"},{"bike_id":"3ab533f6-6447-40ff-8737-6728f6cd6613","system_id":"levelo_inurba_marseille","lat":43.27808,"lon":5.40716,"is_reserved":false,"is_disabled":false,"rental_uris":{"android":"levelo://app?vid=3ab533f6-6447-40ff-8737-6728f6cd6613","ios":"levelo://app?vid=3ab533f6-6447-40ff-8737-6728f6cd6613"},"vehicle_type_id":"4","last_reported":1740816677,"current_range_meters":10800,"station_id":"ce4bhnh2rcd13ifvqgtg","pricing_plan_id":"cebpf4jnsgd1na2vs0mg"},{"bike_id":"2d2e8462-4562-4ec6-b035-8b32da30845a","system_id":"levelo_inurba_marseille","lat":43.25584,"lon":5.38225,"is_reserved":false,"is_disabled":false,"rental_uris":{"android":"levelo://app?vid=2d2e8462-4562-4ec6-b035-8b32da30845a","ios":"levelo://app?vid=2d2e8462-4562-4ec6-b035-8b32da30845a"},"vehicle_type_id":"4","last_reported":1740816677,"current_range_meters":10000,"station_id":"ce4bhih2rcd13ifvqfs0","pricing_plan_id":"cebpf4jnsgd1na2vs0mg"},{"bike_id":"597c78d8-1097-48db-b3be-fafc8754eab9","system_id":"levelo_inurba_marseille","lat":43.24155,"lon":5.36435,"is_reserved":false,"is_disabled":false,"rental_uris":{"android":"levelo://app?vid=597c78d8-1097-48db-b3be-fafc8754eab9","ios":"levelo://app?vid=597c78d8-1097-48db-b3be-fafc8754eab9"},"vehicle_type_id":"4","last_reported":1740816677,"current_range_meters":10800,"station_id":"cpo36qri1sfpv3e86is0","pricing_plan_id":"cebpf4jnsgd1na2vs0mg"},{"bike_id":"ab83c181-a0ca-45fb-ab7c-ddbef920cbdb","system_id":"levelo_inurba_marseille","lat":43.24799,"lon":5.37485,"is_reserved":false,"is_disabled":false,"rental_uris":{"android":"levelo://app?vid=ab83c181-a0ca-45fb-ab7c-ddbef920cbdb","ios":"levelo://app?vid=ab83c181-a0ca-45fb-ab7c-ddbef920cbdb"},"vehicle_type_id":"4","last_reported":1740816677,"current_range_meters":11200,"station_id":"ce4bhgh2rcd13ifvqfb0","pricing_plan_id":"cebpf4jnsgd1na2vs0mg"},{"bike_id":"740e99a4-36d9-4050-a22d-1f0aeb1df1ee","system_id":"levelo_inurba_marseille","lat":43.24978,"lon":5.38939,"is_reserved":false,"is_disabled":false,"rental_uris":{"android":"levelo://app?vid=740e99a4-36d9-4050-a22d-1f0aeb1df1ee","ios":"levelo://app?vid=740e99a4-36d9-4050-a22d-1f0aeb1df1ee"},"vehicle_type_id":"4","last_reported":1740816677,"current_range_meters":11200,"station_id":"ce4bhgp2rcd13ifvqfd0","pricing_plan_id":"cebpf4jnsgd1na2vs0mg"},{"bike_id":"b777b4cf-3a59-4bd6-bbe8-877c47f15172","system_id":"levelo_inurba_marseille","lat":43.29251,"lon":5.36856,"is_reserved":false,"is_disabled":false,"rental_uris":{"android":"levelo://app?vid=b777b4cf-3a59-4bd6-bbe8-877c47f15172","ios":"levelo://app?vid=b777b4cf-3a59-4bd6-bbe8-877c47f15172"},"vehicle_type_id":"4","last_reported":1740816677,"current_range_meters":11200,"station_id":"ce4bhbp2rcd13ifvqesg","pricing_plan_id":"cebpf4jnsgd1na2vs0mg"},{"bike_id":"d6eec10b-620b-4607-843d-346ffd62a6e7","system_id":"levelo_inurba_marseille","lat":43.26491,"lon":5.39559,"is_reserved":false,"is_disabled":false,"rental_uris":{"android":"levelo://app?vid=d6eec10b-620b-4607-843d-346ffd62a6e7","ios":"levelo://app?vid=d6eec10b-620b-4607-843d-346ffd62a6e7"},"vehicle_type_id":"4","last_reported":1740816677,"current_range_meters":11200,"station_id":"ce4bhi12rcd13ifvqfq0","pricing_plan_id":"cebpf4jnsgd1na2vs0mg"},{"bike_id":"15e54f67-0f06-4baa-aafb-9f8063144e16","system_id":"levelo_inurba_marseille","lat":43.31274,"lon":5.4018,"is_reserved":false,"is_disabled":false,"rental_uris":{"android":"levelo://app?vid=15e54f67-0f06-4baa-aafb-9f8063144e16","ios":"levelo://app?vid=15e54f67-0f06-4baa-aafb-9f8063144e16"},"vehicle_type_id":"4","last_reported":1740816677,"current_range_meters":11600,"station_id":"ce4bh092rcd13ifvqd30","pricing_plan_id":"cebpf4jnsgd1na2vs0mg"},{"bike_id":"348becfb-74b0-4630-867b-ec25064a6f40","system_id":"levelo_inurba_marseille","lat":43.26951,"lon":5.38631,"is_reserved":false,"is_disabled":false,"rental_uris":{"android":"levelo://app?vid=348becfb-74b0-4630-867b-ec25064a6f40","ios":"levelo://app?vid=348becfb-74b0-4630-867b-ec25064a6f40"},"vehicle_type_id":"4","last_reported":1740816677,"current_range_meters":11600,"station_id":"ce4bhh92rcd13ifvqfh0","pricing_plan_id":"cebpf4jnsgd1na2vs0mg"},{"bike_id":"3ae43e61-e460-4942-a7d7-9a08b7b0118e","system_id":"levelo_inurba_marseille","lat":43.24814,"lon":5.37463,"is_reserved":false,"is_disabled":false,"rental_uris":{"android":"levelo://app?vid=3ae43e61-e460-4942-a7d7-9a08b7b0118e","ios":"levelo://app?vid=3ae43e61-e460-4942-a7d7-9a08b7b0118e"},"vehicle_type_id":"4","last_reported":1740816677,"current_range_meters":11600,"station_id":"ce4bhgh2rcd13ifvqfb0","pricing_plan_id":"cebpf4jnsgd1na2vs0mg"},{"bike_id":"27f8d61f-de01-4772-8b8c-ceceaf4de61e","system_id":"levelo_inurba_marseille","lat":43.29071,"lon":5.371535,"is_reserved":false,"is_disabled":false,"rental_uris":{"android":"levelo://app?vid=27f8d61f-de01-4772-8b8c-ceceaf4de61e","ios":"levelo://app?vid=27f8d61f-de01-4772-8b8c-ceceaf4de61e"},"vehicle_type_id":"4","last_reported":1740816677,"current_range_meters":11600,"station_id":"ce4bh5p2rcd13ifvqe4g","pricing_plan_id":"cebpf4jnsgd1na2vs0mg"},{"bike_id":"d8ce033e-f3a5-430d-b70d-26539a7235b3","system_id":"levelo_inurba_marseille","lat":43.31333,"lon":5.39705,"is_reserved":false,"is_disabled":false,"rental_uris":{"android":"levelo://app?vid=d8ce033e-f3a5-430d-b70d-26539a7235b3","ios":"levelo://app?vid=d8ce033e-f3a5-430d-b70d-26539a7235b3"},"vehicle_type_id":"4","last_reported":1740816677,"current_range_meters":11600,"station_id":"ce4bgvp2rcd13ifvqcu0","pricing_plan_id":"cebpf4jnsgd1na2vs0mg"},{"bike_id":"4cbf16cb-c446-4d43-8ac4-8d7111d30698","system_id":"levelo_inurba_marseille","lat":43.30167,"lon":5.38085,"is_reserved":false,"is_disabled":false,"rental_uris":{"android":"levelo://app?vid=4cbf16cb-c446-4d43-8ac4-8d7111d30698","ios":"levelo://app?vid=4cbf16cb-c446-4d43-8ac4-8d7111d30698"},"vehicle_type_id":"4","last_reported":1740816677,"current_range_meters":11600,"station_id":"ce4bgjp2rcd13ifvqbh0","pricing_plan_id":"cebpf4jnsgd1na2vs0mg"},{"bike_id":"0a26826d-5c5b-4e44-a5a3-d09b544d5fda","system_id":"levelo_inurba_marseille","lat":43.30944,"lon":5.39062,"is_reserved":false,"is_disabled":false,"rental_uris":{"android":"levelo://app?vid=0a26826d-5c5b-4e44-a5a3-d09b544d5fda","ios":"levelo://app?vid=0a26826d-5c5b-4e44-a5a3-d09b544d5fda"},"vehicle_type_id":"4","last_reported":1740816677,"current_range_meters":11600,"station_id":"ce4bgup2rcd13ifvqco0","pricing_plan_id":"cebpf4jnsgd1na2vs0mg"},{"bike_id":"4f187929-5814-40d3-a6dd-e54e10cf117a","system_id":"levelo_inurba_marseille","lat":43.30266,"lon":5.36928,"is_reserved":false,"is_disabled":false,"rental_uris":{"android":"levelo://app?vid=4f187929-5814-40d3-a6dd-e54e10cf117a","ios":"levelo://app?vid=4f187929-5814-40d3-a6dd-e54e10cf117a"},"vehicle_type_id":"4","last_reported":1740816677,"current_range_meters":12000,"station_id":"ce4bgqh2rcd13ifvqc5g","pricing_plan_id":"cebpf4jnsgd1na2vs0mg"},{"bike_id":"0395e071-5a2b-415c-b481-2f18c2ea3427","system_id":"levelo_inurba_marseille","lat":43.24808,"lon":5.37462,"is_reserved":false,"is_disabled":false,"rental_uris":{"android":"levelo://app?vid=0395e071-5a2b-415c-b481-2f18c2ea3427","ios":"levelo://app?vid=0395e071-5a2b-415c-b481-2f18c2ea3427"},"vehicle_type_id":"4","last_reported":1740816677,"current_range_meters":12000,"station_id":"ce4bhgh2rcd13ifvqfb0","pricing_plan_id":"cebpf4jnsgd1na2vs0mg"},{"bike_id":"496d4184-8fdd-4910-a952-3bdbdbd2ad61","system_id":"levelo_inurba_marseille","lat":43.29803,"lon":5.40417,"is_reserved":false,"is_disabled":false,"rental_uris":{"android":"levelo://app?vid=496d4184-8fdd-4910-a952-3bdbdbd2ad61","ios":"levelo://app?vid=496d4184-8fdd-4910-a952-3bdbdbd2ad61"},"vehicle_type_id":"4","last_reported":1740816677,"current_range_meters":12000,"station_id":"ce4bh112rcd13ifvqd90","pricing_plan_id":"cebpf4jnsgd1na2vs0mg"},{"bike_id":"d7738408-70f0-47ae-a996-072036ca394d","system_id":"levelo_inurba_marseille","lat":43.26799,"lon":5.40274,"is_reserved":false,"is_disabled":false,"rental_uris":{"android":"levelo://app?vid=d7738408-70f0-47ae-a996-072036ca394d","ios":"levelo://app?vid=d7738408-70f0-47ae-a996-072036ca394d"},"vehicle_type_id":"4","last_reported":1740816677,"current_range_meters":12000,"station_id":"ce501612rcd8frsf0b60","pricing_plan_id":"cebpf4jnsgd1na2vs0mg"},{"bike_id":"590c4ad1-ee4f-4da2-9b6e-1f520e8df8e9","system_id":"levelo_inurba_marseille","lat":43.30078,"lon":5.39086,"is_reserved":false,"is_disabled":false,"rental_uris":{"android":"levelo://app?vid=590c4ad1-ee4f-4da2-9b6e-1f520e8df8e9","ios":"levelo://app?vid=590c4ad1-ee4f-4da2-9b6e-1f520e8df8e9"},"vehicle_type_id":"4","last_reported":1740816677,"current_range_meters":12000,"station_id":"ce4bh192rcd13ifvqdb0","pricing_plan_id":"cebpf4jnsgd1na2vs0mg"},{"bike_id":"a9007d4a-23e4-48cf-a7d6-f2b3852b3348","system_id":"levelo_inurba_marseille","lat":43.30671,"lon":5.3925,"is_reserved":false,"is_disabled":false,"rental_uris":{"android":"levelo://app?vid=a9007d4a-23e4-48cf-a7d6-f2b3852b3348","ios":"levelo://app?vid=a9007d4a-23e4-48cf-a7d6-f2b3852b3348"},"vehicle_type_id":"4","last_reported":1740816677,"current_range_meters":12000,"station_id":"ce4bh0p2rcd13ifvqd80","pricing_plan_id":"cebpf4jnsgd1na2vs0mg"},{"bike_id":"31c0e24b-42d8-4837-af8d-97c389878bc1","system_id":"levelo_inurba_marseille","lat":43.304129,"lon":5.412936,"is_reserved":false,"is_disabled":false,"rental_uris":{"android":"levelo://app?vid=31c0e24b-42d8-4837-af8d-97c389878bc1","ios":"levelo://app?vid=31c0e24b-42d8-4837-af8d-97c389878bc1"},"vehicle_type_id":"4","last_reported":1740816677,"current_range_meters":12400,"station_id":"ce4bhop2rcd13ifvqh8g","pricing_plan_id":"cebpf4jnsgd1na2vs0mg"},{"bike_id":"9f7e403d-3241-4706-bd05-f661b265d93a","system_id":"levelo_inurba_marseille","lat":43.30877,"lon":5.39645,"is_reserved":false,"is_disabled":false,"rental_uris":{"android":"levelo://app?vid=9f7e403d-3241-4706-bd05-f661b265d93a","ios":"levelo://app?vid=9f7e403d-3241-4706-bd05-f661b265d93a"},"vehicle_type_id":"4","last_reported":1740816677,"current_range_meters":12400,"station_id":"ce4bh012rcd13ifvqcv0","pricing_plan_id":"cebpf4jnsgd1na2vs0mg"},{"bike_id":"4aded78a-389c-487e-83fc-3e748b5833ce","system_id":"levelo_inurba_marseille","lat":43.2957,"lon":5.3751,"is_reserved":false,"is_disabled":false,"rental_uris":{"android":"levelo://app?vid=4aded78a-389c-487e-83fc-3e748b5833ce","ios":"levelo://app?vid=4aded78a-389c-487e-83fc-3e748b5833ce"},"vehicle_type_id":"4","last_reported":1740816677,"current_range_meters":11600,"station_id":"ce4bgh92rcd13ifvqb50","pricing_plan_id":"cebpf4jnsgd1na2vs0mg"},{"bike_id":"5b394fee-d608-4077-a6e3-6c07fcba8af8","system_id":"levelo_inurba_marseille","lat":43.30308,"lon":5.40458,"is_reserved":false,"is_disabled":false,"rental_uris":{"android":"levelo://app?vid=5b394fee-d608-4077-a6e3-6c07fcba8af8","ios":"levelo://app?vid=5b394fee-d608-4077-a6e3-6c07fcba8af8"},"vehicle_type_id":"4","last_reported":1740816677,"current_range_meters":12400,"station_id":"ce4bh012rcd13ifvqd10","pricing_plan_id":"cebpf4jnsgd1na2vs0mg"},{"bike_id":"b0613a5e-2ddb-47a4-bf10-91291a46869d","system_id":"levelo_inurba_marseille","lat":43.29788,"lon":5.38101,"is_reserved":false,"is_disabled":false,"rental_uris":{"android":"levelo://app?vid=b0613a5e-2ddb-47a4-bf10-91291a46869d","ios":"levelo://app?vid=b0613a5e-2ddb-47a4-bf10-91291a46869d"},"vehicle_type_id":"4","last_reported":1740816677,"current_range_meters":12400,"station_id":"ce4bgip2rcd13ifvqbb0","pricing_plan_id":"cebpf4jnsgd1na2vs0mg"},{"bike_id":"00616f21-c786-4fb6-a89f-3c894151f4da","system_id":"levelo_inurba_marseille","lat":43.24371,"lon":5.37102,"is_reserved":false,"is_disabled":false,"rental_uris":{"android":"levelo://app?vid=00616f21-c786-4fb6-a89f-3c894151f4da","ios":"levelo://app?vid=00616f21-c786-4fb6-a89f-3c894151f4da"},"vehicle_type_id":"4","last_reported":1740816677,"current_range_meters":12400,"station_id":"ce4bhhh2rcd13ifvqfk0","pricing_plan_id":"cebpf4jnsgd1na2vs0mg"},{"bike_id":"5a9df47d-6551-4b87-9367-371612b52570","system_id":"levelo_inurba_marseille","lat":43.29278,"lon":5.36844,"is_reserved":false,"is_disabled":false,"rental_uris":{"android":"levelo://app?vid=5a9df47d-6551-4b87-9367-371612b52570","ios":"levelo://app?vid=5a9df47d-6551-4b87-9367-371612b52570"},"vehicle_type_id":"4","last_reported":1740816677,"current_range_meters":12800,"station_id":"ce4bhbp2rcd13ifvqesg","pricing_plan_id":"cebpf4jnsgd1na2vs0mg"},{"bike_id":"8b15d458-bd27-4348-a058-3cb98a21ebd4","system_id":"levelo_inurba_marseille","lat":43.30972,"lon":5.40147,"is_reserved":false,"is_disabled":false,"rental_uris":{"android":"levelo://app?vid=8b15d458-bd27-4348-a058-3cb98a21ebd4","ios":"levelo://app?vid=8b15d458-bd27-4348-a058-3cb98a21ebd4"},"vehicle_type_id":"4","last_reported":1740816677,"current_range_meters":12800,"station_id":"ce4bgvp2rcd13ifvqct0","pricing_plan_id":"cebpf4jnsgd1na2vs0mg"},{"bike_id":"95e1a552-2d39-463a-a5ac-285fb5139662","system_id":"levelo_inurba_marseille","lat":43.28705,"lon":5.37395,"is_reserved":false,"is_disabled":false,"rental_uris":{"android":"levelo://app?vid=95e1a552-2d39-463a-a5ac-285fb5139662","ios":"levelo://app?vid=95e1a552-2d39-463a-a5ac-285fb5139662"},"vehicle_type_id":"4","last_reported":1740816677,"current_range_meters":12800,"station_id":"ce4bh3p2rcd13ifvqdq0","pricing_plan_id":"cebpf4jnsgd1na2vs0mg"},{"bike_id":"af7a44f8-f368-4921-a829-6d1dee8d507f","system_id":"levelo_inurba_marseille","lat":43.30586,"lon":5.39355,"is_reserved":false,"is_disabled":false,"rental_uris":{"android":"levelo://app?vid=af7a44f8-f368-4921-a829-6d1dee8d507f","ios":"levelo://app?vid=af7a44f8-f368-4921-a829-6d1dee8d507f"},"vehicle_type_id":"4","last_reported":1740816677,"current_range_meters":12800,"station_id":"ce4bh0p2rcd13ifvqd80","pricing_plan_id":"cebpf4jnsgd1na2vs0mg"},{"bike_id":"43e1e04c-280b-4d54-bbb9-c3921d8e975b","system_id":"levelo_inurba_marseille","lat":43.29276,"lon":5.36856,"is_reserved":false,"is_disabled":false,"rental_uris":{"android":"levelo://app?vid=43e1e04c-280b-4d54-bbb9-c3921d8e975b","ios":"levelo://app?vid=43e1e04c-280b-4d54-bbb9-c3921d8e975b"},"vehicle_type_id":"4","last_reported":1740816677,"current_range_meters":12800,"station_id":"ce4bhbp2rcd13ifvqesg","pricing_plan_id":"cebpf4jnsgd1na2vs0mg"},{"bike_id":"161d70e9-e213-4bf5-bde1-9c3d7296d89c","system_id":"levelo_inurba_marseille","lat":43.27831,"lon":5.392,"is_reserved":false,"is_disabled":true,"rental_uris":{"android":"levelo://app?vid=161d70e9-e213-4bf5-bde1-9c3d7296d89c","ios":"levelo://app?vid=161d70e9-e213-4bf5-bde1-9c3d7296d89c"},"vehicle_type_id":"4","last_reported":1740816677,"current_range_meters":12800,"station_id":"ce4bhjp2rcd13ifvqga0","pricing_plan_id":"cebpf4jnsgd1na2vs0mg"},{"bike_id":"b4ae1c3a-94da-42f6-b079-961c8d8c2672","system_id":"levelo_inurba_marseille","lat":43.23195,"lon":5.39984,"is_reserved":false,"is_disabled":false,"rental_uris":{"android":"levelo://app?vid=b4ae1c3a-94da-42f6-b079-961c8d8c2672","ios":"levelo://app?vid=b4ae1c3a-94da-42f6-b079-961c8d8c2672"},"vehicle_type_id":"4","last_reported":1740816677,"current_range_meters":12800,"station_id":"ce4bhn12rcd13ifvqgqg","pricing_plan_id":"cebpf4jnsgd1na2vs0mg"},{"bike_id":"0693b9d6-4a9d-4e38-bfa2-80f934bcc2e3","system_id":"levelo_inurba_marseille","lat":43.24166,"lon":5.36414,"is_reserved":false,"is_disabled":false,"rental_uris":{"android":"levelo://app?vid=0693b9d6-4a9d-4e38-bfa2-80f934bcc2e3","ios":"levelo://app?vid=0693b9d6-4a9d-4e38-bfa2-80f934bcc2e3"},"vehicle_type_id":"4","last_reported":1740816677,"current_range_meters":13600,"station_id":"cpo36qri1sfpv3e86is0","pricing_plan_id":"cebpf4jnsgd1na2vs0mg"},{"bike_id":"4cff286e-b738-44b1-96ad-f22caeddbf4f","system_id":"levelo_inurba_marseille","lat":43.29383,"lon":5.37844,"is_reserved":false,"is_disabled":false,"rental_uris":{"android":"levelo://app?vid=4cff286e-b738-44b1-96ad-f22caeddbf4f","ios":"levelo://app?vid=4cff286e-b738-44b1-96ad-f22caeddbf4f"},"vehicle_type_id":"4","last_reported":1740816677,"current_range_meters":12000,"station_id":"ce4bgjh2rcd13ifvqbf0","pricing_plan_id":"cebpf4jnsgd1na2vs0mg"},{"bike_id":"4d923a52-f4b6-4aaa-b870-4709cca2e9ff","system_id":"levelo_inurba_marseille","lat":43.281289,"lon":5.403409,"is_reserved":false,"is_disabled":false,"rental_uris":{"android":"levelo://app?vid=4d923a52-f4b6-4aaa-b870-4709cca2e9ff","ios":"levelo://app?vid=4d923a52-f4b6-4aaa-b870-4709cca2e9ff"},"vehicle_type_id":"4","last_reported":1740816677,"current_range_meters":12400,"station_id":"ce4bhl12rcd13ifvqgf0","pricing_plan_id":"cebpf4jnsgd1na2vs0mg"},{"bike_id":"50e400b5-5d9f-464b-9cce-8768000aa4c2","system_id":"levelo_inurba_marseille","lat":43.284396,"lon":5.391873,"is_reserved":false,"is_disabled":false,"rental_uris":{"android":"levelo://app?vid=50e400b5-5d9f-464b-9cce-8768000aa4c2","ios":"levelo://app?vid=50e400b5-5d9f-464b-9cce-8768000aa4c2"},"vehicle_type_id":"4","last_reported":1740816677,"current_range_meters":13600,"station_id":"","pricing_plan_id":"cebpf4jnsgd1na2vs0mg"},{"bike_id":"4015c440-7267-44b4-8be2-f4b87cb51aa9","system_id":"levelo_inurba_marseille","lat":43.25573,"lon":5.38252,"is_reserved":false,"is_disabled":false,"rental_uris":{"android":"levelo://app?vid=4015c440-7267-44b4-8be2-f4b87cb51aa9","ios":"levelo://app?vid=4015c440-7267-44b4-8be2-f4b87cb51aa9"},"vehicle_type_id":"4","last_reported":1740816677,"current_range_meters":13600,"station_id":"ce4bhih2rcd13ifvqfs0","pricing_plan_id":"cebpf4jnsgd1na2vs0mg"},{"bike_id":"4e956743-ab29-4f4f-b7b5-23244765cebf","system_id":"levelo_inurba_marseille","lat":43.28563,"lon":5.39495,"is_reserved":false,"is_disabled":false,"rental_uris":{"android":"levelo://app?vid=4e956743-ab29-4f4f-b7b5-23244765cebf","ios":"levelo://app?vid=4e956743-ab29-4f4f-b7b5-23244765cebf"},"vehicle_type_id":"4","last_reported":1740816677,"current_range_meters":12800,"station_id":"ce4bh292rcd13ifvqdg0","pricing_plan_id":"cebpf4jnsgd1na2vs0mg"},{"bike_id":"c97737b0-0eee-4061-9cc5-b45f990d6f8d","system_id":"levelo_inurba_marseille","lat":43.31074,"lon":5.42466,"is_reserved":false,"is_disabled":false,"rental_uris":{"android":"levelo://app?vid=c97737b0-0eee-4061-9cc5-b45f990d6f8d","ios":"levelo://app?vid=c97737b0-0eee-4061-9cc5-b45f990d6f8d"},"vehicle_type_id":"4","last_reported":1740816677,"current_range_meters":13600,"station_id":"ce4bhp92rcd13ifvqhag","pricing_plan_id":"cebpf4jnsgd1na2vs0mg"},{"bike_id":"33d01ee9-2fc9-4328-b557-dc43e76a4c8a","system_id":"levelo_inurba_marseille","lat":43.26782,"lon":5.42039,"is_reserved":false,"is_disabled":true,"rental_uris":{"android":"levelo://app?vid=33d01ee9-2fc9-4328-b557-dc43e76a4c8a","ios":"levelo://app?vid=33d01ee9-2fc9-4328-b557-dc43e76a4c8a"},"vehicle_type_id":"4","last_reported":1740816677,"current_range_meters":13600,"station_id":"","pricing_plan_id":"cebpf4jnsgd1na2vs0mg"},{"bike_id":"448318b9-98db-4143-87d2-dabd1ab9c33a","system_id":"levelo_inurba_marseille","lat":43.27812,"lon":5.39219,"is_reserved":false,"is_disabled":false,"rental_uris":{"android":"levelo://app?vid=448318b9-98db-4143-87d2-dabd1ab9c33a","ios":"levelo://app?vid=448318b9-98db-4143-87d2-dabd1ab9c33a"},"vehicle_type_id":"4","last_reported":1740816677,"current_range_meters":14000,"station_id":"ce4bhjp2rcd13ifvqga0","pricing_plan_id":"cebpf4jnsgd1na2vs0mg"},{"bike_id":"761546c5-be0c-4342-b24b-2df20a5a6b56","system_id":"levelo_inurba_marseille","lat":43.31752,"lon":5.39023,"is_reserved":false,"is_disabled":false,"rental_uris":{"android":"levelo://app?vid=761546c5-be0c-4342-b24b-2df20a5a6b56","ios":"levelo://app?vid=761546c5-be0c-4342-b24b-2df20a5a6b56"},"vehicle_type_id":"4","last_reported":1740816677,"current_range_meters":14000,"station_id":"ce4bhqp2rcd13ifvqhng","pricing_plan_id":"cebpf4jnsgd1na2vs0mg"},{"bike_id":"0d6a42ea-f26c-48b6-a0a0-37cfbe3d24fa","system_id":"levelo_inurba_marseille","lat":43.30881,"lon":5.39629,"is_reserved":false,"is_disabled":false,"rental_uris":{"android":"levelo://app?vid=0d6a42ea-f26c-48b6-a0a0-37cfbe3d24fa","ios":"levelo://app?vid=0d6a42ea-f26c-48b6-a0a0-37cfbe3d24fa"},"vehicle_type_id":"4","last_reported":1740816677,"current_range_meters":14000,"station_id":"ce4bh012rcd13ifvqcv0","pricing_plan_id":"cebpf4jnsgd1na2vs0mg"},{"bike_id":"12c708ce-a80f-4753-8f3f-c2efbdc3fd8f","system_id":"levelo_inurba_marseille","lat":43.29269,"lon":5.40174,"is_reserved":false,"is_disabled":false,"rental_uris":{"android":"levelo://app?vid=12c708ce-a80f-4753-8f3f-c2efbdc3fd8f","ios":"levelo://app?vid=12c708ce-a80f-4753-8f3f-c2efbdc3fd8f"},"vehicle_type_id":"4","last_reported":1740816677,"current_range_meters":14000,"station_id":"ce4bh312rcd13ifvqdk0","pricing_plan_id":"cebpf4jnsgd1na2vs0mg"},{"bike_id":"5453adfd-04fa-47a7-b39c-739144a19f43","system_id":"levelo_inurba_marseille","lat":43.26798,"lon":5.4028,"is_reserved":false,"is_disabled":false,"rental_uris":{"android":"levelo://app?vid=5453adfd-04fa-47a7-b39c-739144a19f43","ios":"levelo://app?vid=5453adfd-04fa-47a7-b39c-739144a19f43"},"vehicle_type_id":"4","last_reported":1740816677,"current_range_meters":14000,"station_id":"ce501612rcd8frsf0b60","pricing_plan_id":"cebpf4jnsgd1na2vs0mg"},{"bike_id":"503a1710-2098-49cb-8042-7fa066903670","system_id":"levelo_inurba_marseille","lat":43.30423,"lon":5.41268,"is_reserved":false,"is_disabled":false,"rental_uris":{"android":"levelo://app?vid=503a1710-2098-49cb-8042-7fa066903670","ios":"levelo://app?vid=503a1710-2098-49cb-8042-7fa066903670"},"vehicle_type_id":"4","last_reported":1740816677,"current_range_meters":14000,"station_id":"ce4bhop2rcd13ifvqh8g","pricing_plan_id":"cebpf4jnsgd1na2vs0mg"},{"bike_id":"24db149f-1618-42c4-af45-9cda7f46d94c","system_id":"levelo_inurba_marseille","lat":43.2707,"lon":5.4229,"is_reserved":false,"is_disabled":false,"rental_uris":{"android":"levelo://app?vid=24db149f-1618-42c4-af45-9cda7f46d94c","ios":"levelo://app?vid=24db149f-1618-42c4-af45-9cda7f46d94c"},"vehicle_type_id":"4","last_reported":1740816677,"current_range_meters":14400,"station_id":"ce4bhk92rcd13ifvqgb0","pricing_plan_id":"cebpf4jnsgd1na2vs0mg"},{"bike_id":"ea0759d4-a649-4885-bd0e-3d86ec949d21","system_id":"levelo_inurba_marseille","lat":43.29599,"lon":5.38098,"is_reserved":false,"is_disabled":false,"rental_uris":{"android":"levelo://app?vid=ea0759d4-a649-4885-bd0e-3d86ec949d21","ios":"levelo://app?vid=ea0759d4-a649-4885-bd0e-3d86ec949d21"},"vehicle_type_id":"4","last_reported":1740816677,"current_range_meters":14400,"station_id":"ce4bgl12rcd13ifvqbo0","pricing_plan_id":"cebpf4jnsgd1na2vs0mg"},{"bike_id":"8a94d05e-0ac9-4900-afae-8f1bbe4e36de","system_id":"levelo_inurba_marseille","lat":43.30899,"lon":5.39636,"is_reserved":false,"is_disabled":false,"rental_uris":{"android":"levelo://app?vid=8a94d05e-0ac9-4900-afae-8f1bbe4e36de","ios":"levelo://app?vid=8a94d05e-0ac9-4900-afae-8f1bbe4e36de"},"vehicle_type_id":"4","last_reported":1740816677,"current_range_meters":14400,"station_id":"ce4bh012rcd13ifvqcv0","pricing_plan_id":"cebpf4jnsgd1na2vs0mg"},{"bike_id":"7f349580-1509-4fcd-ad52-33621df4c53d","system_id":"levelo_inurba_marseille","lat":43.28104,"lon":5.3987,"is_reserved":false,"is_disabled":false,"rental_uris":{"android":"levelo://app?vid=7f349580-1509-4fcd-ad52-33621df4c53d","ios":"levelo://app?vid=7f349580-1509-4fcd-ad52-33621df4c53d"},"vehicle_type_id":"4","last_reported":1740816677,"current_range_meters":14400,"station_id":"","pricing_plan_id":"cebpf4jnsgd1na2vs0mg"},{"bike_id":"a950a9f2-a885-4c0e-a1c3-dcf66812a712","system_id":"levelo_inurba_marseille","lat":43.31012,"lon":5.4004,"is_reserved":false,"is_disabled":false,"rental_uris":{"android":"levelo://app?vid=a950a9f2-a885-4c0e-a1c3-dcf66812a712","ios":"levelo://app?vid=a950a9f2-a885-4c0e-a1c3-dcf66812a712"},"vehicle_type_id":"4","last_reported":1740816677,"current_range_meters":14400,"station_id":"","pricing_plan_id":"cebpf4jnsgd1na2vs0mg"},{"bike_id":"fdd9f725-35af-4c06-8ace-d31fe1b67469","system_id":"levelo_inurba_marseille","lat":43.27552,"lon":5.3842,"is_reserved":false,"is_disabled":false,"rental_uris":{"android":"levelo://app?vid=fdd9f725-35af-4c06-8ace-d31fe1b67469","ios":"levelo://app?vid=fdd9f725-35af-4c06-8ace-d31fe1b67469"},"vehicle_type_id":"4","last_reported":1740816677,"current_range_meters":14800,"station_id":"ce4bhh92rcd13ifvqfi0","pricing_plan_id":"cebpf4jnsgd1na2vs0mg"},{"bike_id":"9e70006a-cdf2-4919-93a2-3c66955a3b59","system_id":"levelo_inurba_marseille","lat":43.32362,"lon":5.36758,"is_reserved":false,"is_disabled":false,"rental_uris":{"android":"levelo://app?vid=9e70006a-cdf2-4919-93a2-3c66955a3b59","ios":"levelo://app?vid=9e70006a-cdf2-4919-93a2-3c66955a3b59"},"vehicle_type_id":"4","last_reported":1740816677,"current_range_meters":14800,"station_id":"ce4bhsh2rcd13ifvqi2g","pricing_plan_id":"cebpf4jnsgd1na2vs0mg"},{"bike_id":"4a0968a0-7336-404d-b835-31e9b88dc625","system_id":"levelo_inurba_marseille","lat":43.30916,"lon":5.40159,"is_reserved":false,"is_disabled":false,"rental_uris":{"android":"levelo://app?vid=4a0968a0-7336-404d-b835-31e9b88dc625","ios":"levelo://app?vid=4a0968a0-7336-404d-b835-31e9b88dc625"},"vehicle_type_id":"4","last_reported":1740816677,"current_range_meters":14800,"station_id":"ce4bgvp2rcd13ifvqct0","pricing_plan_id":"cebpf4jnsgd1na2vs0mg"},{"bike_id":"3d326c83-df55-456d-a39d-f1c118f8a994","system_id":"levelo_inurba_marseille","lat":43.3023,"lon":5.40114,"is_reserved":false,"is_disabled":true,"rental_uris":{"android":"levelo://app?vid=3d326c83-df55-456d-a39d-f1c118f8a994","ios":"levelo://app?vid=3d326c83-df55-456d-a39d-f1c118f8a994"},"vehicle_type_id":"4","last_reported":1740816677,"current_range_meters":14800,"station_id":"","pricing_plan_id":"cebpf4jnsgd1na2vs0mg"},{"bike_id":"638ee025-645c-4567-8709-130e73493c95","system_id":"levelo_inurba_marseille","lat":43.30794,"lon":5.37657,"is_reserved":false,"is_disabled":false,"rental_uris":{"android":"levelo://app?vid=638ee025-645c-4567-8709-130e73493c95","ios":"levelo://app?vid=638ee025-645c-4567-8709-130e73493c95"},"vehicle_type_id":"4","last_reported":1740816677,"current_range_meters":16400,"station_id":"ce4bgv92rcd13ifvqcq0","pricing_plan_id":"cebpf4jnsgd1na2vs0mg"},{"bike_id":"d8865542-89d4-4147-a8e7-6f1dec11366f","system_id":"levelo_inurba_marseille","lat":43.30304,"lon":5.40458,"is_reserved":false,"is_disabled":false,"rental_uris":{"android":"levelo://app?vid=d8865542-89d4-4147-a8e7-6f1dec11366f","ios":"levelo://app?vid=d8865542-89d4-4147-a8e7-6f1dec11366f"},"vehicle_type_id":"4","last_reported":1740816677,"current_range_meters":15200,"station_id":"ce4bh012rcd13ifvqd10","pricing_plan_id":"cebpf4jnsgd1na2vs0mg"},{"bike_id":"e5cf7615-a990-414a-911e-05f25e1b0279","system_id":"levelo_inurba_marseille","lat":43.23213,"lon":5.35523,"is_reserved":false,"is_disabled":false,"rental_uris":{"android":"levelo://app?vid=e5cf7615-a990-414a-911e-05f25e1b0279","ios":"levelo://app?vid=e5cf7615-a990-414a-911e-05f25e1b0279"},"vehicle_type_id":"4","last_reported":1740816677,"current_range_meters":15200,"station_id":"ce4bhu92rcd13ifvqi70","pricing_plan_id":"cebpf4jnsgd1na2vs0mg"},{"bike_id":"1f35e225-0c08-478e-97b8-8a841616c0b6","system_id":"levelo_inurba_marseille","lat":43.29048,"lon":5.39956,"is_reserved":false,"is_disabled":false,"rental_uris":{"android":"levelo://app?vid=1f35e225-0c08-478e-97b8-8a841616c0b6","ios":"levelo://app?vid=1f35e225-0c08-478e-97b8-8a841616c0b6"},"vehicle_type_id":"4","last_reported":1740816677,"current_range_meters":15200,"station_id":"ce4bh392rcd13ifvqdm0","pricing_plan_id":"cebpf4jnsgd1na2vs0mg"},{"bike_id":"b5dd3597-aeab-4323-b1da-94378a4fe92e","system_id":"levelo_inurba_marseille","lat":43.304504,"lon":5.390046,"is_reserved":false,"is_disabled":false,"rental_uris":{"android":"levelo://app?vid=b5dd3597-aeab-4323-b1da-94378a4fe92e","ios":"levelo://app?vid=b5dd3597-aeab-4323-b1da-94378a4fe92e"},"vehicle_type_id":"4","last_reported":1740816677,"current_range_meters":15200,"station_id":"","pricing_plan_id":"cebpf4jnsgd1na2vs0mg"},{"bike_id":"f7bc7081-0b8f-4bad-a8c7-1cfce583294a","system_id":"levelo_inurba_marseille","lat":43.31328,"lon":5.39713,"is_reserved":false,"is_disabled":false,"rental_uris":{"android":"levelo://app?vid=f7bc7081-0b8f-4bad-a8c7-1cfce583294a","ios":"levelo://app?vid=f7bc7081-0b8f-4bad-a8c7-1cfce583294a"},"vehicle_type_id":"4","last_reported":1740816677,"current_range_meters":15200,"station_id":"ce4bgvp2rcd13ifvqcu0","pricing_plan_id":"cebpf4jnsgd1na2vs0mg"},{"bike_id":"8e6e81dc-e760-4004-950f-3e74fc14ab9b","system_id":"levelo_inurba_marseille","lat":43.2406,"lon":5.37779,"is_reserved":false,"is_disabled":false,"rental_uris":{"android":"levelo://app?vid=8e6e81dc-e760-4004-950f-3e74fc14ab9b","ios":"levelo://app?vid=8e6e81dc-e760-4004-950f-3e74fc14ab9b"},"vehicle_type_id":"4","last_reported":1740816677,"current_range_meters":15200,"station_id":"ce4bhnp2rcd13ifvqgvg","pricing_plan_id":"cebpf4jnsgd1na2vs0mg"},{"bike_id":"940d459a-9607-49a2-97ce-debcb7f5f3c4","system_id":"levelo_inurba_marseille","lat":43.27622,"lon":5.36115,"is_reserved":false,"is_disabled":false,"rental_uris":{"android":"levelo://app?vid=940d459a-9607-49a2-97ce-debcb7f5f3c4","ios":"levelo://app?vid=940d459a-9607-49a2-97ce-debcb7f5f3c4"},"vehicle_type_id":"4","last_reported":1740816677,"current_range_meters":16000,"station_id":"ce4bgj92rcd13ifvqbe0","pricing_plan_id":"cebpf4jnsgd1na2vs0mg"},{"bike_id":"d030ad53-1917-4d13-aa82-552c71175b92","system_id":"levelo_inurba_marseille","lat":43.25005,"lon":5.38938,"is_reserved":false,"is_disabled":false,"rental_uris":{"android":"levelo://app?vid=d030ad53-1917-4d13-aa82-552c71175b92","ios":"levelo://app?vid=d030ad53-1917-4d13-aa82-552c71175b92"},"vehicle_type_id":"4","last_reported":1740816677,"current_range_meters":16000,"station_id":"ce4bhgp2rcd13ifvqfd0","pricing_plan_id":"cebpf4jnsgd1na2vs0mg"},{"bike_id":"2f655000-b162-4da3-8fc3-71c8a9030da7","system_id":"levelo_inurba_marseille","lat":43.29963,"lon":5.37166,"is_reserved":false,"is_disabled":false,"rental_uris":{"android":"levelo://app?vid=2f655000-b162-4da3-8fc3-71c8a9030da7","ios":"levelo://app?vid=2f655000-b162-4da3-8fc3-71c8a9030da7"},"vehicle_type_id":"4","last_reported":1740816677,"current_range_meters":16000,"station_id":"ce4bgr92rcd13ifvqc7g","pricing_plan_id":"cebpf4jnsgd1na2vs0mg"},{"bike_id":"c66d6c0d-406f-4036-9232-a25a1942573b","system_id":"levelo_inurba_marseille","lat":43.22921,"lon":5.35397,"is_reserved":false,"is_disabled":true,"rental_uris":{"android":"levelo://app?vid=c66d6c0d-406f-4036-9232-a25a1942573b","ios":"levelo://app?vid=c66d6c0d-406f-4036-9232-a25a1942573b"},"vehicle_type_id":"4","last_reported":1740816677,"current_range_meters":16000,"station_id":"cpo3532slgdg3j2ikp40","pricing_plan_id":"cebpf4jnsgd1na2vs0mg"},{"bike_id":"678b6aa1-b19d-48df-ba2b-7f277a8aaf9b","system_id":"levelo_inurba_marseille","lat":43.29268,"lon":5.40141,"is_reserved":false,"is_disabled":false,"rental_uris":{"android":"levelo://app?vid=678b6aa1-b19d-48df-ba2b-7f277a8aaf9b","ios":"levelo://app?vid=678b6aa1-b19d-48df-ba2b-7f277a8aaf9b"},"vehicle_type_id":"4","last_reported":1740816677,"current_range_meters":16000,"station_id":"ce4bh312rcd13ifvqdk0","pricing_plan_id":"cebpf4jnsgd1na2vs0mg"},{"bike_id":"4f7a7916-8b42-41df-8e78-8abb80968778","system_id":"levelo_inurba_marseille","lat":43.23142,"lon":5.43734,"is_reserved":false,"is_disabled":false,"rental_uris":{"android":"levelo://app?vid=4f7a7916-8b42-41df-8e78-8abb80968778","ios":"levelo://app?vid=4f7a7916-8b42-41df-8e78-8abb80968778"},"vehicle_type_id":"4","last_reported":1740816677,"current_range_meters":16000,"station_id":"ce4bhmp2rcd13ifvqgog","pricing_plan_id":"cebpf4jnsgd1na2vs0mg"},{"bike_id":"e7f8c203-bd5c-4cdb-8833-bdb8992f8185","system_id":"levelo_inurba_marseille","lat":43.28451,"lon":5.35888,"is_reserved":false,"is_disabled":false,"rental_uris":{"android":"levelo://app?vid=e7f8c203-bd5c-4cdb-8833-bdb8992f8185","ios":"levelo://app?vid=e7f8c203-bd5c-4cdb-8833-bdb8992f8185"},"vehicle_type_id":"4","last_reported":1740816677,"current_range_meters":16000,"station_id":"ce4bhah2rcd13ifvqei0","pricing_plan_id":"cebpf4jnsgd1na2vs0mg"},{"bike_id":"d5a61aae-0d75-4f46-bbbe-b826a10f2185","system_id":"levelo_inurba_marseille","lat":43.29169,"lon":5.3716,"is_reserved":false,"is_disabled":false,"rental_uris":{"android":"levelo://app?vid=d5a61aae-0d75-4f46-bbbe-b826a10f2185","ios":"levelo://app?vid=d5a61aae-0d75-4f46-bbbe-b826a10f2185"},"vehicle_type_id":"4","last_reported":1740816677,"current_range_meters":16400,"station_id":"ce4bha92rcd13ifvqeh0","pricing_plan_id":"cebpf4jnsgd1na2vs0mg"},{"bike_id":"5f57cd24-dc27-405e-8d7f-e942385a4bee","system_id":"levelo_inurba_marseille","lat":43.286166,"lon":5.350987,"is_reserved":false,"is_disabled":true,"rental_uris":{"android":"levelo://app?vid=5f57cd24-dc27-405e-8d7f-e942385a4bee","ios":"levelo://app?vid=5f57cd24-dc27-405e-8d7f-e942385a4bee"},"vehicle_type_id":"4","last_reported":1740816677,"current_range_meters":16000,"station_id":"ce4bhch2rcd13ifvqeug","pricing_plan_id":"cebpf4jnsgd1na2vs0mg"},{"bike_id":"251044be-a832-4b47-a467-544d9f4fd18e","system_id":"levelo_inurba_marseille","lat":43.24388,"lon":5.37058,"is_reserved":false,"is_disabled":false,"rental_uris":{"android":"levelo://app?vid=251044be-a832-4b47-a467-544d9f4fd18e","ios":"levelo://app?vid=251044be-a832-4b47-a467-544d9f4fd18e"},"vehicle_type_id":"4","last_reported":1740816677,"current_range_meters":16000,"station_id":"ce4bhhh2rcd13ifvqfk0","pricing_plan_id":"cebpf4jnsgd1na2vs0mg"},{"bike_id":"539ac50f-cb77-4ec4-bd65-67eb799746fc","system_id":"levelo_inurba_marseille","lat":43.29614,"lon":5.38094,"is_reserved":false,"is_disabled":false,"rental_uris":{"android":"levelo://app?vid=539ac50f-cb77-4ec4-bd65-67eb799746fc","ios":"levelo://app?vid=539ac50f-cb77-4ec4-bd65-67eb799746fc"},"vehicle_type_id":"4","last_reported":1740816677,"current_range_meters":16000,"station_id":"ce4bgl12rcd13ifvqbo0","pricing_plan_id":"cebpf4jnsgd1na2vs0mg"},{"bike_id":"922879e2-d5c1-4e33-9200-89123eb4fac1","system_id":"levelo_inurba_marseille","lat":43.34147,"lon":5.40903,"is_reserved":false,"is_disabled":false,"rental_uris":{"android":"levelo://app?vid=922879e2-d5c1-4e33-9200-89123eb4fac1","ios":"levelo://app?vid=922879e2-d5c1-4e33-9200-89123eb4fac1"},"vehicle_type_id":"4","last_reported":1740816677,"current_range_meters":16000,"station_id":"ce4bhqh2rcd13ifvqhlg","pricing_plan_id":"cebpf4jnsgd1na2vs0mg"},{"bike_id":"d51810e2-afaa-46c1-a725-883c3d39661b","system_id":"levelo_inurba_marseille","lat":43.24971,"lon":5.38924,"is_reserved":false,"is_disabled":false,"rental_uris":{"android":"levelo://app?vid=d51810e2-afaa-46c1-a725-883c3d39661b","ios":"levelo://app?vid=d51810e2-afaa-46c1-a725-883c3d39661b"},"vehicle_type_id":"4","last_reported":1740816677,"current_range_meters":16400,"station_id":"ce4bhgp2rcd13ifvqfd0","pricing_plan_id":"cebpf4jnsgd1na2vs0mg"},