{"last_updated":1745492900,"ttl":60,"version":"2.2","data":{"bikes":[{"bike_id":"7693ea75-1d52-4462-9372-3e8b07214724","system_id":"levelo_inurba_marseille","lat":43.28923,"lon":5.38401,"is_reserved":false,"is_disabled":false,"rental_uris":{"android":"levelo://app?vid=7693ea75-1d52-4462-9372-3e8b07214724","ios":"levelo://app?vid=7693ea75-1d52-4462-9372-3e8b07214724"},"vehicle_type_id":"4","last_reported":1745492900,"current_range_meters":2000,"station_id":"ce4bh612rcd13ifvqe6g","pricing_plan_id":"cebpf4jnsgd1na2vs0mg"},{"bike_id":"d6818340-406c-4488-beba-50a2863c2695","system_id":"levelo_inurba_marseille","lat":43.30904,"lon":5.36865,"is_reserved":false,"is_disabled":false,"rental_uris":{"android":"levelo://app?vid=d6818340-406c-4488-beba-50a2863c2695","ios":"levelo://app?vid=d6818340-406c-4488-beba-50a2863c2695"},"vehicle_type_id":"4","last_reported":1745492900,"current_range_meters":2800,"station_id":"ce4bgn92rcd13ifvqbvg","pricing_plan_id":"cebpf4jnsgd1na2vs0mg"},{"bike_id":"1a125976-3bd3-498e-8d42-f891cd26d446","system_id":"levelo_inurba_marseille","lat":43.284353,"lon":5.392065,"is_reserved":false,"is_disabled":false,"rental_uris":{"android":"levelo://app?vid=1a125976-3bd3-498e-8d42-f891cd26d446","ios":"levelo://app?vid=1a125976-3bd3-498e-8d42-f891cd26d446"},"vehicle_type_id":"4","last_reported":1745492900,"current_range_meters":3200,"station_id":"ce4bgvh2rcd13ifvqcs0","pricing_plan_id":"cebpf4jnsgd1na2vs0mg"},{"bike_id":"0f36c06d-b34a-4b6a-9c76-b87640418fc7","system_id":"levelo_inurba_marseille","lat":43.23062,"lon":5.35492,"is_reserved":false,"is_disabled":false,"rental_uris":{"android":"levelo://app?vid=0f36c06d-b34a-4b6a-9c76-b87640418fc7","ios":"levelo://app?vid=0f36c06d-b34a-4b6a-9c76-b87640418fc7"},"vehicle_type_id":"4","last_reported":1745492900,"current_range_meters":3600,"station_id":"cpo3342slgdg3j2ifvpg","pricing_plan_id":"cebpf4jnsgd1na2vs0mg"},{"bike_id":"48067728-59d1-4fbf-9df3-180572ad8cdd","system_id":"levelo_inurba_marseille","lat":43.31216,"lon":5.36866,"is_reserved":false,"is_disabled":false,"rental_uris":{"android":"levelo://app?vid=48067728-59d1-4fbf-9df3-180572ad8cdd","ios":"levelo://app?vid=48067728-59d1-4fbf-9df3-180572ad8cdd"},"vehicle_type_id":"4","last_reported":1745492900,"current_range_meters":4400,"station_id":"ce4bgl92rcd13ifvqbq0","pricing_plan_id":"cebpf4jnsgd1na2vs0mg"},{"bike_id":"1c5ec038-935d-45d4-ab05-1768d5c6745a","system_id":"levelo_inurba_marseille","lat":43.24075,"lon":5.37771,"is_reserved":false,"is_disabled":true,"rental_uris":{"android":"levelo://app?vid=1c5ec038-935d-45d4-ab05-1768d5c6745a","ios":"levelo://app?vid=1c5ec038-935d-45d4-ab05-1768d5c6745a"},"vehicle_type_id":"4","last_reported":1745492900,"current_range_meters":4400,"station_id":"ce4bhnp2rcd13ifvqgvg","pricing_plan_id":"cebpf4jnsgd1na2vs0mg"},{"bike_id":"3b116c6b-b865-4ffc-a63b-a7620088e4b8","system_id":"levelo_inurba_marseille","lat":43.30472,"lon":5.37909,"is_reserved":false,"is_disabled":false,"rental_uris":{"android":"levelo://app?vid=3b116c6b-b865-4ffc-a63b-a7620088e4b8","ios":"levelo://app?vid=3b116c6b-b865-4ffc-a63b-a7620088e4b8"},"vehicle_type_id":"4","last_reported":1745492900,"current_range_meters":4800,"station_id":"ce4bgup2rcd13ifvqcn0","pricing_plan_id":"cebpf4jnsgd1na2vs0mg"},{"bike_id":"bba1cd2d-a7e7-4068-a617-a9be65c80c2b","system_id":"levelo_inurba_marseille","lat":43.29736,"lon":5.37681,"is_reserved":false,"is_disabled":false,"rental_uris":{"android":"levelo://app?vid=bba1cd2d-a7e7-4068-a617-a9be65c80c2b","ios":"levelo://app?vid=bba1cd2d-a7e7-4068-a617-a9be65c80c2b"},"vehicle_type_id":"4","last_reported":1745492900,"current_range_meters":4800,"station_id":"ce4bgkh2rcd13ifvqbl0","pricing_plan_id":"cebpf4jnsgd1na2vs0mg"},{"bike_id":"bfb782c0-c2b4-40d9-bdf5-f57e4674c238","system_id":"levelo_inurba_marseille","lat":43.29796,"lon":5.3811,"is_reserved":false,"is_disabled":false,"rental_uris":{"android":"levelo://app?vid=bfb782c0-c2b4-40d9-bdf5-f57e4674c238","ios":"levelo://app?vid=bfb782c0-c2b4-40d9-bdf5-f57e4674c238"},"vehicle_type_id":"4","last_reported":1745492900,"current_range_meters":4800,"station_id":"ce4bgip2rcd13ifvqbb0","pricing_plan_id":"cebpf4jnsgd1na2vs0mg"},{"bike_id":"8bfb2fc9-fee7-4f77-81ea-74dc666d56eb","system_id":"levelo_inurba_marseille","lat":43.30882,"lon":5.371918,"is_reserved":false,"is_disabled":false,"rental_uris":{"android":"levelo://app?vid=8bfb2fc9-fee7-4f77-81ea-74dc666d56eb","ios":"levelo://app?vid=8bfb2fc9-fee7-4f77-81ea-74dc666d56eb"},"vehicle_type_id":"4","last_reported":1745492900,"current_range_meters":5600,"station_id":"ce4bguh2rcd13ifvqckg","pricing_plan_id":"cebpf4jnsgd1na2vs0mg"},{"bike_id":"34c6300b-ea09-42d8-8fdf-b7ad874a0d29","system_id":"levelo_inurba_marseille","lat":43.29281,"lon":5.40117,"is_reserved":false,"is_disabled":false,"rental_uris":{"android":"levelo://app?vid=34c6300b-ea09-42d8-8fdf-b7ad874a0d29","ios":"levelo://app?vid=34c6300b-ea09-42d8-8fdf-b7ad874a0d29"},"vehicle_type_id":"4","last_reported":1745492900,"current_range_meters":5600,"station_id":"ce4bh312rcd13ifvqdk0","pricing_plan_id":"cebpf4jnsgd1na2vs0mg"},{"bike_id":"891fb13d-3563-413f-afb1-18d5e05339fc","system_id":"levelo_inurba_marseille","lat":43.28355,"lon":5.38638,"is_reserved":false,"is_disabled":false,"rental_uris":{"android":"levelo://app?vid=891fb13d-3563-413f-afb1-18d5e05339fc","ios":"levelo://app?vid=891fb13d-3563-413f-afb1-18d5e05339fc"},"vehicle_type_id":"4","last_reported":1745492900,"current_range_meters":6000,"station_id":"ce4bh492rcd13ifvqdvg","pricing_plan_id":"cebpf4jnsgd1na2vs0mg"},{"bike_id":"9c97bace-d4d3-421e-a2dc-9f2deb45bb73","system_id":"levelo_inurba_marseille","lat":43.28445,"lon":5.39196,"is_reserved":false,"is_disabled":false,"rental_uris":{"android":"levelo://app?vid=9c97bace-d4d3-421e-a2dc-9f2deb45bb73","ios":"levelo://app?vid=9c97bace-d4d3-421e-a2dc-9f2deb45bb73"},"vehicle_type_id":"4","last_reported":1745492900,"current_range_meters":6000,"station_id":"ce4bhoh2rcd13ifvqh5g","pricing_plan_id":"cebpf4jnsgd1na2vs0mg"},{"bike_id":"d04eec6f-1c2a-42ed-ba10-1ba7e88147b0","system_id":"levelo_inurba_marseille","lat":43.29007,"lon":5.35614,"is_reserved":false,"is_disabled":false,"rental_uris":{"android":"levelo://app?vid=d04eec6f-1c2a-42ed-ba10-1ba7e88147b0","ios":"levelo://app?vid=d04eec6f-1c2a-42ed-ba10-1ba7e88147b0"},"vehicle_type_id":"4","last_reported":1745492900,"current_range_meters":6400,"station_id":"ce4bhb92rcd13ifvqen0","pricing_plan_id":"cebpf4jnsgd1na2vs0mg"},{"bike_id":"35ee1e7a-ed4b-489a-ad85-a78f3746e5e7","system_id":"levelo_inurba_marseille","lat":43.23148,"lon":5.43716,"is_reserved":false,"is_disabled":false,"rental_uris":{"android":"levelo://app?vid=35ee1e7a-ed4b-489a-ad85-a78f3746e5e7","ios":"levelo://app?vid=35ee1e7a-ed4b-489a-ad85-a78f3746e5e7"},"vehicle_type_id":"4","last_reported":1745492900,"current_range_meters":6400,"station_id":"ce4bhmp2rcd13ifvqgog","pricing_plan_id":"cebpf4jnsgd1na2vs0mg"},{"bike_id":"0d079a71-33de-4cad-acf9-f3073cdf460a","system_id":"levelo_inurba_marseille","lat":43.30931,"lon":5.4014,"is_reserved":false,"is_disabled":false,"rental_uris":{"android":"levelo://app?vid=0d079a71-33de-4cad-acf9-f3073cdf460a","ios":"levelo://app?vid=0d079a71-33de-4cad-acf9-f3073cdf460a"},"vehicle_type_id":"4","last_reported":1745492900,"current_range_meters":6400,"station_id":"ce4bgvp2rcd13ifvqct0","pricing_plan_id":"cebpf4jnsgd1na2vs0mg"},{"bike_id":"82ba0e00-e553-41e4-a716-c5929e6133e6","system_id":"levelo_inurba_marseille","lat":43.25933,"lon":5.40889,"is_reserved":false,"is_disabled":false,"rental_uris":{"android":"levelo://app?vid=82ba0e00-e553-41e4-a716-c5929e6133e6","ios":"levelo://app?vid=82ba0e00-e553-41e4-a716-c5929e6133e6"},"vehicle_type_id":"4","last_reported":1745492900,"current_range_meters":6400,"station_id":"ce4bhm92rcd13ifvqglg","pricing_plan_id":"cebpf4jnsgd1na2vs0mg"},{"bike_id":"49c0f902-eac7-4a79-adf0-d142aff51e11","system_id":"levelo_inurba_marseille","lat":43.24161,"lon":5.36398,"is_reserved":false,"is_disabled":false,"rental_uris":{"android":"levelo://app?vid=49c0f902-eac7-4a79-adf0-d142aff51e11","ios":"levelo://app?vid=49c0f902-eac7-4a79-adf0-d142aff51e11"},"vehicle_type_id":"4","last_reported":1745492900,"current_range_meters":6400,"station_id":"cpo36qri1sfpv3e86is0","pricing_plan_id":"cebpf4jnsgd1na2vs0mg"},{"bike_id":"cc3f2c01-215e-4d7a-abf3-7891a31df0d4","system_id":"levelo_inurba_marseille","lat":43.23152,"lon":5.43701,"is_reserved":false,"is_disabled":false,"rental_uris":{"android":"levelo://app?vid=cc3f2c01-215e-4d7a-abf3-7891a31df0d4","ios":"levelo://app?vid=cc3f2c01-215e-4d7a-abf3-7891a31df0d4"},"vehicle_type_id":"4","last_reported":1745492900,"current_range_meters":6000,"station_id":"ce4bhmp2rcd13ifvqgog","pricing_plan_id":"cebpf4jnsgd1na2vs0mg"},{"bike_id":"6de94cea-1591-41af-9bd0-c946bc93ea95","system_id":"levelo_inurba_marseille","lat":43.28357,"lon":5.38631,"is_reserved":false,"is_disabled":false,"rental_uris":{"android":"levelo://app?vid=6de94cea-1591-41af-9bd0-c946bc93ea95","ios":"levelo://app?vid=6de94cea-1591-41af-9bd0-c946bc93ea95"},"vehicle_type_id":"4","last_reported":1745492900,"current_range_meters":7200,"station_id":"ce4bh492rcd13ifvqdvg","pricing_plan_id":"cebpf4jnsgd1na2vs0mg"},{"bike_id":"a2a48cc3-e2b0-45ea-8e2e-af7bc3449d0f","system_id":"levelo_inurba_marseille","lat":43.33607,"lon":5.41012,"is_reserved":false,"is_disabled":false,"rental_uris":{"android":"levelo://app?vid=a2a48cc3-e2b0-45ea-8e2e-af7bc3449d0f","ios":"levelo://app?vid=a2a48cc3-e2b0-45ea-8e2e-af7bc3449d0f"},"vehicle_type_id":"4","last_reported":1745492900,"current_range_meters":6800,"station_id":"ce4bhqh2rcd13ifvqhmg","pricing_plan_id":"cebpf4jnsgd1na2vs0mg"},{"bike_id":"70789a83-72c6-40ed-9de1-36266c05cba1","system_id":"levelo_inurba_marseille","lat":43.28417,"lon":5.3498,"is_reserved":false,"is_disabled":false,"rental_uris":{"android":"levelo://app?vid=70789a83-72c6-40ed-9de1-36266c05cba1","ios":"levelo://app?vid=70789a83-72c6-40ed-9de1-36266c05cba1"},"vehicle_type_id":"4","last_reported":1745492900,"current_range_meters":6800,"station_id":"ce4bhbh2rcd13ifvqepg","pricing_plan_id":"cebpf4jnsgd1na2vs0mg"},{"bike_id":"8155d817-d6ad-4076-bfc9-fac8062b9dfb","system_id":"levelo_inurba_marseille","lat":43.29006,"lon":5.35616,"is_reserved":false,"is_disabled":false,"rental_uris":{"android":"levelo://app?vid=8155d817-d6ad-4076-bfc9-fac8062b9dfb","ios":"levelo://app?vid=8155d817-d6ad-4076-bfc9-fac8062b9dfb"},"vehicle_type_id":"4","last_reported":1745492900,"current_range_meters":6800,"station_id":"ce4bhb92rcd13ifvqen0","pricing_plan_id":"cebpf4jnsgd1na2vs0mg"},{"bike_id":"3a47051e-883e-41a0-bb7c-9deb37da3fd5","system_id":"levelo_inurba_marseille","lat":43.2894,"lon":5.36641,"is_reserved":false,"is_disabled":false,"rental_uris":{"android":"levelo://app?vid=3a47051e-883e-41a0-bb7c-9deb37da3fd5","ios":"levelo://app?vid=3a47051e-883e-41a0-bb7c-9deb37da3fd5"},"vehicle_type_id":"4","last_reported":1745492900,"current_range_meters":14400,"station_id":"ce4bhap2rcd13ifvqek0","pricing_plan_id":"cebpf4jnsgd1na2vs0mg"},{"bike_id":"9def3467-0cd2-49a9-bac2-9f6af11579da","system_id":"levelo_inurba_marseille","lat":43.27622,"lon":5.36114,"is_reserved":false,"is_disabled":false,"rental_uris":{"android":"levelo://app?vid=9def3467-0cd2-49a9-bac2-9f6af11579da","ios":"levelo://app?vid=9def3467-0cd2-49a9-bac2-9f6af11579da"},"vehicle_type_id":"4","last_reported":1745492900,"current_range_meters":7200,"station_id":"ce4bgj92rcd13ifvqbe0","pricing_plan_id":"cebpf4jnsgd1na2vs0mg"},{"bike_id":"dd812f87-ccc8-40d1-9eea-7311c5aa1171","system_id":"levelo_inurba_marseille","lat":43.29424,"lon":5.38639,"is_reserved":false,"is_disabled":false,"rental_uris":{"android":"levelo://app?vid=dd812f87-ccc8-40d1-9eea-7311c5aa1171","ios":"levelo://app?vid=dd812f87-ccc8-40d1-9eea-7311c5aa1171"},"vehicle_type_id":"4","last_reported":1745492900,"current_range_meters":6800,"station_id":"ce4bh2h2rcd13ifvqdh0","pricing_plan_id":"cebpf4jnsgd1na2vs0mg"},{"bike_id":"5b478e9e-f07b-4e29-b463-af846e861ad6","system_id":"levelo_inurba_marseille","lat":43.33022,"lon":5.39042,"is_reserved":false,"is_disabled":false,"rental_uris":{"android":"levelo://app?vid=5b478e9e-f07b-4e29-b463-af846e861ad6","ios":"levelo://app?vid=5b478e9e-f07b-4e29-b463-af846e861ad6"},"vehicle_type_id":"4","last_reported":1745492900,"current_range_meters":7200,"station_id":"ce4bhr92rcd13ifvqhrg","pricing_plan_id":"cebpf4jnsgd1na2vs0mg"},{"bike_id":"6c19bbca-1e79-4e19-9001-867cdfe1e6d7","system_id":"levelo_inurba_marseille","lat":43.29982,"lon":5.37167,"is_reserved":false,"is_disabled":false,"rental_uris":{"android":"levelo://app?vid=6c19bbca-1e79-4e19-9001-867cdfe1e6d7","ios":"levelo://app?vid=6c19bbca-1e79-4e19-9001-867cdfe1e6d7"},"vehicle_type_id":"4","last_reported":1745492900,"current_range_meters":7200,"station_id":"ce4bgr92rcd13ifvqc7g","pricing_plan_id":"cebpf4jnsgd1na2vs0mg"},{"bike_id":"e7e07a73-527c-45f9-8b6d-14056deaec30","system_id":"levelo_inurba_marseille","lat":43.29796,"lon":5.38102,"is_reserved":false,"is_disabled":false,"rental_uris":{"android":"levelo://app?vid=e7e07a73-527c-45f9-8b6d-14056deaec30","ios":"levelo://app?vid=e7e07a73-527c-45f9-8b6d-14056deaec30"},"vehicle_type_id":"4","last_reported":1745492900,"current_range_meters":7200,"station_id":"ce4bgip2rcd13ifvqbb0","pricing_plan_id":"cebpf4jnsgd1na2vs0mg"},{"bike_id":"30704823-7a9c-4b12-af5d-93db18bfd3b9","system_id":"levelo_inurba_marseille","lat":43.28844,"lon":5.39916,"is_reserved":false,"is_disabled":false,"rental_uris":{"android":"levelo://app?vid=30704823-7a9c-4b12-af5d-93db18bfd3b9","ios":"levelo://app?vid=30704823-7a9c-4b12-af5d-93db18bfd3b9"},"vehicle_type_id":"4","last_reported":1745492900,"current_range_meters":7200,"station_id":"","pricing_plan_id":"cebpf4jnsgd1na2vs0mg"},{"bike_id":"c7ba963a-ceec-4d21-81fd-30c671e1b7c3","system_id":"levelo_inurba_marseille","lat":43.28423,"lon":5.34977,"is_reserved":false,"is_disabled":false,"rental_uris":{"android":"levelo://app?vid=c7ba963a-ceec-4d21-81fd-30c671e1b7c3","ios":"levelo://app?vid=c7ba963a-ceec-4d21-81fd-30c671e1b7c3"},"vehicle_type_id":"4","last_reported":1745492900,"current_range_meters":8000,"station_id":"ce4bhbh2rcd13ifvqepg","pricing_plan_id":"cebpf4jnsgd1na2vs0mg"},{"bike_id":"15aae559-93f3-42c9-9820-7aa209e6c098","system_id":"levelo_inurba_marseille","lat":43.28936,"lon":5.36643,"is_reserved":false,"is_disabled":false,"rental_uris":{"android":"levelo://app?vid=15aae559-93f3-42c9-9820-7aa209e6c098","ios":"levelo://app?vid=15aae559-93f3-42c9-9820-7aa209e6c098"},"vehicle_type_id":"4","last_reported":1745492900,"current_range_meters":8000,"station_id":"ce4bhap2rcd13ifvqek0","pricing_plan_id":"cebpf4jnsgd1na2vs0mg"},{"bike_id":"7e9d26b8-b748-4e10-b3e2-977d9fd05087","system_id":"levelo_inurba_marseille","lat":43.32589,"lon":5.36144,"is_reserved":false,"is_disabled":false,"rental_uris":{"android":"levelo://app?vid=7e9d26b8-b748-4e10-b3e2-977d9fd05087","ios":"levelo://app?vid=7e9d26b8-b748-4e10-b3e2-977d9fd05087"},"vehicle_type_id":"4","last_reported":1745492900,"current_range_meters":8000,"station_id":"","pricing_plan_id":"cebpf4jnsgd1na2vs0mg"},{"bike_id":"db9f0590-9caa-421f-8295-4f7515811cdc","system_id":"levelo_inurba_marseille","lat":43.29012,"lon":5.35611,"is_reserved":false,"is_disabled":false,"rental_uris":{"android":"levelo://app?vid=db9f0590-9caa-421f-8295-4f7515811cdc","ios":"levelo://app?vid=db9f0590-9caa-421f-8295-4f7515811cdc"},"vehicle_type_id":"4","last_reported":1745492900,"current_range_meters":8000,"station_id":"ce4bhb92rcd13ifvqen0","pricing_plan_id":"cebpf4jnsgd1na2vs0mg"},{"bike_id":"c3569a44-0824-4dff-8a4f-ab1830c624b3","system_id":"levelo_inurba_marseille","lat":43.25926,"lon":5.4091,"is_reserved":false,"is_disabled":false,"rental_uris":{"android":"levelo://app?vid=c3569a44-0824-4dff-8a4f-ab1830c624b3","ios":"levelo://app?vid=c3569a44-0824-4dff-8a4f-ab1830c624b3"},"vehicle_type_id":"4","last_reported":1745492900,"current_range_meters":8000,"station_id":"ce4bhm92rcd13ifvqglg","pricing_plan_id":"cebpf4jnsgd1na2vs0mg"},{"bike_id":"670644d0-431e-4ef2-a595-50fbf8f6be9f","system_id":"levelo_inurba_marseille","lat":43.29878,"lon":5.38919,"is_reserved":false,"is_disabled":false,"rental_uris":{"android":"levelo://app?vid=670644d0-431e-4ef2-a595-50fbf8f6be9f","ios":"levelo://app?vid=670644d0-431e-4ef2-a595-50fbf8f6be9f"},"vehicle_type_id":"4","last_reported":1745492900,"current_range_meters":8400,"station_id":"ce4bh392rcd13ifvqdl0","pricing_plan_id":"cebpf4jnsgd1na2vs0mg"},{"bike_id":"92c3b340-d069-4f1c-b55b-44c52f19597b","system_id":"levelo_inurba_marseille","lat":43.28252,"lon":5.37792,"is_reserved":false,"is_disabled":false,"rental_uris":{"android":"levelo://app?vid=92c3b340-d069-4f1c-b55b-44c52f19597b","ios":"levelo://app?vid=92c3b340-d069-4f1c-b55b-44c52f19597b"},"vehicle_type_id":"4","last_reported":1745492900,"current_range_meters":8400,"station_id":"","pricing_plan_id":"cebpf4jnsgd1na2vs0mg"},{"bike_id":"530dfa93-faa5-4010-8c00-fa566dabe2a2","system_id":"levelo_inurba_marseille","lat":43.292936,"lon":5.374623,"is_reserved":false,"is_disabled":false,"rental_uris":{"android":"levelo://app?vid=530dfa93-faa5-4010-8c00-fa566dabe2a2","ios":"levelo://app?vid=530dfa93-faa5-4010-8c00-fa566dabe2a2"},"vehicle_type_id":"4","last_reported":1745492900,"current_range_meters":8400,"station_id":"ce4bhmp2rcd13ifvqgog","pricing_plan_id":"cebpf4jnsgd1na2vs0mg"},{"bike_id":"c0525dd3-6761-46de-888f-ffa7b994ee85","system_id":"levelo_inurba_marseille","lat":43.23154,"lon":5.43709,"is_reserved":false,"is_disabled":false,"rental_uris":{"android":"levelo://app?vid=c0525dd3-6761-46de-888f-ffa7b994ee85","ios":"levelo://app?vid=c0525dd3-6761-46de-888f-ffa7b994ee85"},"vehicle_type_id":"4","last_reported":1745492900,"current_range_meters":8400,"station_id":"ce4bhmp2rcd13ifvqgog","pricing_plan_id":"cebpf4jnsgd1na2vs0mg"},{"bike_id":"c7ed598b-19a5-4461-97f1-c9fc59148263","system_id":"levelo_inurba_marseille","lat":43.2408,"lon":5.37758,"is_reserved":false,"is_disabled":false,"rental_uris":{"android":"levelo://app?vid=c7ed598b-19a5-4461-97f1-c9fc59148263","ios":"levelo://app?vid=c7ed598b-19a5-4461-97f1-c9fc59148263"},"vehicle_type_id":"4","last_reported":1745492900,"current_range_meters":8400,"station_id":"ce4bhnp2rcd13ifvqgvg","pricing_plan_id":"cebpf4jnsgd1na2vs0mg"},{"bike_id":"c97a8321-d4b7-4562-8ef3-855a605e6cf6","system_id":"levelo_inurba_marseille","lat":43.2677,"lon":5.41388,"is_reserved":false,"is_disabled":false,"rental_uris":{"android":"levelo://app?vid=c97a8321-d4b7-4562-8ef3-855a605e6cf6","ios":"levelo://app?vid=c97a8321-d4b7-4562-8ef3-855a605e6cf6"},"vehicle_type_id":"4","last_reported":1745492900,"current_range_meters":8400,"station_id":"","pricing_plan_id":"cebpf4jnsgd1na2vs0mg"},{"bike_id":"770c3fa6-aeba-43fe-b24a-d77f2052dc56","system_id":"levelo_inurba_marseille","lat":43.29012,"lon":5.35608,"is_reserved":false,"is_disabled":false,"rental_uris":{"android":"levelo://app?vid=770c3fa6-aeba-43fe-b24a-d77f2052dc56","ios":"levelo://app?vid=770c3fa6-aeba-43fe-b24a-d77f2052dc56"},"vehicle_type_id":"4","last_reported":1745492900,"current_range_meters":8400,"station_id":"ce4bhb92rcd13ifvqen0","pricing_plan_id":"cebpf4jnsgd1na2vs0mg"},{"bike_id":"21d6dfda-1f1e-40b5-a34f-4655caea0f83","system_id":"levelo_inurba_marseille","lat":43.23153,"lon":5.4371,"is_reserved":false,"is_disabled":false,"rental_uris":{"android":"levelo://app?vid=21d6dfda-1f1e-40b5-a34f-4655caea0f83","ios":"levelo://app?vid=21d6dfda-1f1e-40b5-a34f-4655caea0f83"},"vehicle_type_id":"4","last_reported":1745492900,"current_range_meters":8400,"station_id":"ce4bhmp2rcd13ifvqgog","pricing_plan_id":"cebpf4jnsgd1na2vs0mg"},{"bike_id":"5cec985c-475e-4a47-afd7-2118745a458f","system_id":"levelo_inurba_marseille","lat":43.22956,"lon":5.35388,"is_reserved":false,"is_disabled":false,"rental_uris":{"android":"levelo://app?vid=5cec985c-475e-4a47-afd7-2118745a458f","ios":"levelo://app?vid=5cec985c-475e-4a47-afd7-2118745a458f"},"vehicle_type_id":"4","last_reported":1745492900,"current_range_meters":8400,"station_id":"cpo3532slgdg3j2ikp40","pricing_plan_id":"cebpf4jnsgd1na2vs0mg"},{"bike_id":"ace27889-a155-43b2-901f-7e6d5ed54e14","system_id":"levelo_inurba_marseille","lat":43.267866,"lon":5.394123,"is_reserved":false,"is_disabled":false,"rental_uris":{"android":"levelo://app?vid=ace27889-a155-43b2-901f-7e6d5ed54e14","ios":"levelo://app?vid=ace27889-a155-43b2-901f-7e6d5ed54e14"},"vehicle_type_id":"4","last_reported":1745492900,"current_range_meters":8800,"station_id":"ce4bhh12rcd13ifvqfg0","pricing_plan_id":"cebpf4jnsgd1na2vs0mg"},{"bike_id":"73f0f74f-b7b0-4407-a3cf-f8e13470a285","system_id":"levelo_inurba_marseille","lat":43.29009,"lon":5.35613,"is_reserved":false,"is_disabled":false,"rental_uris":{"android":"levelo://app?vid=73f0f74f-b7b0-4407-a3cf-f8e13470a285","ios":"levelo://app?vid=73f0f74f-b7b0-4407-a3cf-f8e13470a285"},"vehicle_type_id":"4","last_reported":1745492900,"current_range_meters":8800,"station_id":"ce4bhb92rcd13ifvqen0","pricing_plan_id":"cebpf4jnsgd1na2vs0mg"},{"bike_id":"5cf0468d-0c2b-45c7-95f8-7bb074a2fc36","system_id":"levelo_inurba_marseille","lat":43.30134,"lon":5.38055,"is_reserved":false,"is_disabled":false,"rental_uris":{"android":"levelo://app?vid=5cf0468d-0c2b-45c7-95f8-7bb074a2fc36","ios":"levelo://app?vid=5cf0468d-0c2b-45c7-95f8-7bb074a2fc36"},"vehicle_type_id":"4","last_reported":1745492900,"current_range_meters":8800,"station_id":"ce4bgjp2rcd13ifvqbh0","pricing_plan_id":"cebpf4jnsgd1na2vs0mg"},{"bike_id":"a5c09cb6-43be-4759-b8fb-839aa60c50f5","system_id":"levelo_inurba_marseille","lat":43.29624,"lon":5.406,"is_reserved":false,"is_disabled":false,"rental_uris":{"android":"levelo://app?vid=a5c09cb6-43be-4759-b8fb-839aa60c50f5","ios":"levelo://app?vid=a5c09cb6-43be-4759-b8fb-839aa60c50f5"},"vehicle_type_id":"4","last_reported":1745492900,"current_range_meters":8400,"station_id":"ce4bh0h2rcd13ifvqd60","pricing_plan_id":"cebpf4jnsgd1na2vs0mg"},{"bike_id":"7e5cc126-6f7e-4347-bf2c-51a9c92ae37d","system_id":"levelo_inurba_marseille","lat":43.292482,"lon":5.408921,"is_reserved":false,"is_disabled":false,"rental_uris":{"android":"levelo://app?vid=7e5cc126-6f7e-4347-bf2c-51a9c92ae37d","ios":"levelo://app?vid=7e5cc126-6f7e-4347-bf2c-51a9c92ae37d"},"vehicle_type_id":"4","last_reported":1745492900,"current_range_meters":8800,"station_id":"ce4bh192rcd13ifvqdc0","pricing_plan_id":"cebpf4jnsgd1na2vs0mg"},{"bike_id":"0a819f92-1b9b-4543-8059-7c0bac1c79a9","system_id":"levelo_inurba_marseille","lat":43.27495,"lon":5.42449,"is_reserved":false,"is_disabled":false,"rental_uris":{"android":"levelo://app?vid=0a819f92-1b9b-4543-8059-7c0bac1c79a9","ios":"levelo://app?vid=0a819f92-1b9b-4543-8059-7c0bac1c79a9"},"vehicle_type_id":"4","last_reported":1745492900,"current_range_meters":8800,"station_id":"ce4bhn92rcd13ifvqgrg","pricing_plan_id":"cebpf4jnsgd1na2vs0mg"},{"bike_id":"c229aa3f-8878-46ab-a8f3-377c04f2f479","system_id":"levelo_inurba_marseille","lat":43.30197,"lon":5.36605,"is_reserved":false,"is_disabled":false,"rental_uris":{"android":"levelo://app?vid=c229aa3f-8878-46ab-a8f3-377c04f2f479","ios":"levelo://app?vid=c229aa3f-8878-46ab-a8f3-377c04f2f479"},"vehicle_type_id":"4","last_reported":1745492900,"current_range_meters":8800,"station_id":"ce4bgrh2rcd13ifvqc8g","pricing_plan_id":"cebpf4jnsgd1na2vs0mg"},{"bike_id":"b98c3fc0-562f-49a6-b6a2-6dea8ec25e80","system_id":"levelo_inurba_marseille","lat":43.270729,"lon":5.403831,"is_reserved":false,"is_disabled":false,"rental_uris":{"android":"levelo://app?vid=b98c3fc0-562f-49a6-b6a2-6dea8ec25e80","ios":"levelo://app?vid=b98c3fc0-562f-49a6-b6a2-6dea8ec25e80"},"vehicle_type_id":"4","last_reported":1745492900,"current_range_meters":9200,"station_id":"ce4bhl12rcd13ifvqgf0","pricing_plan_id":"cebpf4jnsgd1na2vs0mg"},{"bike_id":"10677235-cce8-4e30-a1c3-ec176aae175c","system_id":"levelo_inurba_marseille","lat":43.2848,"lon":5.38373,"is_reserved":false,"is_disabled":false,"rental_uris":{"android":"levelo://app?vid=10677235-cce8-4e30-a1c3-ec176aae175c","ios":"levelo://app?vid=10677235-cce8-4e30-a1c3-ec176aae175c"},"vehicle_type_id":"4","last_reported":1745492900,"current_range_meters":9200,"station_id":"ce4bh512rcd13ifvqe3g","pricing_plan_id":"cebpf4jnsgd1na2vs0mg"},{"bike_id":"abd226a8-d003-4133-b9d2-b7c952b7ead1","system_id":"levelo_inurba_marseille","lat":43.23059,"lon":5.35494,"is_reserved":false,"is_disabled":false,"rental_uris":{"android":"levelo://app?vid=abd226a8-d003-4133-b9d2-b7c952b7ead1","ios":"levelo://app?vid=abd226a8-d003-4133-b9d2-b7c952b7ead1"},"vehicle_type_id":"4","last_reported":1745492900,"current_range_meters":9200,"station_id":"cpo3342slgdg3j2ifvpg","pricing_plan_id":"cebpf4jnsgd1na2vs0mg"},{"bike_id":"61553257-63b2-4252-9ed5-33598ea8829a","system_id":"levelo_inurba_marseille","lat":43.27496,"lon":5.42441,"is_reserved":false,"is_disabled":true,"rental_uris":{"android":"levelo://app?vid=61553257-63b2-4252-9ed5-33598ea8829a","ios":"levelo://app?vid=61553257-63b2-4252-9ed5-33598ea8829a"},"vehicle_type_id":"4","last_reported":1745492900,"current_range_meters":9200,"station_id":"","pricing_plan_id":"cebpf4jnsgd1na2vs0mg"},{"bike_id":"4d48bc0d-3b7b-4c4a-80a4-63aa8933c642","system_id":"levelo_inurba_marseille","lat":43.28261,"lon":5.3506,"is_reserved":false,"is_disabled":false,"rental_uris":{"android":"levelo://app?vid=4d48bc0d-3b7b-4c4a-80a4-63aa8933c642","ios":"levelo://app?vid=4d48bc0d-3b7b-4c4a-80a4-63aa8933c642"},"vehicle_type_id":"4","last_reported":1745492900,"current_range_meters":9200,"station_id":"ce4bhbp2rcd13ifvqerg","pricing_plan_id":"cebpf4jnsgd1na2vs0mg"},{"bike_id":"1b8b7145-49a7-4fe1-96a2-72a1d6e84a54","system_id":"levelo_inurba_marseille","lat":43.230552,"lon":5.35495,"is_reserved":false,"is_disabled":false,"rental_uris":{"android":"levelo://app?vid=1b8b7145-49a7-4fe1-96a2-72a1d6e84a54","ios":"levelo://app?vid=1b8b7145-49a7-4fe1-96a2-72a1d6e84a54"},"vehicle_type_id":"4","last_reported":1745492900,"current_range_meters":9200,"station_id":"cpo3342slgdg3j2ifvpg","pricing_plan_id":"cebpf4jnsgd1na2vs0mg"},{"bike_id":"f7204dbe-aaf9-4564-8c1a-52cfb9b35b31","system_id":"levelo_inurba_marseille","lat":43.29859,"lon":5.36288,"is_reserved":false,"is_disabled":false,"rental_uris":{"android":"levelo://app?vid=f7204dbe-aaf9-4564-8c1a-52cfb9b35b31","ios":"levelo://app?vid=f7204dbe-aaf9-4564-8c1a-52cfb9b35b31"},"vehicle_type_id":"4","last_reported":1745492900,"current_range_meters":9200,"station_id":"ce4bgpp2rcd13ifvqc3g","pricing_plan_id":"cebpf4jnsgd1na2vs0mg"},{"bike_id":"38cd91d6-6906-4699-8241-165313322078","system_id":"levelo_inurba_marseille","lat":43.21751,"lon":5.34606,"is_reserved":false,"is_disabled":false,"rental_uris":{"android":"levelo://app?vid=38cd91d6-6906-4699-8241-165313322078","ios":"levelo://app?vid=38cd91d6-6906-4699-8241-165313322078"},"vehicle_type_id":"4","last_reported":1745492900,"current_range_meters":9200,"station_id":"","pricing_plan_id":"cebpf4jnsgd1na2vs0mg"},{"bike_id":"4175e8e2-1179-44be-8d3e-3afce58693c5","system_id":"levelo_inurba_marseille","lat":43.30532,"lon":5.38423,"is_reserved":false,"is_disabled":false,"rental_uris":{"android":"levelo://app?vid=4175e8e2-1179-44be-8d3e-3afce58693c5","ios":"levelo://app?vid=4175e8e2-1179-44be-8d3e-3afce58693c5"},"vehicle_type_id":"4","last_reported":1745492900,"current_range_meters":9600,"station_id":"ce4bgg92rcd13ifvqb30","pricing_plan_id":"cebpf4jnsgd1na2vs0mg"},{"bike_id":"17735294-3d7e-43b1-8a66-2885426421db","system_id":"levelo_inurba_marseille","lat":43.23147,"lon":5.43718,"is_reserved":false,"is_disabled":false,"rental_uris":{"android":"levelo://app?vid=17735294-3d7e-43b1-8a66-2885426421db","ios":"levelo://app?vid=17735294-3d7e-43b1-8a66-2885426421db"},"vehicle_type_id":"4","last_reported":1745492900,"current_range_meters":9600,"station_id":"ce4bhmp2rcd13ifvqgog","pricing_plan_id":"cebpf4jnsgd1na2vs0mg"},{"bike_id":"c3ed3ffd-2a8b-418f-bc98-69f53e5ab4b8","system_id":"levelo_inurba_marseille","lat":43.29535,"lon":5.37501,"is_reserved":false,"is_disabled":false,"rental_uris":{"android":"levelo://app?vid=c3ed3ffd-2a8b-418f-bc98-69f53e5ab4b8","ios":"levelo://app?vid=c3ed3ffd-2a8b-418f-bc98-69f53e5ab4b8"},"vehicle_type_id":"4","last_reported":1745492900,"current_range_meters":9200,"station_id":"ce4bgkp2rcd13ifvqbmg","pricing_plan_id":"cebpf4jnsgd1na2vs0mg"},{"bike_id":"6fb60d4b-23b1-4b59-8b3e-4567bb90dacc","system_id":"levelo_inurba_marseille","lat":43.29018,"lon":5.35618,"is_reserved":false,"is_disabled":false,"rental_uris":{"android":"levelo://app?vid=6fb60d4b-23b1-4b59-8b3e-4567bb90dacc","ios":"levelo://app?vid=6fb60d4b-23b1-4b59-8b3e-4567bb90dacc"},"vehicle_type_id":"4","last_reported":1745492900,"current_range_meters":9600,"station_id":"ce4bhb92rcd13ifvqen0","pricing_plan_id":"cebpf4jnsgd1na2vs0mg"},{"bike_id":"8e06b416-2126-4dce-89a4-57b4a377f349","system_id":"levelo_inurba_marseille","lat":43.28357,"lon":5.38642,"is_reserved":false,"is_disabled":false,"rental_uris":{"android":"levelo://app?vid=8e06b416-2126-4dce-89a4-57b4a377f349","ios":"levelo://app?vid=8e06b416-2126-4dce-89a4-57b4a377f349"},"vehicle_type_id":"4","last_reported":1745492900,"current_range_meters":10000,"station_id":"ce4bh492rcd13ifvqdvg","pricing_plan_id":"cebpf4jnsgd1na2vs0mg"},{"bike_id":"7d454420-09c6-4629-89f1-5e97ae752af4","system_id":"levelo_inurba_marseille","lat":43.25586,"lon":5.38215,"is_reserved":false,"is_disabled":false,"rental_uris":{"android":"levelo://app?vid=7d454420-09c6-4629-89f1-5e97ae752af4","ios":"levelo://app?vid=7d454420-09c6-4629-89f1-5e97ae752af4"},"vehicle_type_id":"4","last_reported":1745492900,"current_range_meters":10000,"station_id":"ce4bhih2rcd13ifvqfs0","pricing_plan_id":"cebpf4jnsgd1na2vs0mg"},{"bike_id":"c21c7701-729f-4324-83c0-6d71a4059f41","system_id":"levelo_inurba_marseille","lat":43.2991,"lon":5.38151,"is_reserved":false,"is_disabled":false,"rental_uris":{"android":"levelo://app?vid=c21c7701-729f-4324-83c0-6d71a4059f41","ios":"levelo://app?vid=c21c7701-729f-4324-83c0-6d71a4059f41"},"vehicle_type_id":"4","last_reported":1745492900,"current_range_meters":10800,"station_id":"ce4bgj12rcd13ifvqbc0","pricing_plan_id":"cebpf4jnsgd1na2vs0mg"},{"bike_id":"da90965e-a1cb-4484-a7f7-6723f75444b3","system_id":"levelo_inurba_marseille","lat":43.2657,"lon":5.38999,"is_reserved":false,"is_disabled":false,"rental_uris":{"android":"levelo://app?vid=da90965e-a1cb-4484-a7f7-6723f75444b3","ios":"levelo://app?vid=da90965e-a1cb-4484-a7f7-6723f75444b3"},"vehicle_type_id":"4","last_reported":1745492900,"current_range_meters":10000,"station_id":"ce4bhe12rcd13ifvqf30","pricing_plan_id":"cebpf4jnsgd1na2vs0mg"},{"bike_id":"4dcd267b-070e-4cd3-8721-e9763d041a73","system_id":"levelo_inurba_marseille","lat":43.29088,"lon":5.3812,"is_reserved":false,"is_disabled":false,"rental_uris":{"android":"levelo://app?vid=4dcd267b-070e-4cd3-8721-e9763d041a73","ios":"levelo://app?vid=4dcd267b-070e-4cd3-8721-e9763d041a73"},"vehicle_type_id":"4","last_reported":1745492900,"current_range_meters":10800,"station_id":"ce4bh512rcd13ifvqe2g","pricing_plan_id":"cebpf4jnsgd1na2vs0mg"},{"bike_id":"cfdd8077-c0c5-4cfe-95c5-2860b5b68b30","system_id":"levelo_inurba_marseille","lat":43.31118,"lon":5.37768,"is_reserved":false,"is_disabled":false,"rental_uris":{"android":"levelo://app?vid=cfdd8077-c0c5-4cfe-95c5-2860b5b68b30","ios":"levelo://app?vid=cfdd8077-c0c5-4cfe-95c5-2860b5b68b30"},"vehicle_type_id":"4","last_reported":1745492900,"current_range_meters":10800,"station_id":"ce4bgt92rcd13ifvqcg0","pricing_plan_id":"cebpf4jnsgd1na2vs0mg"},{"bike_id":"8f7534e8-f4ed-462b-91b1-fa265f94c87a","system_id":"levelo_inurba_marseille","lat":43.23965,"lon":5.36628,"is_reserved":false,"is_disabled":false,"rental_uris":{"android":"levelo://app?vid=8f7534e8-f4ed-462b-91b1-fa265f94c87a","ios":"levelo://app?vid=8f7534e8-f4ed-462b-91b1-fa265f94c87a"},"vehicle_type_id":"4","last_reported":1745492900,"current_range_meters":10800,"station_id":"ce4bhi12rcd13ifvqfp0","pricing_plan_id":"cebpf4jnsgd1na2vs0mg"},{"bike_id":"4e557f80-673d-492e-a5d1-c821da3f9619","system_id":"levelo_inurba_marseille","lat":43.28724,"lon":5.36092,"is_reserved":false,"is_disabled":false,"rental_uris":{"android":"levelo://app?vid=4e557f80-673d-492e-a5d1-c821da3f9619","ios":"levelo://app?vid=4e557f80-673d-492e-a5d1-c821da3f9619"},"vehicle_type_id":"4","last_reported":1745492900,"current_range_meters":10800,"station_id":"cki0cbj6b192h4jlfktg","pricing_plan_id":"cebpf4jnsgd1na2vs0mg"},{"bike_id":"e2052e96-253e-4f79-994f-489daaa782f3","system_id":"levelo_inurba_marseille","lat":43.27945,"lon":5.39541,"is_reserved":false,"is_disabled":false,"rental_uris":{"android":"levelo://app?vid=e2052e96-253e-4f79-994f-489daaa782f3","ios":"levelo://app?vid=e2052e96-253e-4f79-994f-489daaa782f3"},"vehicle_type_id":"4","last_reported":1745492900,"current_range_meters":10800,"station_id":"ce4bhf92rcd13ifvqf40","pricing_plan_id":"cebpf4jnsgd1na2vs0mg"},{"bike_id":"96cf37f8-73a7-4ad6-9c89-428bbe32ac5c","system_id":"levelo_inurba_marseille","lat":43.24054,"lon":5.37745,"is_reserved":false,"is_disabled":false,"rental_uris":{"android":"levelo://app?vid=96cf37f8-73a7-4ad6-9c89-428bbe32ac5c","ios":"levelo://app?vid=96cf37f8-73a7-4ad6-9c89-428bbe32ac5c"},"vehicle_type_id":"4","last_reported":1745492900,"current_range_meters":11200,"station_id":"ce4bhnp2rcd13ifvqgvg","pricing_plan_id":"cebpf4jnsgd1na2vs0mg"},{"bike_id":"7b5126c1-4c1a-4abd-b3fe-460e8d162986","system_id":"levelo_inurba_marseille","lat":43.3233,"lon":5.40621,"is_reserved":false,"is_disabled":false,"rental_uris":{"android":"levelo://app?vid=7b5126c1-4c1a-4abd-b3fe-460e8d162986","ios":"levelo://app?vid=7b5126c1-4c1a-4abd-b3fe-460e8d162986"},"vehicle_type_id":"4","last_reported":1745492900,"current_range_meters":11200,"station_id":"ce4bhq92rcd13ifvqhjg","pricing_plan_id":"cebpf4jnsgd1na2vs0mg"},{"bike_id":"ceda1596-ff5b-4f15-ae21-4a7b17ff8366","system_id":"levelo_inurba_marseille","lat":43.29258,"lon":5.40908,"is_reserved":false,"is_disabled":false,"rental_uris":{"android":"levelo://app?vid=ceda1596-ff5b-4f15-ae21-4a7b17ff8366","ios":"levelo://app?vid=ceda1596-ff5b-4f15-ae21-4a7b17ff8366"},"vehicle_type_id":"4","last_reported":1745492900,"current_range_meters":10800,"station_id":"ce4bh192rcd13ifvqdc0","pricing_plan_id":"cebpf4jnsgd1na2vs0mg"},{"bike_id":"b5ed5bb8-228c-4117-87e6-7b877e248eaf","system_id":"levelo_inurba_marseille","lat":43.26565,"lon":5.3901,"is_reserved":false,"is_disabled":false,"rental_uris":{"android":"levelo://app?vid=b5ed5bb8-228c-4117-87e6-7b877e248eaf","ios":"levelo://app?vid=b5ed5bb8-228c-4117-87e6-7b877e248eaf"},"vehicle_type_id":"4","last_reported":1745492900,"current_range_meters":11200,"station_id":"ce4bhe12rcd13ifvqf30","pricing_plan_id":"cebpf4jnsgd1na2vs0mg"},{"bike_id":"30e08c8c-a2b6-45d6-9704-9460af4f4d07","system_id":"levelo_inurba_marseille","lat":43.31078,"lon":5.42439,"is_reserved":false,"is_disabled":false,"rental_uris":{"android":"levelo://app?vid=30e08c8c-a2b6-45d6-9704-9460af4f4d07","ios":"levelo://app?vid=30e08c8c-a2b6-45d6-9704-9460af4f4d07"},"vehicle_type_id":"4","last_reported":1745492900,"current_range_meters":11200,"station_id":"ce4bhp92rcd13ifvqhag","pricing_plan_id":"cebpf4jnsgd1na2vs0mg"},{"bike_id":"2df47210-1b21-4386-b9d2-cb4d06627ce1","system_id":"levelo_inurba_marseille","lat":43.29264,"lon":5.40117,"is_reserved":false,"is_disabled":false,"rental_uris":{"android":"levelo://app?vid=2df47210-1b21-4386-b9d2-cb4d06627ce1","ios":"levelo://app?vid=2df47210-1b21-4386-b9d2-cb4d06627ce1"},"vehicle_type_id":"4","last_reported":1745492900,"current_range_meters":11600,"station_id":"ce4bh312rcd13ifvqdk0","pricing_plan_id":"cebpf4jnsgd1na2vs0mg"},{"bike_id":"11ce02ec-5de1-4d28-b35b-b9d2498a4135","system_id":"levelo_inurba_marseille","lat":43.23078,"lon":5.35489,"is_reserved":false,"is_disabled":false,"rental_uris":{"android":"levelo://app?vid=11ce02ec-5de1-4d28-b35b-b9d2498a4135","ios":"levelo://app?vid=11ce02ec-5de1-4d28-b35b-b9d2498a4135"},"vehicle_type_id":"4","last_reported":1745492900,"current_range_meters":11600,"station_id":"cpo3342slgdg3j2ifvpg","pricing_plan_id":"cebpf4jnsgd1na2vs0mg"},{"bike_id":"46374c49-3adc-4c5a-8966-e00f056c0d57","system_id":"levelo_inurba_marseille","lat":43.27846,"lon":5.35442,"is_reserved":false,"is_disabled":false,"rental_uris":{"android":"levelo://app?vid=46374c49-3adc-4c5a-8966-e00f056c0d57","ios":"levelo://app?vid=46374c49-3adc-4c5a-8966-e00f056c0d57"},"vehicle_type_id":"4","last_reported":1745492900,"current_range_meters":12000,"station_id":"","pricing_plan_id":"cebpf4jnsgd1na2vs0mg"},{"bike_id":"0a4aab9f-8a71-4fe1-9d7a-a1171198a2d7","system_id":"levelo_inurba_marseille","lat":43.23157,"lon":5.43724,"is_reserved":false,"is_disabled":false,"rental_uris":{"android":"levelo://app?vid=0a4aab9f-8a71-4fe1-9d7a-a1171198a2d7","ios":"levelo://app?vid=0a4aab9f-8a71-4fe1-9d7a-a1171198a2d7"},"vehicle_type_id":"4","last_reported":1745492900,"current_range_meters":12000,"station_id":"ce4bhmp2rcd13ifvqgog","pricing_plan_id":"cebpf4jnsgd1na2vs0mg"},{"bike_id":"43c687c5-eaf8-44de-8e6c-3ba08a1d5898","system_id":"levelo_inurba_marseille","lat":43.305432,"lon":5.367285,"is_reserved":false,"is_disabled":false,"rental_uris":{"android":"levelo://app?vid=43c687c5-eaf8-44de-8e6c-3ba08a1d5898","ios":"levelo://app?vid=43c687c5-eaf8-44de-8e6c-3ba08a1d5898"},"vehicle_type_id":"4","last_reported":1745492900,"current_range_meters":16800,"station_id":"ce4bgrp2rcd13ifvqc9g","pricing_plan_id":"cebpf4jnsgd1na2vs0mg"},{"bike_id":"df11b469-c9ef-41ef-a3ff-e21b4cfee7c7","system_id":"levelo_inurba_marseille","lat":43.32358,"lon":5.36759,"is_reserved":false,"is_disabled":false,"rental_uris":{"android":"levelo://app?vid=df11b469-c9ef-41ef-a3ff-e21b4cfee7c7","ios":"levelo://app?vid=df11b469-c9ef-41ef-a3ff-e21b4cfee7c7"},"vehicle_type_id":"4","last_reported":1745492900,"current_range_meters":12400,"station_id":"ce4bhsh2rcd13ifvqi2g","pricing_plan_id":"cebpf4jnsgd1na2vs0mg"},{"bike_id":"d0df66a1-af00-4c34-895c-2a1cf7d20f97","system_id":"levelo_inurba_marseille","lat":43.2175,"lon":5.34599,"is_reserved":false,"is_disabled":false,"rental_uris":{"android":"levelo://app?vid=d0df66a1-af00-4c34-895c-2a1cf7d20f97","ios":"levelo://app?vid=d0df66a1-af00-4c34-895c-2a1cf7d20f97"},"vehicle_type_id":"4","last_reported":1745492900,"current_range_meters":12400,"station_id":"","pricing_plan_id":"cebpf4jnsgd1na2vs0mg"},{"bike_id":"c3f9a15c-dc2a-4d68-8f61-9f9f616c55b6","system_id":"levelo_inurba_marseille","lat":43.24809,"lon":5.37459,"is_reserved":false,"is_disabled":false,"rental_uris":{"android":"levelo://app?vid=c3f9a15c-dc2a-4d68-8f61-9f9f616c55b6","ios":"levelo://app?vid=c3f9a15c-dc2a-4d68-8f61-9f9f616c55b6"},"vehicle_type_id":"4","last_reported":1745492900,"current_range_meters":12000,"station_id":"ce4bhgh2rcd13ifvqfb0","pricing_plan_id":"cebpf4jnsgd1na2vs0mg"},{"bike_id":"9ab7bf5e-724a-45c5-a946-61afe36b1204","system_id":"levelo_inurba_marseille","lat":43.30321,"lon":5.40435,"is_reserved":false,"is_disabled":true,"rental_uris":{"android":"levelo://app?vid=9ab7bf5e-724a-45c5-a946-61afe36b1204","ios":"levelo://app?vid=9ab7bf5e-724a-45c5-a946-61afe36b1204"},"vehicle_type_id":"4","last_reported":1745492900,"current_range_meters":12800,"station_id":"ce4bh012rcd13ifvqd10","pricing_plan_id":"cebpf4jnsgd1na2vs0mg"},{"bike_id":"758a3d12-066c-4cef-b22c-0460d41b2afa","system_id":"levelo_inurba_marseille","lat":43.24088,"lon":5.37753,"is_reserved":false,"is_disabled":false,"rental_uris":{"android":"levelo://app?vid=758a3d12-066c-4cef-b22c-0460d41b2afa","ios":"levelo://app?vid=758a3d12-066c-4cef-b22c-0460d41b2afa"},"vehicle_type_id":"4","last_reported":1745492900,"current_range_meters":12800,"station_id":"ce4bhnp2rcd13ifvqgvg","pricing_plan_id":"cebpf4jnsgd1na2vs0mg"},{"bike_id":"240fde41-872a-4235-bec3-41bca358755d","system_id":"levelo_inurba_marseille","lat":43.287,"lon":5.3999,"is_reserved":false,"is_disabled":false,"rental_uris":{"android":"levelo://app?vid=240fde41-872a-4235-bec3-41bca358755d","ios":"levelo://app?vid=240fde41-872a-4235-bec3-41bca358755d"},"vehicle_type_id":"4","last_reported":1745492900,"current_range_meters":12400,"station_id":"ce4bho92rcd13ifvqh3g","pricing_plan_id":"cebpf4jnsgd1na2vs0mg"},{"bike_id":"7f654538-8166-4a99-8138-0df949e14937","system_id":"levelo_inurba_marseille","lat":43.23149,"lon":5.43717,"is_reserved":false,"is_disabled":false,"rental_uris":{"android":"levelo://app?vid=7f654538-8166-4a99-8138-0df949e14937","ios":"levelo://app?vid=7f654538-8166-4a99-8138-0df949e14937"},"vehicle_type_id":"4","last_reported":1745492900,"current_range_meters":13600,"station_id":"ce4bhmp2rcd13ifvqgog","pricing_plan_id":"cebpf4jnsgd1na2vs0mg"},{"bike_id":"07e76e1b-94da-470a-9635-2ed54e6aeeb8","system_id":"levelo_inurba_marseille","lat":43.28853,"lon":5.39311,"is_reserved":false,"is_disabled":false,"rental_uris":{"android":"levelo://app?vid=07e76e1b-94da-470a-9635-2ed54e6aeeb8","ios":"levelo://app?vid=07e76e1b-94da-470a-9635-2ed54e6aeeb8"},"vehicle_type_id":"4","last_reported":1745492900,"current_range_meters":13600,"station_id":"ce4bh2p2rcd13ifvqdi0","pricing_plan_id":"cebpf4jnsgd1na2vs0mg"},{"bike_id":"1b618b30-b14f-4033-bd0a-c50d2a31af75","system_id":"levelo_inurba_marseille","lat":43.25505,"lon":5.37649,"is_reserved":false,"is_disabled":false,"rental_uris":{"android":"levelo://app?vid=1b618b30-b14f-4033-bd0a-c50d2a31af75","ios":"levelo://app?vid=1b618b30-b14f-4033-bd0a-c50d2a31af75"},"vehicle_type_id":"4","last_reported":1745492900,"current_range_meters":13600,"station_id":"ce4bhh12rcd13ifvqff0","pricing_plan_id":"cebpf4jnsgd1na2vs0mg"},{"bike_id":"562a33c6-9ad1-4df0-952d-0a182e8361ae","system_id":"levelo_inurba_marseille","lat":43.29785,"lon":5.37119,"is_reserved":false,"is_disabled":false,"rental_uris":{"android":"levelo://app?vid=562a33c6-9ad1-4df0-952d-0a182e8361ae","ios":"levelo://app?vid=562a33c6-9ad1-4df0-952d-0a182e8361ae"},"vehicle_type_id":"4","last_reported":1745492900,"current_range_meters":14000,"station_id":"ce4bgop2rcd13ifvqc1g","pricing_plan_id":"cebpf4jnsgd1na2vs0mg"},{"bike_id":"5d598f50-0289-4d7e-b163-7f0386e0682b","system_id":"levelo_inurba_marseille","lat":43.23153,"lon":5.43708,"is_reserved":false,"is_disabled":false,"rental_uris":{"android":"levelo://app?vid=5d598f50-0289-4d7e-b163-7f0386e0682b","ios":"levelo://app?vid=5d598f50-0289-4d7e-b163-7f0386e0682b"},"vehicle_type_id":"4","last_reported":1745492900,"current_range_meters":14000,"station_id":"ce4bhmp2rcd13ifvqgog","pricing_plan_id":"cebpf4jnsgd1na2vs0mg"},{"bike_id":"2c93193c-8509-4c68-b607-c63e2bb57217","system_id":"levelo_inurba_marseille","lat":43.29271,"lon":5.38441,"is_reserved":false,"is_disabled":false,"rental_uris":{"android":"levelo://app?vid=2c93193c-8509-4c68-b607-c63e2bb57217","ios":"levelo://app?vid=2c93193c-8509-4c68-b607-c63e2bb57217"},"vehicle_type_id":"4","last_reported":1745492900,"current_range_meters":14000,"station_id":"ce4bh692rcd13ifvqea0","pricing_plan_id":"cebpf4jnsgd1na2vs0mg"},{"bike_id":"6a12e3c8-9423-4362-855b-2f638963feb0","system_id":"levelo_inurba_marseille","lat":43.299654,"lon":5.384981,"is_reserved":false,"is_disabled":false,"rental_uris":{"android":"levelo://app?vid=6a12e3c8-9423-4362-855b-2f638963feb0","ios":"levelo://app?vid=6a12e3c8-9423-4362-855b-2f638963feb0"},"vehicle_type_id":"4","last_reported":1745492900,"current_range_meters":14000,"station_id":"ce4bh492rcd13ifvqdvg","pricing_plan_id":"cebpf4jnsgd1na2vs0mg"},{"bike_id":"11823a51-ce6a-4329-86c9-73570c28fb5e","system_id":"levelo_inurba_marseille","lat":43.29604,"lon":5.37516,"is_reserved":false,"is_disabled":false,"rental_uris":{"android":"levelo://app?vid=11823a51-ce6a-4329-86c9-73570c28fb5e","ios":"levelo://app?vid=11823a51-ce6a-4329-86c9-73570c28fb5e"},"vehicle_type_id":"4","last_reported":1745492900,"current_range_meters":14000,"station_id":"ce4bgh92rcd13ifvqb50","pricing_plan_id":"cebpf4jnsgd1na2vs0mg"},{"bike_id":"6f92f117-db41-48e4-8e04-0cb28a1484e0","system_id":"levelo_inurba_marseille","lat":43.30567,"lon":5.36711,"is_reserved":false,"is_disabled":false,"rental_uris":{"android":"levelo://app?vid=6f92f117-db41-48e4-8e04-0cb28a1484e0","ios":"levelo://app?vid=6f92f117-db41-48e4-8e04-0cb28a1484e0"},"vehicle_type_id":"4","last_reported":1745492900,"current_range_meters":14400,"station_id":"ce4bgrp2rcd13ifvqc9g","pricing_plan_id":"cebpf4jnsgd1na2vs0mg"},{"bike_id":"69fd75ab-d8e2-4305-bf74-02c0e18abb08","system_id":"levelo_inurba_marseille","lat":43.27566,"lon":5.3842,"is_reserved":false,"is_disabled":false,"rental_uris":{"android":"levelo://app?vid=69fd75ab-d8e2-4305-bf74-02c0e18abb08","ios":"levelo://app?vid=69fd75ab-d8e2-4305-bf74-02c0e18abb08"},"vehicle_type_id":"4","last_reported":1745492900,"current_range_meters":14400,"station_id":"ce4bhh92rcd13ifvqfi0","pricing_plan_id":"cebpf4jnsgd1na2vs0mg"},{"bike_id":"064cedb9-c127-4838-a435-04881e5498a9","system_id":"levelo_inurba_marseille","lat":43.29975,"lon":5.41313,"is_reserved":false,"is_disabled":false,"rental_uris":{"android":"levelo://app?vid=064cedb9-c127-4838-a435-04881e5498a9","ios":"levelo://app?vid=064cedb9-c127-4838-a435-04881e5498a9"},"vehicle_type_id":"4","last_reported":1745492900,"current_range_meters":14400,"station_id":"ce4bhp12rcd13ifvqh9g","pricing_plan_id":"cebpf4jnsgd1na2vs0mg"},{"bike_id":"382baf77-1a90-4a91-807e-68d00c31fc76","system_id":"levelo_inurba_marseille","lat":43.29852,"lon":5.36274,"is_reserved":false,"is_disabled":false,"rental_uris":{"android":"levelo://app?vid=382baf77-1a90-4a91-807e-68d00c31fc76","ios":"levelo://app?vid=382baf77-1a90-4a91-807e-68d00c31fc76"},"vehicle_type_id":"4","last_reported":1745492900,"current_range_meters":14800,"station_id":"ce4bgpp2rcd13ifvqc3g","pricing_plan_id":"cebpf4jnsgd1na2vs0mg"},{"bike_id":"fa8a552a-d2d3-4e8d-8d8e-02bdba037836","system_id":"levelo_inurba_marseille","lat":43.23076,"lon":5.35498,"is_reserved":false,"is_disabled":false,"rental_uris":{"android":"levelo://app?vid=fa8a552a-d2d3-4e8d-8d8e-02bdba037836","ios":"levelo://app?vid=fa8a552a-d2d3-4e8d-8d8e-02bdba037836"},"vehicle_type_id":"4","last_reported":1745492900,"current_range_meters":14800,"station_id":"cpo3342slgdg3j2ifvpg","pricing_plan_id":"cebpf4jnsgd1na2vs0mg"},{"bike_id":"1f874275-f448-4884-888a-75d5d2f528b6","system_id":"levelo_inurba_marseille","lat":43.309292,"lon":5.401408,"is_reserved":false,"is_disabled":false,"rental_uris":{"android":"levelo://app?vid=1f874275-f448-4884-888a-75d5d2f528b6","ios":"levelo://app?vid=1f874275-f448-4884-888a-75d5d2f528b6"},"vehicle_type_id":"4","last_reported":1745492900,"current_range_meters":15200,"station_id":"ce4bgvp2rcd13ifvqct0","pricing_plan_id":"cebpf4jnsgd1na2vs0mg"},{"bike_id":"09b01845-6a6c-47d1-a012-9a99cb48ea07","system_id":"levelo_inurba_marseille","lat":43.258443,"lon":5.39418,"is_reserved":false,"is_disabled":false,"rental_uris":{"android":"levelo://app?vid=09b01845-6a6c-47d1-a012-9a99cb48ea07","ios":"levelo://app?vid=09b01845-6a6c-47d1-a012-9a99cb48ea07"},"vehicle_type_id":"4","last_reported":1745492900,"current_range_meters":15200,"station_id":"ce4bhip2rcd13ifvqft0","pricing_plan_id":"cebpf4jnsgd1na2vs0mg"},{"bike_id":"9e3ec1b8-90aa-41f8-b4cf-95d8498727ff","system_id":"levelo_inurba_marseille","lat":43.29862,"lon":5.36278,"is_reserved":false,"is_disabled":false,"rental_uris":{"android":"levelo://app?vid=9e3ec1b8-90aa-41f8-b4cf-95d8498727ff","ios":"levelo://app?vid=9e3ec1b8-90aa-41f8-b4cf-95d8498727ff"},"vehicle_type_id":"4","last_reported":1745492900,"current_range_meters":16000,"station_id":"ce4bgpp2rcd13ifvqc3g","pricing_plan_id":"cebpf4jnsgd1na2vs0mg"},{"bike_id":"19ab6ed5-c83e-4b77-85ba-1126ea25f474","system_id":"levelo_inurba_marseille","lat":43.33647,"lon":5.40981,"is_reserved":false,"is_disabled":false,"rental_uris":{"android":"levelo://app?vid=19ab6ed5-c83e-4b77-85ba-1126ea25f474","ios":"levelo://app?vid=19ab6ed5-c83e-4b77-85ba-1126ea25f474"},"vehicle_type_id":"4","last_reported":1745492900,"current_range_meters":16000,"station_id":"","pricing_plan_id":"cebpf4jnsgd1na2vs0mg"},{"bike_id":"63c1e8b7-e07a-4e12-9884-50afc3dbd62e","system_id":"levelo_inurba_marseille","lat":43.21195,"lon":5.35069,"is_reserved":false,"is_disabled":false,"rental_uris":{"android":"levelo://app?vid=63c1e8b7-e07a-4e12-9884-50afc3dbd62e","ios":"levelo://app?vid=63c1e8b7-e07a-4e12-9884-50afc3dbd62e"},"vehicle_type_id":"4","last_reported":1745492900,"current_range_meters":16000,"station_id":"st_cvj6sg6p6f1abm77japg","pricing_plan_id":"cebpf4jnsgd1na2vs0mg"},{"bike_id":"2363c920-de54-4a63-be5f-c116e587f1c1","system_id":"levelo_inurba_marseille","lat":43.29797,"lon":5.39355,"is_reserved":false,"is_disabled":false,"rental_uris":{"android":"levelo://app?vid=2363c920-de54-4a63-be5f-c116e587f1c1","ios":"levelo://app?vid=2363c920-de54-4a63-be5f-c116e587f1c1"},"vehicle_type_id":"4","last_reported":1745492900,"current_range_meters":16000,"station_id":"chh1huq6cuj3fo74tm60","pricing_plan_id":"cebpf4jnsgd1na2vs0mg"},{"bike_id":"3ac7a256-bc93-444a-b034-fb7fdc853f81","system_id":"levelo_inurba_marseille","lat":43.26242,"lon":5.40445,"is_reserved":false,"is_disabled":false,"rental_uris":{"android":"levelo://app?vid=3ac7a256-bc93-444a-b034-fb7fdc853f81","ios":"levelo://app?vid=3ac7a256-bc93-444a-b034-fb7fdc853f81"},"vehicle_type_id":"4","last_reported":1745492900,"current_range_meters":16000,"station_id":"ce4bhmh2rcd13ifvqgmg","pricing_plan_id":"cebpf4jnsgd1na2vs0mg"},{"bike_id":"cc39e7b2-a0a9-4aa2-b00a-dec7442908f9","system_id":"levelo_inurba_marseille","lat":43.30928,"lon":5.40139,"is_reserved":false,"is_disabled":false,"rental_uris":{"android":"levelo://app?vid=cc39e7b2-a0a9-4aa2-b00a-dec7442908f9","ios":"levelo://app?vid=cc39e7b2-a0a9-4aa2-b00a-dec7442908f9"},"vehicle_type_id":"4","last_reported":1745492900,"current_range_meters":16000,"station_id":"ce4bgvp2rcd13ifvqct0","pricing_plan_id":"cebpf4jnsgd1na2vs0mg"},{"bike_id":"c161ea90-62f7-4a77-8cc1-8392a59fb20f","system_id":"levelo_inurba_marseille","lat":43.25583,"lon":5.38227,"is_reserved":false,"is_disabled":false,"rental_uris":{"android":"levelo://app?vid=c161ea90-62f7-4a77-8cc1-8392a59fb20f","ios":"levelo://app?vid=c161ea90-62f7-4a77-8cc1-8392a59fb20f"},"vehicle_type_id":"4","last_reported":1745492900,"current_range_meters":16400,"station_id":"ce4bhih2rcd13ifvqfs0","pricing_plan_id":"cebpf4jnsgd1na2vs0mg"},{"bike_id":"5a6bc7f1-6093-4da2-acbf-d4c750efb49d","system_id":"levelo_inurba_marseille","lat":43.23168,"lon":5.43728,"is_reserved":false,"is_disabled":false,"rental_uris":{"android":"levelo://app?vid=5a6bc7f1-6093-4da2-acbf-d4c750efb49d","ios":"levelo://app?vid=5a6bc7f1-6093-4da2-acbf-d4c750efb49d"},"vehicle_type_id":"4","last_reported":1745492900,"current_range_meters":16400,"station_id":"ce4bhmp2rcd13ifvqgog","pricing_plan_id":"cebpf4jnsgd1na2vs0mg"},{"bike_id":"ab660249-0742-4ee6-9f3c-cbf7eabd0145","system_id":"levelo_inurba_marseille","lat":43.28615,"lon":5.37068,"is_reserved":false,"is_disabled":false,"rental_uris":{"android":"levelo://app?vid=ab660249-0742-4ee6-9f3c-cbf7eabd0145","ios":"levelo://app?vid=ab660249-0742-4ee6-9f3c-cbf7eabd0145"},"vehicle_type_id":"4","last_reported":1745492900,"current_range_meters":16400,"station_id":"ce4bht12rcd13ifvqi60","pricing_plan_id":"cebpf4jnsgd1na2vs0mg"},{"bike_id":"4e259911-67c1-4742-976c-ddc411ce90fd","system_id":"levelo_inurba_marseille","lat":43.24091,"lon":5.37744,"is_reserved":false,"is_disabled":false,"rental_uris":{"android":"levelo://app?vid=4e259911-67c1-4742-976c-ddc411ce90fd","ios":"levelo://app?vid=4e259911-67c1-4742-976c-ddc411ce90fd"},"vehicle_type_id":"4","last_reported":1745492900,"current_range_meters":16400,"station_id":"ce4bhnp2rcd13ifvqgvg","pricing_plan_id":"cebpf4jnsgd1na2vs0mg"},{"bike_id":"d802d433-91f5-46da-9a5b-42a725289286","system_id":"levelo_inurba_marseille","lat":43.3091,"lon":5.3686,"is_reserved":false,"is_disabled":false,"rental_uris":{"android":"levelo://app?vid=d802d433-91f5-46da-9a5b-42a725289286","ios":"levelo://app?vid=d802d433-91f5-46da-9a5b-42a725289286"},"vehicle_type_id":"4","last_reported":1745492900,"current_range_meters":16400,"station_id":"ce4bgn92rcd13ifvqbvg","pricing_plan_id":"cebpf4jnsgd1na2vs0mg"},{"bike_id":"db201d1a-c647-4b1b-98d9-342a583fbb0d","system_id":"levelo_inurba_marseille","lat":43.33716,"lon":5.39184,"is_reserved":false,"is_disabled":false,"rental_uris":{"android":"levelo://app?vid=db201d1a-c647-4b1b-98d9-342a583fbb0d","ios":"levelo://app?vid=db201d1a-c647-4b1b-98d9-342a583fbb0d"},"vehicle_type_id":"4","last_reported":1745492900,"current_range_meters":16400,"station_id":"ce4bhr92rcd13ifvqhsg","pricing_plan_id":"cebpf4jnsgd1na2vs0mg"},{"bike_id":"2e5658ae-1948-4948-9a1f-af59779a6302","system_id":"levelo_inurba_marseille","lat":43.304578,"lon":5.393568,"is_reserved":false,"is_disabled":false,"rental_uris":{"android":"levelo://app?vid=2e5658ae-1948-4948-9a1f-af59779a6302","ios":"levelo://app?vid=2e5658ae-1948-4948-9a1f-af59779a6302"},"vehicle_type_id":"4","last_reported":1745492900,"current_range_meters":16400,"station_id":"ce4bh0p2rcd13ifvqd80","pricing_plan_id":"cebpf4jnsgd1na2vs0mg"},{"bike_id":"24b73f15-64c7-4dab-92dc-bdd6860069bf","system_id":"levelo_inurba_marseille","lat":43.31075,"lon":5.38357,"is_reserved":false,"is_disabled":false,"rental_uris":{"android":"levelo://app?vid=24b73f15-64c7-4dab-92dc-bdd6860069bf","ios":"levelo://app?vid=24b73f15-64c7-4dab-92dc-bdd6860069bf"},"vehicle_type_id":"4","last_reported":1745492900,"current_range_meters":16400,"station_id":"ce4bgv92rcd13ifvqcr0","pricing_plan_id":"cebpf4jnsgd1na2vs0mg"},{"bike_id":"cd906bce-52be-45be-8f08-cdeb623de131","system_id":"levelo_inurba_marseille","lat":43.28217,"lon":5.40365,"is_reserved":false,"is_disabled":false,"rental_uris":{"android":"levelo://app?vid=cd906bce-52be-45be-8f08-cdeb623de131","ios":"levelo://app?vid=cd906bce-52be-45be-8f08-cdeb623de131"},"vehicle_type_id":"4","last_reported":1745492900,"current_range_meters":16800,"station_id":"","pricing_plan_id":"cebpf4jnsgd1na2vs0mg"},{"bike_id":"b538d5a5-3782-498e-a8d1-10fd446b9281","system_id":"levelo_inurba_marseille","lat":43.305355,"lon":5.367264,"is_reserved":false,"is_disabled":false,"rental_uris":{"android":"levelo://app?vid=b538d5a5-3782-498e-a8d1-10fd446b9281","ios":"levelo://app?vid=b538d5a5-3782-498e-a8d1-10fd446b9281"},"vehicle_type_id":"4","last_reported":1745492900,"current_range_meters":16800,"station_id":"ce4bgi12rcd13ifvqb70","pricing_plan_id":"cebpf4jnsgd1na2vs0mg"},{"bike_id":"3003173e-d5b4-46a0-a517-c64db09eb2a6","system_id":"levelo_inurba_marseille","lat":43.28268,"lon":5.35058,"is_reserved":false,"is_disabled":false,"rental_uris":{"android":"levelo://app?vid=3003173e-d5b4-46a0-a517-c64db09eb2a6","ios":"levelo://app?vid=3003173e-d5b4-46a0-a517-c64db09eb2a6"},"vehicle_type_id":"4","last_reported":1745492900,"current_range_meters":16800,"station_id":"ce4bhbp2rcd13ifvqerg","pricing_plan_id":"cebpf4jnsgd1na2vs0mg"},{"bike_id":"d7eaf6e7-e4f9-48ea-b04b-e6807d8c2055","system_id":"levelo_inurba_marseille","lat":43.28385,"lon":5.3866,"is_reserved":false,"is_disabled":false,"rental_uris":{"android":"levelo://app?vid=d7eaf6e7-e4f9-48ea-b04b-e6807d8c2055","ios":"levelo://app?vid=d7eaf6e7-e4f9-48ea-b04b-e6807d8c2055"},"vehicle_type_id":"4","last_reported":1745492900,"current_range_meters":16400,"station_id":"ce4bh492rcd13ifvqdvg","pricing_plan_id":"cebpf4jnsgd1na2vs0mg"},{"bike_id":"3ad4b414-0f32-4b53-9460-3870e587f3b0","system_id":"levelo_inurba_marseille","lat":43.2407,"lon":5.37734,"is_reserved":false,"is_disabled":false,"rental_uris":{"android":"levelo://app?vid=3ad4b414-0f32-4b53-9460-3870e587f3b0","ios":"levelo://app?vid=3ad4b414-0f32-4b53-9460-3870e587f3b0"},"vehicle_type_id":"4","last_reported":1745492900,"current_range_meters":16800,"station_id":"ce4bhnp2rcd13ifvqgvg","pricing_plan_id":"cebpf4jnsgd1na2vs0mg"},{"bike_id":"90de9e08-ed9a-4f84-a605-6303347df831","system_id":"levelo_inurba_marseille","lat":43.30306,"lon":5.39231,"is_reserved":false,"is_disabled":true,"rental_uris":{"android":"levelo://app?vid=90de9e08-ed9a-4f84-a605-6303347df831","ios":"levelo://app?vid=90de9e08-ed9a-4f84-a605-6303347df831"},"vehicle_type_id":"4","last_reported":1745492900,"current_range_meters":16800,"station_id":"ce4bgkh2rcd13ifvqbk0","pricing_plan_id":"cebpf4jnsgd1na2vs0mg"},{"bike_id":"d96d2199-64bb-456f-871c-6ddf8f29792e","system_id":"levelo_inurba_marseille","lat":43.25492,"lon":5.37648,"is_reserved":false,"is_disabled":false,"rental_uris":{"android":"levelo://app?vid=d96d2199-64bb-456f-871c-6ddf8f29792e","ios":"levelo://app?vid=d96d2199-64bb-456f-871c-6ddf8f29792e"},"vehicle_type_id":"4","last_reported":1745492900,"current_range_meters":16800,"station_id":"ce4bhh12rcd13ifvqff0","pricing_plan_id":"cebpf4jnsgd1na2vs0mg"},{"bike_id":"ad6876a6-33a2-4502-8d1a-45a1749dc578","system_id":"levelo_inurba_marseille","lat":43.2901,"lon":5.35622,"is_reserved":false,"is_disabled":false,"rental_uris":{"android":"levelo://app?vid=ad6876a6-33a2-4502-8d1a-45a1749dc578","ios":"levelo://app?vid=ad6876a6-33a2-4502-8d1a-45a1749dc578"},"vehicle_type_id":"4","last_reported":1745492900,"current_range_meters":17200,"station_id":"ce4bhb92rcd13ifvqen0","pricing_plan_id":"cebpf4jnsgd1na2vs0mg"},{"bike_id":"97f00e91-4a81-4998-8f3d-60d5de3cea7c","system_id":"levelo_inurba_marseille","lat":43.3052,"lon":5.36702,"is_reserved":false,"is_disabled":false,"rental_uris":{"android":"levelo://app?vid=97f00e91-4a81-4998-8f3d-60d5de3cea7c","ios":"levelo://app?vid=97f00e91-4a81-4998-8f3d-60d5de3cea7c"},"vehicle_type_id":"4","last_reported":1745492900,"current_range_meters":17200,"station_id":"ce4bgrp2rcd13ifvqc9g","pricing_plan_id":"cebpf4jnsgd1na2vs0mg"},{"bike_id":"f490c58e-6b44-4708-bbd5-e498310200e2","system_id":"levelo_inurba_marseille","lat":43.29784,"lon":5.39355,"is_reserved":false,"is_disabled":false,"rental_uris":{"android":"levelo://app?vid=f490c58e-6b44-4708-bbd5-e498310200e2","ios":"levelo://app?vid=f490c58e-6b44-4708-bbd5-e498310200e2"},"vehicle_type_id":"4","last_reported":1745492900,"current_range_meters":17200,"station_id":"chh1huq6cuj3fo74tm60","pricing_plan_id":"cebpf4jnsgd1na2vs0mg"},{"bike_id":"93d21b10-bcb5-4e41-9ab1-684b8ef44b08","system_id":"levelo_inurba_marseille","lat":43.28345,"lon":5.38102,"is_reserved":false,"is_disabled":false,"rental_uris":{"android":"levelo://app?vid=93d21b10-bcb5-4e41-9ab1-684b8ef44b08","ios":"levelo://app?vid=93d21b10-bcb5-4e41-9ab1-684b8ef44b08"},"vehicle_type_id":"4","last_reported":1745492900,"current_range_meters":17200,"station_id":"ce4bh412rcd13ifvqdr0","pricing_plan_id":"cebpf4jnsgd1na2vs0mg"},{"bike_id":"9473a7e5-675f-4a4b-8c17-4cf3d6ab370e","system_id":"levelo_inurba_marseille","lat":43.32046,"lon":5.41561,"is_reserved":false,"is_disabled":false,"rental_uris":{"android":"levelo://app?vid=9473a7e5-675f-4a4b-8c17-4cf3d6ab370e","ios":"levelo://app?vid=9473a7e5-675f-4a4b-8c17-4cf3d6ab370e"},"vehicle_type_id":"4","last_reported":1745492900,"current_range_meters":17600,"station_id":"ce4bhq92rcd13ifvqhkg","pricing_plan_id":"cebpf4jnsgd1na2vs0mg"},{"bike_id":"4ad44271-4ca7-4dac-b8d2-6bb546d4598b","system_id":"levelo_inurba_marseille","lat":43.30987,"lon":5.39014,"is_reserved":false,"is_disabled":false,"rental_uris":{"android":"levelo://app?vid=4ad44271-4ca7-4dac-b8d2-6bb546d4598b","ios":"levelo://app?vid=4ad44271-4ca7-4dac-b8d2-6bb546d4598b"},"vehicle_type_id":"4","last_reported":1745492900,"current_range_meters":17600,"station_id":"ce4bgup2rcd13ifvqco0","pricing_plan_id":"cebpf4jnsgd1na2vs0mg"},{"bike_id":"575492cd-2a5f-4951-ba1f-918f50975e7c","system_id":"levelo_inurba_marseille","lat":43.29531,"lon":5.39404,"is_reserved":false,"is_disabled":false,"rental_uris":{"android":"levelo://app?vid=575492cd-2a5f-4951-ba1f-918f50975e7c","ios":"levelo://app?vid=575492cd-2a5f-4951-ba1f-918f50975e7c"},"vehicle_type_id":"4","last_reported":1745492900,"current_range_meters":17200,"station_id":"ce4bh292rcd13ifvqdf0","pricing_plan_id":"cebpf4jnsgd1na2vs0mg"},{"bike_id":"bc63909a-77c2-42a8-8d80-ac0b3db136ff","system_id":"levelo_inurba_marseille","lat":43.30953,"lon":5.39017,"is_reserved":false,"is_disabled":false,"rental_uris":{"android":"levelo://app?vid=bc63909a-77c2-42a8-8d80-ac0b3db136ff","ios":"levelo://app?vid=bc63909a-77c2-42a8-8d80-ac0b3db136ff"},"vehicle_type_id":"4","last_reported":1745492900,"current_range_meters":17600,"station_id":"","pricing_plan_id":"cebpf4jnsgd1na2vs0mg"},{"bike_id":"83dc579a-5274-4d25-93e5-b2704e69e056","system_id":"levelo_inurba_marseille","lat":43.24063,"lon":5.37751,"is_reserved":false,"is_disabled":false,"rental_uris":{"android":"levelo://app?vid=83dc579a-5274-4d25-93e5-b2704e69e056","ios":"levelo://app?vid=83dc579a-5274-4d25-93e5-b2704e69e056"},"vehicle_type_id":"4","last_reported":1745492900,"current_range_meters":17600,"station_id":"ce4bhnp2rcd13ifvqgvg","pricing_plan_id":"cebpf4jnsgd1na2vs0mg"},{"bike_id":"30da752e-5450-4da3-965e-773778ce5d7d","system_id":"levelo_inurba_marseille","lat":43.24158,"lon":5.36402,"is_reserved":false,"is_disabled":false,"rental_uris":{"android":"levelo://app?vid=30da752e-5450-4da3-965e-773778ce5d7d","ios":"levelo://app?vid=30da752e-5450-4da3-965e-773778ce5d7d"},"vehicle_type_id":"4","last_reported":1745492900,"current_range_meters":17600,"station_id":"cpo36qri1sfpv3e86is0","pricing_plan_id":"cebpf4jnsgd1na2vs0mg"},{"bike_id":"b4856cec-6ab2-4e81-a52f-7e92f4bc21b5","system_id":"levelo_inurba_marseille","lat":43.29541,"lon":5.391394,"is_reserved":false,"is_disabled":false,"rental_uris":{"android":"levelo://app?vid=b4856cec-6ab2-4e81-a52f-7e92f4bc21b5","ios":"levelo://app?vid=b4856cec-6ab2-4e81-a52f-7e92f4bc21b5"},"vehicle_type_id":"4","last_reported":1745492900,"current_range_meters":17600,"station_id":"ce4bhq12rcd13ifvqhhg","pricing_plan_id":"cebpf4jnsgd1na2vs0mg"},{"bike_id":"5efb0c5c-88bc-4b99-8f7a-8b10625ea8f5","system_id":"levelo_inurba_marseille","lat":43.32486,"lon":5.36581,"is_reserved":false,"is_disabled":false,"rental_uris":{"android":"levelo://app?vid=5efb0c5c-88bc-4b99-8f7a-8b10625ea8f5","ios":"levelo://app?vid=5efb0c5c-88bc-4b99-8f7a-8b10625ea8f5"},"vehicle_type_id":"4","last_reported":1745492900,"current_range_meters":17600,"station_id":"ce4bhs12rcd13ifvqhvg","pricing_plan_id":"cebpf4jnsgd1na2vs0mg"},{"bike_id":"87d1bf70-010a-42dd-a281-691d56e41418","system_id":"levelo_inurba_marseille","lat":43.30097,"lon":5.39082,"is_reserved":false,"is_disabled":false,"rental_uris":{"android":"levelo://app?vid=87d1bf70-010a-42dd-a281-691d56e41418","ios":"levelo://app?vid=87d1bf70-010a-42dd-a281-691d56e41418"},"vehicle_type_id":"4","last_reported":1745492900,"current_range_meters":18000,"station_id":"ce4bh192rcd13ifvqdb0","pricing_plan_id":"cebpf4jnsgd1na2vs0mg"},{"bike_id":"d6a28369-c85e-4f77-8bbb-e08b0cdd02e6","system_id":"levelo_inurba_marseille","lat":43.30956,"lon":5.39065,"is_reserved":false,"is_disabled":false,"rental_uris":{"android":"levelo://app?vid=d6a28369-c85e-4f77-8bbb-e08b0cdd02e6","ios":"levelo://app?vid=d6a28369-c85e-4f77-8bbb-e08b0cdd02e6"},"vehicle_type_id":"4","last_reported":1745492900,"current_range_meters":18000,"station_id":"ce4bgup2rcd13ifvqco0","pricing_plan_id":"cebpf4jnsgd1na2vs0mg"},{"bike_id":"d8d5d748-9530-4976-a10b-37626a60d6ab","system_id":"levelo_inurba_marseille","lat":43.30933,"lon":5.40147,"is_reserved":false,"is_disabled":false,"rental_uris":{"android":"levelo://app?vid=d8d5d748-9530-4976-a10b-37626a60d6ab","ios":"levelo://app?vid=d8d5d748-9530-4976-a10b-37626a60d6ab"},"vehicle_type_id":"4","last_reported":1745492900,"current_range_meters":18000,"station_id":"ce4bgvp2rcd13ifvqct0","pricing_plan_id":"cebpf4jnsgd1na2vs0mg"},{"bike_id":"75c54774-60c3-4a5a-9d9a-e318535acfa8","system_id":"levelo_inurba_marseille","lat":43.28418,"lon":5.34968,"is_reserved":false,"is_disabled":false,"rental_uris":{"android":"levelo://app?vid=75c54774-60c3-4a5a-9d9a-e318535acfa8","ios":"levelo://app?vid=75c54774-60c3-4a5a-9d9a-e318535acfa8"},"vehicle_type_id":"4","last_reported":1745492900,"current_range_meters":18000,"station_id":"ce4bhbh2rcd13ifvqepg","pricing_plan_id":"cebpf4jnsgd1na2vs0mg"},{"bike_id":"7f50d5b9-69ff-4be1-bd69-5bb1bbb77056","system_id":"levelo_inurba_marseille","lat":43.304721,"lon":5.37926,"is_reserved":false,"is_disabled":false,"rental_uris":{"android":"levelo://app?vid=7f50d5b9-69ff-4be1-bd69-5bb1bbb77056","ios":"levelo://app?vid=7f50d5b9-69ff-4be1-bd69-5bb1bbb77056"},"vehicle_type_id":"4","last_reported":1745492900,"current_range_meters":18000,"station_id":"","pricing_plan_id":"cebpf4jnsgd1na2vs0mg"},{"bike_id":"a9b0bf85-2b72-4f2d-a9c8-ac2a36c557bd","system_id":"levelo_inurba_marseille","lat":43.28695,"lon":5.39975,"is_reserved":false,"is_disabled":false,"rental_uris":{"android":"levelo://app?vid=a9b0bf85-2b72-4f2d-a9c8-ac2a36c557bd","ios":"levelo://app?vid=a9b0bf85-2b72-4f2d-a9c8-ac2a36c557bd"},"vehicle_type_id":"4","last_reported":1745492900,"current_range_meters":18000,"station_id":"ce4bho92rcd13ifvqh3g","pricing_plan_id":"cebpf4jnsgd1na2vs0mg"},{"bike_id":"4b0ada37-3caa-4bc6-ba95-da3d07fb1c36","system_id":"levelo_inurba_marseille","lat":43.25924,"lon":5.40885,"is_reserved":false,"is_disabled":false,"rental_uris":{"android":"levelo://app?vid=4b0ada37-3caa-4bc6-ba95-da3d07fb1c36","ios":"levelo://app?vid=4b0ada37-3caa-4bc6-ba95-da3d07fb1c36"},"vehicle_type_id":"4","last_reported":1745492900,"current_range_meters":18800,"station_id":"ce4bhm92rcd13ifvqglg","pricing_plan_id":"cebpf4jnsgd1na2vs0mg"},{"bike_id":"e2dcabcf-64d8-4394-bb9a-ff877bee611a","system_id":"levelo_inurba_marseille","lat":43.32054,"lon":5.4153,"is_reserved":false,"is_disabled":false,"rental_uris":{"android":"levelo://app?vid=e2dcabcf-64d8-4394-bb9a-ff877bee611a","ios":"levelo://app?vid=e2dcabcf-64d8-4394-bb9a-ff877bee611a"},"vehicle_type_id":"4","last_reported":1745492900,"current_range_meters":18800,"station_id":"ce4bhq92rcd13ifvqhkg","pricing_plan_id":"cebpf4jnsgd1na2vs0mg"},{"bike_id":"dc488267-f8e6-497d-9fa0-cfb286474b9e","system_id":"levelo_inurba_marseille","lat":43.28153,"lon":5.42654,"is_reserved":false,"is_disabled":false,"rental_uris":{"android":"levelo://app?vid=dc488267-f8e6-497d-9fa0-cfb286474b9e","ios":"levelo://app?vid=dc488267-f8e6-497d-9fa0-cfb286474b9e"},"vehicle_type_id":"4","last_reported":1745492900,"current_range_meters":18800,"station_id":"ce4bhnh2rcd13ifvqgug","pricing_plan_id":"cebpf4jnsgd1na2vs0mg"},{"bike_id":"1fad0618-6d26-4697-9bee-ec5e0a80c437","system_id":"levelo_inurba_marseille","lat":43.31382,"lon":5.36691,"is_reserved":false,"is_disabled":false,"rental_uris":{"android":"levelo://app?vid=1fad0618-6d26-4697-9bee-ec5e0a80c437","ios":"levelo://app?vid=1fad0618-6d26-4697-9bee-ec5e0a80c437"},"vehicle_type_id":"4","last_reported":1745492900,"current_range_meters":18800,"station_id":"ce4bgr92rcd13ifvqc6g","pricing_plan_id":"cebpf4jnsgd1na2vs0mg"},{"bike_id":"d26691ad-eb04-46c6-ac7a-e471272f54e2","system_id":"levelo_inurba_marseille","lat":43.26226,"lon":5.40471,"is_reserved":false,"is_disabled":false,"rental_uris":{"android":"levelo://app?vid=d26691ad-eb04-46c6-ac7a-e471272f54e2","ios":"levelo://app?vid=d26691ad-eb04-46c6-ac7a-e471272f54e2"},"vehicle_type_id":"4","last_reported":1745492900,"current_range_meters":19200,"station_id":"ce4bhmh2rcd13ifvqgmg","pricing_plan_id":"cebpf4jnsgd1na2vs0mg"},{"bike_id":"f577c520-0907-4453-975b-4f68ddb3f606","system_id":"levelo_inurba_marseille","lat":43.28422,"lon":5.34997,"is_reserved":false,"is_disabled":false,"rental_uris":{"android":"levelo://app?vid=f577c520-0907-4453-975b-4f68ddb3f606","ios":"levelo://app?vid=f577c520-0907-4453-975b-4f68ddb3f606"},"vehicle_type_id":"4","last_reported":1745492900,"current_range_meters":19200,"station_id":"ce4bhbh2rcd13ifvqepg","pricing_plan_id":"cebpf4jnsgd1na2vs0mg"},{"bike_id":"15849669-eb0e-4ddf-9c01-b3b64a9ffcbe","system_id":"levelo_inurba_marseille","lat":43.25935,"lon":5.40904,"is_reserved":false,"is_disabled":false,"rental_uris":{"android":"levelo://app?vid=15849669-eb0e-4ddf-9c01-b3b64a9ffcbe","ios":"levelo://app?vid=15849669-eb0e-4ddf-9c01-b3b64a9ffcbe"},"vehicle_type_id":"4","last_reported":1745492900,"current_range_meters":19200,"station_id":"ce4bhm92rcd13ifvqglg","pricing_plan_id":"cebpf4jnsgd1na2vs0mg"},{"bike_id":"9f5989c7-906a-4bcd-a7f3-c6e82242d565","system_id":"levelo_inurba_marseille","lat":43.29007,"lon":5.35614,"is_reserved":false,"is_disabled":false,"rental_uris":{"android":"levelo://app?vid=9f5989c7-906a-4bcd-a7f3-c6e82242d565","ios":"levelo://app?vid=9f5989c7-906a-4bcd-a7f3-c6e82242d565"},"vehicle_type_id":"4","last_reported":1745492900,"current_range_meters":19200,"station_id":"ce4bhb92rcd13ifvqen0","pricing_plan_id":"cebpf4jnsgd1na2vs0mg"},{"bike_id":"d517b521-37c1-4380-9600-6e69fd78877b","system_id":"levelo_inurba_marseille","lat":43.21192,"lon":5.35072,"is_reserved":false,"is_disabled":false,"rental_uris":{"android":"levelo://app?vid=d517b521-37c1-4380-9600-6e69fd78877b","ios":"levelo://app?vid=d517b521-37c1-4380-9600-6e69fd78877b"},"vehicle_type_id":"4","last_reported":1745492900,"current_range_meters":19200,"station_id":"st_cvj6sg6p6f1abm77japg","pricing_plan_id":"cebpf4jnsgd1na2vs0mg"},{"bike_id":"81c822d8-ebbe-4d24-aa97-095046fd1c36","system_id":"levelo_inurba_marseille","lat":43.23155,"lon":5.43723,"is_reserved":false,"is_disabled":false,"rental_uris":{"android":"levelo://app?vid=81c822d8-ebbe-4d24-aa97-095046fd1c36","ios":"levelo://app?vid=81c822d8-ebbe-4d24-aa97-095046fd1c36"},"vehicle_type_id":"4","last_reported":1745492900,"current_range_meters":19200,"station_id":"ce4bhmp2rcd13ifvqgog","pricing_plan_id":"cebpf4jnsgd1na2vs0mg"},{"bike_id":"966eda11-0966-4229-8a73-e2989c8fdc4c","system_id":"levelo_inurba_marseille","lat":43.26564,"lon":5.39009,"is_reserved":false,"is_disabled":false,"rental_uris":{"android":"levelo://app?vid=966eda11-0966-4229-8a73-e2989c8fdc4c","ios":"levelo://app?vid=966eda11-0966-4229-8a73-e2989c8fdc4c"},"vehicle_type_id":"4","last_reported":1745492900,"current_range_meters":19200,"station_id":"ce4bhe12rcd13ifvqf30","pricing_plan_id":"cebpf4jnsgd1na2vs0mg"},{"bike_id":"0bfff189-ec6a-4439-b345-e9dd168ab867","system_id":"levelo_inurba_marseille","lat":43.33733,"lon":5.39179,"is_reserved":false,"is_disabled":false,"rental_uris":{"android":"levelo://app?vid=0bfff189-ec6a-4439-b345-e9dd168ab867","ios":"levelo://app?vid=0bfff189-ec6a-4439-b345-e9dd168ab867"},"vehicle_type_id":"4","last_reported":1745492900,"current_range_meters":19200,"station_id":"ce4bhr92rcd13ifvqhsg","pricing_plan_id":"cebpf4jnsgd1na2vs0mg"},{"bike_id":"9df1cab4-1c56-4c58-915d-691cb7449afc","system_id":"levelo_inurba_marseille","lat":43.289337,"lon":5.366425,"is_reserved":false,"is_disabled":false,"rental_uris":{"android":"levelo://app?vid=9df1cab4-1c56-4c58-915d-691cb7449afc","ios":"levelo://app?vid=9df1cab4-1c56-4c58-915d-691cb7449afc"},"vehicle_type_id":"4","last_reported":1745492900,"current_range_meters":19200,"station_id":"ce4bhap2rcd13ifvqek0","pricing_plan_id":"cebpf4jnsgd1na2vs0mg"},{"bike_id":"ecc2bb2b-d522-48c7-ba6c-7294d73b8bd4","system_id":"levelo_inurba_marseille","lat":43.29719,"lon":5.40525,"is_reserved":false,"is_disabled":false,"rental_uris":{"android":"levelo://app?vid=ecc2bb2b-d522-48c7-ba6c-7294d73b8bd4","ios":"levelo://app?vid=ecc2bb2b-d522-48c7-ba6c-7294d73b8bd4"},"vehicle_type_id":"4","last_reported":1745492900,"current_range_meters":19600,"station_id":"","pricing_plan_id":"cebpf4jnsgd1na2vs0mg"},{"bike_id":"c2f7a788-c936-453c-a344-dae81f52ba6c","system_id":"levelo_inurba_marseille","lat":43.305321,"lon":5.366805,"is_reserved":false,"is_disabled":false,"rental_uris":{"android":"levelo://app?vid=c2f7a788-c936-453c-a344-dae81f52ba6c","ios":"levelo://app?vid=c2f7a788-c936-453c-a344-dae81f52ba6c"},"vehicle_type_id":"4","last_reported":1745492900,"current_range_meters":19600,"station_id":"ce4bgrp2rcd13ifvqc9g","pricing_plan_id":"cebpf4jnsgd1na2vs0mg"},{"bike_id":"10a8f9a9-9eff-48eb-beb0-8266082802a3","system_id":"levelo_inurba_marseille","lat":43.29238,"lon":5.36088,"is_reserved":false,"is_disabled":false,"rental_uris":{"android":"levelo://app?vid=10a8f9a9-9eff-48eb-beb0-8266082802a3","ios":"levelo://app?vid=10a8f9a9-9eff-48eb-beb0-8266082802a3"},"vehicle_type_id":"4","last_reported":1745492900,"current_range_meters":19600,"station_id":"ce4bhbh2rcd13ifvqeqg","pricing_plan_id":"cebpf4jnsgd1na2vs0mg"},{"bike_id":"bf5c231b-c1bf-495d-8dc2-96a93749e35f","system_id":"levelo_inurba_marseille","lat":43.28696,"lon":5.39995,"is_reserved":false,"is_disabled":false,"rental_uris":{"android":"levelo://app?vid=bf5c231b-c1bf-495d-8dc2-96a93749e35f","ios":"levelo://app?vid=bf5c231b-c1bf-495d-8dc2-96a93749e35f"},"vehicle_type_id":"4","last_reported":1745492900,"current_range_meters":19600,"station_id":"ce4bho92rcd13ifvqh3g","pricing_plan_id":"cebpf4jnsgd1na2vs0mg"},{"bike_id":"90d6c41d-85b6-4f4f-bbae-008e1e1feccb","system_id":"levelo_inurba_marseille","lat":43.28475,"lon":5.35892,"is_reserved":false,"is_disabled":false,"rental_uris":{"android":"levelo://app?vid=90d6c41d-85b6-4f4f-bbae-008e1e1feccb","ios":"levelo://app?vid=90d6c41d-85b6-4f4f-bbae-008e1e1feccb"},"vehicle_type_id":"4","last_reported":1745492900,"current_range_meters":19600,"station_id":"ce4bhah2rcd13ifvqei0","pricing_plan_id":"cebpf4jnsgd1na2vs0mg"},{"bike_id":"6c8a3000-5081-4d91-a139-2ac9ff5601d8","system_id":"levelo_inurba_marseille","lat":43.25508,"lon":5.37648,"is_reserved":false,"is_disabled":false,"rental_uris":{"android":"levelo://app?vid=6c8a3000-5081-4d91-a139-2ac9ff5601d8","ios":"levelo://app?vid=6c8a3000-5081-4d91-a139-2ac9ff5601d8"},"vehicle_type_id":"4","last_reported":1745492900,"current_range_meters":19600,"station_id":"ce4bhh12rcd13ifvqff0","pricing_plan_id":"cebpf4jnsgd1na2vs0mg"},{"bike_id":"37ccc8f2-dbd1-4560-869a-33ac2b68247a","system_id":"levelo_inurba_marseille","lat":43.28672,"lon":5.38667,"is_reserved":false,"is_disabled":false,"rental_uris":{"android":"levelo://app?vid=37ccc8f2-dbd1-4560-869a-33ac2b68247a","ios":"levelo://app?vid=37ccc8f2-dbd1-4560-869a-33ac2b68247a"},"vehicle_type_id":"4","last_reported":1745492900,"current_range_meters":19600,"station_id":"ce4bh492rcd13ifvqdug","pricing_plan_id":"cebpf4jnsgd1na2vs0mg"},{"bike_id":"58727b13-3ca0-4842-baa1-1faeff5caa77","system_id":"levelo_inurba_marseille","lat":43.2315,"lon":5.4372,"is_reserved":false,"is_disabled":true,"rental_uris":{"android":"levelo://app?vid=58727b13-3ca0-4842-baa1-1faeff5caa77","ios":"levelo://app?vid=58727b13-3ca0-4842-baa1-1faeff5caa77"},"vehicle_type_id":"4","last_reported":1745492900,"current_range_meters":19600,"station_id":"ce4bhmp2rcd13ifvqgog","pricing_plan_id":"cebpf4jnsgd1na2vs0mg"},{"bike_id":"d2e51879-3511-40d2-9067-e8e759633a2f","system_id":"levelo_inurba_marseille","lat":43.3376,"lon":5.37423,"is_reserved":false,"is_disabled":false,"rental_uris":{"android":"levelo://app?vid=d2e51879-3511-40d2-9067-e8e759633a2f","ios":"levelo://app?vid=d2e51879-3511-40d2-9067-e8e759633a2f"},"vehicle_type_id":"4","last_reported":1745492900,"current_range_meters":19600,"station_id":"","pricing_plan_id":"cebpf4jnsgd1na2vs0mg"},{"bike_id":"414194f1-23bb-430a-ae72-278c68910dc1","system_id":"levelo_inurba_marseille","lat":43.27379,"lon":5.36257,"is_reserved":false,"is_disabled":false,"rental_uris":{"android":"levelo://app?vid=414194f1-23bb-430a-ae72-278c68910dc1","ios":"levelo://app?vid=414194f1-23bb-430a-ae72-278c68910dc1"},"vehicle_type_id":"4","last_reported":1745492900,"current_range_meters":19600,"station_id":"ce4bhbh2rcd13ifvqeo0","pricing_plan_id":"cebpf4jnsgd1na2vs0mg"},{"bike_id":"90f158b0-0ee5-4230-a06d-268bbda8d9c2","system_id":"levelo_inurba_marseille","lat":43.28621,"lon":5.35094,"is_reserved":false,"is_disabled":false,"rental_uris":{"android":"levelo://app?vid=90f158b0-0ee5-4230-a06d-268bbda8d9c2","ios":"levelo://app?vid=90f158b0-0ee5-4230-a06d-268bbda8d9c2"},"vehicle_type_id":"4","last_reported":1745492900,"current_range_meters":19600,"station_id":"ce4bhch2rcd13ifvqeug","pricing_plan_id":"cebpf4jnsgd1na2vs0mg"},{"bike_id":"ea0e206c-d73e-438b-a47b-89c6b586dd7c","system_id":"levelo_inurba_marseille","lat":43.29819,"lon":5.363567,"is_reserved":false,"is_disabled":false,"rental_uris":{"android":"levelo://app?vid=ea0e206c-d73e-438b-a47b-89c6b586dd7c","ios":"levelo://app?vid=ea0e206c-d73e-438b-a47b-89c6b586dd7c"},"vehicle_type_id":"4","last_reported":1745492900,"current_range_meters":19600,"station_id":"ce4bgpp2rcd13ifvqc3g","pricing_plan_id":"cebpf4jnsgd1na2vs0mg"},{"bike_id":"9a1c0be7-bd1a-4081-ab84-3ef05258b407","system_id":"levelo_inurba_marseille","lat":43.21189,"lon":5.3507,"is_reserved":false,"is_disabled":false,"rental_uris":{"android":"levelo://app?vid=9a1c0be7-bd1a-4081-ab84-3ef05258b407","ios":"levelo://app?vid=9a1c0be7-bd1a-4081-ab84-3ef05258b407"},"vehicle_type_id":"4","last_reported":1745492900,"current_range_meters":20000,"station_id":"st_cvj6sg6p6f1abm77japg","pricing_plan_id":"cebpf4jnsgd1na2vs0mg"},{"bike_id":"ed183f8a-f12b-497f-a6e1-ab87a2c2f55e","system_id":"levelo_inurba_marseille","lat":43.32664,"lon":5.40998,"is_reserved":false,"is_disabled":false,"rental_uris":{"android":"levelo://app?vid=ed183f8a-f12b-497f-a6e1-ab87a2c2f55e","ios":"levelo://app?vid=ed183f8a-f12b-497f-a6e1-ab87a2c2f55e"},"vehicle_type_id":"4","last_reported":1745492900,"current_range_meters":20000,"station_id":"ce4bhpp2rcd13ifvqhgg","pricing_plan_id":"cebpf4jnsgd1na2vs0mg"},{"bike_id":"0511eaef-e620-4443-8c39-8b9425063ec4","system_id":"levelo_inurba_marseille","lat":43.29099,"lon":5.38137,"is_reserved":false,"is_disabled":true,"rental_uris":{"android":"levelo://app?vid=0511eaef-e620-4443-8c39-8b9425063ec4","ios":"levelo://app?vid=0511eaef-e620-4443-8c39-8b9425063ec4"},"vehicle_type_id":"4","last_reported":1745492900,"current_range_meters":20000,"station_id":"","pricing_plan_id":"cebpf4jnsgd1na2vs0mg"},{"bike_id":"73b05d89-8586-4d94-8ac2-7f53dfee0c5a","system_id":"levelo_inurba_marseille","lat":43.25941,"lon":5.40909,"is_reserved":false,"is_disabled":false,"rental_uris":{"android":"levelo://app?vid=73b05d89-8586-4d94-8ac2-7f53dfee0c5a","ios":"levelo://app?vid=73b05d89-8586-4d94-8ac2-7f53dfee0c5a"},"vehicle_type_id":"4","last_reported":1745492900,"current_range_meters":20000,"station_id":"ce4bhm92rcd13ifvqglg","pricing_plan_id":"cebpf4jnsgd1na2vs0mg"},{"bike_id":"616301cb-c9ec-491a-80b7-4281f74ced03","system_id":"levelo_inurba_marseille","lat":43.29715,"lon":5.3661,"is_reserved":false,"is_disabled":false,"rental_uris":{"android":"levelo://app?vid=616301cb-c9ec-491a-80b7-4281f74ced03","ios":"levelo://app?vid=616301cb-c9ec-491a-80b7-4281f74ced03"},"vehicle_type_id":"4","last_reported":1745492900,"current_range_meters":20000,"station_id":"ce4bgn12rcd13ifvqbt0","pricing_plan_id":"cebpf4jnsgd1na2vs0mg"},{"bike_id":"fee0b890-77b1-4382-92a1-3f8517b222b8","system_id":"levelo_inurba_marseille","lat":43.30281,"lon":5.37707,"is_reserved":false,"is_disabled":false,"rental_uris":{"android":"levelo://app?vid=fee0b890-77b1-4382-92a1-3f8517b222b8","ios":"levelo://app?vid=fee0b890-77b1-4382-92a1-3f8517b222b8"},"vehicle_type_id":"4","last_reported":1745492900,"current_range_meters":20000,"station_id":"ce4bguh2rcd13ifvqcj0","pricing_plan_id":"cebpf4jnsgd1na2vs0mg"},{"bike_id":"e69cdf51-9748-4024-8bfc-59ffa5351ea5","system_id":"levelo_inurba_marseille","lat":43.26561,"lon":5.37296,"is_reserved":false,"is_disabled":false,"rental_uris":{"android":"levelo://app?vid=e69cdf51-9748-4024-8bfc-59ffa5351ea5","ios":"levelo://app?vid=e69cdf51-9748-4024-8bfc-59ffa5351ea5"},"vehicle_type_id":"4","last_reported":1745492900,"current_range_meters":20400,"station_id":"ce4bhg12rcd13ifvqf70","pricing_plan_id":"cebpf4jnsgd1na2vs0mg"},{"bike_id":"488d88c5-3cb3-479a-af04-e19bc4adea60","system_id":"levelo_inurba_marseille","lat":43.29443,"lon":5.39744,"is_reserved":false,"is_disabled":false,"rental_uris":{"android":"levelo://app?vid=488d88c5-3cb3-479a-af04-e19bc4adea60","ios":"levelo://app?vid=488d88c5-3cb3-479a-af04-e19bc4adea60"},"vehicle_type_id":"4","last_reported":1745492900,"current_range_meters":20400,"station_id":"ce4bh3h2rcd13ifvqdo0","pricing_plan_id":"cebpf4jnsgd1na2vs0mg"},{"bike_id":"80af81f2-e9f3-4291-954c-394137f80062","system_id":"levelo_inurba_marseille","lat":43.28269,"lon":5.35057,"is_reserved":false,"is_disabled":false,"rental_uris":{"android":"levelo://app?vid=80af81f2-e9f3-4291-954c-394137f80062","ios":"levelo://app?vid=80af81f2-e9f3-4291-954c-394137f80062"},"vehicle_type_id":"4","last_reported":1745492900,"current_range_meters":20400,"station_id":"ce4bhbp2rcd13ifvqerg","pricing_plan_id":"cebpf4jnsgd1na2vs0mg"},{"bike_id":"1b2a2b4d-f171-4385-9a57-80e77fcef47a","system_id":"levelo_inurba_marseille","lat":43.2929,"lon":5.37455,"is_reserved":false,"is_disabled":false,"rental_uris":{"android":"levelo://app?vid=1b2a2b4d-f171-4385-9a57-80e77fcef47a","ios":"levelo://app?vid=1b2a2b4d-f171-4385-9a57-80e77fcef47a"},"vehicle_type_id":"4","last_reported":1745492900,"current_range_meters":20400,"station_id":"ce4bgi12rcd13ifvqb70","pricing_plan_id":"cebpf4jnsgd1na2vs0mg"},{"bike_id":"de176d11-fc50-43f3-85f2-db96c4b6be15","system_id":"levelo_inurba_marseille","lat":43.21197,"lon":5.35095,"is_reserved":false,"is_disabled":false,"rental_uris":{"android":"levelo://app?vid=de176d11-fc50-43f3-85f2-db96c4b6be15","ios":"levelo://app?vid=de176d11-fc50-43f3-85f2-db96c4b6be15"},"vehicle_type_id":"4","last_reported":1745492900,"current_range_meters":20400,"station_id":"st_cvj6sg6p6f1abm77japg","pricing_plan_id":"cebpf4jnsgd1na2vs0mg"},{"bike_id":"61d301f0-3118-4e3c-94a5-53609de60ee2","system_id":"levelo_inurba_marseille","lat":43.29562,"lon":5.37497,"is_reserved":false,"is_disabled":false,"rental_uris":{"android":"levelo://app?vid=61d301f0-3118-4e3c-94a5-53609de60ee2","ios":"levelo://app?vid=61d301f0-3118-4e3c-94a5-53609de60ee2"},"vehicle_type_id":"4","last_reported":1745492900,"current_range_meters":20400,"station_id":"ce4bgkp2rcd13ifvqbmg","pricing_plan_id":"cebpf4jnsgd1na2vs0mg"},{"bike_id":"28c655a4-6907-4d6b-b598-69019c264ec2","system_id":"levelo_inurba_marseille","lat":43.337444,"lon":5.374475,"is_reserved":false,"is_disabled":false,"rental_uris":{"android":"levelo://app?vid=28c655a4-6907-4d6b-b598-69019c264ec2","ios":"levelo://app?vid=28c655a4-6907-4d6b-b598-69019c264ec2"},"vehicle_type_id":"4","last_reported":1745492900,"current_range_meters":20800,"station_id":"","pricing_plan_id":"cebpf4jnsgd1na2vs0mg"},{"bike_id":"62b86b0b-1752-4f07-8c59-f101e20dab10","system_id":"levelo_inurba_marseille","lat":43.3028,"lon":5.37703,"is_reserved":false,"is_disabled":false,"rental_uris":{"android":"levelo://app?vid=62b86b0b-1752-4f07-8c59-f101e20dab10","ios":"levelo://app?vid=62b86b0b-1752-4f07-8c59-f101e20dab10"},"vehicle_type_id":"4","last_reported":1745492900,"current_range_meters":20800,"station_id":"ce4bguh2rcd13ifvqcj0","pricing_plan_id":"cebpf4jnsgd1na2vs0mg"},{"bike_id":"bafb983d-258b-4831-8829-a03ec22215c8","system_id":"levelo_inurba_marseille","lat":43.25121,"lon":5.40319,"is_reserved":false,"is_disabled":false,"rental_uris":{"android":"levelo://app?vid=bafb983d-258b-4831-8829-a03ec22215c8","ios":"levelo://app?vid=bafb983d-258b-4831-8829-a03ec22215c8"},"vehicle_type_id":"4","last_reported":1745492900,"current_range_meters":20800,"station_id":"ce4bhlh2rcd13ifvqgig","pricing_plan_id":"cebpf4jnsgd1na2vs0mg"},{"bike_id":"afad37f2-b9f9-43df-a6cd-4eac8810b1b8","system_id":"levelo_inurba_marseille","lat":43.30476,"lon":5.37909,"is_reserved":false,"is_disabled":false,"rental_uris":{"android":"levelo://app?vid=afad37f2-b9f9-43df-a6cd-4eac8810b1b8","ios":"levelo://app?vid=afad37f2-b9f9-43df-a6cd-4eac8810b1b8"},"vehicle_type_id":"4","last_reported":1745492900,"current_range_meters":20800,"station_id":"ce4bgup2rcd13ifvqcn0","pricing_plan_id":"cebpf4jnsgd1na2vs0mg"},{"bike_id":"f8f21430-2305-495d-a382-6102e13f072a","system_id":"levelo_inurba_marseille","lat":43.27975,"lon":5.38747,"is_reserved":false,"is_disabled":false,"rental_uris":{"android":"levelo://app?vid=f8f21430-2305-495d-a382-6102e13f072a","ios":"levelo://app?vid=f8f21430-2305-495d-a382-6102e13f072a"},"vehicle_type_id":"4","last_reported":1745492900,"current_range_meters":20800,"station_id":"ce4bhg12rcd13ifvqf80","pricing_plan_id":"cebpf4jnsgd1na2vs0mg"},{"bike_id":"1f87c85c-5ec5-4c9f-9443-a35ac836cf4b","system_id":"levelo_inurba_marseille","lat":43.2721,"lon":5.39184,"is_reserved":false,"is_disabled":false,"rental_uris":{"android":"levelo://app?vid=1f87c85c-5ec5-4c9f-9443-a35ac836cf4b","ios":"levelo://app?vid=1f87c85c-5ec5-4c9f-9443-a35ac836cf4b"},"vehicle_type_id":"4","last_reported":1745492900,"current_range_meters":20800,"station_id":"ce4bhhp2rcd13ifvqfm0","pricing_plan_id":"cebpf4jnsgd1na2vs0mg"},{"bike_id":"987d7900-bb2a-45cb-bed7-6d69f6fd4fa3","system_id":"levelo_inurba_marseille","lat":43.28465,"lon":5.38441,"is_reserved":false,"is_disabled":false,"rental_uris":{"android":"levelo://app?vid=987d7900-bb2a-45cb-bed7-6d69f6fd4fa3","ios":"levelo://app?vid=987d7900-bb2a-45cb-bed7-6d69f6fd4fa3"},"vehicle_type_id":"4","last_reported":1745492900,"current_range_meters":20800,"station_id":"ce4bh512rcd13ifvqe3g","pricing_plan_id":"cebpf4jnsgd1na2vs0mg"},{"bike_id":"84f42031-c468-47af-a3f4-5b7139796eb0","system_id":"levelo_inurba_marseille","lat":43.25585,"lon":5.38226,"is_reserved":false,"is_disabled":false,"rental_uris":{"android":"levelo://app?vid=84f42031-c468-47af-a3f4-5b7139796eb0","ios":"levelo://app?vid=84f42031-c468-47af-a3f4-5b7139796eb0"},"vehicle_type_id":"4","last_reported":1745492900,"current_range_meters":21600,"station_id":"ce4bhih2rcd13ifvqfs0","pricing_plan_id":"cebpf4jnsgd1na2vs0mg"},{"bike_id":"829e6027-c98c-4052-9336-7fe801b0bc22","system_id":"levelo_inurba_marseille","lat":43.23147,"lon":5.43702,"is_reserved":false,"is_disabled":true,"rental_uris":{"android":"levelo://app?vid=829e6027-c98c-4052-9336-7fe801b0bc22","ios":"levelo://app?vid=829e6027-c98c-4052-9336-7fe801b0bc22"},"vehicle_type_id":"4","last_reported":1745492900,"current_range_meters":21600,"station_id":"ce4bhmp2rcd13ifvqgog","pricing_plan_id":"cebpf4jnsgd1na2vs0mg"},{"bike_id":"30cf9ae5-c90c-42d8-b6e8-15a9bc8835b0","system_id":"levelo_inurba_marseille","lat":43.2971,"lon":5.36603,"is_reserved":false,"is_disabled":false,"rental_uris":{"android":"levelo://app?vid=30cf9ae5-c90c-42d8-b6e8-15a9bc8835b0","ios":"levelo://app?vid=30cf9ae5-c90c-42d8-b6e8-15a9bc8835b0"},"vehicle_type_id":"4","last_reported":1745492900,"current_range_meters":21600,"station_id":"ce4bgn12rcd13ifvqbt0","pricing_plan_id":"cebpf4jnsgd1na2vs0mg"},{"bike_id":"f5222fbb-aed5-4ae0-a798-77557f4cc313","system_id":"levelo_inurba_marseille","lat":43.29847,"lon":5.36264,"is_reserved":false,"is_disabled":false,"rental_uris":{"android":"levelo://app?vid=f5222fbb-aed5-4ae0-a798-77557f4cc313","ios":"levelo://app?vid=f5222fbb-aed5-4ae0-a798-77557f4cc313"},"vehicle_type_id":"4","last_reported":1745492900,"current_range_meters":21600,"station_id":"ce4bgpp2rcd13ifvqc3g","pricing_plan_id":"cebpf4jnsgd1na2vs0mg"},{"bike_id":"859e810b-7d7c-4cdc-9aae-6f942ae09296","system_id":"levelo_inurba_marseille","lat":43.303,"lon":5.39208,"is_reserved":false,"is_disabled":false,"rental_uris":{"android":"levelo://app?vid=859e810b-7d7c-4cdc-9aae-6f942ae09296","ios":"levelo://app?vid=859e810b-7d7c-4cdc-9aae-6f942ae09296"},"vehicle_type_id":"4","last_reported":1745492900,"current_range_meters":21600,"station_id":"ce4bgop2rcd13ifvqc1g","pricing_plan_id":"cebpf4jnsgd1na2vs0mg"},{"bike_id":"f2314f08-cf4a-4d8c-bd3d-b9b8baea6582","system_id":"levelo_inurba_marseille","lat":43.25967,"lon":5.4091,"is_reserved":false,"is_disabled":false,"rental_uris":{"android":"levelo://app?vid=f2314f08-cf4a-4d8c-bd3d-b9b8baea6582","ios":"levelo://app?vid=f2314f08-cf4a-4d8c-bd3d-b9b8baea6582"},"vehicle_type_id":"4","last_reported":1745492900,"current_range_meters":21600,"station_id":"ce4bhm92rcd13ifvqglg","pricing_plan_id":"cebpf4jnsgd1na2vs0mg"},{"bike_id":"aa6a9a88-338c-460c-9a4b-5685729b85e1","system_id":"levelo_inurba_marseille","lat":43.27951,"lon":5.41047,"is_reserved":false,"is_disabled":false,"rental_uris":{"android":"levelo://app?vid=aa6a9a88-338c-460c-9a4b-5685729b85e1","ios":"levelo://app?vid=aa6a9a88-338c-460c-9a4b-5685729b85e1"},"vehicle_type_id":"4","last_reported":1745492900,"current_range_meters":21600,"station_id":"ce4bhnp2rcd13ifvqh0g","pricing_plan_id":"cebpf4jnsgd1na2vs0mg"},{"bike_id":"dd8e7648-ed5c-430a-986f-5064b9bc868a","system_id":"levelo_inurba_marseille","lat":43.30469,"lon":5.37903,"is_reserved":false,"is_disabled":false,"rental_uris":{"android":"levelo://app?vid=dd8e7648-ed5c-430a-986f-5064b9bc868a","ios":"levelo://app?vid=dd8e7648-ed5c-430a-986f-5064b9bc868a"},"vehicle_type_id":"4","last_reported":1745492900,"current_range_meters":21600,"station_id":"ce4bgup2rcd13ifvqcn0","pricing_plan_id":"cebpf4jnsgd1na2vs0mg"},{"bike_id":"5c0de8bf-cc64-4a34-ac0b-2af951aabd22","system_id":"levelo_inurba_marseille","lat":43.30541,"lon":5.36702,"is_reserved":false,"is_disabled":false,"rental_uris":{"android":"levelo://app?vid=5c0de8bf-cc64-4a34-ac0b-2af951aabd22","ios":"levelo://app?vid=5c0de8bf-cc64-4a34-ac0b-2af951aabd22"},"vehicle_type_id":"4","last_reported":1745492900,"current_range_meters":22000,"station_id":"ce4bgrp2rcd13ifvqc9g","pricing_plan_id":"cebpf4jnsgd1na2vs0mg"},{"bike_id":"510b1726-51b4-4ebf-8c0d-668efd41494b","system_id":"levelo_inurba_marseille","lat":43.29806,"lon":5.37119,"is_reserved":false,"is_disabled":false,"rental_uris":{"android":"levelo://app?vid=510b1726-51b4-4ebf-8c0d-668efd41494b","ios":"levelo://app?vid=510b1726-51b4-4ebf-8c0d-668efd41494b"},"vehicle_type_id":"4","last_reported":1745492900,"current_range_meters":22000,"station_id":"ce4bgop2rcd13ifvqc1g","pricing_plan_id":"cebpf4jnsgd1na2vs0mg"},{"bike_id":"1b289433-5dfc-4e82-8a71-cad614ecdead","system_id":"levelo_inurba_marseille","lat":43.299265,"lon":5.374735,"is_reserved":false,"is_disabled":false,"rental_uris":{"android":"levelo://app?vid=1b289433-5dfc-4e82-8a71-cad614ecdead","ios":"levelo://app?vid=1b289433-5dfc-4e82-8a71-cad614ecdead"},"vehicle_type_id":"4","last_reported":1745492900,"current_range_meters":22000,"station_id":"ce4bgjh2rcd13ifvqbg0","pricing_plan_id":"cebpf4jnsgd1na2vs0mg"},{"bike_id":"348cdf4e-12ac-49fe-8557-416ef24788aa","system_id":"levelo_inurba_marseille","lat":43.29636,"lon":5.40599,"is_reserved":false,"is_disabled":false,"rental_uris":{"android":"levelo://app?vid=348cdf4e-12ac-49fe-8557-416ef24788aa","ios":"levelo://app?vid=348cdf4e-12ac-49fe-8557-416ef24788aa"},"vehicle_type_id":"4","last_reported":1745492900,"current_range_meters":22400,"station_id":"ce4bh0h2rcd13ifvqd60","pricing_plan_id":"cebpf4jnsgd1na2vs0mg"},{"bike_id":"51d8d2f0-928b-455f-91b9-9ed5a56d5272","system_id":"levelo_inurba_marseille","lat":43.23964,"lon":5.3663,"is_reserved":false,"is_disabled":false,"rental_uris":{"android":"levelo://app?vid=51d8d2f0-928b-455f-91b9-9ed5a56d5272","ios":"levelo://app?vid=51d8d2f0-928b-455f-91b9-9ed5a56d5272"},"vehicle_type_id":"4","last_reported":1745492900,"current_range_meters":22000,"station_id":"ce4bhi12rcd13ifvqfp0","pricing_plan_id":"cebpf4jnsgd1na2vs0mg"},{"bike_id":"b7b393f0-b786-42df-989c-4a6cb72210f4","system_id":"levelo_inurba_marseille","lat":43.32367,"lon":5.36752,"is_reserved":false,"is_disabled":false,"rental_uris":{"android":"levelo://app?vid=b7b393f0-b786-42df-989c-4a6cb72210f4","ios":"levelo://app?vid=b7b393f0-b786-42df-989c-4a6cb72210f4"},"vehicle_type_id":"4","last_reported":1745492900,"current_range_meters":22400,"station_id":"ce4bhsh2rcd13ifvqi2g","pricing_plan_id":"cebpf4jnsgd1na2vs0mg"},{"bike_id":"96765273-58c5-4909-9228-ffd4e361bfb3","system_id":"levelo_inurba_marseille","lat":43.321045,"lon":5.367566,"is_reserved":false,"is_disabled":false,"rental_uris":{"android":"levelo://app?vid=96765273-58c5-4909-9228-ffd4e361bfb3","ios":"levelo://app?vid=96765273-58c5-4909-9228-ffd4e361bfb3"},"vehicle_type_id":"4","last_reported":1745492900,"current_range_meters":22400,"station_id":"ce4bgs92rcd13ifvqcc0","pricing_plan_id":"cebpf4jnsgd1na2vs0mg"},{"bike_id":"4a5e4040-dd1e-4513-9b9d-b77528ceb9e5","system_id":"levelo_inurba_marseille","lat":43.286627,"lon":5.363445,"is_reserved":false,"is_disabled":false,"rental_uris":{"android":"levelo://app?vid=4a5e4040-dd1e-4513-9b9d-b77528ceb9e5","ios":"levelo://app?vid=4a5e4040-dd1e-4513-9b9d-b77528ceb9e5"},"vehicle_type_id":"4","last_reported":1745492900,"current_range_meters":22400,"station_id":"ce4bhah2rcd13ifvqej0","pricing_plan_id":"cebpf4jnsgd1na2vs0mg"},{"bike_id":"c161a87f-2be8-4ae7-9647-b5c784939fdd","system_id":"levelo_inurba_marseille","lat":43.30131,"lon":5.38763,"is_reserved":false,"is_disabled":true,"rental_uris":{"android":"levelo://app?vid=c161a87f-2be8-4ae7-9647-b5c784939fdd","ios":"levelo://app?vid=c161a87f-2be8-4ae7-9647-b5c784939fdd"},"vehicle_type_id":"4","last_reported":1745492900,"current_range_meters":22400,"station_id":"ce4bghh2rcd13ifvqb60","pricing_plan_id":"cebpf4jnsgd1na2vs0mg"},{"bike_id":"5c852611-28f6-4df7-8dbb-449c41f0a553","system_id":"levelo_inurba_marseille","lat":43.261963,"lon":5.374514,"is_reserved":false,"is_disabled":false,"rental_uris":{"android":"levelo://app?vid=5c852611-28f6-4df7-8dbb-449c41f0a553","ios":"levelo://app?vid=5c852611-28f6-4df7-8dbb-449c41f0a553"},"vehicle_type_id":"4","last_reported":1745492900,"current_range_meters":22400,"station_id":"ce4bhgp2rcd13ifvqfc0","pricing_plan_id":"cebpf4jnsgd1na2vs0mg"},{"bike_id":"0df39abb-522d-4366-9357-f6dd7e00e299","system_id":"levelo_inurba_marseille","lat":43.2847,"lon":5.38413,"is_reserved":false,"is_disabled":false,"rental_uris":{"android":"levelo://app?vid=0df39abb-522d-4366-9357-f6dd7e00e299","ios":"levelo://app?vid=0df39abb-522d-4366-9357-f6dd7e00e299"},"vehicle_type_id":"4","last_reported":1745492900,"current_range_meters":22400,"station_id":"ce4bh512rcd13ifvqe3g","pricing_plan_id":"cebpf4jnsgd1na2vs0mg"},{"bike_id":"89b04bb5-3e61-4482-99b1-05491f1251c0","system_id":"levelo_inurba_marseille","lat":43.25929,"lon":5.40893,"is_reserved":false,"is_disabled":false,"rental_uris":{"android":"levelo://app?vid=89b04bb5-3e61-4482-99b1-05491f1251c0","ios":"levelo://app?vid=89b04bb5-3e61-4482-99b1-05491f1251c0"},"vehicle_type_id":"4","last_reported":1745492900,"current_range_meters":22800,"station_id":"ce4bhm92rcd13ifvqglg","pricing_plan_id":"cebpf4jnsgd1na2vs0mg"},{"bike_id":"bd5c43c4-b83d-4083-9895-bf32c2fde77b","system_id":"levelo_inurba_marseille","lat":43.293087,"lon":5.374617,"is_reserved":false,"is_disabled":false,"rental_uris":{"android":"levelo://app?vid=bd5c43c4-b83d-4083-9895-bf32c2fde77b","ios":"levelo://app?vid=bd5c43c4-b83d-4083-9895-bf32c2fde77b"},"vehicle_type_id":"4","last_reported":1745492900,"current_range_meters":22800,"station_id":"ce4bgi12rcd13ifvqb70","pricing_plan_id":"cebpf4jnsgd1na2vs0mg"},{"bike_id":"97f8610b-214a-4cfe-9441-07b6b5d209d3","system_id":"levelo_inurba_marseille","lat":43.23438,"lon":5.3682,"is_reserved":false,"is_disabled":false,"rental_uris":{"android":"levelo://app?vid=97f8610b-214a-4cfe-9441-07b6b5d209d3","ios":"levelo://app?vid=97f8610b-214a-4cfe-9441-07b6b5d209d3"},"vehicle_type_id":"4","last_reported":1745492900,"current_range_meters":22800,"station_id":"ce4bhi12rcd13ifvqfp0","pricing_plan_id":"cebpf4jnsgd1na2vs0mg"},{"bike_id":"cca02057-be85-4dbc-b033-ab10e8d969fc","system_id":"levelo_inurba_marseille","lat":43.21207,"lon":5.35068,"is_reserved":false,"is_disabled":false,"rental_uris":{"android":"levelo://app?vid=cca02057-be85-4dbc-b033-ab10e8d969fc","ios":"levelo://app?vid=cca02057-be85-4dbc-b033-ab10e8d969fc"},"vehicle_type_id":"4","last_reported":1745492900,"current_range_meters":22800,"station_id":"ce4bhap2rcd13ifvqek0","pricing_plan_id":"cebpf4jnsgd1na2vs0mg"},{"bike_id":"5c2de622-011d-4680-82bb-b7fce8560208","system_id":"levelo_inurba_marseille","lat":43.29308,"lon":5.40136,"is_reserved":false,"is_disabled":false,"rental_uris":{"android":"levelo://app?vid=5c2de622-011d-4680-82bb-b7fce8560208","ios":"levelo://app?vid=5c2de622-011d-4680-82bb-b7fce8560208"},"vehicle_type_id":"4","last_reported":1745492900,"current_range_meters":22800,"station_id":"ce4bh312rcd13ifvqdk0","pricing_plan_id":"cebpf4jnsgd1na2vs0mg"},{"bike_id":"620cd473-6436-4e04-a5d8-64a795038887","system_id":"levelo_inurba_marseille","lat":43.25955,"lon":5.40863,"is_reserved":false,"is_disabled":false,"rental_uris":{"android":"levelo://app?vid=620cd473-6436-4e04-a5d8-64a795038887","ios":"levelo://app?vid=620cd473-6436-4e04-a5d8-64a795038887"},"vehicle_type_id":"4","last_reported":1745492900,"current_range_meters":22800,"station_id":"ce4bhm92rcd13ifvqglg","pricing_plan_id":"cebpf4jnsgd1na2vs0mg"},{"bike_id":"838c567b-4fa5-4008-9f32-17663a6ea824","system_id":"levelo_inurba_marseille","lat":43.26953,"lon":5.38653,"is_reserved":false,"is_disabled":false,"rental_uris":{"android":"levelo://app?vid=838c567b-4fa5-4008-9f32-17663a6ea824","ios":"levelo://app?vid=838c567b-4fa5-4008-9f32-17663a6ea824"},"vehicle_type_id":"4","last_reported":1745492900,"current_range_meters":22800,"station_id":"ce4bhh92rcd13ifvqfh0","pricing_plan_id":"cebpf4jnsgd1na2vs0mg"},{"bike_id":"8d02f36b-805a-459d-a6da-57ee334169ec","system_id":"levelo_inurba_marseille","lat":43.23156,"lon":5.43698,"is_reserved":false,"is_disabled":true,"rental_uris":{"android":"levelo://app?vid=8d02f36b-805a-459d-a6da-57ee334169ec","ios":"levelo://app?vid=8d02f36b-805a-459d-a6da-57ee334169ec"},"vehicle_type_id":"4","last_reported":1745492900,"current_range_meters":23200,"station_id":"ce4bhmp2rcd13ifvqgog","pricing_plan_id":"cebpf4jnsgd1na2vs0mg"},{"bike_id":"23f702eb-9d75-4a3e-a38e-90a4737d73cd","system_id":"levelo_inurba_marseille","lat":43.29234,"lon":5.36063,"is_reserved":false,"is_disabled":false,"rental_uris":{"android":"levelo://app?vid=23f702eb-9d75-4a3e-a38e-90a4737d73cd","ios":"levelo://app?vid=23f702eb-9d75-4a3e-a38e-90a4737d73cd"},"vehicle_type_id":"4","last_reported":1745492900,"current_range_meters":23200,"station_id":"ce4bhbh2rcd13ifvqeqg","pricing_plan_id":"cebpf4jnsgd1na2vs0mg"},{"bike_id":"244bbfbf-97ed-4a83-b6ae-33a828dedf46","system_id":"levelo_inurba_marseille","lat":43.22933,"lon":5.35375,"is_reserved":false,"is_disabled":false,"rental_uris":{"android":"levelo://app?vid=244bbfbf-97ed-4a83-b6ae-33a828dedf46","ios":"levelo://app?vid=244bbfbf-97ed-4a83-b6ae-33a828dedf46"},"vehicle_type_id":"4","last_reported":1745492900,"current_range_meters":23200,"station_id":"cpo3532slgdg3j2ikp40","pricing_plan_id":"cebpf4jnsgd1na2vs0mg"},{"bike_id":"d2808192-d9d9-4524-8713-289c3ad09c6a","system_id":"levelo_inurba_marseille","lat":43.29013,"lon":5.38126,"is_reserved":false,"is_disabled":false,"rental_uris":{"android":"levelo://app?vid=d2808192-d9d9-4524-8713-289c3ad09c6a","ios":"levelo://app?vid=d2808192-d9d9-4524-8713-289c3ad09c6a"},"vehicle_type_id":"4","last_reported":1745492900,"current_range_meters":22800,"station_id":"ce4bh4p2rcd13ifvqe1g","pricing_plan_id":"cebpf4jnsgd1na2vs0mg"},{"bike_id":"82f5d043-56e4-44b9-a8dc-b2ef1e437195","system_id":"levelo_inurba_marseille","lat":43.240593,"lon":5.377093,"is_reserved":false,"is_disabled":false,"rental_uris":{"android":"levelo://app?vid=82f5d043-56e4-44b9-a8dc-b2ef1e437195","ios":"levelo://app?vid=82f5d043-56e4-44b9-a8dc-b2ef1e437195"},"vehicle_type_id":"4","last_reported":1745492900,"current_range_meters":23200,"station_id":"ce4bhnp2rcd13ifvqgvg","pricing_plan_id":"cebpf4jnsgd1na2vs0mg"},{"bike_id":"8e405da4-5fb0-498a-aa6a-5b11e8896733","system_id":"levelo_inurba_marseille","lat":43.28619,"lon":5.37052,"is_reserved":false,"is_disabled":false,"rental_uris":{"android":"levelo://app?vid=8e405da4-5fb0-498a-aa6a-5b11e8896733","ios":"levelo://app?vid=8e405da4-5fb0-498a-aa6a-5b11e8896733"},"vehicle_type_id":"4","last_reported":1745492900,"current_range_meters":24000,"station_id":"ce4bht12rcd13ifvqi60","pricing_plan_id":"cebpf4jnsgd1na2vs0mg"},{"bike_id":"bef22f04-9d2a-4735-99f3-b5fc8b63df9a","system_id":"levelo_inurba_marseille","lat":43.29014,"lon":5.38634,"is_reserved":false,"is_disabled":true,"rental_uris":{"android":"levelo://app?vid=bef22f04-9d2a-4735-99f3-b5fc8b63df9a","ios":"levelo://app?vid=bef22f04-9d2a-4735-99f3-b5fc8b63df9a"},"vehicle_type_id":"4","last_reported":1745492900,"current_range_meters":24000,"station_id":"ce4bh4p2rcd13ifvqe0g","pricing_plan_id":"cebpf4jnsgd1na2vs0mg"},