{"last_updated":1741525699,"ttl":60,"version":"2.2","data":{"bikes":[{"bike_id":"b473be01-921d-44bf-83a6-b12e05222036","system_id":"levelo_inurba_marseille","lat":43.26562,"lon":5.372947,"is_reserved":false,"is_disabled":true,"rental_uris":{"android":"levelo://app?vid=b473be01-921d-44bf-83a6-b12e05222036","ios":"levelo://app?vid=b473be01-921d-44bf-83a6-b12e05222036"},"vehicle_type_id":"4","last_reported":1741525699,"current_range_meters":2800,"station_id":"ce4bhg12rcd13ifvqf70","pricing_plan_id":"cebpf4jnsgd1na2vs0mg"},{"bike_id":"27198281-541e-4d09-8a9c-4f98e7fedd5f","system_id":"levelo_inurba_marseille","lat":43.270244,"lon":5.400786,"is_reserved":false,"is_disabled":false,"rental_uris":{"android":"levelo://app?vid=27198281-541e-4d09-8a9c-4f98e7fedd5f","ios":"levelo://app?vid=27198281-541e-4d09-8a9c-4f98e7fedd5f"},"vehicle_type_id":"4","last_reported":1741525699,"current_range_meters":4000,"station_id":"cjm6bp8fraef2m0cb0m0","pricing_plan_id":"cebpf4jnsgd1na2vs0mg"},{"bike_id":"d284dca7-c60e-4759-a5c3-f3cd01f730be","system_id":"levelo_inurba_marseille","lat":43.26596,"lon":5.39044,"is_reserved":false,"is_disabled":true,"rental_uris":{"android":"levelo://app?vid=d284dca7-c60e-4759-a5c3-f3cd01f730be","ios":"levelo://app?vid=d284dca7-c60e-4759-a5c3-f3cd01f730be"},"vehicle_type_id":"4","last_reported":1741525699,"current_range_meters":4000,"station_id":"ce4bhe12rcd13ifvqf30","pricing_plan_id":"cebpf4jnsgd1na2vs0mg"},{"bike_id":"a85666a4-8fe7-4d6d-9254-683bdd61b61f","system_id":"levelo_inurba_marseille","lat":43.27351,"lon":5.41435,"is_reserved":false,"is_disabled":false,"rental_uris":{"android":"levelo://app?vid=a85666a4-8fe7-4d6d-9254-683bdd61b61f","ios":"levelo://app?vid=a85666a4-8fe7-4d6d-9254-683bdd61b61f"},"vehicle_type_id":"4","last_reported":1741525699,"current_range_meters":4400,"station_id":"","pricing_plan_id":"cebpf4jnsgd1na2vs0mg"},{"bike_id":"6d0356cd-03ed-4a8b-97c7-0e2dd8952c4d","system_id":"levelo_inurba_marseille","lat":43.31713,"lon":5.43712,"is_reserved":false,"is_disabled":false,"rental_uris":{"android":"levelo://app?vid=6d0356cd-03ed-4a8b-97c7-0e2dd8952c4d","ios":"levelo://app?vid=6d0356cd-03ed-4a8b-97c7-0e2dd8952c4d"},"vehicle_type_id":"4","last_reported":1741525699,"current_range_meters":4400,"station_id":"ce4bhp92rcd13ifvqhcg","pricing_plan_id":"cebpf4jnsgd1na2vs0mg"},{"bike_id":"8dbe257c-8068-49c5-951b-a5151116f388","system_id":"levelo_inurba_marseille","lat":43.29024,"lon":5.37554,"is_reserved":false,"is_disabled":false,"rental_uris":{"android":"levelo://app?vid=8dbe257c-8068-49c5-951b-a5151116f388","ios":"levelo://app?vid=8dbe257c-8068-49c5-951b-a5151116f388"},"vehicle_type_id":"4","last_reported":1741525699,"current_range_meters":4400,"station_id":"ce4bh692rcd13ifvqe90","pricing_plan_id":"cebpf4jnsgd1na2vs0mg"},{"bike_id":"2fe3fa9d-c136-4274-aa2d-ddbc2f5c56d4","system_id":"levelo_inurba_marseille","lat":43.27628,"lon":5.39676,"is_reserved":false,"is_disabled":false,"rental_uris":{"android":"levelo://app?vid=2fe3fa9d-c136-4274-aa2d-ddbc2f5c56d4","ios":"levelo://app?vid=2fe3fa9d-c136-4274-aa2d-ddbc2f5c56d4"},"vehicle_type_id":"4","last_reported":1741525699,"current_range_meters":4400,"station_id":"","pricing_plan_id":"cebpf4jnsgd1na2vs0mg"},{"bike_id":"a62145a5-524f-42d6-833f-c73fb2488bb9","system_id":"levelo_inurba_marseille","lat":43.26512,"lon":5.3955,"is_reserved":false,"is_disabled":false,"rental_uris":{"android":"levelo://app?vid=a62145a5-524f-42d6-833f-c73fb2488bb9","ios":"levelo://app?vid=a62145a5-524f-42d6-833f-c73fb2488bb9"},"vehicle_type_id":"4","last_reported":1741525699,"current_range_meters":4400,"station_id":"ce4bhi12rcd13ifvqfq0","pricing_plan_id":"cebpf4jnsgd1na2vs0mg"},{"bike_id":"8a7c1b20-3e4a-4161-b453-8b161efde947","system_id":"levelo_inurba_marseille","lat":43.240707,"lon":5.377473,"is_reserved":false,"is_disabled":false,"rental_uris":{"android":"levelo://app?vid=8a7c1b20-3e4a-4161-b453-8b161efde947","ios":"levelo://app?vid=8a7c1b20-3e4a-4161-b453-8b161efde947"},"vehicle_type_id":"4","last_reported":1741525699,"current_range_meters":4400,"station_id":"ce4bhnp2rcd13ifvqgvg","pricing_plan_id":"cebpf4jnsgd1na2vs0mg"},{"bike_id":"496a066d-43d5-42fe-86ae-32a0a3a2d0ee","system_id":"levelo_inurba_marseille","lat":43.25572,"lon":5.38237,"is_reserved":false,"is_disabled":false,"rental_uris":{"android":"levelo://app?vid=496a066d-43d5-42fe-86ae-32a0a3a2d0ee","ios":"levelo://app?vid=496a066d-43d5-42fe-86ae-32a0a3a2d0ee"},"vehicle_type_id":"4","last_reported":1741525699,"current_range_meters":4400,"station_id":"ce4bhih2rcd13ifvqfs0","pricing_plan_id":"cebpf4jnsgd1na2vs0mg"},{"bike_id":"802ec9b6-cf45-4906-a6b8-3b7e5c09357c","system_id":"levelo_inurba_marseille","lat":43.30939,"lon":5.40156,"is_reserved":false,"is_disabled":false,"rental_uris":{"android":"levelo://app?vid=802ec9b6-cf45-4906-a6b8-3b7e5c09357c","ios":"levelo://app?vid=802ec9b6-cf45-4906-a6b8-3b7e5c09357c"},"vehicle_type_id":"4","last_reported":1741525699,"current_range_meters":4400,"station_id":"ce4bgvp2rcd13ifvqct0","pricing_plan_id":"cebpf4jnsgd1na2vs0mg"},{"bike_id":"dec29720-34f1-4ed4-8695-f9a107b367e4","system_id":"levelo_inurba_marseille","lat":43.28684,"lon":5.37374,"is_reserved":false,"is_disabled":true,"rental_uris":{"android":"levelo://app?vid=dec29720-34f1-4ed4-8695-f9a107b367e4","ios":"levelo://app?vid=dec29720-34f1-4ed4-8695-f9a107b367e4"},"vehicle_type_id":"4","last_reported":1741525699,"current_range_meters":4400,"station_id":"ce4bh3p2rcd13ifvqdq0","pricing_plan_id":"cebpf4jnsgd1na2vs0mg"},{"bike_id":"7d295ec4-9c0e-4850-9c53-dd65645b97b2","system_id":"levelo_inurba_marseille","lat":43.260577,"lon":5.393953,"is_reserved":false,"is_disabled":false,"rental_uris":{"android":"levelo://app?vid=7d295ec4-9c0e-4850-9c53-dd65645b97b2","ios":"levelo://app?vid=7d295ec4-9c0e-4850-9c53-dd65645b97b2"},"vehicle_type_id":"4","last_reported":1741525699,"current_range_meters":4800,"station_id":"ce4bhh92rcd13ifvqfj0","pricing_plan_id":"cebpf4jnsgd1na2vs0mg"},{"bike_id":"39c88fcb-d822-4133-ba8c-27f3a5c4e23a","system_id":"levelo_inurba_marseille","lat":43.28163,"lon":5.42622,"is_reserved":false,"is_disabled":false,"rental_uris":{"android":"levelo://app?vid=39c88fcb-d822-4133-ba8c-27f3a5c4e23a","ios":"levelo://app?vid=39c88fcb-d822-4133-ba8c-27f3a5c4e23a"},"vehicle_type_id":"4","last_reported":1741525699,"current_range_meters":4800,"station_id":"ce4bhnh2rcd13ifvqgug","pricing_plan_id":"cebpf4jnsgd1na2vs0mg"},{"bike_id":"de9dd6b4-169b-45d2-bea4-254a4c81f43b","system_id":"levelo_inurba_marseille","lat":43.31679,"lon":5.40479,"is_reserved":false,"is_disabled":false,"rental_uris":{"android":"levelo://app?vid=de9dd6b4-169b-45d2-bea4-254a4c81f43b","ios":"levelo://app?vid=de9dd6b4-169b-45d2-bea4-254a4c81f43b"},"vehicle_type_id":"4","last_reported":1741525699,"current_range_meters":4800,"station_id":"ce4bh012rcd13ifvqd00","pricing_plan_id":"cebpf4jnsgd1na2vs0mg"},{"bike_id":"a3ea0991-4b1c-4b3b-b5f9-ab60777b4148","system_id":"levelo_inurba_marseille","lat":43.24191,"lon":5.3972,"is_reserved":false,"is_disabled":false,"rental_uris":{"android":"levelo://app?vid=a3ea0991-4b1c-4b3b-b5f9-ab60777b4148","ios":"levelo://app?vid=a3ea0991-4b1c-4b3b-b5f9-ab60777b4148"},"vehicle_type_id":"4","last_reported":1741525699,"current_range_meters":4800,"station_id":"ce4bhn12rcd13ifvqgpg","pricing_plan_id":"cebpf4jnsgd1na2vs0mg"},{"bike_id":"9effefb9-02e3-4c25-ab75-e3a5ac01515f","system_id":"levelo_inurba_marseille","lat":43.26569,"lon":5.37283,"is_reserved":false,"is_disabled":true,"rental_uris":{"android":"levelo://app?vid=9effefb9-02e3-4c25-ab75-e3a5ac01515f","ios":"levelo://app?vid=9effefb9-02e3-4c25-ab75-e3a5ac01515f"},"vehicle_type_id":"4","last_reported":1741525699,"current_range_meters":4800,"station_id":"ce4bhg12rcd13ifvqf70","pricing_plan_id":"cebpf4jnsgd1na2vs0mg"},{"bike_id":"903ca8fb-a01f-48af-9d7f-844151e9f785","system_id":"levelo_inurba_marseille","lat":43.27954,"lon":5.41039,"is_reserved":false,"is_disabled":true,"rental_uris":{"android":"levelo://app?vid=903ca8fb-a01f-48af-9d7f-844151e9f785","ios":"levelo://app?vid=903ca8fb-a01f-48af-9d7f-844151e9f785"},"vehicle_type_id":"4","last_reported":1741525699,"current_range_meters":4800,"station_id":"ce4bhnp2rcd13ifvqh0g","pricing_plan_id":"cebpf4jnsgd1na2vs0mg"},{"bike_id":"cb0d4d15-0ce0-4061-8a04-93bcbe80bd0f","system_id":"levelo_inurba_marseille","lat":43.25943,"lon":5.40907,"is_reserved":false,"is_disabled":false,"rental_uris":{"android":"levelo://app?vid=cb0d4d15-0ce0-4061-8a04-93bcbe80bd0f","ios":"levelo://app?vid=cb0d4d15-0ce0-4061-8a04-93bcbe80bd0f"},"vehicle_type_id":"4","last_reported":1741525699,"current_range_meters":4800,"station_id":"ce4bhm92rcd13ifvqglg","pricing_plan_id":"cebpf4jnsgd1na2vs0mg"},{"bike_id":"53bd1732-d8ff-41a5-8f1b-42274afdde26","system_id":"levelo_inurba_marseille","lat":43.2935,"lon":5.42836,"is_reserved":false,"is_disabled":false,"rental_uris":{"android":"levelo://app?vid=53bd1732-d8ff-41a5-8f1b-42274afdde26","ios":"levelo://app?vid=53bd1732-d8ff-41a5-8f1b-42274afdde26"},"vehicle_type_id":"4","last_reported":1741525699,"current_range_meters":4800,"station_id":"","pricing_plan_id":"cebpf4jnsgd1na2vs0mg"},{"bike_id":"8b76a81a-4c10-4e7b-ab15-0f6dad2b5137","system_id":"levelo_inurba_marseille","lat":43.26557,"lon":5.37287,"is_reserved":false,"is_disabled":false,"rental_uris":{"android":"levelo://app?vid=8b76a81a-4c10-4e7b-ab15-0f6dad2b5137","ios":"levelo://app?vid=8b76a81a-4c10-4e7b-ab15-0f6dad2b5137"},"vehicle_type_id":"4","last_reported":1741525699,"current_range_meters":4800,"station_id":"ce4bhg12rcd13ifvqf70","pricing_plan_id":"cebpf4jnsgd1na2vs0mg"},{"bike_id":"e349ff65-0a44-4668-be39-331480a53e8c","system_id":"levelo_inurba_marseille","lat":43.29674,"lon":5.44553,"is_reserved":false,"is_disabled":false,"rental_uris":{"android":"levelo://app?vid=e349ff65-0a44-4668-be39-331480a53e8c","ios":"levelo://app?vid=e349ff65-0a44-4668-be39-331480a53e8c"},"vehicle_type_id":"4","last_reported":1741525699,"current_range_meters":5600,"station_id":"","pricing_plan_id":"cebpf4jnsgd1na2vs0mg"},{"bike_id":"c40c13ce-fdbb-4f52-b2d8-1005d4c9277b","system_id":"levelo_inurba_marseille","lat":43.25402,"lon":5.4189,"is_reserved":false,"is_disabled":false,"rental_uris":{"android":"levelo://app?vid=c40c13ce-fdbb-4f52-b2d8-1005d4c9277b","ios":"levelo://app?vid=c40c13ce-fdbb-4f52-b2d8-1005d4c9277b"},"vehicle_type_id":"4","last_reported":1741525699,"current_range_meters":6000,"station_id":"","pricing_plan_id":"cebpf4jnsgd1na2vs0mg"},{"bike_id":"a7941886-4014-44fb-b141-399687a420b4","system_id":"levelo_inurba_marseille","lat":43.25696,"lon":5.41096,"is_reserved":false,"is_disabled":false,"rental_uris":{"android":"levelo://app?vid=a7941886-4014-44fb-b141-399687a420b4","ios":"levelo://app?vid=a7941886-4014-44fb-b141-399687a420b4"},"vehicle_type_id":"4","last_reported":1741525699,"current_range_meters":6000,"station_id":"ce4bhkp2rcd13ifvqgd0","pricing_plan_id":"cebpf4jnsgd1na2vs0mg"},{"bike_id":"a01889f6-7082-4c91-9d70-b12d1c00664e","system_id":"levelo_inurba_marseille","lat":43.30808,"lon":5.43528,"is_reserved":false,"is_disabled":false,"rental_uris":{"android":"levelo://app?vid=a01889f6-7082-4c91-9d70-b12d1c00664e","ios":"levelo://app?vid=a01889f6-7082-4c91-9d70-b12d1c00664e"},"vehicle_type_id":"4","last_reported":1741525699,"current_range_meters":6000,"station_id":"ce4bhph2rcd13ifvqheg","pricing_plan_id":"cebpf4jnsgd1na2vs0mg"},{"bike_id":"a6c74a05-39e7-4da6-8b71-1ba187fc5bae","system_id":"levelo_inurba_marseille","lat":43.30551,"lon":5.3653,"is_reserved":false,"is_disabled":true,"rental_uris":{"android":"levelo://app?vid=a6c74a05-39e7-4da6-8b71-1ba187fc5bae","ios":"levelo://app?vid=a6c74a05-39e7-4da6-8b71-1ba187fc5bae"},"vehicle_type_id":"4","last_reported":1741525699,"current_range_meters":6000,"station_id":"ce4bgs12rcd13ifvqcag","pricing_plan_id":"cebpf4jnsgd1na2vs0mg"},{"bike_id":"1c0edaba-550e-4916-9ab6-b50abcaced38","system_id":"levelo_inurba_marseille","lat":43.28152,"lon":5.42629,"is_reserved":false,"is_disabled":false,"rental_uris":{"android":"levelo://app?vid=1c0edaba-550e-4916-9ab6-b50abcaced38","ios":"levelo://app?vid=1c0edaba-550e-4916-9ab6-b50abcaced38"},"vehicle_type_id":"4","last_reported":1741525699,"current_range_meters":6000,"station_id":"ce4bhnh2rcd13ifvqgug","pricing_plan_id":"cebpf4jnsgd1na2vs0mg"},{"bike_id":"5b6f0a7d-c432-461e-aa24-e63c7b31269d","system_id":"levelo_inurba_marseille","lat":43.26788,"lon":5.39403,"is_reserved":false,"is_disabled":false,"rental_uris":{"android":"levelo://app?vid=5b6f0a7d-c432-461e-aa24-e63c7b31269d","ios":"levelo://app?vid=5b6f0a7d-c432-461e-aa24-e63c7b31269d"},"vehicle_type_id":"4","last_reported":1741525699,"current_range_meters":6400,"station_id":"ce4bhh12rcd13ifvqfg0","pricing_plan_id":"cebpf4jnsgd1na2vs0mg"},{"bike_id":"4f508b50-1e3d-40c5-be77-1e6495edbe07","system_id":"levelo_inurba_marseille","lat":43.25725,"lon":5.41076,"is_reserved":false,"is_disabled":false,"rental_uris":{"android":"levelo://app?vid=4f508b50-1e3d-40c5-be77-1e6495edbe07","ios":"levelo://app?vid=4f508b50-1e3d-40c5-be77-1e6495edbe07"},"vehicle_type_id":"4","last_reported":1741525699,"current_range_meters":6400,"station_id":"ce4bhkp2rcd13ifvqgd0","pricing_plan_id":"cebpf4jnsgd1na2vs0mg"},{"bike_id":"60da0d60-f69c-42d5-9539-62b9063c570d","system_id":"levelo_inurba_marseille","lat":43.28601,"lon":5.38432,"is_reserved":false,"is_disabled":false,"rental_uris":{"android":"levelo://app?vid=60da0d60-f69c-42d5-9539-62b9063c570d","ios":"levelo://app?vid=60da0d60-f69c-42d5-9539-62b9063c570d"},"vehicle_type_id":"4","last_reported":1741525699,"current_range_meters":6400,"station_id":"ce4bgi92rcd13ifvqb90","pricing_plan_id":"cebpf4jnsgd1na2vs0mg"},{"bike_id":"1d4bb7b9-3ae6-4d31-8bdd-ee00b3232adf","system_id":"levelo_inurba_marseille","lat":43.25705,"lon":5.41077,"is_reserved":false,"is_disabled":false,"rental_uris":{"android":"levelo://app?vid=1d4bb7b9-3ae6-4d31-8bdd-ee00b3232adf","ios":"levelo://app?vid=1d4bb7b9-3ae6-4d31-8bdd-ee00b3232adf"},"vehicle_type_id":"4","last_reported":1741525699,"current_range_meters":6400,"station_id":"ce4bhkp2rcd13ifvqgd0","pricing_plan_id":"cebpf4jnsgd1na2vs0mg"},{"bike_id":"b4ec2170-59cc-4751-981a-ecabaa90ce87","system_id":"levelo_inurba_marseille","lat":43.25114,"lon":5.40329,"is_reserved":false,"is_disabled":false,"rental_uris":{"android":"levelo://app?vid=b4ec2170-59cc-4751-981a-ecabaa90ce87","ios":"levelo://app?vid=b4ec2170-59cc-4751-981a-ecabaa90ce87"},"vehicle_type_id":"4","last_reported":1741525699,"current_range_meters":6400,"station_id":"ce4bhlh2rcd13ifvqgig","pricing_plan_id":"cebpf4jnsgd1na2vs0mg"},{"bike_id":"7905631f-0710-4618-87a9-44692afb44da","system_id":"levelo_inurba_marseille","lat":43.25571,"lon":5.38233,"is_reserved":false,"is_disabled":false,"rental_uris":{"android":"levelo://app?vid=7905631f-0710-4618-87a9-44692afb44da","ios":"levelo://app?vid=7905631f-0710-4618-87a9-44692afb44da"},"vehicle_type_id":"4","last_reported":1741525699,"current_range_meters":6400,"station_id":"ce4bhih2rcd13ifvqfs0","pricing_plan_id":"cebpf4jnsgd1na2vs0mg"},{"bike_id":"a33171ff-68e6-494a-ba4c-1f514b1342e3","system_id":"levelo_inurba_marseille","lat":43.269562,"lon":5.386335,"is_reserved":false,"is_disabled":false,"rental_uris":{"android":"levelo://app?vid=a33171ff-68e6-494a-ba4c-1f514b1342e3","ios":"levelo://app?vid=a33171ff-68e6-494a-ba4c-1f514b1342e3"},"vehicle_type_id":"4","last_reported":1741525699,"current_range_meters":6400,"station_id":"ce4bhh92rcd13ifvqfh0","pricing_plan_id":"cebpf4jnsgd1na2vs0mg"},{"bike_id":"c787a0ef-03a5-4d36-b53c-60238e9036da","system_id":"levelo_inurba_marseille","lat":43.23198,"lon":5.39987,"is_reserved":false,"is_disabled":false,"rental_uris":{"android":"levelo://app?vid=c787a0ef-03a5-4d36-b53c-60238e9036da","ios":"levelo://app?vid=c787a0ef-03a5-4d36-b53c-60238e9036da"},"vehicle_type_id":"4","last_reported":1741525699,"current_range_meters":6800,"station_id":"ce4bhn12rcd13ifvqgqg","pricing_plan_id":"cebpf4jnsgd1na2vs0mg"},{"bike_id":"d399c68f-4683-4187-95d7-e32ffde3c66c","system_id":"levelo_inurba_marseille","lat":43.25093,"lon":5.39522,"is_reserved":false,"is_disabled":false,"rental_uris":{"android":"levelo://app?vid=d399c68f-4683-4187-95d7-e32ffde3c66c","ios":"levelo://app?vid=d399c68f-4683-4187-95d7-e32ffde3c66c"},"vehicle_type_id":"4","last_reported":1741525699,"current_range_meters":6800,"station_id":"ce4bhm12rcd13ifvqgkg","pricing_plan_id":"cebpf4jnsgd1na2vs0mg"},{"bike_id":"7e48344a-4db8-47b3-8baa-574165663505","system_id":"levelo_inurba_marseille","lat":43.24387,"lon":5.37071,"is_reserved":false,"is_disabled":false,"rental_uris":{"android":"levelo://app?vid=7e48344a-4db8-47b3-8baa-574165663505","ios":"levelo://app?vid=7e48344a-4db8-47b3-8baa-574165663505"},"vehicle_type_id":"4","last_reported":1741525699,"current_range_meters":6800,"station_id":"ce4bhhh2rcd13ifvqfk0","pricing_plan_id":"cebpf4jnsgd1na2vs0mg"},{"bike_id":"d6a7b524-84a6-4df4-b740-c4cb1d9ecf44","system_id":"levelo_inurba_marseille","lat":43.29025,"lon":5.38122,"is_reserved":false,"is_disabled":true,"rental_uris":{"android":"levelo://app?vid=d6a7b524-84a6-4df4-b740-c4cb1d9ecf44","ios":"levelo://app?vid=d6a7b524-84a6-4df4-b740-c4cb1d9ecf44"},"vehicle_type_id":"4","last_reported":1741525699,"current_range_meters":7200,"station_id":"ce4bh4p2rcd13ifvqe1g","pricing_plan_id":"cebpf4jnsgd1na2vs0mg"},{"bike_id":"c62b6b37-c8a5-4c06-aa07-60181a8797ff","system_id":"levelo_inurba_marseille","lat":43.31757,"lon":5.39019,"is_reserved":false,"is_disabled":false,"rental_uris":{"android":"levelo://app?vid=c62b6b37-c8a5-4c06-aa07-60181a8797ff","ios":"levelo://app?vid=c62b6b37-c8a5-4c06-aa07-60181a8797ff"},"vehicle_type_id":"4","last_reported":1741525699,"current_range_meters":7200,"station_id":"ce4bhqp2rcd13ifvqhng","pricing_plan_id":"cebpf4jnsgd1na2vs0mg"},{"bike_id":"b2c2514d-58df-4080-9acc-0a3325c87525","system_id":"levelo_inurba_marseille","lat":43.32365,"lon":5.36772,"is_reserved":false,"is_disabled":false,"rental_uris":{"android":"levelo://app?vid=b2c2514d-58df-4080-9acc-0a3325c87525","ios":"levelo://app?vid=b2c2514d-58df-4080-9acc-0a3325c87525"},"vehicle_type_id":"4","last_reported":1741525699,"current_range_meters":7200,"station_id":"ce4bhsh2rcd13ifvqi2g","pricing_plan_id":"cebpf4jnsgd1na2vs0mg"},{"bike_id":"fdf45df4-47d5-41e8-a6c7-03ee85585140","system_id":"levelo_inurba_marseille","lat":43.26766,"lon":5.39438,"is_reserved":false,"is_disabled":true,"rental_uris":{"android":"levelo://app?vid=fdf45df4-47d5-41e8-a6c7-03ee85585140","ios":"levelo://app?vid=fdf45df4-47d5-41e8-a6c7-03ee85585140"},"vehicle_type_id":"4","last_reported":1741525699,"current_range_meters":7200,"station_id":"ce4bhh12rcd13ifvqfg0","pricing_plan_id":"cebpf4jnsgd1na2vs0mg"},{"bike_id":"dd9a88d6-be9f-49f5-ab3a-4a9b434f536b","system_id":"levelo_inurba_marseille","lat":43.30919,"lon":5.40162,"is_reserved":false,"is_disabled":true,"rental_uris":{"android":"levelo://app?vid=dd9a88d6-be9f-49f5-ab3a-4a9b434f536b","ios":"levelo://app?vid=dd9a88d6-be9f-49f5-ab3a-4a9b434f536b"},"vehicle_type_id":"4","last_reported":1741525699,"current_range_meters":7200,"station_id":"ce4bgvp2rcd13ifvqct0","pricing_plan_id":"cebpf4jnsgd1na2vs0mg"},{"bike_id":"692c3fd1-e388-4c38-bc5f-023f56dd0104","system_id":"levelo_inurba_marseille","lat":43.257338,"lon":5.411081,"is_reserved":false,"is_disabled":false,"rental_uris":{"android":"levelo://app?vid=692c3fd1-e388-4c38-bc5f-023f56dd0104","ios":"levelo://app?vid=692c3fd1-e388-4c38-bc5f-023f56dd0104"},"vehicle_type_id":"4","last_reported":1741525699,"current_range_meters":7200,"station_id":"ce4bhkp2rcd13ifvqgd0","pricing_plan_id":"cebpf4jnsgd1na2vs0mg"},{"bike_id":"2f0c724b-bb76-4a4c-8862-0d82bf790fbd","system_id":"levelo_inurba_marseille","lat":43.26586,"lon":5.39042,"is_reserved":false,"is_disabled":false,"rental_uris":{"android":"levelo://app?vid=2f0c724b-bb76-4a4c-8862-0d82bf790fbd","ios":"levelo://app?vid=2f0c724b-bb76-4a4c-8862-0d82bf790fbd"},"vehicle_type_id":"4","last_reported":1741525699,"current_range_meters":7200,"station_id":"ce4bhe12rcd13ifvqf30","pricing_plan_id":"cebpf4jnsgd1na2vs0mg"},{"bike_id":"9659710b-b5e0-4111-abc2-1267c0b82212","system_id":"levelo_inurba_marseille","lat":43.31068,"lon":5.38359,"is_reserved":false,"is_disabled":false,"rental_uris":{"android":"levelo://app?vid=9659710b-b5e0-4111-abc2-1267c0b82212","ios":"levelo://app?vid=9659710b-b5e0-4111-abc2-1267c0b82212"},"vehicle_type_id":"4","last_reported":1741525699,"current_range_meters":7200,"station_id":"ce4bgv92rcd13ifvqcr0","pricing_plan_id":"cebpf4jnsgd1na2vs0mg"},{"bike_id":"dad63a22-3573-4eb3-a8b7-44c1b9eff39e","system_id":"levelo_inurba_marseille","lat":43.3263,"lon":5.41016,"is_reserved":false,"is_disabled":false,"rental_uris":{"android":"levelo://app?vid=dad63a22-3573-4eb3-a8b7-44c1b9eff39e","ios":"levelo://app?vid=dad63a22-3573-4eb3-a8b7-44c1b9eff39e"},"vehicle_type_id":"4","last_reported":1741525699,"current_range_meters":7200,"station_id":"ce4bhpp2rcd13ifvqhgg","pricing_plan_id":"cebpf4jnsgd1na2vs0mg"},{"bike_id":"2e3c60b3-f5fc-40b6-b347-86b0b4f3ee6e","system_id":"levelo_inurba_marseille","lat":43.23205,"lon":5.39995,"is_reserved":false,"is_disabled":false,"rental_uris":{"android":"levelo://app?vid=2e3c60b3-f5fc-40b6-b347-86b0b4f3ee6e","ios":"levelo://app?vid=2e3c60b3-f5fc-40b6-b347-86b0b4f3ee6e"},"vehicle_type_id":"4","last_reported":1741525699,"current_range_meters":7200,"station_id":"ce4bhn12rcd13ifvqgqg","pricing_plan_id":"cebpf4jnsgd1na2vs0mg"},{"bike_id":"c854b195-a8dd-4c0b-8985-9c3d86974ab3","system_id":"levelo_inurba_marseille","lat":43.325923,"lon":5.356763,"is_reserved":false,"is_disabled":false,"rental_uris":{"android":"levelo://app?vid=c854b195-a8dd-4c0b-8985-9c3d86974ab3","ios":"levelo://app?vid=c854b195-a8dd-4c0b-8985-9c3d86974ab3"},"vehicle_type_id":"4","last_reported":1741525699,"current_range_meters":7200,"station_id":"","pricing_plan_id":"cebpf4jnsgd1na2vs0mg"},{"bike_id":"6278d2ee-3fe8-4bef-aea6-64166ac384f6","system_id":"levelo_inurba_marseille","lat":43.26687,"lon":5.38294,"is_reserved":false,"is_disabled":true,"rental_uris":{"android":"levelo://app?vid=6278d2ee-3fe8-4bef-aea6-64166ac384f6","ios":"levelo://app?vid=6278d2ee-3fe8-4bef-aea6-64166ac384f6"},"vehicle_type_id":"4","last_reported":1741525699,"current_range_meters":7200,"station_id":"ce4bhg92rcd13ifvqf90","pricing_plan_id":"cebpf4jnsgd1na2vs0mg"},{"bike_id":"e4bd2c36-555f-4bad-ae17-7623a44e9165","system_id":"levelo_inurba_marseille","lat":43.313464,"lon":5.38322,"is_reserved":false,"is_disabled":false,"rental_uris":{"android":"levelo://app?vid=e4bd2c36-555f-4bad-ae17-7623a44e9165","ios":"levelo://app?vid=e4bd2c36-555f-4bad-ae17-7623a44e9165"},"vehicle_type_id":"4","last_reported":1741525699,"current_range_meters":8000,"station_id":"","pricing_plan_id":"cebpf4jnsgd1na2vs0mg"},{"bike_id":"c96d4cf5-4caa-424b-aaed-f59002c4db95","system_id":"levelo_inurba_marseille","lat":43.31182,"lon":5.38722,"is_reserved":false,"is_disabled":false,"rental_uris":{"android":"levelo://app?vid=c96d4cf5-4caa-424b-aaed-f59002c4db95","ios":"levelo://app?vid=c96d4cf5-4caa-424b-aaed-f59002c4db95"},"vehicle_type_id":"4","last_reported":1741525699,"current_range_meters":8000,"station_id":"ce4bgv12rcd13ifvqcp0","pricing_plan_id":"cebpf4jnsgd1na2vs0mg"},{"bike_id":"388ea826-f5fa-4632-a530-45d13cc0a769","system_id":"levelo_inurba_marseille","lat":43.23192,"lon":5.39995,"is_reserved":false,"is_disabled":false,"rental_uris":{"android":"levelo://app?vid=388ea826-f5fa-4632-a530-45d13cc0a769","ios":"levelo://app?vid=388ea826-f5fa-4632-a530-45d13cc0a769"},"vehicle_type_id":"4","last_reported":1741525699,"current_range_meters":8000,"station_id":"ce4bhn12rcd13ifvqgqg","pricing_plan_id":"cebpf4jnsgd1na2vs0mg"},{"bike_id":"b533f38f-df9a-4e01-86fb-08f4b9bfcdfb","system_id":"levelo_inurba_marseille","lat":43.26218,"lon":5.42151,"is_reserved":false,"is_disabled":false,"rental_uris":{"android":"levelo://app?vid=b533f38f-df9a-4e01-86fb-08f4b9bfcdfb","ios":"levelo://app?vid=b533f38f-df9a-4e01-86fb-08f4b9bfcdfb"},"vehicle_type_id":"4","last_reported":1741525699,"current_range_meters":8000,"station_id":"","pricing_plan_id":"cebpf4jnsgd1na2vs0mg"},{"bike_id":"7e02cfbd-631a-4ab3-ae10-1472e2c5bb1c","system_id":"levelo_inurba_marseille","lat":43.3206,"lon":5.41571,"is_reserved":false,"is_disabled":false,"rental_uris":{"android":"levelo://app?vid=7e02cfbd-631a-4ab3-ae10-1472e2c5bb1c","ios":"levelo://app?vid=7e02cfbd-631a-4ab3-ae10-1472e2c5bb1c"},"vehicle_type_id":"4","last_reported":1741525699,"current_range_meters":8000,"station_id":"ce4bhq92rcd13ifvqhkg","pricing_plan_id":"cebpf4jnsgd1na2vs0mg"},{"bike_id":"1b64b399-416d-4c69-9a76-4986b48c5800","system_id":"levelo_inurba_marseille","lat":43.31733,"lon":5.37755,"is_reserved":false,"is_disabled":false,"rental_uris":{"android":"levelo://app?vid=1b64b399-416d-4c69-9a76-4986b48c5800","ios":"levelo://app?vid=1b64b399-416d-4c69-9a76-4986b48c5800"},"vehicle_type_id":"4","last_reported":1741525699,"current_range_meters":8000,"station_id":"ce4bgth2rcd13ifvqch0","pricing_plan_id":"cebpf4jnsgd1na2vs0mg"},{"bike_id":"31078f29-744e-4f70-aa89-070122c91b31","system_id":"levelo_inurba_marseille","lat":43.34351,"lon":5.39971,"is_reserved":false,"is_disabled":false,"rental_uris":{"android":"levelo://app?vid=31078f29-744e-4f70-aa89-070122c91b31","ios":"levelo://app?vid=31078f29-744e-4f70-aa89-070122c91b31"},"vehicle_type_id":"4","last_reported":1741525699,"current_range_meters":8400,"station_id":"","pricing_plan_id":"cebpf4jnsgd1na2vs0mg"},{"bike_id":"ad284fdb-e6f9-4c5a-9e2c-c44130087410","system_id":"levelo_inurba_marseille","lat":43.23188,"lon":5.39989,"is_reserved":false,"is_disabled":false,"rental_uris":{"android":"levelo://app?vid=ad284fdb-e6f9-4c5a-9e2c-c44130087410","ios":"levelo://app?vid=ad284fdb-e6f9-4c5a-9e2c-c44130087410"},"vehicle_type_id":"4","last_reported":1741525699,"current_range_meters":8400,"station_id":"ce4bhn12rcd13ifvqgqg","pricing_plan_id":"cebpf4jnsgd1na2vs0mg"},{"bike_id":"8968ebf0-976e-4199-a05d-0b5eb90e8fa7","system_id":"levelo_inurba_marseille","lat":43.25744,"lon":5.41081,"is_reserved":false,"is_disabled":false,"rental_uris":{"android":"levelo://app?vid=8968ebf0-976e-4199-a05d-0b5eb90e8fa7","ios":"levelo://app?vid=8968ebf0-976e-4199-a05d-0b5eb90e8fa7"},"vehicle_type_id":"4","last_reported":1741525699,"current_range_meters":8400,"station_id":"ce4bhkp2rcd13ifvqgd0","pricing_plan_id":"cebpf4jnsgd1na2vs0mg"},{"bike_id":"b262d877-2bb6-4bd7-80ba-0e155366a271","system_id":"levelo_inurba_marseille","lat":43.28443,"lon":5.39203,"is_reserved":false,"is_disabled":false,"rental_uris":{"android":"levelo://app?vid=b262d877-2bb6-4bd7-80ba-0e155366a271","ios":"levelo://app?vid=b262d877-2bb6-4bd7-80ba-0e155366a271"},"vehicle_type_id":"4","last_reported":1741525699,"current_range_meters":8400,"station_id":"ce4bhoh2rcd13ifvqh5g","pricing_plan_id":"cebpf4jnsgd1na2vs0mg"},{"bike_id":"21090efb-813e-4bfd-ac70-5164e92b28c6","system_id":"levelo_inurba_marseille","lat":43.27662,"lon":5.38947,"is_reserved":false,"is_disabled":true,"rental_uris":{"android":"levelo://app?vid=21090efb-813e-4bfd-ac70-5164e92b28c6","ios":"levelo://app?vid=21090efb-813e-4bfd-ac70-5164e92b28c6"},"vehicle_type_id":"4","last_reported":1741525699,"current_range_meters":8400,"station_id":"ce4bhi12rcd13ifvqfo0","pricing_plan_id":"cebpf4jnsgd1na2vs0mg"},{"bike_id":"8eacff87-68fb-4181-ae93-fe09a817442a","system_id":"levelo_inurba_marseille","lat":43.26062,"lon":5.39417,"is_reserved":false,"is_disabled":false,"rental_uris":{"android":"levelo://app?vid=8eacff87-68fb-4181-ae93-fe09a817442a","ios":"levelo://app?vid=8eacff87-68fb-4181-ae93-fe09a817442a"},"vehicle_type_id":"4","last_reported":1741525699,"current_range_meters":8400,"station_id":"ce4bhh92rcd13ifvqfj0","pricing_plan_id":"cebpf4jnsgd1na2vs0mg"},{"bike_id":"93b65028-e8a4-4c8f-876a-ae246ea8ac90","system_id":"levelo_inurba_marseille","lat":43.31369,"lon":5.38503,"is_reserved":false,"is_disabled":true,"rental_uris":{"android":"levelo://app?vid=93b65028-e8a4-4c8f-876a-ae246ea8ac90","ios":"levelo://app?vid=93b65028-e8a4-4c8f-876a-ae246ea8ac90"},"vehicle_type_id":"4","last_reported":1741525699,"current_range_meters":8800,"station_id":"ce4bgt92rcd13ifvqcf0","pricing_plan_id":"cebpf4jnsgd1na2vs0mg"},{"bike_id":"f7515e47-1b5c-4cc2-87fc-79ab0a524835","system_id":"levelo_inurba_marseille","lat":43.31757,"lon":5.39016,"is_reserved":false,"is_disabled":false,"rental_uris":{"android":"levelo://app?vid=f7515e47-1b5c-4cc2-87fc-79ab0a524835","ios":"levelo://app?vid=f7515e47-1b5c-4cc2-87fc-79ab0a524835"},"vehicle_type_id":"4","last_reported":1741525699,"current_range_meters":8800,"station_id":"ce4bhqp2rcd13ifvqhng","pricing_plan_id":"cebpf4jnsgd1na2vs0mg"},{"bike_id":"30ca0a12-56c0-4feb-9059-10680035a6ae","system_id":"levelo_inurba_marseille","lat":43.286961,"lon":5.373965,"is_reserved":false,"is_disabled":true,"rental_uris":{"android":"levelo://app?vid=30ca0a12-56c0-4feb-9059-10680035a6ae","ios":"levelo://app?vid=30ca0a12-56c0-4feb-9059-10680035a6ae"},"vehicle_type_id":"4","last_reported":1741525699,"current_range_meters":8800,"station_id":"ce4bh3p2rcd13ifvqdq0","pricing_plan_id":"cebpf4jnsgd1na2vs0mg"},{"bike_id":"3e3ed28a-d70d-4e7b-8492-a13a8b5faa63","system_id":"levelo_inurba_marseille","lat":43.25854,"lon":5.39908,"is_reserved":false,"is_disabled":false,"rental_uris":{"android":"levelo://app?vid=3e3ed28a-d70d-4e7b-8492-a13a8b5faa63","ios":"levelo://app?vid=3e3ed28a-d70d-4e7b-8492-a13a8b5faa63"},"vehicle_type_id":"4","last_reported":1741525699,"current_range_meters":8800,"station_id":"ce4bhl92rcd13ifvqghg","pricing_plan_id":"cebpf4jnsgd1na2vs0mg"},{"bike_id":"e5e118b0-32a8-4ef3-b6d1-b7487133ba19","system_id":"levelo_inurba_marseille","lat":43.28173,"lon":5.42638,"is_reserved":false,"is_disabled":false,"rental_uris":{"android":"levelo://app?vid=e5e118b0-32a8-4ef3-b6d1-b7487133ba19","ios":"levelo://app?vid=e5e118b0-32a8-4ef3-b6d1-b7487133ba19"},"vehicle_type_id":"4","last_reported":1741525699,"current_range_meters":8800,"station_id":"ce4bhnh2rcd13ifvqgug","pricing_plan_id":"cebpf4jnsgd1na2vs0mg"},{"bike_id":"d4d80517-15f5-40ba-adfb-dbbe2bf1cada","system_id":"levelo_inurba_marseille","lat":43.29074,"lon":5.43669,"is_reserved":false,"is_disabled":false,"rental_uris":{"android":"levelo://app?vid=d4d80517-15f5-40ba-adfb-dbbe2bf1cada","ios":"levelo://app?vid=d4d80517-15f5-40ba-adfb-dbbe2bf1cada"},"vehicle_type_id":"4","last_reported":1741525699,"current_range_meters":8800,"station_id":"","pricing_plan_id":"cebpf4jnsgd1na2vs0mg"},{"bike_id":"a4e6a743-4ff5-437d-be8d-c71876e7375d","system_id":"levelo_inurba_marseille","lat":43.337208,"lon":5.391842,"is_reserved":false,"is_disabled":false,"rental_uris":{"android":"levelo://app?vid=a4e6a743-4ff5-437d-be8d-c71876e7375d","ios":"levelo://app?vid=a4e6a743-4ff5-437d-be8d-c71876e7375d"},"vehicle_type_id":"4","last_reported":1741525699,"current_range_meters":8800,"station_id":"ce4bhr92rcd13ifvqhsg","pricing_plan_id":"cebpf4jnsgd1na2vs0mg"},{"bike_id":"748b1d48-f068-4996-91ca-3427ed80e621","system_id":"levelo_inurba_marseille","lat":43.27995,"lon":5.41666,"is_reserved":false,"is_disabled":false,"rental_uris":{"android":"levelo://app?vid=748b1d48-f068-4996-91ca-3427ed80e621","ios":"levelo://app?vid=748b1d48-f068-4996-91ca-3427ed80e621"},"vehicle_type_id":"4","last_reported":1741525699,"current_range_meters":8800,"station_id":"ce4bho12rcd13ifvqh1g","pricing_plan_id":"cebpf4jnsgd1na2vs0mg"},{"bike_id":"8810679a-e7c9-4297-97b3-dd7d0bfc4864","system_id":"levelo_inurba_marseille","lat":43.2501,"lon":5.389,"is_reserved":false,"is_disabled":false,"rental_uris":{"android":"levelo://app?vid=8810679a-e7c9-4297-97b3-dd7d0bfc4864","ios":"levelo://app?vid=8810679a-e7c9-4297-97b3-dd7d0bfc4864"},"vehicle_type_id":"4","last_reported":1741525699,"current_range_meters":8800,"station_id":"ce4bhgp2rcd13ifvqfd0","pricing_plan_id":"cebpf4jnsgd1na2vs0mg"},{"bike_id":"2a3a8222-0824-4130-a051-e3506a3fb94c","system_id":"levelo_inurba_marseille","lat":43.24076,"lon":5.37763,"is_reserved":false,"is_disabled":false,"rental_uris":{"android":"levelo://app?vid=2a3a8222-0824-4130-a051-e3506a3fb94c","ios":"levelo://app?vid=2a3a8222-0824-4130-a051-e3506a3fb94c"},"vehicle_type_id":"4","last_reported":1741525699,"current_range_meters":9200,"station_id":"ce4bhnp2rcd13ifvqgvg","pricing_plan_id":"cebpf4jnsgd1na2vs0mg"},{"bike_id":"e47dc6e6-72dc-45c6-84f4-cd074c509a37","system_id":"levelo_inurba_marseille","lat":43.290222,"lon":5.381233,"is_reserved":false,"is_disabled":false,"rental_uris":{"android":"levelo://app?vid=e47dc6e6-72dc-45c6-84f4-cd074c509a37","ios":"levelo://app?vid=e47dc6e6-72dc-45c6-84f4-cd074c509a37"},"vehicle_type_id":"4","last_reported":1741525699,"current_range_meters":9200,"station_id":"ce4bh3p2rcd13ifvqdq0","pricing_plan_id":"cebpf4jnsgd1na2vs0mg"},{"bike_id":"716ad52e-6276-401a-9565-37b068cf8f1c","system_id":"levelo_inurba_marseille","lat":43.24812,"lon":5.37467,"is_reserved":false,"is_disabled":false,"rental_uris":{"android":"levelo://app?vid=716ad52e-6276-401a-9565-37b068cf8f1c","ios":"levelo://app?vid=716ad52e-6276-401a-9565-37b068cf8f1c"},"vehicle_type_id":"4","last_reported":1741525699,"current_range_meters":9200,"station_id":"ce4bhgh2rcd13ifvqfb0","pricing_plan_id":"cebpf4jnsgd1na2vs0mg"},{"bike_id":"19bbe8da-d7df-496e-a677-cbaab925cf5e","system_id":"levelo_inurba_marseille","lat":43.24897,"lon":5.42533,"is_reserved":false,"is_disabled":false,"rental_uris":{"android":"levelo://app?vid=19bbe8da-d7df-496e-a677-cbaab925cf5e","ios":"levelo://app?vid=19bbe8da-d7df-496e-a677-cbaab925cf5e"},"vehicle_type_id":"4","last_reported":1741525699,"current_range_meters":9200,"station_id":"","pricing_plan_id":"cebpf4jnsgd1na2vs0mg"},{"bike_id":"14704438-ead4-4a94-95b6-837271a082f6","system_id":"levelo_inurba_marseille","lat":43.24666,"lon":5.38186,"is_reserved":false,"is_disabled":false,"rental_uris":{"android":"levelo://app?vid=14704438-ead4-4a94-95b6-837271a082f6","ios":"levelo://app?vid=14704438-ead4-4a94-95b6-837271a082f6"},"vehicle_type_id":"4","last_reported":1741525699,"current_range_meters":9200,"station_id":"ce4bhih2rcd13ifvqfr0","pricing_plan_id":"cebpf4jnsgd1na2vs0mg"},{"bike_id":"565fac05-172c-4b9b-92f1-8fa35566d080","system_id":"levelo_inurba_marseille","lat":43.25725,"lon":5.41104,"is_reserved":false,"is_disabled":false,"rental_uris":{"android":"levelo://app?vid=565fac05-172c-4b9b-92f1-8fa35566d080","ios":"levelo://app?vid=565fac05-172c-4b9b-92f1-8fa35566d080"},"vehicle_type_id":"4","last_reported":1741525699,"current_range_meters":9200,"station_id":"ce4bhkp2rcd13ifvqgd0","pricing_plan_id":"cebpf4jnsgd1na2vs0mg"},{"bike_id":"7b2f6b3b-3dfd-4e2d-be6b-0818decb7513","system_id":"levelo_inurba_marseille","lat":43.31721,"lon":5.40443,"is_reserved":false,"is_disabled":false,"rental_uris":{"android":"levelo://app?vid=7b2f6b3b-3dfd-4e2d-be6b-0818decb7513","ios":"levelo://app?vid=7b2f6b3b-3dfd-4e2d-be6b-0818decb7513"},"vehicle_type_id":"4","last_reported":1741525699,"current_range_meters":9200,"station_id":"ce4bh012rcd13ifvqd00","pricing_plan_id":"cebpf4jnsgd1na2vs0mg"},{"bike_id":"97687e68-be46-4713-8e56-6dcec5493f0a","system_id":"levelo_inurba_marseille","lat":43.24801,"lon":5.37466,"is_reserved":false,"is_disabled":false,"rental_uris":{"android":"levelo://app?vid=97687e68-be46-4713-8e56-6dcec5493f0a","ios":"levelo://app?vid=97687e68-be46-4713-8e56-6dcec5493f0a"},"vehicle_type_id":"4","last_reported":1741525699,"current_range_meters":9200,"station_id":"ce4bhgh2rcd13ifvqfb0","pricing_plan_id":"cebpf4jnsgd1na2vs0mg"},{"bike_id":"c005a41e-a53a-49c3-ab86-ed6508363649","system_id":"levelo_inurba_marseille","lat":43.24555,"lon":5.39562,"is_reserved":false,"is_disabled":false,"rental_uris":{"android":"levelo://app?vid=c005a41e-a53a-49c3-ab86-ed6508363649","ios":"levelo://app?vid=c005a41e-a53a-49c3-ab86-ed6508363649"},"vehicle_type_id":"4","last_reported":1741525699,"current_range_meters":9200,"station_id":"ce4bhlp2rcd13ifvqgjg","pricing_plan_id":"cebpf4jnsgd1na2vs0mg"},{"bike_id":"cb0d6e65-7335-46d7-bf43-5432cb892aeb","system_id":"levelo_inurba_marseille","lat":43.31434,"lon":5.38615,"is_reserved":false,"is_disabled":false,"rental_uris":{"android":"levelo://app?vid=cb0d6e65-7335-46d7-bf43-5432cb892aeb","ios":"levelo://app?vid=cb0d6e65-7335-46d7-bf43-5432cb892aeb"},"vehicle_type_id":"4","last_reported":1741525699,"current_range_meters":9200,"station_id":"ce4bgt92rcd13ifvqcf0","pricing_plan_id":"cebpf4jnsgd1na2vs0mg"},{"bike_id":"2ccee320-67e8-4dc3-b761-19553b6bcc0d","system_id":"levelo_inurba_marseille","lat":43.25656,"lon":5.41075,"is_reserved":false,"is_disabled":false,"rental_uris":{"android":"levelo://app?vid=2ccee320-67e8-4dc3-b761-19553b6bcc0d","ios":"levelo://app?vid=2ccee320-67e8-4dc3-b761-19553b6bcc0d"},"vehicle_type_id":"4","last_reported":1741525699,"current_range_meters":9200,"station_id":"","pricing_plan_id":"cebpf4jnsgd1na2vs0mg"},{"bike_id":"243d9081-a017-4cfe-b43e-e7fb2d3e6a3b","system_id":"levelo_inurba_marseille","lat":43.28727,"lon":5.38614,"is_reserved":false,"is_disabled":false,"rental_uris":{"android":"levelo://app?vid=243d9081-a017-4cfe-b43e-e7fb2d3e6a3b","ios":"levelo://app?vid=243d9081-a017-4cfe-b43e-e7fb2d3e6a3b"},"vehicle_type_id":"4","last_reported":1741525699,"current_range_meters":9200,"station_id":"","pricing_plan_id":"cebpf4jnsgd1na2vs0mg"},{"bike_id":"cf3ef34c-e7a7-4b57-9fab-554ab221f09a","system_id":"levelo_inurba_marseille","lat":43.27942,"lon":5.41051,"is_reserved":false,"is_disabled":false,"rental_uris":{"android":"levelo://app?vid=cf3ef34c-e7a7-4b57-9fab-554ab221f09a","ios":"levelo://app?vid=cf3ef34c-e7a7-4b57-9fab-554ab221f09a"},"vehicle_type_id":"4","last_reported":1741525699,"current_range_meters":9200,"station_id":"ce4bhnp2rcd13ifvqh0g","pricing_plan_id":"cebpf4jnsgd1na2vs0mg"},{"bike_id":"768a8b1b-0b22-4c90-8353-951ae83771e1","system_id":"levelo_inurba_marseille","lat":43.24744,"lon":5.38085,"is_reserved":false,"is_disabled":false,"rental_uris":{"android":"levelo://app?vid=768a8b1b-0b22-4c90-8353-951ae83771e1","ios":"levelo://app?vid=768a8b1b-0b22-4c90-8353-951ae83771e1"},"vehicle_type_id":"4","last_reported":1741525699,"current_range_meters":9200,"station_id":"","pricing_plan_id":"cebpf4jnsgd1na2vs0mg"},{"bike_id":"6f3d4191-ee9c-4c6a-a77b-a01f7b5f03d8","system_id":"levelo_inurba_marseille","lat":43.294312,"lon":5.397545,"is_reserved":false,"is_disabled":false,"rental_uris":{"android":"levelo://app?vid=6f3d4191-ee9c-4c6a-a77b-a01f7b5f03d8","ios":"levelo://app?vid=6f3d4191-ee9c-4c6a-a77b-a01f7b5f03d8"},"vehicle_type_id":"4","last_reported":1741525699,"current_range_meters":9200,"station_id":"ce4bh3h2rcd13ifvqdo0","pricing_plan_id":"cebpf4jnsgd1na2vs0mg"},{"bike_id":"87d6e4ef-3df7-4bbb-ac4a-4299f7db2aa6","system_id":"levelo_inurba_marseille","lat":43.25711,"lon":5.41111,"is_reserved":false,"is_disabled":false,"rental_uris":{"android":"levelo://app?vid=87d6e4ef-3df7-4bbb-ac4a-4299f7db2aa6","ios":"levelo://app?vid=87d6e4ef-3df7-4bbb-ac4a-4299f7db2aa6"},"vehicle_type_id":"4","last_reported":1741525699,"current_range_meters":9600,"station_id":"ce4bhkp2rcd13ifvqgd0","pricing_plan_id":"cebpf4jnsgd1na2vs0mg"},{"bike_id":"d0db97d2-80d9-42a7-9cad-580d09018910","system_id":"levelo_inurba_marseille","lat":43.30431,"lon":5.39764,"is_reserved":false,"is_disabled":false,"rental_uris":{"android":"levelo://app?vid=d0db97d2-80d9-42a7-9cad-580d09018910","ios":"levelo://app?vid=d0db97d2-80d9-42a7-9cad-580d09018910"},"vehicle_type_id":"4","last_reported":1741525699,"current_range_meters":9600,"station_id":"ce4bh092rcd13ifvqd20","pricing_plan_id":"cebpf4jnsgd1na2vs0mg"},{"bike_id":"df0ec358-c413-4391-b9ca-08ef5bb5a2a7","system_id":"levelo_inurba_marseille","lat":43.26598,"lon":5.39067,"is_reserved":false,"is_disabled":false,"rental_uris":{"android":"levelo://app?vid=df0ec358-c413-4391-b9ca-08ef5bb5a2a7","ios":"levelo://app?vid=df0ec358-c413-4391-b9ca-08ef5bb5a2a7"},"vehicle_type_id":"4","last_reported":1741525699,"current_range_meters":9600,"station_id":"ce4bhe12rcd13ifvqf30","pricing_plan_id":"cebpf4jnsgd1na2vs0mg"},{"bike_id":"05156e07-47f0-4de0-bb69-b66700e92b0e","system_id":"levelo_inurba_marseille","lat":43.24393,"lon":5.37057,"is_reserved":false,"is_disabled":true,"rental_uris":{"android":"levelo://app?vid=05156e07-47f0-4de0-bb69-b66700e92b0e","ios":"levelo://app?vid=05156e07-47f0-4de0-bb69-b66700e92b0e"},"vehicle_type_id":"4","last_reported":1741525699,"current_range_meters":9600,"station_id":"ce4bhhh2rcd13ifvqfk0","pricing_plan_id":"cebpf4jnsgd1na2vs0mg"},{"bike_id":"ac2efbb8-87f5-4e67-91b6-6982ed970754","system_id":"levelo_inurba_marseille","lat":43.25109,"lon":5.40324,"is_reserved":false,"is_disabled":false,"rental_uris":{"android":"levelo://app?vid=ac2efbb8-87f5-4e67-91b6-6982ed970754","ios":"levelo://app?vid=ac2efbb8-87f5-4e67-91b6-6982ed970754"},"vehicle_type_id":"4","last_reported":1741525699,"current_range_meters":9600,"station_id":"ce4bhlh2rcd13ifvqgig","pricing_plan_id":"cebpf4jnsgd1na2vs0mg"},{"bike_id":"b4c9fc08-92b4-40ba-ba9e-03e885dbfc0c","system_id":"levelo_inurba_marseille","lat":43.23061,"lon":5.35501,"is_reserved":false,"is_disabled":false,"rental_uris":{"android":"levelo://app?vid=b4c9fc08-92b4-40ba-ba9e-03e885dbfc0c","ios":"levelo://app?vid=b4c9fc08-92b4-40ba-ba9e-03e885dbfc0c"},"vehicle_type_id":"4","last_reported":1741525699,"current_range_meters":9600,"station_id":"cpo3342slgdg3j2ifvpg","pricing_plan_id":"cebpf4jnsgd1na2vs0mg"},{"bike_id":"2f96ebc8-4920-4fd2-8f71-b400abcf6cfb","system_id":"levelo_inurba_marseille","lat":43.28472,"lon":5.38398,"is_reserved":false,"is_disabled":false,"rental_uris":{"android":"levelo://app?vid=2f96ebc8-4920-4fd2-8f71-b400abcf6cfb","ios":"levelo://app?vid=2f96ebc8-4920-4fd2-8f71-b400abcf6cfb"},"vehicle_type_id":"4","last_reported":1741525699,"current_range_meters":10000,"station_id":"ce4bh512rcd13ifvqe3g","pricing_plan_id":"cebpf4jnsgd1na2vs0mg"},{"bike_id":"087036ff-e2fe-413c-b913-026734388b1f","system_id":"levelo_inurba_marseille","lat":43.26785,"lon":5.39417,"is_reserved":false,"is_disabled":false,"rental_uris":{"android":"levelo://app?vid=087036ff-e2fe-413c-b913-026734388b1f","ios":"levelo://app?vid=087036ff-e2fe-413c-b913-026734388b1f"},"vehicle_type_id":"4","last_reported":1741525699,"current_range_meters":10000,"station_id":"ce4bhh12rcd13ifvqfg0","pricing_plan_id":"cebpf4jnsgd1na2vs0mg"},{"bike_id":"1ebaf94d-02fd-433e-9b27-0e7505de48c0","system_id":"levelo_inurba_marseille","lat":43.28491,"lon":5.3844,"is_reserved":false,"is_disabled":true,"rental_uris":{"android":"levelo://app?vid=1ebaf94d-02fd-433e-9b27-0e7505de48c0","ios":"levelo://app?vid=1ebaf94d-02fd-433e-9b27-0e7505de48c0"},"vehicle_type_id":"4","last_reported":1741525699,"current_range_meters":10000,"station_id":"ce4bh512rcd13ifvqe3g","pricing_plan_id":"cebpf4jnsgd1na2vs0mg"},{"bike_id":"f5d27d01-effc-4a0c-b4ac-2b42b750aca5","system_id":"levelo_inurba_marseille","lat":43.245418,"lon":5.395236,"is_reserved":false,"is_disabled":false,"rental_uris":{"android":"levelo://app?vid=f5d27d01-effc-4a0c-b4ac-2b42b750aca5","ios":"levelo://app?vid=f5d27d01-effc-4a0c-b4ac-2b42b750aca5"},"vehicle_type_id":"4","last_reported":1741525699,"current_range_meters":10000,"station_id":"ce4bhlp2rcd13ifvqgjg","pricing_plan_id":"cebpf4jnsgd1na2vs0mg"},{"bike_id":"a6bd990a-685a-41d8-b918-9cbe4c8e1b3b","system_id":"levelo_inurba_marseille","lat":43.28614,"lon":5.35097,"is_reserved":false,"is_disabled":false,"rental_uris":{"android":"levelo://app?vid=a6bd990a-685a-41d8-b918-9cbe4c8e1b3b","ios":"levelo://app?vid=a6bd990a-685a-41d8-b918-9cbe4c8e1b3b"},"vehicle_type_id":"4","last_reported":1741525699,"current_range_meters":10000,"station_id":"ce4bhch2rcd13ifvqeug","pricing_plan_id":"cebpf4jnsgd1na2vs0mg"},{"bike_id":"4c5d8bb4-3d1e-4689-9d72-361d8d376cce","system_id":"levelo_inurba_marseille","lat":43.24813,"lon":5.37471,"is_reserved":false,"is_disabled":false,"rental_uris":{"android":"levelo://app?vid=4c5d8bb4-3d1e-4689-9d72-361d8d376cce","ios":"levelo://app?vid=4c5d8bb4-3d1e-4689-9d72-361d8d376cce"},"vehicle_type_id":"4","last_reported":1741525699,"current_range_meters":10000,"station_id":"ce4bhgh2rcd13ifvqfb0","pricing_plan_id":"cebpf4jnsgd1na2vs0mg"},{"bike_id":"bbf62d9f-22e8-446b-b3ab-fed286c04dd7","system_id":"levelo_inurba_marseille","lat":43.3095,"lon":5.37505,"is_reserved":false,"is_disabled":false,"rental_uris":{"android":"levelo://app?vid=bbf62d9f-22e8-446b-b3ab-fed286c04dd7","ios":"levelo://app?vid=bbf62d9f-22e8-446b-b3ab-fed286c04dd7"},"vehicle_type_id":"4","last_reported":1741525699,"current_range_meters":10000,"station_id":"","pricing_plan_id":"cebpf4jnsgd1na2vs0mg"},{"bike_id":"5e7b27ef-a426-4849-8056-82ebaa124bb0","system_id":"levelo_inurba_marseille","lat":43.30242,"lon":5.40063,"is_reserved":false,"is_disabled":true,"rental_uris":{"android":"levelo://app?vid=5e7b27ef-a426-4849-8056-82ebaa124bb0","ios":"levelo://app?vid=5e7b27ef-a426-4849-8056-82ebaa124bb0"},"vehicle_type_id":"4","last_reported":1741525699,"current_range_meters":10800,"station_id":"ce4bgvh2rcd13ifvqcs0","pricing_plan_id":"cebpf4jnsgd1na2vs0mg"},{"bike_id":"b3b6de43-7ccc-473b-9e87-034a0d9f1009","system_id":"levelo_inurba_marseille","lat":43.29039,"lon":5.37566,"is_reserved":false,"is_disabled":true,"rental_uris":{"android":"levelo://app?vid=b3b6de43-7ccc-473b-9e87-034a0d9f1009","ios":"levelo://app?vid=b3b6de43-7ccc-473b-9e87-034a0d9f1009"},"vehicle_type_id":"4","last_reported":1741525699,"current_range_meters":10800,"station_id":"ce4bh692rcd13ifvqe90","pricing_plan_id":"cebpf4jnsgd1na2vs0mg"},{"bike_id":"ac13c927-ef96-480c-ac70-9f27e602a87a","system_id":"levelo_inurba_marseille","lat":43.25581,"lon":5.38248,"is_reserved":false,"is_disabled":false,"rental_uris":{"android":"levelo://app?vid=ac13c927-ef96-480c-ac70-9f27e602a87a","ios":"levelo://app?vid=ac13c927-ef96-480c-ac70-9f27e602a87a"},"vehicle_type_id":"4","last_reported":1741525699,"current_range_meters":10800,"station_id":"ce4bhih2rcd13ifvqfs0","pricing_plan_id":"cebpf4jnsgd1na2vs0mg"},{"bike_id":"d7450075-85e3-445e-9711-03ff973600f8","system_id":"levelo_inurba_marseille","lat":43.311719,"lon":5.387232,"is_reserved":false,"is_disabled":false,"rental_uris":{"android":"levelo://app?vid=d7450075-85e3-445e-9711-03ff973600f8","ios":"levelo://app?vid=d7450075-85e3-445e-9711-03ff973600f8"},"vehicle_type_id":"4","last_reported":1741525699,"current_range_meters":11200,"station_id":"ce4bgj92rcd13ifvqbd0","pricing_plan_id":"cebpf4jnsgd1na2vs0mg"},{"bike_id":"34565812-0fff-4dbb-b10e-c8a1a59facae","system_id":"levelo_inurba_marseille","lat":43.31714,"lon":5.43688,"is_reserved":false,"is_disabled":true,"rental_uris":{"android":"levelo://app?vid=34565812-0fff-4dbb-b10e-c8a1a59facae","ios":"levelo://app?vid=34565812-0fff-4dbb-b10e-c8a1a59facae"},"vehicle_type_id":"4","last_reported":1741525699,"current_range_meters":11200,"station_id":"ce4bhp92rcd13ifvqhcg","pricing_plan_id":"cebpf4jnsgd1na2vs0mg"},{"bike_id":"1d48c691-991e-4b08-836b-4638ce4e61a9","system_id":"levelo_inurba_marseille","lat":43.3032,"lon":5.40436,"is_reserved":false,"is_disabled":false,"rental_uris":{"android":"levelo://app?vid=1d48c691-991e-4b08-836b-4638ce4e61a9","ios":"levelo://app?vid=1d48c691-991e-4b08-836b-4638ce4e61a9"},"vehicle_type_id":"4","last_reported":1741525699,"current_range_meters":11600,"station_id":"ce4bh012rcd13ifvqd10","pricing_plan_id":"cebpf4jnsgd1na2vs0mg"},{"bike_id":"365263c5-5707-4d0b-99e3-506f6a4cceb7","system_id":"levelo_inurba_marseille","lat":43.24078,"lon":5.37778,"is_reserved":false,"is_disabled":false,"rental_uris":{"android":"levelo://app?vid=365263c5-5707-4d0b-99e3-506f6a4cceb7","ios":"levelo://app?vid=365263c5-5707-4d0b-99e3-506f6a4cceb7"},"vehicle_type_id":"4","last_reported":1741525699,"current_range_meters":12000,"station_id":"ce4bhnp2rcd13ifvqgvg","pricing_plan_id":"cebpf4jnsgd1na2vs0mg"},{"bike_id":"1c481fb0-d338-447e-9ac4-5d0e02692c73","system_id":"levelo_inurba_marseille","lat":43.25513,"lon":5.37649,"is_reserved":false,"is_disabled":false,"rental_uris":{"android":"levelo://app?vid=1c481fb0-d338-447e-9ac4-5d0e02692c73","ios":"levelo://app?vid=1c481fb0-d338-447e-9ac4-5d0e02692c73"},"vehicle_type_id":"4","last_reported":1741525699,"current_range_meters":12000,"station_id":"ce4bhh12rcd13ifvqff0","pricing_plan_id":"cebpf4jnsgd1na2vs0mg"},{"bike_id":"19609529-1868-4c17-842e-4ad490db40d4","system_id":"levelo_inurba_marseille","lat":43.31364,"lon":5.38498,"is_reserved":false,"is_disabled":false,"rental_uris":{"android":"levelo://app?vid=19609529-1868-4c17-842e-4ad490db40d4","ios":"levelo://app?vid=19609529-1868-4c17-842e-4ad490db40d4"},"vehicle_type_id":"4","last_reported":1741525699,"current_range_meters":12400,"station_id":"ce4bgt92rcd13ifvqcf0","pricing_plan_id":"cebpf4jnsgd1na2vs0mg"},{"bike_id":"95a9099a-60dc-480d-ab0b-ec9e3943d5e5","system_id":"levelo_inurba_marseille","lat":43.24685,"lon":5.3886,"is_reserved":false,"is_disabled":false,"rental_uris":{"android":"levelo://app?vid=95a9099a-60dc-480d-ab0b-ec9e3943d5e5","ios":"levelo://app?vid=95a9099a-60dc-480d-ab0b-ec9e3943d5e5"},"vehicle_type_id":"4","last_reported":1741525699,"current_range_meters":12400,"station_id":"","pricing_plan_id":"cebpf4jnsgd1na2vs0mg"},{"bike_id":"6503f83c-089e-443d-9c4d-c5c9fa6b70ea","system_id":"levelo_inurba_marseille","lat":43.25735,"lon":5.41112,"is_reserved":false,"is_disabled":false,"rental_uris":{"android":"levelo://app?vid=6503f83c-089e-443d-9c4d-c5c9fa6b70ea","ios":"levelo://app?vid=6503f83c-089e-443d-9c4d-c5c9fa6b70ea"},"vehicle_type_id":"4","last_reported":1741525699,"current_range_meters":12400,"station_id":"ce4bhkp2rcd13ifvqgd0","pricing_plan_id":"cebpf4jnsgd1na2vs0mg"},{"bike_id":"89034861-6afa-47e7-9a7c-ffc5135196ec","system_id":"levelo_inurba_marseille","lat":43.2417,"lon":5.39735,"is_reserved":false,"is_disabled":false,"rental_uris":{"android":"levelo://app?vid=89034861-6afa-47e7-9a7c-ffc5135196ec","ios":"levelo://app?vid=89034861-6afa-47e7-9a7c-ffc5135196ec"},"vehicle_type_id":"4","last_reported":1741525699,"current_range_meters":12800,"station_id":"ce4bhn12rcd13ifvqgpg","pricing_plan_id":"cebpf4jnsgd1na2vs0mg"},{"bike_id":"64fdb816-a58d-4d00-b8b1-9f2d0690f5c1","system_id":"levelo_inurba_marseille","lat":43.24135,"lon":5.36437,"is_reserved":false,"is_disabled":true,"rental_uris":{"android":"levelo://app?vid=64fdb816-a58d-4d00-b8b1-9f2d0690f5c1","ios":"levelo://app?vid=64fdb816-a58d-4d00-b8b1-9f2d0690f5c1"},"vehicle_type_id":"4","last_reported":1741525699,"current_range_meters":12800,"station_id":"cpo36qri1sfpv3e86is0","pricing_plan_id":"cebpf4jnsgd1na2vs0mg"},{"bike_id":"67fc845a-4e54-4c1c-8b59-aae9c41867a4","system_id":"levelo_inurba_marseille","lat":43.27083,"lon":5.42272,"is_reserved":false,"is_disabled":false,"rental_uris":{"android":"levelo://app?vid=67fc845a-4e54-4c1c-8b59-aae9c41867a4","ios":"levelo://app?vid=67fc845a-4e54-4c1c-8b59-aae9c41867a4"},"vehicle_type_id":"4","last_reported":1741525699,"current_range_meters":12800,"station_id":"ce4bhk92rcd13ifvqgb0","pricing_plan_id":"cebpf4jnsgd1na2vs0mg"},{"bike_id":"fe0ec737-5a80-48e8-adfe-00e47b1c2424","system_id":"levelo_inurba_marseille","lat":43.31057,"lon":5.38818,"is_reserved":false,"is_disabled":false,"rental_uris":{"android":"levelo://app?vid=fe0ec737-5a80-48e8-adfe-00e47b1c2424","ios":"levelo://app?vid=fe0ec737-5a80-48e8-adfe-00e47b1c2424"},"vehicle_type_id":"4","last_reported":1741525699,"current_range_meters":12800,"station_id":"ce4bgv12rcd13ifvqcp0","pricing_plan_id":"cebpf4jnsgd1na2vs0mg"},{"bike_id":"5ed2dd89-a937-49df-801e-4fd381bacc70","system_id":"levelo_inurba_marseille","lat":43.25135,"lon":5.40324,"is_reserved":false,"is_disabled":false,"rental_uris":{"android":"levelo://app?vid=5ed2dd89-a937-49df-801e-4fd381bacc70","ios":"levelo://app?vid=5ed2dd89-a937-49df-801e-4fd381bacc70"},"vehicle_type_id":"4","last_reported":1741525699,"current_range_meters":12800,"station_id":"ce4bhlh2rcd13ifvqgig","pricing_plan_id":"cebpf4jnsgd1na2vs0mg"},{"bike_id":"6332f21c-b735-409b-8f12-ffcec3dc9b39","system_id":"levelo_inurba_marseille","lat":43.231876,"lon":5.399919,"is_reserved":false,"is_disabled":false,"rental_uris":{"android":"levelo://app?vid=6332f21c-b735-409b-8f12-ffcec3dc9b39","ios":"levelo://app?vid=6332f21c-b735-409b-8f12-ffcec3dc9b39"},"vehicle_type_id":"4","last_reported":1741525699,"current_range_meters":12800,"station_id":"ce4bhn12rcd13ifvqgqg","pricing_plan_id":"cebpf4jnsgd1na2vs0mg"},{"bike_id":"11f35fc8-bf5a-42db-8ee3-67d16f82ad59","system_id":"levelo_inurba_marseille","lat":43.24073,"lon":5.37764,"is_reserved":false,"is_disabled":false,"rental_uris":{"android":"levelo://app?vid=11f35fc8-bf5a-42db-8ee3-67d16f82ad59","ios":"levelo://app?vid=11f35fc8-bf5a-42db-8ee3-67d16f82ad59"},"vehicle_type_id":"4","last_reported":1741525699,"current_range_meters":13600,"station_id":"ce4bhnp2rcd13ifvqgvg","pricing_plan_id":"cebpf4jnsgd1na2vs0mg"},{"bike_id":"18656ee1-bec4-47b9-821d-61902b6f5512","system_id":"levelo_inurba_marseille","lat":43.24548,"lon":5.3953,"is_reserved":false,"is_disabled":false,"rental_uris":{"android":"levelo://app?vid=18656ee1-bec4-47b9-821d-61902b6f5512","ios":"levelo://app?vid=18656ee1-bec4-47b9-821d-61902b6f5512"},"vehicle_type_id":"4","last_reported":1741525699,"current_range_meters":13600,"station_id":"ce4bhlp2rcd13ifvqgjg","pricing_plan_id":"cebpf4jnsgd1na2vs0mg"},{"bike_id":"91473b8f-9d98-4609-b339-93840b277692","system_id":"levelo_inurba_marseille","lat":43.31999,"lon":5.38161,"is_reserved":false,"is_disabled":false,"rental_uris":{"android":"levelo://app?vid=91473b8f-9d98-4609-b339-93840b277692","ios":"levelo://app?vid=91473b8f-9d98-4609-b339-93840b277692"},"vehicle_type_id":"4","last_reported":1741525699,"current_range_meters":13600,"station_id":"ce4bhr12rcd13ifvqhpg","pricing_plan_id":"cebpf4jnsgd1na2vs0mg"},{"bike_id":"7f08542c-3622-4bee-8852-d0974c0ec085","system_id":"levelo_inurba_marseille","lat":43.24154,"lon":5.36324,"is_reserved":false,"is_disabled":false,"rental_uris":{"android":"levelo://app?vid=7f08542c-3622-4bee-8852-d0974c0ec085","ios":"levelo://app?vid=7f08542c-3622-4bee-8852-d0974c0ec085"},"vehicle_type_id":"4","last_reported":1741525699,"current_range_meters":13600,"station_id":"","pricing_plan_id":"cebpf4jnsgd1na2vs0mg"},{"bike_id":"239162f1-6901-4b7a-b4a8-fb7b0f41bdca","system_id":"levelo_inurba_marseille","lat":43.25581,"lon":5.38229,"is_reserved":false,"is_disabled":false,"rental_uris":{"android":"levelo://app?vid=239162f1-6901-4b7a-b4a8-fb7b0f41bdca","ios":"levelo://app?vid=239162f1-6901-4b7a-b4a8-fb7b0f41bdca"},"vehicle_type_id":"4","last_reported":1741525699,"current_range_meters":13600,"station_id":"ce4bhih2rcd13ifvqfs0","pricing_plan_id":"cebpf4jnsgd1na2vs0mg"},{"bike_id":"b228d194-9347-4401-a6c7-e1a321dc7910","system_id":"levelo_inurba_marseille","lat":43.299668,"lon":5.384822,"is_reserved":false,"is_disabled":false,"rental_uris":{"android":"levelo://app?vid=b228d194-9347-4401-a6c7-e1a321dc7910","ios":"levelo://app?vid=b228d194-9347-4401-a6c7-e1a321dc7910"},"vehicle_type_id":"4","last_reported":1741525699,"current_range_meters":12800,"station_id":"ce4bgv92rcd13ifvqcq0","pricing_plan_id":"cebpf4jnsgd1na2vs0mg"},{"bike_id":"1f72adc6-3d1a-4fad-a905-cb9dcd596e26","system_id":"levelo_inurba_marseille","lat":43.23848,"lon":5.43559,"is_reserved":false,"is_disabled":false,"rental_uris":{"android":"levelo://app?vid=1f72adc6-3d1a-4fad-a905-cb9dcd596e26","ios":"levelo://app?vid=1f72adc6-3d1a-4fad-a905-cb9dcd596e26"},"vehicle_type_id":"4","last_reported":1741525699,"current_range_meters":13600,"station_id":"","pricing_plan_id":"cebpf4jnsgd1na2vs0mg"},{"bike_id":"865fc391-ffd4-42a5-aeb3-1b44f9cfb33b","system_id":"levelo_inurba_marseille","lat":43.30897,"lon":5.37187,"is_reserved":false,"is_disabled":false,"rental_uris":{"android":"levelo://app?vid=865fc391-ffd4-42a5-aeb3-1b44f9cfb33b","ios":"levelo://app?vid=865fc391-ffd4-42a5-aeb3-1b44f9cfb33b"},"vehicle_type_id":"4","last_reported":1741525699,"current_range_meters":14000,"station_id":"ce4bguh2rcd13ifvqckg","pricing_plan_id":"cebpf4jnsgd1na2vs0mg"},{"bike_id":"259b2923-6f9f-4ac3-b471-a9683d5f0aa3","system_id":"levelo_inurba_marseille","lat":43.29278,"lon":5.36848,"is_reserved":false,"is_disabled":false,"rental_uris":{"android":"levelo://app?vid=259b2923-6f9f-4ac3-b471-a9683d5f0aa3","ios":"levelo://app?vid=259b2923-6f9f-4ac3-b471-a9683d5f0aa3"},"vehicle_type_id":"4","last_reported":1741525699,"current_range_meters":14000,"station_id":"ce4bhbp2rcd13ifvqesg","pricing_plan_id":"cebpf4jnsgd1na2vs0mg"},{"bike_id":"cc8ccfcb-3658-4b9e-8ea9-b04a28ec7454","system_id":"levelo_inurba_marseille","lat":43.28158,"lon":5.42667,"is_reserved":false,"is_disabled":false,"rental_uris":{"android":"levelo://app?vid=cc8ccfcb-3658-4b9e-8ea9-b04a28ec7454","ios":"levelo://app?vid=cc8ccfcb-3658-4b9e-8ea9-b04a28ec7454"},"vehicle_type_id":"4","last_reported":1741525699,"current_range_meters":14000,"station_id":"ce4bhnh2rcd13ifvqgug","pricing_plan_id":"cebpf4jnsgd1na2vs0mg"},{"bike_id":"4287f701-0d14-4a3a-afd4-594625e1ca7e","system_id":"levelo_inurba_marseille","lat":43.29891,"lon":5.43679,"is_reserved":false,"is_disabled":false,"rental_uris":{"android":"levelo://app?vid=4287f701-0d14-4a3a-afd4-594625e1ca7e","ios":"levelo://app?vid=4287f701-0d14-4a3a-afd4-594625e1ca7e"},"vehicle_type_id":"4","last_reported":1741525699,"current_range_meters":14000,"station_id":"ce4bhpp2rcd13ifvqhfg","pricing_plan_id":"cebpf4jnsgd1na2vs0mg"},{"bike_id":"1ffe0839-d6b0-49e0-a58b-164465fcccd9","system_id":"levelo_inurba_marseille","lat":43.24659,"lon":5.38895,"is_reserved":false,"is_disabled":false,"rental_uris":{"android":"levelo://app?vid=1ffe0839-d6b0-49e0-a58b-164465fcccd9","ios":"levelo://app?vid=1ffe0839-d6b0-49e0-a58b-164465fcccd9"},"vehicle_type_id":"4","last_reported":1741525699,"current_range_meters":14000,"station_id":"ce4bhg12rcd13ifvqf60","pricing_plan_id":"cebpf4jnsgd1na2vs0mg"},{"bike_id":"4157396e-6ece-45b3-8db6-5f36be26c941","system_id":"levelo_inurba_marseille","lat":43.26609,"lon":5.39047,"is_reserved":false,"is_disabled":false,"rental_uris":{"android":"levelo://app?vid=4157396e-6ece-45b3-8db6-5f36be26c941","ios":"levelo://app?vid=4157396e-6ece-45b3-8db6-5f36be26c941"},"vehicle_type_id":"4","last_reported":1741525699,"current_range_meters":14000,"station_id":"","pricing_plan_id":"cebpf4jnsgd1na2vs0mg"},{"bike_id":"32711cb1-35b1-48bc-b979-758999ee6df9","system_id":"levelo_inurba_marseille","lat":43.30961,"lon":5.39025,"is_reserved":false,"is_disabled":false,"rental_uris":{"android":"levelo://app?vid=32711cb1-35b1-48bc-b979-758999ee6df9","ios":"levelo://app?vid=32711cb1-35b1-48bc-b979-758999ee6df9"},"vehicle_type_id":"4","last_reported":1741525699,"current_range_meters":14000,"station_id":"ce4bgup2rcd13ifvqco0","pricing_plan_id":"cebpf4jnsgd1na2vs0mg"},{"bike_id":"3795c289-beea-44c3-a7ae-fd3e55b72f22","system_id":"levelo_inurba_marseille","lat":43.28615,"lon":5.35096,"is_reserved":false,"is_disabled":true,"rental_uris":{"android":"levelo://app?vid=3795c289-beea-44c3-a7ae-fd3e55b72f22","ios":"levelo://app?vid=3795c289-beea-44c3-a7ae-fd3e55b72f22"},"vehicle_type_id":"4","last_reported":1741525699,"current_range_meters":14400,"station_id":"ce4bhch2rcd13ifvqeug","pricing_plan_id":"cebpf4jnsgd1na2vs0mg"},{"bike_id":"5feb6fa1-6aef-4afb-8cf0-7112712f90e3","system_id":"levelo_inurba_marseille","lat":43.3068,"lon":5.36625,"is_reserved":false,"is_disabled":true,"rental_uris":{"android":"levelo://app?vid=5feb6fa1-6aef-4afb-8cf0-7112712f90e3","ios":"levelo://app?vid=5feb6fa1-6aef-4afb-8cf0-7112712f90e3"},"vehicle_type_id":"4","last_reported":1741525699,"current_range_meters":14400,"station_id":"ce4bgrp2rcd13ifvqc9g","pricing_plan_id":"cebpf4jnsgd1na2vs0mg"},{"bike_id":"014ba247-07e8-47e1-aa51-62bf779a4584","system_id":"levelo_inurba_marseille","lat":43.29533,"lon":5.37512,"is_reserved":false,"is_disabled":false,"rental_uris":{"android":"levelo://app?vid=014ba247-07e8-47e1-aa51-62bf779a4584","ios":"levelo://app?vid=014ba247-07e8-47e1-aa51-62bf779a4584"},"vehicle_type_id":"4","last_reported":1741525699,"current_range_meters":14400,"station_id":"ce4bgkp2rcd13ifvqbmg","pricing_plan_id":"cebpf4jnsgd1na2vs0mg"},{"bike_id":"3ed0c8ba-c7f7-40d8-9403-a3f96d6af6b9","system_id":"levelo_inurba_marseille","lat":43.3236,"lon":5.36755,"is_reserved":false,"is_disabled":false,"rental_uris":{"android":"levelo://app?vid=3ed0c8ba-c7f7-40d8-9403-a3f96d6af6b9","ios":"levelo://app?vid=3ed0c8ba-c7f7-40d8-9403-a3f96d6af6b9"},"vehicle_type_id":"4","last_reported":1741525699,"current_range_meters":14400,"station_id":"ce4bhsh2rcd13ifvqi2g","pricing_plan_id":"cebpf4jnsgd1na2vs0mg"},{"bike_id":"c59cfede-72d5-4c07-aa0e-b184c85be70a","system_id":"levelo_inurba_marseille","lat":43.25073,"lon":5.3953,"is_reserved":false,"is_disabled":false,"rental_uris":{"android":"levelo://app?vid=c59cfede-72d5-4c07-aa0e-b184c85be70a","ios":"levelo://app?vid=c59cfede-72d5-4c07-aa0e-b184c85be70a"},"vehicle_type_id":"4","last_reported":1741525699,"current_range_meters":14800,"station_id":"ce4bhm12rcd13ifvqgkg","pricing_plan_id":"cebpf4jnsgd1na2vs0mg"},{"bike_id":"ef6303de-f84a-4b1f-9060-2a8d28e015bb","system_id":"levelo_inurba_marseille","lat":43.24062,"lon":5.3774,"is_reserved":false,"is_disabled":false,"rental_uris":{"android":"levelo://app?vid=ef6303de-f84a-4b1f-9060-2a8d28e015bb","ios":"levelo://app?vid=ef6303de-f84a-4b1f-9060-2a8d28e015bb"},"vehicle_type_id":"4","last_reported":1741525699,"current_range_meters":14800,"station_id":"ce4bhnp2rcd13ifvqgvg","pricing_plan_id":"cebpf4jnsgd1na2vs0mg"},{"bike_id":"3e93b162-f299-477d-9ef9-e2acab4085b9","system_id":"levelo_inurba_marseille","lat":43.31164,"lon":5.38717,"is_reserved":false,"is_disabled":false,"rental_uris":{"android":"levelo://app?vid=3e93b162-f299-477d-9ef9-e2acab4085b9","ios":"levelo://app?vid=3e93b162-f299-477d-9ef9-e2acab4085b9"},"vehicle_type_id":"4","last_reported":1741525699,"current_range_meters":14800,"station_id":"ce4bgv12rcd13ifvqcp0","pricing_plan_id":"cebpf4jnsgd1na2vs0mg"},{"bike_id":"3b9a653a-2fa2-4334-b7b8-6db4ab68b695","system_id":"levelo_inurba_marseille","lat":43.28388,"lon":5.39225,"is_reserved":false,"is_disabled":true,"rental_uris":{"android":"levelo://app?vid=3b9a653a-2fa2-4334-b7b8-6db4ab68b695","ios":"levelo://app?vid=3b9a653a-2fa2-4334-b7b8-6db4ab68b695"},"vehicle_type_id":"4","last_reported":1741525699,"current_range_meters":14800,"station_id":"ce4bhoh2rcd13ifvqh5g","pricing_plan_id":"cebpf4jnsgd1na2vs0mg"},{"bike_id":"91f0b97b-efcf-46d9-8bbf-c1ba93008778","system_id":"levelo_inurba_marseille","lat":43.27312,"lon":5.39086,"is_reserved":false,"is_disabled":true,"rental_uris":{"android":"levelo://app?vid=91f0b97b-efcf-46d9-8bbf-c1ba93008778","ios":"levelo://app?vid=91f0b97b-efcf-46d9-8bbf-c1ba93008778"},"vehicle_type_id":"4","last_reported":1741525699,"current_range_meters":14800,"station_id":"ce4bhgp2rcd13ifvqfe0","pricing_plan_id":"cebpf4jnsgd1na2vs0mg"},{"bike_id":"ba0554f9-3a9b-40b4-90ed-caede36daa80","system_id":"levelo_inurba_marseille","lat":43.311668,"lon":5.387194,"is_reserved":false,"is_disabled":false,"rental_uris":{"android":"levelo://app?vid=ba0554f9-3a9b-40b4-90ed-caede36daa80","ios":"levelo://app?vid=ba0554f9-3a9b-40b4-90ed-caede36daa80"},"vehicle_type_id":"4","last_reported":1741525699,"current_range_meters":14800,"station_id":"ce4bgv12rcd13ifvqcp0","pricing_plan_id":"cebpf4jnsgd1na2vs0mg"},{"bike_id":"f957b7c5-cf17-4e93-9ecf-3b65410cc4e5","system_id":"levelo_inurba_marseille","lat":43.3188,"lon":5.3793,"is_reserved":false,"is_disabled":false,"rental_uris":{"android":"levelo://app?vid=f957b7c5-cf17-4e93-9ecf-3b65410cc4e5","ios":"levelo://app?vid=f957b7c5-cf17-4e93-9ecf-3b65410cc4e5"},"vehicle_type_id":"4","last_reported":1741525699,"current_range_meters":14800,"station_id":"","pricing_plan_id":"cebpf4jnsgd1na2vs0mg"},{"bike_id":"2a5bfa03-24fa-4959-994c-818350207830","system_id":"levelo_inurba_marseille","lat":43.28695,"lon":5.39989,"is_reserved":false,"is_disabled":false,"rental_uris":{"android":"levelo://app?vid=2a5bfa03-24fa-4959-994c-818350207830","ios":"levelo://app?vid=2a5bfa03-24fa-4959-994c-818350207830"},"vehicle_type_id":"4","last_reported":1741525699,"current_range_meters":14800,"station_id":"ce4bho92rcd13ifvqh3g","pricing_plan_id":"cebpf4jnsgd1na2vs0mg"},{"bike_id":"ada50f23-9717-49a7-807d-429295cd38dd","system_id":"levelo_inurba_marseille","lat":43.28698,"lon":5.37391,"is_reserved":false,"is_disabled":false,"rental_uris":{"android":"levelo://app?vid=ada50f23-9717-49a7-807d-429295cd38dd","ios":"levelo://app?vid=ada50f23-9717-49a7-807d-429295cd38dd"},"vehicle_type_id":"4","last_reported":1741525699,"current_range_meters":14800,"station_id":"ce4bh3p2rcd13ifvqdq0","pricing_plan_id":"cebpf4jnsgd1na2vs0mg"},{"bike_id":"bac871c7-059b-4dc7-a657-f620d0a4794f","system_id":"levelo_inurba_marseille","lat":43.29598,"lon":5.38073,"is_reserved":false,"is_disabled":true,"rental_uris":{"android":"levelo://app?vid=bac871c7-059b-4dc7-a657-f620d0a4794f","ios":"levelo://app?vid=bac871c7-059b-4dc7-a657-f620d0a4794f"},"vehicle_type_id":"4","last_reported":1741525699,"current_range_meters":14800,"station_id":"ce4bgl12rcd13ifvqbo0","pricing_plan_id":"cebpf4jnsgd1na2vs0mg"},{"bike_id":"4e988b79-546d-4039-b5f6-8f94585d4ef4","system_id":"levelo_inurba_marseille","lat":43.334597,"lon":5.359263,"is_reserved":false,"is_disabled":false,"rental_uris":{"android":"levelo://app?vid=4e988b79-546d-4039-b5f6-8f94585d4ef4","ios":"levelo://app?vid=4e988b79-546d-4039-b5f6-8f94585d4ef4"},"vehicle_type_id":"4","last_reported":1741525699,"current_range_meters":15200,"station_id":"","pricing_plan_id":"cebpf4jnsgd1na2vs0mg"},{"bike_id":"ecf65569-6f58-4b4b-81b0-4a712ee8c3cf","system_id":"levelo_inurba_marseille","lat":43.26573,"lon":5.39025,"is_reserved":false,"is_disabled":false,"rental_uris":{"android":"levelo://app?vid=ecf65569-6f58-4b4b-81b0-4a712ee8c3cf","ios":"levelo://app?vid=ecf65569-6f58-4b4b-81b0-4a712ee8c3cf"},"vehicle_type_id":"4","last_reported":1741525699,"current_range_meters":15200,"station_id":"ce4bhe12rcd13ifvqf30","pricing_plan_id":"cebpf4jnsgd1na2vs0mg"},{"bike_id":"895910d5-c55d-48ae-a7d7-789ae9ebaa6d","system_id":"levelo_inurba_marseille","lat":43.28405,"lon":5.37526,"is_reserved":false,"is_disabled":true,"rental_uris":{"android":"levelo://app?vid=895910d5-c55d-48ae-a7d7-789ae9ebaa6d","ios":"levelo://app?vid=895910d5-c55d-48ae-a7d7-789ae9ebaa6d"},"vehicle_type_id":"4","last_reported":1741525699,"current_range_meters":15200,"station_id":"ce4bh412rcd13ifvqds0","pricing_plan_id":"cebpf4jnsgd1na2vs0mg"},{"bike_id":"d89207cb-27fe-45f3-b661-72cbbc9a2274","system_id":"levelo_inurba_marseille","lat":43.31394,"lon":5.38528,"is_reserved":false,"is_disabled":false,"rental_uris":{"android":"levelo://app?vid=d89207cb-27fe-45f3-b661-72cbbc9a2274","ios":"levelo://app?vid=d89207cb-27fe-45f3-b661-72cbbc9a2274"},"vehicle_type_id":"4","last_reported":1741525699,"current_range_meters":15200,"station_id":"","pricing_plan_id":"cebpf4jnsgd1na2vs0mg"},{"bike_id":"ebb2d58b-982f-41cd-b65c-668035c69ec1","system_id":"levelo_inurba_marseille","lat":43.30885,"lon":5.37191,"is_reserved":false,"is_disabled":false,"rental_uris":{"android":"levelo://app?vid=ebb2d58b-982f-41cd-b65c-668035c69ec1","ios":"levelo://app?vid=ebb2d58b-982f-41cd-b65c-668035c69ec1"},"vehicle_type_id":"4","last_reported":1741525699,"current_range_meters":15200,"station_id":"ce4bguh2rcd13ifvqckg","pricing_plan_id":"cebpf4jnsgd1na2vs0mg"},{"bike_id":"667d56af-3762-4bfe-8a2b-a93b14a7fb4f","system_id":"levelo_inurba_marseille","lat":43.30593,"lon":5.39363,"is_reserved":false,"is_disabled":false,"rental_uris":{"android":"levelo://app?vid=667d56af-3762-4bfe-8a2b-a93b14a7fb4f","ios":"levelo://app?vid=667d56af-3762-4bfe-8a2b-a93b14a7fb4f"},"vehicle_type_id":"4","last_reported":1741525699,"current_range_meters":15200,"station_id":"ce4bh0p2rcd13ifvqd80","pricing_plan_id":"cebpf4jnsgd1na2vs0mg"},{"bike_id":"8579e54f-565e-4025-a73c-88723bee831d","system_id":"levelo_inurba_marseille","lat":43.231874,"lon":5.399961,"is_reserved":false,"is_disabled":false,"rental_uris":{"android":"levelo://app?vid=8579e54f-565e-4025-a73c-88723bee831d","ios":"levelo://app?vid=8579e54f-565e-4025-a73c-88723bee831d"},"vehicle_type_id":"4","last_reported":1741525699,"current_range_meters":16000,"station_id":"ce4bhn12rcd13ifvqgqg","pricing_plan_id":"cebpf4jnsgd1na2vs0mg"},{"bike_id":"a2a96e25-6e4d-4f22-bccf-4d57539a8d60","system_id":"levelo_inurba_marseille","lat":43.31171,"lon":5.3871,"is_reserved":false,"is_disabled":false,"rental_uris":{"android":"levelo://app?vid=a2a96e25-6e4d-4f22-bccf-4d57539a8d60","ios":"levelo://app?vid=a2a96e25-6e4d-4f22-bccf-4d57539a8d60"},"vehicle_type_id":"4","last_reported":1741525699,"current_range_meters":16000,"station_id":"ce4bgv12rcd13ifvqcp0","pricing_plan_id":"cebpf4jnsgd1na2vs0mg"},{"bike_id":"83fe625c-a403-4ad3-b440-2e9d65d3891e","system_id":"levelo_inurba_marseille","lat":43.256,"lon":5.38216,"is_reserved":false,"is_disabled":false,"rental_uris":{"android":"levelo://app?vid=83fe625c-a403-4ad3-b440-2e9d65d3891e","ios":"levelo://app?vid=83fe625c-a403-4ad3-b440-2e9d65d3891e"},"vehicle_type_id":"4","last_reported":1741525699,"current_range_meters":16000,"station_id":"ce4bhih2rcd13ifvqfs0","pricing_plan_id":"cebpf4jnsgd1na2vs0mg"},{"bike_id":"81bc8ec7-203d-452b-a4e8-595b7bbc2677","system_id":"levelo_inurba_marseille","lat":43.29,"lon":5.35626,"is_reserved":false,"is_disabled":true,"rental_uris":{"android":"levelo://app?vid=81bc8ec7-203d-452b-a4e8-595b7bbc2677","ios":"levelo://app?vid=81bc8ec7-203d-452b-a4e8-595b7bbc2677"},"vehicle_type_id":"4","last_reported":1741525699,"current_range_meters":16000,"station_id":"ce4bhb92rcd13ifvqen0","pricing_plan_id":"cebpf4jnsgd1na2vs0mg"},{"bike_id":"1e66a1e1-8fac-4bad-b246-9ff116855410","system_id":"levelo_inurba_marseille","lat":43.28082,"lon":5.44176,"is_reserved":false,"is_disabled":false,"rental_uris":{"android":"levelo://app?vid=1e66a1e1-8fac-4bad-b246-9ff116855410","ios":"levelo://app?vid=1e66a1e1-8fac-4bad-b246-9ff116855410"},"vehicle_type_id":"4","last_reported":1741525699,"current_range_meters":16000,"station_id":"","pricing_plan_id":"cebpf4jnsgd1na2vs0mg"},{"bike_id":"a37d42aa-085d-4a56-8e08-eaf93bfe5e2b","system_id":"levelo_inurba_marseille","lat":43.311847,"lon":5.38732,"is_reserved":false,"is_disabled":true,"rental_uris":{"android":"levelo://app?vid=a37d42aa-085d-4a56-8e08-eaf93bfe5e2b","ios":"levelo://app?vid=a37d42aa-085d-4a56-8e08-eaf93bfe5e2b"},"vehicle_type_id":"4","last_reported":1741525699,"current_range_meters":16000,"station_id":"ce4bgv12rcd13ifvqcp0","pricing_plan_id":"cebpf4jnsgd1na2vs0mg"},{"bike_id":"8645bf35-f5b2-48f7-8496-8f0131101e85","system_id":"levelo_inurba_marseille","lat":43.26583,"lon":5.3727,"is_reserved":false,"is_disabled":false,"rental_uris":{"android":"levelo://app?vid=8645bf35-f5b2-48f7-8496-8f0131101e85","ios":"levelo://app?vid=8645bf35-f5b2-48f7-8496-8f0131101e85"},"vehicle_type_id":"4","last_reported":1741525699,"current_range_meters":16000,"station_id":"ce4bhg12rcd13ifvqf70","pricing_plan_id":"cebpf4jnsgd1na2vs0mg"},{"bike_id":"9d3c8040-77e5-4180-be42-2ec74ce28451","system_id":"levelo_inurba_marseille","lat":43.30429,"lon":5.38893,"is_reserved":false,"is_disabled":false,"rental_uris":{"android":"levelo://app?vid=9d3c8040-77e5-4180-be42-2ec74ce28451","ios":"levelo://app?vid=9d3c8040-77e5-4180-be42-2ec74ce28451"},"vehicle_type_id":"4","last_reported":1741525699,"current_range_meters":16000,"station_id":"ce4bgk12rcd13ifvqbi0","pricing_plan_id":"cebpf4jnsgd1na2vs0mg"},{"bike_id":"7dc51c44-6bee-4f7d-84bd-874c4cd4d9f8","system_id":"levelo_inurba_marseille","lat":43.30877,"lon":5.39651,"is_reserved":false,"is_disabled":false,"rental_uris":{"android":"levelo://app?vid=7dc51c44-6bee-4f7d-84bd-874c4cd4d9f8","ios":"levelo://app?vid=7dc51c44-6bee-4f7d-84bd-874c4cd4d9f8"},"vehicle_type_id":"4","last_reported":1741525699,"current_range_meters":16000,"station_id":"ce4bh012rcd13ifvqcv0","pricing_plan_id":"cebpf4jnsgd1na2vs0mg"},{"bike_id":"35b6c8dd-c1b8-4970-bb1c-0f0396b333a1","system_id":"levelo_inurba_marseille","lat":43.25812,"lon":5.40996,"is_reserved":false,"is_disabled":false,"rental_uris":{"android":"levelo://app?vid=35b6c8dd-c1b8-4970-bb1c-0f0396b333a1","ios":"levelo://app?vid=35b6c8dd-c1b8-4970-bb1c-0f0396b333a1"},"vehicle_type_id":"4","last_reported":1741525699,"current_range_meters":16000,"station_id":"ce4bhkp2rcd13ifvqgd0","pricing_plan_id":"cebpf4jnsgd1na2vs0mg"},{"bike_id":"906c6e5a-4ec6-4885-afda-48adb50c51d3","system_id":"levelo_inurba_marseille","lat":43.2439,"lon":5.37052,"is_reserved":false,"is_disabled":false,"rental_uris":{"android":"levelo://app?vid=906c6e5a-4ec6-4885-afda-48adb50c51d3","ios":"levelo://app?vid=906c6e5a-4ec6-4885-afda-48adb50c51d3"},"vehicle_type_id":"4","last_reported":1741525699,"current_range_meters":16400,"station_id":"ce4bhhh2rcd13ifvqfk0","pricing_plan_id":"cebpf4jnsgd1na2vs0mg"},{"bike_id":"375b0e4e-46b2-4f14-9005-cd1590755e2d","system_id":"levelo_inurba_marseille","lat":43.29247,"lon":5.40908,"is_reserved":false,"is_disabled":false,"rental_uris":{"android":"levelo://app?vid=375b0e4e-46b2-4f14-9005-cd1590755e2d","ios":"levelo://app?vid=375b0e4e-46b2-4f14-9005-cd1590755e2d"},"vehicle_type_id":"4","last_reported":1741525699,"current_range_meters":16400,"station_id":"ce4bh192rcd13ifvqdc0","pricing_plan_id":"cebpf4jnsgd1na2vs0mg"},{"bike_id":"158e535f-825e-4468-93be-62b6e673c923","system_id":"levelo_inurba_marseille","lat":43.26146,"lon":5.42082,"is_reserved":false,"is_disabled":false,"rental_uris":{"android":"levelo://app?vid=158e535f-825e-4468-93be-62b6e673c923","ios":"levelo://app?vid=158e535f-825e-4468-93be-62b6e673c923"},"vehicle_type_id":"4","last_reported":1741525699,"current_range_meters":16400,"station_id":"","pricing_plan_id":"cebpf4jnsgd1na2vs0mg"},{"bike_id":"ae4913d3-c7b3-4e3b-8b0e-9eedefc8bcf1","system_id":"levelo_inurba_marseille","lat":43.31316,"lon":5.38836,"is_reserved":false,"is_disabled":false,"rental_uris":{"android":"levelo://app?vid=ae4913d3-c7b3-4e3b-8b0e-9eedefc8bcf1","ios":"levelo://app?vid=ae4913d3-c7b3-4e3b-8b0e-9eedefc8bcf1"},"vehicle_type_id":"4","last_reported":1741525699,"current_range_meters":16800,"station_id":"","pricing_plan_id":"cebpf4jnsgd1na2vs0mg"},{"bike_id":"424a877a-56f1-4c95-8272-1a73fff37bfb","system_id":"levelo_inurba_marseille","lat":43.251163,"lon":5.403319,"is_reserved":false,"is_disabled":false,"rental_uris":{"android":"levelo://app?vid=424a877a-56f1-4c95-8272-1a73fff37bfb","ios":"levelo://app?vid=424a877a-56f1-4c95-8272-1a73fff37bfb"},"vehicle_type_id":"4","last_reported":1741525699,"current_range_meters":16800,"station_id":"ce4bhlh2rcd13ifvqgig","pricing_plan_id":"cebpf4jnsgd1na2vs0mg"},{"bike_id":"8db12307-83c5-4ab1-8e4e-b5f471f883f6","system_id":"levelo_inurba_marseille","lat":43.250838,"lon":5.395216,"is_reserved":false,"is_disabled":false,"rental_uris":{"android":"levelo://app?vid=8db12307-83c5-4ab1-8e4e-b5f471f883f6","ios":"levelo://app?vid=8db12307-83c5-4ab1-8e4e-b5f471f883f6"},"vehicle_type_id":"4","last_reported":1741525699,"current_range_meters":16800,"station_id":"ce4bhm12rcd13ifvqgkg","pricing_plan_id":"cebpf4jnsgd1na2vs0mg"},{"bike_id":"c1c80c13-20cb-44f5-aa30-5c8aedb294e8","system_id":"levelo_inurba_marseille","lat":43.321001,"lon":5.367799,"is_reserved":false,"is_disabled":false,"rental_uris":{"android":"levelo://app?vid=c1c80c13-20cb-44f5-aa30-5c8aedb294e8","ios":"levelo://app?vid=c1c80c13-20cb-44f5-aa30-5c8aedb294e8"},"vehicle_type_id":"4","last_reported":1741525699,"current_range_meters":16800,"station_id":"ce4bhrh2rcd13ifvqhug","pricing_plan_id":"cebpf4jnsgd1na2vs0mg"},{"bike_id":"e1464fd1-88dd-4217-9b48-8798f8d7a4bc","system_id":"levelo_inurba_marseille","lat":43.2439,"lon":5.37058,"is_reserved":false,"is_disabled":false,"rental_uris":{"android":"levelo://app?vid=e1464fd1-88dd-4217-9b48-8798f8d7a4bc","ios":"levelo://app?vid=e1464fd1-88dd-4217-9b48-8798f8d7a4bc"},"vehicle_type_id":"4","last_reported":1741525699,"current_range_meters":16800,"station_id":"ce4bhhh2rcd13ifvqfk0","pricing_plan_id":"cebpf4jnsgd1na2vs0mg"},{"bike_id":"65ebf940-f6f1-4ba2-8b75-2b2127dd3199","system_id":"levelo_inurba_marseille","lat":43.25009,"lon":5.38914,"is_reserved":false,"is_disabled":false,"rental_uris":{"android":"levelo://app?vid=65ebf940-f6f1-4ba2-8b75-2b2127dd3199","ios":"levelo://app?vid=65ebf940-f6f1-4ba2-8b75-2b2127dd3199"},"vehicle_type_id":"4","last_reported":1741525699,"current_range_meters":16800,"station_id":"ce4bhgp2rcd13ifvqfd0","pricing_plan_id":"cebpf4jnsgd1na2vs0mg"},{"bike_id":"a5c5ade0-6f33-45a7-beaf-3545d30425b1","system_id":"levelo_inurba_marseille","lat":43.24036,"lon":5.37758,"is_reserved":false,"is_disabled":false,"rental_uris":{"android":"levelo://app?vid=a5c5ade0-6f33-45a7-beaf-3545d30425b1","ios":"levelo://app?vid=a5c5ade0-6f33-45a7-beaf-3545d30425b1"},"vehicle_type_id":"4","last_reported":1741525699,"current_range_meters":16800,"station_id":"ce4bhnp2rcd13ifvqgvg","pricing_plan_id":"cebpf4jnsgd1na2vs0mg"},{"bike_id":"f56d3ccc-4110-4e1d-8b3e-96b79fc0a38e","system_id":"levelo_inurba_marseille","lat":43.31158,"lon":5.38719,"is_reserved":false,"is_disabled":false,"rental_uris":{"android":"levelo://app?vid=f56d3ccc-4110-4e1d-8b3e-96b79fc0a38e","ios":"levelo://app?vid=f56d3ccc-4110-4e1d-8b3e-96b79fc0a38e"},"vehicle_type_id":"4","last_reported":1741525699,"current_range_meters":16800,"station_id":"ce4bgv12rcd13ifvqcp0","pricing_plan_id":"cebpf4jnsgd1na2vs0mg"},{"bike_id":"4491a1e2-eb06-49d1-bf0c-ffab94d6b1ae","system_id":"levelo_inurba_marseille","lat":43.24186,"lon":5.39722,"is_reserved":false,"is_disabled":false,"rental_uris":{"android":"levelo://app?vid=4491a1e2-eb06-49d1-bf0c-ffab94d6b1ae","ios":"levelo://app?vid=4491a1e2-eb06-49d1-bf0c-ffab94d6b1ae"},"vehicle_type_id":"4","last_reported":1741525699,"current_range_meters":17200,"station_id":"ce4bhn12rcd13ifvqgpg","pricing_plan_id":"cebpf4jnsgd1na2vs0mg"},{"bike_id":"6748a5ff-08cb-4137-b4e9-c86ae2cf248d","system_id":"levelo_inurba_marseille","lat":43.27052,"lon":5.40271,"is_reserved":false,"is_disabled":false,"rental_uris":{"android":"levelo://app?vid=6748a5ff-08cb-4137-b4e9-c86ae2cf248d","ios":"levelo://app?vid=6748a5ff-08cb-4137-b4e9-c86ae2cf248d"},"vehicle_type_id":"4","last_reported":1741525699,"current_range_meters":17200,"station_id":"ce4bhk92rcd13ifvqgc0","pricing_plan_id":"cebpf4jnsgd1na2vs0mg"},{"bike_id":"4b33c745-27c5-4843-9438-0d98f7f78c5c","system_id":"levelo_inurba_marseille","lat":43.29901,"lon":5.38139,"is_reserved":false,"is_disabled":false,"rental_uris":{"android":"levelo://app?vid=4b33c745-27c5-4843-9438-0d98f7f78c5c","ios":"levelo://app?vid=4b33c745-27c5-4843-9438-0d98f7f78c5c"},"vehicle_type_id":"4","last_reported":1741525699,"current_range_meters":17200,"station_id":"ce4bgj12rcd13ifvqbc0","pricing_plan_id":"cebpf4jnsgd1na2vs0mg"},{"bike_id":"b54e92b9-a4a7-482c-9d57-67d95c7aea3a","system_id":"levelo_inurba_marseille","lat":43.30328,"lon":5.40442,"is_reserved":false,"is_disabled":false,"rental_uris":{"android":"levelo://app?vid=b54e92b9-a4a7-482c-9d57-67d95c7aea3a","ios":"levelo://app?vid=b54e92b9-a4a7-482c-9d57-67d95c7aea3a"},"vehicle_type_id":"4","last_reported":1741525699,"current_range_meters":17200,"station_id":"ce4bh012rcd13ifvqd10","pricing_plan_id":"cebpf4jnsgd1na2vs0mg"},{"bike_id":"b6e1fe51-ddc8-4033-b5a5-0f918086f8eb","system_id":"levelo_inurba_marseille","lat":43.25116,"lon":5.40314,"is_reserved":false,"is_disabled":false,"rental_uris":{"android":"levelo://app?vid=b6e1fe51-ddc8-4033-b5a5-0f918086f8eb","ios":"levelo://app?vid=b6e1fe51-ddc8-4033-b5a5-0f918086f8eb"},"vehicle_type_id":"4","last_reported":1741525699,"current_range_meters":17200,"station_id":"ce4bhlh2rcd13ifvqgig","pricing_plan_id":"cebpf4jnsgd1na2vs0mg"},{"bike_id":"9ba7aa05-ea75-4612-87dd-bd354c971bc2","system_id":"levelo_inurba_marseille","lat":43.30242,"lon":5.40043,"is_reserved":false,"is_disabled":false,"rental_uris":{"android":"levelo://app?vid=9ba7aa05-ea75-4612-87dd-bd354c971bc2","ios":"levelo://app?vid=9ba7aa05-ea75-4612-87dd-bd354c971bc2"},"vehicle_type_id":"4","last_reported":1741525699,"current_range_meters":17200,"station_id":"ce4bgvh2rcd13ifvqcs0","pricing_plan_id":"cebpf4jnsgd1na2vs0mg"},{"bike_id":"225e5f66-483f-46df-82e5-69cdcdcf155f","system_id":"levelo_inurba_marseille","lat":43.30879,"lon":5.39628,"is_reserved":false,"is_disabled":false,"rental_uris":{"android":"levelo://app?vid=225e5f66-483f-46df-82e5-69cdcdcf155f","ios":"levelo://app?vid=225e5f66-483f-46df-82e5-69cdcdcf155f"},"vehicle_type_id":"4","last_reported":1741525699,"current_range_meters":17200,"station_id":"ce4bh012rcd13ifvqcv0","pricing_plan_id":"cebpf4jnsgd1na2vs0mg"},{"bike_id":"71363b06-2edc-4b4a-96f6-e2691f9a1a61","system_id":"levelo_inurba_marseille","lat":43.31368,"lon":5.38496,"is_reserved":false,"is_disabled":false,"rental_uris":{"android":"levelo://app?vid=71363b06-2edc-4b4a-96f6-e2691f9a1a61","ios":"levelo://app?vid=71363b06-2edc-4b4a-96f6-e2691f9a1a61"},"vehicle_type_id":"4","last_reported":1741525699,"current_range_meters":17200,"station_id":"ce4bgt92rcd13ifvqcf0","pricing_plan_id":"cebpf4jnsgd1na2vs0mg"},{"bike_id":"f5e5357b-b502-47fb-8353-4c0a68cdcdcf","system_id":"levelo_inurba_marseille","lat":43.31329,"lon":5.38573,"is_reserved":false,"is_disabled":false,"rental_uris":{"android":"levelo://app?vid=f5e5357b-b502-47fb-8353-4c0a68cdcdcf","ios":"levelo://app?vid=f5e5357b-b502-47fb-8353-4c0a68cdcdcf"},"vehicle_type_id":"4","last_reported":1741525699,"current_range_meters":17200,"station_id":"ce4bgt92rcd13ifvqcf0","pricing_plan_id":"cebpf4jnsgd1na2vs0mg"},{"bike_id":"80771939-f406-42f7-81c5-33180fd8a338","system_id":"levelo_inurba_marseille","lat":43.231924,"lon":5.355557,"is_reserved":false,"is_disabled":false,"rental_uris":{"android":"levelo://app?vid=80771939-f406-42f7-81c5-33180fd8a338","ios":"levelo://app?vid=80771939-f406-42f7-81c5-33180fd8a338"},"vehicle_type_id":"4","last_reported":1741525699,"current_range_meters":17200,"station_id":"ce4bhu92rcd13ifvqi70","pricing_plan_id":"cebpf4jnsgd1na2vs0mg"},{"bike_id":"6c7acd0e-d950-476c-9eb3-046468b88ffd","system_id":"levelo_inurba_marseille","lat":43.24731,"lon":5.38122,"is_reserved":false,"is_disabled":false,"rental_uris":{"android":"levelo://app?vid=6c7acd0e-d950-476c-9eb3-046468b88ffd","ios":"levelo://app?vid=6c7acd0e-d950-476c-9eb3-046468b88ffd"},"vehicle_type_id":"4","last_reported":1741525699,"current_range_meters":17200,"station_id":"","pricing_plan_id":"cebpf4jnsgd1na2vs0mg"},{"bike_id":"d085bc4f-d51b-4cdc-b84d-c7911f48026d","system_id":"levelo_inurba_marseille","lat":43.31526,"lon":5.38034,"is_reserved":false,"is_disabled":false,"rental_uris":{"android":"levelo://app?vid=d085bc4f-d51b-4cdc-b84d-c7911f48026d","ios":"levelo://app?vid=d085bc4f-d51b-4cdc-b84d-c7911f48026d"},"vehicle_type_id":"4","last_reported":1741525699,"current_range_meters":17200,"station_id":"ce4bhsp2rcd13ifvqi50","pricing_plan_id":"cebpf4jnsgd1na2vs0mg"},{"bike_id":"759400f2-460b-4562-96a4-5a8267c0ecb1","system_id":"levelo_inurba_marseille","lat":43.29413,"lon":5.38628,"is_reserved":false,"is_disabled":false,"rental_uris":{"android":"levelo://app?vid=759400f2-460b-4562-96a4-5a8267c0ecb1","ios":"levelo://app?vid=759400f2-460b-4562-96a4-5a8267c0ecb1"},"vehicle_type_id":"4","last_reported":1741525699,"current_range_meters":17200,"station_id":"ce4bh2h2rcd13ifvqdh0","pricing_plan_id":"cebpf4jnsgd1na2vs0mg"},{"bike_id":"979b0e12-19bd-4394-8b98-332e21f24fbc","system_id":"levelo_inurba_marseille","lat":43.25092,"lon":5.40344,"is_reserved":false,"is_disabled":false,"rental_uris":{"android":"levelo://app?vid=979b0e12-19bd-4394-8b98-332e21f24fbc","ios":"levelo://app?vid=979b0e12-19bd-4394-8b98-332e21f24fbc"},"vehicle_type_id":"4","last_reported":1741525699,"current_range_meters":17200,"station_id":"ce4bhlh2rcd13ifvqgig","pricing_plan_id":"cebpf4jnsgd1na2vs0mg"},{"bike_id":"1574c69b-ea6d-4097-914a-46a44316e27b","system_id":"levelo_inurba_marseille","lat":43.30879,"lon":5.39647,"is_reserved":false,"is_disabled":false,"rental_uris":{"android":"levelo://app?vid=1574c69b-ea6d-4097-914a-46a44316e27b","ios":"levelo://app?vid=1574c69b-ea6d-4097-914a-46a44316e27b"},"vehicle_type_id":"4","last_reported":1741525699,"current_range_meters":17600,"station_id":"ce4bh012rcd13ifvqcv0","pricing_plan_id":"cebpf4jnsgd1na2vs0mg"},{"bike_id":"be872404-b661-4361-aa36-79869406c8fd","system_id":"levelo_inurba_marseille","lat":43.29784,"lon":5.38118,"is_reserved":false,"is_disabled":false,"rental_uris":{"android":"levelo://app?vid=be872404-b661-4361-aa36-79869406c8fd","ios":"levelo://app?vid=be872404-b661-4361-aa36-79869406c8fd"},"vehicle_type_id":"4","last_reported":1741525699,"current_range_meters":17600,"station_id":"ce4bgip2rcd13ifvqbb0","pricing_plan_id":"cebpf4jnsgd1na2vs0mg"},{"bike_id":"863fe8dd-e693-4f8e-84ce-2fd09c5d38bc","system_id":"levelo_inurba_marseille","lat":43.25001,"lon":5.38931,"is_reserved":false,"is_disabled":false,"rental_uris":{"android":"levelo://app?vid=863fe8dd-e693-4f8e-84ce-2fd09c5d38bc","ios":"levelo://app?vid=863fe8dd-e693-4f8e-84ce-2fd09c5d38bc"},"vehicle_type_id":"4","last_reported":1741525699,"current_range_meters":17600,"station_id":"ce4bhgp2rcd13ifvqfd0","pricing_plan_id":"cebpf4jnsgd1na2vs0mg"},{"bike_id":"0bc5bda3-3076-4625-9595-7f3b64f090d7","system_id":"levelo_inurba_marseille","lat":43.308,"lon":5.43523,"is_reserved":false,"is_disabled":false,"rental_uris":{"android":"levelo://app?vid=0bc5bda3-3076-4625-9595-7f3b64f090d7","ios":"levelo://app?vid=0bc5bda3-3076-4625-9595-7f3b64f090d7"},"vehicle_type_id":"4","last_reported":1741525699,"current_range_meters":17600,"station_id":"ce4bhph2rcd13ifvqheg","pricing_plan_id":"cebpf4jnsgd1na2vs0mg"},{"bike_id":"5168a913-5224-4ddf-8293-e2c5484c5bf7","system_id":"levelo_inurba_marseille","lat":43.25578,"lon":5.38228,"is_reserved":false,"is_disabled":false,"rental_uris":{"android":"levelo://app?vid=5168a913-5224-4ddf-8293-e2c5484c5bf7","ios":"levelo://app?vid=5168a913-5224-4ddf-8293-e2c5484c5bf7"},"vehicle_type_id":"4","last_reported":1741525699,"current_range_meters":17600,"station_id":"ce4bhih2rcd13ifvqfs0","pricing_plan_id":"cebpf4jnsgd1na2vs0mg"},{"bike_id":"3b1988f5-96b5-4ba3-b568-001a2a928dd3","system_id":"levelo_inurba_marseille","lat":43.28395,"lon":5.37495,"is_reserved":false,"is_disabled":false,"rental_uris":{"android":"levelo://app?vid=3b1988f5-96b5-4ba3-b568-001a2a928dd3","ios":"levelo://app?vid=3b1988f5-96b5-4ba3-b568-001a2a928dd3"},"vehicle_type_id":"4","last_reported":1741525699,"current_range_meters":17600,"station_id":"ce4bh412rcd13ifvqds0","pricing_plan_id":"cebpf4jnsgd1na2vs0mg"},{"bike_id":"14ff316d-69a0-4350-bd65-221c06b4c050","system_id":"levelo_inurba_marseille","lat":43.25726,"lon":5.41107,"is_reserved":false,"is_disabled":false,"rental_uris":{"android":"levelo://app?vid=14ff316d-69a0-4350-bd65-221c06b4c050","ios":"levelo://app?vid=14ff316d-69a0-4350-bd65-221c06b4c050"},"vehicle_type_id":"4","last_reported":1741525699,"current_range_meters":18000,"station_id":"ce4bhkp2rcd13ifvqgd0","pricing_plan_id":"cebpf4jnsgd1na2vs0mg"},{"bike_id":"65579f2d-9a67-4337-ae45-db2974909cf3","system_id":"levelo_inurba_marseille","lat":43.24652,"lon":5.3891,"is_reserved":false,"is_disabled":false,"rental_uris":{"android":"levelo://app?vid=65579f2d-9a67-4337-ae45-db2974909cf3","ios":"levelo://app?vid=65579f2d-9a67-4337-ae45-db2974909cf3"},"vehicle_type_id":"4","last_reported":1741525699,"current_range_meters":18000,"station_id":"ce4bhg12rcd13ifvqf60","pricing_plan_id":"cebpf4jnsgd1na2vs0mg"},{"bike_id":"8e85a7bb-e1ce-43e8-a1a7-c288df482312","system_id":"levelo_inurba_marseille","lat":43.24664,"lon":5.38886,"is_reserved":false,"is_disabled":false,"rental_uris":{"android":"levelo://app?vid=8e85a7bb-e1ce-43e8-a1a7-c288df482312","ios":"levelo://app?vid=8e85a7bb-e1ce-43e8-a1a7-c288df482312"},"vehicle_type_id":"4","last_reported":1741525699,"current_range_meters":18000,"station_id":"ce4bhg12rcd13ifvqf60","pricing_plan_id":"cebpf4jnsgd1na2vs0mg"},{"bike_id":"962b8100-db4e-4177-b392-9df2ed356517","system_id":"levelo_inurba_marseille","lat":43.31724,"lon":5.37778,"is_reserved":false,"is_disabled":false,"rental_uris":{"android":"levelo://app?vid=962b8100-db4e-4177-b392-9df2ed356517","ios":"levelo://app?vid=962b8100-db4e-4177-b392-9df2ed356517"},"vehicle_type_id":"4","last_reported":1741525699,"current_range_meters":18000,"station_id":"ce4bgth2rcd13ifvqch0","pricing_plan_id":"cebpf4jnsgd1na2vs0mg"},{"bike_id":"4fdb4367-69f1-4a6d-9389-e26be0310107","system_id":"levelo_inurba_marseille","lat":43.305384,"lon":5.366955,"is_reserved":false,"is_disabled":false,"rental_uris":{"android":"levelo://app?vid=4fdb4367-69f1-4a6d-9389-e26be0310107","ios":"levelo://app?vid=4fdb4367-69f1-4a6d-9389-e26be0310107"},"vehicle_type_id":"4","last_reported":1741525699,"current_range_meters":18000,"station_id":"ce4bgrp2rcd13ifvqc9g","pricing_plan_id":"cebpf4jnsgd1na2vs0mg"},{"bike_id":"26efa438-47f1-437c-a262-70d3b8dce7fa","system_id":"levelo_inurba_marseille","lat":43.28414,"lon":5.34997,"is_reserved":false,"is_disabled":true,"rental_uris":{"android":"levelo://app?vid=26efa438-47f1-437c-a262-70d3b8dce7fa","ios":"levelo://app?vid=26efa438-47f1-437c-a262-70d3b8dce7fa"},"vehicle_type_id":"4","last_reported":1741525699,"current_range_meters":18000,"station_id":"ce4bhbh2rcd13ifvqepg","pricing_plan_id":"cebpf4jnsgd1na2vs0mg"},{"bike_id":"a4188482-f069-453d-ad9c-55f393d12f02","system_id":"levelo_inurba_marseille","lat":43.32655,"lon":5.40994,"is_reserved":false,"is_disabled":false,"rental_uris":{"android":"levelo://app?vid=a4188482-f069-453d-ad9c-55f393d12f02","ios":"levelo://app?vid=a4188482-f069-453d-ad9c-55f393d12f02"},"vehicle_type_id":"4","last_reported":1741525699,"current_range_meters":18000,"station_id":"ce4bhpp2rcd13ifvqhgg","pricing_plan_id":"cebpf4jnsgd1na2vs0mg"},{"bike_id":"7b157b4a-63af-457f-8510-6335946cb32a","system_id":"levelo_inurba_marseille","lat":43.2754,"lon":5.38404,"is_reserved":false,"is_disabled":true,"rental_uris":{"android":"levelo://app?vid=7b157b4a-63af-457f-8510-6335946cb32a","ios":"levelo://app?vid=7b157b4a-63af-457f-8510-6335946cb32a"},"vehicle_type_id":"4","last_reported":1741525699,"current_range_meters":18000,"station_id":"ce4bhh92rcd13ifvqfi0","pricing_plan_id":"cebpf4jnsgd1na2vs0mg"},{"bike_id":"83c1f231-42aa-45f0-be2e-62d72e927bdd","system_id":"levelo_inurba_marseille","lat":43.31171,"lon":5.38716,"is_reserved":false,"is_disabled":false,"rental_uris":{"android":"levelo://app?vid=83c1f231-42aa-45f0-be2e-62d72e927bdd","ios":"levelo://app?vid=83c1f231-42aa-45f0-be2e-62d72e927bdd"},"vehicle_type_id":"4","last_reported":1741525699,"current_range_meters":18000,"station_id":"ce4bgv12rcd13ifvqcp0","pricing_plan_id":"cebpf4jnsgd1na2vs0mg"},{"bike_id":"39a544a4-9cda-43e2-be22-212a764912e7","system_id":"levelo_inurba_marseille","lat":43.24071,"lon":5.37766,"is_reserved":false,"is_disabled":false,"rental_uris":{"android":"levelo://app?vid=39a544a4-9cda-43e2-be22-212a764912e7","ios":"levelo://app?vid=39a544a4-9cda-43e2-be22-212a764912e7"},"vehicle_type_id":"4","last_reported":1741525699,"current_range_meters":18000,"station_id":"ce4bhnp2rcd13ifvqgvg","pricing_plan_id":"cebpf4jnsgd1na2vs0mg"},{"bike_id":"caeb1ed2-b70b-481f-b341-ccaa84ec7ae8","system_id":"levelo_inurba_marseille","lat":43.24686,"lon":5.38164,"is_reserved":false,"is_disabled":false,"rental_uris":{"android":"levelo://app?vid=caeb1ed2-b70b-481f-b341-ccaa84ec7ae8","ios":"levelo://app?vid=caeb1ed2-b70b-481f-b341-ccaa84ec7ae8"},"vehicle_type_id":"4","last_reported":1741525699,"current_range_meters":18000,"station_id":"ce4bhih2rcd13ifvqfr0","pricing_plan_id":"cebpf4jnsgd1na2vs0mg"},{"bike_id":"3997df03-2b66-4d6c-b2b5-de0a0c299bae","system_id":"levelo_inurba_marseille","lat":43.25093,"lon":5.39517,"is_reserved":false,"is_disabled":false,"rental_uris":{"android":"levelo://app?vid=3997df03-2b66-4d6c-b2b5-de0a0c299bae","ios":"levelo://app?vid=3997df03-2b66-4d6c-b2b5-de0a0c299bae"},"vehicle_type_id":"4","last_reported":1741525699,"current_range_meters":18800,"station_id":"ce4bhm12rcd13ifvqgkg","pricing_plan_id":"cebpf4jnsgd1na2vs0mg"},{"bike_id":"1044a43a-99ba-418f-8d4c-9ae671d6b1a9","system_id":"levelo_inurba_marseille","lat":43.29302,"lon":5.37459,"is_reserved":false,"is_disabled":true,"rental_uris":{"android":"levelo://app?vid=1044a43a-99ba-418f-8d4c-9ae671d6b1a9","ios":"levelo://app?vid=1044a43a-99ba-418f-8d4c-9ae671d6b1a9"},"vehicle_type_id":"4","last_reported":1741525699,"current_range_meters":18800,"station_id":"ce4bgi12rcd13ifvqb70","pricing_plan_id":"cebpf4jnsgd1na2vs0mg"},{"bike_id":"203d4b86-c4b8-4907-bf23-14985dae4756","system_id":"levelo_inurba_marseille","lat":43.28094,"lon":5.44223,"is_reserved":false,"is_disabled":false,"rental_uris":{"android":"levelo://app?vid=203d4b86-c4b8-4907-bf23-14985dae4756","ios":"levelo://app?vid=203d4b86-c4b8-4907-bf23-14985dae4756"},"vehicle_type_id":"4","last_reported":1741525699,"current_range_meters":18800,"station_id":"","pricing_plan_id":"cebpf4jnsgd1na2vs0mg"},{"bike_id":"70d621dd-2ac4-4366-8473-e8fc429d6655","system_id":"levelo_inurba_marseille","lat":43.28729,"lon":5.39967,"is_reserved":false,"is_disabled":false,"rental_uris":{"android":"levelo://app?vid=70d621dd-2ac4-4366-8473-e8fc429d6655","ios":"levelo://app?vid=70d621dd-2ac4-4366-8473-e8fc429d6655"},"vehicle_type_id":"4","last_reported":1741525699,"current_range_meters":18800,"station_id":"ce4bho92rcd13ifvqh3g","pricing_plan_id":"cebpf4jnsgd1na2vs0mg"},{"bike_id":"6c925a33-922a-4f5d-a19e-2ae09dadacc9","system_id":"levelo_inurba_marseille","lat":43.31364,"lon":5.38469,"is_reserved":false,"is_disabled":false,"rental_uris":{"android":"levelo://app?vid=6c925a33-922a-4f5d-a19e-2ae09dadacc9","ios":"levelo://app?vid=6c925a33-922a-4f5d-a19e-2ae09dadacc9"},"vehicle_type_id":"4","last_reported":1741525699,"current_range_meters":18800,"station_id":"ce4bgt92rcd13ifvqcf0","pricing_plan_id":"cebpf4jnsgd1na2vs0mg"},{"bike_id":"0879ab9f-9014-4f92-8cca-882db42d6f17","system_id":"levelo_inurba_marseille","lat":43.25736,"lon":5.41092,"is_reserved":false,"is_disabled":false,"rental_uris":{"android":"levelo://app?vid=0879ab9f-9014-4f92-8cca-882db42d6f17","ios":"levelo://app?vid=0879ab9f-9014-4f92-8cca-882db42d6f17"},"vehicle_type_id":"4","last_reported":1741525699,"current_range_meters":18800,"station_id":"ce4bhkp2rcd13ifvqgd0","pricing_plan_id":"cebpf4jnsgd1na2vs0mg"},{"bike_id":"08965530-ff8e-4faf-9f41-90736e941e18","system_id":"levelo_inurba_marseille","lat":43.28613,"lon":5.35118,"is_reserved":false,"is_disabled":false,"rental_uris":{"android":"levelo://app?vid=08965530-ff8e-4faf-9f41-90736e941e18","ios":"levelo://app?vid=08965530-ff8e-4faf-9f41-90736e941e18"},"vehicle_type_id":"4","last_reported":1741525699,"current_range_meters":18800,"station_id":"ce4bhch2rcd13ifvqeug","pricing_plan_id":"cebpf4jnsgd1na2vs0mg"},{"bike_id":"9ec52ed9-9c0e-4e61-a378-5327e3711632","system_id":"levelo_inurba_marseille","lat":43.24763,"lon":5.41142,"is_reserved":false,"is_disabled":false,"rental_uris":{"android":"levelo://app?vid=9ec52ed9-9c0e-4e61-a378-5327e3711632","ios":"levelo://app?vid=9ec52ed9-9c0e-4e61-a378-5327e3711632"},"vehicle_type_id":"4","last_reported":1741525699,"current_range_meters":18800,"station_id":"","pricing_plan_id":"cebpf4jnsgd1na2vs0mg"},{"bike_id":"8dd6805e-32d1-478e-acf7-29e209432e4e","system_id":"levelo_inurba_marseille","lat":43.296,"lon":5.37708,"is_reserved":false,"is_disabled":false,"rental_uris":{"android":"levelo://app?vid=8dd6805e-32d1-478e-acf7-29e209432e4e","ios":"levelo://app?vid=8dd6805e-32d1-478e-acf7-29e209432e4e"},"vehicle_type_id":"4","last_reported":1741525699,"current_range_meters":18800,"station_id":"ce4bgi92rcd13ifvqb90","pricing_plan_id":"cebpf4jnsgd1na2vs0mg"},{"bike_id":"67e96ce9-54b2-44cb-a5b1-546730071f20","system_id":"levelo_inurba_marseille","lat":43.25723,"lon":5.41101,"is_reserved":false,"is_disabled":false,"rental_uris":{"android":"levelo://app?vid=67e96ce9-54b2-44cb-a5b1-546730071f20","ios":"levelo://app?vid=67e96ce9-54b2-44cb-a5b1-546730071f20"},"vehicle_type_id":"4","last_reported":1741525699,"current_range_meters":19200,"station_id":"ce4bhkp2rcd13ifvqgd0","pricing_plan_id":"cebpf4jnsgd1na2vs0mg"},{"bike_id":"a44b4ad2-e639-4c9a-8fb7-52bbbdc7ff12","system_id":"levelo_inurba_marseille","lat":43.25021,"lon":5.38889,"is_reserved":false,"is_disabled":false,"rental_uris":{"android":"levelo://app?vid=a44b4ad2-e639-4c9a-8fb7-52bbbdc7ff12","ios":"levelo://app?vid=a44b4ad2-e639-4c9a-8fb7-52bbbdc7ff12"},"vehicle_type_id":"4","last_reported":1741525699,"current_range_meters":19200,"station_id":"ce4bhgp2rcd13ifvqfd0","pricing_plan_id":"cebpf4jnsgd1na2vs0mg"},{"bike_id":"145495db-349c-4f8b-a04f-4f009e07981f","system_id":"levelo_inurba_marseille","lat":43.25727,"lon":5.41098,"is_reserved":false,"is_disabled":false,"rental_uris":{"android":"levelo://app?vid=145495db-349c-4f8b-a04f-4f009e07981f","ios":"levelo://app?vid=145495db-349c-4f8b-a04f-4f009e07981f"},"vehicle_type_id":"4","last_reported":1741525699,"current_range_meters":19200,"station_id":"ce4bhkp2rcd13ifvqgd0","pricing_plan_id":"cebpf4jnsgd1na2vs0mg"},{"bike_id":"ac1d3586-76cb-40d1-a306-7c8c5194b349","system_id":"levelo_inurba_marseille","lat":43.315306,"lon":5.380284,"is_reserved":false,"is_disabled":false,"rental_uris":{"android":"levelo://app?vid=ac1d3586-76cb-40d1-a306-7c8c5194b349","ios":"levelo://app?vid=ac1d3586-76cb-40d1-a306-7c8c5194b349"},"vehicle_type_id":"4","last_reported":1741525699,"current_range_meters":19200,"station_id":"ce4bhsp2rcd13ifvqi50","pricing_plan_id":"cebpf4jnsgd1na2vs0mg"},{"bike_id":"b5f24760-138f-4676-b5a5-e1d99857a913","system_id":"levelo_inurba_marseille","lat":43.29259,"lon":5.37612,"is_reserved":false,"is_disabled":false,"rental_uris":{"android":"levelo://app?vid=b5f24760-138f-4676-b5a5-e1d99857a913","ios":"levelo://app?vid=b5f24760-138f-4676-b5a5-e1d99857a913"},"vehicle_type_id":"4","last_reported":1741525699,"current_range_meters":19200,"station_id":"ce4bgi12rcd13ifvqb80","pricing_plan_id":"cebpf4jnsgd1na2vs0mg"},{"bike_id":"600919b7-a4f2-44ea-ae74-12f6911dad5c","system_id":"levelo_inurba_marseille","lat":43.24204,"lon":5.3974,"is_reserved":false,"is_disabled":false,"rental_uris":{"android":"levelo://app?vid=600919b7-a4f2-44ea-ae74-12f6911dad5c","ios":"levelo://app?vid=600919b7-a4f2-44ea-ae74-12f6911dad5c"},"vehicle_type_id":"4","last_reported":1741525699,"current_range_meters":19200,"station_id":"ce4bhn12rcd13ifvqgpg","pricing_plan_id":"cebpf4jnsgd1na2vs0mg"},{"bike_id":"ec0a56da-3b74-4ad5-aa49-ecd7ea511691","system_id":"levelo_inurba_marseille","lat":43.25714,"lon":5.41083,"is_reserved":false,"is_disabled":false,"rental_uris":{"android":"levelo://app?vid=ec0a56da-3b74-4ad5-aa49-ecd7ea511691","ios":"levelo://app?vid=ec0a56da-3b74-4ad5-aa49-ecd7ea511691"},"vehicle_type_id":"4","last_reported":1741525699,"current_range_meters":19200,"station_id":"ce4bhkp2rcd13ifvqgd0","pricing_plan_id":"cebpf4jnsgd1na2vs0mg"},{"bike_id":"e5345cf1-6272-43be-b9f8-1be30eed5081","system_id":"levelo_inurba_marseille","lat":43.31469,"lon":5.37302,"is_reserved":false,"is_disabled":false,"rental_uris":{"android":"levelo://app?vid=e5345cf1-6272-43be-b9f8-1be30eed5081","ios":"levelo://app?vid=e5345cf1-6272-43be-b9f8-1be30eed5081"},"vehicle_type_id":"4","last_reported":1741525699,"current_range_meters":19200,"station_id":"ce4bgt12rcd13ifvqcd0","pricing_plan_id":"cebpf4jnsgd1na2vs0mg"},{"bike_id":"85d35487-fba6-4e70-9a4f-eb38fa4509b7","system_id":"levelo_inurba_marseille","lat":43.296069,"lon":5.380904,"is_reserved":false,"is_disabled":false,"rental_uris":{"android":"levelo://app?vid=85d35487-fba6-4e70-9a4f-eb38fa4509b7","ios":"levelo://app?vid=85d35487-fba6-4e70-9a4f-eb38fa4509b7"},"vehicle_type_id":"4","last_reported":1741525699,"current_range_meters":19200,"station_id":"ce4bgl12rcd13ifvqbo0","pricing_plan_id":"cebpf4jnsgd1na2vs0mg"},{"bike_id":"f381c9bd-14fa-41ab-b589-3ecebd6dfe48","system_id":"levelo_inurba_marseille","lat":43.32358,"lon":5.36765,"is_reserved":false,"is_disabled":false,"rental_uris":{"android":"levelo://app?vid=f381c9bd-14fa-41ab-b589-3ecebd6dfe48","ios":"levelo://app?vid=f381c9bd-14fa-41ab-b589-3ecebd6dfe48"},"vehicle_type_id":"4","last_reported":1741525699,"current_range_meters":19200,"station_id":"ce4bhsh2rcd13ifvqi2g","pricing_plan_id":"cebpf4jnsgd1na2vs0mg"},