{"last_updated":1682283919,"ttl":30,"version":"2.2","data":{"bikes":[{"bike_id":"bdc1196c-e709-45b1-9487-7a74e725ab34","system_id":"levelo_inurba_marseille","lat":43.31227,"lon":5.36867,"is_reserved":false,"is_disabled":false,"rental_uris":{"android":"levelo://app?vid=bdc1196c-e709-45b1-9487-7a74e725ab34","ios":"levelo://app?vid=bdc1196c-e709-45b1-9487-7a74e725ab34"},"vehicle_type_id":"4","last_reported":1682283919,"current_range_meters":2000,"station_id":"ce4bgl92rcd13ifvqbq0","pricing_plan_id":"free"},{"bike_id":"dfc17724-7988-4521-b28f-d981fbb0e670","system_id":"levelo_inurba_marseille","lat":43.31216,"lon":5.36867,"is_reserved":false,"is_disabled":false,"rental_uris":{"android":"levelo://app?vid=dfc17724-7988-4521-b28f-d981fbb0e670","ios":"levelo://app?vid=dfc17724-7988-4521-b28f-d981fbb0e670"},"vehicle_type_id":"4","last_reported":1682283919,"current_range_meters":31200,"station_id":"ce4bgl92rcd13ifvqbq0","pricing_plan_id":"free"},{"bike_id":"221ae2a4-5c5f-4f13-aeed-7607af8bdc90","system_id":"levelo_inurba_marseille","lat":43.31233,"lon":5.36887,"is_reserved":false,"is_disabled":false,"rental_uris":{"android":"levelo://app?vid=221ae2a4-5c5f-4f13-aeed-7607af8bdc90","ios":"levelo://app?vid=221ae2a4-5c5f-4f13-aeed-7607af8bdc90"},"vehicle_type_id":"4","last_reported":1682283919,"current_range_meters":22000,"station_id":"","pricing_plan_id":"free"},{"bike_id":"cee35eac-1996-4eeb-a029-e5a14b2a57aa","system_id":"levelo_inurba_marseille","lat":43.312239,"lon":5.368562,"is_reserved":false,"is_disabled":false,"rental_uris":{"android":"levelo://app?vid=cee35eac-1996-4eeb-a029-e5a14b2a57aa","ios":"levelo://app?vid=cee35eac-1996-4eeb-a029-e5a14b2a57aa"},"vehicle_type_id":"4","last_reported":1682283919,"current_range_meters":13600,"station_id":"ce4bgl92rcd13ifvqbq0","pricing_plan_id":"free"},{"bike_id":"c6020ee9-8923-4163-9cfc-7a62b288ff75","system_id":"levelo_inurba_marseille","lat":43.314811,"lon":5.373103,"is_reserved":false,"is_disabled":false,"rental_uris":{"android":"levelo://app?vid=c6020ee9-8923-4163-9cfc-7a62b288ff75","ios":"levelo://app?vid=c6020ee9-8923-4163-9cfc-7a62b288ff75"},"vehicle_type_id":"4","last_reported":1682283919,"current_range_meters":9600,"station_id":"ce4bgt12rcd13ifvqcd0","pricing_plan_id":"free"},{"bike_id":"09f97320-88ec-4ac9-a12a-4de8e16ae8d2","system_id":"levelo_inurba_marseille","lat":43.314811,"lon":5.373103,"is_reserved":false,"is_disabled":false,"rental_uris":{"android":"levelo://app?vid=09f97320-88ec-4ac9-a12a-4de8e16ae8d2","ios":"levelo://app?vid=09f97320-88ec-4ac9-a12a-4de8e16ae8d2"},"vehicle_type_id":"4","last_reported":1682283919,"current_range_meters":12800,"station_id":"ce4bgt12rcd13ifvqcd0","pricing_plan_id":"free"},{"bike_id":"0274a6df-efe3-412d-92fa-ab956f115674","system_id":"levelo_inurba_marseille","lat":43.314811,"lon":5.373104,"is_reserved":false,"is_disabled":false,"rental_uris":{"android":"levelo://app?vid=0274a6df-efe3-412d-92fa-ab956f115674","ios":"levelo://app?vid=0274a6df-efe3-412d-92fa-ab956f115674"},"vehicle_type_id":"4","last_reported":1682283919,"current_range_meters":8400,"station_id":"ce4bgt12rcd13ifvqcd0","pricing_plan_id":"free"},{"bike_id":"10e4dc19-499c-4b4b-a2a5-5905b9ccd1be","system_id":"levelo_inurba_marseille","lat":43.309,"lon":5.37206,"is_reserved":false,"is_disabled":false,"rental_uris":{"android":"levelo://app?vid=10e4dc19-499c-4b4b-a2a5-5905b9ccd1be","ios":"levelo://app?vid=10e4dc19-499c-4b4b-a2a5-5905b9ccd1be"},"vehicle_type_id":"4","last_reported":1682283919,"current_range_meters":0,"station_id":"","pricing_plan_id":"free"},{"bike_id":"f482a30f-1014-4a19-aa9d-88f129d6e2d7","system_id":"levelo_inurba_marseille","lat":43.30887,"lon":5.37198,"is_reserved":false,"is_disabled":false,"rental_uris":{"android":"levelo://app?vid=f482a30f-1014-4a19-aa9d-88f129d6e2d7","ios":"levelo://app?vid=f482a30f-1014-4a19-aa9d-88f129d6e2d7"},"vehicle_type_id":"4","last_reported":1682283919,"current_range_meters":4000,"station_id":"","pricing_plan_id":"free"},{"bike_id":"87e4ef66-1df8-4604-b83e-b41f6bdc5822","system_id":"levelo_inurba_marseille","lat":43.305989,"lon":5.37225,"is_reserved":false,"is_disabled":false,"rental_uris":{"android":"levelo://app?vid=87e4ef66-1df8-4604-b83e-b41f6bdc5822","ios":"levelo://app?vid=87e4ef66-1df8-4604-b83e-b41f6bdc5822"},"vehicle_type_id":"4","last_reported":1682283919,"current_range_meters":12400,"station_id":"ce4bgqh2rcd13ifvqc4g","pricing_plan_id":"free"},{"bike_id":"1e512537-7b13-4434-a05c-8375fa231630","system_id":"levelo_inurba_marseille","lat":43.305989,"lon":5.37225,"is_reserved":false,"is_disabled":false,"rental_uris":{"android":"levelo://app?vid=1e512537-7b13-4434-a05c-8375fa231630","ios":"levelo://app?vid=1e512537-7b13-4434-a05c-8375fa231630"},"vehicle_type_id":"4","last_reported":1682283919,"current_range_meters":24400,"station_id":"ce4bgqh2rcd13ifvqc4g","pricing_plan_id":"free"},{"bike_id":"29fa8bde-bb86-4919-a874-70ce26b3d6ca","system_id":"levelo_inurba_marseille","lat":43.305989,"lon":5.37225,"is_reserved":false,"is_disabled":false,"rental_uris":{"android":"levelo://app?vid=29fa8bde-bb86-4919-a874-70ce26b3d6ca","ios":"levelo://app?vid=29fa8bde-bb86-4919-a874-70ce26b3d6ca"},"vehicle_type_id":"4","last_reported":1682283919,"current_range_meters":2000,"station_id":"ce4bgqh2rcd13ifvqc4g","pricing_plan_id":"free"},{"bike_id":"2b79daac-d0bf-40c6-a531-e859df472f10","system_id":"levelo_inurba_marseille","lat":43.305989,"lon":5.37225,"is_reserved":false,"is_disabled":false,"rental_uris":{"android":"levelo://app?vid=2b79daac-d0bf-40c6-a531-e859df472f10","ios":"levelo://app?vid=2b79daac-d0bf-40c6-a531-e859df472f10"},"vehicle_type_id":"4","last_reported":1682283919,"current_range_meters":0,"station_id":"ce4bgqh2rcd13ifvqc4g","pricing_plan_id":"free"},{"bike_id":"228f2e14-4141-4b0a-8bbf-adeaaef3d95e","system_id":"levelo_inurba_marseille","lat":43.30601,"lon":5.37232,"is_reserved":false,"is_disabled":false,"rental_uris":{"android":"levelo://app?vid=228f2e14-4141-4b0a-8bbf-adeaaef3d95e","ios":"levelo://app?vid=228f2e14-4141-4b0a-8bbf-adeaaef3d95e"},"vehicle_type_id":"4","last_reported":1682283919,"current_range_meters":11200,"station_id":"ce4bgqh2rcd13ifvqc4g","pricing_plan_id":"free"},{"bike_id":"07215309-8624-4f89-a1ed-e288a7e4ba8b","system_id":"levelo_inurba_marseille","lat":43.305989,"lon":5.37225,"is_reserved":false,"is_disabled":false,"rental_uris":{"android":"levelo://app?vid=07215309-8624-4f89-a1ed-e288a7e4ba8b","ios":"levelo://app?vid=07215309-8624-4f89-a1ed-e288a7e4ba8b"},"vehicle_type_id":"4","last_reported":1682283919,"current_range_meters":400,"station_id":"ce4bgqh2rcd13ifvqc4g","pricing_plan_id":"free"},{"bike_id":"43960f69-ac72-48e9-b793-8979edbdf46e","system_id":"levelo_inurba_marseille","lat":43.305989,"lon":5.37225,"is_reserved":false,"is_disabled":false,"rental_uris":{"android":"levelo://app?vid=43960f69-ac72-48e9-b793-8979edbdf46e","ios":"levelo://app?vid=43960f69-ac72-48e9-b793-8979edbdf46e"},"vehicle_type_id":"4","last_reported":1682283919,"current_range_meters":22000,"station_id":"ce4bgqh2rcd13ifvqc4g","pricing_plan_id":"free"},{"bike_id":"fb3865a5-1524-4d5e-80f6-c38aaa9d972b","system_id":"levelo_inurba_marseille","lat":43.311131,"lon":5.377651,"is_reserved":false,"is_disabled":false,"rental_uris":{"android":"levelo://app?vid=fb3865a5-1524-4d5e-80f6-c38aaa9d972b","ios":"levelo://app?vid=fb3865a5-1524-4d5e-80f6-c38aaa9d972b"},"vehicle_type_id":"4","last_reported":1682283919,"current_range_meters":23600,"station_id":"ce4bgt92rcd13ifvqcg0","pricing_plan_id":"free"},{"bike_id":"79061dbd-584b-4804-b056-19eba552dc31","system_id":"levelo_inurba_marseille","lat":43.30691,"lon":5.37482,"is_reserved":false,"is_disabled":false,"rental_uris":{"android":"levelo://app?vid=79061dbd-584b-4804-b056-19eba552dc31","ios":"levelo://app?vid=79061dbd-584b-4804-b056-19eba552dc31"},"vehicle_type_id":"4","last_reported":1682283919,"current_range_meters":12400,"station_id":"","pricing_plan_id":"free"},{"bike_id":"2f48a665-3f9d-452b-b562-bd860730c185","system_id":"levelo_inurba_marseille","lat":43.317075,"lon":5.377367,"is_reserved":false,"is_disabled":false,"rental_uris":{"android":"levelo://app?vid=2f48a665-3f9d-452b-b562-bd860730c185","ios":"levelo://app?vid=2f48a665-3f9d-452b-b562-bd860730c185"},"vehicle_type_id":"4","last_reported":1682283919,"current_range_meters":16000,"station_id":"ce4bgth2rcd13ifvqch0","pricing_plan_id":"free"},{"bike_id":"06b512e6-4b77-4881-bf86-ec3d9279629b","system_id":"levelo_inurba_marseille","lat":43.317075,"lon":5.377367,"is_reserved":false,"is_disabled":false,"rental_uris":{"android":"levelo://app?vid=06b512e6-4b77-4881-bf86-ec3d9279629b","ios":"levelo://app?vid=06b512e6-4b77-4881-bf86-ec3d9279629b"},"vehicle_type_id":"4","last_reported":1682283919,"current_range_meters":29600,"station_id":"ce4bgth2rcd13ifvqch0","pricing_plan_id":"free"},{"bike_id":"3c4e6c8c-df65-4deb-8995-f8befa733260","system_id":"levelo_inurba_marseille","lat":43.31534,"lon":5.37884,"is_reserved":false,"is_disabled":false,"rental_uris":{"android":"levelo://app?vid=3c4e6c8c-df65-4deb-8995-f8befa733260","ios":"levelo://app?vid=3c4e6c8c-df65-4deb-8995-f8befa733260"},"vehicle_type_id":"4","last_reported":1682283919,"current_range_meters":4000,"station_id":"","pricing_plan_id":"free"},{"bike_id":"8abb0944-6c1e-41de-b471-bbf55d20a686","system_id":"levelo_inurba_marseille","lat":43.30319,"lon":5.3689,"is_reserved":false,"is_disabled":false,"rental_uris":{"android":"levelo://app?vid=8abb0944-6c1e-41de-b471-bbf55d20a686","ios":"levelo://app?vid=8abb0944-6c1e-41de-b471-bbf55d20a686"},"vehicle_type_id":"4","last_reported":1682283919,"current_range_meters":800,"station_id":"","pricing_plan_id":"free"},{"bike_id":"9a99a9ca-0683-4f47-b6df-474c1fdaee19","system_id":"levelo_inurba_marseille","lat":43.303046,"lon":5.368981,"is_reserved":false,"is_disabled":false,"rental_uris":{"android":"levelo://app?vid=9a99a9ca-0683-4f47-b6df-474c1fdaee19","ios":"levelo://app?vid=9a99a9ca-0683-4f47-b6df-474c1fdaee19"},"vehicle_type_id":"4","last_reported":1682283919,"current_range_meters":22800,"station_id":"ce4bgqh2rcd13ifvqc5g","pricing_plan_id":"free"},{"bike_id":"b69e69b2-3387-4468-9826-9fc85b0f77d1","system_id":"levelo_inurba_marseille","lat":43.315293,"lon":5.380349,"is_reserved":false,"is_disabled":false,"rental_uris":{"android":"levelo://app?vid=b69e69b2-3387-4468-9826-9fc85b0f77d1","ios":"levelo://app?vid=b69e69b2-3387-4468-9826-9fc85b0f77d1"},"vehicle_type_id":"4","last_reported":1682283919,"current_range_meters":30400,"station_id":"ce4bhsp2rcd13ifvqi50","pricing_plan_id":"free"},{"bike_id":"5ab42856-1e54-47ba-a7ae-ccc5b7ba04ea","system_id":"levelo_inurba_marseille","lat":43.315289,"lon":5.380349,"is_reserved":false,"is_disabled":false,"rental_uris":{"android":"levelo://app?vid=5ab42856-1e54-47ba-a7ae-ccc5b7ba04ea","ios":"levelo://app?vid=5ab42856-1e54-47ba-a7ae-ccc5b7ba04ea"},"vehicle_type_id":"4","last_reported":1682283919,"current_range_meters":12800,"station_id":"ce4bhsp2rcd13ifvqi50","pricing_plan_id":"free"},{"bike_id":"b028d840-6c8a-49b2-90a4-c10e3eb334b8","system_id":"levelo_inurba_marseille","lat":43.301939,"lon":5.366286,"is_reserved":false,"is_disabled":false,"rental_uris":{"android":"levelo://app?vid=b028d840-6c8a-49b2-90a4-c10e3eb334b8","ios":"levelo://app?vid=b028d840-6c8a-49b2-90a4-c10e3eb334b8"},"vehicle_type_id":"4","last_reported":1682283919,"current_range_meters":4800,"station_id":"ce4bgrh2rcd13ifvqc8g","pricing_plan_id":"free"},{"bike_id":"9a0e8003-7dc1-4653-9db3-6aea78fcdee8","system_id":"levelo_inurba_marseille","lat":43.308012,"lon":5.381511,"is_reserved":false,"is_disabled":false,"rental_uris":{"android":"levelo://app?vid=9a0e8003-7dc1-4653-9db3-6aea78fcdee8","ios":"levelo://app?vid=9a0e8003-7dc1-4653-9db3-6aea78fcdee8"},"vehicle_type_id":"4","last_reported":1682283919,"current_range_meters":0,"station_id":"ce4bgt12rcd13ifvqce0","pricing_plan_id":"free"},{"bike_id":"37faadc4-4c8c-4d0a-be23-d54af3b266c4","system_id":"levelo_inurba_marseille","lat":43.308012,"lon":5.381511,"is_reserved":false,"is_disabled":false,"rental_uris":{"android":"levelo://app?vid=37faadc4-4c8c-4d0a-be23-d54af3b266c4","ios":"levelo://app?vid=37faadc4-4c8c-4d0a-be23-d54af3b266c4"},"vehicle_type_id":"4","last_reported":1682283919,"current_range_meters":6000,"station_id":"ce4bgt12rcd13ifvqce0","pricing_plan_id":"free"},{"bike_id":"a1c6584f-ecf0-4dd5-96a1-f830022c2bdb","system_id":"levelo_inurba_marseille","lat":43.308012,"lon":5.381511,"is_reserved":false,"is_disabled":false,"rental_uris":{"android":"levelo://app?vid=a1c6584f-ecf0-4dd5-96a1-f830022c2bdb","ios":"levelo://app?vid=a1c6584f-ecf0-4dd5-96a1-f830022c2bdb"},"vehicle_type_id":"4","last_reported":1682283919,"current_range_meters":6800,"station_id":"ce4bgt12rcd13ifvqce0","pricing_plan_id":"free"},{"bike_id":"3228553f-64cf-46f3-af8f-587f641afb57","system_id":"levelo_inurba_marseille","lat":43.308012,"lon":5.381511,"is_reserved":false,"is_disabled":false,"rental_uris":{"android":"levelo://app?vid=3228553f-64cf-46f3-af8f-587f641afb57","ios":"levelo://app?vid=3228553f-64cf-46f3-af8f-587f641afb57"},"vehicle_type_id":"4","last_reported":1682283919,"current_range_meters":2000,"station_id":"ce4bgt12rcd13ifvqce0","pricing_plan_id":"free"},{"bike_id":"5773a987-015d-4b07-97a8-962bc86bce04","system_id":"levelo_inurba_marseille","lat":43.308012,"lon":5.381511,"is_reserved":false,"is_disabled":false,"rental_uris":{"android":"levelo://app?vid=5773a987-015d-4b07-97a8-962bc86bce04","ios":"levelo://app?vid=5773a987-015d-4b07-97a8-962bc86bce04"},"vehicle_type_id":"4","last_reported":1682283919,"current_range_meters":1600,"station_id":"ce4bgt12rcd13ifvqce0","pricing_plan_id":"free"},{"bike_id":"722a1524-1312-4d6b-b940-66fc07ddd4fc","system_id":"levelo_inurba_marseille","lat":43.308012,"lon":5.381511,"is_reserved":false,"is_disabled":false,"rental_uris":{"android":"levelo://app?vid=722a1524-1312-4d6b-b940-66fc07ddd4fc","ios":"levelo://app?vid=722a1524-1312-4d6b-b940-66fc07ddd4fc"},"vehicle_type_id":"4","last_reported":1682283919,"current_range_meters":8400,"station_id":"ce4bgt12rcd13ifvqce0","pricing_plan_id":"free"},{"bike_id":"637a150b-084c-4677-bfd5-2849d4643f66","system_id":"levelo_inurba_marseille","lat":43.308012,"lon":5.381511,"is_reserved":false,"is_disabled":false,"rental_uris":{"android":"levelo://app?vid=637a150b-084c-4677-bfd5-2849d4643f66","ios":"levelo://app?vid=637a150b-084c-4677-bfd5-2849d4643f66"},"vehicle_type_id":"4","last_reported":1682283919,"current_range_meters":4000,"station_id":"ce4bgt12rcd13ifvqce0","pricing_plan_id":"free"},{"bike_id":"0794ebcf-31e8-43cb-8b9a-a9d0c181bedd","system_id":"levelo_inurba_marseille","lat":43.301435,"lon":5.374197,"is_reserved":false,"is_disabled":false,"rental_uris":{"android":"levelo://app?vid=0794ebcf-31e8-43cb-8b9a-a9d0c181bedd","ios":"levelo://app?vid=0794ebcf-31e8-43cb-8b9a-a9d0c181bedd"},"vehicle_type_id":"4","last_reported":1682283919,"current_range_meters":0,"station_id":"","pricing_plan_id":"free"},{"bike_id":"84b46d76-4872-49e4-b816-f64ef6262391","system_id":"levelo_inurba_marseille","lat":43.3014,"lon":5.37424,"is_reserved":false,"is_disabled":false,"rental_uris":{"android":"levelo://app?vid=84b46d76-4872-49e4-b816-f64ef6262391","ios":"levelo://app?vid=84b46d76-4872-49e4-b816-f64ef6262391"},"vehicle_type_id":"4","last_reported":1682283919,"current_range_meters":400,"station_id":"ce4bgs92rcd13ifvqcc0","pricing_plan_id":"free"},{"bike_id":"09eaf7cd-3496-430a-8525-ffefd041517f","system_id":"levelo_inurba_marseille","lat":43.313571,"lon":5.384829,"is_reserved":false,"is_disabled":false,"rental_uris":{"android":"levelo://app?vid=09eaf7cd-3496-430a-8525-ffefd041517f","ios":"levelo://app?vid=09eaf7cd-3496-430a-8525-ffefd041517f"},"vehicle_type_id":"4","last_reported":1682283919,"current_range_meters":10400,"station_id":"ce4bgt92rcd13ifvqcf0","pricing_plan_id":"free"},{"bike_id":"35613c1b-14cc-47b1-8533-ed477e469b1a","system_id":"levelo_inurba_marseille","lat":43.313571,"lon":5.384829,"is_reserved":false,"is_disabled":false,"rental_uris":{"android":"levelo://app?vid=35613c1b-14cc-47b1-8533-ed477e469b1a","ios":"levelo://app?vid=35613c1b-14cc-47b1-8533-ed477e469b1a"},"vehicle_type_id":"4","last_reported":1682283919,"current_range_meters":4800,"station_id":"ce4bgt92rcd13ifvqcf0","pricing_plan_id":"free"},{"bike_id":"e9ae3520-4a2a-435b-af4e-8b8cc66ba58b","system_id":"levelo_inurba_marseille","lat":43.298433,"lon":5.362774,"is_reserved":false,"is_disabled":false,"rental_uris":{"android":"levelo://app?vid=e9ae3520-4a2a-435b-af4e-8b8cc66ba58b","ios":"levelo://app?vid=e9ae3520-4a2a-435b-af4e-8b8cc66ba58b"},"vehicle_type_id":"4","last_reported":1682283919,"current_range_meters":23200,"station_id":"ce4bgpp2rcd13ifvqc3g","pricing_plan_id":"free"},{"bike_id":"0845fdcf-1012-4496-a0fb-e33921250c27","system_id":"levelo_inurba_marseille","lat":43.305364,"lon":5.384119,"is_reserved":false,"is_disabled":false,"rental_uris":{"android":"levelo://app?vid=0845fdcf-1012-4496-a0fb-e33921250c27","ios":"levelo://app?vid=0845fdcf-1012-4496-a0fb-e33921250c27"},"vehicle_type_id":"4","last_reported":1682283919,"current_range_meters":11600,"station_id":"ce4bgg92rcd13ifvqb30","pricing_plan_id":"free"},{"bike_id":"0bf7717f-ff36-46cc-892e-5cc22bfded4c","system_id":"levelo_inurba_marseille","lat":43.311722,"lon":5.387247,"is_reserved":false,"is_disabled":false,"rental_uris":{"android":"levelo://app?vid=0bf7717f-ff36-46cc-892e-5cc22bfded4c","ios":"levelo://app?vid=0bf7717f-ff36-46cc-892e-5cc22bfded4c"},"vehicle_type_id":"4","last_reported":1682283919,"current_range_meters":17600,"station_id":"ce4bgv12rcd13ifvqcp0","pricing_plan_id":"free"},{"bike_id":"36a7e01d-5d43-4e46-83d1-0822a4ddfd0e","system_id":"levelo_inurba_marseille","lat":43.2991,"lon":5.37459,"is_reserved":false,"is_disabled":false,"rental_uris":{"android":"levelo://app?vid=36a7e01d-5d43-4e46-83d1-0822a4ddfd0e","ios":"levelo://app?vid=36a7e01d-5d43-4e46-83d1-0822a4ddfd0e"},"vehicle_type_id":"4","last_reported":1682283919,"current_range_meters":6000,"station_id":"ce4bgjh2rcd13ifvqbg0","pricing_plan_id":"free"},{"bike_id":"e85d0363-cd15-411b-856e-6eca3906b910","system_id":"levelo_inurba_marseille","lat":43.311722,"lon":5.387247,"is_reserved":false,"is_disabled":false,"rental_uris":{"android":"levelo://app?vid=e85d0363-cd15-411b-856e-6eca3906b910","ios":"levelo://app?vid=e85d0363-cd15-411b-856e-6eca3906b910"},"vehicle_type_id":"4","last_reported":1682283919,"current_range_meters":18400,"station_id":"ce4bgv12rcd13ifvqcp0","pricing_plan_id":"free"},{"bike_id":"db44a82d-b1e8-4429-be69-28fa4fb07902","system_id":"levelo_inurba_marseille","lat":43.311722,"lon":5.387247,"is_reserved":false,"is_disabled":false,"rental_uris":{"android":"levelo://app?vid=db44a82d-b1e8-4429-be69-28fa4fb07902","ios":"levelo://app?vid=db44a82d-b1e8-4429-be69-28fa4fb07902"},"vehicle_type_id":"4","last_reported":1682283919,"current_range_meters":27600,"station_id":"ce4bgv12rcd13ifvqcp0","pricing_plan_id":"free"},{"bike_id":"b37b3ac3-fd3c-4113-af67-add648dc9b23","system_id":"levelo_inurba_marseille","lat":43.311722,"lon":5.387247,"is_reserved":false,"is_disabled":false,"rental_uris":{"android":"levelo://app?vid=b37b3ac3-fd3c-4113-af67-add648dc9b23","ios":"levelo://app?vid=b37b3ac3-fd3c-4113-af67-add648dc9b23"},"vehicle_type_id":"4","last_reported":1682283919,"current_range_meters":27200,"station_id":"ce4bgv12rcd13ifvqcp0","pricing_plan_id":"free"},{"bike_id":"b11c52bb-e634-4bb8-8f12-beaaab032aa8","system_id":"levelo_inurba_marseille","lat":43.297774,"lon":5.370875,"is_reserved":false,"is_disabled":false,"rental_uris":{"android":"levelo://app?vid=b11c52bb-e634-4bb8-8f12-beaaab032aa8","ios":"levelo://app?vid=b11c52bb-e634-4bb8-8f12-beaaab032aa8"},"vehicle_type_id":"4","last_reported":1682283919,"current_range_meters":25600,"station_id":"ce4bgop2rcd13ifvqc1g","pricing_plan_id":"free"},{"bike_id":"ca4efad6-31cc-4986-9128-e6def2fccc5e","system_id":"levelo_inurba_marseille","lat":43.297774,"lon":5.370875,"is_reserved":false,"is_disabled":false,"rental_uris":{"android":"levelo://app?vid=ca4efad6-31cc-4986-9128-e6def2fccc5e","ios":"levelo://app?vid=ca4efad6-31cc-4986-9128-e6def2fccc5e"},"vehicle_type_id":"4","last_reported":1682283919,"current_range_meters":5200,"station_id":"ce4bgop2rcd13ifvqc1g","pricing_plan_id":"free"},{"bike_id":"3715c281-72cb-4c63-8c26-a01371a29b03","system_id":"levelo_inurba_marseille","lat":43.328371,"lon":5.366912,"is_reserved":false,"is_disabled":false,"rental_uris":{"android":"levelo://app?vid=3715c281-72cb-4c63-8c26-a01371a29b03","ios":"levelo://app?vid=3715c281-72cb-4c63-8c26-a01371a29b03"},"vehicle_type_id":"4","last_reported":1682283919,"current_range_meters":800,"station_id":"ce4bhs92rcd13ifvqi0g","pricing_plan_id":"free"},{"bike_id":"e6eb28d4-8f9f-49c3-ad12-5b297fc34b1f","system_id":"levelo_inurba_marseille","lat":43.328371,"lon":5.366909,"is_reserved":false,"is_disabled":false,"rental_uris":{"android":"levelo://app?vid=e6eb28d4-8f9f-49c3-ad12-5b297fc34b1f","ios":"levelo://app?vid=e6eb28d4-8f9f-49c3-ad12-5b297fc34b1f"},"vehicle_type_id":"4","last_reported":1682283919,"current_range_meters":23200,"station_id":"ce4bhs92rcd13ifvqi0g","pricing_plan_id":"free"},{"bike_id":"bb095569-7c3f-435a-af11-3d18055547f4","system_id":"levelo_inurba_marseille","lat":43.328371,"lon":5.366912,"is_reserved":false,"is_disabled":false,"rental_uris":{"android":"levelo://app?vid=bb095569-7c3f-435a-af11-3d18055547f4","ios":"levelo://app?vid=bb095569-7c3f-435a-af11-3d18055547f4"},"vehicle_type_id":"4","last_reported":1682283919,"current_range_meters":27200,"station_id":"ce4bhs92rcd13ifvqi0g","pricing_plan_id":"free"},{"bike_id":"06165b73-0659-444e-b5d1-fdaee1a6da70","system_id":"levelo_inurba_marseille","lat":43.328371,"lon":5.366912,"is_reserved":false,"is_disabled":false,"rental_uris":{"android":"levelo://app?vid=06165b73-0659-444e-b5d1-fdaee1a6da70","ios":"levelo://app?vid=06165b73-0659-444e-b5d1-fdaee1a6da70"},"vehicle_type_id":"4","last_reported":1682283919,"current_range_meters":28800,"station_id":"ce4bhs92rcd13ifvqi0g","pricing_plan_id":"free"},{"bike_id":"a07b6f04-6ed4-41f2-b90a-863cc4ca5121","system_id":"levelo_inurba_marseille","lat":43.328371,"lon":5.366912,"is_reserved":false,"is_disabled":false,"rental_uris":{"android":"levelo://app?vid=a07b6f04-6ed4-41f2-b90a-863cc4ca5121","ios":"levelo://app?vid=a07b6f04-6ed4-41f2-b90a-863cc4ca5121"},"vehicle_type_id":"4","last_reported":1682283919,"current_range_meters":29600,"station_id":"ce4bhs92rcd13ifvqi0g","pricing_plan_id":"free"},{"bike_id":"6eefb3ec-87e5-418f-8757-2069de526952","system_id":"levelo_inurba_marseille","lat":43.32832,"lon":5.36679,"is_reserved":false,"is_disabled":false,"rental_uris":{"android":"levelo://app?vid=6eefb3ec-87e5-418f-8757-2069de526952","ios":"levelo://app?vid=6eefb3ec-87e5-418f-8757-2069de526952"},"vehicle_type_id":"4","last_reported":1682283919,"current_range_meters":28000,"station_id":"ce4bhs92rcd13ifvqi0g","pricing_plan_id":"free"},{"bike_id":"443068c7-0b4a-4c18-863a-1b1da1ea4156","system_id":"levelo_inurba_marseille","lat":43.32833,"lon":5.3668,"is_reserved":false,"is_disabled":false,"rental_uris":{"android":"levelo://app?vid=443068c7-0b4a-4c18-863a-1b1da1ea4156","ios":"levelo://app?vid=443068c7-0b4a-4c18-863a-1b1da1ea4156"},"vehicle_type_id":"4","last_reported":1682283919,"current_range_meters":24000,"station_id":"ce4bhs92rcd13ifvqi0g","pricing_plan_id":"free"},{"bike_id":"81b4e9fe-31e2-4a91-9e50-52f1853587cc","system_id":"levelo_inurba_marseille","lat":43.328371,"lon":5.366912,"is_reserved":false,"is_disabled":false,"rental_uris":{"android":"levelo://app?vid=81b4e9fe-31e2-4a91-9e50-52f1853587cc","ios":"levelo://app?vid=81b4e9fe-31e2-4a91-9e50-52f1853587cc"},"vehicle_type_id":"4","last_reported":1682283919,"current_range_meters":8000,"station_id":"ce4bhs92rcd13ifvqi0g","pricing_plan_id":"free"},{"bike_id":"62125dd7-01b6-4b47-9996-086499457a1d","system_id":"levelo_inurba_marseille","lat":43.32834,"lon":5.36676,"is_reserved":false,"is_disabled":false,"rental_uris":{"android":"levelo://app?vid=62125dd7-01b6-4b47-9996-086499457a1d","ios":"levelo://app?vid=62125dd7-01b6-4b47-9996-086499457a1d"},"vehicle_type_id":"4","last_reported":1682283919,"current_range_meters":28000,"station_id":"ce4bhs92rcd13ifvqi0g","pricing_plan_id":"free"},{"bike_id":"77a15084-c151-4d9e-8db8-4eb1a02ee92f","system_id":"levelo_inurba_marseille","lat":43.32835,"lon":5.36685,"is_reserved":false,"is_disabled":false,"rental_uris":{"android":"levelo://app?vid=77a15084-c151-4d9e-8db8-4eb1a02ee92f","ios":"levelo://app?vid=77a15084-c151-4d9e-8db8-4eb1a02ee92f"},"vehicle_type_id":"4","last_reported":1682283919,"current_range_meters":23600,"station_id":"ce4bhs92rcd13ifvqi0g","pricing_plan_id":"free"},{"bike_id":"70fbabac-c38a-4ae0-ba9c-7d92375d184b","system_id":"levelo_inurba_marseille","lat":43.32836,"lon":5.36683,"is_reserved":false,"is_disabled":false,"rental_uris":{"android":"levelo://app?vid=70fbabac-c38a-4ae0-ba9c-7d92375d184b","ios":"levelo://app?vid=70fbabac-c38a-4ae0-ba9c-7d92375d184b"},"vehicle_type_id":"4","last_reported":1682283919,"current_range_meters":28000,"station_id":"ce4bhs92rcd13ifvqi0g","pricing_plan_id":"free"},{"bike_id":"02029b27-c00e-47de-bbdd-ff110cce3b77","system_id":"levelo_inurba_marseille","lat":43.32836,"lon":5.3668,"is_reserved":false,"is_disabled":false,"rental_uris":{"android":"levelo://app?vid=02029b27-c00e-47de-bbdd-ff110cce3b77","ios":"levelo://app?vid=02029b27-c00e-47de-bbdd-ff110cce3b77"},"vehicle_type_id":"4","last_reported":1682283919,"current_range_meters":12400,"station_id":"ce4bhs92rcd13ifvqi0g","pricing_plan_id":"free"},{"bike_id":"efcf4a18-406e-4422-b55f-8365cff7eb6e","system_id":"levelo_inurba_marseille","lat":43.3163,"lon":5.38943,"is_reserved":false,"is_disabled":false,"rental_uris":{"android":"levelo://app?vid=efcf4a18-406e-4422-b55f-8365cff7eb6e","ios":"levelo://app?vid=efcf4a18-406e-4422-b55f-8365cff7eb6e"},"vehicle_type_id":"4","last_reported":1682283919,"current_range_meters":16000,"station_id":"","pricing_plan_id":"free"},{"bike_id":"fd9b51db-08ab-4b93-8f67-740a49a1faec","system_id":"levelo_inurba_marseille","lat":43.296921,"lon":5.376579,"is_reserved":false,"is_disabled":false,"rental_uris":{"android":"levelo://app?vid=fd9b51db-08ab-4b93-8f67-740a49a1faec","ios":"levelo://app?vid=fd9b51db-08ab-4b93-8f67-740a49a1faec"},"vehicle_type_id":"4","last_reported":1682283919,"current_range_meters":1200,"station_id":"ce4bgkh2rcd13ifvqbl0","pricing_plan_id":"free"},{"bike_id":"cdae7444-85cb-4bfd-ae5a-fe500ab4453d","system_id":"levelo_inurba_marseille","lat":43.296935,"lon":5.376544,"is_reserved":false,"is_disabled":false,"rental_uris":{"android":"levelo://app?vid=cdae7444-85cb-4bfd-ae5a-fe500ab4453d","ios":"levelo://app?vid=cdae7444-85cb-4bfd-ae5a-fe500ab4453d"},"vehicle_type_id":"4","last_reported":1682283919,"current_range_meters":6000,"station_id":"ce4bgkh2rcd13ifvqbl0","pricing_plan_id":"free"},{"bike_id":"64443f19-0f0a-483c-8dae-21a3d83a8915","system_id":"levelo_inurba_marseille","lat":43.309589,"lon":5.390258,"is_reserved":false,"is_disabled":false,"rental_uris":{"android":"levelo://app?vid=64443f19-0f0a-483c-8dae-21a3d83a8915","ios":"levelo://app?vid=64443f19-0f0a-483c-8dae-21a3d83a8915"},"vehicle_type_id":"4","last_reported":1682283919,"current_range_meters":12400,"station_id":"ce4bgup2rcd13ifvqco0","pricing_plan_id":"free"},{"bike_id":"eac02701-a54b-4c2e-aa57-bd4f77fc588b","system_id":"levelo_inurba_marseille","lat":43.309589,"lon":5.390258,"is_reserved":false,"is_disabled":false,"rental_uris":{"android":"levelo://app?vid=eac02701-a54b-4c2e-aa57-bd4f77fc588b","ios":"levelo://app?vid=eac02701-a54b-4c2e-aa57-bd4f77fc588b"},"vehicle_type_id":"4","last_reported":1682283919,"current_range_meters":22400,"station_id":"ce4bgup2rcd13ifvqco0","pricing_plan_id":"free"},{"bike_id":"c6a2fb78-241b-41eb-bff5-3dc5a3c4e6f1","system_id":"levelo_inurba_marseille","lat":43.317557,"lon":5.390173,"is_reserved":false,"is_disabled":false,"rental_uris":{"android":"levelo://app?vid=c6a2fb78-241b-41eb-bff5-3dc5a3c4e6f1","ios":"levelo://app?vid=c6a2fb78-241b-41eb-bff5-3dc5a3c4e6f1"},"vehicle_type_id":"4","last_reported":1682283919,"current_range_meters":0,"station_id":"ce4bhqp2rcd13ifvqhng","pricing_plan_id":"free"},{"bike_id":"5c684f95-c920-4f69-b722-3b1673483d85","system_id":"levelo_inurba_marseille","lat":43.317557,"lon":5.390173,"is_reserved":false,"is_disabled":false,"rental_uris":{"android":"levelo://app?vid=5c684f95-c920-4f69-b722-3b1673483d85","ios":"levelo://app?vid=5c684f95-c920-4f69-b722-3b1673483d85"},"vehicle_type_id":"4","last_reported":1682283919,"current_range_meters":24400,"station_id":"ce4bhqp2rcd13ifvqhng","pricing_plan_id":"free"},{"bike_id":"20011f61-5b6d-4f2c-b4cd-eacfe7113c5e","system_id":"levelo_inurba_marseille","lat":43.29811,"lon":5.38104,"is_reserved":false,"is_disabled":false,"rental_uris":{"android":"levelo://app?vid=20011f61-5b6d-4f2c-b4cd-eacfe7113c5e","ios":"levelo://app?vid=20011f61-5b6d-4f2c-b4cd-eacfe7113c5e"},"vehicle_type_id":"4","last_reported":1682283919,"current_range_meters":2000,"station_id":"ce4bgip2rcd13ifvqbb0","pricing_plan_id":"free"},{"bike_id":"897c6405-795b-429f-96a4-b33cd671e0b3","system_id":"levelo_inurba_marseille","lat":43.298037,"lon":5.381066,"is_reserved":false,"is_disabled":false,"rental_uris":{"android":"levelo://app?vid=897c6405-795b-429f-96a4-b33cd671e0b3","ios":"levelo://app?vid=897c6405-795b-429f-96a4-b33cd671e0b3"},"vehicle_type_id":"4","last_reported":1682283919,"current_range_meters":4400,"station_id":"ce4bgip2rcd13ifvqbb0","pricing_plan_id":"free"},{"bike_id":"1991c43c-7fa5-407c-bb65-777f2e23ab72","system_id":"levelo_inurba_marseille","lat":43.304278,"lon":5.388868,"is_reserved":false,"is_disabled":false,"rental_uris":{"android":"levelo://app?vid=1991c43c-7fa5-407c-bb65-777f2e23ab72","ios":"levelo://app?vid=1991c43c-7fa5-407c-bb65-777f2e23ab72"},"vehicle_type_id":"4","last_reported":1682283919,"current_range_meters":4800,"station_id":"ce4bgk12rcd13ifvqbi0","pricing_plan_id":"free"},{"bike_id":"b350f69a-c828-4e39-90c3-67d11c04ec48","system_id":"levelo_inurba_marseille","lat":43.296314,"lon":5.377107,"is_reserved":false,"is_disabled":false,"rental_uris":{"android":"levelo://app?vid=b350f69a-c828-4e39-90c3-67d11c04ec48","ios":"levelo://app?vid=b350f69a-c828-4e39-90c3-67d11c04ec48"},"vehicle_type_id":"4","last_reported":1682283919,"current_range_meters":4400,"station_id":"ce4bgi92rcd13ifvqb90","pricing_plan_id":"free"},{"bike_id":"b781f99a-d03b-4f88-9b2e-0b69847c979f","system_id":"levelo_inurba_marseille","lat":43.304278,"lon":5.388868,"is_reserved":false,"is_disabled":false,"rental_uris":{"android":"levelo://app?vid=b781f99a-d03b-4f88-9b2e-0b69847c979f","ios":"levelo://app?vid=b781f99a-d03b-4f88-9b2e-0b69847c979f"},"vehicle_type_id":"4","last_reported":1682283919,"current_range_meters":11600,"station_id":"ce4bgk12rcd13ifvqbi0","pricing_plan_id":"free"},{"bike_id":"c3368182-b6bf-4d5a-8955-c5ae159bf20c","system_id":"levelo_inurba_marseille","lat":43.30438,"lon":5.38889,"is_reserved":false,"is_disabled":false,"rental_uris":{"android":"levelo://app?vid=c3368182-b6bf-4d5a-8955-c5ae159bf20c","ios":"levelo://app?vid=c3368182-b6bf-4d5a-8955-c5ae159bf20c"},"vehicle_type_id":"4","last_reported":1682283919,"current_range_meters":22800,"station_id":"ce4bgk12rcd13ifvqbi0","pricing_plan_id":"free"},{"bike_id":"6b02d072-6200-4387-be33-11ed0508fde4","system_id":"levelo_inurba_marseille","lat":43.304278,"lon":5.388868,"is_reserved":false,"is_disabled":false,"rental_uris":{"android":"levelo://app?vid=6b02d072-6200-4387-be33-11ed0508fde4","ios":"levelo://app?vid=6b02d072-6200-4387-be33-11ed0508fde4"},"vehicle_type_id":"4","last_reported":1682283919,"current_range_meters":5600,"station_id":"ce4bgk12rcd13ifvqbi0","pricing_plan_id":"free"},{"bike_id":"28923b5b-d10b-473c-ad7f-5020c3238877","system_id":"levelo_inurba_marseille","lat":43.304278,"lon":5.388868,"is_reserved":false,"is_disabled":false,"rental_uris":{"android":"levelo://app?vid=28923b5b-d10b-473c-ad7f-5020c3238877","ios":"levelo://app?vid=28923b5b-d10b-473c-ad7f-5020c3238877"},"vehicle_type_id":"4","last_reported":1682283919,"current_range_meters":0,"station_id":"ce4bgk12rcd13ifvqbi0","pricing_plan_id":"free"},{"bike_id":"6a6a64da-c1b7-4937-a348-099dfd4e5d41","system_id":"levelo_inurba_marseille","lat":43.304278,"lon":5.388868,"is_reserved":false,"is_disabled":false,"rental_uris":{"android":"levelo://app?vid=6a6a64da-c1b7-4937-a348-099dfd4e5d41","ios":"levelo://app?vid=6a6a64da-c1b7-4937-a348-099dfd4e5d41"},"vehicle_type_id":"4","last_reported":1682283919,"current_range_meters":0,"station_id":"ce4bgk12rcd13ifvqbi0","pricing_plan_id":"free"},{"bike_id":"43f3dc22-125a-4198-93c6-2078241fc7aa","system_id":"levelo_inurba_marseille","lat":43.299707,"lon":5.384859,"is_reserved":false,"is_disabled":false,"rental_uris":{"android":"levelo://app?vid=43f3dc22-125a-4198-93c6-2078241fc7aa","ios":"levelo://app?vid=43f3dc22-125a-4198-93c6-2078241fc7aa"},"vehicle_type_id":"4","last_reported":1682283919,"current_range_meters":19200,"station_id":"ce4bgj92rcd13ifvqbd0","pricing_plan_id":"free"},{"bike_id":"ad2acf21-733a-47d9-bf0a-62b6b78946a1","system_id":"levelo_inurba_marseille","lat":43.299717,"lon":5.384845,"is_reserved":false,"is_disabled":false,"rental_uris":{"android":"levelo://app?vid=ad2acf21-733a-47d9-bf0a-62b6b78946a1","ios":"levelo://app?vid=ad2acf21-733a-47d9-bf0a-62b6b78946a1"},"vehicle_type_id":"4","last_reported":1682283919,"current_range_meters":21200,"station_id":"ce4bgj92rcd13ifvqbd0","pricing_plan_id":"free"},{"bike_id":"f19abb91-9bf0-4bd8-aac7-c9bd5cef33ca","system_id":"levelo_inurba_marseille","lat":43.299717,"lon":5.384845,"is_reserved":false,"is_disabled":false,"rental_uris":{"android":"levelo://app?vid=f19abb91-9bf0-4bd8-aac7-c9bd5cef33ca","ios":"levelo://app?vid=f19abb91-9bf0-4bd8-aac7-c9bd5cef33ca"},"vehicle_type_id":"4","last_reported":1682283919,"current_range_meters":17600,"station_id":"ce4bgj92rcd13ifvqbd0","pricing_plan_id":"free"},{"bike_id":"ed14366b-d71f-45bf-8350-1d4a0f2f9986","system_id":"levelo_inurba_marseille","lat":43.299717,"lon":5.384845,"is_reserved":false,"is_disabled":false,"rental_uris":{"android":"levelo://app?vid=ed14366b-d71f-45bf-8350-1d4a0f2f9986","ios":"levelo://app?vid=ed14366b-d71f-45bf-8350-1d4a0f2f9986"},"vehicle_type_id":"4","last_reported":1682283919,"current_range_meters":6800,"station_id":"ce4bgj92rcd13ifvqbd0","pricing_plan_id":"free"},{"bike_id":"3fffbb19-1b52-46a7-8929-3ebdabec96a3","system_id":"levelo_inurba_marseille","lat":43.29602,"lon":5.381084,"is_reserved":false,"is_disabled":false,"rental_uris":{"android":"levelo://app?vid=3fffbb19-1b52-46a7-8929-3ebdabec96a3","ios":"levelo://app?vid=3fffbb19-1b52-46a7-8929-3ebdabec96a3"},"vehicle_type_id":"4","last_reported":1682283919,"current_range_meters":16400,"station_id":"ce4bgl12rcd13ifvqbo0","pricing_plan_id":"free"},{"bike_id":"1e92d7a7-1a5b-4a49-b86e-aeec39f28518","system_id":"levelo_inurba_marseille","lat":43.29313,"lon":5.37186,"is_reserved":false,"is_disabled":false,"rental_uris":{"android":"levelo://app?vid=1e92d7a7-1a5b-4a49-b86e-aeec39f28518","ios":"levelo://app?vid=1e92d7a7-1a5b-4a49-b86e-aeec39f28518"},"vehicle_type_id":"4","last_reported":1682283919,"current_range_meters":0,"station_id":"ce4bgh92rcd13ifvqb40","pricing_plan_id":"free"},{"bike_id":"fabcee06-d675-4b94-8574-e120603735ce","system_id":"levelo_inurba_marseille","lat":43.29311,"lon":5.37186,"is_reserved":false,"is_disabled":false,"rental_uris":{"android":"levelo://app?vid=fabcee06-d675-4b94-8574-e120603735ce","ios":"levelo://app?vid=fabcee06-d675-4b94-8574-e120603735ce"},"vehicle_type_id":"4","last_reported":1682283919,"current_range_meters":21200,"station_id":"","pricing_plan_id":"free"},{"bike_id":"890f0233-1639-4c5b-8591-967a0e66d1ee","system_id":"levelo_inurba_marseille","lat":43.2931,"lon":5.37188,"is_reserved":false,"is_disabled":false,"rental_uris":{"android":"levelo://app?vid=890f0233-1639-4c5b-8591-967a0e66d1ee","ios":"levelo://app?vid=890f0233-1639-4c5b-8591-967a0e66d1ee"},"vehicle_type_id":"4","last_reported":1682283919,"current_range_meters":0,"station_id":"","pricing_plan_id":"free"},{"bike_id":"85eef6c4-0060-4d91-984c-3b7566d927d7","system_id":"levelo_inurba_marseille","lat":43.29307,"lon":5.37186,"is_reserved":false,"is_disabled":false,"rental_uris":{"android":"levelo://app?vid=85eef6c4-0060-4d91-984c-3b7566d927d7","ios":"levelo://app?vid=85eef6c4-0060-4d91-984c-3b7566d927d7"},"vehicle_type_id":"4","last_reported":1682283919,"current_range_meters":12000,"station_id":"","pricing_plan_id":"free"},{"bike_id":"aad96ca6-62de-4850-bc15-9a14e1cff191","system_id":"levelo_inurba_marseille","lat":43.29304,"lon":5.37184,"is_reserved":false,"is_disabled":false,"rental_uris":{"android":"levelo://app?vid=aad96ca6-62de-4850-bc15-9a14e1cff191","ios":"levelo://app?vid=aad96ca6-62de-4850-bc15-9a14e1cff191"},"vehicle_type_id":"4","last_reported":1682283919,"current_range_meters":27200,"station_id":"","pricing_plan_id":"free"},{"bike_id":"c41febb3-faa5-466a-bcf3-9f70b30445a6","system_id":"levelo_inurba_marseille","lat":43.29309,"lon":5.37464,"is_reserved":false,"is_disabled":false,"rental_uris":{"android":"levelo://app?vid=c41febb3-faa5-466a-bcf3-9f70b30445a6","ios":"levelo://app?vid=c41febb3-faa5-466a-bcf3-9f70b30445a6"},"vehicle_type_id":"4","last_reported":1682283919,"current_range_meters":0,"station_id":"ce4bgi12rcd13ifvqb70","pricing_plan_id":"free"},{"bike_id":"004b10ed-f6bf-468a-be68-cb6b703cc313","system_id":"levelo_inurba_marseille","lat":43.305994,"lon":5.393687,"is_reserved":false,"is_disabled":false,"rental_uris":{"android":"levelo://app?vid=004b10ed-f6bf-468a-be68-cb6b703cc313","ios":"levelo://app?vid=004b10ed-f6bf-468a-be68-cb6b703cc313"},"vehicle_type_id":"4","last_reported":1682283919,"current_range_meters":7600,"station_id":"ce4bh0p2rcd13ifvqd80","pricing_plan_id":"free"},{"bike_id":"3683045e-eb4e-4bfd-8b57-6130afc4be74","system_id":"levelo_inurba_marseille","lat":43.305994,"lon":5.393687,"is_reserved":false,"is_disabled":false,"rental_uris":{"android":"levelo://app?vid=3683045e-eb4e-4bfd-8b57-6130afc4be74","ios":"levelo://app?vid=3683045e-eb4e-4bfd-8b57-6130afc4be74"},"vehicle_type_id":"4","last_reported":1682283919,"current_range_meters":31200,"station_id":"ce4bh0p2rcd13ifvqd80","pricing_plan_id":"free"},{"bike_id":"500c836e-5a76-45c1-bd1e-765ff97e4296","system_id":"levelo_inurba_marseille","lat":43.305994,"lon":5.393687,"is_reserved":false,"is_disabled":false,"rental_uris":{"android":"levelo://app?vid=500c836e-5a76-45c1-bd1e-765ff97e4296","ios":"levelo://app?vid=500c836e-5a76-45c1-bd1e-765ff97e4296"},"vehicle_type_id":"4","last_reported":1682283919,"current_range_meters":19600,"station_id":"ce4bh0p2rcd13ifvqd80","pricing_plan_id":"free"},{"bike_id":"757eee25-14a6-471b-aa76-a540a5d2ffea","system_id":"levelo_inurba_marseille","lat":43.324981,"lon":5.38965,"is_reserved":false,"is_disabled":false,"rental_uris":{"android":"levelo://app?vid=757eee25-14a6-471b-aa76-a540a5d2ffea","ios":"levelo://app?vid=757eee25-14a6-471b-aa76-a540a5d2ffea"},"vehicle_type_id":"4","last_reported":1682283919,"current_range_meters":2400,"station_id":"","pricing_plan_id":"free"},{"bike_id":"cebc8740-b12a-4e8e-86c4-afecff2f72c1","system_id":"levelo_inurba_marseille","lat":43.293463,"lon":5.377389,"is_reserved":false,"is_disabled":false,"rental_uris":{"android":"levelo://app?vid=cebc8740-b12a-4e8e-86c4-afecff2f72c1","ios":"levelo://app?vid=cebc8740-b12a-4e8e-86c4-afecff2f72c1"},"vehicle_type_id":"4","last_reported":1682283919,"current_range_meters":3600,"station_id":"ce4bhq12rcd13ifvqhhg","pricing_plan_id":"free"},{"bike_id":"4812d41e-219e-4a34-82a6-77b084372f1f","system_id":"levelo_inurba_marseille","lat":43.292549,"lon":5.360322,"is_reserved":false,"is_disabled":false,"rental_uris":{"android":"levelo://app?vid=4812d41e-219e-4a34-82a6-77b084372f1f","ios":"levelo://app?vid=4812d41e-219e-4a34-82a6-77b084372f1f"},"vehicle_type_id":"4","last_reported":1682283919,"current_range_meters":31200,"station_id":"ce4bhbh2rcd13ifvqeqg","pricing_plan_id":"free"},{"bike_id":"f8660f54-8a3f-487f-a03a-9a6e7fa02fdf","system_id":"levelo_inurba_marseille","lat":43.302992,"lon":5.392136,"is_reserved":false,"is_disabled":false,"rental_uris":{"android":"levelo://app?vid=f8660f54-8a3f-487f-a03a-9a6e7fa02fdf","ios":"levelo://app?vid=f8660f54-8a3f-487f-a03a-9a6e7fa02fdf"},"vehicle_type_id":"4","last_reported":1682283919,"current_range_meters":10000,"station_id":"ce4bgkh2rcd13ifvqbk0","pricing_plan_id":"free"},{"bike_id":"ca2688f6-7857-42b2-8ea6-ca1ce4766020","system_id":"levelo_inurba_marseille","lat":43.309038,"lon":5.396546,"is_reserved":false,"is_disabled":false,"rental_uris":{"android":"levelo://app?vid=ca2688f6-7857-42b2-8ea6-ca1ce4766020","ios":"levelo://app?vid=ca2688f6-7857-42b2-8ea6-ca1ce4766020"},"vehicle_type_id":"4","last_reported":1682283919,"current_range_meters":16800,"station_id":"ce4bh012rcd13ifvqcv0","pricing_plan_id":"free"},{"bike_id":"a79e249a-2415-44f3-a66e-00042803f06a","system_id":"levelo_inurba_marseille","lat":43.300852,"lon":5.390859,"is_reserved":false,"is_disabled":false,"rental_uris":{"android":"levelo://app?vid=a79e249a-2415-44f3-a66e-00042803f06a","ios":"levelo://app?vid=a79e249a-2415-44f3-a66e-00042803f06a"},"vehicle_type_id":"4","last_reported":1682283919,"current_range_meters":29600,"station_id":"ce4bh192rcd13ifvqdb0","pricing_plan_id":"free"},{"bike_id":"57d49816-bec1-48da-8896-bec94d5b0816","system_id":"levelo_inurba_marseille","lat":43.30103,"lon":5.39071,"is_reserved":false,"is_disabled":false,"rental_uris":{"android":"levelo://app?vid=57d49816-bec1-48da-8896-bec94d5b0816","ios":"levelo://app?vid=57d49816-bec1-48da-8896-bec94d5b0816"},"vehicle_type_id":"4","last_reported":1682283919,"current_range_meters":14000,"station_id":"ce4bh192rcd13ifvqdb0","pricing_plan_id":"free"},{"bike_id":"0076650f-549a-4188-9e30-793f28aa77e7","system_id":"levelo_inurba_marseille","lat":43.292311,"lon":5.360731,"is_reserved":false,"is_disabled":false,"rental_uris":{"android":"levelo://app?vid=0076650f-549a-4188-9e30-793f28aa77e7","ios":"levelo://app?vid=0076650f-549a-4188-9e30-793f28aa77e7"},"vehicle_type_id":"4","last_reported":1682283919,"current_range_meters":2800,"station_id":"ce4bhbh2rcd13ifvqeqg","pricing_plan_id":"free"},{"bike_id":"a3b7ab10-47fc-4362-aa4b-cb53697b777e","system_id":"levelo_inurba_marseille","lat":43.30085,"lon":5.390856,"is_reserved":false,"is_disabled":false,"rental_uris":{"android":"levelo://app?vid=a3b7ab10-47fc-4362-aa4b-cb53697b777e","ios":"levelo://app?vid=a3b7ab10-47fc-4362-aa4b-cb53697b777e"},"vehicle_type_id":"4","last_reported":1682283919,"current_range_meters":27200,"station_id":"ce4bh192rcd13ifvqdb0","pricing_plan_id":"free"},{"bike_id":"8bca91f3-6bca-4810-bb85-9005913cbb11","system_id":"levelo_inurba_marseille","lat":43.30095,"lon":5.3908,"is_reserved":false,"is_disabled":false,"rental_uris":{"android":"levelo://app?vid=8bca91f3-6bca-4810-bb85-9005913cbb11","ios":"levelo://app?vid=8bca91f3-6bca-4810-bb85-9005913cbb11"},"vehicle_type_id":"4","last_reported":1682283919,"current_range_meters":10400,"station_id":"ce4bh192rcd13ifvqdb0","pricing_plan_id":"free"},{"bike_id":"85c59842-f199-4dff-a3e8-b403f8211ab6","system_id":"levelo_inurba_marseille","lat":43.30089,"lon":5.39076,"is_reserved":false,"is_disabled":false,"rental_uris":{"android":"levelo://app?vid=85c59842-f199-4dff-a3e8-b403f8211ab6","ios":"levelo://app?vid=85c59842-f199-4dff-a3e8-b403f8211ab6"},"vehicle_type_id":"4","last_reported":1682283919,"current_range_meters":1600,"station_id":"ce4bh192rcd13ifvqdb0","pricing_plan_id":"free"},{"bike_id":"240589e4-bd7f-4413-ac32-276afa5dc7a2","system_id":"levelo_inurba_marseille","lat":43.30092,"lon":5.39079,"is_reserved":false,"is_disabled":false,"rental_uris":{"android":"levelo://app?vid=240589e4-bd7f-4413-ac32-276afa5dc7a2","ios":"levelo://app?vid=240589e4-bd7f-4413-ac32-276afa5dc7a2"},"vehicle_type_id":"4","last_reported":1682283919,"current_range_meters":0,"station_id":"ce4bh192rcd13ifvqdb0","pricing_plan_id":"free"},{"bike_id":"697e4832-08aa-4699-93b6-c775e78d23e0","system_id":"levelo_inurba_marseille","lat":43.295748,"lon":5.37522,"is_reserved":false,"is_disabled":false,"rental_uris":{"android":"levelo://app?vid=697e4832-08aa-4699-93b6-c775e78d23e0","ios":"levelo://app?vid=697e4832-08aa-4699-93b6-c775e78d23e0"},"vehicle_type_id":"4","last_reported":1682283919,"current_range_meters":0,"station_id":"ce4bgh92rcd13ifvqb50","pricing_plan_id":"free"},{"bike_id":"23b87a6c-fa70-4ac6-af41-a42501c3e0ef","system_id":"levelo_inurba_marseille","lat":43.298764,"lon":5.388973,"is_reserved":false,"is_disabled":false,"rental_uris":{"android":"levelo://app?vid=23b87a6c-fa70-4ac6-af41-a42501c3e0ef","ios":"levelo://app?vid=23b87a6c-fa70-4ac6-af41-a42501c3e0ef"},"vehicle_type_id":"4","last_reported":1682283919,"current_range_meters":8000,"station_id":"ce4bh392rcd13ifvqdl0","pricing_plan_id":"free"},{"bike_id":"5e66a441-a4fd-4ef9-b3d0-dd237fb99477","system_id":"levelo_inurba_marseille","lat":43.298764,"lon":5.388973,"is_reserved":false,"is_disabled":false,"rental_uris":{"android":"levelo://app?vid=5e66a441-a4fd-4ef9-b3d0-dd237fb99477","ios":"levelo://app?vid=5e66a441-a4fd-4ef9-b3d0-dd237fb99477"},"vehicle_type_id":"4","last_reported":1682283919,"current_range_meters":8400,"station_id":"ce4bh392rcd13ifvqdl0","pricing_plan_id":"free"},{"bike_id":"f948e3e1-0e60-4a8d-9f64-1d82b0d4c1ac","system_id":"levelo_inurba_marseille","lat":43.29879,"lon":5.38909,"is_reserved":false,"is_disabled":false,"rental_uris":{"android":"levelo://app?vid=f948e3e1-0e60-4a8d-9f64-1d82b0d4c1ac","ios":"levelo://app?vid=f948e3e1-0e60-4a8d-9f64-1d82b0d4c1ac"},"vehicle_type_id":"4","last_reported":1682283919,"current_range_meters":0,"station_id":"ce4bh392rcd13ifvqdl0","pricing_plan_id":"free"},{"bike_id":"f6dd1461-540f-4206-b968-03040708c087","system_id":"levelo_inurba_marseille","lat":43.313291,"lon":5.396838,"is_reserved":false,"is_disabled":false,"rental_uris":{"android":"levelo://app?vid=f6dd1461-540f-4206-b968-03040708c087","ios":"levelo://app?vid=f6dd1461-540f-4206-b968-03040708c087"},"vehicle_type_id":"4","last_reported":1682283919,"current_range_meters":0,"station_id":"ce4bgvp2rcd13ifvqcu0","pricing_plan_id":"free"},{"bike_id":"42279b60-caac-46a4-b2c6-b356057fc443","system_id":"levelo_inurba_marseille","lat":43.309038,"lon":5.396546,"is_reserved":false,"is_disabled":false,"rental_uris":{"android":"levelo://app?vid=42279b60-caac-46a4-b2c6-b356057fc443","ios":"levelo://app?vid=42279b60-caac-46a4-b2c6-b356057fc443"},"vehicle_type_id":"4","last_reported":1682283919,"current_range_meters":8800,"station_id":"ce4bh012rcd13ifvqcv0","pricing_plan_id":"free"},{"bike_id":"4d8679e3-b318-4378-be0b-229cc11524a1","system_id":"levelo_inurba_marseille","lat":43.309038,"lon":5.396546,"is_reserved":false,"is_disabled":false,"rental_uris":{"android":"levelo://app?vid=4d8679e3-b318-4378-be0b-229cc11524a1","ios":"levelo://app?vid=4d8679e3-b318-4378-be0b-229cc11524a1"},"vehicle_type_id":"4","last_reported":1682283919,"current_range_meters":17600,"station_id":"ce4bh012rcd13ifvqcv0","pricing_plan_id":"free"},{"bike_id":"58c67dbc-6f1b-49f3-8ec8-742a7f675401","system_id":"levelo_inurba_marseille","lat":43.29529,"lon":5.385581,"is_reserved":false,"is_disabled":false,"rental_uris":{"android":"levelo://app?vid=58c67dbc-6f1b-49f3-8ec8-742a7f675401","ios":"levelo://app?vid=58c67dbc-6f1b-49f3-8ec8-742a7f675401"},"vehicle_type_id":"4","last_reported":1682283919,"current_range_meters":20400,"station_id":"ce4bgih2rcd13ifvqba0","pricing_plan_id":"free"},{"bike_id":"7c170fd9-8484-408e-8300-bf007079e0c9","system_id":"levelo_inurba_marseille","lat":43.29529,"lon":5.385581,"is_reserved":false,"is_disabled":false,"rental_uris":{"android":"levelo://app?vid=7c170fd9-8484-408e-8300-bf007079e0c9","ios":"levelo://app?vid=7c170fd9-8484-408e-8300-bf007079e0c9"},"vehicle_type_id":"4","last_reported":1682283919,"current_range_meters":22000,"station_id":"ce4bgih2rcd13ifvqba0","pricing_plan_id":"free"},{"bike_id":"044aadf0-55b0-4b6b-8d31-a869298add4d","system_id":"levelo_inurba_marseille","lat":43.29529,"lon":5.385581,"is_reserved":false,"is_disabled":false,"rental_uris":{"android":"levelo://app?vid=044aadf0-55b0-4b6b-8d31-a869298add4d","ios":"levelo://app?vid=044aadf0-55b0-4b6b-8d31-a869298add4d"},"vehicle_type_id":"4","last_reported":1682283919,"current_range_meters":11200,"station_id":"ce4bgih2rcd13ifvqba0","pricing_plan_id":"free"},{"bike_id":"51fe7682-7672-45a6-87b6-3942ef2b8c94","system_id":"levelo_inurba_marseille","lat":43.29529,"lon":5.385581,"is_reserved":false,"is_disabled":false,"rental_uris":{"android":"levelo://app?vid=51fe7682-7672-45a6-87b6-3942ef2b8c94","ios":"levelo://app?vid=51fe7682-7672-45a6-87b6-3942ef2b8c94"},"vehicle_type_id":"4","last_reported":1682283919,"current_range_meters":29600,"station_id":"ce4bgih2rcd13ifvqba0","pricing_plan_id":"free"},{"bike_id":"61536023-80bc-40f4-85ce-62d7d921db09","system_id":"levelo_inurba_marseille","lat":43.29529,"lon":5.385581,"is_reserved":false,"is_disabled":false,"rental_uris":{"android":"levelo://app?vid=61536023-80bc-40f4-85ce-62d7d921db09","ios":"levelo://app?vid=61536023-80bc-40f4-85ce-62d7d921db09"},"vehicle_type_id":"4","last_reported":1682283919,"current_range_meters":10400,"station_id":"ce4bgih2rcd13ifvqba0","pricing_plan_id":"free"},{"bike_id":"cd42e4b4-5d5f-4be6-a469-0f9a38d98de8","system_id":"levelo_inurba_marseille","lat":43.29529,"lon":5.385581,"is_reserved":false,"is_disabled":false,"rental_uris":{"android":"levelo://app?vid=cd42e4b4-5d5f-4be6-a469-0f9a38d98de8","ios":"levelo://app?vid=cd42e4b4-5d5f-4be6-a469-0f9a38d98de8"},"vehicle_type_id":"4","last_reported":1682283919,"current_range_meters":20400,"station_id":"ce4bgih2rcd13ifvqba0","pricing_plan_id":"free"},{"bike_id":"e0d9540c-2c4e-4d1e-b587-f6f3030bff3d","system_id":"levelo_inurba_marseille","lat":43.302008,"lon":5.394694,"is_reserved":false,"is_disabled":false,"rental_uris":{"android":"levelo://app?vid=e0d9540c-2c4e-4d1e-b587-f6f3030bff3d","ios":"levelo://app?vid=e0d9540c-2c4e-4d1e-b587-f6f3030bff3d"},"vehicle_type_id":"4","last_reported":1682283919,"current_range_meters":12800,"station_id":"ce4bh0p2rcd13ifvqd70","pricing_plan_id":"free"},{"bike_id":"c55f8edc-d011-41f6-826a-f77050d8d2c4","system_id":"levelo_inurba_marseille","lat":43.302008,"lon":5.394694,"is_reserved":false,"is_disabled":false,"rental_uris":{"android":"levelo://app?vid=c55f8edc-d011-41f6-826a-f77050d8d2c4","ios":"levelo://app?vid=c55f8edc-d011-41f6-826a-f77050d8d2c4"},"vehicle_type_id":"4","last_reported":1682283919,"current_range_meters":22000,"station_id":"ce4bh0p2rcd13ifvqd70","pricing_plan_id":"free"},{"bike_id":"38eb610b-fcba-44e3-8352-6f069f3a57bb","system_id":"levelo_inurba_marseille","lat":43.302008,"lon":5.394694,"is_reserved":false,"is_disabled":false,"rental_uris":{"android":"levelo://app?vid=38eb610b-fcba-44e3-8352-6f069f3a57bb","ios":"levelo://app?vid=38eb610b-fcba-44e3-8352-6f069f3a57bb"},"vehicle_type_id":"4","last_reported":1682283919,"current_range_meters":31600,"station_id":"ce4bh0p2rcd13ifvqd70","pricing_plan_id":"free"},{"bike_id":"46e2ca5a-1e52-415e-9ed3-a8fa408b5635","system_id":"levelo_inurba_marseille","lat":43.302008,"lon":5.394694,"is_reserved":false,"is_disabled":false,"rental_uris":{"android":"levelo://app?vid=46e2ca5a-1e52-415e-9ed3-a8fa408b5635","ios":"levelo://app?vid=46e2ca5a-1e52-415e-9ed3-a8fa408b5635"},"vehicle_type_id":"4","last_reported":1682283919,"current_range_meters":32000,"station_id":"ce4bh0p2rcd13ifvqd70","pricing_plan_id":"free"},{"bike_id":"a7db4585-222f-4f8d-894f-20e1894daa67","system_id":"levelo_inurba_marseille","lat":43.302008,"lon":5.394694,"is_reserved":false,"is_disabled":false,"rental_uris":{"android":"levelo://app?vid=a7db4585-222f-4f8d-894f-20e1894daa67","ios":"levelo://app?vid=a7db4585-222f-4f8d-894f-20e1894daa67"},"vehicle_type_id":"4","last_reported":1682283919,"current_range_meters":12800,"station_id":"ce4bh0p2rcd13ifvqd70","pricing_plan_id":"free"},{"bike_id":"80d29fd4-0d5c-490c-b9c6-428c7c1ca327","system_id":"levelo_inurba_marseille","lat":43.302008,"lon":5.394694,"is_reserved":false,"is_disabled":false,"rental_uris":{"android":"levelo://app?vid=80d29fd4-0d5c-490c-b9c6-428c7c1ca327","ios":"levelo://app?vid=80d29fd4-0d5c-490c-b9c6-428c7c1ca327"},"vehicle_type_id":"4","last_reported":1682283919,"current_range_meters":26800,"station_id":"ce4bh0p2rcd13ifvqd70","pricing_plan_id":"free"},{"bike_id":"5e11a09a-0b6c-4c39-b317-569df477c162","system_id":"levelo_inurba_marseille","lat":43.290624,"lon":5.359245,"is_reserved":false,"is_disabled":false,"rental_uris":{"android":"levelo://app?vid=5e11a09a-0b6c-4c39-b317-569df477c162","ios":"levelo://app?vid=5e11a09a-0b6c-4c39-b317-569df477c162"},"vehicle_type_id":"4","last_reported":1682283919,"current_range_meters":0,"station_id":"ce4bha92rcd13ifvqeg0","pricing_plan_id":"free"},{"bike_id":"9bc328c3-60b6-44d5-8333-abbcf22f5351","system_id":"levelo_inurba_marseille","lat":43.32957,"lon":5.38838,"is_reserved":false,"is_disabled":false,"rental_uris":{"android":"levelo://app?vid=9bc328c3-60b6-44d5-8333-abbcf22f5351","ios":"levelo://app?vid=9bc328c3-60b6-44d5-8333-abbcf22f5351"},"vehicle_type_id":"4","last_reported":1682283919,"current_range_meters":12000,"station_id":"","pricing_plan_id":"free"},{"bike_id":"502e5087-dbed-4437-85af-cd522d5696a7","system_id":"levelo_inurba_marseille","lat":43.29423,"lon":5.38619,"is_reserved":false,"is_disabled":false,"rental_uris":{"android":"levelo://app?vid=502e5087-dbed-4437-85af-cd522d5696a7","ios":"levelo://app?vid=502e5087-dbed-4437-85af-cd522d5696a7"},"vehicle_type_id":"4","last_reported":1682283919,"current_range_meters":13600,"station_id":"ce4bh2h2rcd13ifvqdh0","pricing_plan_id":"free"},{"bike_id":"f71a4adf-af06-466a-a080-d077ecb87b2f","system_id":"levelo_inurba_marseille","lat":43.2942,"lon":5.3862,"is_reserved":false,"is_disabled":false,"rental_uris":{"android":"levelo://app?vid=f71a4adf-af06-466a-a080-d077ecb87b2f","ios":"levelo://app?vid=f71a4adf-af06-466a-a080-d077ecb87b2f"},"vehicle_type_id":"4","last_reported":1682283919,"current_range_meters":18400,"station_id":"ce4bh2h2rcd13ifvqdh0","pricing_plan_id":"free"},{"bike_id":"04ccdaa2-6563-4ab0-95c7-fae3b252f364","system_id":"levelo_inurba_marseille","lat":43.29421,"lon":5.38624,"is_reserved":false,"is_disabled":false,"rental_uris":{"android":"levelo://app?vid=04ccdaa2-6563-4ab0-95c7-fae3b252f364","ios":"levelo://app?vid=04ccdaa2-6563-4ab0-95c7-fae3b252f364"},"vehicle_type_id":"4","last_reported":1682283919,"current_range_meters":22000,"station_id":"ce4bh2h2rcd13ifvqdh0","pricing_plan_id":"free"},{"bike_id":"b4df9c9e-4ed0-4675-b576-60582ba43695","system_id":"levelo_inurba_marseille","lat":43.29419,"lon":5.38622,"is_reserved":false,"is_disabled":false,"rental_uris":{"android":"levelo://app?vid=b4df9c9e-4ed0-4675-b576-60582ba43695","ios":"levelo://app?vid=b4df9c9e-4ed0-4675-b576-60582ba43695"},"vehicle_type_id":"4","last_reported":1682283919,"current_range_meters":11600,"station_id":"ce4bh2h2rcd13ifvqdh0","pricing_plan_id":"free"},{"bike_id":"d07f9c95-67d5-4a14-b5a9-0d5f875563d0","system_id":"levelo_inurba_marseille","lat":43.294162,"lon":5.386292,"is_reserved":false,"is_disabled":false,"rental_uris":{"android":"levelo://app?vid=d07f9c95-67d5-4a14-b5a9-0d5f875563d0","ios":"levelo://app?vid=d07f9c95-67d5-4a14-b5a9-0d5f875563d0"},"vehicle_type_id":"4","last_reported":1682283919,"current_range_meters":31600,"station_id":"ce4bh2h2rcd13ifvqdh0","pricing_plan_id":"free"},{"bike_id":"155e821c-92b7-4094-9c23-f1b53da54da3","system_id":"levelo_inurba_marseille","lat":43.294153,"lon":5.386305,"is_reserved":false,"is_disabled":false,"rental_uris":{"android":"levelo://app?vid=155e821c-92b7-4094-9c23-f1b53da54da3","ios":"levelo://app?vid=155e821c-92b7-4094-9c23-f1b53da54da3"},"vehicle_type_id":"4","last_reported":1682283919,"current_range_meters":26400,"station_id":"ce4bh2h2rcd13ifvqdh0","pricing_plan_id":"free"},{"bike_id":"8e9d9b31-d800-4ece-85e7-b9df4c0556d1","system_id":"levelo_inurba_marseille","lat":43.29419,"lon":5.38623,"is_reserved":false,"is_disabled":false,"rental_uris":{"android":"levelo://app?vid=8e9d9b31-d800-4ece-85e7-b9df4c0556d1","ios":"levelo://app?vid=8e9d9b31-d800-4ece-85e7-b9df4c0556d1"},"vehicle_type_id":"4","last_reported":1682283919,"current_range_meters":18000,"station_id":"ce4bh2h2rcd13ifvqdh0","pricing_plan_id":"free"},{"bike_id":"a066237b-a995-4b27-a46a-e0d968445ce3","system_id":"levelo_inurba_marseille","lat":43.294162,"lon":5.386292,"is_reserved":false,"is_disabled":false,"rental_uris":{"android":"levelo://app?vid=a066237b-a995-4b27-a46a-e0d968445ce3","ios":"levelo://app?vid=a066237b-a995-4b27-a46a-e0d968445ce3"},"vehicle_type_id":"4","last_reported":1682283919,"current_range_meters":31600,"station_id":"ce4bh2h2rcd13ifvqdh0","pricing_plan_id":"free"},{"bike_id":"25cfc0e5-cd16-4e6c-ab54-d42dcb523e92","system_id":"levelo_inurba_marseille","lat":43.21416,"lon":5.34138,"is_reserved":false,"is_disabled":false,"rental_uris":{"android":"levelo://app?vid=25cfc0e5-cd16-4e6c-ab54-d42dcb523e92","ios":"levelo://app?vid=25cfc0e5-cd16-4e6c-ab54-d42dcb523e92"},"vehicle_type_id":"4","last_reported":1682283919,"current_range_meters":6400,"station_id":"","pricing_plan_id":"free"},{"bike_id":"48e93090-81d2-4ca8-b8b3-5deea56c7adb","system_id":"levelo_inurba_marseille","lat":43.294162,"lon":5.386292,"is_reserved":false,"is_disabled":false,"rental_uris":{"android":"levelo://app?vid=48e93090-81d2-4ca8-b8b3-5deea56c7adb","ios":"levelo://app?vid=48e93090-81d2-4ca8-b8b3-5deea56c7adb"},"vehicle_type_id":"4","last_reported":1682283919,"current_range_meters":18800,"station_id":"ce4bh2h2rcd13ifvqdh0","pricing_plan_id":"free"},{"bike_id":"45d02958-65b0-437c-9844-a3e1ab4eaf38","system_id":"levelo_inurba_marseille","lat":43.289184,"lon":5.366408,"is_reserved":false,"is_disabled":false,"rental_uris":{"android":"levelo://app?vid=45d02958-65b0-437c-9844-a3e1ab4eaf38","ios":"levelo://app?vid=45d02958-65b0-437c-9844-a3e1ab4eaf38"},"vehicle_type_id":"4","last_reported":1682283919,"current_range_meters":5200,"station_id":"ce4bhap2rcd13ifvqek0","pricing_plan_id":"free"},{"bike_id":"1723c59d-bf4c-4bd8-a403-ddffd2568d90","system_id":"levelo_inurba_marseille","lat":43.294162,"lon":5.386292,"is_reserved":false,"is_disabled":false,"rental_uris":{"android":"levelo://app?vid=1723c59d-bf4c-4bd8-a403-ddffd2568d90","ios":"levelo://app?vid=1723c59d-bf4c-4bd8-a403-ddffd2568d90"},"vehicle_type_id":"4","last_reported":1682283919,"current_range_meters":31600,"station_id":"ce4bh2h2rcd13ifvqdh0","pricing_plan_id":"free"},{"bike_id":"36e4004f-aafa-4fd8-b623-ed94f830d1f7","system_id":"levelo_inurba_marseille","lat":43.289184,"lon":5.366408,"is_reserved":false,"is_disabled":false,"rental_uris":{"android":"levelo://app?vid=36e4004f-aafa-4fd8-b623-ed94f830d1f7","ios":"levelo://app?vid=36e4004f-aafa-4fd8-b623-ed94f830d1f7"},"vehicle_type_id":"4","last_reported":1682283919,"current_range_meters":4000,"station_id":"ce4bhap2rcd13ifvqek0","pricing_plan_id":"free"},{"bike_id":"7a917409-f897-4647-b5fc-535a62db9d1b","system_id":"levelo_inurba_marseille","lat":43.294162,"lon":5.386292,"is_reserved":false,"is_disabled":false,"rental_uris":{"android":"levelo://app?vid=7a917409-f897-4647-b5fc-535a62db9d1b","ios":"levelo://app?vid=7a917409-f897-4647-b5fc-535a62db9d1b"},"vehicle_type_id":"4","last_reported":1682283919,"current_range_meters":31600,"station_id":"ce4bh2h2rcd13ifvqdh0","pricing_plan_id":"free"},{"bike_id":"28ef83f7-151e-4610-8ecf-28551586848a","system_id":"levelo_inurba_marseille","lat":43.294162,"lon":5.386292,"is_reserved":false,"is_disabled":false,"rental_uris":{"android":"levelo://app?vid=28ef83f7-151e-4610-8ecf-28551586848a","ios":"levelo://app?vid=28ef83f7-151e-4610-8ecf-28551586848a"},"vehicle_type_id":"4","last_reported":1682283919,"current_range_meters":31600,"station_id":"ce4bh2h2rcd13ifvqdh0","pricing_plan_id":"free"},{"bike_id":"b24c79fc-5502-44c3-b61f-ea4e6b295774","system_id":"levelo_inurba_marseille","lat":43.289184,"lon":5.366408,"is_reserved":false,"is_disabled":false,"rental_uris":{"android":"levelo://app?vid=b24c79fc-5502-44c3-b61f-ea4e6b295774","ios":"levelo://app?vid=b24c79fc-5502-44c3-b61f-ea4e6b295774"},"vehicle_type_id":"4","last_reported":1682283919,"current_range_meters":19200,"station_id":"ce4bhap2rcd13ifvqek0","pricing_plan_id":"free"},{"bike_id":"fab2563b-ce17-4fcb-8ef7-be232df6768c","system_id":"levelo_inurba_marseille","lat":43.289184,"lon":5.366408,"is_reserved":false,"is_disabled":false,"rental_uris":{"android":"levelo://app?vid=fab2563b-ce17-4fcb-8ef7-be232df6768c","ios":"levelo://app?vid=fab2563b-ce17-4fcb-8ef7-be232df6768c"},"vehicle_type_id":"4","last_reported":1682283919,"current_range_meters":3200,"station_id":"ce4bhap2rcd13ifvqek0","pricing_plan_id":"free"},{"bike_id":"7e16b1a4-1d91-4491-a7e3-f457707b5d1a","system_id":"levelo_inurba_marseille","lat":43.289184,"lon":5.366408,"is_reserved":false,"is_disabled":false,"rental_uris":{"android":"levelo://app?vid=7e16b1a4-1d91-4491-a7e3-f457707b5d1a","ios":"levelo://app?vid=7e16b1a4-1d91-4491-a7e3-f457707b5d1a"},"vehicle_type_id":"4","last_reported":1682283919,"current_range_meters":0,"station_id":"ce4bhap2rcd13ifvqek0","pricing_plan_id":"free"},{"bike_id":"ea04a0a7-55e0-4119-91f1-3c9fdb0848e6","system_id":"levelo_inurba_marseille","lat":43.289468,"lon":5.363719,"is_reserved":false,"is_disabled":false,"rental_uris":{"android":"levelo://app?vid=ea04a0a7-55e0-4119-91f1-3c9fdb0848e6","ios":"levelo://app?vid=ea04a0a7-55e0-4119-91f1-3c9fdb0848e6"},"vehicle_type_id":"4","last_reported":1682283919,"current_range_meters":31600,"station_id":"ce4bhc92rcd13ifvqetg","pricing_plan_id":"free"},{"bike_id":"34268010-8d75-45ae-a4bd-357ece86f25e","system_id":"levelo_inurba_marseille","lat":43.289184,"lon":5.366408,"is_reserved":false,"is_disabled":false,"rental_uris":{"android":"levelo://app?vid=34268010-8d75-45ae-a4bd-357ece86f25e","ios":"levelo://app?vid=34268010-8d75-45ae-a4bd-357ece86f25e"},"vehicle_type_id":"4","last_reported":1682283919,"current_range_meters":1600,"station_id":"ce4bhap2rcd13ifvqek0","pricing_plan_id":"free"},{"bike_id":"46a62c7d-9b8d-45a4-860c-db770f49da6a","system_id":"levelo_inurba_marseille","lat":43.289468,"lon":5.363719,"is_reserved":false,"is_disabled":false,"rental_uris":{"android":"levelo://app?vid=46a62c7d-9b8d-45a4-860c-db770f49da6a","ios":"levelo://app?vid=46a62c7d-9b8d-45a4-860c-db770f49da6a"},"vehicle_type_id":"4","last_reported":1682283919,"current_range_meters":800,"station_id":"ce4bhc92rcd13ifvqetg","pricing_plan_id":"free"},{"bike_id":"c7823989-573e-41dc-af45-1ca2afba79cd","system_id":"levelo_inurba_marseille","lat":43.289468,"lon":5.363719,"is_reserved":false,"is_disabled":false,"rental_uris":{"android":"levelo://app?vid=c7823989-573e-41dc-af45-1ca2afba79cd","ios":"levelo://app?vid=c7823989-573e-41dc-af45-1ca2afba79cd"},"vehicle_type_id":"4","last_reported":1682283919,"current_range_meters":8400,"station_id":"ce4bhc92rcd13ifvqetg","pricing_plan_id":"free"},{"bike_id":"1a8c285b-ef1f-42e8-9943-d7f693a688e2","system_id":"levelo_inurba_marseille","lat":43.289468,"lon":5.363719,"is_reserved":false,"is_disabled":false,"rental_uris":{"android":"levelo://app?vid=1a8c285b-ef1f-42e8-9943-d7f693a688e2","ios":"levelo://app?vid=1a8c285b-ef1f-42e8-9943-d7f693a688e2"},"vehicle_type_id":"4","last_reported":1682283919,"current_range_meters":26000,"station_id":"ce4bhc92rcd13ifvqetg","pricing_plan_id":"free"},{"bike_id":"143732c6-90df-435c-a15c-74d97b10ccd4","system_id":"levelo_inurba_marseille","lat":43.29279,"lon":5.38451,"is_reserved":false,"is_disabled":false,"rental_uris":{"android":"levelo://app?vid=143732c6-90df-435c-a15c-74d97b10ccd4","ios":"levelo://app?vid=143732c6-90df-435c-a15c-74d97b10ccd4"},"vehicle_type_id":"4","last_reported":1682283919,"current_range_meters":15200,"station_id":"ce4bh692rcd13ifvqea0","pricing_plan_id":"free"},{"bike_id":"efe049bb-3145-4c63-9ad6-c72168d53c44","system_id":"levelo_inurba_marseille","lat":43.29271,"lon":5.3845,"is_reserved":false,"is_disabled":false,"rental_uris":{"android":"levelo://app?vid=efe049bb-3145-4c63-9ad6-c72168d53c44","ios":"levelo://app?vid=efe049bb-3145-4c63-9ad6-c72168d53c44"},"vehicle_type_id":"4","last_reported":1682283919,"current_range_meters":12800,"station_id":"ce4bh692rcd13ifvqea0","pricing_plan_id":"free"},{"bike_id":"e16e10f0-a980-4bbd-a191-4f6e399bfc08","system_id":"levelo_inurba_marseille","lat":43.29273,"lon":5.38457,"is_reserved":false,"is_disabled":false,"rental_uris":{"android":"levelo://app?vid=e16e10f0-a980-4bbd-a191-4f6e399bfc08","ios":"levelo://app?vid=e16e10f0-a980-4bbd-a191-4f6e399bfc08"},"vehicle_type_id":"4","last_reported":1682283919,"current_range_meters":9600,"station_id":"ce4bh692rcd13ifvqea0","pricing_plan_id":"free"},{"bike_id":"1a409bdf-e372-4de5-bc60-a080206e191b","system_id":"levelo_inurba_marseille","lat":43.29264,"lon":5.38439,"is_reserved":false,"is_disabled":false,"rental_uris":{"android":"levelo://app?vid=1a409bdf-e372-4de5-bc60-a080206e191b","ios":"levelo://app?vid=1a409bdf-e372-4de5-bc60-a080206e191b"},"vehicle_type_id":"4","last_reported":1682283919,"current_range_meters":12000,"station_id":"ce4bh692rcd13ifvqea0","pricing_plan_id":"free"},{"bike_id":"00f5dd7b-2b12-454f-a869-8db155c0fe42","system_id":"levelo_inurba_marseille","lat":43.29269,"lon":5.38451,"is_reserved":false,"is_disabled":false,"rental_uris":{"android":"levelo://app?vid=00f5dd7b-2b12-454f-a869-8db155c0fe42","ios":"levelo://app?vid=00f5dd7b-2b12-454f-a869-8db155c0fe42"},"vehicle_type_id":"4","last_reported":1682283919,"current_range_meters":2800,"station_id":"ce4bh692rcd13ifvqea0","pricing_plan_id":"free"},{"bike_id":"f3070e1a-84d6-446b-a653-2f1ebf6e4400","system_id":"levelo_inurba_marseille","lat":43.29266,"lon":5.38452,"is_reserved":false,"is_disabled":false,"rental_uris":{"android":"levelo://app?vid=f3070e1a-84d6-446b-a653-2f1ebf6e4400","ios":"levelo://app?vid=f3070e1a-84d6-446b-a653-2f1ebf6e4400"},"vehicle_type_id":"4","last_reported":1682283919,"current_range_meters":7600,"station_id":"ce4bh692rcd13ifvqea0","pricing_plan_id":"free"},{"bike_id":"f9cad735-1b37-4bdb-b8a8-86b00e138e23","system_id":"levelo_inurba_marseille","lat":43.29264,"lon":5.38452,"is_reserved":false,"is_disabled":false,"rental_uris":{"android":"levelo://app?vid=f9cad735-1b37-4bdb-b8a8-86b00e138e23","ios":"levelo://app?vid=f9cad735-1b37-4bdb-b8a8-86b00e138e23"},"vehicle_type_id":"4","last_reported":1682283919,"current_range_meters":5200,"station_id":"ce4bh692rcd13ifvqea0","pricing_plan_id":"free"},{"bike_id":"7418e5cc-1c82-428c-bf46-da26b1708e88","system_id":"levelo_inurba_marseille","lat":43.29264,"lon":5.38452,"is_reserved":false,"is_disabled":false,"rental_uris":{"android":"levelo://app?vid=7418e5cc-1c82-428c-bf46-da26b1708e88","ios":"levelo://app?vid=7418e5cc-1c82-428c-bf46-da26b1708e88"},"vehicle_type_id":"4","last_reported":1682283919,"current_range_meters":17600,"station_id":"ce4bh692rcd13ifvqea0","pricing_plan_id":"free"},{"bike_id":"4db327bc-6126-4bc2-842b-f06bd7b9f54f","system_id":"levelo_inurba_marseille","lat":43.330442,"lon":5.389148,"is_reserved":false,"is_disabled":false,"rental_uris":{"android":"levelo://app?vid=4db327bc-6126-4bc2-842b-f06bd7b9f54f","ios":"levelo://app?vid=4db327bc-6126-4bc2-842b-f06bd7b9f54f"},"vehicle_type_id":"4","last_reported":1682283919,"current_range_meters":4800,"station_id":"ce4bhr92rcd13ifvqhrg","pricing_plan_id":"free"},{"bike_id":"7c63fd15-42d2-433e-9414-21cada8b87b0","system_id":"levelo_inurba_marseille","lat":43.33047,"lon":5.38915,"is_reserved":false,"is_disabled":false,"rental_uris":{"android":"levelo://app?vid=7c63fd15-42d2-433e-9414-21cada8b87b0","ios":"levelo://app?vid=7c63fd15-42d2-433e-9414-21cada8b87b0"},"vehicle_type_id":"4","last_reported":1682283919,"current_range_meters":4800,"station_id":"ce4bhr92rcd13ifvqhrg","pricing_plan_id":"free"},{"bike_id":"1f66ae08-1664-4618-8791-95e075116f71","system_id":"levelo_inurba_marseille","lat":43.33046,"lon":5.38917,"is_reserved":false,"is_disabled":false,"rental_uris":{"android":"levelo://app?vid=1f66ae08-1664-4618-8791-95e075116f71","ios":"levelo://app?vid=1f66ae08-1664-4618-8791-95e075116f71"},"vehicle_type_id":"4","last_reported":1682283919,"current_range_meters":0,"station_id":"ce4bhr92rcd13ifvqhrg","pricing_plan_id":"free"},{"bike_id":"62920b51-913f-48fd-9dc7-bb6d9ea5ff54","system_id":"levelo_inurba_marseille","lat":43.33045,"lon":5.38919,"is_reserved":false,"is_disabled":false,"rental_uris":{"android":"levelo://app?vid=62920b51-913f-48fd-9dc7-bb6d9ea5ff54","ios":"levelo://app?vid=62920b51-913f-48fd-9dc7-bb6d9ea5ff54"},"vehicle_type_id":"4","last_reported":1682283919,"current_range_meters":7200,"station_id":"ce4bhr92rcd13ifvqhrg","pricing_plan_id":"free"},{"bike_id":"ef5bdc27-8dc3-40e7-90e3-6c39017dadb6","system_id":"levelo_inurba_marseille","lat":43.3305,"lon":5.38914,"is_reserved":false,"is_disabled":false,"rental_uris":{"android":"levelo://app?vid=ef5bdc27-8dc3-40e7-90e3-6c39017dadb6","ios":"levelo://app?vid=ef5bdc27-8dc3-40e7-90e3-6c39017dadb6"},"vehicle_type_id":"4","last_reported":1682283919,"current_range_meters":16400,"station_id":"ce4bhr92rcd13ifvqhrg","pricing_plan_id":"free"},{"bike_id":"e9366c90-dd9a-4814-84be-ec46dc025363","system_id":"levelo_inurba_marseille","lat":43.33047,"lon":5.38919,"is_reserved":false,"is_disabled":false,"rental_uris":{"android":"levelo://app?vid=e9366c90-dd9a-4814-84be-ec46dc025363","ios":"levelo://app?vid=e9366c90-dd9a-4814-84be-ec46dc025363"},"vehicle_type_id":"4","last_reported":1682283919,"current_range_meters":22000,"station_id":"","pricing_plan_id":"free"},{"bike_id":"6c29e414-5565-4d7a-91b1-9898e30f3de9","system_id":"levelo_inurba_marseille","lat":43.33046,"lon":5.38923,"is_reserved":false,"is_disabled":false,"rental_uris":{"android":"levelo://app?vid=6c29e414-5565-4d7a-91b1-9898e30f3de9","ios":"levelo://app?vid=6c29e414-5565-4d7a-91b1-9898e30f3de9"},"vehicle_type_id":"4","last_reported":1682283919,"current_range_meters":20000,"station_id":"ce4bhr92rcd13ifvqhrg","pricing_plan_id":"free"},{"bike_id":"33722839-6a53-443e-9a73-e5cc9b3a44ce","system_id":"levelo_inurba_marseille","lat":43.33044,"lon":5.38928,"is_reserved":false,"is_disabled":false,"rental_uris":{"android":"levelo://app?vid=33722839-6a53-443e-9a73-e5cc9b3a44ce","ios":"levelo://app?vid=33722839-6a53-443e-9a73-e5cc9b3a44ce"},"vehicle_type_id":"4","last_reported":1682283919,"current_range_meters":5200,"station_id":"ce4bhr92rcd13ifvqhrg","pricing_plan_id":"free"},{"bike_id":"e0d31849-b79e-4a8d-9546-e7dccd721f57","system_id":"levelo_inurba_marseille","lat":43.289743,"lon":5.378304,"is_reserved":false,"is_disabled":false,"rental_uris":{"android":"levelo://app?vid=e0d31849-b79e-4a8d-9546-e7dccd721f57","ios":"levelo://app?vid=e0d31849-b79e-4a8d-9546-e7dccd721f57"},"vehicle_type_id":"4","last_reported":1682283919,"current_range_meters":27200,"station_id":"ce4bh9p2rcd13ifvqed0","pricing_plan_id":"free"},{"bike_id":"ee667816-a8bd-4cea-b565-e1e465e36c62","system_id":"levelo_inurba_marseille","lat":43.290094,"lon":5.381264,"is_reserved":false,"is_disabled":false,"rental_uris":{"android":"levelo://app?vid=ee667816-a8bd-4cea-b565-e1e465e36c62","ios":"levelo://app?vid=ee667816-a8bd-4cea-b565-e1e465e36c62"},"vehicle_type_id":"4","last_reported":1682283919,"current_range_meters":22800,"station_id":"ce4bh4p2rcd13ifvqe1g","pricing_plan_id":"free"},{"bike_id":"22eba81b-2947-4083-aab1-fed64e9be0f4","system_id":"levelo_inurba_marseille","lat":43.29026,"lon":5.38148,"is_reserved":false,"is_disabled":false,"rental_uris":{"android":"levelo://app?vid=22eba81b-2947-4083-aab1-fed64e9be0f4","ios":"levelo://app?vid=22eba81b-2947-4083-aab1-fed64e9be0f4"},"vehicle_type_id":"4","last_reported":1682283919,"current_range_meters":6400,"station_id":"ce4bh4p2rcd13ifvqe1g","pricing_plan_id":"free"},{"bike_id":"89cd17e0-fa66-49b0-9b7c-6af698931c93","system_id":"levelo_inurba_marseille","lat":43.290094,"lon":5.381264,"is_reserved":false,"is_disabled":false,"rental_uris":{"android":"levelo://app?vid=89cd17e0-fa66-49b0-9b7c-6af698931c93","ios":"levelo://app?vid=89cd17e0-fa66-49b0-9b7c-6af698931c93"},"vehicle_type_id":"4","last_reported":1682283919,"current_range_meters":17600,"station_id":"ce4bh4p2rcd13ifvqe1g","pricing_plan_id":"free"},{"bike_id":"00bb095d-c9f4-4b92-9e7a-5e969bb8fb55","system_id":"levelo_inurba_marseille","lat":43.2901,"lon":5.381269,"is_reserved":false,"is_disabled":false,"rental_uris":{"android":"levelo://app?vid=00bb095d-c9f4-4b92-9e7a-5e969bb8fb55","ios":"levelo://app?vid=00bb095d-c9f4-4b92-9e7a-5e969bb8fb55"},"vehicle_type_id":"4","last_reported":1682283919,"current_range_meters":5600,"station_id":"ce4bh4p2rcd13ifvqe1g","pricing_plan_id":"free"},{"bike_id":"a8092df5-a13a-4e6f-a212-bdc9d28cf1ee","system_id":"levelo_inurba_marseille","lat":43.2886,"lon":5.35833,"is_reserved":false,"is_disabled":false,"rental_uris":{"android":"levelo://app?vid=a8092df5-a13a-4e6f-a212-bdc9d28cf1ee","ios":"levelo://app?vid=a8092df5-a13a-4e6f-a212-bdc9d28cf1ee"},"vehicle_type_id":"4","last_reported":1682283919,"current_range_meters":29600,"station_id":"ce4bhb12rcd13ifvqem0","pricing_plan_id":"free"},{"bike_id":"1f94c161-d3b6-498e-bb3e-609dd67be584","system_id":"levelo_inurba_marseille","lat":43.28856,"lon":5.358371,"is_reserved":false,"is_disabled":false,"rental_uris":{"android":"levelo://app?vid=1f94c161-d3b6-498e-bb3e-609dd67be584","ios":"levelo://app?vid=1f94c161-d3b6-498e-bb3e-609dd67be584"},"vehicle_type_id":"4","last_reported":1682283919,"current_range_meters":5200,"station_id":"ce4bhb12rcd13ifvqem0","pricing_plan_id":"free"},{"bike_id":"19af556d-15df-4104-9c00-5e7095a2ea38","system_id":"levelo_inurba_marseille","lat":43.28856,"lon":5.358371,"is_reserved":false,"is_disabled":false,"rental_uris":{"android":"levelo://app?vid=19af556d-15df-4104-9c00-5e7095a2ea38","ios":"levelo://app?vid=19af556d-15df-4104-9c00-5e7095a2ea38"},"vehicle_type_id":"4","last_reported":1682283919,"current_range_meters":8400,"station_id":"ce4bhb12rcd13ifvqem0","pricing_plan_id":"free"},{"bike_id":"e97e5636-9b10-429c-b192-ab97450c0b31","system_id":"levelo_inurba_marseille","lat":43.28856,"lon":5.358371,"is_reserved":false,"is_disabled":false,"rental_uris":{"android":"levelo://app?vid=e97e5636-9b10-429c-b192-ab97450c0b31","ios":"levelo://app?vid=e97e5636-9b10-429c-b192-ab97450c0b31"},"vehicle_type_id":"4","last_reported":1682283919,"current_range_meters":8400,"station_id":"ce4bhb12rcd13ifvqem0","pricing_plan_id":"free"},{"bike_id":"ec092e5b-aed0-4408-a15b-9ee69da78cdf","system_id":"levelo_inurba_marseille","lat":43.28856,"lon":5.358371,"is_reserved":false,"is_disabled":false,"rental_uris":{"android":"levelo://app?vid=ec092e5b-aed0-4408-a15b-9ee69da78cdf","ios":"levelo://app?vid=ec092e5b-aed0-4408-a15b-9ee69da78cdf"},"vehicle_type_id":"4","last_reported":1682283919,"current_range_meters":0,"station_id":"ce4bhb12rcd13ifvqem0","pricing_plan_id":"free"},{"bike_id":"d201eafd-fd26-4608-a10a-a1cff117545b","system_id":"levelo_inurba_marseille","lat":43.30648,"lon":5.40073,"is_reserved":false,"is_disabled":false,"rental_uris":{"android":"levelo://app?vid=d201eafd-fd26-4608-a10a-a1cff117545b","ios":"levelo://app?vid=d201eafd-fd26-4608-a10a-a1cff117545b"},"vehicle_type_id":"4","last_reported":1682283919,"current_range_meters":10400,"station_id":"ce4bh112rcd13ifvqda0","pricing_plan_id":"free"},{"bike_id":"a8a788cf-01cb-4e9c-a1e2-29a1bc8105cb","system_id":"levelo_inurba_marseille","lat":43.30645,"lon":5.40078,"is_reserved":false,"is_disabled":false,"rental_uris":{"android":"levelo://app?vid=a8a788cf-01cb-4e9c-a1e2-29a1bc8105cb","ios":"levelo://app?vid=a8a788cf-01cb-4e9c-a1e2-29a1bc8105cb"},"vehicle_type_id":"4","last_reported":1682283919,"current_range_meters":25600,"station_id":"ce4bh112rcd13ifvqda0","pricing_plan_id":"free"},{"bike_id":"9a2c80b1-042d-4667-afea-99bed233480a","system_id":"levelo_inurba_marseille","lat":43.30641,"lon":5.40079,"is_reserved":false,"is_disabled":false,"rental_uris":{"android":"levelo://app?vid=9a2c80b1-042d-4667-afea-99bed233480a","ios":"levelo://app?vid=9a2c80b1-042d-4667-afea-99bed233480a"},"vehicle_type_id":"4","last_reported":1682283919,"current_range_meters":6000,"station_id":"ce4bh112rcd13ifvqda0","pricing_plan_id":"free"},{"bike_id":"87c9531a-2f0a-4a46-8b78-48565f2cf299","system_id":"levelo_inurba_marseille","lat":43.30641,"lon":5.4008,"is_reserved":false,"is_disabled":false,"rental_uris":{"android":"levelo://app?vid=87c9531a-2f0a-4a46-8b78-48565f2cf299","ios":"levelo://app?vid=87c9531a-2f0a-4a46-8b78-48565f2cf299"},"vehicle_type_id":"4","last_reported":1682283919,"current_range_meters":10000,"station_id":"ce4bh112rcd13ifvqda0","pricing_plan_id":"free"},{"bike_id":"c3bc16ac-c81e-4322-8728-6518c5fe8afb","system_id":"levelo_inurba_marseille","lat":43.30652,"lon":5.40087,"is_reserved":false,"is_disabled":false,"rental_uris":{"android":"levelo://app?vid=c3bc16ac-c81e-4322-8728-6518c5fe8afb","ios":"levelo://app?vid=c3bc16ac-c81e-4322-8728-6518c5fe8afb"},"vehicle_type_id":"4","last_reported":1682283919,"current_range_meters":2000,"station_id":"ce4bh112rcd13ifvqda0","pricing_plan_id":"free"},{"bike_id":"fa9f8966-ed2f-448f-9cf0-cc6ba1faadba","system_id":"levelo_inurba_marseille","lat":43.30651,"lon":5.40087,"is_reserved":false,"is_disabled":false,"rental_uris":{"android":"levelo://app?vid=fa9f8966-ed2f-448f-9cf0-cc6ba1faadba","ios":"levelo://app?vid=fa9f8966-ed2f-448f-9cf0-cc6ba1faadba"},"vehicle_type_id":"4","last_reported":1682283919,"current_range_meters":400,"station_id":"ce4bh112rcd13ifvqda0","pricing_plan_id":"free"},{"bike_id":"2acd6b44-e92d-4718-b4b7-9fa1b9471b52","system_id":"levelo_inurba_marseille","lat":43.30647,"lon":5.40094,"is_reserved":false,"is_disabled":false,"rental_uris":{"android":"levelo://app?vid=2acd6b44-e92d-4718-b4b7-9fa1b9471b52","ios":"levelo://app?vid=2acd6b44-e92d-4718-b4b7-9fa1b9471b52"},"vehicle_type_id":"4","last_reported":1682283919,"current_range_meters":4000,"station_id":"ce4bh112rcd13ifvqda0","pricing_plan_id":"free"},{"bike_id":"759441e7-89ce-48d7-81f7-02f1745cd38f","system_id":"levelo_inurba_marseille","lat":43.30641,"lon":5.40092,"is_reserved":false,"is_disabled":false,"rental_uris":{"android":"levelo://app?vid=759441e7-89ce-48d7-81f7-02f1745cd38f","ios":"levelo://app?vid=759441e7-89ce-48d7-81f7-02f1745cd38f"},"vehicle_type_id":"4","last_reported":1682283919,"current_range_meters":29600,"station_id":"ce4bh112rcd13ifvqda0","pricing_plan_id":"free"},{"bike_id":"bc0c8d1c-76ad-4b84-8bb6-5b3bd82bd929","system_id":"levelo_inurba_marseille","lat":43.3065,"lon":5.40103,"is_reserved":false,"is_disabled":false,"rental_uris":{"android":"levelo://app?vid=bc0c8d1c-76ad-4b84-8bb6-5b3bd82bd929","ios":"levelo://app?vid=bc0c8d1c-76ad-4b84-8bb6-5b3bd82bd929"},"vehicle_type_id":"4","last_reported":1682283919,"current_range_meters":0,"station_id":"ce4bh112rcd13ifvqda0","pricing_plan_id":"free"},{"bike_id":"1f44f9b6-7fc8-4c57-b801-05963730d52a","system_id":"levelo_inurba_marseille","lat":43.30642,"lon":5.401031,"is_reserved":false,"is_disabled":false,"rental_uris":{"android":"levelo://app?vid=1f44f9b6-7fc8-4c57-b801-05963730d52a","ios":"levelo://app?vid=1f44f9b6-7fc8-4c57-b801-05963730d52a"},"vehicle_type_id":"4","last_reported":1682283919,"current_range_meters":6800,"station_id":"ce4bh112rcd13ifvqda0","pricing_plan_id":"free"},{"bike_id":"e3814d6a-46cf-42f1-86d3-17faf6522cfc","system_id":"levelo_inurba_marseille","lat":43.30647,"lon":5.40106,"is_reserved":false,"is_disabled":false,"rental_uris":{"android":"levelo://app?vid=e3814d6a-46cf-42f1-86d3-17faf6522cfc","ios":"levelo://app?vid=e3814d6a-46cf-42f1-86d3-17faf6522cfc"},"vehicle_type_id":"4","last_reported":1682283919,"current_range_meters":27200,"station_id":"ce4bh112rcd13ifvqda0","pricing_plan_id":"free"},{"bike_id":"f296dbdf-f377-4434-8977-15a831dcd002","system_id":"levelo_inurba_marseille","lat":43.301117,"lon":5.398795,"is_reserved":false,"is_disabled":false,"rental_uris":{"android":"levelo://app?vid=f296dbdf-f377-4434-8977-15a831dcd002","ios":"levelo://app?vid=f296dbdf-f377-4434-8977-15a831dcd002"},"vehicle_type_id":"4","last_reported":1682283919,"current_range_meters":2000,"station_id":"ce4bh0h2rcd13ifvqd40","pricing_plan_id":"free"},{"bike_id":"ee3ef6ae-c770-4516-a32e-0345556f2d4b","system_id":"levelo_inurba_marseille","lat":43.301117,"lon":5.398795,"is_reserved":false,"is_disabled":false,"rental_uris":{"android":"levelo://app?vid=ee3ef6ae-c770-4516-a32e-0345556f2d4b","ios":"levelo://app?vid=ee3ef6ae-c770-4516-a32e-0345556f2d4b"},"vehicle_type_id":"4","last_reported":1682283919,"current_range_meters":31600,"station_id":"ce4bh0h2rcd13ifvqd40","pricing_plan_id":"free"},{"bike_id":"03859845-5c3a-419d-9ab0-1aa481d818f1","system_id":"levelo_inurba_marseille","lat":43.298681,"lon":5.397225,"is_reserved":false,"is_disabled":false,"rental_uris":{"android":"levelo://app?vid=03859845-5c3a-419d-9ab0-1aa481d818f1","ios":"levelo://app?vid=03859845-5c3a-419d-9ab0-1aa481d818f1"},"vehicle_type_id":"4","last_reported":1682283919,"current_range_meters":800,"station_id":"ce4bh0h2rcd13ifvqd50","pricing_plan_id":"free"},{"bike_id":"02bf1d85-9b98-40b8-a9d2-bdb1981b0a5a","system_id":"levelo_inurba_marseille","lat":43.298681,"lon":5.397225,"is_reserved":false,"is_disabled":false,"rental_uris":{"android":"levelo://app?vid=02bf1d85-9b98-40b8-a9d2-bdb1981b0a5a","ios":"levelo://app?vid=02bf1d85-9b98-40b8-a9d2-bdb1981b0a5a"},"vehicle_type_id":"4","last_reported":1682283919,"current_range_meters":12800,"station_id":"ce4bh0h2rcd13ifvqd50","pricing_plan_id":"free"},{"bike_id":"67c97f90-a93e-4844-b0b6-418dfc69c15b","system_id":"levelo_inurba_marseille","lat":43.298681,"lon":5.397225,"is_reserved":false,"is_disabled":false,"rental_uris":{"android":"levelo://app?vid=67c97f90-a93e-4844-b0b6-418dfc69c15b","ios":"levelo://app?vid=67c97f90-a93e-4844-b0b6-418dfc69c15b"},"vehicle_type_id":"4","last_reported":1682283919,"current_range_meters":23600,"station_id":"ce4bh0h2rcd13ifvqd50","pricing_plan_id":"free"},{"bike_id":"40603fcc-80b9-4f7f-a717-f1afed872694","system_id":"levelo_inurba_marseille","lat":43.295196,"lon":5.39397,"is_reserved":false,"is_disabled":false,"rental_uris":{"android":"levelo://app?vid=40603fcc-80b9-4f7f-a717-f1afed872694","ios":"levelo://app?vid=40603fcc-80b9-4f7f-a717-f1afed872694"},"vehicle_type_id":"4","last_reported":1682283919,"current_range_meters":10800,"station_id":"ce4bh292rcd13ifvqdf0","pricing_plan_id":"free"},{"bike_id":"7f6c87d0-b9c2-4fb2-a74c-7987d0f864c0","system_id":"levelo_inurba_marseille","lat":43.298681,"lon":5.397225,"is_reserved":false,"is_disabled":false,"rental_uris":{"android":"levelo://app?vid=7f6c87d0-b9c2-4fb2-a74c-7987d0f864c0","ios":"levelo://app?vid=7f6c87d0-b9c2-4fb2-a74c-7987d0f864c0"},"vehicle_type_id":"4","last_reported":1682283919,"current_range_meters":22400,"station_id":"ce4bh0h2rcd13ifvqd50","pricing_plan_id":"free"},{"bike_id":"1c8b45ef-af2b-4c73-8386-e5ef8cd90899","system_id":"levelo_inurba_marseille","lat":43.298681,"lon":5.397225,"is_reserved":false,"is_disabled":false,"rental_uris":{"android":"levelo://app?vid=1c8b45ef-af2b-4c73-8386-e5ef8cd90899","ios":"levelo://app?vid=1c8b45ef-af2b-4c73-8386-e5ef8cd90899"},"vehicle_type_id":"4","last_reported":1682283919,"current_range_meters":10800,"station_id":"ce4bh0h2rcd13ifvqd50","pricing_plan_id":"free"},{"bike_id":"1f0d171b-b2a8-488c-bb69-41894f1e5c08","system_id":"levelo_inurba_marseille","lat":43.295194,"lon":5.39397,"is_reserved":false,"is_disabled":false,"rental_uris":{"android":"levelo://app?vid=1f0d171b-b2a8-488c-bb69-41894f1e5c08","ios":"levelo://app?vid=1f0d171b-b2a8-488c-bb69-41894f1e5c08"},"vehicle_type_id":"4","last_reported":1682283919,"current_range_meters":10800,"station_id":"ce4bh292rcd13ifvqdf0","pricing_plan_id":"free"},{"bike_id":"f52fbfb4-17eb-4285-85d8-cb0525b47cff","system_id":"levelo_inurba_marseille","lat":43.302759,"lon":5.400793,"is_reserved":false,"is_disabled":false,"rental_uris":{"android":"levelo://app?vid=f52fbfb4-17eb-4285-85d8-cb0525b47cff","ios":"levelo://app?vid=f52fbfb4-17eb-4285-85d8-cb0525b47cff"},"vehicle_type_id":"4","last_reported":1682283919,"current_range_meters":12800,"station_id":"ce4bgvh2rcd13ifvqcs0","pricing_plan_id":"free"},{"bike_id":"ea2fdab6-d92d-436f-b485-6f81b3164d57","system_id":"levelo_inurba_marseille","lat":43.302759,"lon":5.400793,"is_reserved":false,"is_disabled":false,"rental_uris":{"android":"levelo://app?vid=ea2fdab6-d92d-436f-b485-6f81b3164d57","ios":"levelo://app?vid=ea2fdab6-d92d-436f-b485-6f81b3164d57"},"vehicle_type_id":"4","last_reported":1682283919,"current_range_meters":23200,"station_id":"ce4bgvh2rcd13ifvqcs0","pricing_plan_id":"free"},{"bike_id":"901d599f-0176-4028-b4cf-719fe8befea4","system_id":"levelo_inurba_marseille","lat":43.302759,"lon":5.400793,"is_reserved":false,"is_disabled":false,"rental_uris":{"android":"levelo://app?vid=901d599f-0176-4028-b4cf-719fe8befea4","ios":"levelo://app?vid=901d599f-0176-4028-b4cf-719fe8befea4"},"vehicle_type_id":"4","last_reported":1682283919,"current_range_meters":26800,"station_id":"ce4bgvh2rcd13ifvqcs0","pricing_plan_id":"free"},{"bike_id":"b13bf3e4-6f91-49ad-a9fb-6e119a20a845","system_id":"levelo_inurba_marseille","lat":43.28615,"lon":5.37047,"is_reserved":false,"is_disabled":false,"rental_uris":{"android":"levelo://app?vid=b13bf3e4-6f91-49ad-a9fb-6e119a20a845","ios":"levelo://app?vid=b13bf3e4-6f91-49ad-a9fb-6e119a20a845"},"vehicle_type_id":"4","last_reported":1682283919,"current_range_meters":4000,"station_id":"ce4bht12rcd13ifvqi60","pricing_plan_id":"free"},{"bike_id":"e3c67437-1e62-4be2-b395-ebc83b72eb6c","system_id":"levelo_inurba_marseille","lat":43.286039,"lon":5.370679,"is_reserved":false,"is_disabled":false,"rental_uris":{"android":"levelo://app?vid=e3c67437-1e62-4be2-b395-ebc83b72eb6c","ios":"levelo://app?vid=e3c67437-1e62-4be2-b395-ebc83b72eb6c"},"vehicle_type_id":"4","last_reported":1682283919,"current_range_meters":22800,"station_id":"ce4bht12rcd13ifvqi60","pricing_plan_id":"free"},{"bike_id":"c9dfe817-a554-47d1-9e27-c410fcc4a968","system_id":"levelo_inurba_marseille","lat":43.286039,"lon":5.370679,"is_reserved":false,"is_disabled":false,"rental_uris":{"android":"levelo://app?vid=c9dfe817-a554-47d1-9e27-c410fcc4a968","ios":"levelo://app?vid=c9dfe817-a554-47d1-9e27-c410fcc4a968"},"vehicle_type_id":"4","last_reported":1682283919,"current_range_meters":29200,"station_id":"ce4bht12rcd13ifvqi60","pricing_plan_id":"free"},{"bike_id":"ad71066c-254c-42f7-860d-db53b98d281b","system_id":"levelo_inurba_marseille","lat":43.286135,"lon":5.370711,"is_reserved":false,"is_disabled":false,"rental_uris":{"android":"levelo://app?vid=ad71066c-254c-42f7-860d-db53b98d281b","ios":"levelo://app?vid=ad71066c-254c-42f7-860d-db53b98d281b"},"vehicle_type_id":"4","last_reported":1682283919,"current_range_meters":11600,"station_id":"","pricing_plan_id":"free"},{"bike_id":"d2a38e27-e9e4-4901-ac17-40e154b73137","system_id":"levelo_inurba_marseille","lat":43.286039,"lon":5.370679,"is_reserved":false,"is_disabled":false,"rental_uris":{"android":"levelo://app?vid=d2a38e27-e9e4-4901-ac17-40e154b73137","ios":"levelo://app?vid=d2a38e27-e9e4-4901-ac17-40e154b73137"},"vehicle_type_id":"4","last_reported":1682283919,"current_range_meters":23600,"station_id":"ce4bht12rcd13ifvqi60","pricing_plan_id":"free"},{"bike_id":"da61360b-1c99-4d13-86da-5eed68005685","system_id":"levelo_inurba_marseille","lat":43.286039,"lon":5.370679,"is_reserved":false,"is_disabled":false,"rental_uris":{"android":"levelo://app?vid=da61360b-1c99-4d13-86da-5eed68005685","ios":"levelo://app?vid=da61360b-1c99-4d13-86da-5eed68005685"},"vehicle_type_id":"4","last_reported":1682283919,"current_range_meters":1200,"station_id":"ce4bht12rcd13ifvqi60","pricing_plan_id":"free"},{"bike_id":"4c5e60d7-de19-4591-99a8-614e3b163789","system_id":"levelo_inurba_marseille","lat":43.2861,"lon":5.37076,"is_reserved":false,"is_disabled":false,"rental_uris":{"android":"levelo://app?vid=4c5e60d7-de19-4591-99a8-614e3b163789","ios":"levelo://app?vid=4c5e60d7-de19-4591-99a8-614e3b163789"},"vehicle_type_id":"4","last_reported":1682283919,"current_range_meters":7200,"station_id":"ce4bht12rcd13ifvqi60","pricing_plan_id":"free"},{"bike_id":"717bc5a2-0918-40da-ae71-520c5decadac","system_id":"levelo_inurba_marseille","lat":43.286039,"lon":5.370679,"is_reserved":false,"is_disabled":false,"rental_uris":{"android":"levelo://app?vid=717bc5a2-0918-40da-ae71-520c5decadac","ios":"levelo://app?vid=717bc5a2-0918-40da-ae71-520c5decadac"},"vehicle_type_id":"4","last_reported":1682283919,"current_range_meters":6400,"station_id":"ce4bht12rcd13ifvqi60","pricing_plan_id":"free"},{"bike_id":"befa3f61-4b3d-40e6-8b87-7f1fb730c05d","system_id":"levelo_inurba_marseille","lat":43.287184,"lon":5.37937,"is_reserved":false,"is_disabled":false,"rental_uris":{"android":"levelo://app?vid=befa3f61-4b3d-40e6-8b87-7f1fb730c05d","ios":"levelo://app?vid=befa3f61-4b3d-40e6-8b87-7f1fb730c05d"},"vehicle_type_id":"4","last_reported":1682283919,"current_range_meters":26400,"station_id":"ce4bh9p2rcd13ifvqec0","pricing_plan_id":"free"},{"bike_id":"6ec89a52-ffd4-4cbf-8105-7f6960223b25","system_id":"levelo_inurba_marseille","lat":43.287184,"lon":5.37937,"is_reserved":false,"is_disabled":false,"rental_uris":{"android":"levelo://app?vid=6ec89a52-ffd4-4cbf-8105-7f6960223b25","ios":"levelo://app?vid=6ec89a52-ffd4-4cbf-8105-7f6960223b25"},"vehicle_type_id":"4","last_reported":1682283919,"current_range_meters":26000,"station_id":"ce4bh9p2rcd13ifvqec0","pricing_plan_id":"free"},{"bike_id":"7a58eb67-8d4f-4930-98c4-9f83dbdb3a0b","system_id":"levelo_inurba_marseille","lat":43.287185,"lon":5.379373,"is_reserved":false,"is_disabled":false,"rental_uris":{"android":"levelo://app?vid=7a58eb67-8d4f-4930-98c4-9f83dbdb3a0b","ios":"levelo://app?vid=7a58eb67-8d4f-4930-98c4-9f83dbdb3a0b"},"vehicle_type_id":"4","last_reported":1682283919,"current_range_meters":5200,"station_id":"ce4bh9p2rcd13ifvqec0","pricing_plan_id":"free"},{"bike_id":"2edd24ff-4781-4feb-b74e-003778feb3a8","system_id":"levelo_inurba_marseille","lat":43.32955,"lon":5.39654,"is_reserved":false,"is_disabled":false,"rental_uris":{"android":"levelo://app?vid=2edd24ff-4781-4feb-b74e-003778feb3a8","ios":"levelo://app?vid=2edd24ff-4781-4feb-b74e-003778feb3a8"},"vehicle_type_id":"4","last_reported":1682283919,"current_range_meters":19600,"station_id":"","pricing_plan_id":"free"},{"bike_id":"4fdd6d5c-8328-4a73-b359-a00357bca7ba","system_id":"levelo_inurba_marseille","lat":43.316517,"lon":5.404375,"is_reserved":false,"is_disabled":false,"rental_uris":{"android":"levelo://app?vid=4fdd6d5c-8328-4a73-b359-a00357bca7ba","ios":"levelo://app?vid=4fdd6d5c-8328-4a73-b359-a00357bca7ba"},"vehicle_type_id":"4","last_reported":1682283919,"current_range_meters":11600,"station_id":"ce4bh012rcd13ifvqd00","pricing_plan_id":"free"},{"bike_id":"67182f22-951e-4d47-bcde-3527b00beac9","system_id":"levelo_inurba_marseille","lat":43.31645,"lon":5.40448,"is_reserved":false,"is_disabled":false,"rental_uris":{"android":"levelo://app?vid=67182f22-951e-4d47-bcde-3527b00beac9","ios":"levelo://app?vid=67182f22-951e-4d47-bcde-3527b00beac9"},"vehicle_type_id":"4","last_reported":1682283919,"current_range_meters":15200,"station_id":"","pricing_plan_id":"free"},{"bike_id":"ffa214d2-f1cc-48d4-8938-f160413e0443","system_id":"levelo_inurba_marseille","lat":43.291994,"lon":5.392907,"is_reserved":false,"is_disabled":false,"rental_uris":{"android":"levelo://app?vid=ffa214d2-f1cc-48d4-8938-f160413e0443","ios":"levelo://app?vid=ffa214d2-f1cc-48d4-8938-f160413e0443"},"vehicle_type_id":"4","last_reported":1682283919,"current_range_meters":2000,"station_id":"ce4bh192rcd13ifvqdd0","pricing_plan_id":"free"},{"bike_id":"e78fc1d1-484a-49aa-8682-f886e52d652b","system_id":"levelo_inurba_marseille","lat":43.291994,"lon":5.392907,"is_reserved":false,"is_disabled":false,"rental_uris":{"android":"levelo://app?vid=e78fc1d1-484a-49aa-8682-f886e52d652b","ios":"levelo://app?vid=e78fc1d1-484a-49aa-8682-f886e52d652b"},"vehicle_type_id":"4","last_reported":1682283919,"current_range_meters":0,"station_id":"ce4bh192rcd13ifvqdd0","pricing_plan_id":"free"},{"bike_id":"d963b55b-123c-497f-baff-b5bef1a2e0cd","system_id":"levelo_inurba_marseille","lat":43.291994,"lon":5.392907,"is_reserved":false,"is_disabled":false,"rental_uris":{"android":"levelo://app?vid=d963b55b-123c-497f-baff-b5bef1a2e0cd","ios":"levelo://app?vid=d963b55b-123c-497f-baff-b5bef1a2e0cd"},"vehicle_type_id":"4","last_reported":1682283919,"current_range_meters":0,"station_id":"ce4bh192rcd13ifvqdd0","pricing_plan_id":"free"},{"bike_id":"2f254fd4-335d-46af-a338-3ce72ea58ea6","system_id":"levelo_inurba_marseille","lat":43.3069,"lon":5.40629,"is_reserved":false,"is_disabled":false,"rental_uris":{"android":"levelo://app?vid=2f254fd4-335d-46af-a338-3ce72ea58ea6","ios":"levelo://app?vid=2f254fd4-335d-46af-a338-3ce72ea58ea6"},"vehicle_type_id":"4","last_reported":1682283919,"current_range_meters":20800,"station_id":"","pricing_plan_id":"free"},{"bike_id":"20e38fd8-f99b-424c-9d15-bee4e80a2aca","system_id":"levelo_inurba_marseille","lat":43.295713,"lon":5.399639,"is_reserved":false,"is_disabled":false,"rental_uris":{"android":"levelo://app?vid=20e38fd8-f99b-424c-9d15-bee4e80a2aca","ios":"levelo://app?vid=20e38fd8-f99b-424c-9d15-bee4e80a2aca"},"vehicle_type_id":"4","last_reported":1682283919,"current_range_meters":13200,"station_id":"ce4bh312rcd13ifvqdj0","pricing_plan_id":"free"},{"bike_id":"2f2d7fdb-ceb3-48f0-975b-be7875a87af5","system_id":"levelo_inurba_marseille","lat":43.286595,"lon":5.386795,"is_reserved":false,"is_disabled":false,"rental_uris":{"android":"levelo://app?vid=2f2d7fdb-ceb3-48f0-975b-be7875a87af5","ios":"levelo://app?vid=2f2d7fdb-ceb3-48f0-975b-be7875a87af5"},"vehicle_type_id":"4","last_reported":1682283919,"current_range_meters":31200,"station_id":"ce4bh492rcd13ifvqdug","pricing_plan_id":"free"},{"bike_id":"77b3b432-090b-4391-abae-fd2d72faa1ea","system_id":"levelo_inurba_marseille","lat":43.28685,"lon":5.38652,"is_reserved":false,"is_disabled":false,"rental_uris":{"android":"levelo://app?vid=77b3b432-090b-4391-abae-fd2d72faa1ea","ios":"levelo://app?vid=77b3b432-090b-4391-abae-fd2d72faa1ea"},"vehicle_type_id":"4","last_reported":1682283919,"current_range_meters":17600,"station_id":"","pricing_plan_id":"free"},{"bike_id":"9bfe1381-ffb6-4974-acee-a7428c474bb7","system_id":"levelo_inurba_marseille","lat":43.28686,"lon":5.38663,"is_reserved":false,"is_disabled":false,"rental_uris":{"android":"levelo://app?vid=9bfe1381-ffb6-4974-acee-a7428c474bb7","ios":"levelo://app?vid=9bfe1381-ffb6-4974-acee-a7428c474bb7"},"vehicle_type_id":"4","last_reported":1682283919,"current_range_meters":800,"station_id":"","pricing_plan_id":"free"},{"bike_id":"f02ded6b-55b3-47e6-b3bb-5c37b024efd7","system_id":"levelo_inurba_marseille","lat":43.28687,"lon":5.38668,"is_reserved":false,"is_disabled":false,"rental_uris":{"android":"levelo://app?vid=f02ded6b-55b3-47e6-b3bb-5c37b024efd7","ios":"levelo://app?vid=f02ded6b-55b3-47e6-b3bb-5c37b024efd7"},"vehicle_type_id":"4","last_reported":1682283919,"current_range_meters":5600,"station_id":"","pricing_plan_id":"free"},{"bike_id":"981e01b9-2b3c-4528-879f-b02a7eec5775","system_id":"levelo_inurba_marseille","lat":43.28683,"lon":5.38659,"is_reserved":false,"is_disabled":false,"rental_uris":{"android":"levelo://app?vid=981e01b9-2b3c-4528-879f-b02a7eec5775","ios":"levelo://app?vid=981e01b9-2b3c-4528-879f-b02a7eec5775"},"vehicle_type_id":"4","last_reported":1682283919,"current_range_meters":0,"station_id":"ce4bh492rcd13ifvqdug","pricing_plan_id":"free"},{"bike_id":"1e707155-d1f6-42e8-82a4-7ecae48b4ce2","system_id":"levelo_inurba_marseille","lat":43.286595,"lon":5.386795,"is_reserved":false,"is_disabled":false,"rental_uris":{"android":"levelo://app?vid=1e707155-d1f6-42e8-82a4-7ecae48b4ce2","ios":"levelo://app?vid=1e707155-d1f6-42e8-82a4-7ecae48b4ce2"},"vehicle_type_id":"4","last_reported":1682283919,"current_range_meters":28000,"station_id":"ce4bh492rcd13ifvqdug","pricing_plan_id":"free"},{"bike_id":"8e87b285-7ee4-4b4e-8646-5e14a82e8984","system_id":"levelo_inurba_marseille","lat":43.28681,"lon":5.38664,"is_reserved":false,"is_disabled":false,"rental_uris":{"android":"levelo://app?vid=8e87b285-7ee4-4b4e-8646-5e14a82e8984","ios":"levelo://app?vid=8e87b285-7ee4-4b4e-8646-5e14a82e8984"},"vehicle_type_id":"4","last_reported":1682283919,"current_range_meters":4000,"station_id":"","pricing_plan_id":"free"},{"bike_id":"bad29b92-c6b1-4236-a52a-d8d5d7662c03","system_id":"levelo_inurba_marseille","lat":43.33439,"lon":5.3961,"is_reserved":false,"is_disabled":false,"rental_uris":{"android":"levelo://app?vid=bad29b92-c6b1-4236-a52a-d8d5d7662c03","ios":"levelo://app?vid=bad29b92-c6b1-4236-a52a-d8d5d7662c03"},"vehicle_type_id":"4","last_reported":1682283919,"current_range_meters":0,"station_id":"","pricing_plan_id":"free"},{"bike_id":"582aa612-0799-467b-a67a-b6b2e41558e3","system_id":"levelo_inurba_marseille","lat":43.337168,"lon":5.391825,"is_reserved":false,"is_disabled":false,"rental_uris":{"android":"levelo://app?vid=582aa612-0799-467b-a67a-b6b2e41558e3","ios":"levelo://app?vid=582aa612-0799-467b-a67a-b6b2e41558e3"},"vehicle_type_id":"4","last_reported":1682283919,"current_range_meters":18800,"station_id":"ce4bhr92rcd13ifvqhsg","pricing_plan_id":"free"},{"bike_id":"d979d7aa-8c6f-48a0-99dc-00ffe105b946","system_id":"levelo_inurba_marseille","lat":43.337168,"lon":5.391825,"is_reserved":false,"is_disabled":false,"rental_uris":{"android":"levelo://app?vid=d979d7aa-8c6f-48a0-99dc-00ffe105b946","ios":"levelo://app?vid=d979d7aa-8c6f-48a0-99dc-00ffe105b946"},"vehicle_type_id":"4","last_reported":1682283919,"current_range_meters":16000,"station_id":"ce4bhr92rcd13ifvqhsg","pricing_plan_id":"free"},{"bike_id":"eb7e456a-663a-4d53-ae89-0c22601e1c96","system_id":"levelo_inurba_marseille","lat":43.337168,"lon":5.391825,"is_reserved":false,"is_disabled":false,"rental_uris":{"android":"levelo://app?vid=eb7e456a-663a-4d53-ae89-0c22601e1c96","ios":"levelo://app?vid=eb7e456a-663a-4d53-ae89-0c22601e1c96"},"vehicle_type_id":"4","last_reported":1682283919,"current_range_meters":29200,"station_id":"ce4bhr92rcd13ifvqhsg","pricing_plan_id":"free"},{"bike_id":"27d41365-b5fb-4d13-abbc-77fedd03bcba","system_id":"levelo_inurba_marseille","lat":43.337168,"lon":5.391825,"is_reserved":false,"is_disabled":false,"rental_uris":{"android":"levelo://app?vid=27d41365-b5fb-4d13-abbc-77fedd03bcba","ios":"levelo://app?vid=27d41365-b5fb-4d13-abbc-77fedd03bcba"},"vehicle_type_id":"4","last_reported":1682283919,"current_range_meters":26800,"station_id":"ce4bhr92rcd13ifvqhsg","pricing_plan_id":"free"},{"bike_id":"cbca1e88-7093-4c74-b821-8ffab8280876","system_id":"levelo_inurba_marseille","lat":43.337168,"lon":5.391825,"is_reserved":false,"is_disabled":false,"rental_uris":{"android":"levelo://app?vid=cbca1e88-7093-4c74-b821-8ffab8280876","ios":"levelo://app?vid=cbca1e88-7093-4c74-b821-8ffab8280876"},"vehicle_type_id":"4","last_reported":1682283919,"current_range_meters":16800,"station_id":"ce4bhr92rcd13ifvqhsg","pricing_plan_id":"free"},{"bike_id":"d1b021d1-d1e3-49fb-9c42-320386ff4ebc","system_id":"levelo_inurba_marseille","lat":43.337168,"lon":5.391825,"is_reserved":false,"is_disabled":false,"rental_uris":{"android":"levelo://app?vid=d1b021d1-d1e3-49fb-9c42-320386ff4ebc","ios":"levelo://app?vid=d1b021d1-d1e3-49fb-9c42-320386ff4ebc"},"vehicle_type_id":"4","last_reported":1682283919,"current_range_meters":29200,"station_id":"ce4bhr92rcd13ifvqhsg","pricing_plan_id":"free"},{"bike_id":"b5df755e-3aaf-4240-b4f1-df7dfaca7d25","system_id":"levelo_inurba_marseille","lat":43.337168,"lon":5.391825,"is_reserved":false,"is_disabled":false,"rental_uris":{"android":"levelo://app?vid=b5df755e-3aaf-4240-b4f1-df7dfaca7d25","ios":"levelo://app?vid=b5df755e-3aaf-4240-b4f1-df7dfaca7d25"},"vehicle_type_id":"4","last_reported":1682283919,"current_range_meters":13600,"station_id":"ce4bhr92rcd13ifvqhsg","pricing_plan_id":"free"},