{"last_updated":1744736963,"ttl":60,"version":"2.2","data":{"bikes":[{"bike_id":"a185d0b6-9a38-4d50-a0ba-d659afb8db36","system_id":"levelo_inurba_marseille","lat":43.29842,"lon":5.36272,"is_reserved":false,"is_disabled":false,"rental_uris":{"android":"levelo://app?vid=a185d0b6-9a38-4d50-a0ba-d659afb8db36","ios":"levelo://app?vid=a185d0b6-9a38-4d50-a0ba-d659afb8db36"},"vehicle_type_id":"4","last_reported":1744736963,"current_range_meters":2800,"station_id":"ce4bgpp2rcd13ifvqc3g","pricing_plan_id":"cebpf4jnsgd1na2vs0mg"},{"bike_id":"4984423e-1587-4915-b029-05fe76236993","system_id":"levelo_inurba_marseille","lat":43.29629,"lon":5.38097,"is_reserved":false,"is_disabled":false,"rental_uris":{"android":"levelo://app?vid=4984423e-1587-4915-b029-05fe76236993","ios":"levelo://app?vid=4984423e-1587-4915-b029-05fe76236993"},"vehicle_type_id":"4","last_reported":1744736963,"current_range_meters":3200,"station_id":"ce4bgl12rcd13ifvqbo0","pricing_plan_id":"cebpf4jnsgd1na2vs0mg"},{"bike_id":"4b3d860a-0990-435c-a672-0b7dfc350b90","system_id":"levelo_inurba_marseille","lat":43.2656,"lon":5.37282,"is_reserved":false,"is_disabled":false,"rental_uris":{"android":"levelo://app?vid=4b3d860a-0990-435c-a672-0b7dfc350b90","ios":"levelo://app?vid=4b3d860a-0990-435c-a672-0b7dfc350b90"},"vehicle_type_id":"4","last_reported":1744736963,"current_range_meters":3200,"station_id":"ce4bhg12rcd13ifvqf70","pricing_plan_id":"cebpf4jnsgd1na2vs0mg"},{"bike_id":"8d0e3a0b-6d2d-4a52-8635-fac22553c618","system_id":"levelo_inurba_marseille","lat":43.333017,"lon":5.37873,"is_reserved":false,"is_disabled":false,"rental_uris":{"android":"levelo://app?vid=8d0e3a0b-6d2d-4a52-8635-fac22553c618","ios":"levelo://app?vid=8d0e3a0b-6d2d-4a52-8635-fac22553c618"},"vehicle_type_id":"4","last_reported":1744736963,"current_range_meters":3200,"station_id":"","pricing_plan_id":"cebpf4jnsgd1na2vs0mg"},{"bike_id":"34380295-65e8-4d24-a0f6-20bc3e9a05bc","system_id":"levelo_inurba_marseille","lat":43.28941,"lon":5.36635,"is_reserved":false,"is_disabled":false,"rental_uris":{"android":"levelo://app?vid=34380295-65e8-4d24-a0f6-20bc3e9a05bc","ios":"levelo://app?vid=34380295-65e8-4d24-a0f6-20bc3e9a05bc"},"vehicle_type_id":"4","last_reported":1744736963,"current_range_meters":3200,"station_id":"ce4bhap2rcd13ifvqek0","pricing_plan_id":"cebpf4jnsgd1na2vs0mg"},{"bike_id":"f85818c8-7106-4f53-997c-669fd6ff6042","system_id":"levelo_inurba_marseille","lat":43.28937,"lon":5.36389,"is_reserved":false,"is_disabled":false,"rental_uris":{"android":"levelo://app?vid=f85818c8-7106-4f53-997c-669fd6ff6042","ios":"levelo://app?vid=f85818c8-7106-4f53-997c-669fd6ff6042"},"vehicle_type_id":"4","last_reported":1744736963,"current_range_meters":3600,"station_id":"ce4bhc92rcd13ifvqetg","pricing_plan_id":"cebpf4jnsgd1na2vs0mg"},{"bike_id":"a6379b45-7bec-4c9f-b35e-9eca48a774c1","system_id":"levelo_inurba_marseille","lat":43.30638,"lon":5.40097,"is_reserved":false,"is_disabled":false,"rental_uris":{"android":"levelo://app?vid=a6379b45-7bec-4c9f-b35e-9eca48a774c1","ios":"levelo://app?vid=a6379b45-7bec-4c9f-b35e-9eca48a774c1"},"vehicle_type_id":"4","last_reported":1744736963,"current_range_meters":3600,"station_id":"ce4bh112rcd13ifvqda0","pricing_plan_id":"cebpf4jnsgd1na2vs0mg"},{"bike_id":"46943636-4820-484f-91aa-74d82eb9823e","system_id":"levelo_inurba_marseille","lat":43.267886,"lon":5.402571,"is_reserved":false,"is_disabled":false,"rental_uris":{"android":"levelo://app?vid=46943636-4820-484f-91aa-74d82eb9823e","ios":"levelo://app?vid=46943636-4820-484f-91aa-74d82eb9823e"},"vehicle_type_id":"4","last_reported":1744736963,"current_range_meters":4000,"station_id":"cjm6bp8fraef2m0cb0m0","pricing_plan_id":"cebpf4jnsgd1na2vs0mg"},{"bike_id":"1d30b0b7-fb9e-4e49-be69-45e79094aebe","system_id":"levelo_inurba_marseille","lat":43.28705,"lon":5.39984,"is_reserved":false,"is_disabled":false,"rental_uris":{"android":"levelo://app?vid=1d30b0b7-fb9e-4e49-be69-45e79094aebe","ios":"levelo://app?vid=1d30b0b7-fb9e-4e49-be69-45e79094aebe"},"vehicle_type_id":"4","last_reported":1744736963,"current_range_meters":3600,"station_id":"ce4bho92rcd13ifvqh3g","pricing_plan_id":"cebpf4jnsgd1na2vs0mg"},{"bike_id":"96b93115-09c8-41a3-ab8b-f01d93105b61","system_id":"levelo_inurba_marseille","lat":43.21193,"lon":5.35074,"is_reserved":false,"is_disabled":false,"rental_uris":{"android":"levelo://app?vid=96b93115-09c8-41a3-ab8b-f01d93105b61","ios":"levelo://app?vid=96b93115-09c8-41a3-ab8b-f01d93105b61"},"vehicle_type_id":"4","last_reported":1744736963,"current_range_meters":4400,"station_id":"st_cvj6sg6p6f1abm77japg","pricing_plan_id":"cebpf4jnsgd1na2vs0mg"},{"bike_id":"f74c91e4-9c36-4095-92e8-195b39d90ac8","system_id":"levelo_inurba_marseille","lat":43.26788,"lon":5.39407,"is_reserved":false,"is_disabled":false,"rental_uris":{"android":"levelo://app?vid=f74c91e4-9c36-4095-92e8-195b39d90ac8","ios":"levelo://app?vid=f74c91e4-9c36-4095-92e8-195b39d90ac8"},"vehicle_type_id":"4","last_reported":1744736963,"current_range_meters":4400,"station_id":"ce4bhh12rcd13ifvqfg0","pricing_plan_id":"cebpf4jnsgd1na2vs0mg"},{"bike_id":"cbc427fb-38a2-4977-bce5-5c0b23cf8f99","system_id":"levelo_inurba_marseille","lat":43.28277,"lon":5.35075,"is_reserved":false,"is_disabled":false,"rental_uris":{"android":"levelo://app?vid=cbc427fb-38a2-4977-bce5-5c0b23cf8f99","ios":"levelo://app?vid=cbc427fb-38a2-4977-bce5-5c0b23cf8f99"},"vehicle_type_id":"4","last_reported":1744736963,"current_range_meters":4400,"station_id":"ce4bhbp2rcd13ifvqerg","pricing_plan_id":"cebpf4jnsgd1na2vs0mg"},{"bike_id":"142be24d-ea58-45be-ac48-4ca6de93f280","system_id":"levelo_inurba_marseille","lat":43.29795,"lon":5.381,"is_reserved":false,"is_disabled":false,"rental_uris":{"android":"levelo://app?vid=142be24d-ea58-45be-ac48-4ca6de93f280","ios":"levelo://app?vid=142be24d-ea58-45be-ac48-4ca6de93f280"},"vehicle_type_id":"4","last_reported":1744736963,"current_range_meters":4400,"station_id":"ce4bgip2rcd13ifvqbb0","pricing_plan_id":"cebpf4jnsgd1na2vs0mg"},{"bike_id":"64585490-64d3-4757-b1a4-9f16498f4622","system_id":"levelo_inurba_marseille","lat":43.31329,"lon":5.39691,"is_reserved":false,"is_disabled":false,"rental_uris":{"android":"levelo://app?vid=64585490-64d3-4757-b1a4-9f16498f4622","ios":"levelo://app?vid=64585490-64d3-4757-b1a4-9f16498f4622"},"vehicle_type_id":"4","last_reported":1744736963,"current_range_meters":4400,"station_id":"ce4bgvp2rcd13ifvqcu0","pricing_plan_id":"cebpf4jnsgd1na2vs0mg"},{"bike_id":"e7816af6-b51f-4a54-bfd2-977771406aea","system_id":"levelo_inurba_marseille","lat":43.23164,"lon":5.43712,"is_reserved":false,"is_disabled":false,"rental_uris":{"android":"levelo://app?vid=e7816af6-b51f-4a54-bfd2-977771406aea","ios":"levelo://app?vid=e7816af6-b51f-4a54-bfd2-977771406aea"},"vehicle_type_id":"4","last_reported":1744736963,"current_range_meters":4400,"station_id":"ce4bhmp2rcd13ifvqgog","pricing_plan_id":"cebpf4jnsgd1na2vs0mg"},{"bike_id":"8634b895-45ec-49be-874c-e9e69d05b609","system_id":"levelo_inurba_marseille","lat":43.28038,"lon":5.36959,"is_reserved":false,"is_disabled":false,"rental_uris":{"android":"levelo://app?vid=8634b895-45ec-49be-874c-e9e69d05b609","ios":"levelo://app?vid=8634b895-45ec-49be-874c-e9e69d05b609"},"vehicle_type_id":"4","last_reported":1744736963,"current_range_meters":4400,"station_id":"ce4bha12rcd13ifvqef0","pricing_plan_id":"cebpf4jnsgd1na2vs0mg"},{"bike_id":"77970e2c-45c6-42e0-8d04-f86984571566","system_id":"levelo_inurba_marseille","lat":43.267977,"lon":5.394397,"is_reserved":false,"is_disabled":false,"rental_uris":{"android":"levelo://app?vid=77970e2c-45c6-42e0-8d04-f86984571566","ios":"levelo://app?vid=77970e2c-45c6-42e0-8d04-f86984571566"},"vehicle_type_id":"4","last_reported":1744736963,"current_range_meters":4400,"station_id":"ce4bh2p2rcd13ifvqdi0","pricing_plan_id":"cebpf4jnsgd1na2vs0mg"},{"bike_id":"8bafa4bf-317b-48a8-b55f-5f0e5d23acb1","system_id":"levelo_inurba_marseille","lat":43.27949,"lon":5.41039,"is_reserved":false,"is_disabled":false,"rental_uris":{"android":"levelo://app?vid=8bafa4bf-317b-48a8-b55f-5f0e5d23acb1","ios":"levelo://app?vid=8bafa4bf-317b-48a8-b55f-5f0e5d23acb1"},"vehicle_type_id":"4","last_reported":1744736963,"current_range_meters":4800,"station_id":"ce4bhnp2rcd13ifvqh0g","pricing_plan_id":"cebpf4jnsgd1na2vs0mg"},{"bike_id":"3bb6f040-24f4-44e4-97af-70eff1e2aff7","system_id":"levelo_inurba_marseille","lat":43.31722,"lon":5.4368,"is_reserved":false,"is_disabled":false,"rental_uris":{"android":"levelo://app?vid=3bb6f040-24f4-44e4-97af-70eff1e2aff7","ios":"levelo://app?vid=3bb6f040-24f4-44e4-97af-70eff1e2aff7"},"vehicle_type_id":"4","last_reported":1744736963,"current_range_meters":4800,"station_id":"ce4bhp92rcd13ifvqhcg","pricing_plan_id":"cebpf4jnsgd1na2vs0mg"},{"bike_id":"66d9901e-dd09-493e-abc0-647b0a2cb05d","system_id":"levelo_inurba_marseille","lat":43.21749,"lon":5.34618,"is_reserved":false,"is_disabled":false,"rental_uris":{"android":"levelo://app?vid=66d9901e-dd09-493e-abc0-647b0a2cb05d","ios":"levelo://app?vid=66d9901e-dd09-493e-abc0-647b0a2cb05d"},"vehicle_type_id":"4","last_reported":1744736963,"current_range_meters":4800,"station_id":"st_cvj6r9ubvosntc0bgbag","pricing_plan_id":"cebpf4jnsgd1na2vs0mg"},{"bike_id":"a5e352a8-ce42-4c50-9957-4e1ff726d087","system_id":"levelo_inurba_marseille","lat":43.23178,"lon":5.39986,"is_reserved":false,"is_disabled":false,"rental_uris":{"android":"levelo://app?vid=a5e352a8-ce42-4c50-9957-4e1ff726d087","ios":"levelo://app?vid=a5e352a8-ce42-4c50-9957-4e1ff726d087"},"vehicle_type_id":"4","last_reported":1744736963,"current_range_meters":4800,"station_id":"ce4bhn12rcd13ifvqgqg","pricing_plan_id":"cebpf4jnsgd1na2vs0mg"},{"bike_id":"ba6883ba-3ef6-4683-8dcc-d877614e7369","system_id":"levelo_inurba_marseille","lat":43.29555,"lon":5.42284,"is_reserved":false,"is_disabled":false,"rental_uris":{"android":"levelo://app?vid=ba6883ba-3ef6-4683-8dcc-d877614e7369","ios":"levelo://app?vid=ba6883ba-3ef6-4683-8dcc-d877614e7369"},"vehicle_type_id":"4","last_reported":1744736963,"current_range_meters":4800,"station_id":"ce4bhph2rcd13ifvqhdg","pricing_plan_id":"cebpf4jnsgd1na2vs0mg"},{"bike_id":"5554d3d3-945f-4011-be8b-6b67c85541ca","system_id":"levelo_inurba_marseille","lat":43.28155,"lon":5.42644,"is_reserved":false,"is_disabled":false,"rental_uris":{"android":"levelo://app?vid=5554d3d3-945f-4011-be8b-6b67c85541ca","ios":"levelo://app?vid=5554d3d3-945f-4011-be8b-6b67c85541ca"},"vehicle_type_id":"4","last_reported":1744736963,"current_range_meters":4800,"station_id":"ce4bhnh2rcd13ifvqgug","pricing_plan_id":"cebpf4jnsgd1na2vs0mg"},{"bike_id":"f2f7e0a4-15d3-4b69-a561-91f9e97aaa03","system_id":"levelo_inurba_marseille","lat":43.296022,"lon":5.377194,"is_reserved":false,"is_disabled":false,"rental_uris":{"android":"levelo://app?vid=f2f7e0a4-15d3-4b69-a561-91f9e97aaa03","ios":"levelo://app?vid=f2f7e0a4-15d3-4b69-a561-91f9e97aaa03"},"vehicle_type_id":"4","last_reported":1744736963,"current_range_meters":5600,"station_id":"ce4bh0h2rcd13ifvqd40","pricing_plan_id":"cebpf4jnsgd1na2vs0mg"},{"bike_id":"a08469f9-f535-4dec-a03d-5fbe21a14c9e","system_id":"levelo_inurba_marseille","lat":43.29936,"lon":5.36557,"is_reserved":false,"is_disabled":false,"rental_uris":{"android":"levelo://app?vid=a08469f9-f535-4dec-a03d-5fbe21a14c9e","ios":"levelo://app?vid=a08469f9-f535-4dec-a03d-5fbe21a14c9e"},"vehicle_type_id":"4","last_reported":1744736963,"current_range_meters":5600,"station_id":"ce4bgm92rcd13ifvqbr0","pricing_plan_id":"cebpf4jnsgd1na2vs0mg"},{"bike_id":"d444d4fe-564b-4afe-a928-94eb9be9c2df","system_id":"levelo_inurba_marseille","lat":43.28364,"lon":5.38102,"is_reserved":false,"is_disabled":false,"rental_uris":{"android":"levelo://app?vid=d444d4fe-564b-4afe-a928-94eb9be9c2df","ios":"levelo://app?vid=d444d4fe-564b-4afe-a928-94eb9be9c2df"},"vehicle_type_id":"4","last_reported":1744736963,"current_range_meters":5600,"station_id":"ce4bh412rcd13ifvqdr0","pricing_plan_id":"cebpf4jnsgd1na2vs0mg"},{"bike_id":"1e4ab3c6-f0d4-4cd7-9732-8db83847767a","system_id":"levelo_inurba_marseille","lat":43.30335,"lon":5.40446,"is_reserved":false,"is_disabled":false,"rental_uris":{"android":"levelo://app?vid=1e4ab3c6-f0d4-4cd7-9732-8db83847767a","ios":"levelo://app?vid=1e4ab3c6-f0d4-4cd7-9732-8db83847767a"},"vehicle_type_id":"4","last_reported":1744736963,"current_range_meters":5600,"station_id":"ce4bh012rcd13ifvqd10","pricing_plan_id":"cebpf4jnsgd1na2vs0mg"},{"bike_id":"1064b9a7-5947-42b0-b3ab-02b74ee64902","system_id":"levelo_inurba_marseille","lat":43.2502,"lon":5.38912,"is_reserved":false,"is_disabled":true,"rental_uris":{"android":"levelo://app?vid=1064b9a7-5947-42b0-b3ab-02b74ee64902","ios":"levelo://app?vid=1064b9a7-5947-42b0-b3ab-02b74ee64902"},"vehicle_type_id":"4","last_reported":1744736963,"current_range_meters":6000,"station_id":"ce4bhgp2rcd13ifvqfd0","pricing_plan_id":"cebpf4jnsgd1na2vs0mg"},{"bike_id":"2d82425b-554a-459b-9581-2f48a20e4dc0","system_id":"levelo_inurba_marseille","lat":43.29532,"lon":5.39401,"is_reserved":false,"is_disabled":false,"rental_uris":{"android":"levelo://app?vid=2d82425b-554a-459b-9581-2f48a20e4dc0","ios":"levelo://app?vid=2d82425b-554a-459b-9581-2f48a20e4dc0"},"vehicle_type_id":"4","last_reported":1744736963,"current_range_meters":6000,"station_id":"ce4bh292rcd13ifvqdf0","pricing_plan_id":"cebpf4jnsgd1na2vs0mg"},{"bike_id":"512943fa-641b-4ecb-8834-c72a52f3cbd3","system_id":"levelo_inurba_marseille","lat":43.29974,"lon":5.38486,"is_reserved":false,"is_disabled":false,"rental_uris":{"android":"levelo://app?vid=512943fa-641b-4ecb-8834-c72a52f3cbd3","ios":"levelo://app?vid=512943fa-641b-4ecb-8834-c72a52f3cbd3"},"vehicle_type_id":"4","last_reported":1744736963,"current_range_meters":6000,"station_id":"ce4bgj92rcd13ifvqbd0","pricing_plan_id":"cebpf4jnsgd1na2vs0mg"},{"bike_id":"d59a9a5a-1be9-44bb-831a-9faaab0cc5cc","system_id":"levelo_inurba_marseille","lat":43.28104,"lon":5.37842,"is_reserved":false,"is_disabled":false,"rental_uris":{"android":"levelo://app?vid=d59a9a5a-1be9-44bb-831a-9faaab0cc5cc","ios":"levelo://app?vid=d59a9a5a-1be9-44bb-831a-9faaab0cc5cc"},"vehicle_type_id":"4","last_reported":1744736963,"current_range_meters":5600,"station_id":"ce4bha12rcd13ifvqee0","pricing_plan_id":"cebpf4jnsgd1na2vs0mg"},{"bike_id":"55703abc-0cc0-4ebe-b1ea-b9a283d2add6","system_id":"levelo_inurba_marseille","lat":43.317,"lon":5.37734,"is_reserved":false,"is_disabled":false,"rental_uris":{"android":"levelo://app?vid=55703abc-0cc0-4ebe-b1ea-b9a283d2add6","ios":"levelo://app?vid=55703abc-0cc0-4ebe-b1ea-b9a283d2add6"},"vehicle_type_id":"4","last_reported":1744736963,"current_range_meters":5600,"station_id":"ce4bgth2rcd13ifvqch0","pricing_plan_id":"cebpf4jnsgd1na2vs0mg"},{"bike_id":"e3d4589d-6593-4158-8b57-c9b03d309d76","system_id":"levelo_inurba_marseille","lat":43.290025,"lon":5.35615,"is_reserved":false,"is_disabled":false,"rental_uris":{"android":"levelo://app?vid=e3d4589d-6593-4158-8b57-c9b03d309d76","ios":"levelo://app?vid=e3d4589d-6593-4158-8b57-c9b03d309d76"},"vehicle_type_id":"4","last_reported":1744736963,"current_range_meters":9600,"station_id":"ce4bh112rcd13ifvqda0","pricing_plan_id":"cebpf4jnsgd1na2vs0mg"},{"bike_id":"c90796ad-a244-4ab0-99e6-ebb5d8f14975","system_id":"levelo_inurba_marseille","lat":43.305477,"lon":5.365397,"is_reserved":false,"is_disabled":false,"rental_uris":{"android":"levelo://app?vid=c90796ad-a244-4ab0-99e6-ebb5d8f14975","ios":"levelo://app?vid=c90796ad-a244-4ab0-99e6-ebb5d8f14975"},"vehicle_type_id":"4","last_reported":1744736963,"current_range_meters":6400,"station_id":"ce4bgs12rcd13ifvqcag","pricing_plan_id":"cebpf4jnsgd1na2vs0mg"},{"bike_id":"53798433-dab2-4d2c-98e4-f9e24e8ea9a5","system_id":"levelo_inurba_marseille","lat":43.29014,"lon":5.35617,"is_reserved":false,"is_disabled":false,"rental_uris":{"android":"levelo://app?vid=53798433-dab2-4d2c-98e4-f9e24e8ea9a5","ios":"levelo://app?vid=53798433-dab2-4d2c-98e4-f9e24e8ea9a5"},"vehicle_type_id":"4","last_reported":1744736963,"current_range_meters":6400,"station_id":"ce4bhb92rcd13ifvqen0","pricing_plan_id":"cebpf4jnsgd1na2vs0mg"},{"bike_id":"f4f2c871-31b9-4cea-b2e0-b9df317c8997","system_id":"levelo_inurba_marseille","lat":43.27967,"lon":5.38748,"is_reserved":false,"is_disabled":false,"rental_uris":{"android":"levelo://app?vid=f4f2c871-31b9-4cea-b2e0-b9df317c8997","ios":"levelo://app?vid=f4f2c871-31b9-4cea-b2e0-b9df317c8997"},"vehicle_type_id":"4","last_reported":1744736963,"current_range_meters":6400,"station_id":"ce4bhg12rcd13ifvqf80","pricing_plan_id":"cebpf4jnsgd1na2vs0mg"},{"bike_id":"07c9c377-fd14-47a6-a3f6-d2eb6a16cf8f","system_id":"levelo_inurba_marseille","lat":43.28658,"lon":5.38659,"is_reserved":false,"is_disabled":false,"rental_uris":{"android":"levelo://app?vid=07c9c377-fd14-47a6-a3f6-d2eb6a16cf8f","ios":"levelo://app?vid=07c9c377-fd14-47a6-a3f6-d2eb6a16cf8f"},"vehicle_type_id":"4","last_reported":1744736963,"current_range_meters":6400,"station_id":"ce4bh492rcd13ifvqdug","pricing_plan_id":"cebpf4jnsgd1na2vs0mg"},{"bike_id":"1476dc1f-862d-49bb-9e63-9dda57576185","system_id":"levelo_inurba_marseille","lat":43.2738,"lon":5.36258,"is_reserved":false,"is_disabled":false,"rental_uris":{"android":"levelo://app?vid=1476dc1f-862d-49bb-9e63-9dda57576185","ios":"levelo://app?vid=1476dc1f-862d-49bb-9e63-9dda57576185"},"vehicle_type_id":"4","last_reported":1744736963,"current_range_meters":6400,"station_id":"ce4bhbh2rcd13ifvqeo0","pricing_plan_id":"cebpf4jnsgd1na2vs0mg"},{"bike_id":"674889d1-fd83-48b7-9de0-10fb1e7b160a","system_id":"levelo_inurba_marseille","lat":43.305878,"lon":5.372108,"is_reserved":false,"is_disabled":false,"rental_uris":{"android":"levelo://app?vid=674889d1-fd83-48b7-9de0-10fb1e7b160a","ios":"levelo://app?vid=674889d1-fd83-48b7-9de0-10fb1e7b160a"},"vehicle_type_id":"4","last_reported":1744736963,"current_range_meters":6400,"station_id":"ce4bgjh2rcd13ifvqbg0","pricing_plan_id":"cebpf4jnsgd1na2vs0mg"},{"bike_id":"199910c8-c965-4472-894a-547fa8667c6b","system_id":"levelo_inurba_marseille","lat":43.28461,"lon":5.35895,"is_reserved":false,"is_disabled":false,"rental_uris":{"android":"levelo://app?vid=199910c8-c965-4472-894a-547fa8667c6b","ios":"levelo://app?vid=199910c8-c965-4472-894a-547fa8667c6b"},"vehicle_type_id":"4","last_reported":1744736963,"current_range_meters":6400,"station_id":"ce4bhah2rcd13ifvqei0","pricing_plan_id":"cebpf4jnsgd1na2vs0mg"},{"bike_id":"9ef2ab3c-32b7-4791-ac6a-754f9d3527c3","system_id":"levelo_inurba_marseille","lat":43.30218,"lon":5.39476,"is_reserved":false,"is_disabled":false,"rental_uris":{"android":"levelo://app?vid=9ef2ab3c-32b7-4791-ac6a-754f9d3527c3","ios":"levelo://app?vid=9ef2ab3c-32b7-4791-ac6a-754f9d3527c3"},"vehicle_type_id":"4","last_reported":1744736963,"current_range_meters":6800,"station_id":"ce4bh0p2rcd13ifvqd70","pricing_plan_id":"cebpf4jnsgd1na2vs0mg"},{"bike_id":"267192aa-1b3c-46ed-bd3f-85377ba835aa","system_id":"levelo_inurba_marseille","lat":43.29516,"lon":5.39044,"is_reserved":false,"is_disabled":false,"rental_uris":{"android":"levelo://app?vid=267192aa-1b3c-46ed-bd3f-85377ba835aa","ios":"levelo://app?vid=267192aa-1b3c-46ed-bd3f-85377ba835aa"},"vehicle_type_id":"4","last_reported":1744736963,"current_range_meters":6800,"station_id":"ce4bh3p2rcd13ifvqdp0","pricing_plan_id":"cebpf4jnsgd1na2vs0mg"},{"bike_id":"50d1c769-78d0-4bbe-bcea-5856c9ba50eb","system_id":"levelo_inurba_marseille","lat":43.27946,"lon":5.41015,"is_reserved":false,"is_disabled":false,"rental_uris":{"android":"levelo://app?vid=50d1c769-78d0-4bbe-bcea-5856c9ba50eb","ios":"levelo://app?vid=50d1c769-78d0-4bbe-bcea-5856c9ba50eb"},"vehicle_type_id":"4","last_reported":1744736963,"current_range_meters":6800,"station_id":"ce4bhnp2rcd13ifvqh0g","pricing_plan_id":"cebpf4jnsgd1na2vs0mg"},{"bike_id":"8fb9e7bc-8a04-4f5d-9440-892df4b1b295","system_id":"levelo_inurba_marseille","lat":43.30985,"lon":5.39067,"is_reserved":false,"is_disabled":true,"rental_uris":{"android":"levelo://app?vid=8fb9e7bc-8a04-4f5d-9440-892df4b1b295","ios":"levelo://app?vid=8fb9e7bc-8a04-4f5d-9440-892df4b1b295"},"vehicle_type_id":"4","last_reported":1744736963,"current_range_meters":6800,"station_id":"ce4bgup2rcd13ifvqco0","pricing_plan_id":"cebpf4jnsgd1na2vs0mg"},{"bike_id":"6e813554-554a-49dd-9009-02d95efd3de7","system_id":"levelo_inurba_marseille","lat":43.32427,"lon":5.3911,"is_reserved":false,"is_disabled":false,"rental_uris":{"android":"levelo://app?vid=6e813554-554a-49dd-9009-02d95efd3de7","ios":"levelo://app?vid=6e813554-554a-49dd-9009-02d95efd3de7"},"vehicle_type_id":"4","last_reported":1744736963,"current_range_meters":6800,"station_id":"","pricing_plan_id":"cebpf4jnsgd1na2vs0mg"},{"bike_id":"3c896d4a-b536-441a-812f-b158b77da507","system_id":"levelo_inurba_marseille","lat":43.29877,"lon":5.3974,"is_reserved":false,"is_disabled":false,"rental_uris":{"android":"levelo://app?vid=3c896d4a-b536-441a-812f-b158b77da507","ios":"levelo://app?vid=3c896d4a-b536-441a-812f-b158b77da507"},"vehicle_type_id":"4","last_reported":1744736963,"current_range_meters":6400,"station_id":"ce4bh0h2rcd13ifvqd50","pricing_plan_id":"cebpf4jnsgd1na2vs0mg"},{"bike_id":"eea22ad5-d5c5-4c20-b25d-92927392169b","system_id":"levelo_inurba_marseille","lat":43.29029,"lon":5.38626,"is_reserved":false,"is_disabled":false,"rental_uris":{"android":"levelo://app?vid=eea22ad5-d5c5-4c20-b25d-92927392169b","ios":"levelo://app?vid=eea22ad5-d5c5-4c20-b25d-92927392169b"},"vehicle_type_id":"4","last_reported":1744736963,"current_range_meters":6800,"station_id":"ce4bh4p2rcd13ifvqe0g","pricing_plan_id":"cebpf4jnsgd1na2vs0mg"},{"bike_id":"868c11e4-9070-48d7-a9ba-b6969861b475","system_id":"levelo_inurba_marseille","lat":43.29032,"lon":5.3862,"is_reserved":false,"is_disabled":false,"rental_uris":{"android":"levelo://app?vid=868c11e4-9070-48d7-a9ba-b6969861b475","ios":"levelo://app?vid=868c11e4-9070-48d7-a9ba-b6969861b475"},"vehicle_type_id":"4","last_reported":1744736963,"current_range_meters":6800,"station_id":"ce4bh4p2rcd13ifvqe0g","pricing_plan_id":"cebpf4jnsgd1na2vs0mg"},{"bike_id":"4e6524b6-5132-41d3-a759-888a060ccf51","system_id":"levelo_inurba_marseille","lat":43.30065,"lon":5.36487,"is_reserved":false,"is_disabled":false,"rental_uris":{"android":"levelo://app?vid=4e6524b6-5132-41d3-a759-888a060ccf51","ios":"levelo://app?vid=4e6524b6-5132-41d3-a759-888a060ccf51"},"vehicle_type_id":"4","last_reported":1744736963,"current_range_meters":7200,"station_id":"","pricing_plan_id":"cebpf4jnsgd1na2vs0mg"},{"bike_id":"ba85b89a-d406-4f09-b4a2-d1c9dbfe70d6","system_id":"levelo_inurba_marseille","lat":43.23191,"lon":5.39981,"is_reserved":false,"is_disabled":false,"rental_uris":{"android":"levelo://app?vid=ba85b89a-d406-4f09-b4a2-d1c9dbfe70d6","ios":"levelo://app?vid=ba85b89a-d406-4f09-b4a2-d1c9dbfe70d6"},"vehicle_type_id":"4","last_reported":1744736963,"current_range_meters":7200,"station_id":"ce4bhn12rcd13ifvqgqg","pricing_plan_id":"cebpf4jnsgd1na2vs0mg"},{"bike_id":"9f371053-2155-4e6c-8c7b-063d60570242","system_id":"levelo_inurba_marseille","lat":43.279419,"lon":5.410518,"is_reserved":false,"is_disabled":false,"rental_uris":{"android":"levelo://app?vid=9f371053-2155-4e6c-8c7b-063d60570242","ios":"levelo://app?vid=9f371053-2155-4e6c-8c7b-063d60570242"},"vehicle_type_id":"4","last_reported":1744736963,"current_range_meters":7200,"station_id":"ce4bhnp2rcd13ifvqh0g","pricing_plan_id":"cebpf4jnsgd1na2vs0mg"},{"bike_id":"2f93173f-d02c-4e29-ab59-1fff882697d7","system_id":"levelo_inurba_marseille","lat":43.24091,"lon":5.37776,"is_reserved":false,"is_disabled":false,"rental_uris":{"android":"levelo://app?vid=2f93173f-d02c-4e29-ab59-1fff882697d7","ios":"levelo://app?vid=2f93173f-d02c-4e29-ab59-1fff882697d7"},"vehicle_type_id":"4","last_reported":1744736963,"current_range_meters":7200,"station_id":"ce4bhnp2rcd13ifvqgvg","pricing_plan_id":"cebpf4jnsgd1na2vs0mg"},{"bike_id":"815139be-e62a-4cba-9d81-40d61de8d83f","system_id":"levelo_inurba_marseille","lat":43.30127,"lon":5.38784,"is_reserved":false,"is_disabled":false,"rental_uris":{"android":"levelo://app?vid=815139be-e62a-4cba-9d81-40d61de8d83f","ios":"levelo://app?vid=815139be-e62a-4cba-9d81-40d61de8d83f"},"vehicle_type_id":"4","last_reported":1744736963,"current_range_meters":7200,"station_id":"ce4bghh2rcd13ifvqb60","pricing_plan_id":"cebpf4jnsgd1na2vs0mg"},{"bike_id":"d64aa8f0-0884-41cf-84e6-ae25f8a6ae2a","system_id":"levelo_inurba_marseille","lat":43.28591,"lon":5.37783,"is_reserved":false,"is_disabled":false,"rental_uris":{"android":"levelo://app?vid=d64aa8f0-0884-41cf-84e6-ae25f8a6ae2a","ios":"levelo://app?vid=d64aa8f0-0884-41cf-84e6-ae25f8a6ae2a"},"vehicle_type_id":"4","last_reported":1744736963,"current_range_meters":7200,"station_id":"","pricing_plan_id":"cebpf4jnsgd1na2vs0mg"},{"bike_id":"0844082e-25c6-4c2d-8639-ed720f757747","system_id":"levelo_inurba_marseille","lat":43.29264,"lon":5.38445,"is_reserved":false,"is_disabled":false,"rental_uris":{"android":"levelo://app?vid=0844082e-25c6-4c2d-8639-ed720f757747","ios":"levelo://app?vid=0844082e-25c6-4c2d-8639-ed720f757747"},"vehicle_type_id":"4","last_reported":1744736963,"current_range_meters":8000,"station_id":"ce4bh692rcd13ifvqea0","pricing_plan_id":"cebpf4jnsgd1na2vs0mg"},{"bike_id":"ea712097-beb2-4b63-9d55-c001f0206d48","system_id":"levelo_inurba_marseille","lat":43.30787,"lon":5.37642,"is_reserved":false,"is_disabled":false,"rental_uris":{"android":"levelo://app?vid=ea712097-beb2-4b63-9d55-c001f0206d48","ios":"levelo://app?vid=ea712097-beb2-4b63-9d55-c001f0206d48"},"vehicle_type_id":"4","last_reported":1744736963,"current_range_meters":7200,"station_id":"ce4bgv92rcd13ifvqcq0","pricing_plan_id":"cebpf4jnsgd1na2vs0mg"},{"bike_id":"ae742f5e-f4bf-499b-9149-9b055fb2a130","system_id":"levelo_inurba_marseille","lat":43.25838,"lon":5.39433,"is_reserved":false,"is_disabled":false,"rental_uris":{"android":"levelo://app?vid=ae742f5e-f4bf-499b-9149-9b055fb2a130","ios":"levelo://app?vid=ae742f5e-f4bf-499b-9149-9b055fb2a130"},"vehicle_type_id":"4","last_reported":1744736963,"current_range_meters":8000,"station_id":"ce4bhip2rcd13ifvqft0","pricing_plan_id":"cebpf4jnsgd1na2vs0mg"},{"bike_id":"75c0fa34-c68c-4305-81f8-bcbcc9618641","system_id":"levelo_inurba_marseille","lat":43.300751,"lon":5.386983,"is_reserved":false,"is_disabled":false,"rental_uris":{"android":"levelo://app?vid=75c0fa34-c68c-4305-81f8-bcbcc9618641","ios":"levelo://app?vid=75c0fa34-c68c-4305-81f8-bcbcc9618641"},"vehicle_type_id":"4","last_reported":1744736963,"current_range_meters":8000,"station_id":"ce4bhoh2rcd13ifvqh5g","pricing_plan_id":"cebpf4jnsgd1na2vs0mg"},{"bike_id":"a32b304e-65b1-4690-bbf8-526cbf76991e","system_id":"levelo_inurba_marseille","lat":43.23186,"lon":5.39992,"is_reserved":false,"is_disabled":false,"rental_uris":{"android":"levelo://app?vid=a32b304e-65b1-4690-bbf8-526cbf76991e","ios":"levelo://app?vid=a32b304e-65b1-4690-bbf8-526cbf76991e"},"vehicle_type_id":"4","last_reported":1744736963,"current_range_meters":7200,"station_id":"ce4bhn12rcd13ifvqgqg","pricing_plan_id":"cebpf4jnsgd1na2vs0mg"},{"bike_id":"0165ccda-1b5c-47ab-af48-206c334969d4","system_id":"levelo_inurba_marseille","lat":43.30125,"lon":5.39856,"is_reserved":false,"is_disabled":false,"rental_uris":{"android":"levelo://app?vid=0165ccda-1b5c-47ab-af48-206c334969d4","ios":"levelo://app?vid=0165ccda-1b5c-47ab-af48-206c334969d4"},"vehicle_type_id":"4","last_reported":1744736963,"current_range_meters":8400,"station_id":"ce4bh0h2rcd13ifvqd40","pricing_plan_id":"cebpf4jnsgd1na2vs0mg"},{"bike_id":"fd5adadd-228d-42c1-a252-43978e81d109","system_id":"levelo_inurba_marseille","lat":43.30602,"lon":5.37232,"is_reserved":false,"is_disabled":false,"rental_uris":{"android":"levelo://app?vid=fd5adadd-228d-42c1-a252-43978e81d109","ios":"levelo://app?vid=fd5adadd-228d-42c1-a252-43978e81d109"},"vehicle_type_id":"4","last_reported":1744736963,"current_range_meters":8400,"station_id":"ce4bgqh2rcd13ifvqc4g","pricing_plan_id":"cebpf4jnsgd1na2vs0mg"},{"bike_id":"d39a72e2-391f-46dd-bb87-e9b69414a0bd","system_id":"levelo_inurba_marseille","lat":43.30792,"lon":5.37648,"is_reserved":false,"is_disabled":false,"rental_uris":{"android":"levelo://app?vid=d39a72e2-391f-46dd-bb87-e9b69414a0bd","ios":"levelo://app?vid=d39a72e2-391f-46dd-bb87-e9b69414a0bd"},"vehicle_type_id":"4","last_reported":1744736963,"current_range_meters":8400,"station_id":"ce4bgv92rcd13ifvqcq0","pricing_plan_id":"cebpf4jnsgd1na2vs0mg"},{"bike_id":"10b9c5ef-75d9-4fd6-ad56-83fa358ea9e2","system_id":"levelo_inurba_marseille","lat":43.27961,"lon":5.41049,"is_reserved":false,"is_disabled":false,"rental_uris":{"android":"levelo://app?vid=10b9c5ef-75d9-4fd6-ad56-83fa358ea9e2","ios":"levelo://app?vid=10b9c5ef-75d9-4fd6-ad56-83fa358ea9e2"},"vehicle_type_id":"4","last_reported":1744736963,"current_range_meters":8400,"station_id":"ce4bhnp2rcd13ifvqh0g","pricing_plan_id":"cebpf4jnsgd1na2vs0mg"},{"bike_id":"846d658d-5837-4569-8efe-01bbc74a9af1","system_id":"levelo_inurba_marseille","lat":43.27944,"lon":5.41043,"is_reserved":false,"is_disabled":false,"rental_uris":{"android":"levelo://app?vid=846d658d-5837-4569-8efe-01bbc74a9af1","ios":"levelo://app?vid=846d658d-5837-4569-8efe-01bbc74a9af1"},"vehicle_type_id":"4","last_reported":1744736963,"current_range_meters":8800,"station_id":"ce4bhnp2rcd13ifvqh0g","pricing_plan_id":"cebpf4jnsgd1na2vs0mg"},{"bike_id":"510d35a7-8e9e-4909-ae53-96406db4d8df","system_id":"levelo_inurba_marseille","lat":43.3153,"lon":5.38038,"is_reserved":false,"is_disabled":false,"rental_uris":{"android":"levelo://app?vid=510d35a7-8e9e-4909-ae53-96406db4d8df","ios":"levelo://app?vid=510d35a7-8e9e-4909-ae53-96406db4d8df"},"vehicle_type_id":"4","last_reported":1744736963,"current_range_meters":8800,"station_id":"ce4bhsp2rcd13ifvqi50","pricing_plan_id":"cebpf4jnsgd1na2vs0mg"},{"bike_id":"c4d67352-38c7-4c77-9116-681eccc0e3c0","system_id":"levelo_inurba_marseille","lat":43.29034,"lon":5.38614,"is_reserved":false,"is_disabled":false,"rental_uris":{"android":"levelo://app?vid=c4d67352-38c7-4c77-9116-681eccc0e3c0","ios":"levelo://app?vid=c4d67352-38c7-4c77-9116-681eccc0e3c0"},"vehicle_type_id":"4","last_reported":1744736963,"current_range_meters":8800,"station_id":"ce4bh4p2rcd13ifvqe0g","pricing_plan_id":"cebpf4jnsgd1na2vs0mg"},{"bike_id":"427689a9-0cd4-4119-82a4-9e9bd7ecd185","system_id":"levelo_inurba_marseille","lat":43.28609,"lon":5.37064,"is_reserved":false,"is_disabled":false,"rental_uris":{"android":"levelo://app?vid=427689a9-0cd4-4119-82a4-9e9bd7ecd185","ios":"levelo://app?vid=427689a9-0cd4-4119-82a4-9e9bd7ecd185"},"vehicle_type_id":"4","last_reported":1744736963,"current_range_meters":8800,"station_id":"ce4bht12rcd13ifvqi60","pricing_plan_id":"cebpf4jnsgd1na2vs0mg"},{"bike_id":"7de05127-f984-4bb8-83a9-c816038ec04c","system_id":"levelo_inurba_marseille","lat":43.28928,"lon":5.38403,"is_reserved":false,"is_disabled":false,"rental_uris":{"android":"levelo://app?vid=7de05127-f984-4bb8-83a9-c816038ec04c","ios":"levelo://app?vid=7de05127-f984-4bb8-83a9-c816038ec04c"},"vehicle_type_id":"4","last_reported":1744736963,"current_range_meters":8800,"station_id":"ce4bh612rcd13ifvqe6g","pricing_plan_id":"cebpf4jnsgd1na2vs0mg"},{"bike_id":"a668abbc-a092-49f5-9124-b0b71b0d2e46","system_id":"levelo_inurba_marseille","lat":43.22935,"lon":5.3538,"is_reserved":false,"is_disabled":false,"rental_uris":{"android":"levelo://app?vid=a668abbc-a092-49f5-9124-b0b71b0d2e46","ios":"levelo://app?vid=a668abbc-a092-49f5-9124-b0b71b0d2e46"},"vehicle_type_id":"4","last_reported":1744736963,"current_range_meters":8800,"station_id":"cpo3532slgdg3j2ikp40","pricing_plan_id":"cebpf4jnsgd1na2vs0mg"},{"bike_id":"2556b9f3-7001-432c-a925-f40dbeec38c9","system_id":"levelo_inurba_marseille","lat":43.30092,"lon":5.39091,"is_reserved":false,"is_disabled":false,"rental_uris":{"android":"levelo://app?vid=2556b9f3-7001-432c-a925-f40dbeec38c9","ios":"levelo://app?vid=2556b9f3-7001-432c-a925-f40dbeec38c9"},"vehicle_type_id":"4","last_reported":1744736963,"current_range_meters":9200,"station_id":"ce4bh192rcd13ifvqdb0","pricing_plan_id":"cebpf4jnsgd1na2vs0mg"},{"bike_id":"4ad2b2cc-42e4-4ab6-9703-576137b2f3b1","system_id":"levelo_inurba_marseille","lat":43.29194,"lon":5.39332,"is_reserved":false,"is_disabled":false,"rental_uris":{"android":"levelo://app?vid=4ad2b2cc-42e4-4ab6-9703-576137b2f3b1","ios":"levelo://app?vid=4ad2b2cc-42e4-4ab6-9703-576137b2f3b1"},"vehicle_type_id":"4","last_reported":1744736963,"current_range_meters":9200,"station_id":"ce4bh192rcd13ifvqdd0","pricing_plan_id":"cebpf4jnsgd1na2vs0mg"},{"bike_id":"7c5b42ae-fb22-4b91-b0b1-a7f9faf1eb32","system_id":"levelo_inurba_marseille","lat":43.29533,"lon":5.38539,"is_reserved":false,"is_disabled":false,"rental_uris":{"android":"levelo://app?vid=7c5b42ae-fb22-4b91-b0b1-a7f9faf1eb32","ios":"levelo://app?vid=7c5b42ae-fb22-4b91-b0b1-a7f9faf1eb32"},"vehicle_type_id":"4","last_reported":1744736963,"current_range_meters":9200,"station_id":"ce4bgih2rcd13ifvqba0","pricing_plan_id":"cebpf4jnsgd1na2vs0mg"},{"bike_id":"bfea3a81-c283-49d1-940b-af384836898f","system_id":"levelo_inurba_marseille","lat":43.29514,"lon":5.39037,"is_reserved":false,"is_disabled":false,"rental_uris":{"android":"levelo://app?vid=bfea3a81-c283-49d1-940b-af384836898f","ios":"levelo://app?vid=bfea3a81-c283-49d1-940b-af384836898f"},"vehicle_type_id":"4","last_reported":1744736963,"current_range_meters":9200,"station_id":"ce4bh3p2rcd13ifvqdp0","pricing_plan_id":"cebpf4jnsgd1na2vs0mg"},{"bike_id":"6a716293-1eb3-4394-a141-cf44758f9d4a","system_id":"levelo_inurba_marseille","lat":43.29939,"lon":5.36545,"is_reserved":false,"is_disabled":false,"rental_uris":{"android":"levelo://app?vid=6a716293-1eb3-4394-a141-cf44758f9d4a","ios":"levelo://app?vid=6a716293-1eb3-4394-a141-cf44758f9d4a"},"vehicle_type_id":"4","last_reported":1744736963,"current_range_meters":9200,"station_id":"ce4bgm92rcd13ifvqbr0","pricing_plan_id":"cebpf4jnsgd1na2vs0mg"},{"bike_id":"347598f2-7636-431d-aa2a-ee922a6e92de","system_id":"levelo_inurba_marseille","lat":43.28931,"lon":5.3641,"is_reserved":false,"is_disabled":false,"rental_uris":{"android":"levelo://app?vid=347598f2-7636-431d-aa2a-ee922a6e92de","ios":"levelo://app?vid=347598f2-7636-431d-aa2a-ee922a6e92de"},"vehicle_type_id":"4","last_reported":1744736963,"current_range_meters":9200,"station_id":"ce4bhc92rcd13ifvqetg","pricing_plan_id":"cebpf4jnsgd1na2vs0mg"},{"bike_id":"08ebbb3c-31a7-4705-b589-99d9929428bd","system_id":"levelo_inurba_marseille","lat":43.269285,"lon":5.385959,"is_reserved":false,"is_disabled":false,"rental_uris":{"android":"levelo://app?vid=08ebbb3c-31a7-4705-b589-99d9929428bd","ios":"levelo://app?vid=08ebbb3c-31a7-4705-b589-99d9929428bd"},"vehicle_type_id":"4","last_reported":1744736963,"current_range_meters":9200,"station_id":"ce4bhh92rcd13ifvqfh0","pricing_plan_id":"cebpf4jnsgd1na2vs0mg"},{"bike_id":"58a44300-d462-43f8-bb1d-97b631a857d1","system_id":"levelo_inurba_marseille","lat":43.29571,"lon":5.39947,"is_reserved":false,"is_disabled":false,"rental_uris":{"android":"levelo://app?vid=58a44300-d462-43f8-bb1d-97b631a857d1","ios":"levelo://app?vid=58a44300-d462-43f8-bb1d-97b631a857d1"},"vehicle_type_id":"4","last_reported":1744736963,"current_range_meters":9200,"station_id":"ce4bh312rcd13ifvqdj0","pricing_plan_id":"cebpf4jnsgd1na2vs0mg"},{"bike_id":"1395488a-de73-4c0c-99f8-ead07ddbb67d","system_id":"levelo_inurba_marseille","lat":43.24006,"lon":5.36692,"is_reserved":false,"is_disabled":false,"rental_uris":{"android":"levelo://app?vid=1395488a-de73-4c0c-99f8-ead07ddbb67d","ios":"levelo://app?vid=1395488a-de73-4c0c-99f8-ead07ddbb67d"},"vehicle_type_id":"4","last_reported":1744736963,"current_range_meters":9200,"station_id":"","pricing_plan_id":"cebpf4jnsgd1na2vs0mg"},{"bike_id":"797dd5e2-da39-473a-b854-cceac2c9f546","system_id":"levelo_inurba_marseille","lat":43.250185,"lon":5.389783,"is_reserved":false,"is_disabled":false,"rental_uris":{"android":"levelo://app?vid=797dd5e2-da39-473a-b854-cceac2c9f546","ios":"levelo://app?vid=797dd5e2-da39-473a-b854-cceac2c9f546"},"vehicle_type_id":"4","last_reported":1744736963,"current_range_meters":9200,"station_id":"cki0cbj6b192h4jlfktg","pricing_plan_id":"cebpf4jnsgd1na2vs0mg"},{"bike_id":"27a55245-8dd2-4f1a-af63-95a9d7b71690","system_id":"levelo_inurba_marseille","lat":43.31103,"lon":5.3787,"is_reserved":false,"is_disabled":false,"rental_uris":{"android":"levelo://app?vid=27a55245-8dd2-4f1a-af63-95a9d7b71690","ios":"levelo://app?vid=27a55245-8dd2-4f1a-af63-95a9d7b71690"},"vehicle_type_id":"4","last_reported":1744736963,"current_range_meters":9200,"station_id":"","pricing_plan_id":"cebpf4jnsgd1na2vs0mg"},{"bike_id":"56ae91be-d486-4dca-abe0-c0d50bf76bbc","system_id":"levelo_inurba_marseille","lat":43.27183,"lon":5.40992,"is_reserved":false,"is_disabled":false,"rental_uris":{"android":"levelo://app?vid=56ae91be-d486-4dca-abe0-c0d50bf76bbc","ios":"levelo://app?vid=56ae91be-d486-4dca-abe0-c0d50bf76bbc"},"vehicle_type_id":"4","last_reported":1744736963,"current_range_meters":9200,"station_id":"ce4bhl12rcd13ifvqgf0","pricing_plan_id":"cebpf4jnsgd1na2vs0mg"},{"bike_id":"82501cfc-4ca6-487d-9cd8-14474f702f7d","system_id":"levelo_inurba_marseille","lat":43.30318,"lon":5.40441,"is_reserved":false,"is_disabled":false,"rental_uris":{"android":"levelo://app?vid=82501cfc-4ca6-487d-9cd8-14474f702f7d","ios":"levelo://app?vid=82501cfc-4ca6-487d-9cd8-14474f702f7d"},"vehicle_type_id":"4","last_reported":1744736963,"current_range_meters":9600,"station_id":"ce4bh012rcd13ifvqd10","pricing_plan_id":"cebpf4jnsgd1na2vs0mg"},{"bike_id":"76b474bb-51c3-4ddf-998b-32f36fbc53a0","system_id":"levelo_inurba_marseille","lat":43.27938,"lon":5.41061,"is_reserved":false,"is_disabled":false,"rental_uris":{"android":"levelo://app?vid=76b474bb-51c3-4ddf-998b-32f36fbc53a0","ios":"levelo://app?vid=76b474bb-51c3-4ddf-998b-32f36fbc53a0"},"vehicle_type_id":"4","last_reported":1744736963,"current_range_meters":9600,"station_id":"ce4bhnp2rcd13ifvqh0g","pricing_plan_id":"cebpf4jnsgd1na2vs0mg"},{"bike_id":"a0636e31-c89e-4ae1-aea4-880988d0da0e","system_id":"levelo_inurba_marseille","lat":43.29555,"lon":5.42256,"is_reserved":false,"is_disabled":false,"rental_uris":{"android":"levelo://app?vid=a0636e31-c89e-4ae1-aea4-880988d0da0e","ios":"levelo://app?vid=a0636e31-c89e-4ae1-aea4-880988d0da0e"},"vehicle_type_id":"4","last_reported":1744736963,"current_range_meters":9600,"station_id":"ce4bhph2rcd13ifvqhdg","pricing_plan_id":"cebpf4jnsgd1na2vs0mg"},{"bike_id":"45152fd8-c07c-4d52-b7a7-6670add35e00","system_id":"levelo_inurba_marseille","lat":43.261111,"lon":5.420825,"is_reserved":false,"is_disabled":false,"rental_uris":{"android":"levelo://app?vid=45152fd8-c07c-4d52-b7a7-6670add35e00","ios":"levelo://app?vid=45152fd8-c07c-4d52-b7a7-6670add35e00"},"vehicle_type_id":"4","last_reported":1744736963,"current_range_meters":9600,"station_id":"","pricing_plan_id":"cebpf4jnsgd1na2vs0mg"},{"bike_id":"c039d508-235f-4a18-aee6-80e37b489ee7","system_id":"levelo_inurba_marseille","lat":43.24081,"lon":5.37751,"is_reserved":false,"is_disabled":false,"rental_uris":{"android":"levelo://app?vid=c039d508-235f-4a18-aee6-80e37b489ee7","ios":"levelo://app?vid=c039d508-235f-4a18-aee6-80e37b489ee7"},"vehicle_type_id":"4","last_reported":1744736963,"current_range_meters":9200,"station_id":"ce4bhnp2rcd13ifvqgvg","pricing_plan_id":"cebpf4jnsgd1na2vs0mg"},{"bike_id":"c40145f8-30a8-42bf-bab7-4bdedf64e2fa","system_id":"levelo_inurba_marseille","lat":43.25104,"lon":5.40367,"is_reserved":false,"is_disabled":false,"rental_uris":{"android":"levelo://app?vid=c40145f8-30a8-42bf-bab7-4bdedf64e2fa","ios":"levelo://app?vid=c40145f8-30a8-42bf-bab7-4bdedf64e2fa"},"vehicle_type_id":"4","last_reported":1744736963,"current_range_meters":9600,"station_id":"ce4bhlh2rcd13ifvqgig","pricing_plan_id":"cebpf4jnsgd1na2vs0mg"},{"bike_id":"14e5f5ae-85d6-4f44-a1e0-489ecae2900a","system_id":"levelo_inurba_marseille","lat":43.30424,"lon":5.38887,"is_reserved":false,"is_disabled":false,"rental_uris":{"android":"levelo://app?vid=14e5f5ae-85d6-4f44-a1e0-489ecae2900a","ios":"levelo://app?vid=14e5f5ae-85d6-4f44-a1e0-489ecae2900a"},"vehicle_type_id":"4","last_reported":1744736963,"current_range_meters":9600,"station_id":"ce4bgk12rcd13ifvqbi0","pricing_plan_id":"cebpf4jnsgd1na2vs0mg"},{"bike_id":"edc8ce4b-9936-4d9b-89db-9352887f50c0","system_id":"levelo_inurba_marseille","lat":43.29274,"lon":5.40113,"is_reserved":false,"is_disabled":false,"rental_uris":{"android":"levelo://app?vid=edc8ce4b-9936-4d9b-89db-9352887f50c0","ios":"levelo://app?vid=edc8ce4b-9936-4d9b-89db-9352887f50c0"},"vehicle_type_id":"4","last_reported":1744736963,"current_range_meters":9600,"station_id":"ce4bh312rcd13ifvqdk0","pricing_plan_id":"cebpf4jnsgd1na2vs0mg"},{"bike_id":"391215a7-0717-4ddd-937e-d17fdb4d174b","system_id":"levelo_inurba_marseille","lat":43.28414,"lon":5.34991,"is_reserved":false,"is_disabled":false,"rental_uris":{"android":"levelo://app?vid=391215a7-0717-4ddd-937e-d17fdb4d174b","ios":"levelo://app?vid=391215a7-0717-4ddd-937e-d17fdb4d174b"},"vehicle_type_id":"4","last_reported":1744736963,"current_range_meters":9600,"station_id":"ce4bhbh2rcd13ifvqepg","pricing_plan_id":"cebpf4jnsgd1na2vs0mg"},{"bike_id":"30b23b09-cf25-438c-bdfd-f93985585fad","system_id":"levelo_inurba_marseille","lat":43.29932,"lon":5.36533,"is_reserved":false,"is_disabled":false,"rental_uris":{"android":"levelo://app?vid=30b23b09-cf25-438c-bdfd-f93985585fad","ios":"levelo://app?vid=30b23b09-cf25-438c-bdfd-f93985585fad"},"vehicle_type_id":"4","last_reported":1744736963,"current_range_meters":10000,"station_id":"ce4bgm92rcd13ifvqbr0","pricing_plan_id":"cebpf4jnsgd1na2vs0mg"},{"bike_id":"7684466d-8a32-4552-a249-bb575dd7ed8f","system_id":"levelo_inurba_marseille","lat":43.23181,"lon":5.39983,"is_reserved":false,"is_disabled":false,"rental_uris":{"android":"levelo://app?vid=7684466d-8a32-4552-a249-bb575dd7ed8f","ios":"levelo://app?vid=7684466d-8a32-4552-a249-bb575dd7ed8f"},"vehicle_type_id":"4","last_reported":1744736963,"current_range_meters":9600,"station_id":"ce4bhn12rcd13ifvqgqg","pricing_plan_id":"cebpf4jnsgd1na2vs0mg"},{"bike_id":"b7ab99ba-94bb-4274-aca7-e6131d0e5ab1","system_id":"levelo_inurba_marseille","lat":43.24172,"lon":5.36405,"is_reserved":false,"is_disabled":false,"rental_uris":{"android":"levelo://app?vid=b7ab99ba-94bb-4274-aca7-e6131d0e5ab1","ios":"levelo://app?vid=b7ab99ba-94bb-4274-aca7-e6131d0e5ab1"},"vehicle_type_id":"4","last_reported":1744736963,"current_range_meters":10000,"station_id":"cpo36qri1sfpv3e86is0","pricing_plan_id":"cebpf4jnsgd1na2vs0mg"},{"bike_id":"ecc26774-7f80-4834-883f-3a8990a5fcbe","system_id":"levelo_inurba_marseille","lat":43.23915,"lon":5.36616,"is_reserved":false,"is_disabled":false,"rental_uris":{"android":"levelo://app?vid=ecc26774-7f80-4834-883f-3a8990a5fcbe","ios":"levelo://app?vid=ecc26774-7f80-4834-883f-3a8990a5fcbe"},"vehicle_type_id":"4","last_reported":1744736963,"current_range_meters":10000,"station_id":"ce4bhi12rcd13ifvqfp0","pricing_plan_id":"cebpf4jnsgd1na2vs0mg"},{"bike_id":"7e445789-a7fe-4083-a189-68c0c95b5c85","system_id":"levelo_inurba_marseille","lat":43.28423,"lon":5.3499,"is_reserved":false,"is_disabled":false,"rental_uris":{"android":"levelo://app?vid=7e445789-a7fe-4083-a189-68c0c95b5c85","ios":"levelo://app?vid=7e445789-a7fe-4083-a189-68c0c95b5c85"},"vehicle_type_id":"4","last_reported":1744736963,"current_range_meters":10000,"station_id":"ce4bhbh2rcd13ifvqepg","pricing_plan_id":"cebpf4jnsgd1na2vs0mg"},{"bike_id":"ccd9cf30-646e-4304-a8e5-dbcf3c5206f2","system_id":"levelo_inurba_marseille","lat":43.29228,"lon":5.36064,"is_reserved":false,"is_disabled":false,"rental_uris":{"android":"levelo://app?vid=ccd9cf30-646e-4304-a8e5-dbcf3c5206f2","ios":"levelo://app?vid=ccd9cf30-646e-4304-a8e5-dbcf3c5206f2"},"vehicle_type_id":"4","last_reported":1744736963,"current_range_meters":10000,"station_id":"ce4bhbh2rcd13ifvqeqg","pricing_plan_id":"cebpf4jnsgd1na2vs0mg"},{"bike_id":"6086be1f-2f41-4b8c-9ce9-011bcea915da","system_id":"levelo_inurba_marseille","lat":43.3133,"lon":5.37344,"is_reserved":false,"is_disabled":false,"rental_uris":{"android":"levelo://app?vid=6086be1f-2f41-4b8c-9ce9-011bcea915da","ios":"levelo://app?vid=6086be1f-2f41-4b8c-9ce9-011bcea915da"},"vehicle_type_id":"4","last_reported":1744736963,"current_range_meters":10000,"station_id":"","pricing_plan_id":"cebpf4jnsgd1na2vs0mg"},{"bike_id":"1be0932f-7d79-4a8d-8a4e-471e48024605","system_id":"levelo_inurba_marseille","lat":43.28953,"lon":5.3639,"is_reserved":false,"is_disabled":false,"rental_uris":{"android":"levelo://app?vid=1be0932f-7d79-4a8d-8a4e-471e48024605","ios":"levelo://app?vid=1be0932f-7d79-4a8d-8a4e-471e48024605"},"vehicle_type_id":"4","last_reported":1744736963,"current_range_meters":9600,"station_id":"ce4bhc92rcd13ifvqetg","pricing_plan_id":"cebpf4jnsgd1na2vs0mg"},{"bike_id":"4ca1fc76-01c8-4686-94a5-a46dd951837f","system_id":"levelo_inurba_marseille","lat":43.27818,"lon":5.40722,"is_reserved":false,"is_disabled":false,"rental_uris":{"android":"levelo://app?vid=4ca1fc76-01c8-4686-94a5-a46dd951837f","ios":"levelo://app?vid=4ca1fc76-01c8-4686-94a5-a46dd951837f"},"vehicle_type_id":"4","last_reported":1744736963,"current_range_meters":10000,"station_id":"ce4bhnh2rcd13ifvqgtg","pricing_plan_id":"cebpf4jnsgd1na2vs0mg"},{"bike_id":"28c4ed59-df29-4c19-a333-5bd6776c46ba","system_id":"levelo_inurba_marseille","lat":43.29248,"lon":5.40904,"is_reserved":false,"is_disabled":false,"rental_uris":{"android":"levelo://app?vid=28c4ed59-df29-4c19-a333-5bd6776c46ba","ios":"levelo://app?vid=28c4ed59-df29-4c19-a333-5bd6776c46ba"},"vehicle_type_id":"4","last_reported":1744736963,"current_range_meters":10800,"station_id":"ce4bh192rcd13ifvqdc0","pricing_plan_id":"cebpf4jnsgd1na2vs0mg"},{"bike_id":"4a2fdfe9-5135-4bdb-800a-463a15252b7b","system_id":"levelo_inurba_marseille","lat":43.28161,"lon":5.42653,"is_reserved":false,"is_disabled":false,"rental_uris":{"android":"levelo://app?vid=4a2fdfe9-5135-4bdb-800a-463a15252b7b","ios":"levelo://app?vid=4a2fdfe9-5135-4bdb-800a-463a15252b7b"},"vehicle_type_id":"4","last_reported":1744736963,"current_range_meters":7200,"station_id":"ce4bhnh2rcd13ifvqgug","pricing_plan_id":"cebpf4jnsgd1na2vs0mg"},{"bike_id":"e3d9cba9-dfde-406b-95ac-23c8a502757a","system_id":"levelo_inurba_marseille","lat":43.301664,"lon":5.398373,"is_reserved":false,"is_disabled":false,"rental_uris":{"android":"levelo://app?vid=e3d9cba9-dfde-406b-95ac-23c8a502757a","ios":"levelo://app?vid=e3d9cba9-dfde-406b-95ac-23c8a502757a"},"vehicle_type_id":"4","last_reported":1744736963,"current_range_meters":10800,"station_id":"ce4bh0h2rcd13ifvqd40","pricing_plan_id":"cebpf4jnsgd1na2vs0mg"},{"bike_id":"45c6b552-68fd-454d-84d3-cf79221aaee4","system_id":"levelo_inurba_marseille","lat":43.29869,"lon":5.40869,"is_reserved":false,"is_disabled":false,"rental_uris":{"android":"levelo://app?vid=45c6b552-68fd-454d-84d3-cf79221aaee4","ios":"levelo://app?vid=45c6b552-68fd-454d-84d3-cf79221aaee4"},"vehicle_type_id":"4","last_reported":1744736963,"current_range_meters":10800,"station_id":"","pricing_plan_id":"cebpf4jnsgd1na2vs0mg"},{"bike_id":"37342bdf-d586-43ba-a25b-da22b3393da6","system_id":"levelo_inurba_marseille","lat":43.2918,"lon":5.37492,"is_reserved":false,"is_disabled":false,"rental_uris":{"android":"levelo://app?vid=37342bdf-d586-43ba-a25b-da22b3393da6","ios":"levelo://app?vid=37342bdf-d586-43ba-a25b-da22b3393da6"},"vehicle_type_id":"4","last_reported":1744736963,"current_range_meters":10800,"station_id":"","pricing_plan_id":"cebpf4jnsgd1na2vs0mg"},{"bike_id":"e0c2413e-4d9e-4a25-9696-9592adb480e4","system_id":"levelo_inurba_marseille","lat":43.29004,"lon":5.38653,"is_reserved":false,"is_disabled":false,"rental_uris":{"android":"levelo://app?vid=e0c2413e-4d9e-4a25-9696-9592adb480e4","ios":"levelo://app?vid=e0c2413e-4d9e-4a25-9696-9592adb480e4"},"vehicle_type_id":"4","last_reported":1744736963,"current_range_meters":10800,"station_id":"ce4bh4p2rcd13ifvqe0g","pricing_plan_id":"cebpf4jnsgd1na2vs0mg"},{"bike_id":"1f90bb2c-1a15-4146-8cda-ba3da8e592ea","system_id":"levelo_inurba_marseille","lat":43.29938,"lon":5.39726,"is_reserved":false,"is_disabled":false,"rental_uris":{"android":"levelo://app?vid=1f90bb2c-1a15-4146-8cda-ba3da8e592ea","ios":"levelo://app?vid=1f90bb2c-1a15-4146-8cda-ba3da8e592ea"},"vehicle_type_id":"4","last_reported":1744736963,"current_range_meters":10800,"station_id":"","pricing_plan_id":"cebpf4jnsgd1na2vs0mg"},{"bike_id":"cc019aaa-33a8-42d2-a2d4-ef26fcdd651f","system_id":"levelo_inurba_marseille","lat":43.30799,"lon":5.37332,"is_reserved":false,"is_disabled":false,"rental_uris":{"android":"levelo://app?vid=cc019aaa-33a8-42d2-a2d4-ef26fcdd651f","ios":"levelo://app?vid=cc019aaa-33a8-42d2-a2d4-ef26fcdd651f"},"vehicle_type_id":"4","last_reported":1744736963,"current_range_meters":11200,"station_id":"","pricing_plan_id":"cebpf4jnsgd1na2vs0mg"},{"bike_id":"27565f05-e5ca-4b6e-b24d-7c666d35114f","system_id":"levelo_inurba_marseille","lat":43.33027,"lon":5.39044,"is_reserved":false,"is_disabled":false,"rental_uris":{"android":"levelo://app?vid=27565f05-e5ca-4b6e-b24d-7c666d35114f","ios":"levelo://app?vid=27565f05-e5ca-4b6e-b24d-7c666d35114f"},"vehicle_type_id":"4","last_reported":1744736963,"current_range_meters":10800,"station_id":"ce4bhr92rcd13ifvqhrg","pricing_plan_id":"cebpf4jnsgd1na2vs0mg"},{"bike_id":"3901c71d-6114-424d-8e7b-e343798c0c65","system_id":"levelo_inurba_marseille","lat":43.29529,"lon":5.38544,"is_reserved":false,"is_disabled":false,"rental_uris":{"android":"levelo://app?vid=3901c71d-6114-424d-8e7b-e343798c0c65","ios":"levelo://app?vid=3901c71d-6114-424d-8e7b-e343798c0c65"},"vehicle_type_id":"4","last_reported":1744736963,"current_range_meters":11200,"station_id":"ce4bgih2rcd13ifvqba0","pricing_plan_id":"cebpf4jnsgd1na2vs0mg"},{"bike_id":"ef28e595-22b1-4e7c-8f9f-3d030b1f53eb","system_id":"levelo_inurba_marseille","lat":43.30168,"lon":5.37485,"is_reserved":false,"is_disabled":false,"rental_uris":{"android":"levelo://app?vid=ef28e595-22b1-4e7c-8f9f-3d030b1f53eb","ios":"levelo://app?vid=ef28e595-22b1-4e7c-8f9f-3d030b1f53eb"},"vehicle_type_id":"4","last_reported":1744736963,"current_range_meters":11200,"station_id":"","pricing_plan_id":"cebpf4jnsgd1na2vs0mg"},{"bike_id":"7a37451c-8218-467b-8236-2778a3a11d9d","system_id":"levelo_inurba_marseille","lat":43.24999,"lon":5.38937,"is_reserved":false,"is_disabled":false,"rental_uris":{"android":"levelo://app?vid=7a37451c-8218-467b-8236-2778a3a11d9d","ios":"levelo://app?vid=7a37451c-8218-467b-8236-2778a3a11d9d"},"vehicle_type_id":"4","last_reported":1744736963,"current_range_meters":11200,"station_id":"ce4bhgp2rcd13ifvqfd0","pricing_plan_id":"cebpf4jnsgd1na2vs0mg"},{"bike_id":"288e7a5f-2cfb-4301-9dae-a03607404f51","system_id":"levelo_inurba_marseille","lat":43.33473,"lon":5.40106,"is_reserved":false,"is_disabled":false,"rental_uris":{"android":"levelo://app?vid=288e7a5f-2cfb-4301-9dae-a03607404f51","ios":"levelo://app?vid=288e7a5f-2cfb-4301-9dae-a03607404f51"},"vehicle_type_id":"4","last_reported":1744736963,"current_range_meters":11600,"station_id":"","pricing_plan_id":"cebpf4jnsgd1na2vs0mg"},{"bike_id":"6b96f8fe-700c-425f-a717-1b1bd244e5ec","system_id":"levelo_inurba_marseille","lat":43.325378,"lon":5.4144,"is_reserved":false,"is_disabled":false,"rental_uris":{"android":"levelo://app?vid=6b96f8fe-700c-425f-a717-1b1bd244e5ec","ios":"levelo://app?vid=6b96f8fe-700c-425f-a717-1b1bd244e5ec"},"vehicle_type_id":"4","last_reported":1744736963,"current_range_meters":11600,"station_id":"ce4bhq12rcd13ifvqhhg","pricing_plan_id":"cebpf4jnsgd1na2vs0mg"},{"bike_id":"95813c39-04d0-43ba-a961-97d874331c79","system_id":"levelo_inurba_marseille","lat":43.29818,"lon":5.39347,"is_reserved":false,"is_disabled":false,"rental_uris":{"android":"levelo://app?vid=95813c39-04d0-43ba-a961-97d874331c79","ios":"levelo://app?vid=95813c39-04d0-43ba-a961-97d874331c79"},"vehicle_type_id":"4","last_reported":1744736963,"current_range_meters":11200,"station_id":"chh1huq6cuj3fo74tm60","pricing_plan_id":"cebpf4jnsgd1na2vs0mg"},{"bike_id":"d7e252c8-2da1-45d8-adcf-55abfb767b1c","system_id":"levelo_inurba_marseille","lat":43.30324,"lon":5.40438,"is_reserved":false,"is_disabled":false,"rental_uris":{"android":"levelo://app?vid=d7e252c8-2da1-45d8-adcf-55abfb767b1c","ios":"levelo://app?vid=d7e252c8-2da1-45d8-adcf-55abfb767b1c"},"vehicle_type_id":"4","last_reported":1744736963,"current_range_meters":11600,"station_id":"ce4bh012rcd13ifvqd10","pricing_plan_id":"cebpf4jnsgd1na2vs0mg"},{"bike_id":"d3a0fbcc-8789-46e3-ad8a-8c877abb0794","system_id":"levelo_inurba_marseille","lat":43.29859,"lon":5.39737,"is_reserved":false,"is_disabled":false,"rental_uris":{"android":"levelo://app?vid=d3a0fbcc-8789-46e3-ad8a-8c877abb0794","ios":"levelo://app?vid=d3a0fbcc-8789-46e3-ad8a-8c877abb0794"},"vehicle_type_id":"4","last_reported":1744736963,"current_range_meters":12000,"station_id":"ce4bh0h2rcd13ifvqd50","pricing_plan_id":"cebpf4jnsgd1na2vs0mg"},{"bike_id":"414187e8-32e8-47e3-8e14-d3d3dc5033c6","system_id":"levelo_inurba_marseille","lat":43.24072,"lon":5.37765,"is_reserved":false,"is_disabled":false,"rental_uris":{"android":"levelo://app?vid=414187e8-32e8-47e3-8e14-d3d3dc5033c6","ios":"levelo://app?vid=414187e8-32e8-47e3-8e14-d3d3dc5033c6"},"vehicle_type_id":"4","last_reported":1744736963,"current_range_meters":12000,"station_id":"ce4bhnp2rcd13ifvqgvg","pricing_plan_id":"cebpf4jnsgd1na2vs0mg"},{"bike_id":"b96d6b34-5f75-472c-aa95-1084b465c50d","system_id":"levelo_inurba_marseille","lat":43.30452,"lon":5.38891,"is_reserved":false,"is_disabled":false,"rental_uris":{"android":"levelo://app?vid=b96d6b34-5f75-472c-aa95-1084b465c50d","ios":"levelo://app?vid=b96d6b34-5f75-472c-aa95-1084b465c50d"},"vehicle_type_id":"4","last_reported":1744736963,"current_range_meters":12000,"station_id":"ce4bgk12rcd13ifvqbi0","pricing_plan_id":"cebpf4jnsgd1na2vs0mg"},{"bike_id":"d2d37f01-fa46-4fbc-a721-7789f4003663","system_id":"levelo_inurba_marseille","lat":43.24975,"lon":5.38968,"is_reserved":false,"is_disabled":false,"rental_uris":{"android":"levelo://app?vid=d2d37f01-fa46-4fbc-a721-7789f4003663","ios":"levelo://app?vid=d2d37f01-fa46-4fbc-a721-7789f4003663"},"vehicle_type_id":"4","last_reported":1744736963,"current_range_meters":12000,"station_id":"","pricing_plan_id":"cebpf4jnsgd1na2vs0mg"},{"bike_id":"075fcdf5-b249-40b2-bc7e-7ad517887fb8","system_id":"levelo_inurba_marseille","lat":43.275,"lon":5.42455,"is_reserved":false,"is_disabled":false,"rental_uris":{"android":"levelo://app?vid=075fcdf5-b249-40b2-bc7e-7ad517887fb8","ios":"levelo://app?vid=075fcdf5-b249-40b2-bc7e-7ad517887fb8"},"vehicle_type_id":"4","last_reported":1744736963,"current_range_meters":12000,"station_id":"ce4bhn92rcd13ifvqgrg","pricing_plan_id":"cebpf4jnsgd1na2vs0mg"},{"bike_id":"cd5eb157-2f69-4f63-a073-9b1af9477945","system_id":"levelo_inurba_marseille","lat":43.31123,"lon":5.37766,"is_reserved":false,"is_disabled":false,"rental_uris":{"android":"levelo://app?vid=cd5eb157-2f69-4f63-a073-9b1af9477945","ios":"levelo://app?vid=cd5eb157-2f69-4f63-a073-9b1af9477945"},"vehicle_type_id":"4","last_reported":1744736963,"current_range_meters":12000,"station_id":"ce4bgt92rcd13ifvqcg0","pricing_plan_id":"cebpf4jnsgd1na2vs0mg"},{"bike_id":"47a85634-40b2-4bd1-8409-1d1cf2f06bdc","system_id":"levelo_inurba_marseille","lat":43.24061,"lon":5.37788,"is_reserved":false,"is_disabled":false,"rental_uris":{"android":"levelo://app?vid=47a85634-40b2-4bd1-8409-1d1cf2f06bdc","ios":"levelo://app?vid=47a85634-40b2-4bd1-8409-1d1cf2f06bdc"},"vehicle_type_id":"4","last_reported":1744736963,"current_range_meters":12400,"station_id":"ce4bhnp2rcd13ifvqgvg","pricing_plan_id":"cebpf4jnsgd1na2vs0mg"},{"bike_id":"2797dcdb-c4e1-48b2-82d6-5677d371fa39","system_id":"levelo_inurba_marseille","lat":43.24166,"lon":5.36392,"is_reserved":false,"is_disabled":false,"rental_uris":{"android":"levelo://app?vid=2797dcdb-c4e1-48b2-82d6-5677d371fa39","ios":"levelo://app?vid=2797dcdb-c4e1-48b2-82d6-5677d371fa39"},"vehicle_type_id":"4","last_reported":1744736963,"current_range_meters":12400,"station_id":"cpo36qri1sfpv3e86is0","pricing_plan_id":"cebpf4jnsgd1na2vs0mg"},{"bike_id":"7a8a76c2-abe6-428a-9ada-42d523a87ab2","system_id":"levelo_inurba_marseille","lat":43.28686,"lon":5.38674,"is_reserved":false,"is_disabled":false,"rental_uris":{"android":"levelo://app?vid=7a8a76c2-abe6-428a-9ada-42d523a87ab2","ios":"levelo://app?vid=7a8a76c2-abe6-428a-9ada-42d523a87ab2"},"vehicle_type_id":"4","last_reported":1744736963,"current_range_meters":12400,"station_id":"ce4bh492rcd13ifvqdug","pricing_plan_id":"cebpf4jnsgd1na2vs0mg"},{"bike_id":"208fbb31-d6b1-4921-8e09-562a13d436cb","system_id":"levelo_inurba_marseille","lat":43.29041,"lon":5.38622,"is_reserved":false,"is_disabled":false,"rental_uris":{"android":"levelo://app?vid=208fbb31-d6b1-4921-8e09-562a13d436cb","ios":"levelo://app?vid=208fbb31-d6b1-4921-8e09-562a13d436cb"},"vehicle_type_id":"4","last_reported":1744736963,"current_range_meters":12400,"station_id":"ce4bh4p2rcd13ifvqe0g","pricing_plan_id":"cebpf4jnsgd1na2vs0mg"},{"bike_id":"8e4f446a-3da0-4656-804e-053f79d99fd8","system_id":"levelo_inurba_marseille","lat":43.29901,"lon":5.43675,"is_reserved":false,"is_disabled":false,"rental_uris":{"android":"levelo://app?vid=8e4f446a-3da0-4656-804e-053f79d99fd8","ios":"levelo://app?vid=8e4f446a-3da0-4656-804e-053f79d99fd8"},"vehicle_type_id":"4","last_reported":1744736963,"current_range_meters":12400,"station_id":"ce4bhpp2rcd13ifvqhfg","pricing_plan_id":"cebpf4jnsgd1na2vs0mg"},{"bike_id":"14a5fce5-bf9a-4396-8396-c321c58474da","system_id":"levelo_inurba_marseille","lat":43.27991,"lon":5.416558,"is_reserved":false,"is_disabled":false,"rental_uris":{"android":"levelo://app?vid=14a5fce5-bf9a-4396-8396-c321c58474da","ios":"levelo://app?vid=14a5fce5-bf9a-4396-8396-c321c58474da"},"vehicle_type_id":"4","last_reported":1744736963,"current_range_meters":12800,"station_id":"ce4bho12rcd13ifvqh1g","pricing_plan_id":"cebpf4jnsgd1na2vs0mg"},{"bike_id":"bdbfa91d-f51b-4c92-a880-1cae845c2a5c","system_id":"levelo_inurba_marseille","lat":43.22952,"lon":5.35376,"is_reserved":false,"is_disabled":false,"rental_uris":{"android":"levelo://app?vid=bdbfa91d-f51b-4c92-a880-1cae845c2a5c","ios":"levelo://app?vid=bdbfa91d-f51b-4c92-a880-1cae845c2a5c"},"vehicle_type_id":"4","last_reported":1744736963,"current_range_meters":12800,"station_id":"cpo3532slgdg3j2ikp40","pricing_plan_id":"cebpf4jnsgd1na2vs0mg"},{"bike_id":"77127294-1bea-4899-9806-d7b6725ac69f","system_id":"levelo_inurba_marseille","lat":43.29204,"lon":5.39333,"is_reserved":false,"is_disabled":false,"rental_uris":{"android":"levelo://app?vid=77127294-1bea-4899-9806-d7b6725ac69f","ios":"levelo://app?vid=77127294-1bea-4899-9806-d7b6725ac69f"},"vehicle_type_id":"4","last_reported":1744736963,"current_range_meters":12800,"station_id":"ce4bh192rcd13ifvqdd0","pricing_plan_id":"cebpf4jnsgd1na2vs0mg"},{"bike_id":"b35f1d03-2f24-47f3-93f9-7cf57ff45fd2","system_id":"levelo_inurba_marseille","lat":43.28559,"lon":5.39501,"is_reserved":false,"is_disabled":false,"rental_uris":{"android":"levelo://app?vid=b35f1d03-2f24-47f3-93f9-7cf57ff45fd2","ios":"levelo://app?vid=b35f1d03-2f24-47f3-93f9-7cf57ff45fd2"},"vehicle_type_id":"4","last_reported":1744736963,"current_range_meters":12400,"station_id":"ce4bh292rcd13ifvqdg0","pricing_plan_id":"cebpf4jnsgd1na2vs0mg"},{"bike_id":"24232c78-ab31-43b6-a9a5-2712158d22a5","system_id":"levelo_inurba_marseille","lat":43.24665,"lon":5.38163,"is_reserved":false,"is_disabled":false,"rental_uris":{"android":"levelo://app?vid=24232c78-ab31-43b6-a9a5-2712158d22a5","ios":"levelo://app?vid=24232c78-ab31-43b6-a9a5-2712158d22a5"},"vehicle_type_id":"4","last_reported":1744736963,"current_range_meters":12400,"station_id":"ce4bhih2rcd13ifvqfr0","pricing_plan_id":"cebpf4jnsgd1na2vs0mg"},{"bike_id":"a64c1bf8-86bc-4c11-9879-81cd45d3d031","system_id":"levelo_inurba_marseille","lat":43.31339,"lon":5.39694,"is_reserved":false,"is_disabled":true,"rental_uris":{"android":"levelo://app?vid=a64c1bf8-86bc-4c11-9879-81cd45d3d031","ios":"levelo://app?vid=a64c1bf8-86bc-4c11-9879-81cd45d3d031"},"vehicle_type_id":"4","last_reported":1744736963,"current_range_meters":12800,"station_id":"ce4bgvp2rcd13ifvqcu0","pricing_plan_id":"cebpf4jnsgd1na2vs0mg"},{"bike_id":"4aa9f428-5f9d-4532-998b-71ec1c5fd1b3","system_id":"levelo_inurba_marseille","lat":43.27993,"lon":5.41664,"is_reserved":false,"is_disabled":false,"rental_uris":{"android":"levelo://app?vid=4aa9f428-5f9d-4532-998b-71ec1c5fd1b3","ios":"levelo://app?vid=4aa9f428-5f9d-4532-998b-71ec1c5fd1b3"},"vehicle_type_id":"4","last_reported":1744736963,"current_range_meters":12800,"station_id":"ce4bho12rcd13ifvqh1g","pricing_plan_id":"cebpf4jnsgd1na2vs0mg"},{"bike_id":"e00fd962-6b49-4c9d-8790-f959b4324df1","system_id":"levelo_inurba_marseille","lat":43.25581,"lon":5.38254,"is_reserved":false,"is_disabled":false,"rental_uris":{"android":"levelo://app?vid=e00fd962-6b49-4c9d-8790-f959b4324df1","ios":"levelo://app?vid=e00fd962-6b49-4c9d-8790-f959b4324df1"},"vehicle_type_id":"4","last_reported":1744736963,"current_range_meters":13600,"station_id":"ce4bhih2rcd13ifvqfs0","pricing_plan_id":"cebpf4jnsgd1na2vs0mg"},{"bike_id":"c3be47b6-ee63-4e5f-a5f7-7cc1e57dfe2a","system_id":"levelo_inurba_marseille","lat":43.30145,"lon":5.3988,"is_reserved":false,"is_disabled":false,"rental_uris":{"android":"levelo://app?vid=c3be47b6-ee63-4e5f-a5f7-7cc1e57dfe2a","ios":"levelo://app?vid=c3be47b6-ee63-4e5f-a5f7-7cc1e57dfe2a"},"vehicle_type_id":"4","last_reported":1744736963,"current_range_meters":12800,"station_id":"ce4bh0h2rcd13ifvqd40","pricing_plan_id":"cebpf4jnsgd1na2vs0mg"},{"bike_id":"ac93b782-2c24-4c21-8bf5-8e2a67f7cc1b","system_id":"levelo_inurba_marseille","lat":43.27561,"lon":5.38434,"is_reserved":false,"is_disabled":false,"rental_uris":{"android":"levelo://app?vid=ac93b782-2c24-4c21-8bf5-8e2a67f7cc1b","ios":"levelo://app?vid=ac93b782-2c24-4c21-8bf5-8e2a67f7cc1b"},"vehicle_type_id":"4","last_reported":1744736963,"current_range_meters":11200,"station_id":"ce4bhh92rcd13ifvqfi0","pricing_plan_id":"cebpf4jnsgd1na2vs0mg"},{"bike_id":"47cff7d4-b271-454c-8728-0331994523bd","system_id":"levelo_inurba_marseille","lat":43.28894,"lon":5.36385,"is_reserved":false,"is_disabled":false,"rental_uris":{"android":"levelo://app?vid=47cff7d4-b271-454c-8728-0331994523bd","ios":"levelo://app?vid=47cff7d4-b271-454c-8728-0331994523bd"},"vehicle_type_id":"4","last_reported":1744736963,"current_range_meters":14000,"station_id":"ce4bhc92rcd13ifvqetg","pricing_plan_id":"cebpf4jnsgd1na2vs0mg"},{"bike_id":"ae8aa2c8-de61-4481-bb43-072a5c283293","system_id":"levelo_inurba_marseille","lat":43.29441,"lon":5.39754,"is_reserved":false,"is_disabled":false,"rental_uris":{"android":"levelo://app?vid=ae8aa2c8-de61-4481-bb43-072a5c283293","ios":"levelo://app?vid=ae8aa2c8-de61-4481-bb43-072a5c283293"},"vehicle_type_id":"4","last_reported":1744736963,"current_range_meters":14000,"station_id":"ce4bh3h2rcd13ifvqdo0","pricing_plan_id":"cebpf4jnsgd1na2vs0mg"},{"bike_id":"f1415cb2-c393-40c2-8dac-29a28de75942","system_id":"levelo_inurba_marseille","lat":43.25586,"lon":5.38243,"is_reserved":false,"is_disabled":false,"rental_uris":{"android":"levelo://app?vid=f1415cb2-c393-40c2-8dac-29a28de75942","ios":"levelo://app?vid=f1415cb2-c393-40c2-8dac-29a28de75942"},"vehicle_type_id":"4","last_reported":1744736963,"current_range_meters":14000,"station_id":"ce4bhih2rcd13ifvqfs0","pricing_plan_id":"cebpf4jnsgd1na2vs0mg"},{"bike_id":"a1e57cd5-7ea1-47ac-bc63-3e0df4ee98f6","system_id":"levelo_inurba_marseille","lat":43.292812,"lon":5.401154,"is_reserved":false,"is_disabled":false,"rental_uris":{"android":"levelo://app?vid=a1e57cd5-7ea1-47ac-bc63-3e0df4ee98f6","ios":"levelo://app?vid=a1e57cd5-7ea1-47ac-bc63-3e0df4ee98f6"},"vehicle_type_id":"4","last_reported":1744736963,"current_range_meters":14000,"station_id":"ce4bgvh2rcd13ifvqcs0","pricing_plan_id":"cebpf4jnsgd1na2vs0mg"},{"bike_id":"90252393-ecb3-4fc2-afa7-81dde3b1b398","system_id":"levelo_inurba_marseille","lat":43.25113,"lon":5.40322,"is_reserved":false,"is_disabled":false,"rental_uris":{"android":"levelo://app?vid=90252393-ecb3-4fc2-afa7-81dde3b1b398","ios":"levelo://app?vid=90252393-ecb3-4fc2-afa7-81dde3b1b398"},"vehicle_type_id":"4","last_reported":1744736963,"current_range_meters":14000,"station_id":"ce4bhlh2rcd13ifvqgig","pricing_plan_id":"cebpf4jnsgd1na2vs0mg"},{"bike_id":"65ea5560-9098-4419-8966-80e25ddee11e","system_id":"levelo_inurba_marseille","lat":43.29961,"lon":5.41365,"is_reserved":false,"is_disabled":false,"rental_uris":{"android":"levelo://app?vid=65ea5560-9098-4419-8966-80e25ddee11e","ios":"levelo://app?vid=65ea5560-9098-4419-8966-80e25ddee11e"},"vehicle_type_id":"4","last_reported":1744736963,"current_range_meters":14000,"station_id":"ce4bhp12rcd13ifvqh9g","pricing_plan_id":"cebpf4jnsgd1na2vs0mg"},{"bike_id":"32914e51-bb2b-4ce3-b069-f3bfc6bc1f01","system_id":"levelo_inurba_marseille","lat":43.28617,"lon":5.35112,"is_reserved":false,"is_disabled":false,"rental_uris":{"android":"levelo://app?vid=32914e51-bb2b-4ce3-b069-f3bfc6bc1f01","ios":"levelo://app?vid=32914e51-bb2b-4ce3-b069-f3bfc6bc1f01"},"vehicle_type_id":"4","last_reported":1744736963,"current_range_meters":14000,"station_id":"ce4bhch2rcd13ifvqeug","pricing_plan_id":"cebpf4jnsgd1na2vs0mg"},{"bike_id":"a8132d22-4ce6-4e24-9e2c-e02042e4181b","system_id":"levelo_inurba_marseille","lat":43.2175,"lon":5.346,"is_reserved":false,"is_disabled":false,"rental_uris":{"android":"levelo://app?vid=a8132d22-4ce6-4e24-9e2c-e02042e4181b","ios":"levelo://app?vid=a8132d22-4ce6-4e24-9e2c-e02042e4181b"},"vehicle_type_id":"4","last_reported":1744736963,"current_range_meters":14400,"station_id":"st_cvj6r9ubvosntc0bgbag","pricing_plan_id":"cebpf4jnsgd1na2vs0mg"},{"bike_id":"7d882e4a-2af1-46fa-ad75-dfed51691191","system_id":"levelo_inurba_marseille","lat":43.26555,"lon":5.39029,"is_reserved":false,"is_disabled":false,"rental_uris":{"android":"levelo://app?vid=7d882e4a-2af1-46fa-ad75-dfed51691191","ios":"levelo://app?vid=7d882e4a-2af1-46fa-ad75-dfed51691191"},"vehicle_type_id":"4","last_reported":1744736963,"current_range_meters":14400,"station_id":"ce4bhe12rcd13ifvqf30","pricing_plan_id":"cebpf4jnsgd1na2vs0mg"},{"bike_id":"3bea3719-5426-4869-9637-217f0ebdca14","system_id":"levelo_inurba_marseille","lat":43.27565,"lon":5.38432,"is_reserved":false,"is_disabled":false,"rental_uris":{"android":"levelo://app?vid=3bea3719-5426-4869-9637-217f0ebdca14","ios":"levelo://app?vid=3bea3719-5426-4869-9637-217f0ebdca14"},"vehicle_type_id":"4","last_reported":1744736963,"current_range_meters":14400,"station_id":"ce4bhh92rcd13ifvqfi0","pricing_plan_id":"cebpf4jnsgd1na2vs0mg"},{"bike_id":"629f4c9a-2873-4243-8b4d-cc9d14be569b","system_id":"levelo_inurba_marseille","lat":43.28152,"lon":5.42679,"is_reserved":false,"is_disabled":false,"rental_uris":{"android":"levelo://app?vid=629f4c9a-2873-4243-8b4d-cc9d14be569b","ios":"levelo://app?vid=629f4c9a-2873-4243-8b4d-cc9d14be569b"},"vehicle_type_id":"4","last_reported":1744736963,"current_range_meters":14400,"station_id":"ce4bhnh2rcd13ifvqgug","pricing_plan_id":"cebpf4jnsgd1na2vs0mg"},{"bike_id":"b32b76a7-565f-47d8-9b16-c22d8d52da8b","system_id":"levelo_inurba_marseille","lat":43.28157,"lon":5.42633,"is_reserved":false,"is_disabled":false,"rental_uris":{"android":"levelo://app?vid=b32b76a7-565f-47d8-9b16-c22d8d52da8b","ios":"levelo://app?vid=b32b76a7-565f-47d8-9b16-c22d8d52da8b"},"vehicle_type_id":"4","last_reported":1744736963,"current_range_meters":14800,"station_id":"ce4bhnh2rcd13ifvqgug","pricing_plan_id":"cebpf4jnsgd1na2vs0mg"},{"bike_id":"cb2a3646-630c-49a1-8766-620658f074a2","system_id":"levelo_inurba_marseille","lat":43.31528,"lon":5.38041,"is_reserved":false,"is_disabled":false,"rental_uris":{"android":"levelo://app?vid=cb2a3646-630c-49a1-8766-620658f074a2","ios":"levelo://app?vid=cb2a3646-630c-49a1-8766-620658f074a2"},"vehicle_type_id":"4","last_reported":1744736963,"current_range_meters":14400,"station_id":"ce4bhsp2rcd13ifvqi50","pricing_plan_id":"cebpf4jnsgd1na2vs0mg"},{"bike_id":"7eacb872-0584-4b06-8fad-feb612d3799a","system_id":"levelo_inurba_marseille","lat":43.29676,"lon":5.38144,"is_reserved":false,"is_disabled":false,"rental_uris":{"android":"levelo://app?vid=7eacb872-0584-4b06-8fad-feb612d3799a","ios":"levelo://app?vid=7eacb872-0584-4b06-8fad-feb612d3799a"},"vehicle_type_id":"4","last_reported":1744736963,"current_range_meters":14800,"station_id":"","pricing_plan_id":"cebpf4jnsgd1na2vs0mg"},{"bike_id":"9d104de7-689d-44ee-8074-51b6a88e0fa0","system_id":"levelo_inurba_marseille","lat":43.31132,"lon":5.37779,"is_reserved":false,"is_disabled":false,"rental_uris":{"android":"levelo://app?vid=9d104de7-689d-44ee-8074-51b6a88e0fa0","ios":"levelo://app?vid=9d104de7-689d-44ee-8074-51b6a88e0fa0"},"vehicle_type_id":"4","last_reported":1744736963,"current_range_meters":14800,"station_id":"ce4bgt92rcd13ifvqcg0","pricing_plan_id":"cebpf4jnsgd1na2vs0mg"},{"bike_id":"65939060-bb8f-4a23-b34c-33e31f1b6027","system_id":"levelo_inurba_marseille","lat":43.2718,"lon":5.40989,"is_reserved":false,"is_disabled":false,"rental_uris":{"android":"levelo://app?vid=65939060-bb8f-4a23-b34c-33e31f1b6027","ios":"levelo://app?vid=65939060-bb8f-4a23-b34c-33e31f1b6027"},"vehicle_type_id":"4","last_reported":1744736963,"current_range_meters":14800,"station_id":"ce4bhl12rcd13ifvqgf0","pricing_plan_id":"cebpf4jnsgd1na2vs0mg"},{"bike_id":"fc4804c3-4047-46fc-a79c-e6c812be268a","system_id":"levelo_inurba_marseille","lat":43.3127,"lon":5.40177,"is_reserved":false,"is_disabled":false,"rental_uris":{"android":"levelo://app?vid=fc4804c3-4047-46fc-a79c-e6c812be268a","ios":"levelo://app?vid=fc4804c3-4047-46fc-a79c-e6c812be268a"},"vehicle_type_id":"4","last_reported":1744736963,"current_range_meters":14800,"station_id":"ce4bh092rcd13ifvqd30","pricing_plan_id":"cebpf4jnsgd1na2vs0mg"},{"bike_id":"ec461e80-ac87-4698-9b7e-f3311738fcc9","system_id":"levelo_inurba_marseille","lat":43.25512,"lon":5.37649,"is_reserved":false,"is_disabled":false,"rental_uris":{"android":"levelo://app?vid=ec461e80-ac87-4698-9b7e-f3311738fcc9","ios":"levelo://app?vid=ec461e80-ac87-4698-9b7e-f3311738fcc9"},"vehicle_type_id":"4","last_reported":1744736963,"current_range_meters":15200,"station_id":"ce4bhh12rcd13ifvqff0","pricing_plan_id":"cebpf4jnsgd1na2vs0mg"},{"bike_id":"d2d1d56f-ccc0-4500-b9b0-3587728293f2","system_id":"levelo_inurba_marseille","lat":43.29756,"lon":5.37093,"is_reserved":false,"is_disabled":false,"rental_uris":{"android":"levelo://app?vid=d2d1d56f-ccc0-4500-b9b0-3587728293f2","ios":"levelo://app?vid=d2d1d56f-ccc0-4500-b9b0-3587728293f2"},"vehicle_type_id":"4","last_reported":1744736963,"current_range_meters":16000,"station_id":"ce4bgop2rcd13ifvqc1g","pricing_plan_id":"cebpf4jnsgd1na2vs0mg"},{"bike_id":"4aef0fa6-a0da-4fa2-9099-9fa1ba81c16a","system_id":"levelo_inurba_marseille","lat":43.28196,"lon":5.4041,"is_reserved":false,"is_disabled":false,"rental_uris":{"android":"levelo://app?vid=4aef0fa6-a0da-4fa2-9099-9fa1ba81c16a","ios":"levelo://app?vid=4aef0fa6-a0da-4fa2-9099-9fa1ba81c16a"},"vehicle_type_id":"4","last_reported":1744736963,"current_range_meters":16000,"station_id":"","pricing_plan_id":"cebpf4jnsgd1na2vs0mg"},{"bike_id":"b5820607-95d8-44a5-a733-1df126f6391d","system_id":"levelo_inurba_marseille","lat":43.28864,"lon":5.35856,"is_reserved":false,"is_disabled":false,"rental_uris":{"android":"levelo://app?vid=b5820607-95d8-44a5-a733-1df126f6391d","ios":"levelo://app?vid=b5820607-95d8-44a5-a733-1df126f6391d"},"vehicle_type_id":"4","last_reported":1744736963,"current_range_meters":16000,"station_id":"ce4bhb12rcd13ifvqem0","pricing_plan_id":"cebpf4jnsgd1na2vs0mg"},{"bike_id":"b1f33893-7c07-476d-8327-0aa8e9dbaa66","system_id":"levelo_inurba_marseille","lat":43.32661,"lon":5.40995,"is_reserved":false,"is_disabled":false,"rental_uris":{"android":"levelo://app?vid=b1f33893-7c07-476d-8327-0aa8e9dbaa66","ios":"levelo://app?vid=b1f33893-7c07-476d-8327-0aa8e9dbaa66"},"vehicle_type_id":"4","last_reported":1744736963,"current_range_meters":16000,"station_id":"ce4bhpp2rcd13ifvqhgg","pricing_plan_id":"cebpf4jnsgd1na2vs0mg"},{"bike_id":"25732aa9-76d1-4c83-b5c5-f80b6e9319f7","system_id":"levelo_inurba_marseille","lat":43.29439,"lon":5.38609,"is_reserved":false,"is_disabled":false,"rental_uris":{"android":"levelo://app?vid=25732aa9-76d1-4c83-b5c5-f80b6e9319f7","ios":"levelo://app?vid=25732aa9-76d1-4c83-b5c5-f80b6e9319f7"},"vehicle_type_id":"4","last_reported":1744736963,"current_range_meters":16000,"station_id":"ce4bh2h2rcd13ifvqdh0","pricing_plan_id":"cebpf4jnsgd1na2vs0mg"},{"bike_id":"42151e4a-c882-454b-9431-fcfb7ad5e7b9","system_id":"levelo_inurba_marseille","lat":43.250703,"lon":5.389426,"is_reserved":false,"is_disabled":false,"rental_uris":{"android":"levelo://app?vid=42151e4a-c882-454b-9431-fcfb7ad5e7b9","ios":"levelo://app?vid=42151e4a-c882-454b-9431-fcfb7ad5e7b9"},"vehicle_type_id":"4","last_reported":1744736963,"current_range_meters":16400,"station_id":"ce4bhm12rcd13ifvqgkg","pricing_plan_id":"cebpf4jnsgd1na2vs0mg"},{"bike_id":"b0b19754-995f-4d4b-bc89-b97285ed65c0","system_id":"levelo_inurba_marseille","lat":43.25564,"lon":5.37602,"is_reserved":false,"is_disabled":false,"rental_uris":{"android":"levelo://app?vid=b0b19754-995f-4d4b-bc89-b97285ed65c0","ios":"levelo://app?vid=b0b19754-995f-4d4b-bc89-b97285ed65c0"},"vehicle_type_id":"4","last_reported":1744736963,"current_range_meters":16400,"station_id":"","pricing_plan_id":"cebpf4jnsgd1na2vs0mg"},{"bike_id":"90886ae5-6613-470e-895f-e35a5545d9d4","system_id":"levelo_inurba_marseille","lat":43.31473,"lon":5.39192,"is_reserved":false,"is_disabled":false,"rental_uris":{"android":"levelo://app?vid=90886ae5-6613-470e-895f-e35a5545d9d4","ios":"levelo://app?vid=90886ae5-6613-470e-895f-e35a5545d9d4"},"vehicle_type_id":"4","last_reported":1744736963,"current_range_meters":16400,"station_id":"","pricing_plan_id":"cebpf4jnsgd1na2vs0mg"},{"bike_id":"347489d0-7695-450f-bbf8-09dcc25fc55c","system_id":"levelo_inurba_marseille","lat":43.295207,"lon":5.39039,"is_reserved":false,"is_disabled":false,"rental_uris":{"android":"levelo://app?vid=347489d0-7695-450f-bbf8-09dcc25fc55c","ios":"levelo://app?vid=347489d0-7695-450f-bbf8-09dcc25fc55c"},"vehicle_type_id":"4","last_reported":1744736963,"current_range_meters":16400,"station_id":"ce4bh3p2rcd13ifvqdp0","pricing_plan_id":"cebpf4jnsgd1na2vs0mg"},{"bike_id":"c4d3e4d1-d765-40e9-b83f-93cec729f7b4","system_id":"levelo_inurba_marseille","lat":43.2903,"lon":5.38642,"is_reserved":false,"is_disabled":false,"rental_uris":{"android":"levelo://app?vid=c4d3e4d1-d765-40e9-b83f-93cec729f7b4","ios":"levelo://app?vid=c4d3e4d1-d765-40e9-b83f-93cec729f7b4"},"vehicle_type_id":"4","last_reported":1744736963,"current_range_meters":16400,"station_id":"ce4bh4p2rcd13ifvqe0g","pricing_plan_id":"cebpf4jnsgd1na2vs0mg"},{"bike_id":"26bfa1c6-1502-484c-93ae-c17f7d94f412","system_id":"levelo_inurba_marseille","lat":43.211912,"lon":5.350728,"is_reserved":false,"is_disabled":false,"rental_uris":{"android":"levelo://app?vid=26bfa1c6-1502-484c-93ae-c17f7d94f412","ios":"levelo://app?vid=26bfa1c6-1502-484c-93ae-c17f7d94f412"},"vehicle_type_id":"4","last_reported":1744736963,"current_range_meters":16800,"station_id":"st_cvj6sg6p6f1abm77japg","pricing_plan_id":"cebpf4jnsgd1na2vs0mg"},{"bike_id":"09651454-ba98-489f-84d4-7c0b820526b4","system_id":"levelo_inurba_marseille","lat":43.31227,"lon":5.36787,"is_reserved":false,"is_disabled":true,"rental_uris":{"android":"levelo://app?vid=09651454-ba98-489f-84d4-7c0b820526b4","ios":"levelo://app?vid=09651454-ba98-489f-84d4-7c0b820526b4"},"vehicle_type_id":"4","last_reported":1744736963,"current_range_meters":17200,"station_id":"","pricing_plan_id":"cebpf4jnsgd1na2vs0mg"},{"bike_id":"697ec578-3b6a-4699-afb3-7febaf81300e","system_id":"levelo_inurba_marseille","lat":43.28919,"lon":5.36378,"is_reserved":false,"is_disabled":false,"rental_uris":{"android":"levelo://app?vid=697ec578-3b6a-4699-afb3-7febaf81300e","ios":"levelo://app?vid=697ec578-3b6a-4699-afb3-7febaf81300e"},"vehicle_type_id":"4","last_reported":1744736963,"current_range_meters":16400,"station_id":"ce4bhc92rcd13ifvqetg","pricing_plan_id":"cebpf4jnsgd1na2vs0mg"},{"bike_id":"0183318b-ac2b-44c3-9dd3-f49727d8129b","system_id":"levelo_inurba_marseille","lat":43.30092,"lon":5.3909,"is_reserved":false,"is_disabled":false,"rental_uris":{"android":"levelo://app?vid=0183318b-ac2b-44c3-9dd3-f49727d8129b","ios":"levelo://app?vid=0183318b-ac2b-44c3-9dd3-f49727d8129b"},"vehicle_type_id":"4","last_reported":1744736963,"current_range_meters":16800,"station_id":"ce4bh192rcd13ifvqdb0","pricing_plan_id":"cebpf4jnsgd1na2vs0mg"},{"bike_id":"76997921-7cb0-41dd-92b4-b3f4388c728d","system_id":"levelo_inurba_marseille","lat":43.29413,"lon":5.38622,"is_reserved":false,"is_disabled":false,"rental_uris":{"android":"levelo://app?vid=76997921-7cb0-41dd-92b4-b3f4388c728d","ios":"levelo://app?vid=76997921-7cb0-41dd-92b4-b3f4388c728d"},"vehicle_type_id":"4","last_reported":1744736963,"current_range_meters":16800,"station_id":"ce4bh2h2rcd13ifvqdh0","pricing_plan_id":"cebpf4jnsgd1na2vs0mg"},{"bike_id":"94be5298-abd1-4415-8ed6-ff0bb777683c","system_id":"levelo_inurba_marseille","lat":43.2927,"lon":5.38429,"is_reserved":false,"is_disabled":false,"rental_uris":{"android":"levelo://app?vid=94be5298-abd1-4415-8ed6-ff0bb777683c","ios":"levelo://app?vid=94be5298-abd1-4415-8ed6-ff0bb777683c"},"vehicle_type_id":"4","last_reported":1744736963,"current_range_meters":16800,"station_id":"ce4bh692rcd13ifvqea0","pricing_plan_id":"cebpf4jnsgd1na2vs0mg"},{"bike_id":"f1840da1-5753-47c4-9727-509e6fd5293c","system_id":"levelo_inurba_marseille","lat":43.28103,"lon":5.37839,"is_reserved":false,"is_disabled":false,"rental_uris":{"android":"levelo://app?vid=f1840da1-5753-47c4-9727-509e6fd5293c","ios":"levelo://app?vid=f1840da1-5753-47c4-9727-509e6fd5293c"},"vehicle_type_id":"4","last_reported":1744736963,"current_range_meters":17200,"station_id":"ce4bha12rcd13ifvqee0","pricing_plan_id":"cebpf4jnsgd1na2vs0mg"},{"bike_id":"c6a86ca2-e5ba-41af-8e16-7d82e4e47796","system_id":"levelo_inurba_marseille","lat":43.2743,"lon":5.39419,"is_reserved":false,"is_disabled":false,"rental_uris":{"android":"levelo://app?vid=c6a86ca2-e5ba-41af-8e16-7d82e4e47796","ios":"levelo://app?vid=c6a86ca2-e5ba-41af-8e16-7d82e4e47796"},"vehicle_type_id":"4","last_reported":1744736963,"current_range_meters":17200,"station_id":"ce4bhdp2rcd13ifvqf20","pricing_plan_id":"cebpf4jnsgd1na2vs0mg"},{"bike_id":"068c5c33-af44-4fdf-abf4-aa588672c192","system_id":"levelo_inurba_marseille","lat":43.30133,"lon":5.38781,"is_reserved":false,"is_disabled":false,"rental_uris":{"android":"levelo://app?vid=068c5c33-af44-4fdf-abf4-aa588672c192","ios":"levelo://app?vid=068c5c33-af44-4fdf-abf4-aa588672c192"},"vehicle_type_id":"4","last_reported":1744736963,"current_range_meters":17200,"station_id":"ce4bghh2rcd13ifvqb60","pricing_plan_id":"cebpf4jnsgd1na2vs0mg"},{"bike_id":"61d3d173-4bd3-4c3f-a27d-488b174237a0","system_id":"levelo_inurba_marseille","lat":43.28867,"lon":5.35844,"is_reserved":false,"is_disabled":false,"rental_uris":{"android":"levelo://app?vid=61d3d173-4bd3-4c3f-a27d-488b174237a0","ios":"levelo://app?vid=61d3d173-4bd3-4c3f-a27d-488b174237a0"},"vehicle_type_id":"4","last_reported":1744736963,"current_range_meters":17200,"station_id":"ce4bhb12rcd13ifvqem0","pricing_plan_id":"cebpf4jnsgd1na2vs0mg"},{"bike_id":"d726a6e8-2ac8-48d3-ad39-5764a4dee1a4","system_id":"levelo_inurba_marseille","lat":43.2835,"lon":5.38102,"is_reserved":false,"is_disabled":false,"rental_uris":{"android":"levelo://app?vid=d726a6e8-2ac8-48d3-ad39-5764a4dee1a4","ios":"levelo://app?vid=d726a6e8-2ac8-48d3-ad39-5764a4dee1a4"},"vehicle_type_id":"4","last_reported":1744736963,"current_range_meters":17200,"station_id":"ce4bh412rcd13ifvqdr0","pricing_plan_id":"cebpf4jnsgd1na2vs0mg"},{"bike_id":"6f23923f-fc67-460a-b0b8-5119c016d5b0","system_id":"levelo_inurba_marseille","lat":43.269382,"lon":5.389198,"is_reserved":false,"is_disabled":true,"rental_uris":{"android":"levelo://app?vid=6f23923f-fc67-460a-b0b8-5119c016d5b0","ios":"levelo://app?vid=6f23923f-fc67-460a-b0b8-5119c016d5b0"},"vehicle_type_id":"4","last_reported":1744736963,"current_range_meters":17200,"station_id":"ce4bhhh2rcd13ifvqfl0","pricing_plan_id":"cebpf4jnsgd1na2vs0mg"},{"bike_id":"857ff0ed-8bc6-43b2-87aa-4266c1d75649","system_id":"levelo_inurba_marseille","lat":43.310729,"lon":5.400949,"is_reserved":false,"is_disabled":false,"rental_uris":{"android":"levelo://app?vid=857ff0ed-8bc6-43b2-87aa-4266c1d75649","ios":"levelo://app?vid=857ff0ed-8bc6-43b2-87aa-4266c1d75649"},"vehicle_type_id":"4","last_reported":1744736963,"current_range_meters":17200,"station_id":"","pricing_plan_id":"cebpf4jnsgd1na2vs0mg"},{"bike_id":"9a982eba-101f-4ec5-ad14-46567dc7f37e","system_id":"levelo_inurba_marseille","lat":43.28343,"lon":5.38104,"is_reserved":false,"is_disabled":false,"rental_uris":{"android":"levelo://app?vid=9a982eba-101f-4ec5-ad14-46567dc7f37e","ios":"levelo://app?vid=9a982eba-101f-4ec5-ad14-46567dc7f37e"},"vehicle_type_id":"4","last_reported":1744736963,"current_range_meters":17200,"station_id":"ce4bh412rcd13ifvqdr0","pricing_plan_id":"cebpf4jnsgd1na2vs0mg"},{"bike_id":"a0ddb0a5-f7f0-4281-aa27-9e82747cc573","system_id":"levelo_inurba_marseille","lat":43.33759,"lon":5.37484,"is_reserved":false,"is_disabled":false,"rental_uris":{"android":"levelo://app?vid=a0ddb0a5-f7f0-4281-aa27-9e82747cc573","ios":"levelo://app?vid=a0ddb0a5-f7f0-4281-aa27-9e82747cc573"},"vehicle_type_id":"4","last_reported":1744736963,"current_range_meters":17200,"station_id":"","pricing_plan_id":"cebpf4jnsgd1na2vs0mg"},{"bike_id":"9ac9230b-6509-4fd6-99e3-cb13a7906542","system_id":"levelo_inurba_marseille","lat":43.32364,"lon":5.38899,"is_reserved":false,"is_disabled":false,"rental_uris":{"android":"levelo://app?vid=9ac9230b-6509-4fd6-99e3-cb13a7906542","ios":"levelo://app?vid=9ac9230b-6509-4fd6-99e3-cb13a7906542"},"vehicle_type_id":"4","last_reported":1744736963,"current_range_meters":17600,"station_id":"ce4bhqp2rcd13ifvqhog","pricing_plan_id":"cebpf4jnsgd1na2vs0mg"},{"bike_id":"889e5f0e-836f-416e-9071-263d48ad5753","system_id":"levelo_inurba_marseille","lat":43.29537,"lon":5.385404,"is_reserved":false,"is_disabled":false,"rental_uris":{"android":"levelo://app?vid=889e5f0e-836f-416e-9071-263d48ad5753","ios":"levelo://app?vid=889e5f0e-836f-416e-9071-263d48ad5753"},"vehicle_type_id":"4","last_reported":1744736963,"current_range_meters":17600,"station_id":"ce4bgih2rcd13ifvqba0","pricing_plan_id":"cebpf4jnsgd1na2vs0mg"},{"bike_id":"834ec9e1-9d50-4bee-85ae-d1db335c55e5","system_id":"levelo_inurba_marseille","lat":43.31814,"lon":5.36809,"is_reserved":false,"is_disabled":false,"rental_uris":{"android":"levelo://app?vid=834ec9e1-9d50-4bee-85ae-d1db335c55e5","ios":"levelo://app?vid=834ec9e1-9d50-4bee-85ae-d1db335c55e5"},"vehicle_type_id":"4","last_reported":1744736963,"current_range_meters":17600,"station_id":"","pricing_plan_id":"cebpf4jnsgd1na2vs0mg"},{"bike_id":"4c470df7-4cbb-413f-b587-893637313088","system_id":"levelo_inurba_marseille","lat":43.25127,"lon":5.40353,"is_reserved":false,"is_disabled":false,"rental_uris":{"android":"levelo://app?vid=4c470df7-4cbb-413f-b587-893637313088","ios":"levelo://app?vid=4c470df7-4cbb-413f-b587-893637313088"},"vehicle_type_id":"4","last_reported":1744736963,"current_range_meters":17600,"station_id":"ce4bhlh2rcd13ifvqgig","pricing_plan_id":"cebpf4jnsgd1na2vs0mg"},{"bike_id":"15839d76-0879-42d7-9bf8-b60f30413855","system_id":"levelo_inurba_marseille","lat":43.29308,"lon":5.3684,"is_reserved":false,"is_disabled":true,"rental_uris":{"android":"levelo://app?vid=15839d76-0879-42d7-9bf8-b60f30413855","ios":"levelo://app?vid=15839d76-0879-42d7-9bf8-b60f30413855"},"vehicle_type_id":"4","last_reported":1744736963,"current_range_meters":17600,"station_id":"ce4bhbp2rcd13ifvqesg","pricing_plan_id":"cebpf4jnsgd1na2vs0mg"},{"bike_id":"e3ed4a93-c911-417d-81cb-cade73dee0d7","system_id":"levelo_inurba_marseille","lat":43.284993,"lon":5.399101,"is_reserved":false,"is_disabled":false,"rental_uris":{"android":"levelo://app?vid=e3ed4a93-c911-417d-81cb-cade73dee0d7","ios":"levelo://app?vid=e3ed4a93-c911-417d-81cb-cade73dee0d7"},"vehicle_type_id":"4","last_reported":1744736963,"current_range_meters":18000,"station_id":"ce4bh3h2rcd13ifvqdo0","pricing_plan_id":"cebpf4jnsgd1na2vs0mg"},{"bike_id":"7d84d777-9b3f-44d6-a9f5-ba08bd61603d","system_id":"levelo_inurba_marseille","lat":43.282748,"lon":5.350674,"is_reserved":false,"is_disabled":false,"rental_uris":{"android":"levelo://app?vid=7d84d777-9b3f-44d6-a9f5-ba08bd61603d","ios":"levelo://app?vid=7d84d777-9b3f-44d6-a9f5-ba08bd61603d"},"vehicle_type_id":"4","last_reported":1744736963,"current_range_meters":18000,"station_id":"ce4bhbp2rcd13ifvqerg","pricing_plan_id":"cebpf4jnsgd1na2vs0mg"},{"bike_id":"e7828c41-ab95-44dd-849f-454bc7d3bd55","system_id":"levelo_inurba_marseille","lat":43.29851,"lon":5.36237,"is_reserved":false,"is_disabled":false,"rental_uris":{"android":"levelo://app?vid=e7828c41-ab95-44dd-849f-454bc7d3bd55","ios":"levelo://app?vid=e7828c41-ab95-44dd-849f-454bc7d3bd55"},"vehicle_type_id":"4","last_reported":1744736963,"current_range_meters":18000,"station_id":"ce4bgpp2rcd13ifvqc3g","pricing_plan_id":"cebpf4jnsgd1na2vs0mg"},{"bike_id":"2ccd48fa-7f01-4158-b618-6e76c3b53125","system_id":"levelo_inurba_marseille","lat":43.29256,"lon":5.37654,"is_reserved":false,"is_disabled":false,"rental_uris":{"android":"levelo://app?vid=2ccd48fa-7f01-4158-b618-6e76c3b53125","ios":"levelo://app?vid=2ccd48fa-7f01-4158-b618-6e76c3b53125"},"vehicle_type_id":"4","last_reported":1744736963,"current_range_meters":18000,"station_id":"ce4bgi12rcd13ifvqb80","pricing_plan_id":"cebpf4jnsgd1na2vs0mg"},{"bike_id":"73e0d5a8-d445-496b-a332-4bcd2870c559","system_id":"levelo_inurba_marseille","lat":43.28719,"lon":5.37932,"is_reserved":false,"is_disabled":false,"rental_uris":{"android":"levelo://app?vid=73e0d5a8-d445-496b-a332-4bcd2870c559","ios":"levelo://app?vid=73e0d5a8-d445-496b-a332-4bcd2870c559"},"vehicle_type_id":"4","last_reported":1744736963,"current_range_meters":17600,"station_id":"ce4bh9p2rcd13ifvqec0","pricing_plan_id":"cebpf4jnsgd1na2vs0mg"},{"bike_id":"e51380e7-ba33-40dd-9d14-507f733c6b69","system_id":"levelo_inurba_marseille","lat":43.29009,"lon":5.35607,"is_reserved":false,"is_disabled":false,"rental_uris":{"android":"levelo://app?vid=e51380e7-ba33-40dd-9d14-507f733c6b69","ios":"levelo://app?vid=e51380e7-ba33-40dd-9d14-507f733c6b69"},"vehicle_type_id":"4","last_reported":1744736963,"current_range_meters":18000,"station_id":"ce4bhb92rcd13ifvqen0","pricing_plan_id":"cebpf4jnsgd1na2vs0mg"},{"bike_id":"ec9e8cfb-561b-4103-a4fb-0ef7e4091331","system_id":"levelo_inurba_marseille","lat":43.24082,"lon":5.37753,"is_reserved":false,"is_disabled":false,"rental_uris":{"android":"levelo://app?vid=ec9e8cfb-561b-4103-a4fb-0ef7e4091331","ios":"levelo://app?vid=ec9e8cfb-561b-4103-a4fb-0ef7e4091331"},"vehicle_type_id":"4","last_reported":1744736963,"current_range_meters":18000,"station_id":"ce4bhnp2rcd13ifvqgvg","pricing_plan_id":"cebpf4jnsgd1na2vs0mg"},{"bike_id":"8cbf1e10-5921-49c9-9564-8aeb8019857b","system_id":"levelo_inurba_marseille","lat":43.29031,"lon":5.38632,"is_reserved":false,"is_disabled":false,"rental_uris":{"android":"levelo://app?vid=8cbf1e10-5921-49c9-9564-8aeb8019857b","ios":"levelo://app?vid=8cbf1e10-5921-49c9-9564-8aeb8019857b"},"vehicle_type_id":"4","last_reported":1744736963,"current_range_meters":18800,"station_id":"ce4bh4p2rcd13ifvqe0g","pricing_plan_id":"cebpf4jnsgd1na2vs0mg"},{"bike_id":"88ec0566-61a4-4bad-a5d2-9f16a664dd92","system_id":"levelo_inurba_marseille","lat":43.31492,"lon":5.37305,"is_reserved":false,"is_disabled":false,"rental_uris":{"android":"levelo://app?vid=88ec0566-61a4-4bad-a5d2-9f16a664dd92","ios":"levelo://app?vid=88ec0566-61a4-4bad-a5d2-9f16a664dd92"},"vehicle_type_id":"4","last_reported":1744736963,"current_range_meters":18800,"station_id":"ce4bgt12rcd13ifvqcd0","pricing_plan_id":"cebpf4jnsgd1na2vs0mg"},{"bike_id":"2650b323-a0bc-4e98-a5c7-4daf657ec63f","system_id":"levelo_inurba_marseille","lat":43.310611,"lon":5.383479,"is_reserved":false,"is_disabled":false,"rental_uris":{"android":"levelo://app?vid=2650b323-a0bc-4e98-a5c7-4daf657ec63f","ios":"levelo://app?vid=2650b323-a0bc-4e98-a5c7-4daf657ec63f"},"vehicle_type_id":"4","last_reported":1744736963,"current_range_meters":18800,"station_id":"ce4bgj92rcd13ifvqbd0","pricing_plan_id":"cebpf4jnsgd1na2vs0mg"},{"bike_id":"c67225f5-144a-47c2-876d-e898008dc8c6","system_id":"levelo_inurba_marseille","lat":43.311364,"lon":5.382456,"is_reserved":false,"is_disabled":false,"rental_uris":{"android":"levelo://app?vid=c67225f5-144a-47c2-876d-e898008dc8c6","ios":"levelo://app?vid=c67225f5-144a-47c2-876d-e898008dc8c6"},"vehicle_type_id":"4","last_reported":1744736963,"current_range_meters":18800,"station_id":"ce4bgv12rcd13ifvqcp0","pricing_plan_id":"cebpf4jnsgd1na2vs0mg"},{"bike_id":"0e0d4028-40e0-486f-89d8-0761eb5453b3","system_id":"levelo_inurba_marseille","lat":43.29258,"lon":5.40905,"is_reserved":false,"is_disabled":false,"rental_uris":{"android":"levelo://app?vid=0e0d4028-40e0-486f-89d8-0761eb5453b3","ios":"levelo://app?vid=0e0d4028-40e0-486f-89d8-0761eb5453b3"},"vehicle_type_id":"4","last_reported":1744736963,"current_range_meters":18800,"station_id":"ce4bh192rcd13ifvqdc0","pricing_plan_id":"cebpf4jnsgd1na2vs0mg"},{"bike_id":"6355afd8-1dd7-47b5-9cc9-180db1822941","system_id":"levelo_inurba_marseille","lat":43.29784,"lon":5.40406,"is_reserved":false,"is_disabled":false,"rental_uris":{"android":"levelo://app?vid=6355afd8-1dd7-47b5-9cc9-180db1822941","ios":"levelo://app?vid=6355afd8-1dd7-47b5-9cc9-180db1822941"},"vehicle_type_id":"4","last_reported":1744736963,"current_range_meters":18800,"station_id":"ce4bh112rcd13ifvqd90","pricing_plan_id":"cebpf4jnsgd1na2vs0mg"},{"bike_id":"4cc60183-f086-4946-9e35-7a75728daa73","system_id":"levelo_inurba_marseille","lat":43.25724,"lon":5.38665,"is_reserved":false,"is_disabled":false,"rental_uris":{"android":"levelo://app?vid=4cc60183-f086-4946-9e35-7a75728daa73","ios":"levelo://app?vid=4cc60183-f086-4946-9e35-7a75728daa73"},"vehicle_type_id":"4","last_reported":1744736963,"current_range_meters":18800,"station_id":"","pricing_plan_id":"cebpf4jnsgd1na2vs0mg"},{"bike_id":"f556879c-5c9c-404c-bfda-1bbcb0880b98","system_id":"levelo_inurba_marseille","lat":43.29534,"lon":5.37504,"is_reserved":false,"is_disabled":true,"rental_uris":{"android":"levelo://app?vid=f556879c-5c9c-404c-bfda-1bbcb0880b98","ios":"levelo://app?vid=f556879c-5c9c-404c-bfda-1bbcb0880b98"},"vehicle_type_id":"4","last_reported":1744736963,"current_range_meters":19200,"station_id":"ce4bgkp2rcd13ifvqbmg","pricing_plan_id":"cebpf4jnsgd1na2vs0mg"},{"bike_id":"6bf5a380-400e-4cd6-bc1e-356afac9ee45","system_id":"levelo_inurba_marseille","lat":43.241676,"lon":5.364008,"is_reserved":false,"is_disabled":false,"rental_uris":{"android":"levelo://app?vid=6bf5a380-400e-4cd6-bc1e-356afac9ee45","ios":"levelo://app?vid=6bf5a380-400e-4cd6-bc1e-356afac9ee45"},"vehicle_type_id":"4","last_reported":1744736963,"current_range_meters":19200,"station_id":"cpo36qri1sfpv3e86is0","pricing_plan_id":"cebpf4jnsgd1na2vs0mg"},{"bike_id":"4c0ede51-6b22-44f8-8575-b86906a20779","system_id":"levelo_inurba_marseille","lat":43.21757,"lon":5.346,"is_reserved":false,"is_disabled":false,"rental_uris":{"android":"levelo://app?vid=4c0ede51-6b22-44f8-8575-b86906a20779","ios":"levelo://app?vid=4c0ede51-6b22-44f8-8575-b86906a20779"},"vehicle_type_id":"4","last_reported":1744736963,"current_range_meters":19200,"station_id":"st_cvj6r9ubvosntc0bgbag","pricing_plan_id":"cebpf4jnsgd1na2vs0mg"},{"bike_id":"45088d27-c21a-4398-8106-242c037ff3f6","system_id":"levelo_inurba_marseille","lat":43.298645,"lon":5.368515,"is_reserved":false,"is_disabled":false,"rental_uris":{"android":"levelo://app?vid=45088d27-c21a-4398-8106-242c037ff3f6","ios":"levelo://app?vid=45088d27-c21a-4398-8106-242c037ff3f6"},"vehicle_type_id":"4","last_reported":1744736963,"current_range_meters":19200,"station_id":"ce4bgop2rcd13ifvqc1g","pricing_plan_id":"cebpf4jnsgd1na2vs0mg"},{"bike_id":"26774dde-26a5-41d6-bf6b-a1a8006368bd","system_id":"levelo_inurba_marseille","lat":43.28366,"lon":5.38636,"is_reserved":false,"is_disabled":false,"rental_uris":{"android":"levelo://app?vid=26774dde-26a5-41d6-bf6b-a1a8006368bd","ios":"levelo://app?vid=26774dde-26a5-41d6-bf6b-a1a8006368bd"},"vehicle_type_id":"4","last_reported":1744736963,"current_range_meters":19200,"station_id":"ce4bh492rcd13ifvqdvg","pricing_plan_id":"cebpf4jnsgd1na2vs0mg"},{"bike_id":"ae7914d3-48e3-4dec-8263-630ae93a81c2","system_id":"levelo_inurba_marseille","lat":43.28445,"lon":5.39199,"is_reserved":false,"is_disabled":false,"rental_uris":{"android":"levelo://app?vid=ae7914d3-48e3-4dec-8263-630ae93a81c2","ios":"levelo://app?vid=ae7914d3-48e3-4dec-8263-630ae93a81c2"},"vehicle_type_id":"4","last_reported":1744736963,"current_range_meters":19200,"station_id":"ce4bhoh2rcd13ifvqh5g","pricing_plan_id":"cebpf4jnsgd1na2vs0mg"},{"bike_id":"fa8b5d88-c56b-4501-99c1-1b5a6dfd1f66","system_id":"levelo_inurba_marseille","lat":43.21193,"lon":5.35068,"is_reserved":false,"is_disabled":false,"rental_uris":{"android":"levelo://app?vid=fa8b5d88-c56b-4501-99c1-1b5a6dfd1f66","ios":"levelo://app?vid=fa8b5d88-c56b-4501-99c1-1b5a6dfd1f66"},"vehicle_type_id":"4","last_reported":1744736963,"current_range_meters":19200,"station_id":"st_cvj6sg6p6f1abm77japg","pricing_plan_id":"cebpf4jnsgd1na2vs0mg"},{"bike_id":"3bc592a3-a901-422b-94b8-d158d52287a8","system_id":"levelo_inurba_marseille","lat":43.2925,"lon":5.40897,"is_reserved":false,"is_disabled":false,"rental_uris":{"android":"levelo://app?vid=3bc592a3-a901-422b-94b8-d158d52287a8","ios":"levelo://app?vid=3bc592a3-a901-422b-94b8-d158d52287a8"},"vehicle_type_id":"4","last_reported":1744736963,"current_range_meters":19600,"station_id":"ce4bh192rcd13ifvqdc0","pricing_plan_id":"cebpf4jnsgd1na2vs0mg"},{"bike_id":"922350e3-4e51-4df1-92bd-6d6f5f25bba9","system_id":"levelo_inurba_marseille","lat":43.32337,"lon":5.40627,"is_reserved":false,"is_disabled":false,"rental_uris":{"android":"levelo://app?vid=922350e3-4e51-4df1-92bd-6d6f5f25bba9","ios":"levelo://app?vid=922350e3-4e51-4df1-92bd-6d6f5f25bba9"},"vehicle_type_id":"4","last_reported":1744736963,"current_range_meters":19600,"station_id":"ce4bhq92rcd13ifvqhjg","pricing_plan_id":"cebpf4jnsgd1na2vs0mg"},{"bike_id":"34b07e5d-f98f-477a-88dc-9238ad87377b","system_id":"levelo_inurba_marseille","lat":43.29257,"lon":5.38447,"is_reserved":false,"is_disabled":false,"rental_uris":{"android":"levelo://app?vid=34b07e5d-f98f-477a-88dc-9238ad87377b","ios":"levelo://app?vid=34b07e5d-f98f-477a-88dc-9238ad87377b"},"vehicle_type_id":"4","last_reported":1744736963,"current_range_meters":19600,"station_id":"ce4bh692rcd13ifvqea0","pricing_plan_id":"cebpf4jnsgd1na2vs0mg"},{"bike_id":"dbb4b18d-02c6-4758-b1d9-5a9323750e52","system_id":"levelo_inurba_marseille","lat":43.29424,"lon":5.39752,"is_reserved":false,"is_disabled":false,"rental_uris":{"android":"levelo://app?vid=dbb4b18d-02c6-4758-b1d9-5a9323750e52","ios":"levelo://app?vid=dbb4b18d-02c6-4758-b1d9-5a9323750e52"},"vehicle_type_id":"4","last_reported":1744736963,"current_range_meters":19200,"station_id":"ce4bh3h2rcd13ifvqdo0","pricing_plan_id":"cebpf4jnsgd1na2vs0mg"},{"bike_id":"7cb8d864-99ff-49f1-8b11-a7a841927441","system_id":"levelo_inurba_marseille","lat":43.29787,"lon":5.38133,"is_reserved":false,"is_disabled":false,"rental_uris":{"android":"levelo://app?vid=7cb8d864-99ff-49f1-8b11-a7a841927441","ios":"levelo://app?vid=7cb8d864-99ff-49f1-8b11-a7a841927441"},"vehicle_type_id":"4","last_reported":1744736963,"current_range_meters":19600,"station_id":"ce4bgip2rcd13ifvqbb0","pricing_plan_id":"cebpf4jnsgd1na2vs0mg"},{"bike_id":"dce5e8ea-9442-4875-9be3-e585d2d3c5c4","system_id":"levelo_inurba_marseille","lat":43.28626,"lon":5.35101,"is_reserved":false,"is_disabled":false,"rental_uris":{"android":"levelo://app?vid=dce5e8ea-9442-4875-9be3-e585d2d3c5c4","ios":"levelo://app?vid=dce5e8ea-9442-4875-9be3-e585d2d3c5c4"},"vehicle_type_id":"4","last_reported":1744736963,"current_range_meters":19600,"station_id":"ce4bhch2rcd13ifvqeug","pricing_plan_id":"cebpf4jnsgd1na2vs0mg"},{"bike_id":"bac8cada-45d8-42a0-871d-8bfddf55dd77","system_id":"levelo_inurba_marseille","lat":43.28466,"lon":5.35885,"is_reserved":false,"is_disabled":true,"rental_uris":{"android":"levelo://app?vid=bac8cada-45d8-42a0-871d-8bfddf55dd77","ios":"levelo://app?vid=bac8cada-45d8-42a0-871d-8bfddf55dd77"},"vehicle_type_id":"4","last_reported":1744736963,"current_range_meters":20000,"station_id":"ce4bhah2rcd13ifvqei0","pricing_plan_id":"cebpf4jnsgd1na2vs0mg"},{"bike_id":"bd8fdd01-d86e-4d7a-a8cc-e8853d2e52d7","system_id":"levelo_inurba_marseille","lat":43.29432,"lon":5.38623,"is_reserved":false,"is_disabled":false,"rental_uris":{"android":"levelo://app?vid=bd8fdd01-d86e-4d7a-a8cc-e8853d2e52d7","ios":"levelo://app?vid=bd8fdd01-d86e-4d7a-a8cc-e8853d2e52d7"},"vehicle_type_id":"4","last_reported":1744736963,"current_range_meters":20000,"station_id":"ce4bh2h2rcd13ifvqdh0","pricing_plan_id":"cebpf4jnsgd1na2vs0mg"},{"bike_id":"e75e5d8b-d990-4e6e-854f-3fe978336162","system_id":"levelo_inurba_marseille","lat":43.284364,"lon":5.391912,"is_reserved":false,"is_disabled":false,"rental_uris":{"android":"levelo://app?vid=e75e5d8b-d990-4e6e-854f-3fe978336162","ios":"levelo://app?vid=e75e5d8b-d990-4e6e-854f-3fe978336162"},"vehicle_type_id":"4","last_reported":1744736963,"current_range_meters":20000,"station_id":"ce4bhoh2rcd13ifvqh5g","pricing_plan_id":"cebpf4jnsgd1na2vs0mg"},{"bike_id":"174c2c9b-2f0a-47fb-998b-9f7260f2f135","system_id":"levelo_inurba_marseille","lat":43.30727,"lon":5.42436,"is_reserved":false,"is_disabled":false,"rental_uris":{"android":"levelo://app?vid=174c2c9b-2f0a-47fb-998b-9f7260f2f135","ios":"levelo://app?vid=174c2c9b-2f0a-47fb-998b-9f7260f2f135"},"vehicle_type_id":"4","last_reported":1744736963,"current_range_meters":20000,"station_id":"st_cvj6ca6bvosntc0bfgr0","pricing_plan_id":"cebpf4jnsgd1na2vs0mg"},{"bike_id":"ed97a721-7aee-47b1-b49b-a65ade99fd09","system_id":"levelo_inurba_marseille","lat":43.3431,"lon":5.37795,"is_reserved":false,"is_disabled":false,"rental_uris":{"android":"levelo://app?vid=ed97a721-7aee-47b1-b49b-a65ade99fd09","ios":"levelo://app?vid=ed97a721-7aee-47b1-b49b-a65ade99fd09"},"vehicle_type_id":"4","last_reported":1744736963,"current_range_meters":20000,"station_id":"","pricing_plan_id":"cebpf4jnsgd1na2vs0mg"},{"bike_id":"f905bb2d-cb7a-4b53-9b18-901af21dc8bc","system_id":"levelo_inurba_marseille","lat":43.30094,"lon":5.39097,"is_reserved":false,"is_disabled":false,"rental_uris":{"android":"levelo://app?vid=f905bb2d-cb7a-4b53-9b18-901af21dc8bc","ios":"levelo://app?vid=f905bb2d-cb7a-4b53-9b18-901af21dc8bc"},"vehicle_type_id":"4","last_reported":1744736963,"current_range_meters":20000,"station_id":"ce4bh192rcd13ifvqdb0","pricing_plan_id":"cebpf4jnsgd1na2vs0mg"},{"bike_id":"b082caf9-1aa9-41e8-8081-4da72e64e8e4","system_id":"levelo_inurba_marseille","lat":43.30933,"lon":5.40143,"is_reserved":false,"is_disabled":true,"rental_uris":{"android":"levelo://app?vid=b082caf9-1aa9-41e8-8081-4da72e64e8e4","ios":"levelo://app?vid=b082caf9-1aa9-41e8-8081-4da72e64e8e4"},"vehicle_type_id":"4","last_reported":1744736963,"current_range_meters":20000,"station_id":"ce4bgvp2rcd13ifvqct0","pricing_plan_id":"cebpf4jnsgd1na2vs0mg"},{"bike_id":"328dcdc0-b89c-46a7-9f7a-bdb20c7dd3e2","system_id":"levelo_inurba_marseille","lat":43.28109,"lon":5.37839,"is_reserved":false,"is_disabled":false,"rental_uris":{"android":"levelo://app?vid=328dcdc0-b89c-46a7-9f7a-bdb20c7dd3e2","ios":"levelo://app?vid=328dcdc0-b89c-46a7-9f7a-bdb20c7dd3e2"},"vehicle_type_id":"4","last_reported":1744736963,"current_range_meters":20000,"station_id":"ce4bha12rcd13ifvqee0","pricing_plan_id":"cebpf4jnsgd1na2vs0mg"},{"bike_id":"463870fe-4d22-467f-be97-fb8a1405b357","system_id":"levelo_inurba_marseille","lat":43.26677,"lon":5.38266,"is_reserved":false,"is_disabled":false,"rental_uris":{"android":"levelo://app?vid=463870fe-4d22-467f-be97-fb8a1405b357","ios":"levelo://app?vid=463870fe-4d22-467f-be97-fb8a1405b357"},