{"last_updated":1762031232,"ttl":60,"version":"2.2","data":{"bikes":[{"bike_id":"688e0991-23bb-4f67-a97d-b9bb7704a66a","system_id":"levelo_inurba_marseille","lat":43.292603,"lon":5.391073,"is_reserved":false,"is_disabled":false,"rental_uris":{"android":"levelo://app?vid=688e0991-23bb-4f67-a97d-b9bb7704a66a","ios":"levelo://app?vid=688e0991-23bb-4f67-a97d-b9bb7704a66a"},"vehicle_type_id":"4","last_reported":1762031232,"current_range_meters":2800,"station_id":"","pricing_plan_id":"cebpf4jnsgd1na2vs0mg"},{"bike_id":"d3dccf69-44a1-4624-b9e9-503f97267acd","system_id":"levelo_inurba_marseille","lat":43.269403,"lon":5.402534,"is_reserved":false,"is_disabled":false,"rental_uris":{"android":"levelo://app?vid=d3dccf69-44a1-4624-b9e9-503f97267acd","ios":"levelo://app?vid=d3dccf69-44a1-4624-b9e9-503f97267acd"},"vehicle_type_id":"4","last_reported":1762031232,"current_range_meters":3200,"station_id":"","pricing_plan_id":"cebpf4jnsgd1na2vs0mg"},{"bike_id":"82a1362f-b61a-46be-a663-3fcb37750770","system_id":"levelo_inurba_marseille","lat":43.28492,"lon":5.48378,"is_reserved":false,"is_disabled":false,"rental_uris":{"android":"levelo://app?vid=82a1362f-b61a-46be-a663-3fcb37750770","ios":"levelo://app?vid=82a1362f-b61a-46be-a663-3fcb37750770"},"vehicle_type_id":"4","last_reported":1762031232,"current_range_meters":3200,"station_id":"st_d3svhcjqgbts73a3dn0g","pricing_plan_id":"cebpf4jnsgd1na2vs0mg"},{"bike_id":"65dc1e9f-8320-4bf5-87e6-6d425b9e967d","system_id":"levelo_inurba_marseille","lat":43.31342,"lon":5.36721,"is_reserved":false,"is_disabled":false,"rental_uris":{"android":"levelo://app?vid=65dc1e9f-8320-4bf5-87e6-6d425b9e967d","ios":"levelo://app?vid=65dc1e9f-8320-4bf5-87e6-6d425b9e967d"},"vehicle_type_id":"4","last_reported":1762031232,"current_range_meters":3200,"station_id":"ce4bgr92rcd13ifvqc6g","pricing_plan_id":"cebpf4jnsgd1na2vs0mg"},{"bike_id":"453d71b3-e422-445d-b2a0-8508dc956831","system_id":"levelo_inurba_marseille","lat":43.27647,"lon":5.38943,"is_reserved":false,"is_disabled":false,"rental_uris":{"android":"levelo://app?vid=453d71b3-e422-445d-b2a0-8508dc956831","ios":"levelo://app?vid=453d71b3-e422-445d-b2a0-8508dc956831"},"vehicle_type_id":"4","last_reported":1762031232,"current_range_meters":3600,"station_id":"","pricing_plan_id":"cebpf4jnsgd1na2vs0mg"},{"bike_id":"49674421-b2af-4baa-ba7e-db0f229500a4","system_id":"levelo_inurba_marseille","lat":43.30003,"lon":5.39899,"is_reserved":false,"is_disabled":false,"rental_uris":{"android":"levelo://app?vid=49674421-b2af-4baa-ba7e-db0f229500a4","ios":"levelo://app?vid=49674421-b2af-4baa-ba7e-db0f229500a4"},"vehicle_type_id":"4","last_reported":1762031232,"current_range_meters":4000,"station_id":"","pricing_plan_id":"cebpf4jnsgd1na2vs0mg"},{"bike_id":"5404fa4f-f64c-4534-9493-c2000600803a","system_id":"levelo_inurba_marseille","lat":43.30207,"lon":5.39456,"is_reserved":false,"is_disabled":false,"rental_uris":{"android":"levelo://app?vid=5404fa4f-f64c-4534-9493-c2000600803a","ios":"levelo://app?vid=5404fa4f-f64c-4534-9493-c2000600803a"},"vehicle_type_id":"4","last_reported":1762031232,"current_range_meters":4000,"station_id":"ce4bh0p2rcd13ifvqd70","pricing_plan_id":"cebpf4jnsgd1na2vs0mg"},{"bike_id":"a18dbf48-2c4d-4fa4-a4c5-c9871d73c9a0","system_id":"levelo_inurba_marseille","lat":43.301994,"lon":5.383462,"is_reserved":false,"is_disabled":false,"rental_uris":{"android":"levelo://app?vid=a18dbf48-2c4d-4fa4-a4c5-c9871d73c9a0","ios":"levelo://app?vid=a18dbf48-2c4d-4fa4-a4c5-c9871d73c9a0"},"vehicle_type_id":"4","last_reported":1762031232,"current_range_meters":4400,"station_id":"ce4bgup2rcd13ifvqcn0","pricing_plan_id":"cebpf4jnsgd1na2vs0mg"},{"bike_id":"8dafb136-4ad3-4f46-9281-b0f07447ad3f","system_id":"levelo_inurba_marseille","lat":43.26193,"lon":5.37447,"is_reserved":false,"is_disabled":false,"rental_uris":{"android":"levelo://app?vid=8dafb136-4ad3-4f46-9281-b0f07447ad3f","ios":"levelo://app?vid=8dafb136-4ad3-4f46-9281-b0f07447ad3f"},"vehicle_type_id":"4","last_reported":1762031232,"current_range_meters":4400,"station_id":"ce4bhgp2rcd13ifvqfc0","pricing_plan_id":"cebpf4jnsgd1na2vs0mg"},{"bike_id":"d62a4e30-2a8a-47de-9d7a-fd92f829db09","system_id":"levelo_inurba_marseille","lat":43.3116,"lon":5.37942,"is_reserved":false,"is_disabled":false,"rental_uris":{"android":"levelo://app?vid=d62a4e30-2a8a-47de-9d7a-fd92f829db09","ios":"levelo://app?vid=d62a4e30-2a8a-47de-9d7a-fd92f829db09"},"vehicle_type_id":"4","last_reported":1762031232,"current_range_meters":4400,"station_id":"","pricing_plan_id":"cebpf4jnsgd1na2vs0mg"},{"bike_id":"a00dc17a-65e7-422c-821e-126c47cbf7e9","system_id":"levelo_inurba_marseille","lat":43.27948,"lon":5.41019,"is_reserved":false,"is_disabled":true,"rental_uris":{"android":"levelo://app?vid=a00dc17a-65e7-422c-821e-126c47cbf7e9","ios":"levelo://app?vid=a00dc17a-65e7-422c-821e-126c47cbf7e9"},"vehicle_type_id":"4","last_reported":1762031232,"current_range_meters":4800,"station_id":"ce4bhnp2rcd13ifvqh0g","pricing_plan_id":"cebpf4jnsgd1na2vs0mg"},{"bike_id":"9b93b5e1-c939-4745-bf85-2d21945442dc","system_id":"levelo_inurba_marseille","lat":43.29985,"lon":5.36403,"is_reserved":false,"is_disabled":false,"rental_uris":{"android":"levelo://app?vid=9b93b5e1-c939-4745-bf85-2d21945442dc","ios":"levelo://app?vid=9b93b5e1-c939-4745-bf85-2d21945442dc"},"vehicle_type_id":"4","last_reported":1762031232,"current_range_meters":5600,"station_id":"","pricing_plan_id":"cebpf4jnsgd1na2vs0mg"},{"bike_id":"e3f014b2-314d-48c7-9b19-5b0fdca62aed","system_id":"levelo_inurba_marseille","lat":43.293,"lon":5.37456,"is_reserved":false,"is_disabled":false,"rental_uris":{"android":"levelo://app?vid=e3f014b2-314d-48c7-9b19-5b0fdca62aed","ios":"levelo://app?vid=e3f014b2-314d-48c7-9b19-5b0fdca62aed"},"vehicle_type_id":"4","last_reported":1762031232,"current_range_meters":5600,"station_id":"ce4bgi12rcd13ifvqb70","pricing_plan_id":"cebpf4jnsgd1na2vs0mg"},{"bike_id":"8a759722-19f7-4a56-9646-2c26a5e7e25d","system_id":"levelo_inurba_marseille","lat":43.27941,"lon":5.38666,"is_reserved":false,"is_disabled":true,"rental_uris":{"android":"levelo://app?vid=8a759722-19f7-4a56-9646-2c26a5e7e25d","ios":"levelo://app?vid=8a759722-19f7-4a56-9646-2c26a5e7e25d"},"vehicle_type_id":"4","last_reported":1762031232,"current_range_meters":6400,"station_id":"","pricing_plan_id":"cebpf4jnsgd1na2vs0mg"},{"bike_id":"421898f5-6c6d-4850-a304-3c0cc5951bee","system_id":"levelo_inurba_marseille","lat":43.28503,"lon":5.42184,"is_reserved":false,"is_disabled":false,"rental_uris":{"android":"levelo://app?vid=421898f5-6c6d-4850-a304-3c0cc5951bee","ios":"levelo://app?vid=421898f5-6c6d-4850-a304-3c0cc5951bee"},"vehicle_type_id":"4","last_reported":1762031232,"current_range_meters":6400,"station_id":"","pricing_plan_id":"cebpf4jnsgd1na2vs0mg"},{"bike_id":"e866eab0-536f-4780-83bd-9243ac25a752","system_id":"levelo_inurba_marseille","lat":43.28135,"lon":5.38306,"is_reserved":false,"is_disabled":false,"rental_uris":{"android":"levelo://app?vid=e866eab0-536f-4780-83bd-9243ac25a752","ios":"levelo://app?vid=e866eab0-536f-4780-83bd-9243ac25a752"},"vehicle_type_id":"4","last_reported":1762031232,"current_range_meters":6400,"station_id":"","pricing_plan_id":"cebpf4jnsgd1na2vs0mg"},{"bike_id":"5fb987d7-0fd0-4ae4-b81e-29cf312b29a5","system_id":"levelo_inurba_marseille","lat":43.289541,"lon":5.390448,"is_reserved":false,"is_disabled":false,"rental_uris":{"android":"levelo://app?vid=5fb987d7-0fd0-4ae4-b81e-29cf312b29a5","ios":"levelo://app?vid=5fb987d7-0fd0-4ae4-b81e-29cf312b29a5"},"vehicle_type_id":"4","last_reported":1762031232,"current_range_meters":6800,"station_id":"","pricing_plan_id":"cebpf4jnsgd1na2vs0mg"},{"bike_id":"70b7527d-67eb-4818-84c6-51aae343ca97","system_id":"levelo_inurba_marseille","lat":43.28492,"lon":5.48388,"is_reserved":false,"is_disabled":false,"rental_uris":{"android":"levelo://app?vid=70b7527d-67eb-4818-84c6-51aae343ca97","ios":"levelo://app?vid=70b7527d-67eb-4818-84c6-51aae343ca97"},"vehicle_type_id":"4","last_reported":1762031232,"current_range_meters":6800,"station_id":"st_d3svhcjqgbts73a3dn0g","pricing_plan_id":"cebpf4jnsgd1na2vs0mg"},{"bike_id":"f3b3ec43-af7b-4fc2-b1d4-e499fce6d1a5","system_id":"levelo_inurba_marseille","lat":43.30595,"lon":5.39365,"is_reserved":false,"is_disabled":false,"rental_uris":{"android":"levelo://app?vid=f3b3ec43-af7b-4fc2-b1d4-e499fce6d1a5","ios":"levelo://app?vid=f3b3ec43-af7b-4fc2-b1d4-e499fce6d1a5"},"vehicle_type_id":"4","last_reported":1762031232,"current_range_meters":6800,"station_id":"ce4bh0p2rcd13ifvqd80","pricing_plan_id":"cebpf4jnsgd1na2vs0mg"},{"bike_id":"df4d91e2-f5d7-41f4-ae09-8161d06b9d54","system_id":"levelo_inurba_marseille","lat":43.292983,"lon":5.374652,"is_reserved":false,"is_disabled":false,"rental_uris":{"android":"levelo://app?vid=df4d91e2-f5d7-41f4-ae09-8161d06b9d54","ios":"levelo://app?vid=df4d91e2-f5d7-41f4-ae09-8161d06b9d54"},"vehicle_type_id":"4","last_reported":1762031232,"current_range_meters":6800,"station_id":"","pricing_plan_id":"cebpf4jnsgd1na2vs0mg"},{"bike_id":"463cd385-4cec-48e9-8862-f9447082d2d9","system_id":"levelo_inurba_marseille","lat":43.30426,"lon":5.38899,"is_reserved":false,"is_disabled":false,"rental_uris":{"android":"levelo://app?vid=463cd385-4cec-48e9-8862-f9447082d2d9","ios":"levelo://app?vid=463cd385-4cec-48e9-8862-f9447082d2d9"},"vehicle_type_id":"4","last_reported":1762031232,"current_range_meters":7200,"station_id":"ce4bgk12rcd13ifvqbi0","pricing_plan_id":"cebpf4jnsgd1na2vs0mg"},{"bike_id":"954c375b-cbbc-4b73-9fe7-d02909aecfcd","system_id":"levelo_inurba_marseille","lat":43.30793,"lon":5.43515,"is_reserved":false,"is_disabled":false,"rental_uris":{"android":"levelo://app?vid=954c375b-cbbc-4b73-9fe7-d02909aecfcd","ios":"levelo://app?vid=954c375b-cbbc-4b73-9fe7-d02909aecfcd"},"vehicle_type_id":"4","last_reported":1762031232,"current_range_meters":7200,"station_id":"","pricing_plan_id":"cebpf4jnsgd1na2vs0mg"},{"bike_id":"a4dac4fa-66e6-48be-a654-6e17cdc7ca0b","system_id":"levelo_inurba_marseille","lat":43.337571,"lon":5.374323,"is_reserved":false,"is_disabled":false,"rental_uris":{"android":"levelo://app?vid=a4dac4fa-66e6-48be-a654-6e17cdc7ca0b","ios":"levelo://app?vid=a4dac4fa-66e6-48be-a654-6e17cdc7ca0b"},"vehicle_type_id":"4","last_reported":1762031232,"current_range_meters":8000,"station_id":"","pricing_plan_id":"cebpf4jnsgd1na2vs0mg"},{"bike_id":"b77e76d2-e0a7-491a-b520-5a0f62a657b4","system_id":"levelo_inurba_marseille","lat":43.28464,"lon":5.35897,"is_reserved":false,"is_disabled":false,"rental_uris":{"android":"levelo://app?vid=b77e76d2-e0a7-491a-b520-5a0f62a657b4","ios":"levelo://app?vid=b77e76d2-e0a7-491a-b520-5a0f62a657b4"},"vehicle_type_id":"4","last_reported":1762031232,"current_range_meters":8000,"station_id":"ce4bhah2rcd13ifvqei0","pricing_plan_id":"cebpf4jnsgd1na2vs0mg"},{"bike_id":"c925f843-5d9f-41bd-b039-312e80ffb32c","system_id":"levelo_inurba_marseille","lat":43.3212,"lon":5.36719,"is_reserved":false,"is_disabled":false,"rental_uris":{"android":"levelo://app?vid=c925f843-5d9f-41bd-b039-312e80ffb32c","ios":"levelo://app?vid=c925f843-5d9f-41bd-b039-312e80ffb32c"},"vehicle_type_id":"4","last_reported":1762031232,"current_range_meters":8000,"station_id":"","pricing_plan_id":"cebpf4jnsgd1na2vs0mg"},{"bike_id":"b70bd611-7c5d-42d8-9537-81f3893174db","system_id":"levelo_inurba_marseille","lat":43.246515,"lon":5.388871,"is_reserved":false,"is_disabled":false,"rental_uris":{"android":"levelo://app?vid=b70bd611-7c5d-42d8-9537-81f3893174db","ios":"levelo://app?vid=b70bd611-7c5d-42d8-9537-81f3893174db"},"vehicle_type_id":"4","last_reported":1762031232,"current_range_meters":8000,"station_id":"ce4bhg12rcd13ifvqf60","pricing_plan_id":"cebpf4jnsgd1na2vs0mg"},{"bike_id":"86bbca51-f09f-43cb-9298-c44d5723a70f","system_id":"levelo_inurba_marseille","lat":43.27994,"lon":5.41659,"is_reserved":false,"is_disabled":false,"rental_uris":{"android":"levelo://app?vid=86bbca51-f09f-43cb-9298-c44d5723a70f","ios":"levelo://app?vid=86bbca51-f09f-43cb-9298-c44d5723a70f"},"vehicle_type_id":"4","last_reported":1762031232,"current_range_meters":8000,"station_id":"ce4bho12rcd13ifvqh1g","pricing_plan_id":"cebpf4jnsgd1na2vs0mg"},{"bike_id":"71f5e85e-d11b-4a85-bb2b-eff8e84dbcbb","system_id":"levelo_inurba_marseille","lat":43.24168,"lon":5.39743,"is_reserved":false,"is_disabled":false,"rental_uris":{"android":"levelo://app?vid=71f5e85e-d11b-4a85-bb2b-eff8e84dbcbb","ios":"levelo://app?vid=71f5e85e-d11b-4a85-bb2b-eff8e84dbcbb"},"vehicle_type_id":"4","last_reported":1762031232,"current_range_meters":8000,"station_id":"ce4bhn12rcd13ifvqgpg","pricing_plan_id":"cebpf4jnsgd1na2vs0mg"},{"bike_id":"0d53681a-2462-4979-9106-982e825913ab","system_id":"levelo_inurba_marseille","lat":43.29551,"lon":5.36575,"is_reserved":false,"is_disabled":false,"rental_uris":{"android":"levelo://app?vid=0d53681a-2462-4979-9106-982e825913ab","ios":"levelo://app?vid=0d53681a-2462-4979-9106-982e825913ab"},"vehicle_type_id":"4","last_reported":1762031232,"current_range_meters":8400,"station_id":"","pricing_plan_id":"cebpf4jnsgd1na2vs0mg"},{"bike_id":"76a96bff-9901-4355-a31e-bd5b72a8200c","system_id":"levelo_inurba_marseille","lat":43.30736,"lon":5.42433,"is_reserved":false,"is_disabled":false,"rental_uris":{"android":"levelo://app?vid=76a96bff-9901-4355-a31e-bd5b72a8200c","ios":"levelo://app?vid=76a96bff-9901-4355-a31e-bd5b72a8200c"},"vehicle_type_id":"4","last_reported":1762031232,"current_range_meters":8400,"station_id":"st_cvj6ca6bvosntc0bfgr0","pricing_plan_id":"cebpf4jnsgd1na2vs0mg"},{"bike_id":"27abc7d1-dd85-495f-9415-aa00cef4846e","system_id":"levelo_inurba_marseille","lat":43.27773,"lon":5.39564,"is_reserved":false,"is_disabled":false,"rental_uris":{"android":"levelo://app?vid=27abc7d1-dd85-495f-9415-aa00cef4846e","ios":"levelo://app?vid=27abc7d1-dd85-495f-9415-aa00cef4846e"},"vehicle_type_id":"4","last_reported":1762031232,"current_range_meters":8400,"station_id":"","pricing_plan_id":"cebpf4jnsgd1na2vs0mg"},{"bike_id":"67a17498-15cb-4562-b724-b8ad542e6673","system_id":"levelo_inurba_marseille","lat":43.27056,"lon":5.40256,"is_reserved":false,"is_disabled":false,"rental_uris":{"android":"levelo://app?vid=67a17498-15cb-4562-b724-b8ad542e6673","ios":"levelo://app?vid=67a17498-15cb-4562-b724-b8ad542e6673"},"vehicle_type_id":"4","last_reported":1762031232,"current_range_meters":8400,"station_id":"ce4bhk92rcd13ifvqgc0","pricing_plan_id":"cebpf4jnsgd1na2vs0mg"},{"bike_id":"7964de6c-fad0-4fd1-8a21-0815ea287c4c","system_id":"levelo_inurba_marseille","lat":43.28156,"lon":5.42634,"is_reserved":false,"is_disabled":true,"rental_uris":{"android":"levelo://app?vid=7964de6c-fad0-4fd1-8a21-0815ea287c4c","ios":"levelo://app?vid=7964de6c-fad0-4fd1-8a21-0815ea287c4c"},"vehicle_type_id":"4","last_reported":1762031232,"current_range_meters":8800,"station_id":"ce4bhnh2rcd13ifvqgug","pricing_plan_id":"cebpf4jnsgd1na2vs0mg"},{"bike_id":"bac75035-74e2-4943-9d3d-02e6db2b99b2","system_id":"levelo_inurba_marseille","lat":43.29761,"lon":5.42777,"is_reserved":false,"is_disabled":false,"rental_uris":{"android":"levelo://app?vid=bac75035-74e2-4943-9d3d-02e6db2b99b2","ios":"levelo://app?vid=bac75035-74e2-4943-9d3d-02e6db2b99b2"},"vehicle_type_id":"4","last_reported":1762031232,"current_range_meters":8800,"station_id":"st_d3md5207bmas73dh9klg","pricing_plan_id":"cebpf4jnsgd1na2vs0mg"},{"bike_id":"ee57d271-cc5e-4585-8071-8ffc4581d5f8","system_id":"levelo_inurba_marseille","lat":43.278316,"lon":5.392026,"is_reserved":false,"is_disabled":false,"rental_uris":{"android":"levelo://app?vid=ee57d271-cc5e-4585-8071-8ffc4581d5f8","ios":"levelo://app?vid=ee57d271-cc5e-4585-8071-8ffc4581d5f8"},"vehicle_type_id":"4","last_reported":1762031232,"current_range_meters":8800,"station_id":"ce4bhjp2rcd13ifvqga0","pricing_plan_id":"cebpf4jnsgd1na2vs0mg"},{"bike_id":"52b117f2-4c01-4f66-887d-006722496528","system_id":"levelo_inurba_marseille","lat":43.30888,"lon":5.37165,"is_reserved":false,"is_disabled":false,"rental_uris":{"android":"levelo://app?vid=52b117f2-4c01-4f66-887d-006722496528","ios":"levelo://app?vid=52b117f2-4c01-4f66-887d-006722496528"},"vehicle_type_id":"4","last_reported":1762031232,"current_range_meters":9200,"station_id":"ce4bguh2rcd13ifvqckg","pricing_plan_id":"cebpf4jnsgd1na2vs0mg"},{"bike_id":"dcb5f4d6-a57a-45ea-b185-de3fe952058c","system_id":"levelo_inurba_marseille","lat":43.28087,"lon":5.3784,"is_reserved":false,"is_disabled":true,"rental_uris":{"android":"levelo://app?vid=dcb5f4d6-a57a-45ea-b185-de3fe952058c","ios":"levelo://app?vid=dcb5f4d6-a57a-45ea-b185-de3fe952058c"},"vehicle_type_id":"4","last_reported":1762031232,"current_range_meters":9200,"station_id":"ce4bha12rcd13ifvqee0","pricing_plan_id":"cebpf4jnsgd1na2vs0mg"},{"bike_id":"23706b6e-dbd1-48c5-96fb-30b028f4d6b2","system_id":"levelo_inurba_marseille","lat":43.27674,"lon":5.388736,"is_reserved":false,"is_disabled":false,"rental_uris":{"android":"levelo://app?vid=23706b6e-dbd1-48c5-96fb-30b028f4d6b2","ios":"levelo://app?vid=23706b6e-dbd1-48c5-96fb-30b028f4d6b2"},"vehicle_type_id":"4","last_reported":1762031232,"current_range_meters":9600,"station_id":"","pricing_plan_id":"cebpf4jnsgd1na2vs0mg"},{"bike_id":"f7a61a82-20a9-4cc3-bee5-a87288d69b81","system_id":"levelo_inurba_marseille","lat":43.30326,"lon":5.40436,"is_reserved":false,"is_disabled":false,"rental_uris":{"android":"levelo://app?vid=f7a61a82-20a9-4cc3-bee5-a87288d69b81","ios":"levelo://app?vid=f7a61a82-20a9-4cc3-bee5-a87288d69b81"},"vehicle_type_id":"4","last_reported":1762031232,"current_range_meters":9600,"station_id":"ce4bh012rcd13ifvqd10","pricing_plan_id":"cebpf4jnsgd1na2vs0mg"},{"bike_id":"efc94b80-3b73-4234-8d98-7cb674ebf819","system_id":"levelo_inurba_marseille","lat":43.279672,"lon":5.387362,"is_reserved":false,"is_disabled":false,"rental_uris":{"android":"levelo://app?vid=efc94b80-3b73-4234-8d98-7cb674ebf819","ios":"levelo://app?vid=efc94b80-3b73-4234-8d98-7cb674ebf819"},"vehicle_type_id":"4","last_reported":1762031232,"current_range_meters":9600,"station_id":"ce4bhg12rcd13ifvqf80","pricing_plan_id":"cebpf4jnsgd1na2vs0mg"},{"bike_id":"fe211fee-df04-4312-bc0a-d625bf6086ab","system_id":"levelo_inurba_marseille","lat":43.29119,"lon":5.40273,"is_reserved":false,"is_disabled":true,"rental_uris":{"android":"levelo://app?vid=fe211fee-df04-4312-bc0a-d625bf6086ab","ios":"levelo://app?vid=fe211fee-df04-4312-bc0a-d625bf6086ab"},"vehicle_type_id":"4","last_reported":1762031232,"current_range_meters":9600,"station_id":"","pricing_plan_id":"cebpf4jnsgd1na2vs0mg"},{"bike_id":"995c398a-192b-4e7d-923c-0e5720d4a0ab","system_id":"levelo_inurba_marseille","lat":43.217489,"lon":5.345995,"is_reserved":false,"is_disabled":false,"rental_uris":{"android":"levelo://app?vid=995c398a-192b-4e7d-923c-0e5720d4a0ab","ios":"levelo://app?vid=995c398a-192b-4e7d-923c-0e5720d4a0ab"},"vehicle_type_id":"4","last_reported":1762031232,"current_range_meters":10000,"station_id":"","pricing_plan_id":"cebpf4jnsgd1na2vs0mg"},{"bike_id":"6a84b9bc-ddb9-4f6d-bd1e-5c55aba43842","system_id":"levelo_inurba_marseille","lat":43.32365,"lon":5.38882,"is_reserved":false,"is_disabled":false,"rental_uris":{"android":"levelo://app?vid=6a84b9bc-ddb9-4f6d-bd1e-5c55aba43842","ios":"levelo://app?vid=6a84b9bc-ddb9-4f6d-bd1e-5c55aba43842"},"vehicle_type_id":"4","last_reported":1762031232,"current_range_meters":10000,"station_id":"ce4bhqp2rcd13ifvqhog","pricing_plan_id":"cebpf4jnsgd1na2vs0mg"},{"bike_id":"74b15735-564b-4f09-952a-ba8cccb96884","system_id":"levelo_inurba_marseille","lat":43.29813,"lon":5.44052,"is_reserved":false,"is_disabled":false,"rental_uris":{"android":"levelo://app?vid=74b15735-564b-4f09-952a-ba8cccb96884","ios":"levelo://app?vid=74b15735-564b-4f09-952a-ba8cccb96884"},"vehicle_type_id":"4","last_reported":1762031232,"current_range_meters":10000,"station_id":"st_d3jp68qikq2c7381ktn0","pricing_plan_id":"cebpf4jnsgd1na2vs0mg"},{"bike_id":"4867042b-9208-4687-ade1-f2e578fc9ef3","system_id":"levelo_inurba_marseille","lat":43.2481,"lon":5.37451,"is_reserved":false,"is_disabled":false,"rental_uris":{"android":"levelo://app?vid=4867042b-9208-4687-ade1-f2e578fc9ef3","ios":"levelo://app?vid=4867042b-9208-4687-ade1-f2e578fc9ef3"},"vehicle_type_id":"4","last_reported":1762031232,"current_range_meters":10000,"station_id":"ce4bhgh2rcd13ifvqfb0","pricing_plan_id":"cebpf4jnsgd1na2vs0mg"},{"bike_id":"d1f9c9ea-4fd6-41fc-b98e-41abf6519045","system_id":"levelo_inurba_marseille","lat":43.28419,"lon":5.34976,"is_reserved":false,"is_disabled":false,"rental_uris":{"android":"levelo://app?vid=d1f9c9ea-4fd6-41fc-b98e-41abf6519045","ios":"levelo://app?vid=d1f9c9ea-4fd6-41fc-b98e-41abf6519045"},"vehicle_type_id":"4","last_reported":1762031232,"current_range_meters":10800,"station_id":"ce4bhbh2rcd13ifvqepg","pricing_plan_id":"cebpf4jnsgd1na2vs0mg"},{"bike_id":"b1e81361-2b17-4ef1-8a58-6def5753471b","system_id":"levelo_inurba_marseille","lat":43.33753,"lon":5.37484,"is_reserved":false,"is_disabled":false,"rental_uris":{"android":"levelo://app?vid=b1e81361-2b17-4ef1-8a58-6def5753471b","ios":"levelo://app?vid=b1e81361-2b17-4ef1-8a58-6def5753471b"},"vehicle_type_id":"4","last_reported":1762031232,"current_range_meters":10800,"station_id":"","pricing_plan_id":"cebpf4jnsgd1na2vs0mg"},{"bike_id":"0be2688a-8af3-42e9-89b4-cdd606238ba2","system_id":"levelo_inurba_marseille","lat":43.2657,"lon":5.39016,"is_reserved":false,"is_disabled":false,"rental_uris":{"android":"levelo://app?vid=0be2688a-8af3-42e9-89b4-cdd606238ba2","ios":"levelo://app?vid=0be2688a-8af3-42e9-89b4-cdd606238ba2"},"vehicle_type_id":"4","last_reported":1762031232,"current_range_meters":10800,"station_id":"ce4bhe12rcd13ifvqf30","pricing_plan_id":"cebpf4jnsgd1na2vs0mg"},{"bike_id":"b160d500-955b-4d65-bd51-bd6fb19db371","system_id":"levelo_inurba_marseille","lat":43.26229,"lon":5.40442,"is_reserved":false,"is_disabled":false,"rental_uris":{"android":"levelo://app?vid=b160d500-955b-4d65-bd51-bd6fb19db371","ios":"levelo://app?vid=b160d500-955b-4d65-bd51-bd6fb19db371"},"vehicle_type_id":"4","last_reported":1762031232,"current_range_meters":10800,"station_id":"ce4bhmh2rcd13ifvqgmg","pricing_plan_id":"cebpf4jnsgd1na2vs0mg"},{"bike_id":"ed890a36-02ef-4914-b497-b0b60f616f2a","system_id":"levelo_inurba_marseille","lat":43.28144,"lon":5.42632,"is_reserved":false,"is_disabled":false,"rental_uris":{"android":"levelo://app?vid=ed890a36-02ef-4914-b497-b0b60f616f2a","ios":"levelo://app?vid=ed890a36-02ef-4914-b497-b0b60f616f2a"},"vehicle_type_id":"4","last_reported":1762031232,"current_range_meters":11200,"station_id":"ce4bhnh2rcd13ifvqgug","pricing_plan_id":"cebpf4jnsgd1na2vs0mg"},{"bike_id":"2016420b-ef81-48a1-b4d8-4fe98d306ad0","system_id":"levelo_inurba_marseille","lat":43.29294,"lon":5.37163,"is_reserved":false,"is_disabled":false,"rental_uris":{"android":"levelo://app?vid=2016420b-ef81-48a1-b4d8-4fe98d306ad0","ios":"levelo://app?vid=2016420b-ef81-48a1-b4d8-4fe98d306ad0"},"vehicle_type_id":"4","last_reported":1762031232,"current_range_meters":11200,"station_id":"ce4bgh92rcd13ifvqb40","pricing_plan_id":"cebpf4jnsgd1na2vs0mg"},{"bike_id":"ba4300bb-3308-4c65-8608-6462fcd8e63b","system_id":"levelo_inurba_marseille","lat":43.3059,"lon":5.3935,"is_reserved":false,"is_disabled":false,"rental_uris":{"android":"levelo://app?vid=ba4300bb-3308-4c65-8608-6462fcd8e63b","ios":"levelo://app?vid=ba4300bb-3308-4c65-8608-6462fcd8e63b"},"vehicle_type_id":"4","last_reported":1762031232,"current_range_meters":11200,"station_id":"ce4bh0p2rcd13ifvqd80","pricing_plan_id":"cebpf4jnsgd1na2vs0mg"},{"bike_id":"e980a7cf-a190-48ed-8134-8c3b5453eddc","system_id":"levelo_inurba_marseille","lat":43.29123,"lon":5.4026,"is_reserved":false,"is_disabled":false,"rental_uris":{"android":"levelo://app?vid=e980a7cf-a190-48ed-8134-8c3b5453eddc","ios":"levelo://app?vid=e980a7cf-a190-48ed-8134-8c3b5453eddc"},"vehicle_type_id":"4","last_reported":1762031232,"current_range_meters":11200,"station_id":"","pricing_plan_id":"cebpf4jnsgd1na2vs0mg"},{"bike_id":"c11d71f6-6418-4777-b9d2-29132ae76e19","system_id":"levelo_inurba_marseille","lat":43.229273,"lon":5.353779,"is_reserved":false,"is_disabled":false,"rental_uris":{"android":"levelo://app?vid=c11d71f6-6418-4777-b9d2-29132ae76e19","ios":"levelo://app?vid=c11d71f6-6418-4777-b9d2-29132ae76e19"},"vehicle_type_id":"4","last_reported":1762031232,"current_range_meters":11600,"station_id":"cpo3532slgdg3j2ikp40","pricing_plan_id":"cebpf4jnsgd1na2vs0mg"},{"bike_id":"63507b49-0314-4489-a47d-430108a9c7a8","system_id":"levelo_inurba_marseille","lat":43.29569,"lon":5.39979,"is_reserved":false,"is_disabled":false,"rental_uris":{"android":"levelo://app?vid=63507b49-0314-4489-a47d-430108a9c7a8","ios":"levelo://app?vid=63507b49-0314-4489-a47d-430108a9c7a8"},"vehicle_type_id":"4","last_reported":1762031232,"current_range_meters":11600,"station_id":"ce4bh312rcd13ifvqdj0","pricing_plan_id":"cebpf4jnsgd1na2vs0mg"},{"bike_id":"1da56141-654f-442c-b20c-6c2bd52c2965","system_id":"levelo_inurba_marseille","lat":43.31259,"lon":5.38179,"is_reserved":false,"is_disabled":true,"rental_uris":{"android":"levelo://app?vid=1da56141-654f-442c-b20c-6c2bd52c2965","ios":"levelo://app?vid=1da56141-654f-442c-b20c-6c2bd52c2965"},"vehicle_type_id":"4","last_reported":1762031232,"current_range_meters":11600,"station_id":"","pricing_plan_id":"cebpf4jnsgd1na2vs0mg"},{"bike_id":"b6a67bfe-b431-4a2c-b991-413f29fcb34f","system_id":"levelo_inurba_marseille","lat":43.27363,"lon":5.36245,"is_reserved":false,"is_disabled":false,"rental_uris":{"android":"levelo://app?vid=b6a67bfe-b431-4a2c-b991-413f29fcb34f","ios":"levelo://app?vid=b6a67bfe-b431-4a2c-b991-413f29fcb34f"},"vehicle_type_id":"4","last_reported":1762031232,"current_range_meters":11600,"station_id":"ce4bhbh2rcd13ifvqeo0","pricing_plan_id":"cebpf4jnsgd1na2vs0mg"},{"bike_id":"b8ebd8da-21d9-42e8-bb5f-906340bf2793","system_id":"levelo_inurba_marseille","lat":43.2533,"lon":5.42148,"is_reserved":false,"is_disabled":false,"rental_uris":{"android":"levelo://app?vid=b8ebd8da-21d9-42e8-bb5f-906340bf2793","ios":"levelo://app?vid=b8ebd8da-21d9-42e8-bb5f-906340bf2793"},"vehicle_type_id":"4","last_reported":1762031232,"current_range_meters":11600,"station_id":"st_d2m65c5bi1j21697t3ng","pricing_plan_id":"cebpf4jnsgd1na2vs0mg"},{"bike_id":"afba2e7c-0dbc-4820-b93f-fdd58168ba1f","system_id":"levelo_inurba_marseille","lat":43.28765,"lon":5.385455,"is_reserved":false,"is_disabled":false,"rental_uris":{"android":"levelo://app?vid=afba2e7c-0dbc-4820-b93f-fdd58168ba1f","ios":"levelo://app?vid=afba2e7c-0dbc-4820-b93f-fdd58168ba1f"},"vehicle_type_id":"4","last_reported":1762031232,"current_range_meters":11600,"station_id":"","pricing_plan_id":"cebpf4jnsgd1na2vs0mg"},{"bike_id":"87a78efc-2c18-4866-b89c-56b3ae635b55","system_id":"levelo_inurba_marseille","lat":43.3085,"lon":5.36911,"is_reserved":false,"is_disabled":false,"rental_uris":{"android":"levelo://app?vid=87a78efc-2c18-4866-b89c-56b3ae635b55","ios":"levelo://app?vid=87a78efc-2c18-4866-b89c-56b3ae635b55"},"vehicle_type_id":"4","last_reported":1762031232,"current_range_meters":11600,"station_id":"","pricing_plan_id":"cebpf4jnsgd1na2vs0mg"},{"bike_id":"68dfe5bf-96d8-40ed-a701-d1cafa21ceb7","system_id":"levelo_inurba_marseille","lat":43.30527,"lon":5.38994,"is_reserved":false,"is_disabled":false,"rental_uris":{"android":"levelo://app?vid=68dfe5bf-96d8-40ed-a701-d1cafa21ceb7","ios":"levelo://app?vid=68dfe5bf-96d8-40ed-a701-d1cafa21ceb7"},"vehicle_type_id":"4","last_reported":1762031232,"current_range_meters":11600,"station_id":"ce4bgk12rcd13ifvqbi0","pricing_plan_id":"cebpf4jnsgd1na2vs0mg"},{"bike_id":"b3677075-235d-410b-bfa9-38d8f2858226","system_id":"levelo_inurba_marseille","lat":43.28626,"lon":5.35112,"is_reserved":false,"is_disabled":false,"rental_uris":{"android":"levelo://app?vid=b3677075-235d-410b-bfa9-38d8f2858226","ios":"levelo://app?vid=b3677075-235d-410b-bfa9-38d8f2858226"},"vehicle_type_id":"4","last_reported":1762031232,"current_range_meters":11600,"station_id":"ce4bhch2rcd13ifvqeug","pricing_plan_id":"cebpf4jnsgd1na2vs0mg"},{"bike_id":"8f5c9efd-15ee-434d-ba0c-83d2595550e6","system_id":"levelo_inurba_marseille","lat":43.28483,"lon":5.38419,"is_reserved":false,"is_disabled":false,"rental_uris":{"android":"levelo://app?vid=8f5c9efd-15ee-434d-ba0c-83d2595550e6","ios":"levelo://app?vid=8f5c9efd-15ee-434d-ba0c-83d2595550e6"},"vehicle_type_id":"4","last_reported":1762031232,"current_range_meters":11600,"station_id":"ce4bh512rcd13ifvqe3g","pricing_plan_id":"cebpf4jnsgd1na2vs0mg"},{"bike_id":"4e6bde8d-806c-48a6-885f-1e805ea43fa7","system_id":"levelo_inurba_marseille","lat":43.29265,"lon":5.38454,"is_reserved":false,"is_disabled":false,"rental_uris":{"android":"levelo://app?vid=4e6bde8d-806c-48a6-885f-1e805ea43fa7","ios":"levelo://app?vid=4e6bde8d-806c-48a6-885f-1e805ea43fa7"},"vehicle_type_id":"4","last_reported":1762031232,"current_range_meters":11600,"station_id":"ce4bh692rcd13ifvqea0","pricing_plan_id":"cebpf4jnsgd1na2vs0mg"},{"bike_id":"9fb49a8c-1e3d-4497-834a-bcbe1a7f29cc","system_id":"levelo_inurba_marseille","lat":43.28467,"lon":5.38436,"is_reserved":false,"is_disabled":false,"rental_uris":{"android":"levelo://app?vid=9fb49a8c-1e3d-4497-834a-bcbe1a7f29cc","ios":"levelo://app?vid=9fb49a8c-1e3d-4497-834a-bcbe1a7f29cc"},"vehicle_type_id":"4","last_reported":1762031232,"current_range_meters":11600,"station_id":"ce4bh512rcd13ifvqe3g","pricing_plan_id":"cebpf4jnsgd1na2vs0mg"},{"bike_id":"7d2e17c1-d8c6-4c26-9101-6de42a648210","system_id":"levelo_inurba_marseille","lat":43.30741,"lon":5.42416,"is_reserved":false,"is_disabled":false,"rental_uris":{"android":"levelo://app?vid=7d2e17c1-d8c6-4c26-9101-6de42a648210","ios":"levelo://app?vid=7d2e17c1-d8c6-4c26-9101-6de42a648210"},"vehicle_type_id":"4","last_reported":1762031232,"current_range_meters":12000,"station_id":"st_cvj6ca6bvosntc0bfgr0","pricing_plan_id":"cebpf4jnsgd1na2vs0mg"},{"bike_id":"b4cb0cf7-f8c5-4677-91c1-154973aab3fd","system_id":"levelo_inurba_marseille","lat":43.28403,"lon":5.34988,"is_reserved":false,"is_disabled":false,"rental_uris":{"android":"levelo://app?vid=b4cb0cf7-f8c5-4677-91c1-154973aab3fd","ios":"levelo://app?vid=b4cb0cf7-f8c5-4677-91c1-154973aab3fd"},"vehicle_type_id":"4","last_reported":1762031232,"current_range_meters":12000,"station_id":"ce4bhbh2rcd13ifvqepg","pricing_plan_id":"cebpf4jnsgd1na2vs0mg"},{"bike_id":"b8e1d4aa-a1d9-4ab5-9f78-e45800035256","system_id":"levelo_inurba_marseille","lat":43.25007,"lon":5.38945,"is_reserved":false,"is_disabled":false,"rental_uris":{"android":"levelo://app?vid=b8e1d4aa-a1d9-4ab5-9f78-e45800035256","ios":"levelo://app?vid=b8e1d4aa-a1d9-4ab5-9f78-e45800035256"},"vehicle_type_id":"4","last_reported":1762031232,"current_range_meters":12400,"station_id":"ce4bhgp2rcd13ifvqfd0","pricing_plan_id":"cebpf4jnsgd1na2vs0mg"},{"bike_id":"7a9e1e86-52dc-42e4-a53b-236a591ba00d","system_id":"levelo_inurba_marseille","lat":43.28819,"lon":5.36372,"is_reserved":false,"is_disabled":false,"rental_uris":{"android":"levelo://app?vid=7a9e1e86-52dc-42e4-a53b-236a591ba00d","ios":"levelo://app?vid=7a9e1e86-52dc-42e4-a53b-236a591ba00d"},"vehicle_type_id":"4","last_reported":1762031232,"current_range_meters":12400,"station_id":"","pricing_plan_id":"cebpf4jnsgd1na2vs0mg"},{"bike_id":"6685b6bc-bc7f-402b-b2ec-bd7d413c43f8","system_id":"levelo_inurba_marseille","lat":43.29539,"lon":5.38542,"is_reserved":false,"is_disabled":false,"rental_uris":{"android":"levelo://app?vid=6685b6bc-bc7f-402b-b2ec-bd7d413c43f8","ios":"levelo://app?vid=6685b6bc-bc7f-402b-b2ec-bd7d413c43f8"},"vehicle_type_id":"4","last_reported":1762031232,"current_range_meters":12400,"station_id":"ce4bgih2rcd13ifvqba0","pricing_plan_id":"cebpf4jnsgd1na2vs0mg"},{"bike_id":"12e94e53-b749-4c34-a11e-572eca1abad2","system_id":"levelo_inurba_marseille","lat":43.31226,"lon":5.36844,"is_reserved":false,"is_disabled":false,"rental_uris":{"android":"levelo://app?vid=12e94e53-b749-4c34-a11e-572eca1abad2","ios":"levelo://app?vid=12e94e53-b749-4c34-a11e-572eca1abad2"},"vehicle_type_id":"4","last_reported":1762031232,"current_range_meters":12400,"station_id":"ce4bgl92rcd13ifvqbq0","pricing_plan_id":"cebpf4jnsgd1na2vs0mg"},{"bike_id":"0089665c-d050-4f0d-8d27-e9a6af9208fc","system_id":"levelo_inurba_marseille","lat":43.3019,"lon":5.38023,"is_reserved":false,"is_disabled":false,"rental_uris":{"android":"levelo://app?vid=0089665c-d050-4f0d-8d27-e9a6af9208fc","ios":"levelo://app?vid=0089665c-d050-4f0d-8d27-e9a6af9208fc"},"vehicle_type_id":"4","last_reported":1762031232,"current_range_meters":12400,"station_id":"","pricing_plan_id":"cebpf4jnsgd1na2vs0mg"},{"bike_id":"0c3bfe72-1bfa-4fe4-8ec1-abc531b0b6c5","system_id":"levelo_inurba_marseille","lat":43.26575,"lon":5.37309,"is_reserved":false,"is_disabled":true,"rental_uris":{"android":"levelo://app?vid=0c3bfe72-1bfa-4fe4-8ec1-abc531b0b6c5","ios":"levelo://app?vid=0c3bfe72-1bfa-4fe4-8ec1-abc531b0b6c5"},"vehicle_type_id":"4","last_reported":1762031232,"current_range_meters":12400,"station_id":"ce4bhg12rcd13ifvqf70","pricing_plan_id":"cebpf4jnsgd1na2vs0mg"},{"bike_id":"5bbe5eb8-d091-4160-9452-6fe2b978ded2","system_id":"levelo_inurba_marseille","lat":43.295073,"lon":5.389124,"is_reserved":false,"is_disabled":false,"rental_uris":{"android":"levelo://app?vid=5bbe5eb8-d091-4160-9452-6fe2b978ded2","ios":"levelo://app?vid=5bbe5eb8-d091-4160-9452-6fe2b978ded2"},"vehicle_type_id":"4","last_reported":1762031232,"current_range_meters":12400,"station_id":"","pricing_plan_id":"cebpf4jnsgd1na2vs0mg"},{"bike_id":"e757de7d-039d-4bd6-9cce-c8dd2d2566c4","system_id":"levelo_inurba_marseille","lat":43.248148,"lon":5.374461,"is_reserved":false,"is_disabled":false,"rental_uris":{"android":"levelo://app?vid=e757de7d-039d-4bd6-9cce-c8dd2d2566c4","ios":"levelo://app?vid=e757de7d-039d-4bd6-9cce-c8dd2d2566c4"},"vehicle_type_id":"4","last_reported":1762031232,"current_range_meters":12800,"station_id":"ce4bhgh2rcd13ifvqfb0","pricing_plan_id":"cebpf4jnsgd1na2vs0mg"},{"bike_id":"dd026205-7708-4e41-b648-e4571a33b868","system_id":"levelo_inurba_marseille","lat":43.292575,"lon":5.384295,"is_reserved":false,"is_disabled":false,"rental_uris":{"android":"levelo://app?vid=dd026205-7708-4e41-b648-e4571a33b868","ios":"levelo://app?vid=dd026205-7708-4e41-b648-e4571a33b868"},"vehicle_type_id":"4","last_reported":1762031232,"current_range_meters":12800,"station_id":"ce4bh692rcd13ifvqea0","pricing_plan_id":"cebpf4jnsgd1na2vs0mg"},{"bike_id":"45646192-0df8-4895-8b79-298eb2f81f2e","system_id":"levelo_inurba_marseille","lat":43.29595,"lon":5.38092,"is_reserved":false,"is_disabled":false,"rental_uris":{"android":"levelo://app?vid=45646192-0df8-4895-8b79-298eb2f81f2e","ios":"levelo://app?vid=45646192-0df8-4895-8b79-298eb2f81f2e"},"vehicle_type_id":"4","last_reported":1762031232,"current_range_meters":12800,"station_id":"ce4bgl12rcd13ifvqbo0","pricing_plan_id":"cebpf4jnsgd1na2vs0mg"},{"bike_id":"5224dfc5-e8f6-493a-a7c3-4cc676f55caf","system_id":"levelo_inurba_marseille","lat":43.23973,"lon":5.36603,"is_reserved":false,"is_disabled":false,"rental_uris":{"android":"levelo://app?vid=5224dfc5-e8f6-493a-a7c3-4cc676f55caf","ios":"levelo://app?vid=5224dfc5-e8f6-493a-a7c3-4cc676f55caf"},"vehicle_type_id":"4","last_reported":1762031232,"current_range_meters":12800,"station_id":"ce4bhi12rcd13ifvqfp0","pricing_plan_id":"cebpf4jnsgd1na2vs0mg"},{"bike_id":"2ea8b295-6a13-47c7-8965-8106cf796d7e","system_id":"levelo_inurba_marseille","lat":43.31336,"lon":5.3765,"is_reserved":false,"is_disabled":false,"rental_uris":{"android":"levelo://app?vid=2ea8b295-6a13-47c7-8965-8106cf796d7e","ios":"levelo://app?vid=2ea8b295-6a13-47c7-8965-8106cf796d7e"},"vehicle_type_id":"4","last_reported":1762031232,"current_range_meters":12800,"station_id":"","pricing_plan_id":"cebpf4jnsgd1na2vs0mg"},{"bike_id":"5af68188-a927-499a-8fca-8bd64c5d429e","system_id":"levelo_inurba_marseille","lat":43.26229,"lon":5.40452,"is_reserved":false,"is_disabled":false,"rental_uris":{"android":"levelo://app?vid=5af68188-a927-499a-8fca-8bd64c5d429e","ios":"levelo://app?vid=5af68188-a927-499a-8fca-8bd64c5d429e"},"vehicle_type_id":"4","last_reported":1762031232,"current_range_meters":12800,"station_id":"ce4bhmh2rcd13ifvqgmg","pricing_plan_id":"cebpf4jnsgd1na2vs0mg"},{"bike_id":"85ec6676-13bf-4dc9-9825-6429fe91801d","system_id":"levelo_inurba_marseille","lat":43.295733,"lon":5.399767,"is_reserved":false,"is_disabled":false,"rental_uris":{"android":"levelo://app?vid=85ec6676-13bf-4dc9-9825-6429fe91801d","ios":"levelo://app?vid=85ec6676-13bf-4dc9-9825-6429fe91801d"},"vehicle_type_id":"4","last_reported":1762031232,"current_range_meters":12800,"station_id":"ce4bh312rcd13ifvqdj0","pricing_plan_id":"cebpf4jnsgd1na2vs0mg"},{"bike_id":"0028424b-d0fa-4bcb-a721-5153ac93a35d","system_id":"levelo_inurba_marseille","lat":43.29978,"lon":5.38504,"is_reserved":false,"is_disabled":false,"rental_uris":{"android":"levelo://app?vid=0028424b-d0fa-4bcb-a721-5153ac93a35d","ios":"levelo://app?vid=0028424b-d0fa-4bcb-a721-5153ac93a35d"},"vehicle_type_id":"4","last_reported":1762031232,"current_range_meters":12800,"station_id":"ce4bgj92rcd13ifvqbd0","pricing_plan_id":"cebpf4jnsgd1na2vs0mg"},{"bike_id":"d0baa07d-b446-43d3-a521-ebde7342c25c","system_id":"levelo_inurba_marseille","lat":43.27047,"lon":5.40262,"is_reserved":false,"is_disabled":false,"rental_uris":{"android":"levelo://app?vid=d0baa07d-b446-43d3-a521-ebde7342c25c","ios":"levelo://app?vid=d0baa07d-b446-43d3-a521-ebde7342c25c"},"vehicle_type_id":"4","last_reported":1762031232,"current_range_meters":12800,"station_id":"ce4bhk92rcd13ifvqgc0","pricing_plan_id":"cebpf4jnsgd1na2vs0mg"},{"bike_id":"304ccaf1-f67e-4a5e-aae8-a87d33e840af","system_id":"levelo_inurba_marseille","lat":43.28668,"lon":5.38673,"is_reserved":false,"is_disabled":false,"rental_uris":{"android":"levelo://app?vid=304ccaf1-f67e-4a5e-aae8-a87d33e840af","ios":"levelo://app?vid=304ccaf1-f67e-4a5e-aae8-a87d33e840af"},"vehicle_type_id":"4","last_reported":1762031232,"current_range_meters":12800,"station_id":"ce4bh492rcd13ifvqdug","pricing_plan_id":"cebpf4jnsgd1na2vs0mg"},{"bike_id":"6f55c2df-5461-4f13-8308-6d7dd6f86eb4","system_id":"levelo_inurba_marseille","lat":43.229269,"lon":5.353735,"is_reserved":false,"is_disabled":false,"rental_uris":{"android":"levelo://app?vid=6f55c2df-5461-4f13-8308-6d7dd6f86eb4","ios":"levelo://app?vid=6f55c2df-5461-4f13-8308-6d7dd6f86eb4"},"vehicle_type_id":"4","last_reported":1762031232,"current_range_meters":13600,"station_id":"cpo3532slgdg3j2ikp40","pricing_plan_id":"cebpf4jnsgd1na2vs0mg"},{"bike_id":"25b8b9c6-92a5-43d3-8767-0700e7c7de1c","system_id":"levelo_inurba_marseille","lat":43.33775,"lon":5.37402,"is_reserved":false,"is_disabled":false,"rental_uris":{"android":"levelo://app?vid=25b8b9c6-92a5-43d3-8767-0700e7c7de1c","ios":"levelo://app?vid=25b8b9c6-92a5-43d3-8767-0700e7c7de1c"},"vehicle_type_id":"4","last_reported":1762031232,"current_range_meters":13600,"station_id":"","pricing_plan_id":"cebpf4jnsgd1na2vs0mg"},{"bike_id":"769e9f08-d61c-4253-b1a4-ec58f411020c","system_id":"levelo_inurba_marseille","lat":43.24813,"lon":5.37461,"is_reserved":false,"is_disabled":false,"rental_uris":{"android":"levelo://app?vid=769e9f08-d61c-4253-b1a4-ec58f411020c","ios":"levelo://app?vid=769e9f08-d61c-4253-b1a4-ec58f411020c"},"vehicle_type_id":"4","last_reported":1762031232,"current_range_meters":13600,"station_id":"ce4bhgh2rcd13ifvqfb0","pricing_plan_id":"cebpf4jnsgd1na2vs0mg"},{"bike_id":"19d6fb00-c822-4b06-86f9-32662647d89f","system_id":"levelo_inurba_marseille","lat":43.25349,"lon":5.42167,"is_reserved":false,"is_disabled":false,"rental_uris":{"android":"levelo://app?vid=19d6fb00-c822-4b06-86f9-32662647d89f","ios":"levelo://app?vid=19d6fb00-c822-4b06-86f9-32662647d89f"},"vehicle_type_id":"4","last_reported":1762031232,"current_range_meters":13600,"station_id":"st_d2m65c5bi1j21697t3ng","pricing_plan_id":"cebpf4jnsgd1na2vs0mg"},{"bike_id":"08e3b4fa-d54c-4722-a931-d232fed19815","system_id":"levelo_inurba_marseille","lat":43.29293,"lon":5.37151,"is_reserved":false,"is_disabled":false,"rental_uris":{"android":"levelo://app?vid=08e3b4fa-d54c-4722-a931-d232fed19815","ios":"levelo://app?vid=08e3b4fa-d54c-4722-a931-d232fed19815"},"vehicle_type_id":"4","last_reported":1762031232,"current_range_meters":13600,"station_id":"ce4bgh92rcd13ifvqb40","pricing_plan_id":"cebpf4jnsgd1na2vs0mg"},{"bike_id":"7cfd7689-47bd-4077-a9da-ab93864c2e2f","system_id":"levelo_inurba_marseille","lat":43.29259,"lon":5.38445,"is_reserved":false,"is_disabled":false,"rental_uris":{"android":"levelo://app?vid=7cfd7689-47bd-4077-a9da-ab93864c2e2f","ios":"levelo://app?vid=7cfd7689-47bd-4077-a9da-ab93864c2e2f"},"vehicle_type_id":"4","last_reported":1762031232,"current_range_meters":13600,"station_id":"ce4bh692rcd13ifvqea0","pricing_plan_id":"cebpf4jnsgd1na2vs0mg"},{"bike_id":"87f35eb6-fdd4-48cb-aac4-3bc58afdac22","system_id":"levelo_inurba_marseille","lat":43.24826,"lon":5.37447,"is_reserved":false,"is_disabled":false,"rental_uris":{"android":"levelo://app?vid=87f35eb6-fdd4-48cb-aac4-3bc58afdac22","ios":"levelo://app?vid=87f35eb6-fdd4-48cb-aac4-3bc58afdac22"},"vehicle_type_id":"4","last_reported":1762031232,"current_range_meters":13600,"station_id":"ce4bhgh2rcd13ifvqfb0","pricing_plan_id":"cebpf4jnsgd1na2vs0mg"},{"bike_id":"55acaab6-90df-4a2f-8fac-8ad0c8800b3f","system_id":"levelo_inurba_marseille","lat":43.29247,"lon":5.38455,"is_reserved":false,"is_disabled":false,"rental_uris":{"android":"levelo://app?vid=55acaab6-90df-4a2f-8fac-8ad0c8800b3f","ios":"levelo://app?vid=55acaab6-90df-4a2f-8fac-8ad0c8800b3f"},"vehicle_type_id":"4","last_reported":1762031232,"current_range_meters":14000,"station_id":"ce4bh692rcd13ifvqea0","pricing_plan_id":"cebpf4jnsgd1na2vs0mg"},{"bike_id":"0f141a25-a380-49c3-8f3d-a0c4af6e28e2","system_id":"levelo_inurba_marseille","lat":43.29528,"lon":5.38539,"is_reserved":false,"is_disabled":false,"rental_uris":{"android":"levelo://app?vid=0f141a25-a380-49c3-8f3d-a0c4af6e28e2","ios":"levelo://app?vid=0f141a25-a380-49c3-8f3d-a0c4af6e28e2"},"vehicle_type_id":"4","last_reported":1762031232,"current_range_meters":14000,"station_id":"ce4bgih2rcd13ifvqba0","pricing_plan_id":"cebpf4jnsgd1na2vs0mg"},{"bike_id":"6402deec-c993-4fb0-8e8a-8e1334187a1b","system_id":"levelo_inurba_marseille","lat":43.29542,"lon":5.39394,"is_reserved":false,"is_disabled":false,"rental_uris":{"android":"levelo://app?vid=6402deec-c993-4fb0-8e8a-8e1334187a1b","ios":"levelo://app?vid=6402deec-c993-4fb0-8e8a-8e1334187a1b"},"vehicle_type_id":"4","last_reported":1762031232,"current_range_meters":14000,"station_id":"ce4bh292rcd13ifvqdf0","pricing_plan_id":"cebpf4jnsgd1na2vs0mg"},{"bike_id":"cdd52aa5-ec9a-4a51-9bc7-7def2e3929f5","system_id":"levelo_inurba_marseille","lat":43.26495,"lon":5.39556,"is_reserved":false,"is_disabled":false,"rental_uris":{"android":"levelo://app?vid=cdd52aa5-ec9a-4a51-9bc7-7def2e3929f5","ios":"levelo://app?vid=cdd52aa5-ec9a-4a51-9bc7-7def2e3929f5"},"vehicle_type_id":"4","last_reported":1762031232,"current_range_meters":14000,"station_id":"ce4bhi12rcd13ifvqfq0","pricing_plan_id":"cebpf4jnsgd1na2vs0mg"},{"bike_id":"8826ede5-ae30-4091-839e-dd39c3609359","system_id":"levelo_inurba_marseille","lat":43.29796,"lon":5.3935,"is_reserved":false,"is_disabled":true,"rental_uris":{"android":"levelo://app?vid=8826ede5-ae30-4091-839e-dd39c3609359","ios":"levelo://app?vid=8826ede5-ae30-4091-839e-dd39c3609359"},"vehicle_type_id":"4","last_reported":1762031232,"current_range_meters":14000,"station_id":"chh1huq6cuj3fo74tm60","pricing_plan_id":"cebpf4jnsgd1na2vs0mg"},{"bike_id":"33d00fec-9dc8-453f-a318-b05d18d1b454","system_id":"levelo_inurba_marseille","lat":43.23084,"lon":5.4371,"is_reserved":false,"is_disabled":false,"rental_uris":{"android":"levelo://app?vid=33d00fec-9dc8-453f-a318-b05d18d1b454","ios":"levelo://app?vid=33d00fec-9dc8-453f-a318-b05d18d1b454"},"vehicle_type_id":"4","last_reported":1762031232,"current_range_meters":14000,"station_id":"ce4bhmp2rcd13ifvqgog","pricing_plan_id":"cebpf4jnsgd1na2vs0mg"},{"bike_id":"52b04612-cd38-411f-a68e-6bb9cb24a90a","system_id":"levelo_inurba_marseille","lat":43.24179,"lon":5.36388,"is_reserved":false,"is_disabled":false,"rental_uris":{"android":"levelo://app?vid=52b04612-cd38-411f-a68e-6bb9cb24a90a","ios":"levelo://app?vid=52b04612-cd38-411f-a68e-6bb9cb24a90a"},"vehicle_type_id":"4","last_reported":1762031232,"current_range_meters":14400,"station_id":"cpo36qri1sfpv3e86is0","pricing_plan_id":"cebpf4jnsgd1na2vs0mg"},{"bike_id":"705f7d67-c203-4d2c-9e3c-1d3f6a2a032b","system_id":"levelo_inurba_marseille","lat":43.3059,"lon":5.393557,"is_reserved":false,"is_disabled":false,"rental_uris":{"android":"levelo://app?vid=705f7d67-c203-4d2c-9e3c-1d3f6a2a032b","ios":"levelo://app?vid=705f7d67-c203-4d2c-9e3c-1d3f6a2a032b"},"vehicle_type_id":"4","last_reported":1762031232,"current_range_meters":14400,"station_id":"ce4bh0p2rcd13ifvqd80","pricing_plan_id":"cebpf4jnsgd1na2vs0mg"},{"bike_id":"5a7b4ce1-8404-4415-ae21-b93f97e4eb86","system_id":"levelo_inurba_marseille","lat":43.29996,"lon":5.38484,"is_reserved":false,"is_disabled":false,"rental_uris":{"android":"levelo://app?vid=5a7b4ce1-8404-4415-ae21-b93f97e4eb86","ios":"levelo://app?vid=5a7b4ce1-8404-4415-ae21-b93f97e4eb86"},"vehicle_type_id":"4","last_reported":1762031232,"current_range_meters":14400,"station_id":"ce4bgj92rcd13ifvqbd0","pricing_plan_id":"cebpf4jnsgd1na2vs0mg"},{"bike_id":"694aafb8-f391-48f4-aa1b-60fbc72c658c","system_id":"levelo_inurba_marseille","lat":43.29248,"lon":5.38457,"is_reserved":false,"is_disabled":false,"rental_uris":{"android":"levelo://app?vid=694aafb8-f391-48f4-aa1b-60fbc72c658c","ios":"levelo://app?vid=694aafb8-f391-48f4-aa1b-60fbc72c658c"},"vehicle_type_id":"4","last_reported":1762031232,"current_range_meters":14400,"station_id":"ce4bh692rcd13ifvqea0","pricing_plan_id":"cebpf4jnsgd1na2vs0mg"},{"bike_id":"7c31917e-3720-4af2-9936-8225793a66c7","system_id":"levelo_inurba_marseille","lat":43.29611,"lon":5.3809,"is_reserved":false,"is_disabled":false,"rental_uris":{"android":"levelo://app?vid=7c31917e-3720-4af2-9936-8225793a66c7","ios":"levelo://app?vid=7c31917e-3720-4af2-9936-8225793a66c7"},"vehicle_type_id":"4","last_reported":1762031232,"current_range_meters":14400,"station_id":"ce4bgl12rcd13ifvqbo0","pricing_plan_id":"cebpf4jnsgd1na2vs0mg"},{"bike_id":"6ebbea76-3353-45f2-95d8-7cda367b1eb9","system_id":"levelo_inurba_marseille","lat":43.29912,"lon":5.38138,"is_reserved":false,"is_disabled":false,"rental_uris":{"android":"levelo://app?vid=6ebbea76-3353-45f2-95d8-7cda367b1eb9","ios":"levelo://app?vid=6ebbea76-3353-45f2-95d8-7cda367b1eb9"},"vehicle_type_id":"4","last_reported":1762031232,"current_range_meters":14400,"station_id":"ce4bgj12rcd13ifvqbc0","pricing_plan_id":"cebpf4jnsgd1na2vs0mg"},{"bike_id":"41598790-345d-414f-9e87-720cb432f278","system_id":"levelo_inurba_marseille","lat":43.29477,"lon":5.36227,"is_reserved":false,"is_disabled":false,"rental_uris":{"android":"levelo://app?vid=41598790-345d-414f-9e87-720cb432f278","ios":"levelo://app?vid=41598790-345d-414f-9e87-720cb432f278"},"vehicle_type_id":"4","last_reported":1762031232,"current_range_meters":14400,"station_id":"","pricing_plan_id":"cebpf4jnsgd1na2vs0mg"},{"bike_id":"50c2c89c-4a9b-41f6-af05-b4e430e07029","system_id":"levelo_inurba_marseille","lat":43.24632,"lon":5.43144,"is_reserved":false,"is_disabled":false,"rental_uris":{"android":"levelo://app?vid=50c2c89c-4a9b-41f6-af05-b4e430e07029","ios":"levelo://app?vid=50c2c89c-4a9b-41f6-af05-b4e430e07029"},"vehicle_type_id":"4","last_reported":1762031232,"current_range_meters":14400,"station_id":"st_d2m6c4gdas8pm72e190g","pricing_plan_id":"cebpf4jnsgd1na2vs0mg"},{"bike_id":"ada3a52a-caae-4b92-ba8f-0d83cedf5288","system_id":"levelo_inurba_marseille","lat":43.2454,"lon":5.39517,"is_reserved":false,"is_disabled":false,"rental_uris":{"android":"levelo://app?vid=ada3a52a-caae-4b92-ba8f-0d83cedf5288","ios":"levelo://app?vid=ada3a52a-caae-4b92-ba8f-0d83cedf5288"},"vehicle_type_id":"4","last_reported":1762031232,"current_range_meters":14400,"station_id":"ce4bhlp2rcd13ifvqgjg","pricing_plan_id":"cebpf4jnsgd1na2vs0mg"},{"bike_id":"1d29646a-da1f-4f66-b008-0838ffb2fa84","system_id":"levelo_inurba_marseille","lat":43.29977,"lon":5.37237,"is_reserved":false,"is_disabled":false,"rental_uris":{"android":"levelo://app?vid=1d29646a-da1f-4f66-b008-0838ffb2fa84","ios":"levelo://app?vid=1d29646a-da1f-4f66-b008-0838ffb2fa84"},"vehicle_type_id":"4","last_reported":1762031232,"current_range_meters":14400,"station_id":"ce4bgr92rcd13ifvqc7g","pricing_plan_id":"cebpf4jnsgd1na2vs0mg"},{"bike_id":"b4f0a66d-8ef1-4dfa-9065-e7453049a832","system_id":"levelo_inurba_marseille","lat":43.29309,"lon":5.37152,"is_reserved":false,"is_disabled":false,"rental_uris":{"android":"levelo://app?vid=b4f0a66d-8ef1-4dfa-9065-e7453049a832","ios":"levelo://app?vid=b4f0a66d-8ef1-4dfa-9065-e7453049a832"},"vehicle_type_id":"4","last_reported":1762031232,"current_range_meters":14400,"station_id":"ce4bgh92rcd13ifvqb40","pricing_plan_id":"cebpf4jnsgd1na2vs0mg"},{"bike_id":"699ddae9-6397-4772-b91f-dde90ad3a616","system_id":"levelo_inurba_marseille","lat":43.2858,"lon":5.39481,"is_reserved":false,"is_disabled":false,"rental_uris":{"android":"levelo://app?vid=699ddae9-6397-4772-b91f-dde90ad3a616","ios":"levelo://app?vid=699ddae9-6397-4772-b91f-dde90ad3a616"},"vehicle_type_id":"4","last_reported":1762031232,"current_range_meters":14400,"station_id":"ce4bh292rcd13ifvqdg0","pricing_plan_id":"cebpf4jnsgd1na2vs0mg"},{"bike_id":"28f3c03d-8b23-4d27-be49-3c6305f7f943","system_id":"levelo_inurba_marseille","lat":43.2953,"lon":5.38547,"is_reserved":false,"is_disabled":false,"rental_uris":{"android":"levelo://app?vid=28f3c03d-8b23-4d27-be49-3c6305f7f943","ios":"levelo://app?vid=28f3c03d-8b23-4d27-be49-3c6305f7f943"},"vehicle_type_id":"4","last_reported":1762031232,"current_range_meters":14800,"station_id":"ce4bgih2rcd13ifvqba0","pricing_plan_id":"cebpf4jnsgd1na2vs0mg"},{"bike_id":"359e1ad2-5a88-41a6-9e28-54d40d4de042","system_id":"levelo_inurba_marseille","lat":43.31755,"lon":5.39009,"is_reserved":false,"is_disabled":false,"rental_uris":{"android":"levelo://app?vid=359e1ad2-5a88-41a6-9e28-54d40d4de042","ios":"levelo://app?vid=359e1ad2-5a88-41a6-9e28-54d40d4de042"},"vehicle_type_id":"4","last_reported":1762031232,"current_range_meters":14800,"station_id":"ce4bhqp2rcd13ifvqhng","pricing_plan_id":"cebpf4jnsgd1na2vs0mg"},{"bike_id":"aad6a064-c048-4ba9-a156-1745b89548aa","system_id":"levelo_inurba_marseille","lat":43.283137,"lon":5.410931,"is_reserved":false,"is_disabled":false,"rental_uris":{"android":"levelo://app?vid=aad6a064-c048-4ba9-a156-1745b89548aa","ios":"levelo://app?vid=aad6a064-c048-4ba9-a156-1745b89548aa"},"vehicle_type_id":"4","last_reported":1762031232,"current_range_meters":14800,"station_id":"","pricing_plan_id":"cebpf4jnsgd1na2vs0mg"},{"bike_id":"528e3c88-b623-43f9-a15b-cba9eb4d6f1a","system_id":"levelo_inurba_marseille","lat":43.28493,"lon":5.48377,"is_reserved":false,"is_disabled":false,"rental_uris":{"android":"levelo://app?vid=528e3c88-b623-43f9-a15b-cba9eb4d6f1a","ios":"levelo://app?vid=528e3c88-b623-43f9-a15b-cba9eb4d6f1a"},"vehicle_type_id":"4","last_reported":1762031232,"current_range_meters":15200,"station_id":"st_d3svhcjqgbts73a3dn0g","pricing_plan_id":"cebpf4jnsgd1na2vs0mg"},{"bike_id":"2274296e-50ab-4a65-979e-0804b7cbf4b5","system_id":"levelo_inurba_marseille","lat":43.292676,"lon":5.384408,"is_reserved":false,"is_disabled":false,"rental_uris":{"android":"levelo://app?vid=2274296e-50ab-4a65-979e-0804b7cbf4b5","ios":"levelo://app?vid=2274296e-50ab-4a65-979e-0804b7cbf4b5"},"vehicle_type_id":"4","last_reported":1762031232,"current_range_meters":15200,"station_id":"ce4bh692rcd13ifvqea0","pricing_plan_id":"cebpf4jnsgd1na2vs0mg"},{"bike_id":"f3c62589-5016-4c56-9ee8-1413efe7441e","system_id":"levelo_inurba_marseille","lat":43.29266,"lon":5.38424,"is_reserved":false,"is_disabled":false,"rental_uris":{"android":"levelo://app?vid=f3c62589-5016-4c56-9ee8-1413efe7441e","ios":"levelo://app?vid=f3c62589-5016-4c56-9ee8-1413efe7441e"},"vehicle_type_id":"4","last_reported":1762031232,"current_range_meters":15200,"station_id":"","pricing_plan_id":"cebpf4jnsgd1na2vs0mg"},{"bike_id":"079d2352-ba60-4c63-b7a4-6ec0ccf76dcc","system_id":"levelo_inurba_marseille","lat":43.25715,"lon":5.411,"is_reserved":false,"is_disabled":false,"rental_uris":{"android":"levelo://app?vid=079d2352-ba60-4c63-b7a4-6ec0ccf76dcc","ios":"levelo://app?vid=079d2352-ba60-4c63-b7a4-6ec0ccf76dcc"},"vehicle_type_id":"4","last_reported":1762031232,"current_range_meters":16000,"station_id":"ce4bhkp2rcd13ifvqgd0","pricing_plan_id":"cebpf4jnsgd1na2vs0mg"},{"bike_id":"2b74301e-ae33-4f7c-834f-41a5de0d8418","system_id":"levelo_inurba_marseille","lat":43.26567,"lon":5.40319,"is_reserved":false,"is_disabled":false,"rental_uris":{"android":"levelo://app?vid=2b74301e-ae33-4f7c-834f-41a5de0d8418","ios":"levelo://app?vid=2b74301e-ae33-4f7c-834f-41a5de0d8418"},"vehicle_type_id":"4","last_reported":1762031232,"current_range_meters":16000,"station_id":"ce4bhmp2rcd13ifvqgng","pricing_plan_id":"cebpf4jnsgd1na2vs0mg"},{"bike_id":"92733a3c-7f0a-4941-9e76-7e70cdc426b1","system_id":"levelo_inurba_marseille","lat":43.29308,"lon":5.37146,"is_reserved":false,"is_disabled":false,"rental_uris":{"android":"levelo://app?vid=92733a3c-7f0a-4941-9e76-7e70cdc426b1","ios":"levelo://app?vid=92733a3c-7f0a-4941-9e76-7e70cdc426b1"},"vehicle_type_id":"4","last_reported":1762031232,"current_range_meters":16000,"station_id":"ce4bgh92rcd13ifvqb40","pricing_plan_id":"cebpf4jnsgd1na2vs0mg"},{"bike_id":"aa70394f-870b-4007-b4de-def560138bb3","system_id":"levelo_inurba_marseille","lat":43.28472,"lon":5.38408,"is_reserved":false,"is_disabled":false,"rental_uris":{"android":"levelo://app?vid=aa70394f-870b-4007-b4de-def560138bb3","ios":"levelo://app?vid=aa70394f-870b-4007-b4de-def560138bb3"},"vehicle_type_id":"4","last_reported":1762031232,"current_range_meters":16000,"station_id":"ce4bh512rcd13ifvqe3g","pricing_plan_id":"cebpf4jnsgd1na2vs0mg"},{"bike_id":"45833a00-bb86-4c87-99c2-814a719ac317","system_id":"levelo_inurba_marseille","lat":43.22925,"lon":5.35371,"is_reserved":false,"is_disabled":false,"rental_uris":{"android":"levelo://app?vid=45833a00-bb86-4c87-99c2-814a719ac317","ios":"levelo://app?vid=45833a00-bb86-4c87-99c2-814a719ac317"},"vehicle_type_id":"4","last_reported":1762031232,"current_range_meters":16000,"station_id":"cpo3532slgdg3j2ikp40","pricing_plan_id":"cebpf4jnsgd1na2vs0mg"},{"bike_id":"c99ef1b0-a2dc-45c9-9f49-87b948ecb26f","system_id":"levelo_inurba_marseille","lat":43.28719,"lon":5.37938,"is_reserved":false,"is_disabled":false,"rental_uris":{"android":"levelo://app?vid=c99ef1b0-a2dc-45c9-9f49-87b948ecb26f","ios":"levelo://app?vid=c99ef1b0-a2dc-45c9-9f49-87b948ecb26f"},"vehicle_type_id":"4","last_reported":1762031232,"current_range_meters":16000,"station_id":"ce4bh9p2rcd13ifvqec0","pricing_plan_id":"cebpf4jnsgd1na2vs0mg"},{"bike_id":"d15f8e58-38e7-4b7d-8196-8d19688b33fd","system_id":"levelo_inurba_marseille","lat":43.292633,"lon":5.384351,"is_reserved":false,"is_disabled":false,"rental_uris":{"android":"levelo://app?vid=d15f8e58-38e7-4b7d-8196-8d19688b33fd","ios":"levelo://app?vid=d15f8e58-38e7-4b7d-8196-8d19688b33fd"},"vehicle_type_id":"4","last_reported":1762031232,"current_range_meters":16400,"station_id":"ce4bh692rcd13ifvqea0","pricing_plan_id":"cebpf4jnsgd1na2vs0mg"},{"bike_id":"8d1397a0-23c9-4349-a0c6-3237afd540fa","system_id":"levelo_inurba_marseille","lat":43.29275,"lon":5.38429,"is_reserved":false,"is_disabled":false,"rental_uris":{"android":"levelo://app?vid=8d1397a0-23c9-4349-a0c6-3237afd540fa","ios":"levelo://app?vid=8d1397a0-23c9-4349-a0c6-3237afd540fa"},"vehicle_type_id":"4","last_reported":1762031232,"current_range_meters":16400,"station_id":"ce4bh692rcd13ifvqea0","pricing_plan_id":"cebpf4jnsgd1na2vs0mg"},{"bike_id":"7b0eaa70-7657-4098-8e47-f6fae1ad1d21","system_id":"levelo_inurba_marseille","lat":43.25857,"lon":5.39901,"is_reserved":false,"is_disabled":false,"rental_uris":{"android":"levelo://app?vid=7b0eaa70-7657-4098-8e47-f6fae1ad1d21","ios":"levelo://app?vid=7b0eaa70-7657-4098-8e47-f6fae1ad1d21"},"vehicle_type_id":"4","last_reported":1762031232,"current_range_meters":16400,"station_id":"ce4bhl92rcd13ifvqghg","pricing_plan_id":"cebpf4jnsgd1na2vs0mg"},{"bike_id":"fa976d95-bc6e-4cd7-ae22-29787e198ada","system_id":"levelo_inurba_marseille","lat":43.29531,"lon":5.38547,"is_reserved":false,"is_disabled":false,"rental_uris":{"android":"levelo://app?vid=fa976d95-bc6e-4cd7-ae22-29787e198ada","ios":"levelo://app?vid=fa976d95-bc6e-4cd7-ae22-29787e198ada"},"vehicle_type_id":"4","last_reported":1762031232,"current_range_meters":16400,"station_id":"ce4bgih2rcd13ifvqba0","pricing_plan_id":"cebpf4jnsgd1na2vs0mg"},{"bike_id":"9521b805-4548-436e-9331-1f7414ad62fd","system_id":"levelo_inurba_marseille","lat":43.28924,"lon":5.38403,"is_reserved":false,"is_disabled":false,"rental_uris":{"android":"levelo://app?vid=9521b805-4548-436e-9331-1f7414ad62fd","ios":"levelo://app?vid=9521b805-4548-436e-9331-1f7414ad62fd"},"vehicle_type_id":"4","last_reported":1762031232,"current_range_meters":16400,"station_id":"ce4bh612rcd13ifvqe6g","pricing_plan_id":"cebpf4jnsgd1na2vs0mg"},{"bike_id":"ba541a52-7e4e-4241-9791-ae6f1fb03dcd","system_id":"levelo_inurba_marseille","lat":43.320007,"lon":5.415898,"is_reserved":false,"is_disabled":false,"rental_uris":{"android":"levelo://app?vid=ba541a52-7e4e-4241-9791-ae6f1fb03dcd","ios":"levelo://app?vid=ba541a52-7e4e-4241-9791-ae6f1fb03dcd"},"vehicle_type_id":"4","last_reported":1762031232,"current_range_meters":16400,"station_id":"","pricing_plan_id":"cebpf4jnsgd1na2vs0mg"},{"bike_id":"cdcfa7af-5c53-4a1e-bd12-22de38b14978","system_id":"levelo_inurba_marseille","lat":43.24631,"lon":5.43137,"is_reserved":false,"is_disabled":false,"rental_uris":{"android":"levelo://app?vid=cdcfa7af-5c53-4a1e-bd12-22de38b14978","ios":"levelo://app?vid=cdcfa7af-5c53-4a1e-bd12-22de38b14978"},"vehicle_type_id":"4","last_reported":1762031232,"current_range_meters":16800,"station_id":"st_d2m6c4gdas8pm72e190g","pricing_plan_id":"cebpf4jnsgd1na2vs0mg"},{"bike_id":"12a18d4a-7b67-4876-88d1-1820554fc400","system_id":"levelo_inurba_marseille","lat":43.29728,"lon":5.3811,"is_reserved":false,"is_disabled":false,"rental_uris":{"android":"levelo://app?vid=12a18d4a-7b67-4876-88d1-1820554fc400","ios":"levelo://app?vid=12a18d4a-7b67-4876-88d1-1820554fc400"},"vehicle_type_id":"4","last_reported":1762031232,"current_range_meters":16800,"station_id":"","pricing_plan_id":"cebpf4jnsgd1na2vs0mg"},{"bike_id":"930065a9-c110-4d30-9812-be03cb83d554","system_id":"levelo_inurba_marseille","lat":43.29303,"lon":5.37159,"is_reserved":false,"is_disabled":false,"rental_uris":{"android":"levelo://app?vid=930065a9-c110-4d30-9812-be03cb83d554","ios":"levelo://app?vid=930065a9-c110-4d30-9812-be03cb83d554"},"vehicle_type_id":"4","last_reported":1762031232,"current_range_meters":16800,"station_id":"ce4bgh92rcd13ifvqb40","pricing_plan_id":"cebpf4jnsgd1na2vs0mg"},{"bike_id":"8f5b7018-f455-4dee-b4e4-32b28c35267c","system_id":"levelo_inurba_marseille","lat":43.29281,"lon":5.36838,"is_reserved":false,"is_disabled":false,"rental_uris":{"android":"levelo://app?vid=8f5b7018-f455-4dee-b4e4-32b28c35267c","ios":"levelo://app?vid=8f5b7018-f455-4dee-b4e4-32b28c35267c"},"vehicle_type_id":"4","last_reported":1762031232,"current_range_meters":16800,"station_id":"ce4bhbp2rcd13ifvqesg","pricing_plan_id":"cebpf4jnsgd1na2vs0mg"},{"bike_id":"6fe8defd-7365-4870-9fd8-a61adc4c20bd","system_id":"levelo_inurba_marseille","lat":43.29919,"lon":5.39718,"is_reserved":false,"is_disabled":true,"rental_uris":{"android":"levelo://app?vid=6fe8defd-7365-4870-9fd8-a61adc4c20bd","ios":"levelo://app?vid=6fe8defd-7365-4870-9fd8-a61adc4c20bd"},"vehicle_type_id":"4","last_reported":1762031232,"current_range_meters":16800,"station_id":"ce4bh0h2rcd13ifvqd50","pricing_plan_id":"cebpf4jnsgd1na2vs0mg"},{"bike_id":"c7d57f9b-8ba9-4435-ac3b-54d333c0b4c7","system_id":"levelo_inurba_marseille","lat":43.32335,"lon":5.36757,"is_reserved":false,"is_disabled":false,"rental_uris":{"android":"levelo://app?vid=c7d57f9b-8ba9-4435-ac3b-54d333c0b4c7","ios":"levelo://app?vid=c7d57f9b-8ba9-4435-ac3b-54d333c0b4c7"},"vehicle_type_id":"4","last_reported":1762031232,"current_range_meters":16800,"station_id":"ce4bhsh2rcd13ifvqi2g","pricing_plan_id":"cebpf4jnsgd1na2vs0mg"},{"bike_id":"1dff0eba-7b24-4e9e-b26e-371189c08022","system_id":"levelo_inurba_marseille","lat":43.24814,"lon":5.37459,"is_reserved":false,"is_disabled":false,"rental_uris":{"android":"levelo://app?vid=1dff0eba-7b24-4e9e-b26e-371189c08022","ios":"levelo://app?vid=1dff0eba-7b24-4e9e-b26e-371189c08022"},"vehicle_type_id":"4","last_reported":1762031232,"current_range_meters":16800,"station_id":"ce4bhgh2rcd13ifvqfb0","pricing_plan_id":"cebpf4jnsgd1na2vs0mg"},{"bike_id":"84f1bfac-8d21-499b-b8e1-fdc8049e10ac","system_id":"levelo_inurba_marseille","lat":43.31282,"lon":5.37763,"is_reserved":false,"is_disabled":false,"rental_uris":{"android":"levelo://app?vid=84f1bfac-8d21-499b-b8e1-fdc8049e10ac","ios":"levelo://app?vid=84f1bfac-8d21-499b-b8e1-fdc8049e10ac"},"vehicle_type_id":"4","last_reported":1762031232,"current_range_meters":16800,"station_id":"","pricing_plan_id":"cebpf4jnsgd1na2vs0mg"},{"bike_id":"97554bb0-ff1e-468e-ba8b-8419089743d0","system_id":"levelo_inurba_marseille","lat":43.25578,"lon":5.38226,"is_reserved":false,"is_disabled":false,"rental_uris":{"android":"levelo://app?vid=97554bb0-ff1e-468e-ba8b-8419089743d0","ios":"levelo://app?vid=97554bb0-ff1e-468e-ba8b-8419089743d0"},"vehicle_type_id":"4","last_reported":1762031232,"current_range_meters":16800,"station_id":"ce4bhih2rcd13ifvqfs0","pricing_plan_id":"cebpf4jnsgd1na2vs0mg"},{"bike_id":"148ff3a5-2a80-419c-8f1b-9d1335123e77","system_id":"levelo_inurba_marseille","lat":43.307473,"lon":5.382459,"is_reserved":false,"is_disabled":false,"rental_uris":{"android":"levelo://app?vid=148ff3a5-2a80-419c-8f1b-9d1335123e77","ios":"levelo://app?vid=148ff3a5-2a80-419c-8f1b-9d1335123e77"},"vehicle_type_id":"4","last_reported":1762031232,"current_range_meters":16800,"station_id":"","pricing_plan_id":"cebpf4jnsgd1na2vs0mg"},{"bike_id":"193eac5d-e557-4171-9864-859d1bed4f7f","system_id":"levelo_inurba_marseille","lat":43.23782,"lon":5.36626,"is_reserved":false,"is_disabled":false,"rental_uris":{"android":"levelo://app?vid=193eac5d-e557-4171-9864-859d1bed4f7f","ios":"levelo://app?vid=193eac5d-e557-4171-9864-859d1bed4f7f"},"vehicle_type_id":"4","last_reported":1762031232,"current_range_meters":17200,"station_id":"st_d3nk18o9ro0c73en2l3g","pricing_plan_id":"cebpf4jnsgd1na2vs0mg"},{"bike_id":"e718eb19-1ff9-4674-92c2-56321ad9eee9","system_id":"levelo_inurba_marseille","lat":43.25331,"lon":5.42172,"is_reserved":false,"is_disabled":false,"rental_uris":{"android":"levelo://app?vid=e718eb19-1ff9-4674-92c2-56321ad9eee9","ios":"levelo://app?vid=e718eb19-1ff9-4674-92c2-56321ad9eee9"},"vehicle_type_id":"4","last_reported":1762031232,"current_range_meters":17200,"station_id":"st_d2m65c5bi1j21697t3ng","pricing_plan_id":"cebpf4jnsgd1na2vs0mg"},{"bike_id":"77ab8406-6fbf-4f30-a4db-2cbd45e2f874","system_id":"levelo_inurba_marseille","lat":43.284,"lon":5.37498,"is_reserved":false,"is_disabled":false,"rental_uris":{"android":"levelo://app?vid=77ab8406-6fbf-4f30-a4db-2cbd45e2f874","ios":"levelo://app?vid=77ab8406-6fbf-4f30-a4db-2cbd45e2f874"},"vehicle_type_id":"4","last_reported":1762031232,"current_range_meters":17200,"station_id":"ce4bh412rcd13ifvqds0","pricing_plan_id":"cebpf4jnsgd1na2vs0mg"},{"bike_id":"d280ca46-18c7-4a78-afc3-0875735cbc78","system_id":"levelo_inurba_marseille","lat":43.25015,"lon":5.38933,"is_reserved":false,"is_disabled":false,"rental_uris":{"android":"levelo://app?vid=d280ca46-18c7-4a78-afc3-0875735cbc78","ios":"levelo://app?vid=d280ca46-18c7-4a78-afc3-0875735cbc78"},"vehicle_type_id":"4","last_reported":1762031232,"current_range_meters":17200,"station_id":"ce4bhgp2rcd13ifvqfd0","pricing_plan_id":"cebpf4jnsgd1na2vs0mg"},{"bike_id":"863eb6ba-55cb-4ef0-8faf-73fef899058d","system_id":"levelo_inurba_marseille","lat":43.29535,"lon":5.38545,"is_reserved":false,"is_disabled":false,"rental_uris":{"android":"levelo://app?vid=863eb6ba-55cb-4ef0-8faf-73fef899058d","ios":"levelo://app?vid=863eb6ba-55cb-4ef0-8faf-73fef899058d"},"vehicle_type_id":"4","last_reported":1762031232,"current_range_meters":17200,"station_id":"ce4bgih2rcd13ifvqba0","pricing_plan_id":"cebpf4jnsgd1na2vs0mg"},{"bike_id":"0d3e0b55-eff8-448b-8988-99ff4e704c13","system_id":"levelo_inurba_marseille","lat":43.28872,"lon":5.37868,"is_reserved":false,"is_disabled":false,"rental_uris":{"android":"levelo://app?vid=0d3e0b55-eff8-448b-8988-99ff4e704c13","ios":"levelo://app?vid=0d3e0b55-eff8-448b-8988-99ff4e704c13"},"vehicle_type_id":"4","last_reported":1762031232,"current_range_meters":17200,"station_id":"","pricing_plan_id":"cebpf4jnsgd1na2vs0mg"},{"bike_id":"527c3f9c-7b99-4328-b0fd-80e13b2dec21","system_id":"levelo_inurba_marseille","lat":43.24805,"lon":5.37464,"is_reserved":false,"is_disabled":false,"rental_uris":{"android":"levelo://app?vid=527c3f9c-7b99-4328-b0fd-80e13b2dec21","ios":"levelo://app?vid=527c3f9c-7b99-4328-b0fd-80e13b2dec21"},"vehicle_type_id":"4","last_reported":1762031232,"current_range_meters":17200,"station_id":"ce4bhgh2rcd13ifvqfb0","pricing_plan_id":"cebpf4jnsgd1na2vs0mg"},{"bike_id":"eff16b35-8239-4b98-a0ac-77e0e9c2b40d","system_id":"levelo_inurba_marseille","lat":43.28155,"lon":5.42643,"is_reserved":false,"is_disabled":false,"rental_uris":{"android":"levelo://app?vid=eff16b35-8239-4b98-a0ac-77e0e9c2b40d","ios":"levelo://app?vid=eff16b35-8239-4b98-a0ac-77e0e9c2b40d"},"vehicle_type_id":"4","last_reported":1762031232,"current_range_meters":17200,"station_id":"ce4bhnh2rcd13ifvqgug","pricing_plan_id":"cebpf4jnsgd1na2vs0mg"},{"bike_id":"91891e2b-3c04-410a-b47f-e4a2d35addbb","system_id":"levelo_inurba_marseille","lat":43.24806,"lon":5.37447,"is_reserved":false,"is_disabled":false,"rental_uris":{"android":"levelo://app?vid=91891e2b-3c04-410a-b47f-e4a2d35addbb","ios":"levelo://app?vid=91891e2b-3c04-410a-b47f-e4a2d35addbb"},"vehicle_type_id":"4","last_reported":1762031232,"current_range_meters":17200,"station_id":"ce4bhgh2rcd13ifvqfb0","pricing_plan_id":"cebpf4jnsgd1na2vs0mg"},{"bike_id":"ebf85bdb-1a2b-49af-a88d-03e90d4c31b8","system_id":"levelo_inurba_marseille","lat":43.23955,"lon":5.36623,"is_reserved":false,"is_disabled":true,"rental_uris":{"android":"levelo://app?vid=ebf85bdb-1a2b-49af-a88d-03e90d4c31b8","ios":"levelo://app?vid=ebf85bdb-1a2b-49af-a88d-03e90d4c31b8"},"vehicle_type_id":"4","last_reported":1762031232,"current_range_meters":17600,"station_id":"ce4bhi12rcd13ifvqfp0","pricing_plan_id":"cebpf4jnsgd1na2vs0mg"},{"bike_id":"de0ca7a8-116a-46c8-8c50-6b445a473423","system_id":"levelo_inurba_marseille","lat":43.28859,"lon":5.42544,"is_reserved":false,"is_disabled":false,"rental_uris":{"android":"levelo://app?vid=de0ca7a8-116a-46c8-8c50-6b445a473423","ios":"levelo://app?vid=de0ca7a8-116a-46c8-8c50-6b445a473423"},"vehicle_type_id":"4","last_reported":1762031232,"current_range_meters":17600,"station_id":"st_d3b462108ojc7389ooeg","pricing_plan_id":"cebpf4jnsgd1na2vs0mg"},{"bike_id":"bdfcabe2-1ffb-4317-914a-765b7ab2f8bb","system_id":"levelo_inurba_marseille","lat":43.300902,"lon":5.390848,"is_reserved":false,"is_disabled":false,"rental_uris":{"android":"levelo://app?vid=bdfcabe2-1ffb-4317-914a-765b7ab2f8bb","ios":"levelo://app?vid=bdfcabe2-1ffb-4317-914a-765b7ab2f8bb"},"vehicle_type_id":"4","last_reported":1762031232,"current_range_meters":17600,"station_id":"ce4bh192rcd13ifvqdb0","pricing_plan_id":"cebpf4jnsgd1na2vs0mg"},{"bike_id":"8adef542-af60-4b61-8a5b-4b604c3bcfe4","system_id":"levelo_inurba_marseille","lat":43.24634,"lon":5.43138,"is_reserved":false,"is_disabled":false,"rental_uris":{"android":"levelo://app?vid=8adef542-af60-4b61-8a5b-4b604c3bcfe4","ios":"levelo://app?vid=8adef542-af60-4b61-8a5b-4b604c3bcfe4"},"vehicle_type_id":"4","last_reported":1762031232,"current_range_meters":17600,"station_id":"st_d2m6c4gdas8pm72e190g","pricing_plan_id":"cebpf4jnsgd1na2vs0mg"},{"bike_id":"730ca9ac-fea7-459e-bf1a-e3eab4e2c977","system_id":"levelo_inurba_marseille","lat":43.24663,"lon":5.38162,"is_reserved":false,"is_disabled":false,"rental_uris":{"android":"levelo://app?vid=730ca9ac-fea7-459e-bf1a-e3eab4e2c977","ios":"levelo://app?vid=730ca9ac-fea7-459e-bf1a-e3eab4e2c977"},"vehicle_type_id":"4","last_reported":1762031232,"current_range_meters":17600,"station_id":"ce4bhih2rcd13ifvqfr0","pricing_plan_id":"cebpf4jnsgd1na2vs0mg"},{"bike_id":"0ed156f4-3ff7-4b8d-93c1-baecd364bae4","system_id":"levelo_inurba_marseille","lat":43.29752,"lon":5.37737,"is_reserved":false,"is_disabled":false,"rental_uris":{"android":"levelo://app?vid=0ed156f4-3ff7-4b8d-93c1-baecd364bae4","ios":"levelo://app?vid=0ed156f4-3ff7-4b8d-93c1-baecd364bae4"},"vehicle_type_id":"4","last_reported":1762031232,"current_range_meters":17600,"station_id":"ce4bh0h2rcd13ifvqd40","pricing_plan_id":"cebpf4jnsgd1na2vs0mg"},{"bike_id":"6fccd274-252d-4eeb-acba-716bc0711a35","system_id":"levelo_inurba_marseille","lat":43.246554,"lon":5.381714,"is_reserved":false,"is_disabled":false,"rental_uris":{"android":"levelo://app?vid=6fccd274-252d-4eeb-acba-716bc0711a35","ios":"levelo://app?vid=6fccd274-252d-4eeb-acba-716bc0711a35"},"vehicle_type_id":"4","last_reported":1762031232,"current_range_meters":17600,"station_id":"ce4bgjp2rcd13ifvqbh0","pricing_plan_id":"cebpf4jnsgd1na2vs0mg"},{"bike_id":"6cf82d78-565f-4257-a46d-4a0e964c14b8","system_id":"levelo_inurba_marseille","lat":43.29258,"lon":5.38436,"is_reserved":false,"is_disabled":false,"rental_uris":{"android":"levelo://app?vid=6cf82d78-565f-4257-a46d-4a0e964c14b8","ios":"levelo://app?vid=6cf82d78-565f-4257-a46d-4a0e964c14b8"},"vehicle_type_id":"4","last_reported":1762031232,"current_range_meters":17600,"station_id":"ce4bh692rcd13ifvqea0","pricing_plan_id":"cebpf4jnsgd1na2vs0mg"},{"bike_id":"12db2ebb-b6a8-4047-92ec-79e642f647de","system_id":"levelo_inurba_marseille","lat":43.30586,"lon":5.39343,"is_reserved":false,"is_disabled":false,"rental_uris":{"android":"levelo://app?vid=12db2ebb-b6a8-4047-92ec-79e642f647de","ios":"levelo://app?vid=12db2ebb-b6a8-4047-92ec-79e642f647de"},"vehicle_type_id":"4","last_reported":1762031232,"current_range_meters":17600,"station_id":"ce4bh0p2rcd13ifvqd80","pricing_plan_id":"cebpf4jnsgd1na2vs0mg"},{"bike_id":"85d2814b-1b07-48a2-97b6-aeff61e81b4a","system_id":"levelo_inurba_marseille","lat":43.29298,"lon":5.37454,"is_reserved":false,"is_disabled":false,"rental_uris":{"android":"levelo://app?vid=85d2814b-1b07-48a2-97b6-aeff61e81b4a","ios":"levelo://app?vid=85d2814b-1b07-48a2-97b6-aeff61e81b4a"},"vehicle_type_id":"4","last_reported":1762031232,"current_range_meters":17600,"station_id":"ce4bgi12rcd13ifvqb70","pricing_plan_id":"cebpf4jnsgd1na2vs0mg"},{"bike_id":"38ea9dc6-dac8-4be1-9565-9061a2caa9cb","system_id":"levelo_inurba_marseille","lat":43.28938,"lon":5.36637,"is_reserved":false,"is_disabled":false,"rental_uris":{"android":"levelo://app?vid=38ea9dc6-dac8-4be1-9565-9061a2caa9cb","ios":"levelo://app?vid=38ea9dc6-dac8-4be1-9565-9061a2caa9cb"},"vehicle_type_id":"4","last_reported":1762031232,"current_range_meters":17600,"station_id":"ce4bhap2rcd13ifvqek0","pricing_plan_id":"cebpf4jnsgd1na2vs0mg"},{"bike_id":"dcb0c8d1-731a-40b7-a278-f151b5103e3d","system_id":"levelo_inurba_marseille","lat":43.2481,"lon":5.37464,"is_reserved":false,"is_disabled":false,"rental_uris":{"android":"levelo://app?vid=dcb0c8d1-731a-40b7-a278-f151b5103e3d","ios":"levelo://app?vid=dcb0c8d1-731a-40b7-a278-f151b5103e3d"},"vehicle_type_id":"4","last_reported":1762031232,"current_range_meters":17600,"station_id":"","pricing_plan_id":"cebpf4jnsgd1na2vs0mg"},{"bike_id":"5e858bfc-762f-4ebc-bc30-17f939bd2bf6","system_id":"levelo_inurba_marseille","lat":43.24801,"lon":5.37456,"is_reserved":false,"is_disabled":false,"rental_uris":{"android":"levelo://app?vid=5e858bfc-762f-4ebc-bc30-17f939bd2bf6","ios":"levelo://app?vid=5e858bfc-762f-4ebc-bc30-17f939bd2bf6"},"vehicle_type_id":"4","last_reported":1762031232,"current_range_meters":18000,"station_id":"ce4bhgh2rcd13ifvqfb0","pricing_plan_id":"cebpf4jnsgd1na2vs0mg"},{"bike_id":"d4aa9896-a8e4-4460-b933-b42226612648","system_id":"levelo_inurba_marseille","lat":43.30134,"lon":5.43115,"is_reserved":false,"is_disabled":false,"rental_uris":{"android":"levelo://app?vid=d4aa9896-a8e4-4460-b933-b42226612648","ios":"levelo://app?vid=d4aa9896-a8e4-4460-b933-b42226612648"},"vehicle_type_id":"4","last_reported":1762031232,"current_range_meters":18000,"station_id":"st_d3js3co5814s73ftftug","pricing_plan_id":"cebpf4jnsgd1na2vs0mg"},{"bike_id":"423802bb-722e-4533-9018-c0f75cce34a6","system_id":"levelo_inurba_marseille","lat":43.30651,"lon":5.38166,"is_reserved":false,"is_disabled":false,"rental_uris":{"android":"levelo://app?vid=423802bb-722e-4533-9018-c0f75cce34a6","ios":"levelo://app?vid=423802bb-722e-4533-9018-c0f75cce34a6"},"vehicle_type_id":"4","last_reported":1762031232,"current_range_meters":18000,"station_id":"","pricing_plan_id":"cebpf4jnsgd1na2vs0mg"},{"bike_id":"115ca304-cc61-459b-a9ce-f9cd00f61894","system_id":"levelo_inurba_marseille","lat":43.26222,"lon":5.40449,"is_reserved":false,"is_disabled":false,"rental_uris":{"android":"levelo://app?vid=115ca304-cc61-459b-a9ce-f9cd00f61894","ios":"levelo://app?vid=115ca304-cc61-459b-a9ce-f9cd00f61894"},"vehicle_type_id":"4","last_reported":1762031232,"current_range_meters":18000,"station_id":"ce4bhmh2rcd13ifvqgmg","pricing_plan_id":"cebpf4jnsgd1na2vs0mg"},{"bike_id":"23964231-9294-40d2-9d81-16e99ab01d5b","system_id":"levelo_inurba_marseille","lat":43.25336,"lon":5.42175,"is_reserved":false,"is_disabled":false,"rental_uris":{"android":"levelo://app?vid=23964231-9294-40d2-9d81-16e99ab01d5b","ios":"levelo://app?vid=23964231-9294-40d2-9d81-16e99ab01d5b"},"vehicle_type_id":"4","last_reported":1762031232,"current_range_meters":18000,"station_id":"st_d2m65c5bi1j21697t3ng","pricing_plan_id":"cebpf4jnsgd1na2vs0mg"},{"bike_id":"fd4cfea7-ab98-4697-80d0-1cb1ec23fcb2","system_id":"levelo_inurba_marseille","lat":43.29598,"lon":5.38092,"is_reserved":false,"is_disabled":false,"rental_uris":{"android":"levelo://app?vid=fd4cfea7-ab98-4697-80d0-1cb1ec23fcb2","ios":"levelo://app?vid=fd4cfea7-ab98-4697-80d0-1cb1ec23fcb2"},"vehicle_type_id":"4","last_reported":1762031232,"current_range_meters":18000,"station_id":"ce4bgl12rcd13ifvqbo0","pricing_plan_id":"cebpf4jnsgd1na2vs0mg"},{"bike_id":"52250147-14ad-444e-bb14-999b000ff2f2","system_id":"levelo_inurba_marseille","lat":43.29305,"lon":5.37154,"is_reserved":false,"is_disabled":false,"rental_uris":{"android":"levelo://app?vid=52250147-14ad-444e-bb14-999b000ff2f2","ios":"levelo://app?vid=52250147-14ad-444e-bb14-999b000ff2f2"},"vehicle_type_id":"4","last_reported":1762031232,"current_range_meters":18000,"station_id":"ce4bgh92rcd13ifvqb40","pricing_plan_id":"cebpf4jnsgd1na2vs0mg"},{"bike_id":"dd70bcc2-2e6b-447f-adc2-e0826cf93554","system_id":"levelo_inurba_marseille","lat":43.31921,"lon":5.4013,"is_reserved":false,"is_disabled":false,"rental_uris":{"android":"levelo://app?vid=dd70bcc2-2e6b-447f-adc2-e0826cf93554","ios":"levelo://app?vid=dd70bcc2-2e6b-447f-adc2-e0826cf93554"},"vehicle_type_id":"4","last_reported":1762031232,"current_range_meters":18000,"station_id":"","pricing_plan_id":"cebpf4jnsgd1na2vs0mg"},{"bike_id":"320e1c85-e694-4a9d-acdf-71c08f3bea6d","system_id":"levelo_inurba_marseille","lat":43.297866,"lon":5.381136,"is_reserved":false,"is_disabled":false,"rental_uris":{"android":"levelo://app?vid=320e1c85-e694-4a9d-acdf-71c08f3bea6d","ios":"levelo://app?vid=320e1c85-e694-4a9d-acdf-71c08f3bea6d"},"vehicle_type_id":"4","last_reported":1762031232,"current_range_meters":18000,"station_id":"ce4bgvp2rcd13ifvqcu0","pricing_plan_id":"cebpf4jnsgd1na2vs0mg"},{"bike_id":"026eb638-0e29-4499-a8db-c96411c4796c","system_id":"levelo_inurba_marseille","lat":43.31283,"lon":5.36887,"is_reserved":false,"is_disabled":false,"rental_uris":{"android":"levelo://app?vid=026eb638-0e29-4499-a8db-c96411c4796c","ios":"levelo://app?vid=026eb638-0e29-4499-a8db-c96411c4796c"},"vehicle_type_id":"4","last_reported":1762031232,"current_range_meters":18000,"station_id":"ce4bgl92rcd13ifvqbq0","pricing_plan_id":"cebpf4jnsgd1na2vs0mg"},{"bike_id":"f1fca20d-4a69-454e-b131-8c02d4028a87","system_id":"levelo_inurba_marseille","lat":43.309448,"lon":5.390164,"is_reserved":false,"is_disabled":false,"rental_uris":{"android":"levelo://app?vid=f1fca20d-4a69-454e-b131-8c02d4028a87","ios":"levelo://app?vid=f1fca20d-4a69-454e-b131-8c02d4028a87"},"vehicle_type_id":"4","last_reported":1762031232,"current_range_meters":18800,"station_id":"","pricing_plan_id":"cebpf4jnsgd1na2vs0mg"},{"bike_id":"641244de-664d-454b-8dd1-5d15c61abe65","system_id":"levelo_inurba_marseille","lat":43.2929,"lon":5.3684,"is_reserved":false,"is_disabled":false,"rental_uris":{"android":"levelo://app?vid=641244de-664d-454b-8dd1-5d15c61abe65","ios":"levelo://app?vid=641244de-664d-454b-8dd1-5d15c61abe65"},"vehicle_type_id":"4","last_reported":1762031232,"current_range_meters":18800,"station_id":"ce4bhbp2rcd13ifvqesg","pricing_plan_id":"cebpf4jnsgd1na2vs0mg"},{"bike_id":"7c4b5287-96e8-4897-b20c-27f966eb9842","system_id":"levelo_inurba_marseille","lat":43.24192,"lon":5.39745,"is_reserved":false,"is_disabled":false,"rental_uris":{"android":"levelo://app?vid=7c4b5287-96e8-4897-b20c-27f966eb9842","ios":"levelo://app?vid=7c4b5287-96e8-4897-b20c-27f966eb9842"},"vehicle_type_id":"4","last_reported":1762031232,"current_range_meters":18800,"station_id":"ce4bhn12rcd13ifvqgpg","pricing_plan_id":"cebpf4jnsgd1na2vs0mg"},{"bike_id":"14b92a7a-0805-475a-abfd-8c979184b42b","system_id":"levelo_inurba_marseille","lat":43.30992,"lon":5.3702,"is_reserved":false,"is_disabled":false,"rental_uris":{"android":"levelo://app?vid=14b92a7a-0805-475a-abfd-8c979184b42b","ios":"levelo://app?vid=14b92a7a-0805-475a-abfd-8c979184b42b"},"vehicle_type_id":"4","last_reported":1762031232,"current_range_meters":18800,"station_id":"","pricing_plan_id":"cebpf4jnsgd1na2vs0mg"},{"bike_id":"8549c4d3-f2f7-4704-94e6-4fb6cbd2560a","system_id":"levelo_inurba_marseille","lat":43.297871,"lon":5.39345,"is_reserved":false,"is_disabled":false,"rental_uris":{"android":"levelo://app?vid=8549c4d3-f2f7-4704-94e6-4fb6cbd2560a","ios":"levelo://app?vid=8549c4d3-f2f7-4704-94e6-4fb6cbd2560a"},"vehicle_type_id":"4","last_reported":1762031232,"current_range_meters":18800,"station_id":"ce4bh3p2rcd13ifvqdq0","pricing_plan_id":"cebpf4jnsgd1na2vs0mg"},{"bike_id":"6eb523a4-350d-4959-ac5e-1335d8f70954","system_id":"levelo_inurba_marseille","lat":43.315717,"lon":5.406423,"is_reserved":false,"is_disabled":false,"rental_uris":{"android":"levelo://app?vid=6eb523a4-350d-4959-ac5e-1335d8f70954","ios":"levelo://app?vid=6eb523a4-350d-4959-ac5e-1335d8f70954"},"vehicle_type_id":"4","last_reported":1762031232,"current_range_meters":18800,"station_id":"","pricing_plan_id":"cebpf4jnsgd1na2vs0mg"},{"bike_id":"6559e7c4-3b3b-40cf-9376-92c7b0d6f0bf","system_id":"levelo_inurba_marseille","lat":43.30152,"lon":5.38098,"is_reserved":false,"is_disabled":false,"rental_uris":{"android":"levelo://app?vid=6559e7c4-3b3b-40cf-9376-92c7b0d6f0bf","ios":"levelo://app?vid=6559e7c4-3b3b-40cf-9376-92c7b0d6f0bf"},"vehicle_type_id":"4","last_reported":1762031232,"current_range_meters":18800,"station_id":"ce4bgjp2rcd13ifvqbh0","pricing_plan_id":"cebpf4jnsgd1na2vs0mg"},{"bike_id":"066ede02-47a2-4c83-bcb1-7eb633a370fb","system_id":"levelo_inurba_marseille","lat":43.31275,"lon":5.37753,"is_reserved":false,"is_disabled":false,"rental_uris":{"android":"levelo://app?vid=066ede02-47a2-4c83-bcb1-7eb633a370fb","ios":"levelo://app?vid=066ede02-47a2-4c83-bcb1-7eb633a370fb"},"vehicle_type_id":"4","last_reported":1762031232,"current_range_meters":19200,"station_id":"","pricing_plan_id":"cebpf4jnsgd1na2vs0mg"},{"bike_id":"77679107-31f6-4769-888c-bfa8b6d2bccd","system_id":"levelo_inurba_marseille","lat":43.2886,"lon":5.42527,"is_reserved":false,"is_disabled":false,"rental_uris":{"android":"levelo://app?vid=77679107-31f6-4769-888c-bfa8b6d2bccd","ios":"levelo://app?vid=77679107-31f6-4769-888c-bfa8b6d2bccd"},"vehicle_type_id":"4","last_reported":1762031232,"current_range_meters":19200,"station_id":"st_d3b462108ojc7389ooeg","pricing_plan_id":"cebpf4jnsgd1na2vs0mg"},{"bike_id":"f556ad88-b0ef-4d15-8048-f36fbe8e026c","system_id":"levelo_inurba_marseille","lat":43.28545,"lon":5.4409,"is_reserved":false,"is_disabled":false,"rental_uris":{"android":"levelo://app?vid=f556ad88-b0ef-4d15-8048-f36fbe8e026c","ios":"levelo://app?vid=f556ad88-b0ef-4d15-8048-f36fbe8e026c"},"vehicle_type_id":"4","last_reported":1762031232,"current_range_meters":19200,"station_id":"st_d3j3df2ikq2c7380ej80","pricing_plan_id":"cebpf4jnsgd1na2vs0mg"},{"bike_id":"17f0281a-c9be-49f5-8e48-d8502b0b8ab8","system_id":"levelo_inurba_marseille","lat":43.24805,"lon":5.37451,"is_reserved":false,"is_disabled":false,"rental_uris":{"android":"levelo://app?vid=17f0281a-c9be-49f5-8e48-d8502b0b8ab8","ios":"levelo://app?vid=17f0281a-c9be-49f5-8e48-d8502b0b8ab8"},"vehicle_type_id":"4","last_reported":1762031232,"current_range_meters":19200,"station_id":"ce4bhgh2rcd13ifvqfb0","pricing_plan_id":"cebpf4jnsgd1na2vs0mg"},{"bike_id":"615fd16d-75cd-468c-89f8-046bb02085ab","system_id":"levelo_inurba_marseille","lat":43.26781,"lon":5.39416,"is_reserved":false,"is_disabled":false,"rental_uris":{"android":"levelo://app?vid=615fd16d-75cd-468c-89f8-046bb02085ab","ios":"levelo://app?vid=615fd16d-75cd-468c-89f8-046bb02085ab"},"vehicle_type_id":"4","last_reported":1762031232,"current_range_meters":19200,"station_id":"ce4bhh12rcd13ifvqfg0","pricing_plan_id":"cebpf4jnsgd1na2vs0mg"},{"bike_id":"b3c17449-4881-4ea3-a07c-7fd8ab7b416c","system_id":"levelo_inurba_marseille","lat":43.3064,"lon":5.40085,"is_reserved":false,"is_disabled":false,"rental_uris":{"android":"levelo://app?vid=b3c17449-4881-4ea3-a07c-7fd8ab7b416c","ios":"levelo://app?vid=b3c17449-4881-4ea3-a07c-7fd8ab7b416c"},"vehicle_type_id":"4","last_reported":1762031232,"current_range_meters":19200,"station_id":"ce4bh112rcd13ifvqda0","pricing_plan_id":"cebpf4jnsgd1na2vs0mg"},{"bike_id":"ea981441-de44-4e91-a60f-0f3605343256","system_id":"levelo_inurba_marseille","lat":43.32357,"lon":5.36756,"is_reserved":false,"is_disabled":false,"rental_uris":{"android":"levelo://app?vid=ea981441-de44-4e91-a60f-0f3605343256","ios":"levelo://app?vid=ea981441-de44-4e91-a60f-0f3605343256"},"vehicle_type_id":"4","last_reported":1762031232,"current_range_meters":19200,"station_id":"ce4bhsh2rcd13ifvqi2g","pricing_plan_id":"cebpf4jnsgd1na2vs0mg"},{"bike_id":"0832823f-01b3-4aba-a634-815f8ac44b95","system_id":"levelo_inurba_marseille","lat":43.29528,"lon":5.38547,"is_reserved":false,"is_disabled":false,"rental_uris":{"android":"levelo://app?vid=0832823f-01b3-4aba-a634-815f8ac44b95","ios":"levelo://app?vid=0832823f-01b3-4aba-a634-815f8ac44b95"},"vehicle_type_id":"4","last_reported":1762031232,"current_range_meters":19200,"station_id":"ce4bgih2rcd13ifvqba0","pricing_plan_id":"cebpf4jnsgd1na2vs0mg"},{"bike_id":"f0f9745c-eff8-4fa8-a408-5820632600f2","system_id":"levelo_inurba_marseille","lat":43.29298,"lon":5.37454,"is_reserved":false,"is_disabled":false,"rental_uris":{"android":"levelo://app?vid=f0f9745c-eff8-4fa8-a408-5820632600f2","ios":"levelo://app?vid=f0f9745c-eff8-4fa8-a408-5820632600f2"},"vehicle_type_id":"4","last_reported":1762031232,"current_range_meters":19600,"station_id":"ce4bgi12rcd13ifvqb70","pricing_plan_id":"cebpf4jnsgd1na2vs0mg"},{"bike_id":"aef75ae5-d606-43b6-8ba5-d53a35c16de5","system_id":"levelo_inurba_marseille","lat":43.27433,"lon":5.39415,"is_reserved":false,"is_disabled":true,"rental_uris":{"android":"levelo://app?vid=aef75ae5-d606-43b6-8ba5-d53a35c16de5","ios":"levelo://app?vid=aef75ae5-d606-43b6-8ba5-d53a35c16de5"},"vehicle_type_id":"4","last_reported":1762031232,"current_range_meters":19600,"station_id":"ce4bhdp2rcd13ifvqf20","pricing_plan_id":"cebpf4jnsgd1na2vs0mg"},{"bike_id":"d8efcc32-c1db-4361-bc6d-830942f3d9b3","system_id":"levelo_inurba_marseille","lat":43.29197,"lon":5.39278,"is_reserved":false,"is_disabled":false,"rental_uris":{"android":"levelo://app?vid=d8efcc32-c1db-4361-bc6d-830942f3d9b3","ios":"levelo://app?vid=d8efcc32-c1db-4361-bc6d-830942f3d9b3"},"vehicle_type_id":"4","last_reported":1762031232,"current_range_meters":19600,"station_id":"ce4bh192rcd13ifvqdd0","pricing_plan_id":"cebpf4jnsgd1na2vs0mg"},{"bike_id":"f239ba6a-ada8-4f4c-b1c5-123648101952","system_id":"levelo_inurba_marseille","lat":43.29535,"lon":5.38548,"is_reserved":false,"is_disabled":false,"rental_uris":{"android":"levelo://app?vid=f239ba6a-ada8-4f4c-b1c5-123648101952","ios":"levelo://app?vid=f239ba6a-ada8-4f4c-b1c5-123648101952"},"vehicle_type_id":"4","last_reported":1762031232,"current_range_meters":19600,"station_id":"ce4bgih2rcd13ifvqba0","pricing_plan_id":"cebpf4jnsgd1na2vs0mg"},{"bike_id":"fcc7a5b9-eb88-45bf-aebf-cf96cca8c3ef","system_id":"levelo_inurba_marseille","lat":43.24662,"lon":5.38153,"is_reserved":false,"is_disabled":false,"rental_uris":{"android":"levelo://app?vid=fcc7a5b9-eb88-45bf-aebf-cf96cca8c3ef","ios":"levelo://app?vid=fcc7a5b9-eb88-45bf-aebf-cf96cca8c3ef"},"vehicle_type_id":"4","last_reported":1762031232,"current_range_meters":19600,"station_id":"ce4bhih2rcd13ifvqfr0","pricing_plan_id":"cebpf4jnsgd1na2vs0mg"},{"bike_id":"878dc551-0679-4d83-becc-fbe8bb3cf28a","system_id":"levelo_inurba_marseille","lat":43.24807,"lon":5.37441,"is_reserved":false,"is_disabled":false,"rental_uris":{"android":"levelo://app?vid=878dc551-0679-4d83-becc-fbe8bb3cf28a","ios":"levelo://app?vid=878dc551-0679-4d83-becc-fbe8bb3cf28a"},"vehicle_type_id":"4","last_reported":1762031232,"current_range_meters":19600,"station_id":"ce4bhgh2rcd13ifvqfb0","pricing_plan_id":"cebpf4jnsgd1na2vs0mg"},{"bike_id":"f0723ed3-0cbd-422b-ab9d-79baf2765767","system_id":"levelo_inurba_marseille","lat":43.29062,"lon":5.35893,"is_reserved":false,"is_disabled":false,"rental_uris":{"android":"levelo://app?vid=f0723ed3-0cbd-422b-ab9d-79baf2765767","ios":"levelo://app?vid=f0723ed3-0cbd-422b-ab9d-79baf2765767"},"vehicle_type_id":"4","last_reported":1762031232,"current_range_meters":19600,"station_id":"ce4bha92rcd13ifvqeg0","pricing_plan_id":"cebpf4jnsgd1na2vs0mg"},{"bike_id":"fe2272ea-7316-4280-b90c-d8c4db7bc73e","system_id":"levelo_inurba_marseille","lat":43.27941,"lon":5.39293,"is_reserved":false,"is_disabled":false,"rental_uris":{"android":"levelo://app?vid=fe2272ea-7316-4280-b90c-d8c4db7bc73e","ios":"levelo://app?vid=fe2272ea-7316-4280-b90c-d8c4db7bc73e"},"vehicle_type_id":"4","last_reported":1762031232,"current_range_meters":19600,"station_id":"","pricing_plan_id":"cebpf4jnsgd1na2vs0mg"},{"bike_id":"cc475582-0cc3-4b14-a66c-6041b0d2e976","system_id":"levelo_inurba_marseille","lat":43.29332,"lon":5.41168,"is_reserved":false,"is_disabled":false,"rental_uris":{"android":"levelo://app?vid=cc475582-0cc3-4b14-a66c-6041b0d2e976","ios":"levelo://app?vid=cc475582-0cc3-4b14-a66c-6041b0d2e976"},"vehicle_type_id":"4","last_reported":1762031232,"current_range_meters":19600,"station_id":"","pricing_plan_id":"cebpf4jnsgd1na2vs0mg"},{"bike_id":"aa56963e-5f6a-4043-b1c7-23e4d9f05d8c","system_id":"levelo_inurba_marseille","lat":43.313499,"lon":5.379119,"is_reserved":false,"is_disabled":false,"rental_uris":{"android":"levelo://app?vid=aa56963e-5f6a-4043-b1c7-23e4d9f05d8c","ios":"levelo://app?vid=aa56963e-5f6a-4043-b1c7-23e4d9f05d8c"},"vehicle_type_id":"4","last_reported":1762031232,"current_range_meters":19600,"station_id":"","pricing_plan_id":"cebpf4jnsgd1na2vs0mg"},{"bike_id":"51b91ad9-f372-4825-a2a7-7d395fc6680e","system_id":"levelo_inurba_marseille","lat":43.2925,"lon":5.38439,"is_reserved":false,"is_disabled":false,"rental_uris":{"android":"levelo://app?vid=51b91ad9-f372-4825-a2a7-7d395fc6680e","ios":"levelo://app?vid=51b91ad9-f372-4825-a2a7-7d395fc6680e"},"vehicle_type_id":"4","last_reported":1762031232,"current_range_meters":19600,"station_id":"ce4bh692rcd13ifvqea0","pricing_plan_id":"cebpf4jnsgd1na2vs0mg"},{"bike_id":"32dcebba-e0c6-44e9-a579-0e6beed6b242","system_id":"levelo_inurba_marseille","lat":43.286176,"lon":5.351018,"is_reserved":false,"is_disabled":false,"rental_uris":{"android":"levelo://app?vid=32dcebba-e0c6-44e9-a579-0e6beed6b242","ios":"levelo://app?vid=32dcebba-e0c6-44e9-a579-0e6beed6b242"},"vehicle_type_id":"4","last_reported":1762031232,"current_range_meters":20000,"station_id":"ce4bhch2rcd13ifvqeug","pricing_plan_id":"cebpf4jnsgd1na2vs0mg"},{"bike_id":"1c7e9560-2754-4a88-b1cb-cdee38fc1289","system_id":"levelo_inurba_marseille","lat":43.26945,"lon":5.40262,"is_reserved":false,"is_disabled":true,"rental_uris":{"android":"levelo://app?vid=1c7e9560-2754-4a88-b1cb-cdee38fc1289","ios":"levelo://app?vid=1c7e9560-2754-4a88-b1cb-cdee38fc1289"},"vehicle_type_id":"4","last_reported":1762031232,"current_range_meters":20000,"station_id":"cjm6bp8fraef2m0cb0m0","pricing_plan_id":"cebpf4jnsgd1na2vs0mg"},{"bike_id":"929258f3-4139-433b-a492-f0fada7a0f3a","system_id":"levelo_inurba_marseille","lat":43.27913,"lon":5.39569,"is_reserved":false,"is_disabled":false,"rental_uris":{"android":"levelo://app?vid=929258f3-4139-433b-a492-f0fada7a0f3a","ios":"levelo://app?vid=929258f3-4139-433b-a492-f0fada7a0f3a"},"vehicle_type_id":"4","last_reported":1762031232,"current_range_meters":20000,"station_id":"ce4bhf92rcd13ifvqf40","pricing_plan_id":"cebpf4jnsgd1na2vs0mg"},{"bike_id":"85d8043d-b929-43f8-9188-ad421047c360","system_id":"levelo_inurba_marseille","lat":43.25334,"lon":5.42158,"is_reserved":false,"is_disabled":false,"rental_uris":{"android":"levelo://app?vid=85d8043d-b929-43f8-9188-ad421047c360","ios":"levelo://app?vid=85d8043d-b929-43f8-9188-ad421047c360"},"vehicle_type_id":"4","last_reported":1762031232,"current_range_meters":20000,"station_id":"st_d2m65c5bi1j21697t3ng","pricing_plan_id":"cebpf4jnsgd1na2vs0mg"},{"bike_id":"65959e76-2dec-43d3-b15c-b4e7433182fd","system_id":"levelo_inurba_marseille","lat":43.293631,"lon":5.371955,"is_reserved":false,"is_disabled":false,"rental_uris":{"android":"levelo://app?vid=65959e76-2dec-43d3-b15c-b4e7433182fd","ios":"levelo://app?vid=65959e76-2dec-43d3-b15c-b4e7433182fd"},"vehicle_type_id":"4","last_reported":1762031232,"current_range_meters":20000,"station_id":"","pricing_plan_id":"cebpf4jnsgd1na2vs0mg"},{"bike_id":"6dbae8fb-b558-4de5-931e-260b80081062","system_id":"levelo_inurba_marseille","lat":43.29895,"lon":5.43667,"is_reserved":false,"is_disabled":false,"rental_uris":{"android":"levelo://app?vid=6dbae8fb-b558-4de5-931e-260b80081062","ios":"levelo://app?vid=6dbae8fb-b558-4de5-931e-260b80081062"},"vehicle_type_id":"4","last_reported":1762031232,"current_range_meters":20000,"station_id":"ce4bhpp2rcd13ifvqhfg","pricing_plan_id":"cebpf4jnsgd1na2vs0mg"},{"bike_id":"123ec047-d6a2-4308-aee4-8ec0b2bea538","system_id":"levelo_inurba_marseille","lat":43.23195,"lon":5.35563,"is_reserved":false,"is_disabled":false,"rental_uris":{"android":"levelo://app?vid=123ec047-d6a2-4308-aee4-8ec0b2bea538","ios":"levelo://app?vid=123ec047-d6a2-4308-aee4-8ec0b2bea538"},"vehicle_type_id":"4","last_reported":1762031232,"current_range_meters":20000,"station_id":"ce4bhu92rcd13ifvqi70","pricing_plan_id":"cebpf4jnsgd1na2vs0mg"},{"bike_id":"c512099e-8861-4b66-abf5-28d410fc5fb6","system_id":"levelo_inurba_marseille","lat":43.30149,"lon":5.38784,"is_reserved":false,"is_disabled":true,"rental_uris":{"android":"levelo://app?vid=c512099e-8861-4b66-abf5-28d410fc5fb6","ios":"levelo://app?vid=c512099e-8861-4b66-abf5-28d410fc5fb6"},"vehicle_type_id":"4","last_reported":1762031232,"current_range_meters":20000,"station_id":"ce4bghh2rcd13ifvqb60","pricing_plan_id":"cebpf4jnsgd1na2vs0mg"},{"bike_id":"4668435e-bcae-4775-b1ba-0c729cc77a71","system_id":"levelo_inurba_marseille","lat":43.284801,"lon":5.484009,"is_reserved":false,"is_disabled":false,"rental_uris":{"android":"levelo://app?vid=4668435e-bcae-4775-b1ba-0c729cc77a71","ios":"levelo://app?vid=4668435e-bcae-4775-b1ba-0c729cc77a71"},"vehicle_type_id":"4","last_reported":1762031232,"current_range_meters":20000,"station_id":"st_d3svhcjqgbts73a3dn0g","pricing_plan_id":"cebpf4jnsgd1na2vs0mg"},{"bike_id":"cdfea931-de57-4f9a-8fb5-a54a7bbb7acc","system_id":"levelo_inurba_marseille","lat":43.240743,"lon":5.377571,"is_reserved":false,"is_disabled":false,"rental_uris":{"android":"levelo://app?vid=cdfea931-de57-4f9a-8fb5-a54a7bbb7acc","ios":"levelo://app?vid=cdfea931-de57-4f9a-8fb5-a54a7bbb7acc"},"vehicle_type_id":"4","last_reported":1762031232,"current_range_meters":20000,"station_id":"ce4bhnp2rcd13ifvqgvg","pricing_plan_id":"cebpf4jnsgd1na2vs0mg"},{"bike_id":"2f30f985-2c1f-410e-96b6-70120a132a3a","system_id":"levelo_inurba_marseille","lat":43.29716,"lon":5.36611,"is_reserved":false,"is_disabled":false,"rental_uris":{"android":"levelo://app?vid=2f30f985-2c1f-410e-96b6-70120a132a3a","ios":"levelo://app?vid=2f30f985-2c1f-410e-96b6-70120a132a3a"},"vehicle_type_id":"4","last_reported":1762031232,"current_range_meters":20400,"station_id":"ce4bgn12rcd13ifvqbt0","pricing_plan_id":"cebpf4jnsgd1na2vs0mg"},{"bike_id":"7ce8bfeb-e528-4e00-abea-9be70ecaf175","system_id":"levelo_inurba_marseille","lat":43.295685,"lon":5.399805,"is_reserved":false,"is_disabled":false,"rental_uris":{"android":"levelo://app?vid=7ce8bfeb-e528-4e00-abea-9be70ecaf175","ios":"levelo://app?vid=7ce8bfeb-e528-4e00-abea-9be70ecaf175"},"vehicle_type_id":"4","last_reported":1762031232,"current_range_meters":20400,"station_id":"ce4bh312rcd13ifvqdj0","pricing_plan_id":"cebpf4jnsgd1na2vs0mg"},{"bike_id":"741f0404-fd9a-47a0-b6f1-10bcb10934b6","system_id":"levelo_inurba_marseille","lat":43.29265,"lon":5.38438,"is_reserved":false,"is_disabled":false,"rental_uris":{"android":"levelo://app?vid=741f0404-fd9a-47a0-b6f1-10bcb10934b6","ios":"levelo://app?vid=741f0404-fd9a-47a0-b6f1-10bcb10934b6"},"vehicle_type_id":"4","last_reported":1762031232,"current_range_meters":20400,"station_id":"ce4bh692rcd13ifvqea0","pricing_plan_id":"cebpf4jnsgd1na2vs0mg"},{"bike_id":"3c3bc39f-b095-4158-8510-0e92976f0b70","system_id":"levelo_inurba_marseille","lat":43.293934,"lon":5.385956,"is_reserved":false,"is_disabled":false,"rental_uris":{"android":"levelo://app?vid=3c3bc39f-b095-4158-8510-0e92976f0b70","ios":"levelo://app?vid=3c3bc39f-b095-4158-8510-0e92976f0b70"},"vehicle_type_id":"4","last_reported":1762031232,"current_range_meters":20400,"station_id":"ce4bgih2rcd13ifvqba0","pricing_plan_id":"cebpf4jnsgd1na2vs0mg"},{"bike_id":"0c69ddac-84fb-4c6f-a791-72a749f8db41","system_id":"levelo_inurba_marseille","lat":43.30594,"lon":5.39354,"is_reserved":false,"is_disabled":false,"rental_uris":{"android":"levelo://app?vid=0c69ddac-84fb-4c6f-a791-72a749f8db41","ios":"levelo://app?vid=0c69ddac-84fb-4c6f-a791-72a749f8db41"},"vehicle_type_id":"4","last_reported":1762031232,"current_range_meters":20400,"station_id":"ce4bh0p2rcd13ifvqd80","pricing_plan_id":"cebpf4jnsgd1na2vs0mg"},{"bike_id":"4aa56161-d555-407a-8595-98646f1b5401","system_id":"levelo_inurba_marseille","lat":43.30951,"lon":5.3908,"is_reserved":false,"is_disabled":false,"rental_uris":{"android":"levelo://app?vid=4aa56161-d555-407a-8595-98646f1b5401","ios":"levelo://app?vid=4aa56161-d555-407a-8595-98646f1b5401"},"vehicle_type_id":"4","last_reported":1762031232,"current_range_meters":20800,"station_id":"ce4bgup2rcd13ifvqco0","pricing_plan_id":"cebpf4jnsgd1na2vs0mg"},{"bike_id":"178d71e2-963a-4c09-a705-379160fab462","system_id":"levelo_inurba_marseille","lat":43.28001,"lon":5.4001,"is_reserved":false,"is_disabled":false,"rental_uris":{"android":"levelo://app?vid=178d71e2-963a-4c09-a705-379160fab462","ios":"levelo://app?vid=178d71e2-963a-4c09-a705-379160fab462"},"vehicle_type_id":"4","last_reported":1762031232,"current_range_meters":20800,"station_id":"ce4bho92rcd13ifvqh4g","pricing_plan_id":"cebpf4jnsgd1na2vs0mg"},{"bike_id":"6e9bed8b-30df-44e5-9bcd-b68fee2a65f8","system_id":"levelo_inurba_marseille","lat":43.24805,"lon":5.3746,"is_reserved":false,"is_disabled":false,"rental_uris":{"android":"levelo://app?vid=6e9bed8b-30df-44e5-9bcd-b68fee2a65f8","ios":"levelo://app?vid=6e9bed8b-30df-44e5-9bcd-b68fee2a65f8"},"vehicle_type_id":"4","last_reported":1762031232,"current_range_meters":20800,"station_id":"ce4bhgh2rcd13ifvqfb0","pricing_plan_id":"cebpf4jnsgd1na2vs0mg"},{"bike_id":"b2514755-0f11-4833-b225-7d1f8289efa4","system_id":"levelo_inurba_marseille","lat":43.22936,"lon":5.35373,"is_reserved":false,"is_disabled":false,"rental_uris":{"android":"levelo://app?vid=b2514755-0f11-4833-b225-7d1f8289efa4","ios":"levelo://app?vid=b2514755-0f11-4833-b225-7d1f8289efa4"},"vehicle_type_id":"4","last_reported":1762031232,"current_range_meters":20800,"station_id":"cpo3532slgdg3j2ikp40","pricing_plan_id":"cebpf4jnsgd1na2vs0mg"},{"bike_id":"0ec52474-d6a1-4a6b-b400-8e5b79f905c4","system_id":"levelo_inurba_marseille","lat":43.28727,"lon":5.36101,"is_reserved":false,"is_disabled":false,"rental_uris":{"android":"levelo://app?vid=0ec52474-d6a1-4a6b-b400-8e5b79f905c4","ios":"levelo://app?vid=0ec52474-d6a1-4a6b-b400-8e5b79f905c4"},"vehicle_type_id":"4","last_reported":1762031232,"current_range_meters":20800,"station_id":"cki0cbj6b192h4jlfktg","pricing_plan_id":"cebpf4jnsgd1na2vs0mg"},{"bike_id":"28f5c609-94bd-4f1d-9186-f66e4c2140b5","system_id":"levelo_inurba_marseille","lat":43.30729,"lon":5.42441,"is_reserved":false,"is_disabled":false,"rental_uris":{"android":"levelo://app?vid=28f5c609-94bd-4f1d-9186-f66e4c2140b5","ios":"levelo://app?vid=28f5c609-94bd-4f1d-9186-f66e4c2140b5"},"vehicle_type_id":"4","last_reported":1762031232,"current_range_meters":20800,"station_id":"st_cvj6ca6bvosntc0bfgr0","pricing_plan_id":"cebpf4jnsgd1na2vs0mg"},{"bike_id":"6dd18053-e3ac-4ec6-8544-7b6c95a61457","system_id":"levelo_inurba_marseille","lat":43.24167,"lon":5.36397,"is_reserved":false,"is_disabled":false,"rental_uris":{"android":"levelo://app?vid=6dd18053-e3ac-4ec6-8544-7b6c95a61457","ios":"levelo://app?vid=6dd18053-e3ac-4ec6-8544-7b6c95a61457"},"vehicle_type_id":"4","last_reported":1762031232,"current_range_meters":21600,"station_id":"cpo36qri1sfpv3e86is0","pricing_plan_id":"cebpf4jnsgd1na2vs0mg"},{"bike_id":"cfba733a-245d-4919-bc19-9aa9f222d086","system_id":"levelo_inurba_marseille","lat":43.29262,"lon":5.38438,"is_reserved":false,"is_disabled":false,"rental_uris":{"android":"levelo://app?vid=cfba733a-245d-4919-bc19-9aa9f222d086","ios":"levelo://app?vid=cfba733a-245d-4919-bc19-9aa9f222d086"},"vehicle_type_id":"4","last_reported":1762031232,"current_range_meters":21600,"station_id":"ce4bh692rcd13ifvqea0","pricing_plan_id":"cebpf4jnsgd1na2vs0mg"},{"bike_id":"4c2e795a-4ac2-4fba-b47e-7412c196e673","system_id":"levelo_inurba_marseille","lat":43.32114,"lon":5.36766,"is_reserved":false,"is_disabled":false,"rental_uris":{"android":"levelo://app?vid=4c2e795a-4ac2-4fba-b47e-7412c196e673","ios":"levelo://app?vid=4c2e795a-4ac2-4fba-b47e-7412c196e673"},"vehicle_type_id":"4","last_reported":1762031232,"current_range_meters":21600,"station_id":"ce4bhrh2rcd13ifvqhug","pricing_plan_id":"cebpf4jnsgd1na2vs0mg"},{"bike_id":"bc97e72b-f479-4cfb-ba90-458ce1432bd8","system_id":"levelo_inurba_marseille","lat":43.30286,"lon":5.37703,"is_reserved":false,"is_disabled":true,"rental_uris":{"android":"levelo://app?vid=bc97e72b-f479-4cfb-ba90-458ce1432bd8","ios":"levelo://app?vid=bc97e72b-f479-4cfb-ba90-458ce1432bd8"},"vehicle_type_id":"4","last_reported":1762031232,"current_range_meters":21600,"station_id":"ce4bguh2rcd13ifvqcj0","pricing_plan_id":"cebpf4jnsgd1na2vs0mg"},{"bike_id":"3ab88246-f765-43c1-8a49-28ceaee07eea","system_id":"levelo_inurba_marseille","lat":43.2926,"lon":5.38424,"is_reserved":false,"is_disabled":false,"rental_uris":{"android":"levelo://app?vid=3ab88246-f765-43c1-8a49-28ceaee07eea","ios":"levelo://app?vid=3ab88246-f765-43c1-8a49-28ceaee07eea"},"vehicle_type_id":"4","last_reported":1762031232,"current_range_meters":21600,"station_id":"ce4bh692rcd13ifvqea0","pricing_plan_id":"cebpf4jnsgd1na2vs0mg"},{"bike_id":"eaf32c0a-6c34-44ee-a211-f50ab6f7f1ce","system_id":"levelo_inurba_marseille","lat":43.29022,"lon":5.38632,"is_reserved":false,"is_disabled":false,"rental_uris":{"android":"levelo://app?vid=eaf32c0a-6c34-44ee-a211-f50ab6f7f1ce","ios":"levelo://app?vid=eaf32c0a-6c34-44ee-a211-f50ab6f7f1ce"},