{"last_updated":1747401791,"ttl":60,"version":"2.2","data":{"bikes":[{"bike_id":"0d2a8ea4-f172-499b-8399-c1ee5b9984db","system_id":"levelo_inurba_marseille","lat":43.30717,"lon":5.42435,"is_reserved":false,"is_disabled":false,"rental_uris":{"android":"levelo://app?vid=0d2a8ea4-f172-499b-8399-c1ee5b9984db","ios":"levelo://app?vid=0d2a8ea4-f172-499b-8399-c1ee5b9984db"},"vehicle_type_id":"4","last_reported":1747401791,"current_range_meters":2800,"station_id":"st_cvj6ca6bvosntc0bfgr0","pricing_plan_id":"cebpf4jnsgd1na2vs0mg"},{"bike_id":"767a4836-f226-4ee9-a3bf-5fc4b665c424","system_id":"levelo_inurba_marseille","lat":43.27935,"lon":5.35427,"is_reserved":false,"is_disabled":false,"rental_uris":{"android":"levelo://app?vid=767a4836-f226-4ee9-a3bf-5fc4b665c424","ios":"levelo://app?vid=767a4836-f226-4ee9-a3bf-5fc4b665c424"},"vehicle_type_id":"4","last_reported":1747401791,"current_range_meters":2800,"station_id":"","pricing_plan_id":"cebpf4jnsgd1na2vs0mg"},{"bike_id":"f282a6d8-5a5e-4e4d-9ebe-1b2da9ba3809","system_id":"levelo_inurba_marseille","lat":43.30141,"lon":5.38076,"is_reserved":false,"is_disabled":false,"rental_uris":{"android":"levelo://app?vid=f282a6d8-5a5e-4e4d-9ebe-1b2da9ba3809","ios":"levelo://app?vid=f282a6d8-5a5e-4e4d-9ebe-1b2da9ba3809"},"vehicle_type_id":"4","last_reported":1747401791,"current_range_meters":2800,"station_id":"ce4bgjp2rcd13ifvqbh0","pricing_plan_id":"cebpf4jnsgd1na2vs0mg"},{"bike_id":"02b5888c-75bd-44b3-a468-af674a7b6d92","system_id":"levelo_inurba_marseille","lat":43.29299,"lon":5.37451,"is_reserved":false,"is_disabled":false,"rental_uris":{"android":"levelo://app?vid=02b5888c-75bd-44b3-a468-af674a7b6d92","ios":"levelo://app?vid=02b5888c-75bd-44b3-a468-af674a7b6d92"},"vehicle_type_id":"4","last_reported":1747401791,"current_range_meters":2800,"station_id":"ce4bgi12rcd13ifvqb70","pricing_plan_id":"cebpf4jnsgd1na2vs0mg"},{"bike_id":"32688d4b-8e7e-4881-aa7b-cf7c0e0d652d","system_id":"levelo_inurba_marseille","lat":43.28957,"lon":5.37829,"is_reserved":false,"is_disabled":false,"rental_uris":{"android":"levelo://app?vid=32688d4b-8e7e-4881-aa7b-cf7c0e0d652d","ios":"levelo://app?vid=32688d4b-8e7e-4881-aa7b-cf7c0e0d652d"},"vehicle_type_id":"4","last_reported":1747401791,"current_range_meters":3200,"station_id":"ce4bh9p2rcd13ifvqed0","pricing_plan_id":"cebpf4jnsgd1na2vs0mg"},{"bike_id":"0de39960-dff2-4150-997f-a3cad608bf18","system_id":"levelo_inurba_marseille","lat":43.30311,"lon":5.36891,"is_reserved":false,"is_disabled":false,"rental_uris":{"android":"levelo://app?vid=0de39960-dff2-4150-997f-a3cad608bf18","ios":"levelo://app?vid=0de39960-dff2-4150-997f-a3cad608bf18"},"vehicle_type_id":"4","last_reported":1747401791,"current_range_meters":2800,"station_id":"ce4bgqh2rcd13ifvqc5g","pricing_plan_id":"cebpf4jnsgd1na2vs0mg"},{"bike_id":"f752227c-3df6-44d5-abd3-4a633d5341e0","system_id":"levelo_inurba_marseille","lat":43.229316,"lon":5.353709,"is_reserved":false,"is_disabled":false,"rental_uris":{"android":"levelo://app?vid=f752227c-3df6-44d5-abd3-4a633d5341e0","ios":"levelo://app?vid=f752227c-3df6-44d5-abd3-4a633d5341e0"},"vehicle_type_id":"4","last_reported":1747401791,"current_range_meters":3600,"station_id":"cpo3532slgdg3j2ikp40","pricing_plan_id":"cebpf4jnsgd1na2vs0mg"},{"bike_id":"5d5f5755-5b3b-4308-8b78-c8614cdd189d","system_id":"levelo_inurba_marseille","lat":43.30887,"lon":5.37109,"is_reserved":false,"is_disabled":false,"rental_uris":{"android":"levelo://app?vid=5d5f5755-5b3b-4308-8b78-c8614cdd189d","ios":"levelo://app?vid=5d5f5755-5b3b-4308-8b78-c8614cdd189d"},"vehicle_type_id":"4","last_reported":1747401791,"current_range_meters":4000,"station_id":"","pricing_plan_id":"cebpf4jnsgd1na2vs0mg"},{"bike_id":"d00de707-732d-4feb-a546-8f1f18b99272","system_id":"levelo_inurba_marseille","lat":43.305882,"lon":5.372398,"is_reserved":false,"is_disabled":false,"rental_uris":{"android":"levelo://app?vid=d00de707-732d-4feb-a546-8f1f18b99272","ios":"levelo://app?vid=d00de707-732d-4feb-a546-8f1f18b99272"},"vehicle_type_id":"4","last_reported":1747401791,"current_range_meters":3600,"station_id":"ce4bgqh2rcd13ifvqc4g","pricing_plan_id":"cebpf4jnsgd1na2vs0mg"},{"bike_id":"ed68adaa-a4f0-4aab-ba65-4494bbc2cbb9","system_id":"levelo_inurba_marseille","lat":43.286142,"lon":5.351014,"is_reserved":false,"is_disabled":false,"rental_uris":{"android":"levelo://app?vid=ed68adaa-a4f0-4aab-ba65-4494bbc2cbb9","ios":"levelo://app?vid=ed68adaa-a4f0-4aab-ba65-4494bbc2cbb9"},"vehicle_type_id":"4","last_reported":1747401791,"current_range_meters":3600,"station_id":"ce4bhch2rcd13ifvqeug","pricing_plan_id":"cebpf4jnsgd1na2vs0mg"},{"bike_id":"bd97490a-c15f-48a0-b287-3dc935d0f398","system_id":"levelo_inurba_marseille","lat":43.337444,"lon":5.374475,"is_reserved":false,"is_disabled":false,"rental_uris":{"android":"levelo://app?vid=bd97490a-c15f-48a0-b287-3dc935d0f398","ios":"levelo://app?vid=bd97490a-c15f-48a0-b287-3dc935d0f398"},"vehicle_type_id":"4","last_reported":1747401791,"current_range_meters":4000,"station_id":"","pricing_plan_id":"cebpf4jnsgd1na2vs0mg"},{"bike_id":"5883aabf-fffb-43e0-ae6f-610d8447b418","system_id":"levelo_inurba_marseille","lat":43.30146,"lon":5.38071,"is_reserved":false,"is_disabled":false,"rental_uris":{"android":"levelo://app?vid=5883aabf-fffb-43e0-ae6f-610d8447b418","ios":"levelo://app?vid=5883aabf-fffb-43e0-ae6f-610d8447b418"},"vehicle_type_id":"4","last_reported":1747401791,"current_range_meters":4400,"station_id":"ce4bgjp2rcd13ifvqbh0","pricing_plan_id":"cebpf4jnsgd1na2vs0mg"},{"bike_id":"d3c79810-b74f-4196-810c-899958e3bb49","system_id":"levelo_inurba_marseille","lat":43.27617,"lon":5.36112,"is_reserved":false,"is_disabled":false,"rental_uris":{"android":"levelo://app?vid=d3c79810-b74f-4196-810c-899958e3bb49","ios":"levelo://app?vid=d3c79810-b74f-4196-810c-899958e3bb49"},"vehicle_type_id":"4","last_reported":1747401791,"current_range_meters":4400,"station_id":"ce4bgj92rcd13ifvqbe0","pricing_plan_id":"cebpf4jnsgd1na2vs0mg"},{"bike_id":"b3b2c2c8-40e8-4676-b5d4-5a16142d5255","system_id":"levelo_inurba_marseille","lat":43.2961,"lon":5.38095,"is_reserved":false,"is_disabled":false,"rental_uris":{"android":"levelo://app?vid=b3b2c2c8-40e8-4676-b5d4-5a16142d5255","ios":"levelo://app?vid=b3b2c2c8-40e8-4676-b5d4-5a16142d5255"},"vehicle_type_id":"4","last_reported":1747401791,"current_range_meters":4000,"station_id":"ce4bgl12rcd13ifvqbo0","pricing_plan_id":"cebpf4jnsgd1na2vs0mg"},{"bike_id":"2ad262c5-c586-41a9-8a4d-ae8abc60aac8","system_id":"levelo_inurba_marseille","lat":43.27813,"lon":5.40714,"is_reserved":false,"is_disabled":false,"rental_uris":{"android":"levelo://app?vid=2ad262c5-c586-41a9-8a4d-ae8abc60aac8","ios":"levelo://app?vid=2ad262c5-c586-41a9-8a4d-ae8abc60aac8"},"vehicle_type_id":"4","last_reported":1747401791,"current_range_meters":4400,"station_id":"ce4bhnh2rcd13ifvqgtg","pricing_plan_id":"cebpf4jnsgd1na2vs0mg"},{"bike_id":"0ef21186-6006-47a1-bf5d-e23947054c39","system_id":"levelo_inurba_marseille","lat":43.30293,"lon":5.37712,"is_reserved":false,"is_disabled":false,"rental_uris":{"android":"levelo://app?vid=0ef21186-6006-47a1-bf5d-e23947054c39","ios":"levelo://app?vid=0ef21186-6006-47a1-bf5d-e23947054c39"},"vehicle_type_id":"4","last_reported":1747401791,"current_range_meters":4400,"station_id":"ce4bguh2rcd13ifvqcj0","pricing_plan_id":"cebpf4jnsgd1na2vs0mg"},{"bike_id":"5c207197-77b7-4246-8949-bf3352d683e3","system_id":"levelo_inurba_marseille","lat":43.28617,"lon":5.351,"is_reserved":false,"is_disabled":false,"rental_uris":{"android":"levelo://app?vid=5c207197-77b7-4246-8949-bf3352d683e3","ios":"levelo://app?vid=5c207197-77b7-4246-8949-bf3352d683e3"},"vehicle_type_id":"4","last_reported":1747401791,"current_range_meters":4400,"station_id":"ce4bhch2rcd13ifvqeug","pricing_plan_id":"cebpf4jnsgd1na2vs0mg"},{"bike_id":"55b0a3fa-5c65-4851-816d-1af073f9dbd1","system_id":"levelo_inurba_marseille","lat":43.25721,"lon":5.41115,"is_reserved":false,"is_disabled":false,"rental_uris":{"android":"levelo://app?vid=55b0a3fa-5c65-4851-816d-1af073f9dbd1","ios":"levelo://app?vid=55b0a3fa-5c65-4851-816d-1af073f9dbd1"},"vehicle_type_id":"4","last_reported":1747401791,"current_range_meters":4800,"station_id":"ce4bhkp2rcd13ifvqgd0","pricing_plan_id":"cebpf4jnsgd1na2vs0mg"},{"bike_id":"abae2bdc-ddc6-4ead-b372-b67058955f90","system_id":"levelo_inurba_marseille","lat":43.29204,"lon":5.39317,"is_reserved":false,"is_disabled":false,"rental_uris":{"android":"levelo://app?vid=abae2bdc-ddc6-4ead-b372-b67058955f90","ios":"levelo://app?vid=abae2bdc-ddc6-4ead-b372-b67058955f90"},"vehicle_type_id":"4","last_reported":1747401791,"current_range_meters":4800,"station_id":"ce4bh192rcd13ifvqdd0","pricing_plan_id":"cebpf4jnsgd1na2vs0mg"},{"bike_id":"21cd902a-3240-429c-908d-9d8f56ff94f2","system_id":"levelo_inurba_marseille","lat":43.30323,"lon":5.40443,"is_reserved":false,"is_disabled":false,"rental_uris":{"android":"levelo://app?vid=21cd902a-3240-429c-908d-9d8f56ff94f2","ios":"levelo://app?vid=21cd902a-3240-429c-908d-9d8f56ff94f2"},"vehicle_type_id":"4","last_reported":1747401791,"current_range_meters":4800,"station_id":"ce4bh012rcd13ifvqd10","pricing_plan_id":"cebpf4jnsgd1na2vs0mg"},{"bike_id":"f22b3f29-6241-4c2a-b6e8-b8ce6c78ef98","system_id":"levelo_inurba_marseille","lat":43.27506,"lon":5.42469,"is_reserved":false,"is_disabled":false,"rental_uris":{"android":"levelo://app?vid=f22b3f29-6241-4c2a-b6e8-b8ce6c78ef98","ios":"levelo://app?vid=f22b3f29-6241-4c2a-b6e8-b8ce6c78ef98"},"vehicle_type_id":"4","last_reported":1747401791,"current_range_meters":4800,"station_id":"ce4bhn92rcd13ifvqgrg","pricing_plan_id":"cebpf4jnsgd1na2vs0mg"},{"bike_id":"9ae88fda-756e-4d62-a572-21e2960d0433","system_id":"levelo_inurba_marseille","lat":43.2706,"lon":5.40258,"is_reserved":false,"is_disabled":false,"rental_uris":{"android":"levelo://app?vid=9ae88fda-756e-4d62-a572-21e2960d0433","ios":"levelo://app?vid=9ae88fda-756e-4d62-a572-21e2960d0433"},"vehicle_type_id":"4","last_reported":1747401791,"current_range_meters":4800,"station_id":"ce4bhk92rcd13ifvqgc0","pricing_plan_id":"cebpf4jnsgd1na2vs0mg"},{"bike_id":"fd316880-75dd-4343-9818-4c1397c0800f","system_id":"levelo_inurba_marseille","lat":43.21187,"lon":5.35064,"is_reserved":false,"is_disabled":false,"rental_uris":{"android":"levelo://app?vid=fd316880-75dd-4343-9818-4c1397c0800f","ios":"levelo://app?vid=fd316880-75dd-4343-9818-4c1397c0800f"},"vehicle_type_id":"4","last_reported":1747401791,"current_range_meters":4800,"station_id":"st_cvj6sg6p6f1abm77japg","pricing_plan_id":"cebpf4jnsgd1na2vs0mg"},{"bike_id":"7a867fd3-bc3a-4310-b001-5afb11c076ff","system_id":"levelo_inurba_marseille","lat":43.21194,"lon":5.35067,"is_reserved":false,"is_disabled":false,"rental_uris":{"android":"levelo://app?vid=7a867fd3-bc3a-4310-b001-5afb11c076ff","ios":"levelo://app?vid=7a867fd3-bc3a-4310-b001-5afb11c076ff"},"vehicle_type_id":"4","last_reported":1747401791,"current_range_meters":4800,"station_id":"st_cvj6sg6p6f1abm77japg","pricing_plan_id":"cebpf4jnsgd1na2vs0mg"},{"bike_id":"b2b3bd9e-1ca0-478a-ac5a-ed1c80ed8e2a","system_id":"levelo_inurba_marseille","lat":43.30554,"lon":5.36524,"is_reserved":false,"is_disabled":false,"rental_uris":{"android":"levelo://app?vid=b2b3bd9e-1ca0-478a-ac5a-ed1c80ed8e2a","ios":"levelo://app?vid=b2b3bd9e-1ca0-478a-ac5a-ed1c80ed8e2a"},"vehicle_type_id":"4","last_reported":1747401791,"current_range_meters":5600,"station_id":"ce4bgs12rcd13ifvqcag","pricing_plan_id":"cebpf4jnsgd1na2vs0mg"},{"bike_id":"02f04edc-3b4f-43ef-982c-acb32864e50e","system_id":"levelo_inurba_marseille","lat":43.28708,"lon":5.37951,"is_reserved":false,"is_disabled":false,"rental_uris":{"android":"levelo://app?vid=02f04edc-3b4f-43ef-982c-acb32864e50e","ios":"levelo://app?vid=02f04edc-3b4f-43ef-982c-acb32864e50e"},"vehicle_type_id":"4","last_reported":1747401791,"current_range_meters":5600,"station_id":"ce4bh9p2rcd13ifvqec0","pricing_plan_id":"cebpf4jnsgd1na2vs0mg"},{"bike_id":"b89a24e6-5078-471a-88fa-2c70cdf078ca","system_id":"levelo_inurba_marseille","lat":43.31023,"lon":5.37485,"is_reserved":false,"is_disabled":false,"rental_uris":{"android":"levelo://app?vid=b89a24e6-5078-471a-88fa-2c70cdf078ca","ios":"levelo://app?vid=b89a24e6-5078-471a-88fa-2c70cdf078ca"},"vehicle_type_id":"4","last_reported":1747401791,"current_range_meters":6000,"station_id":"","pricing_plan_id":"cebpf4jnsgd1na2vs0mg"},{"bike_id":"557ac5e6-b762-4cdc-957d-f6a8118329f1","system_id":"levelo_inurba_marseille","lat":43.25117,"lon":5.40316,"is_reserved":false,"is_disabled":false,"rental_uris":{"android":"levelo://app?vid=557ac5e6-b762-4cdc-957d-f6a8118329f1","ios":"levelo://app?vid=557ac5e6-b762-4cdc-957d-f6a8118329f1"},"vehicle_type_id":"4","last_reported":1747401791,"current_range_meters":5600,"station_id":"ce4bhlh2rcd13ifvqgig","pricing_plan_id":"cebpf4jnsgd1na2vs0mg"},{"bike_id":"d3c8da79-154d-404b-b2a2-c477d78b7f40","system_id":"levelo_inurba_marseille","lat":43.31371,"lon":5.385,"is_reserved":false,"is_disabled":false,"rental_uris":{"android":"levelo://app?vid=d3c8da79-154d-404b-b2a2-c477d78b7f40","ios":"levelo://app?vid=d3c8da79-154d-404b-b2a2-c477d78b7f40"},"vehicle_type_id":"4","last_reported":1747401791,"current_range_meters":5600,"station_id":"ce4bgt92rcd13ifvqcf0","pricing_plan_id":"cebpf4jnsgd1na2vs0mg"},{"bike_id":"e3a63437-5928-4663-9497-2e3c5c7c7c57","system_id":"levelo_inurba_marseille","lat":43.30784,"lon":5.37646,"is_reserved":false,"is_disabled":false,"rental_uris":{"android":"levelo://app?vid=e3a63437-5928-4663-9497-2e3c5c7c7c57","ios":"levelo://app?vid=e3a63437-5928-4663-9497-2e3c5c7c7c57"},"vehicle_type_id":"4","last_reported":1747401791,"current_range_meters":6000,"station_id":"ce4bgv92rcd13ifvqcq0","pricing_plan_id":"cebpf4jnsgd1na2vs0mg"},{"bike_id":"004e550f-eeb4-47fd-965a-a69664e7713a","system_id":"levelo_inurba_marseille","lat":43.27944,"lon":5.41038,"is_reserved":false,"is_disabled":false,"rental_uris":{"android":"levelo://app?vid=004e550f-eeb4-47fd-965a-a69664e7713a","ios":"levelo://app?vid=004e550f-eeb4-47fd-965a-a69664e7713a"},"vehicle_type_id":"4","last_reported":1747401791,"current_range_meters":6400,"station_id":"ce4bhnp2rcd13ifvqh0g","pricing_plan_id":"cebpf4jnsgd1na2vs0mg"},{"bike_id":"d1f702f5-74be-43f6-b3e6-30ddca4545ad","system_id":"levelo_inurba_marseille","lat":43.27489,"lon":5.42449,"is_reserved":false,"is_disabled":false,"rental_uris":{"android":"levelo://app?vid=d1f702f5-74be-43f6-b3e6-30ddca4545ad","ios":"levelo://app?vid=d1f702f5-74be-43f6-b3e6-30ddca4545ad"},"vehicle_type_id":"4","last_reported":1747401791,"current_range_meters":6400,"station_id":"ce4bhn92rcd13ifvqgrg","pricing_plan_id":"cebpf4jnsgd1na2vs0mg"},{"bike_id":"c23ae35a-538b-4c5f-b1ae-cb1e68cb9a3c","system_id":"levelo_inurba_marseille","lat":43.29604,"lon":5.38088,"is_reserved":false,"is_disabled":false,"rental_uris":{"android":"levelo://app?vid=c23ae35a-538b-4c5f-b1ae-cb1e68cb9a3c","ios":"levelo://app?vid=c23ae35a-538b-4c5f-b1ae-cb1e68cb9a3c"},"vehicle_type_id":"4","last_reported":1747401791,"current_range_meters":6400,"station_id":"ce4bgl12rcd13ifvqbo0","pricing_plan_id":"cebpf4jnsgd1na2vs0mg"},{"bike_id":"87b3295b-3339-40ee-8dc4-4b238bed7511","system_id":"levelo_inurba_marseille","lat":43.29364,"lon":5.37842,"is_reserved":false,"is_disabled":false,"rental_uris":{"android":"levelo://app?vid=87b3295b-3339-40ee-8dc4-4b238bed7511","ios":"levelo://app?vid=87b3295b-3339-40ee-8dc4-4b238bed7511"},"vehicle_type_id":"4","last_reported":1747401791,"current_range_meters":6400,"station_id":"ce4bgjh2rcd13ifvqbf0","pricing_plan_id":"cebpf4jnsgd1na2vs0mg"},{"bike_id":"35ad95c7-8d2f-4622-8799-d752b1fa2234","system_id":"levelo_inurba_marseille","lat":43.29206,"lon":5.39316,"is_reserved":false,"is_disabled":false,"rental_uris":{"android":"levelo://app?vid=35ad95c7-8d2f-4622-8799-d752b1fa2234","ios":"levelo://app?vid=35ad95c7-8d2f-4622-8799-d752b1fa2234"},"vehicle_type_id":"4","last_reported":1747401791,"current_range_meters":6400,"station_id":"ce4bh192rcd13ifvqdd0","pricing_plan_id":"cebpf4jnsgd1na2vs0mg"},{"bike_id":"122eca65-1d0b-40c7-b051-f62e43035c94","system_id":"levelo_inurba_marseille","lat":43.29208,"lon":5.39322,"is_reserved":false,"is_disabled":false,"rental_uris":{"android":"levelo://app?vid=122eca65-1d0b-40c7-b051-f62e43035c94","ios":"levelo://app?vid=122eca65-1d0b-40c7-b051-f62e43035c94"},"vehicle_type_id":"4","last_reported":1747401791,"current_range_meters":7200,"station_id":"ce4bh192rcd13ifvqdd0","pricing_plan_id":"cebpf4jnsgd1na2vs0mg"},{"bike_id":"368e7664-a55a-432f-98af-afc4661f4041","system_id":"levelo_inurba_marseille","lat":43.23152,"lon":5.43719,"is_reserved":false,"is_disabled":false,"rental_uris":{"android":"levelo://app?vid=368e7664-a55a-432f-98af-afc4661f4041","ios":"levelo://app?vid=368e7664-a55a-432f-98af-afc4661f4041"},"vehicle_type_id":"4","last_reported":1747401791,"current_range_meters":6800,"station_id":"ce4bhmp2rcd13ifvqgog","pricing_plan_id":"cebpf4jnsgd1na2vs0mg"},{"bike_id":"d20abdae-8a51-4195-b7c0-a0b2847f985e","system_id":"levelo_inurba_marseille","lat":43.30612,"lon":5.37235,"is_reserved":false,"is_disabled":false,"rental_uris":{"android":"levelo://app?vid=d20abdae-8a51-4195-b7c0-a0b2847f985e","ios":"levelo://app?vid=d20abdae-8a51-4195-b7c0-a0b2847f985e"},"vehicle_type_id":"4","last_reported":1747401791,"current_range_meters":6800,"station_id":"ce4bgqh2rcd13ifvqc4g","pricing_plan_id":"cebpf4jnsgd1na2vs0mg"},{"bike_id":"d560cbb8-c171-4691-9310-6a7e1803442e","system_id":"levelo_inurba_marseille","lat":43.29042,"lon":5.37567,"is_reserved":false,"is_disabled":false,"rental_uris":{"android":"levelo://app?vid=d560cbb8-c171-4691-9310-6a7e1803442e","ios":"levelo://app?vid=d560cbb8-c171-4691-9310-6a7e1803442e"},"vehicle_type_id":"4","last_reported":1747401791,"current_range_meters":6400,"station_id":"ce4bh692rcd13ifvqe90","pricing_plan_id":"cebpf4jnsgd1na2vs0mg"},{"bike_id":"62df2916-f919-4cd0-9f4c-58e669be9ed8","system_id":"levelo_inurba_marseille","lat":43.28265,"lon":5.35054,"is_reserved":false,"is_disabled":false,"rental_uris":{"android":"levelo://app?vid=62df2916-f919-4cd0-9f4c-58e669be9ed8","ios":"levelo://app?vid=62df2916-f919-4cd0-9f4c-58e669be9ed8"},"vehicle_type_id":"4","last_reported":1747401791,"current_range_meters":9200,"station_id":"ce4bhbp2rcd13ifvqerg","pricing_plan_id":"cebpf4jnsgd1na2vs0mg"},{"bike_id":"dfda70ac-be26-4631-a603-ac0a04813583","system_id":"levelo_inurba_marseille","lat":43.28857,"lon":5.3587,"is_reserved":false,"is_disabled":false,"rental_uris":{"android":"levelo://app?vid=dfda70ac-be26-4631-a603-ac0a04813583","ios":"levelo://app?vid=dfda70ac-be26-4631-a603-ac0a04813583"},"vehicle_type_id":"4","last_reported":1747401791,"current_range_meters":6800,"station_id":"ce4bhb12rcd13ifvqem0","pricing_plan_id":"cebpf4jnsgd1na2vs0mg"},{"bike_id":"a3759450-6702-4866-85ea-fd6d7d4273e0","system_id":"levelo_inurba_marseille","lat":43.29738,"lon":5.37735,"is_reserved":false,"is_disabled":false,"rental_uris":{"android":"levelo://app?vid=a3759450-6702-4866-85ea-fd6d7d4273e0","ios":"levelo://app?vid=a3759450-6702-4866-85ea-fd6d7d4273e0"},"vehicle_type_id":"4","last_reported":1747401791,"current_range_meters":7200,"station_id":"","pricing_plan_id":"cebpf4jnsgd1na2vs0mg"},{"bike_id":"90441565-a0cb-4348-b6af-0e992106f44f","system_id":"levelo_inurba_marseille","lat":43.29694,"lon":5.36588,"is_reserved":false,"is_disabled":false,"rental_uris":{"android":"levelo://app?vid=90441565-a0cb-4348-b6af-0e992106f44f","ios":"levelo://app?vid=90441565-a0cb-4348-b6af-0e992106f44f"},"vehicle_type_id":"4","last_reported":1747401791,"current_range_meters":8000,"station_id":"ce4bgn12rcd13ifvqbt0","pricing_plan_id":"cebpf4jnsgd1na2vs0mg"},{"bike_id":"02ae308c-3e2f-4244-97e6-2cea4b443d1a","system_id":"levelo_inurba_marseille","lat":43.31081,"lon":5.42427,"is_reserved":false,"is_disabled":false,"rental_uris":{"android":"levelo://app?vid=02ae308c-3e2f-4244-97e6-2cea4b443d1a","ios":"levelo://app?vid=02ae308c-3e2f-4244-97e6-2cea4b443d1a"},"vehicle_type_id":"4","last_reported":1747401791,"current_range_meters":8000,"station_id":"ce4bhp92rcd13ifvqhag","pricing_plan_id":"cebpf4jnsgd1na2vs0mg"},{"bike_id":"41d82552-32fb-4917-8110-4be463c46a3b","system_id":"levelo_inurba_marseille","lat":43.28617,"lon":5.35082,"is_reserved":false,"is_disabled":false,"rental_uris":{"android":"levelo://app?vid=41d82552-32fb-4917-8110-4be463c46a3b","ios":"levelo://app?vid=41d82552-32fb-4917-8110-4be463c46a3b"},"vehicle_type_id":"4","last_reported":1747401791,"current_range_meters":8000,"station_id":"ce4bhch2rcd13ifvqeug","pricing_plan_id":"cebpf4jnsgd1na2vs0mg"},{"bike_id":"0077f398-56b6-43bb-8eeb-9798d08de05c","system_id":"levelo_inurba_marseille","lat":43.30898,"lon":5.37335,"is_reserved":false,"is_disabled":false,"rental_uris":{"android":"levelo://app?vid=0077f398-56b6-43bb-8eeb-9798d08de05c","ios":"levelo://app?vid=0077f398-56b6-43bb-8eeb-9798d08de05c"},"vehicle_type_id":"4","last_reported":1747401791,"current_range_meters":8000,"station_id":"","pricing_plan_id":"cebpf4jnsgd1na2vs0mg"},{"bike_id":"66f7c9e7-57f3-4b5a-934e-baf9a34e5e1f","system_id":"levelo_inurba_marseille","lat":43.29843,"lon":5.362676,"is_reserved":false,"is_disabled":false,"rental_uris":{"android":"levelo://app?vid=66f7c9e7-57f3-4b5a-934e-baf9a34e5e1f","ios":"levelo://app?vid=66f7c9e7-57f3-4b5a-934e-baf9a34e5e1f"},"vehicle_type_id":"4","last_reported":1747401791,"current_range_meters":8000,"station_id":"ce4bgpp2rcd13ifvqc3g","pricing_plan_id":"cebpf4jnsgd1na2vs0mg"},{"bike_id":"55c75e3f-9009-490d-8821-6d03592700dc","system_id":"levelo_inurba_marseille","lat":43.29979,"lon":5.37152,"is_reserved":false,"is_disabled":false,"rental_uris":{"android":"levelo://app?vid=55c75e3f-9009-490d-8821-6d03592700dc","ios":"levelo://app?vid=55c75e3f-9009-490d-8821-6d03592700dc"},"vehicle_type_id":"4","last_reported":1747401791,"current_range_meters":8000,"station_id":"ce4bgr92rcd13ifvqc7g","pricing_plan_id":"cebpf4jnsgd1na2vs0mg"},{"bike_id":"a4254f33-dfdc-4beb-9ee4-21271a8a3aac","system_id":"levelo_inurba_marseille","lat":43.304111,"lon":5.4128,"is_reserved":false,"is_disabled":true,"rental_uris":{"android":"levelo://app?vid=a4254f33-dfdc-4beb-9ee4-21271a8a3aac","ios":"levelo://app?vid=a4254f33-dfdc-4beb-9ee4-21271a8a3aac"},"vehicle_type_id":"4","last_reported":1747401791,"current_range_meters":8000,"station_id":"ce4bhop2rcd13ifvqh8g","pricing_plan_id":"cebpf4jnsgd1na2vs0mg"},{"bike_id":"7406b058-a87f-44fc-a02f-c34c4694ffcd","system_id":"levelo_inurba_marseille","lat":43.32364,"lon":5.38903,"is_reserved":false,"is_disabled":false,"rental_uris":{"android":"levelo://app?vid=7406b058-a87f-44fc-a02f-c34c4694ffcd","ios":"levelo://app?vid=7406b058-a87f-44fc-a02f-c34c4694ffcd"},"vehicle_type_id":"4","last_reported":1747401791,"current_range_meters":8400,"station_id":"ce4bhqp2rcd13ifvqhog","pricing_plan_id":"cebpf4jnsgd1na2vs0mg"},{"bike_id":"ae7d9933-3b09-40df-9db0-8e90d5657af4","system_id":"levelo_inurba_marseille","lat":43.25868,"lon":5.39897,"is_reserved":false,"is_disabled":false,"rental_uris":{"android":"levelo://app?vid=ae7d9933-3b09-40df-9db0-8e90d5657af4","ios":"levelo://app?vid=ae7d9933-3b09-40df-9db0-8e90d5657af4"},"vehicle_type_id":"4","last_reported":1747401791,"current_range_meters":8400,"station_id":"ce4bhl92rcd13ifvqghg","pricing_plan_id":"cebpf4jnsgd1na2vs0mg"},{"bike_id":"01867bbc-ff8f-4b44-ae5b-9db266814dc3","system_id":"levelo_inurba_marseille","lat":43.30433,"lon":5.39748,"is_reserved":false,"is_disabled":false,"rental_uris":{"android":"levelo://app?vid=01867bbc-ff8f-4b44-ae5b-9db266814dc3","ios":"levelo://app?vid=01867bbc-ff8f-4b44-ae5b-9db266814dc3"},"vehicle_type_id":"4","last_reported":1747401791,"current_range_meters":8400,"station_id":"ce4bh092rcd13ifvqd20","pricing_plan_id":"cebpf4jnsgd1na2vs0mg"},{"bike_id":"e47fc5fe-6485-4f96-bd00-b014233a1ce0","system_id":"levelo_inurba_marseille","lat":43.28716,"lon":5.39968,"is_reserved":false,"is_disabled":false,"rental_uris":{"android":"levelo://app?vid=e47fc5fe-6485-4f96-bd00-b014233a1ce0","ios":"levelo://app?vid=e47fc5fe-6485-4f96-bd00-b014233a1ce0"},"vehicle_type_id":"4","last_reported":1747401791,"current_range_meters":8400,"station_id":"ce4bho92rcd13ifvqh3g","pricing_plan_id":"cebpf4jnsgd1na2vs0mg"},{"bike_id":"74657633-d420-469f-891f-cd0a6f3f8ade","system_id":"levelo_inurba_marseille","lat":43.275014,"lon":5.424628,"is_reserved":false,"is_disabled":false,"rental_uris":{"android":"levelo://app?vid=74657633-d420-469f-891f-cd0a6f3f8ade","ios":"levelo://app?vid=74657633-d420-469f-891f-cd0a6f3f8ade"},"vehicle_type_id":"4","last_reported":1747401791,"current_range_meters":8400,"station_id":"ce4bhn92rcd13ifvqgrg","pricing_plan_id":"cebpf4jnsgd1na2vs0mg"},{"bike_id":"f768f02c-a770-46ed-b9fb-ed1e435a3c0f","system_id":"levelo_inurba_marseille","lat":43.32939,"lon":5.39026,"is_reserved":false,"is_disabled":false,"rental_uris":{"android":"levelo://app?vid=f768f02c-a770-46ed-b9fb-ed1e435a3c0f","ios":"levelo://app?vid=f768f02c-a770-46ed-b9fb-ed1e435a3c0f"},"vehicle_type_id":"4","last_reported":1747401791,"current_range_meters":8400,"station_id":"","pricing_plan_id":"cebpf4jnsgd1na2vs0mg"},{"bike_id":"2b825be8-5498-49b3-901b-e8cb824032f0","system_id":"levelo_inurba_marseille","lat":43.27813,"lon":5.4074,"is_reserved":false,"is_disabled":false,"rental_uris":{"android":"levelo://app?vid=2b825be8-5498-49b3-901b-e8cb824032f0","ios":"levelo://app?vid=2b825be8-5498-49b3-901b-e8cb824032f0"},"vehicle_type_id":"4","last_reported":1747401791,"current_range_meters":8400,"station_id":"ce4bhnh2rcd13ifvqgtg","pricing_plan_id":"cebpf4jnsgd1na2vs0mg"},{"bike_id":"1d8fa786-89e8-4de0-9b72-9ccbd0be82af","system_id":"levelo_inurba_marseille","lat":43.29573,"lon":5.36733,"is_reserved":false,"is_disabled":false,"rental_uris":{"android":"levelo://app?vid=1d8fa786-89e8-4de0-9b72-9ccbd0be82af","ios":"levelo://app?vid=1d8fa786-89e8-4de0-9b72-9ccbd0be82af"},"vehicle_type_id":"4","last_reported":1747401791,"current_range_meters":8400,"station_id":"ce4bgph2rcd13ifvqc2g","pricing_plan_id":"cebpf4jnsgd1na2vs0mg"},{"bike_id":"78ca6765-4de7-4942-b1ce-4868f20df037","system_id":"levelo_inurba_marseille","lat":43.290157,"lon":5.356252,"is_reserved":false,"is_disabled":false,"rental_uris":{"android":"levelo://app?vid=78ca6765-4de7-4942-b1ce-4868f20df037","ios":"levelo://app?vid=78ca6765-4de7-4942-b1ce-4868f20df037"},"vehicle_type_id":"4","last_reported":1747401791,"current_range_meters":8800,"station_id":"ce4bhb92rcd13ifvqen0","pricing_plan_id":"cebpf4jnsgd1na2vs0mg"},{"bike_id":"0f18de7b-1a24-402d-b3b5-4e2154deea7a","system_id":"levelo_inurba_marseille","lat":43.29709,"lon":5.36591,"is_reserved":false,"is_disabled":false,"rental_uris":{"android":"levelo://app?vid=0f18de7b-1a24-402d-b3b5-4e2154deea7a","ios":"levelo://app?vid=0f18de7b-1a24-402d-b3b5-4e2154deea7a"},"vehicle_type_id":"4","last_reported":1747401791,"current_range_meters":8800,"station_id":"ce4bgn12rcd13ifvqbt0","pricing_plan_id":"cebpf4jnsgd1na2vs0mg"},{"bike_id":"345cffa0-29b1-4e14-91c8-8f581afe5ee4","system_id":"levelo_inurba_marseille","lat":43.29206,"lon":5.39326,"is_reserved":false,"is_disabled":true,"rental_uris":{"android":"levelo://app?vid=345cffa0-29b1-4e14-91c8-8f581afe5ee4","ios":"levelo://app?vid=345cffa0-29b1-4e14-91c8-8f581afe5ee4"},"vehicle_type_id":"4","last_reported":1747401791,"current_range_meters":8800,"station_id":"ce4bh192rcd13ifvqdd0","pricing_plan_id":"cebpf4jnsgd1na2vs0mg"},{"bike_id":"d9145d96-449a-47b0-b946-26bf3e0dc43c","system_id":"levelo_inurba_marseille","lat":43.3014,"lon":5.38083,"is_reserved":false,"is_disabled":false,"rental_uris":{"android":"levelo://app?vid=d9145d96-449a-47b0-b946-26bf3e0dc43c","ios":"levelo://app?vid=d9145d96-449a-47b0-b946-26bf3e0dc43c"},"vehicle_type_id":"4","last_reported":1747401791,"current_range_meters":14000,"station_id":"ce4bgjp2rcd13ifvqbh0","pricing_plan_id":"cebpf4jnsgd1na2vs0mg"},{"bike_id":"52496f75-440a-4fd7-8670-4231cd0142de","system_id":"levelo_inurba_marseille","lat":43.29635,"lon":5.37734,"is_reserved":false,"is_disabled":false,"rental_uris":{"android":"levelo://app?vid=52496f75-440a-4fd7-8670-4231cd0142de","ios":"levelo://app?vid=52496f75-440a-4fd7-8670-4231cd0142de"},"vehicle_type_id":"4","last_reported":1747401791,"current_range_meters":8800,"station_id":"ce4bgi92rcd13ifvqb90","pricing_plan_id":"cebpf4jnsgd1na2vs0mg"},{"bike_id":"c69da8e9-21de-44c2-a5ab-5d5769d72033","system_id":"levelo_inurba_marseille","lat":43.32686,"lon":5.40993,"is_reserved":false,"is_disabled":false,"rental_uris":{"android":"levelo://app?vid=c69da8e9-21de-44c2-a5ab-5d5769d72033","ios":"levelo://app?vid=c69da8e9-21de-44c2-a5ab-5d5769d72033"},"vehicle_type_id":"4","last_reported":1747401791,"current_range_meters":9200,"station_id":"ce4bhpp2rcd13ifvqhgg","pricing_plan_id":"cebpf4jnsgd1na2vs0mg"},{"bike_id":"d06a81f7-6bbe-4687-bfbe-932949dc466c","system_id":"levelo_inurba_marseille","lat":43.26143,"lon":5.38727,"is_reserved":false,"is_disabled":false,"rental_uris":{"android":"levelo://app?vid=d06a81f7-6bbe-4687-bfbe-932949dc466c","ios":"levelo://app?vid=d06a81f7-6bbe-4687-bfbe-932949dc466c"},"vehicle_type_id":"4","last_reported":1747401791,"current_range_meters":9200,"station_id":"","pricing_plan_id":"cebpf4jnsgd1na2vs0mg"},{"bike_id":"faf93576-f979-4a61-800b-8ef93b9c28b5","system_id":"levelo_inurba_marseille","lat":43.30921,"lon":5.36849,"is_reserved":false,"is_disabled":false,"rental_uris":{"android":"levelo://app?vid=faf93576-f979-4a61-800b-8ef93b9c28b5","ios":"levelo://app?vid=faf93576-f979-4a61-800b-8ef93b9c28b5"},"vehicle_type_id":"4","last_reported":1747401791,"current_range_meters":9200,"station_id":"ce4bgn92rcd13ifvqbvg","pricing_plan_id":"cebpf4jnsgd1na2vs0mg"},{"bike_id":"731a9541-e63f-4784-8ce0-04a1c5e7dc27","system_id":"levelo_inurba_marseille","lat":43.31248,"lon":5.36867,"is_reserved":false,"is_disabled":false,"rental_uris":{"android":"levelo://app?vid=731a9541-e63f-4784-8ce0-04a1c5e7dc27","ios":"levelo://app?vid=731a9541-e63f-4784-8ce0-04a1c5e7dc27"},"vehicle_type_id":"4","last_reported":1747401791,"current_range_meters":9200,"station_id":"ce4bgl92rcd13ifvqbq0","pricing_plan_id":"cebpf4jnsgd1na2vs0mg"},{"bike_id":"f8e4732a-2ecf-431c-8f66-abc7aabb8aa1","system_id":"levelo_inurba_marseille","lat":43.32939,"lon":5.39003,"is_reserved":false,"is_disabled":false,"rental_uris":{"android":"levelo://app?vid=f8e4732a-2ecf-431c-8f66-abc7aabb8aa1","ios":"levelo://app?vid=f8e4732a-2ecf-431c-8f66-abc7aabb8aa1"},"vehicle_type_id":"4","last_reported":1747401791,"current_range_meters":9200,"station_id":"","pricing_plan_id":"cebpf4jnsgd1na2vs0mg"},{"bike_id":"99ced86d-1bad-4245-8060-1def96be9ff7","system_id":"levelo_inurba_marseille","lat":43.2622,"lon":5.37447,"is_reserved":false,"is_disabled":false,"rental_uris":{"android":"levelo://app?vid=99ced86d-1bad-4245-8060-1def96be9ff7","ios":"levelo://app?vid=99ced86d-1bad-4245-8060-1def96be9ff7"},"vehicle_type_id":"4","last_reported":1747401791,"current_range_meters":9200,"station_id":"ce4bhgp2rcd13ifvqfc0","pricing_plan_id":"cebpf4jnsgd1na2vs0mg"},{"bike_id":"53430491-035f-498e-a945-9ac35747d223","system_id":"levelo_inurba_marseille","lat":43.30163,"lon":5.38098,"is_reserved":false,"is_disabled":false,"rental_uris":{"android":"levelo://app?vid=53430491-035f-498e-a945-9ac35747d223","ios":"levelo://app?vid=53430491-035f-498e-a945-9ac35747d223"},"vehicle_type_id":"4","last_reported":1747401791,"current_range_meters":9600,"station_id":"ce4bgjp2rcd13ifvqbh0","pricing_plan_id":"cebpf4jnsgd1na2vs0mg"},{"bike_id":"1ef9f933-fa35-40c6-8e51-1047568d92c0","system_id":"levelo_inurba_marseille","lat":43.24663,"lon":5.3816,"is_reserved":false,"is_disabled":false,"rental_uris":{"android":"levelo://app?vid=1ef9f933-fa35-40c6-8e51-1047568d92c0","ios":"levelo://app?vid=1ef9f933-fa35-40c6-8e51-1047568d92c0"},"vehicle_type_id":"4","last_reported":1747401791,"current_range_meters":9600,"station_id":"ce4bhih2rcd13ifvqfr0","pricing_plan_id":"cebpf4jnsgd1na2vs0mg"},{"bike_id":"e1625b5c-c3e3-4683-a929-8489f6765f6e","system_id":"levelo_inurba_marseille","lat":43.30178,"lon":5.3742,"is_reserved":false,"is_disabled":false,"rental_uris":{"android":"levelo://app?vid=e1625b5c-c3e3-4683-a929-8489f6765f6e","ios":"levelo://app?vid=e1625b5c-c3e3-4683-a929-8489f6765f6e"},"vehicle_type_id":"4","last_reported":1747401791,"current_range_meters":9600,"station_id":"ce4bgs92rcd13ifvqcc0","pricing_plan_id":"cebpf4jnsgd1na2vs0mg"},{"bike_id":"32893894-a75b-43d2-be09-8a58963fdb2e","system_id":"levelo_inurba_marseille","lat":43.29622,"lon":5.37725,"is_reserved":false,"is_disabled":false,"rental_uris":{"android":"levelo://app?vid=32893894-a75b-43d2-be09-8a58963fdb2e","ios":"levelo://app?vid=32893894-a75b-43d2-be09-8a58963fdb2e"},"vehicle_type_id":"4","last_reported":1747401791,"current_range_meters":9600,"station_id":"ce4bgi92rcd13ifvqb90","pricing_plan_id":"cebpf4jnsgd1na2vs0mg"},{"bike_id":"8101f480-f29a-46a7-ad44-fbe51283b3b0","system_id":"levelo_inurba_marseille","lat":43.27954,"lon":5.41037,"is_reserved":false,"is_disabled":false,"rental_uris":{"android":"levelo://app?vid=8101f480-f29a-46a7-ad44-fbe51283b3b0","ios":"levelo://app?vid=8101f480-f29a-46a7-ad44-fbe51283b3b0"},"vehicle_type_id":"4","last_reported":1747401791,"current_range_meters":9600,"station_id":"ce4bhnp2rcd13ifvqh0g","pricing_plan_id":"cebpf4jnsgd1na2vs0mg"},{"bike_id":"4a789b69-418d-4ac7-8feb-c04148a8173e","system_id":"levelo_inurba_marseille","lat":43.233197,"lon":5.39977,"is_reserved":false,"is_disabled":false,"rental_uris":{"android":"levelo://app?vid=4a789b69-418d-4ac7-8feb-c04148a8173e","ios":"levelo://app?vid=4a789b69-418d-4ac7-8feb-c04148a8173e"},"vehicle_type_id":"4","last_reported":1747401791,"current_range_meters":9600,"station_id":"ce4bhn12rcd13ifvqgqg","pricing_plan_id":"cebpf4jnsgd1na2vs0mg"},{"bike_id":"e64e4484-2db6-41f4-beb8-e0c0ae1263cd","system_id":"levelo_inurba_marseille","lat":43.285203,"lon":5.430339,"is_reserved":false,"is_disabled":false,"rental_uris":{"android":"levelo://app?vid=e64e4484-2db6-41f4-beb8-e0c0ae1263cd","ios":"levelo://app?vid=e64e4484-2db6-41f4-beb8-e0c0ae1263cd"},"vehicle_type_id":"4","last_reported":1747401791,"current_range_meters":9600,"station_id":"","pricing_plan_id":"cebpf4jnsgd1na2vs0mg"},{"bike_id":"0600ed6e-9cee-4572-a2dc-0a9c92a9ec3d","system_id":"levelo_inurba_marseille","lat":43.25578,"lon":5.38226,"is_reserved":false,"is_disabled":false,"rental_uris":{"android":"levelo://app?vid=0600ed6e-9cee-4572-a2dc-0a9c92a9ec3d","ios":"levelo://app?vid=0600ed6e-9cee-4572-a2dc-0a9c92a9ec3d"},"vehicle_type_id":"4","last_reported":1747401791,"current_range_meters":9600,"station_id":"ce4bhih2rcd13ifvqfs0","pricing_plan_id":"cebpf4jnsgd1na2vs0mg"},{"bike_id":"08312611-bdcb-4e8a-88ba-f8659101163a","system_id":"levelo_inurba_marseille","lat":43.26557,"lon":5.37282,"is_reserved":false,"is_disabled":false,"rental_uris":{"android":"levelo://app?vid=08312611-bdcb-4e8a-88ba-f8659101163a","ios":"levelo://app?vid=08312611-bdcb-4e8a-88ba-f8659101163a"},"vehicle_type_id":"4","last_reported":1747401791,"current_range_meters":9600,"station_id":"ce4bhg12rcd13ifvqf70","pricing_plan_id":"cebpf4jnsgd1na2vs0mg"},{"bike_id":"2463155b-d0d0-4538-a458-c1a6f3a2d46a","system_id":"levelo_inurba_marseille","lat":43.30421,"lon":5.39738,"is_reserved":false,"is_disabled":false,"rental_uris":{"android":"levelo://app?vid=2463155b-d0d0-4538-a458-c1a6f3a2d46a","ios":"levelo://app?vid=2463155b-d0d0-4538-a458-c1a6f3a2d46a"},"vehicle_type_id":"4","last_reported":1747401791,"current_range_meters":9200,"station_id":"ce4bh092rcd13ifvqd20","pricing_plan_id":"cebpf4jnsgd1na2vs0mg"},{"bike_id":"05a6a611-a53e-4274-9ac4-772bab20e487","system_id":"levelo_inurba_marseille","lat":43.2904,"lon":5.3995,"is_reserved":false,"is_disabled":false,"rental_uris":{"android":"levelo://app?vid=05a6a611-a53e-4274-9ac4-772bab20e487","ios":"levelo://app?vid=05a6a611-a53e-4274-9ac4-772bab20e487"},"vehicle_type_id":"4","last_reported":1747401791,"current_range_meters":9600,"station_id":"ce4bh392rcd13ifvqdm0","pricing_plan_id":"cebpf4jnsgd1na2vs0mg"},{"bike_id":"3a6807b8-2e00-49dd-b91b-f7267119f395","system_id":"levelo_inurba_marseille","lat":43.29632,"lon":5.37713,"is_reserved":false,"is_disabled":false,"rental_uris":{"android":"levelo://app?vid=3a6807b8-2e00-49dd-b91b-f7267119f395","ios":"levelo://app?vid=3a6807b8-2e00-49dd-b91b-f7267119f395"},"vehicle_type_id":"4","last_reported":1747401791,"current_range_meters":9200,"station_id":"ce4bgi92rcd13ifvqb90","pricing_plan_id":"cebpf4jnsgd1na2vs0mg"},{"bike_id":"a1bd7873-3574-4728-882c-f418b8143ab7","system_id":"levelo_inurba_marseille","lat":43.29553,"lon":5.37488,"is_reserved":false,"is_disabled":false,"rental_uris":{"android":"levelo://app?vid=a1bd7873-3574-4728-882c-f418b8143ab7","ios":"levelo://app?vid=a1bd7873-3574-4728-882c-f418b8143ab7"},"vehicle_type_id":"4","last_reported":1747401791,"current_range_meters":9200,"station_id":"ce4bgkp2rcd13ifvqbmg","pricing_plan_id":"cebpf4jnsgd1na2vs0mg"},{"bike_id":"7499b045-381d-4398-adad-67e668518bf6","system_id":"levelo_inurba_marseille","lat":43.29808,"lon":5.38091,"is_reserved":false,"is_disabled":false,"rental_uris":{"android":"levelo://app?vid=7499b045-381d-4398-adad-67e668518bf6","ios":"levelo://app?vid=7499b045-381d-4398-adad-67e668518bf6"},"vehicle_type_id":"4","last_reported":1747401791,"current_range_meters":9600,"station_id":"ce4bgip2rcd13ifvqbb0","pricing_plan_id":"cebpf4jnsgd1na2vs0mg"},{"bike_id":"459ac4cb-6d31-4f17-9553-cddac49594c7","system_id":"levelo_inurba_marseille","lat":43.27921,"lon":5.39589,"is_reserved":false,"is_disabled":false,"rental_uris":{"android":"levelo://app?vid=459ac4cb-6d31-4f17-9553-cddac49594c7","ios":"levelo://app?vid=459ac4cb-6d31-4f17-9553-cddac49594c7"},"vehicle_type_id":"4","last_reported":1747401791,"current_range_meters":10000,"station_id":"ce4bhf92rcd13ifvqf40","pricing_plan_id":"cebpf4jnsgd1na2vs0mg"},{"bike_id":"bacd5098-f3af-4944-a479-d4f5151aec8f","system_id":"levelo_inurba_marseille","lat":43.28158,"lon":5.42642,"is_reserved":false,"is_disabled":false,"rental_uris":{"android":"levelo://app?vid=bacd5098-f3af-4944-a479-d4f5151aec8f","ios":"levelo://app?vid=bacd5098-f3af-4944-a479-d4f5151aec8f"},"vehicle_type_id":"4","last_reported":1747401791,"current_range_meters":10000,"station_id":"ce4bhnh2rcd13ifvqgug","pricing_plan_id":"cebpf4jnsgd1na2vs0mg"},{"bike_id":"f20d7c95-edea-41f7-80c4-cd9b03b70913","system_id":"levelo_inurba_marseille","lat":43.25721,"lon":5.41114,"is_reserved":false,"is_disabled":false,"rental_uris":{"android":"levelo://app?vid=f20d7c95-edea-41f7-80c4-cd9b03b70913","ios":"levelo://app?vid=f20d7c95-edea-41f7-80c4-cd9b03b70913"},"vehicle_type_id":"4","last_reported":1747401791,"current_range_meters":10000,"station_id":"ce4bhkp2rcd13ifvqgd0","pricing_plan_id":"cebpf4jnsgd1na2vs0mg"},{"bike_id":"9486f001-cd3a-41d2-8acc-2001336a916d","system_id":"levelo_inurba_marseille","lat":43.301522,"lon":5.380728,"is_reserved":false,"is_disabled":false,"rental_uris":{"android":"levelo://app?vid=9486f001-cd3a-41d2-8acc-2001336a916d","ios":"levelo://app?vid=9486f001-cd3a-41d2-8acc-2001336a916d"},"vehicle_type_id":"4","last_reported":1747401791,"current_range_meters":10000,"station_id":"","pricing_plan_id":"cebpf4jnsgd1na2vs0mg"},{"bike_id":"c0b9fd4f-e181-46ce-b0bf-f5119973334f","system_id":"levelo_inurba_marseille","lat":43.33771,"lon":5.37424,"is_reserved":false,"is_disabled":false,"rental_uris":{"android":"levelo://app?vid=c0b9fd4f-e181-46ce-b0bf-f5119973334f","ios":"levelo://app?vid=c0b9fd4f-e181-46ce-b0bf-f5119973334f"},"vehicle_type_id":"4","last_reported":1747401791,"current_range_meters":10000,"station_id":"","pricing_plan_id":"cebpf4jnsgd1na2vs0mg"},{"bike_id":"fe384e8c-fafd-4e49-9c98-92588cc2406b","system_id":"levelo_inurba_marseille","lat":43.30264,"lon":5.37705,"is_reserved":false,"is_disabled":false,"rental_uris":{"android":"levelo://app?vid=fe384e8c-fafd-4e49-9c98-92588cc2406b","ios":"levelo://app?vid=fe384e8c-fafd-4e49-9c98-92588cc2406b"},"vehicle_type_id":"4","last_reported":1747401791,"current_range_meters":10800,"station_id":"ce4bguh2rcd13ifvqcj0","pricing_plan_id":"cebpf4jnsgd1na2vs0mg"},{"bike_id":"90e0ccca-f356-4258-b378-3452eef8d125","system_id":"levelo_inurba_marseille","lat":43.26214,"lon":5.37439,"is_reserved":false,"is_disabled":false,"rental_uris":{"android":"levelo://app?vid=90e0ccca-f356-4258-b378-3452eef8d125","ios":"levelo://app?vid=90e0ccca-f356-4258-b378-3452eef8d125"},"vehicle_type_id":"4","last_reported":1747401791,"current_range_meters":10800,"station_id":"ce4bhgp2rcd13ifvqfc0","pricing_plan_id":"cebpf4jnsgd1na2vs0mg"},{"bike_id":"b44137a3-7413-44a7-af2c-fce4c057ecb7","system_id":"levelo_inurba_marseille","lat":43.27692,"lon":5.38922,"is_reserved":false,"is_disabled":false,"rental_uris":{"android":"levelo://app?vid=b44137a3-7413-44a7-af2c-fce4c057ecb7","ios":"levelo://app?vid=b44137a3-7413-44a7-af2c-fce4c057ecb7"},"vehicle_type_id":"4","last_reported":1747401791,"current_range_meters":10800,"station_id":"ce4bhi12rcd13ifvqfo0","pricing_plan_id":"cebpf4jnsgd1na2vs0mg"},{"bike_id":"39c7c348-baf3-417a-8df3-30f456f5c866","system_id":"levelo_inurba_marseille","lat":43.32101,"lon":5.36794,"is_reserved":false,"is_disabled":false,"rental_uris":{"android":"levelo://app?vid=39c7c348-baf3-417a-8df3-30f456f5c866","ios":"levelo://app?vid=39c7c348-baf3-417a-8df3-30f456f5c866"},"vehicle_type_id":"4","last_reported":1747401791,"current_range_meters":10800,"station_id":"ce4bhrh2rcd13ifvqhug","pricing_plan_id":"cebpf4jnsgd1na2vs0mg"},{"bike_id":"85b6857a-d89e-4f6d-8c28-14bd9be1875d","system_id":"levelo_inurba_marseille","lat":43.28937,"lon":5.3962,"is_reserved":false,"is_disabled":false,"rental_uris":{"android":"levelo://app?vid=85b6857a-d89e-4f6d-8c28-14bd9be1875d","ios":"levelo://app?vid=85b6857a-d89e-4f6d-8c28-14bd9be1875d"},"vehicle_type_id":"4","last_reported":1747401791,"current_range_meters":10800,"station_id":"ce4bh3h2rcd13ifvqdn0","pricing_plan_id":"cebpf4jnsgd1na2vs0mg"},{"bike_id":"e6800d76-53cc-4bfc-8e60-5700ad995500","system_id":"levelo_inurba_marseille","lat":43.30187,"lon":5.36623,"is_reserved":false,"is_disabled":false,"rental_uris":{"android":"levelo://app?vid=e6800d76-53cc-4bfc-8e60-5700ad995500","ios":"levelo://app?vid=e6800d76-53cc-4bfc-8e60-5700ad995500"},"vehicle_type_id":"4","last_reported":1747401791,"current_range_meters":10800,"station_id":"ce4bgrh2rcd13ifvqc8g","pricing_plan_id":"cebpf4jnsgd1na2vs0mg"},{"bike_id":"ce68de9c-6a0e-4aeb-b745-92a3fdc5907c","system_id":"levelo_inurba_marseille","lat":43.28365,"lon":5.38129,"is_reserved":false,"is_disabled":false,"rental_uris":{"android":"levelo://app?vid=ce68de9c-6a0e-4aeb-b745-92a3fdc5907c","ios":"levelo://app?vid=ce68de9c-6a0e-4aeb-b745-92a3fdc5907c"},"vehicle_type_id":"4","last_reported":1747401791,"current_range_meters":10000,"station_id":"ce4bh412rcd13ifvqdr0","pricing_plan_id":"cebpf4jnsgd1na2vs0mg"},{"bike_id":"daa5118f-6e7e-4980-91b0-e723e4de0646","system_id":"levelo_inurba_marseille","lat":43.285697,"lon":5.394906,"is_reserved":false,"is_disabled":false,"rental_uris":{"android":"levelo://app?vid=daa5118f-6e7e-4980-91b0-e723e4de0646","ios":"levelo://app?vid=daa5118f-6e7e-4980-91b0-e723e4de0646"},"vehicle_type_id":"4","last_reported":1747401791,"current_range_meters":11200,"station_id":"ce4bh292rcd13ifvqdg0","pricing_plan_id":"cebpf4jnsgd1na2vs0mg"},{"bike_id":"ea98e44b-8699-4f09-9d9a-40eab115df8f","system_id":"levelo_inurba_marseille","lat":43.24667,"lon":5.3816,"is_reserved":false,"is_disabled":false,"rental_uris":{"android":"levelo://app?vid=ea98e44b-8699-4f09-9d9a-40eab115df8f","ios":"levelo://app?vid=ea98e44b-8699-4f09-9d9a-40eab115df8f"},"vehicle_type_id":"4","last_reported":1747401791,"current_range_meters":11200,"station_id":"ce4bhih2rcd13ifvqfr0","pricing_plan_id":"cebpf4jnsgd1na2vs0mg"},{"bike_id":"3b890833-daa7-4bae-b7a0-8b1637bd75f6","system_id":"levelo_inurba_marseille","lat":43.26121,"lon":5.41472,"is_reserved":false,"is_disabled":false,"rental_uris":{"android":"levelo://app?vid=3b890833-daa7-4bae-b7a0-8b1637bd75f6","ios":"levelo://app?vid=3b890833-daa7-4bae-b7a0-8b1637bd75f6"},"vehicle_type_id":"4","last_reported":1747401791,"current_range_meters":11200,"station_id":"","pricing_plan_id":"cebpf4jnsgd1na2vs0mg"},{"bike_id":"932fafbf-c3d0-4712-812c-036e5ebd682c","system_id":"levelo_inurba_marseille","lat":43.2512,"lon":5.40314,"is_reserved":false,"is_disabled":false,"rental_uris":{"android":"levelo://app?vid=932fafbf-c3d0-4712-812c-036e5ebd682c","ios":"levelo://app?vid=932fafbf-c3d0-4712-812c-036e5ebd682c"},"vehicle_type_id":"4","last_reported":1747401791,"current_range_meters":10800,"station_id":"ce4bhlh2rcd13ifvqgig","pricing_plan_id":"cebpf4jnsgd1na2vs0mg"},{"bike_id":"51a97926-12b0-44ee-9f0c-5bc21884757a","system_id":"levelo_inurba_marseille","lat":43.30329,"lon":5.40432,"is_reserved":false,"is_disabled":false,"rental_uris":{"android":"levelo://app?vid=51a97926-12b0-44ee-9f0c-5bc21884757a","ios":"levelo://app?vid=51a97926-12b0-44ee-9f0c-5bc21884757a"},"vehicle_type_id":"4","last_reported":1747401791,"current_range_meters":11200,"station_id":"ce4bh012rcd13ifvqd10","pricing_plan_id":"cebpf4jnsgd1na2vs0mg"},{"bike_id":"b1fe42f8-3629-4a0f-a0b4-1bd76d656ca2","system_id":"levelo_inurba_marseille","lat":43.28848,"lon":5.35864,"is_reserved":false,"is_disabled":false,"rental_uris":{"android":"levelo://app?vid=b1fe42f8-3629-4a0f-a0b4-1bd76d656ca2","ios":"levelo://app?vid=b1fe42f8-3629-4a0f-a0b4-1bd76d656ca2"},"vehicle_type_id":"4","last_reported":1747401791,"current_range_meters":11200,"station_id":"ce4bhb12rcd13ifvqem0","pricing_plan_id":"cebpf4jnsgd1na2vs0mg"},{"bike_id":"a488853e-8708-42f9-a9f1-40f4dc62e03d","system_id":"levelo_inurba_marseille","lat":43.30559,"lon":5.37311,"is_reserved":false,"is_disabled":false,"rental_uris":{"android":"levelo://app?vid=a488853e-8708-42f9-a9f1-40f4dc62e03d","ios":"levelo://app?vid=a488853e-8708-42f9-a9f1-40f4dc62e03d"},"vehicle_type_id":"4","last_reported":1747401791,"current_range_meters":11200,"station_id":"","pricing_plan_id":"cebpf4jnsgd1na2vs0mg"},{"bike_id":"a1c4178e-3aca-43b4-882a-2d393377219e","system_id":"levelo_inurba_marseille","lat":43.27189,"lon":5.40975,"is_reserved":false,"is_disabled":false,"rental_uris":{"android":"levelo://app?vid=a1c4178e-3aca-43b4-882a-2d393377219e","ios":"levelo://app?vid=a1c4178e-3aca-43b4-882a-2d393377219e"},"vehicle_type_id":"4","last_reported":1747401791,"current_range_meters":11200,"station_id":"ce4bhl12rcd13ifvqgf0","pricing_plan_id":"cebpf4jnsgd1na2vs0mg"},{"bike_id":"b0a37e81-adb9-4922-bf5b-b6b0fec249b8","system_id":"levelo_inurba_marseille","lat":43.33429,"lon":5.40037,"is_reserved":false,"is_disabled":false,"rental_uris":{"android":"levelo://app?vid=b0a37e81-adb9-4922-bf5b-b6b0fec249b8","ios":"levelo://app?vid=b0a37e81-adb9-4922-bf5b-b6b0fec249b8"},"vehicle_type_id":"4","last_reported":1747401791,"current_range_meters":11200,"station_id":"","pricing_plan_id":"cebpf4jnsgd1na2vs0mg"},{"bike_id":"56440833-365f-40f6-9bc5-159d6af63356","system_id":"levelo_inurba_marseille","lat":43.26194,"lon":5.37446,"is_reserved":false,"is_disabled":false,"rental_uris":{"android":"levelo://app?vid=56440833-365f-40f6-9bc5-159d6af63356","ios":"levelo://app?vid=56440833-365f-40f6-9bc5-159d6af63356"},"vehicle_type_id":"4","last_reported":1747401791,"current_range_meters":11600,"station_id":"ce4bhgp2rcd13ifvqfc0","pricing_plan_id":"cebpf4jnsgd1na2vs0mg"},{"bike_id":"6d886103-344e-431a-ac80-7f62879d2f7c","system_id":"levelo_inurba_marseille","lat":43.22924,"lon":5.35377,"is_reserved":false,"is_disabled":false,"rental_uris":{"android":"levelo://app?vid=6d886103-344e-431a-ac80-7f62879d2f7c","ios":"levelo://app?vid=6d886103-344e-431a-ac80-7f62879d2f7c"},"vehicle_type_id":"4","last_reported":1747401791,"current_range_meters":11600,"station_id":"cpo3532slgdg3j2ikp40","pricing_plan_id":"cebpf4jnsgd1na2vs0mg"},{"bike_id":"95b117cb-ae1c-461b-b89a-333124734f9c","system_id":"levelo_inurba_marseille","lat":43.31362,"lon":5.38494,"is_reserved":false,"is_disabled":false,"rental_uris":{"android":"levelo://app?vid=95b117cb-ae1c-461b-b89a-333124734f9c","ios":"levelo://app?vid=95b117cb-ae1c-461b-b89a-333124734f9c"},"vehicle_type_id":"4","last_reported":1747401791,"current_range_meters":11600,"station_id":"ce4bgt92rcd13ifvqcf0","pricing_plan_id":"cebpf4jnsgd1na2vs0mg"},{"bike_id":"5cf74a5b-3237-4306-8708-835ce896cf40","system_id":"levelo_inurba_marseille","lat":43.31995,"lon":5.38154,"is_reserved":false,"is_disabled":false,"rental_uris":{"android":"levelo://app?vid=5cf74a5b-3237-4306-8708-835ce896cf40","ios":"levelo://app?vid=5cf74a5b-3237-4306-8708-835ce896cf40"},"vehicle_type_id":"4","last_reported":1747401791,"current_range_meters":11600,"station_id":"ce4bhr12rcd13ifvqhpg","pricing_plan_id":"cebpf4jnsgd1na2vs0mg"},{"bike_id":"7f3f54a1-1a87-43ff-8e33-3cf3f5a0e222","system_id":"levelo_inurba_marseille","lat":43.2694,"lon":5.40257,"is_reserved":false,"is_disabled":false,"rental_uris":{"android":"levelo://app?vid=7f3f54a1-1a87-43ff-8e33-3cf3f5a0e222","ios":"levelo://app?vid=7f3f54a1-1a87-43ff-8e33-3cf3f5a0e222"},"vehicle_type_id":"4","last_reported":1747401791,"current_range_meters":11600,"station_id":"cjm6bp8fraef2m0cb0m0","pricing_plan_id":"cebpf4jnsgd1na2vs0mg"},{"bike_id":"e954bf7d-7396-4017-b16c-089b3947abe0","system_id":"levelo_inurba_marseille","lat":43.29417,"lon":5.38626,"is_reserved":false,"is_disabled":false,"rental_uris":{"android":"levelo://app?vid=e954bf7d-7396-4017-b16c-089b3947abe0","ios":"levelo://app?vid=e954bf7d-7396-4017-b16c-089b3947abe0"},"vehicle_type_id":"4","last_reported":1747401791,"current_range_meters":12000,"station_id":"ce4bh2h2rcd13ifvqdh0","pricing_plan_id":"cebpf4jnsgd1na2vs0mg"},{"bike_id":"765e0cfb-c888-4327-a53d-5a7e4b9b7d45","system_id":"levelo_inurba_marseille","lat":43.31351,"lon":5.36703,"is_reserved":false,"is_disabled":false,"rental_uris":{"android":"levelo://app?vid=765e0cfb-c888-4327-a53d-5a7e4b9b7d45","ios":"levelo://app?vid=765e0cfb-c888-4327-a53d-5a7e4b9b7d45"},"vehicle_type_id":"4","last_reported":1747401791,"current_range_meters":12000,"station_id":"ce4bgr92rcd13ifvqc6g","pricing_plan_id":"cebpf4jnsgd1na2vs0mg"},{"bike_id":"104064cb-cab6-49ec-95b8-89cffb10be90","system_id":"levelo_inurba_marseille","lat":43.28846,"lon":5.39317,"is_reserved":false,"is_disabled":false,"rental_uris":{"android":"levelo://app?vid=104064cb-cab6-49ec-95b8-89cffb10be90","ios":"levelo://app?vid=104064cb-cab6-49ec-95b8-89cffb10be90"},"vehicle_type_id":"4","last_reported":1747401791,"current_range_meters":11200,"station_id":"ce4bh2p2rcd13ifvqdi0","pricing_plan_id":"cebpf4jnsgd1na2vs0mg"},{"bike_id":"2e709942-6161-4f1a-8c47-c5a2fddaa387","system_id":"levelo_inurba_marseille","lat":43.27475,"lon":5.42446,"is_reserved":false,"is_disabled":false,"rental_uris":{"android":"levelo://app?vid=2e709942-6161-4f1a-8c47-c5a2fddaa387","ios":"levelo://app?vid=2e709942-6161-4f1a-8c47-c5a2fddaa387"},"vehicle_type_id":"4","last_reported":1747401791,"current_range_meters":12400,"station_id":"ce4bhn92rcd13ifvqgrg","pricing_plan_id":"cebpf4jnsgd1na2vs0mg"},{"bike_id":"0fb040a5-8cd7-49ef-9b05-8ee442e44a92","system_id":"levelo_inurba_marseille","lat":43.30586,"lon":5.39342,"is_reserved":false,"is_disabled":false,"rental_uris":{"android":"levelo://app?vid=0fb040a5-8cd7-49ef-9b05-8ee442e44a92","ios":"levelo://app?vid=0fb040a5-8cd7-49ef-9b05-8ee442e44a92"},"vehicle_type_id":"4","last_reported":1747401791,"current_range_meters":12400,"station_id":"ce4bh0p2rcd13ifvqd80","pricing_plan_id":"cebpf4jnsgd1na2vs0mg"},{"bike_id":"ae6afd7a-d614-4e35-af62-da1bec626cd2","system_id":"levelo_inurba_marseille","lat":43.29228,"lon":5.36067,"is_reserved":false,"is_disabled":false,"rental_uris":{"android":"levelo://app?vid=ae6afd7a-d614-4e35-af62-da1bec626cd2","ios":"levelo://app?vid=ae6afd7a-d614-4e35-af62-da1bec626cd2"},"vehicle_type_id":"4","last_reported":1747401791,"current_range_meters":12800,"station_id":"ce4bhbh2rcd13ifvqeqg","pricing_plan_id":"cebpf4jnsgd1na2vs0mg"},{"bike_id":"432b7970-3cad-42d6-acc0-cb8d4a1ce4cf","system_id":"levelo_inurba_marseille","lat":43.30527,"lon":5.36541,"is_reserved":false,"is_disabled":false,"rental_uris":{"android":"levelo://app?vid=432b7970-3cad-42d6-acc0-cb8d4a1ce4cf","ios":"levelo://app?vid=432b7970-3cad-42d6-acc0-cb8d4a1ce4cf"},"vehicle_type_id":"4","last_reported":1747401791,"current_range_meters":12800,"station_id":"ce4bgs12rcd13ifvqcag","pricing_plan_id":"cebpf4jnsgd1na2vs0mg"},{"bike_id":"0c24d09f-ee1b-4d83-af33-562b6b2ca194","system_id":"levelo_inurba_marseille","lat":43.32369,"lon":5.38874,"is_reserved":false,"is_disabled":false,"rental_uris":{"android":"levelo://app?vid=0c24d09f-ee1b-4d83-af33-562b6b2ca194","ios":"levelo://app?vid=0c24d09f-ee1b-4d83-af33-562b6b2ca194"},"vehicle_type_id":"4","last_reported":1747401791,"current_range_meters":12800,"station_id":"ce4bhqp2rcd13ifvqhog","pricing_plan_id":"cebpf4jnsgd1na2vs0mg"},{"bike_id":"adcf473f-d6cb-4cbd-9d65-859f781a96a2","system_id":"levelo_inurba_marseille","lat":43.3154,"lon":5.38036,"is_reserved":false,"is_disabled":false,"rental_uris":{"android":"levelo://app?vid=adcf473f-d6cb-4cbd-9d65-859f781a96a2","ios":"levelo://app?vid=adcf473f-d6cb-4cbd-9d65-859f781a96a2"},"vehicle_type_id":"4","last_reported":1747401791,"current_range_meters":12800,"station_id":"ce4bhsp2rcd13ifvqi50","pricing_plan_id":"cebpf4jnsgd1na2vs0mg"},{"bike_id":"d25849a1-b300-46e6-bdc6-3bda23c00190","system_id":"levelo_inurba_marseille","lat":43.30402,"lon":5.41307,"is_reserved":false,"is_disabled":false,"rental_uris":{"android":"levelo://app?vid=d25849a1-b300-46e6-bdc6-3bda23c00190","ios":"levelo://app?vid=d25849a1-b300-46e6-bdc6-3bda23c00190"},"vehicle_type_id":"4","last_reported":1747401791,"current_range_meters":12800,"station_id":"ce4bhop2rcd13ifvqh8g","pricing_plan_id":"cebpf4jnsgd1na2vs0mg"},{"bike_id":"20213c4a-6c87-42b8-a9a3-2e538f387f82","system_id":"levelo_inurba_marseille","lat":43.29376,"lon":5.37846,"is_reserved":false,"is_disabled":false,"rental_uris":{"android":"levelo://app?vid=20213c4a-6c87-42b8-a9a3-2e538f387f82","ios":"levelo://app?vid=20213c4a-6c87-42b8-a9a3-2e538f387f82"},"vehicle_type_id":"4","last_reported":1747401791,"current_range_meters":12800,"station_id":"ce4bgjh2rcd13ifvqbf0","pricing_plan_id":"cebpf4jnsgd1na2vs0mg"},{"bike_id":"f7c31dd2-47f7-46c3-a769-ecda17b690c7","system_id":"levelo_inurba_marseille","lat":43.313577,"lon":5.367207,"is_reserved":false,"is_disabled":true,"rental_uris":{"android":"levelo://app?vid=f7c31dd2-47f7-46c3-a769-ecda17b690c7","ios":"levelo://app?vid=f7c31dd2-47f7-46c3-a769-ecda17b690c7"},"vehicle_type_id":"4","last_reported":1747401791,"current_range_meters":13600,"station_id":"ce4bgr92rcd13ifvqc6g","pricing_plan_id":"cebpf4jnsgd1na2vs0mg"},{"bike_id":"a12ce63f-e089-487a-88c8-57eae2ec45dc","system_id":"levelo_inurba_marseille","lat":43.28034,"lon":5.36944,"is_reserved":false,"is_disabled":false,"rental_uris":{"android":"levelo://app?vid=a12ce63f-e089-487a-88c8-57eae2ec45dc","ios":"levelo://app?vid=a12ce63f-e089-487a-88c8-57eae2ec45dc"},"vehicle_type_id":"4","last_reported":1747401791,"current_range_meters":13600,"station_id":"ce4bha12rcd13ifvqef0","pricing_plan_id":"cebpf4jnsgd1na2vs0mg"},{"bike_id":"20275954-0e6a-406b-8be8-6567ee882810","system_id":"levelo_inurba_marseille","lat":43.31712,"lon":5.43711,"is_reserved":false,"is_disabled":false,"rental_uris":{"android":"levelo://app?vid=20275954-0e6a-406b-8be8-6567ee882810","ios":"levelo://app?vid=20275954-0e6a-406b-8be8-6567ee882810"},"vehicle_type_id":"4","last_reported":1747401791,"current_range_meters":12800,"station_id":"ce4bhp92rcd13ifvqhcg","pricing_plan_id":"cebpf4jnsgd1na2vs0mg"},{"bike_id":"7b5ba32f-37ab-4291-890f-7c9dfa65884b","system_id":"levelo_inurba_marseille","lat":43.29604,"lon":5.3809,"is_reserved":false,"is_disabled":false,"rental_uris":{"android":"levelo://app?vid=7b5ba32f-37ab-4291-890f-7c9dfa65884b","ios":"levelo://app?vid=7b5ba32f-37ab-4291-890f-7c9dfa65884b"},"vehicle_type_id":"4","last_reported":1747401791,"current_range_meters":14000,"station_id":"ce4bgl12rcd13ifvqbo0","pricing_plan_id":"cebpf4jnsgd1na2vs0mg"},{"bike_id":"4c50a1f4-9b8f-4402-81a6-4b92fac2f424","system_id":"levelo_inurba_marseille","lat":43.32357,"lon":5.36753,"is_reserved":false,"is_disabled":false,"rental_uris":{"android":"levelo://app?vid=4c50a1f4-9b8f-4402-81a6-4b92fac2f424","ios":"levelo://app?vid=4c50a1f4-9b8f-4402-81a6-4b92fac2f424"},"vehicle_type_id":"4","last_reported":1747401791,"current_range_meters":14000,"station_id":"ce4bhsh2rcd13ifvqi2g","pricing_plan_id":"cebpf4jnsgd1na2vs0mg"},{"bike_id":"1c692f5b-bd13-4316-a8b9-0c7382396173","system_id":"levelo_inurba_marseille","lat":43.25129,"lon":5.40333,"is_reserved":false,"is_disabled":false,"rental_uris":{"android":"levelo://app?vid=1c692f5b-bd13-4316-a8b9-0c7382396173","ios":"levelo://app?vid=1c692f5b-bd13-4316-a8b9-0c7382396173"},"vehicle_type_id":"4","last_reported":1747401791,"current_range_meters":14000,"station_id":"ce4bhlh2rcd13ifvqgig","pricing_plan_id":"cebpf4jnsgd1na2vs0mg"},{"bike_id":"4711e1bd-e7cd-4218-ad00-c065b8671451","system_id":"levelo_inurba_marseille","lat":43.26026,"lon":5.3755,"is_reserved":false,"is_disabled":false,"rental_uris":{"android":"levelo://app?vid=4711e1bd-e7cd-4218-ad00-c065b8671451","ios":"levelo://app?vid=4711e1bd-e7cd-4218-ad00-c065b8671451"},"vehicle_type_id":"4","last_reported":1747401791,"current_range_meters":14000,"station_id":"ce4bhgh2rcd13ifvqfa0","pricing_plan_id":"cebpf4jnsgd1na2vs0mg"},{"bike_id":"3873b14f-cf85-40c2-a5ee-b159102313b1","system_id":"levelo_inurba_marseille","lat":43.274924,"lon":5.424619,"is_reserved":false,"is_disabled":false,"rental_uris":{"android":"levelo://app?vid=3873b14f-cf85-40c2-a5ee-b159102313b1","ios":"levelo://app?vid=3873b14f-cf85-40c2-a5ee-b159102313b1"},"vehicle_type_id":"4","last_reported":1747401791,"current_range_meters":14000,"station_id":"ce4bhn92rcd13ifvqgrg","pricing_plan_id":"cebpf4jnsgd1na2vs0mg"},{"bike_id":"8ca3d8c5-974d-47e3-bdff-00bc16ed707a","system_id":"levelo_inurba_marseille","lat":43.29939,"lon":5.36549,"is_reserved":false,"is_disabled":false,"rental_uris":{"android":"levelo://app?vid=8ca3d8c5-974d-47e3-bdff-00bc16ed707a","ios":"levelo://app?vid=8ca3d8c5-974d-47e3-bdff-00bc16ed707a"},"vehicle_type_id":"4","last_reported":1747401791,"current_range_meters":14000,"station_id":"ce4bgm92rcd13ifvqbr0","pricing_plan_id":"cebpf4jnsgd1na2vs0mg"},{"bike_id":"aaafdbf4-2564-4994-962f-807c25bd3ec2","system_id":"levelo_inurba_marseille","lat":43.301437,"lon":5.380697,"is_reserved":false,"is_disabled":false,"rental_uris":{"android":"levelo://app?vid=aaafdbf4-2564-4994-962f-807c25bd3ec2","ios":"levelo://app?vid=aaafdbf4-2564-4994-962f-807c25bd3ec2"},"vehicle_type_id":"4","last_reported":1747401791,"current_range_meters":14000,"station_id":"ce4bgjp2rcd13ifvqbh0","pricing_plan_id":"cebpf4jnsgd1na2vs0mg"},{"bike_id":"351115f8-e3be-4ac1-aca6-dc49f3d314d0","system_id":"levelo_inurba_marseille","lat":43.29368,"lon":5.37848,"is_reserved":false,"is_disabled":false,"rental_uris":{"android":"levelo://app?vid=351115f8-e3be-4ac1-aca6-dc49f3d314d0","ios":"levelo://app?vid=351115f8-e3be-4ac1-aca6-dc49f3d314d0"},"vehicle_type_id":"4","last_reported":1747401791,"current_range_meters":14000,"station_id":"ce4bgjh2rcd13ifvqbf0","pricing_plan_id":"cebpf4jnsgd1na2vs0mg"},{"bike_id":"80133267-4258-4270-a2b6-1625ba3990c9","system_id":"levelo_inurba_marseille","lat":43.26565,"lon":5.372923,"is_reserved":false,"is_disabled":false,"rental_uris":{"android":"levelo://app?vid=80133267-4258-4270-a2b6-1625ba3990c9","ios":"levelo://app?vid=80133267-4258-4270-a2b6-1625ba3990c9"},"vehicle_type_id":"4","last_reported":1747401791,"current_range_meters":14400,"station_id":"ce4bhg12rcd13ifvqf70","pricing_plan_id":"cebpf4jnsgd1na2vs0mg"},{"bike_id":"8cec9a9c-276b-4858-9428-6d11bdf4bdc6","system_id":"levelo_inurba_marseille","lat":43.24389,"lon":5.37061,"is_reserved":false,"is_disabled":false,"rental_uris":{"android":"levelo://app?vid=8cec9a9c-276b-4858-9428-6d11bdf4bdc6","ios":"levelo://app?vid=8cec9a9c-276b-4858-9428-6d11bdf4bdc6"},"vehicle_type_id":"4","last_reported":1747401791,"current_range_meters":14400,"station_id":"ce4bhhh2rcd13ifvqfk0","pricing_plan_id":"cebpf4jnsgd1na2vs0mg"},{"bike_id":"8afb73eb-37f7-4d3c-9b84-706fb883655a","system_id":"levelo_inurba_marseille","lat":43.30837,"lon":5.39669,"is_reserved":false,"is_disabled":false,"rental_uris":{"android":"levelo://app?vid=8afb73eb-37f7-4d3c-9b84-706fb883655a","ios":"levelo://app?vid=8afb73eb-37f7-4d3c-9b84-706fb883655a"},"vehicle_type_id":"4","last_reported":1747401791,"current_range_meters":14400,"station_id":"ce4bh012rcd13ifvqcv0","pricing_plan_id":"cebpf4jnsgd1na2vs0mg"},{"bike_id":"d5ab6cba-41fe-42e2-af6f-a6fa8c51368f","system_id":"levelo_inurba_marseille","lat":43.2901,"lon":5.38135,"is_reserved":false,"is_disabled":false,"rental_uris":{"android":"levelo://app?vid=d5ab6cba-41fe-42e2-af6f-a6fa8c51368f","ios":"levelo://app?vid=d5ab6cba-41fe-42e2-af6f-a6fa8c51368f"},"vehicle_type_id":"4","last_reported":1747401791,"current_range_meters":14000,"station_id":"ce4bh4p2rcd13ifvqe1g","pricing_plan_id":"cebpf4jnsgd1na2vs0mg"},{"bike_id":"b8f48a03-1b3c-4f41-b74c-2b637af725d5","system_id":"levelo_inurba_marseille","lat":43.30448,"lon":5.39728,"is_reserved":false,"is_disabled":true,"rental_uris":{"android":"levelo://app?vid=b8f48a03-1b3c-4f41-b74c-2b637af725d5","ios":"levelo://app?vid=b8f48a03-1b3c-4f41-b74c-2b637af725d5"},"vehicle_type_id":"4","last_reported":1747401791,"current_range_meters":14400,"station_id":"ce4bh092rcd13ifvqd20","pricing_plan_id":"cebpf4jnsgd1na2vs0mg"},{"bike_id":"9ed097ed-b6f3-4807-8c97-6d27740b762c","system_id":"levelo_inurba_marseille","lat":43.21194,"lon":5.35071,"is_reserved":false,"is_disabled":false,"rental_uris":{"android":"levelo://app?vid=9ed097ed-b6f3-4807-8c97-6d27740b762c","ios":"levelo://app?vid=9ed097ed-b6f3-4807-8c97-6d27740b762c"},"vehicle_type_id":"4","last_reported":1747401791,"current_range_meters":14400,"station_id":"st_cvj6sg6p6f1abm77japg","pricing_plan_id":"cebpf4jnsgd1na2vs0mg"},{"bike_id":"208d7a25-cd6e-47fe-addd-1b889cabc092","system_id":"levelo_inurba_marseille","lat":43.28427,"lon":5.35016,"is_reserved":false,"is_disabled":false,"rental_uris":{"android":"levelo://app?vid=208d7a25-cd6e-47fe-addd-1b889cabc092","ios":"levelo://app?vid=208d7a25-cd6e-47fe-addd-1b889cabc092"},"vehicle_type_id":"4","last_reported":1747401791,"current_range_meters":14800,"station_id":"ce4bhbh2rcd13ifvqepg","pricing_plan_id":"cebpf4jnsgd1na2vs0mg"},{"bike_id":"abb2a926-cd85-4699-a5c8-dac7a7aa3a1f","system_id":"levelo_inurba_marseille","lat":43.30421,"lon":5.41293,"is_reserved":false,"is_disabled":false,"rental_uris":{"android":"levelo://app?vid=abb2a926-cd85-4699-a5c8-dac7a7aa3a1f","ios":"levelo://app?vid=abb2a926-cd85-4699-a5c8-dac7a7aa3a1f"},"vehicle_type_id":"4","last_reported":1747401791,"current_range_meters":14800,"station_id":"ce4bhop2rcd13ifvqh8g","pricing_plan_id":"cebpf4jnsgd1na2vs0mg"},{"bike_id":"6d812bb8-7c84-4b9d-aa7e-2e32f2e0ab84","system_id":"levelo_inurba_marseille","lat":43.2393,"lon":5.37571,"is_reserved":false,"is_disabled":false,"rental_uris":{"android":"levelo://app?vid=6d812bb8-7c84-4b9d-aa7e-2e32f2e0ab84","ios":"levelo://app?vid=6d812bb8-7c84-4b9d-aa7e-2e32f2e0ab84"},"vehicle_type_id":"4","last_reported":1747401791,"current_range_meters":14800,"station_id":"","pricing_plan_id":"cebpf4jnsgd1na2vs0mg"},{"bike_id":"08c41e24-c8a6-4f83-aac4-f77e8e318916","system_id":"levelo_inurba_marseille","lat":43.30322,"lon":5.40442,"is_reserved":false,"is_disabled":false,"rental_uris":{"android":"levelo://app?vid=08c41e24-c8a6-4f83-aac4-f77e8e318916","ios":"levelo://app?vid=08c41e24-c8a6-4f83-aac4-f77e8e318916"},"vehicle_type_id":"4","last_reported":1747401791,"current_range_meters":14800,"station_id":"ce4bh012rcd13ifvqd10","pricing_plan_id":"cebpf4jnsgd1na2vs0mg"},{"bike_id":"f495968d-d982-4514-ab98-db984cf03219","system_id":"levelo_inurba_marseille","lat":43.3142,"lon":5.38322,"is_reserved":false,"is_disabled":false,"rental_uris":{"android":"levelo://app?vid=f495968d-d982-4514-ab98-db984cf03219","ios":"levelo://app?vid=f495968d-d982-4514-ab98-db984cf03219"},"vehicle_type_id":"4","last_reported":1747401791,"current_range_meters":14800,"station_id":"","pricing_plan_id":"cebpf4jnsgd1na2vs0mg"},{"bike_id":"b976aafd-cc04-481d-a946-f2c7fc78270b","system_id":"levelo_inurba_marseille","lat":43.31362,"lon":5.367022,"is_reserved":false,"is_disabled":false,"rental_uris":{"android":"levelo://app?vid=b976aafd-cc04-481d-a946-f2c7fc78270b","ios":"levelo://app?vid=b976aafd-cc04-481d-a946-f2c7fc78270b"},"vehicle_type_id":"4","last_reported":1747401791,"current_range_meters":14800,"station_id":"ce4bgr92rcd13ifvqc6g","pricing_plan_id":"cebpf4jnsgd1na2vs0mg"},{"bike_id":"5c35cae1-54fb-46f1-8238-5f6a43928991","system_id":"levelo_inurba_marseille","lat":43.25849,"lon":5.39429,"is_reserved":false,"is_disabled":false,"rental_uris":{"android":"levelo://app?vid=5c35cae1-54fb-46f1-8238-5f6a43928991","ios":"levelo://app?vid=5c35cae1-54fb-46f1-8238-5f6a43928991"},"vehicle_type_id":"4","last_reported":1747401791,"current_range_meters":14800,"station_id":"ce4bhip2rcd13ifvqft0","pricing_plan_id":"cebpf4jnsgd1na2vs0mg"},{"bike_id":"49d5b390-28e7-46fa-9b4b-42b804aa529c","system_id":"levelo_inurba_marseille","lat":43.27373,"lon":5.3626,"is_reserved":false,"is_disabled":false,"rental_uris":{"android":"levelo://app?vid=49d5b390-28e7-46fa-9b4b-42b804aa529c","ios":"levelo://app?vid=49d5b390-28e7-46fa-9b4b-42b804aa529c"},"vehicle_type_id":"4","last_reported":1747401791,"current_range_meters":14800,"station_id":"ce4bhbh2rcd13ifvqeo0","pricing_plan_id":"cebpf4jnsgd1na2vs0mg"},{"bike_id":"99afd511-8202-484d-8ec0-ee1ccf0ddaad","system_id":"levelo_inurba_marseille","lat":43.23153,"lon":5.43706,"is_reserved":false,"is_disabled":false,"rental_uris":{"android":"levelo://app?vid=99afd511-8202-484d-8ec0-ee1ccf0ddaad","ios":"levelo://app?vid=99afd511-8202-484d-8ec0-ee1ccf0ddaad"},"vehicle_type_id":"4","last_reported":1747401791,"current_range_meters":14800,"station_id":"ce4bhmp2rcd13ifvqgog","pricing_plan_id":"cebpf4jnsgd1na2vs0mg"},{"bike_id":"47975a93-7d64-42db-9982-0cab9e8b2344","system_id":"levelo_inurba_marseille","lat":43.30553,"lon":5.367006,"is_reserved":false,"is_disabled":false,"rental_uris":{"android":"levelo://app?vid=47975a93-7d64-42db-9982-0cab9e8b2344","ios":"levelo://app?vid=47975a93-7d64-42db-9982-0cab9e8b2344"},"vehicle_type_id":"4","last_reported":1747401791,"current_range_meters":14800,"station_id":"ce4bgrp2rcd13ifvqc9g","pricing_plan_id":"cebpf4jnsgd1na2vs0mg"},{"bike_id":"7673f08b-ac9e-4a96-9d1a-1911e62c1fe7","system_id":"levelo_inurba_marseille","lat":43.3131,"lon":5.36924,"is_reserved":false,"is_disabled":false,"rental_uris":{"android":"levelo://app?vid=7673f08b-ac9e-4a96-9d1a-1911e62c1fe7","ios":"levelo://app?vid=7673f08b-ac9e-4a96-9d1a-1911e62c1fe7"},"vehicle_type_id":"4","last_reported":1747401791,"current_range_meters":15200,"station_id":"","pricing_plan_id":"cebpf4jnsgd1na2vs0mg"},{"bike_id":"46ec531b-2a98-40a1-bcdc-69f02fd56824","system_id":"levelo_inurba_marseille","lat":43.31364,"lon":5.38487,"is_reserved":false,"is_disabled":false,"rental_uris":{"android":"levelo://app?vid=46ec531b-2a98-40a1-bcdc-69f02fd56824","ios":"levelo://app?vid=46ec531b-2a98-40a1-bcdc-69f02fd56824"},"vehicle_type_id":"4","last_reported":1747401791,"current_range_meters":15200,"station_id":"ce4bgt92rcd13ifvqcf0","pricing_plan_id":"cebpf4jnsgd1na2vs0mg"},{"bike_id":"0b17ffcc-2b3b-4ab6-b715-eab29be6d45d","system_id":"levelo_inurba_marseille","lat":43.30194,"lon":5.366,"is_reserved":false,"is_disabled":false,"rental_uris":{"android":"levelo://app?vid=0b17ffcc-2b3b-4ab6-b715-eab29be6d45d","ios":"levelo://app?vid=0b17ffcc-2b3b-4ab6-b715-eab29be6d45d"},"vehicle_type_id":"4","last_reported":1747401791,"current_range_meters":15200,"station_id":"ce4bgrh2rcd13ifvqc8g","pricing_plan_id":"cebpf4jnsgd1na2vs0mg"},{"bike_id":"19900057-3aff-46da-a373-e875aa20ed1c","system_id":"levelo_inurba_marseille","lat":43.31336,"lon":5.39684,"is_reserved":false,"is_disabled":false,"rental_uris":{"android":"levelo://app?vid=19900057-3aff-46da-a373-e875aa20ed1c","ios":"levelo://app?vid=19900057-3aff-46da-a373-e875aa20ed1c"},"vehicle_type_id":"4","last_reported":1747401791,"current_range_meters":15200,"station_id":"ce4bgvp2rcd13ifvqcu0","pricing_plan_id":"cebpf4jnsgd1na2vs0mg"},{"bike_id":"118850d3-2076-4a39-acbe-122184b93d43","system_id":"levelo_inurba_marseille","lat":43.32653,"lon":5.40982,"is_reserved":false,"is_disabled":false,"rental_uris":{"android":"levelo://app?vid=118850d3-2076-4a39-acbe-122184b93d43","ios":"levelo://app?vid=118850d3-2076-4a39-acbe-122184b93d43"},"vehicle_type_id":"4","last_reported":1747401791,"current_range_meters":16000,"station_id":"ce4bhpp2rcd13ifvqhgg","pricing_plan_id":"cebpf4jnsgd1na2vs0mg"},{"bike_id":"566f971b-859d-4e51-8b8f-54e06e3e0b14","system_id":"levelo_inurba_marseille","lat":43.27062,"lon":5.40262,"is_reserved":false,"is_disabled":false,"rental_uris":{"android":"levelo://app?vid=566f971b-859d-4e51-8b8f-54e06e3e0b14","ios":"levelo://app?vid=566f971b-859d-4e51-8b8f-54e06e3e0b14"},"vehicle_type_id":"4","last_reported":1747401791,"current_range_meters":16000,"station_id":"ce4bhk92rcd13ifvqgc0","pricing_plan_id":"cebpf4jnsgd1na2vs0mg"},{"bike_id":"1468db6d-92a4-46ee-93d0-b630b0477385","system_id":"levelo_inurba_marseille","lat":43.30432,"lon":5.41288,"is_reserved":false,"is_disabled":false,"rental_uris":{"android":"levelo://app?vid=1468db6d-92a4-46ee-93d0-b630b0477385","ios":"levelo://app?vid=1468db6d-92a4-46ee-93d0-b630b0477385"},"vehicle_type_id":"4","last_reported":1747401791,"current_range_meters":16000,"station_id":"ce4bhop2rcd13ifvqh8g","pricing_plan_id":"cebpf4jnsgd1na2vs0mg"},{"bike_id":"9f1e4534-9dc8-4f03-8911-a54f66fc53bc","system_id":"levelo_inurba_marseille","lat":43.2991,"lon":5.37475,"is_reserved":false,"is_disabled":false,"rental_uris":{"android":"levelo://app?vid=9f1e4534-9dc8-4f03-8911-a54f66fc53bc","ios":"levelo://app?vid=9f1e4534-9dc8-4f03-8911-a54f66fc53bc"},"vehicle_type_id":"4","last_reported":1747401791,"current_range_meters":15200,"station_id":"ce4bgjh2rcd13ifvqbg0","pricing_plan_id":"cebpf4jnsgd1na2vs0mg"},{"bike_id":"16e1ba08-3afb-4836-86f8-64ba626765cd","system_id":"levelo_inurba_marseille","lat":43.26554,"lon":5.37283,"is_reserved":false,"is_disabled":false,"rental_uris":{"android":"levelo://app?vid=16e1ba08-3afb-4836-86f8-64ba626765cd","ios":"levelo://app?vid=16e1ba08-3afb-4836-86f8-64ba626765cd"},"vehicle_type_id":"4","last_reported":1747401791,"current_range_meters":16000,"station_id":"ce4bhg12rcd13ifvqf70","pricing_plan_id":"cebpf4jnsgd1na2vs0mg"},{"bike_id":"3b7e1cfe-4920-4ce2-8502-e5b1586f8bcd","system_id":"levelo_inurba_marseille","lat":43.2466,"lon":5.38153,"is_reserved":false,"is_disabled":false,"rental_uris":{"android":"levelo://app?vid=3b7e1cfe-4920-4ce2-8502-e5b1586f8bcd","ios":"levelo://app?vid=3b7e1cfe-4920-4ce2-8502-e5b1586f8bcd"},"vehicle_type_id":"4","last_reported":1747401791,"current_range_meters":16000,"station_id":"ce4bhih2rcd13ifvqfr0","pricing_plan_id":"cebpf4jnsgd1na2vs0mg"},{"bike_id":"34782db8-91ae-4bc4-80e8-c6d0ef72db90","system_id":"levelo_inurba_marseille","lat":43.3153,"lon":5.38016,"is_reserved":false,"is_disabled":false,"rental_uris":{"android":"levelo://app?vid=34782db8-91ae-4bc4-80e8-c6d0ef72db90","ios":"levelo://app?vid=34782db8-91ae-4bc4-80e8-c6d0ef72db90"},"vehicle_type_id":"4","last_reported":1747401791,"current_range_meters":16400,"station_id":"ce4bhsp2rcd13ifvqi50","pricing_plan_id":"cebpf4jnsgd1na2vs0mg"},{"bike_id":"85cc8ae2-2c31-40b9-8ad0-b17743100726","system_id":"levelo_inurba_marseille","lat":43.30193,"lon":5.36609,"is_reserved":false,"is_disabled":false,"rental_uris":{"android":"levelo://app?vid=85cc8ae2-2c31-40b9-8ad0-b17743100726","ios":"levelo://app?vid=85cc8ae2-2c31-40b9-8ad0-b17743100726"},"vehicle_type_id":"4","last_reported":1747401791,"current_range_meters":16400,"station_id":"ce4bgrh2rcd13ifvqc8g","pricing_plan_id":"cebpf4jnsgd1na2vs0mg"},{"bike_id":"376f487e-8774-4291-b264-6e107098ab8b","system_id":"levelo_inurba_marseille","lat":43.30539,"lon":5.36537,"is_reserved":false,"is_disabled":false,"rental_uris":{"android":"levelo://app?vid=376f487e-8774-4291-b264-6e107098ab8b","ios":"levelo://app?vid=376f487e-8774-4291-b264-6e107098ab8b"},"vehicle_type_id":"4","last_reported":1747401791,"current_range_meters":16400,"station_id":"ce4bgs12rcd13ifvqcag","pricing_plan_id":"cebpf4jnsgd1na2vs0mg"},{"bike_id":"e977a271-ce58-47dc-ba98-50badb3ccdff","system_id":"levelo_inurba_marseille","lat":43.32287,"lon":5.38275,"is_reserved":false,"is_disabled":false,"rental_uris":{"android":"levelo://app?vid=e977a271-ce58-47dc-ba98-50badb3ccdff","ios":"levelo://app?vid=e977a271-ce58-47dc-ba98-50badb3ccdff"},"vehicle_type_id":"4","last_reported":1747401791,"current_range_meters":16000,"station_id":"ce4bhr12rcd13ifvqhqg","pricing_plan_id":"cebpf4jnsgd1na2vs0mg"},{"bike_id":"98106b70-6f8a-476d-962a-f2bed2e52f0a","system_id":"levelo_inurba_marseille","lat":43.32122,"lon":5.36769,"is_reserved":false,"is_disabled":false,"rental_uris":{"android":"levelo://app?vid=98106b70-6f8a-476d-962a-f2bed2e52f0a","ios":"levelo://app?vid=98106b70-6f8a-476d-962a-f2bed2e52f0a"},"vehicle_type_id":"4","last_reported":1747401791,"current_range_meters":16800,"station_id":"ce4bhrh2rcd13ifvqhug","pricing_plan_id":"cebpf4jnsgd1na2vs0mg"},{"bike_id":"852ea9ac-6507-488a-87c5-b27d54b34b2e","system_id":"levelo_inurba_marseille","lat":43.2816,"lon":5.426301,"is_reserved":false,"is_disabled":false,"rental_uris":{"android":"levelo://app?vid=852ea9ac-6507-488a-87c5-b27d54b34b2e","ios":"levelo://app?vid=852ea9ac-6507-488a-87c5-b27d54b34b2e"},"vehicle_type_id":"4","last_reported":1747401791,"current_range_meters":16800,"station_id":"ce4bhnh2rcd13ifvqgug","pricing_plan_id":"cebpf4jnsgd1na2vs0mg"},{"bike_id":"f50cdaca-24b9-4bbe-8adf-adbed3ad5c0c","system_id":"levelo_inurba_marseille","lat":43.26194,"lon":5.3746,"is_reserved":false,"is_disabled":false,"rental_uris":{"android":"levelo://app?vid=f50cdaca-24b9-4bbe-8adf-adbed3ad5c0c","ios":"levelo://app?vid=f50cdaca-24b9-4bbe-8adf-adbed3ad5c0c"},"vehicle_type_id":"4","last_reported":1747401791,"current_range_meters":16800,"station_id":"ce4bhgp2rcd13ifvqfc0","pricing_plan_id":"cebpf4jnsgd1na2vs0mg"},{"bike_id":"4b3b66e6-f3ea-46a4-b4f9-f1a888b5f2b9","system_id":"levelo_inurba_marseille","lat":43.30633,"lon":5.4009,"is_reserved":false,"is_disabled":false,"rental_uris":{"android":"levelo://app?vid=4b3b66e6-f3ea-46a4-b4f9-f1a888b5f2b9","ios":"levelo://app?vid=4b3b66e6-f3ea-46a4-b4f9-f1a888b5f2b9"},"vehicle_type_id":"4","last_reported":1747401791,"current_range_meters":16400,"station_id":"ce4bh112rcd13ifvqda0","pricing_plan_id":"cebpf4jnsgd1na2vs0mg"},{"bike_id":"d7cc7bfb-4826-4985-91ac-adfd05487470","system_id":"levelo_inurba_marseille","lat":43.26556,"lon":5.37281,"is_reserved":false,"is_disabled":false,"rental_uris":{"android":"levelo://app?vid=d7cc7bfb-4826-4985-91ac-adfd05487470","ios":"levelo://app?vid=d7cc7bfb-4826-4985-91ac-adfd05487470"},"vehicle_type_id":"4","last_reported":1747401791,"current_range_meters":16800,"station_id":"ce4bhg12rcd13ifvqf70","pricing_plan_id":"cebpf4jnsgd1na2vs0mg"},{"bike_id":"142f2b37-ff47-4a48-8ea4-f7f40f0910a0","system_id":"levelo_inurba_marseille","lat":43.26939,"lon":5.38913,"is_reserved":false,"is_disabled":false,"rental_uris":{"android":"levelo://app?vid=142f2b37-ff47-4a48-8ea4-f7f40f0910a0","ios":"levelo://app?vid=142f2b37-ff47-4a48-8ea4-f7f40f0910a0"},"vehicle_type_id":"4","last_reported":1747401791,"current_range_meters":16800,"station_id":"ce4bhhh2rcd13ifvqfl0","pricing_plan_id":"cebpf4jnsgd1na2vs0mg"},{"bike_id":"0c13d584-7a65-4d29-ba60-e6b8be904803","system_id":"levelo_inurba_marseille","lat":43.28706,"lon":5.40001,"is_reserved":false,"is_disabled":false,"rental_uris":{"android":"levelo://app?vid=0c13d584-7a65-4d29-ba60-e6b8be904803","ios":"levelo://app?vid=0c13d584-7a65-4d29-ba60-e6b8be904803"},"vehicle_type_id":"4","last_reported":1747401791,"current_range_meters":16800,"station_id":"ce4bho92rcd13ifvqh3g","pricing_plan_id":"cebpf4jnsgd1na2vs0mg"},{"bike_id":"b23a7761-2337-406b-b8e6-8e6d94a8d7c1","system_id":"levelo_inurba_marseille","lat":43.32369,"lon":5.3675,"is_reserved":false,"is_disabled":false,"rental_uris":{"android":"levelo://app?vid=b23a7761-2337-406b-b8e6-8e6d94a8d7c1","ios":"levelo://app?vid=b23a7761-2337-406b-b8e6-8e6d94a8d7c1"},"vehicle_type_id":"4","last_reported":1747401791,"current_range_meters":16800,"station_id":"ce4bhsh2rcd13ifvqi2g","pricing_plan_id":"cebpf4jnsgd1na2vs0mg"},{"bike_id":"2a9d0bc3-deae-4a39-b85c-52d709abed2e","system_id":"levelo_inurba_marseille","lat":43.30714,"lon":5.38068,"is_reserved":false,"is_disabled":false,"rental_uris":{"android":"levelo://app?vid=2a9d0bc3-deae-4a39-b85c-52d709abed2e","ios":"levelo://app?vid=2a9d0bc3-deae-4a39-b85c-52d709abed2e"},"vehicle_type_id":"4","last_reported":1747401791,"current_range_meters":17200,"station_id":"","pricing_plan_id":"cebpf4jnsgd1na2vs0mg"},{"bike_id":"11a0dbe9-b507-4ec9-a34a-33d272456b72","system_id":"levelo_inurba_marseille","lat":43.32111,"lon":5.36802,"is_reserved":false,"is_disabled":false,"rental_uris":{"android":"levelo://app?vid=11a0dbe9-b507-4ec9-a34a-33d272456b72","ios":"levelo://app?vid=11a0dbe9-b507-4ec9-a34a-33d272456b72"},"vehicle_type_id":"4","last_reported":1747401791,"current_range_meters":17200,"station_id":"ce4bhrh2rcd13ifvqhug","pricing_plan_id":"cebpf4jnsgd1na2vs0mg"},{"bike_id":"570e82f7-e80d-48ef-9bdc-33c7f5bc868e","system_id":"levelo_inurba_marseille","lat":43.29784,"lon":5.371,"is_reserved":false,"is_disabled":false,"rental_uris":{"android":"levelo://app?vid=570e82f7-e80d-48ef-9bdc-33c7f5bc868e","ios":"levelo://app?vid=570e82f7-e80d-48ef-9bdc-33c7f5bc868e"},"vehicle_type_id":"4","last_reported":1747401791,"current_range_meters":17200,"station_id":"ce4bgop2rcd13ifvqc1g","pricing_plan_id":"cebpf4jnsgd1na2vs0mg"},{"bike_id":"0b4dab94-79cc-49be-8085-fb2124a86407","system_id":"levelo_inurba_marseille","lat":43.32112,"lon":5.36808,"is_reserved":false,"is_disabled":false,"rental_uris":{"android":"levelo://app?vid=0b4dab94-79cc-49be-8085-fb2124a86407","ios":"levelo://app?vid=0b4dab94-79cc-49be-8085-fb2124a86407"},"vehicle_type_id":"4","last_reported":1747401791,"current_range_meters":17200,"station_id":"ce4bhrh2rcd13ifvqhug","pricing_plan_id":"cebpf4jnsgd1na2vs0mg"},{"bike_id":"81ce395a-ca1c-43fa-b284-1ab7159452ff","system_id":"levelo_inurba_marseille","lat":43.25941,"lon":5.40914,"is_reserved":false,"is_disabled":false,"rental_uris":{"android":"levelo://app?vid=81ce395a-ca1c-43fa-b284-1ab7159452ff","ios":"levelo://app?vid=81ce395a-ca1c-43fa-b284-1ab7159452ff"},"vehicle_type_id":"4","last_reported":1747401791,"current_range_meters":17200,"station_id":"ce4bhm92rcd13ifvqglg","pricing_plan_id":"cebpf4jnsgd1na2vs0mg"},{"bike_id":"c49b770f-b40d-43f3-af4c-2082d5c7a9f9","system_id":"levelo_inurba_marseille","lat":43.29963,"lon":5.38497,"is_reserved":false,"is_disabled":false,"rental_uris":{"android":"levelo://app?vid=c49b770f-b40d-43f3-af4c-2082d5c7a9f9","ios":"levelo://app?vid=c49b770f-b40d-43f3-af4c-2082d5c7a9f9"},"vehicle_type_id":"4","last_reported":1747401791,"current_range_meters":17200,"station_id":"ce4bgj92rcd13ifvqbd0","pricing_plan_id":"cebpf4jnsgd1na2vs0mg"},{"bike_id":"15869928-82c4-41a0-856c-cfcfb9ffab8d","system_id":"levelo_inurba_marseille","lat":43.26018,"lon":5.37545,"is_reserved":false,"is_disabled":false,"rental_uris":{"android":"levelo://app?vid=15869928-82c4-41a0-856c-cfcfb9ffab8d","ios":"levelo://app?vid=15869928-82c4-41a0-856c-cfcfb9ffab8d"},"vehicle_type_id":"4","last_reported":1747401791,"current_range_meters":17200,"station_id":"ce4bhgh2rcd13ifvqfa0","pricing_plan_id":"cebpf4jnsgd1na2vs0mg"},{"bike_id":"a77c7182-63e0-4a92-9386-cb0f67cd69e3","system_id":"levelo_inurba_marseille","lat":43.27175,"lon":5.40991,"is_reserved":false,"is_disabled":false,"rental_uris":{"android":"levelo://app?vid=a77c7182-63e0-4a92-9386-cb0f67cd69e3","ios":"levelo://app?vid=a77c7182-63e0-4a92-9386-cb0f67cd69e3"},"vehicle_type_id":"4","last_reported":1747401791,"current_range_meters":16800,"station_id":"ce4bhl12rcd13ifvqgf0","pricing_plan_id":"cebpf4jnsgd1na2vs0mg"},{"bike_id":"b04bd58d-ab68-46b4-9085-1ddf540e912e","system_id":"levelo_inurba_marseille","lat":43.24113,"lon":5.37813,"is_reserved":false,"is_disabled":true,"rental_uris":{"android":"levelo://app?vid=b04bd58d-ab68-46b4-9085-1ddf540e912e","ios":"levelo://app?vid=b04bd58d-ab68-46b4-9085-1ddf540e912e"},"vehicle_type_id":"4","last_reported":1747401791,"current_range_meters":17200,"station_id":"","pricing_plan_id":"cebpf4jnsgd1na2vs0mg"},{"bike_id":"20a82793-fd10-415b-8a78-e28c4d6419c5","system_id":"levelo_inurba_marseille","lat":43.261987,"lon":5.379247,"is_reserved":false,"is_disabled":false,"rental_uris":{"android":"levelo://app?vid=20a82793-fd10-415b-8a78-e28c4d6419c5","ios":"levelo://app?vid=20a82793-fd10-415b-8a78-e28c4d6419c5"},"vehicle_type_id":"4","last_reported":1747401791,"current_range_meters":17200,"station_id":"ce4bhjp2rcd13ifvqg90","pricing_plan_id":"cebpf4jnsgd1na2vs0mg"},{"bike_id":"23d44d10-9fc4-4950-a685-7b6594c64685","system_id":"levelo_inurba_marseille","lat":43.2795,"lon":5.41054,"is_reserved":false,"is_disabled":false,"rental_uris":{"android":"levelo://app?vid=23d44d10-9fc4-4950-a685-7b6594c64685","ios":"levelo://app?vid=23d44d10-9fc4-4950-a685-7b6594c64685"},"vehicle_type_id":"4","last_reported":1747401791,"current_range_meters":17200,"station_id":"ce4bhnp2rcd13ifvqh0g","pricing_plan_id":"cebpf4jnsgd1na2vs0mg"},{"bike_id":"b8aa44cb-53ea-4c27-8c3c-7dfc94548e95","system_id":"levelo_inurba_marseille","lat":43.30191,"lon":5.3745,"is_reserved":false,"is_disabled":false,"rental_uris":{"android":"levelo://app?vid=b8aa44cb-53ea-4c27-8c3c-7dfc94548e95","ios":"levelo://app?vid=b8aa44cb-53ea-4c27-8c3c-7dfc94548e95"},"vehicle_type_id":"4","last_reported":1747401791,"current_range_meters":16800,"station_id":"ce4bgs92rcd13ifvqcc0","pricing_plan_id":"cebpf4jnsgd1na2vs0mg"},{"bike_id":"940a2f89-807d-48ba-ad7a-d50dbeb9acb0","system_id":"levelo_inurba_marseille","lat":43.298,"lon":5.38094,"is_reserved":false,"is_disabled":false,"rental_uris":{"android":"levelo://app?vid=940a2f89-807d-48ba-ad7a-d50dbeb9acb0","ios":"levelo://app?vid=940a2f89-807d-48ba-ad7a-d50dbeb9acb0"},"vehicle_type_id":"4","last_reported":1747401791,"current_range_meters":17200,"station_id":"ce4bgip2rcd13ifvqbb0","pricing_plan_id":"cebpf4jnsgd1na2vs0mg"},{"bike_id":"49f200d8-c5dd-4808-9e95-b08998d5e1a9","system_id":"levelo_inurba_marseille","lat":43.32137,"lon":5.44045,"is_reserved":false,"is_disabled":false,"rental_uris":{"android":"levelo://app?vid=49f200d8-c5dd-4808-9e95-b08998d5e1a9","ios":"levelo://app?vid=49f200d8-c5dd-4808-9e95-b08998d5e1a9"},"vehicle_type_id":"4","last_reported":1747401791,"current_range_meters":17600,"station_id":"","pricing_plan_id":"cebpf4jnsgd1na2vs0mg"},{"bike_id":"7993e6b9-0282-405c-9abe-f8446bdb8a63","system_id":"levelo_inurba_marseille","lat":43.286102,"lon":5.370668,"is_reserved":false,"is_disabled":false,"rental_uris":{"android":"levelo://app?vid=7993e6b9-0282-405c-9abe-f8446bdb8a63","ios":"levelo://app?vid=7993e6b9-0282-405c-9abe-f8446bdb8a63"},"vehicle_type_id":"4","last_reported":1747401791,"current_range_meters":17600,"station_id":"ce4bht12rcd13ifvqi60","pricing_plan_id":"cebpf4jnsgd1na2vs0mg"},{"bike_id":"e1291dda-99b5-4759-85d1-03c344292341","system_id":"levelo_inurba_marseille","lat":43.31762,"lon":5.39017,"is_reserved":false,"is_disabled":false,"rental_uris":{"android":"levelo://app?vid=e1291dda-99b5-4759-85d1-03c344292341","ios":"levelo://app?vid=e1291dda-99b5-4759-85d1-03c344292341"},"vehicle_type_id":"4","last_reported":1747401791,"current_range_meters":17600,"station_id":"ce4bhqp2rcd13ifvqhng","pricing_plan_id":"cebpf4jnsgd1na2vs0mg"},{"bike_id":"c8c23b94-3bb2-4142-ae6e-7544f49c1642","system_id":"levelo_inurba_marseille","lat":43.30545,"lon":5.38437,"is_reserved":false,"is_disabled":true,"rental_uris":{"android":"levelo://app?vid=c8c23b94-3bb2-4142-ae6e-7544f49c1642","ios":"levelo://app?vid=c8c23b94-3bb2-4142-ae6e-7544f49c1642"},"vehicle_type_id":"4","last_reported":1747401791,"current_range_meters":17600,"station_id":"ce4bgg92rcd13ifvqb30","pricing_plan_id":"cebpf4jnsgd1na2vs0mg"},{"bike_id":"472a0834-3730-4860-a5af-e260a00cf1df","system_id":"levelo_inurba_marseille","lat":43.28476,"lon":5.384121,"is_reserved":false,"is_disabled":false,"rental_uris":{"android":"levelo://app?vid=472a0834-3730-4860-a5af-e260a00cf1df","ios":"levelo://app?vid=472a0834-3730-4860-a5af-e260a00cf1df"},"vehicle_type_id":"4","last_reported":1747401791,"current_range_meters":17200,"station_id":"ce4bh512rcd13ifvqe3g","pricing_plan_id":"cebpf4jnsgd1na2vs0mg"},{"bike_id":"65f28f6c-2c66-4e92-9cd8-e5251e2d1e64","system_id":"levelo_inurba_marseille","lat":43.31334,"lon":5.36731,"is_reserved":false,"is_disabled":false,"rental_uris":{"android":"levelo://app?vid=65f28f6c-2c66-4e92-9cd8-e5251e2d1e64","ios":"levelo://app?vid=65f28f6c-2c66-4e92-9cd8-e5251e2d1e64"},"vehicle_type_id":"4","last_reported":1747401791,"current_range_meters":17600,"station_id":"ce4bgr92rcd13ifvqc6g","pricing_plan_id":"cebpf4jnsgd1na2vs0mg"},{"bike_id":"ab6ce8ae-1e14-4a4d-bb24-327f0a4fb6f6","system_id":"levelo_inurba_marseille","lat":43.31224,"lon":5.3684,"is_reserved":false,"is_disabled":false,"rental_uris":{"android":"levelo://app?vid=ab6ce8ae-1e14-4a4d-bb24-327f0a4fb6f6","ios":"levelo://app?vid=ab6ce8ae-1e14-4a4d-bb24-327f0a4fb6f6"},"vehicle_type_id":"4","last_reported":1747401791,"current_range_meters":17600,"station_id":"ce4bgl92rcd13ifvqbq0","pricing_plan_id":"cebpf4jnsgd1na2vs0mg"},{"bike_id":"547d7524-1537-4866-b1a9-d0503a01eb44","system_id":"levelo_inurba_marseille","lat":43.29834,"lon":5.36262,"is_reserved":false,"is_disabled":false,"rental_uris":{"android":"levelo://app?vid=547d7524-1537-4866-b1a9-d0503a01eb44","ios":"levelo://app?vid=547d7524-1537-4866-b1a9-d0503a01eb44"},"vehicle_type_id":"4","last_reported":1747401791,"current_range_meters":18000,"station_id":"ce4bgpp2rcd13ifvqc3g","pricing_plan_id":"cebpf4jnsgd1na2vs0mg"},{"bike_id":"e7509858-0465-4941-92fe-95fe9f8bd654","system_id":"levelo_inurba_marseille","lat":43.29607,"lon":5.38113,"is_reserved":false,"is_disabled":false,"rental_uris":{"android":"levelo://app?vid=e7509858-0465-4941-92fe-95fe9f8bd654","ios":"levelo://app?vid=e7509858-0465-4941-92fe-95fe9f8bd654"},"vehicle_type_id":"4","last_reported":1747401791,"current_range_meters":17600,"station_id":"ce4bgl12rcd13ifvqbo0","pricing_plan_id":"cebpf4jnsgd1na2vs0mg"},{"bike_id":"2bd790ff-7382-4303-9c50-f8d830828d37","system_id":"levelo_inurba_marseille","lat":43.309477,"lon":5.371917,"is_reserved":false,"is_disabled":false,"rental_uris":{"android":"levelo://app?vid=2bd790ff-7382-4303-9c50-f8d830828d37","ios":"levelo://app?vid=2bd790ff-7382-4303-9c50-f8d830828d37"},"vehicle_type_id":"4","last_reported":1747401791,"current_range_meters":18000,"station_id":"ce4bguh2rcd13ifvqckg","pricing_plan_id":"cebpf4jnsgd1na2vs0mg"},{"bike_id":"45f71629-e57e-4650-a835-f5868dcfd9d1","system_id":"levelo_inurba_marseille","lat":43.29648,"lon":5.36328,"is_reserved":false,"is_disabled":false,"rental_uris":{"android":"levelo://app?vid=45f71629-e57e-4650-a835-f5868dcfd9d1","ios":"levelo://app?vid=45f71629-e57e-4650-a835-f5868dcfd9d1"},"vehicle_type_id":"4","last_reported":1747401791,"current_range_meters":18000,"station_id":"","pricing_plan_id":"cebpf4jnsgd1na2vs0mg"},{"bike_id":"6ec31142-7661-40a6-aa24-980449528662","system_id":"levelo_inurba_marseille","lat":43.298894,"lon":5.389373,"is_reserved":false,"is_disabled":false,"rental_uris":{"android":"levelo://app?vid=6ec31142-7661-40a6-aa24-980449528662","ios":"levelo://app?vid=6ec31142-7661-40a6-aa24-980449528662"},"vehicle_type_id":"4","last_reported":1747401791,"current_range_meters":18000,"station_id":"ce4bh392rcd13ifvqdl0","pricing_plan_id":"cebpf4jnsgd1na2vs0mg"},{"bike_id":"65fffd0b-fbb1-433f-ab2b-622ea9469e3b","system_id":"levelo_inurba_marseille","lat":43.25928,"lon":5.4091,"is_reserved":false,"is_disabled":false,"rental_uris":{"android":"levelo://app?vid=65fffd0b-fbb1-433f-ab2b-622ea9469e3b","ios":"levelo://app?vid=65fffd0b-fbb1-433f-ab2b-622ea9469e3b"},"vehicle_type_id":"4","last_reported":1747401791,"current_range_meters":18000,"station_id":"ce4bhm92rcd13ifvqglg","pricing_plan_id":"cebpf4jnsgd1na2vs0mg"},{"bike_id":"32a5b034-b859-449d-9633-9377302d91cc","system_id":"levelo_inurba_marseille","lat":43.2795,"lon":5.38713,"is_reserved":false,"is_disabled":false,"rental_uris":{"android":"levelo://app?vid=32a5b034-b859-449d-9633-9377302d91cc","ios":"levelo://app?vid=32a5b034-b859-449d-9633-9377302d91cc"},"vehicle_type_id":"4","last_reported":1747401791,"current_range_meters":18000,"station_id":"ce4bhg12rcd13ifvqf80","pricing_plan_id":"cebpf4jnsgd1na2vs0mg"},{"bike_id":"4d05bf7f-0df9-44c2-9c5c-4d4dd3264c95","system_id":"levelo_inurba_marseille","lat":43.24667,"lon":5.3816,"is_reserved":false,"is_disabled":false,"rental_uris":{"android":"levelo://app?vid=4d05bf7f-0df9-44c2-9c5c-4d4dd3264c95","ios":"levelo://app?vid=4d05bf7f-0df9-44c2-9c5c-4d4dd3264c95"},"vehicle_type_id":"4","last_reported":1747401791,"current_range_meters":18000,"station_id":"ce4bhih2rcd13ifvqfr0","pricing_plan_id":"cebpf4jnsgd1na2vs0mg"},{"bike_id":"1786a345-ad9d-4603-a811-f7a61d9e8aee","system_id":"levelo_inurba_marseille","lat":43.27056,"lon":5.40261,"is_reserved":false,"is_disabled":false,"rental_uris":{"android":"levelo://app?vid=1786a345-ad9d-4603-a811-f7a61d9e8aee","ios":"levelo://app?vid=1786a345-ad9d-4603-a811-f7a61d9e8aee"},"vehicle_type_id":"4","last_reported":1747401791,"current_range_meters":18000,"station_id":"ce4bhk92rcd13ifvqgc0","pricing_plan_id":"cebpf4jnsgd1na2vs0mg"},{"bike_id":"25536beb-5893-473e-b88e-86fcdec8a3c8","system_id":"levelo_inurba_marseille","lat":43.27997,"lon":5.40011,"is_reserved":false,"is_disabled":false,"rental_uris":{"android":"levelo://app?vid=25536beb-5893-473e-b88e-86fcdec8a3c8","ios":"levelo://app?vid=25536beb-5893-473e-b88e-86fcdec8a3c8"},"vehicle_type_id":"4","last_reported":1747401791,"current_range_meters":17600,"station_id":"ce4bho92rcd13ifvqh4g","pricing_plan_id":"cebpf4jnsgd1na2vs0mg"},{"bike_id":"9eb42ded-d1be-441d-9e0d-22bc52962c92","system_id":"levelo_inurba_marseille","lat":43.28621,"lon":5.35107,"is_reserved":false,"is_disabled":false,"rental_uris":{"android":"levelo://app?vid=9eb42ded-d1be-441d-9e0d-22bc52962c92","ios":"levelo://app?vid=9eb42ded-d1be-441d-9e0d-22bc52962c92"},"vehicle_type_id":"4","last_reported":1747401791,"current_range_meters":19200,"station_id":"ce4bhch2rcd13ifvqeug","pricing_plan_id":"cebpf4jnsgd1na2vs0mg"},{"bike_id":"e82096ec-fc9d-4245-abc2-94e3f0db1f9c","system_id":"levelo_inurba_marseille","lat":43.2293,"lon":5.35372,"is_reserved":false,"is_disabled":false,"rental_uris":{"android":"levelo://app?vid=e82096ec-fc9d-4245-abc2-94e3f0db1f9c","ios":"levelo://app?vid=e82096ec-fc9d-4245-abc2-94e3f0db1f9c"},"vehicle_type_id":"4","last_reported":1747401791,"current_range_meters":18800,"station_id":"cpo3532slgdg3j2ikp40","pricing_plan_id":"cebpf4jnsgd1na2vs0mg"},{"bike_id":"528eb393-807b-488a-a2f9-e9e2713226eb","system_id":"levelo_inurba_marseille","lat":43.30216,"lon":5.39467,"is_reserved":false,"is_disabled":false,"rental_uris":{"android":"levelo://app?vid=528eb393-807b-488a-a2f9-e9e2713226eb","ios":"levelo://app?vid=528eb393-807b-488a-a2f9-e9e2713226eb"},"vehicle_type_id":"4","last_reported":1747401791,"current_range_meters":18800,"station_id":"ce4bh0p2rcd13ifvqd70","pricing_plan_id":"cebpf4jnsgd1na2vs0mg"},{"bike_id":"994d41be-265d-4410-a657-d3900c93f7d9","system_id":"levelo_inurba_marseille","lat":43.29895,"lon":5.38902,"is_reserved":false,"is_disabled":false,"rental_uris":{"android":"levelo://app?vid=994d41be-265d-4410-a657-d3900c93f7d9","ios":"levelo://app?vid=994d41be-265d-4410-a657-d3900c93f7d9"},"vehicle_type_id":"4","last_reported":1747401791,"current_range_meters":18800,"station_id":"ce4bh392rcd13ifvqdl0","pricing_plan_id":"cebpf4jnsgd1na2vs0mg"},{"bike_id":"4fb06db8-32cc-4154-8871-f8e515cb2829","system_id":"levelo_inurba_marseille","lat":43.3061,"lon":5.37211,"is_reserved":false,"is_disabled":false,"rental_uris":{"android":"levelo://app?vid=4fb06db8-32cc-4154-8871-f8e515cb2829","ios":"levelo://app?vid=4fb06db8-32cc-4154-8871-f8e515cb2829"},"vehicle_type_id":"4","last_reported":1747401791,"current_range_meters":18800,"station_id":"ce4bgqh2rcd13ifvqc4g","pricing_plan_id":"cebpf4jnsgd1na2vs0mg"},{"bike_id":"205f6845-0078-4bb0-a6ec-6dae98286bb5","system_id":"levelo_inurba_marseille","lat":43.2985,"lon":5.36289,"is_reserved":false,"is_disabled":false,"rental_uris":{"android":"levelo://app?vid=205f6845-0078-4bb0-a6ec-6dae98286bb5","ios":"levelo://app?vid=205f6845-0078-4bb0-a6ec-6dae98286bb5"},"vehicle_type_id":"4","last_reported":1747401791,"current_range_meters":18800,"station_id":"ce4bgpp2rcd13ifvqc3g","pricing_plan_id":"cebpf4jnsgd1na2vs0mg"},{"bike_id":"d4f885a1-0547-457f-b627-268db09362ae","system_id":"levelo_inurba_marseille","lat":43.23148,"lon":5.43688,"is_reserved":false,"is_disabled":false,"rental_uris":{"android":"levelo://app?vid=d4f885a1-0547-457f-b627-268db09362ae","ios":"levelo://app?vid=d4f885a1-0547-457f-b627-268db09362ae"},"vehicle_type_id":"4","last_reported":1747401791,"current_range_meters":18000,"station_id":"ce4bhmp2rcd13ifvqgog","pricing_plan_id":"cebpf4jnsgd1na2vs0mg"},{"bike_id":"9c0777bb-1361-4acd-84ab-ce8408b6fe1b","system_id":"levelo_inurba_marseille","lat":43.27393,"lon":5.42374,"is_reserved":false,"is_disabled":false,"rental_uris":{"android":"levelo://app?vid=9c0777bb-1361-4acd-84ab-ce8408b6fe1b","ios":"levelo://app?vid=9c0777bb-1361-4acd-84ab-ce8408b6fe1b"},"vehicle_type_id":"4","last_reported":1747401791,"current_range_meters":18800,"station_id":"","pricing_plan_id":"cebpf4jnsgd1na2vs0mg"},{"bike_id":"bda3d9d0-185a-455a-9460-7fe16f991187","system_id":"levelo_inurba_marseille","lat":43.29597,"lon":5.38105,"is_reserved":false,"is_disabled":false,"rental_uris":{"android":"levelo://app?vid=bda3d9d0-185a-455a-9460-7fe16f991187","ios":"levelo://app?vid=bda3d9d0-185a-455a-9460-7fe16f991187"},"vehicle_type_id":"4","last_reported":1747401791,"current_range_meters":18800,"station_id":"ce4bgl12rcd13ifvqbo0","pricing_plan_id":"cebpf4jnsgd1na2vs0mg"},{"bike_id":"400611a7-c1bc-4ab7-8933-743e5807c087","system_id":"levelo_inurba_marseille","lat":43.29227,"lon":5.36069,"is_reserved":false,"is_disabled":false,"rental_uris":{"android":"levelo://app?vid=400611a7-c1bc-4ab7-8933-743e5807c087","ios":"levelo://app?vid=400611a7-c1bc-4ab7-8933-743e5807c087"},"vehicle_type_id":"4","last_reported":1747401791,"current_range_meters":18800,"station_id":"ce4bhbh2rcd13ifvqeqg","pricing_plan_id":"cebpf4jnsgd1na2vs0mg"},{"bike_id":"10273fe1-66a1-4853-8c3b-4c8939d68db1","system_id":"levelo_inurba_marseille","lat":43.29552,"lon":5.37493,"is_reserved":false,"is_disabled":true,"rental_uris":{"android":"levelo://app?vid=10273fe1-66a1-4853-8c3b-4c8939d68db1","ios":"levelo://app?vid=10273fe1-66a1-4853-8c3b-4c8939d68db1"},"vehicle_type_id":"4","last_reported":1747401791,"current_range_meters":19200,"station_id":"ce4bgkp2rcd13ifvqbmg","pricing_plan_id":"cebpf4jnsgd1na2vs0mg"},{"bike_id":"3acd4b59-4d05-405c-a6fa-de5cf50541bb","system_id":"levelo_inurba_marseille","lat":43.28701,"lon":5.39986,"is_reserved":false,"is_disabled":false,"rental_uris":{"android":"levelo://app?vid=3acd4b59-4d05-405c-a6fa-de5cf50541bb","ios":"levelo://app?vid=3acd4b59-4d05-405c-a6fa-de5cf50541bb"},"vehicle_type_id":"4","last_reported":1747401791,"current_range_meters":19200,"station_id":"ce4bho92rcd13ifvqh3g","pricing_plan_id":"cebpf4jnsgd1na2vs0mg"},{"bike_id":"186906d2-574c-4df4-92c7-aba3fe932378","system_id":"levelo_inurba_marseille","lat":43.31116,"lon":5.37766,"is_reserved":false,"is_disabled":false,"rental_uris":{"android":"levelo://app?vid=186906d2-574c-4df4-92c7-aba3fe932378","ios":"levelo://app?vid=186906d2-574c-4df4-92c7-aba3fe932378"},"vehicle_type_id":"4","last_reported":1747401791,"current_range_meters":19200,"station_id":"ce4bgt92rcd13ifvqcg0","pricing_plan_id":"cebpf4jnsgd1na2vs0mg"},{"bike_id":"04191f97-7977-4490-b076-1b42062d3bd7","system_id":"levelo_inurba_marseille","lat":43.27495,"lon":5.42446,"is_reserved":false,"is_disabled":false,"rental_uris":{"android":"levelo://app?vid=04191f97-7977-4490-b076-1b42062d3bd7","ios":"levelo://app?vid=04191f97-7977-4490-b076-1b42062d3bd7"},"vehicle_type_id":"4","last_reported":1747401791,"current_range_meters":19200,"station_id":"ce4bhn92rcd13ifvqgrg","pricing_plan_id":"cebpf4jnsgd1na2vs0mg"},{"bike_id":"d32443d7-a246-4555-b1d0-ec824513050c","system_id":"levelo_inurba_marseille","lat":43.308923,"lon":5.396599,"is_reserved":false,"is_disabled":false,"rental_uris":{"android":"levelo://app?vid=d32443d7-a246-4555-b1d0-ec824513050c","ios":"levelo://app?vid=d32443d7-a246-4555-b1d0-ec824513050c"},"vehicle_type_id":"4","last_reported":1747401791,"current_range_meters":19200,"station_id":"ce4bh012rcd13ifvqcv0","pricing_plan_id":"cebpf4jnsgd1na2vs0mg"},{"bike_id":"ae42d07a-f3af-43a3-a28d-4403ec856d6d","system_id":"levelo_inurba_marseille","lat":43.308917,"lon":5.396564,"is_reserved":false,"is_disabled":false,"rental_uris":{"android":"levelo://app?vid=ae42d07a-f3af-43a3-a28d-4403ec856d6d","ios":"levelo://app?vid=ae42d07a-f3af-43a3-a28d-4403ec856d6d"},"vehicle_type_id":"4","last_reported":1747401791,"current_range_meters":19600,"station_id":"ce4bh012rcd13ifvqcv0","pricing_plan_id":"cebpf4jnsgd1na2vs0mg"},{"bike_id":"080da10f-73c7-4342-93c6-97e1aeac391e","system_id":"levelo_inurba_marseille","lat":43.239586,"lon":5.366243,"is_reserved":false,"is_disabled":true,"rental_uris":{"android":"levelo://app?vid=080da10f-73c7-4342-93c6-97e1aeac391e","ios":"levelo://app?vid=080da10f-73c7-4342-93c6-97e1aeac391e"},"vehicle_type_id":"4","last_reported":1747401791,"current_range_meters":19600,"station_id":"ce4bhi12rcd13ifvqfp0","pricing_plan_id":"cebpf4jnsgd1na2vs0mg"},{"bike_id":"2c1e179f-06ce-4e32-a0ed-88deec6f76a6","system_id":"levelo_inurba_marseille","lat":43.27317,"lon":5.39093,"is_reserved":false,"is_disabled":false,"rental_uris":{"android":"levelo://app?vid=2c1e179f-06ce-4e32-a0ed-88deec6f76a6","ios":"levelo://app?vid=2c1e179f-06ce-4e32-a0ed-88deec6f76a6"},"vehicle_type_id":"4","last_reported":1747401791,"current_range_meters":19600,"station_id":"ce4bhgp2rcd13ifvqfe0","pricing_plan_id":"cebpf4jnsgd1na2vs0mg"},{"bike_id":"4b32aedd-079e-4cc7-8573-0566f0a6c8e0","system_id":"levelo_inurba_marseille","lat":43.30914,"lon":5.36866,"is_reserved":false,"is_disabled":false,"rental_uris":{"android":"levelo://app?vid=4b32aedd-079e-4cc7-8573-0566f0a6c8e0","ios":"levelo://app?vid=4b32aedd-079e-4cc7-8573-0566f0a6c8e0"},"vehicle_type_id":"4","last_reported":1747401791,"current_range_meters":19600,"station_id":"ce4bgn92rcd13ifvqbvg","pricing_plan_id":"cebpf4jnsgd1na2vs0mg"},{"bike_id":"8981451a-5023-4bf1-961f-ecab5c1003b6","system_id":"levelo_inurba_marseille","lat":43.2841,"lon":5.37524,"is_reserved":false,"is_disabled":false,"rental_uris":{"android":"levelo://app?vid=8981451a-5023-4bf1-961f-ecab5c1003b6","ios":"levelo://app?vid=8981451a-5023-4bf1-961f-ecab5c1003b6"},"vehicle_type_id":"4","last_reported":1747401791,"current_range_meters":19600,"station_id":"ce4bh412rcd13ifvqds0","pricing_plan_id":"cebpf4jnsgd1na2vs0mg"},{"bike_id":"512db903-9559-40c7-8902-6a98e3c8c53c","system_id":"levelo_inurba_marseille","lat":43.32935,"lon":5.389869,"is_reserved":false,"is_disabled":false,"rental_uris":{"android":"levelo://app?vid=512db903-9559-40c7-8902-6a98e3c8c53c","ios":"levelo://app?vid=512db903-9559-40c7-8902-6a98e3c8c53c"},"vehicle_type_id":"4","last_reported":1747401791,"current_range_meters":19600,"station_id":"","pricing_plan_id":"cebpf4jnsgd1na2vs0mg"},{"bike_id":"3a4221e2-3662-4b64-9c39-2aad992b6026","system_id":"levelo_inurba_marseille","lat":43.29733,"lon":5.37674,"is_reserved":false,"is_disabled":false,"rental_uris":{"android":"levelo://app?vid=3a4221e2-3662-4b64-9c39-2aad992b6026","ios":"levelo://app?vid=3a4221e2-3662-4b64-9c39-2aad992b6026"},