{"last_updated":1784664707,"ttl":60,"version":"2.2","data":{"bikes":[{"bike_id":"7ef36254-6bb3-448c-8d77-979d957d54b6","system_id":"levelo_inurba_marseille","lat":43.337444,"lon":5.374475,"is_reserved":false,"is_disabled":false,"rental_uris":{"android":"levelo://app?vid=7ef36254-6bb3-448c-8d77-979d957d54b6","ios":"levelo://app?vid=7ef36254-6bb3-448c-8d77-979d957d54b6"},"vehicle_type_id":"4","last_reported":1784664708,"current_range_meters":0,"station_id":"","pricing_plan_id":"cebpf4jnsgd1na2vs0mg"},{"bike_id":"21fe2e98-0432-4b40-a81f-10dd00b0f57d","system_id":"levelo_inurba_marseille","lat":43.337444,"lon":5.374475,"is_reserved":false,"is_disabled":false,"rental_uris":{"android":"levelo://app?vid=21fe2e98-0432-4b40-a81f-10dd00b0f57d","ios":"levelo://app?vid=21fe2e98-0432-4b40-a81f-10dd00b0f57d"},"vehicle_type_id":"4","last_reported":1784664708,"current_range_meters":0,"station_id":"","pricing_plan_id":"cebpf4jnsgd1na2vs0mg"},{"bike_id":"a005102a-45c6-430f-8cd7-a0a69490bbf0","system_id":"levelo_inurba_marseille","lat":43.3353,"lon":5.37465,"is_reserved":false,"is_disabled":false,"rental_uris":{"android":"levelo://app?vid=a005102a-45c6-430f-8cd7-a0a69490bbf0","ios":"levelo://app?vid=a005102a-45c6-430f-8cd7-a0a69490bbf0"},"vehicle_type_id":"4","last_reported":1784664708,"current_range_meters":37600,"station_id":"st_d46tts09ee8s73dlu43g","pricing_plan_id":"cebpf4jnsgd1na2vs0mg"},{"bike_id":"910edd9b-3f88-46ff-af53-0deba1c167b6","system_id":"levelo_inurba_marseille","lat":43.23961,"lon":5.36615,"is_reserved":false,"is_disabled":false,"rental_uris":{"android":"levelo://app?vid=910edd9b-3f88-46ff-af53-0deba1c167b6","ios":"levelo://app?vid=910edd9b-3f88-46ff-af53-0deba1c167b6"},"vehicle_type_id":"4","last_reported":1784664708,"current_range_meters":39200,"station_id":"ce4bhi12rcd13ifvqfp0","pricing_plan_id":"cebpf4jnsgd1na2vs0mg"},{"bike_id":"6e26c430-d814-487a-b6bf-1ece184f4707","system_id":"levelo_inurba_marseille","lat":43.28938,"lon":5.3664,"is_reserved":false,"is_disabled":false,"rental_uris":{"android":"levelo://app?vid=6e26c430-d814-487a-b6bf-1ece184f4707","ios":"levelo://app?vid=6e26c430-d814-487a-b6bf-1ece184f4707"},"vehicle_type_id":"4","last_reported":1784664708,"current_range_meters":12000,"station_id":"ce4bhap2rcd13ifvqek0","pricing_plan_id":"cebpf4jnsgd1na2vs0mg"},{"bike_id":"cdfc1d20-1666-41f9-8692-c3b6d7adccc6","system_id":"levelo_inurba_marseille","lat":43.292733,"lon":5.368364,"is_reserved":false,"is_disabled":true,"rental_uris":{"android":"levelo://app?vid=cdfc1d20-1666-41f9-8692-c3b6d7adccc6","ios":"levelo://app?vid=cdfc1d20-1666-41f9-8692-c3b6d7adccc6"},"vehicle_type_id":"4","last_reported":1784664708,"current_range_meters":400,"station_id":"","pricing_plan_id":"cebpf4jnsgd1na2vs0mg"},{"bike_id":"f2c26268-2002-48c9-a2f8-8f76ed8a8540","system_id":"levelo_inurba_marseille","lat":43.23891,"lon":5.37465,"is_reserved":false,"is_disabled":false,"rental_uris":{"android":"levelo://app?vid=f2c26268-2002-48c9-a2f8-8f76ed8a8540","ios":"levelo://app?vid=f2c26268-2002-48c9-a2f8-8f76ed8a8540"},"vehicle_type_id":"4","last_reported":1784664708,"current_range_meters":39200,"station_id":"st_d6sm7csbq4hs73f8fpjg","pricing_plan_id":"cebpf4jnsgd1na2vs0mg"},{"bike_id":"36fc51c8-2d0d-44cc-b5fd-6486faab6cfd","system_id":"levelo_inurba_marseille","lat":43.28608,"lon":5.35132,"is_reserved":false,"is_disabled":false,"rental_uris":{"android":"levelo://app?vid=36fc51c8-2d0d-44cc-b5fd-6486faab6cfd","ios":"levelo://app?vid=36fc51c8-2d0d-44cc-b5fd-6486faab6cfd"},"vehicle_type_id":"4","last_reported":1784664708,"current_range_meters":14000,"station_id":"ce4bhch2rcd13ifvqeug","pricing_plan_id":"cebpf4jnsgd1na2vs0mg"},{"bike_id":"72706276-fb69-4388-946e-2b4fb06a5929","system_id":"levelo_inurba_marseille","lat":43.33023,"lon":5.39071,"is_reserved":false,"is_disabled":false,"rental_uris":{"android":"levelo://app?vid=72706276-fb69-4388-946e-2b4fb06a5929","ios":"levelo://app?vid=72706276-fb69-4388-946e-2b4fb06a5929"},"vehicle_type_id":"4","last_reported":1784664708,"current_range_meters":8800,"station_id":"ce4bhr92rcd13ifvqhrg","pricing_plan_id":"cebpf4jnsgd1na2vs0mg"},{"bike_id":"aa5fe21d-13c7-45d4-9a89-69f1f19ba302","system_id":"levelo_inurba_marseille","lat":43.30796,"lon":5.38154,"is_reserved":false,"is_disabled":false,"rental_uris":{"android":"levelo://app?vid=aa5fe21d-13c7-45d4-9a89-69f1f19ba302","ios":"levelo://app?vid=aa5fe21d-13c7-45d4-9a89-69f1f19ba302"},"vehicle_type_id":"4","last_reported":1784664708,"current_range_meters":22400,"station_id":"ce4bgt12rcd13ifvqce0","pricing_plan_id":"cebpf4jnsgd1na2vs0mg"},{"bike_id":"10ad0a9f-3c3b-45c2-8514-d34f29e37fe1","system_id":"levelo_inurba_marseille","lat":43.24387,"lon":5.37059,"is_reserved":false,"is_disabled":false,"rental_uris":{"android":"levelo://app?vid=10ad0a9f-3c3b-45c2-8514-d34f29e37fe1","ios":"levelo://app?vid=10ad0a9f-3c3b-45c2-8514-d34f29e37fe1"},"vehicle_type_id":"4","last_reported":1784664708,"current_range_meters":37600,"station_id":"ce4bhhh2rcd13ifvqfk0","pricing_plan_id":"cebpf4jnsgd1na2vs0mg"},{"bike_id":"0b44179e-faa0-4756-9ccc-59a50223c477","system_id":"levelo_inurba_marseille","lat":43.29111,"lon":5.35587,"is_reserved":false,"is_disabled":false,"rental_uris":{"android":"levelo://app?vid=0b44179e-faa0-4756-9ccc-59a50223c477","ios":"levelo://app?vid=0b44179e-faa0-4756-9ccc-59a50223c477"},"vehicle_type_id":"4","last_reported":1784664708,"current_range_meters":38000,"station_id":"","pricing_plan_id":"cebpf4jnsgd1na2vs0mg"},{"bike_id":"7219b5d1-4410-4fc8-9519-1ca61e3e373b","system_id":"levelo_inurba_marseille","lat":43.27076,"lon":5.42287,"is_reserved":false,"is_disabled":false,"rental_uris":{"android":"levelo://app?vid=7219b5d1-4410-4fc8-9519-1ca61e3e373b","ios":"levelo://app?vid=7219b5d1-4410-4fc8-9519-1ca61e3e373b"},"vehicle_type_id":"4","last_reported":1784664708,"current_range_meters":20400,"station_id":"ce4bhk92rcd13ifvqgb0","pricing_plan_id":"cebpf4jnsgd1na2vs0mg"},{"bike_id":"df7a9087-a6d9-464b-8d72-52958f5ddfcb","system_id":"levelo_inurba_marseille","lat":43.29303,"lon":5.37447,"is_reserved":false,"is_disabled":false,"rental_uris":{"android":"levelo://app?vid=df7a9087-a6d9-464b-8d72-52958f5ddfcb","ios":"levelo://app?vid=df7a9087-a6d9-464b-8d72-52958f5ddfcb"},"vehicle_type_id":"4","last_reported":1784664708,"current_range_meters":4000,"station_id":"ce4bgi12rcd13ifvqb70","pricing_plan_id":"cebpf4jnsgd1na2vs0mg"},{"bike_id":"4c8a9346-393a-468d-aefa-db527707d5ad","system_id":"levelo_inurba_marseille","lat":43.29798,"lon":5.37278,"is_reserved":false,"is_disabled":false,"rental_uris":{"android":"levelo://app?vid=4c8a9346-393a-468d-aefa-db527707d5ad","ios":"levelo://app?vid=4c8a9346-393a-468d-aefa-db527707d5ad"},"vehicle_type_id":"4","last_reported":1784664708,"current_range_meters":13600,"station_id":"","pricing_plan_id":"cebpf4jnsgd1na2vs0mg"},{"bike_id":"0aea21ad-69cc-4eb7-8c82-3a2ca365bb00","system_id":"levelo_inurba_marseille","lat":43.29972,"lon":5.37231,"is_reserved":false,"is_disabled":false,"rental_uris":{"android":"levelo://app?vid=0aea21ad-69cc-4eb7-8c82-3a2ca365bb00","ios":"levelo://app?vid=0aea21ad-69cc-4eb7-8c82-3a2ca365bb00"},"vehicle_type_id":"4","last_reported":1784664708,"current_range_meters":35200,"station_id":"ce4bgr92rcd13ifvqc7g","pricing_plan_id":"cebpf4jnsgd1na2vs0mg"},{"bike_id":"e66234c1-ff79-46db-860f-1f5397bc0405","system_id":"levelo_inurba_marseille","lat":43.28196,"lon":5.39082,"is_reserved":false,"is_disabled":true,"rental_uris":{"android":"levelo://app?vid=e66234c1-ff79-46db-860f-1f5397bc0405","ios":"levelo://app?vid=e66234c1-ff79-46db-860f-1f5397bc0405"},"vehicle_type_id":"4","last_reported":1784664708,"current_range_meters":17200,"station_id":"ce4bhn92rcd13ifvqgsg","pricing_plan_id":"cebpf4jnsgd1na2vs0mg"},{"bike_id":"38b93f4d-bf0c-44c1-8684-7afece171047","system_id":"levelo_inurba_marseille","lat":43.28677,"lon":5.38654,"is_reserved":false,"is_disabled":false,"rental_uris":{"android":"levelo://app?vid=38b93f4d-bf0c-44c1-8684-7afece171047","ios":"levelo://app?vid=38b93f4d-bf0c-44c1-8684-7afece171047"},"vehicle_type_id":"4","last_reported":1784664708,"current_range_meters":14000,"station_id":"ce4bh492rcd13ifvqdug","pricing_plan_id":"cebpf4jnsgd1na2vs0mg"},{"bike_id":"015b9273-e832-42d9-8755-8ac5f3bb3091","system_id":"levelo_inurba_marseille","lat":43.280746,"lon":5.396616,"is_reserved":false,"is_disabled":false,"rental_uris":{"android":"levelo://app?vid=015b9273-e832-42d9-8755-8ac5f3bb3091","ios":"levelo://app?vid=015b9273-e832-42d9-8755-8ac5f3bb3091"},"vehicle_type_id":"4","last_reported":1784664708,"current_range_meters":22800,"station_id":"ce4bho12rcd13ifvqh2g","pricing_plan_id":"cebpf4jnsgd1na2vs0mg"},{"bike_id":"87d53ded-f897-4e85-aad5-eb92ac53f54c","system_id":"levelo_inurba_marseille","lat":43.29158,"lon":5.37149,"is_reserved":false,"is_disabled":false,"rental_uris":{"android":"levelo://app?vid=87d53ded-f897-4e85-aad5-eb92ac53f54c","ios":"levelo://app?vid=87d53ded-f897-4e85-aad5-eb92ac53f54c"},"vehicle_type_id":"4","last_reported":1784664708,"current_range_meters":4400,"station_id":"ce4bha92rcd13ifvqeh0","pricing_plan_id":"cebpf4jnsgd1na2vs0mg"},{"bike_id":"bf720be3-207c-41aa-bdb2-2d086f76cbcd","system_id":"levelo_inurba_marseille","lat":43.26571,"lon":5.40334,"is_reserved":false,"is_disabled":false,"rental_uris":{"android":"levelo://app?vid=bf720be3-207c-41aa-bdb2-2d086f76cbcd","ios":"levelo://app?vid=bf720be3-207c-41aa-bdb2-2d086f76cbcd"},"vehicle_type_id":"4","last_reported":1784664708,"current_range_meters":8000,"station_id":"ce4bhmp2rcd13ifvqgng","pricing_plan_id":"cebpf4jnsgd1na2vs0mg"},{"bike_id":"7b893c3a-f50d-4ab1-b4e5-684f550fde57","system_id":"levelo_inurba_marseille","lat":43.31596,"lon":5.3708,"is_reserved":false,"is_disabled":true,"rental_uris":{"android":"levelo://app?vid=7b893c3a-f50d-4ab1-b4e5-684f550fde57","ios":"levelo://app?vid=7b893c3a-f50d-4ab1-b4e5-684f550fde57"},"vehicle_type_id":"4","last_reported":1784664708,"current_range_meters":10000,"station_id":"","pricing_plan_id":"cebpf4jnsgd1na2vs0mg"},{"bike_id":"c9ce6966-7563-4849-ab98-b10443cf1df4","system_id":"levelo_inurba_marseille","lat":43.2925,"lon":5.38452,"is_reserved":false,"is_disabled":false,"rental_uris":{"android":"levelo://app?vid=c9ce6966-7563-4849-ab98-b10443cf1df4","ios":"levelo://app?vid=c9ce6966-7563-4849-ab98-b10443cf1df4"},"vehicle_type_id":"4","last_reported":1784664708,"current_range_meters":32800,"station_id":"ce4bh692rcd13ifvqea0","pricing_plan_id":"cebpf4jnsgd1na2vs0mg"},{"bike_id":"256189b6-7292-4343-872c-b8b089a5e220","system_id":"levelo_inurba_marseille","lat":43.22923,"lon":5.35365,"is_reserved":false,"is_disabled":false,"rental_uris":{"android":"levelo://app?vid=256189b6-7292-4343-872c-b8b089a5e220","ios":"levelo://app?vid=256189b6-7292-4343-872c-b8b089a5e220"},"vehicle_type_id":"4","last_reported":1784664708,"current_range_meters":18000,"station_id":"cpo3532slgdg3j2ikp40","pricing_plan_id":"cebpf4jnsgd1na2vs0mg"},{"bike_id":"f9c65922-483e-4914-92f4-f7524b9a110d","system_id":"levelo_inurba_marseille","lat":43.32352,"lon":5.36766,"is_reserved":false,"is_disabled":false,"rental_uris":{"android":"levelo://app?vid=f9c65922-483e-4914-92f4-f7524b9a110d","ios":"levelo://app?vid=f9c65922-483e-4914-92f4-f7524b9a110d"},"vehicle_type_id":"4","last_reported":1784664708,"current_range_meters":6800,"station_id":"ce4bhsh2rcd13ifvqi2g","pricing_plan_id":"cebpf4jnsgd1na2vs0mg"},{"bike_id":"43db5314-f299-442d-a647-3276349edc71","system_id":"levelo_inurba_marseille","lat":43.24799,"lon":5.37459,"is_reserved":false,"is_disabled":true,"rental_uris":{"android":"levelo://app?vid=43db5314-f299-442d-a647-3276349edc71","ios":"levelo://app?vid=43db5314-f299-442d-a647-3276349edc71"},"vehicle_type_id":"4","last_reported":1784664708,"current_range_meters":37600,"station_id":"ce4bhgh2rcd13ifvqfb0","pricing_plan_id":"cebpf4jnsgd1na2vs0mg"},{"bike_id":"307933d7-3ad3-45bb-a1ee-05f1fdda6757","system_id":"levelo_inurba_marseille","lat":43.26564,"lon":5.39017,"is_reserved":false,"is_disabled":false,"rental_uris":{"android":"levelo://app?vid=307933d7-3ad3-45bb-a1ee-05f1fdda6757","ios":"levelo://app?vid=307933d7-3ad3-45bb-a1ee-05f1fdda6757"},"vehicle_type_id":"4","last_reported":1784664708,"current_range_meters":37600,"station_id":"ce4bhe12rcd13ifvqf30","pricing_plan_id":"cebpf4jnsgd1na2vs0mg"},{"bike_id":"ae6e60d7-557b-4767-877c-b58daaa4a107","system_id":"levelo_inurba_marseille","lat":43.28847,"lon":5.39326,"is_reserved":false,"is_disabled":false,"rental_uris":{"android":"levelo://app?vid=ae6e60d7-557b-4767-877c-b58daaa4a107","ios":"levelo://app?vid=ae6e60d7-557b-4767-877c-b58daaa4a107"},"vehicle_type_id":"4","last_reported":1784664708,"current_range_meters":2800,"station_id":"ce4bh2p2rcd13ifvqdi0","pricing_plan_id":"cebpf4jnsgd1na2vs0mg"},{"bike_id":"0e79340c-4bb1-458c-9158-5ec18b3f42cc","system_id":"levelo_inurba_marseille","lat":43.28606,"lon":5.3512,"is_reserved":false,"is_disabled":false,"rental_uris":{"android":"levelo://app?vid=0e79340c-4bb1-458c-9158-5ec18b3f42cc","ios":"levelo://app?vid=0e79340c-4bb1-458c-9158-5ec18b3f42cc"},"vehicle_type_id":"4","last_reported":1784664708,"current_range_meters":27600,"station_id":"ce4bhch2rcd13ifvqeug","pricing_plan_id":"cebpf4jnsgd1na2vs0mg"},{"bike_id":"dde6b91e-2def-492b-9604-c98c63abea63","system_id":"levelo_inurba_marseille","lat":43.29905,"lon":5.37478,"is_reserved":false,"is_disabled":false,"rental_uris":{"android":"levelo://app?vid=dde6b91e-2def-492b-9604-c98c63abea63","ios":"levelo://app?vid=dde6b91e-2def-492b-9604-c98c63abea63"},"vehicle_type_id":"4","last_reported":1784664708,"current_range_meters":30000,"station_id":"ce4bgjh2rcd13ifvqbg0","pricing_plan_id":"cebpf4jnsgd1na2vs0mg"},{"bike_id":"d0bee20d-188e-402f-b971-1eb28a8b9e42","system_id":"levelo_inurba_marseille","lat":43.29252,"lon":5.36875,"is_reserved":false,"is_disabled":true,"rental_uris":{"android":"levelo://app?vid=d0bee20d-188e-402f-b971-1eb28a8b9e42","ios":"levelo://app?vid=d0bee20d-188e-402f-b971-1eb28a8b9e42"},"vehicle_type_id":"4","last_reported":1784664708,"current_range_meters":0,"station_id":"","pricing_plan_id":"cebpf4jnsgd1na2vs0mg"},{"bike_id":"721b53b7-9a83-4803-b1d2-72f934e5147d","system_id":"levelo_inurba_marseille","lat":43.29368,"lon":5.37838,"is_reserved":false,"is_disabled":false,"rental_uris":{"android":"levelo://app?vid=721b53b7-9a83-4803-b1d2-72f934e5147d","ios":"levelo://app?vid=721b53b7-9a83-4803-b1d2-72f934e5147d"},"vehicle_type_id":"4","last_reported":1784664708,"current_range_meters":38400,"station_id":"ce4bgjh2rcd13ifvqbf0","pricing_plan_id":"cebpf4jnsgd1na2vs0mg"},{"bike_id":"4b6d5d85-d30d-4387-9dc3-e087c398a21b","system_id":"levelo_inurba_marseille","lat":43.28916,"lon":5.38393,"is_reserved":false,"is_disabled":false,"rental_uris":{"android":"levelo://app?vid=4b6d5d85-d30d-4387-9dc3-e087c398a21b","ios":"levelo://app?vid=4b6d5d85-d30d-4387-9dc3-e087c398a21b"},"vehicle_type_id":"4","last_reported":1784664708,"current_range_meters":4000,"station_id":"ce4bh612rcd13ifvqe6g","pricing_plan_id":"cebpf4jnsgd1na2vs0mg"},{"bike_id":"a7c9489a-3c37-4218-bc38-92c335aa3a8a","system_id":"levelo_inurba_marseille","lat":43.28481,"lon":5.48392,"is_reserved":false,"is_disabled":false,"rental_uris":{"android":"levelo://app?vid=a7c9489a-3c37-4218-bc38-92c335aa3a8a","ios":"levelo://app?vid=a7c9489a-3c37-4218-bc38-92c335aa3a8a"},"vehicle_type_id":"4","last_reported":1784664708,"current_range_meters":8400,"station_id":"st_d3svhcjqgbts73a3dn0g","pricing_plan_id":"cebpf4jnsgd1na2vs0mg"},{"bike_id":"540d5bf4-fcca-4219-b4c4-9a4661ff8288","system_id":"levelo_inurba_marseille","lat":43.29044,"lon":5.39941,"is_reserved":false,"is_disabled":true,"rental_uris":{"android":"levelo://app?vid=540d5bf4-fcca-4219-b4c4-9a4661ff8288","ios":"levelo://app?vid=540d5bf4-fcca-4219-b4c4-9a4661ff8288"},"vehicle_type_id":"4","last_reported":1784664708,"current_range_meters":35600,"station_id":"ce4bh392rcd13ifvqdm0","pricing_plan_id":"cebpf4jnsgd1na2vs0mg"},{"bike_id":"4bf39877-69af-405c-a1ef-7618954a28ba","system_id":"levelo_inurba_marseille","lat":43.24804,"lon":5.37457,"is_reserved":false,"is_disabled":false,"rental_uris":{"android":"levelo://app?vid=4bf39877-69af-405c-a1ef-7618954a28ba","ios":"levelo://app?vid=4bf39877-69af-405c-a1ef-7618954a28ba"},"vehicle_type_id":"4","last_reported":1784664708,"current_range_meters":8800,"station_id":"ce4bhgh2rcd13ifvqfb0","pricing_plan_id":"cebpf4jnsgd1na2vs0mg"},{"bike_id":"5782b3c5-fcfa-428f-a446-7f92a4d382c6","system_id":"levelo_inurba_marseille","lat":43.29706,"lon":5.36605,"is_reserved":false,"is_disabled":true,"rental_uris":{"android":"levelo://app?vid=5782b3c5-fcfa-428f-a446-7f92a4d382c6","ios":"levelo://app?vid=5782b3c5-fcfa-428f-a446-7f92a4d382c6"},"vehicle_type_id":"4","last_reported":1784664708,"current_range_meters":37600,"station_id":"ce4bgn12rcd13ifvqbt0","pricing_plan_id":"cebpf4jnsgd1na2vs0mg"},{"bike_id":"e89ec40d-5c89-4ac6-a00d-a8b159439ed1","system_id":"levelo_inurba_marseille","lat":43.29862,"lon":5.38623,"is_reserved":false,"is_disabled":false,"rental_uris":{"android":"levelo://app?vid=e89ec40d-5c89-4ac6-a00d-a8b159439ed1","ios":"levelo://app?vid=e89ec40d-5c89-4ac6-a00d-a8b159439ed1"},"vehicle_type_id":"4","last_reported":1784664708,"current_range_meters":24000,"station_id":"","pricing_plan_id":"cebpf4jnsgd1na2vs0mg"},{"bike_id":"5aa3ca14-34f8-4cf6-bf98-84664ad40ed9","system_id":"levelo_inurba_marseille","lat":43.32365,"lon":5.38864,"is_reserved":false,"is_disabled":false,"rental_uris":{"android":"levelo://app?vid=5aa3ca14-34f8-4cf6-bf98-84664ad40ed9","ios":"levelo://app?vid=5aa3ca14-34f8-4cf6-bf98-84664ad40ed9"},"vehicle_type_id":"4","last_reported":1784664708,"current_range_meters":38400,"station_id":"ce4bhqp2rcd13ifvqhog","pricing_plan_id":"cebpf4jnsgd1na2vs0mg"},{"bike_id":"d2861908-1fc6-40df-93af-8c183c3dbd31","system_id":"levelo_inurba_marseille","lat":43.29775,"lon":5.39343,"is_reserved":false,"is_disabled":false,"rental_uris":{"android":"levelo://app?vid=d2861908-1fc6-40df-93af-8c183c3dbd31","ios":"levelo://app?vid=d2861908-1fc6-40df-93af-8c183c3dbd31"},"vehicle_type_id":"4","last_reported":1784664708,"current_range_meters":4800,"station_id":"chh1huq6cuj3fo74tm60","pricing_plan_id":"cebpf4jnsgd1na2vs0mg"},{"bike_id":"8b48f329-937d-4f33-bc8e-cc3992c67190","system_id":"levelo_inurba_marseille","lat":43.29621,"lon":5.37156,"is_reserved":false,"is_disabled":true,"rental_uris":{"android":"levelo://app?vid=8b48f329-937d-4f33-bc8e-cc3992c67190","ios":"levelo://app?vid=8b48f329-937d-4f33-bc8e-cc3992c67190"},"vehicle_type_id":"4","last_reported":1784664708,"current_range_meters":38000,"station_id":"","pricing_plan_id":"cebpf4jnsgd1na2vs0mg"},{"bike_id":"7d6837a7-2ba7-49e4-84de-3581e0b0ae4c","system_id":"levelo_inurba_marseille","lat":43.27609,"lon":5.36137,"is_reserved":false,"is_disabled":false,"rental_uris":{"android":"levelo://app?vid=7d6837a7-2ba7-49e4-84de-3581e0b0ae4c","ios":"levelo://app?vid=7d6837a7-2ba7-49e4-84de-3581e0b0ae4c"},"vehicle_type_id":"4","last_reported":1784664708,"current_range_meters":38800,"station_id":"ce4bgj92rcd13ifvqbe0","pricing_plan_id":"cebpf4jnsgd1na2vs0mg"},{"bike_id":"996845f5-fb75-4eb8-b8ef-2869f07a5fe2","system_id":"levelo_inurba_marseille","lat":43.27168,"lon":5.4098,"is_reserved":false,"is_disabled":false,"rental_uris":{"android":"levelo://app?vid=996845f5-fb75-4eb8-b8ef-2869f07a5fe2","ios":"levelo://app?vid=996845f5-fb75-4eb8-b8ef-2869f07a5fe2"},"vehicle_type_id":"4","last_reported":1784664708,"current_range_meters":24400,"station_id":"ce4bhl12rcd13ifvqgf0","pricing_plan_id":"cebpf4jnsgd1na2vs0mg"},{"bike_id":"d5f15b89-300c-48ce-868a-694a93770e8e","system_id":"levelo_inurba_marseille","lat":43.24074,"lon":5.37725,"is_reserved":false,"is_disabled":false,"rental_uris":{"android":"levelo://app?vid=d5f15b89-300c-48ce-868a-694a93770e8e","ios":"levelo://app?vid=d5f15b89-300c-48ce-868a-694a93770e8e"},"vehicle_type_id":"4","last_reported":1784664708,"current_range_meters":17200,"station_id":"ce4bhnp2rcd13ifvqgvg","pricing_plan_id":"cebpf4jnsgd1na2vs0mg"},{"bike_id":"461dd58c-91fc-4ddd-a3a9-5c8385d7286e","system_id":"levelo_inurba_marseille","lat":43.2847,"lon":5.38428,"is_reserved":false,"is_disabled":true,"rental_uris":{"android":"levelo://app?vid=461dd58c-91fc-4ddd-a3a9-5c8385d7286e","ios":"levelo://app?vid=461dd58c-91fc-4ddd-a3a9-5c8385d7286e"},"vehicle_type_id":"4","last_reported":1784664708,"current_range_meters":24400,"station_id":"ce4bh512rcd13ifvqe3g","pricing_plan_id":"cebpf4jnsgd1na2vs0mg"},{"bike_id":"d3acbdaf-d839-4e3e-84ef-8df6cbbc4199","system_id":"levelo_inurba_marseille","lat":43.29705,"lon":5.36619,"is_reserved":false,"is_disabled":false,"rental_uris":{"android":"levelo://app?vid=d3acbdaf-d839-4e3e-84ef-8df6cbbc4199","ios":"levelo://app?vid=d3acbdaf-d839-4e3e-84ef-8df6cbbc4199"},"vehicle_type_id":"4","last_reported":1784664708,"current_range_meters":13600,"station_id":"ce4bgn12rcd13ifvqbt0","pricing_plan_id":"cebpf4jnsgd1na2vs0mg"},{"bike_id":"82ce4001-b0b0-48dc-ad6c-c5f057467c11","system_id":"levelo_inurba_marseille","lat":43.275,"lon":5.41587,"is_reserved":false,"is_disabled":false,"rental_uris":{"android":"levelo://app?vid=82ce4001-b0b0-48dc-ad6c-c5f057467c11","ios":"levelo://app?vid=82ce4001-b0b0-48dc-ad6c-c5f057467c11"},"vehicle_type_id":"4","last_reported":1784664708,"current_range_meters":39200,"station_id":"st_d6im8g6chgec73a5pndg","pricing_plan_id":"cebpf4jnsgd1na2vs0mg"},{"bike_id":"1aff1f8e-f848-41e0-b07b-a9094dffc4a3","system_id":"levelo_inurba_marseille","lat":43.29271,"lon":5.36845,"is_reserved":false,"is_disabled":false,"rental_uris":{"android":"levelo://app?vid=1aff1f8e-f848-41e0-b07b-a9094dffc4a3","ios":"levelo://app?vid=1aff1f8e-f848-41e0-b07b-a9094dffc4a3"},"vehicle_type_id":"4","last_reported":1784664708,"current_range_meters":39200,"station_id":"","pricing_plan_id":"cebpf4jnsgd1na2vs0mg"},{"bike_id":"8b7d62fa-ed21-4972-93c6-2de1c4ec38ec","system_id":"levelo_inurba_marseille","lat":43.28862,"lon":5.39321,"is_reserved":false,"is_disabled":false,"rental_uris":{"android":"levelo://app?vid=8b7d62fa-ed21-4972-93c6-2de1c4ec38ec","ios":"levelo://app?vid=8b7d62fa-ed21-4972-93c6-2de1c4ec38ec"},"vehicle_type_id":"4","last_reported":1784664708,"current_range_meters":39200,"station_id":"ce4bh2p2rcd13ifvqdi0","pricing_plan_id":"cebpf4jnsgd1na2vs0mg"},{"bike_id":"aa0c2d9b-f4e0-477a-9fa2-18fd1e9e7acb","system_id":"levelo_inurba_marseille","lat":43.28703,"lon":5.46684,"is_reserved":false,"is_disabled":false,"rental_uris":{"android":"levelo://app?vid=aa0c2d9b-f4e0-477a-9fa2-18fd1e9e7acb","ios":"levelo://app?vid=aa0c2d9b-f4e0-477a-9fa2-18fd1e9e7acb"},"vehicle_type_id":"4","last_reported":1784664708,"current_range_meters":30400,"station_id":"st_d6tc3vkotcvc738tfjhg","pricing_plan_id":"cebpf4jnsgd1na2vs0mg"},{"bike_id":"dd11e6d7-94bf-4bbb-9428-5a8022e3e496","system_id":"levelo_inurba_marseille","lat":43.30225,"lon":5.39952,"is_reserved":false,"is_disabled":false,"rental_uris":{"android":"levelo://app?vid=dd11e6d7-94bf-4bbb-9428-5a8022e3e496","ios":"levelo://app?vid=dd11e6d7-94bf-4bbb-9428-5a8022e3e496"},"vehicle_type_id":"4","last_reported":1784664708,"current_range_meters":26800,"station_id":"","pricing_plan_id":"cebpf4jnsgd1na2vs0mg"},{"bike_id":"b97f1724-4f09-4f82-a8dd-d9c661ad559e","system_id":"levelo_inurba_marseille","lat":43.30881,"lon":5.37179,"is_reserved":false,"is_disabled":true,"rental_uris":{"android":"levelo://app?vid=b97f1724-4f09-4f82-a8dd-d9c661ad559e","ios":"levelo://app?vid=b97f1724-4f09-4f82-a8dd-d9c661ad559e"},"vehicle_type_id":"4","last_reported":1784664708,"current_range_meters":6400,"station_id":"ce4bguh2rcd13ifvqckg","pricing_plan_id":"cebpf4jnsgd1na2vs0mg"},{"bike_id":"7b1a34a9-9772-429a-ac81-dbcf3805788e","system_id":"levelo_inurba_marseille","lat":43.27884,"lon":5.35547,"is_reserved":false,"is_disabled":false,"rental_uris":{"android":"levelo://app?vid=7b1a34a9-9772-429a-ac81-dbcf3805788e","ios":"levelo://app?vid=7b1a34a9-9772-429a-ac81-dbcf3805788e"},"vehicle_type_id":"4","last_reported":1784664708,"current_range_meters":20000,"station_id":"","pricing_plan_id":"cebpf4jnsgd1na2vs0mg"},{"bike_id":"1d0e9905-039d-4ad0-9712-8548fa1c981e","system_id":"levelo_inurba_marseille","lat":43.30101,"lon":5.39079,"is_reserved":false,"is_disabled":false,"rental_uris":{"android":"levelo://app?vid=1d0e9905-039d-4ad0-9712-8548fa1c981e","ios":"levelo://app?vid=1d0e9905-039d-4ad0-9712-8548fa1c981e"},"vehicle_type_id":"4","last_reported":1784664708,"current_range_meters":9200,"station_id":"ce4bh192rcd13ifvqdb0","pricing_plan_id":"cebpf4jnsgd1na2vs0mg"},{"bike_id":"c3ff5631-89ce-4b0c-9222-92e512cfc1dd","system_id":"levelo_inurba_marseille","lat":43.26209,"lon":5.37924,"is_reserved":false,"is_disabled":false,"rental_uris":{"android":"levelo://app?vid=c3ff5631-89ce-4b0c-9222-92e512cfc1dd","ios":"levelo://app?vid=c3ff5631-89ce-4b0c-9222-92e512cfc1dd"},"vehicle_type_id":"4","last_reported":1784664708,"current_range_meters":38800,"station_id":"","pricing_plan_id":"cebpf4jnsgd1na2vs0mg"},{"bike_id":"b3615f38-9ae4-47b3-be0f-27da959fb130","system_id":"levelo_inurba_marseille","lat":43.26585,"lon":5.39656,"is_reserved":false,"is_disabled":false,"rental_uris":{"android":"levelo://app?vid=b3615f38-9ae4-47b3-be0f-27da959fb130","ios":"levelo://app?vid=b3615f38-9ae4-47b3-be0f-27da959fb130"},"vehicle_type_id":"4","last_reported":1784664708,"current_range_meters":17600,"station_id":"","pricing_plan_id":"cebpf4jnsgd1na2vs0mg"},{"bike_id":"2e89ad6f-ff0f-4f55-a9b1-95acee219c1b","system_id":"levelo_inurba_marseille","lat":43.33756,"lon":5.37458,"is_reserved":false,"is_disabled":false,"rental_uris":{"android":"levelo://app?vid=2e89ad6f-ff0f-4f55-a9b1-95acee219c1b","ios":"levelo://app?vid=2e89ad6f-ff0f-4f55-a9b1-95acee219c1b"},"vehicle_type_id":"4","last_reported":1784664708,"current_range_meters":25600,"station_id":"","pricing_plan_id":"cebpf4jnsgd1na2vs0mg"},{"bike_id":"143b0326-bcc2-41fe-ac94-ce3903ac509a","system_id":"levelo_inurba_marseille","lat":43.30832,"lon":5.40437,"is_reserved":false,"is_disabled":false,"rental_uris":{"android":"levelo://app?vid=143b0326-bcc2-41fe-ac94-ce3903ac509a","ios":"levelo://app?vid=143b0326-bcc2-41fe-ac94-ce3903ac509a"},"vehicle_type_id":"4","last_reported":1784664708,"current_range_meters":3600,"station_id":"","pricing_plan_id":"cebpf4jnsgd1na2vs0mg"},{"bike_id":"989bd331-d893-4007-bc86-f441ad9e54be","system_id":"levelo_inurba_marseille","lat":43.27829,"lon":5.39214,"is_reserved":false,"is_disabled":false,"rental_uris":{"android":"levelo://app?vid=989bd331-d893-4007-bc86-f441ad9e54be","ios":"levelo://app?vid=989bd331-d893-4007-bc86-f441ad9e54be"},"vehicle_type_id":"4","last_reported":1784664708,"current_range_meters":39200,"station_id":"ce4bhjp2rcd13ifvqga0","pricing_plan_id":"cebpf4jnsgd1na2vs0mg"},{"bike_id":"01d9a676-01f3-4b98-beb9-e0a1a490c722","system_id":"levelo_inurba_marseille","lat":43.28145,"lon":5.42628,"is_reserved":false,"is_disabled":false,"rental_uris":{"android":"levelo://app?vid=01d9a676-01f3-4b98-beb9-e0a1a490c722","ios":"levelo://app?vid=01d9a676-01f3-4b98-beb9-e0a1a490c722"},"vehicle_type_id":"4","last_reported":1784664708,"current_range_meters":30800,"station_id":"ce4bhnh2rcd13ifvqgug","pricing_plan_id":"cebpf4jnsgd1na2vs0mg"},{"bike_id":"f765bc46-853b-4f5f-a0cf-13f9a2c85881","system_id":"levelo_inurba_marseille","lat":43.32105,"lon":5.36776,"is_reserved":false,"is_disabled":false,"rental_uris":{"android":"levelo://app?vid=f765bc46-853b-4f5f-a0cf-13f9a2c85881","ios":"levelo://app?vid=f765bc46-853b-4f5f-a0cf-13f9a2c85881"},"vehicle_type_id":"4","last_reported":1784664708,"current_range_meters":36800,"station_id":"ce4bhrh2rcd13ifvqhug","pricing_plan_id":"cebpf4jnsgd1na2vs0mg"},{"bike_id":"d289bf61-8180-4650-8a0b-cd5d340f4013","system_id":"levelo_inurba_marseille","lat":43.2407,"lon":5.37759,"is_reserved":false,"is_disabled":false,"rental_uris":{"android":"levelo://app?vid=d289bf61-8180-4650-8a0b-cd5d340f4013","ios":"levelo://app?vid=d289bf61-8180-4650-8a0b-cd5d340f4013"},"vehicle_type_id":"4","last_reported":1784664708,"current_range_meters":39200,"station_id":"ce4bhnp2rcd13ifvqgvg","pricing_plan_id":"cebpf4jnsgd1na2vs0mg"},{"bike_id":"3ab46e4a-b9d6-458c-8f1a-3060296f87a3","system_id":"levelo_inurba_marseille","lat":43.25862,"lon":5.39913,"is_reserved":false,"is_disabled":false,"rental_uris":{"android":"levelo://app?vid=3ab46e4a-b9d6-458c-8f1a-3060296f87a3","ios":"levelo://app?vid=3ab46e4a-b9d6-458c-8f1a-3060296f87a3"},"vehicle_type_id":"4","last_reported":1784664708,"current_range_meters":28400,"station_id":"ce4bhl92rcd13ifvqghg","pricing_plan_id":"cebpf4jnsgd1na2vs0mg"},{"bike_id":"2da87612-2a58-4857-8c3b-0802824ed0bb","system_id":"levelo_inurba_marseille","lat":43.29973,"lon":5.38488,"is_reserved":false,"is_disabled":false,"rental_uris":{"android":"levelo://app?vid=2da87612-2a58-4857-8c3b-0802824ed0bb","ios":"levelo://app?vid=2da87612-2a58-4857-8c3b-0802824ed0bb"},"vehicle_type_id":"4","last_reported":1784664708,"current_range_meters":38800,"station_id":"ce4bgj92rcd13ifvqbd0","pricing_plan_id":"cebpf4jnsgd1na2vs0mg"},{"bike_id":"a13e16e4-e177-431d-8bef-33b38f696e96","system_id":"levelo_inurba_marseille","lat":43.26783,"lon":5.39978,"is_reserved":false,"is_disabled":false,"rental_uris":{"android":"levelo://app?vid=a13e16e4-e177-431d-8bef-33b38f696e96","ios":"levelo://app?vid=a13e16e4-e177-431d-8bef-33b38f696e96"},"vehicle_type_id":"4","last_reported":1784664708,"current_range_meters":27200,"station_id":"","pricing_plan_id":"cebpf4jnsgd1na2vs0mg"},{"bike_id":"8c47a2c8-e34c-4c1e-97c3-082abdd8d1aa","system_id":"levelo_inurba_marseille","lat":43.28708,"lon":5.3738,"is_reserved":false,"is_disabled":false,"rental_uris":{"android":"levelo://app?vid=8c47a2c8-e34c-4c1e-97c3-082abdd8d1aa","ios":"levelo://app?vid=8c47a2c8-e34c-4c1e-97c3-082abdd8d1aa"},"vehicle_type_id":"4","last_reported":1784664708,"current_range_meters":26800,"station_id":"ce4bh3p2rcd13ifvqdq0","pricing_plan_id":"cebpf4jnsgd1na2vs0mg"},{"bike_id":"cefdada5-be26-4dba-80f7-cf68209c7686","system_id":"levelo_inurba_marseille","lat":43.27697,"lon":5.39414,"is_reserved":false,"is_disabled":false,"rental_uris":{"android":"levelo://app?vid=cefdada5-be26-4dba-80f7-cf68209c7686","ios":"levelo://app?vid=cefdada5-be26-4dba-80f7-cf68209c7686"},"vehicle_type_id":"4","last_reported":1784664708,"current_range_meters":28000,"station_id":"","pricing_plan_id":"cebpf4jnsgd1na2vs0mg"},{"bike_id":"17c38dbf-3adc-4eca-983b-e61032510f86","system_id":"levelo_inurba_marseille","lat":43.28612,"lon":5.35111,"is_reserved":false,"is_disabled":false,"rental_uris":{"android":"levelo://app?vid=17c38dbf-3adc-4eca-983b-e61032510f86","ios":"levelo://app?vid=17c38dbf-3adc-4eca-983b-e61032510f86"},"vehicle_type_id":"4","last_reported":1784664708,"current_range_meters":16800,"station_id":"ce4bhch2rcd13ifvqeug","pricing_plan_id":"cebpf4jnsgd1na2vs0mg"},{"bike_id":"e04d7d9c-645a-4831-b661-caa34423f651","system_id":"levelo_inurba_marseille","lat":43.30931,"lon":5.40151,"is_reserved":false,"is_disabled":false,"rental_uris":{"android":"levelo://app?vid=e04d7d9c-645a-4831-b661-caa34423f651","ios":"levelo://app?vid=e04d7d9c-645a-4831-b661-caa34423f651"},"vehicle_type_id":"4","last_reported":1784664708,"current_range_meters":32000,"station_id":"ce4bgvp2rcd13ifvqct0","pricing_plan_id":"cebpf4jnsgd1na2vs0mg"},{"bike_id":"34d65810-2426-4ccf-8a04-5265b2f7a3a2","system_id":"levelo_inurba_marseille","lat":43.29281,"lon":5.38453,"is_reserved":false,"is_disabled":false,"rental_uris":{"android":"levelo://app?vid=34d65810-2426-4ccf-8a04-5265b2f7a3a2","ios":"levelo://app?vid=34d65810-2426-4ccf-8a04-5265b2f7a3a2"},"vehicle_type_id":"4","last_reported":1784664708,"current_range_meters":12400,"station_id":"ce4bh692rcd13ifvqea0","pricing_plan_id":"cebpf4jnsgd1na2vs0mg"},{"bike_id":"7a2f2696-9aaa-4f20-9990-7ed4d7c3d0b4","system_id":"levelo_inurba_marseille","lat":43.28272,"lon":5.35078,"is_reserved":false,"is_disabled":false,"rental_uris":{"android":"levelo://app?vid=7a2f2696-9aaa-4f20-9990-7ed4d7c3d0b4","ios":"levelo://app?vid=7a2f2696-9aaa-4f20-9990-7ed4d7c3d0b4"},"vehicle_type_id":"4","last_reported":1784664708,"current_range_meters":32400,"station_id":"ce4bhbp2rcd13ifvqerg","pricing_plan_id":"cebpf4jnsgd1na2vs0mg"},{"bike_id":"8b980fe2-831a-474f-9257-aac80a862f21","system_id":"levelo_inurba_marseille","lat":43.32298,"lon":5.36744,"is_reserved":false,"is_disabled":false,"rental_uris":{"android":"levelo://app?vid=8b980fe2-831a-474f-9257-aac80a862f21","ios":"levelo://app?vid=8b980fe2-831a-474f-9257-aac80a862f21"},"vehicle_type_id":"4","last_reported":1784664708,"current_range_meters":40000,"station_id":"","pricing_plan_id":"cebpf4jnsgd1na2vs0mg"},{"bike_id":"7c2d8676-220a-422c-a300-91383706095d","system_id":"levelo_inurba_marseille","lat":43.29675,"lon":5.37285,"is_reserved":false,"is_disabled":false,"rental_uris":{"android":"levelo://app?vid=7c2d8676-220a-422c-a300-91383706095d","ios":"levelo://app?vid=7c2d8676-220a-422c-a300-91383706095d"},"vehicle_type_id":"4","last_reported":1784664708,"current_range_meters":38000,"station_id":"ce4bgk12rcd13ifvqbj0","pricing_plan_id":"cebpf4jnsgd1na2vs0mg"},{"bike_id":"a527c961-0f5b-4fe5-86f6-76c46d66f5ef","system_id":"levelo_inurba_marseille","lat":43.29292,"lon":5.37457,"is_reserved":false,"is_disabled":false,"rental_uris":{"android":"levelo://app?vid=a527c961-0f5b-4fe5-86f6-76c46d66f5ef","ios":"levelo://app?vid=a527c961-0f5b-4fe5-86f6-76c46d66f5ef"},"vehicle_type_id":"4","last_reported":1784664708,"current_range_meters":25200,"station_id":"ce4bgi12rcd13ifvqb70","pricing_plan_id":"cebpf4jnsgd1na2vs0mg"},{"bike_id":"3cff31ea-c3fd-4a9e-aa7d-f699c19fe715","system_id":"levelo_inurba_marseille","lat":43.28519,"lon":5.44107,"is_reserved":false,"is_disabled":false,"rental_uris":{"android":"levelo://app?vid=3cff31ea-c3fd-4a9e-aa7d-f699c19fe715","ios":"levelo://app?vid=3cff31ea-c3fd-4a9e-aa7d-f699c19fe715"},"vehicle_type_id":"4","last_reported":1784664708,"current_range_meters":33200,"station_id":"st_d3j3df2ikq2c7380ej80","pricing_plan_id":"cebpf4jnsgd1na2vs0mg"},{"bike_id":"cf051e94-0c14-4035-9ea7-3057f94c3e01","system_id":"levelo_inurba_marseille","lat":43.29214,"lon":5.39678,"is_reserved":false,"is_disabled":false,"rental_uris":{"android":"levelo://app?vid=cf051e94-0c14-4035-9ea7-3057f94c3e01","ios":"levelo://app?vid=cf051e94-0c14-4035-9ea7-3057f94c3e01"},"vehicle_type_id":"4","last_reported":1784664708,"current_range_meters":24000,"station_id":"","pricing_plan_id":"cebpf4jnsgd1na2vs0mg"},{"bike_id":"71a22741-de18-41f1-bc95-f41f250e55aa","system_id":"levelo_inurba_marseille","lat":43.29074,"lon":5.37165,"is_reserved":false,"is_disabled":false,"rental_uris":{"android":"levelo://app?vid=71a22741-de18-41f1-bc95-f41f250e55aa","ios":"levelo://app?vid=71a22741-de18-41f1-bc95-f41f250e55aa"},"vehicle_type_id":"4","last_reported":1784664708,"current_range_meters":19600,"station_id":"ce4bh5p2rcd13ifvqe4g","pricing_plan_id":"cebpf4jnsgd1na2vs0mg"},{"bike_id":"6b210a0d-5e5c-4eb9-a32a-73d206044785","system_id":"levelo_inurba_marseille","lat":43.29536,"lon":5.3854,"is_reserved":false,"is_disabled":false,"rental_uris":{"android":"levelo://app?vid=6b210a0d-5e5c-4eb9-a32a-73d206044785","ios":"levelo://app?vid=6b210a0d-5e5c-4eb9-a32a-73d206044785"},"vehicle_type_id":"4","last_reported":1784664708,"current_range_meters":13600,"station_id":"ce4bgih2rcd13ifvqba0","pricing_plan_id":"cebpf4jnsgd1na2vs0mg"},{"bike_id":"238398fc-83d7-4dbe-918b-1e8e7bd4a603","system_id":"levelo_inurba_marseille","lat":43.31241,"lon":5.39016,"is_reserved":false,"is_disabled":false,"rental_uris":{"android":"levelo://app?vid=238398fc-83d7-4dbe-918b-1e8e7bd4a603","ios":"levelo://app?vid=238398fc-83d7-4dbe-918b-1e8e7bd4a603"},"vehicle_type_id":"4","last_reported":1784664708,"current_range_meters":25200,"station_id":"","pricing_plan_id":"cebpf4jnsgd1na2vs0mg"},{"bike_id":"78e7e967-a8d7-4345-8d31-93c9d317e74b","system_id":"levelo_inurba_marseille","lat":43.30431,"lon":5.40918,"is_reserved":false,"is_disabled":false,"rental_uris":{"android":"levelo://app?vid=78e7e967-a8d7-4345-8d31-93c9d317e74b","ios":"levelo://app?vid=78e7e967-a8d7-4345-8d31-93c9d317e74b"},"vehicle_type_id":"4","last_reported":1784664708,"current_range_meters":27600,"station_id":"","pricing_plan_id":"cebpf4jnsgd1na2vs0mg"},{"bike_id":"f1288106-a8c3-4624-ad2a-44299213b3e2","system_id":"levelo_inurba_marseille","lat":43.29581,"lon":5.36762,"is_reserved":false,"is_disabled":true,"rental_uris":{"android":"levelo://app?vid=f1288106-a8c3-4624-ad2a-44299213b3e2","ios":"levelo://app?vid=f1288106-a8c3-4624-ad2a-44299213b3e2"},"vehicle_type_id":"4","last_reported":1784664708,"current_range_meters":6800,"station_id":"","pricing_plan_id":"cebpf4jnsgd1na2vs0mg"},{"bike_id":"f6e54eb0-8e23-4a1b-8244-c642d9342452","system_id":"levelo_inurba_marseille","lat":43.29606,"lon":5.36658,"is_reserved":false,"is_disabled":false,"rental_uris":{"android":"levelo://app?vid=f6e54eb0-8e23-4a1b-8244-c642d9342452","ios":"levelo://app?vid=f6e54eb0-8e23-4a1b-8244-c642d9342452"},"vehicle_type_id":"4","last_reported":1784664708,"current_range_meters":28400,"station_id":"","pricing_plan_id":"cebpf4jnsgd1na2vs0mg"},{"bike_id":"e9c1a472-a930-4ec7-a301-e029c5ebc2be","system_id":"levelo_inurba_marseille","lat":43.30109,"lon":5.43111,"is_reserved":false,"is_disabled":false,"rental_uris":{"android":"levelo://app?vid=e9c1a472-a930-4ec7-a301-e029c5ebc2be","ios":"levelo://app?vid=e9c1a472-a930-4ec7-a301-e029c5ebc2be"},"vehicle_type_id":"4","last_reported":1784664708,"current_range_meters":26000,"station_id":"st_d3js3co5814s73ftftug","pricing_plan_id":"cebpf4jnsgd1na2vs0mg"},{"bike_id":"eef7eed1-d81d-4708-b8ba-fc99a052c997","system_id":"levelo_inurba_marseille","lat":43.27994,"lon":5.38696,"is_reserved":false,"is_disabled":false,"rental_uris":{"android":"levelo://app?vid=eef7eed1-d81d-4708-b8ba-fc99a052c997","ios":"levelo://app?vid=eef7eed1-d81d-4708-b8ba-fc99a052c997"},"vehicle_type_id":"4","last_reported":1784664708,"current_range_meters":22800,"station_id":"ce4bhg12rcd13ifvqf80","pricing_plan_id":"cebpf4jnsgd1na2vs0mg"},{"bike_id":"712d879a-390b-41d6-ba09-d18546f9cd5f","system_id":"levelo_inurba_marseille","lat":43.2666,"lon":5.3819,"is_reserved":false,"is_disabled":true,"rental_uris":{"android":"levelo://app?vid=712d879a-390b-41d6-ba09-d18546f9cd5f","ios":"levelo://app?vid=712d879a-390b-41d6-ba09-d18546f9cd5f"},"vehicle_type_id":"4","last_reported":1784664708,"current_range_meters":0,"station_id":"","pricing_plan_id":"cebpf4jnsgd1na2vs0mg"},{"bike_id":"c520161e-c250-4161-a55a-6b287776d8da","system_id":"levelo_inurba_marseille","lat":43.28462,"lon":5.48384,"is_reserved":false,"is_disabled":false,"rental_uris":{"android":"levelo://app?vid=c520161e-c250-4161-a55a-6b287776d8da","ios":"levelo://app?vid=c520161e-c250-4161-a55a-6b287776d8da"},"vehicle_type_id":"4","last_reported":1784664708,"current_range_meters":25600,"station_id":"st_d3svhcjqgbts73a3dn0g","pricing_plan_id":"cebpf4jnsgd1na2vs0mg"},{"bike_id":"5326a61d-4052-4baf-bbd3-97dda62fe6d7","system_id":"levelo_inurba_marseille","lat":43.28516,"lon":5.441,"is_reserved":false,"is_disabled":false,"rental_uris":{"android":"levelo://app?vid=5326a61d-4052-4baf-bbd3-97dda62fe6d7","ios":"levelo://app?vid=5326a61d-4052-4baf-bbd3-97dda62fe6d7"},"vehicle_type_id":"4","last_reported":1784664708,"current_range_meters":27200,"station_id":"st_d3j3df2ikq2c7380ej80","pricing_plan_id":"cebpf4jnsgd1na2vs0mg"},{"bike_id":"47c7a6cd-c29e-4545-a19e-e991270641f0","system_id":"levelo_inurba_marseille","lat":43.31482,"lon":5.37314,"is_reserved":false,"is_disabled":false,"rental_uris":{"android":"levelo://app?vid=47c7a6cd-c29e-4545-a19e-e991270641f0","ios":"levelo://app?vid=47c7a6cd-c29e-4545-a19e-e991270641f0"},"vehicle_type_id":"4","last_reported":1784664708,"current_range_meters":39200,"station_id":"ce4bgt12rcd13ifvqcd0","pricing_plan_id":"cebpf4jnsgd1na2vs0mg"},{"bike_id":"0a2c2a8e-f477-40f4-b43e-7f6280e73440","system_id":"levelo_inurba_marseille","lat":43.27955,"lon":5.41045,"is_reserved":false,"is_disabled":false,"rental_uris":{"android":"levelo://app?vid=0a2c2a8e-f477-40f4-b43e-7f6280e73440","ios":"levelo://app?vid=0a2c2a8e-f477-40f4-b43e-7f6280e73440"},"vehicle_type_id":"4","last_reported":1784664708,"current_range_meters":37600,"station_id":"ce4bhnp2rcd13ifvqh0g","pricing_plan_id":"cebpf4jnsgd1na2vs0mg"},{"bike_id":"b8ec9070-ca87-4a59-852a-bb4d8f83f8cd","system_id":"levelo_inurba_marseille","lat":43.28338,"lon":5.381,"is_reserved":false,"is_disabled":false,"rental_uris":{"android":"levelo://app?vid=b8ec9070-ca87-4a59-852a-bb4d8f83f8cd","ios":"levelo://app?vid=b8ec9070-ca87-4a59-852a-bb4d8f83f8cd"},"vehicle_type_id":"4","last_reported":1784664708,"current_range_meters":24400,"station_id":"ce4bh412rcd13ifvqdr0","pricing_plan_id":"cebpf4jnsgd1na2vs0mg"},{"bike_id":"321ac28c-e17f-4c42-bfb5-5976e70a6427","system_id":"levelo_inurba_marseille","lat":43.2815,"lon":5.42658,"is_reserved":false,"is_disabled":false,"rental_uris":{"android":"levelo://app?vid=321ac28c-e17f-4c42-bfb5-5976e70a6427","ios":"levelo://app?vid=321ac28c-e17f-4c42-bfb5-5976e70a6427"},"vehicle_type_id":"4","last_reported":1784664708,"current_range_meters":39200,"station_id":"ce4bhnh2rcd13ifvqgug","pricing_plan_id":"cebpf4jnsgd1na2vs0mg"},{"bike_id":"e4c27701-4591-494b-a6f0-8a3b4286f61f","system_id":"levelo_inurba_marseille","lat":43.30427,"lon":5.3889,"is_reserved":false,"is_disabled":false,"rental_uris":{"android":"levelo://app?vid=e4c27701-4591-494b-a6f0-8a3b4286f61f","ios":"levelo://app?vid=e4c27701-4591-494b-a6f0-8a3b4286f61f"},"vehicle_type_id":"4","last_reported":1784664708,"current_range_meters":36000,"station_id":"ce4bgk12rcd13ifvqbi0","pricing_plan_id":"cebpf4jnsgd1na2vs0mg"},{"bike_id":"3a34f52e-1e5b-45cf-b1c8-7a76d3f0220c","system_id":"levelo_inurba_marseille","lat":43.29227,"lon":5.41743,"is_reserved":false,"is_disabled":false,"rental_uris":{"android":"levelo://app?vid=3a34f52e-1e5b-45cf-b1c8-7a76d3f0220c","ios":"levelo://app?vid=3a34f52e-1e5b-45cf-b1c8-7a76d3f0220c"},"vehicle_type_id":"4","last_reported":1784664708,"current_range_meters":32800,"station_id":"","pricing_plan_id":"cebpf4jnsgd1na2vs0mg"},{"bike_id":"deab0385-0efa-4bfa-9d6c-fc9e57b19cd0","system_id":"levelo_inurba_marseille","lat":43.30042,"lon":5.37032,"is_reserved":false,"is_disabled":false,"rental_uris":{"android":"levelo://app?vid=deab0385-0efa-4bfa-9d6c-fc9e57b19cd0","ios":"levelo://app?vid=deab0385-0efa-4bfa-9d6c-fc9e57b19cd0"},"vehicle_type_id":"4","last_reported":1784664708,"current_range_meters":2800,"station_id":"","pricing_plan_id":"cebpf4jnsgd1na2vs0mg"},{"bike_id":"b8e43a89-3bb1-4279-9cee-f7b093c9b703","system_id":"levelo_inurba_marseille","lat":43.33718,"lon":5.37415,"is_reserved":false,"is_disabled":false,"rental_uris":{"android":"levelo://app?vid=b8e43a89-3bb1-4279-9cee-f7b093c9b703","ios":"levelo://app?vid=b8e43a89-3bb1-4279-9cee-f7b093c9b703"},"vehicle_type_id":"4","last_reported":1784664708,"current_range_meters":18000,"station_id":"","pricing_plan_id":"cebpf4jnsgd1na2vs0mg"},{"bike_id":"98541429-041e-4b0b-bf14-41f7f973bd74","system_id":"levelo_inurba_marseille","lat":43.281277,"lon":5.378178,"is_reserved":false,"is_disabled":false,"rental_uris":{"android":"levelo://app?vid=98541429-041e-4b0b-bf14-41f7f973bd74","ios":"levelo://app?vid=98541429-041e-4b0b-bf14-41f7f973bd74"},"vehicle_type_id":"4","last_reported":1784664708,"current_range_meters":29600,"station_id":"ce4bha12rcd13ifvqee0","pricing_plan_id":"cebpf4jnsgd1na2vs0mg"},{"bike_id":"17ec69e9-f82e-42b7-8fd3-de92d2bea59d","system_id":"levelo_inurba_marseille","lat":43.25351,"lon":5.4217,"is_reserved":false,"is_disabled":false,"rental_uris":{"android":"levelo://app?vid=17ec69e9-f82e-42b7-8fd3-de92d2bea59d","ios":"levelo://app?vid=17ec69e9-f82e-42b7-8fd3-de92d2bea59d"},"vehicle_type_id":"4","last_reported":1784664708,"current_range_meters":25200,"station_id":"st_d2m65c5bi1j21697t3ng","pricing_plan_id":"cebpf4jnsgd1na2vs0mg"},{"bike_id":"1767f546-f0f8-4e5d-b806-2bb5b8a1e811","system_id":"levelo_inurba_marseille","lat":43.30295,"lon":5.36887,"is_reserved":false,"is_disabled":false,"rental_uris":{"android":"levelo://app?vid=1767f546-f0f8-4e5d-b806-2bb5b8a1e811","ios":"levelo://app?vid=1767f546-f0f8-4e5d-b806-2bb5b8a1e811"},"vehicle_type_id":"4","last_reported":1784664708,"current_range_meters":31200,"station_id":"ce4bgqh2rcd13ifvqc5g","pricing_plan_id":"cebpf4jnsgd1na2vs0mg"},{"bike_id":"b379928e-c112-4c06-be53-97811853ba23","system_id":"levelo_inurba_marseille","lat":43.26492,"lon":5.39587,"is_reserved":false,"is_disabled":false,"rental_uris":{"android":"levelo://app?vid=b379928e-c112-4c06-be53-97811853ba23","ios":"levelo://app?vid=b379928e-c112-4c06-be53-97811853ba23"},"vehicle_type_id":"4","last_reported":1784664708,"current_range_meters":38400,"station_id":"ce4bhi12rcd13ifvqfq0","pricing_plan_id":"cebpf4jnsgd1na2vs0mg"},{"bike_id":"7208e764-a6a8-4b11-8bba-44cadaf876f5","system_id":"levelo_inurba_marseille","lat":43.27374,"lon":5.3625,"is_reserved":false,"is_disabled":false,"rental_uris":{"android":"levelo://app?vid=7208e764-a6a8-4b11-8bba-44cadaf876f5","ios":"levelo://app?vid=7208e764-a6a8-4b11-8bba-44cadaf876f5"},"vehicle_type_id":"4","last_reported":1784664708,"current_range_meters":17200,"station_id":"ce4bhbh2rcd13ifvqeo0","pricing_plan_id":"cebpf4jnsgd1na2vs0mg"},{"bike_id":"3c861df6-627a-4ace-9f1f-64311652ac14","system_id":"levelo_inurba_marseille","lat":43.22927,"lon":5.35378,"is_reserved":false,"is_disabled":false,"rental_uris":{"android":"levelo://app?vid=3c861df6-627a-4ace-9f1f-64311652ac14","ios":"levelo://app?vid=3c861df6-627a-4ace-9f1f-64311652ac14"},"vehicle_type_id":"4","last_reported":1784664708,"current_range_meters":34800,"station_id":"cpo3532slgdg3j2ikp40","pricing_plan_id":"cebpf4jnsgd1na2vs0mg"},{"bike_id":"13bbfe3b-874b-44d7-9abb-922c8de23c11","system_id":"levelo_inurba_marseille","lat":43.23255,"lon":5.35376,"is_reserved":false,"is_disabled":false,"rental_uris":{"android":"levelo://app?vid=13bbfe3b-874b-44d7-9abb-922c8de23c11","ios":"levelo://app?vid=13bbfe3b-874b-44d7-9abb-922c8de23c11"},"vehicle_type_id":"4","last_reported":1784664708,"current_range_meters":24800,"station_id":"","pricing_plan_id":"cebpf4jnsgd1na2vs0mg"},{"bike_id":"b771a38c-fff7-4674-8b55-41969f60984d","system_id":"levelo_inurba_marseille","lat":43.28984,"lon":5.35594,"is_reserved":false,"is_disabled":false,"rental_uris":{"android":"levelo://app?vid=b771a38c-fff7-4674-8b55-41969f60984d","ios":"levelo://app?vid=b771a38c-fff7-4674-8b55-41969f60984d"},"vehicle_type_id":"4","last_reported":1784664708,"current_range_meters":9600,"station_id":"ce4bhb92rcd13ifvqen0","pricing_plan_id":"cebpf4jnsgd1na2vs0mg"},{"bike_id":"c51f5771-ac67-4ce5-9396-4c3db63ab339","system_id":"levelo_inurba_marseille","lat":43.28474,"lon":5.48411,"is_reserved":false,"is_disabled":false,"rental_uris":{"android":"levelo://app?vid=c51f5771-ac67-4ce5-9396-4c3db63ab339","ios":"levelo://app?vid=c51f5771-ac67-4ce5-9396-4c3db63ab339"},"vehicle_type_id":"4","last_reported":1784664708,"current_range_meters":28400,"station_id":"st_d3svhcjqgbts73a3dn0g","pricing_plan_id":"cebpf4jnsgd1na2vs0mg"},{"bike_id":"fce27f18-8500-4a5d-a4a6-107a599c9591","system_id":"levelo_inurba_marseille","lat":43.23189,"lon":5.35536,"is_reserved":false,"is_disabled":false,"rental_uris":{"android":"levelo://app?vid=fce27f18-8500-4a5d-a4a6-107a599c9591","ios":"levelo://app?vid=fce27f18-8500-4a5d-a4a6-107a599c9591"},"vehicle_type_id":"4","last_reported":1784664708,"current_range_meters":31200,"station_id":"ce4bhu92rcd13ifvqi70","pricing_plan_id":"cebpf4jnsgd1na2vs0mg"},{"bike_id":"6750b760-cb14-4cf7-89c9-e29552150300","system_id":"levelo_inurba_marseille","lat":43.29514,"lon":5.39398,"is_reserved":false,"is_disabled":false,"rental_uris":{"android":"levelo://app?vid=6750b760-cb14-4cf7-89c9-e29552150300","ios":"levelo://app?vid=6750b760-cb14-4cf7-89c9-e29552150300"},"vehicle_type_id":"4","last_reported":1784664708,"current_range_meters":30400,"station_id":"ce4bh292rcd13ifvqdf0","pricing_plan_id":"cebpf4jnsgd1na2vs0mg"},{"bike_id":"7053a07d-0bdb-4fb1-abab-5e475fd2aeee","system_id":"levelo_inurba_marseille","lat":43.29535,"lon":5.38539,"is_reserved":false,"is_disabled":false,"rental_uris":{"android":"levelo://app?vid=7053a07d-0bdb-4fb1-abab-5e475fd2aeee","ios":"levelo://app?vid=7053a07d-0bdb-4fb1-abab-5e475fd2aeee"},"vehicle_type_id":"4","last_reported":1784664708,"current_range_meters":28800,"station_id":"ce4bgih2rcd13ifvqba0","pricing_plan_id":"cebpf4jnsgd1na2vs0mg"},{"bike_id":"0dee0085-d5a5-4c48-b3f1-a323bb744f3d","system_id":"levelo_inurba_marseille","lat":43.22559,"lon":5.41631,"is_reserved":false,"is_disabled":false,"rental_uris":{"android":"levelo://app?vid=0dee0085-d5a5-4c48-b3f1-a323bb744f3d","ios":"levelo://app?vid=0dee0085-d5a5-4c48-b3f1-a323bb744f3d"},"vehicle_type_id":"4","last_reported":1784664708,"current_range_meters":34800,"station_id":"st_d2o4gvlbi1j2169b742g","pricing_plan_id":"cebpf4jnsgd1na2vs0mg"},{"bike_id":"c4e6175c-95f9-45d9-b037-168f3e10aca9","system_id":"levelo_inurba_marseille","lat":43.29639,"lon":5.37154,"is_reserved":false,"is_disabled":false,"rental_uris":{"android":"levelo://app?vid=c4e6175c-95f9-45d9-b037-168f3e10aca9","ios":"levelo://app?vid=c4e6175c-95f9-45d9-b037-168f3e10aca9"},"vehicle_type_id":"4","last_reported":1784664708,"current_range_meters":36400,"station_id":"","pricing_plan_id":"cebpf4jnsgd1na2vs0mg"},{"bike_id":"0b2c45f2-fdaa-45fe-9511-e6426cab85f6","system_id":"levelo_inurba_marseille","lat":43.2748,"lon":5.42462,"is_reserved":false,"is_disabled":false,"rental_uris":{"android":"levelo://app?vid=0b2c45f2-fdaa-45fe-9511-e6426cab85f6","ios":"levelo://app?vid=0b2c45f2-fdaa-45fe-9511-e6426cab85f6"},"vehicle_type_id":"4","last_reported":1784664708,"current_range_meters":22000,"station_id":"ce4bhn92rcd13ifvqgrg","pricing_plan_id":"cebpf4jnsgd1na2vs0mg"},{"bike_id":"39fc6513-d28f-4bd5-b8a1-43d676e1ec83","system_id":"levelo_inurba_marseille","lat":43.30528,"lon":5.36529,"is_reserved":false,"is_disabled":false,"rental_uris":{"android":"levelo://app?vid=39fc6513-d28f-4bd5-b8a1-43d676e1ec83","ios":"levelo://app?vid=39fc6513-d28f-4bd5-b8a1-43d676e1ec83"},"vehicle_type_id":"4","last_reported":1784664708,"current_range_meters":25600,"station_id":"ce4bgs12rcd13ifvqcag","pricing_plan_id":"cebpf4jnsgd1na2vs0mg"},{"bike_id":"dad5eff3-cb3a-4459-ba39-741abe4a6c6c","system_id":"levelo_inurba_marseille","lat":43.32103,"lon":5.36772,"is_reserved":false,"is_disabled":false,"rental_uris":{"android":"levelo://app?vid=dad5eff3-cb3a-4459-ba39-741abe4a6c6c","ios":"levelo://app?vid=dad5eff3-cb3a-4459-ba39-741abe4a6c6c"},"vehicle_type_id":"4","last_reported":1784664708,"current_range_meters":11200,"station_id":"ce4bhrh2rcd13ifvqhug","pricing_plan_id":"cebpf4jnsgd1na2vs0mg"},{"bike_id":"3a7b0212-4682-4346-b3a1-1d3ace7b2f27","system_id":"levelo_inurba_marseille","lat":43.25501,"lon":5.37653,"is_reserved":false,"is_disabled":false,"rental_uris":{"android":"levelo://app?vid=3a7b0212-4682-4346-b3a1-1d3ace7b2f27","ios":"levelo://app?vid=3a7b0212-4682-4346-b3a1-1d3ace7b2f27"},"vehicle_type_id":"4","last_reported":1784664708,"current_range_meters":39200,"station_id":"ce4bhh12rcd13ifvqff0","pricing_plan_id":"cebpf4jnsgd1na2vs0mg"},{"bike_id":"58b675b2-13c4-4728-9e00-2a561279976a","system_id":"levelo_inurba_marseille","lat":43.306334,"lon":5.367357,"is_reserved":false,"is_disabled":false,"rental_uris":{"android":"levelo://app?vid=58b675b2-13c4-4728-9e00-2a561279976a","ios":"levelo://app?vid=58b675b2-13c4-4728-9e00-2a561279976a"},"vehicle_type_id":"4","last_reported":1784664708,"current_range_meters":12400,"station_id":"ce4bgt12rcd13ifvqcd0","pricing_plan_id":"cebpf4jnsgd1na2vs0mg"},{"bike_id":"e2a7024c-7996-4d5b-8595-fc0df99c43db","system_id":"levelo_inurba_marseille","lat":43.27065,"lon":5.42278,"is_reserved":false,"is_disabled":false,"rental_uris":{"android":"levelo://app?vid=e2a7024c-7996-4d5b-8595-fc0df99c43db","ios":"levelo://app?vid=e2a7024c-7996-4d5b-8595-fc0df99c43db"},"vehicle_type_id":"4","last_reported":1784664708,"current_range_meters":34000,"station_id":"ce4bhk92rcd13ifvqgb0","pricing_plan_id":"cebpf4jnsgd1na2vs0mg"},{"bike_id":"8d8673aa-a69c-4d74-931d-06b8f35221f4","system_id":"levelo_inurba_marseille","lat":43.26699,"lon":5.41992,"is_reserved":false,"is_disabled":false,"rental_uris":{"android":"levelo://app?vid=8d8673aa-a69c-4d74-931d-06b8f35221f4","ios":"levelo://app?vid=8d8673aa-a69c-4d74-931d-06b8f35221f4"},"vehicle_type_id":"4","last_reported":1784664708,"current_range_meters":28400,"station_id":"","pricing_plan_id":"cebpf4jnsgd1na2vs0mg"},{"bike_id":"90bb240d-da16-4ed6-bdda-b2701295efc0","system_id":"levelo_inurba_marseille","lat":43.28449,"lon":5.35873,"is_reserved":false,"is_disabled":false,"rental_uris":{"android":"levelo://app?vid=90bb240d-da16-4ed6-bdda-b2701295efc0","ios":"levelo://app?vid=90bb240d-da16-4ed6-bdda-b2701295efc0"},"vehicle_type_id":"4","last_reported":1784664708,"current_range_meters":9600,"station_id":"ce4bhah2rcd13ifvqei0","pricing_plan_id":"cebpf4jnsgd1na2vs0mg"},{"bike_id":"bb6c1d94-b8a1-4d7e-8e26-2628675f7e1d","system_id":"levelo_inurba_marseille","lat":43.29598,"lon":5.37716,"is_reserved":false,"is_disabled":true,"rental_uris":{"android":"levelo://app?vid=bb6c1d94-b8a1-4d7e-8e26-2628675f7e1d","ios":"levelo://app?vid=bb6c1d94-b8a1-4d7e-8e26-2628675f7e1d"},"vehicle_type_id":"4","last_reported":1784664708,"current_range_meters":25600,"station_id":"ce4bgi92rcd13ifvqb90","pricing_plan_id":"cebpf4jnsgd1na2vs0mg"},{"bike_id":"1f5d690e-ec61-49f6-987c-1b19bb5fd774","system_id":"levelo_inurba_marseille","lat":43.32379,"lon":5.38864,"is_reserved":false,"is_disabled":false,"rental_uris":{"android":"levelo://app?vid=1f5d690e-ec61-49f6-987c-1b19bb5fd774","ios":"levelo://app?vid=1f5d690e-ec61-49f6-987c-1b19bb5fd774"},"vehicle_type_id":"4","last_reported":1784664708,"current_range_meters":34000,"station_id":"ce4bhqp2rcd13ifvqhog","pricing_plan_id":"cebpf4jnsgd1na2vs0mg"},{"bike_id":"1fade11d-8e73-4748-8586-d9741ca55ced","system_id":"levelo_inurba_marseille","lat":43.317152,"lon":5.437034,"is_reserved":false,"is_disabled":false,"rental_uris":{"android":"levelo://app?vid=1fade11d-8e73-4748-8586-d9741ca55ced","ios":"levelo://app?vid=1fade11d-8e73-4748-8586-d9741ca55ced"},"vehicle_type_id":"4","last_reported":1784664708,"current_range_meters":34800,"station_id":"ce4bhp92rcd13ifvqhcg","pricing_plan_id":"cebpf4jnsgd1na2vs0mg"},{"bike_id":"b9c2d95c-938b-4e9b-a0e1-e88520f0d8bb","system_id":"levelo_inurba_marseille","lat":43.29844,"lon":5.36274,"is_reserved":false,"is_disabled":false,"rental_uris":{"android":"levelo://app?vid=b9c2d95c-938b-4e9b-a0e1-e88520f0d8bb","ios":"levelo://app?vid=b9c2d95c-938b-4e9b-a0e1-e88520f0d8bb"},"vehicle_type_id":"4","last_reported":1784664708,"current_range_meters":25200,"station_id":"ce4bgpp2rcd13ifvqc3g","pricing_plan_id":"cebpf4jnsgd1na2vs0mg"},{"bike_id":"86eb6eff-89f2-451a-8236-1b576243dc9a","system_id":"levelo_inurba_marseille","lat":43.27816,"lon":5.40738,"is_reserved":false,"is_disabled":false,"rental_uris":{"android":"levelo://app?vid=86eb6eff-89f2-451a-8236-1b576243dc9a","ios":"levelo://app?vid=86eb6eff-89f2-451a-8236-1b576243dc9a"},"vehicle_type_id":"4","last_reported":1784664708,"current_range_meters":12000,"station_id":"ce4bhnh2rcd13ifvqgtg","pricing_plan_id":"cebpf4jnsgd1na2vs0mg"},{"bike_id":"48158941-554f-4c77-915b-2d2ece72c37c","system_id":"levelo_inurba_marseille","lat":43.262936,"lon":5.404569,"is_reserved":false,"is_disabled":false,"rental_uris":{"android":"levelo://app?vid=48158941-554f-4c77-915b-2d2ece72c37c","ios":"levelo://app?vid=48158941-554f-4c77-915b-2d2ece72c37c"},"vehicle_type_id":"4","last_reported":1784664708,"current_range_meters":3200,"station_id":"","pricing_plan_id":"cebpf4jnsgd1na2vs0mg"},{"bike_id":"389efaa8-11be-4597-b543-555d27f13127","system_id":"levelo_inurba_marseille","lat":43.25568,"lon":5.38231,"is_reserved":false,"is_disabled":false,"rental_uris":{"android":"levelo://app?vid=389efaa8-11be-4597-b543-555d27f13127","ios":"levelo://app?vid=389efaa8-11be-4597-b543-555d27f13127"},"vehicle_type_id":"4","last_reported":1784664708,"current_range_meters":32800,"station_id":"ce4bhih2rcd13ifvqfs0","pricing_plan_id":"cebpf4jnsgd1na2vs0mg"},{"bike_id":"b6d9c79a-9119-41da-ab83-084f518bc6f6","system_id":"levelo_inurba_marseille","lat":43.29189,"lon":5.3932,"is_reserved":false,"is_disabled":false,"rental_uris":{"android":"levelo://app?vid=b6d9c79a-9119-41da-ab83-084f518bc6f6","ios":"levelo://app?vid=b6d9c79a-9119-41da-ab83-084f518bc6f6"},"vehicle_type_id":"4","last_reported":1784664708,"current_range_meters":25200,"station_id":"ce4bh192rcd13ifvqdd0","pricing_plan_id":"cebpf4jnsgd1na2vs0mg"},{"bike_id":"36f797d9-5b95-4843-b50e-7f80ed979ebf","system_id":"levelo_inurba_marseille","lat":43.25561,"lon":5.38242,"is_reserved":false,"is_disabled":false,"rental_uris":{"android":"levelo://app?vid=36f797d9-5b95-4843-b50e-7f80ed979ebf","ios":"levelo://app?vid=36f797d9-5b95-4843-b50e-7f80ed979ebf"},"vehicle_type_id":"4","last_reported":1784664708,"current_range_meters":28400,"station_id":"ce4bhih2rcd13ifvqfs0","pricing_plan_id":"cebpf4jnsgd1na2vs0mg"},{"bike_id":"a31cea0c-4cff-4f6d-8f93-36842670158b","system_id":"levelo_inurba_marseille","lat":43.29694,"lon":5.36619,"is_reserved":false,"is_disabled":true,"rental_uris":{"android":"levelo://app?vid=a31cea0c-4cff-4f6d-8f93-36842670158b","ios":"levelo://app?vid=a31cea0c-4cff-4f6d-8f93-36842670158b"},"vehicle_type_id":"4","last_reported":1784664708,"current_range_meters":10000,"station_id":"","pricing_plan_id":"cebpf4jnsgd1na2vs0mg"},{"bike_id":"c76b750a-82d1-4f24-8dd7-f7bb86a48cf3","system_id":"levelo_inurba_marseille","lat":43.2737,"lon":5.36256,"is_reserved":false,"is_disabled":false,"rental_uris":{"android":"levelo://app?vid=c76b750a-82d1-4f24-8dd7-f7bb86a48cf3","ios":"levelo://app?vid=c76b750a-82d1-4f24-8dd7-f7bb86a48cf3"},"vehicle_type_id":"4","last_reported":1784664708,"current_range_meters":30800,"station_id":"ce4bhbh2rcd13ifvqeo0","pricing_plan_id":"cebpf4jnsgd1na2vs0mg"},{"bike_id":"576bdb4e-2f54-44ba-b62f-17d1d54bd2c6","system_id":"levelo_inurba_marseille","lat":43.21187,"lon":5.3508,"is_reserved":false,"is_disabled":false,"rental_uris":{"android":"levelo://app?vid=576bdb4e-2f54-44ba-b62f-17d1d54bd2c6","ios":"levelo://app?vid=576bdb4e-2f54-44ba-b62f-17d1d54bd2c6"},"vehicle_type_id":"4","last_reported":1784664708,"current_range_meters":17600,"station_id":"st_cvj6sg6p6f1abm77japg","pricing_plan_id":"cebpf4jnsgd1na2vs0mg"},{"bike_id":"6d609200-2c64-463b-bd0e-70a61a4731c2","system_id":"levelo_inurba_marseille","lat":43.24064,"lon":5.37772,"is_reserved":false,"is_disabled":false,"rental_uris":{"android":"levelo://app?vid=6d609200-2c64-463b-bd0e-70a61a4731c2","ios":"levelo://app?vid=6d609200-2c64-463b-bd0e-70a61a4731c2"},"vehicle_type_id":"4","last_reported":1784664708,"current_range_meters":38400,"station_id":"ce4bhnp2rcd13ifvqgvg","pricing_plan_id":"cebpf4jnsgd1na2vs0mg"},{"bike_id":"089e00de-62b4-4961-9621-790ed5610bc2","system_id":"levelo_inurba_marseille","lat":43.27808,"lon":5.40714,"is_reserved":false,"is_disabled":false,"rental_uris":{"android":"levelo://app?vid=089e00de-62b4-4961-9621-790ed5610bc2","ios":"levelo://app?vid=089e00de-62b4-4961-9621-790ed5610bc2"},"vehicle_type_id":"4","last_reported":1784664708,"current_range_meters":32800,"station_id":"ce4bhnh2rcd13ifvqgtg","pricing_plan_id":"cebpf4jnsgd1na2vs0mg"},{"bike_id":"747d888c-b833-4d91-8098-768070d4079e","system_id":"levelo_inurba_marseille","lat":43.30555,"lon":5.38204,"is_reserved":false,"is_disabled":false,"rental_uris":{"android":"levelo://app?vid=747d888c-b833-4d91-8098-768070d4079e","ios":"levelo://app?vid=747d888c-b833-4d91-8098-768070d4079e"},"vehicle_type_id":"4","last_reported":1784664708,"current_range_meters":38400,"station_id":"","pricing_plan_id":"cebpf4jnsgd1na2vs0mg"},{"bike_id":"425cee52-7ff4-408d-b63f-f1bb20a33257","system_id":"levelo_inurba_marseille","lat":43.27481,"lon":5.42555,"is_reserved":false,"is_disabled":false,"rental_uris":{"android":"levelo://app?vid=425cee52-7ff4-408d-b63f-f1bb20a33257","ios":"levelo://app?vid=425cee52-7ff4-408d-b63f-f1bb20a33257"},"vehicle_type_id":"4","last_reported":1784664708,"current_range_meters":39200,"station_id":"st_d8t4bh7nbrqs73arha60","pricing_plan_id":"cebpf4jnsgd1na2vs0mg"},{"bike_id":"acb6c310-64e8-4ffb-9d0e-3645b38213aa","system_id":"levelo_inurba_marseille","lat":43.22558,"lon":5.41628,"is_reserved":false,"is_disabled":false,"rental_uris":{"android":"levelo://app?vid=acb6c310-64e8-4ffb-9d0e-3645b38213aa","ios":"levelo://app?vid=acb6c310-64e8-4ffb-9d0e-3645b38213aa"},"vehicle_type_id":"4","last_reported":1784664708,"current_range_meters":11600,"station_id":"st_d2o4gvlbi1j2169b742g","pricing_plan_id":"cebpf4jnsgd1na2vs0mg"},{"bike_id":"73db504f-68cc-4816-908b-084ee5c25663","system_id":"levelo_inurba_marseille","lat":43.31354,"lon":5.38498,"is_reserved":false,"is_disabled":false,"rental_uris":{"android":"levelo://app?vid=73db504f-68cc-4816-908b-084ee5c25663","ios":"levelo://app?vid=73db504f-68cc-4816-908b-084ee5c25663"},"vehicle_type_id":"4","last_reported":1784664708,"current_range_meters":8000,"station_id":"ce4bgt92rcd13ifvqcf0","pricing_plan_id":"cebpf4jnsgd1na2vs0mg"},{"bike_id":"1206006c-d72f-4336-8b8d-3b69984f5769","system_id":"levelo_inurba_marseille","lat":43.27365,"lon":5.36241,"is_reserved":false,"is_disabled":false,"rental_uris":{"android":"levelo://app?vid=1206006c-d72f-4336-8b8d-3b69984f5769","ios":"levelo://app?vid=1206006c-d72f-4336-8b8d-3b69984f5769"},"vehicle_type_id":"4","last_reported":1784664708,"current_range_meters":36800,"station_id":"ce4bhbh2rcd13ifvqeo0","pricing_plan_id":"cebpf4jnsgd1na2vs0mg"},{"bike_id":"2b2d5806-a98a-4b6d-8666-219c96826a65","system_id":"levelo_inurba_marseille","lat":43.32999,"lon":5.39031,"is_reserved":false,"is_disabled":false,"rental_uris":{"android":"levelo://app?vid=2b2d5806-a98a-4b6d-8666-219c96826a65","ios":"levelo://app?vid=2b2d5806-a98a-4b6d-8666-219c96826a65"},"vehicle_type_id":"4","last_reported":1784664708,"current_range_meters":11200,"station_id":"ce4bhr92rcd13ifvqhrg","pricing_plan_id":"cebpf4jnsgd1na2vs0mg"},{"bike_id":"e82142ae-8b40-418d-b51b-146f77db62f7","system_id":"levelo_inurba_marseille","lat":43.29532,"lon":5.38564,"is_reserved":false,"is_disabled":false,"rental_uris":{"android":"levelo://app?vid=e82142ae-8b40-418d-b51b-146f77db62f7","ios":"levelo://app?vid=e82142ae-8b40-418d-b51b-146f77db62f7"},"vehicle_type_id":"4","last_reported":1784664708,"current_range_meters":14000,"station_id":"ce4bgih2rcd13ifvqba0","pricing_plan_id":"cebpf4jnsgd1na2vs0mg"},{"bike_id":"707afcb2-f3a2-462f-b3e0-2d261068ffe9","system_id":"levelo_inurba_marseille","lat":43.27609,"lon":5.3611,"is_reserved":false,"is_disabled":false,"rental_uris":{"android":"levelo://app?vid=707afcb2-f3a2-462f-b3e0-2d261068ffe9","ios":"levelo://app?vid=707afcb2-f3a2-462f-b3e0-2d261068ffe9"},"vehicle_type_id":"4","last_reported":1784664708,"current_range_meters":38400,"station_id":"ce4bgj92rcd13ifvqbe0","pricing_plan_id":"cebpf4jnsgd1na2vs0mg"},{"bike_id":"e4c3a333-22a8-4ef0-a8a5-dc42f579f5a4","system_id":"levelo_inurba_marseille","lat":43.24653,"lon":5.38124,"is_reserved":false,"is_disabled":false,"rental_uris":{"android":"levelo://app?vid=e4c3a333-22a8-4ef0-a8a5-dc42f579f5a4","ios":"levelo://app?vid=e4c3a333-22a8-4ef0-a8a5-dc42f579f5a4"},"vehicle_type_id":"4","last_reported":1784664708,"current_range_meters":39200,"station_id":"ce4bhih2rcd13ifvqfr0","pricing_plan_id":"cebpf4jnsgd1na2vs0mg"},{"bike_id":"24678dfb-385e-4c23-beb0-1294407b4c0f","system_id":"levelo_inurba_marseille","lat":43.29484,"lon":5.43309,"is_reserved":false,"is_disabled":false,"rental_uris":{"android":"levelo://app?vid=24678dfb-385e-4c23-beb0-1294407b4c0f","ios":"levelo://app?vid=24678dfb-385e-4c23-beb0-1294407b4c0f"},"vehicle_type_id":"4","last_reported":1784664708,"current_range_meters":4000,"station_id":"st_d3j5ugp08ojc73fj9d10","pricing_plan_id":"cebpf4jnsgd1na2vs0mg"},{"bike_id":"2e33da25-e7fa-4520-a81c-ca018d13ae5b","system_id":"levelo_inurba_marseille","lat":43.29978,"lon":5.38492,"is_reserved":false,"is_disabled":false,"rental_uris":{"android":"levelo://app?vid=2e33da25-e7fa-4520-a81c-ca018d13ae5b","ios":"levelo://app?vid=2e33da25-e7fa-4520-a81c-ca018d13ae5b"},"vehicle_type_id":"4","last_reported":1784664708,"current_range_meters":9200,"station_id":"ce4bgj92rcd13ifvqbd0","pricing_plan_id":"cebpf4jnsgd1na2vs0mg"},{"bike_id":"813a74a4-4342-4148-980b-ae4bb32f76ea","system_id":"levelo_inurba_marseille","lat":43.25929,"lon":5.40912,"is_reserved":false,"is_disabled":true,"rental_uris":{"android":"levelo://app?vid=813a74a4-4342-4148-980b-ae4bb32f76ea","ios":"levelo://app?vid=813a74a4-4342-4148-980b-ae4bb32f76ea"},"vehicle_type_id":"4","last_reported":1784664708,"current_range_meters":18800,"station_id":"ce4bhm92rcd13ifvqglg","pricing_plan_id":"cebpf4jnsgd1na2vs0mg"},{"bike_id":"873f9259-3efe-4b97-8c6d-ded8a16761cf","system_id":"levelo_inurba_marseille","lat":43.29971,"lon":5.38497,"is_reserved":false,"is_disabled":false,"rental_uris":{"android":"levelo://app?vid=873f9259-3efe-4b97-8c6d-ded8a16761cf","ios":"levelo://app?vid=873f9259-3efe-4b97-8c6d-ded8a16761cf"},"vehicle_type_id":"4","last_reported":1784664708,"current_range_meters":19600,"station_id":"ce4bgj92rcd13ifvqbd0","pricing_plan_id":"cebpf4jnsgd1na2vs0mg"},{"bike_id":"aee2475a-fb2d-4bb0-a551-1145de4b2b3a","system_id":"levelo_inurba_marseille","lat":43.23212,"lon":5.35554,"is_reserved":false,"is_disabled":false,"rental_uris":{"android":"levelo://app?vid=aee2475a-fb2d-4bb0-a551-1145de4b2b3a","ios":"levelo://app?vid=aee2475a-fb2d-4bb0-a551-1145de4b2b3a"},"vehicle_type_id":"4","last_reported":1784664708,"current_range_meters":39200,"station_id":"ce4bhu92rcd13ifvqi70","pricing_plan_id":"cebpf4jnsgd1na2vs0mg"},{"bike_id":"852376dd-f04f-4afc-82a9-1351bd20ef1f","system_id":"levelo_inurba_marseille","lat":43.23063,"lon":5.35493,"is_reserved":false,"is_disabled":false,"rental_uris":{"android":"levelo://app?vid=852376dd-f04f-4afc-82a9-1351bd20ef1f","ios":"levelo://app?vid=852376dd-f04f-4afc-82a9-1351bd20ef1f"},"vehicle_type_id":"4","last_reported":1784664708,"current_range_meters":39200,"station_id":"cpo3342slgdg3j2ifvpg","pricing_plan_id":"cebpf4jnsgd1na2vs0mg"},{"bike_id":"47ff0f9f-308b-4144-bd8b-574e9767fcd6","system_id":"levelo_inurba_marseille","lat":43.23064,"lon":5.35492,"is_reserved":false,"is_disabled":false,"rental_uris":{"android":"levelo://app?vid=47ff0f9f-308b-4144-bd8b-574e9767fcd6","ios":"levelo://app?vid=47ff0f9f-308b-4144-bd8b-574e9767fcd6"},"vehicle_type_id":"4","last_reported":1784664708,"current_range_meters":34800,"station_id":"cpo3342slgdg3j2ifvpg","pricing_plan_id":"cebpf4jnsgd1na2vs0mg"},{"bike_id":"bace381c-6258-4d80-80f1-070c343af026","system_id":"levelo_inurba_marseille","lat":43.33163,"lon":5.37692,"is_reserved":false,"is_disabled":false,"rental_uris":{"android":"levelo://app?vid=bace381c-6258-4d80-80f1-070c343af026","ios":"levelo://app?vid=bace381c-6258-4d80-80f1-070c343af026"},"vehicle_type_id":"4","last_reported":1784664708,"current_range_meters":12000,"station_id":"st_d46cu089ee8s73dldbu0","pricing_plan_id":"cebpf4jnsgd1na2vs0mg"},{"bike_id":"742d461b-7afc-4575-a2dd-f581a8bde921","system_id":"levelo_inurba_marseille","lat":43.26349,"lon":5.41083,"is_reserved":false,"is_disabled":false,"rental_uris":{"android":"levelo://app?vid=742d461b-7afc-4575-a2dd-f581a8bde921","ios":"levelo://app?vid=742d461b-7afc-4575-a2dd-f581a8bde921"},"vehicle_type_id":"4","last_reported":1784664708,"current_range_meters":39200,"station_id":"st_d4e5ca6na9uc73bfl5fg","pricing_plan_id":"cebpf4jnsgd1na2vs0mg"},{"bike_id":"3bd23bf9-e7c4-48ea-9a19-dc3245545753","system_id":"levelo_inurba_marseille","lat":43.2859,"lon":5.39913,"is_reserved":false,"is_disabled":false,"rental_uris":{"android":"levelo://app?vid=3bd23bf9-e7c4-48ea-9a19-dc3245545753","ios":"levelo://app?vid=3bd23bf9-e7c4-48ea-9a19-dc3245545753"},"vehicle_type_id":"4","last_reported":1784664708,"current_range_meters":8400,"station_id":"","pricing_plan_id":"cebpf4jnsgd1na2vs0mg"},{"bike_id":"e9e543b0-8ca5-47a6-998c-4902ea53cdd4","system_id":"levelo_inurba_marseille","lat":43.25186,"lon":5.37332,"is_reserved":false,"is_disabled":true,"rental_uris":{"android":"levelo://app?vid=e9e543b0-8ca5-47a6-998c-4902ea53cdd4","ios":"levelo://app?vid=e9e543b0-8ca5-47a6-998c-4902ea53cdd4"},"vehicle_type_id":"4","last_reported":1784664708,"current_range_meters":14000,"station_id":"","pricing_plan_id":"cebpf4jnsgd1na2vs0mg"},{"bike_id":"ea420e49-3d4b-42e4-a478-a31692fc31f8","system_id":"levelo_inurba_marseille","lat":43.27612,"lon":5.36129,"is_reserved":false,"is_disabled":false,"rental_uris":{"android":"levelo://app?vid=ea420e49-3d4b-42e4-a478-a31692fc31f8","ios":"levelo://app?vid=ea420e49-3d4b-42e4-a478-a31692fc31f8"},"vehicle_type_id":"4","last_reported":1784664708,"current_range_meters":31200,"station_id":"ce4bgj92rcd13ifvqbe0","pricing_plan_id":"cebpf4jnsgd1na2vs0mg"},{"bike_id":"0a96f449-dcdf-4041-b884-bed8f0509ab8","system_id":"levelo_inurba_marseille","lat":43.29037,"lon":5.3864,"is_reserved":false,"is_disabled":false,"rental_uris":{"android":"levelo://app?vid=0a96f449-dcdf-4041-b884-bed8f0509ab8","ios":"levelo://app?vid=0a96f449-dcdf-4041-b884-bed8f0509ab8"},"vehicle_type_id":"4","last_reported":1784664708,"current_range_meters":20400,"station_id":"ce4bh4p2rcd13ifvqe0g","pricing_plan_id":"cebpf4jnsgd1na2vs0mg"},{"bike_id":"6fe74c71-fba9-460a-974a-cd7fca2e831c","system_id":"levelo_inurba_marseille","lat":43.2862,"lon":5.37023,"is_reserved":false,"is_disabled":false,"rental_uris":{"android":"levelo://app?vid=6fe74c71-fba9-460a-974a-cd7fca2e831c","ios":"levelo://app?vid=6fe74c71-fba9-460a-974a-cd7fca2e831c"},"vehicle_type_id":"4","last_reported":1784664708,"current_range_meters":26800,"station_id":"ce4bht12rcd13ifvqi60","pricing_plan_id":"cebpf4jnsgd1na2vs0mg"},{"bike_id":"bd9c6b47-ac40-4013-87bf-753b38834c4c","system_id":"levelo_inurba_marseille","lat":43.25502,"lon":5.37651,"is_reserved":false,"is_disabled":false,"rental_uris":{"android":"levelo://app?vid=bd9c6b47-ac40-4013-87bf-753b38834c4c","ios":"levelo://app?vid=bd9c6b47-ac40-4013-87bf-753b38834c4c"},"vehicle_type_id":"4","last_reported":1784664708,"current_range_meters":32000,"station_id":"ce4bhh12rcd13ifvqff0","pricing_plan_id":"cebpf4jnsgd1na2vs0mg"},{"bike_id":"dfd808b2-eb0f-42c3-bea8-e719e619a590","system_id":"levelo_inurba_marseille","lat":43.2678,"lon":5.39414,"is_reserved":false,"is_disabled":true,"rental_uris":{"android":"levelo://app?vid=dfd808b2-eb0f-42c3-bea8-e719e619a590","ios":"levelo://app?vid=dfd808b2-eb0f-42c3-bea8-e719e619a590"},"vehicle_type_id":"4","last_reported":1784664708,"current_range_meters":36000,"station_id":"ce4bhh12rcd13ifvqfg0","pricing_plan_id":"cebpf4jnsgd1na2vs0mg"},{"bike_id":"1a8f7e32-5d47-4694-89a5-a9089b244299","system_id":"levelo_inurba_marseille","lat":43.28077,"lon":5.38489,"is_reserved":false,"is_disabled":false,"rental_uris":{"android":"levelo://app?vid=1a8f7e32-5d47-4694-89a5-a9089b244299","ios":"levelo://app?vid=1a8f7e32-5d47-4694-89a5-a9089b244299"},"vehicle_type_id":"4","last_reported":1784664708,"current_range_meters":8000,"station_id":"","pricing_plan_id":"cebpf4jnsgd1na2vs0mg"},{"bike_id":"3c208046-e7ff-48c1-8f52-fe735d7352cb","system_id":"levelo_inurba_marseille","lat":43.29018,"lon":5.38642,"is_reserved":false,"is_disabled":false,"rental_uris":{"android":"levelo://app?vid=3c208046-e7ff-48c1-8f52-fe735d7352cb","ios":"levelo://app?vid=3c208046-e7ff-48c1-8f52-fe735d7352cb"},"vehicle_type_id":"4","last_reported":1784664708,"current_range_meters":38400,"station_id":"ce4bh4p2rcd13ifvqe0g","pricing_plan_id":"cebpf4jnsgd1na2vs0mg"},{"bike_id":"55905200-eaa2-4ede-b0e7-e8e4672cccac","system_id":"levelo_inurba_marseille","lat":43.30115,"lon":5.43107,"is_reserved":false,"is_disabled":false,"rental_uris":{"android":"levelo://app?vid=55905200-eaa2-4ede-b0e7-e8e4672cccac","ios":"levelo://app?vid=55905200-eaa2-4ede-b0e7-e8e4672cccac"},"vehicle_type_id":"4","last_reported":1784664708,"current_range_meters":20400,"station_id":"st_d3js3co5814s73ftftug","pricing_plan_id":"cebpf4jnsgd1na2vs0mg"},{"bike_id":"d569424a-be19-4d8b-9f48-fce335f18fda","system_id":"levelo_inurba_marseille","lat":43.29973,"lon":5.3849,"is_reserved":false,"is_disabled":false,"rental_uris":{"android":"levelo://app?vid=d569424a-be19-4d8b-9f48-fce335f18fda","ios":"levelo://app?vid=d569424a-be19-4d8b-9f48-fce335f18fda"},"vehicle_type_id":"4","last_reported":1784664708,"current_range_meters":24800,"station_id":"ce4bgj92rcd13ifvqbd0","pricing_plan_id":"cebpf4jnsgd1na2vs0mg"},{"bike_id":"7b7c350c-7fa0-4260-b6c2-812c00fe7727","system_id":"levelo_inurba_marseille","lat":43.32113,"lon":5.3673,"is_reserved":false,"is_disabled":false,"rental_uris":{"android":"levelo://app?vid=7b7c350c-7fa0-4260-b6c2-812c00fe7727","ios":"levelo://app?vid=7b7c350c-7fa0-4260-b6c2-812c00fe7727"},"vehicle_type_id":"4","last_reported":1784664708,"current_range_meters":27200,"station_id":"ce4bhrh2rcd13ifvqhug","pricing_plan_id":"cebpf4jnsgd1na2vs0mg"},{"bike_id":"002b6de9-4906-4900-bd53-a26437451aab","system_id":"levelo_inurba_marseille","lat":43.33257,"lon":5.35887,"is_reserved":false,"is_disabled":false,"rental_uris":{"android":"levelo://app?vid=002b6de9-4906-4900-bd53-a26437451aab","ios":"levelo://app?vid=002b6de9-4906-4900-bd53-a26437451aab"},"vehicle_type_id":"4","last_reported":1784664708,"current_range_meters":15200,"station_id":"","pricing_plan_id":"cebpf4jnsgd1na2vs0mg"},{"bike_id":"e45afed2-be56-43b3-9b1e-0f482da45b1d","system_id":"levelo_inurba_marseille","lat":43.30415,"lon":5.39767,"is_reserved":false,"is_disabled":false,"rental_uris":{"android":"levelo://app?vid=e45afed2-be56-43b3-9b1e-0f482da45b1d","ios":"levelo://app?vid=e45afed2-be56-43b3-9b1e-0f482da45b1d"},"vehicle_type_id":"4","last_reported":1784664708,"current_range_meters":26800,"station_id":"ce4bh092rcd13ifvqd20","pricing_plan_id":"cebpf4jnsgd1na2vs0mg"},{"bike_id":"94f1b0ad-aaa9-4b51-806c-9eae39355e9b","system_id":"levelo_inurba_marseille","lat":43.27363,"lon":5.36251,"is_reserved":false,"is_disabled":false,"rental_uris":{"android":"levelo://app?vid=94f1b0ad-aaa9-4b51-806c-9eae39355e9b","ios":"levelo://app?vid=94f1b0ad-aaa9-4b51-806c-9eae39355e9b"},"vehicle_type_id":"4","last_reported":1784664708,"current_range_meters":31200,"station_id":"ce4bhbh2rcd13ifvqeo0","pricing_plan_id":"cebpf4jnsgd1na2vs0mg"},{"bike_id":"3d185dea-3134-4b35-9cee-49aed1f0c978","system_id":"levelo_inurba_marseille","lat":43.24679,"lon":5.38164,"is_reserved":false,"is_disabled":true,"rental_uris":{"android":"levelo://app?vid=3d185dea-3134-4b35-9cee-49aed1f0c978","ios":"levelo://app?vid=3d185dea-3134-4b35-9cee-49aed1f0c978"},"vehicle_type_id":"4","last_reported":1784664708,"current_range_meters":38400,"station_id":"ce4bhih2rcd13ifvqfr0","pricing_plan_id":"cebpf4jnsgd1na2vs0mg"},{"bike_id":"0fe90e6e-3da1-4fa8-b307-f545a7a6ddef","system_id":"levelo_inurba_marseille","lat":43.3376,"lon":5.37428,"is_reserved":false,"is_disabled":false,"rental_uris":{"android":"levelo://app?vid=0fe90e6e-3da1-4fa8-b307-f545a7a6ddef","ios":"levelo://app?vid=0fe90e6e-3da1-4fa8-b307-f545a7a6ddef"},"vehicle_type_id":"4","last_reported":1784664708,"current_range_meters":35200,"station_id":"","pricing_plan_id":"cebpf4jnsgd1na2vs0mg"},{"bike_id":"d0553fb2-1bea-4060-8280-35454604a01a","system_id":"levelo_inurba_marseille","lat":43.286187,"lon":5.405365,"is_reserved":false,"is_disabled":false,"rental_uris":{"android":"levelo://app?vid=d0553fb2-1bea-4060-8280-35454604a01a","ios":"levelo://app?vid=d0553fb2-1bea-4060-8280-35454604a01a"},"vehicle_type_id":"4","last_reported":1784664708,"current_range_meters":26000,"station_id":"","pricing_plan_id":"cebpf4jnsgd1na2vs0mg"},{"bike_id":"5d25d4bb-e25d-4db6-8050-30e139c7f24a","system_id":"levelo_inurba_marseille","lat":43.29186,"lon":5.35785,"is_reserved":false,"is_disabled":false,"rental_uris":{"android":"levelo://app?vid=5d25d4bb-e25d-4db6-8050-30e139c7f24a","ios":"levelo://app?vid=5d25d4bb-e25d-4db6-8050-30e139c7f24a"},"vehicle_type_id":"4","last_reported":1784664708,"current_range_meters":39200,"station_id":"ce4bhb12rcd13ifvqel0","pricing_plan_id":"cebpf4jnsgd1na2vs0mg"},{"bike_id":"b996123a-e067-4fb7-bfb3-f17c24b9a77f","system_id":"levelo_inurba_marseille","lat":43.31219,"lon":5.36861,"is_reserved":false,"is_disabled":false,"rental_uris":{"android":"levelo://app?vid=b996123a-e067-4fb7-bfb3-f17c24b9a77f","ios":"levelo://app?vid=b996123a-e067-4fb7-bfb3-f17c24b9a77f"},"vehicle_type_id":"4","last_reported":1784664708,"current_range_meters":19200,"station_id":"ce4bgl92rcd13ifvqbq0","pricing_plan_id":"cebpf4jnsgd1na2vs0mg"},{"bike_id":"19d49257-0d49-4ee3-99bc-73b41d6d51fe","system_id":"levelo_inurba_marseille","lat":43.28602,"lon":5.35132,"is_reserved":false,"is_disabled":false,"rental_uris":{"android":"levelo://app?vid=19d49257-0d49-4ee3-99bc-73b41d6d51fe","ios":"levelo://app?vid=19d49257-0d49-4ee3-99bc-73b41d6d51fe"},"vehicle_type_id":"4","last_reported":1784664708,"current_range_meters":3200,"station_id":"ce4bhch2rcd13ifvqeug","pricing_plan_id":"cebpf4jnsgd1na2vs0mg"},{"bike_id":"1981d3ef-d7ae-460e-a247-e2f1120f8322","system_id":"levelo_inurba_marseille","lat":43.24576,"lon":5.41938,"is_reserved":false,"is_disabled":false,"rental_uris":{"android":"levelo://app?vid=1981d3ef-d7ae-460e-a247-e2f1120f8322","ios":"levelo://app?vid=1981d3ef-d7ae-460e-a247-e2f1120f8322"},"vehicle_type_id":"4","last_reported":1784664708,"current_range_meters":19600,"station_id":"","pricing_plan_id":"cebpf4jnsgd1na2vs0mg"},{"bike_id":"765bb8ac-324f-4630-ac9a-8d0c0df64292","system_id":"levelo_inurba_marseille","lat":43.28146,"lon":5.38332,"is_reserved":false,"is_disabled":false,"rental_uris":{"android":"levelo://app?vid=765bb8ac-324f-4630-ac9a-8d0c0df64292","ios":"levelo://app?vid=765bb8ac-324f-4630-ac9a-8d0c0df64292"},"vehicle_type_id":"4","last_reported":1784664708,"current_range_meters":16000,"station_id":"","pricing_plan_id":"cebpf4jnsgd1na2vs0mg"},{"bike_id":"bbb6d84d-52b2-4523-b78b-60cb354411ef","system_id":"levelo_inurba_marseille","lat":43.32089,"lon":5.36723,"is_reserved":false,"is_disabled":false,"rental_uris":{"android":"levelo://app?vid=bbb6d84d-52b2-4523-b78b-60cb354411ef","ios":"levelo://app?vid=bbb6d84d-52b2-4523-b78b-60cb354411ef"},"vehicle_type_id":"4","last_reported":1784664708,"current_range_meters":37600,"station_id":"ce4bhrh2rcd13ifvqhug","pricing_plan_id":"cebpf4jnsgd1na2vs0mg"},{"bike_id":"e0d9154b-8af8-4919-a711-4e5b3ba1d809","system_id":"levelo_inurba_marseille","lat":43.27807,"lon":5.40723,"is_reserved":false,"is_disabled":false,"rental_uris":{"android":"levelo://app?vid=e0d9154b-8af8-4919-a711-4e5b3ba1d809","ios":"levelo://app?vid=e0d9154b-8af8-4919-a711-4e5b3ba1d809"},"vehicle_type_id":"4","last_reported":1784664708,"current_range_meters":9200,"station_id":"ce4bhnh2rcd13ifvqgtg","pricing_plan_id":"cebpf4jnsgd1na2vs0mg"},{"bike_id":"a9863fcb-8ca0-4220-b083-cb27e96475fe","system_id":"levelo_inurba_marseille","lat":43.23187,"lon":5.35559,"is_reserved":false,"is_disabled":false,"rental_uris":{"android":"levelo://app?vid=a9863fcb-8ca0-4220-b083-cb27e96475fe","ios":"levelo://app?vid=a9863fcb-8ca0-4220-b083-cb27e96475fe"},"vehicle_type_id":"4","last_reported":1784664708,"current_range_meters":10800,"station_id":"ce4bhu92rcd13ifvqi70","pricing_plan_id":"cebpf4jnsgd1na2vs0mg"},{"bike_id":"238652f7-16e2-4574-b7f5-68da6dbd7cff","system_id":"levelo_inurba_marseille","lat":43.23199,"lon":5.35559,"is_reserved":false,"is_disabled":false,"rental_uris":{"android":"levelo://app?vid=238652f7-16e2-4574-b7f5-68da6dbd7cff","ios":"levelo://app?vid=238652f7-16e2-4574-b7f5-68da6dbd7cff"},"vehicle_type_id":"4","last_reported":1784664708,"current_range_meters":39200,"station_id":"ce4bhu92rcd13ifvqi70","pricing_plan_id":"cebpf4jnsgd1na2vs0mg"},{"bike_id":"a8da38aa-f94e-4c2e-80f0-e41e78a1c855","system_id":"levelo_inurba_marseille","lat":43.29775,"lon":5.38108,"is_reserved":false,"is_disabled":true,"rental_uris":{"android":"levelo://app?vid=a8da38aa-f94e-4c2e-80f0-e41e78a1c855","ios":"levelo://app?vid=a8da38aa-f94e-4c2e-80f0-e41e78a1c855"},"vehicle_type_id":"4","last_reported":1784664708,"current_range_meters":39200,"station_id":"ce4bgip2rcd13ifvqbb0","pricing_plan_id":"cebpf4jnsgd1na2vs0mg"},{"bike_id":"bb259abc-25cc-4382-8faf-1f8fe25e7509","system_id":"levelo_inurba_marseille","lat":43.24805,"lon":5.3745,"is_reserved":false,"is_disabled":false,"rental_uris":{"android":"levelo://app?vid=bb259abc-25cc-4382-8faf-1f8fe25e7509","ios":"levelo://app?vid=bb259abc-25cc-4382-8faf-1f8fe25e7509"},"vehicle_type_id":"4","last_reported":1784664708,"current_range_meters":38800,"station_id":"ce4bhgh2rcd13ifvqfb0","pricing_plan_id":"cebpf4jnsgd1na2vs0mg"},{"bike_id":"ef50bd35-d62c-4dfa-bea8-564105575a7a","system_id":"levelo_inurba_marseille","lat":43.29542,"lon":5.39031,"is_reserved":false,"is_disabled":true,"rental_uris":{"android":"levelo://app?vid=ef50bd35-d62c-4dfa-bea8-564105575a7a","ios":"levelo://app?vid=ef50bd35-d62c-4dfa-bea8-564105575a7a"},"vehicle_type_id":"4","last_reported":1784664708,"current_range_meters":19600,"station_id":"ce4bh3p2rcd13ifvqdp0","pricing_plan_id":"cebpf4jnsgd1na2vs0mg"},{"bike_id":"8280735e-40b9-4aa7-9305-87569a1783b0","system_id":"levelo_inurba_marseille","lat":43.33756,"lon":5.37444,"is_reserved":false,"is_disabled":false,"rental_uris":{"android":"levelo://app?vid=8280735e-40b9-4aa7-9305-87569a1783b0","ios":"levelo://app?vid=8280735e-40b9-4aa7-9305-87569a1783b0"},"vehicle_type_id":"4","last_reported":1784664708,"current_range_meters":24000,"station_id":"","pricing_plan_id":"cebpf4jnsgd1na2vs0mg"},{"bike_id":"354a079f-ed28-41a7-a06b-85ab194fda38","system_id":"levelo_inurba_marseille","lat":43.29435,"lon":5.3976,"is_reserved":false,"is_disabled":true,"rental_uris":{"android":"levelo://app?vid=354a079f-ed28-41a7-a06b-85ab194fda38","ios":"levelo://app?vid=354a079f-ed28-41a7-a06b-85ab194fda38"},"vehicle_type_id":"4","last_reported":1784664708,"current_range_meters":8000,"station_id":"ce4bh3h2rcd13ifvqdo0","pricing_plan_id":"cebpf4jnsgd1na2vs0mg"},{"bike_id":"6055f1b0-cbeb-44b1-b7fc-1347a0e0465e","system_id":"levelo_inurba_marseille","lat":43.30295,"lon":5.39219,"is_reserved":false,"is_disabled":false,"rental_uris":{"android":"levelo://app?vid=6055f1b0-cbeb-44b1-b7fc-1347a0e0465e","ios":"levelo://app?vid=6055f1b0-cbeb-44b1-b7fc-1347a0e0465e"},"vehicle_type_id":"4","last_reported":1784664708,"current_range_meters":6800,"station_id":"ce4bgkh2rcd13ifvqbk0","pricing_plan_id":"cebpf4jnsgd1na2vs0mg"},{"bike_id":"5c914183-7de6-46d0-90c1-c07e2a51c967","system_id":"levelo_inurba_marseille","lat":43.28937,"lon":5.39621,"is_reserved":false,"is_disabled":false,"rental_uris":{"android":"levelo://app?vid=5c914183-7de6-46d0-90c1-c07e2a51c967","ios":"levelo://app?vid=5c914183-7de6-46d0-90c1-c07e2a51c967"},"vehicle_type_id":"4","last_reported":1784664708,"current_range_meters":14800,"station_id":"ce4bh3h2rcd13ifvqdn0","pricing_plan_id":"cebpf4jnsgd1na2vs0mg"},{"bike_id":"68d24db2-8be9-4033-a723-22841554027e","system_id":"levelo_inurba_marseille","lat":43.28058,"lon":5.35135,"is_reserved":false,"is_disabled":true,"rental_uris":{"android":"levelo://app?vid=68d24db2-8be9-4033-a723-22841554027e","ios":"levelo://app?vid=68d24db2-8be9-4033-a723-22841554027e"},"vehicle_type_id":"4","last_reported":1784664708,"current_range_meters":0,"station_id":"","pricing_plan_id":"cebpf4jnsgd1na2vs0mg"},{"bike_id":"fa1e86bf-1110-4640-a0b5-4c444df6ac60","system_id":"levelo_inurba_marseille","lat":43.29032,"lon":5.43963,"is_reserved":false,"is_disabled":false,"rental_uris":{"android":"levelo://app?vid=fa1e86bf-1110-4640-a0b5-4c444df6ac60","ios":"levelo://app?vid=fa1e86bf-1110-4640-a0b5-4c444df6ac60"},"vehicle_type_id":"4","last_reported":1784664708,"current_range_meters":34000,"station_id":"","pricing_plan_id":"cebpf4jnsgd1na2vs0mg"},{"bike_id":"8c494dd8-3f7c-4b9d-8471-2dbe8b7b120a","system_id":"levelo_inurba_marseille","lat":43.28339,"lon":5.38126,"is_reserved":false,"is_disabled":false,"rental_uris":{"android":"levelo://app?vid=8c494dd8-3f7c-4b9d-8471-2dbe8b7b120a","ios":"levelo://app?vid=8c494dd8-3f7c-4b9d-8471-2dbe8b7b120a"},"vehicle_type_id":"4","last_reported":1784664708,"current_range_meters":7200,"station_id":"ce4bh412rcd13ifvqdr0","pricing_plan_id":"cebpf4jnsgd1na2vs0mg"},{"bike_id":"27e1e4c5-a07c-4ba9-9e46-007cc925fb39","system_id":"levelo_inurba_marseille","lat":43.25554,"lon":5.41664,"is_reserved":false,"is_disabled":false,"rental_uris":{"android":"levelo://app?vid=27e1e4c5-a07c-4ba9-9e46-007cc925fb39","ios":"levelo://app?vid=27e1e4c5-a07c-4ba9-9e46-007cc925fb39"},"vehicle_type_id":"4","last_reported":1784664708,"current_range_meters":14000,"station_id":"","pricing_plan_id":"cebpf4jnsgd1na2vs0mg"},{"bike_id":"9b3a0b08-cb44-4059-b987-aa0d29c4c6d0","system_id":"levelo_inurba_marseille","lat":43.28435,"lon":5.37513,"is_reserved":false,"is_disabled":false,"rental_uris":{"android":"levelo://app?vid=9b3a0b08-cb44-4059-b987-aa0d29c4c6d0","ios":"levelo://app?vid=9b3a0b08-cb44-4059-b987-aa0d29c4c6d0"},"vehicle_type_id":"4","last_reported":1784664708,"current_range_meters":11200,"station_id":"ce4bh412rcd13ifvqds0","pricing_plan_id":"cebpf4jnsgd1na2vs0mg"},{"bike_id":"4aed0d2f-4083-4f21-b63f-b9dc9b692a27","system_id":"levelo_inurba_marseille","lat":43.31761,"lon":5.39009,"is_reserved":false,"is_disabled":false,"rental_uris":{"android":"levelo://app?vid=4aed0d2f-4083-4f21-b63f-b9dc9b692a27","ios":"levelo://app?vid=4aed0d2f-4083-4f21-b63f-b9dc9b692a27"},"vehicle_type_id":"4","last_reported":1784664708,"current_range_meters":39200,"station_id":"ce4bhqp2rcd13ifvqhng","pricing_plan_id":"cebpf4jnsgd1na2vs0mg"},{"bike_id":"72ce9887-e860-4c8e-b9ce-067be284aebb","system_id":"levelo_inurba_marseille","lat":43.22933,"lon":5.35386,"is_reserved":false,"is_disabled":false,"rental_uris":{"android":"levelo://app?vid=72ce9887-e860-4c8e-b9ce-067be284aebb","ios":"levelo://app?vid=72ce9887-e860-4c8e-b9ce-067be284aebb"},"vehicle_type_id":"4","last_reported":1784664708,"current_range_meters":39200,"station_id":"cpo3532slgdg3j2ikp40","pricing_plan_id":"cebpf4jnsgd1na2vs0mg"},{"bike_id":"59a3080a-752b-4ff2-b97d-43b715988a6f","system_id":"levelo_inurba_marseille","lat":43.29187,"lon":5.35801,"is_reserved":false,"is_disabled":false,"rental_uris":{"android":"levelo://app?vid=59a3080a-752b-4ff2-b97d-43b715988a6f","ios":"levelo://app?vid=59a3080a-752b-4ff2-b97d-43b715988a6f"},"vehicle_type_id":"4","last_reported":1784664708,"current_range_meters":38800,"station_id":"ce4bhb12rcd13ifvqel0","pricing_plan_id":"cebpf4jnsgd1na2vs0mg"},{"bike_id":"0ac22eb9-5e22-416a-a476-17f0150ac17e","system_id":"levelo_inurba_marseille","lat":43.31898,"lon":5.40774,"is_reserved":false,"is_disabled":false,"rental_uris":{"android":"levelo://app?vid=0ac22eb9-5e22-416a-a476-17f0150ac17e","ios":"levelo://app?vid=0ac22eb9-5e22-416a-a476-17f0150ac17e"},"vehicle_type_id":"4","last_reported":1784664708,"current_range_meters":34800,"station_id":"ce4bhq12rcd13ifvqhig","pricing_plan_id":"cebpf4jnsgd1na2vs0mg"},{"bike_id":"b614b275-393b-4358-a0b6-dbdd67a695cd","system_id":"levelo_inurba_marseille","lat":43.29976,"lon":5.38489,"is_reserved":false,"is_disabled":false,"rental_uris":{"android":"levelo://app?vid=b614b275-393b-4358-a0b6-dbdd67a695cd","ios":"levelo://app?vid=b614b275-393b-4358-a0b6-dbdd67a695cd"},"vehicle_type_id":"4","last_reported":1784664708,"current_range_meters":39200,"station_id":"ce4bgj92rcd13ifvqbd0","pricing_plan_id":"cebpf4jnsgd1na2vs0mg"},{"bike_id":"237d0b1e-a2f5-4f31-a196-4f16bca3026e","system_id":"levelo_inurba_marseille","lat":43.24163,"lon":5.36415,"is_reserved":false,"is_disabled":false,"rental_uris":{"android":"levelo://app?vid=237d0b1e-a2f5-4f31-a196-4f16bca3026e","ios":"levelo://app?vid=237d0b1e-a2f5-4f31-a196-4f16bca3026e"},"vehicle_type_id":"4","last_reported":1784664708,"current_range_meters":38000,"station_id":"cpo36qri1sfpv3e86is0","pricing_plan_id":"cebpf4jnsgd1na2vs0mg"},{"bike_id":"8a7cd93c-ad25-4e5d-86ac-87a4c41bc9fc","system_id":"levelo_inurba_marseille","lat":43.31445,"lon":5.37375,"is_reserved":false,"is_disabled":true,"rental_uris":{"android":"levelo://app?vid=8a7cd93c-ad25-4e5d-86ac-87a4c41bc9fc","ios":"levelo://app?vid=8a7cd93c-ad25-4e5d-86ac-87a4c41bc9fc"},"vehicle_type_id":"4","last_reported":1784664708,"current_range_meters":24800,"station_id":"","pricing_plan_id":"cebpf4jnsgd1na2vs0mg"},{"bike_id":"1ae20384-5ccd-4145-9a1d-f626b16c7a9e","system_id":"levelo_inurba_marseille","lat":43.3113,"lon":5.46438,"is_reserved":false,"is_disabled":false,"rental_uris":{"android":"levelo://app?vid=1ae20384-5ccd-4145-9a1d-f626b16c7a9e","ios":"levelo://app?vid=1ae20384-5ccd-4145-9a1d-f626b16c7a9e"},"vehicle_type_id":"4","last_reported":1784664708,"current_range_meters":3200,"station_id":"","pricing_plan_id":"cebpf4jnsgd1na2vs0mg"},{"bike_id":"c5032ade-04c2-4ad9-acd6-0c757f219d04","system_id":"levelo_inurba_marseille","lat":43.31921,"lon":5.3676,"is_reserved":false,"is_disabled":false,"rental_uris":{"android":"levelo://app?vid=c5032ade-04c2-4ad9-acd6-0c757f219d04","ios":"levelo://app?vid=c5032ade-04c2-4ad9-acd6-0c757f219d04"},"vehicle_type_id":"4","last_reported":1784664708,"current_range_meters":14400,"station_id":"st_d6o2h0d0559c73evc1b0","pricing_plan_id":"cebpf4jnsgd1na2vs0mg"},{"bike_id":"479a25b1-c1db-4e38-9802-13b8f5b183f0","system_id":"levelo_inurba_marseille","lat":43.28486,"lon":5.48399,"is_reserved":false,"is_disabled":false,"rental_uris":{"android":"levelo://app?vid=479a25b1-c1db-4e38-9802-13b8f5b183f0","ios":"levelo://app?vid=479a25b1-c1db-4e38-9802-13b8f5b183f0"},"vehicle_type_id":"4","last_reported":1784664708,"current_range_meters":31200,"station_id":"st_d3svhcjqgbts73a3dn0g","pricing_plan_id":"cebpf4jnsgd1na2vs0mg"},{"bike_id":"5ba3de10-889b-4152-aef4-4bff1e010d26","system_id":"levelo_inurba_marseille","lat":43.32116,"lon":5.36767,"is_reserved":false,"is_disabled":false,"rental_uris":{"android":"levelo://app?vid=5ba3de10-889b-4152-aef4-4bff1e010d26","ios":"levelo://app?vid=5ba3de10-889b-4152-aef4-4bff1e010d26"},"vehicle_type_id":"4","last_reported":1784664708,"current_range_meters":14400,"station_id":"ce4bhrh2rcd13ifvqhug","pricing_plan_id":"cebpf4jnsgd1na2vs0mg"},{"bike_id":"830ed1cf-96f0-4b6c-a704-24324c91e14b","system_id":"levelo_inurba_marseille","lat":43.28411,"lon":5.34998,"is_reserved":false,"is_disabled":false,"rental_uris":{"android":"levelo://app?vid=830ed1cf-96f0-4b6c-a704-24324c91e14b","ios":"levelo://app?vid=830ed1cf-96f0-4b6c-a704-24324c91e14b"},"vehicle_type_id":"4","last_reported":1784664708,"current_range_meters":23200,"station_id":"ce4bhbh2rcd13ifvqepg","pricing_plan_id":"cebpf4jnsgd1na2vs0mg"},{"bike_id":"ebfe9d04-d34e-4bb1-90c9-79f7b73604ae","system_id":"levelo_inurba_marseille","lat":43.26993,"lon":5.42831,"is_reserved":false,"is_disabled":true,"rental_uris":{"android":"levelo://app?vid=ebfe9d04-d34e-4bb1-90c9-79f7b73604ae","ios":"levelo://app?vid=ebfe9d04-d34e-4bb1-90c9-79f7b73604ae"},"vehicle_type_id":"4","last_reported":1784664708,"current_range_meters":400,"station_id":"","pricing_plan_id":"cebpf4jnsgd1na2vs0mg"},{"bike_id":"33ef2cbf-2be4-4498-a40f-a0eb5a77f291","system_id":"levelo_inurba_marseille","lat":43.26046,"lon":5.39391,"is_reserved":false,"is_disabled":false,"rental_uris":{"android":"levelo://app?vid=33ef2cbf-2be4-4498-a40f-a0eb5a77f291","ios":"levelo://app?vid=33ef2cbf-2be4-4498-a40f-a0eb5a77f291"},"vehicle_type_id":"4","last_reported":1784664708,"current_range_meters":27600,"station_id":"ce4bhh92rcd13ifvqfj0","pricing_plan_id":"cebpf4jnsgd1na2vs0mg"},{"bike_id":"b5996151-bc6c-4946-9520-d4c9b1b8b957","system_id":"levelo_inurba_marseille","lat":43.2843,"lon":5.37532,"is_reserved":false,"is_disabled":false,"rental_uris":{"android":"levelo://app?vid=b5996151-bc6c-4946-9520-d4c9b1b8b957","ios":"levelo://app?vid=b5996151-bc6c-4946-9520-d4c9b1b8b957"},"vehicle_type_id":"4","last_reported":1784664708,"current_range_meters":9200,"station_id":"ce4bh412rcd13ifvqds0","pricing_plan_id":"cebpf4jnsgd1na2vs0mg"},{"bike_id":"cc8568ab-2679-4305-9add-20ef1e360289","system_id":"levelo_inurba_marseille","lat":43.3375,"lon":5.37452,"is_reserved":false,"is_disabled":false,"rental_uris":{"android":"levelo://app?vid=cc8568ab-2679-4305-9add-20ef1e360289","ios":"levelo://app?vid=cc8568ab-2679-4305-9add-20ef1e360289"},"vehicle_type_id":"4","last_reported":1784664708,"current_range_meters":34800,"station_id":"","pricing_plan_id":"cebpf4jnsgd1na2vs0mg"},{"bike_id":"b42f5f84-1bf4-499b-816a-41651e8207d6","system_id":"levelo_inurba_marseille","lat":43.24062,"lon":5.37761,"is_reserved":false,"is_disabled":false,"rental_uris":{"android":"levelo://app?vid=b42f5f84-1bf4-499b-816a-41651e8207d6","ios":"levelo://app?vid=b42f5f84-1bf4-499b-816a-41651e8207d6"},"vehicle_type_id":"4","last_reported":1784664708,"current_range_meters":39200,"station_id":"ce4bhnp2rcd13ifvqgvg","pricing_plan_id":"cebpf4jnsgd1na2vs0mg"},{"bike_id":"80f2fcef-357e-49cd-aa72-dbf1de6d4695","system_id":"levelo_inurba_marseille","lat":43.31882,"lon":5.36826,"is_reserved":false,"is_disabled":false,"rental_uris":{"android":"levelo://app?vid=80f2fcef-357e-49cd-aa72-dbf1de6d4695","ios":"levelo://app?vid=80f2fcef-357e-49cd-aa72-dbf1de6d4695"},"vehicle_type_id":"4","last_reported":1784664708,"current_range_meters":22000,"station_id":"st_d6o2h0d0559c73evc1b0","pricing_plan_id":"cebpf4jnsgd1na2vs0mg"},{"bike_id":"4b9fc241-4eeb-4f9a-a348-55c6f87c9df6","system_id":"levelo_inurba_marseille","lat":43.23341,"lon":5.40801,"is_reserved":false,"is_disabled":false,"rental_uris":{"android":"levelo://app?vid=4b9fc241-4eeb-4f9a-a348-55c6f87c9df6","ios":"levelo://app?vid=4b9fc241-4eeb-4f9a-a348-55c6f87c9df6"},"vehicle_type_id":"4","last_reported":1784664708,"current_range_meters":24400,"station_id":"","pricing_plan_id":"cebpf4jnsgd1na2vs0mg"},{"bike_id":"0d1cb5f2-7139-4dd9-9e53-4bca53319b71","system_id":"levelo_inurba_marseille","lat":43.291705,"lon":5.371501,"is_reserved":false,"is_disabled":true,"rental_uris":{"android":"levelo://app?vid=0d1cb5f2-7139-4dd9-9e53-4bca53319b71","ios":"levelo://app?vid=0d1cb5f2-7139-4dd9-9e53-4bca53319b71"},"vehicle_type_id":"4","last_reported":1784664708,"current_range_meters":0,"station_id":"ce4bha92rcd13ifvqeh0","pricing_plan_id":"cebpf4jnsgd1na2vs0mg"},{"bike_id":"6677deb2-8e23-476b-8cf3-8a9596b297dd","system_id":"levelo_inurba_marseille","lat":43.29954,"lon":5.41326,"is_reserved":false,"is_disabled":false,"rental_uris":{"android":"levelo://app?vid=6677deb2-8e23-476b-8cf3-8a9596b297dd","ios":"levelo://app?vid=6677deb2-8e23-476b-8cf3-8a9596b297dd"},"vehicle_type_id":"4","last_reported":1784664708,"current_range_meters":27200,"station_id":"ce4bhp12rcd13ifvqh9g","pricing_plan_id":"cebpf4jnsgd1na2vs0mg"},{"bike_id":"58b3f2ed-7d27-444d-b197-1f5aec6f744d","system_id":"levelo_inurba_marseille","lat":43.24806,"lon":5.37458,"is_reserved":false,"is_disabled":false,"rental_uris":{"android":"levelo://app?vid=58b3f2ed-7d27-444d-b197-1f5aec6f744d","ios":"levelo://app?vid=58b3f2ed-7d27-444d-b197-1f5aec6f744d"},"vehicle_type_id":"4","last_reported":1784664708,"current_range_meters":39200,"station_id":"ce4bhgh2rcd13ifvqfb0","pricing_plan_id":"cebpf4jnsgd1na2vs0mg"},{"bike_id":"b47d92e5-f21f-41a4-9f0f-22e84a038b71","system_id":"levelo_inurba_marseille","lat":43.32367,"lon":5.36767,"is_reserved":false,"is_disabled":false,"rental_uris":{"android":"levelo://app?vid=b47d92e5-f21f-41a4-9f0f-22e84a038b71","ios":"levelo://app?vid=b47d92e5-f21f-41a4-9f0f-22e84a038b71"},"vehicle_type_id":"4","last_reported":1784664708,"current_range_meters":38000,"station_id":"ce4bhsh2rcd13ifvqi2g","pricing_plan_id":"cebpf4jnsgd1na2vs0mg"},{"bike_id":"24562537-d892-46b0-8d1f-b9806d00c57d","system_id":"levelo_inurba_marseille","lat":43.29638,"lon":5.37144,"is_reserved":false,"is_disabled":true,"rental_uris":{"android":"levelo://app?vid=24562537-d892-46b0-8d1f-b9806d00c57d","ios":"levelo://app?vid=24562537-d892-46b0-8d1f-b9806d00c57d"},"vehicle_type_id":"4","last_reported":1784664708,"current_range_meters":27200,"station_id":"","pricing_plan_id":"cebpf4jnsgd1na2vs0mg"},{"bike_id":"97c0494c-c7ee-4cb9-a38b-046f44cb3c85","system_id":"levelo_inurba_marseille","lat":43.2621,"lon":5.37449,"is_reserved":false,"is_disabled":true,"rental_uris":{"android":"levelo://app?vid=97c0494c-c7ee-4cb9-a38b-046f44cb3c85","ios":"levelo://app?vid=97c0494c-c7ee-4cb9-a38b-046f44cb3c85"},"vehicle_type_id":"4","last_reported":1784664708,"current_range_meters":33600,"station_id":"ce4bhgp2rcd13ifvqfc0","pricing_plan_id":"cebpf4jnsgd1na2vs0mg"},{"bike_id":"3c6def2a-5254-417d-8d6d-9f44f959e71e","system_id":"levelo_inurba_marseille","lat":43.30186,"lon":5.36631,"is_reserved":false,"is_disabled":false,"rental_uris":{"android":"levelo://app?vid=3c6def2a-5254-417d-8d6d-9f44f959e71e","ios":"levelo://app?vid=3c6def2a-5254-417d-8d6d-9f44f959e71e"},"vehicle_type_id":"4","last_reported":1784664708,"current_range_meters":39200,"station_id":"ce4bgrh2rcd13ifvqc8g","pricing_plan_id":"cebpf4jnsgd1na2vs0mg"},{"bike_id":"3aeb1273-e035-4f69-833c-7101dafb1615","system_id":"levelo_inurba_marseille","lat":43.29517,"lon":5.38533,"is_reserved":false,"is_disabled":false,"rental_uris":{"android":"levelo://app?vid=3aeb1273-e035-4f69-833c-7101dafb1615","ios":"levelo://app?vid=3aeb1273-e035-4f69-833c-7101dafb1615"},"vehicle_type_id":"4","last_reported":1784664708,"current_range_meters":16000,"station_id":"ce4bgih2rcd13ifvqba0","pricing_plan_id":"cebpf4jnsgd1na2vs0mg"},{"bike_id":"c6339b14-6408-4f1f-9334-32c118625fc1","system_id":"levelo_inurba_marseille","lat":43.29498,"lon":5.43299,"is_reserved":false,"is_disabled":false,"rental_uris":{"android":"levelo://app?vid=c6339b14-6408-4f1f-9334-32c118625fc1","ios":"levelo://app?vid=c6339b14-6408-4f1f-9334-32c118625fc1"},"vehicle_type_id":"4","last_reported":1784664708,"current_range_meters":24400,"station_id":"st_d3j5ugp08ojc73fj9d10","pricing_plan_id":"cebpf4jnsgd1na2vs0mg"},{"bike_id":"c8a54541-143c-4478-9348-6fbdce79290f","system_id":"levelo_inurba_marseille","lat":43.28412,"lon":5.3498,"is_reserved":false,"is_disabled":false,"rental_uris":{"android":"levelo://app?vid=c8a54541-143c-4478-9348-6fbdce79290f","ios":"levelo://app?vid=c8a54541-143c-4478-9348-6fbdce79290f"},"vehicle_type_id":"4","last_reported":1784664708,"current_range_meters":16400,"station_id":"ce4bhbh2rcd13ifvqepg","pricing_plan_id":"cebpf4jnsgd1na2vs0mg"},{"bike_id":"cb8b75fb-672f-4e3f-b7c3-67c34185ff2d","system_id":"levelo_inurba_marseille","lat":43.29686,"lon":5.37297,"is_reserved":false,"is_disabled":false,"rental_uris":{"android":"levelo://app?vid=cb8b75fb-672f-4e3f-b7c3-67c34185ff2d","ios":"levelo://app?vid=cb8b75fb-672f-4e3f-b7c3-67c34185ff2d"},"vehicle_type_id":"4","last_reported":1784664708,"current_range_meters":39200,"station_id":"ce4bgk12rcd13ifvqbj0","pricing_plan_id":"cebpf4jnsgd1na2vs0mg"},{"bike_id":"b809a343-278b-440c-8bd3-1837080007bc","system_id":"levelo_inurba_marseille","lat":43.27843,"lon":5.35435,"is_reserved":false,"is_disabled":false,"rental_uris":{"android":"levelo://app?vid=b809a343-278b-440c-8bd3-1837080007bc","ios":"levelo://app?vid=b809a343-278b-440c-8bd3-1837080007bc"},"vehicle_type_id":"4","last_reported":1784664708,"current_range_meters":37600,"station_id":"","pricing_plan_id":"cebpf4jnsgd1na2vs0mg"},{"bike_id":"0854d5a4-29d0-4d84-88e1-50d7afd62d93","system_id":"levelo_inurba_marseille","lat":43.28432,"lon":5.39212,"is_reserved":false,"is_disabled":false,"rental_uris":{"android":"levelo://app?vid=0854d5a4-29d0-4d84-88e1-50d7afd62d93","ios":"levelo://app?vid=0854d5a4-29d0-4d84-88e1-50d7afd62d93"},"vehicle_type_id":"4","last_reported":1784664708,"current_range_meters":27200,"station_id":"ce4bhoh2rcd13ifvqh5g","pricing_plan_id":"cebpf4jnsgd1na2vs0mg"},{"bike_id":"8654abf3-1cc6-430e-8d34-bbca99828118","system_id":"levelo_inurba_marseille","lat":43.33772,"lon":5.3748,"is_reserved":false,"is_disabled":false,"rental_uris":{"android":"levelo://app?vid=8654abf3-1cc6-430e-8d34-bbca99828118","ios":"levelo://app?vid=8654abf3-1cc6-430e-8d34-bbca99828118"},"vehicle_type_id":"4","last_reported":1784664708,"current_range_meters":22400,"station_id":"","pricing_plan_id":"cebpf4jnsgd1na2vs0mg"},