{"last_updated":1747408180,"ttl":60,"version":"2.2","data":{"bikes":[{"bike_id":"d318c711-a575-4ff7-8f22-fb396b1a8ec2","system_id":"levelo_inurba_marseille","lat":43.29622,"lon":5.37164,"is_reserved":false,"is_disabled":false,"rental_uris":{"android":"levelo://app?vid=d318c711-a575-4ff7-8f22-fb396b1a8ec2","ios":"levelo://app?vid=d318c711-a575-4ff7-8f22-fb396b1a8ec2"},"vehicle_type_id":"4","last_reported":1747408181,"current_range_meters":2000,"station_id":"ce4bgnh2rcd13ifvqc0g","pricing_plan_id":"cebpf4jnsgd1na2vs0mg"},{"bike_id":"46c6ad37-6c05-4c5e-b174-96085c5f91f7","system_id":"levelo_inurba_marseille","lat":43.31529,"lon":5.38039,"is_reserved":false,"is_disabled":false,"rental_uris":{"android":"levelo://app?vid=46c6ad37-6c05-4c5e-b174-96085c5f91f7","ios":"levelo://app?vid=46c6ad37-6c05-4c5e-b174-96085c5f91f7"},"vehicle_type_id":"4","last_reported":1747408181,"current_range_meters":2800,"station_id":"ce4bhsp2rcd13ifvqi50","pricing_plan_id":"cebpf4jnsgd1na2vs0mg"},{"bike_id":"49f200d8-c5dd-4808-9e95-b08998d5e1a9","system_id":"levelo_inurba_marseille","lat":43.32601,"lon":5.43079,"is_reserved":false,"is_disabled":false,"rental_uris":{"android":"levelo://app?vid=49f200d8-c5dd-4808-9e95-b08998d5e1a9","ios":"levelo://app?vid=49f200d8-c5dd-4808-9e95-b08998d5e1a9"},"vehicle_type_id":"4","last_reported":1747408181,"current_range_meters":2800,"station_id":"","pricing_plan_id":"cebpf4jnsgd1na2vs0mg"},{"bike_id":"b81bff5b-2de6-4fe4-9b37-d98e28832d98","system_id":"levelo_inurba_marseille","lat":43.28721,"lon":5.36097,"is_reserved":false,"is_disabled":false,"rental_uris":{"android":"levelo://app?vid=b81bff5b-2de6-4fe4-9b37-d98e28832d98","ios":"levelo://app?vid=b81bff5b-2de6-4fe4-9b37-d98e28832d98"},"vehicle_type_id":"4","last_reported":1747408181,"current_range_meters":2000,"station_id":"cki0cbj6b192h4jlfktg","pricing_plan_id":"cebpf4jnsgd1na2vs0mg"},{"bike_id":"7da4a5e5-e1f8-4b16-8f4f-1d86cb679b12","system_id":"levelo_inurba_marseille","lat":43.309417,"lon":5.401497,"is_reserved":false,"is_disabled":false,"rental_uris":{"android":"levelo://app?vid=7da4a5e5-e1f8-4b16-8f4f-1d86cb679b12","ios":"levelo://app?vid=7da4a5e5-e1f8-4b16-8f4f-1d86cb679b12"},"vehicle_type_id":"4","last_reported":1747408181,"current_range_meters":2800,"station_id":"ce4bgvp2rcd13ifvqct0","pricing_plan_id":"cebpf4jnsgd1na2vs0mg"},{"bike_id":"933e388c-5345-4250-b29c-f3880aa2c498","system_id":"levelo_inurba_marseille","lat":43.30775,"lon":5.37645,"is_reserved":false,"is_disabled":false,"rental_uris":{"android":"levelo://app?vid=933e388c-5345-4250-b29c-f3880aa2c498","ios":"levelo://app?vid=933e388c-5345-4250-b29c-f3880aa2c498"},"vehicle_type_id":"4","last_reported":1747408181,"current_range_meters":0,"station_id":"ce4bgv92rcd13ifvqcq0","pricing_plan_id":"cebpf4jnsgd1na2vs0mg"},{"bike_id":"176b816e-9b24-410c-8ff6-dc078bd05924","system_id":"levelo_inurba_marseille","lat":43.29531,"lon":5.39034,"is_reserved":false,"is_disabled":false,"rental_uris":{"android":"levelo://app?vid=176b816e-9b24-410c-8ff6-dc078bd05924","ios":"levelo://app?vid=176b816e-9b24-410c-8ff6-dc078bd05924"},"vehicle_type_id":"4","last_reported":1747408181,"current_range_meters":3200,"station_id":"ce4bh3p2rcd13ifvqdp0","pricing_plan_id":"cebpf4jnsgd1na2vs0mg"},{"bike_id":"0642b728-e118-4c43-b7f4-c5c91e5b1305","system_id":"levelo_inurba_marseille","lat":43.299232,"lon":5.374871,"is_reserved":false,"is_disabled":false,"rental_uris":{"android":"levelo://app?vid=0642b728-e118-4c43-b7f4-c5c91e5b1305","ios":"levelo://app?vid=0642b728-e118-4c43-b7f4-c5c91e5b1305"},"vehicle_type_id":"4","last_reported":1747408181,"current_range_meters":3200,"station_id":"ce4bgjh2rcd13ifvqbg0","pricing_plan_id":"cebpf4jnsgd1na2vs0mg"},{"bike_id":"bd97490a-c15f-48a0-b287-3dc935d0f398","system_id":"levelo_inurba_marseille","lat":43.337444,"lon":5.374475,"is_reserved":false,"is_disabled":false,"rental_uris":{"android":"levelo://app?vid=bd97490a-c15f-48a0-b287-3dc935d0f398","ios":"levelo://app?vid=bd97490a-c15f-48a0-b287-3dc935d0f398"},"vehicle_type_id":"4","last_reported":1747408181,"current_range_meters":3600,"station_id":"","pricing_plan_id":"cebpf4jnsgd1na2vs0mg"},{"bike_id":"60182953-b70d-4efe-ae4f-e8876b0ca6f0","system_id":"levelo_inurba_marseille","lat":43.30116,"lon":5.39864,"is_reserved":false,"is_disabled":false,"rental_uris":{"android":"levelo://app?vid=60182953-b70d-4efe-ae4f-e8876b0ca6f0","ios":"levelo://app?vid=60182953-b70d-4efe-ae4f-e8876b0ca6f0"},"vehicle_type_id":"4","last_reported":1747408181,"current_range_meters":3600,"station_id":"ce4bh0h2rcd13ifvqd40","pricing_plan_id":"cebpf4jnsgd1na2vs0mg"},{"bike_id":"eb736958-3ed6-4739-8800-b5153542c4cb","system_id":"levelo_inurba_marseille","lat":43.2849,"lon":5.38419,"is_reserved":false,"is_disabled":false,"rental_uris":{"android":"levelo://app?vid=eb736958-3ed6-4739-8800-b5153542c4cb","ios":"levelo://app?vid=eb736958-3ed6-4739-8800-b5153542c4cb"},"vehicle_type_id":"4","last_reported":1747408181,"current_range_meters":3600,"station_id":"ce4bh512rcd13ifvqe3g","pricing_plan_id":"cebpf4jnsgd1na2vs0mg"},{"bike_id":"5d5f5755-5b3b-4308-8b78-c8614cdd189d","system_id":"levelo_inurba_marseille","lat":43.30467,"lon":5.36741,"is_reserved":false,"is_disabled":false,"rental_uris":{"android":"levelo://app?vid=5d5f5755-5b3b-4308-8b78-c8614cdd189d","ios":"levelo://app?vid=5d5f5755-5b3b-4308-8b78-c8614cdd189d"},"vehicle_type_id":"4","last_reported":1747408181,"current_range_meters":3600,"station_id":"","pricing_plan_id":"cebpf4jnsgd1na2vs0mg"},{"bike_id":"cad2cf1a-18e8-4956-a0f5-2b59d7c6ebd6","system_id":"levelo_inurba_marseille","lat":43.27634,"lon":5.36098,"is_reserved":false,"is_disabled":false,"rental_uris":{"android":"levelo://app?vid=cad2cf1a-18e8-4956-a0f5-2b59d7c6ebd6","ios":"levelo://app?vid=cad2cf1a-18e8-4956-a0f5-2b59d7c6ebd6"},"vehicle_type_id":"4","last_reported":1747408181,"current_range_meters":3600,"station_id":"ce4bgj92rcd13ifvqbe0","pricing_plan_id":"cebpf4jnsgd1na2vs0mg"},{"bike_id":"5d7f2d9e-c1d3-4822-854b-48f69946ba35","system_id":"levelo_inurba_marseille","lat":43.28273,"lon":5.35074,"is_reserved":false,"is_disabled":false,"rental_uris":{"android":"levelo://app?vid=5d7f2d9e-c1d3-4822-854b-48f69946ba35","ios":"levelo://app?vid=5d7f2d9e-c1d3-4822-854b-48f69946ba35"},"vehicle_type_id":"4","last_reported":1747408181,"current_range_meters":3600,"station_id":"ce4bhbp2rcd13ifvqerg","pricing_plan_id":"cebpf4jnsgd1na2vs0mg"},{"bike_id":"c5b57fc4-5492-41d1-93ab-02e4f5821c3e","system_id":"levelo_inurba_marseille","lat":43.30943,"lon":5.40144,"is_reserved":false,"is_disabled":false,"rental_uris":{"android":"levelo://app?vid=c5b57fc4-5492-41d1-93ab-02e4f5821c3e","ios":"levelo://app?vid=c5b57fc4-5492-41d1-93ab-02e4f5821c3e"},"vehicle_type_id":"4","last_reported":1747408181,"current_range_meters":3600,"station_id":"ce4bgvp2rcd13ifvqct0","pricing_plan_id":"cebpf4jnsgd1na2vs0mg"},{"bike_id":"42f90f56-109f-4ba9-a755-b8d1dd264e33","system_id":"levelo_inurba_marseille","lat":43.273207,"lon":5.390793,"is_reserved":false,"is_disabled":false,"rental_uris":{"android":"levelo://app?vid=42f90f56-109f-4ba9-a755-b8d1dd264e33","ios":"levelo://app?vid=42f90f56-109f-4ba9-a755-b8d1dd264e33"},"vehicle_type_id":"4","last_reported":1747408181,"current_range_meters":3600,"station_id":"ce4bhgp2rcd13ifvqfe0","pricing_plan_id":"cebpf4jnsgd1na2vs0mg"},{"bike_id":"3b1dfac0-788d-4767-8e8f-693e61c20ead","system_id":"levelo_inurba_marseille","lat":43.258607,"lon":5.399063,"is_reserved":false,"is_disabled":false,"rental_uris":{"android":"levelo://app?vid=3b1dfac0-788d-4767-8e8f-693e61c20ead","ios":"levelo://app?vid=3b1dfac0-788d-4767-8e8f-693e61c20ead"},"vehicle_type_id":"4","last_reported":1747408181,"current_range_meters":4000,"station_id":"ce4bhl92rcd13ifvqghg","pricing_plan_id":"cebpf4jnsgd1na2vs0mg"},{"bike_id":"9b49c690-b71d-4bdb-a9e6-57ef310718fd","system_id":"levelo_inurba_marseille","lat":43.25122,"lon":5.40319,"is_reserved":false,"is_disabled":false,"rental_uris":{"android":"levelo://app?vid=9b49c690-b71d-4bdb-a9e6-57ef310718fd","ios":"levelo://app?vid=9b49c690-b71d-4bdb-a9e6-57ef310718fd"},"vehicle_type_id":"4","last_reported":1747408181,"current_range_meters":4000,"station_id":"ce4bhlh2rcd13ifvqgig","pricing_plan_id":"cebpf4jnsgd1na2vs0mg"},{"bike_id":"21cd902a-3240-429c-908d-9d8f56ff94f2","system_id":"levelo_inurba_marseille","lat":43.3032,"lon":5.40445,"is_reserved":false,"is_disabled":false,"rental_uris":{"android":"levelo://app?vid=21cd902a-3240-429c-908d-9d8f56ff94f2","ios":"levelo://app?vid=21cd902a-3240-429c-908d-9d8f56ff94f2"},"vehicle_type_id":"4","last_reported":1747408181,"current_range_meters":4400,"station_id":"ce4bh012rcd13ifvqd10","pricing_plan_id":"cebpf4jnsgd1na2vs0mg"},{"bike_id":"25d74f55-0fa8-4916-b337-ed0ce148a4b7","system_id":"levelo_inurba_marseille","lat":43.26217,"lon":5.37439,"is_reserved":false,"is_disabled":false,"rental_uris":{"android":"levelo://app?vid=25d74f55-0fa8-4916-b337-ed0ce148a4b7","ios":"levelo://app?vid=25d74f55-0fa8-4916-b337-ed0ce148a4b7"},"vehicle_type_id":"4","last_reported":1747408181,"current_range_meters":4800,"station_id":"ce4bhgp2rcd13ifvqfc0","pricing_plan_id":"cebpf4jnsgd1na2vs0mg"},{"bike_id":"a06d3659-a73f-448f-97f6-20ff1a29904d","system_id":"levelo_inurba_marseille","lat":43.31372,"lon":5.38501,"is_reserved":false,"is_disabled":false,"rental_uris":{"android":"levelo://app?vid=a06d3659-a73f-448f-97f6-20ff1a29904d","ios":"levelo://app?vid=a06d3659-a73f-448f-97f6-20ff1a29904d"},"vehicle_type_id":"4","last_reported":1747408181,"current_range_meters":4800,"station_id":"ce4bgt92rcd13ifvqcf0","pricing_plan_id":"cebpf4jnsgd1na2vs0mg"},{"bike_id":"929be932-eed4-4904-8368-2731c3816e65","system_id":"levelo_inurba_marseille","lat":43.28616,"lon":5.35102,"is_reserved":false,"is_disabled":false,"rental_uris":{"android":"levelo://app?vid=929be932-eed4-4904-8368-2731c3816e65","ios":"levelo://app?vid=929be932-eed4-4904-8368-2731c3816e65"},"vehicle_type_id":"4","last_reported":1747408181,"current_range_meters":4800,"station_id":"ce4bhch2rcd13ifvqeug","pricing_plan_id":"cebpf4jnsgd1na2vs0mg"},{"bike_id":"7a36fd35-4e25-4e67-9334-838adaca07f0","system_id":"levelo_inurba_marseille","lat":43.32663,"lon":5.40997,"is_reserved":false,"is_disabled":false,"rental_uris":{"android":"levelo://app?vid=7a36fd35-4e25-4e67-9334-838adaca07f0","ios":"levelo://app?vid=7a36fd35-4e25-4e67-9334-838adaca07f0"},"vehicle_type_id":"4","last_reported":1747408181,"current_range_meters":4400,"station_id":"ce4bhpp2rcd13ifvqhgg","pricing_plan_id":"cebpf4jnsgd1na2vs0mg"},{"bike_id":"a254bc9c-ffc0-4560-9460-7c068a015dd8","system_id":"levelo_inurba_marseille","lat":43.295319,"lon":5.385486,"is_reserved":false,"is_disabled":false,"rental_uris":{"android":"levelo://app?vid=a254bc9c-ffc0-4560-9460-7c068a015dd8","ios":"levelo://app?vid=a254bc9c-ffc0-4560-9460-7c068a015dd8"},"vehicle_type_id":"4","last_reported":1747408181,"current_range_meters":4000,"station_id":"ce4bgih2rcd13ifvqba0","pricing_plan_id":"cebpf4jnsgd1na2vs0mg"},{"bike_id":"c9011897-f5e5-4351-a5c8-a7f4513b9954","system_id":"levelo_inurba_marseille","lat":43.292288,"lon":5.360522,"is_reserved":false,"is_disabled":false,"rental_uris":{"android":"levelo://app?vid=c9011897-f5e5-4351-a5c8-a7f4513b9954","ios":"levelo://app?vid=c9011897-f5e5-4351-a5c8-a7f4513b9954"},"vehicle_type_id":"4","last_reported":1747408181,"current_range_meters":5600,"station_id":"ce4bhb12rcd13ifvqel0","pricing_plan_id":"cebpf4jnsgd1na2vs0mg"},{"bike_id":"996c156d-a606-4db1-aaa8-3ba5c706f819","system_id":"levelo_inurba_marseille","lat":43.2872,"lon":5.361,"is_reserved":false,"is_disabled":false,"rental_uris":{"android":"levelo://app?vid=996c156d-a606-4db1-aaa8-3ba5c706f819","ios":"levelo://app?vid=996c156d-a606-4db1-aaa8-3ba5c706f819"},"vehicle_type_id":"4","last_reported":1747408181,"current_range_meters":4800,"station_id":"cki0cbj6b192h4jlfktg","pricing_plan_id":"cebpf4jnsgd1na2vs0mg"},{"bike_id":"bb34a901-1322-4171-a994-bbd37ba5ddae","system_id":"levelo_inurba_marseille","lat":43.29261,"lon":5.40909,"is_reserved":false,"is_disabled":false,"rental_uris":{"android":"levelo://app?vid=bb34a901-1322-4171-a994-bbd37ba5ddae","ios":"levelo://app?vid=bb34a901-1322-4171-a994-bbd37ba5ddae"},"vehicle_type_id":"4","last_reported":1747408181,"current_range_meters":4800,"station_id":"ce4bh192rcd13ifvqdc0","pricing_plan_id":"cebpf4jnsgd1na2vs0mg"},{"bike_id":"004e550f-eeb4-47fd-965a-a69664e7713a","system_id":"levelo_inurba_marseille","lat":43.27947,"lon":5.410432,"is_reserved":false,"is_disabled":false,"rental_uris":{"android":"levelo://app?vid=004e550f-eeb4-47fd-965a-a69664e7713a","ios":"levelo://app?vid=004e550f-eeb4-47fd-965a-a69664e7713a"},"vehicle_type_id":"4","last_reported":1747408181,"current_range_meters":6000,"station_id":"ce4bhnp2rcd13ifvqh0g","pricing_plan_id":"cebpf4jnsgd1na2vs0mg"},{"bike_id":"80adf76b-fc58-49bf-9f0f-3122ab7824e9","system_id":"levelo_inurba_marseille","lat":43.295687,"lon":5.39966,"is_reserved":false,"is_disabled":false,"rental_uris":{"android":"levelo://app?vid=80adf76b-fc58-49bf-9f0f-3122ab7824e9","ios":"levelo://app?vid=80adf76b-fc58-49bf-9f0f-3122ab7824e9"},"vehicle_type_id":"4","last_reported":1747408181,"current_range_meters":6000,"station_id":"ce4bh312rcd13ifvqdj0","pricing_plan_id":"cebpf4jnsgd1na2vs0mg"},{"bike_id":"f6ee769e-793a-4183-8ddc-563c56faee43","system_id":"levelo_inurba_marseille","lat":43.280337,"lon":5.369452,"is_reserved":false,"is_disabled":false,"rental_uris":{"android":"levelo://app?vid=f6ee769e-793a-4183-8ddc-563c56faee43","ios":"levelo://app?vid=f6ee769e-793a-4183-8ddc-563c56faee43"},"vehicle_type_id":"4","last_reported":1747408181,"current_range_meters":6000,"station_id":"ce4bha12rcd13ifvqef0","pricing_plan_id":"cebpf4jnsgd1na2vs0mg"},{"bike_id":"e51c6ee7-1802-4eda-89d1-716ed0e76c43","system_id":"levelo_inurba_marseille","lat":43.26802,"lon":5.40266,"is_reserved":false,"is_disabled":false,"rental_uris":{"android":"levelo://app?vid=e51c6ee7-1802-4eda-89d1-716ed0e76c43","ios":"levelo://app?vid=e51c6ee7-1802-4eda-89d1-716ed0e76c43"},"vehicle_type_id":"4","last_reported":1747408181,"current_range_meters":6000,"station_id":"ce501612rcd8frsf0b60","pricing_plan_id":"cebpf4jnsgd1na2vs0mg"},{"bike_id":"2ad262c5-c586-41a9-8a4d-ae8abc60aac8","system_id":"levelo_inurba_marseille","lat":43.27808,"lon":5.40718,"is_reserved":false,"is_disabled":false,"rental_uris":{"android":"levelo://app?vid=2ad262c5-c586-41a9-8a4d-ae8abc60aac8","ios":"levelo://app?vid=2ad262c5-c586-41a9-8a4d-ae8abc60aac8"},"vehicle_type_id":"4","last_reported":1747408181,"current_range_meters":6000,"station_id":"ce4bhnh2rcd13ifvqgtg","pricing_plan_id":"cebpf4jnsgd1na2vs0mg"},{"bike_id":"68f9a5f0-a04b-46ad-b09f-074d4a0c12da","system_id":"levelo_inurba_marseille","lat":43.30123,"lon":5.39857,"is_reserved":false,"is_disabled":false,"rental_uris":{"android":"levelo://app?vid=68f9a5f0-a04b-46ad-b09f-074d4a0c12da","ios":"levelo://app?vid=68f9a5f0-a04b-46ad-b09f-074d4a0c12da"},"vehicle_type_id":"4","last_reported":1747408181,"current_range_meters":6000,"station_id":"ce4bh0h2rcd13ifvqd40","pricing_plan_id":"cebpf4jnsgd1na2vs0mg"},{"bike_id":"ae220eaa-f44c-4544-a687-25328a3b82bc","system_id":"levelo_inurba_marseille","lat":43.29928,"lon":5.37487,"is_reserved":false,"is_disabled":false,"rental_uris":{"android":"levelo://app?vid=ae220eaa-f44c-4544-a687-25328a3b82bc","ios":"levelo://app?vid=ae220eaa-f44c-4544-a687-25328a3b82bc"},"vehicle_type_id":"4","last_reported":1747408181,"current_range_meters":6000,"station_id":"ce4bgjh2rcd13ifvqbg0","pricing_plan_id":"cebpf4jnsgd1na2vs0mg"},{"bike_id":"97a7618f-84ab-46e0-ad21-07ac872c0f95","system_id":"levelo_inurba_marseille","lat":43.27489,"lon":5.42457,"is_reserved":false,"is_disabled":false,"rental_uris":{"android":"levelo://app?vid=97a7618f-84ab-46e0-ad21-07ac872c0f95","ios":"levelo://app?vid=97a7618f-84ab-46e0-ad21-07ac872c0f95"},"vehicle_type_id":"4","last_reported":1747408181,"current_range_meters":6000,"station_id":"ce4bhn92rcd13ifvqgrg","pricing_plan_id":"cebpf4jnsgd1na2vs0mg"},{"bike_id":"47c7310c-dc68-4143-8185-405644a2a359","system_id":"levelo_inurba_marseille","lat":43.29615,"lon":5.37163,"is_reserved":false,"is_disabled":false,"rental_uris":{"android":"levelo://app?vid=47c7310c-dc68-4143-8185-405644a2a359","ios":"levelo://app?vid=47c7310c-dc68-4143-8185-405644a2a359"},"vehicle_type_id":"4","last_reported":1747408181,"current_range_meters":6000,"station_id":"ce4bgnh2rcd13ifvqc0g","pricing_plan_id":"cebpf4jnsgd1na2vs0mg"},{"bike_id":"2f303b5d-af95-4fca-8014-99cd5db621f6","system_id":"levelo_inurba_marseille","lat":43.3171,"lon":5.43713,"is_reserved":false,"is_disabled":false,"rental_uris":{"android":"levelo://app?vid=2f303b5d-af95-4fca-8014-99cd5db621f6","ios":"levelo://app?vid=2f303b5d-af95-4fca-8014-99cd5db621f6"},"vehicle_type_id":"4","last_reported":1747408181,"current_range_meters":6000,"station_id":"ce4bhp92rcd13ifvqhcg","pricing_plan_id":"cebpf4jnsgd1na2vs0mg"},{"bike_id":"6132e8fb-6fbe-4e3f-8a67-51f6726ce1ac","system_id":"levelo_inurba_marseille","lat":43.3037,"lon":5.42486,"is_reserved":false,"is_disabled":false,"rental_uris":{"android":"levelo://app?vid=6132e8fb-6fbe-4e3f-8a67-51f6726ce1ac","ios":"levelo://app?vid=6132e8fb-6fbe-4e3f-8a67-51f6726ce1ac"},"vehicle_type_id":"4","last_reported":1747408181,"current_range_meters":6400,"station_id":"ce4bhoh2rcd13ifvqh6g","pricing_plan_id":"cebpf4jnsgd1na2vs0mg"},{"bike_id":"68c41217-d0dd-495e-8991-51c848c3930c","system_id":"levelo_inurba_marseille","lat":43.313778,"lon":5.384932,"is_reserved":false,"is_disabled":false,"rental_uris":{"android":"levelo://app?vid=68c41217-d0dd-495e-8991-51c848c3930c","ios":"levelo://app?vid=68c41217-d0dd-495e-8991-51c848c3930c"},"vehicle_type_id":"4","last_reported":1747408181,"current_range_meters":6400,"station_id":"ce4bgt92rcd13ifvqcf0","pricing_plan_id":"cebpf4jnsgd1na2vs0mg"},{"bike_id":"9b7a8e6e-6a5f-4b1d-81b6-680c29f7da30","system_id":"levelo_inurba_marseille","lat":43.29529,"lon":5.38549,"is_reserved":false,"is_disabled":false,"rental_uris":{"android":"levelo://app?vid=9b7a8e6e-6a5f-4b1d-81b6-680c29f7da30","ios":"levelo://app?vid=9b7a8e6e-6a5f-4b1d-81b6-680c29f7da30"},"vehicle_type_id":"4","last_reported":1747408181,"current_range_meters":6800,"station_id":"ce4bgih2rcd13ifvqba0","pricing_plan_id":"cebpf4jnsgd1na2vs0mg"},{"bike_id":"0bf25510-fd85-48e0-8919-f76223a516f3","system_id":"levelo_inurba_marseille","lat":43.337384,"lon":5.391856,"is_reserved":false,"is_disabled":false,"rental_uris":{"android":"levelo://app?vid=0bf25510-fd85-48e0-8919-f76223a516f3","ios":"levelo://app?vid=0bf25510-fd85-48e0-8919-f76223a516f3"},"vehicle_type_id":"4","last_reported":1747408181,"current_range_meters":6800,"station_id":"ce4bhr92rcd13ifvqhsg","pricing_plan_id":"cebpf4jnsgd1na2vs0mg"},{"bike_id":"5ed188c2-010c-475d-885c-4938481f72d8","system_id":"levelo_inurba_marseille","lat":43.27939,"lon":5.41062,"is_reserved":false,"is_disabled":false,"rental_uris":{"android":"levelo://app?vid=5ed188c2-010c-475d-885c-4938481f72d8","ios":"levelo://app?vid=5ed188c2-010c-475d-885c-4938481f72d8"},"vehicle_type_id":"4","last_reported":1747408181,"current_range_meters":7200,"station_id":"ce4bhnp2rcd13ifvqh0g","pricing_plan_id":"cebpf4jnsgd1na2vs0mg"},{"bike_id":"dcca7c5d-5087-41ed-8759-d33f6542b28e","system_id":"levelo_inurba_marseille","lat":43.26561,"lon":5.3729,"is_reserved":false,"is_disabled":false,"rental_uris":{"android":"levelo://app?vid=dcca7c5d-5087-41ed-8759-d33f6542b28e","ios":"levelo://app?vid=dcca7c5d-5087-41ed-8759-d33f6542b28e"},"vehicle_type_id":"4","last_reported":1747408181,"current_range_meters":7200,"station_id":"ce4bhg12rcd13ifvqf70","pricing_plan_id":"cebpf4jnsgd1na2vs0mg"},{"bike_id":"d3b40934-b433-433c-bfaa-782c744c0fa0","system_id":"levelo_inurba_marseille","lat":43.29261,"lon":5.40912,"is_reserved":false,"is_disabled":false,"rental_uris":{"android":"levelo://app?vid=d3b40934-b433-433c-bfaa-782c744c0fa0","ios":"levelo://app?vid=d3b40934-b433-433c-bfaa-782c744c0fa0"},"vehicle_type_id":"4","last_reported":1747408181,"current_range_meters":6800,"station_id":"ce4bh192rcd13ifvqdc0","pricing_plan_id":"cebpf4jnsgd1na2vs0mg"},{"bike_id":"5bf49c95-ea37-4001-9f35-19cfcc36eb25","system_id":"levelo_inurba_marseille","lat":43.30134,"lon":5.38771,"is_reserved":false,"is_disabled":false,"rental_uris":{"android":"levelo://app?vid=5bf49c95-ea37-4001-9f35-19cfcc36eb25","ios":"levelo://app?vid=5bf49c95-ea37-4001-9f35-19cfcc36eb25"},"vehicle_type_id":"4","last_reported":1747408181,"current_range_meters":7200,"station_id":"ce4bghh2rcd13ifvqb60","pricing_plan_id":"cebpf4jnsgd1na2vs0mg"},{"bike_id":"7406b058-a87f-44fc-a02f-c34c4694ffcd","system_id":"levelo_inurba_marseille","lat":43.323625,"lon":5.38891,"is_reserved":false,"is_disabled":false,"rental_uris":{"android":"levelo://app?vid=7406b058-a87f-44fc-a02f-c34c4694ffcd","ios":"levelo://app?vid=7406b058-a87f-44fc-a02f-c34c4694ffcd"},"vehicle_type_id":"4","last_reported":1747408181,"current_range_meters":8000,"station_id":"ce4bhqp2rcd13ifvqhog","pricing_plan_id":"cebpf4jnsgd1na2vs0mg"},{"bike_id":"8dd39551-b640-4505-90ba-3a5c72e8f940","system_id":"levelo_inurba_marseille","lat":43.28154,"lon":5.42645,"is_reserved":false,"is_disabled":false,"rental_uris":{"android":"levelo://app?vid=8dd39551-b640-4505-90ba-3a5c72e8f940","ios":"levelo://app?vid=8dd39551-b640-4505-90ba-3a5c72e8f940"},"vehicle_type_id":"4","last_reported":1747408181,"current_range_meters":8000,"station_id":"ce4bhnh2rcd13ifvqgug","pricing_plan_id":"cebpf4jnsgd1na2vs0mg"},{"bike_id":"7610e764-4710-4df3-b0a8-529673431bf7","system_id":"levelo_inurba_marseille","lat":43.30191,"lon":5.38043,"is_reserved":false,"is_disabled":false,"rental_uris":{"android":"levelo://app?vid=7610e764-4710-4df3-b0a8-529673431bf7","ios":"levelo://app?vid=7610e764-4710-4df3-b0a8-529673431bf7"},"vehicle_type_id":"4","last_reported":1747408181,"current_range_meters":8000,"station_id":"","pricing_plan_id":"cebpf4jnsgd1na2vs0mg"},{"bike_id":"f768f02c-a770-46ed-b9fb-ed1e435a3c0f","system_id":"levelo_inurba_marseille","lat":43.32932,"lon":5.390014,"is_reserved":false,"is_disabled":false,"rental_uris":{"android":"levelo://app?vid=f768f02c-a770-46ed-b9fb-ed1e435a3c0f","ios":"levelo://app?vid=f768f02c-a770-46ed-b9fb-ed1e435a3c0f"},"vehicle_type_id":"4","last_reported":1747408181,"current_range_meters":8000,"station_id":"","pricing_plan_id":"cebpf4jnsgd1na2vs0mg"},{"bike_id":"6d2e5df3-6483-4f66-82d5-66355d99acb5","system_id":"levelo_inurba_marseille","lat":43.29533,"lon":5.39053,"is_reserved":false,"is_disabled":false,"rental_uris":{"android":"levelo://app?vid=6d2e5df3-6483-4f66-82d5-66355d99acb5","ios":"levelo://app?vid=6d2e5df3-6483-4f66-82d5-66355d99acb5"},"vehicle_type_id":"4","last_reported":1747408181,"current_range_meters":8000,"station_id":"ce4bh3p2rcd13ifvqdp0","pricing_plan_id":"cebpf4jnsgd1na2vs0mg"},{"bike_id":"2b825be8-5498-49b3-901b-e8cb824032f0","system_id":"levelo_inurba_marseille","lat":43.27829,"lon":5.40725,"is_reserved":false,"is_disabled":false,"rental_uris":{"android":"levelo://app?vid=2b825be8-5498-49b3-901b-e8cb824032f0","ios":"levelo://app?vid=2b825be8-5498-49b3-901b-e8cb824032f0"},"vehicle_type_id":"4","last_reported":1747408181,"current_range_meters":8000,"station_id":"ce4bhnh2rcd13ifvqgtg","pricing_plan_id":"cebpf4jnsgd1na2vs0mg"},{"bike_id":"f07470f7-b52c-4caf-badb-bcc8c25e7238","system_id":"levelo_inurba_marseille","lat":43.31363,"lon":5.38492,"is_reserved":false,"is_disabled":false,"rental_uris":{"android":"levelo://app?vid=f07470f7-b52c-4caf-badb-bcc8c25e7238","ios":"levelo://app?vid=f07470f7-b52c-4caf-badb-bcc8c25e7238"},"vehicle_type_id":"4","last_reported":1747408181,"current_range_meters":8000,"station_id":"ce4bgt92rcd13ifvqcf0","pricing_plan_id":"cebpf4jnsgd1na2vs0mg"},{"bike_id":"0077f398-56b6-43bb-8eeb-9798d08de05c","system_id":"levelo_inurba_marseille","lat":43.308604,"lon":5.373288,"is_reserved":false,"is_disabled":false,"rental_uris":{"android":"levelo://app?vid=0077f398-56b6-43bb-8eeb-9798d08de05c","ios":"levelo://app?vid=0077f398-56b6-43bb-8eeb-9798d08de05c"},"vehicle_type_id":"4","last_reported":1747408181,"current_range_meters":8000,"station_id":"","pricing_plan_id":"cebpf4jnsgd1na2vs0mg"},{"bike_id":"a4254f33-dfdc-4beb-9ee4-21271a8a3aac","system_id":"levelo_inurba_marseille","lat":43.30428,"lon":5.41276,"is_reserved":false,"is_disabled":true,"rental_uris":{"android":"levelo://app?vid=a4254f33-dfdc-4beb-9ee4-21271a8a3aac","ios":"levelo://app?vid=a4254f33-dfdc-4beb-9ee4-21271a8a3aac"},"vehicle_type_id":"4","last_reported":1747408181,"current_range_meters":8000,"station_id":"ce4bhop2rcd13ifvqh8g","pricing_plan_id":"cebpf4jnsgd1na2vs0mg"},{"bike_id":"5c791012-87ac-40b7-9f68-bac7de51cc14","system_id":"levelo_inurba_marseille","lat":43.29562,"lon":5.38546,"is_reserved":false,"is_disabled":false,"rental_uris":{"android":"levelo://app?vid=5c791012-87ac-40b7-9f68-bac7de51cc14","ios":"levelo://app?vid=5c791012-87ac-40b7-9f68-bac7de51cc14"},"vehicle_type_id":"4","last_reported":1747408181,"current_range_meters":8400,"station_id":"ce4bgih2rcd13ifvqba0","pricing_plan_id":"cebpf4jnsgd1na2vs0mg"},{"bike_id":"981886b8-914d-4c4f-bea5-eefbd48c3054","system_id":"levelo_inurba_marseille","lat":43.27372,"lon":5.36254,"is_reserved":false,"is_disabled":false,"rental_uris":{"android":"levelo://app?vid=981886b8-914d-4c4f-bea5-eefbd48c3054","ios":"levelo://app?vid=981886b8-914d-4c4f-bea5-eefbd48c3054"},"vehicle_type_id":"4","last_reported":1747408181,"current_range_meters":8000,"station_id":"ce4bhbh2rcd13ifvqeo0","pricing_plan_id":"cebpf4jnsgd1na2vs0mg"},{"bike_id":"15ca6b73-147d-4b57-8aaf-274b81ce7563","system_id":"levelo_inurba_marseille","lat":43.24071,"lon":5.37766,"is_reserved":false,"is_disabled":false,"rental_uris":{"android":"levelo://app?vid=15ca6b73-147d-4b57-8aaf-274b81ce7563","ios":"levelo://app?vid=15ca6b73-147d-4b57-8aaf-274b81ce7563"},"vehicle_type_id":"4","last_reported":1747408181,"current_range_meters":8400,"station_id":"ce4bhnp2rcd13ifvqgvg","pricing_plan_id":"cebpf4jnsgd1na2vs0mg"},{"bike_id":"8c398b30-3e89-42c8-9aa0-27f4f230a40a","system_id":"levelo_inurba_marseille","lat":43.29908,"lon":5.37475,"is_reserved":false,"is_disabled":false,"rental_uris":{"android":"levelo://app?vid=8c398b30-3e89-42c8-9aa0-27f4f230a40a","ios":"levelo://app?vid=8c398b30-3e89-42c8-9aa0-27f4f230a40a"},"vehicle_type_id":"4","last_reported":1747408181,"current_range_meters":8000,"station_id":"ce4bgjh2rcd13ifvqbg0","pricing_plan_id":"cebpf4jnsgd1na2vs0mg"},{"bike_id":"b297b32b-72f1-47a4-9e2e-44162528f5e1","system_id":"levelo_inurba_marseille","lat":43.22935,"lon":5.35376,"is_reserved":false,"is_disabled":false,"rental_uris":{"android":"levelo://app?vid=b297b32b-72f1-47a4-9e2e-44162528f5e1","ios":"levelo://app?vid=b297b32b-72f1-47a4-9e2e-44162528f5e1"},"vehicle_type_id":"4","last_reported":1747408181,"current_range_meters":8400,"station_id":"cpo3532slgdg3j2ikp40","pricing_plan_id":"cebpf4jnsgd1na2vs0mg"},{"bike_id":"8dfef829-1dc9-447d-a824-7e92d46b45c1","system_id":"levelo_inurba_marseille","lat":43.217442,"lon":5.346016,"is_reserved":false,"is_disabled":true,"rental_uris":{"android":"levelo://app?vid=8dfef829-1dc9-447d-a824-7e92d46b45c1","ios":"levelo://app?vid=8dfef829-1dc9-447d-a824-7e92d46b45c1"},"vehicle_type_id":"4","last_reported":1747408181,"current_range_meters":8800,"station_id":"st_cvj6r9ubvosntc0bgbag","pricing_plan_id":"cebpf4jnsgd1na2vs0mg"},{"bike_id":"e616300d-c87a-424c-8ab8-f90bbee69c08","system_id":"levelo_inurba_marseille","lat":43.292688,"lon":5.376393,"is_reserved":false,"is_disabled":false,"rental_uris":{"android":"levelo://app?vid=e616300d-c87a-424c-8ab8-f90bbee69c08","ios":"levelo://app?vid=e616300d-c87a-424c-8ab8-f90bbee69c08"},"vehicle_type_id":"4","last_reported":1747408181,"current_range_meters":8800,"station_id":"ce4bgi12rcd13ifvqb80","pricing_plan_id":"cebpf4jnsgd1na2vs0mg"},{"bike_id":"d06a81f7-6bbe-4687-bfbe-932949dc466c","system_id":"levelo_inurba_marseille","lat":43.26122,"lon":5.38721,"is_reserved":false,"is_disabled":false,"rental_uris":{"android":"levelo://app?vid=d06a81f7-6bbe-4687-bfbe-932949dc466c","ios":"levelo://app?vid=d06a81f7-6bbe-4687-bfbe-932949dc466c"},"vehicle_type_id":"4","last_reported":1747408181,"current_range_meters":8800,"station_id":"","pricing_plan_id":"cebpf4jnsgd1na2vs0mg"},{"bike_id":"345cffa0-29b1-4e14-91c8-8f581afe5ee4","system_id":"levelo_inurba_marseille","lat":43.29202,"lon":5.39316,"is_reserved":false,"is_disabled":true,"rental_uris":{"android":"levelo://app?vid=345cffa0-29b1-4e14-91c8-8f581afe5ee4","ios":"levelo://app?vid=345cffa0-29b1-4e14-91c8-8f581afe5ee4"},"vehicle_type_id":"4","last_reported":1747408181,"current_range_meters":8800,"station_id":"ce4bh192rcd13ifvqdd0","pricing_plan_id":"cebpf4jnsgd1na2vs0mg"},{"bike_id":"b89a24e6-5078-471a-88fa-2c70cdf078ca","system_id":"levelo_inurba_marseille","lat":43.310298,"lon":5.375268,"is_reserved":false,"is_disabled":false,"rental_uris":{"android":"levelo://app?vid=b89a24e6-5078-471a-88fa-2c70cdf078ca","ios":"levelo://app?vid=b89a24e6-5078-471a-88fa-2c70cdf078ca"},"vehicle_type_id":"4","last_reported":1747408181,"current_range_meters":8800,"station_id":"","pricing_plan_id":"cebpf4jnsgd1na2vs0mg"},{"bike_id":"1e743fd3-ac89-4f31-9a0d-d2dda4f32d73","system_id":"levelo_inurba_marseille","lat":43.278357,"lon":5.39207,"is_reserved":false,"is_disabled":false,"rental_uris":{"android":"levelo://app?vid=1e743fd3-ac89-4f31-9a0d-d2dda4f32d73","ios":"levelo://app?vid=1e743fd3-ac89-4f31-9a0d-d2dda4f32d73"},"vehicle_type_id":"4","last_reported":1747408181,"current_range_meters":9200,"station_id":"ce4bhjp2rcd13ifvqga0","pricing_plan_id":"cebpf4jnsgd1na2vs0mg"},{"bike_id":"fbf701dc-cef9-4f6b-b1c3-88491ac96d87","system_id":"levelo_inurba_marseille","lat":43.30091,"lon":5.39077,"is_reserved":false,"is_disabled":false,"rental_uris":{"android":"levelo://app?vid=fbf701dc-cef9-4f6b-b1c3-88491ac96d87","ios":"levelo://app?vid=fbf701dc-cef9-4f6b-b1c3-88491ac96d87"},"vehicle_type_id":"4","last_reported":1747408181,"current_range_meters":9200,"station_id":"ce4bh192rcd13ifvqdb0","pricing_plan_id":"cebpf4jnsgd1na2vs0mg"},{"bike_id":"6d485413-0a5b-4296-862c-2c19c83ee78f","system_id":"levelo_inurba_marseille","lat":43.32341,"lon":5.40624,"is_reserved":false,"is_disabled":false,"rental_uris":{"android":"levelo://app?vid=6d485413-0a5b-4296-862c-2c19c83ee78f","ios":"levelo://app?vid=6d485413-0a5b-4296-862c-2c19c83ee78f"},"vehicle_type_id":"4","last_reported":1747408181,"current_range_meters":9200,"station_id":"ce4bhq92rcd13ifvqhjg","pricing_plan_id":"cebpf4jnsgd1na2vs0mg"},{"bike_id":"1f22e199-a94b-4cf2-ab2d-b9bd79f0c1da","system_id":"levelo_inurba_marseille","lat":43.29509,"lon":5.3905,"is_reserved":false,"is_disabled":false,"rental_uris":{"android":"levelo://app?vid=1f22e199-a94b-4cf2-ab2d-b9bd79f0c1da","ios":"levelo://app?vid=1f22e199-a94b-4cf2-ab2d-b9bd79f0c1da"},"vehicle_type_id":"4","last_reported":1747408181,"current_range_meters":8800,"station_id":"ce4bh3p2rcd13ifvqdp0","pricing_plan_id":"cebpf4jnsgd1na2vs0mg"},{"bike_id":"e64e4484-2db6-41f4-beb8-e0c0ae1263cd","system_id":"levelo_inurba_marseille","lat":43.2853,"lon":5.43033,"is_reserved":false,"is_disabled":false,"rental_uris":{"android":"levelo://app?vid=e64e4484-2db6-41f4-beb8-e0c0ae1263cd","ios":"levelo://app?vid=e64e4484-2db6-41f4-beb8-e0c0ae1263cd"},"vehicle_type_id":"4","last_reported":1747408181,"current_range_meters":9200,"station_id":"","pricing_plan_id":"cebpf4jnsgd1na2vs0mg"},{"bike_id":"f8e4732a-2ecf-431c-8f66-abc7aabb8aa1","system_id":"levelo_inurba_marseille","lat":43.32939,"lon":5.38997,"is_reserved":false,"is_disabled":false,"rental_uris":{"android":"levelo://app?vid=f8e4732a-2ecf-431c-8f66-abc7aabb8aa1","ios":"levelo://app?vid=f8e4732a-2ecf-431c-8f66-abc7aabb8aa1"},"vehicle_type_id":"4","last_reported":1747408181,"current_range_meters":9200,"station_id":"","pricing_plan_id":"cebpf4jnsgd1na2vs0mg"},{"bike_id":"36514c48-35c7-4110-b677-9cbc48951b98","system_id":"levelo_inurba_marseille","lat":43.29939,"lon":5.3654,"is_reserved":false,"is_disabled":false,"rental_uris":{"android":"levelo://app?vid=36514c48-35c7-4110-b677-9cbc48951b98","ios":"levelo://app?vid=36514c48-35c7-4110-b677-9cbc48951b98"},"vehicle_type_id":"4","last_reported":1747408181,"current_range_meters":9200,"station_id":"ce4bgm92rcd13ifvqbr0","pricing_plan_id":"cebpf4jnsgd1na2vs0mg"},{"bike_id":"99ced86d-1bad-4245-8060-1def96be9ff7","system_id":"levelo_inurba_marseille","lat":43.26215,"lon":5.37453,"is_reserved":false,"is_disabled":false,"rental_uris":{"android":"levelo://app?vid=99ced86d-1bad-4245-8060-1def96be9ff7","ios":"levelo://app?vid=99ced86d-1bad-4245-8060-1def96be9ff7"},"vehicle_type_id":"4","last_reported":1747408181,"current_range_meters":9200,"station_id":"ce4bhgp2rcd13ifvqfc0","pricing_plan_id":"cebpf4jnsgd1na2vs0mg"},{"bike_id":"fea4201e-4b4d-4c07-aa6b-854baae46e8d","system_id":"levelo_inurba_marseille","lat":43.2902,"lon":5.38135,"is_reserved":false,"is_disabled":false,"rental_uris":{"android":"levelo://app?vid=fea4201e-4b4d-4c07-aa6b-854baae46e8d","ios":"levelo://app?vid=fea4201e-4b4d-4c07-aa6b-854baae46e8d"},"vehicle_type_id":"4","last_reported":1747408181,"current_range_meters":9200,"station_id":"ce4bh4p2rcd13ifvqe1g","pricing_plan_id":"cebpf4jnsgd1na2vs0mg"},{"bike_id":"4a577646-a8df-420d-92c6-2d86a01e3bb0","system_id":"levelo_inurba_marseille","lat":43.29784,"lon":5.39345,"is_reserved":false,"is_disabled":false,"rental_uris":{"android":"levelo://app?vid=4a577646-a8df-420d-92c6-2d86a01e3bb0","ios":"levelo://app?vid=4a577646-a8df-420d-92c6-2d86a01e3bb0"},"vehicle_type_id":"4","last_reported":1747408181,"current_range_meters":9200,"station_id":"chh1huq6cuj3fo74tm60","pricing_plan_id":"cebpf4jnsgd1na2vs0mg"},{"bike_id":"1ef9f933-fa35-40c6-8e51-1047568d92c0","system_id":"levelo_inurba_marseille","lat":43.24656,"lon":5.38171,"is_reserved":false,"is_disabled":false,"rental_uris":{"android":"levelo://app?vid=1ef9f933-fa35-40c6-8e51-1047568d92c0","ios":"levelo://app?vid=1ef9f933-fa35-40c6-8e51-1047568d92c0"},"vehicle_type_id":"4","last_reported":1747408181,"current_range_meters":9600,"station_id":"ce4bhih2rcd13ifvqfr0","pricing_plan_id":"cebpf4jnsgd1na2vs0mg"},{"bike_id":"bacd5098-f3af-4944-a479-d4f5151aec8f","system_id":"levelo_inurba_marseille","lat":43.281586,"lon":5.426449,"is_reserved":false,"is_disabled":false,"rental_uris":{"android":"levelo://app?vid=bacd5098-f3af-4944-a479-d4f5151aec8f","ios":"levelo://app?vid=bacd5098-f3af-4944-a479-d4f5151aec8f"},"vehicle_type_id":"4","last_reported":1747408181,"current_range_meters":9600,"station_id":"ce4bhnh2rcd13ifvqgug","pricing_plan_id":"cebpf4jnsgd1na2vs0mg"},{"bike_id":"02ae308c-3e2f-4244-97e6-2cea4b443d1a","system_id":"levelo_inurba_marseille","lat":43.31083,"lon":5.42449,"is_reserved":false,"is_disabled":false,"rental_uris":{"android":"levelo://app?vid=02ae308c-3e2f-4244-97e6-2cea4b443d1a","ios":"levelo://app?vid=02ae308c-3e2f-4244-97e6-2cea4b443d1a"},"vehicle_type_id":"4","last_reported":1747408181,"current_range_meters":9600,"station_id":"ce4bhp92rcd13ifvqhag","pricing_plan_id":"cebpf4jnsgd1na2vs0mg"},{"bike_id":"ad67572d-02c8-42b6-9d3f-d6a86f1d4ef9","system_id":"levelo_inurba_marseille","lat":43.30148,"lon":5.39883,"is_reserved":false,"is_disabled":false,"rental_uris":{"android":"levelo://app?vid=ad67572d-02c8-42b6-9d3f-d6a86f1d4ef9","ios":"levelo://app?vid=ad67572d-02c8-42b6-9d3f-d6a86f1d4ef9"},"vehicle_type_id":"4","last_reported":1747408181,"current_range_meters":9600,"station_id":"ce4bh0h2rcd13ifvqd40","pricing_plan_id":"cebpf4jnsgd1na2vs0mg"},{"bike_id":"02288632-79f4-483c-92bd-91cd61a950da","system_id":"levelo_inurba_marseille","lat":43.29669,"lon":5.36147,"is_reserved":false,"is_disabled":false,"rental_uris":{"android":"levelo://app?vid=02288632-79f4-483c-92bd-91cd61a950da","ios":"levelo://app?vid=02288632-79f4-483c-92bd-91cd61a950da"},"vehicle_type_id":"4","last_reported":1747408181,"current_range_meters":9600,"station_id":"","pricing_plan_id":"cebpf4jnsgd1na2vs0mg"},{"bike_id":"16a59c7d-c0e1-473e-bacf-6670c6ae9bbb","system_id":"levelo_inurba_marseille","lat":43.27808,"lon":5.40709,"is_reserved":false,"is_disabled":false,"rental_uris":{"android":"levelo://app?vid=16a59c7d-c0e1-473e-bacf-6670c6ae9bbb","ios":"levelo://app?vid=16a59c7d-c0e1-473e-bacf-6670c6ae9bbb"},"vehicle_type_id":"4","last_reported":1747408181,"current_range_meters":9600,"station_id":"ce4bhnh2rcd13ifvqgtg","pricing_plan_id":"cebpf4jnsgd1na2vs0mg"},{"bike_id":"ef2be074-4dc3-472c-8728-6dd4b87872a3","system_id":"levelo_inurba_marseille","lat":43.303187,"lon":5.40422,"is_reserved":false,"is_disabled":false,"rental_uris":{"android":"levelo://app?vid=ef2be074-4dc3-472c-8728-6dd4b87872a3","ios":"levelo://app?vid=ef2be074-4dc3-472c-8728-6dd4b87872a3"},"vehicle_type_id":"4","last_reported":1747408181,"current_range_meters":9600,"station_id":"ce4bh012rcd13ifvqd10","pricing_plan_id":"cebpf4jnsgd1na2vs0mg"},{"bike_id":"91127f03-7f71-4210-8fa6-da69fdcb4d29","system_id":"levelo_inurba_marseille","lat":43.26032,"lon":5.37549,"is_reserved":false,"is_disabled":false,"rental_uris":{"android":"levelo://app?vid=91127f03-7f71-4210-8fa6-da69fdcb4d29","ios":"levelo://app?vid=91127f03-7f71-4210-8fa6-da69fdcb4d29"},"vehicle_type_id":"4","last_reported":1747408181,"current_range_meters":9600,"station_id":"ce4bhgh2rcd13ifvqfa0","pricing_plan_id":"cebpf4jnsgd1na2vs0mg"},{"bike_id":"c0b9fd4f-e181-46ce-b0bf-f5119973334f","system_id":"levelo_inurba_marseille","lat":43.33771,"lon":5.37424,"is_reserved":false,"is_disabled":false,"rental_uris":{"android":"levelo://app?vid=c0b9fd4f-e181-46ce-b0bf-f5119973334f","ios":"levelo://app?vid=c0b9fd4f-e181-46ce-b0bf-f5119973334f"},"vehicle_type_id":"4","last_reported":1747408181,"current_range_meters":9600,"station_id":"","pricing_plan_id":"cebpf4jnsgd1na2vs0mg"},{"bike_id":"cccc096f-7caf-4736-a932-72006f71ea0f","system_id":"levelo_inurba_marseille","lat":43.28956,"lon":5.36626,"is_reserved":false,"is_disabled":false,"rental_uris":{"android":"levelo://app?vid=cccc096f-7caf-4736-a932-72006f71ea0f","ios":"levelo://app?vid=cccc096f-7caf-4736-a932-72006f71ea0f"},"vehicle_type_id":"4","last_reported":1747408181,"current_range_meters":10000,"station_id":"ce4bhap2rcd13ifvqek0","pricing_plan_id":"cebpf4jnsgd1na2vs0mg"},{"bike_id":"14840cde-cb2f-425a-a53d-0e3063d2ef0b","system_id":"levelo_inurba_marseille","lat":43.30163,"lon":5.38081,"is_reserved":false,"is_disabled":true,"rental_uris":{"android":"levelo://app?vid=14840cde-cb2f-425a-a53d-0e3063d2ef0b","ios":"levelo://app?vid=14840cde-cb2f-425a-a53d-0e3063d2ef0b"},"vehicle_type_id":"4","last_reported":1747408181,"current_range_meters":10000,"station_id":"ce4bgjp2rcd13ifvqbh0","pricing_plan_id":"cebpf4jnsgd1na2vs0mg"},{"bike_id":"e280b851-5adb-4c96-be29-6c8b593d2b9d","system_id":"levelo_inurba_marseille","lat":43.241224,"lon":5.366258,"is_reserved":false,"is_disabled":false,"rental_uris":{"android":"levelo://app?vid=e280b851-5adb-4c96-be29-6c8b593d2b9d","ios":"levelo://app?vid=e280b851-5adb-4c96-be29-6c8b593d2b9d"},"vehicle_type_id":"4","last_reported":1747408181,"current_range_meters":10000,"station_id":"ce4bhi12rcd13ifvqfp0","pricing_plan_id":"cebpf4jnsgd1na2vs0mg"},{"bike_id":"0bed1b00-df0c-4217-9f05-333716e105c1","system_id":"levelo_inurba_marseille","lat":43.32105,"lon":5.36769,"is_reserved":false,"is_disabled":false,"rental_uris":{"android":"levelo://app?vid=0bed1b00-df0c-4217-9f05-333716e105c1","ios":"levelo://app?vid=0bed1b00-df0c-4217-9f05-333716e105c1"},"vehicle_type_id":"4","last_reported":1747408181,"current_range_meters":10000,"station_id":"ce4bhrh2rcd13ifvqhug","pricing_plan_id":"cebpf4jnsgd1na2vs0mg"},{"bike_id":"e0f3423a-8487-43a1-8509-b920477ac0e8","system_id":"levelo_inurba_marseille","lat":43.31486,"lon":5.37306,"is_reserved":false,"is_disabled":false,"rental_uris":{"android":"levelo://app?vid=e0f3423a-8487-43a1-8509-b920477ac0e8","ios":"levelo://app?vid=e0f3423a-8487-43a1-8509-b920477ac0e8"},"vehicle_type_id":"4","last_reported":1747408181,"current_range_meters":10000,"station_id":"ce4bgt12rcd13ifvqcd0","pricing_plan_id":"cebpf4jnsgd1na2vs0mg"},{"bike_id":"57ad4106-bec6-4567-b6e1-d34d6e4e1f50","system_id":"levelo_inurba_marseille","lat":43.28203,"lon":5.35095,"is_reserved":false,"is_disabled":false,"rental_uris":{"android":"levelo://app?vid=57ad4106-bec6-4567-b6e1-d34d6e4e1f50","ios":"levelo://app?vid=57ad4106-bec6-4567-b6e1-d34d6e4e1f50"},"vehicle_type_id":"4","last_reported":1747408181,"current_range_meters":10000,"station_id":"","pricing_plan_id":"cebpf4jnsgd1na2vs0mg"},{"bike_id":"e6800d76-53cc-4bfc-8e60-5700ad995500","system_id":"levelo_inurba_marseille","lat":43.30198,"lon":5.36606,"is_reserved":false,"is_disabled":false,"rental_uris":{"android":"levelo://app?vid=e6800d76-53cc-4bfc-8e60-5700ad995500","ios":"levelo://app?vid=e6800d76-53cc-4bfc-8e60-5700ad995500"},"vehicle_type_id":"4","last_reported":1747408181,"current_range_meters":10000,"station_id":"ce4bgrh2rcd13ifvqc8g","pricing_plan_id":"cebpf4jnsgd1na2vs0mg"},{"bike_id":"b8f2b085-cb30-4043-ae51-90e5e0e44b2d","system_id":"levelo_inurba_marseille","lat":43.27917,"lon":5.39578,"is_reserved":false,"is_disabled":false,"rental_uris":{"android":"levelo://app?vid=b8f2b085-cb30-4043-ae51-90e5e0e44b2d","ios":"levelo://app?vid=b8f2b085-cb30-4043-ae51-90e5e0e44b2d"},"vehicle_type_id":"4","last_reported":1747408181,"current_range_meters":10000,"station_id":"ce4bhf92rcd13ifvqf40","pricing_plan_id":"cebpf4jnsgd1na2vs0mg"},{"bike_id":"45e50061-0d47-48c3-9156-b8194a9855ee","system_id":"levelo_inurba_marseille","lat":43.31168,"lon":5.38724,"is_reserved":false,"is_disabled":false,"rental_uris":{"android":"levelo://app?vid=45e50061-0d47-48c3-9156-b8194a9855ee","ios":"levelo://app?vid=45e50061-0d47-48c3-9156-b8194a9855ee"},"vehicle_type_id":"4","last_reported":1747408181,"current_range_meters":10000,"station_id":"ce4bgv12rcd13ifvqcp0","pricing_plan_id":"cebpf4jnsgd1na2vs0mg"},{"bike_id":"0d75c686-afa2-4da3-b77e-0f77eb664b25","system_id":"levelo_inurba_marseille","lat":43.29542,"lon":5.38549,"is_reserved":false,"is_disabled":false,"rental_uris":{"android":"levelo://app?vid=0d75c686-afa2-4da3-b77e-0f77eb664b25","ios":"levelo://app?vid=0d75c686-afa2-4da3-b77e-0f77eb664b25"},"vehicle_type_id":"4","last_reported":1747408181,"current_range_meters":10800,"station_id":"ce4bgih2rcd13ifvqba0","pricing_plan_id":"cebpf4jnsgd1na2vs0mg"},{"bike_id":"447f12c3-c574-4654-a2ec-ea613a88c5bb","system_id":"levelo_inurba_marseille","lat":43.280798,"lon":5.396514,"is_reserved":false,"is_disabled":false,"rental_uris":{"android":"levelo://app?vid=447f12c3-c574-4654-a2ec-ea613a88c5bb","ios":"levelo://app?vid=447f12c3-c574-4654-a2ec-ea613a88c5bb"},"vehicle_type_id":"4","last_reported":1747408181,"current_range_meters":10000,"station_id":"ce4bho12rcd13ifvqh2g","pricing_plan_id":"cebpf4jnsgd1na2vs0mg"},{"bike_id":"bc791287-0188-424f-80eb-fbcaf0f85bf1","system_id":"levelo_inurba_marseille","lat":43.26235,"lon":5.3743,"is_reserved":false,"is_disabled":false,"rental_uris":{"android":"levelo://app?vid=bc791287-0188-424f-80eb-fbcaf0f85bf1","ios":"levelo://app?vid=bc791287-0188-424f-80eb-fbcaf0f85bf1"},"vehicle_type_id":"4","last_reported":1747408181,"current_range_meters":10800,"station_id":"ce4bhgp2rcd13ifvqfc0","pricing_plan_id":"cebpf4jnsgd1na2vs0mg"},{"bike_id":"9fc18b7c-1e53-4c61-a349-c0f2c5565c31","system_id":"levelo_inurba_marseille","lat":43.28655,"lon":5.38658,"is_reserved":false,"is_disabled":false,"rental_uris":{"android":"levelo://app?vid=9fc18b7c-1e53-4c61-a349-c0f2c5565c31","ios":"levelo://app?vid=9fc18b7c-1e53-4c61-a349-c0f2c5565c31"},"vehicle_type_id":"4","last_reported":1747408181,"current_range_meters":10800,"station_id":"ce4bh492rcd13ifvqdug","pricing_plan_id":"cebpf4jnsgd1na2vs0mg"},{"bike_id":"de027ef3-0a73-4740-a779-bc18616ab8d5","system_id":"levelo_inurba_marseille","lat":43.29799,"lon":5.38089,"is_reserved":false,"is_disabled":false,"rental_uris":{"android":"levelo://app?vid=de027ef3-0a73-4740-a779-bc18616ab8d5","ios":"levelo://app?vid=de027ef3-0a73-4740-a779-bc18616ab8d5"},"vehicle_type_id":"4","last_reported":1747408181,"current_range_meters":10800,"station_id":"ce4bgip2rcd13ifvqbb0","pricing_plan_id":"cebpf4jnsgd1na2vs0mg"},{"bike_id":"a2ea305b-9e84-426c-809f-4cd28f13ede3","system_id":"levelo_inurba_marseille","lat":43.29003,"lon":5.35614,"is_reserved":false,"is_disabled":false,"rental_uris":{"android":"levelo://app?vid=a2ea305b-9e84-426c-809f-4cd28f13ede3","ios":"levelo://app?vid=a2ea305b-9e84-426c-809f-4cd28f13ede3"},"vehicle_type_id":"4","last_reported":1747408181,"current_range_meters":10000,"station_id":"ce4bhb92rcd13ifvqen0","pricing_plan_id":"cebpf4jnsgd1na2vs0mg"},{"bike_id":"c5b6c937-a53a-4f37-af1d-491c28f70c79","system_id":"levelo_inurba_marseille","lat":43.29527,"lon":5.37441,"is_reserved":false,"is_disabled":false,"rental_uris":{"android":"levelo://app?vid=c5b6c937-a53a-4f37-af1d-491c28f70c79","ios":"levelo://app?vid=c5b6c937-a53a-4f37-af1d-491c28f70c79"},"vehicle_type_id":"4","last_reported":1747408181,"current_range_meters":10800,"station_id":"ce4bgkp2rcd13ifvqbmg","pricing_plan_id":"cebpf4jnsgd1na2vs0mg"},{"bike_id":"a488853e-8708-42f9-a9f1-40f4dc62e03d","system_id":"levelo_inurba_marseille","lat":43.30517,"lon":5.37371,"is_reserved":false,"is_disabled":false,"rental_uris":{"android":"levelo://app?vid=a488853e-8708-42f9-a9f1-40f4dc62e03d","ios":"levelo://app?vid=a488853e-8708-42f9-a9f1-40f4dc62e03d"},"vehicle_type_id":"4","last_reported":1747408181,"current_range_meters":10800,"station_id":"","pricing_plan_id":"cebpf4jnsgd1na2vs0mg"},{"bike_id":"a1c4178e-3aca-43b4-882a-2d393377219e","system_id":"levelo_inurba_marseille","lat":43.27174,"lon":5.40989,"is_reserved":false,"is_disabled":false,"rental_uris":{"android":"levelo://app?vid=a1c4178e-3aca-43b4-882a-2d393377219e","ios":"levelo://app?vid=a1c4178e-3aca-43b4-882a-2d393377219e"},"vehicle_type_id":"4","last_reported":1747408181,"current_range_meters":10800,"station_id":"ce4bhl12rcd13ifvqgf0","pricing_plan_id":"cebpf4jnsgd1na2vs0mg"},{"bike_id":"b0a37e81-adb9-4922-bf5b-b6b0fec249b8","system_id":"levelo_inurba_marseille","lat":43.33469,"lon":5.40051,"is_reserved":false,"is_disabled":false,"rental_uris":{"android":"levelo://app?vid=b0a37e81-adb9-4922-bf5b-b6b0fec249b8","ios":"levelo://app?vid=b0a37e81-adb9-4922-bf5b-b6b0fec249b8"},"vehicle_type_id":"4","last_reported":1747408181,"current_range_meters":10800,"station_id":"","pricing_plan_id":"cebpf4jnsgd1na2vs0mg"},{"bike_id":"36b195d0-0803-47d9-aef2-0a7f7a1b07fc","system_id":"levelo_inurba_marseille","lat":43.30154,"lon":5.3807,"is_reserved":false,"is_disabled":false,"rental_uris":{"android":"levelo://app?vid=36b195d0-0803-47d9-aef2-0a7f7a1b07fc","ios":"levelo://app?vid=36b195d0-0803-47d9-aef2-0a7f7a1b07fc"},"vehicle_type_id":"4","last_reported":1747408181,"current_range_meters":11200,"station_id":"ce4bgjp2rcd13ifvqbh0","pricing_plan_id":"cebpf4jnsgd1na2vs0mg"},{"bike_id":"3b890833-daa7-4bae-b7a0-8b1637bd75f6","system_id":"levelo_inurba_marseille","lat":43.261194,"lon":5.414875,"is_reserved":false,"is_disabled":false,"rental_uris":{"android":"levelo://app?vid=3b890833-daa7-4bae-b7a0-8b1637bd75f6","ios":"levelo://app?vid=3b890833-daa7-4bae-b7a0-8b1637bd75f6"},"vehicle_type_id":"4","last_reported":1747408181,"current_range_meters":11200,"station_id":"","pricing_plan_id":"cebpf4jnsgd1na2vs0mg"},{"bike_id":"6ee3d99e-cd75-4dcc-875f-694de52544ea","system_id":"levelo_inurba_marseille","lat":43.29002,"lon":5.35611,"is_reserved":false,"is_disabled":false,"rental_uris":{"android":"levelo://app?vid=6ee3d99e-cd75-4dcc-875f-694de52544ea","ios":"levelo://app?vid=6ee3d99e-cd75-4dcc-875f-694de52544ea"},"vehicle_type_id":"4","last_reported":1747408181,"current_range_meters":11200,"station_id":"ce4bhb92rcd13ifvqen0","pricing_plan_id":"cebpf4jnsgd1na2vs0mg"},{"bike_id":"95b117cb-ae1c-461b-b89a-333124734f9c","system_id":"levelo_inurba_marseille","lat":43.31406,"lon":5.38537,"is_reserved":false,"is_disabled":false,"rental_uris":{"android":"levelo://app?vid=95b117cb-ae1c-461b-b89a-333124734f9c","ios":"levelo://app?vid=95b117cb-ae1c-461b-b89a-333124734f9c"},"vehicle_type_id":"4","last_reported":1747408181,"current_range_meters":11200,"station_id":"","pricing_plan_id":"cebpf4jnsgd1na2vs0mg"},{"bike_id":"d8b71de5-5277-4880-9932-b9e32bcfbb02","system_id":"levelo_inurba_marseille","lat":43.31082,"lon":5.42429,"is_reserved":false,"is_disabled":false,"rental_uris":{"android":"levelo://app?vid=d8b71de5-5277-4880-9932-b9e32bcfbb02","ios":"levelo://app?vid=d8b71de5-5277-4880-9932-b9e32bcfbb02"},"vehicle_type_id":"4","last_reported":1747408181,"current_range_meters":11600,"station_id":"ce4bhp92rcd13ifvqhag","pricing_plan_id":"cebpf4jnsgd1na2vs0mg"},{"bike_id":"a12ce63f-e089-487a-88c8-57eae2ec45dc","system_id":"levelo_inurba_marseille","lat":43.28039,"lon":5.36946,"is_reserved":false,"is_disabled":false,"rental_uris":{"android":"levelo://app?vid=a12ce63f-e089-487a-88c8-57eae2ec45dc","ios":"levelo://app?vid=a12ce63f-e089-487a-88c8-57eae2ec45dc"},"vehicle_type_id":"4","last_reported":1747408181,"current_range_meters":11600,"station_id":"ce4bha12rcd13ifvqef0","pricing_plan_id":"cebpf4jnsgd1na2vs0mg"},{"bike_id":"069861d6-2772-4672-8c53-85152ee7a5ed","system_id":"levelo_inurba_marseille","lat":43.27375,"lon":5.36257,"is_reserved":false,"is_disabled":false,"rental_uris":{"android":"levelo://app?vid=069861d6-2772-4672-8c53-85152ee7a5ed","ios":"levelo://app?vid=069861d6-2772-4672-8c53-85152ee7a5ed"},"vehicle_type_id":"4","last_reported":1747408181,"current_range_meters":11600,"station_id":"ce4bhbh2rcd13ifvqeo0","pricing_plan_id":"cebpf4jnsgd1na2vs0mg"},{"bike_id":"621db7da-b18f-411b-adbe-5c337dd2dfd9","system_id":"levelo_inurba_marseille","lat":43.31367,"lon":5.38492,"is_reserved":false,"is_disabled":false,"rental_uris":{"android":"levelo://app?vid=621db7da-b18f-411b-adbe-5c337dd2dfd9","ios":"levelo://app?vid=621db7da-b18f-411b-adbe-5c337dd2dfd9"},"vehicle_type_id":"4","last_reported":1747408181,"current_range_meters":11600,"station_id":"ce4bgt92rcd13ifvqcf0","pricing_plan_id":"cebpf4jnsgd1na2vs0mg"},{"bike_id":"f7d25dc8-a8dc-458e-b218-0a83bc2e05ad","system_id":"levelo_inurba_marseille","lat":43.291382,"lon":5.405094,"is_reserved":false,"is_disabled":false,"rental_uris":{"android":"levelo://app?vid=f7d25dc8-a8dc-458e-b218-0a83bc2e05ad","ios":"levelo://app?vid=f7d25dc8-a8dc-458e-b218-0a83bc2e05ad"},"vehicle_type_id":"4","last_reported":1747408181,"current_range_meters":12000,"station_id":"ce4bhpp2rcd13ifvqhgg","pricing_plan_id":"cebpf4jnsgd1na2vs0mg"},{"bike_id":"075e3603-490d-42a5-89f2-da16f6a7e78e","system_id":"levelo_inurba_marseille","lat":43.260289,"lon":5.375465,"is_reserved":false,"is_disabled":false,"rental_uris":{"android":"levelo://app?vid=075e3603-490d-42a5-89f2-da16f6a7e78e","ios":"levelo://app?vid=075e3603-490d-42a5-89f2-da16f6a7e78e"},"vehicle_type_id":"4","last_reported":1747408181,"current_range_meters":11600,"station_id":"ce4bhgh2rcd13ifvqfa0","pricing_plan_id":"cebpf4jnsgd1na2vs0mg"},{"bike_id":"0103d693-0c6b-48e9-b57c-05c24ce28db3","system_id":"levelo_inurba_marseille","lat":43.29566,"lon":5.38563,"is_reserved":false,"is_disabled":false,"rental_uris":{"android":"levelo://app?vid=0103d693-0c6b-48e9-b57c-05c24ce28db3","ios":"levelo://app?vid=0103d693-0c6b-48e9-b57c-05c24ce28db3"},"vehicle_type_id":"4","last_reported":1747408181,"current_range_meters":12000,"station_id":"ce4bgih2rcd13ifvqba0","pricing_plan_id":"cebpf4jnsgd1na2vs0mg"},{"bike_id":"5cf74a5b-3237-4306-8708-835ce896cf40","system_id":"levelo_inurba_marseille","lat":43.32002,"lon":5.38162,"is_reserved":false,"is_disabled":false,"rental_uris":{"android":"levelo://app?vid=5cf74a5b-3237-4306-8708-835ce896cf40","ios":"levelo://app?vid=5cf74a5b-3237-4306-8708-835ce896cf40"},"vehicle_type_id":"4","last_reported":1747408181,"current_range_meters":12000,"station_id":"ce4bhr12rcd13ifvqhpg","pricing_plan_id":"cebpf4jnsgd1na2vs0mg"},{"bike_id":"8a61a1bc-5a2c-4409-b911-e09287002183","system_id":"levelo_inurba_marseille","lat":43.31028,"lon":5.37922,"is_reserved":false,"is_disabled":false,"rental_uris":{"android":"levelo://app?vid=8a61a1bc-5a2c-4409-b911-e09287002183","ios":"levelo://app?vid=8a61a1bc-5a2c-4409-b911-e09287002183"},"vehicle_type_id":"4","last_reported":1747408181,"current_range_meters":12000,"station_id":"","pricing_plan_id":"cebpf4jnsgd1na2vs0mg"},{"bike_id":"1bc4f5e2-98f5-46de-b6a4-d9a4869313cc","system_id":"levelo_inurba_marseille","lat":43.28155,"lon":5.42641,"is_reserved":false,"is_disabled":false,"rental_uris":{"android":"levelo://app?vid=1bc4f5e2-98f5-46de-b6a4-d9a4869313cc","ios":"levelo://app?vid=1bc4f5e2-98f5-46de-b6a4-d9a4869313cc"},"vehicle_type_id":"4","last_reported":1747408181,"current_range_meters":12000,"station_id":"ce4bhnh2rcd13ifvqgug","pricing_plan_id":"cebpf4jnsgd1na2vs0mg"},{"bike_id":"7bd1b450-fa57-440d-80b2-f209f631a3a2","system_id":"levelo_inurba_marseille","lat":43.26942,"lon":5.40251,"is_reserved":false,"is_disabled":false,"rental_uris":{"android":"levelo://app?vid=7bd1b450-fa57-440d-80b2-f209f631a3a2","ios":"levelo://app?vid=7bd1b450-fa57-440d-80b2-f209f631a3a2"},"vehicle_type_id":"4","last_reported":1747408181,"current_range_meters":12400,"station_id":"","pricing_plan_id":"cebpf4jnsgd1na2vs0mg"},{"bike_id":"2e709942-6161-4f1a-8c47-c5a2fddaa387","system_id":"levelo_inurba_marseille","lat":43.274791,"lon":5.424421,"is_reserved":false,"is_disabled":false,"rental_uris":{"android":"levelo://app?vid=2e709942-6161-4f1a-8c47-c5a2fddaa387","ios":"levelo://app?vid=2e709942-6161-4f1a-8c47-c5a2fddaa387"},"vehicle_type_id":"4","last_reported":1747408181,"current_range_meters":12400,"station_id":"ce4bhn92rcd13ifvqgrg","pricing_plan_id":"cebpf4jnsgd1na2vs0mg"},{"bike_id":"b6197093-0577-49b2-9f2d-3c0e535fe866","system_id":"levelo_inurba_marseille","lat":43.25503,"lon":5.37647,"is_reserved":false,"is_disabled":false,"rental_uris":{"android":"levelo://app?vid=b6197093-0577-49b2-9f2d-3c0e535fe866","ios":"levelo://app?vid=b6197093-0577-49b2-9f2d-3c0e535fe866"},"vehicle_type_id":"4","last_reported":1747408181,"current_range_meters":12400,"station_id":"ce4bhh12rcd13ifvqff0","pricing_plan_id":"cebpf4jnsgd1na2vs0mg"},{"bike_id":"f7c31dd2-47f7-46c3-a769-ecda17b690c7","system_id":"levelo_inurba_marseille","lat":43.31347,"lon":5.36726,"is_reserved":false,"is_disabled":true,"rental_uris":{"android":"levelo://app?vid=f7c31dd2-47f7-46c3-a769-ecda17b690c7","ios":"levelo://app?vid=f7c31dd2-47f7-46c3-a769-ecda17b690c7"},"vehicle_type_id":"4","last_reported":1747408181,"current_range_meters":12800,"station_id":"ce4bgr92rcd13ifvqc6g","pricing_plan_id":"cebpf4jnsgd1na2vs0mg"},{"bike_id":"248354d9-319a-4fda-a327-9b1e5e28cf99","system_id":"levelo_inurba_marseille","lat":43.29519,"lon":5.37501,"is_reserved":false,"is_disabled":true,"rental_uris":{"android":"levelo://app?vid=248354d9-319a-4fda-a327-9b1e5e28cf99","ios":"levelo://app?vid=248354d9-319a-4fda-a327-9b1e5e28cf99"},"vehicle_type_id":"4","last_reported":1747408181,"current_range_meters":12800,"station_id":"ce4bgkp2rcd13ifvqbmg","pricing_plan_id":"cebpf4jnsgd1na2vs0mg"},{"bike_id":"cf48397c-9ce2-4759-8759-3c9434106a1e","system_id":"levelo_inurba_marseille","lat":43.30925,"lon":5.40145,"is_reserved":false,"is_disabled":false,"rental_uris":{"android":"levelo://app?vid=cf48397c-9ce2-4759-8759-3c9434106a1e","ios":"levelo://app?vid=cf48397c-9ce2-4759-8759-3c9434106a1e"},"vehicle_type_id":"4","last_reported":1747408181,"current_range_meters":13600,"station_id":"ce4bgvp2rcd13ifvqct0","pricing_plan_id":"cebpf4jnsgd1na2vs0mg"},{"bike_id":"78db8e7f-1c73-4851-b36e-c372ce084c30","system_id":"levelo_inurba_marseille","lat":43.29803,"lon":5.39359,"is_reserved":false,"is_disabled":false,"rental_uris":{"android":"levelo://app?vid=78db8e7f-1c73-4851-b36e-c372ce084c30","ios":"levelo://app?vid=78db8e7f-1c73-4851-b36e-c372ce084c30"},"vehicle_type_id":"4","last_reported":1747408181,"current_range_meters":12400,"station_id":"chh1huq6cuj3fo74tm60","pricing_plan_id":"cebpf4jnsgd1na2vs0mg"},{"bike_id":"58da51fb-2fa0-4536-8a94-2602dcce48e2","system_id":"levelo_inurba_marseille","lat":43.25876,"lon":5.39896,"is_reserved":false,"is_disabled":false,"rental_uris":{"android":"levelo://app?vid=58da51fb-2fa0-4536-8a94-2602dcce48e2","ios":"levelo://app?vid=58da51fb-2fa0-4536-8a94-2602dcce48e2"},"vehicle_type_id":"4","last_reported":1747408181,"current_range_meters":12800,"station_id":"ce4bhl92rcd13ifvqghg","pricing_plan_id":"cebpf4jnsgd1na2vs0mg"},{"bike_id":"fc48c643-706b-47c0-8c25-5ccd807aa56d","system_id":"levelo_inurba_marseille","lat":43.29006,"lon":5.35607,"is_reserved":false,"is_disabled":false,"rental_uris":{"android":"levelo://app?vid=fc48c643-706b-47c0-8c25-5ccd807aa56d","ios":"levelo://app?vid=fc48c643-706b-47c0-8c25-5ccd807aa56d"},"vehicle_type_id":"4","last_reported":1747408181,"current_range_meters":12800,"station_id":"ce4bhb92rcd13ifvqen0","pricing_plan_id":"cebpf4jnsgd1na2vs0mg"},{"bike_id":"4c50a1f4-9b8f-4402-81a6-4b92fac2f424","system_id":"levelo_inurba_marseille","lat":43.32362,"lon":5.36717,"is_reserved":false,"is_disabled":false,"rental_uris":{"android":"levelo://app?vid=4c50a1f4-9b8f-4402-81a6-4b92fac2f424","ios":"levelo://app?vid=4c50a1f4-9b8f-4402-81a6-4b92fac2f424"},"vehicle_type_id":"4","last_reported":1747408181,"current_range_meters":13600,"station_id":"ce4bhsh2rcd13ifvqi2g","pricing_plan_id":"cebpf4jnsgd1na2vs0mg"},{"bike_id":"da013c9a-636c-40e9-a748-0579388e1f66","system_id":"levelo_inurba_marseille","lat":43.28615,"lon":5.35099,"is_reserved":false,"is_disabled":false,"rental_uris":{"android":"levelo://app?vid=da013c9a-636c-40e9-a748-0579388e1f66","ios":"levelo://app?vid=da013c9a-636c-40e9-a748-0579388e1f66"},"vehicle_type_id":"4","last_reported":1747408181,"current_range_meters":13600,"station_id":"ce4bhch2rcd13ifvqeug","pricing_plan_id":"cebpf4jnsgd1na2vs0mg"},{"bike_id":"a18cef3a-d984-4ea6-833a-9b6047a6f3e8","system_id":"levelo_inurba_marseille","lat":43.29711,"lon":5.37698,"is_reserved":false,"is_disabled":false,"rental_uris":{"android":"levelo://app?vid=a18cef3a-d984-4ea6-833a-9b6047a6f3e8","ios":"levelo://app?vid=a18cef3a-d984-4ea6-833a-9b6047a6f3e8"},"vehicle_type_id":"4","last_reported":1747408181,"current_range_meters":12800,"station_id":"ce4bgkh2rcd13ifvqbl0","pricing_plan_id":"cebpf4jnsgd1na2vs0mg"},{"bike_id":"2c77bef1-e696-479d-af72-094c9e23a64d","system_id":"levelo_inurba_marseille","lat":43.28944,"lon":5.36397,"is_reserved":false,"is_disabled":false,"rental_uris":{"android":"levelo://app?vid=2c77bef1-e696-479d-af72-094c9e23a64d","ios":"levelo://app?vid=2c77bef1-e696-479d-af72-094c9e23a64d"},"vehicle_type_id":"4","last_reported":1747408181,"current_range_meters":13600,"station_id":"ce4bhc92rcd13ifvqetg","pricing_plan_id":"cebpf4jnsgd1na2vs0mg"},{"bike_id":"6b9fe0a5-ce68-44d8-9328-58e9ff0f5eca","system_id":"levelo_inurba_marseille","lat":43.27841,"lon":5.39219,"is_reserved":false,"is_disabled":false,"rental_uris":{"android":"levelo://app?vid=6b9fe0a5-ce68-44d8-9328-58e9ff0f5eca","ios":"levelo://app?vid=6b9fe0a5-ce68-44d8-9328-58e9ff0f5eca"},"vehicle_type_id":"4","last_reported":1747408181,"current_range_meters":13600,"station_id":"ce4bhjp2rcd13ifvqga0","pricing_plan_id":"cebpf4jnsgd1na2vs0mg"},{"bike_id":"7fbe7819-bc20-4a35-8e52-5fe4291071a5","system_id":"levelo_inurba_marseille","lat":43.28267,"lon":5.35072,"is_reserved":false,"is_disabled":false,"rental_uris":{"android":"levelo://app?vid=7fbe7819-bc20-4a35-8e52-5fe4291071a5","ios":"levelo://app?vid=7fbe7819-bc20-4a35-8e52-5fe4291071a5"},"vehicle_type_id":"4","last_reported":1747408181,"current_range_meters":12800,"station_id":"ce4bhbp2rcd13ifvqerg","pricing_plan_id":"cebpf4jnsgd1na2vs0mg"},{"bike_id":"b976aafd-cc04-481d-a946-f2c7fc78270b","system_id":"levelo_inurba_marseille","lat":43.31402,"lon":5.36741,"is_reserved":false,"is_disabled":false,"rental_uris":{"android":"levelo://app?vid=b976aafd-cc04-481d-a946-f2c7fc78270b","ios":"levelo://app?vid=b976aafd-cc04-481d-a946-f2c7fc78270b"},"vehicle_type_id":"4","last_reported":1747408181,"current_range_meters":14000,"station_id":"ce4bgr92rcd13ifvqc6g","pricing_plan_id":"cebpf4jnsgd1na2vs0mg"},{"bike_id":"d6f53fa7-418d-4f68-8509-5731690eb23a","system_id":"levelo_inurba_marseille","lat":43.318207,"lon":5.388552,"is_reserved":false,"is_disabled":false,"rental_uris":{"android":"levelo://app?vid=d6f53fa7-418d-4f68-8509-5731690eb23a","ios":"levelo://app?vid=d6f53fa7-418d-4f68-8509-5731690eb23a"},"vehicle_type_id":"4","last_reported":1747408181,"current_range_meters":14000,"station_id":"","pricing_plan_id":"cebpf4jnsgd1na2vs0mg"},{"bike_id":"3a6b43b1-a0cf-4721-9cba-759a3ccaf3a3","system_id":"levelo_inurba_marseille","lat":43.28156,"lon":5.4264,"is_reserved":false,"is_disabled":false,"rental_uris":{"android":"levelo://app?vid=3a6b43b1-a0cf-4721-9cba-759a3ccaf3a3","ios":"levelo://app?vid=3a6b43b1-a0cf-4721-9cba-759a3ccaf3a3"},"vehicle_type_id":"4","last_reported":1747408181,"current_range_meters":14000,"station_id":"ce4bhnh2rcd13ifvqgug","pricing_plan_id":"cebpf4jnsgd1na2vs0mg"},{"bike_id":"8f600fbf-ec68-4624-9822-6cce2bd50be5","system_id":"levelo_inurba_marseille","lat":43.32549,"lon":5.43248,"is_reserved":false,"is_disabled":false,"rental_uris":{"android":"levelo://app?vid=8f600fbf-ec68-4624-9822-6cce2bd50be5","ios":"levelo://app?vid=8f600fbf-ec68-4624-9822-6cce2bd50be5"},"vehicle_type_id":"4","last_reported":1747408181,"current_range_meters":14400,"station_id":"","pricing_plan_id":"cebpf4jnsgd1na2vs0mg"},{"bike_id":"08c41e24-c8a6-4f83-aac4-f77e8e318916","system_id":"levelo_inurba_marseille","lat":43.30325,"lon":5.40448,"is_reserved":false,"is_disabled":false,"rental_uris":{"android":"levelo://app?vid=08c41e24-c8a6-4f83-aac4-f77e8e318916","ios":"levelo://app?vid=08c41e24-c8a6-4f83-aac4-f77e8e318916"},"vehicle_type_id":"4","last_reported":1747408181,"current_range_meters":14400,"station_id":"ce4bh012rcd13ifvqd10","pricing_plan_id":"cebpf4jnsgd1na2vs0mg"},{"bike_id":"132235e0-628c-4b73-abf6-6afce001326b","system_id":"levelo_inurba_marseille","lat":43.30151,"lon":5.38785,"is_reserved":false,"is_disabled":false,"rental_uris":{"android":"levelo://app?vid=132235e0-628c-4b73-abf6-6afce001326b","ios":"levelo://app?vid=132235e0-628c-4b73-abf6-6afce001326b"},"vehicle_type_id":"4","last_reported":1747408181,"current_range_meters":14400,"station_id":"ce4bghh2rcd13ifvqb60","pricing_plan_id":"cebpf4jnsgd1na2vs0mg"},{"bike_id":"b8f48a03-1b3c-4f41-b74c-2b637af725d5","system_id":"levelo_inurba_marseille","lat":43.30417,"lon":5.39772,"is_reserved":false,"is_disabled":true,"rental_uris":{"android":"levelo://app?vid=b8f48a03-1b3c-4f41-b74c-2b637af725d5","ios":"levelo://app?vid=b8f48a03-1b3c-4f41-b74c-2b637af725d5"},"vehicle_type_id":"4","last_reported":1747408181,"current_range_meters":14400,"station_id":"ce4bh092rcd13ifvqd20","pricing_plan_id":"cebpf4jnsgd1na2vs0mg"},{"bike_id":"f495968d-d982-4514-ab98-db984cf03219","system_id":"levelo_inurba_marseille","lat":43.314189,"lon":5.383205,"is_reserved":false,"is_disabled":false,"rental_uris":{"android":"levelo://app?vid=f495968d-d982-4514-ab98-db984cf03219","ios":"levelo://app?vid=f495968d-d982-4514-ab98-db984cf03219"},"vehicle_type_id":"4","last_reported":1747408181,"current_range_meters":14800,"station_id":"","pricing_plan_id":"cebpf4jnsgd1na2vs0mg"},{"bike_id":"3f24c26b-95c5-45ae-b7b1-71681ada0d99","system_id":"levelo_inurba_marseille","lat":43.273324,"lon":5.423466,"is_reserved":false,"is_disabled":false,"rental_uris":{"android":"levelo://app?vid=3f24c26b-95c5-45ae-b7b1-71681ada0d99","ios":"levelo://app?vid=3f24c26b-95c5-45ae-b7b1-71681ada0d99"},"vehicle_type_id":"4","last_reported":1747408181,"current_range_meters":14800,"station_id":"ce4bgv92rcd13ifvqcq0","pricing_plan_id":"cebpf4jnsgd1na2vs0mg"},{"bike_id":"68a8179b-b6cf-4a39-ac50-2519c2588a6b","system_id":"levelo_inurba_marseille","lat":43.28915,"lon":5.36388,"is_reserved":false,"is_disabled":false,"rental_uris":{"android":"levelo://app?vid=68a8179b-b6cf-4a39-ac50-2519c2588a6b","ios":"levelo://app?vid=68a8179b-b6cf-4a39-ac50-2519c2588a6b"},"vehicle_type_id":"4","last_reported":1747408181,"current_range_meters":14800,"station_id":"ce4bhc92rcd13ifvqetg","pricing_plan_id":"cebpf4jnsgd1na2vs0mg"},{"bike_id":"1904825b-eeba-4ad0-b7a3-9d70eb98af46","system_id":"levelo_inurba_marseille","lat":43.26027,"lon":5.37547,"is_reserved":false,"is_disabled":false,"rental_uris":{"android":"levelo://app?vid=1904825b-eeba-4ad0-b7a3-9d70eb98af46","ios":"levelo://app?vid=1904825b-eeba-4ad0-b7a3-9d70eb98af46"},"vehicle_type_id":"4","last_reported":1747408181,"current_range_meters":14400,"station_id":"ce4bhgh2rcd13ifvqfa0","pricing_plan_id":"cebpf4jnsgd1na2vs0mg"},{"bike_id":"8a95ab1f-094c-450a-83ba-3074e1e8ff8c","system_id":"levelo_inurba_marseille","lat":43.27564,"lon":5.38424,"is_reserved":false,"is_disabled":false,"rental_uris":{"android":"levelo://app?vid=8a95ab1f-094c-450a-83ba-3074e1e8ff8c","ios":"levelo://app?vid=8a95ab1f-094c-450a-83ba-3074e1e8ff8c"},"vehicle_type_id":"4","last_reported":1747408181,"current_range_meters":14800,"station_id":"ce4bhh92rcd13ifvqfi0","pricing_plan_id":"cebpf4jnsgd1na2vs0mg"},{"bike_id":"5152365d-aa65-4302-8450-2a7b7996c1b5","system_id":"levelo_inurba_marseille","lat":43.30135,"lon":5.3808,"is_reserved":false,"is_disabled":false,"rental_uris":{"android":"levelo://app?vid=5152365d-aa65-4302-8450-2a7b7996c1b5","ios":"levelo://app?vid=5152365d-aa65-4302-8450-2a7b7996c1b5"},"vehicle_type_id":"4","last_reported":1747408181,"current_range_meters":14800,"station_id":"ce4bgjp2rcd13ifvqbh0","pricing_plan_id":"cebpf4jnsgd1na2vs0mg"},{"bike_id":"7673f08b-ac9e-4a96-9d1a-1911e62c1fe7","system_id":"levelo_inurba_marseille","lat":43.31333,"lon":5.36973,"is_reserved":false,"is_disabled":false,"rental_uris":{"android":"levelo://app?vid=7673f08b-ac9e-4a96-9d1a-1911e62c1fe7","ios":"levelo://app?vid=7673f08b-ac9e-4a96-9d1a-1911e62c1fe7"},"vehicle_type_id":"4","last_reported":1747408181,"current_range_meters":14800,"station_id":"","pricing_plan_id":"cebpf4jnsgd1na2vs0mg"},{"bike_id":"da4efa02-9ca3-49e8-8a31-d01103e7b427","system_id":"levelo_inurba_marseille","lat":43.30421,"lon":5.41281,"is_reserved":false,"is_disabled":false,"rental_uris":{"android":"levelo://app?vid=da4efa02-9ca3-49e8-8a31-d01103e7b427","ios":"levelo://app?vid=da4efa02-9ca3-49e8-8a31-d01103e7b427"},"vehicle_type_id":"4","last_reported":1747408181,"current_range_meters":15200,"station_id":"ce4bhop2rcd13ifvqh8g","pricing_plan_id":"cebpf4jnsgd1na2vs0mg"},{"bike_id":"bdd7e7f2-8790-403e-a15f-27ffbb6eb68b","system_id":"levelo_inurba_marseille","lat":43.29979,"lon":5.37185,"is_reserved":false,"is_disabled":false,"rental_uris":{"android":"levelo://app?vid=bdd7e7f2-8790-403e-a15f-27ffbb6eb68b","ios":"levelo://app?vid=bdd7e7f2-8790-403e-a15f-27ffbb6eb68b"},"vehicle_type_id":"4","last_reported":1747408181,"current_range_meters":14800,"station_id":"ce4bgr92rcd13ifvqc7g","pricing_plan_id":"cebpf4jnsgd1na2vs0mg"},{"bike_id":"93ebbc36-fcee-48fd-b11e-f7708212c28f","system_id":"levelo_inurba_marseille","lat":43.24069,"lon":5.37766,"is_reserved":false,"is_disabled":false,"rental_uris":{"android":"levelo://app?vid=93ebbc36-fcee-48fd-b11e-f7708212c28f","ios":"levelo://app?vid=93ebbc36-fcee-48fd-b11e-f7708212c28f"},"vehicle_type_id":"4","last_reported":1747408181,"current_range_meters":15200,"station_id":"ce4bhnp2rcd13ifvqgvg","pricing_plan_id":"cebpf4jnsgd1na2vs0mg"},{"bike_id":"78f0af89-6ad3-4aad-b42e-b02cd8dab449","system_id":"levelo_inurba_marseille","lat":43.29877,"lon":5.38902,"is_reserved":false,"is_disabled":false,"rental_uris":{"android":"levelo://app?vid=78f0af89-6ad3-4aad-b42e-b02cd8dab449","ios":"levelo://app?vid=78f0af89-6ad3-4aad-b42e-b02cd8dab449"},"vehicle_type_id":"4","last_reported":1747408181,"current_range_meters":14800,"station_id":"ce4bh392rcd13ifvqdl0","pricing_plan_id":"cebpf4jnsgd1na2vs0mg"},{"bike_id":"0600ed6e-9cee-4572-a2dc-0a9c92a9ec3d","system_id":"levelo_inurba_marseille","lat":43.25578,"lon":5.38226,"is_reserved":false,"is_disabled":false,"rental_uris":{"android":"levelo://app?vid=0600ed6e-9cee-4572-a2dc-0a9c92a9ec3d","ios":"levelo://app?vid=0600ed6e-9cee-4572-a2dc-0a9c92a9ec3d"},"vehicle_type_id":"4","last_reported":1747408181,"current_range_meters":14800,"station_id":"ce4bhih2rcd13ifvqfs0","pricing_plan_id":"cebpf4jnsgd1na2vs0mg"},{"bike_id":"5c92aa35-d12e-44e8-aa21-0f3a380b5b8b","system_id":"levelo_inurba_marseille","lat":43.24662,"lon":5.38161,"is_reserved":false,"is_disabled":false,"rental_uris":{"android":"levelo://app?vid=5c92aa35-d12e-44e8-aa21-0f3a380b5b8b","ios":"levelo://app?vid=5c92aa35-d12e-44e8-aa21-0f3a380b5b8b"},"vehicle_type_id":"4","last_reported":1747408181,"current_range_meters":15200,"station_id":"ce4bhih2rcd13ifvqfr0","pricing_plan_id":"cebpf4jnsgd1na2vs0mg"},{"bike_id":"8f203bad-e196-4ff3-9f96-ca1bbbd3f93a","system_id":"levelo_inurba_marseille","lat":43.27914,"lon":5.39579,"is_reserved":false,"is_disabled":false,"rental_uris":{"android":"levelo://app?vid=8f203bad-e196-4ff3-9f96-ca1bbbd3f93a","ios":"levelo://app?vid=8f203bad-e196-4ff3-9f96-ca1bbbd3f93a"},"vehicle_type_id":"4","last_reported":1747408181,"current_range_meters":16000,"station_id":"ce4bhf92rcd13ifvqf40","pricing_plan_id":"cebpf4jnsgd1na2vs0mg"},{"bike_id":"a0dd726d-ad01-42c6-ad84-b3c4b1ddcbff","system_id":"levelo_inurba_marseille","lat":43.32344,"lon":5.40614,"is_reserved":false,"is_disabled":false,"rental_uris":{"android":"levelo://app?vid=a0dd726d-ad01-42c6-ad84-b3c4b1ddcbff","ios":"levelo://app?vid=a0dd726d-ad01-42c6-ad84-b3c4b1ddcbff"},"vehicle_type_id":"4","last_reported":1747408181,"current_range_meters":16000,"station_id":"ce4bhq92rcd13ifvqhjg","pricing_plan_id":"cebpf4jnsgd1na2vs0mg"},{"bike_id":"6da655b8-0421-4e8a-ae32-6637af746f6a","system_id":"levelo_inurba_marseille","lat":43.26843,"lon":5.41122,"is_reserved":false,"is_disabled":false,"rental_uris":{"android":"levelo://app?vid=6da655b8-0421-4e8a-ae32-6637af746f6a","ios":"levelo://app?vid=6da655b8-0421-4e8a-ae32-6637af746f6a"},"vehicle_type_id":"4","last_reported":1747408181,"current_range_meters":16000,"station_id":"","pricing_plan_id":"cebpf4jnsgd1na2vs0mg"},{"bike_id":"43cb0738-edb6-4b59-a73d-cb3500b6167c","system_id":"levelo_inurba_marseille","lat":43.29904,"lon":5.37475,"is_reserved":false,"is_disabled":false,"rental_uris":{"android":"levelo://app?vid=43cb0738-edb6-4b59-a73d-cb3500b6167c","ios":"levelo://app?vid=43cb0738-edb6-4b59-a73d-cb3500b6167c"},"vehicle_type_id":"4","last_reported":1747408181,"current_range_meters":16000,"station_id":"ce4bgjh2rcd13ifvqbg0","pricing_plan_id":"cebpf4jnsgd1na2vs0mg"},{"bike_id":"16e1ba08-3afb-4836-86f8-64ba626765cd","system_id":"levelo_inurba_marseille","lat":43.26562,"lon":5.37315,"is_reserved":false,"is_disabled":false,"rental_uris":{"android":"levelo://app?vid=16e1ba08-3afb-4836-86f8-64ba626765cd","ios":"levelo://app?vid=16e1ba08-3afb-4836-86f8-64ba626765cd"},"vehicle_type_id":"4","last_reported":1747408181,"current_range_meters":16000,"station_id":"ce4bhg12rcd13ifvqf70","pricing_plan_id":"cebpf4jnsgd1na2vs0mg"},{"bike_id":"3b7e1cfe-4920-4ce2-8502-e5b1586f8bcd","system_id":"levelo_inurba_marseille","lat":43.246606,"lon":5.381596,"is_reserved":false,"is_disabled":false,"rental_uris":{"android":"levelo://app?vid=3b7e1cfe-4920-4ce2-8502-e5b1586f8bcd","ios":"levelo://app?vid=3b7e1cfe-4920-4ce2-8502-e5b1586f8bcd"},"vehicle_type_id":"4","last_reported":1747408181,"current_range_meters":16000,"station_id":"ce4bhih2rcd13ifvqfr0","pricing_plan_id":"cebpf4jnsgd1na2vs0mg"},{"bike_id":"208d7a25-cd6e-47fe-addd-1b889cabc092","system_id":"levelo_inurba_marseille","lat":43.284104,"lon":5.349916,"is_reserved":false,"is_disabled":false,"rental_uris":{"android":"levelo://app?vid=208d7a25-cd6e-47fe-addd-1b889cabc092","ios":"levelo://app?vid=208d7a25-cd6e-47fe-addd-1b889cabc092"},"vehicle_type_id":"4","last_reported":1747408181,"current_range_meters":16400,"station_id":"ce4bhbh2rcd13ifvqepg","pricing_plan_id":"cebpf4jnsgd1na2vs0mg"},{"bike_id":"85cc8ae2-2c31-40b9-8ad0-b17743100726","system_id":"levelo_inurba_marseille","lat":43.30197,"lon":5.36626,"is_reserved":false,"is_disabled":false,"rental_uris":{"android":"levelo://app?vid=85cc8ae2-2c31-40b9-8ad0-b17743100726","ios":"levelo://app?vid=85cc8ae2-2c31-40b9-8ad0-b17743100726"},"vehicle_type_id":"4","last_reported":1747408181,"current_range_meters":16400,"station_id":"ce4bgrh2rcd13ifvqc8g","pricing_plan_id":"cebpf4jnsgd1na2vs0mg"},{"bike_id":"98106b70-6f8a-476d-962a-f2bed2e52f0a","system_id":"levelo_inurba_marseille","lat":43.32058,"lon":5.36744,"is_reserved":false,"is_disabled":false,"rental_uris":{"android":"levelo://app?vid=98106b70-6f8a-476d-962a-f2bed2e52f0a","ios":"levelo://app?vid=98106b70-6f8a-476d-962a-f2bed2e52f0a"},"vehicle_type_id":"4","last_reported":1747408181,"current_range_meters":16400,"station_id":"ce4bhrh2rcd13ifvqhug","pricing_plan_id":"cebpf4jnsgd1na2vs0mg"},{"bike_id":"852ea9ac-6507-488a-87c5-b27d54b34b2e","system_id":"levelo_inurba_marseille","lat":43.281558,"lon":5.426308,"is_reserved":false,"is_disabled":false,"rental_uris":{"android":"levelo://app?vid=852ea9ac-6507-488a-87c5-b27d54b34b2e","ios":"levelo://app?vid=852ea9ac-6507-488a-87c5-b27d54b34b2e"},"vehicle_type_id":"4","last_reported":1747408181,"current_range_meters":16400,"station_id":"ce4bhnh2rcd13ifvqgug","pricing_plan_id":"cebpf4jnsgd1na2vs0mg"},{"bike_id":"3de514fe-3fb0-46d0-bfc3-2fb782e0ea02","system_id":"levelo_inurba_marseille","lat":43.30124,"lon":5.39853,"is_reserved":false,"is_disabled":false,"rental_uris":{"android":"levelo://app?vid=3de514fe-3fb0-46d0-bfc3-2fb782e0ea02","ios":"levelo://app?vid=3de514fe-3fb0-46d0-bfc3-2fb782e0ea02"},"vehicle_type_id":"4","last_reported":1747408181,"current_range_meters":16400,"station_id":"ce4bh0h2rcd13ifvqd40","pricing_plan_id":"cebpf4jnsgd1na2vs0mg"},{"bike_id":"b23a7761-2337-406b-b8e6-8e6d94a8d7c1","system_id":"levelo_inurba_marseille","lat":43.323594,"lon":5.367566,"is_reserved":false,"is_disabled":false,"rental_uris":{"android":"levelo://app?vid=b23a7761-2337-406b-b8e6-8e6d94a8d7c1","ios":"levelo://app?vid=b23a7761-2337-406b-b8e6-8e6d94a8d7c1"},"vehicle_type_id":"4","last_reported":1747408181,"current_range_meters":16400,"station_id":"ce4bhsh2rcd13ifvqi2g","pricing_plan_id":"cebpf4jnsgd1na2vs0mg"},{"bike_id":"2a9d0bc3-deae-4a39-b85c-52d709abed2e","system_id":"levelo_inurba_marseille","lat":43.30947,"lon":5.37854,"is_reserved":false,"is_disabled":false,"rental_uris":{"android":"levelo://app?vid=2a9d0bc3-deae-4a39-b85c-52d709abed2e","ios":"levelo://app?vid=2a9d0bc3-deae-4a39-b85c-52d709abed2e"},"vehicle_type_id":"4","last_reported":1747408181,"current_range_meters":16800,"station_id":"","pricing_plan_id":"cebpf4jnsgd1na2vs0mg"},{"bike_id":"6f199ca1-3219-4f54-b515-3c62922b90b1","system_id":"levelo_inurba_marseille","lat":43.30325,"lon":5.37693,"is_reserved":false,"is_disabled":false,"rental_uris":{"android":"levelo://app?vid=6f199ca1-3219-4f54-b515-3c62922b90b1","ios":"levelo://app?vid=6f199ca1-3219-4f54-b515-3c62922b90b1"},"vehicle_type_id":"4","last_reported":1747408181,"current_range_meters":16400,"station_id":"","pricing_plan_id":"cebpf4jnsgd1na2vs0mg"},{"bike_id":"6b1f8b04-91bb-425e-a1bc-0e9bcd24f912","system_id":"levelo_inurba_marseille","lat":43.2801,"lon":5.41607,"is_reserved":false,"is_disabled":false,"rental_uris":{"android":"levelo://app?vid=6b1f8b04-91bb-425e-a1bc-0e9bcd24f912","ios":"levelo://app?vid=6b1f8b04-91bb-425e-a1bc-0e9bcd24f912"},"vehicle_type_id":"4","last_reported":1747408181,"current_range_meters":16800,"station_id":"ce4bho12rcd13ifvqh1g","pricing_plan_id":"cebpf4jnsgd1na2vs0mg"},{"bike_id":"d504c41c-27e7-446c-9d19-bfb451d55050","system_id":"levelo_inurba_marseille","lat":43.290062,"lon":5.356068,"is_reserved":false,"is_disabled":false,"rental_uris":{"android":"levelo://app?vid=d504c41c-27e7-446c-9d19-bfb451d55050","ios":"levelo://app?vid=d504c41c-27e7-446c-9d19-bfb451d55050"},"vehicle_type_id":"4","last_reported":1747408181,"current_range_meters":16800,"station_id":"ce4bhb92rcd13ifvqen0","pricing_plan_id":"cebpf4jnsgd1na2vs0mg"},{"bike_id":"79e95db6-5cfb-4812-b56e-8539bb9bfb72","system_id":"levelo_inurba_marseille","lat":43.23183,"lon":5.399842,"is_reserved":false,"is_disabled":false,"rental_uris":{"android":"levelo://app?vid=79e95db6-5cfb-4812-b56e-8539bb9bfb72","ios":"levelo://app?vid=79e95db6-5cfb-4812-b56e-8539bb9bfb72"},"vehicle_type_id":"4","last_reported":1747408181,"current_range_meters":16800,"station_id":"ce4bhn12rcd13ifvqgqg","pricing_plan_id":"cebpf4jnsgd1na2vs0mg"},{"bike_id":"b04bd58d-ab68-46b4-9085-1ddf540e912e","system_id":"levelo_inurba_marseille","lat":43.240867,"lon":5.377507,"is_reserved":false,"is_disabled":true,"rental_uris":{"android":"levelo://app?vid=b04bd58d-ab68-46b4-9085-1ddf540e912e","ios":"levelo://app?vid=b04bd58d-ab68-46b4-9085-1ddf540e912e"},"vehicle_type_id":"4","last_reported":1747408181,"current_range_meters":16800,"station_id":"ce4bhnp2rcd13ifvqgvg","pricing_plan_id":"cebpf4jnsgd1na2vs0mg"},{"bike_id":"20a82793-fd10-415b-8a78-e28c4d6419c5","system_id":"levelo_inurba_marseille","lat":43.26202,"lon":5.379248,"is_reserved":false,"is_disabled":false,"rental_uris":{"android":"levelo://app?vid=20a82793-fd10-415b-8a78-e28c4d6419c5","ios":"levelo://app?vid=20a82793-fd10-415b-8a78-e28c4d6419c5"},"vehicle_type_id":"4","last_reported":1747408181,"current_range_meters":16800,"station_id":"ce4bhjp2rcd13ifvqg90","pricing_plan_id":"cebpf4jnsgd1na2vs0mg"},{"bike_id":"421189cd-a5e1-4fa7-80f1-21fc6b245e06","system_id":"levelo_inurba_marseille","lat":43.27067,"lon":5.40276,"is_reserved":false,"is_disabled":false,"rental_uris":{"android":"levelo://app?vid=421189cd-a5e1-4fa7-80f1-21fc6b245e06","ios":"levelo://app?vid=421189cd-a5e1-4fa7-80f1-21fc6b245e06"},"vehicle_type_id":"4","last_reported":1747408181,"current_range_meters":17200,"station_id":"ce4bhk92rcd13ifvqgc0","pricing_plan_id":"cebpf4jnsgd1na2vs0mg"},{"bike_id":"e3155322-33da-4030-a3cd-1b9fccffff3f","system_id":"levelo_inurba_marseille","lat":43.24999,"lon":5.38927,"is_reserved":false,"is_disabled":false,"rental_uris":{"android":"levelo://app?vid=e3155322-33da-4030-a3cd-1b9fccffff3f","ios":"levelo://app?vid=e3155322-33da-4030-a3cd-1b9fccffff3f"},"vehicle_type_id":"4","last_reported":1747408181,"current_range_meters":17200,"station_id":"ce4bhgp2rcd13ifvqfd0","pricing_plan_id":"cebpf4jnsgd1na2vs0mg"},{"bike_id":"164e0ccc-71a3-4f79-a701-1fd69140acbc","system_id":"levelo_inurba_marseille","lat":43.26814,"lon":5.40239,"is_reserved":false,"is_disabled":false,"rental_uris":{"android":"levelo://app?vid=164e0ccc-71a3-4f79-a701-1fd69140acbc","ios":"levelo://app?vid=164e0ccc-71a3-4f79-a701-1fd69140acbc"},"vehicle_type_id":"4","last_reported":1747408181,"current_range_meters":17200,"station_id":"ce501612rcd8frsf0b60","pricing_plan_id":"cebpf4jnsgd1na2vs0mg"},{"bike_id":"c8c23b94-3bb2-4142-ae6e-7544f49c1642","system_id":"levelo_inurba_marseille","lat":43.30553,"lon":5.38428,"is_reserved":false,"is_disabled":true,"rental_uris":{"android":"levelo://app?vid=c8c23b94-3bb2-4142-ae6e-7544f49c1642","ios":"levelo://app?vid=c8c23b94-3bb2-4142-ae6e-7544f49c1642"},"vehicle_type_id":"4","last_reported":1747408181,"current_range_meters":17200,"station_id":"ce4bgg92rcd13ifvqb30","pricing_plan_id":"cebpf4jnsgd1na2vs0mg"},{"bike_id":"e36001dc-9491-4a77-9b7f-94632741ef0e","system_id":"levelo_inurba_marseille","lat":43.28426,"lon":5.34977,"is_reserved":false,"is_disabled":false,"rental_uris":{"android":"levelo://app?vid=e36001dc-9491-4a77-9b7f-94632741ef0e","ios":"levelo://app?vid=e36001dc-9491-4a77-9b7f-94632741ef0e"},"vehicle_type_id":"4","last_reported":1747408181,"current_range_meters":17200,"station_id":"ce4bhbh2rcd13ifvqepg","pricing_plan_id":"cebpf4jnsgd1na2vs0mg"},{"bike_id":"4d05bf7f-0df9-44c2-9c5c-4d4dd3264c95","system_id":"levelo_inurba_marseille","lat":43.24659,"lon":5.38164,"is_reserved":false,"is_disabled":false,"rental_uris":{"android":"levelo://app?vid=4d05bf7f-0df9-44c2-9c5c-4d4dd3264c95","ios":"levelo://app?vid=4d05bf7f-0df9-44c2-9c5c-4d4dd3264c95"},"vehicle_type_id":"4","last_reported":1747408181,"current_range_meters":17200,"station_id":"ce4bhih2rcd13ifvqfr0","pricing_plan_id":"cebpf4jnsgd1na2vs0mg"},{"bike_id":"e8fa5944-aec1-4f33-aafe-7ca692e67016","system_id":"levelo_inurba_marseille","lat":43.29525,"lon":5.39053,"is_reserved":false,"is_disabled":false,"rental_uris":{"android":"levelo://app?vid=e8fa5944-aec1-4f33-aafe-7ca692e67016","ios":"levelo://app?vid=e8fa5944-aec1-4f33-aafe-7ca692e67016"},"vehicle_type_id":"4","last_reported":1747408181,"current_range_meters":17600,"station_id":"ce4bh3p2rcd13ifvqdp0","pricing_plan_id":"cebpf4jnsgd1na2vs0mg"},{"bike_id":"f34c39df-9b70-4c5a-a5dd-4d3ead180dea","system_id":"levelo_inurba_marseille","lat":43.2737,"lon":5.36252,"is_reserved":false,"is_disabled":false,"rental_uris":{"android":"levelo://app?vid=f34c39df-9b70-4c5a-a5dd-4d3ead180dea","ios":"levelo://app?vid=f34c39df-9b70-4c5a-a5dd-4d3ead180dea"},"vehicle_type_id":"4","last_reported":1747408181,"current_range_meters":17200,"station_id":"ce4bhbh2rcd13ifvqeo0","pricing_plan_id":"cebpf4jnsgd1na2vs0mg"},{"bike_id":"6f332285-02df-4105-9d55-02efe234716b","system_id":"levelo_inurba_marseille","lat":43.29684,"lon":5.37291,"is_reserved":false,"is_disabled":false,"rental_uris":{"android":"levelo://app?vid=6f332285-02df-4105-9d55-02efe234716b","ios":"levelo://app?vid=6f332285-02df-4105-9d55-02efe234716b"},"vehicle_type_id":"4","last_reported":1747408181,"current_range_meters":17200,"station_id":"ce4bgk12rcd13ifvqbj0","pricing_plan_id":"cebpf4jnsgd1na2vs0mg"},{"bike_id":"bccd3797-1ee4-4210-bb94-854db21d96e2","system_id":"levelo_inurba_marseille","lat":43.30351,"lon":5.41875,"is_reserved":false,"is_disabled":false,"rental_uris":{"android":"levelo://app?vid=bccd3797-1ee4-4210-bb94-854db21d96e2","ios":"levelo://app?vid=bccd3797-1ee4-4210-bb94-854db21d96e2"},"vehicle_type_id":"4","last_reported":1747408181,"current_range_meters":17200,"station_id":"ce4bhop2rcd13ifvqh7g","pricing_plan_id":"cebpf4jnsgd1na2vs0mg"},{"bike_id":"79053c56-ecde-43b1-807d-b0c1b2ea71c2","system_id":"levelo_inurba_marseille","lat":43.28415,"lon":5.34991,"is_reserved":false,"is_disabled":false,"rental_uris":{"android":"levelo://app?vid=79053c56-ecde-43b1-807d-b0c1b2ea71c2","ios":"levelo://app?vid=79053c56-ecde-43b1-807d-b0c1b2ea71c2"},"vehicle_type_id":"4","last_reported":1747408181,"current_range_meters":17600,"station_id":"ce4bhbh2rcd13ifvqepg","pricing_plan_id":"cebpf4jnsgd1na2vs0mg"},{"bike_id":"6e9bd5c0-a0bc-429b-94ce-6bacbca88270","system_id":"levelo_inurba_marseille","lat":43.26213,"lon":5.37442,"is_reserved":false,"is_disabled":false,"rental_uris":{"android":"levelo://app?vid=6e9bd5c0-a0bc-429b-94ce-6bacbca88270","ios":"levelo://app?vid=6e9bd5c0-a0bc-429b-94ce-6bacbca88270"},"vehicle_type_id":"4","last_reported":1747408181,"current_range_meters":18000,"station_id":"ce4bhgp2rcd13ifvqfc0","pricing_plan_id":"cebpf4jnsgd1na2vs0mg"},{"bike_id":"45f71629-e57e-4650-a835-f5868dcfd9d1","system_id":"levelo_inurba_marseille","lat":43.2964,"lon":5.362897,"is_reserved":false,"is_disabled":false,"rental_uris":{"android":"levelo://app?vid=45f71629-e57e-4650-a835-f5868dcfd9d1","ios":"levelo://app?vid=45f71629-e57e-4650-a835-f5868dcfd9d1"},"vehicle_type_id":"4","last_reported":1747408181,"current_range_meters":18000,"station_id":"","pricing_plan_id":"cebpf4jnsgd1na2vs0mg"},{"bike_id":"37cf3030-82e7-41be-a6d8-1401a062ef3d","system_id":"levelo_inurba_marseille","lat":43.31082,"lon":5.42441,"is_reserved":false,"is_disabled":false,"rental_uris":{"android":"levelo://app?vid=37cf3030-82e7-41be-a6d8-1401a062ef3d","ios":"levelo://app?vid=37cf3030-82e7-41be-a6d8-1401a062ef3d"},"vehicle_type_id":"4","last_reported":1747408181,"current_range_meters":18000,"station_id":"ce4bhp92rcd13ifvqhag","pricing_plan_id":"cebpf4jnsgd1na2vs0mg"},{"bike_id":"10273fe1-66a1-4853-8c3b-4c8939d68db1","system_id":"levelo_inurba_marseille","lat":43.295557,"lon":5.374917,"is_reserved":false,"is_disabled":true,"rental_uris":{"android":"levelo://app?vid=10273fe1-66a1-4853-8c3b-4c8939d68db1","ios":"levelo://app?vid=10273fe1-66a1-4853-8c3b-4c8939d68db1"},"vehicle_type_id":"4","last_reported":1747408181,"current_range_meters":18800,"station_id":"ce4bgh92rcd13ifvqb50","pricing_plan_id":"cebpf4jnsgd1na2vs0mg"},{"bike_id":"587f4dfe-cddc-4587-9ef9-b3c9f1c9746c","system_id":"levelo_inurba_marseille","lat":43.282509,"lon":5.350955,"is_reserved":false,"is_disabled":false,"rental_uris":{"android":"levelo://app?vid=587f4dfe-cddc-4587-9ef9-b3c9f1c9746c","ios":"levelo://app?vid=587f4dfe-cddc-4587-9ef9-b3c9f1c9746c"},"vehicle_type_id":"4","last_reported":1747408181,"current_range_meters":18000,"station_id":"ce4bhbp2rcd13ifvqerg","pricing_plan_id":"cebpf4jnsgd1na2vs0mg"},{"bike_id":"78dd78bc-edf7-4d04-af8e-03d6335d4533","system_id":"levelo_inurba_marseille","lat":43.29515,"lon":5.39024,"is_reserved":false,"is_disabled":false,"rental_uris":{"android":"levelo://app?vid=78dd78bc-edf7-4d04-af8e-03d6335d4533","ios":"levelo://app?vid=78dd78bc-edf7-4d04-af8e-03d6335d4533"},"vehicle_type_id":"4","last_reported":1747408181,"current_range_meters":18800,"station_id":"ce4bh3p2rcd13ifvqdp0","pricing_plan_id":"cebpf4jnsgd1na2vs0mg"},{"bike_id":"51a97926-12b0-44ee-9f0c-5bc21884757a","system_id":"levelo_inurba_marseille","lat":43.30325,"lon":5.40442,"is_reserved":false,"is_disabled":false,"rental_uris":{"android":"levelo://app?vid=51a97926-12b0-44ee-9f0c-5bc21884757a","ios":"levelo://app?vid=51a97926-12b0-44ee-9f0c-5bc21884757a"},"vehicle_type_id":"4","last_reported":1747408181,"current_range_meters":18800,"station_id":"ce4bh012rcd13ifvqd10","pricing_plan_id":"cebpf4jnsgd1na2vs0mg"},{"bike_id":"581a45b3-ec91-4949-88ab-4cb2d959a5be","system_id":"levelo_inurba_marseille","lat":43.30536,"lon":5.36553,"is_reserved":false,"is_disabled":false,"rental_uris":{"android":"levelo://app?vid=581a45b3-ec91-4949-88ab-4cb2d959a5be","ios":"levelo://app?vid=581a45b3-ec91-4949-88ab-4cb2d959a5be"},"vehicle_type_id":"4","last_reported":1747408181,"current_range_meters":18800,"station_id":"ce4bgs12rcd13ifvqcag","pricing_plan_id":"cebpf4jnsgd1na2vs0mg"},{"bike_id":"2658deb5-3a41-4f6d-b736-ad3604481fd5","system_id":"levelo_inurba_marseille","lat":43.24066,"lon":5.37754,"is_reserved":false,"is_disabled":false,"rental_uris":{"android":"levelo://app?vid=2658deb5-3a41-4f6d-b736-ad3604481fd5","ios":"levelo://app?vid=2658deb5-3a41-4f6d-b736-ad3604481fd5"},"vehicle_type_id":"4","last_reported":1747408181,"current_range_meters":18800,"station_id":"ce4bhnp2rcd13ifvqgvg","pricing_plan_id":"cebpf4jnsgd1na2vs0mg"},{"bike_id":"c6d8b65c-215b-4b39-99c8-57c18cefe954","system_id":"levelo_inurba_marseille","lat":43.24071,"lon":5.37763,"is_reserved":false,"is_disabled":false,"rental_uris":{"android":"levelo://app?vid=c6d8b65c-215b-4b39-99c8-57c18cefe954","ios":"levelo://app?vid=c6d8b65c-215b-4b39-99c8-57c18cefe954"},"vehicle_type_id":"4","last_reported":1747408181,"current_range_meters":18800,"station_id":"ce4bhnp2rcd13ifvqgvg","pricing_plan_id":"cebpf4jnsgd1na2vs0mg"},{"bike_id":"14956802-9669-4184-9568-f829f5ce337a","system_id":"levelo_inurba_marseille","lat":43.29624,"lon":5.40597,"is_reserved":false,"is_disabled":false,"rental_uris":{"android":"levelo://app?vid=14956802-9669-4184-9568-f829f5ce337a","ios":"levelo://app?vid=14956802-9669-4184-9568-f829f5ce337a"},"vehicle_type_id":"4","last_reported":1747408181,"current_range_meters":18800,"station_id":"ce4bh0h2rcd13ifvqd60","pricing_plan_id":"cebpf4jnsgd1na2vs0mg"},{"bike_id":"080da10f-73c7-4342-93c6-97e1aeac391e","system_id":"levelo_inurba_marseille","lat":43.23958,"lon":5.366226,"is_reserved":false,"is_disabled":true,"rental_uris":{"android":"levelo://app?vid=080da10f-73c7-4342-93c6-97e1aeac391e","ios":"levelo://app?vid=080da10f-73c7-4342-93c6-97e1aeac391e"},"vehicle_type_id":"4","last_reported":1747408181,"current_range_meters":19200,"station_id":"ce4bhi12rcd13ifvqfp0","pricing_plan_id":"cebpf4jnsgd1na2vs0mg"},{"bike_id":"512db903-9559-40c7-8902-6a98e3c8c53c","system_id":"levelo_inurba_marseille","lat":43.32904,"lon":5.38975,"is_reserved":false,"is_disabled":false,"rental_uris":{"android":"levelo://app?vid=512db903-9559-40c7-8902-6a98e3c8c53c","ios":"levelo://app?vid=512db903-9559-40c7-8902-6a98e3c8c53c"},"vehicle_type_id":"4","last_reported":1747408181,"current_range_meters":19200,"station_id":"","pricing_plan_id":"cebpf4jnsgd1na2vs0mg"},{"bike_id":"cf416663-337f-44c8-8c55-97fc21a35072","system_id":"levelo_inurba_marseille","lat":43.28218,"lon":5.39059,"is_reserved":false,"is_disabled":false,"rental_uris":{"android":"levelo://app?vid=cf416663-337f-44c8-8c55-97fc21a35072","ios":"levelo://app?vid=cf416663-337f-44c8-8c55-97fc21a35072"},"vehicle_type_id":"4","last_reported":1747408181,"current_range_meters":19200,"station_id":"","pricing_plan_id":"cebpf4jnsgd1na2vs0mg"},{"bike_id":"650fd53e-c00c-4b53-bfd7-51afb7900467","system_id":"levelo_inurba_marseille","lat":43.31362,"lon":5.38494,"is_reserved":false,"is_disabled":false,"rental_uris":{"android":"levelo://app?vid=650fd53e-c00c-4b53-bfd7-51afb7900467","ios":"levelo://app?vid=650fd53e-c00c-4b53-bfd7-51afb7900467"},"vehicle_type_id":"4","last_reported":1747408181,"current_range_meters":19200,"station_id":"ce4bgt92rcd13ifvqcf0","pricing_plan_id":"cebpf4jnsgd1na2vs0mg"},{"bike_id":"7bd23270-16b5-40a6-8418-a77b985724a1","system_id":"levelo_inurba_marseille","lat":43.23179,"lon":5.39996,"is_reserved":false,"is_disabled":false,"rental_uris":{"android":"levelo://app?vid=7bd23270-16b5-40a6-8418-a77b985724a1","ios":"levelo://app?vid=7bd23270-16b5-40a6-8418-a77b985724a1"},"vehicle_type_id":"4","last_reported":1747408181,"current_range_meters":19200,"station_id":"ce4bhn12rcd13ifvqgqg","pricing_plan_id":"cebpf4jnsgd1na2vs0mg"},{"bike_id":"43acc429-c589-4c87-886e-e69ff8276953","system_id":"levelo_inurba_marseille","lat":43.2957,"lon":5.3997,"is_reserved":false,"is_disabled":false,"rental_uris":{"android":"levelo://app?vid=43acc429-c589-4c87-886e-e69ff8276953","ios":"levelo://app?vid=43acc429-c589-4c87-886e-e69ff8276953"},"vehicle_type_id":"4","last_reported":1747408181,"current_range_meters":19200,"station_id":"ce4bh312rcd13ifvqdj0","pricing_plan_id":"cebpf4jnsgd1na2vs0mg"},{"bike_id":"70fee472-8240-4097-ba7f-33fe96fcac86","system_id":"levelo_inurba_marseille","lat":43.24188,"lon":5.39684,"is_reserved":false,"is_disabled":true,"rental_uris":{"android":"levelo://app?vid=70fee472-8240-4097-ba7f-33fe96fcac86","ios":"levelo://app?vid=70fee472-8240-4097-ba7f-33fe96fcac86"},"vehicle_type_id":"4","last_reported":1747408181,"current_range_meters":19600,"station_id":"ce4bhn12rcd13ifvqgpg","pricing_plan_id":"cebpf4jnsgd1na2vs0mg"},{"bike_id":"f072d1c2-f26e-47ba-bb55-17c27c271832","system_id":"levelo_inurba_marseille","lat":43.25863,"lon":5.39895,"is_reserved":false,"is_disabled":false,"rental_uris":{"android":"levelo://app?vid=f072d1c2-f26e-47ba-bb55-17c27c271832","ios":"levelo://app?vid=f072d1c2-f26e-47ba-bb55-17c27c271832"},"vehicle_type_id":"4","last_reported":1747408181,"current_range_meters":19600,"station_id":"ce4bhl92rcd13ifvqghg","pricing_plan_id":"cebpf4jnsgd1na2vs0mg"},{"bike_id":"275fffec-e1a8-424b-b883-3af502f72dde","system_id":"levelo_inurba_marseille","lat":43.29302,"lon":5.37172,"is_reserved":false,"is_disabled":false,"rental_uris":{"android":"levelo://app?vid=275fffec-e1a8-424b-b883-3af502f72dde","ios":"levelo://app?vid=275fffec-e1a8-424b-b883-3af502f72dde"},"vehicle_type_id":"4","last_reported":1747408181,"current_range_meters":19600,"station_id":"ce4bgh92rcd13ifvqb40","pricing_plan_id":"cebpf4jnsgd1na2vs0mg"},{"bike_id":"32ec5a9f-ba0d-4d6d-ba18-8446403a4522","system_id":"levelo_inurba_marseille","lat":43.28273,"lon":5.35085,"is_reserved":false,"is_disabled":true,"rental_uris":{"android":"levelo://app?vid=32ec5a9f-ba0d-4d6d-ba18-8446403a4522","ios":"levelo://app?vid=32ec5a9f-ba0d-4d6d-ba18-8446403a4522"},"vehicle_type_id":"4","last_reported":1747408181,"current_range_meters":19600,"station_id":"ce4bhbp2rcd13ifvqerg","pricing_plan_id":"cebpf4jnsgd1na2vs0mg"},{"bike_id":"f15f1075-4536-463c-b53f-01a00d363622","system_id":"levelo_inurba_marseille","lat":43.298783,"lon":5.397387,"is_reserved":false,"is_disabled":false,"rental_uris":{"android":"levelo://app?vid=f15f1075-4536-463c-b53f-01a00d363622","ios":"levelo://app?vid=f15f1075-4536-463c-b53f-01a00d363622"},"vehicle_type_id":"4","last_reported":1747408181,"current_range_meters":19200,"station_id":"ce4bh0h2rcd13ifvqd50","pricing_plan_id":"cebpf4jnsgd1na2vs0mg"},{"bike_id":"0b631080-4651-4d5b-b502-dc0807821fa1","system_id":"levelo_inurba_marseille","lat":43.30017,"lon":5.37198,"is_reserved":false,"is_disabled":false,"rental_uris":{"android":"levelo://app?vid=0b631080-4651-4d5b-b502-dc0807821fa1","ios":"levelo://app?vid=0b631080-4651-4d5b-b502-dc0807821fa1"},"vehicle_type_id":"4","last_reported":1747408181,"current_range_meters":20000,"station_id":"","pricing_plan_id":"cebpf4jnsgd1na2vs0mg"},{"bike_id":"12839a49-a8e0-4fe5-8bc4-e2922b7ffc07","system_id":"levelo_inurba_marseille","lat":43.3016,"lon":5.38078,"is_reserved":false,"is_disabled":false,"rental_uris":{"android":"levelo://app?vid=12839a49-a8e0-4fe5-8bc4-e2922b7ffc07","ios":"levelo://app?vid=12839a49-a8e0-4fe5-8bc4-e2922b7ffc07"},"vehicle_type_id":"4","last_reported":1747408181,"current_range_meters":20000,"station_id":"ce4bgjp2rcd13ifvqbh0","pricing_plan_id":"cebpf4jnsgd1na2vs0mg"},{"bike_id":"ce4a04f5-5373-429b-bc5d-a6a3041f1f8e","system_id":"levelo_inurba_marseille","lat":43.256,"lon":5.38221,"is_reserved":false,"is_disabled":true,"rental_uris":{"android":"levelo://app?vid=ce4a04f5-5373-429b-bc5d-a6a3041f1f8e","ios":"levelo://app?vid=ce4a04f5-5373-429b-bc5d-a6a3041f1f8e"},"vehicle_type_id":"4","last_reported":1747408181,"current_range_meters":19600,"station_id":"ce4bhih2rcd13ifvqfs0","pricing_plan_id":"cebpf4jnsgd1na2vs0mg"},{"bike_id":"cc1f1741-5eb8-41f1-a616-7dc027eae1a1","system_id":"levelo_inurba_marseille","lat":43.26494,"lon":5.39548,"is_reserved":false,"is_disabled":false,"rental_uris":{"android":"levelo://app?vid=cc1f1741-5eb8-41f1-a616-7dc027eae1a1","ios":"levelo://app?vid=cc1f1741-5eb8-41f1-a616-7dc027eae1a1"},"vehicle_type_id":"4","last_reported":1747408181,"current_range_meters":20000,"station_id":"ce4bhi12rcd13ifvqfq0","pricing_plan_id":"cebpf4jnsgd1na2vs0mg"},{"bike_id":"6cb8e838-883b-466c-bac0-3c17ceda48ff","system_id":"levelo_inurba_marseille","lat":43.29015,"lon":5.35605,"is_reserved":false,"is_disabled":false,"rental_uris":{"android":"levelo://app?vid=6cb8e838-883b-466c-bac0-3c17ceda48ff","ios":"levelo://app?vid=6cb8e838-883b-466c-bac0-3c17ceda48ff"},"vehicle_type_id":"4","last_reported":1747408181,"current_range_meters":20000,"station_id":"ce4bhb92rcd13ifvqen0","pricing_plan_id":"cebpf4jnsgd1na2vs0mg"},{"bike_id":"0e2cf62d-0be7-4144-b6d9-a090cfcb8e79","system_id":"levelo_inurba_marseille","lat":43.302151,"lon":5.394707,"is_reserved":false,"is_disabled":false,"rental_uris":{"android":"levelo://app?vid=0e2cf62d-0be7-4144-b6d9-a090cfcb8e79","ios":"levelo://app?vid=0e2cf62d-0be7-4144-b6d9-a090cfcb8e79"},"vehicle_type_id":"4","last_reported":1747408181,"current_range_meters":19600,"station_id":"ce4bh0p2rcd13ifvqd70","pricing_plan_id":"cebpf4jnsgd1na2vs0mg"},{"bike_id":"f295179f-de6a-498e-8e1e-839cb4939dcc","system_id":"levelo_inurba_marseille","lat":43.324881,"lon":5.365814,"is_reserved":false,"is_disabled":false,"rental_uris":{"android":"levelo://app?vid=f295179f-de6a-498e-8e1e-839cb4939dcc","ios":"levelo://app?vid=f295179f-de6a-498e-8e1e-839cb4939dcc"},"vehicle_type_id":"4","last_reported":1747408181,"current_range_meters":20000,"station_id":"ce4bhs12rcd13ifvqhvg","pricing_plan_id":"cebpf4jnsgd1na2vs0mg"},{"bike_id":"df19a046-bc8f-4751-980f-3fc4c19f613a","system_id":"levelo_inurba_marseille","lat":43.27494,"lon":5.424538,"is_reserved":false,"is_disabled":false,"rental_uris":{"android":"levelo://app?vid=df19a046-bc8f-4751-980f-3fc4c19f613a","ios":"levelo://app?vid=df19a046-bc8f-4751-980f-3fc4c19f613a"},"vehicle_type_id":"4","last_reported":1747408181,"current_range_meters":20400,"station_id":"ce4bhn92rcd13ifvqgrg","pricing_plan_id":"cebpf4jnsgd1na2vs0mg"},{"bike_id":"493e258f-a50c-47a6-8e12-99f75bb92d7c","system_id":"levelo_inurba_marseille","lat":43.2957,"lon":5.399636,"is_reserved":false,"is_disabled":false,"rental_uris":{"android":"levelo://app?vid=493e258f-a50c-47a6-8e12-99f75bb92d7c","ios":"levelo://app?vid=493e258f-a50c-47a6-8e12-99f75bb92d7c"},"vehicle_type_id":"4","last_reported":1747408181,"current_range_meters":20400,"station_id":"ce4bh312rcd13ifvqdj0","pricing_plan_id":"cebpf4jnsgd1na2vs0mg"},{"bike_id":"9889028e-59b9-4f81-aecd-85b2617b1ef3","system_id":"levelo_inurba_marseille","lat":43.30888,"lon":5.39662,"is_reserved":false,"is_disabled":false,"rental_uris":{"android":"levelo://app?vid=9889028e-59b9-4f81-aecd-85b2617b1ef3","ios":"levelo://app?vid=9889028e-59b9-4f81-aecd-85b2617b1ef3"},"vehicle_type_id":"4","last_reported":1747408181,"current_range_meters":20400,"station_id":"ce4bh012rcd13ifvqcv0","pricing_plan_id":"cebpf4jnsgd1na2vs0mg"},{"bike_id":"e3da849f-5284-4e82-98d2-a0936cdb1ca2","system_id":"levelo_inurba_marseille","lat":43.30462,"lon":5.37907,"is_reserved":false,"is_disabled":false,"rental_uris":{"android":"levelo://app?vid=e3da849f-5284-4e82-98d2-a0936cdb1ca2","ios":"levelo://app?vid=e3da849f-5284-4e82-98d2-a0936cdb1ca2"},"vehicle_type_id":"4","last_reported":1747408181,"current_range_meters":20400,"station_id":"ce4bgup2rcd13ifvqcn0","pricing_plan_id":"cebpf4jnsgd1na2vs0mg"},{"bike_id":"58851c44-b131-409e-94f8-84bc2734da6d","system_id":"levelo_inurba_marseille","lat":43.31758,"lon":5.39014,"is_reserved":false,"is_disabled":false,"rental_uris":{"android":"levelo://app?vid=58851c44-b131-409e-94f8-84bc2734da6d","ios":"levelo://app?vid=58851c44-b131-409e-94f8-84bc2734da6d"},"vehicle_type_id":"4","last_reported":1747408181,"current_range_meters":20400,"station_id":"ce4bhqp2rcd13ifvqhng","pricing_plan_id":"cebpf4jnsgd1na2vs0mg"},{"bike_id":"fb4d1133-e558-4229-bd84-b3974da57d5c","system_id":"levelo_inurba_marseille","lat":43.29938,"lon":5.37622,"is_reserved":false,"is_disabled":false,"rental_uris":{"android":"levelo://app?vid=fb4d1133-e558-4229-bd84-b3974da57d5c","ios":"levelo://app?vid=fb4d1133-e558-4229-bd84-b3974da57d5c"},"vehicle_type_id":"4","last_reported":1747408181,"current_range_meters":20400,"station_id":"","pricing_plan_id":"cebpf4jnsgd1na2vs0mg"},{"bike_id":"23a8ffc7-f7e2-4cb2-bf2a-09a66cb463e6","system_id":"levelo_inurba_marseille","lat":43.278381,"lon":5.392087,"is_reserved":false,"is_disabled":false,"rental_uris":{"android":"levelo://app?vid=23a8ffc7-f7e2-4cb2-bf2a-09a66cb463e6","ios":"levelo://app?vid=23a8ffc7-f7e2-4cb2-bf2a-09a66cb463e6"},"vehicle_type_id":"4","last_reported":1747408181,"current_range_meters":20400,"station_id":"ce4bhjp2rcd13ifvqga0","pricing_plan_id":"cebpf4jnsgd1na2vs0mg"},{"bike_id":"2a9e879d-cd33-412f-ad37-ce5ca1c5fd29","system_id":"levelo_inurba_marseille","lat":43.26837,"lon":5.427623,"is_reserved":false,"is_disabled":false,"rental_uris":{"android":"levelo://app?vid=2a9e879d-cd33-412f-ad37-ce5ca1c5fd29","ios":"levelo://app?vid=2a9e879d-cd33-412f-ad37-ce5ca1c5fd29"},"vehicle_type_id":"4","last_reported":1747408181,"current_range_meters":20400,"station_id":"","pricing_plan_id":"cebpf4jnsgd1na2vs0mg"},{"bike_id":"0a98e153-526b-450e-b243-3932c3d162b6","system_id":"levelo_inurba_marseille","lat":43.28714,"lon":5.36093,"is_reserved":false,"is_disabled":false,"rental_uris":{"android":"levelo://app?vid=0a98e153-526b-450e-b243-3932c3d162b6","ios":"levelo://app?vid=0a98e153-526b-450e-b243-3932c3d162b6"},"vehicle_type_id":"4","last_reported":1747408181,"current_range_meters":20800,"station_id":"cki0cbj6b192h4jlfktg","pricing_plan_id":"cebpf4jnsgd1na2vs0mg"},{"bike_id":"b26a0dd7-cbdc-4ab7-8def-31c4b88b224a","system_id":"levelo_inurba_marseille","lat":43.31215,"lon":5.39243,"is_reserved":false,"is_disabled":false,"rental_uris":{"android":"levelo://app?vid=b26a0dd7-cbdc-4ab7-8def-31c4b88b224a","ios":"levelo://app?vid=b26a0dd7-cbdc-4ab7-8def-31c4b88b224a"},"vehicle_type_id":"4","last_reported":1747408181,"current_range_meters":20800,"station_id":"","pricing_plan_id":"cebpf4jnsgd1na2vs0mg"},