{"last_updated":1734030444,"ttl":60,"version":"2.2","data":{"bikes":[{"bike_id":"2fbe8e9a-d054-43f7-a514-7a4743e90500","system_id":"levelo_inurba_marseille","lat":43.24807,"lon":5.37451,"is_reserved":false,"is_disabled":false,"rental_uris":{"android":"levelo://app?vid=2fbe8e9a-d054-43f7-a514-7a4743e90500","ios":"levelo://app?vid=2fbe8e9a-d054-43f7-a514-7a4743e90500"},"vehicle_type_id":"4","last_reported":1734030444,"current_range_meters":39200,"station_id":"ce4bhgh2rcd13ifvqfb0","pricing_plan_id":"cebpf4jnsgd1na2vs0mg"},{"bike_id":"79a9b13c-8623-4b7b-be23-3d00b71e058c","system_id":"levelo_inurba_marseille","lat":43.30311,"lon":5.39209,"is_reserved":false,"is_disabled":false,"rental_uris":{"android":"levelo://app?vid=79a9b13c-8623-4b7b-be23-3d00b71e058c","ios":"levelo://app?vid=79a9b13c-8623-4b7b-be23-3d00b71e058c"},"vehicle_type_id":"4","last_reported":1734030444,"current_range_meters":16800,"station_id":"ce4bgkh2rcd13ifvqbk0","pricing_plan_id":"cebpf4jnsgd1na2vs0mg"},{"bike_id":"907fec12-a848-4864-ae30-c2b590a6dd5f","system_id":"levelo_inurba_marseille","lat":43.26235,"lon":5.37428,"is_reserved":false,"is_disabled":true,"rental_uris":{"android":"levelo://app?vid=907fec12-a848-4864-ae30-c2b590a6dd5f","ios":"levelo://app?vid=907fec12-a848-4864-ae30-c2b590a6dd5f"},"vehicle_type_id":"4","last_reported":1734030444,"current_range_meters":0,"station_id":"","pricing_plan_id":"cebpf4jnsgd1na2vs0mg"},{"bike_id":"60e9ed68-c2d5-4fcc-b1fe-df98992a2ea5","system_id":"levelo_inurba_marseille","lat":43.30764,"lon":5.36837,"is_reserved":false,"is_disabled":true,"rental_uris":{"android":"levelo://app?vid=60e9ed68-c2d5-4fcc-b1fe-df98992a2ea5","ios":"levelo://app?vid=60e9ed68-c2d5-4fcc-b1fe-df98992a2ea5"},"vehicle_type_id":"4","last_reported":1734030444,"current_range_meters":0,"station_id":"","pricing_plan_id":"cebpf4jnsgd1na2vs0mg"},{"bike_id":"72d1483c-0a6c-45ce-98fc-4d0b7df8001d","system_id":"levelo_inurba_marseille","lat":43.26575,"lon":5.39037,"is_reserved":false,"is_disabled":false,"rental_uris":{"android":"levelo://app?vid=72d1483c-0a6c-45ce-98fc-4d0b7df8001d","ios":"levelo://app?vid=72d1483c-0a6c-45ce-98fc-4d0b7df8001d"},"vehicle_type_id":"4","last_reported":1734030444,"current_range_meters":2800,"station_id":"ce4bhe12rcd13ifvqf30","pricing_plan_id":"cebpf4jnsgd1na2vs0mg"},{"bike_id":"45a0184d-d6d5-4b76-98ad-c13311566c8b","system_id":"levelo_inurba_marseille","lat":43.29271,"lon":5.40898,"is_reserved":false,"is_disabled":false,"rental_uris":{"android":"levelo://app?vid=45a0184d-d6d5-4b76-98ad-c13311566c8b","ios":"levelo://app?vid=45a0184d-d6d5-4b76-98ad-c13311566c8b"},"vehicle_type_id":"4","last_reported":1734030444,"current_range_meters":38800,"station_id":"ce4bh192rcd13ifvqdc0","pricing_plan_id":"cebpf4jnsgd1na2vs0mg"},{"bike_id":"9895f6d3-3e90-4d41-8b6f-3b0e731d3542","system_id":"levelo_inurba_marseille","lat":43.28001,"lon":5.40004,"is_reserved":false,"is_disabled":false,"rental_uris":{"android":"levelo://app?vid=9895f6d3-3e90-4d41-8b6f-3b0e731d3542","ios":"levelo://app?vid=9895f6d3-3e90-4d41-8b6f-3b0e731d3542"},"vehicle_type_id":"4","last_reported":1734030444,"current_range_meters":38800,"station_id":"ce4bho92rcd13ifvqh4g","pricing_plan_id":"cebpf4jnsgd1na2vs0mg"},{"bike_id":"458165b2-e31e-4e79-8f9e-df708f702045","system_id":"levelo_inurba_marseille","lat":43.31886,"lon":5.40739,"is_reserved":false,"is_disabled":false,"rental_uris":{"android":"levelo://app?vid=458165b2-e31e-4e79-8f9e-df708f702045","ios":"levelo://app?vid=458165b2-e31e-4e79-8f9e-df708f702045"},"vehicle_type_id":"4","last_reported":1734030444,"current_range_meters":13600,"station_id":"ce4bhq12rcd13ifvqhig","pricing_plan_id":"cebpf4jnsgd1na2vs0mg"},{"bike_id":"980f96eb-32c9-4906-98f6-c44dbf4c84a1","system_id":"levelo_inurba_marseille","lat":43.27455,"lon":5.40073,"is_reserved":false,"is_disabled":true,"rental_uris":{"android":"levelo://app?vid=980f96eb-32c9-4906-98f6-c44dbf4c84a1","ios":"levelo://app?vid=980f96eb-32c9-4906-98f6-c44dbf4c84a1"},"vehicle_type_id":"4","last_reported":1734030444,"current_range_meters":0,"station_id":"","pricing_plan_id":"cebpf4jnsgd1na2vs0mg"},{"bike_id":"8eb40f25-fc14-4288-9dd7-aae13b0a9b04","system_id":"levelo_inurba_marseille","lat":43.269378,"lon":5.40242,"is_reserved":false,"is_disabled":true,"rental_uris":{"android":"levelo://app?vid=8eb40f25-fc14-4288-9dd7-aae13b0a9b04","ios":"levelo://app?vid=8eb40f25-fc14-4288-9dd7-aae13b0a9b04"},"vehicle_type_id":"4","last_reported":1734030444,"current_range_meters":33600,"station_id":"cjm6bp8fraef2m0cb0m0","pricing_plan_id":"cebpf4jnsgd1na2vs0mg"},{"bike_id":"05187da5-e3e5-410e-83b8-91a51cc6fa77","system_id":"levelo_inurba_marseille","lat":43.29842,"lon":5.36263,"is_reserved":false,"is_disabled":false,"rental_uris":{"android":"levelo://app?vid=05187da5-e3e5-410e-83b8-91a51cc6fa77","ios":"levelo://app?vid=05187da5-e3e5-410e-83b8-91a51cc6fa77"},"vehicle_type_id":"4","last_reported":1734030444,"current_range_meters":31200,"station_id":"ce4bgpp2rcd13ifvqc3g","pricing_plan_id":"cebpf4jnsgd1na2vs0mg"},{"bike_id":"24d1dd30-e6fd-4cf7-8825-633bcd92df8c","system_id":"levelo_inurba_marseille","lat":43.26566,"lon":5.39008,"is_reserved":false,"is_disabled":false,"rental_uris":{"android":"levelo://app?vid=24d1dd30-e6fd-4cf7-8825-633bcd92df8c","ios":"levelo://app?vid=24d1dd30-e6fd-4cf7-8825-633bcd92df8c"},"vehicle_type_id":"4","last_reported":1734030444,"current_range_meters":35600,"station_id":"ce4bhe12rcd13ifvqf30","pricing_plan_id":"cebpf4jnsgd1na2vs0mg"},{"bike_id":"f3a40a5d-cef7-4614-9a73-c675fabca9fa","system_id":"levelo_inurba_marseille","lat":43.24806,"lon":5.37449,"is_reserved":false,"is_disabled":false,"rental_uris":{"android":"levelo://app?vid=f3a40a5d-cef7-4614-9a73-c675fabca9fa","ios":"levelo://app?vid=f3a40a5d-cef7-4614-9a73-c675fabca9fa"},"vehicle_type_id":"4","last_reported":1734030444,"current_range_meters":24800,"station_id":"ce4bhgh2rcd13ifvqfb0","pricing_plan_id":"cebpf4jnsgd1na2vs0mg"},{"bike_id":"ce4c7390-3de8-4776-bab7-8b30799fdcc8","system_id":"levelo_inurba_marseille","lat":43.29192,"lon":5.35795,"is_reserved":false,"is_disabled":true,"rental_uris":{"android":"levelo://app?vid=ce4c7390-3de8-4776-bab7-8b30799fdcc8","ios":"levelo://app?vid=ce4c7390-3de8-4776-bab7-8b30799fdcc8"},"vehicle_type_id":"4","last_reported":1734030444,"current_range_meters":34000,"station_id":"ce4bhb12rcd13ifvqel0","pricing_plan_id":"cebpf4jnsgd1na2vs0mg"},{"bike_id":"93562d9f-d975-4bd5-b8f5-6f1b130645c7","system_id":"levelo_inurba_marseille","lat":43.312871,"lon":5.401839,"is_reserved":false,"is_disabled":false,"rental_uris":{"android":"levelo://app?vid=93562d9f-d975-4bd5-b8f5-6f1b130645c7","ios":"levelo://app?vid=93562d9f-d975-4bd5-b8f5-6f1b130645c7"},"vehicle_type_id":"4","last_reported":1734030444,"current_range_meters":29600,"station_id":"ce4bh092rcd13ifvqd30","pricing_plan_id":"cebpf4jnsgd1na2vs0mg"},{"bike_id":"976e1536-7249-425f-8cfa-22b5b9a9e0e3","system_id":"levelo_inurba_marseille","lat":43.28068,"lon":5.39647,"is_reserved":false,"is_disabled":false,"rental_uris":{"android":"levelo://app?vid=976e1536-7249-425f-8cfa-22b5b9a9e0e3","ios":"levelo://app?vid=976e1536-7249-425f-8cfa-22b5b9a9e0e3"},"vehicle_type_id":"4","last_reported":1734030444,"current_range_meters":38800,"station_id":"ce4bho12rcd13ifvqh2g","pricing_plan_id":"cebpf4jnsgd1na2vs0mg"},{"bike_id":"fe87f8f2-6e97-4611-93da-1318a830eb3c","system_id":"levelo_inurba_marseille","lat":43.27995,"lon":5.41657,"is_reserved":false,"is_disabled":true,"rental_uris":{"android":"levelo://app?vid=fe87f8f2-6e97-4611-93da-1318a830eb3c","ios":"levelo://app?vid=fe87f8f2-6e97-4611-93da-1318a830eb3c"},"vehicle_type_id":"4","last_reported":1734030444,"current_range_meters":38800,"station_id":"ce4bho12rcd13ifvqh1g","pricing_plan_id":"cebpf4jnsgd1na2vs0mg"},{"bike_id":"2b646eb8-8034-476d-b307-1fe9e5d7b7aa","system_id":"levelo_inurba_marseille","lat":43.28724,"lon":5.37937,"is_reserved":false,"is_disabled":false,"rental_uris":{"android":"levelo://app?vid=2b646eb8-8034-476d-b307-1fe9e5d7b7aa","ios":"levelo://app?vid=2b646eb8-8034-476d-b307-1fe9e5d7b7aa"},"vehicle_type_id":"4","last_reported":1734030444,"current_range_meters":38800,"station_id":"ce4bh9p2rcd13ifvqec0","pricing_plan_id":"cebpf4jnsgd1na2vs0mg"},{"bike_id":"6d767633-a89c-4dbd-b4b8-076cd322a817","system_id":"levelo_inurba_marseille","lat":43.30355,"lon":5.4188,"is_reserved":false,"is_disabled":false,"rental_uris":{"android":"levelo://app?vid=6d767633-a89c-4dbd-b4b8-076cd322a817","ios":"levelo://app?vid=6d767633-a89c-4dbd-b4b8-076cd322a817"},"vehicle_type_id":"4","last_reported":1734030444,"current_range_meters":11600,"station_id":"ce4bhop2rcd13ifvqh7g","pricing_plan_id":"cebpf4jnsgd1na2vs0mg"},{"bike_id":"ff4cbef7-4ac3-42f9-85ff-f93dc8c3fea0","system_id":"levelo_inurba_marseille","lat":43.28143,"lon":5.42652,"is_reserved":false,"is_disabled":true,"rental_uris":{"android":"levelo://app?vid=ff4cbef7-4ac3-42f9-85ff-f93dc8c3fea0","ios":"levelo://app?vid=ff4cbef7-4ac3-42f9-85ff-f93dc8c3fea0"},"vehicle_type_id":"4","last_reported":1734030444,"current_range_meters":0,"station_id":"ce4bhnh2rcd13ifvqgug","pricing_plan_id":"cebpf4jnsgd1na2vs0mg"},{"bike_id":"6d038d61-35f9-4da9-ad8a-98421d60d878","system_id":"levelo_inurba_marseille","lat":43.28483,"lon":5.38404,"is_reserved":false,"is_disabled":false,"rental_uris":{"android":"levelo://app?vid=6d038d61-35f9-4da9-ad8a-98421d60d878","ios":"levelo://app?vid=6d038d61-35f9-4da9-ad8a-98421d60d878"},"vehicle_type_id":"4","last_reported":1734030444,"current_range_meters":9600,"station_id":"ce4bh512rcd13ifvqe3g","pricing_plan_id":"cebpf4jnsgd1na2vs0mg"},{"bike_id":"b840a445-2d66-4c45-a789-d4eac8ddad01","system_id":"levelo_inurba_marseille","lat":43.29782,"lon":5.38123,"is_reserved":false,"is_disabled":false,"rental_uris":{"android":"levelo://app?vid=b840a445-2d66-4c45-a789-d4eac8ddad01","ios":"levelo://app?vid=b840a445-2d66-4c45-a789-d4eac8ddad01"},"vehicle_type_id":"4","last_reported":1734030444,"current_range_meters":28800,"station_id":"ce4bgip2rcd13ifvqbb0","pricing_plan_id":"cebpf4jnsgd1na2vs0mg"},{"bike_id":"9adbaaae-97a2-4d16-9676-ac344bccc81a","system_id":"levelo_inurba_marseille","lat":43.29966,"lon":5.41318,"is_reserved":false,"is_disabled":false,"rental_uris":{"android":"levelo://app?vid=9adbaaae-97a2-4d16-9676-ac344bccc81a","ios":"levelo://app?vid=9adbaaae-97a2-4d16-9676-ac344bccc81a"},"vehicle_type_id":"4","last_reported":1734030444,"current_range_meters":38000,"station_id":"ce4bhp12rcd13ifvqh9g","pricing_plan_id":"cebpf4jnsgd1na2vs0mg"},{"bike_id":"c3fc50ab-8ddb-4bcf-8f3a-ade2409fa77a","system_id":"levelo_inurba_marseille","lat":43.29356,"lon":5.37839,"is_reserved":false,"is_disabled":false,"rental_uris":{"android":"levelo://app?vid=c3fc50ab-8ddb-4bcf-8f3a-ade2409fa77a","ios":"levelo://app?vid=c3fc50ab-8ddb-4bcf-8f3a-ade2409fa77a"},"vehicle_type_id":"4","last_reported":1734030444,"current_range_meters":35200,"station_id":"ce4bgjh2rcd13ifvqbf0","pricing_plan_id":"cebpf4jnsgd1na2vs0mg"},{"bike_id":"0c3dd50b-c3e5-4af5-9cb3-0d200d12a110","system_id":"levelo_inurba_marseille","lat":43.232,"lon":5.39961,"is_reserved":false,"is_disabled":false,"rental_uris":{"android":"levelo://app?vid=0c3dd50b-c3e5-4af5-9cb3-0d200d12a110","ios":"levelo://app?vid=0c3dd50b-c3e5-4af5-9cb3-0d200d12a110"},"vehicle_type_id":"4","last_reported":1734030444,"current_range_meters":20400,"station_id":"ce4bhn12rcd13ifvqgqg","pricing_plan_id":"cebpf4jnsgd1na2vs0mg"},{"bike_id":"8a4d7f78-d49b-4e09-bd84-6b0edf92f97f","system_id":"levelo_inurba_marseille","lat":43.28725,"lon":5.36081,"is_reserved":false,"is_disabled":false,"rental_uris":{"android":"levelo://app?vid=8a4d7f78-d49b-4e09-bd84-6b0edf92f97f","ios":"levelo://app?vid=8a4d7f78-d49b-4e09-bd84-6b0edf92f97f"},"vehicle_type_id":"4","last_reported":1734030444,"current_range_meters":39200,"station_id":"cki0cbj6b192h4jlfktg","pricing_plan_id":"cebpf4jnsgd1na2vs0mg"},{"bike_id":"38eb172d-a077-4ca7-9a48-d1565bc55b20","system_id":"levelo_inurba_marseille","lat":43.32282,"lon":5.38264,"is_reserved":false,"is_disabled":false,"rental_uris":{"android":"levelo://app?vid=38eb172d-a077-4ca7-9a48-d1565bc55b20","ios":"levelo://app?vid=38eb172d-a077-4ca7-9a48-d1565bc55b20"},"vehicle_type_id":"4","last_reported":1734030444,"current_range_meters":2800,"station_id":"ce4bhr12rcd13ifvqhqg","pricing_plan_id":"cebpf4jnsgd1na2vs0mg"},{"bike_id":"23b203e2-b068-4fc8-9a12-e11cba490e91","system_id":"levelo_inurba_marseille","lat":43.25578,"lon":5.38217,"is_reserved":false,"is_disabled":false,"rental_uris":{"android":"levelo://app?vid=23b203e2-b068-4fc8-9a12-e11cba490e91","ios":"levelo://app?vid=23b203e2-b068-4fc8-9a12-e11cba490e91"},"vehicle_type_id":"4","last_reported":1734030444,"current_range_meters":38800,"station_id":"ce4bhih2rcd13ifvqfs0","pricing_plan_id":"cebpf4jnsgd1na2vs0mg"},{"bike_id":"2dd8ab14-2331-4c87-aa08-89223cb7ee00","system_id":"levelo_inurba_marseille","lat":43.29035,"lon":5.399672,"is_reserved":false,"is_disabled":false,"rental_uris":{"android":"levelo://app?vid=2dd8ab14-2331-4c87-aa08-89223cb7ee00","ios":"levelo://app?vid=2dd8ab14-2331-4c87-aa08-89223cb7ee00"},"vehicle_type_id":"4","last_reported":1734030444,"current_range_meters":3200,"station_id":"ce4bhlh2rcd13ifvqgig","pricing_plan_id":"cebpf4jnsgd1na2vs0mg"},{"bike_id":"1789f645-96a0-46db-a3f9-2c8374b32b4f","system_id":"levelo_inurba_marseille","lat":43.33053,"lon":5.39027,"is_reserved":false,"is_disabled":false,"rental_uris":{"android":"levelo://app?vid=1789f645-96a0-46db-a3f9-2c8374b32b4f","ios":"levelo://app?vid=1789f645-96a0-46db-a3f9-2c8374b32b4f"},"vehicle_type_id":"4","last_reported":1734030444,"current_range_meters":18800,"station_id":"ce4bhr92rcd13ifvqhrg","pricing_plan_id":"cebpf4jnsgd1na2vs0mg"},{"bike_id":"80f66b82-54aa-4843-b64e-91d3afce4948","system_id":"levelo_inurba_marseille","lat":43.30776,"lon":5.3734,"is_reserved":false,"is_disabled":true,"rental_uris":{"android":"levelo://app?vid=80f66b82-54aa-4843-b64e-91d3afce4948","ios":"levelo://app?vid=80f66b82-54aa-4843-b64e-91d3afce4948"},"vehicle_type_id":"4","last_reported":1734030444,"current_range_meters":26000,"station_id":"","pricing_plan_id":"cebpf4jnsgd1na2vs0mg"},{"bike_id":"a63958b5-e1f7-4b1a-9554-85840167b0f7","system_id":"levelo_inurba_marseille","lat":43.23187,"lon":5.39975,"is_reserved":false,"is_disabled":false,"rental_uris":{"android":"levelo://app?vid=a63958b5-e1f7-4b1a-9554-85840167b0f7","ios":"levelo://app?vid=a63958b5-e1f7-4b1a-9554-85840167b0f7"},"vehicle_type_id":"4","last_reported":1734030444,"current_range_meters":38800,"station_id":"ce4bhn12rcd13ifvqgqg","pricing_plan_id":"cebpf4jnsgd1na2vs0mg"},{"bike_id":"87fce182-3296-4aa0-bc7c-a2decdf4c36c","system_id":"levelo_inurba_marseille","lat":43.28408,"lon":5.37519,"is_reserved":false,"is_disabled":false,"rental_uris":{"android":"levelo://app?vid=87fce182-3296-4aa0-bc7c-a2decdf4c36c","ios":"levelo://app?vid=87fce182-3296-4aa0-bc7c-a2decdf4c36c"},"vehicle_type_id":"4","last_reported":1734030444,"current_range_meters":16800,"station_id":"ce4bh412rcd13ifvqds0","pricing_plan_id":"cebpf4jnsgd1na2vs0mg"},{"bike_id":"3a56946e-b571-4f0a-89c3-228266a44430","system_id":"levelo_inurba_marseille","lat":43.26597,"lon":5.38971,"is_reserved":false,"is_disabled":true,"rental_uris":{"android":"levelo://app?vid=3a56946e-b571-4f0a-89c3-228266a44430","ios":"levelo://app?vid=3a56946e-b571-4f0a-89c3-228266a44430"},"vehicle_type_id":"4","last_reported":1734030444,"current_range_meters":2000,"station_id":"","pricing_plan_id":"cebpf4jnsgd1na2vs0mg"},{"bike_id":"fc92de31-1134-4b45-8e2b-7e3cf342d876","system_id":"levelo_inurba_marseille","lat":43.3014,"lon":5.38777,"is_reserved":false,"is_disabled":false,"rental_uris":{"android":"levelo://app?vid=fc92de31-1134-4b45-8e2b-7e3cf342d876","ios":"levelo://app?vid=fc92de31-1134-4b45-8e2b-7e3cf342d876"},"vehicle_type_id":"4","last_reported":1734030444,"current_range_meters":2000,"station_id":"ce4bghh2rcd13ifvqb60","pricing_plan_id":"cebpf4jnsgd1na2vs0mg"},{"bike_id":"5da35048-365f-4c26-b899-7414eb3a70fd","system_id":"levelo_inurba_marseille","lat":43.30935,"lon":5.40141,"is_reserved":false,"is_disabled":true,"rental_uris":{"android":"levelo://app?vid=5da35048-365f-4c26-b899-7414eb3a70fd","ios":"levelo://app?vid=5da35048-365f-4c26-b899-7414eb3a70fd"},"vehicle_type_id":"4","last_reported":1734030444,"current_range_meters":0,"station_id":"ce4bgvp2rcd13ifvqct0","pricing_plan_id":"cebpf4jnsgd1na2vs0mg"},{"bike_id":"3ea1724b-cceb-4cf7-893e-08ded22dd304","system_id":"levelo_inurba_marseille","lat":43.27811,"lon":5.40706,"is_reserved":false,"is_disabled":false,"rental_uris":{"android":"levelo://app?vid=3ea1724b-cceb-4cf7-893e-08ded22dd304","ios":"levelo://app?vid=3ea1724b-cceb-4cf7-893e-08ded22dd304"},"vehicle_type_id":"4","last_reported":1734030444,"current_range_meters":20800,"station_id":"ce4bhnh2rcd13ifvqgtg","pricing_plan_id":"cebpf4jnsgd1na2vs0mg"},{"bike_id":"c7d894cd-93e6-4072-a8ed-8a33ea2aba97","system_id":"levelo_inurba_marseille","lat":43.28933,"lon":5.3663,"is_reserved":false,"is_disabled":false,"rental_uris":{"android":"levelo://app?vid=c7d894cd-93e6-4072-a8ed-8a33ea2aba97","ios":"levelo://app?vid=c7d894cd-93e6-4072-a8ed-8a33ea2aba97"},"vehicle_type_id":"4","last_reported":1734030444,"current_range_meters":24800,"station_id":"ce4bhap2rcd13ifvqek0","pricing_plan_id":"cebpf4jnsgd1na2vs0mg"},{"bike_id":"a7e1a95d-e17d-4534-ad4a-7a3c560ff7aa","system_id":"levelo_inurba_marseille","lat":43.30215,"lon":5.39457,"is_reserved":false,"is_disabled":false,"rental_uris":{"android":"levelo://app?vid=a7e1a95d-e17d-4534-ad4a-7a3c560ff7aa","ios":"levelo://app?vid=a7e1a95d-e17d-4534-ad4a-7a3c560ff7aa"},"vehicle_type_id":"4","last_reported":1734030444,"current_range_meters":30400,"station_id":"ce4bh0p2rcd13ifvqd70","pricing_plan_id":"cebpf4jnsgd1na2vs0mg"},{"bike_id":"48f89538-caef-48c0-b76c-a236ac0f81eb","system_id":"levelo_inurba_marseille","lat":43.2954,"lon":5.38546,"is_reserved":false,"is_disabled":true,"rental_uris":{"android":"levelo://app?vid=48f89538-caef-48c0-b76c-a236ac0f81eb","ios":"levelo://app?vid=48f89538-caef-48c0-b76c-a236ac0f81eb"},"vehicle_type_id":"4","last_reported":1734030444,"current_range_meters":24400,"station_id":"ce4bgih2rcd13ifvqba0","pricing_plan_id":"cebpf4jnsgd1na2vs0mg"},{"bike_id":"edaea664-24e0-4d6c-aa7a-497f5c5f88f6","system_id":"levelo_inurba_marseille","lat":43.27003,"lon":5.39175,"is_reserved":false,"is_disabled":true,"rental_uris":{"android":"levelo://app?vid=edaea664-24e0-4d6c-aa7a-497f5c5f88f6","ios":"levelo://app?vid=edaea664-24e0-4d6c-aa7a-497f5c5f88f6"},"vehicle_type_id":"4","last_reported":1734030444,"current_range_meters":1200,"station_id":"","pricing_plan_id":"cebpf4jnsgd1na2vs0mg"},{"bike_id":"bf067af6-6d4e-462d-b00f-169d5c27dc6d","system_id":"levelo_inurba_marseille","lat":43.29528,"lon":5.38553,"is_reserved":false,"is_disabled":false,"rental_uris":{"android":"levelo://app?vid=bf067af6-6d4e-462d-b00f-169d5c27dc6d","ios":"levelo://app?vid=bf067af6-6d4e-462d-b00f-169d5c27dc6d"},"vehicle_type_id":"4","last_reported":1734030444,"current_range_meters":21600,"station_id":"ce4bgih2rcd13ifvqba0","pricing_plan_id":"cebpf4jnsgd1na2vs0mg"},{"bike_id":"b13f7988-892d-489e-89d4-b900be8b8ffb","system_id":"levelo_inurba_marseille","lat":43.29716,"lon":5.37263,"is_reserved":false,"is_disabled":true,"rental_uris":{"android":"levelo://app?vid=b13f7988-892d-489e-89d4-b900be8b8ffb","ios":"levelo://app?vid=b13f7988-892d-489e-89d4-b900be8b8ffb"},"vehicle_type_id":"4","last_reported":1734030444,"current_range_meters":38800,"station_id":"ce4bgk12rcd13ifvqbj0","pricing_plan_id":"cebpf4jnsgd1na2vs0mg"},{"bike_id":"6de02dea-688b-411f-9c3e-3910747c36be","system_id":"levelo_inurba_marseille","lat":43.29607,"lon":5.38102,"is_reserved":false,"is_disabled":false,"rental_uris":{"android":"levelo://app?vid=6de02dea-688b-411f-9c3e-3910747c36be","ios":"levelo://app?vid=6de02dea-688b-411f-9c3e-3910747c36be"},"vehicle_type_id":"4","last_reported":1734030444,"current_range_meters":25200,"station_id":"ce4bgl12rcd13ifvqbo0","pricing_plan_id":"cebpf4jnsgd1na2vs0mg"},{"bike_id":"dc4a899f-9d59-4a76-9cd3-24f8795428c8","system_id":"levelo_inurba_marseille","lat":43.27828,"lon":5.39203,"is_reserved":false,"is_disabled":false,"rental_uris":{"android":"levelo://app?vid=dc4a899f-9d59-4a76-9cd3-24f8795428c8","ios":"levelo://app?vid=dc4a899f-9d59-4a76-9cd3-24f8795428c8"},"vehicle_type_id":"4","last_reported":1734030444,"current_range_meters":36400,"station_id":"ce4bhjp2rcd13ifvqga0","pricing_plan_id":"cebpf4jnsgd1na2vs0mg"},{"bike_id":"11933e04-d81a-4d25-aa83-cc295172b3a1","system_id":"levelo_inurba_marseille","lat":43.25408,"lon":5.38273,"is_reserved":false,"is_disabled":true,"rental_uris":{"android":"levelo://app?vid=11933e04-d81a-4d25-aa83-cc295172b3a1","ios":"levelo://app?vid=11933e04-d81a-4d25-aa83-cc295172b3a1"},"vehicle_type_id":"4","last_reported":1734030444,"current_range_meters":28800,"station_id":"","pricing_plan_id":"cebpf4jnsgd1na2vs0mg"},{"bike_id":"2cfc84d6-590a-4353-a6f8-3d0864d02664","system_id":"levelo_inurba_marseille","lat":43.29202,"lon":5.39318,"is_reserved":false,"is_disabled":false,"rental_uris":{"android":"levelo://app?vid=2cfc84d6-590a-4353-a6f8-3d0864d02664","ios":"levelo://app?vid=2cfc84d6-590a-4353-a6f8-3d0864d02664"},"vehicle_type_id":"4","last_reported":1734030444,"current_range_meters":38800,"station_id":"ce4bh192rcd13ifvqdd0","pricing_plan_id":"cebpf4jnsgd1na2vs0mg"},{"bike_id":"bf883a44-fa3b-47d6-bede-63c4737eb08e","system_id":"levelo_inurba_marseille","lat":43.293113,"lon":5.371453,"is_reserved":false,"is_disabled":false,"rental_uris":{"android":"levelo://app?vid=bf883a44-fa3b-47d6-bede-63c4737eb08e","ios":"levelo://app?vid=bf883a44-fa3b-47d6-bede-63c4737eb08e"},"vehicle_type_id":"4","last_reported":1734030444,"current_range_meters":27600,"station_id":"ce4bgh92rcd13ifvqb40","pricing_plan_id":"cebpf4jnsgd1na2vs0mg"},{"bike_id":"44043e74-3bb0-47c4-bd3e-6ee7a2f22137","system_id":"levelo_inurba_marseille","lat":43.2884,"lon":5.39297,"is_reserved":false,"is_disabled":false,"rental_uris":{"android":"levelo://app?vid=44043e74-3bb0-47c4-bd3e-6ee7a2f22137","ios":"levelo://app?vid=44043e74-3bb0-47c4-bd3e-6ee7a2f22137"},"vehicle_type_id":"4","last_reported":1734030444,"current_range_meters":14400,"station_id":"ce4bh2p2rcd13ifvqdi0","pricing_plan_id":"cebpf4jnsgd1na2vs0mg"},{"bike_id":"30b7f7b0-cffb-44e8-9e23-86428fe1183d","system_id":"levelo_inurba_marseille","lat":43.23074,"lon":5.35492,"is_reserved":false,"is_disabled":false,"rental_uris":{"android":"levelo://app?vid=30b7f7b0-cffb-44e8-9e23-86428fe1183d","ios":"levelo://app?vid=30b7f7b0-cffb-44e8-9e23-86428fe1183d"},"vehicle_type_id":"4","last_reported":1734030444,"current_range_meters":6800,"station_id":"cpo3342slgdg3j2ifvpg","pricing_plan_id":"cebpf4jnsgd1na2vs0mg"},{"bike_id":"cdee45cd-2c85-49c5-ad4f-3d1f26b7f88f","system_id":"levelo_inurba_marseille","lat":43.3133,"lon":5.39695,"is_reserved":false,"is_disabled":false,"rental_uris":{"android":"levelo://app?vid=cdee45cd-2c85-49c5-ad4f-3d1f26b7f88f","ios":"levelo://app?vid=cdee45cd-2c85-49c5-ad4f-3d1f26b7f88f"},"vehicle_type_id":"4","last_reported":1734030444,"current_range_meters":24000,"station_id":"ce4bgvp2rcd13ifvqcu0","pricing_plan_id":"cebpf4jnsgd1na2vs0mg"},{"bike_id":"049cce1f-d887-467e-8255-5394f58f0c2a","system_id":"levelo_inurba_marseille","lat":43.27368,"lon":5.3624,"is_reserved":false,"is_disabled":false,"rental_uris":{"android":"levelo://app?vid=049cce1f-d887-467e-8255-5394f58f0c2a","ios":"levelo://app?vid=049cce1f-d887-467e-8255-5394f58f0c2a"},"vehicle_type_id":"4","last_reported":1734030444,"current_range_meters":14400,"station_id":"ce4bhbh2rcd13ifvqeo0","pricing_plan_id":"cebpf4jnsgd1na2vs0mg"},{"bike_id":"c962957d-ec10-4997-96e1-a869343f922e","system_id":"levelo_inurba_marseille","lat":43.32679,"lon":5.36069,"is_reserved":false,"is_disabled":false,"rental_uris":{"android":"levelo://app?vid=c962957d-ec10-4997-96e1-a869343f922e","ios":"levelo://app?vid=c962957d-ec10-4997-96e1-a869343f922e"},"vehicle_type_id":"4","last_reported":1734030444,"current_range_meters":8800,"station_id":"","pricing_plan_id":"cebpf4jnsgd1na2vs0mg"},{"bike_id":"6f8f9ab5-6fae-4df9-9898-c9c294d979e6","system_id":"levelo_inurba_marseille","lat":43.29908,"lon":5.38137,"is_reserved":false,"is_disabled":false,"rental_uris":{"android":"levelo://app?vid=6f8f9ab5-6fae-4df9-9898-c9c294d979e6","ios":"levelo://app?vid=6f8f9ab5-6fae-4df9-9898-c9c294d979e6"},"vehicle_type_id":"4","last_reported":1734030444,"current_range_meters":36000,"station_id":"ce4bgj12rcd13ifvqbc0","pricing_plan_id":"cebpf4jnsgd1na2vs0mg"},{"bike_id":"80e7d90a-8050-4fc6-8802-63867dac5ff2","system_id":"levelo_inurba_marseille","lat":43.28692,"lon":5.37396,"is_reserved":false,"is_disabled":true,"rental_uris":{"android":"levelo://app?vid=80e7d90a-8050-4fc6-8802-63867dac5ff2","ios":"levelo://app?vid=80e7d90a-8050-4fc6-8802-63867dac5ff2"},"vehicle_type_id":"4","last_reported":1734030444,"current_range_meters":36800,"station_id":"ce4bh3p2rcd13ifvqdq0","pricing_plan_id":"cebpf4jnsgd1na2vs0mg"},{"bike_id":"f0dd55a5-6d24-4977-b540-e32383db0b3e","system_id":"levelo_inurba_marseille","lat":43.24076,"lon":5.37762,"is_reserved":false,"is_disabled":true,"rental_uris":{"android":"levelo://app?vid=f0dd55a5-6d24-4977-b540-e32383db0b3e","ios":"levelo://app?vid=f0dd55a5-6d24-4977-b540-e32383db0b3e"},"vehicle_type_id":"4","last_reported":1734030444,"current_range_meters":0,"station_id":"ce4bhnp2rcd13ifvqgvg","pricing_plan_id":"cebpf4jnsgd1na2vs0mg"},{"bike_id":"3cc49aec-0146-4bd6-8ced-13dc2b354f47","system_id":"levelo_inurba_marseille","lat":43.23184,"lon":5.39979,"is_reserved":false,"is_disabled":false,"rental_uris":{"android":"levelo://app?vid=3cc49aec-0146-4bd6-8ced-13dc2b354f47","ios":"levelo://app?vid=3cc49aec-0146-4bd6-8ced-13dc2b354f47"},"vehicle_type_id":"4","last_reported":1734030444,"current_range_meters":38800,"station_id":"ce4bhn12rcd13ifvqgqg","pricing_plan_id":"cebpf4jnsgd1na2vs0mg"},{"bike_id":"e79247d7-f349-4d85-b8cc-75ca92971f51","system_id":"levelo_inurba_marseille","lat":43.33024,"lon":5.3904,"is_reserved":false,"is_disabled":true,"rental_uris":{"android":"levelo://app?vid=e79247d7-f349-4d85-b8cc-75ca92971f51","ios":"levelo://app?vid=e79247d7-f349-4d85-b8cc-75ca92971f51"},"vehicle_type_id":"4","last_reported":1734030444,"current_range_meters":0,"station_id":"ce4bhr92rcd13ifvqhrg","pricing_plan_id":"cebpf4jnsgd1na2vs0mg"},{"bike_id":"b773f0c7-24dd-42e5-8c06-4f4f47ee5974","system_id":"levelo_inurba_marseille","lat":43.25869,"lon":5.39893,"is_reserved":false,"is_disabled":false,"rental_uris":{"android":"levelo://app?vid=b773f0c7-24dd-42e5-8c06-4f4f47ee5974","ios":"levelo://app?vid=b773f0c7-24dd-42e5-8c06-4f4f47ee5974"},"vehicle_type_id":"4","last_reported":1734030444,"current_range_meters":36800,"station_id":"ce4bhl92rcd13ifvqghg","pricing_plan_id":"cebpf4jnsgd1na2vs0mg"},{"bike_id":"18351016-0a75-4df6-afe3-5519bc429cee","system_id":"levelo_inurba_marseille","lat":43.3169,"lon":5.40475,"is_reserved":false,"is_disabled":true,"rental_uris":{"android":"levelo://app?vid=18351016-0a75-4df6-afe3-5519bc429cee","ios":"levelo://app?vid=18351016-0a75-4df6-afe3-5519bc429cee"},"vehicle_type_id":"4","last_reported":1734030444,"current_range_meters":0,"station_id":"ce4bh012rcd13ifvqd00","pricing_plan_id":"cebpf4jnsgd1na2vs0mg"},{"bike_id":"5d2f0372-ab78-4b59-a3b0-1994027e8196","system_id":"levelo_inurba_marseille","lat":43.28876,"lon":5.35822,"is_reserved":false,"is_disabled":false,"rental_uris":{"android":"levelo://app?vid=5d2f0372-ab78-4b59-a3b0-1994027e8196","ios":"levelo://app?vid=5d2f0372-ab78-4b59-a3b0-1994027e8196"},"vehicle_type_id":"4","last_reported":1734030444,"current_range_meters":38800,"station_id":"ce4bhb12rcd13ifvqem0","pricing_plan_id":"cebpf4jnsgd1na2vs0mg"},{"bike_id":"05383bc6-c2de-47c1-b1f9-2afa812b2ad2","system_id":"levelo_inurba_marseille","lat":43.29187,"lon":5.35794,"is_reserved":false,"is_disabled":false,"rental_uris":{"android":"levelo://app?vid=05383bc6-c2de-47c1-b1f9-2afa812b2ad2","ios":"levelo://app?vid=05383bc6-c2de-47c1-b1f9-2afa812b2ad2"},"vehicle_type_id":"4","last_reported":1734030444,"current_range_meters":38800,"station_id":"ce4bhb12rcd13ifvqel0","pricing_plan_id":"cebpf4jnsgd1na2vs0mg"},{"bike_id":"48914499-0741-4bfa-8c90-01b0c61cb4de","system_id":"levelo_inurba_marseille","lat":43.29572,"lon":5.37512,"is_reserved":false,"is_disabled":true,"rental_uris":{"android":"levelo://app?vid=48914499-0741-4bfa-8c90-01b0c61cb4de","ios":"levelo://app?vid=48914499-0741-4bfa-8c90-01b0c61cb4de"},"vehicle_type_id":"4","last_reported":1734030444,"current_range_meters":400,"station_id":"ce4bgh92rcd13ifvqb50","pricing_plan_id":"cebpf4jnsgd1na2vs0mg"},{"bike_id":"e43eb1f6-3ba6-4ad6-96a6-9bab6d7b3199","system_id":"levelo_inurba_marseille","lat":43.27069,"lon":5.40255,"is_reserved":false,"is_disabled":true,"rental_uris":{"android":"levelo://app?vid=e43eb1f6-3ba6-4ad6-96a6-9bab6d7b3199","ios":"levelo://app?vid=e43eb1f6-3ba6-4ad6-96a6-9bab6d7b3199"},"vehicle_type_id":"4","last_reported":1734030444,"current_range_meters":36400,"station_id":"ce4bhk92rcd13ifvqgc0","pricing_plan_id":"cebpf4jnsgd1na2vs0mg"},{"bike_id":"d2a98a1f-64a2-40e5-aa0b-ffab91cc3d62","system_id":"levelo_inurba_marseille","lat":43.29029,"lon":5.38136,"is_reserved":false,"is_disabled":true,"rental_uris":{"android":"levelo://app?vid=d2a98a1f-64a2-40e5-aa0b-ffab91cc3d62","ios":"levelo://app?vid=d2a98a1f-64a2-40e5-aa0b-ffab91cc3d62"},"vehicle_type_id":"4","last_reported":1734030444,"current_range_meters":24800,"station_id":"ce4bh4p2rcd13ifvqe1g","pricing_plan_id":"cebpf4jnsgd1na2vs0mg"},{"bike_id":"e351e90f-f216-4d28-8a67-9a8384a013d2","system_id":"levelo_inurba_marseille","lat":43.31707,"lon":5.40457,"is_reserved":false,"is_disabled":false,"rental_uris":{"android":"levelo://app?vid=e351e90f-f216-4d28-8a67-9a8384a013d2","ios":"levelo://app?vid=e351e90f-f216-4d28-8a67-9a8384a013d2"},"vehicle_type_id":"4","last_reported":1734030444,"current_range_meters":13600,"station_id":"ce4bh012rcd13ifvqd00","pricing_plan_id":"cebpf4jnsgd1na2vs0mg"},{"bike_id":"af67ac53-ba21-4ff0-8334-95679e9ff2cc","system_id":"levelo_inurba_marseille","lat":43.278805,"lon":5.388003,"is_reserved":false,"is_disabled":true,"rental_uris":{"android":"levelo://app?vid=af67ac53-ba21-4ff0-8334-95679e9ff2cc","ios":"levelo://app?vid=af67ac53-ba21-4ff0-8334-95679e9ff2cc"},"vehicle_type_id":"4","last_reported":1734030444,"current_range_meters":9600,"station_id":"","pricing_plan_id":"cebpf4jnsgd1na2vs0mg"},{"bike_id":"63f6aee0-060f-4eac-b095-960be15afb68","system_id":"levelo_inurba_marseille","lat":43.31694,"lon":5.40465,"is_reserved":false,"is_disabled":false,"rental_uris":{"android":"levelo://app?vid=63f6aee0-060f-4eac-b095-960be15afb68","ios":"levelo://app?vid=63f6aee0-060f-4eac-b095-960be15afb68"},"vehicle_type_id":"4","last_reported":1734030444,"current_range_meters":12000,"station_id":"ce4bh012rcd13ifvqd00","pricing_plan_id":"cebpf4jnsgd1na2vs0mg"},{"bike_id":"299b4ec6-91e9-4e5b-b264-252ec76c63ff","system_id":"levelo_inurba_marseille","lat":43.27814,"lon":5.40716,"is_reserved":false,"is_disabled":false,"rental_uris":{"android":"levelo://app?vid=299b4ec6-91e9-4e5b-b264-252ec76c63ff","ios":"levelo://app?vid=299b4ec6-91e9-4e5b-b264-252ec76c63ff"},"vehicle_type_id":"4","last_reported":1734030444,"current_range_meters":12800,"station_id":"ce4bhnh2rcd13ifvqgtg","pricing_plan_id":"cebpf4jnsgd1na2vs0mg"},{"bike_id":"fad7169f-01cb-49a9-92d1-015bdf476099","system_id":"levelo_inurba_marseille","lat":43.30422,"lon":5.39755,"is_reserved":false,"is_disabled":false,"rental_uris":{"android":"levelo://app?vid=fad7169f-01cb-49a9-92d1-015bdf476099","ios":"levelo://app?vid=fad7169f-01cb-49a9-92d1-015bdf476099"},"vehicle_type_id":"4","last_reported":1734030444,"current_range_meters":8800,"station_id":"ce4bh092rcd13ifvqd20","pricing_plan_id":"cebpf4jnsgd1na2vs0mg"},{"bike_id":"a8952a43-ed45-4b45-98c8-1bb60ae3ae5a","system_id":"levelo_inurba_marseille","lat":43.3078,"lon":5.37649,"is_reserved":false,"is_disabled":true,"rental_uris":{"android":"levelo://app?vid=a8952a43-ed45-4b45-98c8-1bb60ae3ae5a","ios":"levelo://app?vid=a8952a43-ed45-4b45-98c8-1bb60ae3ae5a"},"vehicle_type_id":"4","last_reported":1734030444,"current_range_meters":2800,"station_id":"ce4bgv92rcd13ifvqcq0","pricing_plan_id":"cebpf4jnsgd1na2vs0mg"},{"bike_id":"e629dc09-435c-49ef-9023-81bcbfdc66e3","system_id":"levelo_inurba_marseille","lat":43.2906,"lon":5.37156,"is_reserved":false,"is_disabled":true,"rental_uris":{"android":"levelo://app?vid=e629dc09-435c-49ef-9023-81bcbfdc66e3","ios":"levelo://app?vid=e629dc09-435c-49ef-9023-81bcbfdc66e3"},"vehicle_type_id":"4","last_reported":1734030444,"current_range_meters":36800,"station_id":"ce4bh5p2rcd13ifvqe4g","pricing_plan_id":"cebpf4jnsgd1na2vs0mg"},{"bike_id":"2863b9fc-1102-4394-a6ac-204ed254f891","system_id":"levelo_inurba_marseille","lat":43.30246,"lon":5.40037,"is_reserved":false,"is_disabled":true,"rental_uris":{"android":"levelo://app?vid=2863b9fc-1102-4394-a6ac-204ed254f891","ios":"levelo://app?vid=2863b9fc-1102-4394-a6ac-204ed254f891"},"vehicle_type_id":"4","last_reported":1734030444,"current_range_meters":0,"station_id":"ce4bgvh2rcd13ifvqcs0","pricing_plan_id":"cebpf4jnsgd1na2vs0mg"},{"bike_id":"33400e60-39b9-42c2-89ef-b84fdae2a31c","system_id":"levelo_inurba_marseille","lat":43.28107,"lon":5.37837,"is_reserved":false,"is_disabled":false,"rental_uris":{"android":"levelo://app?vid=33400e60-39b9-42c2-89ef-b84fdae2a31c","ios":"levelo://app?vid=33400e60-39b9-42c2-89ef-b84fdae2a31c"},"vehicle_type_id":"4","last_reported":1734030444,"current_range_meters":30000,"station_id":"ce4bha12rcd13ifvqee0","pricing_plan_id":"cebpf4jnsgd1na2vs0mg"},{"bike_id":"77db0e34-30a3-4458-8eec-70395c9d4faa","system_id":"levelo_inurba_marseille","lat":43.33025,"lon":5.39035,"is_reserved":false,"is_disabled":false,"rental_uris":{"android":"levelo://app?vid=77db0e34-30a3-4458-8eec-70395c9d4faa","ios":"levelo://app?vid=77db0e34-30a3-4458-8eec-70395c9d4faa"},"vehicle_type_id":"4","last_reported":1734030444,"current_range_meters":29600,"station_id":"ce4bhr92rcd13ifvqhrg","pricing_plan_id":"cebpf4jnsgd1na2vs0mg"},{"bike_id":"d65fcea9-51ba-41f0-86fd-e798dfdd6f09","system_id":"levelo_inurba_marseille","lat":43.28692,"lon":5.38301,"is_reserved":false,"is_disabled":true,"rental_uris":{"android":"levelo://app?vid=d65fcea9-51ba-41f0-86fd-e798dfdd6f09","ios":"levelo://app?vid=d65fcea9-51ba-41f0-86fd-e798dfdd6f09"},"vehicle_type_id":"4","last_reported":1734030444,"current_range_meters":1600,"station_id":"","pricing_plan_id":"cebpf4jnsgd1na2vs0mg"},{"bike_id":"9f90c432-ac23-4439-a028-afaf147c7c4b","system_id":"levelo_inurba_marseille","lat":43.27494,"lon":5.42446,"is_reserved":false,"is_disabled":false,"rental_uris":{"android":"levelo://app?vid=9f90c432-ac23-4439-a028-afaf147c7c4b","ios":"levelo://app?vid=9f90c432-ac23-4439-a028-afaf147c7c4b"},"vehicle_type_id":"4","last_reported":1734030444,"current_range_meters":9200,"station_id":"ce4bhn92rcd13ifvqgrg","pricing_plan_id":"cebpf4jnsgd1na2vs0mg"},{"bike_id":"0a2ff15b-7083-46de-bbe3-0cf5955b285c","system_id":"levelo_inurba_marseille","lat":43.30798,"lon":5.43522,"is_reserved":false,"is_disabled":false,"rental_uris":{"android":"levelo://app?vid=0a2ff15b-7083-46de-bbe3-0cf5955b285c","ios":"levelo://app?vid=0a2ff15b-7083-46de-bbe3-0cf5955b285c"},"vehicle_type_id":"4","last_reported":1734030444,"current_range_meters":15200,"station_id":"ce4bhph2rcd13ifvqheg","pricing_plan_id":"cebpf4jnsgd1na2vs0mg"},{"bike_id":"812146ef-5497-4746-b4ff-5d5d828fb6ac","system_id":"levelo_inurba_marseille","lat":43.31707,"lon":5.42406,"is_reserved":false,"is_disabled":true,"rental_uris":{"android":"levelo://app?vid=812146ef-5497-4746-b4ff-5d5d828fb6ac","ios":"levelo://app?vid=812146ef-5497-4746-b4ff-5d5d828fb6ac"},"vehicle_type_id":"4","last_reported":1734030444,"current_range_meters":800,"station_id":"ce4bhp92rcd13ifvqhbg","pricing_plan_id":"cebpf4jnsgd1na2vs0mg"},{"bike_id":"c51059b4-b7e8-4269-8f86-6c6fe684a1d8","system_id":"levelo_inurba_marseille","lat":43.26483,"lon":5.39554,"is_reserved":false,"is_disabled":false,"rental_uris":{"android":"levelo://app?vid=c51059b4-b7e8-4269-8f86-6c6fe684a1d8","ios":"levelo://app?vid=c51059b4-b7e8-4269-8f86-6c6fe684a1d8"},"vehicle_type_id":"4","last_reported":1734030444,"current_range_meters":38800,"station_id":"ce4bhi12rcd13ifvqfq0","pricing_plan_id":"cebpf4jnsgd1na2vs0mg"},{"bike_id":"95504414-06e2-4f66-b082-d24c8ecb1bf7","system_id":"levelo_inurba_marseille","lat":43.26937,"lon":5.40252,"is_reserved":false,"is_disabled":false,"rental_uris":{"android":"levelo://app?vid=95504414-06e2-4f66-b082-d24c8ecb1bf7","ios":"levelo://app?vid=95504414-06e2-4f66-b082-d24c8ecb1bf7"},"vehicle_type_id":"4","last_reported":1734030444,"current_range_meters":38800,"station_id":"cjm6bp8fraef2m0cb0m0","pricing_plan_id":"cebpf4jnsgd1na2vs0mg"},{"bike_id":"4873c46e-cb28-4a7f-a38b-62bd40ae6e70","system_id":"levelo_inurba_marseille","lat":43.27912,"lon":5.39588,"is_reserved":false,"is_disabled":true,"rental_uris":{"android":"levelo://app?vid=4873c46e-cb28-4a7f-a38b-62bd40ae6e70","ios":"levelo://app?vid=4873c46e-cb28-4a7f-a38b-62bd40ae6e70"},"vehicle_type_id":"4","last_reported":1734030444,"current_range_meters":30400,"station_id":"ce4bhf92rcd13ifvqf40","pricing_plan_id":"cebpf4jnsgd1na2vs0mg"},{"bike_id":"21df3e35-5766-45ec-8fda-03d6d78971de","system_id":"levelo_inurba_marseille","lat":43.29681,"lon":5.37287,"is_reserved":false,"is_disabled":false,"rental_uris":{"android":"levelo://app?vid=21df3e35-5766-45ec-8fda-03d6d78971de","ios":"levelo://app?vid=21df3e35-5766-45ec-8fda-03d6d78971de"},"vehicle_type_id":"4","last_reported":1734030444,"current_range_meters":15200,"station_id":"ce4bgk12rcd13ifvqbj0","pricing_plan_id":"cebpf4jnsgd1na2vs0mg"},{"bike_id":"26e9aaa5-be02-41d8-8cb0-77845ae122f6","system_id":"levelo_inurba_marseille","lat":43.29258,"lon":5.38423,"is_reserved":false,"is_disabled":false,"rental_uris":{"android":"levelo://app?vid=26e9aaa5-be02-41d8-8cb0-77845ae122f6","ios":"levelo://app?vid=26e9aaa5-be02-41d8-8cb0-77845ae122f6"},"vehicle_type_id":"4","last_reported":1734030444,"current_range_meters":1200,"station_id":"ce4bh692rcd13ifvqea0","pricing_plan_id":"cebpf4jnsgd1na2vs0mg"},{"bike_id":"985e0c10-b79c-4696-bba8-8b5cf2b5dcf5","system_id":"levelo_inurba_marseille","lat":43.3054,"lon":5.38421,"is_reserved":false,"is_disabled":false,"rental_uris":{"android":"levelo://app?vid=985e0c10-b79c-4696-bba8-8b5cf2b5dcf5","ios":"levelo://app?vid=985e0c10-b79c-4696-bba8-8b5cf2b5dcf5"},"vehicle_type_id":"4","last_reported":1734030444,"current_range_meters":38000,"station_id":"ce4bgg92rcd13ifvqb30","pricing_plan_id":"cebpf4jnsgd1na2vs0mg"},{"bike_id":"e1c4092d-7afb-447e-904a-caf651e36ce2","system_id":"levelo_inurba_marseille","lat":43.31268,"lon":5.37407,"is_reserved":false,"is_disabled":true,"rental_uris":{"android":"levelo://app?vid=e1c4092d-7afb-447e-904a-caf651e36ce2","ios":"levelo://app?vid=e1c4092d-7afb-447e-904a-caf651e36ce2"},"vehicle_type_id":"4","last_reported":1734030444,"current_range_meters":1600,"station_id":"","pricing_plan_id":"cebpf4jnsgd1na2vs0mg"},{"bike_id":"88fd6081-e8a1-4b8c-a88f-ce6e40a6b4bf","system_id":"levelo_inurba_marseille","lat":43.26802,"lon":5.40256,"is_reserved":false,"is_disabled":true,"rental_uris":{"android":"levelo://app?vid=88fd6081-e8a1-4b8c-a88f-ce6e40a6b4bf","ios":"levelo://app?vid=88fd6081-e8a1-4b8c-a88f-ce6e40a6b4bf"},"vehicle_type_id":"4","last_reported":1734030444,"current_range_meters":0,"station_id":"ce501612rcd8frsf0b60","pricing_plan_id":"cebpf4jnsgd1na2vs0mg"},{"bike_id":"9b113118-f269-4fee-9233-a39c056dbfe2","system_id":"levelo_inurba_marseille","lat":43.31711,"lon":5.37742,"is_reserved":false,"is_disabled":true,"rental_uris":{"android":"levelo://app?vid=9b113118-f269-4fee-9233-a39c056dbfe2","ios":"levelo://app?vid=9b113118-f269-4fee-9233-a39c056dbfe2"},"vehicle_type_id":"4","last_reported":1734030444,"current_range_meters":800,"station_id":"ce4bgth2rcd13ifvqch0","pricing_plan_id":"cebpf4jnsgd1na2vs0mg"},{"bike_id":"2ce59a81-0794-4a2b-8566-85f5271c5ef9","system_id":"levelo_inurba_marseille","lat":43.261871,"lon":5.374558,"is_reserved":false,"is_disabled":false,"rental_uris":{"android":"levelo://app?vid=2ce59a81-0794-4a2b-8566-85f5271c5ef9","ios":"levelo://app?vid=2ce59a81-0794-4a2b-8566-85f5271c5ef9"},"vehicle_type_id":"4","last_reported":1734030444,"current_range_meters":17200,"station_id":"ce4bhgp2rcd13ifvqfc0","pricing_plan_id":"cebpf4jnsgd1na2vs0mg"},{"bike_id":"9d331de0-84bf-44c2-91bf-e8ea661e3824","system_id":"levelo_inurba_marseille","lat":43.29868,"lon":5.39727,"is_reserved":false,"is_disabled":false,"rental_uris":{"android":"levelo://app?vid=9d331de0-84bf-44c2-91bf-e8ea661e3824","ios":"levelo://app?vid=9d331de0-84bf-44c2-91bf-e8ea661e3824"},"vehicle_type_id":"4","last_reported":1734030444,"current_range_meters":36000,"station_id":"ce4bh0h2rcd13ifvqd50","pricing_plan_id":"cebpf4jnsgd1na2vs0mg"},{"bike_id":"b5c39ad1-6513-4dc7-89df-e889e750a35d","system_id":"levelo_inurba_marseille","lat":43.29165,"lon":5.37144,"is_reserved":false,"is_disabled":true,"rental_uris":{"android":"levelo://app?vid=b5c39ad1-6513-4dc7-89df-e889e750a35d","ios":"levelo://app?vid=b5c39ad1-6513-4dc7-89df-e889e750a35d"},"vehicle_type_id":"4","last_reported":1734030444,"current_range_meters":0,"station_id":"ce4bha92rcd13ifvqeh0","pricing_plan_id":"cebpf4jnsgd1na2vs0mg"},{"bike_id":"18449eca-7cd4-4637-aad8-d740a9109818","system_id":"levelo_inurba_marseille","lat":43.26805,"lon":5.40256,"is_reserved":false,"is_disabled":false,"rental_uris":{"android":"levelo://app?vid=18449eca-7cd4-4637-aad8-d740a9109818","ios":"levelo://app?vid=18449eca-7cd4-4637-aad8-d740a9109818"},"vehicle_type_id":"4","last_reported":1734030444,"current_range_meters":38000,"station_id":"ce501612rcd8frsf0b60","pricing_plan_id":"cebpf4jnsgd1na2vs0mg"},{"bike_id":"875e1e70-a4d6-4de2-a9b5-49d5f2778c60","system_id":"levelo_inurba_marseille","lat":43.24802,"lon":5.37457,"is_reserved":false,"is_disabled":false,"rental_uris":{"android":"levelo://app?vid=875e1e70-a4d6-4de2-a9b5-49d5f2778c60","ios":"levelo://app?vid=875e1e70-a4d6-4de2-a9b5-49d5f2778c60"},"vehicle_type_id":"4","last_reported":1734030444,"current_range_meters":20400,"station_id":"ce4bhgh2rcd13ifvqfb0","pricing_plan_id":"cebpf4jnsgd1na2vs0mg"},{"bike_id":"3888a69b-a227-446c-9ee0-0e069b6a22ce","system_id":"levelo_inurba_marseille","lat":43.281073,"lon":5.37823,"is_reserved":false,"is_disabled":false,"rental_uris":{"android":"levelo://app?vid=3888a69b-a227-446c-9ee0-0e069b6a22ce","ios":"levelo://app?vid=3888a69b-a227-446c-9ee0-0e069b6a22ce"},"vehicle_type_id":"4","last_reported":1734030444,"current_range_meters":10000,"station_id":"ce4bha12rcd13ifvqee0","pricing_plan_id":"cebpf4jnsgd1na2vs0mg"},{"bike_id":"3d91e3c5-7cef-4a6b-b72c-1f72f9823e2d","system_id":"levelo_inurba_marseille","lat":43.29757,"lon":5.36169,"is_reserved":false,"is_disabled":true,"rental_uris":{"android":"levelo://app?vid=3d91e3c5-7cef-4a6b-b72c-1f72f9823e2d","ios":"levelo://app?vid=3d91e3c5-7cef-4a6b-b72c-1f72f9823e2d"},"vehicle_type_id":"4","last_reported":1734030444,"current_range_meters":400,"station_id":"","pricing_plan_id":"cebpf4jnsgd1na2vs0mg"},{"bike_id":"571e3d23-ce6a-4c51-bb70-34469d85eed2","system_id":"levelo_inurba_marseille","lat":43.28723,"lon":5.37938,"is_reserved":false,"is_disabled":false,"rental_uris":{"android":"levelo://app?vid=571e3d23-ce6a-4c51-bb70-34469d85eed2","ios":"levelo://app?vid=571e3d23-ce6a-4c51-bb70-34469d85eed2"},"vehicle_type_id":"4","last_reported":1734030444,"current_range_meters":38800,"station_id":"ce4bh9p2rcd13ifvqec0","pricing_plan_id":"cebpf4jnsgd1na2vs0mg"},{"bike_id":"a2c6b5ab-88a3-428b-915b-ae7b224c3f80","system_id":"levelo_inurba_marseille","lat":43.27998,"lon":5.41651,"is_reserved":false,"is_disabled":true,"rental_uris":{"android":"levelo://app?vid=a2c6b5ab-88a3-428b-915b-ae7b224c3f80","ios":"levelo://app?vid=a2c6b5ab-88a3-428b-915b-ae7b224c3f80"},"vehicle_type_id":"4","last_reported":1734030444,"current_range_meters":0,"station_id":"ce4bho12rcd13ifvqh1g","pricing_plan_id":"cebpf4jnsgd1na2vs0mg"},{"bike_id":"e939de06-d909-4758-b8f3-8d43330311ae","system_id":"levelo_inurba_marseille","lat":43.25577,"lon":5.38237,"is_reserved":false,"is_disabled":false,"rental_uris":{"android":"levelo://app?vid=e939de06-d909-4758-b8f3-8d43330311ae","ios":"levelo://app?vid=e939de06-d909-4758-b8f3-8d43330311ae"},"vehicle_type_id":"4","last_reported":1734030444,"current_range_meters":38800,"station_id":"ce4bhih2rcd13ifvqfs0","pricing_plan_id":"cebpf4jnsgd1na2vs0mg"},{"bike_id":"8991e539-32aa-4a25-96bb-1a5e83ee15aa","system_id":"levelo_inurba_marseille","lat":43.28446,"lon":5.39207,"is_reserved":false,"is_disabled":true,"rental_uris":{"android":"levelo://app?vid=8991e539-32aa-4a25-96bb-1a5e83ee15aa","ios":"levelo://app?vid=8991e539-32aa-4a25-96bb-1a5e83ee15aa"},"vehicle_type_id":"4","last_reported":1734030444,"current_range_meters":0,"station_id":"ce4bhoh2rcd13ifvqh5g","pricing_plan_id":"cebpf4jnsgd1na2vs0mg"},{"bike_id":"49b8ce55-6ea6-43d2-bb4d-a3be63615a4c","system_id":"levelo_inurba_marseille","lat":43.30875,"lon":5.39621,"is_reserved":false,"is_disabled":false,"rental_uris":{"android":"levelo://app?vid=49b8ce55-6ea6-43d2-bb4d-a3be63615a4c","ios":"levelo://app?vid=49b8ce55-6ea6-43d2-bb4d-a3be63615a4c"},"vehicle_type_id":"4","last_reported":1734030444,"current_range_meters":3600,"station_id":"ce4bh012rcd13ifvqcv0","pricing_plan_id":"cebpf4jnsgd1na2vs0mg"},{"bike_id":"efb655cb-2785-4efc-abaf-ae9549ebe3e6","system_id":"levelo_inurba_marseille","lat":43.24081,"lon":5.37733,"is_reserved":false,"is_disabled":false,"rental_uris":{"android":"levelo://app?vid=efb655cb-2785-4efc-abaf-ae9549ebe3e6","ios":"levelo://app?vid=efb655cb-2785-4efc-abaf-ae9549ebe3e6"},"vehicle_type_id":"4","last_reported":1734030444,"current_range_meters":38000,"station_id":"ce4bhnp2rcd13ifvqgvg","pricing_plan_id":"cebpf4jnsgd1na2vs0mg"},{"bike_id":"37c5b6a3-fcb8-437f-b3fd-62eb61a7c806","system_id":"levelo_inurba_marseille","lat":43.27451,"lon":5.39381,"is_reserved":false,"is_disabled":false,"rental_uris":{"android":"levelo://app?vid=37c5b6a3-fcb8-437f-b3fd-62eb61a7c806","ios":"levelo://app?vid=37c5b6a3-fcb8-437f-b3fd-62eb61a7c806"},"vehicle_type_id":"4","last_reported":1734030444,"current_range_meters":38000,"station_id":"ce4bhdp2rcd13ifvqf20","pricing_plan_id":"cebpf4jnsgd1na2vs0mg"},{"bike_id":"32024ab4-c07d-4aab-9d5e-1b4a86ac8681","system_id":"levelo_inurba_marseille","lat":43.26188,"lon":5.37448,"is_reserved":false,"is_disabled":true,"rental_uris":{"android":"levelo://app?vid=32024ab4-c07d-4aab-9d5e-1b4a86ac8681","ios":"levelo://app?vid=32024ab4-c07d-4aab-9d5e-1b4a86ac8681"},"vehicle_type_id":"4","last_reported":1734030444,"current_range_meters":38800,"station_id":"ce4bhgp2rcd13ifvqfc0","pricing_plan_id":"cebpf4jnsgd1na2vs0mg"},{"bike_id":"6bcae189-bfbf-4d49-b342-470958698813","system_id":"levelo_inurba_marseille","lat":43.28104,"lon":5.37837,"is_reserved":false,"is_disabled":false,"rental_uris":{"android":"levelo://app?vid=6bcae189-bfbf-4d49-b342-470958698813","ios":"levelo://app?vid=6bcae189-bfbf-4d49-b342-470958698813"},"vehicle_type_id":"4","last_reported":1734030444,"current_range_meters":38000,"station_id":"ce4bha12rcd13ifvqee0","pricing_plan_id":"cebpf4jnsgd1na2vs0mg"},{"bike_id":"e88f72be-0ed4-4a2d-9927-0de228a41be5","system_id":"levelo_inurba_marseille","lat":43.31084,"lon":5.42427,"is_reserved":false,"is_disabled":false,"rental_uris":{"android":"levelo://app?vid=e88f72be-0ed4-4a2d-9927-0de228a41be5","ios":"levelo://app?vid=e88f72be-0ed4-4a2d-9927-0de228a41be5"},"vehicle_type_id":"4","last_reported":1734030444,"current_range_meters":35600,"station_id":"ce4bhp92rcd13ifvqhag","pricing_plan_id":"cebpf4jnsgd1na2vs0mg"},{"bike_id":"cbca2ec5-4363-4228-a4d5-8bf9edb4318b","system_id":"levelo_inurba_marseille","lat":43.30952,"lon":5.39035,"is_reserved":false,"is_disabled":false,"rental_uris":{"android":"levelo://app?vid=cbca2ec5-4363-4228-a4d5-8bf9edb4318b","ios":"levelo://app?vid=cbca2ec5-4363-4228-a4d5-8bf9edb4318b"},"vehicle_type_id":"4","last_reported":1734030444,"current_range_meters":28400,"station_id":"ce4bgup2rcd13ifvqco0","pricing_plan_id":"cebpf4jnsgd1na2vs0mg"},{"bike_id":"85fc7ebc-e1ee-4e0e-81f6-502ecea0cb12","system_id":"levelo_inurba_marseille","lat":43.32982,"lon":5.39032,"is_reserved":false,"is_disabled":false,"rental_uris":{"android":"levelo://app?vid=85fc7ebc-e1ee-4e0e-81f6-502ecea0cb12","ios":"levelo://app?vid=85fc7ebc-e1ee-4e0e-81f6-502ecea0cb12"},"vehicle_type_id":"4","last_reported":1734030444,"current_range_meters":38800,"station_id":"ce4bhr92rcd13ifvqhrg","pricing_plan_id":"cebpf4jnsgd1na2vs0mg"},{"bike_id":"079134fc-54e7-45fc-ab51-c8433747c2db","system_id":"levelo_inurba_marseille","lat":43.29093,"lon":5.38128,"is_reserved":false,"is_disabled":true,"rental_uris":{"android":"levelo://app?vid=079134fc-54e7-45fc-ab51-c8433747c2db","ios":"levelo://app?vid=079134fc-54e7-45fc-ab51-c8433747c2db"},"vehicle_type_id":"4","last_reported":1734030444,"current_range_meters":400,"station_id":"ce4bh512rcd13ifvqe2g","pricing_plan_id":"cebpf4jnsgd1na2vs0mg"},{"bike_id":"2979497b-78e3-4a72-9256-3bb1a4f8f177","system_id":"levelo_inurba_marseille","lat":43.26194,"lon":5.37446,"is_reserved":false,"is_disabled":false,"rental_uris":{"android":"levelo://app?vid=2979497b-78e3-4a72-9256-3bb1a4f8f177","ios":"levelo://app?vid=2979497b-78e3-4a72-9256-3bb1a4f8f177"},"vehicle_type_id":"4","last_reported":1734030444,"current_range_meters":25600,"station_id":"ce4bhgp2rcd13ifvqfc0","pricing_plan_id":"cebpf4jnsgd1na2vs0mg"},{"bike_id":"6bc7401a-ad66-4e4d-bfd6-a954bc5b40c0","system_id":"levelo_inurba_marseille","lat":43.337527,"lon":5.37441,"is_reserved":false,"is_disabled":false,"rental_uris":{"android":"levelo://app?vid=6bc7401a-ad66-4e4d-bfd6-a954bc5b40c0","ios":"levelo://app?vid=6bc7401a-ad66-4e4d-bfd6-a954bc5b40c0"},"vehicle_type_id":"4","last_reported":1734030444,"current_range_meters":33600,"station_id":"","pricing_plan_id":"cebpf4jnsgd1na2vs0mg"},{"bike_id":"f8e23b6a-d127-4b2a-bb85-ced8c24b00a9","system_id":"levelo_inurba_marseille","lat":43.28858,"lon":5.35847,"is_reserved":false,"is_disabled":false,"rental_uris":{"android":"levelo://app?vid=f8e23b6a-d127-4b2a-bb85-ced8c24b00a9","ios":"levelo://app?vid=f8e23b6a-d127-4b2a-bb85-ced8c24b00a9"},"vehicle_type_id":"4","last_reported":1734030444,"current_range_meters":34000,"station_id":"ce4bhb12rcd13ifvqem0","pricing_plan_id":"cebpf4jnsgd1na2vs0mg"},{"bike_id":"f0a4f587-2333-4a7a-8819-09121e495e1b","system_id":"levelo_inurba_marseille","lat":43.22916,"lon":5.35384,"is_reserved":false,"is_disabled":false,"rental_uris":{"android":"levelo://app?vid=f0a4f587-2333-4a7a-8819-09121e495e1b","ios":"levelo://app?vid=f0a4f587-2333-4a7a-8819-09121e495e1b"},"vehicle_type_id":"4","last_reported":1734030444,"current_range_meters":8000,"station_id":"cpo3532slgdg3j2ikp40","pricing_plan_id":"cebpf4jnsgd1na2vs0mg"},{"bike_id":"1546c62b-667d-400f-8c8c-7b42c51b6006","system_id":"levelo_inurba_marseille","lat":43.29523,"lon":5.39037,"is_reserved":false,"is_disabled":true,"rental_uris":{"android":"levelo://app?vid=1546c62b-667d-400f-8c8c-7b42c51b6006","ios":"levelo://app?vid=1546c62b-667d-400f-8c8c-7b42c51b6006"},"vehicle_type_id":"4","last_reported":1734030444,"current_range_meters":1200,"station_id":"ce4bh3p2rcd13ifvqdp0","pricing_plan_id":"cebpf4jnsgd1na2vs0mg"},{"bike_id":"b74c47c5-8fbe-4043-9dcc-2e16cd0a9d4d","system_id":"levelo_inurba_marseille","lat":43.29533,"lon":5.39397,"is_reserved":false,"is_disabled":false,"rental_uris":{"android":"levelo://app?vid=b74c47c5-8fbe-4043-9dcc-2e16cd0a9d4d","ios":"levelo://app?vid=b74c47c5-8fbe-4043-9dcc-2e16cd0a9d4d"},"vehicle_type_id":"4","last_reported":1734030444,"current_range_meters":39200,"station_id":"ce4bh292rcd13ifvqdf0","pricing_plan_id":"cebpf4jnsgd1na2vs0mg"},{"bike_id":"e2b090ff-7c7f-4d4a-8f5b-c317e750043e","system_id":"levelo_inurba_marseille","lat":43.27065,"lon":5.42275,"is_reserved":false,"is_disabled":true,"rental_uris":{"android":"levelo://app?vid=e2b090ff-7c7f-4d4a-8f5b-c317e750043e","ios":"levelo://app?vid=e2b090ff-7c7f-4d4a-8f5b-c317e750043e"},"vehicle_type_id":"4","last_reported":1734030444,"current_range_meters":0,"station_id":"ce4bhk92rcd13ifvqgb0","pricing_plan_id":"cebpf4jnsgd1na2vs0mg"},{"bike_id":"1be4dfd7-b95c-4558-b62a-debc1f52eb94","system_id":"levelo_inurba_marseille","lat":43.27082,"lon":5.42264,"is_reserved":false,"is_disabled":false,"rental_uris":{"android":"levelo://app?vid=1be4dfd7-b95c-4558-b62a-debc1f52eb94","ios":"levelo://app?vid=1be4dfd7-b95c-4558-b62a-debc1f52eb94"},"vehicle_type_id":"4","last_reported":1734030444,"current_range_meters":38800,"station_id":"ce4bhk92rcd13ifvqgb0","pricing_plan_id":"cebpf4jnsgd1na2vs0mg"},{"bike_id":"fb098071-bbd0-4637-ae94-ddec92f6e025","system_id":"levelo_inurba_marseille","lat":43.25824,"lon":5.39421,"is_reserved":false,"is_disabled":false,"rental_uris":{"android":"levelo://app?vid=fb098071-bbd0-4637-ae94-ddec92f6e025","ios":"levelo://app?vid=fb098071-bbd0-4637-ae94-ddec92f6e025"},"vehicle_type_id":"4","last_reported":1734030444,"current_range_meters":4000,"station_id":"ce4bhip2rcd13ifvqft0","pricing_plan_id":"cebpf4jnsgd1na2vs0mg"},{"bike_id":"f3152ea7-684c-44a3-b264-f16f85aaea9a","system_id":"levelo_inurba_marseille","lat":43.29259,"lon":5.3842,"is_reserved":false,"is_disabled":false,"rental_uris":{"android":"levelo://app?vid=f3152ea7-684c-44a3-b264-f16f85aaea9a","ios":"levelo://app?vid=f3152ea7-684c-44a3-b264-f16f85aaea9a"},"vehicle_type_id":"4","last_reported":1734030444,"current_range_meters":32800,"station_id":"ce4bh692rcd13ifvqea0","pricing_plan_id":"cebpf4jnsgd1na2vs0mg"},{"bike_id":"21f9ec22-c921-4886-91dd-a6e302eb5e31","system_id":"levelo_inurba_marseille","lat":43.28076,"lon":5.39637,"is_reserved":false,"is_disabled":false,"rental_uris":{"android":"levelo://app?vid=21f9ec22-c921-4886-91dd-a6e302eb5e31","ios":"levelo://app?vid=21f9ec22-c921-4886-91dd-a6e302eb5e31"},"vehicle_type_id":"4","last_reported":1734030444,"current_range_meters":10800,"station_id":"ce4bho12rcd13ifvqh2g","pricing_plan_id":"cebpf4jnsgd1na2vs0mg"},{"bike_id":"a29ec15a-0267-4de8-b687-0d568e0a6a18","system_id":"levelo_inurba_marseille","lat":43.30991,"lon":5.37936,"is_reserved":false,"is_disabled":false,"rental_uris":{"android":"levelo://app?vid=a29ec15a-0267-4de8-b687-0d568e0a6a18","ios":"levelo://app?vid=a29ec15a-0267-4de8-b687-0d568e0a6a18"},"vehicle_type_id":"4","last_reported":1734030444,"current_range_meters":3200,"station_id":"","pricing_plan_id":"cebpf4jnsgd1na2vs0mg"},{"bike_id":"05877c7d-1db0-4268-93bc-bd6e6fb7172d","system_id":"levelo_inurba_marseille","lat":43.2808,"lon":5.39664,"is_reserved":false,"is_disabled":false,"rental_uris":{"android":"levelo://app?vid=05877c7d-1db0-4268-93bc-bd6e6fb7172d","ios":"levelo://app?vid=05877c7d-1db0-4268-93bc-bd6e6fb7172d"},"vehicle_type_id":"4","last_reported":1734030444,"current_range_meters":27600,"station_id":"ce4bho12rcd13ifvqh2g","pricing_plan_id":"cebpf4jnsgd1na2vs0mg"},{"bike_id":"f0722638-9885-455e-b4e2-ca567b3bf1f9","system_id":"levelo_inurba_marseille","lat":43.2418,"lon":5.39719,"is_reserved":false,"is_disabled":false,"rental_uris":{"android":"levelo://app?vid=f0722638-9885-455e-b4e2-ca567b3bf1f9","ios":"levelo://app?vid=f0722638-9885-455e-b4e2-ca567b3bf1f9"},"vehicle_type_id":"4","last_reported":1734030444,"current_range_meters":18800,"station_id":"ce4bhn12rcd13ifvqgpg","pricing_plan_id":"cebpf4jnsgd1na2vs0mg"},{"bike_id":"e7468417-1e3c-483c-bbea-6d43c523ebdb","system_id":"levelo_inurba_marseille","lat":43.31662,"lon":5.37312,"is_reserved":false,"is_disabled":false,"rental_uris":{"android":"levelo://app?vid=e7468417-1e3c-483c-bbea-6d43c523ebdb","ios":"levelo://app?vid=e7468417-1e3c-483c-bbea-6d43c523ebdb"},"vehicle_type_id":"4","last_reported":1734030444,"current_range_meters":16800,"station_id":"","pricing_plan_id":"cebpf4jnsgd1na2vs0mg"},{"bike_id":"420d6b60-e63c-401b-baae-0ddfe021290a","system_id":"levelo_inurba_marseille","lat":43.30179,"lon":5.36608,"is_reserved":false,"is_disabled":false,"rental_uris":{"android":"levelo://app?vid=420d6b60-e63c-401b-baae-0ddfe021290a","ios":"levelo://app?vid=420d6b60-e63c-401b-baae-0ddfe021290a"},"vehicle_type_id":"4","last_reported":1734030444,"current_range_meters":25600,"station_id":"ce4bgrh2rcd13ifvqc8g","pricing_plan_id":"cebpf4jnsgd1na2vs0mg"},{"bike_id":"097a41bf-6635-41a6-b7a7-1173cae29ada","system_id":"levelo_inurba_marseille","lat":43.22919,"lon":5.35378,"is_reserved":false,"is_disabled":false,"rental_uris":{"android":"levelo://app?vid=097a41bf-6635-41a6-b7a7-1173cae29ada","ios":"levelo://app?vid=097a41bf-6635-41a6-b7a7-1173cae29ada"},"vehicle_type_id":"4","last_reported":1734030444,"current_range_meters":39200,"station_id":"cpo3532slgdg3j2ikp40","pricing_plan_id":"cebpf4jnsgd1na2vs0mg"},{"bike_id":"4d5881bc-1b66-4424-9cca-37b7d62f3c7f","system_id":"levelo_inurba_marseille","lat":43.29942,"lon":5.38489,"is_reserved":false,"is_disabled":false,"rental_uris":{"android":"levelo://app?vid=4d5881bc-1b66-4424-9cca-37b7d62f3c7f","ios":"levelo://app?vid=4d5881bc-1b66-4424-9cca-37b7d62f3c7f"},"vehicle_type_id":"4","last_reported":1734030444,"current_range_meters":37600,"station_id":"ce4bgj92rcd13ifvqbd0","pricing_plan_id":"cebpf4jnsgd1na2vs0mg"},{"bike_id":"f1ac6ac3-50c4-45a3-807d-dc2a982c9232","system_id":"levelo_inurba_marseille","lat":43.248035,"lon":5.37448,"is_reserved":false,"is_disabled":false,"rental_uris":{"android":"levelo://app?vid=f1ac6ac3-50c4-45a3-807d-dc2a982c9232","ios":"levelo://app?vid=f1ac6ac3-50c4-45a3-807d-dc2a982c9232"},"vehicle_type_id":"4","last_reported":1734030444,"current_range_meters":36800,"station_id":"ce4bhgh2rcd13ifvqfb0","pricing_plan_id":"cebpf4jnsgd1na2vs0mg"},{"bike_id":"ebcfa04e-910e-4307-b65f-ee52e8f1bcda","system_id":"levelo_inurba_marseille","lat":43.2958,"lon":5.39959,"is_reserved":false,"is_disabled":true,"rental_uris":{"android":"levelo://app?vid=ebcfa04e-910e-4307-b65f-ee52e8f1bcda","ios":"levelo://app?vid=ebcfa04e-910e-4307-b65f-ee52e8f1bcda"},"vehicle_type_id":"4","last_reported":1734030444,"current_range_meters":0,"station_id":"ce4bh312rcd13ifvqdj0","pricing_plan_id":"cebpf4jnsgd1na2vs0mg"},{"bike_id":"73c649f1-573c-4ef2-b7fd-0a6363ea8204","system_id":"levelo_inurba_marseille","lat":43.25083,"lon":5.39514,"is_reserved":false,"is_disabled":false,"rental_uris":{"android":"levelo://app?vid=73c649f1-573c-4ef2-b7fd-0a6363ea8204","ios":"levelo://app?vid=73c649f1-573c-4ef2-b7fd-0a6363ea8204"},"vehicle_type_id":"4","last_reported":1734030444,"current_range_meters":36400,"station_id":"ce4bhm12rcd13ifvqgkg","pricing_plan_id":"cebpf4jnsgd1na2vs0mg"},{"bike_id":"c105de93-e3e8-40fe-bca3-ba5aeed4e7af","system_id":"levelo_inurba_marseille","lat":43.31718,"lon":5.37741,"is_reserved":false,"is_disabled":true,"rental_uris":{"android":"levelo://app?vid=c105de93-e3e8-40fe-bca3-ba5aeed4e7af","ios":"levelo://app?vid=c105de93-e3e8-40fe-bca3-ba5aeed4e7af"},"vehicle_type_id":"4","last_reported":1734030444,"current_range_meters":0,"station_id":"ce4bgth2rcd13ifvqch0","pricing_plan_id":"cebpf4jnsgd1na2vs0mg"},{"bike_id":"e74372ac-2a6c-47ae-afc7-e1b4e1c3d13f","system_id":"levelo_inurba_marseille","lat":43.23061,"lon":5.35487,"is_reserved":false,"is_disabled":false,"rental_uris":{"android":"levelo://app?vid=e74372ac-2a6c-47ae-afc7-e1b4e1c3d13f","ios":"levelo://app?vid=e74372ac-2a6c-47ae-afc7-e1b4e1c3d13f"},"vehicle_type_id":"4","last_reported":1734030444,"current_range_meters":13600,"station_id":"cpo3342slgdg3j2ifvpg","pricing_plan_id":"cebpf4jnsgd1na2vs0mg"},{"bike_id":"4bb15ff9-2ba0-4711-8326-4d78deb38f14","system_id":"levelo_inurba_marseille","lat":43.24047,"lon":5.37741,"is_reserved":false,"is_disabled":false,"rental_uris":{"android":"levelo://app?vid=4bb15ff9-2ba0-4711-8326-4d78deb38f14","ios":"levelo://app?vid=4bb15ff9-2ba0-4711-8326-4d78deb38f14"},"vehicle_type_id":"4","last_reported":1734030444,"current_range_meters":39200,"station_id":"ce4bhnp2rcd13ifvqgvg","pricing_plan_id":"cebpf4jnsgd1na2vs0mg"},{"bike_id":"b7753504-7c97-4ad3-9570-b6ae2f5889e2","system_id":"levelo_inurba_marseille","lat":43.301343,"lon":5.387791,"is_reserved":false,"is_disabled":true,"rental_uris":{"android":"levelo://app?vid=b7753504-7c97-4ad3-9570-b6ae2f5889e2","ios":"levelo://app?vid=b7753504-7c97-4ad3-9570-b6ae2f5889e2"},"vehicle_type_id":"4","last_reported":1734030444,"current_range_meters":400,"station_id":"ce4bghh2rcd13ifvqb60","pricing_plan_id":"cebpf4jnsgd1na2vs0mg"},{"bike_id":"fe218123-8a4a-42eb-883f-f2564a296efb","system_id":"levelo_inurba_marseille","lat":43.2803,"lon":5.3694,"is_reserved":false,"is_disabled":false,"rental_uris":{"android":"levelo://app?vid=fe218123-8a4a-42eb-883f-f2564a296efb","ios":"levelo://app?vid=fe218123-8a4a-42eb-883f-f2564a296efb"},"vehicle_type_id":"4","last_reported":1734030444,"current_range_meters":38800,"station_id":"ce4bha12rcd13ifvqef0","pricing_plan_id":"cebpf4jnsgd1na2vs0mg"},{"bike_id":"95dc0bab-2f2d-4dd1-91d3-e1b5a959effb","system_id":"levelo_inurba_marseille","lat":43.27971,"lon":5.38744,"is_reserved":false,"is_disabled":false,"rental_uris":{"android":"levelo://app?vid=95dc0bab-2f2d-4dd1-91d3-e1b5a959effb","ios":"levelo://app?vid=95dc0bab-2f2d-4dd1-91d3-e1b5a959effb"},"vehicle_type_id":"4","last_reported":1734030444,"current_range_meters":7200,"station_id":"ce4bhg12rcd13ifvqf80","pricing_plan_id":"cebpf4jnsgd1na2vs0mg"},{"bike_id":"94e63cbf-e608-4410-87e5-3ea7d9b205c7","system_id":"levelo_inurba_marseille","lat":43.29595,"lon":5.42482,"is_reserved":false,"is_disabled":false,"rental_uris":{"android":"levelo://app?vid=94e63cbf-e608-4410-87e5-3ea7d9b205c7","ios":"levelo://app?vid=94e63cbf-e608-4410-87e5-3ea7d9b205c7"},"vehicle_type_id":"4","last_reported":1734030444,"current_range_meters":10800,"station_id":"","pricing_plan_id":"cebpf4jnsgd1na2vs0mg"},{"bike_id":"c86158b0-40b0-47f4-9021-066fcdb48ddb","system_id":"levelo_inurba_marseille","lat":43.24079,"lon":5.3775,"is_reserved":false,"is_disabled":false,"rental_uris":{"android":"levelo://app?vid=c86158b0-40b0-47f4-9021-066fcdb48ddb","ios":"levelo://app?vid=c86158b0-40b0-47f4-9021-066fcdb48ddb"},"vehicle_type_id":"4","last_reported":1734030444,"current_range_meters":35200,"station_id":"ce4bhnp2rcd13ifvqgvg","pricing_plan_id":"cebpf4jnsgd1na2vs0mg"},{"bike_id":"d2faaa5e-3382-42d9-b11e-b0b613557ad0","system_id":"levelo_inurba_marseille","lat":43.300227,"lon":5.373908,"is_reserved":false,"is_disabled":true,"rental_uris":{"android":"levelo://app?vid=d2faaa5e-3382-42d9-b11e-b0b613557ad0","ios":"levelo://app?vid=d2faaa5e-3382-42d9-b11e-b0b613557ad0"},"vehicle_type_id":"4","last_reported":1734030444,"current_range_meters":800,"station_id":"ce4bgs92rcd13ifvqcc0","pricing_plan_id":"cebpf4jnsgd1na2vs0mg"},{"bike_id":"7aa6a341-0563-402e-900a-45a4727df685","system_id":"levelo_inurba_marseille","lat":43.2925,"lon":5.4091,"is_reserved":false,"is_disabled":false,"rental_uris":{"android":"levelo://app?vid=7aa6a341-0563-402e-900a-45a4727df685","ios":"levelo://app?vid=7aa6a341-0563-402e-900a-45a4727df685"},"vehicle_type_id":"4","last_reported":1734030444,"current_range_meters":38800,"station_id":"ce4bh192rcd13ifvqdc0","pricing_plan_id":"cebpf4jnsgd1na2vs0mg"},{"bike_id":"50e27b6f-7414-494e-aec0-851e34e871e4","system_id":"levelo_inurba_marseille","lat":43.30566,"lon":5.38445,"is_reserved":false,"is_disabled":false,"rental_uris":{"android":"levelo://app?vid=50e27b6f-7414-494e-aec0-851e34e871e4","ios":"levelo://app?vid=50e27b6f-7414-494e-aec0-851e34e871e4"},"vehicle_type_id":"4","last_reported":1734030444,"current_range_meters":39200,"station_id":"ce4bgg92rcd13ifvqb30","pricing_plan_id":"cebpf4jnsgd1na2vs0mg"},{"bike_id":"7c11a115-e8c4-4306-ae78-4244d47aabf0","system_id":"levelo_inurba_marseille","lat":43.29786,"lon":5.38097,"is_reserved":false,"is_disabled":true,"rental_uris":{"android":"levelo://app?vid=7c11a115-e8c4-4306-ae78-4244d47aabf0","ios":"levelo://app?vid=7c11a115-e8c4-4306-ae78-4244d47aabf0"},"vehicle_type_id":"4","last_reported":1734030444,"current_range_meters":800,"station_id":"ce4bgip2rcd13ifvqbb0","pricing_plan_id":"cebpf4jnsgd1na2vs0mg"},{"bike_id":"a66c4b95-337e-4b9a-950c-e8c8d8e7a3a1","system_id":"levelo_inurba_marseille","lat":43.324799,"lon":5.365716,"is_reserved":false,"is_disabled":true,"rental_uris":{"android":"levelo://app?vid=a66c4b95-337e-4b9a-950c-e8c8d8e7a3a1","ios":"levelo://app?vid=a66c4b95-337e-4b9a-950c-e8c8d8e7a3a1"},"vehicle_type_id":"4","last_reported":1734030444,"current_range_meters":0,"station_id":"","pricing_plan_id":"cebpf4jnsgd1na2vs0mg"},{"bike_id":"021da959-8b05-44e2-9e52-905b2428e174","system_id":"levelo_inurba_marseille","lat":43.23185,"lon":5.39966,"is_reserved":false,"is_disabled":false,"rental_uris":{"android":"levelo://app?vid=021da959-8b05-44e2-9e52-905b2428e174","ios":"levelo://app?vid=021da959-8b05-44e2-9e52-905b2428e174"},"vehicle_type_id":"4","last_reported":1734030444,"current_range_meters":38400,"station_id":"ce4bhn12rcd13ifvqgqg","pricing_plan_id":"cebpf4jnsgd1na2vs0mg"},{"bike_id":"3aa675bf-e140-4eb0-a03c-90dc1dbcecc3","system_id":"levelo_inurba_marseille","lat":43.31332,"lon":5.39697,"is_reserved":false,"is_disabled":false,"rental_uris":{"android":"levelo://app?vid=3aa675bf-e140-4eb0-a03c-90dc1dbcecc3","ios":"levelo://app?vid=3aa675bf-e140-4eb0-a03c-90dc1dbcecc3"},"vehicle_type_id":"4","last_reported":1734030444,"current_range_meters":38800,"station_id":"ce4bgvp2rcd13ifvqcu0","pricing_plan_id":"cebpf4jnsgd1na2vs0mg"},{"bike_id":"67ea53be-ec72-4668-a452-027f706dcb22","system_id":"levelo_inurba_marseille","lat":43.255,"lon":5.37652,"is_reserved":false,"is_disabled":false,"rental_uris":{"android":"levelo://app?vid=67ea53be-ec72-4668-a452-027f706dcb22","ios":"levelo://app?vid=67ea53be-ec72-4668-a452-027f706dcb22"},"vehicle_type_id":"4","last_reported":1734030444,"current_range_meters":38800,"station_id":"ce4bhh12rcd13ifvqff0","pricing_plan_id":"cebpf4jnsgd1na2vs0mg"},{"bike_id":"003fcc20-75cd-4e78-9b9a-bd60ee138a76","system_id":"levelo_inurba_marseille","lat":43.25579,"lon":5.38246,"is_reserved":false,"is_disabled":false,"rental_uris":{"android":"levelo://app?vid=003fcc20-75cd-4e78-9b9a-bd60ee138a76","ios":"levelo://app?vid=003fcc20-75cd-4e78-9b9a-bd60ee138a76"},"vehicle_type_id":"4","last_reported":1734030444,"current_range_meters":38800,"station_id":"ce4bhih2rcd13ifvqfs0","pricing_plan_id":"cebpf4jnsgd1na2vs0mg"},{"bike_id":"0dc53ed0-703c-41c7-a7ba-e5fe121ea6cc","system_id":"levelo_inurba_marseille","lat":43.27815,"lon":5.39209,"is_reserved":false,"is_disabled":true,"rental_uris":{"android":"levelo://app?vid=0dc53ed0-703c-41c7-a7ba-e5fe121ea6cc","ios":"levelo://app?vid=0dc53ed0-703c-41c7-a7ba-e5fe121ea6cc"},"vehicle_type_id":"4","last_reported":1734030444,"current_range_meters":35200,"station_id":"ce4bhjp2rcd13ifvqga0","pricing_plan_id":"cebpf4jnsgd1na2vs0mg"},{"bike_id":"a1b3e7ef-122c-4c3b-8be9-c3cc1fd01590","system_id":"levelo_inurba_marseille","lat":43.24536,"lon":5.39526,"is_reserved":false,"is_disabled":false,"rental_uris":{"android":"levelo://app?vid=a1b3e7ef-122c-4c3b-8be9-c3cc1fd01590","ios":"levelo://app?vid=a1b3e7ef-122c-4c3b-8be9-c3cc1fd01590"},"vehicle_type_id":"4","last_reported":1734030444,"current_range_meters":8000,"station_id":"ce4bhlp2rcd13ifvqgjg","pricing_plan_id":"cebpf4jnsgd1na2vs0mg"},{"bike_id":"1e09aea1-6592-4606-838e-01c5295332d1","system_id":"levelo_inurba_marseille","lat":43.32662,"lon":5.40984,"is_reserved":false,"is_disabled":true,"rental_uris":{"android":"levelo://app?vid=1e09aea1-6592-4606-838e-01c5295332d1","ios":"levelo://app?vid=1e09aea1-6592-4606-838e-01c5295332d1"},"vehicle_type_id":"4","last_reported":1734030444,"current_range_meters":35600,"station_id":"ce4bhpp2rcd13ifvqhgg","pricing_plan_id":"cebpf4jnsgd1na2vs0mg"},{"bike_id":"f56a3583-7654-4e35-983d-bc3f7831d537","system_id":"levelo_inurba_marseille","lat":43.286662,"lon":5.386645,"is_reserved":false,"is_disabled":false,"rental_uris":{"android":"levelo://app?vid=f56a3583-7654-4e35-983d-bc3f7831d537","ios":"levelo://app?vid=f56a3583-7654-4e35-983d-bc3f7831d537"},"vehicle_type_id":"4","last_reported":1734030444,"current_range_meters":4400,"station_id":"ce4bh492rcd13ifvqdug","pricing_plan_id":"cebpf4jnsgd1na2vs0mg"},{"bike_id":"cc66f151-2460-4bd1-9c55-81df03cdad0d","system_id":"levelo_inurba_marseille","lat":43.30507,"lon":5.36868,"is_reserved":false,"is_disabled":true,"rental_uris":{"android":"levelo://app?vid=cc66f151-2460-4bd1-9c55-81df03cdad0d","ios":"levelo://app?vid=cc66f151-2460-4bd1-9c55-81df03cdad0d"},"vehicle_type_id":"4","last_reported":1734030444,"current_range_meters":400,"station_id":"","pricing_plan_id":"cebpf4jnsgd1na2vs0mg"},{"bike_id":"a7264440-ff52-43ac-bcd3-0ce3cd519807","system_id":"levelo_inurba_marseille","lat":43.26566,"lon":5.39002,"is_reserved":false,"is_disabled":false,"rental_uris":{"android":"levelo://app?vid=a7264440-ff52-43ac-bcd3-0ce3cd519807","ios":"levelo://app?vid=a7264440-ff52-43ac-bcd3-0ce3cd519807"},"vehicle_type_id":"4","last_reported":1734030444,"current_range_meters":34800,"station_id":"ce4bhe12rcd13ifvqf30","pricing_plan_id":"cebpf4jnsgd1na2vs0mg"},{"bike_id":"d3148480-0118-4460-90b5-07f095843da8","system_id":"levelo_inurba_marseille","lat":43.24675,"lon":5.3815,"is_reserved":false,"is_disabled":false,"rental_uris":{"android":"levelo://app?vid=d3148480-0118-4460-90b5-07f095843da8","ios":"levelo://app?vid=d3148480-0118-4460-90b5-07f095843da8"},"vehicle_type_id":"4","last_reported":1734030444,"current_range_meters":39200,"station_id":"ce4bhih2rcd13ifvqfr0","pricing_plan_id":"cebpf4jnsgd1na2vs0mg"},{"bike_id":"5f4ab753-cc6d-47ae-af81-c0bc82f13ccf","system_id":"levelo_inurba_marseille","lat":43.29255,"lon":5.38443,"is_reserved":false,"is_disabled":false,"rental_uris":{"android":"levelo://app?vid=5f4ab753-cc6d-47ae-af81-c0bc82f13ccf","ios":"levelo://app?vid=5f4ab753-cc6d-47ae-af81-c0bc82f13ccf"},"vehicle_type_id":"4","last_reported":1734030444,"current_range_meters":24400,"station_id":"ce4bh692rcd13ifvqea0","pricing_plan_id":"cebpf4jnsgd1na2vs0mg"},{"bike_id":"153b91d9-6761-4975-9f15-6379d54006a3","system_id":"levelo_inurba_marseille","lat":43.29418,"lon":5.3859,"is_reserved":false,"is_disabled":true,"rental_uris":{"android":"levelo://app?vid=153b91d9-6761-4975-9f15-6379d54006a3","ios":"levelo://app?vid=153b91d9-6761-4975-9f15-6379d54006a3"},"vehicle_type_id":"4","last_reported":1734030444,"current_range_meters":38800,"station_id":"ce4bh2h2rcd13ifvqdh0","pricing_plan_id":"cebpf4jnsgd1na2vs0mg"},{"bike_id":"20c3dc17-effd-4423-b025-dc7a6b601ac6","system_id":"levelo_inurba_marseille","lat":43.31506,"lon":5.37416,"is_reserved":false,"is_disabled":false,"rental_uris":{"android":"levelo://app?vid=20c3dc17-effd-4423-b025-dc7a6b601ac6","ios":"levelo://app?vid=20c3dc17-effd-4423-b025-dc7a6b601ac6"},"vehicle_type_id":"4","last_reported":1734030444,"current_range_meters":12000,"station_id":"ce4bgt12rcd13ifvqcd0","pricing_plan_id":"cebpf4jnsgd1na2vs0mg"},{"bike_id":"9332f19c-96e3-47ac-8807-c5c2384614c0","system_id":"levelo_inurba_marseille","lat":43.23055,"lon":5.35494,"is_reserved":false,"is_disabled":false,"rental_uris":{"android":"levelo://app?vid=9332f19c-96e3-47ac-8807-c5c2384614c0","ios":"levelo://app?vid=9332f19c-96e3-47ac-8807-c5c2384614c0"},"vehicle_type_id":"4","last_reported":1734030444,"current_range_meters":10000,"station_id":"cpo3342slgdg3j2ifvpg","pricing_plan_id":"cebpf4jnsgd1na2vs0mg"},{"bike_id":"507a9668-9123-4b65-b9a1-3df80fdee677","system_id":"levelo_inurba_marseille","lat":43.30597,"lon":5.39345,"is_reserved":false,"is_disabled":true,"rental_uris":{"android":"levelo://app?vid=507a9668-9123-4b65-b9a1-3df80fdee677","ios":"levelo://app?vid=507a9668-9123-4b65-b9a1-3df80fdee677"},"vehicle_type_id":"4","last_reported":1734030444,"current_range_meters":32800,"station_id":"ce4bh0p2rcd13ifvqd80","pricing_plan_id":"cebpf4jnsgd1na2vs0mg"},{"bike_id":"cf9cdbef-8cc1-4cc7-824a-a2ea22365d45","system_id":"levelo_inurba_marseille","lat":43.29523,"lon":5.39042,"is_reserved":false,"is_disabled":false,"rental_uris":{"android":"levelo://app?vid=cf9cdbef-8cc1-4cc7-824a-a2ea22365d45","ios":"levelo://app?vid=cf9cdbef-8cc1-4cc7-824a-a2ea22365d45"},"vehicle_type_id":"4","last_reported":1734030444,"current_range_meters":20000,"station_id":"ce4bh3p2rcd13ifvqdp0","pricing_plan_id":"cebpf4jnsgd1na2vs0mg"},{"bike_id":"5b652ec7-32ea-4bc8-b03b-72e7835cc033","system_id":"levelo_inurba_marseille","lat":43.31114,"lon":5.37772,"is_reserved":false,"is_disabled":false,"rental_uris":{"android":"levelo://app?vid=5b652ec7-32ea-4bc8-b03b-72e7835cc033","ios":"levelo://app?vid=5b652ec7-32ea-4bc8-b03b-72e7835cc033"},"vehicle_type_id":"4","last_reported":1734030444,"current_range_meters":28800,"station_id":"ce4bgt92rcd13ifvqcg0","pricing_plan_id":"cebpf4jnsgd1na2vs0mg"},{"bike_id":"a8942e43-f3d6-46fd-8576-2cc6b2787f3e","system_id":"levelo_inurba_marseille","lat":43.33006,"lon":5.39055,"is_reserved":false,"is_disabled":false,"rental_uris":{"android":"levelo://app?vid=a8942e43-f3d6-46fd-8576-2cc6b2787f3e","ios":"levelo://app?vid=a8942e43-f3d6-46fd-8576-2cc6b2787f3e"},"vehicle_type_id":"4","last_reported":1734030444,"current_range_meters":24000,"station_id":"ce4bhr92rcd13ifvqhrg","pricing_plan_id":"cebpf4jnsgd1na2vs0mg"},{"bike_id":"ebab67b4-141a-4dd9-afd9-505143cd1336","system_id":"levelo_inurba_marseille","lat":43.31491,"lon":5.37322,"is_reserved":false,"is_disabled":false,"rental_uris":{"android":"levelo://app?vid=ebab67b4-141a-4dd9-afd9-505143cd1336","ios":"levelo://app?vid=ebab67b4-141a-4dd9-afd9-505143cd1336"},"vehicle_type_id":"4","last_reported":1734030444,"current_range_meters":11600,"station_id":"ce4bgt12rcd13ifvqcd0","pricing_plan_id":"cebpf4jnsgd1na2vs0mg"},{"bike_id":"84682a94-758c-4345-a527-a3b3b78fb980","system_id":"levelo_inurba_marseille","lat":43.2926,"lon":5.38429,"is_reserved":false,"is_disabled":false,"rental_uris":{"android":"levelo://app?vid=84682a94-758c-4345-a527-a3b3b78fb980","ios":"levelo://app?vid=84682a94-758c-4345-a527-a3b3b78fb980"},"vehicle_type_id":"4","last_reported":1734030444,"current_range_meters":36800,"station_id":"ce4bh692rcd13ifvqea0","pricing_plan_id":"cebpf4jnsgd1na2vs0mg"},{"bike_id":"88e5e253-9495-48e0-9198-fa6d82bb94e8","system_id":"levelo_inurba_marseille","lat":43.24652,"lon":5.38891,"is_reserved":false,"is_disabled":false,"rental_uris":{"android":"levelo://app?vid=88e5e253-9495-48e0-9198-fa6d82bb94e8","ios":"levelo://app?vid=88e5e253-9495-48e0-9198-fa6d82bb94e8"},"vehicle_type_id":"4","last_reported":1734030444,"current_range_meters":23200,"station_id":"ce4bhg12rcd13ifvqf60","pricing_plan_id":"cebpf4jnsgd1na2vs0mg"},{"bike_id":"208886c0-de2e-43ca-abbf-3e8665653f84","system_id":"levelo_inurba_marseille","lat":43.30416,"lon":5.37825,"is_reserved":false,"is_disabled":true,"rental_uris":{"android":"levelo://app?vid=208886c0-de2e-43ca-abbf-3e8665653f84","ios":"levelo://app?vid=208886c0-de2e-43ca-abbf-3e8665653f84"},"vehicle_type_id":"4","last_reported":1734030444,"current_range_meters":1200,"station_id":"","pricing_plan_id":"cebpf4jnsgd1na2vs0mg"},{"bike_id":"cc02330e-fabc-4094-a359-b6c4234cbe8e","system_id":"levelo_inurba_marseille","lat":43.313204,"lon":5.396713,"is_reserved":false,"is_disabled":false,"rental_uris":{"android":"levelo://app?vid=cc02330e-fabc-4094-a359-b6c4234cbe8e","ios":"levelo://app?vid=cc02330e-fabc-4094-a359-b6c4234cbe8e"},"vehicle_type_id":"4","last_reported":1734030444,"current_range_meters":38800,"station_id":"ce4bgvp2rcd13ifvqcu0","pricing_plan_id":"cebpf4jnsgd1na2vs0mg"},{"bike_id":"36a6aaf7-7942-4cf8-a178-14100534e00e","system_id":"levelo_inurba_marseille","lat":43.28449,"lon":5.39186,"is_reserved":false,"is_disabled":true,"rental_uris":{"android":"levelo://app?vid=36a6aaf7-7942-4cf8-a178-14100534e00e","ios":"levelo://app?vid=36a6aaf7-7942-4cf8-a178-14100534e00e"},"vehicle_type_id":"4","last_reported":1734030444,"current_range_meters":31200,"station_id":"ce4bhoh2rcd13ifvqh5g","pricing_plan_id":"cebpf4jnsgd1na2vs0mg"},{"bike_id":"dfb00632-ea8b-4770-9722-54c28db0142b","system_id":"levelo_inurba_marseille","lat":43.30803,"lon":5.43524,"is_reserved":false,"is_disabled":false,"rental_uris":{"android":"levelo://app?vid=dfb00632-ea8b-4770-9722-54c28db0142b","ios":"levelo://app?vid=dfb00632-ea8b-4770-9722-54c28db0142b"},"vehicle_type_id":"4","last_reported":1734030444,"current_range_meters":6000,"station_id":"ce4bhph2rcd13ifvqheg","pricing_plan_id":"cebpf4jnsgd1na2vs0mg"},{"bike_id":"696b3385-94b5-456a-ab71-944440a62e81","system_id":"levelo_inurba_marseille","lat":43.29261,"lon":5.38439,"is_reserved":false,"is_disabled":false,"rental_uris":{"android":"levelo://app?vid=696b3385-94b5-456a-ab71-944440a62e81","ios":"levelo://app?vid=696b3385-94b5-456a-ab71-944440a62e81"},"vehicle_type_id":"4","last_reported":1734030444,"current_range_meters":16800,"station_id":"ce4bh692rcd13ifvqea0","pricing_plan_id":"cebpf4jnsgd1na2vs0mg"},{"bike_id":"06f66dfc-67e3-46bb-8e23-90ef22aa2f49","system_id":"levelo_inurba_marseille","lat":43.33008,"lon":5.39049,"is_reserved":false,"is_disabled":false,"rental_uris":{"android":"levelo://app?vid=06f66dfc-67e3-46bb-8e23-90ef22aa2f49","ios":"levelo://app?vid=06f66dfc-67e3-46bb-8e23-90ef22aa2f49"},"vehicle_type_id":"4","last_reported":1734030444,"current_range_meters":27600,"station_id":"ce4bhr92rcd13ifvqhrg","pricing_plan_id":"cebpf4jnsgd1na2vs0mg"},{"bike_id":"606c786d-0fbd-4062-9ce3-862521465887","system_id":"levelo_inurba_marseille","lat":43.26026,"lon":5.37547,"is_reserved":false,"is_disabled":false,"rental_uris":{"android":"levelo://app?vid=606c786d-0fbd-4062-9ce3-862521465887","ios":"levelo://app?vid=606c786d-0fbd-4062-9ce3-862521465887"},"vehicle_type_id":"4","last_reported":1734030444,"current_range_meters":38000,"station_id":"ce4bhgh2rcd13ifvqfa0","pricing_plan_id":"cebpf4jnsgd1na2vs0mg"},{"bike_id":"4d3a41f5-959c-4dbb-9d11-8fbbf2d6345c","system_id":"levelo_inurba_marseille","lat":43.26927,"lon":5.38909,"is_reserved":false,"is_disabled":false,"rental_uris":{"android":"levelo://app?vid=4d3a41f5-959c-4dbb-9d11-8fbbf2d6345c","ios":"levelo://app?vid=4d3a41f5-959c-4dbb-9d11-8fbbf2d6345c"},"vehicle_type_id":"4","last_reported":1734030444,"current_range_meters":25600,"station_id":"ce4bhhh2rcd13ifvqfl0","pricing_plan_id":"cebpf4jnsgd1na2vs0mg"},{"bike_id":"042a89c3-6e06-4e6b-9e1d-646d5fe752e5","system_id":"levelo_inurba_marseille","lat":43.30354,"lon":5.41877,"is_reserved":false,"is_disabled":false,"rental_uris":{"android":"levelo://app?vid=042a89c3-6e06-4e6b-9e1d-646d5fe752e5","ios":"levelo://app?vid=042a89c3-6e06-4e6b-9e1d-646d5fe752e5"},"vehicle_type_id":"4","last_reported":1734030444,"current_range_meters":20000,"station_id":"ce4bhop2rcd13ifvqh7g","pricing_plan_id":"cebpf4jnsgd1na2vs0mg"},{"bike_id":"14845a8f-c0c8-4311-843d-ef820014914a","system_id":"levelo_inurba_marseille","lat":43.26806,"lon":5.40253,"is_reserved":false,"is_disabled":true,"rental_uris":{"android":"levelo://app?vid=14845a8f-c0c8-4311-843d-ef820014914a","ios":"levelo://app?vid=14845a8f-c0c8-4311-843d-ef820014914a"},"vehicle_type_id":"4","last_reported":1734030444,"current_range_meters":0,"station_id":"ce501612rcd8frsf0b60","pricing_plan_id":"cebpf4jnsgd1na2vs0mg"},{"bike_id":"abdf7e55-08ce-4b69-8b3d-fa6b5a4da3a9","system_id":"levelo_inurba_marseille","lat":43.28,"lon":5.40006,"is_reserved":false,"is_disabled":false,"rental_uris":{"android":"levelo://app?vid=abdf7e55-08ce-4b69-8b3d-fa6b5a4da3a9","ios":"levelo://app?vid=abdf7e55-08ce-4b69-8b3d-fa6b5a4da3a9"},"vehicle_type_id":"4","last_reported":1734030444,"current_range_meters":24000,"station_id":"ce4bho92rcd13ifvqh4g","pricing_plan_id":"cebpf4jnsgd1na2vs0mg"},{"bike_id":"dd643bc6-5b37-42ec-9cd1-25f6f7772e52","system_id":"levelo_inurba_marseille","lat":43.31756,"lon":5.39021,"is_reserved":false,"is_disabled":true,"rental_uris":{"android":"levelo://app?vid=dd643bc6-5b37-42ec-9cd1-25f6f7772e52","ios":"levelo://app?vid=dd643bc6-5b37-42ec-9cd1-25f6f7772e52"},"vehicle_type_id":"4","last_reported":1734030444,"current_range_meters":36400,"station_id":"ce4bhqp2rcd13ifvqhng","pricing_plan_id":"cebpf4jnsgd1na2vs0mg"},{"bike_id":"e565a63c-41db-4650-93bb-e994ed4b8ad3","system_id":"levelo_inurba_marseille","lat":43.284424,"lon":5.391944,"is_reserved":false,"is_disabled":false,"rental_uris":{"android":"levelo://app?vid=e565a63c-41db-4650-93bb-e994ed4b8ad3","ios":"levelo://app?vid=e565a63c-41db-4650-93bb-e994ed4b8ad3"},"vehicle_type_id":"4","last_reported":1734030444,"current_range_meters":35200,"station_id":"ce4bhoh2rcd13ifvqh5g","pricing_plan_id":"cebpf4jnsgd1na2vs0mg"},{"bike_id":"bf91c614-d49a-46f7-a2b1-f29ed05bf956","system_id":"levelo_inurba_marseille","lat":43.30887,"lon":5.39645,"is_reserved":false,"is_disabled":false,"rental_uris":{"android":"levelo://app?vid=bf91c614-d49a-46f7-a2b1-f29ed05bf956","ios":"levelo://app?vid=bf91c614-d49a-46f7-a2b1-f29ed05bf956"},"vehicle_type_id":"4","last_reported":1734030444,"current_range_meters":4000,"station_id":"ce4bh012rcd13ifvqcv0","pricing_plan_id":"cebpf4jnsgd1na2vs0mg"},{"bike_id":"9669c1a5-22b4-4f40-8bee-32dc34a75abd","system_id":"levelo_inurba_marseille","lat":43.29357,"lon":5.37827,"is_reserved":false,"is_disabled":false,"rental_uris":{"android":"levelo://app?vid=9669c1a5-22b4-4f40-8bee-32dc34a75abd","ios":"levelo://app?vid=9669c1a5-22b4-4f40-8bee-32dc34a75abd"},"vehicle_type_id":"4","last_reported":1734030444,"current_range_meters":13600,"station_id":"ce4bgjh2rcd13ifvqbf0","pricing_plan_id":"cebpf4jnsgd1na2vs0mg"},{"bike_id":"e738fcc8-c725-46f1-b7fe-8f522bd56ad4","system_id":"levelo_inurba_marseille","lat":43.22922,"lon":5.35378,"is_reserved":false,"is_disabled":false,"rental_uris":{"android":"levelo://app?vid=e738fcc8-c725-46f1-b7fe-8f522bd56ad4","ios":"levelo://app?vid=e738fcc8-c725-46f1-b7fe-8f522bd56ad4"},"vehicle_type_id":"4","last_reported":1734030444,"current_range_meters":8800,"station_id":"cpo3532slgdg3j2ikp40","pricing_plan_id":"cebpf4jnsgd1na2vs0mg"},{"bike_id":"280acb0d-18ba-4f3c-8666-d9bb1f9c0a8b","system_id":"levelo_inurba_marseille","lat":43.32277,"lon":5.38267,"is_reserved":false,"is_disabled":false,"rental_uris":{"android":"levelo://app?vid=280acb0d-18ba-4f3c-8666-d9bb1f9c0a8b","ios":"levelo://app?vid=280acb0d-18ba-4f3c-8666-d9bb1f9c0a8b"},"vehicle_type_id":"4","last_reported":1734030444,"current_range_meters":34800,"station_id":"ce4bhr12rcd13ifvqhqg","pricing_plan_id":"cebpf4jnsgd1na2vs0mg"},{"bike_id":"7965bd8b-65b9-4460-9e65-36f253ebc53b","system_id":"levelo_inurba_marseille","lat":43.32046,"lon":5.41503,"is_reserved":false,"is_disabled":false,"rental_uris":{"android":"levelo://app?vid=7965bd8b-65b9-4460-9e65-36f253ebc53b","ios":"levelo://app?vid=7965bd8b-65b9-4460-9e65-36f253ebc53b"},"vehicle_type_id":"4","last_reported":1734030444,"current_range_meters":26800,"station_id":"ce4bhq92rcd13ifvqhkg","pricing_plan_id":"cebpf4jnsgd1na2vs0mg"},{"bike_id":"84ddb806-aa72-4d60-a864-ce9d12392ed2","system_id":"levelo_inurba_marseille","lat":43.2996,"lon":5.4131,"is_reserved":false,"is_disabled":false,"rental_uris":{"android":"levelo://app?vid=84ddb806-aa72-4d60-a864-ce9d12392ed2","ios":"levelo://app?vid=84ddb806-aa72-4d60-a864-ce9d12392ed2"},"vehicle_type_id":"4","last_reported":1734030444,"current_range_meters":22000,"station_id":"ce4bhp12rcd13ifvqh9g","pricing_plan_id":"cebpf4jnsgd1na2vs0mg"},{"bike_id":"e8ae29fa-3a2f-45f3-bb05-a91d7c8233bc","system_id":"levelo_inurba_marseille","lat":43.25586,"lon":5.38233,"is_reserved":false,"is_disabled":false,"rental_uris":{"android":"levelo://app?vid=e8ae29fa-3a2f-45f3-bb05-a91d7c8233bc","ios":"levelo://app?vid=e8ae29fa-3a2f-45f3-bb05-a91d7c8233bc"},"vehicle_type_id":"4","last_reported":1734030444,"current_range_meters":2800,"station_id":"ce4bhih2rcd13ifvqfs0","pricing_plan_id":"cebpf4jnsgd1na2vs0mg"},{"bike_id":"467a8ed9-8f9d-4f9c-a7a2-b2a4bc21bd4a","system_id":"levelo_inurba_marseille","lat":43.24646,"lon":5.38918,"is_reserved":false,"is_disabled":false,"rental_uris":{"android":"levelo://app?vid=467a8ed9-8f9d-4f9c-a7a2-b2a4bc21bd4a","ios":"levelo://app?vid=467a8ed9-8f9d-4f9c-a7a2-b2a4bc21bd4a"},"vehicle_type_id":"4","last_reported":1734030444,"current_range_meters":35200,"station_id":"ce4bhg12rcd13ifvqf60","pricing_plan_id":"cebpf4jnsgd1na2vs0mg"},{"bike_id":"3f376398-b9b7-4419-aed9-9595c8c18ff6","system_id":"levelo_inurba_marseille","lat":43.29553,"lon":5.42282,"is_reserved":false,"is_disabled":false,"rental_uris":{"android":"levelo://app?vid=3f376398-b9b7-4419-aed9-9595c8c18ff6","ios":"levelo://app?vid=3f376398-b9b7-4419-aed9-9595c8c18ff6"},"vehicle_type_id":"4","last_reported":1734030444,"current_range_meters":38000,"station_id":"ce4bhph2rcd13ifvqhdg","pricing_plan_id":"cebpf4jnsgd1na2vs0mg"},{"bike_id":"512bba07-c0d9-48d8-8c46-31b3ecfbf0e4","system_id":"levelo_inurba_marseille","lat":43.23962,"lon":5.36626,"is_reserved":false,"is_disabled":false,"rental_uris":{"android":"levelo://app?vid=512bba07-c0d9-48d8-8c46-31b3ecfbf0e4","ios":"levelo://app?vid=512bba07-c0d9-48d8-8c46-31b3ecfbf0e4"},"vehicle_type_id":"4","last_reported":1734030444,"current_range_meters":20000,"station_id":"ce4bhi12rcd13ifvqfp0","pricing_plan_id":"cebpf4jnsgd1na2vs0mg"},{"bike_id":"cd310349-e3f2-443c-8f0f-42df3ae9f687","system_id":"levelo_inurba_marseille","lat":43.28082,"lon":5.39652,"is_reserved":false,"is_disabled":false,"rental_uris":{"android":"levelo://app?vid=cd310349-e3f2-443c-8f0f-42df3ae9f687","ios":"levelo://app?vid=cd310349-e3f2-443c-8f0f-42df3ae9f687"},"vehicle_type_id":"4","last_reported":1734030444,"current_range_meters":12800,"station_id":"ce4bho12rcd13ifvqh2g","pricing_plan_id":"cebpf4jnsgd1na2vs0mg"},{"bike_id":"a5589391-a7e4-412b-9a87-f917b2322580","system_id":"levelo_inurba_marseille","lat":43.230564,"lon":5.354939,"is_reserved":false,"is_disabled":false,"rental_uris":{"android":"levelo://app?vid=a5589391-a7e4-412b-9a87-f917b2322580","ios":"levelo://app?vid=a5589391-a7e4-412b-9a87-f917b2322580"},"vehicle_type_id":"4","last_reported":1734030444,"current_range_meters":12000,"station_id":"cpo3342slgdg3j2ifvpg","pricing_plan_id":"cebpf4jnsgd1na2vs0mg"},{"bike_id":"103e9cb3-a529-4d55-b047-75adf6d60c18","system_id":"levelo_inurba_marseille","lat":43.27967,"lon":5.39916,"is_reserved":false,"is_disabled":true,"rental_uris":{"android":"levelo://app?vid=103e9cb3-a529-4d55-b047-75adf6d60c18","ios":"levelo://app?vid=103e9cb3-a529-4d55-b047-75adf6d60c18"},"vehicle_type_id":"4","last_reported":1734030444,"current_range_meters":0,"station_id":"","pricing_plan_id":"cebpf4jnsgd1na2vs0mg"},{"bike_id":"cf2a554d-dca1-468f-a79f-dbc5900e9168","system_id":"levelo_inurba_marseille","lat":43.33028,"lon":5.39033,"is_reserved":false,"is_disabled":false,"rental_uris":{"android":"levelo://app?vid=cf2a554d-dca1-468f-a79f-dbc5900e9168","ios":"levelo://app?vid=cf2a554d-dca1-468f-a79f-dbc5900e9168"},"vehicle_type_id":"4","last_reported":1734030444,"current_range_meters":33200,"station_id":"ce4bhr92rcd13ifvqhrg","pricing_plan_id":"cebpf4jnsgd1na2vs0mg"},{"bike_id":"7f218b15-e3fc-43c4-8703-acd68250579b","system_id":"levelo_inurba_marseille","lat":43.337444,"lon":5.374475,"is_reserved":false,"is_disabled":false,"rental_uris":{"android":"levelo://app?vid=7f218b15-e3fc-43c4-8703-acd68250579b","ios":"levelo://app?vid=7f218b15-e3fc-43c4-8703-acd68250579b"},"vehicle_type_id":"4","last_reported":1734030444,"current_range_meters":32800,"station_id":"","pricing_plan_id":"cebpf4jnsgd1na2vs0mg"},{"bike_id":"5cd0227d-828f-4635-a4e6-90752f4b4e94","system_id":"levelo_inurba_marseille","lat":43.29193,"lon":5.35782,"is_reserved":false,"is_disabled":true,"rental_uris":{"android":"levelo://app?vid=5cd0227d-828f-4635-a4e6-90752f4b4e94","ios":"levelo://app?vid=5cd0227d-828f-4635-a4e6-90752f4b4e94"},"vehicle_type_id":"4","last_reported":1734030444,"current_range_meters":38800,"station_id":"ce4bhb12rcd13ifvqel0","pricing_plan_id":"cebpf4jnsgd1na2vs0mg"},{"bike_id":"9170b74c-6ab9-4aed-ae3b-75ae727d0100","system_id":"levelo_inurba_marseille","lat":43.27415,"lon":5.39004,"is_reserved":false,"is_disabled":false,"rental_uris":{"android":"levelo://app?vid=9170b74c-6ab9-4aed-ae3b-75ae727d0100","ios":"levelo://app?vid=9170b74c-6ab9-4aed-ae3b-75ae727d0100"},"vehicle_type_id":"4","last_reported":1734030444,"current_range_meters":14400,"station_id":"","pricing_plan_id":"cebpf4jnsgd1na2vs0mg"},{"bike_id":"bf26ba67-e67a-47f2-aeb5-22efb7770553","system_id":"levelo_inurba_marseille","lat":43.28613,"lon":5.35098,"is_reserved":false,"is_disabled":true,"rental_uris":{"android":"levelo://app?vid=bf26ba67-e67a-47f2-aeb5-22efb7770553","ios":"levelo://app?vid=bf26ba67-e67a-47f2-aeb5-22efb7770553"},"vehicle_type_id":"4","last_reported":1734030444,"current_range_meters":32400,"station_id":"ce4bhch2rcd13ifvqeug","pricing_plan_id":"cebpf4jnsgd1na2vs0mg"},{"bike_id":"1edcb435-be97-41f8-aa8c-4a20808cef7c","system_id":"levelo_inurba_marseille","lat":43.26813,"lon":5.40243,"is_reserved":false,"is_disabled":false,"rental_uris":{"android":"levelo://app?vid=1edcb435-be97-41f8-aa8c-4a20808cef7c","ios":"levelo://app?vid=1edcb435-be97-41f8-aa8c-4a20808cef7c"},"vehicle_type_id":"4","last_reported":1734030444,"current_range_meters":8400,"station_id":"ce501612rcd8frsf0b60","pricing_plan_id":"cebpf4jnsgd1na2vs0mg"},{"bike_id":"6bf5e27c-4156-4185-9f70-4c8e6b446012","system_id":"levelo_inurba_marseille","lat":43.29602,"lon":5.38099,"is_reserved":false,"is_disabled":false,"rental_uris":{"android":"levelo://app?vid=6bf5e27c-4156-4185-9f70-4c8e6b446012","ios":"levelo://app?vid=6bf5e27c-4156-4185-9f70-4c8e6b446012"},"vehicle_type_id":"4","last_reported":1734030444,"current_range_meters":11200,"station_id":"ce4bgl12rcd13ifvqbo0","pricing_plan_id":"cebpf4jnsgd1na2vs0mg"},{"bike_id":"79efbb5a-a5a0-4710-a47a-ff1244106665","system_id":"levelo_inurba_marseille","lat":43.29534,"lon":5.38545,"is_reserved":false,"is_disabled":true,"rental_uris":{"android":"levelo://app?vid=79efbb5a-a5a0-4710-a47a-ff1244106665","ios":"levelo://app?vid=79efbb5a-a5a0-4710-a47a-ff1244106665"},"vehicle_type_id":"4","last_reported":1734030444,"current_range_meters":400,"station_id":"ce4bgih2rcd13ifvqba0","pricing_plan_id":"cebpf4jnsgd1na2vs0mg"},{"bike_id":"61df4582-7c9f-489e-b7da-d6a0cfdcd7c7","system_id":"levelo_inurba_marseille","lat":43.28647,"lon":5.36365,"is_reserved":false,"is_disabled":true,"rental_uris":{"android":"levelo://app?vid=61df4582-7c9f-489e-b7da-d6a0cfdcd7c7","ios":"levelo://app?vid=61df4582-7c9f-489e-b7da-d6a0cfdcd7c7"},"vehicle_type_id":"4","last_reported":1734030444,"current_range_meters":0,"station_id":"ce4bhah2rcd13ifvqej0","pricing_plan_id":"cebpf4jnsgd1na2vs0mg"},{"bike_id":"101f11c0-d0df-4db7-8cbf-d437ee429d15","system_id":"levelo_inurba_marseille","lat":43.33025,"lon":5.39044,"is_reserved":false,"is_disabled":true,"rental_uris":{"android":"levelo://app?vid=101f11c0-d0df-4db7-8cbf-d437ee429d15","ios":"levelo://app?vid=101f11c0-d0df-4db7-8cbf-d437ee429d15"},"vehicle_type_id":"4","last_reported":1734030444,"current_range_meters":0,"station_id":"ce4bhr92rcd13ifvqhrg","pricing_plan_id":"cebpf4jnsgd1na2vs0mg"},{"bike_id":"48e7288e-0cc6-46e9-9ee6-76af6cec7f10","system_id":"levelo_inurba_marseille","lat":43.31167,"lon":5.38718,"is_reserved":false,"is_disabled":true,"rental_uris":{"android":"levelo://app?vid=48e7288e-0cc6-46e9-9ee6-76af6cec7f10","ios":"levelo://app?vid=48e7288e-0cc6-46e9-9ee6-76af6cec7f10"},"vehicle_type_id":"4","last_reported":1734030444,"current_range_meters":0,"station_id":"ce4bgv12rcd13ifvqcp0","pricing_plan_id":"cebpf4jnsgd1na2vs0mg"},{"bike_id":"d6939c86-233b-42f1-816f-51f98e231070","system_id":"levelo_inurba_marseille","lat":43.31175,"lon":5.38721,"is_reserved":false,"is_disabled":false,"rental_uris":{"android":"levelo://app?vid=d6939c86-233b-42f1-816f-51f98e231070","ios":"levelo://app?vid=d6939c86-233b-42f1-816f-51f98e231070"},"vehicle_type_id":"4","last_reported":1734030444,"current_range_meters":33600,"station_id":"ce4bgv12rcd13ifvqcp0","pricing_plan_id":"cebpf4jnsgd1na2vs0mg"},{"bike_id":"ca3bf6a0-806c-4046-b219-bbea4c2ba646","system_id":"levelo_inurba_marseille","lat":43.23192,"lon":5.35549,"is_reserved":false,"is_disabled":false,"rental_uris":{"android":"levelo://app?vid=ca3bf6a0-806c-4046-b219-bbea4c2ba646","ios":"levelo://app?vid=ca3bf6a0-806c-4046-b219-bbea4c2ba646"},"vehicle_type_id":"4","last_reported":1734030444,"current_range_meters":38800,"station_id":"ce4bhu92rcd13ifvqi70","pricing_plan_id":"cebpf4jnsgd1na2vs0mg"},{"bike_id":"68eba3cf-a59b-44c7-b5f7-69152b212857","system_id":"levelo_inurba_marseille","lat":43.24648,"lon":5.38892,"is_reserved":false,"is_disabled":false,"rental_uris":{"android":"levelo://app?vid=68eba3cf-a59b-44c7-b5f7-69152b212857","ios":"levelo://app?vid=68eba3cf-a59b-44c7-b5f7-69152b212857"},"vehicle_type_id":"4","last_reported":1734030444,"current_range_meters":13600,"station_id":"ce4bhg12rcd13ifvqf60","pricing_plan_id":"cebpf4jnsgd1na2vs0mg"},{"bike_id":"46b2fdec-0870-4ae2-84dc-b1f57512351e","system_id":"levelo_inurba_marseille","lat":43.337444,"lon":5.374475,"is_reserved":false,"is_disabled":true,"rental_uris":{"android":"levelo://app?vid=46b2fdec-0870-4ae2-84dc-b1f57512351e","ios":"levelo://app?vid=46b2fdec-0870-4ae2-84dc-b1f57512351e"},"vehicle_type_id":"4","last_reported":1734030444,"current_range_meters":0,"station_id":"","pricing_plan_id":"cebpf4jnsgd1na2vs0mg"},{"bike_id":"ad8a8566-76f1-486f-a5c3-1b919241c9cc","system_id":"levelo_inurba_marseille","lat":43.30798,"lon":5.43514,"is_reserved":false,"is_disabled":true,"rental_uris":{"android":"levelo://app?vid=ad8a8566-76f1-486f-a5c3-1b919241c9cc","ios":"levelo://app?vid=ad8a8566-76f1-486f-a5c3-1b919241c9cc"},"vehicle_type_id":"4","last_reported":1734030444,"current_range_meters":800,"station_id":"ce4bhph2rcd13ifvqheg","pricing_plan_id":"cebpf4jnsgd1na2vs0mg"},{"bike_id":"cbe01e99-0ff7-479e-ac8d-a89f5a65b0d8","system_id":"levelo_inurba_marseille","lat":43.25581,"lon":5.38233,"is_reserved":false,"is_disabled":false,"rental_uris":{"android":"levelo://app?vid=cbe01e99-0ff7-479e-ac8d-a89f5a65b0d8","ios":"levelo://app?vid=cbe01e99-0ff7-479e-ac8d-a89f5a65b0d8"},"vehicle_type_id":"4","last_reported":1734030444,"current_range_meters":38800,"station_id":"ce4bhih2rcd13ifvqfs0","pricing_plan_id":"cebpf4jnsgd1na2vs0mg"},{"bike_id":"0fb22192-fcc5-4b0f-9072-972f99ce3b28","system_id":"levelo_inurba_marseille","lat":43.28413,"lon":5.37506,"is_reserved":false,"is_disabled":false,"rental_uris":{"android":"levelo://app?vid=0fb22192-fcc5-4b0f-9072-972f99ce3b28","ios":"levelo://app?vid=0fb22192-fcc5-4b0f-9072-972f99ce3b28"},"vehicle_type_id":"4","last_reported":1734030444,"current_range_meters":10800,"station_id":"ce4bh412rcd13ifvqds0","pricing_plan_id":"cebpf4jnsgd1na2vs0mg"},{"bike_id":"aba79769-f1db-48ab-b9f5-45c8990bee62","system_id":"levelo_inurba_marseille","lat":43.29041,"lon":5.3592,"is_reserved":false,"is_disabled":false,"rental_uris":{"android":"levelo://app?vid=aba79769-f1db-48ab-b9f5-45c8990bee62","ios":"levelo://app?vid=aba79769-f1db-48ab-b9f5-45c8990bee62"},"vehicle_type_id":"4","last_reported":1734030444,"current_range_meters":26800,"station_id":"ce4bha92rcd13ifvqeg0","pricing_plan_id":"cebpf4jnsgd1na2vs0mg"},{"bike_id":"d1c02024-3ea7-4d90-9be2-e9bf0c186c91","system_id":"levelo_inurba_marseille","lat":43.29852,"lon":5.36271,"is_reserved":false,"is_disabled":false,"rental_uris":{"android":"levelo://app?vid=d1c02024-3ea7-4d90-9be2-e9bf0c186c91","ios":"levelo://app?vid=d1c02024-3ea7-4d90-9be2-e9bf0c186c91"},"vehicle_type_id":"4","last_reported":1734030444,"current_range_meters":38000,"station_id":"ce4bgpp2rcd13ifvqc3g","pricing_plan_id":"cebpf4jnsgd1na2vs0mg"},{"bike_id":"69ef6e13-6d74-4067-a25e-0d94d6f9f54f","system_id":"levelo_inurba_marseille","lat":43.25582,"lon":5.38231,"is_reserved":false,"is_disabled":false,"rental_uris":{"android":"levelo://app?vid=69ef6e13-6d74-4067-a25e-0d94d6f9f54f","ios":"levelo://app?vid=69ef6e13-6d74-4067-a25e-0d94d6f9f54f"},"vehicle_type_id":"4","last_reported":1734030444,"current_range_meters":38800,"station_id":"ce4bhih2rcd13ifvqfs0","pricing_plan_id":"cebpf4jnsgd1na2vs0mg"},{"bike_id":"2448f112-093b-44a4-8c49-c482af2ba024","system_id":"levelo_inurba_marseille","lat":43.2306,"lon":5.35491,"is_reserved":false,"is_disabled":false,"rental_uris":{"android":"levelo://app?vid=2448f112-093b-44a4-8c49-c482af2ba024","ios":"levelo://app?vid=2448f112-093b-44a4-8c49-c482af2ba024"},"vehicle_type_id":"4","last_reported":1734030444,"current_range_meters":29600,"station_id":"cpo3342slgdg3j2ifvpg","pricing_plan_id":"cebpf4jnsgd1na2vs0mg"},{"bike_id":"dedcfdb0-6537-4a9d-bc26-22b9e221661e","system_id":"levelo_inurba_marseille","lat":43.301374,"lon":5.37414,"is_reserved":false,"is_disabled":true,"rental_uris":{"android":"levelo://app?vid=dedcfdb0-6537-4a9d-bc26-22b9e221661e","ios":"levelo://app?vid=dedcfdb0-6537-4a9d-bc26-22b9e221661e"},"vehicle_type_id":"4","last_reported":1734030444,"current_range_meters":26000,"station_id":"ce4bgs92rcd13ifvqcc0","pricing_plan_id":"cebpf4jnsgd1na2vs0mg"},{"bike_id":"95d26513-9cfa-4bd1-909f-688b4651da08","system_id":"levelo_inurba_marseille","lat":43.31221,"lon":5.36847,"is_reserved":false,"is_disabled":false,"rental_uris":{"android":"levelo://app?vid=95d26513-9cfa-4bd1-909f-688b4651da08","ios":"levelo://app?vid=95d26513-9cfa-4bd1-909f-688b4651da08"},"vehicle_type_id":"4","last_reported":1734030444,"current_range_meters":36800,"station_id":"ce4bgl92rcd13ifvqbq0","pricing_plan_id":"cebpf4jnsgd1na2vs0mg"},{"bike_id":"728c249b-c3e3-487a-83e2-143535ab34ea","system_id":"levelo_inurba_marseille","lat":43.29284,"lon":5.38417,"is_reserved":false,"is_disabled":false,"rental_uris":{"android":"levelo://app?vid=728c249b-c3e3-487a-83e2-143535ab34ea","ios":"levelo://app?vid=728c249b-c3e3-487a-83e2-143535ab34ea"},"vehicle_type_id":"4","last_reported":1734030444,"current_range_meters":38000,"station_id":"ce4bh692rcd13ifvqea0","pricing_plan_id":"cebpf4jnsgd1na2vs0mg"},{"bike_id":"13348f7e-b1f2-4c35-9c17-aee252331339","system_id":"levelo_inurba_marseille","lat":43.32365,"lon":5.3888,"is_reserved":false,"is_disabled":false,"rental_uris":{"android":"levelo://app?vid=13348f7e-b1f2-4c35-9c17-aee252331339","ios":"levelo://app?vid=13348f7e-b1f2-4c35-9c17-aee252331339"},"vehicle_type_id":"4","last_reported":1734030444,"current_range_meters":28000,"station_id":"ce4bhqp2rcd13ifvqhog","pricing_plan_id":"cebpf4jnsgd1na2vs0mg"},{"bike_id":"8d61f7e5-982d-498b-9814-9ae6b870e660","system_id":"levelo_inurba_marseille","lat":43.29935,"lon":5.3649,"is_reserved":false,"is_disabled":false,"rental_uris":{"android":"levelo://app?vid=8d61f7e5-982d-498b-9814-9ae6b870e660","ios":"levelo://app?vid=8d61f7e5-982d-498b-9814-9ae6b870e660"},"vehicle_type_id":"4","last_reported":1734030444,"current_range_meters":28800,"station_id":"","pricing_plan_id":"cebpf4jnsgd1na2vs0mg"},{"bike_id":"6d05f7ba-808a-4403-b1f3-f8483fec843c","system_id":"levelo_inurba_marseille","lat":43.23186,"lon":5.35551,"is_reserved":false,"is_disabled":false,"rental_uris":{"android":"levelo://app?vid=6d05f7ba-808a-4403-b1f3-f8483fec843c","ios":"levelo://app?vid=6d05f7ba-808a-4403-b1f3-f8483fec843c"},"vehicle_type_id":"4","last_reported":1734030444,"current_range_meters":30000,"station_id":"ce4bhu92rcd13ifvqi70","pricing_plan_id":"cebpf4jnsgd1na2vs0mg"},{"bike_id":"5b216ce0-5fe7-4327-a32a-feac1a44ddf5","system_id":"levelo_inurba_marseille","lat":43.27955,"lon":5.38711,"is_reserved":false,"is_disabled":true,"rental_uris":{"android":"levelo://app?vid=5b216ce0-5fe7-4327-a32a-feac1a44ddf5","ios":"levelo://app?vid=5b216ce0-5fe7-4327-a32a-feac1a44ddf5"},"vehicle_type_id":"4","last_reported":1734030444,"current_range_meters":26800,"station_id":"ce4bhg12rcd13ifvqf80","pricing_plan_id":"cebpf4jnsgd1na2vs0mg"},{"bike_id":"c22e4a78-9996-451f-afe7-bda311bcfcf6","system_id":"levelo_inurba_marseille","lat":43.28083,"lon":5.39651,"is_reserved":false,"is_disabled":false,"rental_uris":{"android":"levelo://app?vid=c22e4a78-9996-451f-afe7-bda311bcfcf6","ios":"levelo://app?vid=c22e4a78-9996-451f-afe7-bda311bcfcf6"},"vehicle_type_id":"4","last_reported":1734030444,"current_range_meters":10000,"station_id":"ce4bho12rcd13ifvqh2g","pricing_plan_id":"cebpf4jnsgd1na2vs0mg"},