{"last_updated":1727484227,"ttl":60,"version":"2.2","data":{"bikes":[{"bike_id":"88e686c5-18bf-4f6f-a54b-f6a6f7b7270a","system_id":"levelo_inurba_marseille","lat":43.30006,"lon":5.38217,"is_reserved":false,"is_disabled":false,"rental_uris":{"android":"levelo://app?vid=88e686c5-18bf-4f6f-a54b-f6a6f7b7270a","ios":"levelo://app?vid=88e686c5-18bf-4f6f-a54b-f6a6f7b7270a"},"vehicle_type_id":"4","last_reported":1727484227,"current_range_meters":18800,"station_id":"","pricing_plan_id":"cebpf4jnsgd1na2vs0mg"},{"bike_id":"f2602725-d633-43ab-bd38-fb1227eda7aa","system_id":"levelo_inurba_marseille","lat":43.29842,"lon":5.36267,"is_reserved":false,"is_disabled":false,"rental_uris":{"android":"levelo://app?vid=f2602725-d633-43ab-bd38-fb1227eda7aa","ios":"levelo://app?vid=f2602725-d633-43ab-bd38-fb1227eda7aa"},"vehicle_type_id":"4","last_reported":1727484227,"current_range_meters":27200,"station_id":"ce4bgpp2rcd13ifvqc3g","pricing_plan_id":"cebpf4jnsgd1na2vs0mg"},{"bike_id":"6dd65401-3259-455b-9d6d-245adfe3f67a","system_id":"levelo_inurba_marseille","lat":43.27915,"lon":5.39586,"is_reserved":false,"is_disabled":false,"rental_uris":{"android":"levelo://app?vid=6dd65401-3259-455b-9d6d-245adfe3f67a","ios":"levelo://app?vid=6dd65401-3259-455b-9d6d-245adfe3f67a"},"vehicle_type_id":"4","last_reported":1727484227,"current_range_meters":24800,"station_id":"ce4bhf92rcd13ifvqf40","pricing_plan_id":"cebpf4jnsgd1na2vs0mg"},{"bike_id":"e7081ef8-8a32-46a8-a293-c48ce527862e","system_id":"levelo_inurba_marseille","lat":43.3449,"lon":5.4162,"is_reserved":false,"is_disabled":false,"rental_uris":{"android":"levelo://app?vid=e7081ef8-8a32-46a8-a293-c48ce527862e","ios":"levelo://app?vid=e7081ef8-8a32-46a8-a293-c48ce527862e"},"vehicle_type_id":"4","last_reported":1727484227,"current_range_meters":8000,"station_id":"","pricing_plan_id":"cebpf4jnsgd1na2vs0mg"},{"bike_id":"fb5c5b18-3490-474b-9366-26167243c812","system_id":"levelo_inurba_marseille","lat":43.24683,"lon":5.38135,"is_reserved":false,"is_disabled":false,"rental_uris":{"android":"levelo://app?vid=fb5c5b18-3490-474b-9366-26167243c812","ios":"levelo://app?vid=fb5c5b18-3490-474b-9366-26167243c812"},"vehicle_type_id":"4","last_reported":1727484227,"current_range_meters":34000,"station_id":"ce4bhih2rcd13ifvqfr0","pricing_plan_id":"cebpf4jnsgd1na2vs0mg"},{"bike_id":"20d3e793-05ed-4bd0-979b-f6b46cc4aba9","system_id":"levelo_inurba_marseille","lat":43.28941,"lon":5.36382,"is_reserved":false,"is_disabled":false,"rental_uris":{"android":"levelo://app?vid=20d3e793-05ed-4bd0-979b-f6b46cc4aba9","ios":"levelo://app?vid=20d3e793-05ed-4bd0-979b-f6b46cc4aba9"},"vehicle_type_id":"4","last_reported":1727484227,"current_range_meters":38800,"station_id":"ce4bhc92rcd13ifvqetg","pricing_plan_id":"cebpf4jnsgd1na2vs0mg"},{"bike_id":"b1f53d51-c02e-4e0d-8ef1-020912a11ef3","system_id":"levelo_inurba_marseille","lat":43.30892,"lon":5.37192,"is_reserved":false,"is_disabled":false,"rental_uris":{"android":"levelo://app?vid=b1f53d51-c02e-4e0d-8ef1-020912a11ef3","ios":"levelo://app?vid=b1f53d51-c02e-4e0d-8ef1-020912a11ef3"},"vehicle_type_id":"4","last_reported":1727484227,"current_range_meters":8800,"station_id":"ce4bguh2rcd13ifvqckg","pricing_plan_id":"cebpf4jnsgd1na2vs0mg"},{"bike_id":"0067206a-18c2-46ae-9daf-3aa4ce070d30","system_id":"levelo_inurba_marseille","lat":43.30304,"lon":5.368897,"is_reserved":false,"is_disabled":false,"rental_uris":{"android":"levelo://app?vid=0067206a-18c2-46ae-9daf-3aa4ce070d30","ios":"levelo://app?vid=0067206a-18c2-46ae-9daf-3aa4ce070d30"},"vehicle_type_id":"4","last_reported":1727484227,"current_range_meters":38000,"station_id":"ce4bgqh2rcd13ifvqc5g","pricing_plan_id":"cebpf4jnsgd1na2vs0mg"},{"bike_id":"138145aa-13ee-4b87-8a63-4ccc8941f972","system_id":"levelo_inurba_marseille","lat":43.30797,"lon":5.38154,"is_reserved":false,"is_disabled":false,"rental_uris":{"android":"levelo://app?vid=138145aa-13ee-4b87-8a63-4ccc8941f972","ios":"levelo://app?vid=138145aa-13ee-4b87-8a63-4ccc8941f972"},"vehicle_type_id":"4","last_reported":1727484227,"current_range_meters":33200,"station_id":"ce4bgt12rcd13ifvqce0","pricing_plan_id":"cebpf4jnsgd1na2vs0mg"},{"bike_id":"065bacd5-9929-4380-91c4-587ad3f90b3f","system_id":"levelo_inurba_marseille","lat":43.3127,"lon":5.40167,"is_reserved":false,"is_disabled":false,"rental_uris":{"android":"levelo://app?vid=065bacd5-9929-4380-91c4-587ad3f90b3f","ios":"levelo://app?vid=065bacd5-9929-4380-91c4-587ad3f90b3f"},"vehicle_type_id":"4","last_reported":1727484227,"current_range_meters":39200,"station_id":"ce4bh092rcd13ifvqd30","pricing_plan_id":"cebpf4jnsgd1na2vs0mg"},{"bike_id":"c42bda2a-576f-4405-9ceb-4d1e065cf644","system_id":"levelo_inurba_marseille","lat":43.27948,"lon":5.41044,"is_reserved":false,"is_disabled":false,"rental_uris":{"android":"levelo://app?vid=c42bda2a-576f-4405-9ceb-4d1e065cf644","ios":"levelo://app?vid=c42bda2a-576f-4405-9ceb-4d1e065cf644"},"vehicle_type_id":"4","last_reported":1727484227,"current_range_meters":38800,"station_id":"ce4bhnp2rcd13ifvqh0g","pricing_plan_id":"cebpf4jnsgd1na2vs0mg"},{"bike_id":"b31d2a6f-f5b3-427c-91ed-ee55eb9ea647","system_id":"levelo_inurba_marseille","lat":43.279001,"lon":5.380224,"is_reserved":false,"is_disabled":false,"rental_uris":{"android":"levelo://app?vid=b31d2a6f-f5b3-427c-91ed-ee55eb9ea647","ios":"levelo://app?vid=b31d2a6f-f5b3-427c-91ed-ee55eb9ea647"},"vehicle_type_id":"4","last_reported":1727484227,"current_range_meters":38400,"station_id":"ce4bhf92rcd13ifvqf50","pricing_plan_id":"cebpf4jnsgd1na2vs0mg"},{"bike_id":"f6f8cda9-f51d-4be8-a2ad-8943d0d2dc46","system_id":"levelo_inurba_marseille","lat":43.32367,"lon":5.38882,"is_reserved":false,"is_disabled":false,"rental_uris":{"android":"levelo://app?vid=f6f8cda9-f51d-4be8-a2ad-8943d0d2dc46","ios":"levelo://app?vid=f6f8cda9-f51d-4be8-a2ad-8943d0d2dc46"},"vehicle_type_id":"4","last_reported":1727484227,"current_range_meters":26000,"station_id":"ce4bhqp2rcd13ifvqhog","pricing_plan_id":"cebpf4jnsgd1na2vs0mg"},{"bike_id":"02c6d3d8-077a-4c1a-ae87-92ce1ff0942b","system_id":"levelo_inurba_marseille","lat":43.23187,"lon":5.39996,"is_reserved":false,"is_disabled":false,"rental_uris":{"android":"levelo://app?vid=02c6d3d8-077a-4c1a-ae87-92ce1ff0942b","ios":"levelo://app?vid=02c6d3d8-077a-4c1a-ae87-92ce1ff0942b"},"vehicle_type_id":"4","last_reported":1727484227,"current_range_meters":25200,"station_id":"ce4bhn12rcd13ifvqgqg","pricing_plan_id":"cebpf4jnsgd1na2vs0mg"},{"bike_id":"86ab9e15-2330-4229-871b-cd4aa2f273d2","system_id":"levelo_inurba_marseille","lat":43.32823,"lon":5.40504,"is_reserved":false,"is_disabled":false,"rental_uris":{"android":"levelo://app?vid=86ab9e15-2330-4229-871b-cd4aa2f273d2","ios":"levelo://app?vid=86ab9e15-2330-4229-871b-cd4aa2f273d2"},"vehicle_type_id":"4","last_reported":1727484227,"current_range_meters":6000,"station_id":"","pricing_plan_id":"cebpf4jnsgd1na2vs0mg"},{"bike_id":"f14f03c4-f321-4cbd-8e8c-4c264ee7b7bb","system_id":"levelo_inurba_marseille","lat":43.27898,"lon":5.38012,"is_reserved":false,"is_disabled":false,"rental_uris":{"android":"levelo://app?vid=f14f03c4-f321-4cbd-8e8c-4c264ee7b7bb","ios":"levelo://app?vid=f14f03c4-f321-4cbd-8e8c-4c264ee7b7bb"},"vehicle_type_id":"4","last_reported":1727484227,"current_range_meters":6400,"station_id":"ce4bhf92rcd13ifvqf50","pricing_plan_id":"cebpf4jnsgd1na2vs0mg"},{"bike_id":"c019e74a-b642-433e-ba2d-515aeea07498","system_id":"levelo_inurba_marseille","lat":43.30888,"lon":5.39642,"is_reserved":false,"is_disabled":false,"rental_uris":{"android":"levelo://app?vid=c019e74a-b642-433e-ba2d-515aeea07498","ios":"levelo://app?vid=c019e74a-b642-433e-ba2d-515aeea07498"},"vehicle_type_id":"4","last_reported":1727484227,"current_range_meters":20400,"station_id":"ce4bh012rcd13ifvqcv0","pricing_plan_id":"cebpf4jnsgd1na2vs0mg"},{"bike_id":"d856d046-c1ef-4f5f-947a-4f7b5e236c78","system_id":"levelo_inurba_marseille","lat":43.31166,"lon":5.38717,"is_reserved":false,"is_disabled":false,"rental_uris":{"android":"levelo://app?vid=d856d046-c1ef-4f5f-947a-4f7b5e236c78","ios":"levelo://app?vid=d856d046-c1ef-4f5f-947a-4f7b5e236c78"},"vehicle_type_id":"4","last_reported":1727484227,"current_range_meters":20400,"station_id":"ce4bgv12rcd13ifvqcp0","pricing_plan_id":"cebpf4jnsgd1na2vs0mg"},{"bike_id":"fd95b7d0-9465-4ced-a887-157866b5f796","system_id":"levelo_inurba_marseille","lat":43.28073,"lon":5.39655,"is_reserved":false,"is_disabled":false,"rental_uris":{"android":"levelo://app?vid=fd95b7d0-9465-4ced-a887-157866b5f796","ios":"levelo://app?vid=fd95b7d0-9465-4ced-a887-157866b5f796"},"vehicle_type_id":"4","last_reported":1727484227,"current_range_meters":38800,"station_id":"ce4bho12rcd13ifvqh2g","pricing_plan_id":"cebpf4jnsgd1na2vs0mg"},{"bike_id":"9b75a29d-f1a9-4fde-909a-755a96ab8371","system_id":"levelo_inurba_marseille","lat":43.28271,"lon":5.3508,"is_reserved":false,"is_disabled":false,"rental_uris":{"android":"levelo://app?vid=9b75a29d-f1a9-4fde-909a-755a96ab8371","ios":"levelo://app?vid=9b75a29d-f1a9-4fde-909a-755a96ab8371"},"vehicle_type_id":"4","last_reported":1727484227,"current_range_meters":38800,"station_id":"ce4bhbp2rcd13ifvqerg","pricing_plan_id":"cebpf4jnsgd1na2vs0mg"},{"bike_id":"3c88838b-957d-46e8-8abb-aca2239a515e","system_id":"levelo_inurba_marseille","lat":43.29623,"lon":5.40599,"is_reserved":false,"is_disabled":false,"rental_uris":{"android":"levelo://app?vid=3c88838b-957d-46e8-8abb-aca2239a515e","ios":"levelo://app?vid=3c88838b-957d-46e8-8abb-aca2239a515e"},"vehicle_type_id":"4","last_reported":1727484227,"current_range_meters":20400,"station_id":"ce4bh0h2rcd13ifvqd60","pricing_plan_id":"cebpf4jnsgd1na2vs0mg"},{"bike_id":"8eab5d72-03b4-4fbc-854e-997a0926de18","system_id":"levelo_inurba_marseille","lat":43.32364,"lon":5.38878,"is_reserved":false,"is_disabled":false,"rental_uris":{"android":"levelo://app?vid=8eab5d72-03b4-4fbc-854e-997a0926de18","ios":"levelo://app?vid=8eab5d72-03b4-4fbc-854e-997a0926de18"},"vehicle_type_id":"4","last_reported":1727484227,"current_range_meters":7200,"station_id":"ce4bhqp2rcd13ifvqhog","pricing_plan_id":"cebpf4jnsgd1na2vs0mg"},{"bike_id":"83ab67e9-9683-40ac-9b80-c07390469159","system_id":"levelo_inurba_marseille","lat":43.22925,"lon":5.35374,"is_reserved":false,"is_disabled":false,"rental_uris":{"android":"levelo://app?vid=83ab67e9-9683-40ac-9b80-c07390469159","ios":"levelo://app?vid=83ab67e9-9683-40ac-9b80-c07390469159"},"vehicle_type_id":"4","last_reported":1727484227,"current_range_meters":38800,"station_id":"cpo3532slgdg3j2ikp40","pricing_plan_id":"cebpf4jnsgd1na2vs0mg"},{"bike_id":"d5102023-2177-42c2-ad10-f0c853c8591c","system_id":"levelo_inurba_marseille","lat":43.29634,"lon":5.40597,"is_reserved":false,"is_disabled":false,"rental_uris":{"android":"levelo://app?vid=d5102023-2177-42c2-ad10-f0c853c8591c","ios":"levelo://app?vid=d5102023-2177-42c2-ad10-f0c853c8591c"},"vehicle_type_id":"4","last_reported":1727484227,"current_range_meters":37600,"station_id":"ce4bh0h2rcd13ifvqd60","pricing_plan_id":"cebpf4jnsgd1na2vs0mg"},{"bike_id":"71d3e033-4d4d-44e7-9098-57b0caa694eb","system_id":"levelo_inurba_marseille","lat":43.28,"lon":5.40019,"is_reserved":false,"is_disabled":false,"rental_uris":{"android":"levelo://app?vid=71d3e033-4d4d-44e7-9098-57b0caa694eb","ios":"levelo://app?vid=71d3e033-4d4d-44e7-9098-57b0caa694eb"},"vehicle_type_id":"4","last_reported":1727484227,"current_range_meters":20000,"station_id":"ce4bho92rcd13ifvqh4g","pricing_plan_id":"cebpf4jnsgd1na2vs0mg"},{"bike_id":"73d4b1b9-8fa7-45c3-b819-17c2aa182b44","system_id":"levelo_inurba_marseille","lat":43.2955,"lon":5.42276,"is_reserved":false,"is_disabled":false,"rental_uris":{"android":"levelo://app?vid=73d4b1b9-8fa7-45c3-b819-17c2aa182b44","ios":"levelo://app?vid=73d4b1b9-8fa7-45c3-b819-17c2aa182b44"},"vehicle_type_id":"4","last_reported":1727484227,"current_range_meters":12800,"station_id":"ce4bhph2rcd13ifvqhdg","pricing_plan_id":"cebpf4jnsgd1na2vs0mg"},{"bike_id":"368dccfc-648d-4295-a7ec-e830fb9cf69e","system_id":"levelo_inurba_marseille","lat":43.33024,"lon":5.39035,"is_reserved":false,"is_disabled":false,"rental_uris":{"android":"levelo://app?vid=368dccfc-648d-4295-a7ec-e830fb9cf69e","ios":"levelo://app?vid=368dccfc-648d-4295-a7ec-e830fb9cf69e"},"vehicle_type_id":"4","last_reported":1727484227,"current_range_meters":12800,"station_id":"ce4bhr92rcd13ifvqhrg","pricing_plan_id":"cebpf4jnsgd1na2vs0mg"},{"bike_id":"0fe6f31f-9666-463a-a971-e1087efa1620","system_id":"levelo_inurba_marseille","lat":43.30879,"lon":5.39632,"is_reserved":false,"is_disabled":false,"rental_uris":{"android":"levelo://app?vid=0fe6f31f-9666-463a-a971-e1087efa1620","ios":"levelo://app?vid=0fe6f31f-9666-463a-a971-e1087efa1620"},"vehicle_type_id":"4","last_reported":1727484227,"current_range_meters":22400,"station_id":"ce4bh012rcd13ifvqcv0","pricing_plan_id":"cebpf4jnsgd1na2vs0mg"},{"bike_id":"9f6b5ef6-02f7-4c16-9005-0978229a95e0","system_id":"levelo_inurba_marseille","lat":43.28469,"lon":5.35894,"is_reserved":false,"is_disabled":false,"rental_uris":{"android":"levelo://app?vid=9f6b5ef6-02f7-4c16-9005-0978229a95e0","ios":"levelo://app?vid=9f6b5ef6-02f7-4c16-9005-0978229a95e0"},"vehicle_type_id":"4","last_reported":1727484227,"current_range_meters":38800,"station_id":"ce4bhah2rcd13ifvqei0","pricing_plan_id":"cebpf4jnsgd1na2vs0mg"},{"bike_id":"d395f723-67ab-463d-b33d-2dfc8dc773fb","system_id":"levelo_inurba_marseille","lat":43.258273,"lon":5.39425,"is_reserved":false,"is_disabled":false,"rental_uris":{"android":"levelo://app?vid=d395f723-67ab-463d-b33d-2dfc8dc773fb","ios":"levelo://app?vid=d395f723-67ab-463d-b33d-2dfc8dc773fb"},"vehicle_type_id":"4","last_reported":1727484227,"current_range_meters":38800,"station_id":"ce4bhip2rcd13ifvqft0","pricing_plan_id":"cebpf4jnsgd1na2vs0mg"},{"bike_id":"72380b8a-4d9e-4cb5-8622-6038e9ef96ea","system_id":"levelo_inurba_marseille","lat":43.31169,"lon":5.38712,"is_reserved":false,"is_disabled":false,"rental_uris":{"android":"levelo://app?vid=72380b8a-4d9e-4cb5-8622-6038e9ef96ea","ios":"levelo://app?vid=72380b8a-4d9e-4cb5-8622-6038e9ef96ea"},"vehicle_type_id":"4","last_reported":1727484227,"current_range_meters":39200,"station_id":"ce4bgv12rcd13ifvqcp0","pricing_plan_id":"cebpf4jnsgd1na2vs0mg"},{"bike_id":"6fb54eef-1b79-4c8c-956c-b78c5752a631","system_id":"levelo_inurba_marseille","lat":43.25824,"lon":5.39423,"is_reserved":false,"is_disabled":false,"rental_uris":{"android":"levelo://app?vid=6fb54eef-1b79-4c8c-956c-b78c5752a631","ios":"levelo://app?vid=6fb54eef-1b79-4c8c-956c-b78c5752a631"},"vehicle_type_id":"4","last_reported":1727484227,"current_range_meters":8800,"station_id":"ce4bhip2rcd13ifvqft0","pricing_plan_id":"cebpf4jnsgd1na2vs0mg"},{"bike_id":"0abfa85f-e51b-42a4-82e2-778eb183e74e","system_id":"levelo_inurba_marseille","lat":43.3153,"lon":5.38025,"is_reserved":false,"is_disabled":false,"rental_uris":{"android":"levelo://app?vid=0abfa85f-e51b-42a4-82e2-778eb183e74e","ios":"levelo://app?vid=0abfa85f-e51b-42a4-82e2-778eb183e74e"},"vehicle_type_id":"4","last_reported":1727484227,"current_range_meters":38800,"station_id":"ce4bhsp2rcd13ifvqi50","pricing_plan_id":"cebpf4jnsgd1na2vs0mg"},{"bike_id":"b7abccf7-039d-47c7-b3a6-a5c7ad9bfa95","system_id":"levelo_inurba_marseille","lat":43.311202,"lon":5.377646,"is_reserved":false,"is_disabled":false,"rental_uris":{"android":"levelo://app?vid=b7abccf7-039d-47c7-b3a6-a5c7ad9bfa95","ios":"levelo://app?vid=b7abccf7-039d-47c7-b3a6-a5c7ad9bfa95"},"vehicle_type_id":"4","last_reported":1727484227,"current_range_meters":38800,"station_id":"ce4bgt92rcd13ifvqcg0","pricing_plan_id":"cebpf4jnsgd1na2vs0mg"},{"bike_id":"ef385aff-3079-48ef-a8fb-3479a7428776","system_id":"levelo_inurba_marseille","lat":43.27937,"lon":5.41037,"is_reserved":false,"is_disabled":false,"rental_uris":{"android":"levelo://app?vid=ef385aff-3079-48ef-a8fb-3479a7428776","ios":"levelo://app?vid=ef385aff-3079-48ef-a8fb-3479a7428776"},"vehicle_type_id":"4","last_reported":1727484227,"current_range_meters":6000,"station_id":"ce4bhnp2rcd13ifvqh0g","pricing_plan_id":"cebpf4jnsgd1na2vs0mg"},{"bike_id":"7fab7451-a6e0-472b-81ac-3e5565e130d8","system_id":"levelo_inurba_marseille","lat":43.33752,"lon":5.37361,"is_reserved":false,"is_disabled":false,"rental_uris":{"android":"levelo://app?vid=7fab7451-a6e0-472b-81ac-3e5565e130d8","ios":"levelo://app?vid=7fab7451-a6e0-472b-81ac-3e5565e130d8"},"vehicle_type_id":"4","last_reported":1727484227,"current_range_meters":24800,"station_id":"","pricing_plan_id":"cebpf4jnsgd1na2vs0mg"},{"bike_id":"c1f1be46-6a39-467c-91cf-9cc8be642387","system_id":"levelo_inurba_marseille","lat":43.3171,"lon":5.43709,"is_reserved":false,"is_disabled":false,"rental_uris":{"android":"levelo://app?vid=c1f1be46-6a39-467c-91cf-9cc8be642387","ios":"levelo://app?vid=c1f1be46-6a39-467c-91cf-9cc8be642387"},"vehicle_type_id":"4","last_reported":1727484227,"current_range_meters":24400,"station_id":"ce4bhp92rcd13ifvqhcg","pricing_plan_id":"cebpf4jnsgd1na2vs0mg"},{"bike_id":"9cc233d2-2609-45fe-83bd-dfa46dc3f5b7","system_id":"levelo_inurba_marseille","lat":43.26938,"lon":5.40252,"is_reserved":false,"is_disabled":false,"rental_uris":{"android":"levelo://app?vid=9cc233d2-2609-45fe-83bd-dfa46dc3f5b7","ios":"levelo://app?vid=9cc233d2-2609-45fe-83bd-dfa46dc3f5b7"},"vehicle_type_id":"4","last_reported":1727484227,"current_range_meters":20400,"station_id":"cjm6bp8fraef2m0cb0m0","pricing_plan_id":"cebpf4jnsgd1na2vs0mg"},{"bike_id":"e19c2211-331c-42ae-b78a-4ecc2a7133fe","system_id":"levelo_inurba_marseille","lat":43.24666,"lon":5.38161,"is_reserved":false,"is_disabled":false,"rental_uris":{"android":"levelo://app?vid=e19c2211-331c-42ae-b78a-4ecc2a7133fe","ios":"levelo://app?vid=e19c2211-331c-42ae-b78a-4ecc2a7133fe"},"vehicle_type_id":"4","last_reported":1727484227,"current_range_meters":37600,"station_id":"ce4bhih2rcd13ifvqfr0","pricing_plan_id":"cebpf4jnsgd1na2vs0mg"},{"bike_id":"298f0ccb-7169-40e0-91e7-814cf75fbdc2","system_id":"levelo_inurba_marseille","lat":43.3059,"lon":5.39352,"is_reserved":false,"is_disabled":false,"rental_uris":{"android":"levelo://app?vid=298f0ccb-7169-40e0-91e7-814cf75fbdc2","ios":"levelo://app?vid=298f0ccb-7169-40e0-91e7-814cf75fbdc2"},"vehicle_type_id":"4","last_reported":1727484227,"current_range_meters":20000,"station_id":"ce4bh0p2rcd13ifvqd80","pricing_plan_id":"cebpf4jnsgd1na2vs0mg"},{"bike_id":"0fd55f5b-2cee-4ce5-a3d3-0de23c5b712d","system_id":"levelo_inurba_marseille","lat":43.2835,"lon":5.38103,"is_reserved":false,"is_disabled":false,"rental_uris":{"android":"levelo://app?vid=0fd55f5b-2cee-4ce5-a3d3-0de23c5b712d","ios":"levelo://app?vid=0fd55f5b-2cee-4ce5-a3d3-0de23c5b712d"},"vehicle_type_id":"4","last_reported":1727484227,"current_range_meters":3600,"station_id":"ce4bh412rcd13ifvqdr0","pricing_plan_id":"cebpf4jnsgd1na2vs0mg"},{"bike_id":"53d3d543-4809-4f9c-a6c1-ced8bbb46e3b","system_id":"levelo_inurba_marseille","lat":43.24387,"lon":5.37056,"is_reserved":false,"is_disabled":false,"rental_uris":{"android":"levelo://app?vid=53d3d543-4809-4f9c-a6c1-ced8bbb46e3b","ios":"levelo://app?vid=53d3d543-4809-4f9c-a6c1-ced8bbb46e3b"},"vehicle_type_id":"4","last_reported":1727484227,"current_range_meters":38800,"station_id":"ce4bhhh2rcd13ifvqfk0","pricing_plan_id":"cebpf4jnsgd1na2vs0mg"},{"bike_id":"a00340c3-2a87-4b48-a268-ec041e1a44ab","system_id":"levelo_inurba_marseille","lat":43.337444,"lon":5.374475,"is_reserved":false,"is_disabled":false,"rental_uris":{"android":"levelo://app?vid=a00340c3-2a87-4b48-a268-ec041e1a44ab","ios":"levelo://app?vid=a00340c3-2a87-4b48-a268-ec041e1a44ab"},"vehicle_type_id":"4","last_reported":1727484227,"current_range_meters":14400,"station_id":"","pricing_plan_id":"cebpf4jnsgd1na2vs0mg"},{"bike_id":"e793bbc8-9b24-4de0-9b41-35a67b001f0e","system_id":"levelo_inurba_marseille","lat":43.30955,"lon":5.39025,"is_reserved":false,"is_disabled":false,"rental_uris":{"android":"levelo://app?vid=e793bbc8-9b24-4de0-9b41-35a67b001f0e","ios":"levelo://app?vid=e793bbc8-9b24-4de0-9b41-35a67b001f0e"},"vehicle_type_id":"4","last_reported":1727484227,"current_range_meters":8800,"station_id":"ce4bgup2rcd13ifvqco0","pricing_plan_id":"cebpf4jnsgd1na2vs0mg"},{"bike_id":"d068d157-381d-413c-84d5-85045142d6df","system_id":"levelo_inurba_marseille","lat":43.24385,"lon":5.37053,"is_reserved":false,"is_disabled":false,"rental_uris":{"android":"levelo://app?vid=d068d157-381d-413c-84d5-85045142d6df","ios":"levelo://app?vid=d068d157-381d-413c-84d5-85045142d6df"},"vehicle_type_id":"4","last_reported":1727484227,"current_range_meters":25600,"station_id":"ce4bhhh2rcd13ifvqfk0","pricing_plan_id":"cebpf4jnsgd1na2vs0mg"},{"bike_id":"73fff50f-cfc6-445f-be55-336dbb119da6","system_id":"levelo_inurba_marseille","lat":43.27561,"lon":5.38428,"is_reserved":false,"is_disabled":false,"rental_uris":{"android":"levelo://app?vid=73fff50f-cfc6-445f-be55-336dbb119da6","ios":"levelo://app?vid=73fff50f-cfc6-445f-be55-336dbb119da6"},"vehicle_type_id":"4","last_reported":1727484227,"current_range_meters":18800,"station_id":"ce4bhh92rcd13ifvqfi0","pricing_plan_id":"cebpf4jnsgd1na2vs0mg"},{"bike_id":"3eef014d-d776-49be-8484-ae177328603a","system_id":"levelo_inurba_marseille","lat":43.31127,"lon":5.37773,"is_reserved":false,"is_disabled":false,"rental_uris":{"android":"levelo://app?vid=3eef014d-d776-49be-8484-ae177328603a","ios":"levelo://app?vid=3eef014d-d776-49be-8484-ae177328603a"},"vehicle_type_id":"4","last_reported":1727484227,"current_range_meters":20800,"station_id":"ce4bgt92rcd13ifvqcg0","pricing_plan_id":"cebpf4jnsgd1na2vs0mg"},{"bike_id":"addaa15b-ff07-416d-874e-9572836133c5","system_id":"levelo_inurba_marseille","lat":43.30783,"lon":5.37658,"is_reserved":false,"is_disabled":false,"rental_uris":{"android":"levelo://app?vid=addaa15b-ff07-416d-874e-9572836133c5","ios":"levelo://app?vid=addaa15b-ff07-416d-874e-9572836133c5"},"vehicle_type_id":"4","last_reported":1727484227,"current_range_meters":19200,"station_id":"ce4bgv92rcd13ifvqcq0","pricing_plan_id":"cebpf4jnsgd1na2vs0mg"},{"bike_id":"69c822e0-82f3-4471-92b1-a17043de052d","system_id":"levelo_inurba_marseille","lat":43.28734,"lon":5.36085,"is_reserved":false,"is_disabled":false,"rental_uris":{"android":"levelo://app?vid=69c822e0-82f3-4471-92b1-a17043de052d","ios":"levelo://app?vid=69c822e0-82f3-4471-92b1-a17043de052d"},"vehicle_type_id":"4","last_reported":1727484227,"current_range_meters":7200,"station_id":"cki0cbj6b192h4jlfktg","pricing_plan_id":"cebpf4jnsgd1na2vs0mg"},{"bike_id":"bde544f5-3fb0-427a-a293-eae8b2ab9ecd","system_id":"levelo_inurba_marseille","lat":43.31987,"lon":5.38142,"is_reserved":false,"is_disabled":false,"rental_uris":{"android":"levelo://app?vid=bde544f5-3fb0-427a-a293-eae8b2ab9ecd","ios":"levelo://app?vid=bde544f5-3fb0-427a-a293-eae8b2ab9ecd"},"vehicle_type_id":"4","last_reported":1727484227,"current_range_meters":38800,"station_id":"ce4bhr12rcd13ifvqhpg","pricing_plan_id":"cebpf4jnsgd1na2vs0mg"},{"bike_id":"200d565e-50c8-442b-aa07-3276365acead","system_id":"levelo_inurba_marseille","lat":43.31266,"lon":5.40176,"is_reserved":false,"is_disabled":false,"rental_uris":{"android":"levelo://app?vid=200d565e-50c8-442b-aa07-3276365acead","ios":"levelo://app?vid=200d565e-50c8-442b-aa07-3276365acead"},"vehicle_type_id":"4","last_reported":1727484227,"current_range_meters":28000,"station_id":"ce4bh092rcd13ifvqd30","pricing_plan_id":"cebpf4jnsgd1na2vs0mg"},{"bike_id":"b6f3e3a5-463f-4e04-84ad-db38dc53ca10","system_id":"levelo_inurba_marseille","lat":43.26679,"lon":5.38271,"is_reserved":false,"is_disabled":false,"rental_uris":{"android":"levelo://app?vid=b6f3e3a5-463f-4e04-84ad-db38dc53ca10","ios":"levelo://app?vid=b6f3e3a5-463f-4e04-84ad-db38dc53ca10"},"vehicle_type_id":"4","last_reported":1727484227,"current_range_meters":38800,"station_id":"ce4bhg92rcd13ifvqf90","pricing_plan_id":"cebpf4jnsgd1na2vs0mg"},{"bike_id":"fbc24bad-11e6-4f47-89f8-d15d3980214a","system_id":"levelo_inurba_marseille","lat":43.29799,"lon":5.39341,"is_reserved":false,"is_disabled":false,"rental_uris":{"android":"levelo://app?vid=fbc24bad-11e6-4f47-89f8-d15d3980214a","ios":"levelo://app?vid=fbc24bad-11e6-4f47-89f8-d15d3980214a"},"vehicle_type_id":"4","last_reported":1727484227,"current_range_meters":36400,"station_id":"chh1huq6cuj3fo74tm60","pricing_plan_id":"cebpf4jnsgd1na2vs0mg"},{"bike_id":"5caa90d1-87c5-4d70-b73c-17289643c374","system_id":"levelo_inurba_marseille","lat":43.29804,"lon":5.40408,"is_reserved":false,"is_disabled":false,"rental_uris":{"android":"levelo://app?vid=5caa90d1-87c5-4d70-b73c-17289643c374","ios":"levelo://app?vid=5caa90d1-87c5-4d70-b73c-17289643c374"},"vehicle_type_id":"4","last_reported":1727484227,"current_range_meters":36800,"station_id":"ce4bh112rcd13ifvqd90","pricing_plan_id":"cebpf4jnsgd1na2vs0mg"},{"bike_id":"f9ab0879-2cf8-4c97-8605-cb331337de4a","system_id":"levelo_inurba_marseille","lat":43.297727,"lon":5.365873,"is_reserved":false,"is_disabled":false,"rental_uris":{"android":"levelo://app?vid=f9ab0879-2cf8-4c97-8605-cb331337de4a","ios":"levelo://app?vid=f9ab0879-2cf8-4c97-8605-cb331337de4a"},"vehicle_type_id":"4","last_reported":1727484227,"current_range_meters":26000,"station_id":"ce4bgn12rcd13ifvqbt0","pricing_plan_id":"cebpf4jnsgd1na2vs0mg"},{"bike_id":"89b50add-d4e6-4db5-8339-58993fb9ae60","system_id":"levelo_inurba_marseille","lat":43.30809,"lon":5.38166,"is_reserved":false,"is_disabled":false,"rental_uris":{"android":"levelo://app?vid=89b50add-d4e6-4db5-8339-58993fb9ae60","ios":"levelo://app?vid=89b50add-d4e6-4db5-8339-58993fb9ae60"},"vehicle_type_id":"4","last_reported":1727484227,"current_range_meters":38800,"station_id":"ce4bgt12rcd13ifvqce0","pricing_plan_id":"cebpf4jnsgd1na2vs0mg"},{"bike_id":"b4a9f112-cc62-4462-8c33-6cd48f4564f0","system_id":"levelo_inurba_marseille","lat":43.27673,"lon":5.38866,"is_reserved":false,"is_disabled":false,"rental_uris":{"android":"levelo://app?vid=b4a9f112-cc62-4462-8c33-6cd48f4564f0","ios":"levelo://app?vid=b4a9f112-cc62-4462-8c33-6cd48f4564f0"},"vehicle_type_id":"4","last_reported":1727484227,"current_range_meters":32000,"station_id":"ce4bhi12rcd13ifvqfo0","pricing_plan_id":"cebpf4jnsgd1na2vs0mg"},{"bike_id":"d5a4817b-6b68-4ba0-83e7-34bebb06a1c7","system_id":"levelo_inurba_marseille","lat":43.31479,"lon":5.37231,"is_reserved":false,"is_disabled":false,"rental_uris":{"android":"levelo://app?vid=d5a4817b-6b68-4ba0-83e7-34bebb06a1c7","ios":"levelo://app?vid=d5a4817b-6b68-4ba0-83e7-34bebb06a1c7"},"vehicle_type_id":"4","last_reported":1727484227,"current_range_meters":28000,"station_id":"","pricing_plan_id":"cebpf4jnsgd1na2vs0mg"},{"bike_id":"6d2e0c7d-9a37-4e2b-8600-8680c8c9fb26","system_id":"levelo_inurba_marseille","lat":43.323364,"lon":5.406224,"is_reserved":false,"is_disabled":false,"rental_uris":{"android":"levelo://app?vid=6d2e0c7d-9a37-4e2b-8600-8680c8c9fb26","ios":"levelo://app?vid=6d2e0c7d-9a37-4e2b-8600-8680c8c9fb26"},"vehicle_type_id":"4","last_reported":1727484227,"current_range_meters":38000,"station_id":"ce4bhq92rcd13ifvqhjg","pricing_plan_id":"cebpf4jnsgd1na2vs0mg"},{"bike_id":"34210d1e-5120-452f-8bf4-0caac563929f","system_id":"levelo_inurba_marseille","lat":43.231815,"lon":5.399921,"is_reserved":false,"is_disabled":false,"rental_uris":{"android":"levelo://app?vid=34210d1e-5120-452f-8bf4-0caac563929f","ios":"levelo://app?vid=34210d1e-5120-452f-8bf4-0caac563929f"},"vehicle_type_id":"4","last_reported":1727484227,"current_range_meters":24000,"station_id":"ce4bhn12rcd13ifvqgqg","pricing_plan_id":"cebpf4jnsgd1na2vs0mg"},{"bike_id":"afd22b8f-da9e-49bd-b9c5-edbc00a92e9f","system_id":"levelo_inurba_marseille","lat":43.326581,"lon":5.409838,"is_reserved":false,"is_disabled":false,"rental_uris":{"android":"levelo://app?vid=afd22b8f-da9e-49bd-b9c5-edbc00a92e9f","ios":"levelo://app?vid=afd22b8f-da9e-49bd-b9c5-edbc00a92e9f"},"vehicle_type_id":"4","last_reported":1727484227,"current_range_meters":38400,"station_id":"ce4bhpp2rcd13ifvqhgg","pricing_plan_id":"cebpf4jnsgd1na2vs0mg"},{"bike_id":"a659f282-0e80-4a7a-809c-a549579dfaeb","system_id":"levelo_inurba_marseille","lat":43.31887,"lon":5.40734,"is_reserved":false,"is_disabled":false,"rental_uris":{"android":"levelo://app?vid=a659f282-0e80-4a7a-809c-a549579dfaeb","ios":"levelo://app?vid=a659f282-0e80-4a7a-809c-a549579dfaeb"},"vehicle_type_id":"4","last_reported":1727484227,"current_range_meters":38000,"station_id":"ce4bhq12rcd13ifvqhig","pricing_plan_id":"cebpf4jnsgd1na2vs0mg"},{"bike_id":"c7662f29-d977-460a-81ef-ae899ee53108","system_id":"levelo_inurba_marseille","lat":43.24547,"lon":5.39532,"is_reserved":false,"is_disabled":false,"rental_uris":{"android":"levelo://app?vid=c7662f29-d977-460a-81ef-ae899ee53108","ios":"levelo://app?vid=c7662f29-d977-460a-81ef-ae899ee53108"},"vehicle_type_id":"4","last_reported":1727484227,"current_range_meters":16800,"station_id":"ce4bhlp2rcd13ifvqgjg","pricing_plan_id":"cebpf4jnsgd1na2vs0mg"},{"bike_id":"29fffc0f-5ee1-49fd-b093-b8286cc6dbdb","system_id":"levelo_inurba_marseille","lat":43.27812,"lon":5.40711,"is_reserved":false,"is_disabled":false,"rental_uris":{"android":"levelo://app?vid=29fffc0f-5ee1-49fd-b093-b8286cc6dbdb","ios":"levelo://app?vid=29fffc0f-5ee1-49fd-b093-b8286cc6dbdb"},"vehicle_type_id":"4","last_reported":1727484227,"current_range_meters":17600,"station_id":"ce4bhnh2rcd13ifvqgtg","pricing_plan_id":"cebpf4jnsgd1na2vs0mg"},{"bike_id":"cf2a99f0-171d-46e2-b5f9-b8e518581e33","system_id":"levelo_inurba_marseille","lat":43.23967,"lon":5.36617,"is_reserved":false,"is_disabled":false,"rental_uris":{"android":"levelo://app?vid=cf2a99f0-171d-46e2-b5f9-b8e518581e33","ios":"levelo://app?vid=cf2a99f0-171d-46e2-b5f9-b8e518581e33"},"vehicle_type_id":"4","last_reported":1727484227,"current_range_meters":39200,"station_id":"ce4bhi12rcd13ifvqfp0","pricing_plan_id":"cebpf4jnsgd1na2vs0mg"},{"bike_id":"1d580d5e-918b-4e32-b5fb-7ecd851baa33","system_id":"levelo_inurba_marseille","lat":43.30588,"lon":5.39356,"is_reserved":false,"is_disabled":false,"rental_uris":{"android":"levelo://app?vid=1d580d5e-918b-4e32-b5fb-7ecd851baa33","ios":"levelo://app?vid=1d580d5e-918b-4e32-b5fb-7ecd851baa33"},"vehicle_type_id":"4","last_reported":1727484227,"current_range_meters":38000,"station_id":"ce4bh0p2rcd13ifvqd80","pricing_plan_id":"cebpf4jnsgd1na2vs0mg"},{"bike_id":"74d2b4fc-ee14-4a21-a72b-01f8c8f7b82a","system_id":"levelo_inurba_marseille","lat":43.24385,"lon":5.37064,"is_reserved":false,"is_disabled":false,"rental_uris":{"android":"levelo://app?vid=74d2b4fc-ee14-4a21-a72b-01f8c8f7b82a","ios":"levelo://app?vid=74d2b4fc-ee14-4a21-a72b-01f8c8f7b82a"},"vehicle_type_id":"4","last_reported":1727484227,"current_range_meters":18800,"station_id":"ce4bhhh2rcd13ifvqfk0","pricing_plan_id":"cebpf4jnsgd1na2vs0mg"},{"bike_id":"9a8bf102-6369-4057-8aba-c0dcb1663b2c","system_id":"levelo_inurba_marseille","lat":43.28163,"lon":5.426592,"is_reserved":false,"is_disabled":false,"rental_uris":{"android":"levelo://app?vid=9a8bf102-6369-4057-8aba-c0dcb1663b2c","ios":"levelo://app?vid=9a8bf102-6369-4057-8aba-c0dcb1663b2c"},"vehicle_type_id":"4","last_reported":1727484227,"current_range_meters":37600,"station_id":"ce4bhnh2rcd13ifvqgug","pricing_plan_id":"cebpf4jnsgd1na2vs0mg"},{"bike_id":"05a65473-4528-4866-bef5-6a81102143b3","system_id":"levelo_inurba_marseille","lat":43.27899,"lon":5.39584,"is_reserved":false,"is_disabled":false,"rental_uris":{"android":"levelo://app?vid=05a65473-4528-4866-bef5-6a81102143b3","ios":"levelo://app?vid=05a65473-4528-4866-bef5-6a81102143b3"},"vehicle_type_id":"4","last_reported":1727484227,"current_range_meters":38800,"station_id":"ce4bhf92rcd13ifvqf40","pricing_plan_id":"cebpf4jnsgd1na2vs0mg"},{"bike_id":"e173e9bf-3b91-451c-8346-16cb54836af9","system_id":"levelo_inurba_marseille","lat":43.2439,"lon":5.37062,"is_reserved":false,"is_disabled":false,"rental_uris":{"android":"levelo://app?vid=e173e9bf-3b91-451c-8346-16cb54836af9","ios":"levelo://app?vid=e173e9bf-3b91-451c-8346-16cb54836af9"},"vehicle_type_id":"4","last_reported":1727484227,"current_range_meters":39200,"station_id":"ce4bhhh2rcd13ifvqfk0","pricing_plan_id":"cebpf4jnsgd1na2vs0mg"},{"bike_id":"dda89764-0963-4e09-8301-c00fde9f03e3","system_id":"levelo_inurba_marseille","lat":43.281568,"lon":5.426389,"is_reserved":false,"is_disabled":false,"rental_uris":{"android":"levelo://app?vid=dda89764-0963-4e09-8301-c00fde9f03e3","ios":"levelo://app?vid=dda89764-0963-4e09-8301-c00fde9f03e3"},"vehicle_type_id":"4","last_reported":1727484227,"current_range_meters":39200,"station_id":"ce4bhnh2rcd13ifvqgug","pricing_plan_id":"cebpf4jnsgd1na2vs0mg"},{"bike_id":"a9f786e9-6e53-4f49-b890-a3c979c46e37","system_id":"levelo_inurba_marseille","lat":43.25821,"lon":5.39438,"is_reserved":false,"is_disabled":false,"rental_uris":{"android":"levelo://app?vid=a9f786e9-6e53-4f49-b890-a3c979c46e37","ios":"levelo://app?vid=a9f786e9-6e53-4f49-b890-a3c979c46e37"},"vehicle_type_id":"4","last_reported":1727484227,"current_range_meters":36800,"station_id":"ce4bhip2rcd13ifvqft0","pricing_plan_id":"cebpf4jnsgd1na2vs0mg"},{"bike_id":"16818402-9738-4636-80ee-9f0ebeeb2c18","system_id":"levelo_inurba_marseille","lat":43.25576,"lon":5.38231,"is_reserved":false,"is_disabled":false,"rental_uris":{"android":"levelo://app?vid=16818402-9738-4636-80ee-9f0ebeeb2c18","ios":"levelo://app?vid=16818402-9738-4636-80ee-9f0ebeeb2c18"},"vehicle_type_id":"4","last_reported":1727484227,"current_range_meters":14000,"station_id":"ce4bhih2rcd13ifvqfs0","pricing_plan_id":"cebpf4jnsgd1na2vs0mg"},{"bike_id":"3c18e3a5-018a-4d0c-961a-fb2e963c06d7","system_id":"levelo_inurba_marseille","lat":43.29028,"lon":5.39982,"is_reserved":false,"is_disabled":false,"rental_uris":{"android":"levelo://app?vid=3c18e3a5-018a-4d0c-961a-fb2e963c06d7","ios":"levelo://app?vid=3c18e3a5-018a-4d0c-961a-fb2e963c06d7"},"vehicle_type_id":"4","last_reported":1727484227,"current_range_meters":29600,"station_id":"ce4bh392rcd13ifvqdm0","pricing_plan_id":"cebpf4jnsgd1na2vs0mg"},{"bike_id":"79de36c3-12d2-494a-8694-9013beb8b3e5","system_id":"levelo_inurba_marseille","lat":43.23188,"lon":5.3998,"is_reserved":false,"is_disabled":false,"rental_uris":{"android":"levelo://app?vid=79de36c3-12d2-494a-8694-9013beb8b3e5","ios":"levelo://app?vid=79de36c3-12d2-494a-8694-9013beb8b3e5"},"vehicle_type_id":"4","last_reported":1727484227,"current_range_meters":18800,"station_id":"ce4bhn12rcd13ifvqgqg","pricing_plan_id":"cebpf4jnsgd1na2vs0mg"},{"bike_id":"6d22ada7-8885-4359-9b07-2a0c36d02fe7","system_id":"levelo_inurba_marseille","lat":43.29439,"lon":5.39752,"is_reserved":false,"is_disabled":false,"rental_uris":{"android":"levelo://app?vid=6d22ada7-8885-4359-9b07-2a0c36d02fe7","ios":"levelo://app?vid=6d22ada7-8885-4359-9b07-2a0c36d02fe7"},"vehicle_type_id":"4","last_reported":1727484227,"current_range_meters":28400,"station_id":"ce4bh3h2rcd13ifvqdo0","pricing_plan_id":"cebpf4jnsgd1na2vs0mg"},{"bike_id":"5f7c65f4-e71e-4e15-b205-025c2e0a2968","system_id":"levelo_inurba_marseille","lat":43.231798,"lon":5.399896,"is_reserved":false,"is_disabled":false,"rental_uris":{"android":"levelo://app?vid=5f7c65f4-e71e-4e15-b205-025c2e0a2968","ios":"levelo://app?vid=5f7c65f4-e71e-4e15-b205-025c2e0a2968"},"vehicle_type_id":"4","last_reported":1727484227,"current_range_meters":37600,"station_id":"ce4bhn12rcd13ifvqgqg","pricing_plan_id":"cebpf4jnsgd1na2vs0mg"},{"bike_id":"f39498a8-f029-4bf5-9eac-689a552be6d3","system_id":"levelo_inurba_marseille","lat":43.29255,"lon":5.40913,"is_reserved":false,"is_disabled":false,"rental_uris":{"android":"levelo://app?vid=f39498a8-f029-4bf5-9eac-689a552be6d3","ios":"levelo://app?vid=f39498a8-f029-4bf5-9eac-689a552be6d3"},"vehicle_type_id":"4","last_reported":1727484227,"current_range_meters":5600,"station_id":"ce4bh192rcd13ifvqdc0","pricing_plan_id":"cebpf4jnsgd1na2vs0mg"},{"bike_id":"1c1fe964-b43f-4542-887b-727342d92219","system_id":"levelo_inurba_marseille","lat":43.28037,"lon":5.36943,"is_reserved":false,"is_disabled":false,"rental_uris":{"android":"levelo://app?vid=1c1fe964-b43f-4542-887b-727342d92219","ios":"levelo://app?vid=1c1fe964-b43f-4542-887b-727342d92219"},"vehicle_type_id":"4","last_reported":1727484227,"current_range_meters":6400,"station_id":"ce4bha12rcd13ifvqef0","pricing_plan_id":"cebpf4jnsgd1na2vs0mg"},{"bike_id":"c8723b4e-a010-4e0d-9583-0264cb69c648","system_id":"levelo_inurba_marseille","lat":43.31119,"lon":5.37768,"is_reserved":false,"is_disabled":false,"rental_uris":{"android":"levelo://app?vid=c8723b4e-a010-4e0d-9583-0264cb69c648","ios":"levelo://app?vid=c8723b4e-a010-4e0d-9583-0264cb69c648"},"vehicle_type_id":"4","last_reported":1727484227,"current_range_meters":22000,"station_id":"ce4bgt92rcd13ifvqcg0","pricing_plan_id":"cebpf4jnsgd1na2vs0mg"},{"bike_id":"8bc1b2ce-b165-4303-9eb0-e69f9390e1fc","system_id":"levelo_inurba_marseille","lat":43.28656,"lon":5.36338,"is_reserved":false,"is_disabled":false,"rental_uris":{"android":"levelo://app?vid=8bc1b2ce-b165-4303-9eb0-e69f9390e1fc","ios":"levelo://app?vid=8bc1b2ce-b165-4303-9eb0-e69f9390e1fc"},"vehicle_type_id":"4","last_reported":1727484227,"current_range_meters":38800,"station_id":"ce4bhah2rcd13ifvqej0","pricing_plan_id":"cebpf4jnsgd1na2vs0mg"},{"bike_id":"50dd8fcc-fb71-4cd7-a81d-40d7e39ee5e4","system_id":"levelo_inurba_marseille","lat":43.31117,"lon":5.37779,"is_reserved":false,"is_disabled":false,"rental_uris":{"android":"levelo://app?vid=50dd8fcc-fb71-4cd7-a81d-40d7e39ee5e4","ios":"levelo://app?vid=50dd8fcc-fb71-4cd7-a81d-40d7e39ee5e4"},"vehicle_type_id":"4","last_reported":1727484227,"current_range_meters":6400,"station_id":"ce4bgt92rcd13ifvqcg0","pricing_plan_id":"cebpf4jnsgd1na2vs0mg"},{"bike_id":"e1efbcce-8243-4975-9c47-124875107bb2","system_id":"levelo_inurba_marseille","lat":43.28698,"lon":5.37379,"is_reserved":false,"is_disabled":false,"rental_uris":{"android":"levelo://app?vid=e1efbcce-8243-4975-9c47-124875107bb2","ios":"levelo://app?vid=e1efbcce-8243-4975-9c47-124875107bb2"},"vehicle_type_id":"4","last_reported":1727484227,"current_range_meters":31200,"station_id":"ce4bh3p2rcd13ifvqdq0","pricing_plan_id":"cebpf4jnsgd1na2vs0mg"},{"bike_id":"160aa09d-622e-4263-882b-c6c85682d7e4","system_id":"levelo_inurba_marseille","lat":43.31691,"lon":5.40475,"is_reserved":false,"is_disabled":false,"rental_uris":{"android":"levelo://app?vid=160aa09d-622e-4263-882b-c6c85682d7e4","ios":"levelo://app?vid=160aa09d-622e-4263-882b-c6c85682d7e4"},"vehicle_type_id":"4","last_reported":1727484227,"current_range_meters":14400,"station_id":"ce4bh012rcd13ifvqd00","pricing_plan_id":"cebpf4jnsgd1na2vs0mg"},{"bike_id":"027ec904-758b-4151-8256-dde109f50a82","system_id":"levelo_inurba_marseille","lat":43.317567,"lon":5.390149,"is_reserved":false,"is_disabled":false,"rental_uris":{"android":"levelo://app?vid=027ec904-758b-4151-8256-dde109f50a82","ios":"levelo://app?vid=027ec904-758b-4151-8256-dde109f50a82"},"vehicle_type_id":"4","last_reported":1727484227,"current_range_meters":33600,"station_id":"ce4bhqp2rcd13ifvqhng","pricing_plan_id":"cebpf4jnsgd1na2vs0mg"},{"bike_id":"c3875a43-9030-49b3-9aa3-10032146dc1c","system_id":"levelo_inurba_marseille","lat":43.31119,"lon":5.37773,"is_reserved":false,"is_disabled":false,"rental_uris":{"android":"levelo://app?vid=c3875a43-9030-49b3-9aa3-10032146dc1c","ios":"levelo://app?vid=c3875a43-9030-49b3-9aa3-10032146dc1c"},"vehicle_type_id":"4","last_reported":1727484227,"current_range_meters":29600,"station_id":"ce4bgt92rcd13ifvqcg0","pricing_plan_id":"cebpf4jnsgd1na2vs0mg"},{"bike_id":"03373044-cab4-4cec-84ce-7d2eca2df3c1","system_id":"levelo_inurba_marseille","lat":43.31533,"lon":5.38026,"is_reserved":false,"is_disabled":false,"rental_uris":{"android":"levelo://app?vid=03373044-cab4-4cec-84ce-7d2eca2df3c1","ios":"levelo://app?vid=03373044-cab4-4cec-84ce-7d2eca2df3c1"},"vehicle_type_id":"4","last_reported":1727484227,"current_range_meters":22000,"station_id":"ce4bhsp2rcd13ifvqi50","pricing_plan_id":"cebpf4jnsgd1na2vs0mg"},{"bike_id":"c5a68d29-96f8-4337-a3d0-2314ea0b9657","system_id":"levelo_inurba_marseille","lat":43.27939,"lon":5.41038,"is_reserved":false,"is_disabled":false,"rental_uris":{"android":"levelo://app?vid=c5a68d29-96f8-4337-a3d0-2314ea0b9657","ios":"levelo://app?vid=c5a68d29-96f8-4337-a3d0-2314ea0b9657"},"vehicle_type_id":"4","last_reported":1727484227,"current_range_meters":30400,"station_id":"ce4bhnp2rcd13ifvqh0g","pricing_plan_id":"cebpf4jnsgd1na2vs0mg"},{"bike_id":"ae69293c-2e11-4e8e-877d-d38d7d427da8","system_id":"levelo_inurba_marseille","lat":43.29226,"lon":5.36068,"is_reserved":false,"is_disabled":false,"rental_uris":{"android":"levelo://app?vid=ae69293c-2e11-4e8e-877d-d38d7d427da8","ios":"levelo://app?vid=ae69293c-2e11-4e8e-877d-d38d7d427da8"},"vehicle_type_id":"4","last_reported":1727484227,"current_range_meters":38800,"station_id":"ce4bhbh2rcd13ifvqeqg","pricing_plan_id":"cebpf4jnsgd1na2vs0mg"},{"bike_id":"ad4f7fec-0588-4f59-aaa1-8b40958c6419","system_id":"levelo_inurba_marseille","lat":43.31327,"lon":5.39692,"is_reserved":false,"is_disabled":false,"rental_uris":{"android":"levelo://app?vid=ad4f7fec-0588-4f59-aaa1-8b40958c6419","ios":"levelo://app?vid=ad4f7fec-0588-4f59-aaa1-8b40958c6419"},"vehicle_type_id":"4","last_reported":1727484227,"current_range_meters":39200,"station_id":"ce4bgvp2rcd13ifvqcu0","pricing_plan_id":"cebpf4jnsgd1na2vs0mg"},{"bike_id":"08cd1d2e-66db-427d-9e78-8b23dc6c94a4","system_id":"levelo_inurba_marseille","lat":43.31186,"lon":5.38716,"is_reserved":false,"is_disabled":false,"rental_uris":{"android":"levelo://app?vid=08cd1d2e-66db-427d-9e78-8b23dc6c94a4","ios":"levelo://app?vid=08cd1d2e-66db-427d-9e78-8b23dc6c94a4"},"vehicle_type_id":"4","last_reported":1727484227,"current_range_meters":38400,"station_id":"ce4bgv12rcd13ifvqcp0","pricing_plan_id":"cebpf4jnsgd1na2vs0mg"},{"bike_id":"d7b4c4f2-1238-4be3-8240-3580ecb8b4dd","system_id":"levelo_inurba_marseille","lat":43.30956,"lon":5.39035,"is_reserved":false,"is_disabled":false,"rental_uris":{"android":"levelo://app?vid=d7b4c4f2-1238-4be3-8240-3580ecb8b4dd","ios":"levelo://app?vid=d7b4c4f2-1238-4be3-8240-3580ecb8b4dd"},"vehicle_type_id":"4","last_reported":1727484227,"current_range_meters":17600,"station_id":"ce4bgup2rcd13ifvqco0","pricing_plan_id":"cebpf4jnsgd1na2vs0mg"},{"bike_id":"ac3e43fd-0964-484c-b9c9-c9a69d1b0e59","system_id":"levelo_inurba_marseille","lat":43.32659,"lon":5.41003,"is_reserved":false,"is_disabled":false,"rental_uris":{"android":"levelo://app?vid=ac3e43fd-0964-484c-b9c9-c9a69d1b0e59","ios":"levelo://app?vid=ac3e43fd-0964-484c-b9c9-c9a69d1b0e59"},"vehicle_type_id":"4","last_reported":1727484227,"current_range_meters":12400,"station_id":"ce4bhpp2rcd13ifvqhgg","pricing_plan_id":"cebpf4jnsgd1na2vs0mg"},{"bike_id":"82e2ec12-1902-4b42-9153-310d3c32c635","system_id":"levelo_inurba_marseille","lat":43.30638,"lon":5.40074,"is_reserved":false,"is_disabled":false,"rental_uris":{"android":"levelo://app?vid=82e2ec12-1902-4b42-9153-310d3c32c635","ios":"levelo://app?vid=82e2ec12-1902-4b42-9153-310d3c32c635"},"vehicle_type_id":"4","last_reported":1727484227,"current_range_meters":27600,"station_id":"ce4bh112rcd13ifvqda0","pricing_plan_id":"cebpf4jnsgd1na2vs0mg"},{"bike_id":"bdc5b691-ffc7-4073-a2da-fd841a386d5b","system_id":"levelo_inurba_marseille","lat":43.29265,"lon":5.3685,"is_reserved":false,"is_disabled":false,"rental_uris":{"android":"levelo://app?vid=bdc5b691-ffc7-4073-a2da-fd841a386d5b","ios":"levelo://app?vid=bdc5b691-ffc7-4073-a2da-fd841a386d5b"},"vehicle_type_id":"4","last_reported":1727484227,"current_range_meters":39200,"station_id":"ce4bhbp2rcd13ifvqesg","pricing_plan_id":"cebpf4jnsgd1na2vs0mg"},{"bike_id":"bf15cf37-3a4c-4635-b28c-358f55c15bae","system_id":"levelo_inurba_marseille","lat":43.33739,"lon":5.37468,"is_reserved":false,"is_disabled":false,"rental_uris":{"android":"levelo://app?vid=bf15cf37-3a4c-4635-b28c-358f55c15bae","ios":"levelo://app?vid=bf15cf37-3a4c-4635-b28c-358f55c15bae"},"vehicle_type_id":"4","last_reported":1727484227,"current_range_meters":27200,"station_id":"","pricing_plan_id":"cebpf4jnsgd1na2vs0mg"},{"bike_id":"20202039-bf6e-49f7-abf4-48e3a3787af5","system_id":"levelo_inurba_marseille","lat":43.27953,"lon":5.41049,"is_reserved":false,"is_disabled":false,"rental_uris":{"android":"levelo://app?vid=20202039-bf6e-49f7-abf4-48e3a3787af5","ios":"levelo://app?vid=20202039-bf6e-49f7-abf4-48e3a3787af5"},"vehicle_type_id":"4","last_reported":1727484227,"current_range_meters":38400,"station_id":"ce4bhnp2rcd13ifvqh0g","pricing_plan_id":"cebpf4jnsgd1na2vs0mg"},{"bike_id":"e9f8c10f-4d25-43f4-8868-884e90af0c44","system_id":"levelo_inurba_marseille","lat":43.312195,"lon":5.379502,"is_reserved":false,"is_disabled":false,"rental_uris":{"android":"levelo://app?vid=e9f8c10f-4d25-43f4-8868-884e90af0c44","ios":"levelo://app?vid=e9f8c10f-4d25-43f4-8868-884e90af0c44"},"vehicle_type_id":"4","last_reported":1727484227,"current_range_meters":18800,"station_id":"ce4bgrp2rcd13ifvqc9g","pricing_plan_id":"cebpf4jnsgd1na2vs0mg"},{"bike_id":"9a3022d2-cb45-4de4-abb5-1db2fb380cc1","system_id":"levelo_inurba_marseille","lat":43.30594,"lon":5.39344,"is_reserved":false,"is_disabled":false,"rental_uris":{"android":"levelo://app?vid=9a3022d2-cb45-4de4-abb5-1db2fb380cc1","ios":"levelo://app?vid=9a3022d2-cb45-4de4-abb5-1db2fb380cc1"},"vehicle_type_id":"4","last_reported":1727484227,"current_range_meters":39200,"station_id":"ce4bh0p2rcd13ifvqd80","pricing_plan_id":"cebpf4jnsgd1na2vs0mg"},{"bike_id":"51870931-c5a1-4480-846a-13af532df7a7","system_id":"levelo_inurba_marseille","lat":43.31754,"lon":5.39011,"is_reserved":false,"is_disabled":false,"rental_uris":{"android":"levelo://app?vid=51870931-c5a1-4480-846a-13af532df7a7","ios":"levelo://app?vid=51870931-c5a1-4480-846a-13af532df7a7"},"vehicle_type_id":"4","last_reported":1727484227,"current_range_meters":31200,"station_id":"ce4bhqp2rcd13ifvqhng","pricing_plan_id":"cebpf4jnsgd1na2vs0mg"},{"bike_id":"a63d4449-4f5a-4f1c-9a3c-27c8d74bd2a3","system_id":"levelo_inurba_marseille","lat":43.24381,"lon":5.37063,"is_reserved":false,"is_disabled":false,"rental_uris":{"android":"levelo://app?vid=a63d4449-4f5a-4f1c-9a3c-27c8d74bd2a3","ios":"levelo://app?vid=a63d4449-4f5a-4f1c-9a3c-27c8d74bd2a3"},"vehicle_type_id":"4","last_reported":1727484227,"current_range_meters":19200,"station_id":"ce4bhhh2rcd13ifvqfk0","pricing_plan_id":"cebpf4jnsgd1na2vs0mg"},{"bike_id":"eb417956-2508-4ba7-ba69-758e2b5574dd","system_id":"levelo_inurba_marseille","lat":43.29786,"lon":5.37093,"is_reserved":false,"is_disabled":false,"rental_uris":{"android":"levelo://app?vid=eb417956-2508-4ba7-ba69-758e2b5574dd","ios":"levelo://app?vid=eb417956-2508-4ba7-ba69-758e2b5574dd"},"vehicle_type_id":"4","last_reported":1727484227,"current_range_meters":19200,"station_id":"ce4bgop2rcd13ifvqc1g","pricing_plan_id":"cebpf4jnsgd1na2vs0mg"},{"bike_id":"9fddde45-b63e-4f6a-a7f5-9a985705ab9a","system_id":"levelo_inurba_marseille","lat":43.25111,"lon":5.4033,"is_reserved":false,"is_disabled":false,"rental_uris":{"android":"levelo://app?vid=9fddde45-b63e-4f6a-a7f5-9a985705ab9a","ios":"levelo://app?vid=9fddde45-b63e-4f6a-a7f5-9a985705ab9a"},"vehicle_type_id":"4","last_reported":1727484227,"current_range_meters":30400,"station_id":"ce4bhlh2rcd13ifvqgig","pricing_plan_id":"cebpf4jnsgd1na2vs0mg"},{"bike_id":"809245d8-c125-4e34-bd4d-23eefcbba16e","system_id":"levelo_inurba_marseille","lat":43.30887,"lon":5.39636,"is_reserved":false,"is_disabled":false,"rental_uris":{"android":"levelo://app?vid=809245d8-c125-4e34-bd4d-23eefcbba16e","ios":"levelo://app?vid=809245d8-c125-4e34-bd4d-23eefcbba16e"},"vehicle_type_id":"4","last_reported":1727484227,"current_range_meters":38000,"station_id":"ce4bh012rcd13ifvqcv0","pricing_plan_id":"cebpf4jnsgd1na2vs0mg"},{"bike_id":"25bc842c-1418-4fbb-a295-93373842512c","system_id":"levelo_inurba_marseille","lat":43.296326,"lon":5.405991,"is_reserved":false,"is_disabled":false,"rental_uris":{"android":"levelo://app?vid=25bc842c-1418-4fbb-a295-93373842512c","ios":"levelo://app?vid=25bc842c-1418-4fbb-a295-93373842512c"},"vehicle_type_id":"4","last_reported":1727484227,"current_range_meters":5600,"station_id":"ce4bh0h2rcd13ifvqd60","pricing_plan_id":"cebpf4jnsgd1na2vs0mg"},{"bike_id":"c1d5d346-3984-4d88-b7ef-376fc8da5c7b","system_id":"levelo_inurba_marseille","lat":43.30247,"lon":5.40052,"is_reserved":false,"is_disabled":false,"rental_uris":{"android":"levelo://app?vid=c1d5d346-3984-4d88-b7ef-376fc8da5c7b","ios":"levelo://app?vid=c1d5d346-3984-4d88-b7ef-376fc8da5c7b"},"vehicle_type_id":"4","last_reported":1727484227,"current_range_meters":38800,"station_id":"ce4bgvh2rcd13ifvqcs0","pricing_plan_id":"cebpf4jnsgd1na2vs0mg"},{"bike_id":"ce9a5419-e4a6-43f3-a4fb-e7f88ddf3982","system_id":"levelo_inurba_marseille","lat":43.23184,"lon":5.39982,"is_reserved":false,"is_disabled":false,"rental_uris":{"android":"levelo://app?vid=ce9a5419-e4a6-43f3-a4fb-e7f88ddf3982","ios":"levelo://app?vid=ce9a5419-e4a6-43f3-a4fb-e7f88ddf3982"},"vehicle_type_id":"4","last_reported":1727484227,"current_range_meters":38800,"station_id":"ce4bhn12rcd13ifvqgqg","pricing_plan_id":"cebpf4jnsgd1na2vs0mg"},{"bike_id":"a2c0c9ab-8513-4875-be3a-691d26c4b0e9","system_id":"levelo_inurba_marseille","lat":43.25824,"lon":5.39419,"is_reserved":false,"is_disabled":false,"rental_uris":{"android":"levelo://app?vid=a2c0c9ab-8513-4875-be3a-691d26c4b0e9","ios":"levelo://app?vid=a2c0c9ab-8513-4875-be3a-691d26c4b0e9"},"vehicle_type_id":"4","last_reported":1727484227,"current_range_meters":38800,"station_id":"ce4bhip2rcd13ifvqft0","pricing_plan_id":"cebpf4jnsgd1na2vs0mg"},{"bike_id":"ca1da0a3-0030-45f1-9450-8f45f1eb7208","system_id":"levelo_inurba_marseille","lat":43.287,"lon":5.39979,"is_reserved":false,"is_disabled":false,"rental_uris":{"android":"levelo://app?vid=ca1da0a3-0030-45f1-9450-8f45f1eb7208","ios":"levelo://app?vid=ca1da0a3-0030-45f1-9450-8f45f1eb7208"},"vehicle_type_id":"4","last_reported":1727484227,"current_range_meters":32400,"station_id":"ce4bho92rcd13ifvqh3g","pricing_plan_id":"cebpf4jnsgd1na2vs0mg"},{"bike_id":"b62d0629-0b70-432e-9fc9-1fca5d225ef0","system_id":"levelo_inurba_marseille","lat":43.284128,"lon":5.349765,"is_reserved":false,"is_disabled":false,"rental_uris":{"android":"levelo://app?vid=b62d0629-0b70-432e-9fc9-1fca5d225ef0","ios":"levelo://app?vid=b62d0629-0b70-432e-9fc9-1fca5d225ef0"},"vehicle_type_id":"4","last_reported":1727484227,"current_range_meters":38800,"station_id":"ce4bhbh2rcd13ifvqepg","pricing_plan_id":"cebpf4jnsgd1na2vs0mg"},{"bike_id":"677c653e-87a0-47a5-9b05-44cc6e138cca","system_id":"levelo_inurba_marseille","lat":43.28073,"lon":5.3965,"is_reserved":false,"is_disabled":false,"rental_uris":{"android":"levelo://app?vid=677c653e-87a0-47a5-9b05-44cc6e138cca","ios":"levelo://app?vid=677c653e-87a0-47a5-9b05-44cc6e138cca"},"vehicle_type_id":"4","last_reported":1727484227,"current_range_meters":29600,"station_id":"ce4bho12rcd13ifvqh2g","pricing_plan_id":"cebpf4jnsgd1na2vs0mg"},{"bike_id":"7cbf7219-2253-4bfe-beba-aa1b6b410536","system_id":"levelo_inurba_marseille","lat":43.28703,"lon":5.3999,"is_reserved":false,"is_disabled":false,"rental_uris":{"android":"levelo://app?vid=7cbf7219-2253-4bfe-beba-aa1b6b410536","ios":"levelo://app?vid=7cbf7219-2253-4bfe-beba-aa1b6b410536"},"vehicle_type_id":"4","last_reported":1727484227,"current_range_meters":36800,"station_id":"ce4bho92rcd13ifvqh3g","pricing_plan_id":"cebpf4jnsgd1na2vs0mg"},{"bike_id":"9be8d3ad-c639-4193-8cd6-ba5d0fa434c2","system_id":"levelo_inurba_marseille","lat":43.30171,"lon":5.36612,"is_reserved":false,"is_disabled":false,"rental_uris":{"android":"levelo://app?vid=9be8d3ad-c639-4193-8cd6-ba5d0fa434c2","ios":"levelo://app?vid=9be8d3ad-c639-4193-8cd6-ba5d0fa434c2"},"vehicle_type_id":"4","last_reported":1727484227,"current_range_meters":38000,"station_id":"ce4bgrh2rcd13ifvqc8g","pricing_plan_id":"cebpf4jnsgd1na2vs0mg"},{"bike_id":"e9461f55-7e42-465e-ba90-31c941943249","system_id":"levelo_inurba_marseille","lat":43.30774,"lon":5.37654,"is_reserved":false,"is_disabled":false,"rental_uris":{"android":"levelo://app?vid=e9461f55-7e42-465e-ba90-31c941943249","ios":"levelo://app?vid=e9461f55-7e42-465e-ba90-31c941943249"},"vehicle_type_id":"4","last_reported":1727484227,"current_range_meters":39200,"station_id":"ce4bgv92rcd13ifvqcq0","pricing_plan_id":"cebpf4jnsgd1na2vs0mg"},{"bike_id":"4bec3a7d-69b5-4087-96f4-4e0bbed86a87","system_id":"levelo_inurba_marseille","lat":43.31282,"lon":5.4017,"is_reserved":false,"is_disabled":false,"rental_uris":{"android":"levelo://app?vid=4bec3a7d-69b5-4087-96f4-4e0bbed86a87","ios":"levelo://app?vid=4bec3a7d-69b5-4087-96f4-4e0bbed86a87"},"vehicle_type_id":"4","last_reported":1727484227,"current_range_meters":27200,"station_id":"ce4bh092rcd13ifvqd30","pricing_plan_id":"cebpf4jnsgd1na2vs0mg"},{"bike_id":"8b8ad475-d354-42e4-8881-c33eba10cd78","system_id":"levelo_inurba_marseille","lat":43.31124,"lon":5.37769,"is_reserved":false,"is_disabled":false,"rental_uris":{"android":"levelo://app?vid=8b8ad475-d354-42e4-8881-c33eba10cd78","ios":"levelo://app?vid=8b8ad475-d354-42e4-8881-c33eba10cd78"},"vehicle_type_id":"4","last_reported":1727484227,"current_range_meters":34000,"station_id":"ce4bgt92rcd13ifvqcg0","pricing_plan_id":"cebpf4jnsgd1na2vs0mg"},{"bike_id":"15aef16c-50d7-444d-b237-5a38ee53b0a3","system_id":"levelo_inurba_marseille","lat":43.3095,"lon":5.39047,"is_reserved":false,"is_disabled":false,"rental_uris":{"android":"levelo://app?vid=15aef16c-50d7-444d-b237-5a38ee53b0a3","ios":"levelo://app?vid=15aef16c-50d7-444d-b237-5a38ee53b0a3"},"vehicle_type_id":"4","last_reported":1727484227,"current_range_meters":7200,"station_id":"ce4bgup2rcd13ifvqco0","pricing_plan_id":"cebpf4jnsgd1na2vs0mg"},{"bike_id":"4855ba2e-9cc8-4446-8a8a-44925bf58a0e","system_id":"levelo_inurba_marseille","lat":43.27999,"lon":5.40023,"is_reserved":false,"is_disabled":false,"rental_uris":{"android":"levelo://app?vid=4855ba2e-9cc8-4446-8a8a-44925bf58a0e","ios":"levelo://app?vid=4855ba2e-9cc8-4446-8a8a-44925bf58a0e"},"vehicle_type_id":"4","last_reported":1727484227,"current_range_meters":6800,"station_id":"ce4bho92rcd13ifvqh4g","pricing_plan_id":"cebpf4jnsgd1na2vs0mg"},{"bike_id":"5250c1a8-c6f5-4234-8ae2-02c809332fc1","system_id":"levelo_inurba_marseille","lat":43.29227,"lon":5.36076,"is_reserved":false,"is_disabled":false,"rental_uris":{"android":"levelo://app?vid=5250c1a8-c6f5-4234-8ae2-02c809332fc1","ios":"levelo://app?vid=5250c1a8-c6f5-4234-8ae2-02c809332fc1"},"vehicle_type_id":"4","last_reported":1727484227,"current_range_meters":38800,"station_id":"ce4bhbh2rcd13ifvqeqg","pricing_plan_id":"cebpf4jnsgd1na2vs0mg"},{"bike_id":"d923db62-1c24-463c-80b0-c324bd56b0fd","system_id":"levelo_inurba_marseille","lat":43.28439,"lon":5.39187,"is_reserved":false,"is_disabled":false,"rental_uris":{"android":"levelo://app?vid=d923db62-1c24-463c-80b0-c324bd56b0fd","ios":"levelo://app?vid=d923db62-1c24-463c-80b0-c324bd56b0fd"},"vehicle_type_id":"4","last_reported":1727484227,"current_range_meters":39200,"station_id":"ce4bhoh2rcd13ifvqh5g","pricing_plan_id":"cebpf4jnsgd1na2vs0mg"},{"bike_id":"0233e76c-9a4b-4972-880a-18372680d64a","system_id":"levelo_inurba_marseille","lat":43.319931,"lon":5.381466,"is_reserved":false,"is_disabled":false,"rental_uris":{"android":"levelo://app?vid=0233e76c-9a4b-4972-880a-18372680d64a","ios":"levelo://app?vid=0233e76c-9a4b-4972-880a-18372680d64a"},"vehicle_type_id":"4","last_reported":1727484227,"current_range_meters":38000,"station_id":"ce4bhr12rcd13ifvqhpg","pricing_plan_id":"cebpf4jnsgd1na2vs0mg"},{"bike_id":"2318dbf6-1e81-4e76-b575-2d29baf093e7","system_id":"levelo_inurba_marseille","lat":43.33602,"lon":5.4103,"is_reserved":false,"is_disabled":false,"rental_uris":{"android":"levelo://app?vid=2318dbf6-1e81-4e76-b575-2d29baf093e7","ios":"levelo://app?vid=2318dbf6-1e81-4e76-b575-2d29baf093e7"},"vehicle_type_id":"4","last_reported":1727484227,"current_range_meters":33600,"station_id":"ce4bhqh2rcd13ifvqhmg","pricing_plan_id":"cebpf4jnsgd1na2vs0mg"},{"bike_id":"d39210b3-a40b-4413-9d2a-e861998a3aad","system_id":"levelo_inurba_marseille","lat":43.25823,"lon":5.39423,"is_reserved":false,"is_disabled":false,"rental_uris":{"android":"levelo://app?vid=d39210b3-a40b-4413-9d2a-e861998a3aad","ios":"levelo://app?vid=d39210b3-a40b-4413-9d2a-e861998a3aad"},"vehicle_type_id":"4","last_reported":1727484227,"current_range_meters":38800,"station_id":"ce4bhip2rcd13ifvqft0","pricing_plan_id":"cebpf4jnsgd1na2vs0mg"},{"bike_id":"4915f018-35a4-41ab-8f17-b1de5745ad2a","system_id":"levelo_inurba_marseille","lat":43.31888,"lon":5.4073,"is_reserved":false,"is_disabled":false,"rental_uris":{"android":"levelo://app?vid=4915f018-35a4-41ab-8f17-b1de5745ad2a","ios":"levelo://app?vid=4915f018-35a4-41ab-8f17-b1de5745ad2a"},"vehicle_type_id":"4","last_reported":1727484227,"current_range_meters":17200,"station_id":"ce4bhq12rcd13ifvqhig","pricing_plan_id":"cebpf4jnsgd1na2vs0mg"},{"bike_id":"924463fc-8743-4b95-9e8a-7c2f6da67450","system_id":"levelo_inurba_marseille","lat":43.31701,"lon":5.37766,"is_reserved":false,"is_disabled":false,"rental_uris":{"android":"levelo://app?vid=924463fc-8743-4b95-9e8a-7c2f6da67450","ios":"levelo://app?vid=924463fc-8743-4b95-9e8a-7c2f6da67450"},"vehicle_type_id":"4","last_reported":1727484227,"current_range_meters":33600,"station_id":"ce4bgth2rcd13ifvqch0","pricing_plan_id":"cebpf4jnsgd1na2vs0mg"},{"bike_id":"e12c252c-730c-4d14-9b13-19ad95bdbb50","system_id":"levelo_inurba_marseille","lat":43.23185,"lon":5.39992,"is_reserved":false,"is_disabled":false,"rental_uris":{"android":"levelo://app?vid=e12c252c-730c-4d14-9b13-19ad95bdbb50","ios":"levelo://app?vid=e12c252c-730c-4d14-9b13-19ad95bdbb50"},"vehicle_type_id":"4","last_reported":1727484227,"current_range_meters":38000,"station_id":"ce4bhn12rcd13ifvqgqg","pricing_plan_id":"cebpf4jnsgd1na2vs0mg"},{"bike_id":"00f70b26-33ce-4d56-aa58-17dc092ae0eb","system_id":"levelo_inurba_marseille","lat":43.27326,"lon":5.39087,"is_reserved":false,"is_disabled":false,"rental_uris":{"android":"levelo://app?vid=00f70b26-33ce-4d56-aa58-17dc092ae0eb","ios":"levelo://app?vid=00f70b26-33ce-4d56-aa58-17dc092ae0eb"},"vehicle_type_id":"4","last_reported":1727484227,"current_range_meters":6400,"station_id":"ce4bhgp2rcd13ifvqfe0","pricing_plan_id":"cebpf4jnsgd1na2vs0mg"},{"bike_id":"55366a73-f3b5-4caf-b577-ff1e1bf8244c","system_id":"levelo_inurba_marseille","lat":43.30878,"lon":5.39637,"is_reserved":false,"is_disabled":false,"rental_uris":{"android":"levelo://app?vid=55366a73-f3b5-4caf-b577-ff1e1bf8244c","ios":"levelo://app?vid=55366a73-f3b5-4caf-b577-ff1e1bf8244c"},"vehicle_type_id":"4","last_reported":1727484227,"current_range_meters":12800,"station_id":"ce4bh012rcd13ifvqcv0","pricing_plan_id":"cebpf4jnsgd1na2vs0mg"},{"bike_id":"7dbdf5ef-a632-4fcd-9c22-b7b45693e373","system_id":"levelo_inurba_marseille","lat":43.30807,"lon":5.38158,"is_reserved":false,"is_disabled":false,"rental_uris":{"android":"levelo://app?vid=7dbdf5ef-a632-4fcd-9c22-b7b45693e373","ios":"levelo://app?vid=7dbdf5ef-a632-4fcd-9c22-b7b45693e373"},"vehicle_type_id":"4","last_reported":1727484227,"current_range_meters":40000,"station_id":"ce4bgt12rcd13ifvqce0","pricing_plan_id":"cebpf4jnsgd1na2vs0mg"},{"bike_id":"03e8b385-e3e3-4831-b70e-8615ef15136c","system_id":"levelo_inurba_marseille","lat":43.32335,"lon":5.40621,"is_reserved":false,"is_disabled":false,"rental_uris":{"android":"levelo://app?vid=03e8b385-e3e3-4831-b70e-8615ef15136c","ios":"levelo://app?vid=03e8b385-e3e3-4831-b70e-8615ef15136c"},"vehicle_type_id":"4","last_reported":1727484227,"current_range_meters":21600,"station_id":"ce4bhq92rcd13ifvqhjg","pricing_plan_id":"cebpf4jnsgd1na2vs0mg"},{"bike_id":"31d9581d-789e-483b-ab43-a3d81f0839cd","system_id":"levelo_inurba_marseille","lat":43.23156,"lon":5.43702,"is_reserved":false,"is_disabled":false,"rental_uris":{"android":"levelo://app?vid=31d9581d-789e-483b-ab43-a3d81f0839cd","ios":"levelo://app?vid=31d9581d-789e-483b-ab43-a3d81f0839cd"},"vehicle_type_id":"4","last_reported":1727484227,"current_range_meters":18000,"station_id":"ce4bhmp2rcd13ifvqgog","pricing_plan_id":"cebpf4jnsgd1na2vs0mg"},{"bike_id":"21097e5a-c190-49ba-93a6-ce547e5d27cf","system_id":"levelo_inurba_marseille","lat":43.30952,"lon":5.39031,"is_reserved":false,"is_disabled":false,"rental_uris":{"android":"levelo://app?vid=21097e5a-c190-49ba-93a6-ce547e5d27cf","ios":"levelo://app?vid=21097e5a-c190-49ba-93a6-ce547e5d27cf"},"vehicle_type_id":"4","last_reported":1727484227,"current_range_meters":38800,"station_id":"ce4bgup2rcd13ifvqco0","pricing_plan_id":"cebpf4jnsgd1na2vs0mg"},{"bike_id":"0625c2b6-ab06-4cfa-b4ae-45bbdeb320db","system_id":"levelo_inurba_marseille","lat":43.2551,"lon":5.37654,"is_reserved":false,"is_disabled":false,"rental_uris":{"android":"levelo://app?vid=0625c2b6-ab06-4cfa-b4ae-45bbdeb320db","ios":"levelo://app?vid=0625c2b6-ab06-4cfa-b4ae-45bbdeb320db"},"vehicle_type_id":"4","last_reported":1727484227,"current_range_meters":16800,"station_id":"ce4bhh12rcd13ifvqff0","pricing_plan_id":"cebpf4jnsgd1na2vs0mg"},{"bike_id":"84a5db13-483a-4bd1-be71-8719b9977afe","system_id":"levelo_inurba_marseille","lat":43.28729,"lon":5.36075,"is_reserved":false,"is_disabled":false,"rental_uris":{"android":"levelo://app?vid=84a5db13-483a-4bd1-be71-8719b9977afe","ios":"levelo://app?vid=84a5db13-483a-4bd1-be71-8719b9977afe"},"vehicle_type_id":"4","last_reported":1727484227,"current_range_meters":35600,"station_id":"cki0cbj6b192h4jlfktg","pricing_plan_id":"cebpf4jnsgd1na2vs0mg"},{"bike_id":"11738bfd-608f-40fc-82d1-7fd832783990","system_id":"levelo_inurba_marseille","lat":43.29798,"lon":5.40413,"is_reserved":false,"is_disabled":false,"rental_uris":{"android":"levelo://app?vid=11738bfd-608f-40fc-82d1-7fd832783990","ios":"levelo://app?vid=11738bfd-608f-40fc-82d1-7fd832783990"},"vehicle_type_id":"4","last_reported":1727484227,"current_range_meters":22000,"station_id":"ce4bh112rcd13ifvqd90","pricing_plan_id":"cebpf4jnsgd1na2vs0mg"},{"bike_id":"235f8823-b50d-492d-a832-69fe30775e84","system_id":"levelo_inurba_marseille","lat":43.2944,"lon":5.397461,"is_reserved":false,"is_disabled":false,"rental_uris":{"android":"levelo://app?vid=235f8823-b50d-492d-a832-69fe30775e84","ios":"levelo://app?vid=235f8823-b50d-492d-a832-69fe30775e84"},"vehicle_type_id":"4","last_reported":1727484227,"current_range_meters":38000,"station_id":"ce4bh3h2rcd13ifvqdo0","pricing_plan_id":"cebpf4jnsgd1na2vs0mg"},{"bike_id":"8aafcc38-52e6-4c9b-b7e2-481c9db22dac","system_id":"levelo_inurba_marseille","lat":43.26197,"lon":5.37928,"is_reserved":false,"is_disabled":false,"rental_uris":{"android":"levelo://app?vid=8aafcc38-52e6-4c9b-b7e2-481c9db22dac","ios":"levelo://app?vid=8aafcc38-52e6-4c9b-b7e2-481c9db22dac"},"vehicle_type_id":"4","last_reported":1727484227,"current_range_meters":38800,"station_id":"ce4bhjp2rcd13ifvqg90","pricing_plan_id":"cebpf4jnsgd1na2vs0mg"},{"bike_id":"ceda1303-8e1d-4d6f-8792-80ce6a3025d5","system_id":"levelo_inurba_marseille","lat":43.31707,"lon":5.43703,"is_reserved":false,"is_disabled":false,"rental_uris":{"android":"levelo://app?vid=ceda1303-8e1d-4d6f-8792-80ce6a3025d5","ios":"levelo://app?vid=ceda1303-8e1d-4d6f-8792-80ce6a3025d5"},"vehicle_type_id":"4","last_reported":1727484227,"current_range_meters":8400,"station_id":"ce4bhp92rcd13ifvqhcg","pricing_plan_id":"cebpf4jnsgd1na2vs0mg"},{"bike_id":"852a0f7e-e014-4c55-9ad2-ebb0b566a8ff","system_id":"levelo_inurba_marseille","lat":43.31706,"lon":5.37743,"is_reserved":false,"is_disabled":false,"rental_uris":{"android":"levelo://app?vid=852a0f7e-e014-4c55-9ad2-ebb0b566a8ff","ios":"levelo://app?vid=852a0f7e-e014-4c55-9ad2-ebb0b566a8ff"},"vehicle_type_id":"4","last_reported":1727484227,"current_range_meters":38800,"station_id":"ce4bgth2rcd13ifvqch0","pricing_plan_id":"cebpf4jnsgd1na2vs0mg"},{"bike_id":"9d0601cc-96cb-4b39-a238-b20ca8b88f2f","system_id":"levelo_inurba_marseille","lat":43.26207,"lon":5.37443,"is_reserved":false,"is_disabled":false,"rental_uris":{"android":"levelo://app?vid=9d0601cc-96cb-4b39-a238-b20ca8b88f2f","ios":"levelo://app?vid=9d0601cc-96cb-4b39-a238-b20ca8b88f2f"},"vehicle_type_id":"4","last_reported":1727484227,"current_range_meters":19200,"station_id":"ce4bhgp2rcd13ifvqfc0","pricing_plan_id":"cebpf4jnsgd1na2vs0mg"},{"bike_id":"770f143e-173c-4098-856d-b6b9e186072c","system_id":"levelo_inurba_marseille","lat":43.29005,"lon":5.35628,"is_reserved":false,"is_disabled":false,"rental_uris":{"android":"levelo://app?vid=770f143e-173c-4098-856d-b6b9e186072c","ios":"levelo://app?vid=770f143e-173c-4098-856d-b6b9e186072c"},"vehicle_type_id":"4","last_reported":1727484227,"current_range_meters":38800,"station_id":"ce4bhb92rcd13ifvqen0","pricing_plan_id":"cebpf4jnsgd1na2vs0mg"},{"bike_id":"450c5241-c188-453a-b1f6-036c84b75266","system_id":"levelo_inurba_marseille","lat":43.30252,"lon":5.37739,"is_reserved":false,"is_disabled":false,"rental_uris":{"android":"levelo://app?vid=450c5241-c188-453a-b1f6-036c84b75266","ios":"levelo://app?vid=450c5241-c188-453a-b1f6-036c84b75266"},"vehicle_type_id":"4","last_reported":1727484227,"current_range_meters":37600,"station_id":"ce4bguh2rcd13ifvqcj0","pricing_plan_id":"cebpf4jnsgd1na2vs0mg"},{"bike_id":"c049a602-ba08-44c1-a4f9-1cbd185f086f","system_id":"levelo_inurba_marseille","lat":43.22928,"lon":5.3538,"is_reserved":false,"is_disabled":false,"rental_uris":{"android":"levelo://app?vid=c049a602-ba08-44c1-a4f9-1cbd185f086f","ios":"levelo://app?vid=c049a602-ba08-44c1-a4f9-1cbd185f086f"},"vehicle_type_id":"4","last_reported":1727484227,"current_range_meters":8000,"station_id":"cpo3532slgdg3j2ikp40","pricing_plan_id":"cebpf4jnsgd1na2vs0mg"},{"bike_id":"528091cb-cb75-4939-b1ac-1b00b7ffc91f","system_id":"levelo_inurba_marseille","lat":43.30935,"lon":5.40152,"is_reserved":false,"is_disabled":false,"rental_uris":{"android":"levelo://app?vid=528091cb-cb75-4939-b1ac-1b00b7ffc91f","ios":"levelo://app?vid=528091cb-cb75-4939-b1ac-1b00b7ffc91f"},"vehicle_type_id":"4","last_reported":1727484227,"current_range_meters":18000,"station_id":"ce4bgvp2rcd13ifvqct0","pricing_plan_id":"cebpf4jnsgd1na2vs0mg"},{"bike_id":"501139bd-0b6b-40af-9494-7e812e7b3314","system_id":"levelo_inurba_marseille","lat":43.30932,"lon":5.40146,"is_reserved":false,"is_disabled":false,"rental_uris":{"android":"levelo://app?vid=501139bd-0b6b-40af-9494-7e812e7b3314","ios":"levelo://app?vid=501139bd-0b6b-40af-9494-7e812e7b3314"},"vehicle_type_id":"4","last_reported":1727484227,"current_range_meters":5600,"station_id":"ce4bgvp2rcd13ifvqct0","pricing_plan_id":"cebpf4jnsgd1na2vs0mg"},{"bike_id":"5c5cb081-341f-4eef-b396-3fb22f54595e","system_id":"levelo_inurba_marseille","lat":43.296936,"lon":5.376953,"is_reserved":false,"is_disabled":false,"rental_uris":{"android":"levelo://app?vid=5c5cb081-341f-4eef-b396-3fb22f54595e","ios":"levelo://app?vid=5c5cb081-341f-4eef-b396-3fb22f54595e"},"vehicle_type_id":"4","last_reported":1727484227,"current_range_meters":37600,"station_id":"ce4bgkh2rcd13ifvqbl0","pricing_plan_id":"cebpf4jnsgd1na2vs0mg"},{"bike_id":"f6968e19-257d-4711-96c9-3a74c25aaf24","system_id":"levelo_inurba_marseille","lat":43.27837,"lon":5.39215,"is_reserved":false,"is_disabled":false,"rental_uris":{"android":"levelo://app?vid=f6968e19-257d-4711-96c9-3a74c25aaf24","ios":"levelo://app?vid=f6968e19-257d-4711-96c9-3a74c25aaf24"},"vehicle_type_id":"4","last_reported":1727484227,"current_range_meters":38400,"station_id":"ce4bhjp2rcd13ifvqga0","pricing_plan_id":"cebpf4jnsgd1na2vs0mg"},{"bike_id":"0b60ef30-732b-4467-b895-292c63bda719","system_id":"levelo_inurba_marseille","lat":43.302372,"lon":5.40075,"is_reserved":false,"is_disabled":false,"rental_uris":{"android":"levelo://app?vid=0b60ef30-732b-4467-b895-292c63bda719","ios":"levelo://app?vid=0b60ef30-732b-4467-b895-292c63bda719"},"vehicle_type_id":"4","last_reported":1727484227,"current_range_meters":19600,"station_id":"ce4bgvh2rcd13ifvqcs0","pricing_plan_id":"cebpf4jnsgd1na2vs0mg"},{"bike_id":"eab435e6-b89d-4cdf-aa0e-050a5dab33ea","system_id":"levelo_inurba_marseille","lat":43.2794,"lon":5.41048,"is_reserved":false,"is_disabled":false,"rental_uris":{"android":"levelo://app?vid=eab435e6-b89d-4cdf-aa0e-050a5dab33ea","ios":"levelo://app?vid=eab435e6-b89d-4cdf-aa0e-050a5dab33ea"},"vehicle_type_id":"4","last_reported":1727484227,"current_range_meters":38400,"station_id":"ce4bhnp2rcd13ifvqh0g","pricing_plan_id":"cebpf4jnsgd1na2vs0mg"},{"bike_id":"c59190c3-3c67-4724-9d74-5ff781a62478","system_id":"levelo_inurba_marseille","lat":43.29038,"lon":5.39953,"is_reserved":false,"is_disabled":false,"rental_uris":{"android":"levelo://app?vid=c59190c3-3c67-4724-9d74-5ff781a62478","ios":"levelo://app?vid=c59190c3-3c67-4724-9d74-5ff781a62478"},"vehicle_type_id":"4","last_reported":1727484227,"current_range_meters":33200,"station_id":"ce4bh392rcd13ifvqdm0","pricing_plan_id":"cebpf4jnsgd1na2vs0mg"},{"bike_id":"76876197-3018-44d5-a273-5fafe8b7820d","system_id":"levelo_inurba_marseille","lat":43.29626,"lon":5.40593,"is_reserved":false,"is_disabled":false,"rental_uris":{"android":"levelo://app?vid=76876197-3018-44d5-a273-5fafe8b7820d","ios":"levelo://app?vid=76876197-3018-44d5-a273-5fafe8b7820d"},"vehicle_type_id":"4","last_reported":1727484227,"current_range_meters":12000,"station_id":"ce4bh0h2rcd13ifvqd60","pricing_plan_id":"cebpf4jnsgd1na2vs0mg"},{"bike_id":"b13ca00a-e6ef-493d-9ec2-5f3979e8f17d","system_id":"levelo_inurba_marseille","lat":43.31111,"lon":5.37774,"is_reserved":false,"is_disabled":false,"rental_uris":{"android":"levelo://app?vid=b13ca00a-e6ef-493d-9ec2-5f3979e8f17d","ios":"levelo://app?vid=b13ca00a-e6ef-493d-9ec2-5f3979e8f17d"},"vehicle_type_id":"4","last_reported":1727484227,"current_range_meters":38800,"station_id":"ce4bgt92rcd13ifvqcg0","pricing_plan_id":"cebpf4jnsgd1na2vs0mg"},{"bike_id":"7ac35769-3ee6-403e-a73f-98200d2ca6c3","system_id":"levelo_inurba_marseille","lat":43.30425,"lon":5.39754,"is_reserved":false,"is_disabled":false,"rental_uris":{"android":"levelo://app?vid=7ac35769-3ee6-403e-a73f-98200d2ca6c3","ios":"levelo://app?vid=7ac35769-3ee6-403e-a73f-98200d2ca6c3"},"vehicle_type_id":"4","last_reported":1727484227,"current_range_meters":25600,"station_id":"ce4bh092rcd13ifvqd20","pricing_plan_id":"cebpf4jnsgd1na2vs0mg"},{"bike_id":"8601292a-7b4c-4e94-8c9e-c1c4b87d9e02","system_id":"levelo_inurba_marseille","lat":43.24997,"lon":5.38934,"is_reserved":false,"is_disabled":false,"rental_uris":{"android":"levelo://app?vid=8601292a-7b4c-4e94-8c9e-c1c4b87d9e02","ios":"levelo://app?vid=8601292a-7b4c-4e94-8c9e-c1c4b87d9e02"},"vehicle_type_id":"4","last_reported":1727484227,"current_range_meters":23200,"station_id":"ce4bhgp2rcd13ifvqfd0","pricing_plan_id":"cebpf4jnsgd1na2vs0mg"},{"bike_id":"9138a9cf-0e03-4ab8-910d-8f4f15d9639d","system_id":"levelo_inurba_marseille","lat":43.30886,"lon":5.39643,"is_reserved":false,"is_disabled":false,"rental_uris":{"android":"levelo://app?vid=9138a9cf-0e03-4ab8-910d-8f4f15d9639d","ios":"levelo://app?vid=9138a9cf-0e03-4ab8-910d-8f4f15d9639d"},"vehicle_type_id":"4","last_reported":1727484227,"current_range_meters":2800,"station_id":"ce4bh012rcd13ifvqcv0","pricing_plan_id":"cebpf4jnsgd1na2vs0mg"},{"bike_id":"e9776310-b20e-4114-a6b6-30f9f0cfe653","system_id":"levelo_inurba_marseille","lat":43.26024,"lon":5.37557,"is_reserved":false,"is_disabled":false,"rental_uris":{"android":"levelo://app?vid=e9776310-b20e-4114-a6b6-30f9f0cfe653","ios":"levelo://app?vid=e9776310-b20e-4114-a6b6-30f9f0cfe653"},"vehicle_type_id":"4","last_reported":1727484227,"current_range_meters":38800,"station_id":"ce4bhgh2rcd13ifvqfa0","pricing_plan_id":"cebpf4jnsgd1na2vs0mg"},{"bike_id":"d9b76706-e826-4a7c-aebc-5d53252d4306","system_id":"levelo_inurba_marseille","lat":43.24077,"lon":5.37754,"is_reserved":false,"is_disabled":false,"rental_uris":{"android":"levelo://app?vid=d9b76706-e826-4a7c-aebc-5d53252d4306","ios":"levelo://app?vid=d9b76706-e826-4a7c-aebc-5d53252d4306"},"vehicle_type_id":"4","last_reported":1727484227,"current_range_meters":16800,"station_id":"ce4bhnp2rcd13ifvqgvg","pricing_plan_id":"cebpf4jnsgd1na2vs0mg"},{"bike_id":"9ed8f030-e409-44db-82b6-b5a737438093","system_id":"levelo_inurba_marseille","lat":43.280304,"lon":5.369393,"is_reserved":false,"is_disabled":false,"rental_uris":{"android":"levelo://app?vid=9ed8f030-e409-44db-82b6-b5a737438093","ios":"levelo://app?vid=9ed8f030-e409-44db-82b6-b5a737438093"},"vehicle_type_id":"4","last_reported":1727484227,"current_range_meters":38800,"station_id":"ce4bhc92rcd13ifvqetg","pricing_plan_id":"cebpf4jnsgd1na2vs0mg"},{"bike_id":"9e376e4e-65aa-4662-9b69-3208173b899e","system_id":"levelo_inurba_marseille","lat":43.31083,"lon":5.42427,"is_reserved":false,"is_disabled":false,"rental_uris":{"android":"levelo://app?vid=9e376e4e-65aa-4662-9b69-3208173b899e","ios":"levelo://app?vid=9e376e4e-65aa-4662-9b69-3208173b899e"},"vehicle_type_id":"4","last_reported":1727484227,"current_range_meters":28800,"station_id":"ce4bhp92rcd13ifvqhag","pricing_plan_id":"cebpf4jnsgd1na2vs0mg"},{"bike_id":"0701cf2a-674c-4c9d-af1e-6650acbaaf74","system_id":"levelo_inurba_marseille","lat":43.28383,"lon":5.37293,"is_reserved":false,"is_disabled":false,"rental_uris":{"android":"levelo://app?vid=0701cf2a-674c-4c9d-af1e-6650acbaaf74","ios":"levelo://app?vid=0701cf2a-674c-4c9d-af1e-6650acbaaf74"},"vehicle_type_id":"4","last_reported":1727484227,"current_range_meters":18800,"station_id":"","pricing_plan_id":"cebpf4jnsgd1na2vs0mg"},{"bike_id":"80159180-ec73-41b2-958f-918df6404d23","system_id":"levelo_inurba_marseille","lat":43.28724,"lon":5.36091,"is_reserved":false,"is_disabled":false,"rental_uris":{"android":"levelo://app?vid=80159180-ec73-41b2-958f-918df6404d23","ios":"levelo://app?vid=80159180-ec73-41b2-958f-918df6404d23"},"vehicle_type_id":"4","last_reported":1727484227,"current_range_meters":36000,"station_id":"cki0cbj6b192h4jlfktg","pricing_plan_id":"cebpf4jnsgd1na2vs0mg"},{"bike_id":"f6a85b0b-f963-47e6-a06b-8ca983b266ba","system_id":"levelo_inurba_marseille","lat":43.289446,"lon":5.400061,"is_reserved":false,"is_disabled":false,"rental_uris":{"android":"levelo://app?vid=f6a85b0b-f963-47e6-a06b-8ca983b266ba","ios":"levelo://app?vid=f6a85b0b-f963-47e6-a06b-8ca983b266ba"},"vehicle_type_id":"4","last_reported":1727484227,"current_range_meters":36800,"station_id":"ce4bh292rcd13ifvqdg0","pricing_plan_id":"cebpf4jnsgd1na2vs0mg"},{"bike_id":"7b405162-9316-4dd7-991b-5827915938c6","system_id":"levelo_inurba_marseille","lat":43.30916,"lon":5.40141,"is_reserved":false,"is_disabled":false,"rental_uris":{"android":"levelo://app?vid=7b405162-9316-4dd7-991b-5827915938c6","ios":"levelo://app?vid=7b405162-9316-4dd7-991b-5827915938c6"},"vehicle_type_id":"4","last_reported":1727484227,"current_range_meters":32400,"station_id":"ce4bgvp2rcd13ifvqct0","pricing_plan_id":"cebpf4jnsgd1na2vs0mg"},{"bike_id":"0400e28f-c23a-4608-a90c-dbabc8a0dd7d","system_id":"levelo_inurba_marseille","lat":43.29548,"lon":5.42278,"is_reserved":false,"is_disabled":false,"rental_uris":{"android":"levelo://app?vid=0400e28f-c23a-4608-a90c-dbabc8a0dd7d","ios":"levelo://app?vid=0400e28f-c23a-4608-a90c-dbabc8a0dd7d"},"vehicle_type_id":"4","last_reported":1727484227,"current_range_meters":39200,"station_id":"ce4bhph2rcd13ifvqhdg","pricing_plan_id":"cebpf4jnsgd1na2vs0mg"},{"bike_id":"91fddb2c-155b-46a5-8e04-ac4b3ad0bfcb","system_id":"levelo_inurba_marseille","lat":43.292647,"lon":5.384304,"is_reserved":false,"is_disabled":false,"rental_uris":{"android":"levelo://app?vid=91fddb2c-155b-46a5-8e04-ac4b3ad0bfcb","ios":"levelo://app?vid=91fddb2c-155b-46a5-8e04-ac4b3ad0bfcb"},"vehicle_type_id":"4","last_reported":1727484227,"current_range_meters":16000,"station_id":"ce4bh692rcd13ifvqea0","pricing_plan_id":"cebpf4jnsgd1na2vs0mg"},{"bike_id":"6cdca13d-24d1-4302-912a-54d18c748242","system_id":"levelo_inurba_marseille","lat":43.31083,"lon":5.40132,"is_reserved":false,"is_disabled":false,"rental_uris":{"android":"levelo://app?vid=6cdca13d-24d1-4302-912a-54d18c748242","ios":"levelo://app?vid=6cdca13d-24d1-4302-912a-54d18c748242"},"vehicle_type_id":"4","last_reported":1727484227,"current_range_meters":10800,"station_id":"","pricing_plan_id":"cebpf4jnsgd1na2vs0mg"},{"bike_id":"5be5c2cd-3f9f-486f-a58b-98a7040b04e7","system_id":"levelo_inurba_marseille","lat":43.28853,"lon":5.35836,"is_reserved":false,"is_disabled":false,"rental_uris":{"android":"levelo://app?vid=5be5c2cd-3f9f-486f-a58b-98a7040b04e7","ios":"levelo://app?vid=5be5c2cd-3f9f-486f-a58b-98a7040b04e7"},"vehicle_type_id":"4","last_reported":1727484227,"current_range_meters":28400,"station_id":"ce4bhb12rcd13ifvqem0","pricing_plan_id":"cebpf4jnsgd1na2vs0mg"},{"bike_id":"093c990c-4ffd-449c-ac18-aeecffb3b446","system_id":"levelo_inurba_marseille","lat":43.30934,"lon":5.40154,"is_reserved":false,"is_disabled":false,"rental_uris":{"android":"levelo://app?vid=093c990c-4ffd-449c-ac18-aeecffb3b446","ios":"levelo://app?vid=093c990c-4ffd-449c-ac18-aeecffb3b446"},"vehicle_type_id":"4","last_reported":1727484227,"current_range_meters":35600,"station_id":"ce4bgvp2rcd13ifvqct0","pricing_plan_id":"cebpf4jnsgd1na2vs0mg"},{"bike_id":"14d59267-90f3-4be2-b29f-da7643f74e94","system_id":"levelo_inurba_marseille","lat":43.28485,"lon":5.38564,"is_reserved":false,"is_disabled":false,"rental_uris":{"android":"levelo://app?vid=14d59267-90f3-4be2-b29f-da7643f74e94","ios":"levelo://app?vid=14d59267-90f3-4be2-b29f-da7643f74e94"},"vehicle_type_id":"4","last_reported":1727484227,"current_range_meters":16800,"station_id":"ce4bh8p2rcd13ifvqeb0","pricing_plan_id":"cebpf4jnsgd1na2vs0mg"},{"bike_id":"7f31b7c3-4a3b-43de-afc0-d4cf26796b63","system_id":"levelo_inurba_marseille","lat":43.27948,"lon":5.41036,"is_reserved":false,"is_disabled":false,"rental_uris":{"android":"levelo://app?vid=7f31b7c3-4a3b-43de-afc0-d4cf26796b63","ios":"levelo://app?vid=7f31b7c3-4a3b-43de-afc0-d4cf26796b63"},"vehicle_type_id":"4","last_reported":1727484227,"current_range_meters":35600,"station_id":"ce4bhnp2rcd13ifvqh0g","pricing_plan_id":"cebpf4jnsgd1na2vs0mg"},{"bike_id":"dec90229-f507-4580-9700-8df7c8488477","system_id":"levelo_inurba_marseille","lat":43.322885,"lon":5.38269,"is_reserved":false,"is_disabled":false,"rental_uris":{"android":"levelo://app?vid=dec90229-f507-4580-9700-8df7c8488477","ios":"levelo://app?vid=dec90229-f507-4580-9700-8df7c8488477"},"vehicle_type_id":"4","last_reported":1727484227,"current_range_meters":38000,"station_id":"ce4bhr12rcd13ifvqhqg","pricing_plan_id":"cebpf4jnsgd1na2vs0mg"},{"bike_id":"aea894ed-ba6c-470a-a3e3-19997eebb6f4","system_id":"levelo_inurba_marseille","lat":43.28712,"lon":5.37936,"is_reserved":false,"is_disabled":false,"rental_uris":{"android":"levelo://app?vid=aea894ed-ba6c-470a-a3e3-19997eebb6f4","ios":"levelo://app?vid=aea894ed-ba6c-470a-a3e3-19997eebb6f4"},"vehicle_type_id":"4","last_reported":1727484227,"current_range_meters":36400,"station_id":"ce4bh9p2rcd13ifvqec0","pricing_plan_id":"cebpf4jnsgd1na2vs0mg"},{"bike_id":"fb1212c8-2f28-4a72-9053-120fa00a7e48","system_id":"levelo_inurba_marseille","lat":43.24072,"lon":5.37756,"is_reserved":false,"is_disabled":false,"rental_uris":{"android":"levelo://app?vid=fb1212c8-2f28-4a72-9053-120fa00a7e48","ios":"levelo://app?vid=fb1212c8-2f28-4a72-9053-120fa00a7e48"},"vehicle_type_id":"4","last_reported":1727484227,"current_range_meters":28000,"station_id":"ce4bhnp2rcd13ifvqgvg","pricing_plan_id":"cebpf4jnsgd1na2vs0mg"},{"bike_id":"dbab5e16-0de9-4389-932d-06a62d667144","system_id":"levelo_inurba_marseille","lat":43.25825,"lon":5.39426,"is_reserved":false,"is_disabled":false,"rental_uris":{"android":"levelo://app?vid=dbab5e16-0de9-4389-932d-06a62d667144","ios":"levelo://app?vid=dbab5e16-0de9-4389-932d-06a62d667144"},"vehicle_type_id":"4","last_reported":1727484227,"current_range_meters":38800,"station_id":"ce4bhip2rcd13ifvqft0","pricing_plan_id":"cebpf4jnsgd1na2vs0mg"},{"bike_id":"808e2a76-3583-4020-998e-63ef8bb4f2f9","system_id":"levelo_inurba_marseille","lat":43.31986,"lon":5.38149,"is_reserved":false,"is_disabled":false,"rental_uris":{"android":"levelo://app?vid=808e2a76-3583-4020-998e-63ef8bb4f2f9","ios":"levelo://app?vid=808e2a76-3583-4020-998e-63ef8bb4f2f9"},"vehicle_type_id":"4","last_reported":1727484227,"current_range_meters":25200,"station_id":"ce4bhr12rcd13ifvqhpg","pricing_plan_id":"cebpf4jnsgd1na2vs0mg"},{"bike_id":"b9cd4885-6618-49ae-b6e3-10480ada383c","system_id":"levelo_inurba_marseille","lat":43.28274,"lon":5.35068,"is_reserved":false,"is_disabled":false,"rental_uris":{"android":"levelo://app?vid=b9cd4885-6618-49ae-b6e3-10480ada383c","ios":"levelo://app?vid=b9cd4885-6618-49ae-b6e3-10480ada383c"},"vehicle_type_id":"4","last_reported":1727484227,"current_range_meters":39200,"station_id":"ce4bhbp2rcd13ifvqerg","pricing_plan_id":"cebpf4jnsgd1na2vs0mg"},{"bike_id":"fd6e143c-0a78-4a60-9bf7-d859c2b6f258","system_id":"levelo_inurba_marseille","lat":43.30956,"lon":5.39044,"is_reserved":false,"is_disabled":false,"rental_uris":{"android":"levelo://app?vid=fd6e143c-0a78-4a60-9bf7-d859c2b6f258","ios":"levelo://app?vid=fd6e143c-0a78-4a60-9bf7-d859c2b6f258"},"vehicle_type_id":"4","last_reported":1727484227,"current_range_meters":24800,"station_id":"ce4bgup2rcd13ifvqco0","pricing_plan_id":"cebpf4jnsgd1na2vs0mg"},{"bike_id":"3407da71-e9f5-4375-9956-506983640a2f","system_id":"levelo_inurba_marseille","lat":43.28993,"lon":5.37585,"is_reserved":false,"is_disabled":false,"rental_uris":{"android":"levelo://app?vid=3407da71-e9f5-4375-9956-506983640a2f","ios":"levelo://app?vid=3407da71-e9f5-4375-9956-506983640a2f"},"vehicle_type_id":"4","last_reported":1727484227,"current_range_meters":30800,"station_id":"ce4bh692rcd13ifvqe90","pricing_plan_id":"cebpf4jnsgd1na2vs0mg"},{"bike_id":"d1816f99-4ea4-47ef-9f69-3283c0e15ea7","system_id":"levelo_inurba_marseille","lat":43.25821,"lon":5.3943,"is_reserved":false,"is_disabled":false,"rental_uris":{"android":"levelo://app?vid=d1816f99-4ea4-47ef-9f69-3283c0e15ea7","ios":"levelo://app?vid=d1816f99-4ea4-47ef-9f69-3283c0e15ea7"},"vehicle_type_id":"4","last_reported":1727484227,"current_range_meters":32400,"station_id":"ce4bhip2rcd13ifvqft0","pricing_plan_id":"cebpf4jnsgd1na2vs0mg"},{"bike_id":"cd8b451c-6410-4674-97d5-3060b5a08bae","system_id":"levelo_inurba_marseille","lat":43.30598,"lon":5.39348,"is_reserved":false,"is_disabled":false,"rental_uris":{"android":"levelo://app?vid=cd8b451c-6410-4674-97d5-3060b5a08bae","ios":"levelo://app?vid=cd8b451c-6410-4674-97d5-3060b5a08bae"},"vehicle_type_id":"4","last_reported":1727484227,"current_range_meters":24400,"station_id":"ce4bh0p2rcd13ifvqd80","pricing_plan_id":"cebpf4jnsgd1na2vs0mg"},{"bike_id":"b6fdf2ed-623a-49a6-9825-a142aed5f8b8","system_id":"levelo_inurba_marseille","lat":43.30886,"lon":5.39643,"is_reserved":false,"is_disabled":false,"rental_uris":{"android":"levelo://app?vid=b6fdf2ed-623a-49a6-9825-a142aed5f8b8","ios":"levelo://app?vid=b6fdf2ed-623a-49a6-9825-a142aed5f8b8"},"vehicle_type_id":"4","last_reported":1727484227,"current_range_meters":37600,"station_id":"ce4bh012rcd13ifvqcv0","pricing_plan_id":"cebpf4jnsgd1na2vs0mg"},{"bike_id":"50a7f4a2-b458-4bda-aec8-0b1a3f15136a","system_id":"levelo_inurba_marseille","lat":43.30131,"lon":5.39873,"is_reserved":false,"is_disabled":false,"rental_uris":{"android":"levelo://app?vid=50a7f4a2-b458-4bda-aec8-0b1a3f15136a","ios":"levelo://app?vid=50a7f4a2-b458-4bda-aec8-0b1a3f15136a"},"vehicle_type_id":"4","last_reported":1727484227,"current_range_meters":38800,"station_id":"ce4bh0h2rcd13ifvqd40","pricing_plan_id":"cebpf4jnsgd1na2vs0mg"},{"bike_id":"e3ee7d5b-bd0b-4d4d-a3e6-11e8cd23caf2","system_id":"levelo_inurba_marseille","lat":43.281553,"lon":5.426356,"is_reserved":false,"is_disabled":false,"rental_uris":{"android":"levelo://app?vid=e3ee7d5b-bd0b-4d4d-a3e6-11e8cd23caf2","ios":"levelo://app?vid=e3ee7d5b-bd0b-4d4d-a3e6-11e8cd23caf2"},"vehicle_type_id":"4","last_reported":1727484227,"current_range_meters":36800,"station_id":"ce4bhnh2rcd13ifvqgug","pricing_plan_id":"cebpf4jnsgd1na2vs0mg"},{"bike_id":"6aef5a81-a5ad-4f4d-985f-48222fd2a7f9","system_id":"levelo_inurba_marseille","lat":43.28934,"lon":5.36632,"is_reserved":false,"is_disabled":false,"rental_uris":{"android":"levelo://app?vid=6aef5a81-a5ad-4f4d-985f-48222fd2a7f9","ios":"levelo://app?vid=6aef5a81-a5ad-4f4d-985f-48222fd2a7f9"},"vehicle_type_id":"4","last_reported":1727484227,"current_range_meters":38800,"station_id":"ce4bhap2rcd13ifvqek0","pricing_plan_id":"cebpf4jnsgd1na2vs0mg"},{"bike_id":"f09e59d7-c7da-4619-a908-3cba0aaf48c1","system_id":"levelo_inurba_marseille","lat":43.28466,"lon":5.35893,"is_reserved":false,"is_disabled":false,"rental_uris":{"android":"levelo://app?vid=f09e59d7-c7da-4619-a908-3cba0aaf48c1","ios":"levelo://app?vid=f09e59d7-c7da-4619-a908-3cba0aaf48c1"},"vehicle_type_id":"4","last_reported":1727484227,"current_range_meters":24400,"station_id":"ce4bhah2rcd13ifvqei0","pricing_plan_id":"cebpf4jnsgd1na2vs0mg"},{"bike_id":"66603fb2-11ce-4623-a0ca-83f18fb46b65","system_id":"levelo_inurba_marseille","lat":43.28662,"lon":5.36347,"is_reserved":false,"is_disabled":false,"rental_uris":{"android":"levelo://app?vid=66603fb2-11ce-4623-a0ca-83f18fb46b65","ios":"levelo://app?vid=66603fb2-11ce-4623-a0ca-83f18fb46b65"},"vehicle_type_id":"4","last_reported":1727484227,"current_range_meters":4800,"station_id":"ce4bhah2rcd13ifvqej0","pricing_plan_id":"cebpf4jnsgd1na2vs0mg"},{"bike_id":"d5adb0e7-a184-462e-8337-990c66f58ad7","system_id":"levelo_inurba_marseille","lat":43.33023,"lon":5.39045,"is_reserved":false,"is_disabled":false,"rental_uris":{"android":"levelo://app?vid=d5adb0e7-a184-462e-8337-990c66f58ad7","ios":"levelo://app?vid=d5adb0e7-a184-462e-8337-990c66f58ad7"},"vehicle_type_id":"4","last_reported":1727484227,"current_range_meters":35600,"station_id":"ce4bhr92rcd13ifvqhrg","pricing_plan_id":"cebpf4jnsgd1na2vs0mg"},{"bike_id":"a708805a-bfe0-439e-945e-3d1829abae2f","system_id":"levelo_inurba_marseille","lat":43.2586,"lon":5.39901,"is_reserved":false,"is_disabled":false,"rental_uris":{"android":"levelo://app?vid=a708805a-bfe0-439e-945e-3d1829abae2f","ios":"levelo://app?vid=a708805a-bfe0-439e-945e-3d1829abae2f"},"vehicle_type_id":"4","last_reported":1727484227,"current_range_meters":7200,"station_id":"ce4bhl92rcd13ifvqghg","pricing_plan_id":"cebpf4jnsgd1na2vs0mg"},{"bike_id":"e1251b7b-4d94-42e6-9b33-ad1d5aa3da3e","system_id":"levelo_inurba_marseille","lat":43.28075,"lon":5.39653,"is_reserved":false,"is_disabled":false,"rental_uris":{"android":"levelo://app?vid=e1251b7b-4d94-42e6-9b33-ad1d5aa3da3e","ios":"levelo://app?vid=e1251b7b-4d94-42e6-9b33-ad1d5aa3da3e"},"vehicle_type_id":"4","last_reported":1727484227,"current_range_meters":36800,"station_id":"ce4bho12rcd13ifvqh2g","pricing_plan_id":"cebpf4jnsgd1na2vs0mg"},{"bike_id":"b4601108-7fce-4d0d-a512-a9020302390e","system_id":"levelo_inurba_marseille","lat":43.30436,"lon":5.38886,"is_reserved":false,"is_disabled":false,"rental_uris":{"android":"levelo://app?vid=b4601108-7fce-4d0d-a512-a9020302390e","ios":"levelo://app?vid=b4601108-7fce-4d0d-a512-a9020302390e"},"vehicle_type_id":"4","last_reported":1727484227,"current_range_meters":30000,"station_id":"ce4bgk12rcd13ifvqbi0","pricing_plan_id":"cebpf4jnsgd1na2vs0mg"},{"bike_id":"e91ba66d-f732-4e7e-ace3-faaa088642a7","system_id":"levelo_inurba_marseille","lat":43.29633,"lon":5.40598,"is_reserved":false,"is_disabled":false,"rental_uris":{"android":"levelo://app?vid=e91ba66d-f732-4e7e-ace3-faaa088642a7","ios":"levelo://app?vid=e91ba66d-f732-4e7e-ace3-faaa088642a7"},"vehicle_type_id":"4","last_reported":1727484227,"current_range_meters":38800,"station_id":"ce4bh0h2rcd13ifvqd60","pricing_plan_id":"cebpf4jnsgd1na2vs0mg"},{"bike_id":"2385a768-acc4-4bca-b380-589c0719e15d","system_id":"levelo_inurba_marseille","lat":43.28472,"lon":5.35883,"is_reserved":false,"is_disabled":false,"rental_uris":{"android":"levelo://app?vid=2385a768-acc4-4bca-b380-589c0719e15d","ios":"levelo://app?vid=2385a768-acc4-4bca-b380-589c0719e15d"},"vehicle_type_id":"4","last_reported":1727484227,"current_range_meters":38800,"station_id":"ce4bhah2rcd13ifvqei0","pricing_plan_id":"cebpf4jnsgd1na2vs0mg"},{"bike_id":"e70e8252-4776-489c-b71e-9dfda14555b2","system_id":"levelo_inurba_marseille","lat":43.28106,"lon":5.3784,"is_reserved":false,"is_disabled":false,"rental_uris":{"android":"levelo://app?vid=e70e8252-4776-489c-b71e-9dfda14555b2","ios":"levelo://app?vid=e70e8252-4776-489c-b71e-9dfda14555b2"},"vehicle_type_id":"4","last_reported":1727484227,"current_range_meters":8400,"station_id":"ce4bha12rcd13ifvqee0","pricing_plan_id":"cebpf4jnsgd1na2vs0mg"},{"bike_id":"eca052ef-95bf-4554-a10f-c46ceb8ca84e","system_id":"levelo_inurba_marseille","lat":43.31165,"lon":5.38715,"is_reserved":false,"is_disabled":false,"rental_uris":{"android":"levelo://app?vid=eca052ef-95bf-4554-a10f-c46ceb8ca84e","ios":"levelo://app?vid=eca052ef-95bf-4554-a10f-c46ceb8ca84e"},"vehicle_type_id":"4","last_reported":1727484227,"current_range_meters":33200,"station_id":"ce4bgv12rcd13ifvqcp0","pricing_plan_id":"cebpf4jnsgd1na2vs0mg"},{"bike_id":"0c3f0369-7cdf-4cba-a0db-09435ab8c8da","system_id":"levelo_inurba_marseille","lat":43.23189,"lon":5.3999,"is_reserved":false,"is_disabled":false,"rental_uris":{"android":"levelo://app?vid=0c3f0369-7cdf-4cba-a0db-09435ab8c8da","ios":"levelo://app?vid=0c3f0369-7cdf-4cba-a0db-09435ab8c8da"},"vehicle_type_id":"4","last_reported":1727484227,"current_range_meters":33600,"station_id":"ce4bhn12rcd13ifvqgqg","pricing_plan_id":"cebpf4jnsgd1na2vs0mg"},{"bike_id":"5bbd2505-51dc-451e-8388-5c62e078114a","system_id":"levelo_inurba_marseille","lat":43.24176,"lon":5.39735,"is_reserved":false,"is_disabled":false,"rental_uris":{"android":"levelo://app?vid=5bbd2505-51dc-451e-8388-5c62e078114a","ios":"levelo://app?vid=5bbd2505-51dc-451e-8388-5c62e078114a"},"vehicle_type_id":"4","last_reported":1727484227,"current_range_meters":37600,"station_id":"ce4bhn12rcd13ifvqgpg","pricing_plan_id":"cebpf4jnsgd1na2vs0mg"},{"bike_id":"8cc6420e-9ed0-4fab-ae82-860344d30ea8","system_id":"levelo_inurba_marseille","lat":43.31754,"lon":5.39023,"is_reserved":false,"is_disabled":false,"rental_uris":{"android":"levelo://app?vid=8cc6420e-9ed0-4fab-ae82-860344d30ea8","ios":"levelo://app?vid=8cc6420e-9ed0-4fab-ae82-860344d30ea8"},"vehicle_type_id":"4","last_reported":1727484227,"current_range_meters":38800,"station_id":"ce4bhqp2rcd13ifvqhng","pricing_plan_id":"cebpf4jnsgd1na2vs0mg"},{"bike_id":"bc20af5c-be7b-4c51-b09b-2e170ca1b5b9","system_id":"levelo_inurba_marseille","lat":43.25486,"lon":5.3765,"is_reserved":false,"is_disabled":false,"rental_uris":{"android":"levelo://app?vid=bc20af5c-be7b-4c51-b09b-2e170ca1b5b9","ios":"levelo://app?vid=bc20af5c-be7b-4c51-b09b-2e170ca1b5b9"},"vehicle_type_id":"4","last_reported":1727484227,"current_range_meters":38800,"station_id":"ce4bhh12rcd13ifvqff0","pricing_plan_id":"cebpf4jnsgd1na2vs0mg"},{"bike_id":"966edf64-b29f-4baa-9383-56c856d81b96","system_id":"levelo_inurba_marseille","lat":43.28702,"lon":5.3998,"is_reserved":false,"is_disabled":false,"rental_uris":{"android":"levelo://app?vid=966edf64-b29f-4baa-9383-56c856d81b96","ios":"levelo://app?vid=966edf64-b29f-4baa-9383-56c856d81b96"},"vehicle_type_id":"4","last_reported":1727484227,"current_range_meters":4400,"station_id":"ce4bho92rcd13ifvqh3g","pricing_plan_id":"cebpf4jnsgd1na2vs0mg"},{"bike_id":"c7c60ebc-dc28-48a0-847e-82add065d57a","system_id":"levelo_inurba_marseille","lat":43.30883,"lon":5.39638,"is_reserved":false,"is_disabled":false,"rental_uris":{"android":"levelo://app?vid=c7c60ebc-dc28-48a0-847e-82add065d57a","ios":"levelo://app?vid=c7c60ebc-dc28-48a0-847e-82add065d57a"},"vehicle_type_id":"4","last_reported":1727484227,"current_range_meters":38800,"station_id":"ce4bh012rcd13ifvqcv0","pricing_plan_id":"cebpf4jnsgd1na2vs0mg"},{"bike_id":"d8e32f1c-4c32-4777-922d-4d90b15b71c7","system_id":"levelo_inurba_marseille","lat":43.30863,"lon":5.3685,"is_reserved":false,"is_disabled":false,"rental_uris":{"android":"levelo://app?vid=d8e32f1c-4c32-4777-922d-4d90b15b71c7","ios":"levelo://app?vid=d8e32f1c-4c32-4777-922d-4d90b15b71c7"},"vehicle_type_id":"4","last_reported":1727484227,"current_range_meters":12400,"station_id":"ce4bgn92rcd13ifvqbvg","pricing_plan_id":"cebpf4jnsgd1na2vs0mg"},{"bike_id":"b470945e-f45c-4291-ac95-d7061c9aab44","system_id":"levelo_inurba_marseille","lat":43.27367,"lon":5.41216,"is_reserved":false,"is_disabled":false,"rental_uris":{"android":"levelo://app?vid=b470945e-f45c-4291-ac95-d7061c9aab44","ios":"levelo://app?vid=b470945e-f45c-4291-ac95-d7061c9aab44"},"vehicle_type_id":"4","last_reported":1727484227,"current_range_meters":30400,"station_id":"","pricing_plan_id":"cebpf4jnsgd1na2vs0mg"},{"bike_id":"138bc1bf-c994-49f5-b6a9-e5f6fdac4480","system_id":"levelo_inurba_marseille","lat":43.28731,"lon":5.36098,"is_reserved":false,"is_disabled":false,"rental_uris":{"android":"levelo://app?vid=138bc1bf-c994-49f5-b6a9-e5f6fdac4480","ios":"levelo://app?vid=138bc1bf-c994-49f5-b6a9-e5f6fdac4480"},"vehicle_type_id":"4","last_reported":1727484227,"current_range_meters":7200,"station_id":"cki0cbj6b192h4jlfktg","pricing_plan_id":"cebpf4jnsgd1na2vs0mg"},{"bike_id":"7b094b27-c226-4735-ad93-a86b2a5de02d","system_id":"levelo_inurba_marseille","lat":43.26692,"lon":5.38276,"is_reserved":false,"is_disabled":false,"rental_uris":{"android":"levelo://app?vid=7b094b27-c226-4735-ad93-a86b2a5de02d","ios":"levelo://app?vid=7b094b27-c226-4735-ad93-a86b2a5de02d"},"vehicle_type_id":"4","last_reported":1727484227,"current_range_meters":38800,"station_id":"ce4bhg92rcd13ifvqf90","pricing_plan_id":"cebpf4jnsgd1na2vs0mg"},{"bike_id":"1a20ea9f-ac93-42d3-aa28-127e314df036","system_id":"levelo_inurba_marseille","lat":43.26943,"lon":5.38631,"is_reserved":false,"is_disabled":false,"rental_uris":{"android":"levelo://app?vid=1a20ea9f-ac93-42d3-aa28-127e314df036","ios":"levelo://app?vid=1a20ea9f-ac93-42d3-aa28-127e314df036"},"vehicle_type_id":"4","last_reported":1727484227,"current_range_meters":39200,"station_id":"ce4bhh92rcd13ifvqfh0","pricing_plan_id":"cebpf4jnsgd1na2vs0mg"},{"bike_id":"45109e24-5153-4141-bafb-b7dcead09240","system_id":"levelo_inurba_marseille","lat":43.22933,"lon":5.35379,"is_reserved":false,"is_disabled":false,"rental_uris":{"android":"levelo://app?vid=45109e24-5153-4141-bafb-b7dcead09240","ios":"levelo://app?vid=45109e24-5153-4141-bafb-b7dcead09240"},"vehicle_type_id":"4","last_reported":1727484227,"current_range_meters":36400,"station_id":"cpo3532slgdg3j2ikp40","pricing_plan_id":"cebpf4jnsgd1na2vs0mg"},{"bike_id":"e4361fa2-90d9-45ff-9d8a-e7b112f4e011","system_id":"levelo_inurba_marseille","lat":43.28514,"lon":5.3913,"is_reserved":false,"is_disabled":false,"rental_uris":{"android":"levelo://app?vid=e4361fa2-90d9-45ff-9d8a-e7b112f4e011","ios":"levelo://app?vid=e4361fa2-90d9-45ff-9d8a-e7b112f4e011"},"vehicle_type_id":"4","last_reported":1727484227,"current_range_meters":36000,"station_id":"ce4bh3p2rcd13ifvqdp0","pricing_plan_id":"cebpf4jnsgd1na2vs0mg"},{"bike_id":"5047cb4d-ca91-46aa-bdab-25b28ad12de4","system_id":"levelo_inurba_marseille","lat":43.24684,"lon":5.3816,"is_reserved":false,"is_disabled":false,"rental_uris":{"android":"levelo://app?vid=5047cb4d-ca91-46aa-bdab-25b28ad12de4","ios":"levelo://app?vid=5047cb4d-ca91-46aa-bdab-25b28ad12de4"},"vehicle_type_id":"4","last_reported":1727484227,"current_range_meters":8000,"station_id":"ce4bhih2rcd13ifvqfr0","pricing_plan_id":"cebpf4jnsgd1na2vs0mg"},{"bike_id":"c2d5eb4a-8506-48f9-b0e9-2061c04a5259","system_id":"levelo_inurba_marseille","lat":43.2904,"lon":5.39969,"is_reserved":false,"is_disabled":false,"rental_uris":{"android":"levelo://app?vid=c2d5eb4a-8506-48f9-b0e9-2061c04a5259","ios":"levelo://app?vid=c2d5eb4a-8506-48f9-b0e9-2061c04a5259"},"vehicle_type_id":"4","last_reported":1727484227,"current_range_meters":3200,"station_id":"ce4bh392rcd13ifvqdm0","pricing_plan_id":"cebpf4jnsgd1na2vs0mg"},{"bike_id":"623f0d9e-00ec-42fc-ad5c-64dbf135db7b","system_id":"levelo_inurba_marseille","lat":43.323425,"lon":5.406286,"is_reserved":false,"is_disabled":false,"rental_uris":{"android":"levelo://app?vid=623f0d9e-00ec-42fc-ad5c-64dbf135db7b","ios":"levelo://app?vid=623f0d9e-00ec-42fc-ad5c-64dbf135db7b"},"vehicle_type_id":"4","last_reported":1727484227,"current_range_meters":27600,"station_id":"ce4bhq92rcd13ifvqhjg","pricing_plan_id":"cebpf4jnsgd1na2vs0mg"},{"bike_id":"cab45fd0-efbe-42f4-815f-9d32eba24a97","system_id":"levelo_inurba_marseille","lat":43.279449,"lon":5.410468,"is_reserved":false,"is_disabled":false,"rental_uris":{"android":"levelo://app?vid=cab45fd0-efbe-42f4-815f-9d32eba24a97","ios":"levelo://app?vid=cab45fd0-efbe-42f4-815f-9d32eba24a97"},"vehicle_type_id":"4","last_reported":1727484227,"current_range_meters":36800,"station_id":"ce4bhnp2rcd13ifvqh0g","pricing_plan_id":"cebpf4jnsgd1na2vs0mg"},{"bike_id":"637ea54b-676e-4687-a372-f778f0655b85","system_id":"levelo_inurba_marseille","lat":43.27224,"lon":5.40094,"is_reserved":false,"is_disabled":false,"rental_uris":{"android":"levelo://app?vid=637ea54b-676e-4687-a372-f778f0655b85","ios":"levelo://app?vid=637ea54b-676e-4687-a372-f778f0655b85"},"vehicle_type_id":"4","last_reported":1727484227,"current_range_meters":28000,"station_id":"","pricing_plan_id":"cebpf4jnsgd1na2vs0mg"},{"bike_id":"ee14792d-bd8b-40da-b1ec-d5617bd375d9","system_id":"levelo_inurba_marseille","lat":43.31488,"lon":5.39112,"is_reserved":false,"is_disabled":false,"rental_uris":{"android":"levelo://app?vid=ee14792d-bd8b-40da-b1ec-d5617bd375d9","ios":"levelo://app?vid=ee14792d-bd8b-40da-b1ec-d5617bd375d9"},"vehicle_type_id":"4","last_reported":1727484227,"current_range_meters":10000,"station_id":"","pricing_plan_id":"cebpf4jnsgd1na2vs0mg"},{"bike_id":"7784672e-8edc-44e0-81c1-7fa09023eb32","system_id":"levelo_inurba_marseille","lat":43.30802,"lon":5.38147,"is_reserved":false,"is_disabled":false,"rental_uris":{"android":"levelo://app?vid=7784672e-8edc-44e0-81c1-7fa09023eb32","ios":"levelo://app?vid=7784672e-8edc-44e0-81c1-7fa09023eb32"},"vehicle_type_id":"4","last_reported":1727484227,"current_range_meters":36800,"station_id":"ce4bgt12rcd13ifvqce0","pricing_plan_id":"cebpf4jnsgd1na2vs0mg"},{"bike_id":"b4911112-d1ec-42e7-9ba4-338ed982c4af","system_id":"levelo_inurba_marseille","lat":43.31167,"lon":5.38706,"is_reserved":false,"is_disabled":false,"rental_uris":{"android":"levelo://app?vid=b4911112-d1ec-42e7-9ba4-338ed982c4af","ios":"levelo://app?vid=b4911112-d1ec-42e7-9ba4-338ed982c4af"},"vehicle_type_id":"4","last_reported":1727484227,"current_range_meters":5600,"station_id":"ce4bgv12rcd13ifvqcp0","pricing_plan_id":"cebpf4jnsgd1na2vs0mg"},{"bike_id":"49103c36-092f-43a6-a665-96ac4218adb8","system_id":"levelo_inurba_marseille","lat":43.32292,"lon":5.38269,"is_reserved":false,"is_disabled":false,"rental_uris":{"android":"levelo://app?vid=49103c36-092f-43a6-a665-96ac4218adb8","ios":"levelo://app?vid=49103c36-092f-43a6-a665-96ac4218adb8"},"vehicle_type_id":"4","last_reported":1727484227,"current_range_meters":39200,"station_id":"ce4bhr12rcd13ifvqhqg","pricing_plan_id":"cebpf4jnsgd1na2vs0mg"},{"bike_id":"08b2c029-544d-42d4-99bd-4ccc61970a99","system_id":"levelo_inurba_marseille","lat":43.26559,"lon":5.37278,"is_reserved":false,"is_disabled":false,"rental_uris":{"android":"levelo://app?vid=08b2c029-544d-42d4-99bd-4ccc61970a99","ios":"levelo://app?vid=08b2c029-544d-42d4-99bd-4ccc61970a99"},"vehicle_type_id":"4","last_reported":1727484227,"current_range_meters":7200,"station_id":"ce4bhg12rcd13ifvqf70","pricing_plan_id":"cebpf4jnsgd1na2vs0mg"},{"bike_id":"8bee0902-e1ab-4825-810a-a1c573268e75","system_id":"levelo_inurba_marseille","lat":43.32288,"lon":5.38265,"is_reserved":false,"is_disabled":false,"rental_uris":{"android":"levelo://app?vid=8bee0902-e1ab-4825-810a-a1c573268e75","ios":"levelo://app?vid=8bee0902-e1ab-4825-810a-a1c573268e75"},"vehicle_type_id":"4","last_reported":1727484227,"current_range_meters":19200,"station_id":"ce4bhr12rcd13ifvqhqg","pricing_plan_id":"cebpf4jnsgd1na2vs0mg"},{"bike_id":"163a8071-da95-4e9d-a44d-2485a267f2eb","system_id":"levelo_inurba_marseille","lat":43.25088,"lon":5.39513,"is_reserved":false,"is_disabled":false,"rental_uris":{"android":"levelo://app?vid=163a8071-da95-4e9d-a44d-2485a267f2eb","ios":"levelo://app?vid=163a8071-da95-4e9d-a44d-2485a267f2eb"},"vehicle_type_id":"4","last_reported":1727484227,"current_range_meters":38800,"station_id":"ce4bhm12rcd13ifvqgkg","pricing_plan_id":"cebpf4jnsgd1na2vs0mg"},