{"last_updated":1737994277,"ttl":60,"version":"2.2","data":{"bikes":[{"bike_id":"cb675d55-e5c8-4982-aca6-2a4540f10435","system_id":"levelo_inurba_marseille","lat":43.29846,"lon":5.36253,"is_reserved":false,"is_disabled":false,"rental_uris":{"android":"levelo://app?vid=cb675d55-e5c8-4982-aca6-2a4540f10435","ios":"levelo://app?vid=cb675d55-e5c8-4982-aca6-2a4540f10435"},"vehicle_type_id":"4","last_reported":1737994277,"current_range_meters":12400,"station_id":"ce4bgpp2rcd13ifvqc3g","pricing_plan_id":"cebpf4jnsgd1na2vs0mg"},{"bike_id":"5756a474-4b3c-447d-a14c-fbb4c3625331","system_id":"levelo_inurba_marseille","lat":43.29705,"lon":5.37692,"is_reserved":false,"is_disabled":false,"rental_uris":{"android":"levelo://app?vid=5756a474-4b3c-447d-a14c-fbb4c3625331","ios":"levelo://app?vid=5756a474-4b3c-447d-a14c-fbb4c3625331"},"vehicle_type_id":"4","last_reported":1737994277,"current_range_meters":19200,"station_id":"ce4bgkh2rcd13ifvqbl0","pricing_plan_id":"cebpf4jnsgd1na2vs0mg"},{"bike_id":"c44ed829-c8a2-4e91-ab08-df51489b2724","system_id":"levelo_inurba_marseille","lat":43.24662,"lon":5.3816,"is_reserved":false,"is_disabled":false,"rental_uris":{"android":"levelo://app?vid=c44ed829-c8a2-4e91-ab08-df51489b2724","ios":"levelo://app?vid=c44ed829-c8a2-4e91-ab08-df51489b2724"},"vehicle_type_id":"4","last_reported":1737994277,"current_range_meters":11600,"station_id":"ce4bhih2rcd13ifvqfr0","pricing_plan_id":"cebpf4jnsgd1na2vs0mg"},{"bike_id":"38b8a45d-d1f9-4e9f-9723-eede7dbe1055","system_id":"levelo_inurba_marseille","lat":43.27954,"lon":5.41052,"is_reserved":false,"is_disabled":false,"rental_uris":{"android":"levelo://app?vid=38b8a45d-d1f9-4e9f-9723-eede7dbe1055","ios":"levelo://app?vid=38b8a45d-d1f9-4e9f-9723-eede7dbe1055"},"vehicle_type_id":"4","last_reported":1737994277,"current_range_meters":32000,"station_id":"ce4bhnp2rcd13ifvqh0g","pricing_plan_id":"cebpf4jnsgd1na2vs0mg"},{"bike_id":"dd704602-b2bd-4f89-9213-a81ce54a9d13","system_id":"levelo_inurba_marseille","lat":43.30518,"lon":5.36543,"is_reserved":false,"is_disabled":false,"rental_uris":{"android":"levelo://app?vid=dd704602-b2bd-4f89-9213-a81ce54a9d13","ios":"levelo://app?vid=dd704602-b2bd-4f89-9213-a81ce54a9d13"},"vehicle_type_id":"4","last_reported":1737994277,"current_range_meters":26800,"station_id":"","pricing_plan_id":"cebpf4jnsgd1na2vs0mg"},{"bike_id":"4bd5de1a-99c3-4b8a-ac3d-e4e0c9fc1d4a","system_id":"levelo_inurba_marseille","lat":43.3208,"lon":5.36799,"is_reserved":false,"is_disabled":false,"rental_uris":{"android":"levelo://app?vid=4bd5de1a-99c3-4b8a-ac3d-e4e0c9fc1d4a","ios":"levelo://app?vid=4bd5de1a-99c3-4b8a-ac3d-e4e0c9fc1d4a"},"vehicle_type_id":"4","last_reported":1737994277,"current_range_meters":8400,"station_id":"ce4bhrh2rcd13ifvqhug","pricing_plan_id":"cebpf4jnsgd1na2vs0mg"},{"bike_id":"81af3ef8-a1be-4900-bc40-665c674f2299","system_id":"levelo_inurba_marseille","lat":43.3053,"lon":5.36496,"is_reserved":false,"is_disabled":false,"rental_uris":{"android":"levelo://app?vid=81af3ef8-a1be-4900-bc40-665c674f2299","ios":"levelo://app?vid=81af3ef8-a1be-4900-bc40-665c674f2299"},"vehicle_type_id":"4","last_reported":1737994277,"current_range_meters":27600,"station_id":"","pricing_plan_id":"cebpf4jnsgd1na2vs0mg"},{"bike_id":"30e19aed-21c0-4e2e-b5de-2be87060f860","system_id":"levelo_inurba_marseille","lat":43.28144,"lon":5.42659,"is_reserved":false,"is_disabled":false,"rental_uris":{"android":"levelo://app?vid=30e19aed-21c0-4e2e-b5de-2be87060f860","ios":"levelo://app?vid=30e19aed-21c0-4e2e-b5de-2be87060f860"},"vehicle_type_id":"4","last_reported":1737994277,"current_range_meters":33600,"station_id":"ce4bhnh2rcd13ifvqgug","pricing_plan_id":"cebpf4jnsgd1na2vs0mg"},{"bike_id":"d6755dc8-d9a9-49dc-8a8f-22ec6b86e111","system_id":"levelo_inurba_marseille","lat":43.28159,"lon":5.42632,"is_reserved":false,"is_disabled":false,"rental_uris":{"android":"levelo://app?vid=d6755dc8-d9a9-49dc-8a8f-22ec6b86e111","ios":"levelo://app?vid=d6755dc8-d9a9-49dc-8a8f-22ec6b86e111"},"vehicle_type_id":"4","last_reported":1737994277,"current_range_meters":28800,"station_id":"ce4bhnh2rcd13ifvqgug","pricing_plan_id":"cebpf4jnsgd1na2vs0mg"},{"bike_id":"b3ebe15b-bc94-460b-8776-1dabe9cc5cd8","system_id":"levelo_inurba_marseille","lat":43.26574,"lon":5.39023,"is_reserved":false,"is_disabled":false,"rental_uris":{"android":"levelo://app?vid=b3ebe15b-bc94-460b-8776-1dabe9cc5cd8","ios":"levelo://app?vid=b3ebe15b-bc94-460b-8776-1dabe9cc5cd8"},"vehicle_type_id":"4","last_reported":1737994277,"current_range_meters":25200,"station_id":"ce4bhe12rcd13ifvqf30","pricing_plan_id":"cebpf4jnsgd1na2vs0mg"},{"bike_id":"c96545e6-b3fa-4a6b-836e-d89ea478e5d1","system_id":"levelo_inurba_marseille","lat":43.25008,"lon":5.38918,"is_reserved":false,"is_disabled":false,"rental_uris":{"android":"levelo://app?vid=c96545e6-b3fa-4a6b-836e-d89ea478e5d1","ios":"levelo://app?vid=c96545e6-b3fa-4a6b-836e-d89ea478e5d1"},"vehicle_type_id":"4","last_reported":1737994277,"current_range_meters":38800,"station_id":"ce4bhgp2rcd13ifvqfd0","pricing_plan_id":"cebpf4jnsgd1na2vs0mg"},{"bike_id":"cfff1edf-189f-4cb0-80dd-22014a7dc63a","system_id":"levelo_inurba_marseille","lat":43.24836,"lon":5.37455,"is_reserved":false,"is_disabled":false,"rental_uris":{"android":"levelo://app?vid=cfff1edf-189f-4cb0-80dd-22014a7dc63a","ios":"levelo://app?vid=cfff1edf-189f-4cb0-80dd-22014a7dc63a"},"vehicle_type_id":"4","last_reported":1737994277,"current_range_meters":24400,"station_id":"ce4bhgh2rcd13ifvqfb0","pricing_plan_id":"cebpf4jnsgd1na2vs0mg"},{"bike_id":"5a6503ca-c2c6-4dbe-a6f7-68e5f1916ac2","system_id":"levelo_inurba_marseille","lat":43.29902,"lon":5.43671,"is_reserved":false,"is_disabled":false,"rental_uris":{"android":"levelo://app?vid=5a6503ca-c2c6-4dbe-a6f7-68e5f1916ac2","ios":"levelo://app?vid=5a6503ca-c2c6-4dbe-a6f7-68e5f1916ac2"},"vehicle_type_id":"4","last_reported":1737994277,"current_range_meters":38800,"station_id":"ce4bhpp2rcd13ifvqhfg","pricing_plan_id":"cebpf4jnsgd1na2vs0mg"},{"bike_id":"5c388708-e3f2-4bbd-88d9-c199a31e81f9","system_id":"levelo_inurba_marseille","lat":43.28708,"lon":5.39991,"is_reserved":false,"is_disabled":true,"rental_uris":{"android":"levelo://app?vid=5c388708-e3f2-4bbd-88d9-c199a31e81f9","ios":"levelo://app?vid=5c388708-e3f2-4bbd-88d9-c199a31e81f9"},"vehicle_type_id":"4","last_reported":1737994277,"current_range_meters":38800,"station_id":"ce4bho92rcd13ifvqh3g","pricing_plan_id":"cebpf4jnsgd1na2vs0mg"},{"bike_id":"a39bdd92-cc80-4543-9164-5d9d642acae9","system_id":"levelo_inurba_marseille","lat":43.29852,"lon":5.36281,"is_reserved":false,"is_disabled":false,"rental_uris":{"android":"levelo://app?vid=a39bdd92-cc80-4543-9164-5d9d642acae9","ios":"levelo://app?vid=a39bdd92-cc80-4543-9164-5d9d642acae9"},"vehicle_type_id":"4","last_reported":1737994277,"current_range_meters":30400,"station_id":"ce4bgpp2rcd13ifvqc3g","pricing_plan_id":"cebpf4jnsgd1na2vs0mg"},{"bike_id":"79fa774c-277f-4013-883c-6610f98281e7","system_id":"levelo_inurba_marseille","lat":43.2757,"lon":5.38407,"is_reserved":false,"is_disabled":true,"rental_uris":{"android":"levelo://app?vid=79fa774c-277f-4013-883c-6610f98281e7","ios":"levelo://app?vid=79fa774c-277f-4013-883c-6610f98281e7"},"vehicle_type_id":"4","last_reported":1737994277,"current_range_meters":0,"station_id":"ce4bhh92rcd13ifvqfi0","pricing_plan_id":"cebpf4jnsgd1na2vs0mg"},{"bike_id":"49ac70a6-f431-448f-8b78-0c0b9150bb51","system_id":"levelo_inurba_marseille","lat":43.31269,"lon":5.40165,"is_reserved":false,"is_disabled":false,"rental_uris":{"android":"levelo://app?vid=49ac70a6-f431-448f-8b78-0c0b9150bb51","ios":"levelo://app?vid=49ac70a6-f431-448f-8b78-0c0b9150bb51"},"vehicle_type_id":"4","last_reported":1737994277,"current_range_meters":39200,"station_id":"ce4bh092rcd13ifvqd30","pricing_plan_id":"cebpf4jnsgd1na2vs0mg"},{"bike_id":"7db57a3e-f5ef-4b3b-8ad0-930a3697c8fc","system_id":"levelo_inurba_marseille","lat":43.31367,"lon":5.38501,"is_reserved":false,"is_disabled":false,"rental_uris":{"android":"levelo://app?vid=7db57a3e-f5ef-4b3b-8ad0-930a3697c8fc","ios":"levelo://app?vid=7db57a3e-f5ef-4b3b-8ad0-930a3697c8fc"},"vehicle_type_id":"4","last_reported":1737994277,"current_range_meters":33600,"station_id":"ce4bgt92rcd13ifvqcf0","pricing_plan_id":"cebpf4jnsgd1na2vs0mg"},{"bike_id":"e36a4602-82e3-44ba-9635-f30a8e900634","system_id":"levelo_inurba_marseille","lat":43.23151,"lon":5.43726,"is_reserved":false,"is_disabled":true,"rental_uris":{"android":"levelo://app?vid=e36a4602-82e3-44ba-9635-f30a8e900634","ios":"levelo://app?vid=e36a4602-82e3-44ba-9635-f30a8e900634"},"vehicle_type_id":"4","last_reported":1737994277,"current_range_meters":0,"station_id":"ce4bhmp2rcd13ifvqgog","pricing_plan_id":"cebpf4jnsgd1na2vs0mg"},{"bike_id":"be211cb3-919e-4b11-860e-ece734f60277","system_id":"levelo_inurba_marseille","lat":43.28703,"lon":5.37388,"is_reserved":false,"is_disabled":false,"rental_uris":{"android":"levelo://app?vid=be211cb3-919e-4b11-860e-ece734f60277","ios":"levelo://app?vid=be211cb3-919e-4b11-860e-ece734f60277"},"vehicle_type_id":"4","last_reported":1737994277,"current_range_meters":11600,"station_id":"ce4bh3p2rcd13ifvqdq0","pricing_plan_id":"cebpf4jnsgd1na2vs0mg"},{"bike_id":"ab35d27f-23ca-4da0-b3cc-5b670b00fe3e","system_id":"levelo_inurba_marseille","lat":43.30182,"lon":5.36611,"is_reserved":false,"is_disabled":false,"rental_uris":{"android":"levelo://app?vid=ab35d27f-23ca-4da0-b3cc-5b670b00fe3e","ios":"levelo://app?vid=ab35d27f-23ca-4da0-b3cc-5b670b00fe3e"},"vehicle_type_id":"4","last_reported":1737994277,"current_range_meters":38800,"station_id":"ce4bgrh2rcd13ifvqc8g","pricing_plan_id":"cebpf4jnsgd1na2vs0mg"},{"bike_id":"3b0ad018-9506-4122-b6af-7f20f0cf4b3b","system_id":"levelo_inurba_marseille","lat":43.28607,"lon":5.35106,"is_reserved":false,"is_disabled":false,"rental_uris":{"android":"levelo://app?vid=3b0ad018-9506-4122-b6af-7f20f0cf4b3b","ios":"levelo://app?vid=3b0ad018-9506-4122-b6af-7f20f0cf4b3b"},"vehicle_type_id":"4","last_reported":1737994277,"current_range_meters":31200,"station_id":"ce4bhch2rcd13ifvqeug","pricing_plan_id":"cebpf4jnsgd1na2vs0mg"},{"bike_id":"1193bcfd-9ae1-467c-84eb-62677d48ce09","system_id":"levelo_inurba_marseille","lat":43.29876,"lon":5.39728,"is_reserved":false,"is_disabled":false,"rental_uris":{"android":"levelo://app?vid=1193bcfd-9ae1-467c-84eb-62677d48ce09","ios":"levelo://app?vid=1193bcfd-9ae1-467c-84eb-62677d48ce09"},"vehicle_type_id":"4","last_reported":1737994277,"current_range_meters":29600,"station_id":"ce4bh0h2rcd13ifvqd50","pricing_plan_id":"cebpf4jnsgd1na2vs0mg"},{"bike_id":"8453a0c4-33e9-480c-a7ee-1e14bdee2642","system_id":"levelo_inurba_marseille","lat":43.27887,"lon":5.39608,"is_reserved":false,"is_disabled":false,"rental_uris":{"android":"levelo://app?vid=8453a0c4-33e9-480c-a7ee-1e14bdee2642","ios":"levelo://app?vid=8453a0c4-33e9-480c-a7ee-1e14bdee2642"},"vehicle_type_id":"4","last_reported":1737994277,"current_range_meters":3600,"station_id":"ce4bhf92rcd13ifvqf40","pricing_plan_id":"cebpf4jnsgd1na2vs0mg"},{"bike_id":"b92110b7-a00c-4b0a-b2e8-36af254e050e","system_id":"levelo_inurba_marseille","lat":43.30807,"lon":5.43513,"is_reserved":false,"is_disabled":false,"rental_uris":{"android":"levelo://app?vid=b92110b7-a00c-4b0a-b2e8-36af254e050e","ios":"levelo://app?vid=b92110b7-a00c-4b0a-b2e8-36af254e050e"},"vehicle_type_id":"4","last_reported":1737994277,"current_range_meters":22400,"station_id":"ce4bhph2rcd13ifvqheg","pricing_plan_id":"cebpf4jnsgd1na2vs0mg"},{"bike_id":"653d8d6e-7fce-4665-8f1b-562f4e723745","system_id":"levelo_inurba_marseille","lat":43.28992,"lon":5.38518,"is_reserved":false,"is_disabled":false,"rental_uris":{"android":"levelo://app?vid=653d8d6e-7fce-4665-8f1b-562f4e723745","ios":"levelo://app?vid=653d8d6e-7fce-4665-8f1b-562f4e723745"},"vehicle_type_id":"4","last_reported":1737994277,"current_range_meters":36400,"station_id":"ce4bh4p2rcd13ifvqe0g","pricing_plan_id":"cebpf4jnsgd1na2vs0mg"},{"bike_id":"b2a77bcb-8636-4783-bb85-a20e6eec5fb2","system_id":"levelo_inurba_marseille","lat":43.27664,"lon":5.38926,"is_reserved":false,"is_disabled":false,"rental_uris":{"android":"levelo://app?vid=b2a77bcb-8636-4783-bb85-a20e6eec5fb2","ios":"levelo://app?vid=b2a77bcb-8636-4783-bb85-a20e6eec5fb2"},"vehicle_type_id":"4","last_reported":1737994277,"current_range_meters":30000,"station_id":"ce4bhi12rcd13ifvqfo0","pricing_plan_id":"cebpf4jnsgd1na2vs0mg"},{"bike_id":"4dc565cc-a3bd-411f-a8e9-38ac6331d3d4","system_id":"levelo_inurba_marseille","lat":43.23059,"lon":5.35498,"is_reserved":false,"is_disabled":false,"rental_uris":{"android":"levelo://app?vid=4dc565cc-a3bd-411f-a8e9-38ac6331d3d4","ios":"levelo://app?vid=4dc565cc-a3bd-411f-a8e9-38ac6331d3d4"},"vehicle_type_id":"4","last_reported":1737994277,"current_range_meters":38800,"station_id":"cpo3342slgdg3j2ifvpg","pricing_plan_id":"cebpf4jnsgd1na2vs0mg"},{"bike_id":"2871edc1-4e28-494d-b206-2595f786a8ec","system_id":"levelo_inurba_marseille","lat":43.31109,"lon":5.37779,"is_reserved":false,"is_disabled":false,"rental_uris":{"android":"levelo://app?vid=2871edc1-4e28-494d-b206-2595f786a8ec","ios":"levelo://app?vid=2871edc1-4e28-494d-b206-2595f786a8ec"},"vehicle_type_id":"4","last_reported":1737994277,"current_range_meters":36000,"station_id":"ce4bgt92rcd13ifvqcg0","pricing_plan_id":"cebpf4jnsgd1na2vs0mg"},{"bike_id":"6adc5ca7-0c2c-4563-b34e-99dac6c709d8","system_id":"levelo_inurba_marseille","lat":43.29912,"lon":5.37818,"is_reserved":false,"is_disabled":true,"rental_uris":{"android":"levelo://app?vid=6adc5ca7-0c2c-4563-b34e-99dac6c709d8","ios":"levelo://app?vid=6adc5ca7-0c2c-4563-b34e-99dac6c709d8"},"vehicle_type_id":"4","last_reported":1737994277,"current_range_meters":0,"station_id":"","pricing_plan_id":"cebpf4jnsgd1na2vs0mg"},{"bike_id":"3c588675-b5fb-4740-a4e1-85adb19ec37b","system_id":"levelo_inurba_marseille","lat":43.305644,"lon":5.365562,"is_reserved":false,"is_disabled":false,"rental_uris":{"android":"levelo://app?vid=3c588675-b5fb-4740-a4e1-85adb19ec37b","ios":"levelo://app?vid=3c588675-b5fb-4740-a4e1-85adb19ec37b"},"vehicle_type_id":"4","last_reported":1737994277,"current_range_meters":30000,"station_id":"ce4bgs12rcd13ifvqcag","pricing_plan_id":"cebpf4jnsgd1na2vs0mg"},{"bike_id":"aebdfd3b-e667-4f60-92ad-e93561b39fe8","system_id":"levelo_inurba_marseille","lat":43.29427,"lon":5.38612,"is_reserved":false,"is_disabled":false,"rental_uris":{"android":"levelo://app?vid=aebdfd3b-e667-4f60-92ad-e93561b39fe8","ios":"levelo://app?vid=aebdfd3b-e667-4f60-92ad-e93561b39fe8"},"vehicle_type_id":"4","last_reported":1737994277,"current_range_meters":24000,"station_id":"ce4bh2h2rcd13ifvqdh0","pricing_plan_id":"cebpf4jnsgd1na2vs0mg"},{"bike_id":"6311e2e7-a92e-4e82-b045-284985bec0c7","system_id":"levelo_inurba_marseille","lat":43.31723,"lon":5.42392,"is_reserved":false,"is_disabled":false,"rental_uris":{"android":"levelo://app?vid=6311e2e7-a92e-4e82-b045-284985bec0c7","ios":"levelo://app?vid=6311e2e7-a92e-4e82-b045-284985bec0c7"},"vehicle_type_id":"4","last_reported":1737994277,"current_range_meters":26000,"station_id":"ce4bhp92rcd13ifvqhbg","pricing_plan_id":"cebpf4jnsgd1na2vs0mg"},{"bike_id":"0dc00c7c-3293-4cbd-8dc1-c2db535950c4","system_id":"levelo_inurba_marseille","lat":43.29539,"lon":5.42274,"is_reserved":false,"is_disabled":false,"rental_uris":{"android":"levelo://app?vid=0dc00c7c-3293-4cbd-8dc1-c2db535950c4","ios":"levelo://app?vid=0dc00c7c-3293-4cbd-8dc1-c2db535950c4"},"vehicle_type_id":"4","last_reported":1737994277,"current_range_meters":6400,"station_id":"ce4bhph2rcd13ifvqhdg","pricing_plan_id":"cebpf4jnsgd1na2vs0mg"},{"bike_id":"5fa91e23-39be-4ce6-b81e-223655171952","system_id":"levelo_inurba_marseille","lat":43.27053,"lon":5.40266,"is_reserved":false,"is_disabled":false,"rental_uris":{"android":"levelo://app?vid=5fa91e23-39be-4ce6-b81e-223655171952","ios":"levelo://app?vid=5fa91e23-39be-4ce6-b81e-223655171952"},"vehicle_type_id":"4","last_reported":1737994277,"current_range_meters":38400,"station_id":"ce4bhk92rcd13ifvqgc0","pricing_plan_id":"cebpf4jnsgd1na2vs0mg"},{"bike_id":"c7830262-ea23-45f4-9a23-990ed17ebf09","system_id":"levelo_inurba_marseille","lat":43.29814,"lon":5.39744,"is_reserved":false,"is_disabled":true,"rental_uris":{"android":"levelo://app?vid=c7830262-ea23-45f4-9a23-990ed17ebf09","ios":"levelo://app?vid=c7830262-ea23-45f4-9a23-990ed17ebf09"},"vehicle_type_id":"4","last_reported":1737994277,"current_range_meters":0,"station_id":"","pricing_plan_id":"cebpf4jnsgd1na2vs0mg"},{"bike_id":"de3ef5a7-c093-45e7-8274-df23279bf965","system_id":"levelo_inurba_marseille","lat":43.24659,"lon":5.38161,"is_reserved":false,"is_disabled":false,"rental_uris":{"android":"levelo://app?vid=de3ef5a7-c093-45e7-8274-df23279bf965","ios":"levelo://app?vid=de3ef5a7-c093-45e7-8274-df23279bf965"},"vehicle_type_id":"4","last_reported":1737994277,"current_range_meters":14400,"station_id":"ce4bhih2rcd13ifvqfr0","pricing_plan_id":"cebpf4jnsgd1na2vs0mg"},{"bike_id":"84f44d72-50e5-457c-a458-6a0082a204e3","system_id":"levelo_inurba_marseille","lat":43.29846,"lon":5.36273,"is_reserved":false,"is_disabled":false,"rental_uris":{"android":"levelo://app?vid=84f44d72-50e5-457c-a458-6a0082a204e3","ios":"levelo://app?vid=84f44d72-50e5-457c-a458-6a0082a204e3"},"vehicle_type_id":"4","last_reported":1737994277,"current_range_meters":34000,"station_id":"ce4bgpp2rcd13ifvqc3g","pricing_plan_id":"cebpf4jnsgd1na2vs0mg"},{"bike_id":"7fc942fc-b8cf-424a-806f-ec87840357cf","system_id":"levelo_inurba_marseille","lat":43.27207,"lon":5.40985,"is_reserved":false,"is_disabled":false,"rental_uris":{"android":"levelo://app?vid=7fc942fc-b8cf-424a-806f-ec87840357cf","ios":"levelo://app?vid=7fc942fc-b8cf-424a-806f-ec87840357cf"},"vehicle_type_id":"4","last_reported":1737994277,"current_range_meters":36000,"station_id":"ce4bhl12rcd13ifvqgf0","pricing_plan_id":"cebpf4jnsgd1na2vs0mg"},{"bike_id":"44539425-9baa-4d38-afc4-87d18b64ccf2","system_id":"levelo_inurba_marseille","lat":43.27063,"lon":5.40256,"is_reserved":false,"is_disabled":false,"rental_uris":{"android":"levelo://app?vid=44539425-9baa-4d38-afc4-87d18b64ccf2","ios":"levelo://app?vid=44539425-9baa-4d38-afc4-87d18b64ccf2"},"vehicle_type_id":"4","last_reported":1737994277,"current_range_meters":16800,"station_id":"ce4bhk92rcd13ifvqgc0","pricing_plan_id":"cebpf4jnsgd1na2vs0mg"},{"bike_id":"11ba3b1e-84b5-4609-901b-fe845e306d2e","system_id":"levelo_inurba_marseille","lat":43.32511,"lon":5.36529,"is_reserved":false,"is_disabled":false,"rental_uris":{"android":"levelo://app?vid=11ba3b1e-84b5-4609-901b-fe845e306d2e","ios":"levelo://app?vid=11ba3b1e-84b5-4609-901b-fe845e306d2e"},"vehicle_type_id":"4","last_reported":1737994277,"current_range_meters":33200,"station_id":"ce4bhs12rcd13ifvqhvg","pricing_plan_id":"cebpf4jnsgd1na2vs0mg"},{"bike_id":"ea731655-9044-43d1-b87a-3034f031edd9","system_id":"levelo_inurba_marseille","lat":43.28279,"lon":5.35069,"is_reserved":false,"is_disabled":false,"rental_uris":{"android":"levelo://app?vid=ea731655-9044-43d1-b87a-3034f031edd9","ios":"levelo://app?vid=ea731655-9044-43d1-b87a-3034f031edd9"},"vehicle_type_id":"4","last_reported":1737994277,"current_range_meters":20400,"station_id":"ce4bhbp2rcd13ifvqerg","pricing_plan_id":"cebpf4jnsgd1na2vs0mg"},{"bike_id":"3ec52b4d-cf80-449d-bd30-9db7519a9ed7","system_id":"levelo_inurba_marseille","lat":43.2706,"lon":5.4026,"is_reserved":false,"is_disabled":false,"rental_uris":{"android":"levelo://app?vid=3ec52b4d-cf80-449d-bd30-9db7519a9ed7","ios":"levelo://app?vid=3ec52b4d-cf80-449d-bd30-9db7519a9ed7"},"vehicle_type_id":"4","last_reported":1737994277,"current_range_meters":10800,"station_id":"ce4bhk92rcd13ifvqgc0","pricing_plan_id":"cebpf4jnsgd1na2vs0mg"},{"bike_id":"4d8fa88d-82ca-4f2b-b7a2-2e833f9a7348","system_id":"levelo_inurba_marseille","lat":43.25494,"lon":5.37647,"is_reserved":false,"is_disabled":false,"rental_uris":{"android":"levelo://app?vid=4d8fa88d-82ca-4f2b-b7a2-2e833f9a7348","ios":"levelo://app?vid=4d8fa88d-82ca-4f2b-b7a2-2e833f9a7348"},"vehicle_type_id":"4","last_reported":1737994277,"current_range_meters":32000,"station_id":"ce4bhh12rcd13ifvqff0","pricing_plan_id":"cebpf4jnsgd1na2vs0mg"},{"bike_id":"47170eef-7e8a-4b8d-90bc-71d6406c4168","system_id":"levelo_inurba_marseille","lat":43.31769,"lon":5.37184,"is_reserved":false,"is_disabled":true,"rental_uris":{"android":"levelo://app?vid=47170eef-7e8a-4b8d-90bc-71d6406c4168","ios":"levelo://app?vid=47170eef-7e8a-4b8d-90bc-71d6406c4168"},"vehicle_type_id":"4","last_reported":1737994277,"current_range_meters":1200,"station_id":"","pricing_plan_id":"cebpf4jnsgd1na2vs0mg"},{"bike_id":"9838cc78-2b53-49d3-ae13-82df62c4fd64","system_id":"levelo_inurba_marseille","lat":43.28406,"lon":5.40936,"is_reserved":false,"is_disabled":true,"rental_uris":{"android":"levelo://app?vid=9838cc78-2b53-49d3-ae13-82df62c4fd64","ios":"levelo://app?vid=9838cc78-2b53-49d3-ae13-82df62c4fd64"},"vehicle_type_id":"4","last_reported":1737994277,"current_range_meters":0,"station_id":"","pricing_plan_id":"cebpf4jnsgd1na2vs0mg"},{"bike_id":"1fbd0989-d836-42de-a916-b51178d1e45d","system_id":"levelo_inurba_marseille","lat":43.29039,"lon":5.38652,"is_reserved":false,"is_disabled":false,"rental_uris":{"android":"levelo://app?vid=1fbd0989-d836-42de-a916-b51178d1e45d","ios":"levelo://app?vid=1fbd0989-d836-42de-a916-b51178d1e45d"},"vehicle_type_id":"4","last_reported":1737994277,"current_range_meters":30800,"station_id":"ce4bh4p2rcd13ifvqe0g","pricing_plan_id":"cebpf4jnsgd1na2vs0mg"},{"bike_id":"f3a886a3-500d-4d32-a120-4a7101c0f911","system_id":"levelo_inurba_marseille","lat":43.26933,"lon":5.40258,"is_reserved":false,"is_disabled":false,"rental_uris":{"android":"levelo://app?vid=f3a886a3-500d-4d32-a120-4a7101c0f911","ios":"levelo://app?vid=f3a886a3-500d-4d32-a120-4a7101c0f911"},"vehicle_type_id":"4","last_reported":1737994277,"current_range_meters":39200,"station_id":"cjm6bp8fraef2m0cb0m0","pricing_plan_id":"cebpf4jnsgd1na2vs0mg"},{"bike_id":"2ef0adf6-e7cf-4577-a5bd-c1894e912a58","system_id":"levelo_inurba_marseille","lat":43.29973,"lon":5.37174,"is_reserved":false,"is_disabled":false,"rental_uris":{"android":"levelo://app?vid=2ef0adf6-e7cf-4577-a5bd-c1894e912a58","ios":"levelo://app?vid=2ef0adf6-e7cf-4577-a5bd-c1894e912a58"},"vehicle_type_id":"4","last_reported":1737994277,"current_range_meters":33200,"station_id":"ce4bgr92rcd13ifvqc7g","pricing_plan_id":"cebpf4jnsgd1na2vs0mg"},{"bike_id":"266bce9b-ceec-4725-a357-412807926d04","system_id":"levelo_inurba_marseille","lat":43.28457,"lon":5.35887,"is_reserved":false,"is_disabled":false,"rental_uris":{"android":"levelo://app?vid=266bce9b-ceec-4725-a357-412807926d04","ios":"levelo://app?vid=266bce9b-ceec-4725-a357-412807926d04"},"vehicle_type_id":"4","last_reported":1737994277,"current_range_meters":35200,"station_id":"ce4bhah2rcd13ifvqei0","pricing_plan_id":"cebpf4jnsgd1na2vs0mg"},{"bike_id":"f5558214-b4be-49a5-9317-5ff426fd90ba","system_id":"levelo_inurba_marseille","lat":43.30808,"lon":5.43526,"is_reserved":false,"is_disabled":false,"rental_uris":{"android":"levelo://app?vid=f5558214-b4be-49a5-9317-5ff426fd90ba","ios":"levelo://app?vid=f5558214-b4be-49a5-9317-5ff426fd90ba"},"vehicle_type_id":"4","last_reported":1737994277,"current_range_meters":19600,"station_id":"ce4bhph2rcd13ifvqheg","pricing_plan_id":"cebpf4jnsgd1na2vs0mg"},{"bike_id":"0151d69d-0e05-4ebd-a126-8832d73f584c","system_id":"levelo_inurba_marseille","lat":43.29038,"lon":5.386535,"is_reserved":false,"is_disabled":false,"rental_uris":{"android":"levelo://app?vid=0151d69d-0e05-4ebd-a126-8832d73f584c","ios":"levelo://app?vid=0151d69d-0e05-4ebd-a126-8832d73f584c"},"vehicle_type_id":"4","last_reported":1737994277,"current_range_meters":24000,"station_id":"ce4bh4p2rcd13ifvqe0g","pricing_plan_id":"cebpf4jnsgd1na2vs0mg"},{"bike_id":"d2e2f680-91e7-40b9-adc8-2fcb7121a2db","system_id":"levelo_inurba_marseille","lat":43.27572,"lon":5.38424,"is_reserved":false,"is_disabled":false,"rental_uris":{"android":"levelo://app?vid=d2e2f680-91e7-40b9-adc8-2fcb7121a2db","ios":"levelo://app?vid=d2e2f680-91e7-40b9-adc8-2fcb7121a2db"},"vehicle_type_id":"4","last_reported":1737994277,"current_range_meters":38400,"station_id":"ce4bhh92rcd13ifvqfi0","pricing_plan_id":"cebpf4jnsgd1na2vs0mg"},{"bike_id":"93ebabb3-1a56-423f-9232-27d7ff9739df","system_id":"levelo_inurba_marseille","lat":43.27947,"lon":5.4103,"is_reserved":false,"is_disabled":false,"rental_uris":{"android":"levelo://app?vid=93ebabb3-1a56-423f-9232-27d7ff9739df","ios":"levelo://app?vid=93ebabb3-1a56-423f-9232-27d7ff9739df"},"vehicle_type_id":"4","last_reported":1737994277,"current_range_meters":7200,"station_id":"ce4bhnp2rcd13ifvqh0g","pricing_plan_id":"cebpf4jnsgd1na2vs0mg"},{"bike_id":"e4f81e6e-bff5-48ee-9cf0-1a2de2d7d1eb","system_id":"levelo_inurba_marseille","lat":43.3127,"lon":5.40162,"is_reserved":false,"is_disabled":false,"rental_uris":{"android":"levelo://app?vid=e4f81e6e-bff5-48ee-9cf0-1a2de2d7d1eb","ios":"levelo://app?vid=e4f81e6e-bff5-48ee-9cf0-1a2de2d7d1eb"},"vehicle_type_id":"4","last_reported":1737994277,"current_range_meters":20000,"station_id":"ce4bh092rcd13ifvqd30","pricing_plan_id":"cebpf4jnsgd1na2vs0mg"},{"bike_id":"2e0a8b86-b457-48a0-8577-213b01080398","system_id":"levelo_inurba_marseille","lat":43.23204,"lon":5.35541,"is_reserved":false,"is_disabled":false,"rental_uris":{"android":"levelo://app?vid=2e0a8b86-b457-48a0-8577-213b01080398","ios":"levelo://app?vid=2e0a8b86-b457-48a0-8577-213b01080398"},"vehicle_type_id":"4","last_reported":1737994277,"current_range_meters":38800,"station_id":"ce4bhu92rcd13ifvqi70","pricing_plan_id":"cebpf4jnsgd1na2vs0mg"},{"bike_id":"d2e14334-91cf-4683-8086-fad56bb3beac","system_id":"levelo_inurba_marseille","lat":43.30546,"lon":5.36533,"is_reserved":false,"is_disabled":false,"rental_uris":{"android":"levelo://app?vid=d2e14334-91cf-4683-8086-fad56bb3beac","ios":"levelo://app?vid=d2e14334-91cf-4683-8086-fad56bb3beac"},"vehicle_type_id":"4","last_reported":1737994277,"current_range_meters":24800,"station_id":"ce4bgs12rcd13ifvqcag","pricing_plan_id":"cebpf4jnsgd1na2vs0mg"},{"bike_id":"eefc26b4-ceeb-447b-96e9-86927bc262df","system_id":"levelo_inurba_marseille","lat":43.27885,"lon":5.38015,"is_reserved":false,"is_disabled":false,"rental_uris":{"android":"levelo://app?vid=eefc26b4-ceeb-447b-96e9-86927bc262df","ios":"levelo://app?vid=eefc26b4-ceeb-447b-96e9-86927bc262df"},"vehicle_type_id":"4","last_reported":1737994277,"current_range_meters":25200,"station_id":"ce4bhf92rcd13ifvqf50","pricing_plan_id":"cebpf4jnsgd1na2vs0mg"},{"bike_id":"d979d8d2-ec65-47af-9229-e4270aab279a","system_id":"levelo_inurba_marseille","lat":43.2306,"lon":5.35501,"is_reserved":false,"is_disabled":false,"rental_uris":{"android":"levelo://app?vid=d979d8d2-ec65-47af-9229-e4270aab279a","ios":"levelo://app?vid=d979d8d2-ec65-47af-9229-e4270aab279a"},"vehicle_type_id":"4","last_reported":1737994277,"current_range_meters":27600,"station_id":"cpo3342slgdg3j2ifvpg","pricing_plan_id":"cebpf4jnsgd1na2vs0mg"},{"bike_id":"69453811-0668-4f22-9cb7-f3a91f7c9d8f","system_id":"levelo_inurba_marseille","lat":43.30575,"lon":5.3653,"is_reserved":false,"is_disabled":false,"rental_uris":{"android":"levelo://app?vid=69453811-0668-4f22-9cb7-f3a91f7c9d8f","ios":"levelo://app?vid=69453811-0668-4f22-9cb7-f3a91f7c9d8f"},"vehicle_type_id":"4","last_reported":1737994277,"current_range_meters":29600,"station_id":"ce4bgs12rcd13ifvqcag","pricing_plan_id":"cebpf4jnsgd1na2vs0mg"},{"bike_id":"dec238e5-b30b-47c1-9dd2-b2ba63783c29","system_id":"levelo_inurba_marseille","lat":43.298,"lon":5.40413,"is_reserved":false,"is_disabled":false,"rental_uris":{"android":"levelo://app?vid=dec238e5-b30b-47c1-9dd2-b2ba63783c29","ios":"levelo://app?vid=dec238e5-b30b-47c1-9dd2-b2ba63783c29"},"vehicle_type_id":"4","last_reported":1737994277,"current_range_meters":36800,"station_id":"ce4bh112rcd13ifvqd90","pricing_plan_id":"cebpf4jnsgd1na2vs0mg"},{"bike_id":"eecca6bf-8b74-40da-aaa1-519ada23f008","system_id":"levelo_inurba_marseille","lat":43.26805,"lon":5.4026,"is_reserved":false,"is_disabled":false,"rental_uris":{"android":"levelo://app?vid=eecca6bf-8b74-40da-aaa1-519ada23f008","ios":"levelo://app?vid=eecca6bf-8b74-40da-aaa1-519ada23f008"},"vehicle_type_id":"4","last_reported":1737994277,"current_range_meters":25600,"station_id":"ce501612rcd8frsf0b60","pricing_plan_id":"cebpf4jnsgd1na2vs0mg"},{"bike_id":"ae00de2f-f31f-40c5-afd5-77a43823ef3d","system_id":"levelo_inurba_marseille","lat":43.33022,"lon":5.39043,"is_reserved":false,"is_disabled":false,"rental_uris":{"android":"levelo://app?vid=ae00de2f-f31f-40c5-afd5-77a43823ef3d","ios":"levelo://app?vid=ae00de2f-f31f-40c5-afd5-77a43823ef3d"},"vehicle_type_id":"4","last_reported":1737994277,"current_range_meters":38800,"station_id":"ce4bhr92rcd13ifvqhrg","pricing_plan_id":"cebpf4jnsgd1na2vs0mg"},{"bike_id":"cac25317-4594-415a-8b2e-66e67346c82c","system_id":"levelo_inurba_marseille","lat":43.30101,"lon":5.391,"is_reserved":false,"is_disabled":false,"rental_uris":{"android":"levelo://app?vid=cac25317-4594-415a-8b2e-66e67346c82c","ios":"levelo://app?vid=cac25317-4594-415a-8b2e-66e67346c82c"},"vehicle_type_id":"4","last_reported":1737994277,"current_range_meters":19600,"station_id":"ce4bh192rcd13ifvqdb0","pricing_plan_id":"cebpf4jnsgd1na2vs0mg"},{"bike_id":"d1e2d0d6-237f-499a-bcae-675bc74aab79","system_id":"levelo_inurba_marseille","lat":43.30195,"lon":5.36625,"is_reserved":false,"is_disabled":false,"rental_uris":{"android":"levelo://app?vid=d1e2d0d6-237f-499a-bcae-675bc74aab79","ios":"levelo://app?vid=d1e2d0d6-237f-499a-bcae-675bc74aab79"},"vehicle_type_id":"4","last_reported":1737994277,"current_range_meters":38800,"station_id":"ce4bgrh2rcd13ifvqc8g","pricing_plan_id":"cebpf4jnsgd1na2vs0mg"},{"bike_id":"15c84c21-5bce-4804-8fe2-0ed6162b0c96","system_id":"levelo_inurba_marseille","lat":43.29603,"lon":5.381,"is_reserved":false,"is_disabled":false,"rental_uris":{"android":"levelo://app?vid=15c84c21-5bce-4804-8fe2-0ed6162b0c96","ios":"levelo://app?vid=15c84c21-5bce-4804-8fe2-0ed6162b0c96"},"vehicle_type_id":"4","last_reported":1737994277,"current_range_meters":25600,"station_id":"ce4bgl12rcd13ifvqbo0","pricing_plan_id":"cebpf4jnsgd1na2vs0mg"},{"bike_id":"d6a801c4-a651-4f81-a19a-d70f1c451d0f","system_id":"levelo_inurba_marseille","lat":43.30559,"lon":5.36536,"is_reserved":false,"is_disabled":false,"rental_uris":{"android":"levelo://app?vid=d6a801c4-a651-4f81-a19a-d70f1c451d0f","ios":"levelo://app?vid=d6a801c4-a651-4f81-a19a-d70f1c451d0f"},"vehicle_type_id":"4","last_reported":1737994277,"current_range_meters":17600,"station_id":"ce4bgs12rcd13ifvqcag","pricing_plan_id":"cebpf4jnsgd1na2vs0mg"},{"bike_id":"75214a19-3086-4aab-8ba6-a177978da634","system_id":"levelo_inurba_marseille","lat":43.29898,"lon":5.43671,"is_reserved":false,"is_disabled":false,"rental_uris":{"android":"levelo://app?vid=75214a19-3086-4aab-8ba6-a177978da634","ios":"levelo://app?vid=75214a19-3086-4aab-8ba6-a177978da634"},"vehicle_type_id":"4","last_reported":1737994277,"current_range_meters":38800,"station_id":"ce4bhpp2rcd13ifvqhfg","pricing_plan_id":"cebpf4jnsgd1na2vs0mg"},{"bike_id":"30bbb00e-1612-4a25-b2e9-c8ad656fb58a","system_id":"levelo_inurba_marseille","lat":43.33718,"lon":5.39178,"is_reserved":false,"is_disabled":false,"rental_uris":{"android":"levelo://app?vid=30bbb00e-1612-4a25-b2e9-c8ad656fb58a","ios":"levelo://app?vid=30bbb00e-1612-4a25-b2e9-c8ad656fb58a"},"vehicle_type_id":"4","last_reported":1737994277,"current_range_meters":38800,"station_id":"ce4bhr92rcd13ifvqhsg","pricing_plan_id":"cebpf4jnsgd1na2vs0mg"},{"bike_id":"cdba9093-1e92-471c-a6ea-8ba6d1c21ef6","system_id":"levelo_inurba_marseille","lat":43.30439,"lon":5.38896,"is_reserved":false,"is_disabled":true,"rental_uris":{"android":"levelo://app?vid=cdba9093-1e92-471c-a6ea-8ba6d1c21ef6","ios":"levelo://app?vid=cdba9093-1e92-471c-a6ea-8ba6d1c21ef6"},"vehicle_type_id":"4","last_reported":1737994277,"current_range_meters":36400,"station_id":"ce4bgk12rcd13ifvqbi0","pricing_plan_id":"cebpf4jnsgd1na2vs0mg"},{"bike_id":"242f4395-c1b9-4d43-8105-d357fa69389f","system_id":"levelo_inurba_marseille","lat":43.27326,"lon":5.39083,"is_reserved":false,"is_disabled":false,"rental_uris":{"android":"levelo://app?vid=242f4395-c1b9-4d43-8105-d357fa69389f","ios":"levelo://app?vid=242f4395-c1b9-4d43-8105-d357fa69389f"},"vehicle_type_id":"4","last_reported":1737994277,"current_range_meters":18000,"station_id":"ce4bhgp2rcd13ifvqfe0","pricing_plan_id":"cebpf4jnsgd1na2vs0mg"},{"bike_id":"489f6534-c1d5-483f-a648-2a087319e607","system_id":"levelo_inurba_marseille","lat":43.32995,"lon":5.39058,"is_reserved":false,"is_disabled":false,"rental_uris":{"android":"levelo://app?vid=489f6534-c1d5-483f-a648-2a087319e607","ios":"levelo://app?vid=489f6534-c1d5-483f-a648-2a087319e607"},"vehicle_type_id":"4","last_reported":1737994277,"current_range_meters":38800,"station_id":"ce4bhr92rcd13ifvqhrg","pricing_plan_id":"cebpf4jnsgd1na2vs0mg"},{"bike_id":"d5f9c6b3-804a-4709-a2d7-5d30d4f02c9f","system_id":"levelo_inurba_marseille","lat":43.29602,"lon":5.37734,"is_reserved":false,"is_disabled":false,"rental_uris":{"android":"levelo://app?vid=d5f9c6b3-804a-4709-a2d7-5d30d4f02c9f","ios":"levelo://app?vid=d5f9c6b3-804a-4709-a2d7-5d30d4f02c9f"},"vehicle_type_id":"4","last_reported":1737994277,"current_range_meters":37600,"station_id":"ce4bgi92rcd13ifvqb90","pricing_plan_id":"cebpf4jnsgd1na2vs0mg"},{"bike_id":"acf4cec9-04b2-432c-83ba-19cc7ebac443","system_id":"levelo_inurba_marseille","lat":43.29034,"lon":5.38149,"is_reserved":false,"is_disabled":false,"rental_uris":{"android":"levelo://app?vid=acf4cec9-04b2-432c-83ba-19cc7ebac443","ios":"levelo://app?vid=acf4cec9-04b2-432c-83ba-19cc7ebac443"},"vehicle_type_id":"4","last_reported":1737994277,"current_range_meters":22800,"station_id":"ce4bh4p2rcd13ifvqe1g","pricing_plan_id":"cebpf4jnsgd1na2vs0mg"},{"bike_id":"6f5df92c-d671-4ad8-b000-a4b2cd1cddac","system_id":"levelo_inurba_marseille","lat":43.30549,"lon":5.36515,"is_reserved":false,"is_disabled":true,"rental_uris":{"android":"levelo://app?vid=6f5df92c-d671-4ad8-b000-a4b2cd1cddac","ios":"levelo://app?vid=6f5df92c-d671-4ad8-b000-a4b2cd1cddac"},"vehicle_type_id":"4","last_reported":1737994277,"current_range_meters":2000,"station_id":"ce4bgs12rcd13ifvqcag","pricing_plan_id":"cebpf4jnsgd1na2vs0mg"},{"bike_id":"3c9c9088-9c27-4609-bc62-8218c0dc2be8","system_id":"levelo_inurba_marseille","lat":43.23189,"lon":5.35604,"is_reserved":false,"is_disabled":false,"rental_uris":{"android":"levelo://app?vid=3c9c9088-9c27-4609-bc62-8218c0dc2be8","ios":"levelo://app?vid=3c9c9088-9c27-4609-bc62-8218c0dc2be8"},"vehicle_type_id":"4","last_reported":1737994277,"current_range_meters":36800,"station_id":"ce4bhu92rcd13ifvqi70","pricing_plan_id":"cebpf4jnsgd1na2vs0mg"},{"bike_id":"8a4fd9c1-126f-44bd-8919-7cf37f162b5e","system_id":"levelo_inurba_marseille","lat":43.28151,"lon":5.42637,"is_reserved":false,"is_disabled":false,"rental_uris":{"android":"levelo://app?vid=8a4fd9c1-126f-44bd-8919-7cf37f162b5e","ios":"levelo://app?vid=8a4fd9c1-126f-44bd-8919-7cf37f162b5e"},"vehicle_type_id":"4","last_reported":1737994277,"current_range_meters":30400,"station_id":"ce4bhnh2rcd13ifvqgug","pricing_plan_id":"cebpf4jnsgd1na2vs0mg"},{"bike_id":"84a1c66e-e9fc-4550-9261-9f8ee2197f3c","system_id":"levelo_inurba_marseille","lat":43.31711,"lon":5.43705,"is_reserved":false,"is_disabled":false,"rental_uris":{"android":"levelo://app?vid=84a1c66e-e9fc-4550-9261-9f8ee2197f3c","ios":"levelo://app?vid=84a1c66e-e9fc-4550-9261-9f8ee2197f3c"},"vehicle_type_id":"4","last_reported":1737994277,"current_range_meters":32400,"station_id":"ce4bhp92rcd13ifvqhcg","pricing_plan_id":"cebpf4jnsgd1na2vs0mg"},{"bike_id":"02a65308-936d-4187-b4db-c0afc2d3e10c","system_id":"levelo_inurba_marseille","lat":43.25928,"lon":5.40902,"is_reserved":false,"is_disabled":false,"rental_uris":{"android":"levelo://app?vid=02a65308-936d-4187-b4db-c0afc2d3e10c","ios":"levelo://app?vid=02a65308-936d-4187-b4db-c0afc2d3e10c"},"vehicle_type_id":"4","last_reported":1737994277,"current_range_meters":37600,"station_id":"ce4bhm92rcd13ifvqglg","pricing_plan_id":"cebpf4jnsgd1na2vs0mg"},{"bike_id":"5ef42bac-1a09-4f8c-9fe8-ab058034fe56","system_id":"levelo_inurba_marseille","lat":43.299,"lon":5.43659,"is_reserved":false,"is_disabled":false,"rental_uris":{"android":"levelo://app?vid=5ef42bac-1a09-4f8c-9fe8-ab058034fe56","ios":"levelo://app?vid=5ef42bac-1a09-4f8c-9fe8-ab058034fe56"},"vehicle_type_id":"4","last_reported":1737994277,"current_range_meters":38800,"station_id":"ce4bhpp2rcd13ifvqhfg","pricing_plan_id":"cebpf4jnsgd1na2vs0mg"},{"bike_id":"753c3ea2-d8b6-423c-b75c-0eb720ec3bbf","system_id":"levelo_inurba_marseille","lat":43.27563,"lon":5.3841,"is_reserved":false,"is_disabled":false,"rental_uris":{"android":"levelo://app?vid=753c3ea2-d8b6-423c-b75c-0eb720ec3bbf","ios":"levelo://app?vid=753c3ea2-d8b6-423c-b75c-0eb720ec3bbf"},"vehicle_type_id":"4","last_reported":1737994277,"current_range_meters":38800,"station_id":"ce4bhh92rcd13ifvqfi0","pricing_plan_id":"cebpf4jnsgd1na2vs0mg"},{"bike_id":"38c2fafb-59e6-4df3-9235-4d5feae89ff5","system_id":"levelo_inurba_marseille","lat":43.27921,"lon":5.39577,"is_reserved":false,"is_disabled":false,"rental_uris":{"android":"levelo://app?vid=38c2fafb-59e6-4df3-9235-4d5feae89ff5","ios":"levelo://app?vid=38c2fafb-59e6-4df3-9235-4d5feae89ff5"},"vehicle_type_id":"4","last_reported":1737994277,"current_range_meters":30000,"station_id":"ce4bhf92rcd13ifvqf40","pricing_plan_id":"cebpf4jnsgd1na2vs0mg"},{"bike_id":"df1440ab-6c98-4811-96ed-60cc1ae214b5","system_id":"levelo_inurba_marseille","lat":43.24079,"lon":5.37757,"is_reserved":false,"is_disabled":false,"rental_uris":{"android":"levelo://app?vid=df1440ab-6c98-4811-96ed-60cc1ae214b5","ios":"levelo://app?vid=df1440ab-6c98-4811-96ed-60cc1ae214b5"},"vehicle_type_id":"4","last_reported":1737994277,"current_range_meters":36000,"station_id":"ce4bhnp2rcd13ifvqgvg","pricing_plan_id":"cebpf4jnsgd1na2vs0mg"},{"bike_id":"45568187-d384-4625-ae97-7275220b13ab","system_id":"levelo_inurba_marseille","lat":43.31375,"lon":5.38508,"is_reserved":false,"is_disabled":false,"rental_uris":{"android":"levelo://app?vid=45568187-d384-4625-ae97-7275220b13ab","ios":"levelo://app?vid=45568187-d384-4625-ae97-7275220b13ab"},"vehicle_type_id":"4","last_reported":1737994277,"current_range_meters":30400,"station_id":"ce4bgt92rcd13ifvqcf0","pricing_plan_id":"cebpf4jnsgd1na2vs0mg"},{"bike_id":"8707dca8-5fb6-4e35-a1ec-1f30a01fea05","system_id":"levelo_inurba_marseille","lat":43.2955,"lon":5.42282,"is_reserved":false,"is_disabled":false,"rental_uris":{"android":"levelo://app?vid=8707dca8-5fb6-4e35-a1ec-1f30a01fea05","ios":"levelo://app?vid=8707dca8-5fb6-4e35-a1ec-1f30a01fea05"},"vehicle_type_id":"4","last_reported":1737994277,"current_range_meters":38800,"station_id":"ce4bhph2rcd13ifvqhdg","pricing_plan_id":"cebpf4jnsgd1na2vs0mg"},{"bike_id":"b5f9da4a-0440-436b-86f5-ecc367051a64","system_id":"levelo_inurba_marseille","lat":43.29841,"lon":5.36272,"is_reserved":false,"is_disabled":false,"rental_uris":{"android":"levelo://app?vid=b5f9da4a-0440-436b-86f5-ecc367051a64","ios":"levelo://app?vid=b5f9da4a-0440-436b-86f5-ecc367051a64"},"vehicle_type_id":"4","last_reported":1737994277,"current_range_meters":30400,"station_id":"ce4bgpp2rcd13ifvqc3g","pricing_plan_id":"cebpf4jnsgd1na2vs0mg"},{"bike_id":"1bba2818-ba5c-48a8-b97f-355582cbdb74","system_id":"levelo_inurba_marseille","lat":43.29854,"lon":5.36273,"is_reserved":false,"is_disabled":false,"rental_uris":{"android":"levelo://app?vid=1bba2818-ba5c-48a8-b97f-355582cbdb74","ios":"levelo://app?vid=1bba2818-ba5c-48a8-b97f-355582cbdb74"},"vehicle_type_id":"4","last_reported":1737994277,"current_range_meters":38800,"station_id":"ce4bgpp2rcd13ifvqc3g","pricing_plan_id":"cebpf4jnsgd1na2vs0mg"},{"bike_id":"e6541497-25ea-40cc-b912-3227bd54fcb8","system_id":"levelo_inurba_marseille","lat":43.31269,"lon":5.40156,"is_reserved":false,"is_disabled":false,"rental_uris":{"android":"levelo://app?vid=e6541497-25ea-40cc-b912-3227bd54fcb8","ios":"levelo://app?vid=e6541497-25ea-40cc-b912-3227bd54fcb8"},"vehicle_type_id":"4","last_reported":1737994277,"current_range_meters":38800,"station_id":"ce4bh092rcd13ifvqd30","pricing_plan_id":"cebpf4jnsgd1na2vs0mg"},{"bike_id":"1c1b0bb2-3564-4ccc-954f-e26d180a672c","system_id":"levelo_inurba_marseille","lat":43.30232,"lon":5.39476,"is_reserved":false,"is_disabled":false,"rental_uris":{"android":"levelo://app?vid=1c1b0bb2-3564-4ccc-954f-e26d180a672c","ios":"levelo://app?vid=1c1b0bb2-3564-4ccc-954f-e26d180a672c"},"vehicle_type_id":"4","last_reported":1737994277,"current_range_meters":16000,"station_id":"ce4bh0p2rcd13ifvqd70","pricing_plan_id":"cebpf4jnsgd1na2vs0mg"},{"bike_id":"2256710f-428a-4b6c-afaf-f485da875c48","system_id":"levelo_inurba_marseille","lat":43.28614,"lon":5.35102,"is_reserved":false,"is_disabled":false,"rental_uris":{"android":"levelo://app?vid=2256710f-428a-4b6c-afaf-f485da875c48","ios":"levelo://app?vid=2256710f-428a-4b6c-afaf-f485da875c48"},"vehicle_type_id":"4","last_reported":1737994277,"current_range_meters":19200,"station_id":"ce4bhch2rcd13ifvqeug","pricing_plan_id":"cebpf4jnsgd1na2vs0mg"},{"bike_id":"ab2c796a-c23b-4a3a-9534-777b873d6a05","system_id":"levelo_inurba_marseille","lat":43.24165,"lon":5.36399,"is_reserved":false,"is_disabled":false,"rental_uris":{"android":"levelo://app?vid=ab2c796a-c23b-4a3a-9534-777b873d6a05","ios":"levelo://app?vid=ab2c796a-c23b-4a3a-9534-777b873d6a05"},"vehicle_type_id":"4","last_reported":1737994277,"current_range_meters":24800,"station_id":"cpo36qri1sfpv3e86is0","pricing_plan_id":"cebpf4jnsgd1na2vs0mg"},{"bike_id":"5fecc68f-993f-403a-b01f-310bc7fe5b45","system_id":"levelo_inurba_marseille","lat":43.2988,"lon":5.39727,"is_reserved":false,"is_disabled":false,"rental_uris":{"android":"levelo://app?vid=5fecc68f-993f-403a-b01f-310bc7fe5b45","ios":"levelo://app?vid=5fecc68f-993f-403a-b01f-310bc7fe5b45"},"vehicle_type_id":"4","last_reported":1737994277,"current_range_meters":38800,"station_id":"ce4bh0h2rcd13ifvqd50","pricing_plan_id":"cebpf4jnsgd1na2vs0mg"},{"bike_id":"32778fbb-5606-4264-841f-c8160ed30ae8","system_id":"levelo_inurba_marseille","lat":43.30933,"lon":5.4014,"is_reserved":false,"is_disabled":false,"rental_uris":{"android":"levelo://app?vid=32778fbb-5606-4264-841f-c8160ed30ae8","ios":"levelo://app?vid=32778fbb-5606-4264-841f-c8160ed30ae8"},"vehicle_type_id":"4","last_reported":1737994277,"current_range_meters":27600,"station_id":"ce4bgvp2rcd13ifvqct0","pricing_plan_id":"cebpf4jnsgd1na2vs0mg"},{"bike_id":"fef00749-c270-427c-b645-c95b66bb221b","system_id":"levelo_inurba_marseille","lat":43.29895,"lon":5.39739,"is_reserved":false,"is_disabled":false,"rental_uris":{"android":"levelo://app?vid=fef00749-c270-427c-b645-c95b66bb221b","ios":"levelo://app?vid=fef00749-c270-427c-b645-c95b66bb221b"},"vehicle_type_id":"4","last_reported":1737994277,"current_range_meters":17200,"station_id":"ce4bh0h2rcd13ifvqd50","pricing_plan_id":"cebpf4jnsgd1na2vs0mg"},{"bike_id":"a6708675-eff7-4fc2-a9e6-43a6702fa6d1","system_id":"levelo_inurba_marseille","lat":43.3107,"lon":5.3835,"is_reserved":false,"is_disabled":false,"rental_uris":{"android":"levelo://app?vid=a6708675-eff7-4fc2-a9e6-43a6702fa6d1","ios":"levelo://app?vid=a6708675-eff7-4fc2-a9e6-43a6702fa6d1"},"vehicle_type_id":"4","last_reported":1737994277,"current_range_meters":38800,"station_id":"ce4bgv92rcd13ifvqcr0","pricing_plan_id":"cebpf4jnsgd1na2vs0mg"},{"bike_id":"380e71d9-bb1a-4f2e-aa20-6510eb4a60c9","system_id":"levelo_inurba_marseille","lat":43.28957,"lon":5.36607,"is_reserved":false,"is_disabled":false,"rental_uris":{"android":"levelo://app?vid=380e71d9-bb1a-4f2e-aa20-6510eb4a60c9","ios":"levelo://app?vid=380e71d9-bb1a-4f2e-aa20-6510eb4a60c9"},"vehicle_type_id":"4","last_reported":1737994277,"current_range_meters":22000,"station_id":"ce4bhap2rcd13ifvqek0","pricing_plan_id":"cebpf4jnsgd1na2vs0mg"},{"bike_id":"a02db55e-ba47-47e1-9cb6-3610b1989231","system_id":"levelo_inurba_marseille","lat":43.2952,"lon":5.39035,"is_reserved":false,"is_disabled":false,"rental_uris":{"android":"levelo://app?vid=a02db55e-ba47-47e1-9cb6-3610b1989231","ios":"levelo://app?vid=a02db55e-ba47-47e1-9cb6-3610b1989231"},"vehicle_type_id":"4","last_reported":1737994277,"current_range_meters":17600,"station_id":"ce4bh3p2rcd13ifvqdp0","pricing_plan_id":"cebpf4jnsgd1na2vs0mg"},{"bike_id":"fb718f77-42be-4664-9cdd-65305dc1c1ba","system_id":"levelo_inurba_marseille","lat":43.23178,"lon":5.39999,"is_reserved":false,"is_disabled":false,"rental_uris":{"android":"levelo://app?vid=fb718f77-42be-4664-9cdd-65305dc1c1ba","ios":"levelo://app?vid=fb718f77-42be-4664-9cdd-65305dc1c1ba"},"vehicle_type_id":"4","last_reported":1737994277,"current_range_meters":39200,"station_id":"ce4bhn12rcd13ifvqgqg","pricing_plan_id":"cebpf4jnsgd1na2vs0mg"},{"bike_id":"6964e9b8-be4d-48ce-8fea-7897babb72f9","system_id":"levelo_inurba_marseille","lat":43.25497,"lon":5.3765,"is_reserved":false,"is_disabled":false,"rental_uris":{"android":"levelo://app?vid=6964e9b8-be4d-48ce-8fea-7897babb72f9","ios":"levelo://app?vid=6964e9b8-be4d-48ce-8fea-7897babb72f9"},"vehicle_type_id":"4","last_reported":1737994277,"current_range_meters":20400,"station_id":"ce4bhh12rcd13ifvqff0","pricing_plan_id":"cebpf4jnsgd1na2vs0mg"},{"bike_id":"43cb41c5-439f-4eb6-9ca9-ddeec93fcf1d","system_id":"levelo_inurba_marseille","lat":43.23979,"lon":5.36613,"is_reserved":false,"is_disabled":false,"rental_uris":{"android":"levelo://app?vid=43cb41c5-439f-4eb6-9ca9-ddeec93fcf1d","ios":"levelo://app?vid=43cb41c5-439f-4eb6-9ca9-ddeec93fcf1d"},"vehicle_type_id":"4","last_reported":1737994277,"current_range_meters":10000,"station_id":"ce4bhi12rcd13ifvqfp0","pricing_plan_id":"cebpf4jnsgd1na2vs0mg"},{"bike_id":"1346ff93-9ddb-4093-aa5d-b6cb09dfef3c","system_id":"levelo_inurba_marseille","lat":43.28625,"lon":5.35083,"is_reserved":false,"is_disabled":false,"rental_uris":{"android":"levelo://app?vid=1346ff93-9ddb-4093-aa5d-b6cb09dfef3c","ios":"levelo://app?vid=1346ff93-9ddb-4093-aa5d-b6cb09dfef3c"},"vehicle_type_id":"4","last_reported":1737994277,"current_range_meters":37600,"station_id":"ce4bhch2rcd13ifvqeug","pricing_plan_id":"cebpf4jnsgd1na2vs0mg"},{"bike_id":"7690f788-da23-4e47-a30e-fda68274512b","system_id":"levelo_inurba_marseille","lat":43.29589,"lon":5.38104,"is_reserved":false,"is_disabled":false,"rental_uris":{"android":"levelo://app?vid=7690f788-da23-4e47-a30e-fda68274512b","ios":"levelo://app?vid=7690f788-da23-4e47-a30e-fda68274512b"},"vehicle_type_id":"4","last_reported":1737994277,"current_range_meters":39200,"station_id":"ce4bgl12rcd13ifvqbo0","pricing_plan_id":"cebpf4jnsgd1na2vs0mg"},{"bike_id":"fd385a91-9b46-40c2-8837-989124caef2a","system_id":"levelo_inurba_marseille","lat":43.29994,"lon":5.37379,"is_reserved":false,"is_disabled":false,"rental_uris":{"android":"levelo://app?vid=fd385a91-9b46-40c2-8837-989124caef2a","ios":"levelo://app?vid=fd385a91-9b46-40c2-8837-989124caef2a"},"vehicle_type_id":"4","last_reported":1737994277,"current_range_meters":30800,"station_id":"","pricing_plan_id":"cebpf4jnsgd1na2vs0mg"},{"bike_id":"ea20e732-137f-4233-942c-98b1e34d4522","system_id":"levelo_inurba_marseille","lat":43.29788,"lon":5.38122,"is_reserved":false,"is_disabled":false,"rental_uris":{"android":"levelo://app?vid=ea20e732-137f-4233-942c-98b1e34d4522","ios":"levelo://app?vid=ea20e732-137f-4233-942c-98b1e34d4522"},"vehicle_type_id":"4","last_reported":1737994277,"current_range_meters":20000,"station_id":"ce4bgip2rcd13ifvqbb0","pricing_plan_id":"cebpf4jnsgd1na2vs0mg"},{"bike_id":"76a03fe2-6853-42db-8972-77b89a64555b","system_id":"levelo_inurba_marseille","lat":43.32113,"lon":5.36771,"is_reserved":false,"is_disabled":true,"rental_uris":{"android":"levelo://app?vid=76a03fe2-6853-42db-8972-77b89a64555b","ios":"levelo://app?vid=76a03fe2-6853-42db-8972-77b89a64555b"},"vehicle_type_id":"4","last_reported":1737994277,"current_range_meters":25200,"station_id":"ce4bhrh2rcd13ifvqhug","pricing_plan_id":"cebpf4jnsgd1na2vs0mg"},{"bike_id":"b01b0706-3a3a-4ff1-ac0d-6b17e48eff7a","system_id":"levelo_inurba_marseille","lat":43.23162,"lon":5.35595,"is_reserved":false,"is_disabled":false,"rental_uris":{"android":"levelo://app?vid=b01b0706-3a3a-4ff1-ac0d-6b17e48eff7a","ios":"levelo://app?vid=b01b0706-3a3a-4ff1-ac0d-6b17e48eff7a"},"vehicle_type_id":"4","last_reported":1737994277,"current_range_meters":36400,"station_id":"ce4bhu92rcd13ifvqi70","pricing_plan_id":"cebpf4jnsgd1na2vs0mg"},{"bike_id":"25927537-ebfd-4ad0-914a-6d68f96d9be7","system_id":"levelo_inurba_marseille","lat":43.30762,"lon":5.3764,"is_reserved":false,"is_disabled":false,"rental_uris":{"android":"levelo://app?vid=25927537-ebfd-4ad0-914a-6d68f96d9be7","ios":"levelo://app?vid=25927537-ebfd-4ad0-914a-6d68f96d9be7"},"vehicle_type_id":"4","last_reported":1737994277,"current_range_meters":38800,"station_id":"ce4bgv92rcd13ifvqcq0","pricing_plan_id":"cebpf4jnsgd1na2vs0mg"},{"bike_id":"e647d599-32d1-4840-8008-c81b26c3556e","system_id":"levelo_inurba_marseille","lat":43.23957,"lon":5.36633,"is_reserved":false,"is_disabled":false,"rental_uris":{"android":"levelo://app?vid=e647d599-32d1-4840-8008-c81b26c3556e","ios":"levelo://app?vid=e647d599-32d1-4840-8008-c81b26c3556e"},"vehicle_type_id":"4","last_reported":1737994277,"current_range_meters":38000,"station_id":"ce4bhi12rcd13ifvqfp0","pricing_plan_id":"cebpf4jnsgd1na2vs0mg"},{"bike_id":"82268c69-bcd8-49fb-91ea-6277b4711aa7","system_id":"levelo_inurba_marseille","lat":43.255509,"lon":5.39785,"is_reserved":false,"is_disabled":false,"rental_uris":{"android":"levelo://app?vid=82268c69-bcd8-49fb-91ea-6277b4711aa7","ios":"levelo://app?vid=82268c69-bcd8-49fb-91ea-6277b4711aa7"},"vehicle_type_id":"4","last_reported":1737994277,"current_range_meters":25600,"station_id":"","pricing_plan_id":"cebpf4jnsgd1na2vs0mg"},{"bike_id":"38c43852-cfec-437a-bfdd-eeb205b66bcd","system_id":"levelo_inurba_marseille","lat":43.30559,"lon":5.36531,"is_reserved":false,"is_disabled":false,"rental_uris":{"android":"levelo://app?vid=38c43852-cfec-437a-bfdd-eeb205b66bcd","ios":"levelo://app?vid=38c43852-cfec-437a-bfdd-eeb205b66bcd"},"vehicle_type_id":"4","last_reported":1737994277,"current_range_meters":37600,"station_id":"ce4bgs12rcd13ifvqcag","pricing_plan_id":"cebpf4jnsgd1na2vs0mg"},{"bike_id":"915df6a6-30bf-4e90-9efc-34ebcb795923","system_id":"levelo_inurba_marseille","lat":43.28469,"lon":5.35854,"is_reserved":false,"is_disabled":false,"rental_uris":{"android":"levelo://app?vid=915df6a6-30bf-4e90-9efc-34ebcb795923","ios":"levelo://app?vid=915df6a6-30bf-4e90-9efc-34ebcb795923"},"vehicle_type_id":"4","last_reported":1737994277,"current_range_meters":39200,"station_id":"ce4bhah2rcd13ifvqei0","pricing_plan_id":"cebpf4jnsgd1na2vs0mg"},{"bike_id":"9908e834-9490-4c3b-9ef8-5edf91fa2fea","system_id":"levelo_inurba_marseille","lat":43.2861,"lon":5.37064,"is_reserved":false,"is_disabled":false,"rental_uris":{"android":"levelo://app?vid=9908e834-9490-4c3b-9ef8-5edf91fa2fea","ios":"levelo://app?vid=9908e834-9490-4c3b-9ef8-5edf91fa2fea"},"vehicle_type_id":"4","last_reported":1737994277,"current_range_meters":25200,"station_id":"ce4bht12rcd13ifvqi60","pricing_plan_id":"cebpf4jnsgd1na2vs0mg"},{"bike_id":"89ba4f22-9915-40e1-add2-ff98fdf0d45e","system_id":"levelo_inurba_marseille","lat":43.30448,"lon":5.38905,"is_reserved":false,"is_disabled":false,"rental_uris":{"android":"levelo://app?vid=89ba4f22-9915-40e1-add2-ff98fdf0d45e","ios":"levelo://app?vid=89ba4f22-9915-40e1-add2-ff98fdf0d45e"},"vehicle_type_id":"4","last_reported":1737994277,"current_range_meters":14400,"station_id":"ce4bgk12rcd13ifvqbi0","pricing_plan_id":"cebpf4jnsgd1na2vs0mg"},{"bike_id":"cafb8723-8c35-455d-93a4-b921e4e2452b","system_id":"levelo_inurba_marseille","lat":43.30255,"lon":5.40077,"is_reserved":false,"is_disabled":false,"rental_uris":{"android":"levelo://app?vid=cafb8723-8c35-455d-93a4-b921e4e2452b","ios":"levelo://app?vid=cafb8723-8c35-455d-93a4-b921e4e2452b"},"vehicle_type_id":"4","last_reported":1737994277,"current_range_meters":27600,"station_id":"ce4bgvh2rcd13ifvqcs0","pricing_plan_id":"cebpf4jnsgd1na2vs0mg"},{"bike_id":"48eaf086-a58e-442a-ac63-1b1e74c4ac84","system_id":"levelo_inurba_marseille","lat":43.31702,"lon":5.43707,"is_reserved":false,"is_disabled":false,"rental_uris":{"android":"levelo://app?vid=48eaf086-a58e-442a-ac63-1b1e74c4ac84","ios":"levelo://app?vid=48eaf086-a58e-442a-ac63-1b1e74c4ac84"},"vehicle_type_id":"4","last_reported":1737994277,"current_range_meters":38800,"station_id":"ce4bhp92rcd13ifvqhcg","pricing_plan_id":"cebpf4jnsgd1na2vs0mg"},{"bike_id":"7fd84b68-8795-4b64-88b1-cc544e1d0969","system_id":"levelo_inurba_marseille","lat":43.28278,"lon":5.35074,"is_reserved":false,"is_disabled":false,"rental_uris":{"android":"levelo://app?vid=7fd84b68-8795-4b64-88b1-cc544e1d0969","ios":"levelo://app?vid=7fd84b68-8795-4b64-88b1-cc544e1d0969"},"vehicle_type_id":"4","last_reported":1737994277,"current_range_meters":38800,"station_id":"ce4bhbp2rcd13ifvqerg","pricing_plan_id":"cebpf4jnsgd1na2vs0mg"},{"bike_id":"cf1bc3d4-5d55-472a-a906-a0035f54e74b","system_id":"levelo_inurba_marseille","lat":43.2958,"lon":5.36737,"is_reserved":false,"is_disabled":false,"rental_uris":{"android":"levelo://app?vid=cf1bc3d4-5d55-472a-a906-a0035f54e74b","ios":"levelo://app?vid=cf1bc3d4-5d55-472a-a906-a0035f54e74b"},"vehicle_type_id":"4","last_reported":1737994277,"current_range_meters":35600,"station_id":"ce4bgph2rcd13ifvqc2g","pricing_plan_id":"cebpf4jnsgd1na2vs0mg"},{"bike_id":"b5e01c5e-7aba-45f7-833a-cf0cafc2590c","system_id":"levelo_inurba_marseille","lat":43.26945,"lon":5.40253,"is_reserved":false,"is_disabled":false,"rental_uris":{"android":"levelo://app?vid=b5e01c5e-7aba-45f7-833a-cf0cafc2590c","ios":"levelo://app?vid=b5e01c5e-7aba-45f7-833a-cf0cafc2590c"},"vehicle_type_id":"4","last_reported":1737994277,"current_range_meters":22800,"station_id":"cjm6bp8fraef2m0cb0m0","pricing_plan_id":"cebpf4jnsgd1na2vs0mg"},{"bike_id":"73b16524-5bad-446d-b480-50c2aae535df","system_id":"levelo_inurba_marseille","lat":43.29876,"lon":5.39735,"is_reserved":false,"is_disabled":false,"rental_uris":{"android":"levelo://app?vid=73b16524-5bad-446d-b480-50c2aae535df","ios":"levelo://app?vid=73b16524-5bad-446d-b480-50c2aae535df"},"vehicle_type_id":"4","last_reported":1737994277,"current_range_meters":39200,"station_id":"ce4bh0h2rcd13ifvqd50","pricing_plan_id":"cebpf4jnsgd1na2vs0mg"},{"bike_id":"ff68af14-5554-4f8d-a3de-4549d987f602","system_id":"levelo_inurba_marseille","lat":43.29898,"lon":5.43659,"is_reserved":false,"is_disabled":false,"rental_uris":{"android":"levelo://app?vid=ff68af14-5554-4f8d-a3de-4549d987f602","ios":"levelo://app?vid=ff68af14-5554-4f8d-a3de-4549d987f602"},"vehicle_type_id":"4","last_reported":1737994277,"current_range_meters":38400,"station_id":"ce4bhpp2rcd13ifvqhfg","pricing_plan_id":"cebpf4jnsgd1na2vs0mg"},{"bike_id":"0aae9519-af68-44ac-a816-2d99275c47cc","system_id":"levelo_inurba_marseille","lat":43.26944,"lon":5.3864,"is_reserved":false,"is_disabled":false,"rental_uris":{"android":"levelo://app?vid=0aae9519-af68-44ac-a816-2d99275c47cc","ios":"levelo://app?vid=0aae9519-af68-44ac-a816-2d99275c47cc"},"vehicle_type_id":"4","last_reported":1737994277,"current_range_meters":36400,"station_id":"ce4bhh92rcd13ifvqfh0","pricing_plan_id":"cebpf4jnsgd1na2vs0mg"},{"bike_id":"824a1984-9692-4554-8c47-08be5c6e12b1","system_id":"levelo_inurba_marseille","lat":43.31992,"lon":5.41296,"is_reserved":false,"is_disabled":false,"rental_uris":{"android":"levelo://app?vid=824a1984-9692-4554-8c47-08be5c6e12b1","ios":"levelo://app?vid=824a1984-9692-4554-8c47-08be5c6e12b1"},"vehicle_type_id":"4","last_reported":1737994277,"current_range_meters":20400,"station_id":"","pricing_plan_id":"cebpf4jnsgd1na2vs0mg"},{"bike_id":"63366075-dda0-4a00-ab83-e87ea7897cf9","system_id":"levelo_inurba_marseille","lat":43.30544,"lon":5.36558,"is_reserved":false,"is_disabled":false,"rental_uris":{"android":"levelo://app?vid=63366075-dda0-4a00-ab83-e87ea7897cf9","ios":"levelo://app?vid=63366075-dda0-4a00-ab83-e87ea7897cf9"},"vehicle_type_id":"4","last_reported":1737994277,"current_range_meters":25200,"station_id":"ce4bgs12rcd13ifvqcag","pricing_plan_id":"cebpf4jnsgd1na2vs0mg"},{"bike_id":"e02cc181-fae8-4627-9070-19cdd3303066","system_id":"levelo_inurba_marseille","lat":43.29805,"lon":5.40406,"is_reserved":false,"is_disabled":false,"rental_uris":{"android":"levelo://app?vid=e02cc181-fae8-4627-9070-19cdd3303066","ios":"levelo://app?vid=e02cc181-fae8-4627-9070-19cdd3303066"},"vehicle_type_id":"4","last_reported":1737994277,"current_range_meters":39200,"station_id":"ce4bh112rcd13ifvqd90","pricing_plan_id":"cebpf4jnsgd1na2vs0mg"},{"bike_id":"86b498e3-784c-4315-9910-77930c320efa","system_id":"levelo_inurba_marseille","lat":43.28585,"lon":5.37092,"is_reserved":false,"is_disabled":false,"rental_uris":{"android":"levelo://app?vid=86b498e3-784c-4315-9910-77930c320efa","ios":"levelo://app?vid=86b498e3-784c-4315-9910-77930c320efa"},"vehicle_type_id":"4","last_reported":1737994277,"current_range_meters":37600,"station_id":"ce4bht12rcd13ifvqi60","pricing_plan_id":"cebpf4jnsgd1na2vs0mg"},{"bike_id":"04add264-7ffa-44ea-8a2f-32324a7ecc6f","system_id":"levelo_inurba_marseille","lat":43.25964,"lon":5.39686,"is_reserved":false,"is_disabled":false,"rental_uris":{"android":"levelo://app?vid=04add264-7ffa-44ea-8a2f-32324a7ecc6f","ios":"levelo://app?vid=04add264-7ffa-44ea-8a2f-32324a7ecc6f"},"vehicle_type_id":"4","last_reported":1737994277,"current_range_meters":16000,"station_id":"","pricing_plan_id":"cebpf4jnsgd1na2vs0mg"},{"bike_id":"8c772f1a-bac2-41fc-878f-d0d152dc8c92","system_id":"levelo_inurba_marseille","lat":43.29173,"lon":5.38227,"is_reserved":false,"is_disabled":false,"rental_uris":{"android":"levelo://app?vid=8c772f1a-bac2-41fc-878f-d0d152dc8c92","ios":"levelo://app?vid=8c772f1a-bac2-41fc-878f-d0d152dc8c92"},"vehicle_type_id":"4","last_reported":1737994277,"current_range_meters":4800,"station_id":"","pricing_plan_id":"cebpf4jnsgd1na2vs0mg"},{"bike_id":"c69dd111-4a16-47d3-919c-b81c76daeb57","system_id":"levelo_inurba_marseille","lat":43.2482,"lon":5.37444,"is_reserved":false,"is_disabled":false,"rental_uris":{"android":"levelo://app?vid=c69dd111-4a16-47d3-919c-b81c76daeb57","ios":"levelo://app?vid=c69dd111-4a16-47d3-919c-b81c76daeb57"},"vehicle_type_id":"4","last_reported":1737994277,"current_range_meters":36800,"station_id":"ce4bhgh2rcd13ifvqfb0","pricing_plan_id":"cebpf4jnsgd1na2vs0mg"},{"bike_id":"29c7149a-50b2-4cc1-918f-4d34e5bad6c7","system_id":"levelo_inurba_marseille","lat":43.30541,"lon":5.38426,"is_reserved":false,"is_disabled":false,"rental_uris":{"android":"levelo://app?vid=29c7149a-50b2-4cc1-918f-4d34e5bad6c7","ios":"levelo://app?vid=29c7149a-50b2-4cc1-918f-4d34e5bad6c7"},"vehicle_type_id":"4","last_reported":1737994277,"current_range_meters":20000,"station_id":"ce4bgg92rcd13ifvqb30","pricing_plan_id":"cebpf4jnsgd1na2vs0mg"},{"bike_id":"bb99704f-e033-4ae8-a7fb-29e6cc77930e","system_id":"levelo_inurba_marseille","lat":43.2808,"lon":5.39655,"is_reserved":false,"is_disabled":false,"rental_uris":{"android":"levelo://app?vid=bb99704f-e033-4ae8-a7fb-29e6cc77930e","ios":"levelo://app?vid=bb99704f-e033-4ae8-a7fb-29e6cc77930e"},"vehicle_type_id":"4","last_reported":1737994277,"current_range_meters":38400,"station_id":"ce4bho12rcd13ifvqh2g","pricing_plan_id":"cebpf4jnsgd1na2vs0mg"},{"bike_id":"7eebe2cd-35ea-4c9d-8850-825d95e8c6ec","system_id":"levelo_inurba_marseille","lat":43.27371,"lon":5.36258,"is_reserved":false,"is_disabled":false,"rental_uris":{"android":"levelo://app?vid=7eebe2cd-35ea-4c9d-8850-825d95e8c6ec","ios":"levelo://app?vid=7eebe2cd-35ea-4c9d-8850-825d95e8c6ec"},"vehicle_type_id":"4","last_reported":1737994277,"current_range_meters":18800,"station_id":"ce4bhbh2rcd13ifvqeo0","pricing_plan_id":"cebpf4jnsgd1na2vs0mg"},{"bike_id":"f9173de2-2fa5-436f-a76b-3c96bd571284","system_id":"levelo_inurba_marseille","lat":43.29811,"lon":5.40416,"is_reserved":false,"is_disabled":false,"rental_uris":{"android":"levelo://app?vid=f9173de2-2fa5-436f-a76b-3c96bd571284","ios":"levelo://app?vid=f9173de2-2fa5-436f-a76b-3c96bd571284"},"vehicle_type_id":"4","last_reported":1737994277,"current_range_meters":38800,"station_id":"ce4bh112rcd13ifvqd90","pricing_plan_id":"cebpf4jnsgd1na2vs0mg"},{"bike_id":"2d7695f6-878a-4d93-8986-73f754e31ce2","system_id":"levelo_inurba_marseille","lat":43.2953,"lon":5.38553,"is_reserved":false,"is_disabled":false,"rental_uris":{"android":"levelo://app?vid=2d7695f6-878a-4d93-8986-73f754e31ce2","ios":"levelo://app?vid=2d7695f6-878a-4d93-8986-73f754e31ce2"},"vehicle_type_id":"4","last_reported":1737994277,"current_range_meters":16400,"station_id":"ce4bgih2rcd13ifvqba0","pricing_plan_id":"cebpf4jnsgd1na2vs0mg"},{"bike_id":"55263b15-0346-4318-8afd-67f068a0fe6b","system_id":"levelo_inurba_marseille","lat":43.31328,"lon":5.39688,"is_reserved":false,"is_disabled":false,"rental_uris":{"android":"levelo://app?vid=55263b15-0346-4318-8afd-67f068a0fe6b","ios":"levelo://app?vid=55263b15-0346-4318-8afd-67f068a0fe6b"},"vehicle_type_id":"4","last_reported":1737994277,"current_range_meters":36000,"station_id":"ce4bgvp2rcd13ifvqcu0","pricing_plan_id":"cebpf4jnsgd1na2vs0mg"},{"bike_id":"8f3458c2-d6f4-4536-b29a-67b45cbde78f","system_id":"levelo_inurba_marseille","lat":43.2848,"lon":5.38432,"is_reserved":false,"is_disabled":true,"rental_uris":{"android":"levelo://app?vid=8f3458c2-d6f4-4536-b29a-67b45cbde78f","ios":"levelo://app?vid=8f3458c2-d6f4-4536-b29a-67b45cbde78f"},"vehicle_type_id":"4","last_reported":1737994277,"current_range_meters":10000,"station_id":"ce4bh512rcd13ifvqe3g","pricing_plan_id":"cebpf4jnsgd1na2vs0mg"},{"bike_id":"ee675d8a-6840-4613-a736-66d8d6605b20","system_id":"levelo_inurba_marseille","lat":43.29923,"lon":5.36539,"is_reserved":false,"is_disabled":false,"rental_uris":{"android":"levelo://app?vid=ee675d8a-6840-4613-a736-66d8d6605b20","ios":"levelo://app?vid=ee675d8a-6840-4613-a736-66d8d6605b20"},"vehicle_type_id":"4","last_reported":1737994277,"current_range_meters":22800,"station_id":"ce4bgm92rcd13ifvqbr0","pricing_plan_id":"cebpf4jnsgd1na2vs0mg"},{"bike_id":"438f57f4-dc25-4a87-8e66-5d42f0ee3f1e","system_id":"levelo_inurba_marseille","lat":43.33602,"lon":5.41035,"is_reserved":false,"is_disabled":false,"rental_uris":{"android":"levelo://app?vid=438f57f4-dc25-4a87-8e66-5d42f0ee3f1e","ios":"levelo://app?vid=438f57f4-dc25-4a87-8e66-5d42f0ee3f1e"},"vehicle_type_id":"4","last_reported":1737994277,"current_range_meters":17200,"station_id":"ce4bhqh2rcd13ifvqhmg","pricing_plan_id":"cebpf4jnsgd1na2vs0mg"},{"bike_id":"be63c970-2c95-4b7c-9518-8a875f390bed","system_id":"levelo_inurba_marseille","lat":43.29824,"lon":5.38079,"is_reserved":false,"is_disabled":false,"rental_uris":{"android":"levelo://app?vid=be63c970-2c95-4b7c-9518-8a875f390bed","ios":"levelo://app?vid=be63c970-2c95-4b7c-9518-8a875f390bed"},"vehicle_type_id":"4","last_reported":1737994277,"current_range_meters":31200,"station_id":"ce4bgip2rcd13ifvqbb0","pricing_plan_id":"cebpf4jnsgd1na2vs0mg"},{"bike_id":"dca1b3f1-bf12-4d48-b32e-51e78b8700aa","system_id":"levelo_inurba_marseille","lat":43.33052,"lon":5.39011,"is_reserved":false,"is_disabled":false,"rental_uris":{"android":"levelo://app?vid=dca1b3f1-bf12-4d48-b32e-51e78b8700aa","ios":"levelo://app?vid=dca1b3f1-bf12-4d48-b32e-51e78b8700aa"},"vehicle_type_id":"4","last_reported":1737994277,"current_range_meters":38000,"station_id":"ce4bhr92rcd13ifvqhrg","pricing_plan_id":"cebpf4jnsgd1na2vs0mg"},{"bike_id":"57e96911-b8d8-41c2-9792-cacc47be5ebd","system_id":"levelo_inurba_marseille","lat":43.29545,"lon":5.39419,"is_reserved":false,"is_disabled":false,"rental_uris":{"android":"levelo://app?vid=57e96911-b8d8-41c2-9792-cacc47be5ebd","ios":"levelo://app?vid=57e96911-b8d8-41c2-9792-cacc47be5ebd"},"vehicle_type_id":"4","last_reported":1737994277,"current_range_meters":36400,"station_id":"ce4bh292rcd13ifvqdf0","pricing_plan_id":"cebpf4jnsgd1na2vs0mg"},{"bike_id":"e09de9e7-4909-4413-b590-2dea2722814c","system_id":"levelo_inurba_marseille","lat":43.23216,"lon":5.39995,"is_reserved":false,"is_disabled":false,"rental_uris":{"android":"levelo://app?vid=e09de9e7-4909-4413-b590-2dea2722814c","ios":"levelo://app?vid=e09de9e7-4909-4413-b590-2dea2722814c"},"vehicle_type_id":"4","last_reported":1737994277,"current_range_meters":25600,"station_id":"ce4bhn12rcd13ifvqgqg","pricing_plan_id":"cebpf4jnsgd1na2vs0mg"},{"bike_id":"8a285e66-d2f7-48b3-8bbe-94f30f71df1b","system_id":"levelo_inurba_marseille","lat":43.31385,"lon":5.38486,"is_reserved":false,"is_disabled":false,"rental_uris":{"android":"levelo://app?vid=8a285e66-d2f7-48b3-8bbe-94f30f71df1b","ios":"levelo://app?vid=8a285e66-d2f7-48b3-8bbe-94f30f71df1b"},"vehicle_type_id":"4","last_reported":1737994277,"current_range_meters":16400,"station_id":"ce4bgt92rcd13ifvqcf0","pricing_plan_id":"cebpf4jnsgd1na2vs0mg"},{"bike_id":"4ee7a4b2-dea3-4f4a-a76b-2d1e4fcbcafe","system_id":"levelo_inurba_marseille","lat":43.28477,"lon":5.38552,"is_reserved":false,"is_disabled":true,"rental_uris":{"android":"levelo://app?vid=4ee7a4b2-dea3-4f4a-a76b-2d1e4fcbcafe","ios":"levelo://app?vid=4ee7a4b2-dea3-4f4a-a76b-2d1e4fcbcafe"},"vehicle_type_id":"4","last_reported":1737994277,"current_range_meters":1200,"station_id":"ce4bh8p2rcd13ifvqeb0","pricing_plan_id":"cebpf4jnsgd1na2vs0mg"},{"bike_id":"c772779b-3b78-4143-a73c-c60232eed73c","system_id":"levelo_inurba_marseille","lat":43.32533,"lon":5.4145,"is_reserved":false,"is_disabled":false,"rental_uris":{"android":"levelo://app?vid=c772779b-3b78-4143-a73c-c60232eed73c","ios":"levelo://app?vid=c772779b-3b78-4143-a73c-c60232eed73c"},"vehicle_type_id":"4","last_reported":1737994277,"current_range_meters":35200,"station_id":"ce4bhq12rcd13ifvqhhg","pricing_plan_id":"cebpf4jnsgd1na2vs0mg"},{"bike_id":"e3e26aee-15e1-425c-a48f-db58aa520742","system_id":"levelo_inurba_marseille","lat":43.230735,"lon":5.354957,"is_reserved":false,"is_disabled":false,"rental_uris":{"android":"levelo://app?vid=e3e26aee-15e1-425c-a48f-db58aa520742","ios":"levelo://app?vid=e3e26aee-15e1-425c-a48f-db58aa520742"},"vehicle_type_id":"4","last_reported":1737994277,"current_range_meters":38800,"station_id":"cpo3342slgdg3j2ifvpg","pricing_plan_id":"cebpf4jnsgd1na2vs0mg"},{"bike_id":"9fb813cb-e992-4585-8f3d-d25d13081f3b","system_id":"levelo_inurba_marseille","lat":43.23195,"lon":5.35548,"is_reserved":false,"is_disabled":false,"rental_uris":{"android":"levelo://app?vid=9fb813cb-e992-4585-8f3d-d25d13081f3b","ios":"levelo://app?vid=9fb813cb-e992-4585-8f3d-d25d13081f3b"},"vehicle_type_id":"4","last_reported":1737994277,"current_range_meters":6400,"station_id":"ce4bhu92rcd13ifvqi70","pricing_plan_id":"cebpf4jnsgd1na2vs0mg"},{"bike_id":"414e9e87-13c8-4dd8-9df6-7723400a2d87","system_id":"levelo_inurba_marseille","lat":43.25929,"lon":5.40908,"is_reserved":false,"is_disabled":false,"rental_uris":{"android":"levelo://app?vid=414e9e87-13c8-4dd8-9df6-7723400a2d87","ios":"levelo://app?vid=414e9e87-13c8-4dd8-9df6-7723400a2d87"},"vehicle_type_id":"4","last_reported":1737994277,"current_range_meters":38800,"station_id":"ce4bhm92rcd13ifvqglg","pricing_plan_id":"cebpf4jnsgd1na2vs0mg"},{"bike_id":"4f0d564d-d2c5-4d63-8272-ec4ed8b18df2","system_id":"levelo_inurba_marseille","lat":43.25929,"lon":5.40925,"is_reserved":false,"is_disabled":false,"rental_uris":{"android":"levelo://app?vid=4f0d564d-d2c5-4d63-8272-ec4ed8b18df2","ios":"levelo://app?vid=4f0d564d-d2c5-4d63-8272-ec4ed8b18df2"},"vehicle_type_id":"4","last_reported":1737994277,"current_range_meters":30800,"station_id":"ce4bhm92rcd13ifvqglg","pricing_plan_id":"cebpf4jnsgd1na2vs0mg"},{"bike_id":"7c78a755-c7f5-4f07-a96b-621451d47948","system_id":"levelo_inurba_marseille","lat":43.29898,"lon":5.43689,"is_reserved":false,"is_disabled":false,"rental_uris":{"android":"levelo://app?vid=7c78a755-c7f5-4f07-a96b-621451d47948","ios":"levelo://app?vid=7c78a755-c7f5-4f07-a96b-621451d47948"},"vehicle_type_id":"4","last_reported":1737994277,"current_range_meters":27200,"station_id":"ce4bhpp2rcd13ifvqhfg","pricing_plan_id":"cebpf4jnsgd1na2vs0mg"},{"bike_id":"8400879d-33a5-4d4b-a222-8873fd1245ce","system_id":"levelo_inurba_marseille","lat":43.25506,"lon":5.37645,"is_reserved":false,"is_disabled":false,"rental_uris":{"android":"levelo://app?vid=8400879d-33a5-4d4b-a222-8873fd1245ce","ios":"levelo://app?vid=8400879d-33a5-4d4b-a222-8873fd1245ce"},"vehicle_type_id":"4","last_reported":1737994277,"current_range_meters":38800,"station_id":"ce4bhh12rcd13ifvqff0","pricing_plan_id":"cebpf4jnsgd1na2vs0mg"},{"bike_id":"e1d2b012-55a7-44cf-ae4a-384d38b76e20","system_id":"levelo_inurba_marseille","lat":43.262051,"lon":5.374464,"is_reserved":false,"is_disabled":false,"rental_uris":{"android":"levelo://app?vid=e1d2b012-55a7-44cf-ae4a-384d38b76e20","ios":"levelo://app?vid=e1d2b012-55a7-44cf-ae4a-384d38b76e20"},"vehicle_type_id":"4","last_reported":1737994277,"current_range_meters":35200,"station_id":"ce4bhgp2rcd13ifvqfc0","pricing_plan_id":"cebpf4jnsgd1na2vs0mg"},{"bike_id":"900407a7-75f0-4cd6-8c5d-8390a10e969b","system_id":"levelo_inurba_marseille","lat":43.29369,"lon":5.37868,"is_reserved":false,"is_disabled":false,"rental_uris":{"android":"levelo://app?vid=900407a7-75f0-4cd6-8c5d-8390a10e969b","ios":"levelo://app?vid=900407a7-75f0-4cd6-8c5d-8390a10e969b"},"vehicle_type_id":"4","last_reported":1737994277,"current_range_meters":38800,"station_id":"ce4bgjh2rcd13ifvqbf0","pricing_plan_id":"cebpf4jnsgd1na2vs0mg"},{"bike_id":"74760170-6b49-496b-8088-5b1a48629d0e","system_id":"levelo_inurba_marseille","lat":43.2418,"lon":5.39721,"is_reserved":false,"is_disabled":false,"rental_uris":{"android":"levelo://app?vid=74760170-6b49-496b-8088-5b1a48629d0e","ios":"levelo://app?vid=74760170-6b49-496b-8088-5b1a48629d0e"},"vehicle_type_id":"4","last_reported":1737994277,"current_range_meters":27600,"station_id":"ce4bhn12rcd13ifvqgpg","pricing_plan_id":"cebpf4jnsgd1na2vs0mg"},{"bike_id":"a6dc711e-12df-4598-8579-39c5bf751487","system_id":"levelo_inurba_marseille","lat":43.30146,"lon":5.38788,"is_reserved":false,"is_disabled":false,"rental_uris":{"android":"levelo://app?vid=a6dc711e-12df-4598-8579-39c5bf751487","ios":"levelo://app?vid=a6dc711e-12df-4598-8579-39c5bf751487"},"vehicle_type_id":"4","last_reported":1737994277,"current_range_meters":38800,"station_id":"ce4bghh2rcd13ifvqb60","pricing_plan_id":"cebpf4jnsgd1na2vs0mg"},{"bike_id":"a48a4fa8-387b-4ecc-bc7a-c3f07822bf47","system_id":"levelo_inurba_marseille","lat":43.2708,"lon":5.39237,"is_reserved":false,"is_disabled":true,"rental_uris":{"android":"levelo://app?vid=a48a4fa8-387b-4ecc-bc7a-c3f07822bf47","ios":"levelo://app?vid=a48a4fa8-387b-4ecc-bc7a-c3f07822bf47"},"vehicle_type_id":"4","last_reported":1737994277,"current_range_meters":0,"station_id":"","pricing_plan_id":"cebpf4jnsgd1na2vs0mg"},{"bike_id":"e30db756-0831-4170-9ebb-5007ad177c75","system_id":"levelo_inurba_marseille","lat":43.28456,"lon":5.35886,"is_reserved":false,"is_disabled":false,"rental_uris":{"android":"levelo://app?vid=e30db756-0831-4170-9ebb-5007ad177c75","ios":"levelo://app?vid=e30db756-0831-4170-9ebb-5007ad177c75"},"vehicle_type_id":"4","last_reported":1737994277,"current_range_meters":38400,"station_id":"ce4bhah2rcd13ifvqei0","pricing_plan_id":"cebpf4jnsgd1na2vs0mg"},{"bike_id":"29b8df05-d068-4bf2-a8e3-966e13dc4d38","system_id":"levelo_inurba_marseille","lat":43.30464,"lon":5.37902,"is_reserved":false,"is_disabled":true,"rental_uris":{"android":"levelo://app?vid=29b8df05-d068-4bf2-a8e3-966e13dc4d38","ios":"levelo://app?vid=29b8df05-d068-4bf2-a8e3-966e13dc4d38"},"vehicle_type_id":"4","last_reported":1737994277,"current_range_meters":38800,"station_id":"ce4bgup2rcd13ifvqcn0","pricing_plan_id":"cebpf4jnsgd1na2vs0mg"},{"bike_id":"a8d0380b-0a88-41c3-845f-e00ffb2cbc88","system_id":"levelo_inurba_marseille","lat":43.28004,"lon":5.39993,"is_reserved":false,"is_disabled":true,"rental_uris":{"android":"levelo://app?vid=a8d0380b-0a88-41c3-845f-e00ffb2cbc88","ios":"levelo://app?vid=a8d0380b-0a88-41c3-845f-e00ffb2cbc88"},"vehicle_type_id":"4","last_reported":1737994277,"current_range_meters":29600,"station_id":"ce4bho92rcd13ifvqh4g","pricing_plan_id":"cebpf4jnsgd1na2vs0mg"},{"bike_id":"960c2b1e-93ba-4e0e-baf5-fd8a6baa3c6b","system_id":"levelo_inurba_marseille","lat":43.25868,"lon":5.39893,"is_reserved":false,"is_disabled":true,"rental_uris":{"android":"levelo://app?vid=960c2b1e-93ba-4e0e-baf5-fd8a6baa3c6b","ios":"levelo://app?vid=960c2b1e-93ba-4e0e-baf5-fd8a6baa3c6b"},"vehicle_type_id":"4","last_reported":1737994277,"current_range_meters":36000,"station_id":"ce4bhl92rcd13ifvqghg","pricing_plan_id":"cebpf4jnsgd1na2vs0mg"},{"bike_id":"3006c6c1-b0be-4329-8933-12687a7ec8e0","system_id":"levelo_inurba_marseille","lat":43.29205,"lon":5.39324,"is_reserved":false,"is_disabled":false,"rental_uris":{"android":"levelo://app?vid=3006c6c1-b0be-4329-8933-12687a7ec8e0","ios":"levelo://app?vid=3006c6c1-b0be-4329-8933-12687a7ec8e0"},"vehicle_type_id":"4","last_reported":1737994277,"current_range_meters":8800,"station_id":"ce4bh192rcd13ifvqdd0","pricing_plan_id":"cebpf4jnsgd1na2vs0mg"},{"bike_id":"9c09af66-30f1-488d-910d-a8a905d02871","system_id":"levelo_inurba_marseille","lat":43.29373,"lon":5.37908,"is_reserved":false,"is_disabled":true,"rental_uris":{"android":"levelo://app?vid=9c09af66-30f1-488d-910d-a8a905d02871","ios":"levelo://app?vid=9c09af66-30f1-488d-910d-a8a905d02871"},"vehicle_type_id":"4","last_reported":1737994277,"current_range_meters":0,"station_id":"","pricing_plan_id":"cebpf4jnsgd1na2vs0mg"},{"bike_id":"a0647e71-4b64-4904-b96b-b4b0aa493cec","system_id":"levelo_inurba_marseille","lat":43.30327,"lon":5.4043,"is_reserved":false,"is_disabled":false,"rental_uris":{"android":"levelo://app?vid=a0647e71-4b64-4904-b96b-b4b0aa493cec","ios":"levelo://app?vid=a0647e71-4b64-4904-b96b-b4b0aa493cec"},"vehicle_type_id":"4","last_reported":1737994277,"current_range_meters":19600,"station_id":"ce4bh012rcd13ifvqd10","pricing_plan_id":"cebpf4jnsgd1na2vs0mg"},{"bike_id":"c62a51d5-db8e-4ebe-8bc8-65edfb0b8e96","system_id":"levelo_inurba_marseille","lat":43.31049,"lon":5.38396,"is_reserved":false,"is_disabled":false,"rental_uris":{"android":"levelo://app?vid=c62a51d5-db8e-4ebe-8bc8-65edfb0b8e96","ios":"levelo://app?vid=c62a51d5-db8e-4ebe-8bc8-65edfb0b8e96"},"vehicle_type_id":"4","last_reported":1737994277,"current_range_meters":16800,"station_id":"ce4bgv92rcd13ifvqcr0","pricing_plan_id":"cebpf4jnsgd1na2vs0mg"},{"bike_id":"22e948b1-900e-4a5c-9a5a-b682c4d5119c","system_id":"levelo_inurba_marseille","lat":43.23147,"lon":5.4371,"is_reserved":false,"is_disabled":false,"rental_uris":{"android":"levelo://app?vid=22e948b1-900e-4a5c-9a5a-b682c4d5119c","ios":"levelo://app?vid=22e948b1-900e-4a5c-9a5a-b682c4d5119c"},"vehicle_type_id":"4","last_reported":1737994277,"current_range_meters":24400,"station_id":"ce4bhmp2rcd13ifvqgog","pricing_plan_id":"cebpf4jnsgd1na2vs0mg"},{"bike_id":"c438c788-2c8f-4eda-8233-a8485c23c4af","system_id":"levelo_inurba_marseille","lat":43.30415,"lon":5.41279,"is_reserved":false,"is_disabled":true,"rental_uris":{"android":"levelo://app?vid=c438c788-2c8f-4eda-8233-a8485c23c4af","ios":"levelo://app?vid=c438c788-2c8f-4eda-8233-a8485c23c4af"},"vehicle_type_id":"4","last_reported":1737994277,"current_range_meters":0,"station_id":"ce4bhop2rcd13ifvqh8g","pricing_plan_id":"cebpf4jnsgd1na2vs0mg"},{"bike_id":"c2be73b7-5288-4722-9067-c8e77bf6e2a3","system_id":"levelo_inurba_marseille","lat":43.2901,"lon":5.38118,"is_reserved":false,"is_disabled":false,"rental_uris":{"android":"levelo://app?vid=c2be73b7-5288-4722-9067-c8e77bf6e2a3","ios":"levelo://app?vid=c2be73b7-5288-4722-9067-c8e77bf6e2a3"},"vehicle_type_id":"4","last_reported":1737994277,"current_range_meters":36000,"station_id":"ce4bh4p2rcd13ifvqe1g","pricing_plan_id":"cebpf4jnsgd1na2vs0mg"},{"bike_id":"c8d48caa-591d-43fc-a34d-e9409bd0f176","system_id":"levelo_inurba_marseille","lat":43.31326,"lon":5.39695,"is_reserved":false,"is_disabled":false,"rental_uris":{"android":"levelo://app?vid=c8d48caa-591d-43fc-a34d-e9409bd0f176","ios":"levelo://app?vid=c8d48caa-591d-43fc-a34d-e9409bd0f176"},"vehicle_type_id":"4","last_reported":1737994277,"current_range_meters":39200,"station_id":"ce4bgvp2rcd13ifvqcu0","pricing_plan_id":"cebpf4jnsgd1na2vs0mg"},{"bike_id":"cd1efc7d-a508-45bb-b4da-e8c0f2edb31a","system_id":"levelo_inurba_marseille","lat":43.31227,"lon":5.36875,"is_reserved":false,"is_disabled":false,"rental_uris":{"android":"levelo://app?vid=cd1efc7d-a508-45bb-b4da-e8c0f2edb31a","ios":"levelo://app?vid=cd1efc7d-a508-45bb-b4da-e8c0f2edb31a"},"vehicle_type_id":"4","last_reported":1737994277,"current_range_meters":12800,"station_id":"ce4bgl92rcd13ifvqbq0","pricing_plan_id":"cebpf4jnsgd1na2vs0mg"},{"bike_id":"fcabe70f-2a3b-472c-9e01-78ffdf3bc028","system_id":"levelo_inurba_marseille","lat":43.30197,"lon":5.39476,"is_reserved":false,"is_disabled":false,"rental_uris":{"android":"levelo://app?vid=fcabe70f-2a3b-472c-9e01-78ffdf3bc028","ios":"levelo://app?vid=fcabe70f-2a3b-472c-9e01-78ffdf3bc028"},"vehicle_type_id":"4","last_reported":1737994277,"current_range_meters":38000,"station_id":"ce4bh0p2rcd13ifvqd70","pricing_plan_id":"cebpf4jnsgd1na2vs0mg"},{"bike_id":"ee0b4cd5-99fe-4d06-bec7-ab86f35f9695","system_id":"levelo_inurba_marseille","lat":43.291,"lon":5.38141,"is_reserved":false,"is_disabled":false,"rental_uris":{"android":"levelo://app?vid=ee0b4cd5-99fe-4d06-bec7-ab86f35f9695","ios":"levelo://app?vid=ee0b4cd5-99fe-4d06-bec7-ab86f35f9695"},"vehicle_type_id":"4","last_reported":1737994277,"current_range_meters":27600,"station_id":"ce4bh512rcd13ifvqe2g","pricing_plan_id":"cebpf4jnsgd1na2vs0mg"},{"bike_id":"3d98c6ce-e80d-46e8-b577-648cd8c28632","system_id":"levelo_inurba_marseille","lat":43.34699,"lon":5.34741,"is_reserved":false,"is_disabled":true,"rental_uris":{"android":"levelo://app?vid=3d98c6ce-e80d-46e8-b577-648cd8c28632","ios":"levelo://app?vid=3d98c6ce-e80d-46e8-b577-648cd8c28632"},"vehicle_type_id":"4","last_reported":1737994277,"current_range_meters":0,"station_id":"","pricing_plan_id":"cebpf4jnsgd1na2vs0mg"},{"bike_id":"a47bb96c-8b72-4f0c-b810-e2652abe0975","system_id":"levelo_inurba_marseille","lat":43.31254,"lon":5.36839,"is_reserved":false,"is_disabled":false,"rental_uris":{"android":"levelo://app?vid=a47bb96c-8b72-4f0c-b810-e2652abe0975","ios":"levelo://app?vid=a47bb96c-8b72-4f0c-b810-e2652abe0975"},"vehicle_type_id":"4","last_reported":1737994277,"current_range_meters":13600,"station_id":"ce4bgl92rcd13ifvqbq0","pricing_plan_id":"cebpf4jnsgd1na2vs0mg"},{"bike_id":"63a6e162-6603-4fcb-a753-da424f9ebdb7","system_id":"levelo_inurba_marseille","lat":43.32353,"lon":5.36754,"is_reserved":false,"is_disabled":false,"rental_uris":{"android":"levelo://app?vid=63a6e162-6603-4fcb-a753-da424f9ebdb7","ios":"levelo://app?vid=63a6e162-6603-4fcb-a753-da424f9ebdb7"},"vehicle_type_id":"4","last_reported":1737994277,"current_range_meters":11600,"station_id":"ce4bhsh2rcd13ifvqi2g","pricing_plan_id":"cebpf4jnsgd1na2vs0mg"},{"bike_id":"16cba4e1-cb10-44ef-b1a1-eca95385335f","system_id":"levelo_inurba_marseille","lat":43.28435,"lon":5.34998,"is_reserved":false,"is_disabled":true,"rental_uris":{"android":"levelo://app?vid=16cba4e1-cb10-44ef-b1a1-eca95385335f","ios":"levelo://app?vid=16cba4e1-cb10-44ef-b1a1-eca95385335f"},"vehicle_type_id":"4","last_reported":1737994277,"current_range_meters":35200,"station_id":"ce4bhbh2rcd13ifvqepg","pricing_plan_id":"cebpf4jnsgd1na2vs0mg"},{"bike_id":"9c6c808c-2344-4484-b654-8a68fb115aa6","system_id":"levelo_inurba_marseille","lat":43.31463,"lon":5.37396,"is_reserved":false,"is_disabled":false,"rental_uris":{"android":"levelo://app?vid=9c6c808c-2344-4484-b654-8a68fb115aa6","ios":"levelo://app?vid=9c6c808c-2344-4484-b654-8a68fb115aa6"},"vehicle_type_id":"4","last_reported":1737994277,"current_range_meters":33600,"station_id":"","pricing_plan_id":"cebpf4jnsgd1na2vs0mg"},{"bike_id":"f18dafe1-3f45-4a08-94f9-e849bfe3564d","system_id":"levelo_inurba_marseille","lat":43.31711,"lon":5.37756,"is_reserved":false,"is_disabled":false,"rental_uris":{"android":"levelo://app?vid=f18dafe1-3f45-4a08-94f9-e849bfe3564d","ios":"levelo://app?vid=f18dafe1-3f45-4a08-94f9-e849bfe3564d"},"vehicle_type_id":"4","last_reported":1737994277,"current_range_meters":38800,"station_id":"ce4bgth2rcd13ifvqch0","pricing_plan_id":"cebpf4jnsgd1na2vs0mg"},{"bike_id":"641137b0-17df-4e28-adbb-ed7e8e5e6190","system_id":"levelo_inurba_marseille","lat":43.26562,"lon":5.37281,"is_reserved":false,"is_disabled":false,"rental_uris":{"android":"levelo://app?vid=641137b0-17df-4e28-adbb-ed7e8e5e6190","ios":"levelo://app?vid=641137b0-17df-4e28-adbb-ed7e8e5e6190"},"vehicle_type_id":"4","last_reported":1737994277,"current_range_meters":9200,"station_id":"ce4bhg12rcd13ifvqf70","pricing_plan_id":"cebpf4jnsgd1na2vs0mg"},{"bike_id":"8fc5f132-29ed-47c1-bff0-bf17728d82ae","system_id":"levelo_inurba_marseille","lat":43.29375,"lon":5.37868,"is_reserved":false,"is_disabled":true,"rental_uris":{"android":"levelo://app?vid=8fc5f132-29ed-47c1-bff0-bf17728d82ae","ios":"levelo://app?vid=8fc5f132-29ed-47c1-bff0-bf17728d82ae"},"vehicle_type_id":"4","last_reported":1737994277,"current_range_meters":28800,"station_id":"ce4bgjh2rcd13ifvqbf0","pricing_plan_id":"cebpf4jnsgd1na2vs0mg"},{"bike_id":"51523673-3f72-4acd-995f-f03daab863a1","system_id":"levelo_inurba_marseille","lat":43.30881,"lon":5.39638,"is_reserved":false,"is_disabled":false,"rental_uris":{"android":"levelo://app?vid=51523673-3f72-4acd-995f-f03daab863a1","ios":"levelo://app?vid=51523673-3f72-4acd-995f-f03daab863a1"},"vehicle_type_id":"4","last_reported":1737994277,"current_range_meters":38800,"station_id":"ce4bh012rcd13ifvqcv0","pricing_plan_id":"cebpf4jnsgd1na2vs0mg"},{"bike_id":"a6b369d9-cb26-406e-b1d4-048c7a196255","system_id":"levelo_inurba_marseille","lat":43.27978,"lon":5.40031,"is_reserved":false,"is_disabled":false,"rental_uris":{"android":"levelo://app?vid=a6b369d9-cb26-406e-b1d4-048c7a196255","ios":"levelo://app?vid=a6b369d9-cb26-406e-b1d4-048c7a196255"},"vehicle_type_id":"4","last_reported":1737994277,"current_range_meters":14400,"station_id":"ce4bho92rcd13ifvqh4g","pricing_plan_id":"cebpf4jnsgd1na2vs0mg"},{"bike_id":"f9698cf2-528a-4eb5-8fcb-d8779a5ea20c","system_id":"levelo_inurba_marseille","lat":43.26208,"lon":5.37448,"is_reserved":false,"is_disabled":false,"rental_uris":{"android":"levelo://app?vid=f9698cf2-528a-4eb5-8fcb-d8779a5ea20c","ios":"levelo://app?vid=f9698cf2-528a-4eb5-8fcb-d8779a5ea20c"},"vehicle_type_id":"4","last_reported":1737994277,"current_range_meters":23200,"station_id":"ce4bhgp2rcd13ifvqfc0","pricing_plan_id":"cebpf4jnsgd1na2vs0mg"},{"bike_id":"63121853-d3ae-48b9-933c-579cf2441cbf","system_id":"levelo_inurba_marseille","lat":43.28457,"lon":5.35879,"is_reserved":false,"is_disabled":false,"rental_uris":{"android":"levelo://app?vid=63121853-d3ae-48b9-933c-579cf2441cbf","ios":"levelo://app?vid=63121853-d3ae-48b9-933c-579cf2441cbf"},"vehicle_type_id":"4","last_reported":1737994277,"current_range_meters":38800,"station_id":"ce4bhah2rcd13ifvqei0","pricing_plan_id":"cebpf4jnsgd1na2vs0mg"},{"bike_id":"79cfbf55-97ec-4a5b-af3a-38bd70f71f3a","system_id":"levelo_inurba_marseille","lat":43.23191,"lon":5.35547,"is_reserved":false,"is_disabled":false,"rental_uris":{"android":"levelo://app?vid=79cfbf55-97ec-4a5b-af3a-38bd70f71f3a","ios":"levelo://app?vid=79cfbf55-97ec-4a5b-af3a-38bd70f71f3a"},"vehicle_type_id":"4","last_reported":1737994277,"current_range_meters":10800,"station_id":"ce4bhu92rcd13ifvqi70","pricing_plan_id":"cebpf4jnsgd1na2vs0mg"},{"bike_id":"be7708aa-d2ec-4ed8-9b2b-8af31426c425","system_id":"levelo_inurba_marseille","lat":43.29971,"lon":5.37168,"is_reserved":false,"is_disabled":false,"rental_uris":{"android":"levelo://app?vid=be7708aa-d2ec-4ed8-9b2b-8af31426c425","ios":"levelo://app?vid=be7708aa-d2ec-4ed8-9b2b-8af31426c425"},"vehicle_type_id":"4","last_reported":1737994277,"current_range_meters":25600,"station_id":"ce4bgr92rcd13ifvqc7g","pricing_plan_id":"cebpf4jnsgd1na2vs0mg"},{"bike_id":"16d24164-299e-4258-9525-c5ffdbd5c047","system_id":"levelo_inurba_marseille","lat":43.26198,"lon":5.3793,"is_reserved":false,"is_disabled":false,"rental_uris":{"android":"levelo://app?vid=16d24164-299e-4258-9525-c5ffdbd5c047","ios":"levelo://app?vid=16d24164-299e-4258-9525-c5ffdbd5c047"},"vehicle_type_id":"4","last_reported":1737994277,"current_range_meters":38000,"station_id":"ce4bhjp2rcd13ifvqg90","pricing_plan_id":"cebpf4jnsgd1na2vs0mg"},{"bike_id":"f4a67fd7-7ba0-462e-b321-724410a83bc3","system_id":"levelo_inurba_marseille","lat":43.28622,"lon":5.35095,"is_reserved":false,"is_disabled":false,"rental_uris":{"android":"levelo://app?vid=f4a67fd7-7ba0-462e-b321-724410a83bc3","ios":"levelo://app?vid=f4a67fd7-7ba0-462e-b321-724410a83bc3"},"vehicle_type_id":"4","last_reported":1737994277,"current_range_meters":36800,"station_id":"ce4bhch2rcd13ifvqeug","pricing_plan_id":"cebpf4jnsgd1na2vs0mg"},{"bike_id":"464c9cdf-360c-413c-85e0-bed94a651ca7","system_id":"levelo_inurba_marseille","lat":43.23185,"lon":5.39982,"is_reserved":false,"is_disabled":true,"rental_uris":{"android":"levelo://app?vid=464c9cdf-360c-413c-85e0-bed94a651ca7","ios":"levelo://app?vid=464c9cdf-360c-413c-85e0-bed94a651ca7"},"vehicle_type_id":"4","last_reported":1737994277,"current_range_meters":0,"station_id":"ce4bhn12rcd13ifvqgqg","pricing_plan_id":"cebpf4jnsgd1na2vs0mg"},{"bike_id":"79deb074-8b1a-43e8-8d83-a609988b6e6f","system_id":"levelo_inurba_marseille","lat":43.28362,"lon":5.38643,"is_reserved":false,"is_disabled":false,"rental_uris":{"android":"levelo://app?vid=79deb074-8b1a-43e8-8d83-a609988b6e6f","ios":"levelo://app?vid=79deb074-8b1a-43e8-8d83-a609988b6e6f"},"vehicle_type_id":"4","last_reported":1737994277,"current_range_meters":24800,"station_id":"ce4bh492rcd13ifvqdvg","pricing_plan_id":"cebpf4jnsgd1na2vs0mg"},{"bike_id":"3d64d7d2-3259-40ac-8d44-5551c7d82c8a","system_id":"levelo_inurba_marseille","lat":43.23165,"lon":5.43699,"is_reserved":false,"is_disabled":false,"rental_uris":{"android":"levelo://app?vid=3d64d7d2-3259-40ac-8d44-5551c7d82c8a","ios":"levelo://app?vid=3d64d7d2-3259-40ac-8d44-5551c7d82c8a"},"vehicle_type_id":"4","last_reported":1737994277,"current_range_meters":34000,"station_id":"ce4bhmp2rcd13ifvqgog","pricing_plan_id":"cebpf4jnsgd1na2vs0mg"},{"bike_id":"c85ab07a-feec-427c-a68a-77bc8b7b8560","system_id":"levelo_inurba_marseille","lat":43.29946,"lon":5.401,"is_reserved":false,"is_disabled":false,"rental_uris":{"android":"levelo://app?vid=c85ab07a-feec-427c-a68a-77bc8b7b8560","ios":"levelo://app?vid=c85ab07a-feec-427c-a68a-77bc8b7b8560"},"vehicle_type_id":"4","last_reported":1737994277,"current_range_meters":22800,"station_id":"ce4bgt12rcd13ifvqce0","pricing_plan_id":"cebpf4jnsgd1na2vs0mg"},{"bike_id":"4008c5d4-accb-4981-8933-9e85f4cde128","system_id":"levelo_inurba_marseille","lat":43.23201,"lon":5.35542,"is_reserved":false,"is_disabled":false,"rental_uris":{"android":"levelo://app?vid=4008c5d4-accb-4981-8933-9e85f4cde128","ios":"levelo://app?vid=4008c5d4-accb-4981-8933-9e85f4cde128"},"vehicle_type_id":"4","last_reported":1737994277,"current_range_meters":16800,"station_id":"ce4bhu92rcd13ifvqi70","pricing_plan_id":"cebpf4jnsgd1na2vs0mg"},{"bike_id":"4b97fadc-60a8-46a0-ba51-350631f405f8","system_id":"levelo_inurba_marseille","lat":43.269444,"lon":5.402506,"is_reserved":false,"is_disabled":false,"rental_uris":{"android":"levelo://app?vid=4b97fadc-60a8-46a0-ba51-350631f405f8","ios":"levelo://app?vid=4b97fadc-60a8-46a0-ba51-350631f405f8"},"vehicle_type_id":"4","last_reported":1737994277,"current_range_meters":37600,"station_id":"cjm6bp8fraef2m0cb0m0","pricing_plan_id":"cebpf4jnsgd1na2vs0mg"},{"bike_id":"fecdd18a-aee3-46cf-b9f6-4c07ce305fcf","system_id":"levelo_inurba_marseille","lat":43.30225,"lon":5.39446,"is_reserved":false,"is_disabled":false,"rental_uris":{"android":"levelo://app?vid=fecdd18a-aee3-46cf-b9f6-4c07ce305fcf","ios":"levelo://app?vid=fecdd18a-aee3-46cf-b9f6-4c07ce305fcf"},"vehicle_type_id":"4","last_reported":1737994277,"current_range_meters":32400,"station_id":"ce4bh0p2rcd13ifvqd70","pricing_plan_id":"cebpf4jnsgd1na2vs0mg"},{"bike_id":"8610449e-edda-44d1-a8da-51416a4c509d","system_id":"levelo_inurba_marseille","lat":43.25734,"lon":5.41095,"is_reserved":false,"is_disabled":false,"rental_uris":{"android":"levelo://app?vid=8610449e-edda-44d1-a8da-51416a4c509d","ios":"levelo://app?vid=8610449e-edda-44d1-a8da-51416a4c509d"},"vehicle_type_id":"4","last_reported":1737994277,"current_range_meters":6400,"station_id":"ce4bhkp2rcd13ifvqgd0","pricing_plan_id":"cebpf4jnsgd1na2vs0mg"},{"bike_id":"c47da181-033f-4c98-9f61-1d67f07c30cb","system_id":"levelo_inurba_marseille","lat":43.28452,"lon":5.35892,"is_reserved":false,"is_disabled":true,"rental_uris":{"android":"levelo://app?vid=c47da181-033f-4c98-9f61-1d67f07c30cb","ios":"levelo://app?vid=c47da181-033f-4c98-9f61-1d67f07c30cb"},"vehicle_type_id":"4","last_reported":1737994277,"current_range_meters":400,"station_id":"ce4bhah2rcd13ifvqei0","pricing_plan_id":"cebpf4jnsgd1na2vs0mg"},{"bike_id":"74b98b9d-33c5-4daa-8644-f469fbfdd6eb","system_id":"levelo_inurba_marseille","lat":43.25871,"lon":5.39906,"is_reserved":false,"is_disabled":false,"rental_uris":{"android":"levelo://app?vid=74b98b9d-33c5-4daa-8644-f469fbfdd6eb","ios":"levelo://app?vid=74b98b9d-33c5-4daa-8644-f469fbfdd6eb"},"vehicle_type_id":"4","last_reported":1737994277,"current_range_meters":37600,"station_id":"ce4bhl92rcd13ifvqghg","pricing_plan_id":"cebpf4jnsgd1na2vs0mg"},{"bike_id":"af27571c-dbd9-4da4-85f4-96f3d0a1f3af","system_id":"levelo_inurba_marseille","lat":43.25023,"lon":5.38905,"is_reserved":false,"is_disabled":false,"rental_uris":{"android":"levelo://app?vid=af27571c-dbd9-4da4-85f4-96f3d0a1f3af","ios":"levelo://app?vid=af27571c-dbd9-4da4-85f4-96f3d0a1f3af"},"vehicle_type_id":"4","last_reported":1737994277,"current_range_meters":38800,"station_id":"ce4bhgp2rcd13ifvqfd0","pricing_plan_id":"cebpf4jnsgd1na2vs0mg"},{"bike_id":"81341fa6-1cf6-497b-87a5-9e264a5c06ed","system_id":"levelo_inurba_marseille","lat":43.28635,"lon":5.35088,"is_reserved":false,"is_disabled":false,"rental_uris":{"android":"levelo://app?vid=81341fa6-1cf6-497b-87a5-9e264a5c06ed","ios":"levelo://app?vid=81341fa6-1cf6-497b-87a5-9e264a5c06ed"},"vehicle_type_id":"4","last_reported":1737994277,"current_range_meters":33600,"station_id":"ce4bhch2rcd13ifvqeug","pricing_plan_id":"cebpf4jnsgd1na2vs0mg"},{"bike_id":"d34327a1-f0de-4d8f-be65-c892bdcf6fdd","system_id":"levelo_inurba_marseille","lat":43.32487,"lon":5.36563,"is_reserved":false,"is_disabled":false,"rental_uris":{"android":"levelo://app?vid=d34327a1-f0de-4d8f-be65-c892bdcf6fdd","ios":"levelo://app?vid=d34327a1-f0de-4d8f-be65-c892bdcf6fdd"},"vehicle_type_id":"4","last_reported":1737994277,"current_range_meters":33200,"station_id":"ce4bhs12rcd13ifvqhvg","pricing_plan_id":"cebpf4jnsgd1na2vs0mg"},{"bike_id":"3d5f4cc3-2d54-4709-b321-1dea31f6ecf7","system_id":"levelo_inurba_marseille","lat":43.29785,"lon":5.39332,"is_reserved":false,"is_disabled":false,"rental_uris":{"android":"levelo://app?vid=3d5f4cc3-2d54-4709-b321-1dea31f6ecf7","ios":"levelo://app?vid=3d5f4cc3-2d54-4709-b321-1dea31f6ecf7"},"vehicle_type_id":"4","last_reported":1737994277,"current_range_meters":8400,"station_id":"chh1huq6cuj3fo74tm60","pricing_plan_id":"cebpf4jnsgd1na2vs0mg"},{"bike_id":"73a22a2e-ac85-4a12-a915-e2f824e6d867","system_id":"levelo_inurba_marseille","lat":43.32485,"lon":5.36582,"is_reserved":false,"is_disabled":false,"rental_uris":{"android":"levelo://app?vid=73a22a2e-ac85-4a12-a915-e2f824e6d867","ios":"levelo://app?vid=73a22a2e-ac85-4a12-a915-e2f824e6d867"},"vehicle_type_id":"4","last_reported":1737994277,"current_range_meters":36400,"station_id":"ce4bhs12rcd13ifvqhvg","pricing_plan_id":"cebpf4jnsgd1na2vs0mg"},{"bike_id":"233fa84f-6398-4418-80e7-69220f8ae715","system_id":"levelo_inurba_marseille","lat":43.23199,"lon":5.35551,"is_reserved":false,"is_disabled":false,"rental_uris":{"android":"levelo://app?vid=233fa84f-6398-4418-80e7-69220f8ae715","ios":"levelo://app?vid=233fa84f-6398-4418-80e7-69220f8ae715"},"vehicle_type_id":"4","last_reported":1737994277,"current_range_meters":36400,"station_id":"ce4bhu92rcd13ifvqi70","pricing_plan_id":"cebpf4jnsgd1na2vs0mg"},{"bike_id":"fa8862d9-be1f-42f9-a1c5-1e309e7bd583","system_id":"levelo_inurba_marseille","lat":43.28932,"lon":5.38407,"is_reserved":false,"is_disabled":true,"rental_uris":{"android":"levelo://app?vid=fa8862d9-be1f-42f9-a1c5-1e309e7bd583","ios":"levelo://app?vid=fa8862d9-be1f-42f9-a1c5-1e309e7bd583"},"vehicle_type_id":"4","last_reported":1737994277,"current_range_meters":0,"station_id":"ce4bh612rcd13ifvqe6g","pricing_plan_id":"cebpf4jnsgd1na2vs0mg"},{"bike_id":"ee1c5b79-9d55-416f-b9c4-98316bfb5623","system_id":"levelo_inurba_marseille","lat":43.26017,"lon":5.39821,"is_reserved":false,"is_disabled":true,"rental_uris":{"android":"levelo://app?vid=ee1c5b79-9d55-416f-b9c4-98316bfb5623","ios":"levelo://app?vid=ee1c5b79-9d55-416f-b9c4-98316bfb5623"},"vehicle_type_id":"4","last_reported":1737994277,"current_range_meters":38000,"station_id":"","pricing_plan_id":"cebpf4jnsgd1na2vs0mg"},{"bike_id":"e8a0f7d1-c376-4bf0-b117-ae9fc107656c","system_id":"levelo_inurba_marseille","lat":43.29365,"lon":5.37886,"is_reserved":false,"is_disabled":true,"rental_uris":{"android":"levelo://app?vid=e8a0f7d1-c376-4bf0-b117-ae9fc107656c","ios":"levelo://app?vid=e8a0f7d1-c376-4bf0-b117-ae9fc107656c"},"vehicle_type_id":"4","last_reported":1737994277,"current_range_meters":7200,"station_id":"ce4bgjh2rcd13ifvqbf0","pricing_plan_id":"cebpf4jnsgd1na2vs0mg"},{"bike_id":"0eefcbfb-d4e9-43b4-9e17-25bf10b1a4b1","system_id":"levelo_inurba_marseille","lat":43.29572,"lon":5.3751,"is_reserved":false,"is_disabled":false,"rental_uris":{"android":"levelo://app?vid=0eefcbfb-d4e9-43b4-9e17-25bf10b1a4b1","ios":"levelo://app?vid=0eefcbfb-d4e9-43b4-9e17-25bf10b1a4b1"},"vehicle_type_id":"4","last_reported":1737994277,"current_range_meters":20800,"station_id":"ce4bgh92rcd13ifvqb50","pricing_plan_id":"cebpf4jnsgd1na2vs0mg"},{"bike_id":"c50cf93a-6b59-47ad-b33e-2c9c3fe13678","system_id":"levelo_inurba_marseille","lat":43.30553,"lon":5.36713,"is_reserved":false,"is_disabled":false,"rental_uris":{"android":"levelo://app?vid=c50cf93a-6b59-47ad-b33e-2c9c3fe13678","ios":"levelo://app?vid=c50cf93a-6b59-47ad-b33e-2c9c3fe13678"},"vehicle_type_id":"4","last_reported":1737994277,"current_range_meters":0,"station_id":"ce4bgrp2rcd13ifvqc9g","pricing_plan_id":"cebpf4jnsgd1na2vs0mg"},{"bike_id":"bb3d3404-de57-4e3b-973e-9adeb10d6e80","system_id":"levelo_inurba_marseille","lat":43.26558,"lon":5.37285,"is_reserved":false,"is_disabled":false,"rental_uris":{"android":"levelo://app?vid=bb3d3404-de57-4e3b-973e-9adeb10d6e80","ios":"levelo://app?vid=bb3d3404-de57-4e3b-973e-9adeb10d6e80"},"vehicle_type_id":"4","last_reported":1737994277,"current_range_meters":20400,"station_id":"ce4bhg12rcd13ifvqf70","pricing_plan_id":"cebpf4jnsgd1na2vs0mg"},{"bike_id":"037509e4-5b30-47b6-8e7b-dca5397de887","system_id":"levelo_inurba_marseille","lat":43.3128,"lon":5.40165,"is_reserved":false,"is_disabled":true,"rental_uris":{"android":"levelo://app?vid=037509e4-5b30-47b6-8e7b-dca5397de887","ios":"levelo://app?vid=037509e4-5b30-47b6-8e7b-dca5397de887"},"vehicle_type_id":"4","last_reported":1737994277,"current_range_meters":26800,"station_id":"ce4bh092rcd13ifvqd30","pricing_plan_id":"cebpf4jnsgd1na2vs0mg"},{"bike_id":"3e7d6930-2338-4144-919b-0b2396e0f376","system_id":"levelo_inurba_marseille","lat":43.29943,"lon":5.365393,"is_reserved":false,"is_disabled":false,"rental_uris":{"android":"levelo://app?vid=3e7d6930-2338-4144-919b-0b2396e0f376","ios":"levelo://app?vid=3e7d6930-2338-4144-919b-0b2396e0f376"},"vehicle_type_id":"4","last_reported":1737994277,"current_range_meters":36000,"station_id":"ce4bgm92rcd13ifvqbr0","pricing_plan_id":"cebpf4jnsgd1na2vs0mg"},{"bike_id":"9592fc6b-1ebb-43c2-93a8-4965e5d51632","system_id":"levelo_inurba_marseille","lat":43.28637,"lon":5.35126,"is_reserved":false,"is_disabled":false,"rental_uris":{"android":"levelo://app?vid=9592fc6b-1ebb-43c2-93a8-4965e5d51632","ios":"levelo://app?vid=9592fc6b-1ebb-43c2-93a8-4965e5d51632"},"vehicle_type_id":"4","last_reported":1737994277,"current_range_meters":30800,"station_id":"ce4bhch2rcd13ifvqeug","pricing_plan_id":"cebpf4jnsgd1na2vs0mg"},{"bike_id":"5b521e83-e4df-4cc7-9e09-fb37d7204b24","system_id":"levelo_inurba_marseille","lat":43.28402,"lon":5.37528,"is_reserved":false,"is_disabled":false,"rental_uris":{"android":"levelo://app?vid=5b521e83-e4df-4cc7-9e09-fb37d7204b24","ios":"levelo://app?vid=5b521e83-e4df-4cc7-9e09-fb37d7204b24"},"vehicle_type_id":"4","last_reported":1737994277,"current_range_meters":37600,"station_id":"ce4bh412rcd13ifvqds0","pricing_plan_id":"cebpf4jnsgd1na2vs0mg"},{"bike_id":"f2059a73-793b-425c-84f3-a85f4ee1244d","system_id":"levelo_inurba_marseille","lat":43.27885,"lon":5.380031,"is_reserved":false,"is_disabled":false,"rental_uris":{"android":"levelo://app?vid=f2059a73-793b-425c-84f3-a85f4ee1244d","ios":"levelo://app?vid=f2059a73-793b-425c-84f3-a85f4ee1244d"},"vehicle_type_id":"4","last_reported":1737994277,"current_range_meters":12400,"station_id":"ce4bhf92rcd13ifvqf50","pricing_plan_id":"cebpf4jnsgd1na2vs0mg"},{"bike_id":"e5c9d44e-aa38-4b68-aa7f-0e99bced04c3","system_id":"levelo_inurba_marseille","lat":43.30779,"lon":5.37651,"is_reserved":false,"is_disabled":false,"rental_uris":{"android":"levelo://app?vid=e5c9d44e-aa38-4b68-aa7f-0e99bced04c3","ios":"levelo://app?vid=e5c9d44e-aa38-4b68-aa7f-0e99bced04c3"},"vehicle_type_id":"4","last_reported":1737994277,"current_range_meters":39200,"station_id":"ce4bgv92rcd13ifvqcq0","pricing_plan_id":"cebpf4jnsgd1na2vs0mg"},{"bike_id":"29ce3c92-2d32-49f3-b7c7-bafac6123304","system_id":"levelo_inurba_marseille","lat":43.31268,"lon":5.40169,"is_reserved":false,"is_disabled":false,"rental_uris":{"android":"levelo://app?vid=29ce3c92-2d32-49f3-b7c7-bafac6123304","ios":"levelo://app?vid=29ce3c92-2d32-49f3-b7c7-bafac6123304"},"vehicle_type_id":"4","last_reported":1737994277,"current_range_meters":33200,"station_id":"ce4bh092rcd13ifvqd30","pricing_plan_id":"cebpf4jnsgd1na2vs0mg"},{"bike_id":"91248824-8d69-44c0-8d68-952811596fb0","system_id":"levelo_inurba_marseille","lat":43.26796,"lon":5.39427,"is_reserved":false,"is_disabled":false,"rental_uris":{"android":"levelo://app?vid=91248824-8d69-44c0-8d68-952811596fb0","ios":"levelo://app?vid=91248824-8d69-44c0-8d68-952811596fb0"},"vehicle_type_id":"4","last_reported":1737994277,"current_range_meters":37600,"station_id":"ce4bhh12rcd13ifvqfg0","pricing_plan_id":"cebpf4jnsgd1na2vs0mg"},{"bike_id":"32fef013-8e5f-4166-bd42-7087542e6443","system_id":"levelo_inurba_marseille","lat":43.29056,"lon":5.38632,"is_reserved":false,"is_disabled":false,"rental_uris":{"android":"levelo://app?vid=32fef013-8e5f-4166-bd42-7087542e6443","ios":"levelo://app?vid=32fef013-8e5f-4166-bd42-7087542e6443"},"vehicle_type_id":"4","last_reported":1737994277,"current_range_meters":39200,"station_id":"ce4bh4p2rcd13ifvqe0g","pricing_plan_id":"cebpf4jnsgd1na2vs0mg"},{"bike_id":"5a16a0f5-fc08-4953-a4fd-481a7027c716","system_id":"levelo_inurba_marseille","lat":43.26944,"lon":5.40242,"is_reserved":false,"is_disabled":false,"rental_uris":{"android":"levelo://app?vid=5a16a0f5-fc08-4953-a4fd-481a7027c716","ios":"levelo://app?vid=5a16a0f5-fc08-4953-a4fd-481a7027c716"},"vehicle_type_id":"4","last_reported":1737994277,"current_range_meters":39200,"station_id":"cjm6bp8fraef2m0cb0m0","pricing_plan_id":"cebpf4jnsgd1na2vs0mg"},{"bike_id":"94bc8364-5f09-4728-85d6-ec9cb2aac6a6","system_id":"levelo_inurba_marseille","lat":43.31311,"lon":5.39726,"is_reserved":false,"is_disabled":false,"rental_uris":{"android":"levelo://app?vid=94bc8364-5f09-4728-85d6-ec9cb2aac6a6","ios":"levelo://app?vid=94bc8364-5f09-4728-85d6-ec9cb2aac6a6"},"vehicle_type_id":"4","last_reported":1737994277,"current_range_meters":30000,"station_id":"ce4bgvp2rcd13ifvqcu0","pricing_plan_id":"cebpf4jnsgd1na2vs0mg"},