{"last_updated":1774384260,"ttl":60,"version":"2.2","data":{"bikes":[{"bike_id":"5a7eadde-5981-46d7-beaf-f32b876e7bcb","system_id":"levelo_inurba_marseille","lat":43.28339,"lon":5.38112,"is_reserved":false,"is_disabled":false,"rental_uris":{"android":"levelo://app?vid=5a7eadde-5981-46d7-beaf-f32b876e7bcb","ios":"levelo://app?vid=5a7eadde-5981-46d7-beaf-f32b876e7bcb"},"vehicle_type_id":"4","last_reported":1774384261,"current_range_meters":2800,"station_id":"ce4bh412rcd13ifvqdr0","pricing_plan_id":"cebpf4jnsgd1na2vs0mg"},{"bike_id":"0985f954-92f9-461f-b427-f3b65a2b2aed","system_id":"levelo_inurba_marseille","lat":43.231847,"lon":5.399798,"is_reserved":false,"is_disabled":false,"rental_uris":{"android":"levelo://app?vid=0985f954-92f9-461f-b427-f3b65a2b2aed","ios":"levelo://app?vid=0985f954-92f9-461f-b427-f3b65a2b2aed"},"vehicle_type_id":"4","last_reported":1774384261,"current_range_meters":2800,"station_id":"ce4bhn12rcd13ifvqgqg","pricing_plan_id":"cebpf4jnsgd1na2vs0mg"},{"bike_id":"67a60bb8-f9d8-4dda-8509-6e87138f0df2","system_id":"levelo_inurba_marseille","lat":43.30233,"lon":5.40057,"is_reserved":false,"is_disabled":true,"rental_uris":{"android":"levelo://app?vid=67a60bb8-f9d8-4dda-8509-6e87138f0df2","ios":"levelo://app?vid=67a60bb8-f9d8-4dda-8509-6e87138f0df2"},"vehicle_type_id":"4","last_reported":1774384261,"current_range_meters":2800,"station_id":"ce4bgvh2rcd13ifvqcs0","pricing_plan_id":"cebpf4jnsgd1na2vs0mg"},{"bike_id":"3ed543d6-2ccc-4598-9df0-bfa78f697691","system_id":"levelo_inurba_marseille","lat":43.27565,"lon":5.38392,"is_reserved":false,"is_disabled":false,"rental_uris":{"android":"levelo://app?vid=3ed543d6-2ccc-4598-9df0-bfa78f697691","ios":"levelo://app?vid=3ed543d6-2ccc-4598-9df0-bfa78f697691"},"vehicle_type_id":"4","last_reported":1774384261,"current_range_meters":2800,"station_id":"ce4bhh92rcd13ifvqfi0","pricing_plan_id":"cebpf4jnsgd1na2vs0mg"},{"bike_id":"eed6e071-5ab0-4b6b-826d-48155938e925","system_id":"levelo_inurba_marseille","lat":43.29626,"lon":5.40598,"is_reserved":false,"is_disabled":false,"rental_uris":{"android":"levelo://app?vid=eed6e071-5ab0-4b6b-826d-48155938e925","ios":"levelo://app?vid=eed6e071-5ab0-4b6b-826d-48155938e925"},"vehicle_type_id":"4","last_reported":1774384261,"current_range_meters":2800,"station_id":"ce4bh0h2rcd13ifvqd60","pricing_plan_id":"cebpf4jnsgd1na2vs0mg"},{"bike_id":"fc01f500-c5b2-4e19-9790-5c9207f665dc","system_id":"levelo_inurba_marseille","lat":43.25343,"lon":5.42176,"is_reserved":false,"is_disabled":false,"rental_uris":{"android":"levelo://app?vid=fc01f500-c5b2-4e19-9790-5c9207f665dc","ios":"levelo://app?vid=fc01f500-c5b2-4e19-9790-5c9207f665dc"},"vehicle_type_id":"4","last_reported":1774384261,"current_range_meters":2800,"station_id":"st_d2m65c5bi1j21697t3ng","pricing_plan_id":"cebpf4jnsgd1na2vs0mg"},{"bike_id":"ff734142-516f-489b-8dd9-4af408a453c5","system_id":"levelo_inurba_marseille","lat":43.25497,"lon":5.37644,"is_reserved":false,"is_disabled":false,"rental_uris":{"android":"levelo://app?vid=ff734142-516f-489b-8dd9-4af408a453c5","ios":"levelo://app?vid=ff734142-516f-489b-8dd9-4af408a453c5"},"vehicle_type_id":"4","last_reported":1774384261,"current_range_meters":2800,"station_id":"ce4bhh12rcd13ifvqff0","pricing_plan_id":"cebpf4jnsgd1na2vs0mg"},{"bike_id":"f38cc4b9-3e93-424c-9816-2176913a6272","system_id":"levelo_inurba_marseille","lat":43.297945,"lon":5.38079,"is_reserved":false,"is_disabled":false,"rental_uris":{"android":"levelo://app?vid=f38cc4b9-3e93-424c-9816-2176913a6272","ios":"levelo://app?vid=f38cc4b9-3e93-424c-9816-2176913a6272"},"vehicle_type_id":"4","last_reported":1774384261,"current_range_meters":3200,"station_id":"ce4bh9p2rcd13ifvqed0","pricing_plan_id":"cebpf4jnsgd1na2vs0mg"},{"bike_id":"d7404b08-cf6b-4272-9f28-898669097af4","system_id":"levelo_inurba_marseille","lat":43.29258,"lon":5.40891,"is_reserved":false,"is_disabled":false,"rental_uris":{"android":"levelo://app?vid=d7404b08-cf6b-4272-9f28-898669097af4","ios":"levelo://app?vid=d7404b08-cf6b-4272-9f28-898669097af4"},"vehicle_type_id":"4","last_reported":1774384261,"current_range_meters":3200,"station_id":"ce4bh192rcd13ifvqdc0","pricing_plan_id":"cebpf4jnsgd1na2vs0mg"},{"bike_id":"5f48b616-8cb3-44b8-99ad-5ffb21a00fc4","system_id":"levelo_inurba_marseille","lat":43.31339,"lon":5.38506,"is_reserved":false,"is_disabled":false,"rental_uris":{"android":"levelo://app?vid=5f48b616-8cb3-44b8-99ad-5ffb21a00fc4","ios":"levelo://app?vid=5f48b616-8cb3-44b8-99ad-5ffb21a00fc4"},"vehicle_type_id":"4","last_reported":1774384261,"current_range_meters":3200,"station_id":"ce4bgt92rcd13ifvqcf0","pricing_plan_id":"cebpf4jnsgd1na2vs0mg"},{"bike_id":"f7fa1ad5-099f-49b7-ba3e-26442c9181b9","system_id":"levelo_inurba_marseille","lat":43.30568,"lon":5.3651,"is_reserved":false,"is_disabled":true,"rental_uris":{"android":"levelo://app?vid=f7fa1ad5-099f-49b7-ba3e-26442c9181b9","ios":"levelo://app?vid=f7fa1ad5-099f-49b7-ba3e-26442c9181b9"},"vehicle_type_id":"4","last_reported":1774384261,"current_range_meters":3200,"station_id":"ce4bgs12rcd13ifvqcag","pricing_plan_id":"cebpf4jnsgd1na2vs0mg"},{"bike_id":"bbb20be4-a4e3-4756-bf9e-de6efa0abbb9","system_id":"levelo_inurba_marseille","lat":43.29178,"lon":5.42569,"is_reserved":false,"is_disabled":false,"rental_uris":{"android":"levelo://app?vid=bbb20be4-a4e3-4756-bf9e-de6efa0abbb9","ios":"levelo://app?vid=bbb20be4-a4e3-4756-bf9e-de6efa0abbb9"},"vehicle_type_id":"4","last_reported":1774384261,"current_range_meters":3200,"station_id":"","pricing_plan_id":"cebpf4jnsgd1na2vs0mg"},{"bike_id":"a99dcd00-26d5-41d4-bc26-0ccebf58f05d","system_id":"levelo_inurba_marseille","lat":43.3372,"lon":5.39184,"is_reserved":false,"is_disabled":false,"rental_uris":{"android":"levelo://app?vid=a99dcd00-26d5-41d4-bc26-0ccebf58f05d","ios":"levelo://app?vid=a99dcd00-26d5-41d4-bc26-0ccebf58f05d"},"vehicle_type_id":"4","last_reported":1774384261,"current_range_meters":3200,"station_id":"ce4bhr92rcd13ifvqhsg","pricing_plan_id":"cebpf4jnsgd1na2vs0mg"},{"bike_id":"f6fd38c2-f469-463a-ade6-d69b6d645d16","system_id":"levelo_inurba_marseille","lat":43.30219,"lon":5.40028,"is_reserved":false,"is_disabled":false,"rental_uris":{"android":"levelo://app?vid=f6fd38c2-f469-463a-ade6-d69b6d645d16","ios":"levelo://app?vid=f6fd38c2-f469-463a-ade6-d69b6d645d16"},"vehicle_type_id":"4","last_reported":1774384261,"current_range_meters":3200,"station_id":"ce4bgvh2rcd13ifvqcs0","pricing_plan_id":"cebpf4jnsgd1na2vs0mg"},{"bike_id":"9f7fde4d-d0f4-4653-a963-f93ce2c1721a","system_id":"levelo_inurba_marseille","lat":43.29028,"lon":5.38649,"is_reserved":false,"is_disabled":false,"rental_uris":{"android":"levelo://app?vid=9f7fde4d-d0f4-4653-a963-f93ce2c1721a","ios":"levelo://app?vid=9f7fde4d-d0f4-4653-a963-f93ce2c1721a"},"vehicle_type_id":"4","last_reported":1774384261,"current_range_meters":3200,"station_id":"ce4bh4p2rcd13ifvqe0g","pricing_plan_id":"cebpf4jnsgd1na2vs0mg"},{"bike_id":"ae4340a8-b5d7-4692-9539-af9fc5327c52","system_id":"levelo_inurba_marseille","lat":43.26592,"lon":5.39018,"is_reserved":false,"is_disabled":false,"rental_uris":{"android":"levelo://app?vid=ae4340a8-b5d7-4692-9539-af9fc5327c52","ios":"levelo://app?vid=ae4340a8-b5d7-4692-9539-af9fc5327c52"},"vehicle_type_id":"4","last_reported":1774384261,"current_range_meters":3200,"station_id":"ce4bhe12rcd13ifvqf30","pricing_plan_id":"cebpf4jnsgd1na2vs0mg"},{"bike_id":"edc16db6-0042-4215-9aaf-108e0300da68","system_id":"levelo_inurba_marseille","lat":43.289422,"lon":5.36642,"is_reserved":false,"is_disabled":true,"rental_uris":{"android":"levelo://app?vid=edc16db6-0042-4215-9aaf-108e0300da68","ios":"levelo://app?vid=edc16db6-0042-4215-9aaf-108e0300da68"},"vehicle_type_id":"4","last_reported":1774384261,"current_range_meters":3600,"station_id":"ce4bhap2rcd13ifvqek0","pricing_plan_id":"cebpf4jnsgd1na2vs0mg"},{"bike_id":"518a2723-d8b0-4f0f-ae53-15195d91b1ba","system_id":"levelo_inurba_marseille","lat":43.272019,"lon":5.391174,"is_reserved":false,"is_disabled":false,"rental_uris":{"android":"levelo://app?vid=518a2723-d8b0-4f0f-ae53-15195d91b1ba","ios":"levelo://app?vid=518a2723-d8b0-4f0f-ae53-15195d91b1ba"},"vehicle_type_id":"4","last_reported":1774384261,"current_range_meters":3600,"station_id":"ce4bhhp2rcd13ifvqfm0","pricing_plan_id":"cebpf4jnsgd1na2vs0mg"},{"bike_id":"9723db1c-04c4-43c6-bee8-ac289f2e0c55","system_id":"levelo_inurba_marseille","lat":43.28605,"lon":5.37066,"is_reserved":false,"is_disabled":false,"rental_uris":{"android":"levelo://app?vid=9723db1c-04c4-43c6-bee8-ac289f2e0c55","ios":"levelo://app?vid=9723db1c-04c4-43c6-bee8-ac289f2e0c55"},"vehicle_type_id":"4","last_reported":1774384261,"current_range_meters":3600,"station_id":"ce4bht12rcd13ifvqi60","pricing_plan_id":"cebpf4jnsgd1na2vs0mg"},{"bike_id":"850766fb-1707-4f17-858f-22ba0bd2d6e3","system_id":"levelo_inurba_marseille","lat":43.284,"lon":5.37528,"is_reserved":false,"is_disabled":false,"rental_uris":{"android":"levelo://app?vid=850766fb-1707-4f17-858f-22ba0bd2d6e3","ios":"levelo://app?vid=850766fb-1707-4f17-858f-22ba0bd2d6e3"},"vehicle_type_id":"4","last_reported":1774384261,"current_range_meters":3600,"station_id":"ce4bh412rcd13ifvqds0","pricing_plan_id":"cebpf4jnsgd1na2vs0mg"},{"bike_id":"c0339bad-3a71-412f-99d4-15aa57e709e3","system_id":"levelo_inurba_marseille","lat":43.33016,"lon":5.39024,"is_reserved":false,"is_disabled":false,"rental_uris":{"android":"levelo://app?vid=c0339bad-3a71-412f-99d4-15aa57e709e3","ios":"levelo://app?vid=c0339bad-3a71-412f-99d4-15aa57e709e3"},"vehicle_type_id":"4","last_reported":1774384261,"current_range_meters":3600,"station_id":"ce4bhr92rcd13ifvqhrg","pricing_plan_id":"cebpf4jnsgd1na2vs0mg"},{"bike_id":"e032ab58-6cd1-4dde-af1f-11967a9af0ed","system_id":"levelo_inurba_marseille","lat":43.2467,"lon":5.38169,"is_reserved":false,"is_disabled":false,"rental_uris":{"android":"levelo://app?vid=e032ab58-6cd1-4dde-af1f-11967a9af0ed","ios":"levelo://app?vid=e032ab58-6cd1-4dde-af1f-11967a9af0ed"},"vehicle_type_id":"4","last_reported":1774384261,"current_range_meters":3600,"station_id":"","pricing_plan_id":"cebpf4jnsgd1na2vs0mg"},{"bike_id":"bbcec521-b2cb-4752-a30b-3cc813f9ce07","system_id":"levelo_inurba_marseille","lat":43.28732,"lon":5.44828,"is_reserved":false,"is_disabled":false,"rental_uris":{"android":"levelo://app?vid=bbcec521-b2cb-4752-a30b-3cc813f9ce07","ios":"levelo://app?vid=bbcec521-b2cb-4752-a30b-3cc813f9ce07"},"vehicle_type_id":"4","last_reported":1774384261,"current_range_meters":3600,"station_id":"","pricing_plan_id":"cebpf4jnsgd1na2vs0mg"},{"bike_id":"48f06639-b415-4834-b4ad-3ce8cc3a50b3","system_id":"levelo_inurba_marseille","lat":43.3059,"lon":5.39164,"is_reserved":false,"is_disabled":false,"rental_uris":{"android":"levelo://app?vid=48f06639-b415-4834-b4ad-3ce8cc3a50b3","ios":"levelo://app?vid=48f06639-b415-4834-b4ad-3ce8cc3a50b3"},"vehicle_type_id":"4","last_reported":1774384261,"current_range_meters":3600,"station_id":"","pricing_plan_id":"cebpf4jnsgd1na2vs0mg"},{"bike_id":"40906df4-17dd-4d9f-ac1f-0880c5eb117e","system_id":"levelo_inurba_marseille","lat":43.32345,"lon":5.36746,"is_reserved":false,"is_disabled":false,"rental_uris":{"android":"levelo://app?vid=40906df4-17dd-4d9f-ac1f-0880c5eb117e","ios":"levelo://app?vid=40906df4-17dd-4d9f-ac1f-0880c5eb117e"},"vehicle_type_id":"4","last_reported":1774384261,"current_range_meters":4000,"station_id":"ce4bhsh2rcd13ifvqi2g","pricing_plan_id":"cebpf4jnsgd1na2vs0mg"},{"bike_id":"a2fabdf4-bd61-4352-82b4-201f5349c59d","system_id":"levelo_inurba_marseille","lat":43.26559,"lon":5.39015,"is_reserved":false,"is_disabled":false,"rental_uris":{"android":"levelo://app?vid=a2fabdf4-bd61-4352-82b4-201f5349c59d","ios":"levelo://app?vid=a2fabdf4-bd61-4352-82b4-201f5349c59d"},"vehicle_type_id":"4","last_reported":1774384261,"current_range_meters":4000,"station_id":"ce4bhe12rcd13ifvqf30","pricing_plan_id":"cebpf4jnsgd1na2vs0mg"},{"bike_id":"e41c893a-4032-48f3-bf3a-8efcbfe1465c","system_id":"levelo_inurba_marseille","lat":43.25841,"lon":5.39442,"is_reserved":false,"is_disabled":true,"rental_uris":{"android":"levelo://app?vid=e41c893a-4032-48f3-bf3a-8efcbfe1465c","ios":"levelo://app?vid=e41c893a-4032-48f3-bf3a-8efcbfe1465c"},"vehicle_type_id":"4","last_reported":1774384261,"current_range_meters":4000,"station_id":"ce4bhip2rcd13ifvqft0","pricing_plan_id":"cebpf4jnsgd1na2vs0mg"},{"bike_id":"19a6325e-af45-41c2-bbca-14b8a136ed80","system_id":"levelo_inurba_marseille","lat":43.25866,"lon":5.39901,"is_reserved":false,"is_disabled":false,"rental_uris":{"android":"levelo://app?vid=19a6325e-af45-41c2-bbca-14b8a136ed80","ios":"levelo://app?vid=19a6325e-af45-41c2-bbca-14b8a136ed80"},"vehicle_type_id":"4","last_reported":1774384261,"current_range_meters":4000,"station_id":"ce4bhl92rcd13ifvqghg","pricing_plan_id":"cebpf4jnsgd1na2vs0mg"},{"bike_id":"3c819408-c7ba-4678-b53c-0ea046a74f9d","system_id":"levelo_inurba_marseille","lat":43.29626,"lon":5.40599,"is_reserved":false,"is_disabled":false,"rental_uris":{"android":"levelo://app?vid=3c819408-c7ba-4678-b53c-0ea046a74f9d","ios":"levelo://app?vid=3c819408-c7ba-4678-b53c-0ea046a74f9d"},"vehicle_type_id":"4","last_reported":1774384261,"current_range_meters":4000,"station_id":"ce4bh0h2rcd13ifvqd60","pricing_plan_id":"cebpf4jnsgd1na2vs0mg"},{"bike_id":"95af4c9e-a5dd-4e09-b63a-5b344598613e","system_id":"levelo_inurba_marseille","lat":43.22963,"lon":5.35376,"is_reserved":false,"is_disabled":false,"rental_uris":{"android":"levelo://app?vid=95af4c9e-a5dd-4e09-b63a-5b344598613e","ios":"levelo://app?vid=95af4c9e-a5dd-4e09-b63a-5b344598613e"},"vehicle_type_id":"4","last_reported":1774384261,"current_range_meters":4000,"station_id":"cpo3532slgdg3j2ikp40","pricing_plan_id":"cebpf4jnsgd1na2vs0mg"},{"bike_id":"79c7d377-7c78-4347-8033-0d93865425f8","system_id":"levelo_inurba_marseille","lat":43.29192,"lon":5.35783,"is_reserved":false,"is_disabled":false,"rental_uris":{"android":"levelo://app?vid=79c7d377-7c78-4347-8033-0d93865425f8","ios":"levelo://app?vid=79c7d377-7c78-4347-8033-0d93865425f8"},"vehicle_type_id":"4","last_reported":1774384261,"current_range_meters":4000,"station_id":"ce4bhb12rcd13ifvqel0","pricing_plan_id":"cebpf4jnsgd1na2vs0mg"},{"bike_id":"ac5b3a08-7888-4ad5-9c0d-f177e133a097","system_id":"levelo_inurba_marseille","lat":43.25589,"lon":5.38234,"is_reserved":false,"is_disabled":false,"rental_uris":{"android":"levelo://app?vid=ac5b3a08-7888-4ad5-9c0d-f177e133a097","ios":"levelo://app?vid=ac5b3a08-7888-4ad5-9c0d-f177e133a097"},"vehicle_type_id":"4","last_reported":1774384261,"current_range_meters":4000,"station_id":"ce4bhih2rcd13ifvqfs0","pricing_plan_id":"cebpf4jnsgd1na2vs0mg"},{"bike_id":"69a34fac-fc80-43dc-bb66-91eee3bdfb90","system_id":"levelo_inurba_marseille","lat":43.28777,"lon":5.35323,"is_reserved":false,"is_disabled":false,"rental_uris":{"android":"levelo://app?vid=69a34fac-fc80-43dc-bb66-91eee3bdfb90","ios":"levelo://app?vid=69a34fac-fc80-43dc-bb66-91eee3bdfb90"},"vehicle_type_id":"4","last_reported":1774384261,"current_range_meters":4000,"station_id":"","pricing_plan_id":"cebpf4jnsgd1na2vs0mg"},{"bike_id":"d2260517-36eb-498b-95a6-a249410b03cf","system_id":"levelo_inurba_marseille","lat":43.2657,"lon":5.39803,"is_reserved":false,"is_disabled":false,"rental_uris":{"android":"levelo://app?vid=d2260517-36eb-498b-95a6-a249410b03cf","ios":"levelo://app?vid=d2260517-36eb-498b-95a6-a249410b03cf"},"vehicle_type_id":"4","last_reported":1774384261,"current_range_meters":4000,"station_id":"","pricing_plan_id":"cebpf4jnsgd1na2vs0mg"},{"bike_id":"8a561b43-312c-439b-b523-926744b20ec7","system_id":"levelo_inurba_marseille","lat":43.31537,"lon":5.38034,"is_reserved":false,"is_disabled":false,"rental_uris":{"android":"levelo://app?vid=8a561b43-312c-439b-b523-926744b20ec7","ios":"levelo://app?vid=8a561b43-312c-439b-b523-926744b20ec7"},"vehicle_type_id":"4","last_reported":1774384261,"current_range_meters":4000,"station_id":"ce4bhsp2rcd13ifvqi50","pricing_plan_id":"cebpf4jnsgd1na2vs0mg"},{"bike_id":"81c656bd-7c21-4504-a12d-dd282d1b1b7a","system_id":"levelo_inurba_marseille","lat":43.23172,"lon":5.3999,"is_reserved":false,"is_disabled":false,"rental_uris":{"android":"levelo://app?vid=81c656bd-7c21-4504-a12d-dd282d1b1b7a","ios":"levelo://app?vid=81c656bd-7c21-4504-a12d-dd282d1b1b7a"},"vehicle_type_id":"4","last_reported":1774384261,"current_range_meters":4000,"station_id":"ce4bhn12rcd13ifvqgqg","pricing_plan_id":"cebpf4jnsgd1na2vs0mg"},{"bike_id":"8da0fc4e-018a-4668-b1b9-fa5099a6010b","system_id":"levelo_inurba_marseille","lat":43.29266,"lon":5.38429,"is_reserved":false,"is_disabled":false,"rental_uris":{"android":"levelo://app?vid=8da0fc4e-018a-4668-b1b9-fa5099a6010b","ios":"levelo://app?vid=8da0fc4e-018a-4668-b1b9-fa5099a6010b"},"vehicle_type_id":"4","last_reported":1774384261,"current_range_meters":4000,"station_id":"ce4bh692rcd13ifvqea0","pricing_plan_id":"cebpf4jnsgd1na2vs0mg"},{"bike_id":"bb85b854-c47c-4191-a8f6-7b401c5c72ea","system_id":"levelo_inurba_marseille","lat":43.28441,"lon":5.37523,"is_reserved":false,"is_disabled":false,"rental_uris":{"android":"levelo://app?vid=bb85b854-c47c-4191-a8f6-7b401c5c72ea","ios":"levelo://app?vid=bb85b854-c47c-4191-a8f6-7b401c5c72ea"},"vehicle_type_id":"4","last_reported":1774384261,"current_range_meters":4400,"station_id":"ce4bh412rcd13ifvqds0","pricing_plan_id":"cebpf4jnsgd1na2vs0mg"},{"bike_id":"2db6bc10-c1d3-4869-ae26-1a4afdf5c59f","system_id":"levelo_inurba_marseille","lat":43.28202,"lon":5.3906,"is_reserved":false,"is_disabled":false,"rental_uris":{"android":"levelo://app?vid=2db6bc10-c1d3-4869-ae26-1a4afdf5c59f","ios":"levelo://app?vid=2db6bc10-c1d3-4869-ae26-1a4afdf5c59f"},"vehicle_type_id":"4","last_reported":1774384261,"current_range_meters":4400,"station_id":"ce4bhn92rcd13ifvqgsg","pricing_plan_id":"cebpf4jnsgd1na2vs0mg"},{"bike_id":"1d0f3067-7ca2-4fbd-8b40-b921c6748a4a","system_id":"levelo_inurba_marseille","lat":43.28483,"lon":5.48389,"is_reserved":false,"is_disabled":false,"rental_uris":{"android":"levelo://app?vid=1d0f3067-7ca2-4fbd-8b40-b921c6748a4a","ios":"levelo://app?vid=1d0f3067-7ca2-4fbd-8b40-b921c6748a4a"},"vehicle_type_id":"4","last_reported":1774384261,"current_range_meters":4400,"station_id":"","pricing_plan_id":"cebpf4jnsgd1na2vs0mg"},{"bike_id":"253bfbd1-c3f6-4b72-a716-55890f3b4db7","system_id":"levelo_inurba_marseille","lat":43.28456,"lon":5.4843,"is_reserved":false,"is_disabled":false,"rental_uris":{"android":"levelo://app?vid=253bfbd1-c3f6-4b72-a716-55890f3b4db7","ios":"levelo://app?vid=253bfbd1-c3f6-4b72-a716-55890f3b4db7"},"vehicle_type_id":"4","last_reported":1774384261,"current_range_meters":4400,"station_id":"","pricing_plan_id":"cebpf4jnsgd1na2vs0mg"},{"bike_id":"80edcf5d-76f7-4ac8-99bc-6edd05fd6fcc","system_id":"levelo_inurba_marseille","lat":43.26536,"lon":5.39069,"is_reserved":false,"is_disabled":false,"rental_uris":{"android":"levelo://app?vid=80edcf5d-76f7-4ac8-99bc-6edd05fd6fcc","ios":"levelo://app?vid=80edcf5d-76f7-4ac8-99bc-6edd05fd6fcc"},"vehicle_type_id":"4","last_reported":1774384261,"current_range_meters":4400,"station_id":"","pricing_plan_id":"cebpf4jnsgd1na2vs0mg"},{"bike_id":"17603604-4058-452c-b237-b0fb5d39625d","system_id":"levelo_inurba_marseille","lat":43.25447,"lon":5.37763,"is_reserved":false,"is_disabled":false,"rental_uris":{"android":"levelo://app?vid=17603604-4058-452c-b237-b0fb5d39625d","ios":"levelo://app?vid=17603604-4058-452c-b237-b0fb5d39625d"},"vehicle_type_id":"4","last_reported":1774384261,"current_range_meters":4400,"station_id":"ce4bhh12rcd13ifvqff0","pricing_plan_id":"cebpf4jnsgd1na2vs0mg"},{"bike_id":"c76b377e-0060-4be7-aebe-7351859ef346","system_id":"levelo_inurba_marseille","lat":43.24082,"lon":5.37749,"is_reserved":false,"is_disabled":false,"rental_uris":{"android":"levelo://app?vid=c76b377e-0060-4be7-aebe-7351859ef346","ios":"levelo://app?vid=c76b377e-0060-4be7-aebe-7351859ef346"},"vehicle_type_id":"4","last_reported":1774384261,"current_range_meters":4400,"station_id":"ce4bhnp2rcd13ifvqgvg","pricing_plan_id":"cebpf4jnsgd1na2vs0mg"},{"bike_id":"bc0e0969-ef8a-41ad-b367-3df6191d70b2","system_id":"levelo_inurba_marseille","lat":43.28697,"lon":5.37958,"is_reserved":false,"is_disabled":false,"rental_uris":{"android":"levelo://app?vid=bc0e0969-ef8a-41ad-b367-3df6191d70b2","ios":"levelo://app?vid=bc0e0969-ef8a-41ad-b367-3df6191d70b2"},"vehicle_type_id":"4","last_reported":1774384261,"current_range_meters":4400,"station_id":"ce4bh9p2rcd13ifvqec0","pricing_plan_id":"cebpf4jnsgd1na2vs0mg"},{"bike_id":"ac8e86da-55a1-458d-b594-72eeab74387c","system_id":"levelo_inurba_marseille","lat":43.25577,"lon":5.38245,"is_reserved":false,"is_disabled":false,"rental_uris":{"android":"levelo://app?vid=ac8e86da-55a1-458d-b594-72eeab74387c","ios":"levelo://app?vid=ac8e86da-55a1-458d-b594-72eeab74387c"},"vehicle_type_id":"4","last_reported":1774384261,"current_range_meters":4400,"station_id":"ce4bhih2rcd13ifvqfs0","pricing_plan_id":"cebpf4jnsgd1na2vs0mg"},{"bike_id":"6e6161fe-edfa-4833-a177-c1358d249809","system_id":"levelo_inurba_marseille","lat":43.31189,"lon":5.38722,"is_reserved":false,"is_disabled":true,"rental_uris":{"android":"levelo://app?vid=6e6161fe-edfa-4833-a177-c1358d249809","ios":"levelo://app?vid=6e6161fe-edfa-4833-a177-c1358d249809"},"vehicle_type_id":"4","last_reported":1774384261,"current_range_meters":4800,"station_id":"ce4bgv12rcd13ifvqcp0","pricing_plan_id":"cebpf4jnsgd1na2vs0mg"},{"bike_id":"e777dc2e-9308-43c6-a6be-09685ee35cc2","system_id":"levelo_inurba_marseille","lat":43.28534,"lon":5.44084,"is_reserved":false,"is_disabled":false,"rental_uris":{"android":"levelo://app?vid=e777dc2e-9308-43c6-a6be-09685ee35cc2","ios":"levelo://app?vid=e777dc2e-9308-43c6-a6be-09685ee35cc2"},"vehicle_type_id":"4","last_reported":1774384261,"current_range_meters":4800,"station_id":"st_d3j3df2ikq2c7380ej80","pricing_plan_id":"cebpf4jnsgd1na2vs0mg"},{"bike_id":"263c47b7-472c-40eb-be9c-bcefa2903249","system_id":"levelo_inurba_marseille","lat":43.27808,"lon":5.40713,"is_reserved":false,"is_disabled":false,"rental_uris":{"android":"levelo://app?vid=263c47b7-472c-40eb-be9c-bcefa2903249","ios":"levelo://app?vid=263c47b7-472c-40eb-be9c-bcefa2903249"},"vehicle_type_id":"4","last_reported":1774384261,"current_range_meters":4800,"station_id":"ce4bhnh2rcd13ifvqgtg","pricing_plan_id":"cebpf4jnsgd1na2vs0mg"},{"bike_id":"35c74211-3d48-49b4-8082-8d7d2c397771","system_id":"levelo_inurba_marseille","lat":43.30628,"lon":5.37209,"is_reserved":false,"is_disabled":false,"rental_uris":{"android":"levelo://app?vid=35c74211-3d48-49b4-8082-8d7d2c397771","ios":"levelo://app?vid=35c74211-3d48-49b4-8082-8d7d2c397771"},"vehicle_type_id":"4","last_reported":1774384261,"current_range_meters":4800,"station_id":"ce4bgqh2rcd13ifvqc4g","pricing_plan_id":"cebpf4jnsgd1na2vs0mg"},{"bike_id":"4382fefe-9d6a-4e31-b368-6a94fb3585d0","system_id":"levelo_inurba_marseille","lat":43.30645,"lon":5.40098,"is_reserved":false,"is_disabled":false,"rental_uris":{"android":"levelo://app?vid=4382fefe-9d6a-4e31-b368-6a94fb3585d0","ios":"levelo://app?vid=4382fefe-9d6a-4e31-b368-6a94fb3585d0"},"vehicle_type_id":"4","last_reported":1774384261,"current_range_meters":4800,"station_id":"ce4bh112rcd13ifvqda0","pricing_plan_id":"cebpf4jnsgd1na2vs0mg"},{"bike_id":"4ce98637-072f-4197-bd69-11f207a88eab","system_id":"levelo_inurba_marseille","lat":43.28496,"lon":5.47279,"is_reserved":false,"is_disabled":false,"rental_uris":{"android":"levelo://app?vid=4ce98637-072f-4197-bd69-11f207a88eab","ios":"levelo://app?vid=4ce98637-072f-4197-bd69-11f207a88eab"},"vehicle_type_id":"4","last_reported":1774384261,"current_range_meters":4800,"station_id":"","pricing_plan_id":"cebpf4jnsgd1na2vs0mg"},{"bike_id":"50fe2af3-e3a4-44f7-9932-e461f6af55f8","system_id":"levelo_inurba_marseille","lat":43.2482,"lon":5.37445,"is_reserved":false,"is_disabled":false,"rental_uris":{"android":"levelo://app?vid=50fe2af3-e3a4-44f7-9932-e461f6af55f8","ios":"levelo://app?vid=50fe2af3-e3a4-44f7-9932-e461f6af55f8"},"vehicle_type_id":"4","last_reported":1774384261,"current_range_meters":4800,"station_id":"ce4bhgh2rcd13ifvqfb0","pricing_plan_id":"cebpf4jnsgd1na2vs0mg"},{"bike_id":"62b4b24a-25c2-413c-a9e9-7d8f1f6621f7","system_id":"levelo_inurba_marseille","lat":43.24461,"lon":5.42538,"is_reserved":false,"is_disabled":false,"rental_uris":{"android":"levelo://app?vid=62b4b24a-25c2-413c-a9e9-7d8f1f6621f7","ios":"levelo://app?vid=62b4b24a-25c2-413c-a9e9-7d8f1f6621f7"},"vehicle_type_id":"4","last_reported":1774384261,"current_range_meters":4800,"station_id":"st_d4a3vfp97mjs738cd8kg","pricing_plan_id":"cebpf4jnsgd1na2vs0mg"},{"bike_id":"5cff8034-4c2b-46d8-a63b-5de6b6d29d3f","system_id":"levelo_inurba_marseille","lat":43.29782,"lon":5.39357,"is_reserved":false,"is_disabled":true,"rental_uris":{"android":"levelo://app?vid=5cff8034-4c2b-46d8-a63b-5de6b6d29d3f","ios":"levelo://app?vid=5cff8034-4c2b-46d8-a63b-5de6b6d29d3f"},"vehicle_type_id":"4","last_reported":1774384261,"current_range_meters":4800,"station_id":"chh1huq6cuj3fo74tm60","pricing_plan_id":"cebpf4jnsgd1na2vs0mg"},{"bike_id":"b2da6f3d-1e4f-4582-b96b-f070d7f08236","system_id":"levelo_inurba_marseille","lat":43.28735,"lon":5.35106,"is_reserved":false,"is_disabled":false,"rental_uris":{"android":"levelo://app?vid=b2da6f3d-1e4f-4582-b96b-f070d7f08236","ios":"levelo://app?vid=b2da6f3d-1e4f-4582-b96b-f070d7f08236"},"vehicle_type_id":"4","last_reported":1774384261,"current_range_meters":4800,"station_id":"","pricing_plan_id":"cebpf4jnsgd1na2vs0mg"},{"bike_id":"8954f07b-c7b1-440f-b742-c36e3f07698a","system_id":"levelo_inurba_marseille","lat":43.26551,"lon":5.37308,"is_reserved":false,"is_disabled":false,"rental_uris":{"android":"levelo://app?vid=8954f07b-c7b1-440f-b742-c36e3f07698a","ios":"levelo://app?vid=8954f07b-c7b1-440f-b742-c36e3f07698a"},"vehicle_type_id":"4","last_reported":1774384261,"current_range_meters":4800,"station_id":"ce4bhg12rcd13ifvqf70","pricing_plan_id":"cebpf4jnsgd1na2vs0mg"},{"bike_id":"46aa2573-c8c4-4fba-942c-3544d686fb6d","system_id":"levelo_inurba_marseille","lat":43.30451,"lon":5.38865,"is_reserved":false,"is_disabled":false,"rental_uris":{"android":"levelo://app?vid=46aa2573-c8c4-4fba-942c-3544d686fb6d","ios":"levelo://app?vid=46aa2573-c8c4-4fba-942c-3544d686fb6d"},"vehicle_type_id":"4","last_reported":1774384261,"current_range_meters":4800,"station_id":"ce4bgk12rcd13ifvqbi0","pricing_plan_id":"cebpf4jnsgd1na2vs0mg"},{"bike_id":"98aa1c8a-7d98-4320-b367-9e51480a2f7e","system_id":"levelo_inurba_marseille","lat":43.33544,"lon":5.37469,"is_reserved":false,"is_disabled":false,"rental_uris":{"android":"levelo://app?vid=98aa1c8a-7d98-4320-b367-9e51480a2f7e","ios":"levelo://app?vid=98aa1c8a-7d98-4320-b367-9e51480a2f7e"},"vehicle_type_id":"4","last_reported":1774384261,"current_range_meters":4800,"station_id":"st_d46tts09ee8s73dlu43g","pricing_plan_id":"cebpf4jnsgd1na2vs0mg"},{"bike_id":"d89b1915-483d-4d09-b44a-47b8df915eef","system_id":"levelo_inurba_marseille","lat":43.23126,"lon":5.35503,"is_reserved":false,"is_disabled":false,"rental_uris":{"android":"levelo://app?vid=d89b1915-483d-4d09-b44a-47b8df915eef","ios":"levelo://app?vid=d89b1915-483d-4d09-b44a-47b8df915eef"},"vehicle_type_id":"4","last_reported":1774384261,"current_range_meters":4800,"station_id":"","pricing_plan_id":"cebpf4jnsgd1na2vs0mg"},{"bike_id":"543b5e45-ae7c-4d24-a4e7-8fcb7d5cd958","system_id":"levelo_inurba_marseille","lat":43.2655,"lon":5.3728,"is_reserved":false,"is_disabled":false,"rental_uris":{"android":"levelo://app?vid=543b5e45-ae7c-4d24-a4e7-8fcb7d5cd958","ios":"levelo://app?vid=543b5e45-ae7c-4d24-a4e7-8fcb7d5cd958"},"vehicle_type_id":"4","last_reported":1774384261,"current_range_meters":4800,"station_id":"ce4bhg12rcd13ifvqf70","pricing_plan_id":"cebpf4jnsgd1na2vs0mg"},{"bike_id":"6960cc90-bccb-4d33-86f3-acced2b380a5","system_id":"levelo_inurba_marseille","lat":43.30103,"lon":5.39072,"is_reserved":false,"is_disabled":false,"rental_uris":{"android":"levelo://app?vid=6960cc90-bccb-4d33-86f3-acced2b380a5","ios":"levelo://app?vid=6960cc90-bccb-4d33-86f3-acced2b380a5"},"vehicle_type_id":"4","last_reported":1774384261,"current_range_meters":4800,"station_id":"ce4bh192rcd13ifvqdb0","pricing_plan_id":"cebpf4jnsgd1na2vs0mg"},{"bike_id":"7b6c8f1e-bc5a-4218-9383-b05da73318e0","system_id":"levelo_inurba_marseille","lat":43.32345,"lon":5.36755,"is_reserved":false,"is_disabled":false,"rental_uris":{"android":"levelo://app?vid=7b6c8f1e-bc5a-4218-9383-b05da73318e0","ios":"levelo://app?vid=7b6c8f1e-bc5a-4218-9383-b05da73318e0"},"vehicle_type_id":"4","last_reported":1774384261,"current_range_meters":5600,"station_id":"ce4bhsh2rcd13ifvqi2g","pricing_plan_id":"cebpf4jnsgd1na2vs0mg"},{"bike_id":"ec796431-2d90-4c12-a3b8-96b7b5854d32","system_id":"levelo_inurba_marseille","lat":43.28927,"lon":5.38397,"is_reserved":false,"is_disabled":false,"rental_uris":{"android":"levelo://app?vid=ec796431-2d90-4c12-a3b8-96b7b5854d32","ios":"levelo://app?vid=ec796431-2d90-4c12-a3b8-96b7b5854d32"},"vehicle_type_id":"4","last_reported":1774384261,"current_range_meters":5600,"station_id":"ce4bh612rcd13ifvqe6g","pricing_plan_id":"cebpf4jnsgd1na2vs0mg"},{"bike_id":"f910acab-e234-4475-91c9-ec3fea6d1bf3","system_id":"levelo_inurba_marseille","lat":43.29892,"lon":5.43606,"is_reserved":false,"is_disabled":false,"rental_uris":{"android":"levelo://app?vid=f910acab-e234-4475-91c9-ec3fea6d1bf3","ios":"levelo://app?vid=f910acab-e234-4475-91c9-ec3fea6d1bf3"},"vehicle_type_id":"4","last_reported":1774384261,"current_range_meters":5600,"station_id":"ce4bhpp2rcd13ifvqhfg","pricing_plan_id":"cebpf4jnsgd1na2vs0mg"},{"bike_id":"29a577df-c925-4ad4-8796-1af1c698b4d5","system_id":"levelo_inurba_marseille","lat":43.27955,"lon":5.41048,"is_reserved":false,"is_disabled":false,"rental_uris":{"android":"levelo://app?vid=29a577df-c925-4ad4-8796-1af1c698b4d5","ios":"levelo://app?vid=29a577df-c925-4ad4-8796-1af1c698b4d5"},"vehicle_type_id":"4","last_reported":1774384261,"current_range_meters":5600,"station_id":"ce4bhnp2rcd13ifvqh0g","pricing_plan_id":"cebpf4jnsgd1na2vs0mg"},{"bike_id":"92492a78-3672-4445-bf40-2206f94ab4b7","system_id":"levelo_inurba_marseille","lat":43.30422,"lon":5.39745,"is_reserved":false,"is_disabled":false,"rental_uris":{"android":"levelo://app?vid=92492a78-3672-4445-bf40-2206f94ab4b7","ios":"levelo://app?vid=92492a78-3672-4445-bf40-2206f94ab4b7"},"vehicle_type_id":"4","last_reported":1774384261,"current_range_meters":5600,"station_id":"ce4bh092rcd13ifvqd20","pricing_plan_id":"cebpf4jnsgd1na2vs0mg"},{"bike_id":"fdbedc93-cd52-48f8-b1a3-3b4869e5172d","system_id":"levelo_inurba_marseille","lat":43.2904,"lon":5.39961,"is_reserved":false,"is_disabled":false,"rental_uris":{"android":"levelo://app?vid=fdbedc93-cd52-48f8-b1a3-3b4869e5172d","ios":"levelo://app?vid=fdbedc93-cd52-48f8-b1a3-3b4869e5172d"},"vehicle_type_id":"4","last_reported":1774384261,"current_range_meters":5600,"station_id":"ce4bh392rcd13ifvqdm0","pricing_plan_id":"cebpf4jnsgd1na2vs0mg"},{"bike_id":"a91e6cc6-3ed9-4c4a-8b4f-a470384ed254","system_id":"levelo_inurba_marseille","lat":43.30586,"lon":5.39357,"is_reserved":false,"is_disabled":false,"rental_uris":{"android":"levelo://app?vid=a91e6cc6-3ed9-4c4a-8b4f-a470384ed254","ios":"levelo://app?vid=a91e6cc6-3ed9-4c4a-8b4f-a470384ed254"},"vehicle_type_id":"4","last_reported":1774384261,"current_range_meters":5600,"station_id":"ce4bh0p2rcd13ifvqd80","pricing_plan_id":"cebpf4jnsgd1na2vs0mg"},{"bike_id":"b86068ab-97ee-4456-8b24-8dc8e9d3870c","system_id":"levelo_inurba_marseille","lat":43.2846,"lon":5.35862,"is_reserved":false,"is_disabled":false,"rental_uris":{"android":"levelo://app?vid=b86068ab-97ee-4456-8b24-8dc8e9d3870c","ios":"levelo://app?vid=b86068ab-97ee-4456-8b24-8dc8e9d3870c"},"vehicle_type_id":"4","last_reported":1774384261,"current_range_meters":5600,"station_id":"ce4bhah2rcd13ifvqei0","pricing_plan_id":"cebpf4jnsgd1na2vs0mg"},{"bike_id":"d754a161-551f-4193-b8cb-ebcca83b2ad4","system_id":"levelo_inurba_marseille","lat":43.24648,"lon":5.38879,"is_reserved":false,"is_disabled":false,"rental_uris":{"android":"levelo://app?vid=d754a161-551f-4193-b8cb-ebcca83b2ad4","ios":"levelo://app?vid=d754a161-551f-4193-b8cb-ebcca83b2ad4"},"vehicle_type_id":"4","last_reported":1774384261,"current_range_meters":5600,"station_id":"ce4bhg12rcd13ifvqf60","pricing_plan_id":"cebpf4jnsgd1na2vs0mg"},{"bike_id":"dab5302c-84cc-4414-9ab0-2c17bcbc491b","system_id":"levelo_inurba_marseille","lat":43.31539,"lon":5.38043,"is_reserved":false,"is_disabled":false,"rental_uris":{"android":"levelo://app?vid=dab5302c-84cc-4414-9ab0-2c17bcbc491b","ios":"levelo://app?vid=dab5302c-84cc-4414-9ab0-2c17bcbc491b"},"vehicle_type_id":"4","last_reported":1774384261,"current_range_meters":5600,"station_id":"ce4bhsp2rcd13ifvqi50","pricing_plan_id":"cebpf4jnsgd1na2vs0mg"},{"bike_id":"8d55540b-3918-4aa9-b8c3-e70632535bd8","system_id":"levelo_inurba_marseille","lat":43.28464,"lon":5.35867,"is_reserved":false,"is_disabled":false,"rental_uris":{"android":"levelo://app?vid=8d55540b-3918-4aa9-b8c3-e70632535bd8","ios":"levelo://app?vid=8d55540b-3918-4aa9-b8c3-e70632535bd8"},"vehicle_type_id":"4","last_reported":1774384261,"current_range_meters":5600,"station_id":"ce4bhah2rcd13ifvqei0","pricing_plan_id":"cebpf4jnsgd1na2vs0mg"},{"bike_id":"875063f8-c637-45b8-8964-8222489d351d","system_id":"levelo_inurba_marseille","lat":43.2842,"lon":5.375,"is_reserved":false,"is_disabled":false,"rental_uris":{"android":"levelo://app?vid=875063f8-c637-45b8-8964-8222489d351d","ios":"levelo://app?vid=875063f8-c637-45b8-8964-8222489d351d"},"vehicle_type_id":"4","last_reported":1774384261,"current_range_meters":5600,"station_id":"ce4bh412rcd13ifvqds0","pricing_plan_id":"cebpf4jnsgd1na2vs0mg"},{"bike_id":"763571bb-b88d-45db-9a18-7962f9620cad","system_id":"levelo_inurba_marseille","lat":43.23193,"lon":5.35563,"is_reserved":false,"is_disabled":false,"rental_uris":{"android":"levelo://app?vid=763571bb-b88d-45db-9a18-7962f9620cad","ios":"levelo://app?vid=763571bb-b88d-45db-9a18-7962f9620cad"},"vehicle_type_id":"4","last_reported":1774384261,"current_range_meters":6000,"station_id":"ce4bhu92rcd13ifvqi70","pricing_plan_id":"cebpf4jnsgd1na2vs0mg"},{"bike_id":"0e2f4137-e82a-401c-945f-6a1c7c098239","system_id":"levelo_inurba_marseille","lat":43.29618,"lon":5.37142,"is_reserved":false,"is_disabled":false,"rental_uris":{"android":"levelo://app?vid=0e2f4137-e82a-401c-945f-6a1c7c098239","ios":"levelo://app?vid=0e2f4137-e82a-401c-945f-6a1c7c098239"},"vehicle_type_id":"4","last_reported":1774384261,"current_range_meters":6000,"station_id":"ce4bgnh2rcd13ifvqc0g","pricing_plan_id":"cebpf4jnsgd1na2vs0mg"},{"bike_id":"b75036ac-d81d-4bfd-a9c8-a051a6ff39fe","system_id":"levelo_inurba_marseille","lat":43.28529,"lon":5.44126,"is_reserved":false,"is_disabled":false,"rental_uris":{"android":"levelo://app?vid=b75036ac-d81d-4bfd-a9c8-a051a6ff39fe","ios":"levelo://app?vid=b75036ac-d81d-4bfd-a9c8-a051a6ff39fe"},"vehicle_type_id":"4","last_reported":1774384261,"current_range_meters":6000,"station_id":"st_d3j3df2ikq2c7380ej80","pricing_plan_id":"cebpf4jnsgd1na2vs0mg"},{"bike_id":"77deb619-deef-42c1-ade2-8dca83a843fb","system_id":"levelo_inurba_marseille","lat":43.29154,"lon":5.43983,"is_reserved":false,"is_disabled":false,"rental_uris":{"android":"levelo://app?vid=77deb619-deef-42c1-ade2-8dca83a843fb","ios":"levelo://app?vid=77deb619-deef-42c1-ade2-8dca83a843fb"},"vehicle_type_id":"4","last_reported":1774384261,"current_range_meters":6000,"station_id":"","pricing_plan_id":"cebpf4jnsgd1na2vs0mg"},{"bike_id":"367e3ca9-ec46-40f0-998a-d17782169415","system_id":"levelo_inurba_marseille","lat":43.31218,"lon":5.3686,"is_reserved":false,"is_disabled":false,"rental_uris":{"android":"levelo://app?vid=367e3ca9-ec46-40f0-998a-d17782169415","ios":"levelo://app?vid=367e3ca9-ec46-40f0-998a-d17782169415"},"vehicle_type_id":"4","last_reported":1774384261,"current_range_meters":6000,"station_id":"ce4bgl92rcd13ifvqbq0","pricing_plan_id":"cebpf4jnsgd1na2vs0mg"},{"bike_id":"3c95cbbf-d045-4b3e-bc25-575252972b9c","system_id":"levelo_inurba_marseille","lat":43.29771,"lon":5.37111,"is_reserved":false,"is_disabled":false,"rental_uris":{"android":"levelo://app?vid=3c95cbbf-d045-4b3e-bc25-575252972b9c","ios":"levelo://app?vid=3c95cbbf-d045-4b3e-bc25-575252972b9c"},"vehicle_type_id":"4","last_reported":1774384261,"current_range_meters":6000,"station_id":"ce4bgop2rcd13ifvqc1g","pricing_plan_id":"cebpf4jnsgd1na2vs0mg"},{"bike_id":"0b786319-6d9f-4d1c-890a-5150198e272a","system_id":"levelo_inurba_marseille","lat":43.28475,"lon":5.48397,"is_reserved":false,"is_disabled":false,"rental_uris":{"android":"levelo://app?vid=0b786319-6d9f-4d1c-890a-5150198e272a","ios":"levelo://app?vid=0b786319-6d9f-4d1c-890a-5150198e272a"},"vehicle_type_id":"4","last_reported":1774384261,"current_range_meters":6000,"station_id":"st_d3svhcjqgbts73a3dn0g","pricing_plan_id":"cebpf4jnsgd1na2vs0mg"},{"bike_id":"f35a9644-f102-427c-8b00-579a35988db3","system_id":"levelo_inurba_marseille","lat":43.21194,"lon":5.35082,"is_reserved":false,"is_disabled":false,"rental_uris":{"android":"levelo://app?vid=f35a9644-f102-427c-8b00-579a35988db3","ios":"levelo://app?vid=f35a9644-f102-427c-8b00-579a35988db3"},"vehicle_type_id":"4","last_reported":1774384261,"current_range_meters":6000,"station_id":"st_cvj6sg6p6f1abm77japg","pricing_plan_id":"cebpf4jnsgd1na2vs0mg"},{"bike_id":"07035ceb-7f0e-449d-a264-2cea17dace41","system_id":"levelo_inurba_marseille","lat":43.23778,"lon":5.36628,"is_reserved":false,"is_disabled":false,"rental_uris":{"android":"levelo://app?vid=07035ceb-7f0e-449d-a264-2cea17dace41","ios":"levelo://app?vid=07035ceb-7f0e-449d-a264-2cea17dace41"},"vehicle_type_id":"4","last_reported":1774384261,"current_range_meters":6000,"station_id":"st_d3nk18o9ro0c73en2l3g","pricing_plan_id":"cebpf4jnsgd1na2vs0mg"},{"bike_id":"1f67709d-9741-4a35-97ab-e44bfe350442","system_id":"levelo_inurba_marseille","lat":43.29563,"lon":5.39008,"is_reserved":false,"is_disabled":false,"rental_uris":{"android":"levelo://app?vid=1f67709d-9741-4a35-97ab-e44bfe350442","ios":"levelo://app?vid=1f67709d-9741-4a35-97ab-e44bfe350442"},"vehicle_type_id":"4","last_reported":1774384261,"current_range_meters":6000,"station_id":"","pricing_plan_id":"cebpf4jnsgd1na2vs0mg"},{"bike_id":"7e03e45c-d69c-4371-8267-aa26cde43729","system_id":"levelo_inurba_marseille","lat":43.2558,"lon":5.38229,"is_reserved":false,"is_disabled":true,"rental_uris":{"android":"levelo://app?vid=7e03e45c-d69c-4371-8267-aa26cde43729","ios":"levelo://app?vid=7e03e45c-d69c-4371-8267-aa26cde43729"},"vehicle_type_id":"4","last_reported":1774384261,"current_range_meters":6000,"station_id":"ce4bhih2rcd13ifvqfs0","pricing_plan_id":"cebpf4jnsgd1na2vs0mg"},{"bike_id":"1640993b-d278-49ed-aac8-4524836b0a26","system_id":"levelo_inurba_marseille","lat":43.28222,"lon":5.39048,"is_reserved":false,"is_disabled":true,"rental_uris":{"android":"levelo://app?vid=1640993b-d278-49ed-aac8-4524836b0a26","ios":"levelo://app?vid=1640993b-d278-49ed-aac8-4524836b0a26"},"vehicle_type_id":"4","last_reported":1774384261,"current_range_meters":6000,"station_id":"ce4bhn92rcd13ifvqgsg","pricing_plan_id":"cebpf4jnsgd1na2vs0mg"},{"bike_id":"e9b07658-a8f0-465c-b976-645cd41e5970","system_id":"levelo_inurba_marseille","lat":43.27191,"lon":5.40977,"is_reserved":false,"is_disabled":false,"rental_uris":{"android":"levelo://app?vid=e9b07658-a8f0-465c-b976-645cd41e5970","ios":"levelo://app?vid=e9b07658-a8f0-465c-b976-645cd41e5970"},"vehicle_type_id":"4","last_reported":1774384261,"current_range_meters":6000,"station_id":"ce4bhl12rcd13ifvqgf0","pricing_plan_id":"cebpf4jnsgd1na2vs0mg"},{"bike_id":"e81daa28-a4d1-4fa7-a5bb-589f54730f9d","system_id":"levelo_inurba_marseille","lat":43.27673,"lon":5.38872,"is_reserved":false,"is_disabled":false,"rental_uris":{"android":"levelo://app?vid=e81daa28-a4d1-4fa7-a5bb-589f54730f9d","ios":"levelo://app?vid=e81daa28-a4d1-4fa7-a5bb-589f54730f9d"},"vehicle_type_id":"4","last_reported":1774384261,"current_range_meters":6000,"station_id":"ce4bhi12rcd13ifvqfo0","pricing_plan_id":"cebpf4jnsgd1na2vs0mg"},{"bike_id":"d315d4d4-78e9-45de-8981-a7b0a1f81c91","system_id":"levelo_inurba_marseille","lat":43.27415,"lon":5.41603,"is_reserved":false,"is_disabled":false,"rental_uris":{"android":"levelo://app?vid=d315d4d4-78e9-45de-8981-a7b0a1f81c91","ios":"levelo://app?vid=d315d4d4-78e9-45de-8981-a7b0a1f81c91"},"vehicle_type_id":"4","last_reported":1774384261,"current_range_meters":6000,"station_id":"","pricing_plan_id":"cebpf4jnsgd1na2vs0mg"},{"bike_id":"7e239537-6c6b-4563-a73b-680f69586595","system_id":"levelo_inurba_marseille","lat":43.29007,"lon":5.35614,"is_reserved":false,"is_disabled":true,"rental_uris":{"android":"levelo://app?vid=7e239537-6c6b-4563-a73b-680f69586595","ios":"levelo://app?vid=7e239537-6c6b-4563-a73b-680f69586595"},"vehicle_type_id":"4","last_reported":1774384261,"current_range_meters":6000,"station_id":"ce4bhb92rcd13ifvqen0","pricing_plan_id":"cebpf4jnsgd1na2vs0mg"},{"bike_id":"cc0dfd40-0954-4f9c-abf8-0231df98780a","system_id":"levelo_inurba_marseille","lat":43.29188,"lon":5.39326,"is_reserved":false,"is_disabled":false,"rental_uris":{"android":"levelo://app?vid=cc0dfd40-0954-4f9c-abf8-0231df98780a","ios":"levelo://app?vid=cc0dfd40-0954-4f9c-abf8-0231df98780a"},"vehicle_type_id":"4","last_reported":1774384261,"current_range_meters":6000,"station_id":"ce4bh192rcd13ifvqdd0","pricing_plan_id":"cebpf4jnsgd1na2vs0mg"},{"bike_id":"1a1b717b-04fd-4f24-8074-1f22e4e55e21","system_id":"levelo_inurba_marseille","lat":43.2904,"lon":5.38655,"is_reserved":false,"is_disabled":false,"rental_uris":{"android":"levelo://app?vid=1a1b717b-04fd-4f24-8074-1f22e4e55e21","ios":"levelo://app?vid=1a1b717b-04fd-4f24-8074-1f22e4e55e21"},"vehicle_type_id":"4","last_reported":1774384261,"current_range_meters":6400,"station_id":"ce4bh4p2rcd13ifvqe0g","pricing_plan_id":"cebpf4jnsgd1na2vs0mg"},{"bike_id":"d153865b-277c-49ad-92ee-2c9d0756119d","system_id":"levelo_inurba_marseille","lat":43.30641,"lon":5.40081,"is_reserved":false,"is_disabled":false,"rental_uris":{"android":"levelo://app?vid=d153865b-277c-49ad-92ee-2c9d0756119d","ios":"levelo://app?vid=d153865b-277c-49ad-92ee-2c9d0756119d"},"vehicle_type_id":"4","last_reported":1774384261,"current_range_meters":6400,"station_id":"ce4bh112rcd13ifvqda0","pricing_plan_id":"cebpf4jnsgd1na2vs0mg"},{"bike_id":"a9b0556e-e257-4c86-baec-32c674fd9499","system_id":"levelo_inurba_marseille","lat":43.30203,"lon":5.39452,"is_reserved":false,"is_disabled":true,"rental_uris":{"android":"levelo://app?vid=a9b0556e-e257-4c86-baec-32c674fd9499","ios":"levelo://app?vid=a9b0556e-e257-4c86-baec-32c674fd9499"},"vehicle_type_id":"4","last_reported":1774384261,"current_range_meters":6400,"station_id":"ce4bh0p2rcd13ifvqd70","pricing_plan_id":"cebpf4jnsgd1na2vs0mg"},{"bike_id":"91b1ec64-8a9d-4d83-9dd5-6ee2c9a8f33e","system_id":"levelo_inurba_marseille","lat":43.2979,"lon":5.37116,"is_reserved":false,"is_disabled":false,"rental_uris":{"android":"levelo://app?vid=91b1ec64-8a9d-4d83-9dd5-6ee2c9a8f33e","ios":"levelo://app?vid=91b1ec64-8a9d-4d83-9dd5-6ee2c9a8f33e"},"vehicle_type_id":"4","last_reported":1774384261,"current_range_meters":6400,"station_id":"ce4bgop2rcd13ifvqc1g","pricing_plan_id":"cebpf4jnsgd1na2vs0mg"},{"bike_id":"9d29295a-778d-434c-af0f-fee5fe32917c","system_id":"levelo_inurba_marseille","lat":43.24663,"lon":5.38161,"is_reserved":false,"is_disabled":false,"rental_uris":{"android":"levelo://app?vid=9d29295a-778d-434c-af0f-fee5fe32917c","ios":"levelo://app?vid=9d29295a-778d-434c-af0f-fee5fe32917c"},"vehicle_type_id":"4","last_reported":1774384261,"current_range_meters":6400,"station_id":"ce4bhih2rcd13ifvqfr0","pricing_plan_id":"cebpf4jnsgd1na2vs0mg"},{"bike_id":"06411c2b-d0f9-4665-8144-3cdf55131f03","system_id":"levelo_inurba_marseille","lat":43.29622,"lon":5.4064,"is_reserved":false,"is_disabled":false,"rental_uris":{"android":"levelo://app?vid=06411c2b-d0f9-4665-8144-3cdf55131f03","ios":"levelo://app?vid=06411c2b-d0f9-4665-8144-3cdf55131f03"},"vehicle_type_id":"4","last_reported":1774384261,"current_range_meters":6400,"station_id":"ce4bh0h2rcd13ifvqd60","pricing_plan_id":"cebpf4jnsgd1na2vs0mg"},{"bike_id":"1dc869f8-0e31-4da0-9763-c423f1bd9e91","system_id":"levelo_inurba_marseille","lat":43.30908,"lon":5.36842,"is_reserved":false,"is_disabled":false,"rental_uris":{"android":"levelo://app?vid=1dc869f8-0e31-4da0-9763-c423f1bd9e91","ios":"levelo://app?vid=1dc869f8-0e31-4da0-9763-c423f1bd9e91"},"vehicle_type_id":"4","last_reported":1774384261,"current_range_meters":6400,"station_id":"ce4bgn92rcd13ifvqbvg","pricing_plan_id":"cebpf4jnsgd1na2vs0mg"},{"bike_id":"45ce07bf-1dc3-441d-be3e-98069ebaa649","system_id":"levelo_inurba_marseille","lat":43.27834,"lon":5.40683,"is_reserved":false,"is_disabled":false,"rental_uris":{"android":"levelo://app?vid=45ce07bf-1dc3-441d-be3e-98069ebaa649","ios":"levelo://app?vid=45ce07bf-1dc3-441d-be3e-98069ebaa649"},"vehicle_type_id":"4","last_reported":1774384261,"current_range_meters":6400,"station_id":"ce4bhnh2rcd13ifvqgtg","pricing_plan_id":"cebpf4jnsgd1na2vs0mg"},{"bike_id":"a5da0296-037b-41de-8678-a77541c5f8bb","system_id":"levelo_inurba_marseille","lat":43.28969,"lon":5.37846,"is_reserved":false,"is_disabled":false,"rental_uris":{"android":"levelo://app?vid=a5da0296-037b-41de-8678-a77541c5f8bb","ios":"levelo://app?vid=a5da0296-037b-41de-8678-a77541c5f8bb"},"vehicle_type_id":"4","last_reported":1774384261,"current_range_meters":6400,"station_id":"ce4bh9p2rcd13ifvqed0","pricing_plan_id":"cebpf4jnsgd1na2vs0mg"},{"bike_id":"cbb9ef95-d825-4d1c-b4a0-4b27eec53822","system_id":"levelo_inurba_marseille","lat":43.28659,"lon":5.36358,"is_reserved":false,"is_disabled":false,"rental_uris":{"android":"levelo://app?vid=cbb9ef95-d825-4d1c-b4a0-4b27eec53822","ios":"levelo://app?vid=cbb9ef95-d825-4d1c-b4a0-4b27eec53822"},"vehicle_type_id":"4","last_reported":1774384261,"current_range_meters":6400,"station_id":"ce4bhah2rcd13ifvqej0","pricing_plan_id":"cebpf4jnsgd1na2vs0mg"},{"bike_id":"f3dccb27-25f8-415f-8a8c-207408b72398","system_id":"levelo_inurba_marseille","lat":43.3208,"lon":5.36768,"is_reserved":false,"is_disabled":false,"rental_uris":{"android":"levelo://app?vid=f3dccb27-25f8-415f-8a8c-207408b72398","ios":"levelo://app?vid=f3dccb27-25f8-415f-8a8c-207408b72398"},"vehicle_type_id":"4","last_reported":1774384261,"current_range_meters":6400,"station_id":"ce4bhrh2rcd13ifvqhug","pricing_plan_id":"cebpf4jnsgd1na2vs0mg"},{"bike_id":"9ca4b1da-0df4-426d-b237-eed2d4351450","system_id":"levelo_inurba_marseille","lat":43.23174,"lon":5.39989,"is_reserved":false,"is_disabled":false,"rental_uris":{"android":"levelo://app?vid=9ca4b1da-0df4-426d-b237-eed2d4351450","ios":"levelo://app?vid=9ca4b1da-0df4-426d-b237-eed2d4351450"},"vehicle_type_id":"4","last_reported":1774384261,"current_range_meters":6400,"station_id":"ce4bhn12rcd13ifvqgqg","pricing_plan_id":"cebpf4jnsgd1na2vs0mg"},{"bike_id":"e5e66389-b179-4527-8fef-169bdc244df2","system_id":"levelo_inurba_marseille","lat":43.29578,"lon":5.39984,"is_reserved":false,"is_disabled":false,"rental_uris":{"android":"levelo://app?vid=e5e66389-b179-4527-8fef-169bdc244df2","ios":"levelo://app?vid=e5e66389-b179-4527-8fef-169bdc244df2"},"vehicle_type_id":"4","last_reported":1774384261,"current_range_meters":6800,"station_id":"ce4bh312rcd13ifvqdj0","pricing_plan_id":"cebpf4jnsgd1na2vs0mg"},{"bike_id":"21212254-e5a0-4af6-a45f-ed4c631ca773","system_id":"levelo_inurba_marseille","lat":43.25526,"lon":5.37642,"is_reserved":false,"is_disabled":false,"rental_uris":{"android":"levelo://app?vid=21212254-e5a0-4af6-a45f-ed4c631ca773","ios":"levelo://app?vid=21212254-e5a0-4af6-a45f-ed4c631ca773"},"vehicle_type_id":"4","last_reported":1774384261,"current_range_meters":6800,"station_id":"ce4bhh12rcd13ifvqff0","pricing_plan_id":"cebpf4jnsgd1na2vs0mg"},{"bike_id":"a14d2edd-85c5-4116-8db5-355e3fb2ddbe","system_id":"levelo_inurba_marseille","lat":43.33552,"lon":5.37453,"is_reserved":false,"is_disabled":false,"rental_uris":{"android":"levelo://app?vid=a14d2edd-85c5-4116-8db5-355e3fb2ddbe","ios":"levelo://app?vid=a14d2edd-85c5-4116-8db5-355e3fb2ddbe"},"vehicle_type_id":"4","last_reported":1774384261,"current_range_meters":6800,"station_id":"st_d46tts09ee8s73dlu43g","pricing_plan_id":"cebpf4jnsgd1na2vs0mg"},{"bike_id":"cbe15006-443d-4dd0-8293-801d86c78926","system_id":"levelo_inurba_marseille","lat":43.30142,"lon":5.3987,"is_reserved":false,"is_disabled":false,"rental_uris":{"android":"levelo://app?vid=cbe15006-443d-4dd0-8293-801d86c78926","ios":"levelo://app?vid=cbe15006-443d-4dd0-8293-801d86c78926"},"vehicle_type_id":"4","last_reported":1774384261,"current_range_meters":6800,"station_id":"ce4bh0h2rcd13ifvqd40","pricing_plan_id":"cebpf4jnsgd1na2vs0mg"},{"bike_id":"dffad5ff-7d58-4152-91b4-69c4f0e2e182","system_id":"levelo_inurba_marseille","lat":43.2976,"lon":5.42764,"is_reserved":false,"is_disabled":false,"rental_uris":{"android":"levelo://app?vid=dffad5ff-7d58-4152-91b4-69c4f0e2e182","ios":"levelo://app?vid=dffad5ff-7d58-4152-91b4-69c4f0e2e182"},"vehicle_type_id":"4","last_reported":1774384261,"current_range_meters":6800,"station_id":"st_d3md5207bmas73dh9klg","pricing_plan_id":"cebpf4jnsgd1na2vs0mg"},{"bike_id":"8e331d09-f777-47e4-a327-164db2e188a9","system_id":"levelo_inurba_marseille","lat":43.26575,"lon":5.40319,"is_reserved":false,"is_disabled":true,"rental_uris":{"android":"levelo://app?vid=8e331d09-f777-47e4-a327-164db2e188a9","ios":"levelo://app?vid=8e331d09-f777-47e4-a327-164db2e188a9"},"vehicle_type_id":"4","last_reported":1774384261,"current_range_meters":6800,"station_id":"ce4bhmp2rcd13ifvqgng","pricing_plan_id":"cebpf4jnsgd1na2vs0mg"},{"bike_id":"066cfe81-714d-4a28-ba8d-e13baf5bbb1b","system_id":"levelo_inurba_marseille","lat":43.27266,"lon":5.41147,"is_reserved":false,"is_disabled":false,"rental_uris":{"android":"levelo://app?vid=066cfe81-714d-4a28-ba8d-e13baf5bbb1b","ios":"levelo://app?vid=066cfe81-714d-4a28-ba8d-e13baf5bbb1b"},"vehicle_type_id":"4","last_reported":1774384261,"current_range_meters":6800,"station_id":"","pricing_plan_id":"cebpf4jnsgd1na2vs0mg"},{"bike_id":"af28f2f5-abfc-4590-b2cf-7d3d7492db13","system_id":"levelo_inurba_marseille","lat":43.24665,"lon":5.38138,"is_reserved":false,"is_disabled":false,"rental_uris":{"android":"levelo://app?vid=af28f2f5-abfc-4590-b2cf-7d3d7492db13","ios":"levelo://app?vid=af28f2f5-abfc-4590-b2cf-7d3d7492db13"},"vehicle_type_id":"4","last_reported":1774384261,"current_range_meters":6800,"station_id":"ce4bhih2rcd13ifvqfr0","pricing_plan_id":"cebpf4jnsgd1na2vs0mg"},{"bike_id":"fadd83d2-5a56-4dab-abd3-4fc024887366","system_id":"levelo_inurba_marseille","lat":43.28455,"lon":5.48409,"is_reserved":false,"is_disabled":false,"rental_uris":{"android":"levelo://app?vid=fadd83d2-5a56-4dab-abd3-4fc024887366","ios":"levelo://app?vid=fadd83d2-5a56-4dab-abd3-4fc024887366"},"vehicle_type_id":"4","last_reported":1774384261,"current_range_meters":6800,"station_id":"","pricing_plan_id":"cebpf4jnsgd1na2vs0mg"},{"bike_id":"0720c738-a05c-4b8e-b3f4-63429048f6d0","system_id":"levelo_inurba_marseille","lat":43.2998,"lon":5.3718,"is_reserved":false,"is_disabled":false,"rental_uris":{"android":"levelo://app?vid=0720c738-a05c-4b8e-b3f4-63429048f6d0","ios":"levelo://app?vid=0720c738-a05c-4b8e-b3f4-63429048f6d0"},"vehicle_type_id":"4","last_reported":1774384261,"current_range_meters":6800,"station_id":"ce4bgr92rcd13ifvqc7g","pricing_plan_id":"cebpf4jnsgd1na2vs0mg"},{"bike_id":"accf0893-dc3a-4a7f-b077-5c0993daa01a","system_id":"levelo_inurba_marseille","lat":43.28685,"lon":5.38652,"is_reserved":false,"is_disabled":false,"rental_uris":{"android":"levelo://app?vid=accf0893-dc3a-4a7f-b077-5c0993daa01a","ios":"levelo://app?vid=accf0893-dc3a-4a7f-b077-5c0993daa01a"},"vehicle_type_id":"4","last_reported":1774384261,"current_range_meters":6800,"station_id":"ce4bh492rcd13ifvqdug","pricing_plan_id":"cebpf4jnsgd1na2vs0mg"},{"bike_id":"e6349eb3-2730-461c-ae14-f386689052fa","system_id":"levelo_inurba_marseille","lat":43.31624,"lon":5.37805,"is_reserved":false,"is_disabled":true,"rental_uris":{"android":"levelo://app?vid=e6349eb3-2730-461c-ae14-f386689052fa","ios":"levelo://app?vid=e6349eb3-2730-461c-ae14-f386689052fa"},"vehicle_type_id":"4","last_reported":1774384261,"current_range_meters":6800,"station_id":"","pricing_plan_id":"cebpf4jnsgd1na2vs0mg"},{"bike_id":"d09d228d-2f6a-477f-99e2-2109d7ccc63c","system_id":"levelo_inurba_marseille","lat":43.25115,"lon":5.39511,"is_reserved":false,"is_disabled":false,"rental_uris":{"android":"levelo://app?vid=d09d228d-2f6a-477f-99e2-2109d7ccc63c","ios":"levelo://app?vid=d09d228d-2f6a-477f-99e2-2109d7ccc63c"},"vehicle_type_id":"4","last_reported":1774384261,"current_range_meters":6800,"station_id":"ce4bhm12rcd13ifvqgkg","pricing_plan_id":"cebpf4jnsgd1na2vs0mg"},{"bike_id":"7c286d23-0ee0-43d9-8ebe-7926f179003d","system_id":"levelo_inurba_marseille","lat":43.28406,"lon":5.37528,"is_reserved":false,"is_disabled":false,"rental_uris":{"android":"levelo://app?vid=7c286d23-0ee0-43d9-8ebe-7926f179003d","ios":"levelo://app?vid=7c286d23-0ee0-43d9-8ebe-7926f179003d"},"vehicle_type_id":"4","last_reported":1774384261,"current_range_meters":6800,"station_id":"ce4bh412rcd13ifvqds0","pricing_plan_id":"cebpf4jnsgd1na2vs0mg"},{"bike_id":"9776abc1-14f9-4360-b1c4-22280aed12f1","system_id":"levelo_inurba_marseille","lat":43.29608,"lon":5.38074,"is_reserved":false,"is_disabled":false,"rental_uris":{"android":"levelo://app?vid=9776abc1-14f9-4360-b1c4-22280aed12f1","ios":"levelo://app?vid=9776abc1-14f9-4360-b1c4-22280aed12f1"},"vehicle_type_id":"4","last_reported":1774384261,"current_range_meters":6800,"station_id":"ce4bgl12rcd13ifvqbo0","pricing_plan_id":"cebpf4jnsgd1na2vs0mg"},{"bike_id":"b1ceaa1d-f7d5-4f1b-b74b-3e9a13f9efeb","system_id":"levelo_inurba_marseille","lat":43.23965,"lon":5.36625,"is_reserved":false,"is_disabled":false,"rental_uris":{"android":"levelo://app?vid=b1ceaa1d-f7d5-4f1b-b74b-3e9a13f9efeb","ios":"levelo://app?vid=b1ceaa1d-f7d5-4f1b-b74b-3e9a13f9efeb"},"vehicle_type_id":"4","last_reported":1774384261,"current_range_meters":6800,"station_id":"ce4bhi12rcd13ifvqfp0","pricing_plan_id":"cebpf4jnsgd1na2vs0mg"},{"bike_id":"c7821aa3-76e1-4564-ba4d-1a4d50b3b98d","system_id":"levelo_inurba_marseille","lat":43.3064,"lon":5.40095,"is_reserved":false,"is_disabled":false,"rental_uris":{"android":"levelo://app?vid=c7821aa3-76e1-4564-ba4d-1a4d50b3b98d","ios":"levelo://app?vid=c7821aa3-76e1-4564-ba4d-1a4d50b3b98d"},"vehicle_type_id":"4","last_reported":1774384261,"current_range_meters":6800,"station_id":"ce4bh112rcd13ifvqda0","pricing_plan_id":"cebpf4jnsgd1na2vs0mg"},{"bike_id":"e3f886a8-5ab4-45f3-9b3b-ccb5c60cb84a","system_id":"levelo_inurba_marseille","lat":43.25589,"lon":5.38212,"is_reserved":false,"is_disabled":false,"rental_uris":{"android":"levelo://app?vid=e3f886a8-5ab4-45f3-9b3b-ccb5c60cb84a","ios":"levelo://app?vid=e3f886a8-5ab4-45f3-9b3b-ccb5c60cb84a"},"vehicle_type_id":"4","last_reported":1774384261,"current_range_meters":6800,"station_id":"ce4bhih2rcd13ifvqfs0","pricing_plan_id":"cebpf4jnsgd1na2vs0mg"},{"bike_id":"16e2087c-00f0-4637-b6ad-600f7b9892ee","system_id":"levelo_inurba_marseille","lat":43.29029,"lon":5.38661,"is_reserved":false,"is_disabled":false,"rental_uris":{"android":"levelo://app?vid=16e2087c-00f0-4637-b6ad-600f7b9892ee","ios":"levelo://app?vid=16e2087c-00f0-4637-b6ad-600f7b9892ee"},"vehicle_type_id":"4","last_reported":1774384261,"current_range_meters":6800,"station_id":"ce4bh4p2rcd13ifvqe0g","pricing_plan_id":"cebpf4jnsgd1na2vs0mg"},{"bike_id":"04696bc5-8154-4c46-9c9f-db8416a35051","system_id":"levelo_inurba_marseille","lat":43.31049,"lon":5.37174,"is_reserved":false,"is_disabled":false,"rental_uris":{"android":"levelo://app?vid=04696bc5-8154-4c46-9c9f-db8416a35051","ios":"levelo://app?vid=04696bc5-8154-4c46-9c9f-db8416a35051"},"vehicle_type_id":"4","last_reported":1774384261,"current_range_meters":7200,"station_id":"st_d4kl2rp97mjs73e7tdfg","pricing_plan_id":"cebpf4jnsgd1na2vs0mg"},{"bike_id":"f7e664bc-8cfe-465d-9dbe-128ca982aa9c","system_id":"levelo_inurba_marseille","lat":43.25029,"lon":5.38928,"is_reserved":false,"is_disabled":false,"rental_uris":{"android":"levelo://app?vid=f7e664bc-8cfe-465d-9dbe-128ca982aa9c","ios":"levelo://app?vid=f7e664bc-8cfe-465d-9dbe-128ca982aa9c"},"vehicle_type_id":"4","last_reported":1774384261,"current_range_meters":7200,"station_id":"ce4bhgp2rcd13ifvqfd0","pricing_plan_id":"cebpf4jnsgd1na2vs0mg"},{"bike_id":"c1de2c65-0476-46cf-9ed7-7dbf07b95ee3","system_id":"levelo_inurba_marseille","lat":43.29627,"lon":5.40602,"is_reserved":false,"is_disabled":false,"rental_uris":{"android":"levelo://app?vid=c1de2c65-0476-46cf-9ed7-7dbf07b95ee3","ios":"levelo://app?vid=c1de2c65-0476-46cf-9ed7-7dbf07b95ee3"},"vehicle_type_id":"4","last_reported":1774384261,"current_range_meters":7200,"station_id":"ce4bh0h2rcd13ifvqd60","pricing_plan_id":"cebpf4jnsgd1na2vs0mg"},{"bike_id":"3a9c28ff-d64f-4442-809b-d657d9bc7cdd","system_id":"levelo_inurba_marseille","lat":43.33716,"lon":5.39202,"is_reserved":false,"is_disabled":false,"rental_uris":{"android":"levelo://app?vid=3a9c28ff-d64f-4442-809b-d657d9bc7cdd","ios":"levelo://app?vid=3a9c28ff-d64f-4442-809b-d657d9bc7cdd"},"vehicle_type_id":"4","last_reported":1774384261,"current_range_meters":7200,"station_id":"ce4bhr92rcd13ifvqhsg","pricing_plan_id":"cebpf4jnsgd1na2vs0mg"},{"bike_id":"445a363e-6635-4c6f-9d9b-6ed1d223c4e8","system_id":"levelo_inurba_marseille","lat":43.2957,"lon":5.43887,"is_reserved":false,"is_disabled":false,"rental_uris":{"android":"levelo://app?vid=445a363e-6635-4c6f-9d9b-6ed1d223c4e8","ios":"levelo://app?vid=445a363e-6635-4c6f-9d9b-6ed1d223c4e8"},"vehicle_type_id":"4","last_reported":1774384261,"current_range_meters":7200,"station_id":"","pricing_plan_id":"cebpf4jnsgd1na2vs0mg"},{"bike_id":"ce1ca696-5540-44ed-b207-f9acc1332d82","system_id":"levelo_inurba_marseille","lat":43.28178,"lon":5.39049,"is_reserved":false,"is_disabled":false,"rental_uris":{"android":"levelo://app?vid=ce1ca696-5540-44ed-b207-f9acc1332d82","ios":"levelo://app?vid=ce1ca696-5540-44ed-b207-f9acc1332d82"},"vehicle_type_id":"4","last_reported":1774384261,"current_range_meters":7200,"station_id":"","pricing_plan_id":"cebpf4jnsgd1na2vs0mg"},{"bike_id":"fe332a28-7761-474f-ad2d-b84cd0257740","system_id":"levelo_inurba_marseille","lat":43.23797,"lon":5.36628,"is_reserved":false,"is_disabled":false,"rental_uris":{"android":"levelo://app?vid=fe332a28-7761-474f-ad2d-b84cd0257740","ios":"levelo://app?vid=fe332a28-7761-474f-ad2d-b84cd0257740"},"vehicle_type_id":"4","last_reported":1774384261,"current_range_meters":7200,"station_id":"st_d3nk18o9ro0c73en2l3g","pricing_plan_id":"cebpf4jnsgd1na2vs0mg"},{"bike_id":"eb7f051c-07f1-41d2-9450-33cd5a984ca1","system_id":"levelo_inurba_marseille","lat":43.230551,"lon":5.354929,"is_reserved":false,"is_disabled":false,"rental_uris":{"android":"levelo://app?vid=eb7f051c-07f1-41d2-9450-33cd5a984ca1","ios":"levelo://app?vid=eb7f051c-07f1-41d2-9450-33cd5a984ca1"},"vehicle_type_id":"4","last_reported":1774384261,"current_range_meters":7200,"station_id":"cpo3342slgdg3j2ifvpg","pricing_plan_id":"cebpf4jnsgd1na2vs0mg"},{"bike_id":"ab33f621-d1f1-4434-983f-0a37388ad222","system_id":"levelo_inurba_marseille","lat":43.30752,"lon":5.37169,"is_reserved":false,"is_disabled":false,"rental_uris":{"android":"levelo://app?vid=ab33f621-d1f1-4434-983f-0a37388ad222","ios":"levelo://app?vid=ab33f621-d1f1-4434-983f-0a37388ad222"},"vehicle_type_id":"4","last_reported":1774384261,"current_range_meters":7200,"station_id":"","pricing_plan_id":"cebpf4jnsgd1na2vs0mg"},{"bike_id":"614b36d8-067b-4b53-b46a-94738fd58a77","system_id":"levelo_inurba_marseille","lat":43.30416,"lon":5.39736,"is_reserved":false,"is_disabled":false,"rental_uris":{"android":"levelo://app?vid=614b36d8-067b-4b53-b46a-94738fd58a77","ios":"levelo://app?vid=614b36d8-067b-4b53-b46a-94738fd58a77"},"vehicle_type_id":"4","last_reported":1774384261,"current_range_meters":7200,"station_id":"ce4bh092rcd13ifvqd20","pricing_plan_id":"cebpf4jnsgd1na2vs0mg"},{"bike_id":"a9ec82e5-093a-4542-9f2f-44e506af087d","system_id":"levelo_inurba_marseille","lat":43.2841,"lon":5.35004,"is_reserved":false,"is_disabled":false,"rental_uris":{"android":"levelo://app?vid=a9ec82e5-093a-4542-9f2f-44e506af087d","ios":"levelo://app?vid=a9ec82e5-093a-4542-9f2f-44e506af087d"},"vehicle_type_id":"4","last_reported":1774384261,"current_range_meters":7200,"station_id":"ce4bhbh2rcd13ifvqepg","pricing_plan_id":"cebpf4jnsgd1na2vs0mg"},{"bike_id":"8b5d40a1-73a5-4996-8aaa-10b91006d761","system_id":"levelo_inurba_marseille","lat":43.30669,"lon":5.40046,"is_reserved":false,"is_disabled":false,"rental_uris":{"android":"levelo://app?vid=8b5d40a1-73a5-4996-8aaa-10b91006d761","ios":"levelo://app?vid=8b5d40a1-73a5-4996-8aaa-10b91006d761"},"vehicle_type_id":"4","last_reported":1774384261,"current_range_meters":7200,"station_id":"","pricing_plan_id":"cebpf4jnsgd1na2vs0mg"},{"bike_id":"107301ff-a3ab-4eed-8839-ab5422ae13d4","system_id":"levelo_inurba_marseille","lat":43.24789,"lon":5.37531,"is_reserved":false,"is_disabled":false,"rental_uris":{"android":"levelo://app?vid=107301ff-a3ab-4eed-8839-ab5422ae13d4","ios":"levelo://app?vid=107301ff-a3ab-4eed-8839-ab5422ae13d4"},"vehicle_type_id":"4","last_reported":1774384261,"current_range_meters":7200,"station_id":"","pricing_plan_id":"cebpf4jnsgd1na2vs0mg"},{"bike_id":"6a457767-964e-4adf-825f-575138a70ca2","system_id":"levelo_inurba_marseille","lat":43.30796,"lon":5.38151,"is_reserved":false,"is_disabled":false,"rental_uris":{"android":"levelo://app?vid=6a457767-964e-4adf-825f-575138a70ca2","ios":"levelo://app?vid=6a457767-964e-4adf-825f-575138a70ca2"},"vehicle_type_id":"4","last_reported":1774384261,"current_range_meters":7200,"station_id":"ce4bgt12rcd13ifvqce0","pricing_plan_id":"cebpf4jnsgd1na2vs0mg"},{"bike_id":"58da38a9-dad2-464f-a10a-fb486fca1caf","system_id":"levelo_inurba_marseille","lat":43.28219,"lon":5.40576,"is_reserved":false,"is_disabled":false,"rental_uris":{"android":"levelo://app?vid=58da38a9-dad2-464f-a10a-fb486fca1caf","ios":"levelo://app?vid=58da38a9-dad2-464f-a10a-fb486fca1caf"},"vehicle_type_id":"4","last_reported":1774384261,"current_range_meters":7200,"station_id":"","pricing_plan_id":"cebpf4jnsgd1na2vs0mg"},{"bike_id":"e51f3b8f-2277-4636-88c7-d4fed1c89dba","system_id":"levelo_inurba_marseille","lat":43.29849,"lon":5.40935,"is_reserved":false,"is_disabled":false,"rental_uris":{"android":"levelo://app?vid=e51f3b8f-2277-4636-88c7-d4fed1c89dba","ios":"levelo://app?vid=e51f3b8f-2277-4636-88c7-d4fed1c89dba"},"vehicle_type_id":"4","last_reported":1774384261,"current_range_meters":7200,"station_id":"","pricing_plan_id":"cebpf4jnsgd1na2vs0mg"},{"bike_id":"1a751648-291f-4319-a34f-249a761c3662","system_id":"levelo_inurba_marseille","lat":43.33615,"lon":5.36366,"is_reserved":false,"is_disabled":false,"rental_uris":{"android":"levelo://app?vid=1a751648-291f-4319-a34f-249a761c3662","ios":"levelo://app?vid=1a751648-291f-4319-a34f-249a761c3662"},"vehicle_type_id":"4","last_reported":1774384261,"current_range_meters":7200,"station_id":"","pricing_plan_id":"cebpf4jnsgd1na2vs0mg"},{"bike_id":"844764d7-cc0b-4778-a850-0158d4ec3591","system_id":"levelo_inurba_marseille","lat":43.27995,"lon":5.40011,"is_reserved":false,"is_disabled":false,"rental_uris":{"android":"levelo://app?vid=844764d7-cc0b-4778-a850-0158d4ec3591","ios":"levelo://app?vid=844764d7-cc0b-4778-a850-0158d4ec3591"},"vehicle_type_id":"4","last_reported":1774384261,"current_range_meters":7200,"station_id":"ce4bho92rcd13ifvqh4g","pricing_plan_id":"cebpf4jnsgd1na2vs0mg"},{"bike_id":"b9075bd2-6a16-46f9-b243-40ae44fbbfa7","system_id":"levelo_inurba_marseille","lat":43.29861,"lon":5.39741,"is_reserved":false,"is_disabled":false,"rental_uris":{"android":"levelo://app?vid=b9075bd2-6a16-46f9-b243-40ae44fbbfa7","ios":"levelo://app?vid=b9075bd2-6a16-46f9-b243-40ae44fbbfa7"},"vehicle_type_id":"4","last_reported":1774384261,"current_range_meters":7200,"station_id":"ce4bh0h2rcd13ifvqd50","pricing_plan_id":"cebpf4jnsgd1na2vs0mg"},{"bike_id":"e0996d0d-f6cf-4428-acad-fd84bac2c9fe","system_id":"levelo_inurba_marseille","lat":43.23188,"lon":5.35564,"is_reserved":false,"is_disabled":false,"rental_uris":{"android":"levelo://app?vid=e0996d0d-f6cf-4428-acad-fd84bac2c9fe","ios":"levelo://app?vid=e0996d0d-f6cf-4428-acad-fd84bac2c9fe"},"vehicle_type_id":"4","last_reported":1774384261,"current_range_meters":7200,"station_id":"ce4bhu92rcd13ifvqi70","pricing_plan_id":"cebpf4jnsgd1na2vs0mg"},{"bike_id":"bae6218d-76b2-49f7-a1ac-2d661366a996","system_id":"levelo_inurba_marseille","lat":43.27807,"lon":5.40706,"is_reserved":false,"is_disabled":false,"rental_uris":{"android":"levelo://app?vid=bae6218d-76b2-49f7-a1ac-2d661366a996","ios":"levelo://app?vid=bae6218d-76b2-49f7-a1ac-2d661366a996"},"vehicle_type_id":"4","last_reported":1774384261,"current_range_meters":7200,"station_id":"ce4bhnh2rcd13ifvqgtg","pricing_plan_id":"cebpf4jnsgd1na2vs0mg"},{"bike_id":"6711ca2b-9a4e-46b1-892e-1007cc2a656e","system_id":"levelo_inurba_marseille","lat":43.2853,"lon":5.44125,"is_reserved":false,"is_disabled":false,"rental_uris":{"android":"levelo://app?vid=6711ca2b-9a4e-46b1-892e-1007cc2a656e","ios":"levelo://app?vid=6711ca2b-9a4e-46b1-892e-1007cc2a656e"},"vehicle_type_id":"4","last_reported":1774384261,"current_range_meters":7200,"station_id":"st_d3j3df2ikq2c7380ej80","pricing_plan_id":"cebpf4jnsgd1na2vs0mg"},{"bike_id":"e94d83da-a52c-4009-83db-8b37093608a6","system_id":"levelo_inurba_marseille","lat":43.23183,"lon":5.39977,"is_reserved":false,"is_disabled":false,"rental_uris":{"android":"levelo://app?vid=e94d83da-a52c-4009-83db-8b37093608a6","ios":"levelo://app?vid=e94d83da-a52c-4009-83db-8b37093608a6"},"vehicle_type_id":"4","last_reported":1774384261,"current_range_meters":7200,"station_id":"ce4bhn12rcd13ifvqgqg","pricing_plan_id":"cebpf4jnsgd1na2vs0mg"},{"bike_id":"7ce27239-c9be-4bf2-831d-01ce9cc7b549","system_id":"levelo_inurba_marseille","lat":43.2976,"lon":5.37098,"is_reserved":false,"is_disabled":false,"rental_uris":{"android":"levelo://app?vid=7ce27239-c9be-4bf2-831d-01ce9cc7b549","ios":"levelo://app?vid=7ce27239-c9be-4bf2-831d-01ce9cc7b549"},"vehicle_type_id":"4","last_reported":1774384261,"current_range_meters":7200,"station_id":"ce4bgop2rcd13ifvqc1g","pricing_plan_id":"cebpf4jnsgd1na2vs0mg"},{"bike_id":"5208ee98-7e4f-445b-9dbc-5d8fbec80d74","system_id":"levelo_inurba_marseille","lat":43.23396,"lon":5.41231,"is_reserved":false,"is_disabled":false,"rental_uris":{"android":"levelo://app?vid=5208ee98-7e4f-445b-9dbc-5d8fbec80d74","ios":"levelo://app?vid=5208ee98-7e4f-445b-9dbc-5d8fbec80d74"},"vehicle_type_id":"4","last_reported":1774384261,"current_range_meters":7200,"station_id":"","pricing_plan_id":"cebpf4jnsgd1na2vs0mg"},{"bike_id":"2159f981-c6a8-4439-bb67-1723675b05d9","system_id":"levelo_inurba_marseille","lat":43.29039,"lon":5.38656,"is_reserved":false,"is_disabled":false,"rental_uris":{"android":"levelo://app?vid=2159f981-c6a8-4439-bb67-1723675b05d9","ios":"levelo://app?vid=2159f981-c6a8-4439-bb67-1723675b05d9"},"vehicle_type_id":"4","last_reported":1774384261,"current_range_meters":8000,"station_id":"ce4bh4p2rcd13ifvqe0g","pricing_plan_id":"cebpf4jnsgd1na2vs0mg"},{"bike_id":"09251229-688d-462e-a330-2156af9312b9","system_id":"levelo_inurba_marseille","lat":43.29528,"lon":5.37497,"is_reserved":false,"is_disabled":false,"rental_uris":{"android":"levelo://app?vid=09251229-688d-462e-a330-2156af9312b9","ios":"levelo://app?vid=09251229-688d-462e-a330-2156af9312b9"},"vehicle_type_id":"4","last_reported":1774384261,"current_range_meters":8000,"station_id":"ce4bgkp2rcd13ifvqbmg","pricing_plan_id":"cebpf4jnsgd1na2vs0mg"},{"bike_id":"8520329c-d7af-4b6d-bf58-a8655f781428","system_id":"levelo_inurba_marseille","lat":43.31051,"lon":5.37169,"is_reserved":false,"is_disabled":false,"rental_uris":{"android":"levelo://app?vid=8520329c-d7af-4b6d-bf58-a8655f781428","ios":"levelo://app?vid=8520329c-d7af-4b6d-bf58-a8655f781428"},"vehicle_type_id":"4","last_reported":1774384261,"current_range_meters":8000,"station_id":"st_d4kl2rp97mjs73e7tdfg","pricing_plan_id":"cebpf4jnsgd1na2vs0mg"},{"bike_id":"d48b1092-602d-4cd7-9bd8-bb9ea987105f","system_id":"levelo_inurba_marseille","lat":43.29524,"lon":5.38531,"is_reserved":false,"is_disabled":false,"rental_uris":{"android":"levelo://app?vid=d48b1092-602d-4cd7-9bd8-bb9ea987105f","ios":"levelo://app?vid=d48b1092-602d-4cd7-9bd8-bb9ea987105f"},"vehicle_type_id":"4","last_reported":1774384261,"current_range_meters":8000,"station_id":"ce4bgih2rcd13ifvqba0","pricing_plan_id":"cebpf4jnsgd1na2vs0mg"},{"bike_id":"11e270f4-fef7-471c-9adc-54747540acc9","system_id":"levelo_inurba_marseille","lat":43.28665,"lon":5.36381,"is_reserved":false,"is_disabled":false,"rental_uris":{"android":"levelo://app?vid=11e270f4-fef7-471c-9adc-54747540acc9","ios":"levelo://app?vid=11e270f4-fef7-471c-9adc-54747540acc9"},"vehicle_type_id":"4","last_reported":1774384261,"current_range_meters":8000,"station_id":"ce4bhah2rcd13ifvqej0","pricing_plan_id":"cebpf4jnsgd1na2vs0mg"},{"bike_id":"aa929685-e4dd-4a31-a1c6-979463fa81a3","system_id":"levelo_inurba_marseille","lat":43.28475,"lon":5.48393,"is_reserved":false,"is_disabled":false,"rental_uris":{"android":"levelo://app?vid=aa929685-e4dd-4a31-a1c6-979463fa81a3","ios":"levelo://app?vid=aa929685-e4dd-4a31-a1c6-979463fa81a3"},"vehicle_type_id":"4","last_reported":1774384261,"current_range_meters":8000,"station_id":"st_d3svhcjqgbts73a3dn0g","pricing_plan_id":"cebpf4jnsgd1na2vs0mg"},{"bike_id":"d2eb82b9-d158-4e9e-b9ff-38b1c7539aae","system_id":"levelo_inurba_marseille","lat":43.2926,"lon":5.38438,"is_reserved":false,"is_disabled":false,"rental_uris":{"android":"levelo://app?vid=d2eb82b9-d158-4e9e-b9ff-38b1c7539aae","ios":"levelo://app?vid=d2eb82b9-d158-4e9e-b9ff-38b1c7539aae"},"vehicle_type_id":"4","last_reported":1774384261,"current_range_meters":8000,"station_id":"ce4bh692rcd13ifvqea0","pricing_plan_id":"cebpf4jnsgd1na2vs0mg"},{"bike_id":"8460c3c1-ea9b-48f2-be4e-da7c924b9948","system_id":"levelo_inurba_marseille","lat":43.30643,"lon":5.401,"is_reserved":false,"is_disabled":false,"rental_uris":{"android":"levelo://app?vid=8460c3c1-ea9b-48f2-be4e-da7c924b9948","ios":"levelo://app?vid=8460c3c1-ea9b-48f2-be4e-da7c924b9948"},"vehicle_type_id":"4","last_reported":1774384261,"current_range_meters":8000,"station_id":"ce4bh112rcd13ifvqda0","pricing_plan_id":"cebpf4jnsgd1na2vs0mg"},{"bike_id":"ce5344ce-4c16-4dd1-aa82-8f1e2691f17b","system_id":"levelo_inurba_marseille","lat":43.28339,"lon":5.38111,"is_reserved":false,"is_disabled":false,"rental_uris":{"android":"levelo://app?vid=ce5344ce-4c16-4dd1-aa82-8f1e2691f17b","ios":"levelo://app?vid=ce5344ce-4c16-4dd1-aa82-8f1e2691f17b"},"vehicle_type_id":"4","last_reported":1774384261,"current_range_meters":8000,"station_id":"ce4bh412rcd13ifvqdr0","pricing_plan_id":"cebpf4jnsgd1na2vs0mg"},{"bike_id":"fde7c990-ea71-4125-9b7f-4cda0f7e1677","system_id":"levelo_inurba_marseille","lat":43.23784,"lon":5.36638,"is_reserved":false,"is_disabled":false,"rental_uris":{"android":"levelo://app?vid=fde7c990-ea71-4125-9b7f-4cda0f7e1677","ios":"levelo://app?vid=fde7c990-ea71-4125-9b7f-4cda0f7e1677"},"vehicle_type_id":"4","last_reported":1774384261,"current_range_meters":8000,"station_id":"st_d3nk18o9ro0c73en2l3g","pricing_plan_id":"cebpf4jnsgd1na2vs0mg"},{"bike_id":"e3b7056e-0036-4da3-b092-e1e7062719bf","system_id":"levelo_inurba_marseille","lat":43.30245,"lon":5.40065,"is_reserved":false,"is_disabled":false,"rental_uris":{"android":"levelo://app?vid=e3b7056e-0036-4da3-b092-e1e7062719bf","ios":"levelo://app?vid=e3b7056e-0036-4da3-b092-e1e7062719bf"},"vehicle_type_id":"4","last_reported":1774384261,"current_range_meters":8000,"station_id":"ce4bgvh2rcd13ifvqcs0","pricing_plan_id":"cebpf4jnsgd1na2vs0mg"},{"bike_id":"3aca8b7b-8fc1-4ceb-bf6d-ecf72b78251e","system_id":"levelo_inurba_marseille","lat":43.29281,"lon":5.37496,"is_reserved":false,"is_disabled":false,"rental_uris":{"android":"levelo://app?vid=3aca8b7b-8fc1-4ceb-bf6d-ecf72b78251e","ios":"levelo://app?vid=3aca8b7b-8fc1-4ceb-bf6d-ecf72b78251e"},"vehicle_type_id":"4","last_reported":1774384261,"current_range_meters":8000,"station_id":"ce4bgi12rcd13ifvqb70","pricing_plan_id":"cebpf4jnsgd1na2vs0mg"},{"bike_id":"10da4574-f2d9-4ae1-91ba-9a914cc4e851","system_id":"levelo_inurba_marseille","lat":43.23892,"lon":5.37449,"is_reserved":false,"is_disabled":false,"rental_uris":{"android":"levelo://app?vid=10da4574-f2d9-4ae1-91ba-9a914cc4e851","ios":"levelo://app?vid=10da4574-f2d9-4ae1-91ba-9a914cc4e851"},"vehicle_type_id":"4","last_reported":1774384261,"current_range_meters":8000,"station_id":"st_d6sm7csbq4hs73f8fpjg","pricing_plan_id":"cebpf4jnsgd1na2vs0mg"},{"bike_id":"8c7ce2ac-36a4-4d74-9f4d-c3062a5fb5dd","system_id":"levelo_inurba_marseille","lat":43.24957,"lon":5.4051,"is_reserved":false,"is_disabled":false,"rental_uris":{"android":"levelo://app?vid=8c7ce2ac-36a4-4d74-9f4d-c3062a5fb5dd","ios":"levelo://app?vid=8c7ce2ac-36a4-4d74-9f4d-c3062a5fb5dd"},"vehicle_type_id":"4","last_reported":1774384261,"current_range_meters":8000,"station_id":"st_d2ngiaodas8pm72gd1h0","pricing_plan_id":"cebpf4jnsgd1na2vs0mg"},{"bike_id":"136d52cc-fa0a-4a7c-bade-15efb48d4199","system_id":"levelo_inurba_marseille","lat":43.30213,"lon":5.39458,"is_reserved":false,"is_disabled":false,"rental_uris":{"android":"levelo://app?vid=136d52cc-fa0a-4a7c-bade-15efb48d4199","ios":"levelo://app?vid=136d52cc-fa0a-4a7c-bade-15efb48d4199"},"vehicle_type_id":"4","last_reported":1774384261,"current_range_meters":8000,"station_id":"ce4bh0p2rcd13ifvqd70","pricing_plan_id":"cebpf4jnsgd1na2vs0mg"},{"bike_id":"cbe143e8-3e8d-46c8-8239-3389a4661d28","system_id":"levelo_inurba_marseille","lat":43.303,"lon":5.36928,"is_reserved":false,"is_disabled":false,"rental_uris":{"android":"levelo://app?vid=cbe143e8-3e8d-46c8-8239-3389a4661d28","ios":"levelo://app?vid=cbe143e8-3e8d-46c8-8239-3389a4661d28"},"vehicle_type_id":"4","last_reported":1774384261,"current_range_meters":8000,"station_id":"ce4bgqh2rcd13ifvqc5g","pricing_plan_id":"cebpf4jnsgd1na2vs0mg"},{"bike_id":"15d32200-f070-4cfd-ae05-35c3a7f05f1f","system_id":"levelo_inurba_marseille","lat":43.28563,"lon":5.39493,"is_reserved":false,"is_disabled":false,"rental_uris":{"android":"levelo://app?vid=15d32200-f070-4cfd-ae05-35c3a7f05f1f","ios":"levelo://app?vid=15d32200-f070-4cfd-ae05-35c3a7f05f1f"},"vehicle_type_id":"4","last_reported":1774384261,"current_range_meters":8000,"station_id":"ce4bh292rcd13ifvqdg0","pricing_plan_id":"cebpf4jnsgd1na2vs0mg"},{"bike_id":"fa03a844-967e-40ff-8c81-8227928c23cc","system_id":"levelo_inurba_marseille","lat":43.31197,"lon":5.36853,"is_reserved":false,"is_disabled":false,"rental_uris":{"android":"levelo://app?vid=fa03a844-967e-40ff-8c81-8227928c23cc","ios":"levelo://app?vid=fa03a844-967e-40ff-8c81-8227928c23cc"},"vehicle_type_id":"4","last_reported":1774384261,"current_range_meters":8000,"station_id":"ce4bgl92rcd13ifvqbq0","pricing_plan_id":"cebpf4jnsgd1na2vs0mg"},{"bike_id":"61734b4a-3d16-4c36-b0cd-c38fb2dbfc67","system_id":"levelo_inurba_marseille","lat":43.30074,"lon":5.4313,"is_reserved":false,"is_disabled":false,"rental_uris":{"android":"levelo://app?vid=61734b4a-3d16-4c36-b0cd-c38fb2dbfc67","ios":"levelo://app?vid=61734b4a-3d16-4c36-b0cd-c38fb2dbfc67"},"vehicle_type_id":"4","last_reported":1774384261,"current_range_meters":8000,"station_id":"st_d3js3co5814s73ftftug","pricing_plan_id":"cebpf4jnsgd1na2vs0mg"},{"bike_id":"e910b776-f915-4e7d-a15d-903ea32d7fc4","system_id":"levelo_inurba_marseille","lat":43.297839,"lon":5.369143,"is_reserved":false,"is_disabled":false,"rental_uris":{"android":"levelo://app?vid=e910b776-f915-4e7d-a15d-903ea32d7fc4","ios":"levelo://app?vid=e910b776-f915-4e7d-a15d-903ea32d7fc4"},"vehicle_type_id":"4","last_reported":1774384261,"current_range_meters":8400,"station_id":"ce4bgn12rcd13ifvqbt0","pricing_plan_id":"cebpf4jnsgd1na2vs0mg"},{"bike_id":"1b6f3eb8-576f-4c0b-99f9-8f1d20e1252a","system_id":"levelo_inurba_marseille","lat":43.2993,"lon":5.36537,"is_reserved":false,"is_disabled":false,"rental_uris":{"android":"levelo://app?vid=1b6f3eb8-576f-4c0b-99f9-8f1d20e1252a","ios":"levelo://app?vid=1b6f3eb8-576f-4c0b-99f9-8f1d20e1252a"},"vehicle_type_id":"4","last_reported":1774384261,"current_range_meters":8400,"station_id":"ce4bgm92rcd13ifvqbr0","pricing_plan_id":"cebpf4jnsgd1na2vs0mg"},{"bike_id":"ccf5f660-4656-4e00-8b91-4a8c6e08442b","system_id":"levelo_inurba_marseille","lat":43.30767,"lon":5.39978,"is_reserved":false,"is_disabled":false,"rental_uris":{"android":"levelo://app?vid=ccf5f660-4656-4e00-8b91-4a8c6e08442b","ios":"levelo://app?vid=ccf5f660-4656-4e00-8b91-4a8c6e08442b"},"vehicle_type_id":"4","last_reported":1774384261,"current_range_meters":8400,"station_id":"","pricing_plan_id":"cebpf4jnsgd1na2vs0mg"},{"bike_id":"52525216-4854-4520-880f-f19bec71c920","system_id":"levelo_inurba_marseille","lat":43.27798,"lon":5.40673,"is_reserved":false,"is_disabled":false,"rental_uris":{"android":"levelo://app?vid=52525216-4854-4520-880f-f19bec71c920","ios":"levelo://app?vid=52525216-4854-4520-880f-f19bec71c920"},"vehicle_type_id":"4","last_reported":1774384261,"current_range_meters":8400,"station_id":"ce4bhnh2rcd13ifvqgtg","pricing_plan_id":"cebpf4jnsgd1na2vs0mg"},{"bike_id":"22a24422-8367-44e3-afc2-fd1672c2c7f5","system_id":"levelo_inurba_marseille","lat":43.28472,"lon":5.484,"is_reserved":false,"is_disabled":false,"rental_uris":{"android":"levelo://app?vid=22a24422-8367-44e3-afc2-fd1672c2c7f5","ios":"levelo://app?vid=22a24422-8367-44e3-afc2-fd1672c2c7f5"},"vehicle_type_id":"4","last_reported":1774384261,"current_range_meters":8400,"station_id":"","pricing_plan_id":"cebpf4jnsgd1na2vs0mg"},{"bike_id":"984abe8f-af30-4639-9afe-4a3ad5472448","system_id":"levelo_inurba_marseille","lat":43.2847,"lon":5.38411,"is_reserved":false,"is_disabled":false,"rental_uris":{"android":"levelo://app?vid=984abe8f-af30-4639-9afe-4a3ad5472448","ios":"levelo://app?vid=984abe8f-af30-4639-9afe-4a3ad5472448"},"vehicle_type_id":"4","last_reported":1774384261,"current_range_meters":8400,"station_id":"ce4bh512rcd13ifvqe3g","pricing_plan_id":"cebpf4jnsgd1na2vs0mg"},{"bike_id":"62c0eda8-c666-40c1-b62d-71242266f316","system_id":"levelo_inurba_marseille","lat":43.28437,"lon":5.3917,"is_reserved":false,"is_disabled":true,"rental_uris":{"android":"levelo://app?vid=62c0eda8-c666-40c1-b62d-71242266f316","ios":"levelo://app?vid=62c0eda8-c666-40c1-b62d-71242266f316"},"vehicle_type_id":"4","last_reported":1774384261,"current_range_meters":8400,"station_id":"ce4bhoh2rcd13ifvqh5g","pricing_plan_id":"cebpf4jnsgd1na2vs0mg"},{"bike_id":"0467a61b-3c6c-4519-8ae2-ab7b582ec154","system_id":"levelo_inurba_marseille","lat":43.24655,"lon":5.38897,"is_reserved":false,"is_disabled":false,"rental_uris":{"android":"levelo://app?vid=0467a61b-3c6c-4519-8ae2-ab7b582ec154","ios":"levelo://app?vid=0467a61b-3c6c-4519-8ae2-ab7b582ec154"},"vehicle_type_id":"4","last_reported":1774384261,"current_range_meters":8400,"station_id":"ce4bhg12rcd13ifvqf60","pricing_plan_id":"cebpf4jnsgd1na2vs0mg"},{"bike_id":"d6ff709b-527c-499b-bc4e-f4b1b46d6753","system_id":"levelo_inurba_marseille","lat":43.31328,"lon":5.39691,"is_reserved":false,"is_disabled":false,"rental_uris":{"android":"levelo://app?vid=d6ff709b-527c-499b-bc4e-f4b1b46d6753","ios":"levelo://app?vid=d6ff709b-527c-499b-bc4e-f4b1b46d6753"},"vehicle_type_id":"4","last_reported":1774384261,"current_range_meters":8400,"station_id":"ce4bgvp2rcd13ifvqcu0","pricing_plan_id":"cebpf4jnsgd1na2vs0mg"},{"bike_id":"03a72a0a-0803-4a45-a2d0-1a015f1dbd1f","system_id":"levelo_inurba_marseille","lat":43.29192,"lon":5.3934,"is_reserved":false,"is_disabled":false,"rental_uris":{"android":"levelo://app?vid=03a72a0a-0803-4a45-a2d0-1a015f1dbd1f","ios":"levelo://app?vid=03a72a0a-0803-4a45-a2d0-1a015f1dbd1f"},"vehicle_type_id":"4","last_reported":1774384261,"current_range_meters":8400,"station_id":"ce4bh192rcd13ifvqdd0","pricing_plan_id":"cebpf4jnsgd1na2vs0mg"},{"bike_id":"0eb34252-e709-4308-b510-246d6ada0455","system_id":"levelo_inurba_marseille","lat":43.31207,"lon":5.36883,"is_reserved":false,"is_disabled":false,"rental_uris":{"android":"levelo://app?vid=0eb34252-e709-4308-b510-246d6ada0455","ios":"levelo://app?vid=0eb34252-e709-4308-b510-246d6ada0455"},"vehicle_type_id":"4","last_reported":1774384261,"current_range_meters":8400,"station_id":"ce4bgl92rcd13ifvqbq0","pricing_plan_id":"cebpf4jnsgd1na2vs0mg"},{"bike_id":"9e6209c2-8d1d-42b3-b60a-1dbb8e1406fe","system_id":"levelo_inurba_marseille","lat":43.33162,"lon":5.37681,"is_reserved":false,"is_disabled":false,"rental_uris":{"android":"levelo://app?vid=9e6209c2-8d1d-42b3-b60a-1dbb8e1406fe","ios":"levelo://app?vid=9e6209c2-8d1d-42b3-b60a-1dbb8e1406fe"},"vehicle_type_id":"4","last_reported":1774384261,"current_range_meters":8400,"station_id":"st_d46cu089ee8s73dldbu0","pricing_plan_id":"cebpf4jnsgd1na2vs0mg"},{"bike_id":"033addca-8959-4371-9d59-76af78a1fb9c","system_id":"levelo_inurba_marseille","lat":43.31539,"lon":5.38048,"is_reserved":false,"is_disabled":false,"rental_uris":{"android":"levelo://app?vid=033addca-8959-4371-9d59-76af78a1fb9c","ios":"levelo://app?vid=033addca-8959-4371-9d59-76af78a1fb9c"},"vehicle_type_id":"4","last_reported":1774384261,"current_range_meters":8400,"station_id":"ce4bhsp2rcd13ifvqi50","pricing_plan_id":"cebpf4jnsgd1na2vs0mg"},{"bike_id":"f119baaa-c7b2-4d02-8318-52530d20f4b3","system_id":"levelo_inurba_marseille","lat":43.28851,"lon":5.39314,"is_reserved":false,"is_disabled":false,"rental_uris":{"android":"levelo://app?vid=f119baaa-c7b2-4d02-8318-52530d20f4b3","ios":"levelo://app?vid=f119baaa-c7b2-4d02-8318-52530d20f4b3"},"vehicle_type_id":"4","last_reported":1774384261,"current_range_meters":8400,"station_id":"ce4bh2p2rcd13ifvqdi0","pricing_plan_id":"cebpf4jnsgd1na2vs0mg"},{"bike_id":"59281ad0-3b61-490c-bce4-aa1664c9767c","system_id":"levelo_inurba_marseille","lat":43.29529,"lon":5.38528,"is_reserved":false,"is_disabled":false,"rental_uris":{"android":"levelo://app?vid=59281ad0-3b61-490c-bce4-aa1664c9767c","ios":"levelo://app?vid=59281ad0-3b61-490c-bce4-aa1664c9767c"},"vehicle_type_id":"4","last_reported":1774384261,"current_range_meters":8400,"station_id":"ce4bgih2rcd13ifvqba0","pricing_plan_id":"cebpf4jnsgd1na2vs0mg"},{"bike_id":"8edde19f-14bb-4a9f-b9ee-19b95f05ec2f","system_id":"levelo_inurba_marseille","lat":43.33537,"lon":5.37464,"is_reserved":false,"is_disabled":false,"rental_uris":{"android":"levelo://app?vid=8edde19f-14bb-4a9f-b9ee-19b95f05ec2f","ios":"levelo://app?vid=8edde19f-14bb-4a9f-b9ee-19b95f05ec2f"},"vehicle_type_id":"4","last_reported":1774384261,"current_range_meters":8400,"station_id":"st_d46tts09ee8s73dlu43g","pricing_plan_id":"cebpf4jnsgd1na2vs0mg"},{"bike_id":"8d8566de-f03a-4e5e-aa8c-ad2e3c17ab03","system_id":"levelo_inurba_marseille","lat":43.31522,"lon":5.37308,"is_reserved":false,"is_disabled":false,"rental_uris":{"android":"levelo://app?vid=8d8566de-f03a-4e5e-aa8c-ad2e3c17ab03","ios":"levelo://app?vid=8d8566de-f03a-4e5e-aa8c-ad2e3c17ab03"},"vehicle_type_id":"4","last_reported":1774384261,"current_range_meters":8400,"station_id":"ce4bgt12rcd13ifvqcd0","pricing_plan_id":"cebpf4jnsgd1na2vs0mg"},{"bike_id":"4cf8aae3-1c64-4600-9456-030c2f820cbf","system_id":"levelo_inurba_marseille","lat":43.29241,"lon":5.3762,"is_reserved":false,"is_disabled":false,"rental_uris":{"android":"levelo://app?vid=4cf8aae3-1c64-4600-9456-030c2f820cbf","ios":"levelo://app?vid=4cf8aae3-1c64-4600-9456-030c2f820cbf"},"vehicle_type_id":"4","last_reported":1774384261,"current_range_meters":8400,"station_id":"ce4bgi12rcd13ifvqb80","pricing_plan_id":"cebpf4jnsgd1na2vs0mg"},{"bike_id":"2a93460b-e15c-4411-b385-56fc7e96e03c","system_id":"levelo_inurba_marseille","lat":43.28567,"lon":5.39479,"is_reserved":false,"is_disabled":false,"rental_uris":{"android":"levelo://app?vid=2a93460b-e15c-4411-b385-56fc7e96e03c","ios":"levelo://app?vid=2a93460b-e15c-4411-b385-56fc7e96e03c"},"vehicle_type_id":"4","last_reported":1774384261,"current_range_meters":8400,"station_id":"ce4bh292rcd13ifvqdg0","pricing_plan_id":"cebpf4jnsgd1na2vs0mg"},{"bike_id":"8384fe9a-f4c4-4bd7-8c10-f9cbe2fec9fc","system_id":"levelo_inurba_marseille","lat":43.29259,"lon":5.38434,"is_reserved":false,"is_disabled":false,"rental_uris":{"android":"levelo://app?vid=8384fe9a-f4c4-4bd7-8c10-f9cbe2fec9fc","ios":"levelo://app?vid=8384fe9a-f4c4-4bd7-8c10-f9cbe2fec9fc"},"vehicle_type_id":"4","last_reported":1774384261,"current_range_meters":8400,"station_id":"ce4bh692rcd13ifvqea0","pricing_plan_id":"cebpf4jnsgd1na2vs0mg"},{"bike_id":"2e37f395-9e42-46d5-acda-e3958e532fde","system_id":"levelo_inurba_marseille","lat":43.30244,"lon":5.40062,"is_reserved":false,"is_disabled":false,"rental_uris":{"android":"levelo://app?vid=2e37f395-9e42-46d5-acda-e3958e532fde","ios":"levelo://app?vid=2e37f395-9e42-46d5-acda-e3958e532fde"},"vehicle_type_id":"4","last_reported":1774384261,"current_range_meters":8400,"station_id":"ce4bgvh2rcd13ifvqcs0","pricing_plan_id":"cebpf4jnsgd1na2vs0mg"},{"bike_id":"715aaeb5-0d16-47e0-ba84-f56328a24f5b","system_id":"levelo_inurba_marseille","lat":43.29893,"lon":5.43676,"is_reserved":false,"is_disabled":false,"rental_uris":{"android":"levelo://app?vid=715aaeb5-0d16-47e0-ba84-f56328a24f5b","ios":"levelo://app?vid=715aaeb5-0d16-47e0-ba84-f56328a24f5b"},"vehicle_type_id":"4","last_reported":1774384261,"current_range_meters":8800,"station_id":"ce4bhpp2rcd13ifvqhfg","pricing_plan_id":"cebpf4jnsgd1na2vs0mg"},{"bike_id":"992d461f-8839-4086-b27a-9edc1d38b03d","system_id":"levelo_inurba_marseille","lat":43.33545,"lon":5.37467,"is_reserved":false,"is_disabled":false,"rental_uris":{"android":"levelo://app?vid=992d461f-8839-4086-b27a-9edc1d38b03d","ios":"levelo://app?vid=992d461f-8839-4086-b27a-9edc1d38b03d"},"vehicle_type_id":"4","last_reported":1774384261,"current_range_meters":8800,"station_id":"st_d46tts09ee8s73dlu43g","pricing_plan_id":"cebpf4jnsgd1na2vs0mg"},{"bike_id":"da6972b3-b161-480b-8ef0-1ff556fc7299","system_id":"levelo_inurba_marseille","lat":43.23791,"lon":5.36627,"is_reserved":false,"is_disabled":false,"rental_uris":{"android":"levelo://app?vid=da6972b3-b161-480b-8ef0-1ff556fc7299","ios":"levelo://app?vid=da6972b3-b161-480b-8ef0-1ff556fc7299"},"vehicle_type_id":"4","last_reported":1774384261,"current_range_meters":8800,"station_id":"st_d3nk18o9ro0c73en2l3g","pricing_plan_id":"cebpf4jnsgd1na2vs0mg"},{"bike_id":"c183ea56-6995-4ab9-9d2b-e07807bdb413","system_id":"levelo_inurba_marseille","lat":43.28669,"lon":5.36352,"is_reserved":false,"is_disabled":false,"rental_uris":{"android":"levelo://app?vid=c183ea56-6995-4ab9-9d2b-e07807bdb413","ios":"levelo://app?vid=c183ea56-6995-4ab9-9d2b-e07807bdb413"},"vehicle_type_id":"4","last_reported":1774384261,"current_range_meters":8800,"station_id":"ce4bhah2rcd13ifvqej0","pricing_plan_id":"cebpf4jnsgd1na2vs0mg"},{"bike_id":"13f9f031-67ea-407a-a66e-c4b749576cd4","system_id":"levelo_inurba_marseille","lat":43.23955,"lon":5.36618,"is_reserved":false,"is_disabled":false,"rental_uris":{"android":"levelo://app?vid=13f9f031-67ea-407a-a66e-c4b749576cd4","ios":"levelo://app?vid=13f9f031-67ea-407a-a66e-c4b749576cd4"},"vehicle_type_id":"4","last_reported":1774384261,"current_range_meters":8800,"station_id":"ce4bhi12rcd13ifvqfp0","pricing_plan_id":"cebpf4jnsgd1na2vs0mg"},{"bike_id":"bee48866-5a48-4149-ade9-68f00a92c3e4","system_id":"levelo_inurba_marseille","lat":43.29637,"lon":5.37773,"is_reserved":false,"is_disabled":false,"rental_uris":{"android":"levelo://app?vid=bee48866-5a48-4149-ade9-68f00a92c3e4","ios":"levelo://app?vid=bee48866-5a48-4149-ade9-68f00a92c3e4"},"vehicle_type_id":"4","last_reported":1774384261,"current_range_meters":8800,"station_id":"","pricing_plan_id":"cebpf4jnsgd1na2vs0mg"},{"bike_id":"21a45244-c1c4-423b-9d37-4deb92a4a9b7","system_id":"levelo_inurba_marseille","lat":43.31058,"lon":5.37164,"is_reserved":false,"is_disabled":false,"rental_uris":{"android":"levelo://app?vid=21a45244-c1c4-423b-9d37-4deb92a4a9b7","ios":"levelo://app?vid=21a45244-c1c4-423b-9d37-4deb92a4a9b7"},"vehicle_type_id":"4","last_reported":1774384261,"current_range_meters":8800,"station_id":"st_d4kl2rp97mjs73e7tdfg","pricing_plan_id":"cebpf4jnsgd1na2vs0mg"},{"bike_id":"168ccf17-3133-4472-85a2-824035dc8266","system_id":"levelo_inurba_marseille","lat":43.22945,"lon":5.35379,"is_reserved":false,"is_disabled":false,"rental_uris":{"android":"levelo://app?vid=168ccf17-3133-4472-85a2-824035dc8266","ios":"levelo://app?vid=168ccf17-3133-4472-85a2-824035dc8266"},"vehicle_type_id":"4","last_reported":1774384261,"current_range_meters":8800,"station_id":"cpo3532slgdg3j2ikp40","pricing_plan_id":"cebpf4jnsgd1na2vs0mg"},{"bike_id":"28b5a4a8-a626-4651-a3f5-2e6149fd64a7","system_id":"levelo_inurba_marseille","lat":43.3111,"lon":5.37769,"is_reserved":false,"is_disabled":false,"rental_uris":{"android":"levelo://app?vid=28b5a4a8-a626-4651-a3f5-2e6149fd64a7","ios":"levelo://app?vid=28b5a4a8-a626-4651-a3f5-2e6149fd64a7"},"vehicle_type_id":"4","last_reported":1774384261,"current_range_meters":8800,"station_id":"ce4bgt92rcd13ifvqcg0","pricing_plan_id":"cebpf4jnsgd1na2vs0mg"},{"bike_id":"e8f9be94-3d0a-43ec-8ebf-1b624bde5986","system_id":"levelo_inurba_marseille","lat":43.30897,"lon":5.36848,"is_reserved":false,"is_disabled":false,"rental_uris":{"android":"levelo://app?vid=e8f9be94-3d0a-43ec-8ebf-1b624bde5986","ios":"levelo://app?vid=e8f9be94-3d0a-43ec-8ebf-1b624bde5986"},"vehicle_type_id":"4","last_reported":1774384261,"current_range_meters":8800,"station_id":"ce4bgn92rcd13ifvqbvg","pricing_plan_id":"cebpf4jnsgd1na2vs0mg"},{"bike_id":"6a209565-16db-4aba-85c7-7097837dcc24","system_id":"levelo_inurba_marseille","lat":43.24167,"lon":5.3639,"is_reserved":false,"is_disabled":false,"rental_uris":{"android":"levelo://app?vid=6a209565-16db-4aba-85c7-7097837dcc24","ios":"levelo://app?vid=6a209565-16db-4aba-85c7-7097837dcc24"},"vehicle_type_id":"4","last_reported":1774384261,"current_range_meters":8800,"station_id":"cpo36qri1sfpv3e86is0","pricing_plan_id":"cebpf4jnsgd1na2vs0mg"},{"bike_id":"adaf8e00-ca2c-49b5-9b35-6749da32aa87","system_id":"levelo_inurba_marseille","lat":43.33561,"lon":5.37465,"is_reserved":false,"is_disabled":false,"rental_uris":{"android":"levelo://app?vid=adaf8e00-ca2c-49b5-9b35-6749da32aa87","ios":"levelo://app?vid=adaf8e00-ca2c-49b5-9b35-6749da32aa87"},"vehicle_type_id":"4","last_reported":1774384261,"current_range_meters":8800,"station_id":"st_d46tts09ee8s73dlu43g","pricing_plan_id":"cebpf4jnsgd1na2vs0mg"},{"bike_id":"489b1f47-9bf9-4f10-90f5-3b4dff230700","system_id":"levelo_inurba_marseille","lat":43.2379,"lon":5.36626,"is_reserved":false,"is_disabled":false,"rental_uris":{"android":"levelo://app?vid=489b1f47-9bf9-4f10-90f5-3b4dff230700","ios":"levelo://app?vid=489b1f47-9bf9-4f10-90f5-3b4dff230700"},"vehicle_type_id":"4","last_reported":1774384261,"current_range_meters":8800,"station_id":"st_d3nk18o9ro0c73en2l3g","pricing_plan_id":"cebpf4jnsgd1na2vs0mg"},{"bike_id":"751b7cf8-e99e-4005-886e-3f25550c7a45","system_id":"levelo_inurba_marseille","lat":43.25502,"lon":5.37646,"is_reserved":false,"is_disabled":false,"rental_uris":{"android":"levelo://app?vid=751b7cf8-e99e-4005-886e-3f25550c7a45","ios":"levelo://app?vid=751b7cf8-e99e-4005-886e-3f25550c7a45"},"vehicle_type_id":"4","last_reported":1774384261,"current_range_meters":8800,"station_id":"ce4bhh12rcd13ifvqff0","pricing_plan_id":"cebpf4jnsgd1na2vs0mg"},{"bike_id":"9d19e21b-ceeb-48fd-a297-c2da657c78eb","system_id":"levelo_inurba_marseille","lat":43.29073,"lon":5.37167,"is_reserved":false,"is_disabled":false,"rental_uris":{"android":"levelo://app?vid=9d19e21b-ceeb-48fd-a297-c2da657c78eb","ios":"levelo://app?vid=9d19e21b-ceeb-48fd-a297-c2da657c78eb"},"vehicle_type_id":"4","last_reported":1774384261,"current_range_meters":8800,"station_id":"ce4bh5p2rcd13ifvqe4g","pricing_plan_id":"cebpf4jnsgd1na2vs0mg"},{"bike_id":"0f582ef9-94a7-41c3-b6ba-682c23e39d62","system_id":"levelo_inurba_marseille","lat":43.29538,"lon":5.37463,"is_reserved":false,"is_disabled":false,"rental_uris":{"android":"levelo://app?vid=0f582ef9-94a7-41c3-b6ba-682c23e39d62","ios":"levelo://app?vid=0f582ef9-94a7-41c3-b6ba-682c23e39d62"},"vehicle_type_id":"4","last_reported":1774384261,"current_range_meters":8800,"station_id":"ce4bgkp2rcd13ifvqbmg","pricing_plan_id":"cebpf4jnsgd1na2vs0mg"},{"bike_id":"34a41809-5dfc-4b48-a0e6-2c3b4c26d3cb","system_id":"levelo_inurba_marseille","lat":43.30223,"lon":5.39462,"is_reserved":false,"is_disabled":false,"rental_uris":{"android":"levelo://app?vid=34a41809-5dfc-4b48-a0e6-2c3b4c26d3cb","ios":"levelo://app?vid=34a41809-5dfc-4b48-a0e6-2c3b4c26d3cb"},"vehicle_type_id":"4","last_reported":1774384261,"current_range_meters":8800,"station_id":"ce4bh0p2rcd13ifvqd70","pricing_plan_id":"cebpf4jnsgd1na2vs0mg"},{"bike_id":"34da128d-090d-48db-a20b-7878f50788d1","system_id":"levelo_inurba_marseille","lat":43.29926,"lon":5.36546,"is_reserved":false,"is_disabled":false,"rental_uris":{"android":"levelo://app?vid=34da128d-090d-48db-a20b-7878f50788d1","ios":"levelo://app?vid=34da128d-090d-48db-a20b-7878f50788d1"},"vehicle_type_id":"4","last_reported":1774384261,"current_range_meters":8800,"station_id":"ce4bgm92rcd13ifvqbr0","pricing_plan_id":"cebpf4jnsgd1na2vs0mg"},{"bike_id":"c1e92c70-aede-452c-8e8c-6914c0324e0c","system_id":"levelo_inurba_marseille","lat":43.29044,"lon":5.3592,"is_reserved":false,"is_disabled":true,"rental_uris":{"android":"levelo://app?vid=c1e92c70-aede-452c-8e8c-6914c0324e0c","ios":"levelo://app?vid=c1e92c70-aede-452c-8e8c-6914c0324e0c"},"vehicle_type_id":"4","last_reported":1774384261,"current_range_meters":8800,"station_id":"ce4bha92rcd13ifvqeg0","pricing_plan_id":"cebpf4jnsgd1na2vs0mg"},{"bike_id":"331e477d-e9f4-43fd-9723-1e80bdbc0255","system_id":"levelo_inurba_marseille","lat":43.30362,"lon":5.39782,"is_reserved":false,"is_disabled":false,"rental_uris":{"android":"levelo://app?vid=331e477d-e9f4-43fd-9723-1e80bdbc0255","ios":"levelo://app?vid=331e477d-e9f4-43fd-9723-1e80bdbc0255"},"vehicle_type_id":"4","last_reported":1774384261,"current_range_meters":8800,"station_id":"","pricing_plan_id":"cebpf4jnsgd1na2vs0mg"},{"bike_id":"a37f876e-a91e-44a5-9c9a-90e0d2971012","system_id":"levelo_inurba_marseille","lat":43.30126,"lon":5.39878,"is_reserved":false,"is_disabled":false,"rental_uris":{"android":"levelo://app?vid=a37f876e-a91e-44a5-9c9a-90e0d2971012","ios":"levelo://app?vid=a37f876e-a91e-44a5-9c9a-90e0d2971012"},"vehicle_type_id":"4","last_reported":1774384261,"current_range_meters":8800,"station_id":"ce4bh0h2rcd13ifvqd40","pricing_plan_id":"cebpf4jnsgd1na2vs0mg"},{"bike_id":"ad3f3d88-4463-474b-802d-6cff79eea73f","system_id":"levelo_inurba_marseille","lat":43.24625,"lon":5.3896,"is_reserved":false,"is_disabled":false,"rental_uris":{"android":"levelo://app?vid=ad3f3d88-4463-474b-802d-6cff79eea73f","ios":"levelo://app?vid=ad3f3d88-4463-474b-802d-6cff79eea73f"},"vehicle_type_id":"4","last_reported":1774384261,"current_range_meters":8800,"station_id":"","pricing_plan_id":"cebpf4jnsgd1na2vs0mg"},{"bike_id":"6e8c93ff-2478-4a96-b074-699b0bcee69f","system_id":"levelo_inurba_marseille","lat":43.30222,"lon":5.39462,"is_reserved":false,"is_disabled":false,"rental_uris":{"android":"levelo://app?vid=6e8c93ff-2478-4a96-b074-699b0bcee69f","ios":"levelo://app?vid=6e8c93ff-2478-4a96-b074-699b0bcee69f"},"vehicle_type_id":"4","last_reported":1774384261,"current_range_meters":8800,"station_id":"ce4bh0p2rcd13ifvqd70","pricing_plan_id":"cebpf4jnsgd1na2vs0mg"},{"bike_id":"2f430c62-15bb-430c-969c-56b5339d66a3","system_id":"levelo_inurba_marseille","lat":43.2851,"lon":5.44089,"is_reserved":false,"is_disabled":false,"rental_uris":{"android":"levelo://app?vid=2f430c62-15bb-430c-969c-56b5339d66a3","ios":"levelo://app?vid=2f430c62-15bb-430c-969c-56b5339d66a3"},"vehicle_type_id":"4","last_reported":1774384261,"current_range_meters":8800,"station_id":"st_d3j3df2ikq2c7380ej80","pricing_plan_id":"cebpf4jnsgd1na2vs0mg"},{"bike_id":"0465d55f-2116-40c3-80c6-c770644a749b","system_id":"levelo_inurba_marseille","lat":43.29267,"lon":5.3844,"is_reserved":false,"is_disabled":false,"rental_uris":{"android":"levelo://app?vid=0465d55f-2116-40c3-80c6-c770644a749b","ios":"levelo://app?vid=0465d55f-2116-40c3-80c6-c770644a749b"},"vehicle_type_id":"4","last_reported":1774384261,"current_range_meters":8800,"station_id":"ce4bh692rcd13ifvqea0","pricing_plan_id":"cebpf4jnsgd1na2vs0mg"},{"bike_id":"d594e935-ec7a-4a10-af1c-e7aeb3a4a3cc","system_id":"levelo_inurba_marseille","lat":43.2532,"lon":5.42169,"is_reserved":false,"is_disabled":false,"rental_uris":{"android":"levelo://app?vid=d594e935-ec7a-4a10-af1c-e7aeb3a4a3cc","ios":"levelo://app?vid=d594e935-ec7a-4a10-af1c-e7aeb3a4a3cc"},"vehicle_type_id":"4","last_reported":1774384261,"current_range_meters":8800,"station_id":"st_d2m65c5bi1j21697t3ng","pricing_plan_id":"cebpf4jnsgd1na2vs0mg"},{"bike_id":"c63d96de-3766-475a-9ab2-7d62b676bdc7","system_id":"levelo_inurba_marseille","lat":43.31174,"lon":5.38725,"is_reserved":false,"is_disabled":false,"rental_uris":{"android":"levelo://app?vid=c63d96de-3766-475a-9ab2-7d62b676bdc7","ios":"levelo://app?vid=c63d96de-3766-475a-9ab2-7d62b676bdc7"},"vehicle_type_id":"4","last_reported":1774384261,"current_range_meters":9200,"station_id":"ce4bgv12rcd13ifvqcp0","pricing_plan_id":"cebpf4jnsgd1na2vs0mg"},{"bike_id":"29f49a32-ba08-40ef-839e-89650b416d04","system_id":"levelo_inurba_marseille","lat":43.31056,"lon":5.379,"is_reserved":false,"is_disabled":false,"rental_uris":{"android":"levelo://app?vid=29f49a32-ba08-40ef-839e-89650b416d04","ios":"levelo://app?vid=29f49a32-ba08-40ef-839e-89650b416d04"},"vehicle_type_id":"4","last_reported":1774384261,"current_range_meters":9200,"station_id":"","pricing_plan_id":"cebpf4jnsgd1na2vs0mg"},{"bike_id":"f5bf4a65-f2b9-4ccc-9edc-e113f8a5537f","system_id":"levelo_inurba_marseille","lat":43.315326,"lon":5.380393,"is_reserved":false,"is_disabled":false,"rental_uris":{"android":"levelo://app?vid=f5bf4a65-f2b9-4ccc-9edc-e113f8a5537f","ios":"levelo://app?vid=f5bf4a65-f2b9-4ccc-9edc-e113f8a5537f"},"vehicle_type_id":"4","last_reported":1774384261,"current_range_meters":9200,"station_id":"ce4bhsp2rcd13ifvqi50","pricing_plan_id":"cebpf4jnsgd1na2vs0mg"},{"bike_id":"aae792bd-1c8a-454d-ba57-45007311d229","system_id":"levelo_inurba_marseille","lat":43.22552,"lon":5.41648,"is_reserved":false,"is_disabled":false,"rental_uris":{"android":"levelo://app?vid=aae792bd-1c8a-454d-ba57-45007311d229","ios":"levelo://app?vid=aae792bd-1c8a-454d-ba57-45007311d229"},"vehicle_type_id":"4","last_reported":1774384261,"current_range_meters":9200,"station_id":"st_d2o4gvlbi1j2169b742g","pricing_plan_id":"cebpf4jnsgd1na2vs0mg"},{"bike_id":"5ba2b717-8986-49dd-9f42-77d3dee11cc7","system_id":"levelo_inurba_marseille","lat":43.2988,"lon":5.3974,"is_reserved":false,"is_disabled":false,"rental_uris":{"android":"levelo://app?vid=5ba2b717-8986-49dd-9f42-77d3dee11cc7","ios":"levelo://app?vid=5ba2b717-8986-49dd-9f42-77d3dee11cc7"},"vehicle_type_id":"4","last_reported":1774384261,"current_range_meters":9200,"station_id":"ce4bh0h2rcd13ifvqd50","pricing_plan_id":"cebpf4jnsgd1na2vs0mg"},{"bike_id":"0d489b01-590f-434e-9649-624f92bba9bb","system_id":"levelo_inurba_marseille","lat":43.23186,"lon":5.3554,"is_reserved":false,"is_disabled":false,"rental_uris":{"android":"levelo://app?vid=0d489b01-590f-434e-9649-624f92bba9bb","ios":"levelo://app?vid=0d489b01-590f-434e-9649-624f92bba9bb"},"vehicle_type_id":"4","last_reported":1774384261,"current_range_meters":9200,"station_id":"ce4bhu92rcd13ifvqi70","pricing_plan_id":"cebpf4jnsgd1na2vs0mg"},{"bike_id":"866b1c87-edf5-40a8-8ca0-c6aceda22bb3","system_id":"levelo_inurba_marseille","lat":43.27919,"lon":5.39584,"is_reserved":false,"is_disabled":true,"rental_uris":{"android":"levelo://app?vid=866b1c87-edf5-40a8-8ca0-c6aceda22bb3","ios":"levelo://app?vid=866b1c87-edf5-40a8-8ca0-c6aceda22bb3"},"vehicle_type_id":"4","last_reported":1774384261,"current_range_meters":9200,"station_id":"ce4bhf92rcd13ifvqf40","pricing_plan_id":"cebpf4jnsgd1na2vs0mg"},