{"last_updated":1745514565,"ttl":60,"version":"2.2","data":{"bikes":[{"bike_id":"9a18084f-c2c0-4797-b008-61e9c1e6b0c0","system_id":"levelo_inurba_marseille","lat":43.29005,"lon":5.356109,"is_reserved":false,"is_disabled":false,"rental_uris":{"android":"levelo://app?vid=9a18084f-c2c0-4797-b008-61e9c1e6b0c0","ios":"levelo://app?vid=9a18084f-c2c0-4797-b008-61e9c1e6b0c0"},"vehicle_type_id":"4","last_reported":1745514566,"current_range_meters":2800,"station_id":"ce4bhb92rcd13ifvqen0","pricing_plan_id":"cebpf4jnsgd1na2vs0mg"},{"bike_id":"20890cb2-1701-45a9-bac3-213367439f88","system_id":"levelo_inurba_marseille","lat":43.30417,"lon":5.41287,"is_reserved":false,"is_disabled":false,"rental_uris":{"android":"levelo://app?vid=20890cb2-1701-45a9-bac3-213367439f88","ios":"levelo://app?vid=20890cb2-1701-45a9-bac3-213367439f88"},"vehicle_type_id":"4","last_reported":1745514566,"current_range_meters":2800,"station_id":"ce4bhop2rcd13ifvqh8g","pricing_plan_id":"cebpf4jnsgd1na2vs0mg"},{"bike_id":"fd9b5e1f-9731-4d6e-b51b-7712ca1cb640","system_id":"levelo_inurba_marseille","lat":43.29875,"lon":5.39739,"is_reserved":false,"is_disabled":false,"rental_uris":{"android":"levelo://app?vid=fd9b5e1f-9731-4d6e-b51b-7712ca1cb640","ios":"levelo://app?vid=fd9b5e1f-9731-4d6e-b51b-7712ca1cb640"},"vehicle_type_id":"4","last_reported":1745514566,"current_range_meters":2000,"station_id":"ce4bh0h2rcd13ifvqd50","pricing_plan_id":"cebpf4jnsgd1na2vs0mg"},{"bike_id":"ec63767c-772c-46da-aa79-0bc440000ce4","system_id":"levelo_inurba_marseille","lat":43.29416,"lon":5.38627,"is_reserved":false,"is_disabled":false,"rental_uris":{"android":"levelo://app?vid=ec63767c-772c-46da-aa79-0bc440000ce4","ios":"levelo://app?vid=ec63767c-772c-46da-aa79-0bc440000ce4"},"vehicle_type_id":"4","last_reported":1745514566,"current_range_meters":2800,"station_id":"ce4bh2h2rcd13ifvqdh0","pricing_plan_id":"cebpf4jnsgd1na2vs0mg"},{"bike_id":"a1a71808-a709-4b76-b09a-bdaaed8d9978","system_id":"levelo_inurba_marseille","lat":43.26212,"lon":5.37441,"is_reserved":false,"is_disabled":false,"rental_uris":{"android":"levelo://app?vid=a1a71808-a709-4b76-b09a-bdaaed8d9978","ios":"levelo://app?vid=a1a71808-a709-4b76-b09a-bdaaed8d9978"},"vehicle_type_id":"4","last_reported":1745514566,"current_range_meters":2800,"station_id":"ce4bhgp2rcd13ifvqfc0","pricing_plan_id":"cebpf4jnsgd1na2vs0mg"},{"bike_id":"98fbb19e-72d3-467b-bf8b-03ead52968aa","system_id":"levelo_inurba_marseille","lat":43.28617,"lon":5.35093,"is_reserved":false,"is_disabled":false,"rental_uris":{"android":"levelo://app?vid=98fbb19e-72d3-467b-bf8b-03ead52968aa","ios":"levelo://app?vid=98fbb19e-72d3-467b-bf8b-03ead52968aa"},"vehicle_type_id":"4","last_reported":1745514566,"current_range_meters":3200,"station_id":"ce4bhch2rcd13ifvqeug","pricing_plan_id":"cebpf4jnsgd1na2vs0mg"},{"bike_id":"69190c69-082f-42f6-8e7c-cfbd0c4efe81","system_id":"levelo_inurba_marseille","lat":43.29708,"lon":5.3661,"is_reserved":false,"is_disabled":false,"rental_uris":{"android":"levelo://app?vid=69190c69-082f-42f6-8e7c-cfbd0c4efe81","ios":"levelo://app?vid=69190c69-082f-42f6-8e7c-cfbd0c4efe81"},"vehicle_type_id":"4","last_reported":1745514566,"current_range_meters":3200,"station_id":"ce4bgn12rcd13ifvqbt0","pricing_plan_id":"cebpf4jnsgd1na2vs0mg"},{"bike_id":"58505d49-d48c-48cb-9d31-76479a15b4de","system_id":"levelo_inurba_marseille","lat":43.33023,"lon":5.3903,"is_reserved":false,"is_disabled":false,"rental_uris":{"android":"levelo://app?vid=58505d49-d48c-48cb-9d31-76479a15b4de","ios":"levelo://app?vid=58505d49-d48c-48cb-9d31-76479a15b4de"},"vehicle_type_id":"4","last_reported":1745514566,"current_range_meters":3200,"station_id":"ce4bhr92rcd13ifvqhrg","pricing_plan_id":"cebpf4jnsgd1na2vs0mg"},{"bike_id":"1964b26d-376b-4e52-8b7e-96d8933dd897","system_id":"levelo_inurba_marseille","lat":43.291062,"lon":5.372096,"is_reserved":false,"is_disabled":false,"rental_uris":{"android":"levelo://app?vid=1964b26d-376b-4e52-8b7e-96d8933dd897","ios":"levelo://app?vid=1964b26d-376b-4e52-8b7e-96d8933dd897"},"vehicle_type_id":"4","last_reported":1745514566,"current_range_meters":3200,"station_id":"ce4bh5p2rcd13ifvqe4g","pricing_plan_id":"cebpf4jnsgd1na2vs0mg"},{"bike_id":"491868e1-666a-4b70-a59f-9309fc245a76","system_id":"levelo_inurba_marseille","lat":43.33028,"lon":5.39062,"is_reserved":false,"is_disabled":false,"rental_uris":{"android":"levelo://app?vid=491868e1-666a-4b70-a59f-9309fc245a76","ios":"levelo://app?vid=491868e1-666a-4b70-a59f-9309fc245a76"},"vehicle_type_id":"4","last_reported":1745514566,"current_range_meters":3200,"station_id":"ce4bhr92rcd13ifvqhrg","pricing_plan_id":"cebpf4jnsgd1na2vs0mg"},{"bike_id":"c34a8d74-08b4-46a0-ab48-bdd5955c63bb","system_id":"levelo_inurba_marseille","lat":43.28617,"lon":5.35105,"is_reserved":false,"is_disabled":false,"rental_uris":{"android":"levelo://app?vid=c34a8d74-08b4-46a0-ab48-bdd5955c63bb","ios":"levelo://app?vid=c34a8d74-08b4-46a0-ab48-bdd5955c63bb"},"vehicle_type_id":"4","last_reported":1745514566,"current_range_meters":3600,"station_id":"ce4bhch2rcd13ifvqeug","pricing_plan_id":"cebpf4jnsgd1na2vs0mg"},{"bike_id":"06afbfdb-3210-468d-8cc4-188b4ccf7614","system_id":"levelo_inurba_marseille","lat":43.29084,"lon":5.37163,"is_reserved":false,"is_disabled":false,"rental_uris":{"android":"levelo://app?vid=06afbfdb-3210-468d-8cc4-188b4ccf7614","ios":"levelo://app?vid=06afbfdb-3210-468d-8cc4-188b4ccf7614"},"vehicle_type_id":"4","last_reported":1745514566,"current_range_meters":3600,"station_id":"ce4bh5p2rcd13ifvqe4g","pricing_plan_id":"cebpf4jnsgd1na2vs0mg"},{"bike_id":"77c79abc-6329-4151-b6ec-dbc1a3e2d664","system_id":"levelo_inurba_marseille","lat":43.27368,"lon":5.36236,"is_reserved":false,"is_disabled":false,"rental_uris":{"android":"levelo://app?vid=77c79abc-6329-4151-b6ec-dbc1a3e2d664","ios":"levelo://app?vid=77c79abc-6329-4151-b6ec-dbc1a3e2d664"},"vehicle_type_id":"4","last_reported":1745514566,"current_range_meters":4000,"station_id":"ce4bhbh2rcd13ifvqeo0","pricing_plan_id":"cebpf4jnsgd1na2vs0mg"},{"bike_id":"60994940-05d1-4d5d-ae8b-14243379194b","system_id":"levelo_inurba_marseille","lat":43.247838,"lon":5.374293,"is_reserved":false,"is_disabled":false,"rental_uris":{"android":"levelo://app?vid=60994940-05d1-4d5d-ae8b-14243379194b","ios":"levelo://app?vid=60994940-05d1-4d5d-ae8b-14243379194b"},"vehicle_type_id":"4","last_reported":1745514566,"current_range_meters":4000,"station_id":"ce4bhgh2rcd13ifvqfb0","pricing_plan_id":"cebpf4jnsgd1na2vs0mg"},{"bike_id":"10084263-5652-42e5-80ba-ff805213416c","system_id":"levelo_inurba_marseille","lat":43.285088,"lon":5.383295,"is_reserved":false,"is_disabled":false,"rental_uris":{"android":"levelo://app?vid=10084263-5652-42e5-80ba-ff805213416c","ios":"levelo://app?vid=10084263-5652-42e5-80ba-ff805213416c"},"vehicle_type_id":"4","last_reported":1745514566,"current_range_meters":4000,"station_id":"ce4bh412rcd13ifvqdr0","pricing_plan_id":"cebpf4jnsgd1na2vs0mg"},{"bike_id":"ed5e2e18-64d0-491a-970a-f052a5fea769","system_id":"levelo_inurba_marseille","lat":43.23194,"lon":5.39992,"is_reserved":false,"is_disabled":false,"rental_uris":{"android":"levelo://app?vid=ed5e2e18-64d0-491a-970a-f052a5fea769","ios":"levelo://app?vid=ed5e2e18-64d0-491a-970a-f052a5fea769"},"vehicle_type_id":"4","last_reported":1745514566,"current_range_meters":4000,"station_id":"ce4bhn12rcd13ifvqgqg","pricing_plan_id":"cebpf4jnsgd1na2vs0mg"},{"bike_id":"7c52b333-3fb8-4a5a-8f23-e63db3951105","system_id":"levelo_inurba_marseille","lat":43.28461,"lon":5.35888,"is_reserved":false,"is_disabled":false,"rental_uris":{"android":"levelo://app?vid=7c52b333-3fb8-4a5a-8f23-e63db3951105","ios":"levelo://app?vid=7c52b333-3fb8-4a5a-8f23-e63db3951105"},"vehicle_type_id":"4","last_reported":1745514566,"current_range_meters":4000,"station_id":"ce4bhah2rcd13ifvqei0","pricing_plan_id":"cebpf4jnsgd1na2vs0mg"},{"bike_id":"0401f342-1638-46ef-946c-b0af9fe4aff6","system_id":"levelo_inurba_marseille","lat":43.23222,"lon":5.35536,"is_reserved":false,"is_disabled":false,"rental_uris":{"android":"levelo://app?vid=0401f342-1638-46ef-946c-b0af9fe4aff6","ios":"levelo://app?vid=0401f342-1638-46ef-946c-b0af9fe4aff6"},"vehicle_type_id":"4","last_reported":1745514566,"current_range_meters":4000,"station_id":"ce4bhu92rcd13ifvqi70","pricing_plan_id":"cebpf4jnsgd1na2vs0mg"},{"bike_id":"7eb5eab2-4854-43be-8c5d-5d4f8b55f2b3","system_id":"levelo_inurba_marseille","lat":43.28934,"lon":5.36638,"is_reserved":false,"is_disabled":false,"rental_uris":{"android":"levelo://app?vid=7eb5eab2-4854-43be-8c5d-5d4f8b55f2b3","ios":"levelo://app?vid=7eb5eab2-4854-43be-8c5d-5d4f8b55f2b3"},"vehicle_type_id":"4","last_reported":1745514566,"current_range_meters":4000,"station_id":"ce4bhap2rcd13ifvqek0","pricing_plan_id":"cebpf4jnsgd1na2vs0mg"},{"bike_id":"6c50a6d0-6d90-406c-980d-ded3340d7a2c","system_id":"levelo_inurba_marseille","lat":43.30883,"lon":5.37211,"is_reserved":false,"is_disabled":false,"rental_uris":{"android":"levelo://app?vid=6c50a6d0-6d90-406c-980d-ded3340d7a2c","ios":"levelo://app?vid=6c50a6d0-6d90-406c-980d-ded3340d7a2c"},"vehicle_type_id":"4","last_reported":1745514566,"current_range_meters":4000,"station_id":"ce4bguh2rcd13ifvqckg","pricing_plan_id":"cebpf4jnsgd1na2vs0mg"},{"bike_id":"0013966c-ef97-46fc-a9b6-b1eb056f8ad3","system_id":"levelo_inurba_marseille","lat":43.24071,"lon":5.37773,"is_reserved":false,"is_disabled":false,"rental_uris":{"android":"levelo://app?vid=0013966c-ef97-46fc-a9b6-b1eb056f8ad3","ios":"levelo://app?vid=0013966c-ef97-46fc-a9b6-b1eb056f8ad3"},"vehicle_type_id":"4","last_reported":1745514566,"current_range_meters":4400,"station_id":"ce4bhnp2rcd13ifvqgvg","pricing_plan_id":"cebpf4jnsgd1na2vs0mg"},{"bike_id":"8dd35282-adc5-4440-9626-2c8943152d40","system_id":"levelo_inurba_marseille","lat":43.26571,"lon":5.39022,"is_reserved":false,"is_disabled":false,"rental_uris":{"android":"levelo://app?vid=8dd35282-adc5-4440-9626-2c8943152d40","ios":"levelo://app?vid=8dd35282-adc5-4440-9626-2c8943152d40"},"vehicle_type_id":"4","last_reported":1745514566,"current_range_meters":4400,"station_id":"ce4bhe12rcd13ifvqf30","pricing_plan_id":"cebpf4jnsgd1na2vs0mg"},{"bike_id":"2047cf25-b233-4eb0-b891-6f7545b2a713","system_id":"levelo_inurba_marseille","lat":43.23184,"lon":5.35547,"is_reserved":false,"is_disabled":false,"rental_uris":{"android":"levelo://app?vid=2047cf25-b233-4eb0-b891-6f7545b2a713","ios":"levelo://app?vid=2047cf25-b233-4eb0-b891-6f7545b2a713"},"vehicle_type_id":"4","last_reported":1745514566,"current_range_meters":4400,"station_id":"ce4bhu92rcd13ifvqi70","pricing_plan_id":"cebpf4jnsgd1na2vs0mg"},{"bike_id":"8b4bac15-47d4-4b48-89ad-d28a545e842f","system_id":"levelo_inurba_marseille","lat":43.22935,"lon":5.35379,"is_reserved":false,"is_disabled":false,"rental_uris":{"android":"levelo://app?vid=8b4bac15-47d4-4b48-89ad-d28a545e842f","ios":"levelo://app?vid=8b4bac15-47d4-4b48-89ad-d28a545e842f"},"vehicle_type_id":"4","last_reported":1745514566,"current_range_meters":4400,"station_id":"cpo3532slgdg3j2ikp40","pricing_plan_id":"cebpf4jnsgd1na2vs0mg"},{"bike_id":"b940bdf2-742d-48e4-9490-5ec9e6e9c7a7","system_id":"levelo_inurba_marseille","lat":43.30366,"lon":5.36517,"is_reserved":false,"is_disabled":false,"rental_uris":{"android":"levelo://app?vid=b940bdf2-742d-48e4-9490-5ec9e6e9c7a7","ios":"levelo://app?vid=b940bdf2-742d-48e4-9490-5ec9e6e9c7a7"},"vehicle_type_id":"4","last_reported":1745514566,"current_range_meters":4400,"station_id":"","pricing_plan_id":"cebpf4jnsgd1na2vs0mg"},{"bike_id":"5f33135a-c239-43bc-96db-117e769f4a44","system_id":"levelo_inurba_marseille","lat":43.28666,"lon":5.36363,"is_reserved":false,"is_disabled":false,"rental_uris":{"android":"levelo://app?vid=5f33135a-c239-43bc-96db-117e769f4a44","ios":"levelo://app?vid=5f33135a-c239-43bc-96db-117e769f4a44"},"vehicle_type_id":"4","last_reported":1745514566,"current_range_meters":4800,"station_id":"ce4bhah2rcd13ifvqej0","pricing_plan_id":"cebpf4jnsgd1na2vs0mg"},{"bike_id":"e5e6387e-799d-49f8-9caa-4061ff31ee68","system_id":"levelo_inurba_marseille","lat":43.225013,"lon":5.347869,"is_reserved":false,"is_disabled":false,"rental_uris":{"android":"levelo://app?vid=e5e6387e-799d-49f8-9caa-4061ff31ee68","ios":"levelo://app?vid=e5e6387e-799d-49f8-9caa-4061ff31ee68"},"vehicle_type_id":"4","last_reported":1745514566,"current_range_meters":4800,"station_id":"","pricing_plan_id":"cebpf4jnsgd1na2vs0mg"},{"bike_id":"9796c61e-b3b4-4597-9144-42587c822923","system_id":"levelo_inurba_marseille","lat":43.27172,"lon":5.40992,"is_reserved":false,"is_disabled":false,"rental_uris":{"android":"levelo://app?vid=9796c61e-b3b4-4597-9144-42587c822923","ios":"levelo://app?vid=9796c61e-b3b4-4597-9144-42587c822923"},"vehicle_type_id":"4","last_reported":1745514566,"current_range_meters":4800,"station_id":"ce4bhl12rcd13ifvqgf0","pricing_plan_id":"cebpf4jnsgd1na2vs0mg"},{"bike_id":"e8f9122a-a892-4666-a50f-293f695372cc","system_id":"levelo_inurba_marseille","lat":43.309235,"lon":5.401408,"is_reserved":false,"is_disabled":false,"rental_uris":{"android":"levelo://app?vid=e8f9122a-a892-4666-a50f-293f695372cc","ios":"levelo://app?vid=e8f9122a-a892-4666-a50f-293f695372cc"},"vehicle_type_id":"4","last_reported":1745514566,"current_range_meters":4800,"station_id":"ce4bgvp2rcd13ifvqct0","pricing_plan_id":"cebpf4jnsgd1na2vs0mg"},{"bike_id":"2658c4fe-53a4-46fe-825e-4a582c99b17a","system_id":"levelo_inurba_marseille","lat":43.289425,"lon":5.36635,"is_reserved":false,"is_disabled":false,"rental_uris":{"android":"levelo://app?vid=2658c4fe-53a4-46fe-825e-4a582c99b17a","ios":"levelo://app?vid=2658c4fe-53a4-46fe-825e-4a582c99b17a"},"vehicle_type_id":"4","last_reported":1745514566,"current_range_meters":4800,"station_id":"ce4bhap2rcd13ifvqek0","pricing_plan_id":"cebpf4jnsgd1na2vs0mg"},{"bike_id":"2fc48cb7-e349-4742-9d2e-a97f35e776e7","system_id":"levelo_inurba_marseille","lat":43.32332,"lon":5.40623,"is_reserved":false,"is_disabled":false,"rental_uris":{"android":"levelo://app?vid=2fc48cb7-e349-4742-9d2e-a97f35e776e7","ios":"levelo://app?vid=2fc48cb7-e349-4742-9d2e-a97f35e776e7"},"vehicle_type_id":"4","last_reported":1745514566,"current_range_meters":4800,"station_id":"ce4bhq92rcd13ifvqhjg","pricing_plan_id":"cebpf4jnsgd1na2vs0mg"},{"bike_id":"522cec3e-6c84-4616-8fce-5fba2fce3ea8","system_id":"levelo_inurba_marseille","lat":43.28411,"lon":5.35,"is_reserved":false,"is_disabled":false,"rental_uris":{"android":"levelo://app?vid=522cec3e-6c84-4616-8fce-5fba2fce3ea8","ios":"levelo://app?vid=522cec3e-6c84-4616-8fce-5fba2fce3ea8"},"vehicle_type_id":"4","last_reported":1745514566,"current_range_meters":4800,"station_id":"ce4bhbh2rcd13ifvqepg","pricing_plan_id":"cebpf4jnsgd1na2vs0mg"},{"bike_id":"b2dd1eec-5fa7-426e-9b0b-7d45935214a0","system_id":"levelo_inurba_marseille","lat":43.28153,"lon":5.42643,"is_reserved":false,"is_disabled":false,"rental_uris":{"android":"levelo://app?vid=b2dd1eec-5fa7-426e-9b0b-7d45935214a0","ios":"levelo://app?vid=b2dd1eec-5fa7-426e-9b0b-7d45935214a0"},"vehicle_type_id":"4","last_reported":1745514566,"current_range_meters":5600,"station_id":"ce4bhnh2rcd13ifvqgug","pricing_plan_id":"cebpf4jnsgd1na2vs0mg"},{"bike_id":"c460683e-9158-4b13-8c8b-b802b3172f79","system_id":"levelo_inurba_marseille","lat":43.25499,"lon":5.3765,"is_reserved":false,"is_disabled":false,"rental_uris":{"android":"levelo://app?vid=c460683e-9158-4b13-8c8b-b802b3172f79","ios":"levelo://app?vid=c460683e-9158-4b13-8c8b-b802b3172f79"},"vehicle_type_id":"4","last_reported":1745514566,"current_range_meters":5600,"station_id":"ce4bhh12rcd13ifvqff0","pricing_plan_id":"cebpf4jnsgd1na2vs0mg"},{"bike_id":"a4f736d1-22a9-4a9f-98c6-ca7d0f5b5e08","system_id":"levelo_inurba_marseille","lat":43.284011,"lon":5.375037,"is_reserved":false,"is_disabled":false,"rental_uris":{"android":"levelo://app?vid=a4f736d1-22a9-4a9f-98c6-ca7d0f5b5e08","ios":"levelo://app?vid=a4f736d1-22a9-4a9f-98c6-ca7d0f5b5e08"},"vehicle_type_id":"4","last_reported":1745514566,"current_range_meters":5600,"station_id":"ce4bh412rcd13ifvqds0","pricing_plan_id":"cebpf4jnsgd1na2vs0mg"},{"bike_id":"c996d20c-860b-47e4-a5ef-6f6c19f26f09","system_id":"levelo_inurba_marseille","lat":43.31486,"lon":5.37309,"is_reserved":false,"is_disabled":false,"rental_uris":{"android":"levelo://app?vid=c996d20c-860b-47e4-a5ef-6f6c19f26f09","ios":"levelo://app?vid=c996d20c-860b-47e4-a5ef-6f6c19f26f09"},"vehicle_type_id":"4","last_reported":1745514566,"current_range_meters":4800,"station_id":"ce4bgt12rcd13ifvqcd0","pricing_plan_id":"cebpf4jnsgd1na2vs0mg"},{"bike_id":"6b7d3148-53c2-43ae-b0db-ba07a374bcbb","system_id":"levelo_inurba_marseille","lat":43.27944,"lon":5.41056,"is_reserved":false,"is_disabled":false,"rental_uris":{"android":"levelo://app?vid=6b7d3148-53c2-43ae-b0db-ba07a374bcbb","ios":"levelo://app?vid=6b7d3148-53c2-43ae-b0db-ba07a374bcbb"},"vehicle_type_id":"4","last_reported":1745514566,"current_range_meters":5600,"station_id":"ce4bhnp2rcd13ifvqh0g","pricing_plan_id":"cebpf4jnsgd1na2vs0mg"},{"bike_id":"7f6eceef-a02a-407b-a403-dff73f762985","system_id":"levelo_inurba_marseille","lat":43.27841,"lon":5.3922,"is_reserved":false,"is_disabled":false,"rental_uris":{"android":"levelo://app?vid=7f6eceef-a02a-407b-a403-dff73f762985","ios":"levelo://app?vid=7f6eceef-a02a-407b-a403-dff73f762985"},"vehicle_type_id":"4","last_reported":1745514566,"current_range_meters":5600,"station_id":"ce4bhjp2rcd13ifvqga0","pricing_plan_id":"cebpf4jnsgd1na2vs0mg"},{"bike_id":"92011982-1414-48ba-9803-1443ac2e6e2a","system_id":"levelo_inurba_marseille","lat":43.28611,"lon":5.35097,"is_reserved":false,"is_disabled":false,"rental_uris":{"android":"levelo://app?vid=92011982-1414-48ba-9803-1443ac2e6e2a","ios":"levelo://app?vid=92011982-1414-48ba-9803-1443ac2e6e2a"},"vehicle_type_id":"4","last_reported":1745514566,"current_range_meters":5600,"station_id":"ce4bhch2rcd13ifvqeug","pricing_plan_id":"cebpf4jnsgd1na2vs0mg"},{"bike_id":"47825e3d-6825-4573-9bcc-539003bb77ee","system_id":"levelo_inurba_marseille","lat":43.29275,"lon":5.3685,"is_reserved":false,"is_disabled":false,"rental_uris":{"android":"levelo://app?vid=47825e3d-6825-4573-9bcc-539003bb77ee","ios":"levelo://app?vid=47825e3d-6825-4573-9bcc-539003bb77ee"},"vehicle_type_id":"4","last_reported":1745514566,"current_range_meters":5600,"station_id":"ce4bhbp2rcd13ifvqesg","pricing_plan_id":"cebpf4jnsgd1na2vs0mg"},{"bike_id":"d9bccdeb-f774-4a05-a586-2368aeb9ceb9","system_id":"levelo_inurba_marseille","lat":43.28733,"lon":5.36085,"is_reserved":false,"is_disabled":false,"rental_uris":{"android":"levelo://app?vid=d9bccdeb-f774-4a05-a586-2368aeb9ceb9","ios":"levelo://app?vid=d9bccdeb-f774-4a05-a586-2368aeb9ceb9"},"vehicle_type_id":"4","last_reported":1745514566,"current_range_meters":5600,"station_id":"cki0cbj6b192h4jlfktg","pricing_plan_id":"cebpf4jnsgd1na2vs0mg"},{"bike_id":"d28bdf39-08e9-4286-b478-fced1227a80e","system_id":"levelo_inurba_marseille","lat":43.24668,"lon":5.38171,"is_reserved":false,"is_disabled":false,"rental_uris":{"android":"levelo://app?vid=d28bdf39-08e9-4286-b478-fced1227a80e","ios":"levelo://app?vid=d28bdf39-08e9-4286-b478-fced1227a80e"},"vehicle_type_id":"4","last_reported":1745514566,"current_range_meters":6000,"station_id":"ce4bhih2rcd13ifvqfr0","pricing_plan_id":"cebpf4jnsgd1na2vs0mg"},{"bike_id":"b78f2cc4-714d-4d24-8966-18c3f93449c2","system_id":"levelo_inurba_marseille","lat":43.29408,"lon":5.38605,"is_reserved":false,"is_disabled":false,"rental_uris":{"android":"levelo://app?vid=b78f2cc4-714d-4d24-8966-18c3f93449c2","ios":"levelo://app?vid=b78f2cc4-714d-4d24-8966-18c3f93449c2"},"vehicle_type_id":"4","last_reported":1745514566,"current_range_meters":6000,"station_id":"ce4bh2h2rcd13ifvqdh0","pricing_plan_id":"cebpf4jnsgd1na2vs0mg"},{"bike_id":"6dcceb5c-cf52-405f-976a-05281b66716f","system_id":"levelo_inurba_marseille","lat":43.27975,"lon":5.38732,"is_reserved":false,"is_disabled":false,"rental_uris":{"android":"levelo://app?vid=6dcceb5c-cf52-405f-976a-05281b66716f","ios":"levelo://app?vid=6dcceb5c-cf52-405f-976a-05281b66716f"},"vehicle_type_id":"4","last_reported":1745514566,"current_range_meters":6000,"station_id":"ce4bhg12rcd13ifvqf80","pricing_plan_id":"cebpf4jnsgd1na2vs0mg"},{"bike_id":"0cbaf19c-9c21-46ab-899f-dfcc12db4988","system_id":"levelo_inurba_marseille","lat":43.231955,"lon":5.400086,"is_reserved":false,"is_disabled":false,"rental_uris":{"android":"levelo://app?vid=0cbaf19c-9c21-46ab-899f-dfcc12db4988","ios":"levelo://app?vid=0cbaf19c-9c21-46ab-899f-dfcc12db4988"},"vehicle_type_id":"4","last_reported":1745514566,"current_range_meters":6000,"station_id":"ce4bhn12rcd13ifvqgqg","pricing_plan_id":"cebpf4jnsgd1na2vs0mg"},{"bike_id":"49ddfd85-2426-4f44-a359-d53cf3cc5f6e","system_id":"levelo_inurba_marseille","lat":43.29219,"lon":5.3581,"is_reserved":false,"is_disabled":false,"rental_uris":{"android":"levelo://app?vid=49ddfd85-2426-4f44-a359-d53cf3cc5f6e","ios":"levelo://app?vid=49ddfd85-2426-4f44-a359-d53cf3cc5f6e"},"vehicle_type_id":"4","last_reported":1745514566,"current_range_meters":6400,"station_id":"ce4bhb12rcd13ifvqel0","pricing_plan_id":"cebpf4jnsgd1na2vs0mg"},{"bike_id":"9a1e289e-5f44-4ac0-b970-b502f4c6797e","system_id":"levelo_inurba_marseille","lat":43.30427,"lon":5.41292,"is_reserved":false,"is_disabled":false,"rental_uris":{"android":"levelo://app?vid=9a1e289e-5f44-4ac0-b970-b502f4c6797e","ios":"levelo://app?vid=9a1e289e-5f44-4ac0-b970-b502f4c6797e"},"vehicle_type_id":"4","last_reported":1745514566,"current_range_meters":6400,"station_id":"ce4bhop2rcd13ifvqh8g","pricing_plan_id":"cebpf4jnsgd1na2vs0mg"},{"bike_id":"ed817ff6-2b8f-4998-ae7c-830fc998e6ee","system_id":"levelo_inurba_marseille","lat":43.2572,"lon":5.41119,"is_reserved":false,"is_disabled":false,"rental_uris":{"android":"levelo://app?vid=ed817ff6-2b8f-4998-ae7c-830fc998e6ee","ios":"levelo://app?vid=ed817ff6-2b8f-4998-ae7c-830fc998e6ee"},"vehicle_type_id":"4","last_reported":1745514566,"current_range_meters":6400,"station_id":"ce4bhkp2rcd13ifvqgd0","pricing_plan_id":"cebpf4jnsgd1na2vs0mg"},{"bike_id":"da70d61b-208e-4f5a-8136-fdac79841f35","system_id":"levelo_inurba_marseille","lat":43.28018,"lon":5.36941,"is_reserved":false,"is_disabled":false,"rental_uris":{"android":"levelo://app?vid=da70d61b-208e-4f5a-8136-fdac79841f35","ios":"levelo://app?vid=da70d61b-208e-4f5a-8136-fdac79841f35"},"vehicle_type_id":"4","last_reported":1745514566,"current_range_meters":6400,"station_id":"ce4bha12rcd13ifvqef0","pricing_plan_id":"cebpf4jnsgd1na2vs0mg"},{"bike_id":"eab4be93-9b7f-4edd-a940-dd7bbd677ca0","system_id":"levelo_inurba_marseille","lat":43.30116,"lon":5.39124,"is_reserved":false,"is_disabled":true,"rental_uris":{"android":"levelo://app?vid=eab4be93-9b7f-4edd-a940-dd7bbd677ca0","ios":"levelo://app?vid=eab4be93-9b7f-4edd-a940-dd7bbd677ca0"},"vehicle_type_id":"4","last_reported":1745514566,"current_range_meters":6400,"station_id":"ce4bh192rcd13ifvqdb0","pricing_plan_id":"cebpf4jnsgd1na2vs0mg"},{"bike_id":"fa072638-79d4-42b6-a779-d7bc984e3de1","system_id":"levelo_inurba_marseille","lat":43.23182,"lon":5.39989,"is_reserved":false,"is_disabled":false,"rental_uris":{"android":"levelo://app?vid=fa072638-79d4-42b6-a779-d7bc984e3de1","ios":"levelo://app?vid=fa072638-79d4-42b6-a779-d7bc984e3de1"},"vehicle_type_id":"4","last_reported":1745514566,"current_range_meters":6400,"station_id":"ce4bhn12rcd13ifvqgqg","pricing_plan_id":"cebpf4jnsgd1na2vs0mg"},{"bike_id":"138f85cd-b4e2-43e0-bbb1-c9603f361807","system_id":"levelo_inurba_marseille","lat":43.29273,"lon":5.36845,"is_reserved":false,"is_disabled":false,"rental_uris":{"android":"levelo://app?vid=138f85cd-b4e2-43e0-bbb1-c9603f361807","ios":"levelo://app?vid=138f85cd-b4e2-43e0-bbb1-c9603f361807"},"vehicle_type_id":"4","last_reported":1745514566,"current_range_meters":6400,"station_id":"ce4bhbp2rcd13ifvqesg","pricing_plan_id":"cebpf4jnsgd1na2vs0mg"},{"bike_id":"fecd80f1-09ac-4bce-825d-edc9a620c73c","system_id":"levelo_inurba_marseille","lat":43.309558,"lon":5.390272,"is_reserved":false,"is_disabled":false,"rental_uris":{"android":"levelo://app?vid=fecd80f1-09ac-4bce-825d-edc9a620c73c","ios":"levelo://app?vid=fecd80f1-09ac-4bce-825d-edc9a620c73c"},"vehicle_type_id":"4","last_reported":1745514566,"current_range_meters":6400,"station_id":"ce4bgt12rcd13ifvqce0","pricing_plan_id":"cebpf4jnsgd1na2vs0mg"},{"bike_id":"52b0fca4-f680-4fdd-b66b-8a474533ea4c","system_id":"levelo_inurba_marseille","lat":43.253928,"lon":5.418499,"is_reserved":false,"is_disabled":false,"rental_uris":{"android":"levelo://app?vid=52b0fca4-f680-4fdd-b66b-8a474533ea4c","ios":"levelo://app?vid=52b0fca4-f680-4fdd-b66b-8a474533ea4c"},"vehicle_type_id":"4","last_reported":1745514566,"current_range_meters":6400,"station_id":"","pricing_plan_id":"cebpf4jnsgd1na2vs0mg"},{"bike_id":"1be0eb9c-f13a-4528-a70c-da833c79b49f","system_id":"levelo_inurba_marseille","lat":43.29418,"lon":5.3863,"is_reserved":false,"is_disabled":true,"rental_uris":{"android":"levelo://app?vid=1be0eb9c-f13a-4528-a70c-da833c79b49f","ios":"levelo://app?vid=1be0eb9c-f13a-4528-a70c-da833c79b49f"},"vehicle_type_id":"4","last_reported":1745514566,"current_range_meters":6400,"station_id":"ce4bh2h2rcd13ifvqdh0","pricing_plan_id":"cebpf4jnsgd1na2vs0mg"},{"bike_id":"9140c281-7bca-4ca7-98b3-a38f9a5bc21d","system_id":"levelo_inurba_marseille","lat":43.2742,"lon":5.39417,"is_reserved":false,"is_disabled":false,"rental_uris":{"android":"levelo://app?vid=9140c281-7bca-4ca7-98b3-a38f9a5bc21d","ios":"levelo://app?vid=9140c281-7bca-4ca7-98b3-a38f9a5bc21d"},"vehicle_type_id":"4","last_reported":1745514566,"current_range_meters":6800,"station_id":"ce4bhdp2rcd13ifvqf20","pricing_plan_id":"cebpf4jnsgd1na2vs0mg"},{"bike_id":"fed3087f-a5cb-449e-a43e-200233532ee8","system_id":"levelo_inurba_marseille","lat":43.28034,"lon":5.36953,"is_reserved":false,"is_disabled":false,"rental_uris":{"android":"levelo://app?vid=fed3087f-a5cb-449e-a43e-200233532ee8","ios":"levelo://app?vid=fed3087f-a5cb-449e-a43e-200233532ee8"},"vehicle_type_id":"4","last_reported":1745514566,"current_range_meters":6800,"station_id":"ce4bha12rcd13ifvqef0","pricing_plan_id":"cebpf4jnsgd1na2vs0mg"},{"bike_id":"1289a080-821a-4112-965e-773b6e0c281a","system_id":"levelo_inurba_marseille","lat":43.286966,"lon":5.352251,"is_reserved":false,"is_disabled":false,"rental_uris":{"android":"levelo://app?vid=1289a080-821a-4112-965e-773b6e0c281a","ios":"levelo://app?vid=1289a080-821a-4112-965e-773b6e0c281a"},"vehicle_type_id":"4","last_reported":1745514566,"current_range_meters":6800,"station_id":"ce4bhbh2rcd13ifvqepg","pricing_plan_id":"cebpf4jnsgd1na2vs0mg"},{"bike_id":"30704823-7a9c-4b12-af5d-93db18bfd3b9","system_id":"levelo_inurba_marseille","lat":43.28838,"lon":5.39968,"is_reserved":false,"is_disabled":false,"rental_uris":{"android":"levelo://app?vid=30704823-7a9c-4b12-af5d-93db18bfd3b9","ios":"levelo://app?vid=30704823-7a9c-4b12-af5d-93db18bfd3b9"},"vehicle_type_id":"4","last_reported":1745514566,"current_range_meters":6800,"station_id":"","pricing_plan_id":"cebpf4jnsgd1na2vs0mg"},{"bike_id":"dc2ba822-9826-4e08-9178-62116f2a4db2","system_id":"levelo_inurba_marseille","lat":43.29707,"lon":5.36624,"is_reserved":false,"is_disabled":false,"rental_uris":{"android":"levelo://app?vid=dc2ba822-9826-4e08-9178-62116f2a4db2","ios":"levelo://app?vid=dc2ba822-9826-4e08-9178-62116f2a4db2"},"vehicle_type_id":"4","last_reported":1745514566,"current_range_meters":6800,"station_id":"ce4bgn12rcd13ifvqbt0","pricing_plan_id":"cebpf4jnsgd1na2vs0mg"},{"bike_id":"16471c3e-1451-4b95-aab4-2e5c101a7661","system_id":"levelo_inurba_marseille","lat":43.23965,"lon":5.3664,"is_reserved":false,"is_disabled":false,"rental_uris":{"android":"levelo://app?vid=16471c3e-1451-4b95-aab4-2e5c101a7661","ios":"levelo://app?vid=16471c3e-1451-4b95-aab4-2e5c101a7661"},"vehicle_type_id":"4","last_reported":1745514566,"current_range_meters":7200,"station_id":"ce4bhi12rcd13ifvqfp0","pricing_plan_id":"cebpf4jnsgd1na2vs0mg"},{"bike_id":"4dada7b0-057e-46d3-bd9f-41c43902fc50","system_id":"levelo_inurba_marseille","lat":43.29288,"lon":5.40132,"is_reserved":false,"is_disabled":true,"rental_uris":{"android":"levelo://app?vid=4dada7b0-057e-46d3-bd9f-41c43902fc50","ios":"levelo://app?vid=4dada7b0-057e-46d3-bd9f-41c43902fc50"},"vehicle_type_id":"4","last_reported":1745514566,"current_range_meters":7200,"station_id":"ce4bh312rcd13ifvqdk0","pricing_plan_id":"cebpf4jnsgd1na2vs0mg"},{"bike_id":"b8dd0885-79e8-474c-9d23-f0320972acda","system_id":"levelo_inurba_marseille","lat":43.29418,"lon":5.38628,"is_reserved":false,"is_disabled":false,"rental_uris":{"android":"levelo://app?vid=b8dd0885-79e8-474c-9d23-f0320972acda","ios":"levelo://app?vid=b8dd0885-79e8-474c-9d23-f0320972acda"},"vehicle_type_id":"4","last_reported":1745514566,"current_range_meters":7200,"station_id":"ce4bh2h2rcd13ifvqdh0","pricing_plan_id":"cebpf4jnsgd1na2vs0mg"},{"bike_id":"4fea39cf-1bc2-4edf-ac82-4b4fd968c183","system_id":"levelo_inurba_marseille","lat":43.2989,"lon":5.38891,"is_reserved":false,"is_disabled":false,"rental_uris":{"android":"levelo://app?vid=4fea39cf-1bc2-4edf-ac82-4b4fd968c183","ios":"levelo://app?vid=4fea39cf-1bc2-4edf-ac82-4b4fd968c183"},"vehicle_type_id":"4","last_reported":1745514566,"current_range_meters":7200,"station_id":"ce4bh392rcd13ifvqdl0","pricing_plan_id":"cebpf4jnsgd1na2vs0mg"},{"bike_id":"eadb135d-8fa0-4a4f-bea4-61e26eadedf5","system_id":"levelo_inurba_marseille","lat":43.29008,"lon":5.35617,"is_reserved":false,"is_disabled":false,"rental_uris":{"android":"levelo://app?vid=eadb135d-8fa0-4a4f-bea4-61e26eadedf5","ios":"levelo://app?vid=eadb135d-8fa0-4a4f-bea4-61e26eadedf5"},"vehicle_type_id":"4","last_reported":1745514566,"current_range_meters":7200,"station_id":"ce4bhb92rcd13ifvqen0","pricing_plan_id":"cebpf4jnsgd1na2vs0mg"},{"bike_id":"ea5e9426-96f5-496a-a307-20aa455c7db0","system_id":"levelo_inurba_marseille","lat":43.26201,"lon":5.37934,"is_reserved":false,"is_disabled":false,"rental_uris":{"android":"levelo://app?vid=ea5e9426-96f5-496a-a307-20aa455c7db0","ios":"levelo://app?vid=ea5e9426-96f5-496a-a307-20aa455c7db0"},"vehicle_type_id":"4","last_reported":1745514566,"current_range_meters":7200,"station_id":"ce4bhjp2rcd13ifvqg90","pricing_plan_id":"cebpf4jnsgd1na2vs0mg"},{"bike_id":"1d0e74ad-0b28-4f44-86dc-3c9e25a0d81e","system_id":"levelo_inurba_marseille","lat":43.2942,"lon":5.38623,"is_reserved":false,"is_disabled":false,"rental_uris":{"android":"levelo://app?vid=1d0e74ad-0b28-4f44-86dc-3c9e25a0d81e","ios":"levelo://app?vid=1d0e74ad-0b28-4f44-86dc-3c9e25a0d81e"},"vehicle_type_id":"4","last_reported":1745514566,"current_range_meters":7200,"station_id":"ce4bh2h2rcd13ifvqdh0","pricing_plan_id":"cebpf4jnsgd1na2vs0mg"},{"bike_id":"9f515cdc-8f4a-423e-920a-863a97ecdbb8","system_id":"levelo_inurba_marseille","lat":43.30945,"lon":5.39047,"is_reserved":false,"is_disabled":false,"rental_uris":{"android":"levelo://app?vid=9f515cdc-8f4a-423e-920a-863a97ecdbb8","ios":"levelo://app?vid=9f515cdc-8f4a-423e-920a-863a97ecdbb8"},"vehicle_type_id":"4","last_reported":1745514566,"current_range_meters":7200,"station_id":"ce4bgup2rcd13ifvqco0","pricing_plan_id":"cebpf4jnsgd1na2vs0mg"},{"bike_id":"92c3b340-d069-4f1c-b55b-44c52f19597b","system_id":"levelo_inurba_marseille","lat":43.28249,"lon":5.37795,"is_reserved":false,"is_disabled":false,"rental_uris":{"android":"levelo://app?vid=92c3b340-d069-4f1c-b55b-44c52f19597b","ios":"levelo://app?vid=92c3b340-d069-4f1c-b55b-44c52f19597b"},"vehicle_type_id":"4","last_reported":1745514566,"current_range_meters":8000,"station_id":"","pricing_plan_id":"cebpf4jnsgd1na2vs0mg"},{"bike_id":"c0be20a3-1279-4b22-8428-d7cabd61c86e","system_id":"levelo_inurba_marseille","lat":43.302394,"lon":5.397296,"is_reserved":false,"is_disabled":false,"rental_uris":{"android":"levelo://app?vid=c0be20a3-1279-4b22-8428-d7cabd61c86e","ios":"levelo://app?vid=c0be20a3-1279-4b22-8428-d7cabd61c86e"},"vehicle_type_id":"4","last_reported":1745514566,"current_range_meters":8000,"station_id":"ce4bgkh2rcd13ifvqbk0","pricing_plan_id":"cebpf4jnsgd1na2vs0mg"},{"bike_id":"04de76c4-a1ad-45bf-9e28-7c78bfcbb5c0","system_id":"levelo_inurba_marseille","lat":43.25168,"lon":5.37456,"is_reserved":false,"is_disabled":false,"rental_uris":{"android":"levelo://app?vid=04de76c4-a1ad-45bf-9e28-7c78bfcbb5c0","ios":"levelo://app?vid=04de76c4-a1ad-45bf-9e28-7c78bfcbb5c0"},"vehicle_type_id":"4","last_reported":1745514566,"current_range_meters":8000,"station_id":"","pricing_plan_id":"cebpf4jnsgd1na2vs0mg"},{"bike_id":"8764c801-9cd2-4e78-bbfe-a229706ee676","system_id":"levelo_inurba_marseille","lat":43.2987,"lon":5.38919,"is_reserved":false,"is_disabled":true,"rental_uris":{"android":"levelo://app?vid=8764c801-9cd2-4e78-bbfe-a229706ee676","ios":"levelo://app?vid=8764c801-9cd2-4e78-bbfe-a229706ee676"},"vehicle_type_id":"4","last_reported":1745514566,"current_range_meters":8000,"station_id":"ce4bh392rcd13ifvqdl0","pricing_plan_id":"cebpf4jnsgd1na2vs0mg"},{"bike_id":"8fb58ee0-1ac5-485f-91bb-9afeb1d3df28","system_id":"levelo_inurba_marseille","lat":43.29451,"lon":5.3976,"is_reserved":false,"is_disabled":false,"rental_uris":{"android":"levelo://app?vid=8fb58ee0-1ac5-485f-91bb-9afeb1d3df28","ios":"levelo://app?vid=8fb58ee0-1ac5-485f-91bb-9afeb1d3df28"},"vehicle_type_id":"4","last_reported":1745514566,"current_range_meters":8400,"station_id":"ce4bh3h2rcd13ifvqdo0","pricing_plan_id":"cebpf4jnsgd1na2vs0mg"},{"bike_id":"4e6adeb5-1a3c-40c3-bf63-87b79b938e01","system_id":"levelo_inurba_marseille","lat":43.3095,"lon":5.39052,"is_reserved":false,"is_disabled":false,"rental_uris":{"android":"levelo://app?vid=4e6adeb5-1a3c-40c3-bf63-87b79b938e01","ios":"levelo://app?vid=4e6adeb5-1a3c-40c3-bf63-87b79b938e01"},"vehicle_type_id":"4","last_reported":1745514566,"current_range_meters":8400,"station_id":"ce4bgup2rcd13ifvqco0","pricing_plan_id":"cebpf4jnsgd1na2vs0mg"},{"bike_id":"211a4423-83b2-4b59-9241-132c519787a6","system_id":"levelo_inurba_marseille","lat":43.28156,"lon":5.42644,"is_reserved":false,"is_disabled":false,"rental_uris":{"android":"levelo://app?vid=211a4423-83b2-4b59-9241-132c519787a6","ios":"levelo://app?vid=211a4423-83b2-4b59-9241-132c519787a6"},"vehicle_type_id":"4","last_reported":1745514566,"current_range_meters":8400,"station_id":"ce4bhnh2rcd13ifvqgug","pricing_plan_id":"cebpf4jnsgd1na2vs0mg"},{"bike_id":"45d7a3cf-ff0a-47fd-8edc-2ed1a4c08292","system_id":"levelo_inurba_marseille","lat":43.24663,"lon":5.38167,"is_reserved":false,"is_disabled":false,"rental_uris":{"android":"levelo://app?vid=45d7a3cf-ff0a-47fd-8edc-2ed1a4c08292","ios":"levelo://app?vid=45d7a3cf-ff0a-47fd-8edc-2ed1a4c08292"},"vehicle_type_id":"4","last_reported":1745514566,"current_range_meters":8400,"station_id":"ce4bhih2rcd13ifvqfr0","pricing_plan_id":"cebpf4jnsgd1na2vs0mg"},{"bike_id":"0f8456f2-f604-4566-8115-bb7d4a014bfa","system_id":"levelo_inurba_marseille","lat":43.2848,"lon":5.38408,"is_reserved":false,"is_disabled":false,"rental_uris":{"android":"levelo://app?vid=0f8456f2-f604-4566-8115-bb7d4a014bfa","ios":"levelo://app?vid=0f8456f2-f604-4566-8115-bb7d4a014bfa"},"vehicle_type_id":"4","last_reported":1745514566,"current_range_meters":8400,"station_id":"ce4bh512rcd13ifvqe3g","pricing_plan_id":"cebpf4jnsgd1na2vs0mg"},{"bike_id":"0a1fe2f8-b380-494f-8959-2e17c1406556","system_id":"levelo_inurba_marseille","lat":43.26065,"lon":5.39399,"is_reserved":false,"is_disabled":false,"rental_uris":{"android":"levelo://app?vid=0a1fe2f8-b380-494f-8959-2e17c1406556","ios":"levelo://app?vid=0a1fe2f8-b380-494f-8959-2e17c1406556"},"vehicle_type_id":"4","last_reported":1745514566,"current_range_meters":8800,"station_id":"ce4bhh92rcd13ifvqfj0","pricing_plan_id":"cebpf4jnsgd1na2vs0mg"},{"bike_id":"a9032445-6b8a-4238-bba1-ade4d302897d","system_id":"levelo_inurba_marseille","lat":43.26201,"lon":5.37931,"is_reserved":false,"is_disabled":false,"rental_uris":{"android":"levelo://app?vid=a9032445-6b8a-4238-bba1-ade4d302897d","ios":"levelo://app?vid=a9032445-6b8a-4238-bba1-ade4d302897d"},"vehicle_type_id":"4","last_reported":1745514566,"current_range_meters":8400,"station_id":"ce4bhjp2rcd13ifvqg90","pricing_plan_id":"cebpf4jnsgd1na2vs0mg"},{"bike_id":"f742e759-6e98-4553-96e1-e1964ee51b8f","system_id":"levelo_inurba_marseille","lat":43.30813,"lon":5.43537,"is_reserved":false,"is_disabled":false,"rental_uris":{"android":"levelo://app?vid=f742e759-6e98-4553-96e1-e1964ee51b8f","ios":"levelo://app?vid=f742e759-6e98-4553-96e1-e1964ee51b8f"},"vehicle_type_id":"4","last_reported":1745514566,"current_range_meters":8800,"station_id":"ce4bhph2rcd13ifvqheg","pricing_plan_id":"cebpf4jnsgd1na2vs0mg"},{"bike_id":"7e9d26b8-b748-4e10-b3e2-977d9fd05087","system_id":"levelo_inurba_marseille","lat":43.32967,"lon":5.36799,"is_reserved":false,"is_disabled":true,"rental_uris":{"android":"levelo://app?vid=7e9d26b8-b748-4e10-b3e2-977d9fd05087","ios":"levelo://app?vid=7e9d26b8-b748-4e10-b3e2-977d9fd05087"},"vehicle_type_id":"4","last_reported":1745514566,"current_range_meters":8800,"station_id":"","pricing_plan_id":"cebpf4jnsgd1na2vs0mg"},{"bike_id":"1bfbf24e-4daa-495d-b826-45cf25eb74a1","system_id":"levelo_inurba_marseille","lat":43.28162,"lon":5.42643,"is_reserved":false,"is_disabled":false,"rental_uris":{"android":"levelo://app?vid=1bfbf24e-4daa-495d-b826-45cf25eb74a1","ios":"levelo://app?vid=1bfbf24e-4daa-495d-b826-45cf25eb74a1"},"vehicle_type_id":"4","last_reported":1745514566,"current_range_meters":8800,"station_id":"ce4bhnh2rcd13ifvqgug","pricing_plan_id":"cebpf4jnsgd1na2vs0mg"},{"bike_id":"e931b53b-3cb9-405e-878d-80f89f4202cb","system_id":"levelo_inurba_marseille","lat":43.31364,"lon":5.38491,"is_reserved":false,"is_disabled":false,"rental_uris":{"android":"levelo://app?vid=e931b53b-3cb9-405e-878d-80f89f4202cb","ios":"levelo://app?vid=e931b53b-3cb9-405e-878d-80f89f4202cb"},"vehicle_type_id":"4","last_reported":1745514566,"current_range_meters":8800,"station_id":"ce4bgt92rcd13ifvqcf0","pricing_plan_id":"cebpf4jnsgd1na2vs0mg"},{"bike_id":"6c8dfb89-b980-4b39-9b47-bd217a0febbe","system_id":"levelo_inurba_marseille","lat":43.3234,"lon":5.40626,"is_reserved":false,"is_disabled":false,"rental_uris":{"android":"levelo://app?vid=6c8dfb89-b980-4b39-9b47-bd217a0febbe","ios":"levelo://app?vid=6c8dfb89-b980-4b39-9b47-bd217a0febbe"},"vehicle_type_id":"4","last_reported":1745514566,"current_range_meters":8800,"station_id":"ce4bhq92rcd13ifvqhjg","pricing_plan_id":"cebpf4jnsgd1na2vs0mg"},{"bike_id":"a008f1ff-620c-4136-b82e-a1a04d36a6b4","system_id":"levelo_inurba_marseille","lat":43.29049,"lon":5.36476,"is_reserved":false,"is_disabled":false,"rental_uris":{"android":"levelo://app?vid=a008f1ff-620c-4136-b82e-a1a04d36a6b4","ios":"levelo://app?vid=a008f1ff-620c-4136-b82e-a1a04d36a6b4"},"vehicle_type_id":"4","last_reported":1745514566,"current_range_meters":8800,"station_id":"","pricing_plan_id":"cebpf4jnsgd1na2vs0mg"},{"bike_id":"53de0d7a-29e3-4b0b-be27-82d067ea2668","system_id":"levelo_inurba_marseille","lat":43.31719,"lon":5.37792,"is_reserved":false,"is_disabled":false,"rental_uris":{"android":"levelo://app?vid=53de0d7a-29e3-4b0b-be27-82d067ea2668","ios":"levelo://app?vid=53de0d7a-29e3-4b0b-be27-82d067ea2668"},"vehicle_type_id":"4","last_reported":1745514566,"current_range_meters":8800,"station_id":"ce4bgth2rcd13ifvqch0","pricing_plan_id":"cebpf4jnsgd1na2vs0mg"},{"bike_id":"8cd89945-3452-402d-b186-42ab94aa749d","system_id":"levelo_inurba_marseille","lat":43.29248,"lon":5.36058,"is_reserved":false,"is_disabled":true,"rental_uris":{"android":"levelo://app?vid=8cd89945-3452-402d-b186-42ab94aa749d","ios":"levelo://app?vid=8cd89945-3452-402d-b186-42ab94aa749d"},"vehicle_type_id":"4","last_reported":1745514566,"current_range_meters":9200,"station_id":"ce4bhbh2rcd13ifvqeqg","pricing_plan_id":"cebpf4jnsgd1na2vs0mg"},{"bike_id":"0507518d-66e0-4aec-b83b-9c1eadc0fd20","system_id":"levelo_inurba_marseille","lat":43.29663,"lon":5.38556,"is_reserved":false,"is_disabled":false,"rental_uris":{"android":"levelo://app?vid=0507518d-66e0-4aec-b83b-9c1eadc0fd20","ios":"levelo://app?vid=0507518d-66e0-4aec-b83b-9c1eadc0fd20"},"vehicle_type_id":"4","last_reported":1745514566,"current_range_meters":9200,"station_id":"","pricing_plan_id":"cebpf4jnsgd1na2vs0mg"},{"bike_id":"2c1392ff-88b8-4183-9133-0159de8c3468","system_id":"levelo_inurba_marseille","lat":43.24803,"lon":5.374594,"is_reserved":false,"is_disabled":false,"rental_uris":{"android":"levelo://app?vid=2c1392ff-88b8-4183-9133-0159de8c3468","ios":"levelo://app?vid=2c1392ff-88b8-4183-9133-0159de8c3468"},"vehicle_type_id":"4","last_reported":1745514566,"current_range_meters":9200,"station_id":"ce4bhgh2rcd13ifvqfb0","pricing_plan_id":"cebpf4jnsgd1na2vs0mg"},{"bike_id":"8b674f0f-ce85-496c-aa2f-670feb142ed8","system_id":"levelo_inurba_marseille","lat":43.296021,"lon":5.386932,"is_reserved":false,"is_disabled":false,"rental_uris":{"android":"levelo://app?vid=8b674f0f-ce85-496c-aa2f-670feb142ed8","ios":"levelo://app?vid=8b674f0f-ce85-496c-aa2f-670feb142ed8"},"vehicle_type_id":"4","last_reported":1745514566,"current_range_meters":9200,"station_id":"","pricing_plan_id":"cebpf4jnsgd1na2vs0mg"},{"bike_id":"2490c850-e8ad-49d1-8887-b8f9d6b59f38","system_id":"levelo_inurba_marseille","lat":43.23193,"lon":5.39986,"is_reserved":false,"is_disabled":true,"rental_uris":{"android":"levelo://app?vid=2490c850-e8ad-49d1-8887-b8f9d6b59f38","ios":"levelo://app?vid=2490c850-e8ad-49d1-8887-b8f9d6b59f38"},"vehicle_type_id":"4","last_reported":1745514566,"current_range_meters":9200,"station_id":"ce4bhn12rcd13ifvqgqg","pricing_plan_id":"cebpf4jnsgd1na2vs0mg"},{"bike_id":"6ce2f617-0730-4b92-a421-6900c730e33d","system_id":"levelo_inurba_marseille","lat":43.29584,"lon":5.36751,"is_reserved":false,"is_disabled":false,"rental_uris":{"android":"levelo://app?vid=6ce2f617-0730-4b92-a421-6900c730e33d","ios":"levelo://app?vid=6ce2f617-0730-4b92-a421-6900c730e33d"},"vehicle_type_id":"4","last_reported":1745514566,"current_range_meters":9200,"station_id":"ce4bgph2rcd13ifvqc2g","pricing_plan_id":"cebpf4jnsgd1na2vs0mg"},{"bike_id":"67b9b70f-68e0-48b9-ab3a-83578fdc2060","system_id":"levelo_inurba_marseille","lat":43.334354,"lon":5.400584,"is_reserved":false,"is_disabled":false,"rental_uris":{"android":"levelo://app?vid=67b9b70f-68e0-48b9-ab3a-83578fdc2060","ios":"levelo://app?vid=67b9b70f-68e0-48b9-ab3a-83578fdc2060"},"vehicle_type_id":"4","last_reported":1745514566,"current_range_meters":9600,"station_id":"ce4bhr92rcd13ifvqhrg","pricing_plan_id":"cebpf4jnsgd1na2vs0mg"},{"bike_id":"c4f68cbb-15e4-4486-8774-7331843605ef","system_id":"levelo_inurba_marseille","lat":43.29245,"lon":5.384,"is_reserved":false,"is_disabled":false,"rental_uris":{"android":"levelo://app?vid=c4f68cbb-15e4-4486-8774-7331843605ef","ios":"levelo://app?vid=c4f68cbb-15e4-4486-8774-7331843605ef"},"vehicle_type_id":"4","last_reported":1745514566,"current_range_meters":9600,"station_id":"ce4bh692rcd13ifvqea0","pricing_plan_id":"cebpf4jnsgd1na2vs0mg"},{"bike_id":"18321386-6007-41d7-a392-599343c03345","system_id":"levelo_inurba_marseille","lat":43.3135,"lon":5.385,"is_reserved":false,"is_disabled":true,"rental_uris":{"android":"levelo://app?vid=18321386-6007-41d7-a392-599343c03345","ios":"levelo://app?vid=18321386-6007-41d7-a392-599343c03345"},"vehicle_type_id":"4","last_reported":1745514566,"current_range_meters":9600,"station_id":"ce4bgt92rcd13ifvqcf0","pricing_plan_id":"cebpf4jnsgd1na2vs0mg"},{"bike_id":"860293f2-27fe-4f9c-b5c3-d42426b100e7","system_id":"levelo_inurba_marseille","lat":43.28624,"lon":5.35094,"is_reserved":false,"is_disabled":false,"rental_uris":{"android":"levelo://app?vid=860293f2-27fe-4f9c-b5c3-d42426b100e7","ios":"levelo://app?vid=860293f2-27fe-4f9c-b5c3-d42426b100e7"},"vehicle_type_id":"4","last_reported":1745514566,"current_range_meters":9600,"station_id":"ce4bhch2rcd13ifvqeug","pricing_plan_id":"cebpf4jnsgd1na2vs0mg"},{"bike_id":"19225b7c-ebac-453a-bf0d-120c4a649d82","system_id":"levelo_inurba_marseille","lat":43.25111,"lon":5.40345,"is_reserved":false,"is_disabled":false,"rental_uris":{"android":"levelo://app?vid=19225b7c-ebac-453a-bf0d-120c4a649d82","ios":"levelo://app?vid=19225b7c-ebac-453a-bf0d-120c4a649d82"},"vehicle_type_id":"4","last_reported":1745514566,"current_range_meters":9200,"station_id":"ce4bhlh2rcd13ifvqgig","pricing_plan_id":"cebpf4jnsgd1na2vs0mg"},{"bike_id":"57c1746e-1026-44c3-82aa-d9584bac1ea2","system_id":"levelo_inurba_marseille","lat":43.23156,"lon":5.43714,"is_reserved":false,"is_disabled":false,"rental_uris":{"android":"levelo://app?vid=57c1746e-1026-44c3-82aa-d9584bac1ea2","ios":"levelo://app?vid=57c1746e-1026-44c3-82aa-d9584bac1ea2"},"vehicle_type_id":"4","last_reported":1745514566,"current_range_meters":9600,"station_id":"ce4bhmp2rcd13ifvqgog","pricing_plan_id":"cebpf4jnsgd1na2vs0mg"},{"bike_id":"e14663b3-9a28-4f59-b0cc-9a23a244e10c","system_id":"levelo_inurba_marseille","lat":43.305859,"lon":5.393603,"is_reserved":false,"is_disabled":false,"rental_uris":{"android":"levelo://app?vid=e14663b3-9a28-4f59-b0cc-9a23a244e10c","ios":"levelo://app?vid=e14663b3-9a28-4f59-b0cc-9a23a244e10c"},"vehicle_type_id":"4","last_reported":1745514566,"current_range_meters":9600,"station_id":"ce4bgjp2rcd13ifvqbh0","pricing_plan_id":"cebpf4jnsgd1na2vs0mg"},{"bike_id":"9b361ae5-1292-4c9f-a13a-0c0766559e30","system_id":"levelo_inurba_marseille","lat":43.286011,"lon":5.351001,"is_reserved":false,"is_disabled":false,"rental_uris":{"android":"levelo://app?vid=9b361ae5-1292-4c9f-a13a-0c0766559e30","ios":"levelo://app?vid=9b361ae5-1292-4c9f-a13a-0c0766559e30"},"vehicle_type_id":"4","last_reported":1745514566,"current_range_meters":9600,"station_id":"","pricing_plan_id":"cebpf4jnsgd1na2vs0mg"},{"bike_id":"13785371-d3c4-4301-989e-291f8e61dbdc","system_id":"levelo_inurba_marseille","lat":43.3038,"lon":5.42491,"is_reserved":false,"is_disabled":false,"rental_uris":{"android":"levelo://app?vid=13785371-d3c4-4301-989e-291f8e61dbdc","ios":"levelo://app?vid=13785371-d3c4-4301-989e-291f8e61dbdc"},"vehicle_type_id":"4","last_reported":1745514566,"current_range_meters":9600,"station_id":"ce4bhoh2rcd13ifvqh6g","pricing_plan_id":"cebpf4jnsgd1na2vs0mg"},{"bike_id":"98943b1b-785d-4f8c-82af-2e37a461d5de","system_id":"levelo_inurba_marseille","lat":43.28708,"lon":5.39989,"is_reserved":false,"is_disabled":false,"rental_uris":{"android":"levelo://app?vid=98943b1b-785d-4f8c-82af-2e37a461d5de","ios":"levelo://app?vid=98943b1b-785d-4f8c-82af-2e37a461d5de"},"vehicle_type_id":"4","last_reported":1745514566,"current_range_meters":10000,"station_id":"ce4bho92rcd13ifvqh3g","pricing_plan_id":"cebpf4jnsgd1na2vs0mg"},{"bike_id":"0eff3019-a570-4612-b727-47ad24d25b94","system_id":"levelo_inurba_marseille","lat":43.29213,"lon":5.35871,"is_reserved":false,"is_disabled":false,"rental_uris":{"android":"levelo://app?vid=0eff3019-a570-4612-b727-47ad24d25b94","ios":"levelo://app?vid=0eff3019-a570-4612-b727-47ad24d25b94"},"vehicle_type_id":"4","last_reported":1745514566,"current_range_meters":10000,"station_id":"ce4bhb12rcd13ifvqel0","pricing_plan_id":"cebpf4jnsgd1na2vs0mg"},{"bike_id":"cb0dfbab-3b20-4172-8022-391a6c0ba013","system_id":"levelo_inurba_marseille","lat":43.29533,"lon":5.38544,"is_reserved":false,"is_disabled":false,"rental_uris":{"android":"levelo://app?vid=cb0dfbab-3b20-4172-8022-391a6c0ba013","ios":"levelo://app?vid=cb0dfbab-3b20-4172-8022-391a6c0ba013"},"vehicle_type_id":"4","last_reported":1745514566,"current_range_meters":10000,"station_id":"ce4bgih2rcd13ifvqba0","pricing_plan_id":"cebpf4jnsgd1na2vs0mg"},{"bike_id":"b036ca28-fc6a-4db4-b649-96f8bc974a5e","system_id":"levelo_inurba_marseille","lat":43.32379,"lon":5.38897,"is_reserved":false,"is_disabled":false,"rental_uris":{"android":"levelo://app?vid=b036ca28-fc6a-4db4-b649-96f8bc974a5e","ios":"levelo://app?vid=b036ca28-fc6a-4db4-b649-96f8bc974a5e"},"vehicle_type_id":"4","last_reported":1745514566,"current_range_meters":10000,"station_id":"ce4bhqp2rcd13ifvqhog","pricing_plan_id":"cebpf4jnsgd1na2vs0mg"},{"bike_id":"eb772212-defc-4543-ad57-fa606af571fb","system_id":"levelo_inurba_marseille","lat":43.23181,"lon":5.40002,"is_reserved":false,"is_disabled":false,"rental_uris":{"android":"levelo://app?vid=eb772212-defc-4543-ad57-fa606af571fb","ios":"levelo://app?vid=eb772212-defc-4543-ad57-fa606af571fb"},"vehicle_type_id":"4","last_reported":1745514566,"current_range_meters":10000,"station_id":"ce4bhn12rcd13ifvqgqg","pricing_plan_id":"cebpf4jnsgd1na2vs0mg"},{"bike_id":"9c04b8e5-8201-4026-b8f2-03acbb42cc6e","system_id":"levelo_inurba_marseille","lat":43.29201,"lon":5.35805,"is_reserved":false,"is_disabled":false,"rental_uris":{"android":"levelo://app?vid=9c04b8e5-8201-4026-b8f2-03acbb42cc6e","ios":"levelo://app?vid=9c04b8e5-8201-4026-b8f2-03acbb42cc6e"},"vehicle_type_id":"4","last_reported":1745514566,"current_range_meters":10000,"station_id":"ce4bhb12rcd13ifvqel0","pricing_plan_id":"cebpf4jnsgd1na2vs0mg"},{"bike_id":"85d7a225-5080-457a-8581-1b2b0e5c70b6","system_id":"levelo_inurba_marseille","lat":43.27994,"lon":5.40009,"is_reserved":false,"is_disabled":false,"rental_uris":{"android":"levelo://app?vid=85d7a225-5080-457a-8581-1b2b0e5c70b6","ios":"levelo://app?vid=85d7a225-5080-457a-8581-1b2b0e5c70b6"},"vehicle_type_id":"4","last_reported":1745514566,"current_range_meters":10000,"station_id":"ce4bho92rcd13ifvqh4g","pricing_plan_id":"cebpf4jnsgd1na2vs0mg"},{"bike_id":"0b596e79-d829-4641-a55c-8c89bd2e7a9b","system_id":"levelo_inurba_marseille","lat":43.30953,"lon":5.39033,"is_reserved":false,"is_disabled":false,"rental_uris":{"android":"levelo://app?vid=0b596e79-d829-4641-a55c-8c89bd2e7a9b","ios":"levelo://app?vid=0b596e79-d829-4641-a55c-8c89bd2e7a9b"},"vehicle_type_id":"4","last_reported":1745514566,"current_range_meters":10800,"station_id":"ce4bgup2rcd13ifvqco0","pricing_plan_id":"cebpf4jnsgd1na2vs0mg"},{"bike_id":"55e298a5-e5fa-4d35-abbd-b43d254d3779","system_id":"levelo_inurba_marseille","lat":43.25584,"lon":5.38231,"is_reserved":false,"is_disabled":false,"rental_uris":{"android":"levelo://app?vid=55e298a5-e5fa-4d35-abbd-b43d254d3779","ios":"levelo://app?vid=55e298a5-e5fa-4d35-abbd-b43d254d3779"},"vehicle_type_id":"4","last_reported":1745514566,"current_range_meters":10800,"station_id":"ce4bhih2rcd13ifvqfs0","pricing_plan_id":"cebpf4jnsgd1na2vs0mg"},{"bike_id":"ba204b31-7251-4ed5-84a4-145dba17f3ef","system_id":"levelo_inurba_marseille","lat":43.25733,"lon":5.41082,"is_reserved":false,"is_disabled":false,"rental_uris":{"android":"levelo://app?vid=ba204b31-7251-4ed5-84a4-145dba17f3ef","ios":"levelo://app?vid=ba204b31-7251-4ed5-84a4-145dba17f3ef"},"vehicle_type_id":"4","last_reported":1745514566,"current_range_meters":10800,"station_id":"ce4bhkp2rcd13ifvqgd0","pricing_plan_id":"cebpf4jnsgd1na2vs0mg"},{"bike_id":"b296757c-99f5-4b09-9766-23f0d281dfe8","system_id":"levelo_inurba_marseille","lat":43.29301,"lon":5.37178,"is_reserved":false,"is_disabled":false,"rental_uris":{"android":"levelo://app?vid=b296757c-99f5-4b09-9766-23f0d281dfe8","ios":"levelo://app?vid=b296757c-99f5-4b09-9766-23f0d281dfe8"},"vehicle_type_id":"4","last_reported":1745514566,"current_range_meters":10800,"station_id":"ce4bgh92rcd13ifvqb40","pricing_plan_id":"cebpf4jnsgd1na2vs0mg"},{"bike_id":"a1e379af-7aa7-42c9-9538-f499a69cb123","system_id":"levelo_inurba_marseille","lat":43.29847,"lon":5.36277,"is_reserved":false,"is_disabled":false,"rental_uris":{"android":"levelo://app?vid=a1e379af-7aa7-42c9-9538-f499a69cb123","ios":"levelo://app?vid=a1e379af-7aa7-42c9-9538-f499a69cb123"},"vehicle_type_id":"4","last_reported":1745514566,"current_range_meters":10800,"station_id":"ce4bgpp2rcd13ifvqc3g","pricing_plan_id":"cebpf4jnsgd1na2vs0mg"},{"bike_id":"46374c49-3adc-4c5a-8966-e00f056c0d57","system_id":"levelo_inurba_marseille","lat":43.27846,"lon":5.35442,"is_reserved":false,"is_disabled":false,"rental_uris":{"android":"levelo://app?vid=46374c49-3adc-4c5a-8966-e00f056c0d57","ios":"levelo://app?vid=46374c49-3adc-4c5a-8966-e00f056c0d57"},"vehicle_type_id":"4","last_reported":1745514566,"current_range_meters":11200,"station_id":"","pricing_plan_id":"cebpf4jnsgd1na2vs0mg"},{"bike_id":"a3617c4b-5f9f-4806-bbdd-abd6e279486b","system_id":"levelo_inurba_marseille","lat":43.29268,"lon":5.3845,"is_reserved":false,"is_disabled":false,"rental_uris":{"android":"levelo://app?vid=a3617c4b-5f9f-4806-bbdd-abd6e279486b","ios":"levelo://app?vid=a3617c4b-5f9f-4806-bbdd-abd6e279486b"},"vehicle_type_id":"4","last_reported":1745514566,"current_range_meters":11200,"station_id":"ce4bh692rcd13ifvqea0","pricing_plan_id":"cebpf4jnsgd1na2vs0mg"},{"bike_id":"a3250006-10bb-4dd4-9b1d-c48cec705c4b","system_id":"levelo_inurba_marseille","lat":43.29527,"lon":5.39037,"is_reserved":false,"is_disabled":false,"rental_uris":{"android":"levelo://app?vid=a3250006-10bb-4dd4-9b1d-c48cec705c4b","ios":"levelo://app?vid=a3250006-10bb-4dd4-9b1d-c48cec705c4b"},"vehicle_type_id":"4","last_reported":1745514566,"current_range_meters":11200,"station_id":"ce4bh3p2rcd13ifvqdp0","pricing_plan_id":"cebpf4jnsgd1na2vs0mg"},{"bike_id":"86b85e60-7547-44c6-b265-d039aa01f430","system_id":"levelo_inurba_marseille","lat":43.30951,"lon":5.3903,"is_reserved":false,"is_disabled":false,"rental_uris":{"android":"levelo://app?vid=86b85e60-7547-44c6-b265-d039aa01f430","ios":"levelo://app?vid=86b85e60-7547-44c6-b265-d039aa01f430"},"vehicle_type_id":"4","last_reported":1745514566,"current_range_meters":11200,"station_id":"ce4bgup2rcd13ifvqco0","pricing_plan_id":"cebpf4jnsgd1na2vs0mg"},{"bike_id":"85e48bf4-87ae-4b34-8827-bdea293fa019","system_id":"levelo_inurba_marseille","lat":43.29418,"lon":5.38623,"is_reserved":false,"is_disabled":false,"rental_uris":{"android":"levelo://app?vid=85e48bf4-87ae-4b34-8827-bdea293fa019","ios":"levelo://app?vid=85e48bf4-87ae-4b34-8827-bdea293fa019"},"vehicle_type_id":"4","last_reported":1745514566,"current_range_meters":11200,"station_id":"ce4bh2h2rcd13ifvqdh0","pricing_plan_id":"cebpf4jnsgd1na2vs0mg"},{"bike_id":"a787061a-51b1-4d8e-8a35-81ce8bbe950f","system_id":"levelo_inurba_marseille","lat":43.292709,"lon":5.401184,"is_reserved":false,"is_disabled":false,"rental_uris":{"android":"levelo://app?vid=a787061a-51b1-4d8e-8a35-81ce8bbe950f","ios":"levelo://app?vid=a787061a-51b1-4d8e-8a35-81ce8bbe950f"},"vehicle_type_id":"4","last_reported":1745514566,"current_range_meters":11200,"station_id":"ce4bhnh2rcd13ifvqgtg","pricing_plan_id":"cebpf4jnsgd1na2vs0mg"},{"bike_id":"0c5a5817-48fb-40c3-baa3-2bbf8b93ca12","system_id":"levelo_inurba_marseille","lat":43.30905,"lon":5.36851,"is_reserved":false,"is_disabled":false,"rental_uris":{"android":"levelo://app?vid=0c5a5817-48fb-40c3-baa3-2bbf8b93ca12","ios":"levelo://app?vid=0c5a5817-48fb-40c3-baa3-2bbf8b93ca12"},"vehicle_type_id":"4","last_reported":1745514566,"current_range_meters":11200,"station_id":"ce4bgn92rcd13ifvqbvg","pricing_plan_id":"cebpf4jnsgd1na2vs0mg"},{"bike_id":"8ff7dbff-9b72-4743-acfc-666fa9c3c84d","system_id":"levelo_inurba_marseille","lat":43.29272,"lon":5.38447,"is_reserved":false,"is_disabled":false,"rental_uris":{"android":"levelo://app?vid=8ff7dbff-9b72-4743-acfc-666fa9c3c84d","ios":"levelo://app?vid=8ff7dbff-9b72-4743-acfc-666fa9c3c84d"},"vehicle_type_id":"4","last_reported":1745514566,"current_range_meters":11600,"station_id":"ce4bh692rcd13ifvqea0","pricing_plan_id":"cebpf4jnsgd1na2vs0mg"},{"bike_id":"7a5f1962-6ac2-4a45-a8a4-912b5ae10cab","system_id":"levelo_inurba_marseille","lat":43.29532,"lon":5.38551,"is_reserved":false,"is_disabled":false,"rental_uris":{"android":"levelo://app?vid=7a5f1962-6ac2-4a45-a8a4-912b5ae10cab","ios":"levelo://app?vid=7a5f1962-6ac2-4a45-a8a4-912b5ae10cab"},"vehicle_type_id":"4","last_reported":1745514566,"current_range_meters":11600,"station_id":"ce4bgih2rcd13ifvqba0","pricing_plan_id":"cebpf4jnsgd1na2vs0mg"},{"bike_id":"a83ce7d4-41a0-484f-b9d3-3c266416c61f","system_id":"levelo_inurba_marseille","lat":43.24997,"lon":5.38934,"is_reserved":false,"is_disabled":false,"rental_uris":{"android":"levelo://app?vid=a83ce7d4-41a0-484f-b9d3-3c266416c61f","ios":"levelo://app?vid=a83ce7d4-41a0-484f-b9d3-3c266416c61f"},"vehicle_type_id":"4","last_reported":1745514566,"current_range_meters":11600,"station_id":"ce4bhgp2rcd13ifvqfd0","pricing_plan_id":"cebpf4jnsgd1na2vs0mg"},{"bike_id":"4eecd96c-f60f-458f-826e-58deeafb79af","system_id":"levelo_inurba_marseille","lat":43.25118,"lon":5.40317,"is_reserved":false,"is_disabled":false,"rental_uris":{"android":"levelo://app?vid=4eecd96c-f60f-458f-826e-58deeafb79af","ios":"levelo://app?vid=4eecd96c-f60f-458f-826e-58deeafb79af"},"vehicle_type_id":"4","last_reported":1745514566,"current_range_meters":11600,"station_id":"ce4bhlh2rcd13ifvqgig","pricing_plan_id":"cebpf4jnsgd1na2vs0mg"},{"bike_id":"a98f3a1d-c3ed-4418-aa74-373692a0d244","system_id":"levelo_inurba_marseille","lat":43.29559,"lon":5.42299,"is_reserved":false,"is_disabled":false,"rental_uris":{"android":"levelo://app?vid=a98f3a1d-c3ed-4418-aa74-373692a0d244","ios":"levelo://app?vid=a98f3a1d-c3ed-4418-aa74-373692a0d244"},"vehicle_type_id":"4","last_reported":1745514566,"current_range_meters":11600,"station_id":"ce4bhph2rcd13ifvqhdg","pricing_plan_id":"cebpf4jnsgd1na2vs0mg"},{"bike_id":"8ca840ed-54a8-47c2-8195-51bfd3d80f3c","system_id":"levelo_inurba_marseille","lat":43.28455,"lon":5.35905,"is_reserved":false,"is_disabled":false,"rental_uris":{"android":"levelo://app?vid=8ca840ed-54a8-47c2-8195-51bfd3d80f3c","ios":"levelo://app?vid=8ca840ed-54a8-47c2-8195-51bfd3d80f3c"},"vehicle_type_id":"4","last_reported":1745514566,"current_range_meters":12000,"station_id":"ce4bhah2rcd13ifvqei0","pricing_plan_id":"cebpf4jnsgd1na2vs0mg"},{"bike_id":"d4a8fafa-88a7-48bf-b5a7-839e5bc03db8","system_id":"levelo_inurba_marseille","lat":43.25007,"lon":5.38931,"is_reserved":false,"is_disabled":true,"rental_uris":{"android":"levelo://app?vid=d4a8fafa-88a7-48bf-b5a7-839e5bc03db8","ios":"levelo://app?vid=d4a8fafa-88a7-48bf-b5a7-839e5bc03db8"},"vehicle_type_id":"4","last_reported":1745514566,"current_range_meters":12000,"station_id":"ce4bhgp2rcd13ifvqfd0","pricing_plan_id":"cebpf4jnsgd1na2vs0mg"},{"bike_id":"a086b419-5cc2-4c2d-8c0e-aac366cc25bf","system_id":"levelo_inurba_marseille","lat":43.292283,"lon":5.360391,"is_reserved":false,"is_disabled":false,"rental_uris":{"android":"levelo://app?vid=a086b419-5cc2-4c2d-8c0e-aac366cc25bf","ios":"levelo://app?vid=a086b419-5cc2-4c2d-8c0e-aac366cc25bf"},"vehicle_type_id":"4","last_reported":1745514566,"current_range_meters":12400,"station_id":"ce4bhbh2rcd13ifvqeqg","pricing_plan_id":"cebpf4jnsgd1na2vs0mg"},{"bike_id":"cf2f1b21-5458-46f9-9ace-163b8ef6f98c","system_id":"levelo_inurba_marseille","lat":43.26062,"lon":5.39408,"is_reserved":false,"is_disabled":false,"rental_uris":{"android":"levelo://app?vid=cf2f1b21-5458-46f9-9ace-163b8ef6f98c","ios":"levelo://app?vid=cf2f1b21-5458-46f9-9ace-163b8ef6f98c"},"vehicle_type_id":"4","last_reported":1745514566,"current_range_meters":12800,"station_id":"ce4bhh92rcd13ifvqfj0","pricing_plan_id":"cebpf4jnsgd1na2vs0mg"},{"bike_id":"e6e7f4b4-f889-4493-98dd-d381a72cc71c","system_id":"levelo_inurba_marseille","lat":43.24999,"lon":5.38931,"is_reserved":false,"is_disabled":false,"rental_uris":{"android":"levelo://app?vid=e6e7f4b4-f889-4493-98dd-d381a72cc71c","ios":"levelo://app?vid=e6e7f4b4-f889-4493-98dd-d381a72cc71c"},"vehicle_type_id":"4","last_reported":1745514566,"current_range_meters":12400,"station_id":"ce4bhgp2rcd13ifvqfd0","pricing_plan_id":"cebpf4jnsgd1na2vs0mg"},{"bike_id":"5e40cc70-657c-4d84-8989-b96598c4ac86","system_id":"levelo_inurba_marseille","lat":43.29421,"lon":5.38626,"is_reserved":false,"is_disabled":false,"rental_uris":{"android":"levelo://app?vid=5e40cc70-657c-4d84-8989-b96598c4ac86","ios":"levelo://app?vid=5e40cc70-657c-4d84-8989-b96598c4ac86"},"vehicle_type_id":"4","last_reported":1745514566,"current_range_meters":12800,"station_id":"ce4bh2h2rcd13ifvqdh0","pricing_plan_id":"cebpf4jnsgd1na2vs0mg"},{"bike_id":"beaf5be2-6424-4741-b2f1-c5416dab44be","system_id":"levelo_inurba_marseille","lat":43.28999,"lon":5.35604,"is_reserved":false,"is_disabled":false,"rental_uris":{"android":"levelo://app?vid=beaf5be2-6424-4741-b2f1-c5416dab44be","ios":"levelo://app?vid=beaf5be2-6424-4741-b2f1-c5416dab44be"},"vehicle_type_id":"4","last_reported":1745514566,"current_range_meters":12800,"station_id":"ce4bhb92rcd13ifvqen0","pricing_plan_id":"cebpf4jnsgd1na2vs0mg"},{"bike_id":"3a41a14b-b60d-411c-aa4a-3b7d3df773ad","system_id":"levelo_inurba_marseille","lat":43.30207,"lon":5.36622,"is_reserved":false,"is_disabled":true,"rental_uris":{"android":"levelo://app?vid=3a41a14b-b60d-411c-aa4a-3b7d3df773ad","ios":"levelo://app?vid=3a41a14b-b60d-411c-aa4a-3b7d3df773ad"},"vehicle_type_id":"4","last_reported":1745514566,"current_range_meters":12800,"station_id":"ce4bgrh2rcd13ifvqc8g","pricing_plan_id":"cebpf4jnsgd1na2vs0mg"},{"bike_id":"a8055b3e-5c5e-409f-bf3e-945c2e1e47f0","system_id":"levelo_inurba_marseille","lat":43.28577,"lon":5.39496,"is_reserved":false,"is_disabled":false,"rental_uris":{"android":"levelo://app?vid=a8055b3e-5c5e-409f-bf3e-945c2e1e47f0","ios":"levelo://app?vid=a8055b3e-5c5e-409f-bf3e-945c2e1e47f0"},"vehicle_type_id":"4","last_reported":1745514566,"current_range_meters":12800,"station_id":"ce4bh292rcd13ifvqdg0","pricing_plan_id":"cebpf4jnsgd1na2vs0mg"},{"bike_id":"9d375dcb-f294-475a-b8f0-f76fde84dc27","system_id":"levelo_inurba_marseille","lat":43.25503,"lon":5.3765,"is_reserved":false,"is_disabled":false,"rental_uris":{"android":"levelo://app?vid=9d375dcb-f294-475a-b8f0-f76fde84dc27","ios":"levelo://app?vid=9d375dcb-f294-475a-b8f0-f76fde84dc27"},"vehicle_type_id":"4","last_reported":1745514566,"current_range_meters":13600,"station_id":"ce4bhh12rcd13ifvqff0","pricing_plan_id":"cebpf4jnsgd1na2vs0mg"},{"bike_id":"1e0a6b0a-9d7f-4910-855b-ce39bcef24d7","system_id":"levelo_inurba_marseille","lat":43.25502,"lon":5.37654,"is_reserved":false,"is_disabled":false,"rental_uris":{"android":"levelo://app?vid=1e0a6b0a-9d7f-4910-855b-ce39bcef24d7","ios":"levelo://app?vid=1e0a6b0a-9d7f-4910-855b-ce39bcef24d7"},"vehicle_type_id":"4","last_reported":1745514566,"current_range_meters":13600,"station_id":"ce4bhh12rcd13ifvqff0","pricing_plan_id":"cebpf4jnsgd1na2vs0mg"},{"bike_id":"9ddf901c-17b7-41a5-ab10-51e5206ab36e","system_id":"levelo_inurba_marseille","lat":43.33016,"lon":5.39031,"is_reserved":false,"is_disabled":false,"rental_uris":{"android":"levelo://app?vid=9ddf901c-17b7-41a5-ab10-51e5206ab36e","ios":"levelo://app?vid=9ddf901c-17b7-41a5-ab10-51e5206ab36e"},"vehicle_type_id":"4","last_reported":1745514566,"current_range_meters":13600,"station_id":"ce4bhr92rcd13ifvqhrg","pricing_plan_id":"cebpf4jnsgd1na2vs0mg"},{"bike_id":"fa8a552a-d2d3-4e8d-8d8e-02bdba037836","system_id":"levelo_inurba_marseille","lat":43.23062,"lon":5.35522,"is_reserved":false,"is_disabled":false,"rental_uris":{"android":"levelo://app?vid=fa8a552a-d2d3-4e8d-8d8e-02bdba037836","ios":"levelo://app?vid=fa8a552a-d2d3-4e8d-8d8e-02bdba037836"},"vehicle_type_id":"4","last_reported":1745514566,"current_range_meters":13600,"station_id":"cpo3342slgdg3j2ifvpg","pricing_plan_id":"cebpf4jnsgd1na2vs0mg"},{"bike_id":"03e3b6f1-d450-4bc9-be1f-211495b294e9","system_id":"levelo_inurba_marseille","lat":43.288825,"lon":5.39988,"is_reserved":false,"is_disabled":false,"rental_uris":{"android":"levelo://app?vid=03e3b6f1-d450-4bc9-be1f-211495b294e9","ios":"levelo://app?vid=03e3b6f1-d450-4bc9-be1f-211495b294e9"},"vehicle_type_id":"4","last_reported":1745514566,"current_range_meters":13600,"station_id":"","pricing_plan_id":"cebpf4jnsgd1na2vs0mg"},{"bike_id":"db8a53c7-b089-470e-8a03-245b4586519e","system_id":"levelo_inurba_marseille","lat":43.31086,"lon":5.42431,"is_reserved":false,"is_disabled":false,"rental_uris":{"android":"levelo://app?vid=db8a53c7-b089-470e-8a03-245b4586519e","ios":"levelo://app?vid=db8a53c7-b089-470e-8a03-245b4586519e"},"vehicle_type_id":"4","last_reported":1745514566,"current_range_meters":13600,"station_id":"ce4bhp92rcd13ifvqhag","pricing_plan_id":"cebpf4jnsgd1na2vs0mg"},{"bike_id":"6c07701a-8c9d-42b3-88f5-7017a41eecdf","system_id":"levelo_inurba_marseille","lat":43.29518,"lon":5.390288,"is_reserved":false,"is_disabled":false,"rental_uris":{"android":"levelo://app?vid=6c07701a-8c9d-42b3-88f5-7017a41eecdf","ios":"levelo://app?vid=6c07701a-8c9d-42b3-88f5-7017a41eecdf"},"vehicle_type_id":"4","last_reported":1745514566,"current_range_meters":14000,"station_id":"ce4bh3p2rcd13ifvqdp0","pricing_plan_id":"cebpf4jnsgd1na2vs0mg"},{"bike_id":"679f8d52-0af2-484b-a073-8990297a8824","system_id":"levelo_inurba_marseille","lat":43.29421,"lon":5.38627,"is_reserved":false,"is_disabled":false,"rental_uris":{"android":"levelo://app?vid=679f8d52-0af2-484b-a073-8990297a8824","ios":"levelo://app?vid=679f8d52-0af2-484b-a073-8990297a8824"},"vehicle_type_id":"4","last_reported":1745514566,"current_range_meters":14000,"station_id":"ce4bh2h2rcd13ifvqdh0","pricing_plan_id":"cebpf4jnsgd1na2vs0mg"},{"bike_id":"e8dd8099-bd38-4cee-a200-8610b5ec8717","system_id":"levelo_inurba_marseille","lat":43.3171,"lon":5.3775,"is_reserved":false,"is_disabled":false,"rental_uris":{"android":"levelo://app?vid=e8dd8099-bd38-4cee-a200-8610b5ec8717","ios":"levelo://app?vid=e8dd8099-bd38-4cee-a200-8610b5ec8717"},"vehicle_type_id":"4","last_reported":1745514566,"current_range_meters":14400,"station_id":"ce4bgth2rcd13ifvqch0","pricing_plan_id":"cebpf4jnsgd1na2vs0mg"},{"bike_id":"6645cf4e-aa02-4ba6-a367-a8f1c95065b1","system_id":"levelo_inurba_marseille","lat":43.27818,"lon":5.40717,"is_reserved":false,"is_disabled":false,"rental_uris":{"android":"levelo://app?vid=6645cf4e-aa02-4ba6-a367-a8f1c95065b1","ios":"levelo://app?vid=6645cf4e-aa02-4ba6-a367-a8f1c95065b1"},"vehicle_type_id":"4","last_reported":1745514566,"current_range_meters":14000,"station_id":"ce4bhnh2rcd13ifvqgtg","pricing_plan_id":"cebpf4jnsgd1na2vs0mg"},{"bike_id":"f08e3cf5-5f20-40cd-bf46-12b43a36aae2","system_id":"levelo_inurba_marseille","lat":43.30141,"lon":5.39884,"is_reserved":false,"is_disabled":false,"rental_uris":{"android":"levelo://app?vid=f08e3cf5-5f20-40cd-bf46-12b43a36aae2","ios":"levelo://app?vid=f08e3cf5-5f20-40cd-bf46-12b43a36aae2"},"vehicle_type_id":"4","last_reported":1745514566,"current_range_meters":14400,"station_id":"ce4bh0h2rcd13ifvqd40","pricing_plan_id":"cebpf4jnsgd1na2vs0mg"},{"bike_id":"8a5d7b86-c44b-4f71-b2b3-7247a98a0bbc","system_id":"levelo_inurba_marseille","lat":43.29527,"lon":5.38548,"is_reserved":false,"is_disabled":false,"rental_uris":{"android":"levelo://app?vid=8a5d7b86-c44b-4f71-b2b3-7247a98a0bbc","ios":"levelo://app?vid=8a5d7b86-c44b-4f71-b2b3-7247a98a0bbc"},"vehicle_type_id":"4","last_reported":1745514566,"current_range_meters":14400,"station_id":"ce4bgih2rcd13ifvqba0","pricing_plan_id":"cebpf4jnsgd1na2vs0mg"},{"bike_id":"5295da65-1132-42a5-bbcc-fbe0fc9a5dd0","system_id":"levelo_inurba_marseille","lat":43.297876,"lon":5.393516,"is_reserved":false,"is_disabled":false,"rental_uris":{"android":"levelo://app?vid=5295da65-1132-42a5-bbcc-fbe0fc9a5dd0","ios":"levelo://app?vid=5295da65-1132-42a5-bbcc-fbe0fc9a5dd0"},"vehicle_type_id":"4","last_reported":1745514566,"current_range_meters":14400,"station_id":"chh1huq6cuj3fo74tm60","pricing_plan_id":"cebpf4jnsgd1na2vs0mg"},{"bike_id":"389081e5-a59f-4bb8-ae5b-d14b07648eda","system_id":"levelo_inurba_marseille","lat":43.251127,"lon":5.403323,"is_reserved":false,"is_disabled":true,"rental_uris":{"android":"levelo://app?vid=389081e5-a59f-4bb8-ae5b-d14b07648eda","ios":"levelo://app?vid=389081e5-a59f-4bb8-ae5b-d14b07648eda"},"vehicle_type_id":"4","last_reported":1745514566,"current_range_meters":14400,"station_id":"ce4bhlh2rcd13ifvqgig","pricing_plan_id":"cebpf4jnsgd1na2vs0mg"},{"bike_id":"43960bf7-5815-47eb-a37f-dc49337c3a9b","system_id":"levelo_inurba_marseille","lat":43.29868,"lon":5.36288,"is_reserved":false,"is_disabled":true,"rental_uris":{"android":"levelo://app?vid=43960bf7-5815-47eb-a37f-dc49337c3a9b","ios":"levelo://app?vid=43960bf7-5815-47eb-a37f-dc49337c3a9b"},"vehicle_type_id":"4","last_reported":1745514566,"current_range_meters":14800,"station_id":"ce4bgpp2rcd13ifvqc3g","pricing_plan_id":"cebpf4jnsgd1na2vs0mg"},{"bike_id":"de99c1b6-e741-4d1f-b40f-3e1de0510430","system_id":"levelo_inurba_marseille","lat":43.23962,"lon":5.36645,"is_reserved":false,"is_disabled":false,"rental_uris":{"android":"levelo://app?vid=de99c1b6-e741-4d1f-b40f-3e1de0510430","ios":"levelo://app?vid=de99c1b6-e741-4d1f-b40f-3e1de0510430"},"vehicle_type_id":"4","last_reported":1745514566,"current_range_meters":14800,"station_id":"ce4bhi12rcd13ifvqfp0","pricing_plan_id":"cebpf4jnsgd1na2vs0mg"},{"bike_id":"1d1663cf-5f0e-4f36-b8ce-c7aedf8c6474","system_id":"levelo_inurba_marseille","lat":43.30808,"lon":5.38163,"is_reserved":false,"is_disabled":false,"rental_uris":{"android":"levelo://app?vid=1d1663cf-5f0e-4f36-b8ce-c7aedf8c6474","ios":"levelo://app?vid=1d1663cf-5f0e-4f36-b8ce-c7aedf8c6474"},"vehicle_type_id":"4","last_reported":1745514566,"current_range_meters":14800,"station_id":"ce4bgt12rcd13ifvqce0","pricing_plan_id":"cebpf4jnsgd1na2vs0mg"},{"bike_id":"e29480e0-99d8-4a03-b84b-2bf5768704a1","system_id":"levelo_inurba_marseille","lat":43.31729,"lon":5.42396,"is_reserved":false,"is_disabled":false,"rental_uris":{"android":"levelo://app?vid=e29480e0-99d8-4a03-b84b-2bf5768704a1","ios":"levelo://app?vid=e29480e0-99d8-4a03-b84b-2bf5768704a1"},"vehicle_type_id":"4","last_reported":1745514566,"current_range_meters":14800,"station_id":"ce4bhp92rcd13ifvqhbg","pricing_plan_id":"cebpf4jnsgd1na2vs0mg"},{"bike_id":"6586096a-d64d-4916-b656-fb8e4b28c6a9","system_id":"levelo_inurba_marseille","lat":43.29013,"lon":5.3561,"is_reserved":false,"is_disabled":false,"rental_uris":{"android":"levelo://app?vid=6586096a-d64d-4916-b656-fb8e4b28c6a9","ios":"levelo://app?vid=6586096a-d64d-4916-b656-fb8e4b28c6a9"},"vehicle_type_id":"4","last_reported":1745514566,"current_range_meters":15200,"station_id":"ce4bhb92rcd13ifvqen0","pricing_plan_id":"cebpf4jnsgd1na2vs0mg"},{"bike_id":"39854b98-4c50-4dd6-923a-b6e310c805c8","system_id":"levelo_inurba_marseille","lat":43.31328,"lon":5.39687,"is_reserved":false,"is_disabled":false,"rental_uris":{"android":"levelo://app?vid=39854b98-4c50-4dd6-923a-b6e310c805c8","ios":"levelo://app?vid=39854b98-4c50-4dd6-923a-b6e310c805c8"},"vehicle_type_id":"4","last_reported":1745514566,"current_range_meters":15200,"station_id":"ce4bgvp2rcd13ifvqcu0","pricing_plan_id":"cebpf4jnsgd1na2vs0mg"},{"bike_id":"2bd03537-7c8c-4014-8f10-d90f6eead29e","system_id":"levelo_inurba_marseille","lat":43.31371,"lon":5.38488,"is_reserved":false,"is_disabled":false,"rental_uris":{"android":"levelo://app?vid=2bd03537-7c8c-4014-8f10-d90f6eead29e","ios":"levelo://app?vid=2bd03537-7c8c-4014-8f10-d90f6eead29e"},"vehicle_type_id":"4","last_reported":1745514566,"current_range_meters":15200,"station_id":"ce4bgt92rcd13ifvqcf0","pricing_plan_id":"cebpf4jnsgd1na2vs0mg"},{"bike_id":"70af7c90-13e8-4b2c-b1bc-b3e98d8c9201","system_id":"levelo_inurba_marseille","lat":43.29713,"lon":5.36601,"is_reserved":false,"is_disabled":false,"rental_uris":{"android":"levelo://app?vid=70af7c90-13e8-4b2c-b1bc-b3e98d8c9201","ios":"levelo://app?vid=70af7c90-13e8-4b2c-b1bc-b3e98d8c9201"},"vehicle_type_id":"4","last_reported":1745514566,"current_range_meters":15200,"station_id":"ce4bgn12rcd13ifvqbt0","pricing_plan_id":"cebpf4jnsgd1na2vs0mg"},{"bike_id":"f55c04a9-94d3-41a3-87c8-d89781493120","system_id":"levelo_inurba_marseille","lat":43.28856,"lon":5.35854,"is_reserved":false,"is_disabled":false,"rental_uris":{"android":"levelo://app?vid=f55c04a9-94d3-41a3-87c8-d89781493120","ios":"levelo://app?vid=f55c04a9-94d3-41a3-87c8-d89781493120"},"vehicle_type_id":"4","last_reported":1745514566,"current_range_meters":15200,"station_id":"ce4bhb12rcd13ifvqem0","pricing_plan_id":"cebpf4jnsgd1na2vs0mg"},{"bike_id":"af1faf97-b2e4-4056-9390-22a501c7b2a3","system_id":"levelo_inurba_marseille","lat":43.31532,"lon":5.3804,"is_reserved":false,"is_disabled":false,"rental_uris":{"android":"levelo://app?vid=af1faf97-b2e4-4056-9390-22a501c7b2a3","ios":"levelo://app?vid=af1faf97-b2e4-4056-9390-22a501c7b2a3"},"vehicle_type_id":"4","last_reported":1745514566,"current_range_meters":14800,"station_id":"ce4bhsp2rcd13ifvqi50","pricing_plan_id":"cebpf4jnsgd1na2vs0mg"},{"bike_id":"ec30c27c-48ca-44b5-b64c-3dd3dfeb5f53","system_id":"levelo_inurba_marseille","lat":43.23972,"lon":5.36657,"is_reserved":false,"is_disabled":false,"rental_uris":{"android":"levelo://app?vid=ec30c27c-48ca-44b5-b64c-3dd3dfeb5f53","ios":"levelo://app?vid=ec30c27c-48ca-44b5-b64c-3dd3dfeb5f53"},"vehicle_type_id":"4","last_reported":1745514566,"current_range_meters":15200,"station_id":"ce4bhi12rcd13ifvqfp0","pricing_plan_id":"cebpf4jnsgd1na2vs0mg"},{"bike_id":"1a9b9ba2-6e5a-4697-beb7-5c65923a8b43","system_id":"levelo_inurba_marseille","lat":43.26774,"lon":5.39419,"is_reserved":false,"is_disabled":true,"rental_uris":{"android":"levelo://app?vid=1a9b9ba2-6e5a-4697-beb7-5c65923a8b43","ios":"levelo://app?vid=1a9b9ba2-6e5a-4697-beb7-5c65923a8b43"},"vehicle_type_id":"4","last_reported":1745514566,"current_range_meters":16000,"station_id":"ce4bhh12rcd13ifvqfg0","pricing_plan_id":"cebpf4jnsgd1na2vs0mg"},{"bike_id":"3d4950b0-64ae-46be-86a1-3d30ed0f3a7d","system_id":"levelo_inurba_marseille","lat":43.25585,"lon":5.3823,"is_reserved":false,"is_disabled":false,"rental_uris":{"android":"levelo://app?vid=3d4950b0-64ae-46be-86a1-3d30ed0f3a7d","ios":"levelo://app?vid=3d4950b0-64ae-46be-86a1-3d30ed0f3a7d"},"vehicle_type_id":"4","last_reported":1745514566,"current_range_meters":16000,"station_id":"ce4bhih2rcd13ifvqfs0","pricing_plan_id":"cebpf4jnsgd1na2vs0mg"},{"bike_id":"cd906bce-52be-45be-8f08-cdeb623de131","system_id":"levelo_inurba_marseille","lat":43.281825,"lon":5.403854,"is_reserved":false,"is_disabled":false,"rental_uris":{"android":"levelo://app?vid=cd906bce-52be-45be-8f08-cdeb623de131","ios":"levelo://app?vid=cd906bce-52be-45be-8f08-cdeb623de131"},"vehicle_type_id":"4","last_reported":1745514566,"current_range_meters":16000,"station_id":"","pricing_plan_id":"cebpf4jnsgd1na2vs0mg"},{"bike_id":"24d894ab-7267-4b40-99af-b1bffdb7623b","system_id":"levelo_inurba_marseille","lat":43.304206,"lon":5.412862,"is_reserved":false,"is_disabled":false,"rental_uris":{"android":"levelo://app?vid=24d894ab-7267-4b40-99af-b1bffdb7623b","ios":"levelo://app?vid=24d894ab-7267-4b40-99af-b1bffdb7623b"},"vehicle_type_id":"4","last_reported":1745514566,"current_range_meters":16000,"station_id":"ce4bhop2rcd13ifvqh8g","pricing_plan_id":"cebpf4jnsgd1na2vs0mg"},{"bike_id":"35fb6e9b-4b58-4222-a1ae-a96b72c3d67f","system_id":"levelo_inurba_marseille","lat":43.292727,"lon":5.384358,"is_reserved":false,"is_disabled":false,"rental_uris":{"android":"levelo://app?vid=35fb6e9b-4b58-4222-a1ae-a96b72c3d67f","ios":"levelo://app?vid=35fb6e9b-4b58-4222-a1ae-a96b72c3d67f"},"vehicle_type_id":"4","last_reported":1745514566,"current_range_meters":16000,"station_id":"ce4bh692rcd13ifvqea0","pricing_plan_id":"cebpf4jnsgd1na2vs0mg"},{"bike_id":"7c81e5e8-1956-4ba2-985d-6074bbba1221","system_id":"levelo_inurba_marseille","lat":43.24079,"lon":5.37762,"is_reserved":false,"is_disabled":false,"rental_uris":{"android":"levelo://app?vid=7c81e5e8-1956-4ba2-985d-6074bbba1221","ios":"levelo://app?vid=7c81e5e8-1956-4ba2-985d-6074bbba1221"},"vehicle_type_id":"4","last_reported":1745514566,"current_range_meters":16000,"station_id":"ce4bhnp2rcd13ifvqgvg","pricing_plan_id":"cebpf4jnsgd1na2vs0mg"},{"bike_id":"e82d22a2-8183-4f18-84f2-77ae41842597","system_id":"levelo_inurba_marseille","lat":43.28623,"lon":5.35105,"is_reserved":false,"is_disabled":false,"rental_uris":{"android":"levelo://app?vid=e82d22a2-8183-4f18-84f2-77ae41842597","ios":"levelo://app?vid=e82d22a2-8183-4f18-84f2-77ae41842597"},"vehicle_type_id":"4","last_reported":1745514566,"current_range_meters":16000,"station_id":"ce4bhch2rcd13ifvqeug","pricing_plan_id":"cebpf4jnsgd1na2vs0mg"},{"bike_id":"e679a61b-cc1b-4cd9-a119-333b5d6ff72e","system_id":"levelo_inurba_marseille","lat":43.29196,"lon":5.35798,"is_reserved":false,"is_disabled":false,"rental_uris":{"android":"levelo://app?vid=e679a61b-cc1b-4cd9-a119-333b5d6ff72e","ios":"levelo://app?vid=e679a61b-cc1b-4cd9-a119-333b5d6ff72e"},"vehicle_type_id":"4","last_reported":1745514566,"current_range_meters":15200,"station_id":"ce4bhb12rcd13ifvqel0","pricing_plan_id":"cebpf4jnsgd1na2vs0mg"},{"bike_id":"bbf1fd7e-6e97-4e5a-b9fe-850ad978796f","system_id":"levelo_inurba_marseille","lat":43.30421,"lon":5.41289,"is_reserved":false,"is_disabled":false,"rental_uris":{"android":"levelo://app?vid=bbf1fd7e-6e97-4e5a-b9fe-850ad978796f","ios":"levelo://app?vid=bbf1fd7e-6e97-4e5a-b9fe-850ad978796f"},"vehicle_type_id":"4","last_reported":1745514566,"current_range_meters":16000,"station_id":"ce4bhop2rcd13ifvqh8g","pricing_plan_id":"cebpf4jnsgd1na2vs0mg"},{"bike_id":"cb28eabc-c696-45ea-9191-5a925b6ee6da","system_id":"levelo_inurba_marseille","lat":43.28621,"lon":5.35095,"is_reserved":false,"is_disabled":false,"rental_uris":{"android":"levelo://app?vid=cb28eabc-c696-45ea-9191-5a925b6ee6da","ios":"levelo://app?vid=cb28eabc-c696-45ea-9191-5a925b6ee6da"},"vehicle_type_id":"4","last_reported":1745514566,"current_range_meters":16400,"station_id":"ce4bhch2rcd13ifvqeug","pricing_plan_id":"cebpf4jnsgd1na2vs0mg"},{"bike_id":"ab4e3eab-a6e3-47d7-8615-ebd5854623f1","system_id":"levelo_inurba_marseille","lat":43.28416,"lon":5.34987,"is_reserved":false,"is_disabled":false,"rental_uris":{"android":"levelo://app?vid=ab4e3eab-a6e3-47d7-8615-ebd5854623f1","ios":"levelo://app?vid=ab4e3eab-a6e3-47d7-8615-ebd5854623f1"},"vehicle_type_id":"4","last_reported":1745514566,"current_range_meters":16400,"station_id":"ce4bhbh2rcd13ifvqepg","pricing_plan_id":"cebpf4jnsgd1na2vs0mg"},{"bike_id":"0ab4acae-08a5-4dae-9606-513acd13fa91","system_id":"levelo_inurba_marseille","lat":43.23084,"lon":5.35507,"is_reserved":false,"is_disabled":false,"rental_uris":{"android":"levelo://app?vid=0ab4acae-08a5-4dae-9606-513acd13fa91","ios":"levelo://app?vid=0ab4acae-08a5-4dae-9606-513acd13fa91"},"vehicle_type_id":"4","last_reported":1745514566,"current_range_meters":16400,"station_id":"cpo3342slgdg3j2ifvpg","pricing_plan_id":"cebpf4jnsgd1na2vs0mg"},{"bike_id":"7f5db532-4e4a-457a-842d-6fae05cae46d","system_id":"levelo_inurba_marseille","lat":43.30791,"lon":5.43529,"is_reserved":false,"is_disabled":false,"rental_uris":{"android":"levelo://app?vid=7f5db532-4e4a-457a-842d-6fae05cae46d","ios":"levelo://app?vid=7f5db532-4e4a-457a-842d-6fae05cae46d"},"vehicle_type_id":"4","last_reported":1745514566,"current_range_meters":16400,"station_id":"ce4bhph2rcd13ifvqheg","pricing_plan_id":"cebpf4jnsgd1na2vs0mg"},{"bike_id":"890b1379-e795-4dc3-8d42-a0177b434996","system_id":"levelo_inurba_marseille","lat":43.28637,"lon":5.37051,"is_reserved":false,"is_disabled":false,"rental_uris":{"android":"levelo://app?vid=890b1379-e795-4dc3-8d42-a0177b434996","ios":"levelo://app?vid=890b1379-e795-4dc3-8d42-a0177b434996"},"vehicle_type_id":"4","last_reported":1745514566,"current_range_meters":16400,"station_id":"ce4bht12rcd13ifvqi60","pricing_plan_id":"cebpf4jnsgd1na2vs0mg"},{"bike_id":"2b7c1c07-781f-45f2-8e8d-d7642ca62979","system_id":"levelo_inurba_marseille","lat":43.28939,"lon":5.36396,"is_reserved":false,"is_disabled":false,"rental_uris":{"android":"levelo://app?vid=2b7c1c07-781f-45f2-8e8d-d7642ca62979","ios":"levelo://app?vid=2b7c1c07-781f-45f2-8e8d-d7642ca62979"},"vehicle_type_id":"4","last_reported":1745514566,"current_range_meters":16400,"station_id":"ce4bhc92rcd13ifvqetg","pricing_plan_id":"cebpf4jnsgd1na2vs0mg"},{"bike_id":"150cd8d6-9cc4-4dae-973f-315d971f00cf","system_id":"levelo_inurba_marseille","lat":43.29423,"lon":5.38622,"is_reserved":false,"is_disabled":false,"rental_uris":{"android":"levelo://app?vid=150cd8d6-9cc4-4dae-973f-315d971f00cf","ios":"levelo://app?vid=150cd8d6-9cc4-4dae-973f-315d971f00cf"},"vehicle_type_id":"4","last_reported":1745514566,"current_range_meters":16400,"station_id":"ce4bh2h2rcd13ifvqdh0","pricing_plan_id":"cebpf4jnsgd1na2vs0mg"},{"bike_id":"51c8b588-fd6d-40a7-b889-17f5ee30e311","system_id":"levelo_inurba_marseille","lat":43.30397,"lon":5.41251,"is_reserved":false,"is_disabled":false,"rental_uris":{"android":"levelo://app?vid=51c8b588-fd6d-40a7-b889-17f5ee30e311","ios":"levelo://app?vid=51c8b588-fd6d-40a7-b889-17f5ee30e311"},"vehicle_type_id":"4","last_reported":1745514566,"current_range_meters":16800,"station_id":"ce4bhop2rcd13ifvqh8g","pricing_plan_id":"cebpf4jnsgd1na2vs0mg"},{"bike_id":"0e677427-8d60-4b75-92c0-3cc225e20f0d","system_id":"levelo_inurba_marseille","lat":43.2904,"lon":5.38631,"is_reserved":false,"is_disabled":false,"rental_uris":{"android":"levelo://app?vid=0e677427-8d60-4b75-92c0-3cc225e20f0d","ios":"levelo://app?vid=0e677427-8d60-4b75-92c0-3cc225e20f0d"},"vehicle_type_id":"4","last_reported":1745514566,"current_range_meters":16800,"station_id":"ce4bh4p2rcd13ifvqe0g","pricing_plan_id":"cebpf4jnsgd1na2vs0mg"},{"bike_id":"2553f676-42f3-4c5f-a7ee-f5eaa686ca83","system_id":"levelo_inurba_marseille","lat":43.289425,"lon":5.364013,"is_reserved":false,"is_disabled":false,"rental_uris":{"android":"levelo://app?vid=2553f676-42f3-4c5f-a7ee-f5eaa686ca83","ios":"levelo://app?vid=2553f676-42f3-4c5f-a7ee-f5eaa686ca83"},"vehicle_type_id":"4","last_reported":1745514566,"current_range_meters":16800,"station_id":"ce4bhc92rcd13ifvqetg","pricing_plan_id":"cebpf4jnsgd1na2vs0mg"},{"bike_id":"75c54774-60c3-4a5a-9d9a-e318535acfa8","system_id":"levelo_inurba_marseille","lat":43.28416,"lon":5.35004,"is_reserved":false,"is_disabled":false,"rental_uris":{"android":"levelo://app?vid=75c54774-60c3-4a5a-9d9a-e318535acfa8","ios":"levelo://app?vid=75c54774-60c3-4a5a-9d9a-e318535acfa8"},"vehicle_type_id":"4","last_reported":1745514566,"current_range_meters":16800,"station_id":"ce4bhbh2rcd13ifvqepg","pricing_plan_id":"cebpf4jnsgd1na2vs0mg"},{"bike_id":"7fc5ed43-b2c3-4cf7-b081-488a7cbcc12f","system_id":"levelo_inurba_marseille","lat":43.3301,"lon":5.3905,"is_reserved":false,"is_disabled":false,"rental_uris":{"android":"levelo://app?vid=7fc5ed43-b2c3-4cf7-b081-488a7cbcc12f","ios":"levelo://app?vid=7fc5ed43-b2c3-4cf7-b081-488a7cbcc12f"},"vehicle_type_id":"4","last_reported":1745514566,"current_range_meters":16800,"station_id":"ce4bhr92rcd13ifvqhrg","pricing_plan_id":"cebpf4jnsgd1na2vs0mg"},{"bike_id":"5c8dde23-03af-4ec7-8c64-b6a7b95cfa5a","system_id":"levelo_inurba_marseille","lat":43.33736,"lon":5.39171,"is_reserved":false,"is_disabled":false,"rental_uris":{"android":"levelo://app?vid=5c8dde23-03af-4ec7-8c64-b6a7b95cfa5a","ios":"levelo://app?vid=5c8dde23-03af-4ec7-8c64-b6a7b95cfa5a"},"vehicle_type_id":"4","last_reported":1745514566,"current_range_meters":16800,"station_id":"ce4bhr92rcd13ifvqhsg","pricing_plan_id":"cebpf4jnsgd1na2vs0mg"},{"bike_id":"7abe6dd9-be87-4085-a1ce-321a8264dbc0","system_id":"levelo_inurba_marseille","lat":43.27379,"lon":5.3626,"is_reserved":false,"is_disabled":false,"rental_uris":{"android":"levelo://app?vid=7abe6dd9-be87-4085-a1ce-321a8264dbc0","ios":"levelo://app?vid=7abe6dd9-be87-4085-a1ce-321a8264dbc0"},"vehicle_type_id":"4","last_reported":1745514566,"current_range_meters":16800,"station_id":"ce4bhbh2rcd13ifvqeo0","pricing_plan_id":"cebpf4jnsgd1na2vs0mg"},{"bike_id":"601d8d99-e231-4e6a-b9c8-afd0bbc93943","system_id":"levelo_inurba_marseille","lat":43.29421,"lon":5.38627,"is_reserved":false,"is_disabled":false,"rental_uris":{"android":"levelo://app?vid=601d8d99-e231-4e6a-b9c8-afd0bbc93943","ios":"levelo://app?vid=601d8d99-e231-4e6a-b9c8-afd0bbc93943"},"vehicle_type_id":"4","last_reported":1745514566,"current_range_meters":17200,"station_id":"ce4bh2h2rcd13ifvqdh0","pricing_plan_id":"cebpf4jnsgd1na2vs0mg"},{"bike_id":"5a4c1b2d-3c14-4adc-b14b-b415fa304d77","system_id":"levelo_inurba_marseille","lat":43.30189,"lon":5.36627,"is_reserved":false,"is_disabled":false,"rental_uris":{"android":"levelo://app?vid=5a4c1b2d-3c14-4adc-b14b-b415fa304d77","ios":"levelo://app?vid=5a4c1b2d-3c14-4adc-b14b-b415fa304d77"},"vehicle_type_id":"4","last_reported":1745514566,"current_range_meters":17200,"station_id":"ce4bgrh2rcd13ifvqc8g","pricing_plan_id":"cebpf4jnsgd1na2vs0mg"},{"bike_id":"a5b807e2-0dcd-4c88-a997-bb37c582102d","system_id":"levelo_inurba_marseille","lat":43.30428,"lon":5.37225,"is_reserved":false,"is_disabled":false,"rental_uris":{"android":"levelo://app?vid=a5b807e2-0dcd-4c88-a997-bb37c582102d","ios":"levelo://app?vid=a5b807e2-0dcd-4c88-a997-bb37c582102d"},"vehicle_type_id":"4","last_reported":1745514566,"current_range_meters":17200,"station_id":"","pricing_plan_id":"cebpf4jnsgd1na2vs0mg"},{"bike_id":"00f68e30-b619-408f-8cc8-fc5416b1a324","system_id":"levelo_inurba_marseille","lat":43.285828,"lon":5.394887,"is_reserved":false,"is_disabled":false,"rental_uris":{"android":"levelo://app?vid=00f68e30-b619-408f-8cc8-fc5416b1a324","ios":"levelo://app?vid=00f68e30-b619-408f-8cc8-fc5416b1a324"},"vehicle_type_id":"4","last_reported":1745514566,"current_range_meters":17200,"station_id":"ce4bh292rcd13ifvqdg0","pricing_plan_id":"cebpf4jnsgd1na2vs0mg"},{"bike_id":"7597f9f7-581e-4aa1-9ea0-a72928416a0e","system_id":"levelo_inurba_marseille","lat":43.30311,"lon":5.39198,"is_reserved":false,"is_disabled":true,"rental_uris":{"android":"levelo://app?vid=7597f9f7-581e-4aa1-9ea0-a72928416a0e","ios":"levelo://app?vid=7597f9f7-581e-4aa1-9ea0-a72928416a0e"},"vehicle_type_id":"4","last_reported":1745514566,"current_range_meters":17600,"station_id":"ce4bgkh2rcd13ifvqbk0","pricing_plan_id":"cebpf4jnsgd1na2vs0mg"},{"bike_id":"35817b5a-6708-493e-aebb-7b25f1c22feb","system_id":"levelo_inurba_marseille","lat":43.30807,"lon":5.40013,"is_reserved":false,"is_disabled":false,"rental_uris":{"android":"levelo://app?vid=35817b5a-6708-493e-aebb-7b25f1c22feb","ios":"levelo://app?vid=35817b5a-6708-493e-aebb-7b25f1c22feb"},"vehicle_type_id":"4","last_reported":1745514566,"current_range_meters":17600,"station_id":"","pricing_plan_id":"cebpf4jnsgd1na2vs0mg"},{"bike_id":"f577c520-0907-4453-975b-4f68ddb3f606","system_id":"levelo_inurba_marseille","lat":43.2844,"lon":5.34999,"is_reserved":false,"is_disabled":false,"rental_uris":{"android":"levelo://app?vid=f577c520-0907-4453-975b-4f68ddb3f606","ios":"levelo://app?vid=f577c520-0907-4453-975b-4f68ddb3f606"},"vehicle_type_id":"4","last_reported":1745514566,"current_range_meters":17600,"station_id":"ce4bhbh2rcd13ifvqepg","pricing_plan_id":"cebpf4jnsgd1na2vs0mg"},{"bike_id":"e2dcabcf-64d8-4394-bb9a-ff877bee611a","system_id":"levelo_inurba_marseille","lat":43.32077,"lon":5.41539,"is_reserved":false,"is_disabled":false,"rental_uris":{"android":"levelo://app?vid=e2dcabcf-64d8-4394-bb9a-ff877bee611a","ios":"levelo://app?vid=e2dcabcf-64d8-4394-bb9a-ff877bee611a"},"vehicle_type_id":"4","last_reported":1745514566,"current_range_meters":17600,"station_id":"ce4bhq92rcd13ifvqhkg","pricing_plan_id":"cebpf4jnsgd1na2vs0mg"},{"bike_id":"193a0897-5d92-408d-b902-c696ca168ed8","system_id":"levelo_inurba_marseille","lat":43.271161,"lon":5.387187,"is_reserved":false,"is_disabled":false,"rental_uris":{"android":"levelo://app?vid=193a0897-5d92-408d-b902-c696ca168ed8","ios":"levelo://app?vid=193a0897-5d92-408d-b902-c696ca168ed8"},"vehicle_type_id":"4","last_reported":1745514566,"current_range_meters":17200,"station_id":"ce4bhh12rcd13ifvqff0","pricing_plan_id":"cebpf4jnsgd1na2vs0mg"},{"bike_id":"718be210-cfb0-41d1-ba82-24e47969e2d5","system_id":"levelo_inurba_marseille","lat":43.31785,"lon":5.3765,"is_reserved":false,"is_disabled":false,"rental_uris":{"android":"levelo://app?vid=718be210-cfb0-41d1-ba82-24e47969e2d5","ios":"levelo://app?vid=718be210-cfb0-41d1-ba82-24e47969e2d5"},"vehicle_type_id":"4","last_reported":1745514566,"current_range_meters":17600,"station_id":"","pricing_plan_id":"cebpf4jnsgd1na2vs0mg"},{"bike_id":"2080fb6d-2adb-4162-9f68-ed56003f6114","system_id":"levelo_inurba_marseille","lat":43.28438,"lon":5.35007,"is_reserved":false,"is_disabled":false,"rental_uris":{"android":"levelo://app?vid=2080fb6d-2adb-4162-9f68-ed56003f6114","ios":"levelo://app?vid=2080fb6d-2adb-4162-9f68-ed56003f6114"},"vehicle_type_id":"4","last_reported":1745514566,"current_range_meters":17600,"station_id":"ce4bhbh2rcd13ifvqepg","pricing_plan_id":"cebpf4jnsgd1na2vs0mg"},{"bike_id":"713e340d-4155-4de4-a5a1-7868887bc224","system_id":"levelo_inurba_marseille","lat":43.2292,"lon":5.35378,"is_reserved":false,"is_disabled":false,"rental_uris":{"android":"levelo://app?vid=713e340d-4155-4de4-a5a1-7868887bc224","ios":"levelo://app?vid=713e340d-4155-4de4-a5a1-7868887bc224"},"vehicle_type_id":"4","last_reported":1745514566,"current_range_meters":18000,"station_id":"cpo3532slgdg3j2ikp40","pricing_plan_id":"cebpf4jnsgd1na2vs0mg"},{"bike_id":"f437bbcd-3bc3-4220-9dfe-08d3eac84ba1","system_id":"levelo_inurba_marseille","lat":43.28615,"lon":5.35093,"is_reserved":false,"is_disabled":true,"rental_uris":{"android":"levelo://app?vid=f437bbcd-3bc3-4220-9dfe-08d3eac84ba1","ios":"levelo://app?vid=f437bbcd-3bc3-4220-9dfe-08d3eac84ba1"},"vehicle_type_id":"4","last_reported":1745514566,"current_range_meters":18000,"station_id":"ce4bhch2rcd13ifvqeug","pricing_plan_id":"cebpf4jnsgd1na2vs0mg"},{"bike_id":"186a22a2-edd9-47e6-9913-99be6197921f","system_id":"levelo_inurba_marseille","lat":43.25082,"lon":5.39527,"is_reserved":false,"is_disabled":false,"rental_uris":{"android":"levelo://app?vid=186a22a2-edd9-47e6-9913-99be6197921f","ios":"levelo://app?vid=186a22a2-edd9-47e6-9913-99be6197921f"},"vehicle_type_id":"4","last_reported":1745514566,"current_range_meters":18000,"station_id":"ce4bhm12rcd13ifvqgkg","pricing_plan_id":"cebpf4jnsgd1na2vs0mg"},{"bike_id":"2e92adf0-8db1-4c8d-a0dd-be1ea34701ff","system_id":"levelo_inurba_marseille","lat":43.280334,"lon":5.369388,"is_reserved":false,"is_disabled":false,"rental_uris":{"android":"levelo://app?vid=2e92adf0-8db1-4c8d-a0dd-be1ea34701ff","ios":"levelo://app?vid=2e92adf0-8db1-4c8d-a0dd-be1ea34701ff"},"vehicle_type_id":"4","last_reported":1745514566,"current_range_meters":18000,"station_id":"ce4bha12rcd13ifvqef0","pricing_plan_id":"cebpf4jnsgd1na2vs0mg"},{"bike_id":"c2fe48fe-50a1-433e-807c-87f6c48ca79d","system_id":"levelo_inurba_marseille","lat":43.26555,"lon":5.37288,"is_reserved":false,"is_disabled":false,"rental_uris":{"android":"levelo://app?vid=c2fe48fe-50a1-433e-807c-87f6c48ca79d","ios":"levelo://app?vid=c2fe48fe-50a1-433e-807c-87f6c48ca79d"},"vehicle_type_id":"4","last_reported":1745514566,"current_range_meters":18000,"station_id":"ce4bhg12rcd13ifvqf70","pricing_plan_id":"cebpf4jnsgd1na2vs0mg"},{"bike_id":"0bfff189-ec6a-4439-b345-e9dd168ab867","system_id":"levelo_inurba_marseille","lat":43.33744,"lon":5.39194,"is_reserved":false,"is_disabled":false,"rental_uris":{"android":"levelo://app?vid=0bfff189-ec6a-4439-b345-e9dd168ab867","ios":"levelo://app?vid=0bfff189-ec6a-4439-b345-e9dd168ab867"},"vehicle_type_id":"4","last_reported":1745514566,"current_range_meters":18000,"station_id":"ce4bhr92rcd13ifvqhsg","pricing_plan_id":"cebpf4jnsgd1na2vs0mg"},{"bike_id":"7e23dde8-5969-48d6-b790-75ed42ac16ca","system_id":"levelo_inurba_marseille","lat":43.266039,"lon":5.380873,"is_reserved":false,"is_disabled":false,"rental_uris":{"android":"levelo://app?vid=7e23dde8-5969-48d6-b790-75ed42ac16ca","ios":"levelo://app?vid=7e23dde8-5969-48d6-b790-75ed42ac16ca"},"vehicle_type_id":"4","last_reported":1745514566,"current_range_meters":18000,"station_id":"ce4bhgh2rcd13ifvqfb0","pricing_plan_id":"cebpf4jnsgd1na2vs0mg"},{"bike_id":"1698bb9f-865d-4ac1-bba6-272327a25b3d","system_id":"levelo_inurba_marseille","lat":43.28729,"lon":5.3608,"is_reserved":false,"is_disabled":false,"rental_uris":{"android":"levelo://app?vid=1698bb9f-865d-4ac1-bba6-272327a25b3d","ios":"levelo://app?vid=1698bb9f-865d-4ac1-bba6-272327a25b3d"},"vehicle_type_id":"4","last_reported":1745514566,"current_range_meters":18800,"station_id":"cki0cbj6b192h4jlfktg","pricing_plan_id":"cebpf4jnsgd1na2vs0mg"},{"bike_id":"acf46bc1-bd47-4233-a93b-4b37ad956dd5","system_id":"levelo_inurba_marseille","lat":43.28572,"lon":5.39507,"is_reserved":false,"is_disabled":false,"rental_uris":{"android":"levelo://app?vid=acf46bc1-bd47-4233-a93b-4b37ad956dd5","ios":"levelo://app?vid=acf46bc1-bd47-4233-a93b-4b37ad956dd5"},"vehicle_type_id":"4","last_reported":1745514566,"current_range_meters":18800,"station_id":"ce4bh292rcd13ifvqdg0","pricing_plan_id":"cebpf4jnsgd1na2vs0mg"},{"bike_id":"9a1c0be7-bd1a-4081-ab84-3ef05258b407","system_id":"levelo_inurba_marseille","lat":43.22923,"lon":5.3539,"is_reserved":false,"is_disabled":false,"rental_uris":{"android":"levelo://app?vid=9a1c0be7-bd1a-4081-ab84-3ef05258b407","ios":"levelo://app?vid=9a1c0be7-bd1a-4081-ab84-3ef05258b407"},"vehicle_type_id":"4","last_reported":1745514566,"current_range_meters":18800,"station_id":"cpo3532slgdg3j2ikp40","pricing_plan_id":"cebpf4jnsgd1na2vs0mg"},{"bike_id":"07620235-6635-4de3-96f0-bb9512464c31","system_id":"levelo_inurba_marseille","lat":43.29038,"lon":5.38657,"is_reserved":false,"is_disabled":false,"rental_uris":{"android":"levelo://app?vid=07620235-6635-4de3-96f0-bb9512464c31","ios":"levelo://app?vid=07620235-6635-4de3-96f0-bb9512464c31"},"vehicle_type_id":"4","last_reported":1745514566,"current_range_meters":18800,"station_id":"ce4bh4p2rcd13ifvqe0g","pricing_plan_id":"cebpf4jnsgd1na2vs0mg"},{"bike_id":"a9784e4d-72f3-45a0-bc5c-6a48517d28d6","system_id":"levelo_inurba_marseille","lat":43.33044,"lon":5.39044,"is_reserved":false,"is_disabled":false,"rental_uris":{"android":"levelo://app?vid=a9784e4d-72f3-45a0-bc5c-6a48517d28d6","ios":"levelo://app?vid=a9784e4d-72f3-45a0-bc5c-6a48517d28d6"},"vehicle_type_id":"4","last_reported":1745514566,"current_range_meters":18800,"station_id":"ce4bhr92rcd13ifvqhrg","pricing_plan_id":"cebpf4jnsgd1na2vs0mg"},{"bike_id":"02a04312-9006-48f2-97a9-a32820efc417","system_id":"levelo_inurba_marseille","lat":43.31698,"lon":5.3774,"is_reserved":false,"is_disabled":false,"rental_uris":{"android":"levelo://app?vid=02a04312-9006-48f2-97a9-a32820efc417","ios":"levelo://app?vid=02a04312-9006-48f2-97a9-a32820efc417"},"vehicle_type_id":"4","last_reported":1745514566,"current_range_meters":18800,"station_id":"ce4bgth2rcd13ifvqch0","pricing_plan_id":"cebpf4jnsgd1na2vs0mg"},{"bike_id":"06b9b182-18fa-42f2-8c5c-9b46ffc169dc","system_id":"levelo_inurba_marseille","lat":43.28106,"lon":5.37844,"is_reserved":false,"is_disabled":false,"rental_uris":{"android":"levelo://app?vid=06b9b182-18fa-42f2-8c5c-9b46ffc169dc","ios":"levelo://app?vid=06b9b182-18fa-42f2-8c5c-9b46ffc169dc"},"vehicle_type_id":"4","last_reported":1745514566,"current_range_meters":18800,"station_id":"ce4bha12rcd13ifvqee0","pricing_plan_id":"cebpf4jnsgd1na2vs0mg"},{"bike_id":"53dc2b7a-a34b-4fe9-8019-2a702878c0cd","system_id":"levelo_inurba_marseille","lat":43.33034,"lon":5.3903,"is_reserved":false,"is_disabled":false,"rental_uris":{"android":"levelo://app?vid=53dc2b7a-a34b-4fe9-8019-2a702878c0cd","ios":"levelo://app?vid=53dc2b7a-a34b-4fe9-8019-2a702878c0cd"},"vehicle_type_id":"4","last_reported":1745514566,"current_range_meters":18800,"station_id":"ce4bhr92rcd13ifvqhrg","pricing_plan_id":"cebpf4jnsgd1na2vs0mg"},{"bike_id":"43f8f569-5c7d-4de8-aa59-be0e9b3b1bab","system_id":"levelo_inurba_marseille","lat":43.29265,"lon":5.38454,"is_reserved":false,"is_disabled":false,"rental_uris":{"android":"levelo://app?vid=43f8f569-5c7d-4de8-aa59-be0e9b3b1bab","ios":"levelo://app?vid=43f8f569-5c7d-4de8-aa59-be0e9b3b1bab"},"vehicle_type_id":"4","last_reported":1745514566,"current_range_meters":18800,"station_id":"ce4bh692rcd13ifvqea0","pricing_plan_id":"cebpf4jnsgd1na2vs0mg"},{"bike_id":"6498f542-86e0-4c49-a39a-7eb637a47138","system_id":"levelo_inurba_marseille","lat":43.23963,"lon":5.36638,"is_reserved":false,"is_disabled":false,"rental_uris":{"android":"levelo://app?vid=6498f542-86e0-4c49-a39a-7eb637a47138","ios":"levelo://app?vid=6498f542-86e0-4c49-a39a-7eb637a47138"},"vehicle_type_id":"4","last_reported":1745514566,"current_range_meters":19200,"station_id":"ce4bhi12rcd13ifvqfp0","pricing_plan_id":"cebpf4jnsgd1na2vs0mg"},{"bike_id":"9ebec2c2-e4e2-4e72-8800-6cc2a0c85f32","system_id":"levelo_inurba_marseille","lat":43.32673,"lon":5.39485,"is_reserved":false,"is_disabled":false,"rental_uris":{"android":"levelo://app?vid=9ebec2c2-e4e2-4e72-8800-6cc2a0c85f32","ios":"levelo://app?vid=9ebec2c2-e4e2-4e72-8800-6cc2a0c85f32"},"vehicle_type_id":"4","last_reported":1745514566,"current_range_meters":19200,"station_id":"","pricing_plan_id":"cebpf4jnsgd1na2vs0mg"},{"bike_id":"3feb43f6-034a-402b-b78e-d944c9ab1c3f","system_id":"levelo_inurba_marseille","lat":43.31168,"lon":5.38731,"is_reserved":false,"is_disabled":false,"rental_uris":{"android":"levelo://app?vid=3feb43f6-034a-402b-b78e-d944c9ab1c3f","ios":"levelo://app?vid=3feb43f6-034a-402b-b78e-d944c9ab1c3f"},"vehicle_type_id":"4","last_reported":1745514566,"current_range_meters":19200,"station_id":"ce4bgv12rcd13ifvqcp0","pricing_plan_id":"cebpf4jnsgd1na2vs0mg"},{"bike_id":"d66944df-f294-4e87-865a-4f2762d5b530","system_id":"levelo_inurba_marseille","lat":43.29683,"lon":5.37308,"is_reserved":false,"is_disabled":false,"rental_uris":{"android":"levelo://app?vid=d66944df-f294-4e87-865a-4f2762d5b530","ios":"levelo://app?vid=d66944df-f294-4e87-865a-4f2762d5b530"},"vehicle_type_id":"4","last_reported":1745514566,"current_range_meters":19200,"station_id":"ce4bgk12rcd13ifvqbj0","pricing_plan_id":"cebpf4jnsgd1na2vs0mg"},{"bike_id":"8f1a38c1-df91-4bdf-9e4e-92ef410aba4f","system_id":"levelo_inurba_marseille","lat":43.21196,"lon":5.35073,"is_reserved":false,"is_disabled":false,"rental_uris":{"android":"levelo://app?vid=8f1a38c1-df91-4bdf-9e4e-92ef410aba4f","ios":"levelo://app?vid=8f1a38c1-df91-4bdf-9e4e-92ef410aba4f"},"vehicle_type_id":"4","last_reported":1745514566,"current_range_meters":19600,"station_id":"st_cvj6sg6p6f1abm77japg","pricing_plan_id":"cebpf4jnsgd1na2vs0mg"},{"bike_id":"6e378c96-cfae-4423-82bf-f10ad87ce524","system_id":"levelo_inurba_marseille","lat":43.29198,"lon":5.35814,"is_reserved":false,"is_disabled":false,"rental_uris":{"android":"levelo://app?vid=6e378c96-cfae-4423-82bf-f10ad87ce524","ios":"levelo://app?vid=6e378c96-cfae-4423-82bf-f10ad87ce524"},"vehicle_type_id":"4","last_reported":1745514566,"current_range_meters":19600,"station_id":"ce4bhb12rcd13ifvqel0","pricing_plan_id":"cebpf4jnsgd1na2vs0mg"},{"bike_id":"43f97157-c262-46cd-82b1-ccc35ba8d26d","system_id":"levelo_inurba_marseille","lat":43.25579,"lon":5.382447,"is_reserved":false,"is_disabled":false,"rental_uris":{"android":"levelo://app?vid=43f97157-c262-46cd-82b1-ccc35ba8d26d","ios":"levelo://app?vid=43f97157-c262-46cd-82b1-ccc35ba8d26d"},"vehicle_type_id":"4","last_reported":1745514566,"current_range_meters":20000,"station_id":"ce4bhlh2rcd13ifvqgig","pricing_plan_id":"cebpf4jnsgd1na2vs0mg"},{"bike_id":"7ced67aa-b6cc-4438-aa2b-9e350e50fb98","system_id":"levelo_inurba_marseille","lat":43.23202,"lon":5.35555,"is_reserved":false,"is_disabled":false,"rental_uris":{"android":"levelo://app?vid=7ced67aa-b6cc-4438-aa2b-9e350e50fb98","ios":"levelo://app?vid=7ced67aa-b6cc-4438-aa2b-9e350e50fb98"},"vehicle_type_id":"4","last_reported":1745514566,"current_range_meters":20000,"station_id":"ce4bhu92rcd13ifvqi70","pricing_plan_id":"cebpf4jnsgd1na2vs0mg"},{"bike_id":"1abc48dd-efaa-4ca6-9a7a-f6253d85fd51","system_id":"levelo_inurba_marseille","lat":43.30801,"lon":5.4352,"is_reserved":false,"is_disabled":false,"rental_uris":{"android":"levelo://app?vid=1abc48dd-efaa-4ca6-9a7a-f6253d85fd51","ios":"levelo://app?vid=1abc48dd-efaa-4ca6-9a7a-f6253d85fd51"},"vehicle_type_id":"4","last_reported":1745514566,"current_range_meters":20000,"station_id":"ce4bhph2rcd13ifvqheg","pricing_plan_id":"cebpf4jnsgd1na2vs0mg"},{"bike_id":"829e6027-c98c-4052-9336-7fe801b0bc22","system_id":"levelo_inurba_marseille","lat":43.23159,"lon":5.43722,"is_reserved":false,"is_disabled":true,"rental_uris":{"android":"levelo://app?vid=829e6027-c98c-4052-9336-7fe801b0bc22","ios":"levelo://app?vid=829e6027-c98c-4052-9336-7fe801b0bc22"},"vehicle_type_id":"4","last_reported":1745514566,"current_range_meters":20000,"station_id":"ce4bhmp2rcd13ifvqgog","pricing_plan_id":"cebpf4jnsgd1na2vs0mg"},{"bike_id":"1e0d1750-52c4-4d82-9962-57533297ee39","system_id":"levelo_inurba_marseille","lat":43.28057,"lon":5.36956,"is_reserved":false,"is_disabled":false,"rental_uris":{"android":"levelo://app?vid=1e0d1750-52c4-4d82-9962-57533297ee39","ios":"levelo://app?vid=1e0d1750-52c4-4d82-9962-57533297ee39"},