{"last_updated":1701187792,"ttl":30,"version":"2.2","data":{"bikes":[{"bike_id":"d05cc1f7-18de-4334-b585-3607aec03d78","system_id":"levelo_inurba_marseille","lat":43.31341,"lon":5.367098,"is_reserved":false,"is_disabled":false,"rental_uris":{"android":"levelo://app?vid=d05cc1f7-18de-4334-b585-3607aec03d78","ios":"levelo://app?vid=d05cc1f7-18de-4334-b585-3607aec03d78"},"vehicle_type_id":"4","last_reported":1701187792,"current_range_meters":28000,"station_id":"ce4bgr92rcd13ifvqc6g","pricing_plan_id":"free"},{"bike_id":"39d8f574-7502-4472-b1f2-bb721a0c92e4","system_id":"levelo_inurba_marseille","lat":43.309076,"lon":5.368465,"is_reserved":false,"is_disabled":false,"rental_uris":{"android":"levelo://app?vid=39d8f574-7502-4472-b1f2-bb721a0c92e4","ios":"levelo://app?vid=39d8f574-7502-4472-b1f2-bb721a0c92e4"},"vehicle_type_id":"4","last_reported":1701187792,"current_range_meters":4800,"station_id":"ce4bgn92rcd13ifvqbvg","pricing_plan_id":"free"},{"bike_id":"5126b0aa-d865-4589-8d50-8d8600ba8782","system_id":"levelo_inurba_marseille","lat":43.308462,"lon":5.368774,"is_reserved":false,"is_disabled":false,"rental_uris":{"android":"levelo://app?vid=5126b0aa-d865-4589-8d50-8d8600ba8782","ios":"levelo://app?vid=5126b0aa-d865-4589-8d50-8d8600ba8782"},"vehicle_type_id":"4","last_reported":1701187792,"current_range_meters":21600,"station_id":"","pricing_plan_id":"free"},{"bike_id":"ef926d37-d3fd-47d5-9247-a3478adf959f","system_id":"levelo_inurba_marseille","lat":43.314811,"lon":5.373103,"is_reserved":false,"is_disabled":false,"rental_uris":{"android":"levelo://app?vid=ef926d37-d3fd-47d5-9247-a3478adf959f","ios":"levelo://app?vid=ef926d37-d3fd-47d5-9247-a3478adf959f"},"vehicle_type_id":"4","last_reported":1701187792,"current_range_meters":1200,"station_id":"ce4bgt12rcd13ifvqcd0","pricing_plan_id":"free"},{"bike_id":"bc553ea1-adcf-4c1e-8e25-044039526b52","system_id":"levelo_inurba_marseille","lat":43.309039,"lon":5.371797,"is_reserved":false,"is_disabled":false,"rental_uris":{"android":"levelo://app?vid=bc553ea1-adcf-4c1e-8e25-044039526b52","ios":"levelo://app?vid=bc553ea1-adcf-4c1e-8e25-044039526b52"},"vehicle_type_id":"4","last_reported":1701187792,"current_range_meters":27200,"station_id":"ce4bguh2rcd13ifvqckg","pricing_plan_id":"free"},{"bike_id":"7a7ebf93-a0a3-44c2-ba3f-d90a906f4276","system_id":"levelo_inurba_marseille","lat":43.309039,"lon":5.371797,"is_reserved":false,"is_disabled":false,"rental_uris":{"android":"levelo://app?vid=7a7ebf93-a0a3-44c2-ba3f-d90a906f4276","ios":"levelo://app?vid=7a7ebf93-a0a3-44c2-ba3f-d90a906f4276"},"vehicle_type_id":"4","last_reported":1701187792,"current_range_meters":15600,"station_id":"ce4bguh2rcd13ifvqckg","pricing_plan_id":"free"},{"bike_id":"e22a5ee8-260c-48d4-9cea-de3ce1ddd2c2","system_id":"levelo_inurba_marseille","lat":43.309039,"lon":5.371797,"is_reserved":false,"is_disabled":false,"rental_uris":{"android":"levelo://app?vid=e22a5ee8-260c-48d4-9cea-de3ce1ddd2c2","ios":"levelo://app?vid=e22a5ee8-260c-48d4-9cea-de3ce1ddd2c2"},"vehicle_type_id":"4","last_reported":1701187792,"current_range_meters":8000,"station_id":"ce4bguh2rcd13ifvqckg","pricing_plan_id":"free"},{"bike_id":"48f5ba9f-4e06-455e-a01a-79b1bc72471e","system_id":"levelo_inurba_marseille","lat":43.309039,"lon":5.371797,"is_reserved":false,"is_disabled":false,"rental_uris":{"android":"levelo://app?vid=48f5ba9f-4e06-455e-a01a-79b1bc72471e","ios":"levelo://app?vid=48f5ba9f-4e06-455e-a01a-79b1bc72471e"},"vehicle_type_id":"4","last_reported":1701187792,"current_range_meters":20400,"station_id":"ce4bguh2rcd13ifvqckg","pricing_plan_id":"free"},{"bike_id":"e5930290-4de9-4592-b0ff-1380d2b4e48e","system_id":"levelo_inurba_marseille","lat":43.313793,"lon":5.376573,"is_reserved":false,"is_disabled":false,"rental_uris":{"android":"levelo://app?vid=e5930290-4de9-4592-b0ff-1380d2b4e48e","ios":"levelo://app?vid=e5930290-4de9-4592-b0ff-1380d2b4e48e"},"vehicle_type_id":"4","last_reported":1701187792,"current_range_meters":26800,"station_id":"","pricing_plan_id":"free"},{"bike_id":"355ec015-d9f6-480f-b444-20f8a879f8dc","system_id":"levelo_inurba_marseille","lat":43.305493,"lon":5.367077,"is_reserved":false,"is_disabled":false,"rental_uris":{"android":"levelo://app?vid=355ec015-d9f6-480f-b444-20f8a879f8dc","ios":"levelo://app?vid=355ec015-d9f6-480f-b444-20f8a879f8dc"},"vehicle_type_id":"4","last_reported":1701187792,"current_range_meters":20000,"station_id":"ce4bgrp2rcd13ifvqc9g","pricing_plan_id":"free"},{"bike_id":"9c79144a-a69d-468c-b17c-299cb0c92bc3","system_id":"levelo_inurba_marseille","lat":43.305714,"lon":5.365633,"is_reserved":false,"is_disabled":false,"rental_uris":{"android":"levelo://app?vid=9c79144a-a69d-468c-b17c-299cb0c92bc3","ios":"levelo://app?vid=9c79144a-a69d-468c-b17c-299cb0c92bc3"},"vehicle_type_id":"4","last_reported":1701187792,"current_range_meters":28400,"station_id":"ce4bgs12rcd13ifvqcag","pricing_plan_id":"free"},{"bike_id":"449071dd-7626-4119-9cae-7dce8e5ed428","system_id":"levelo_inurba_marseille","lat":43.305368,"lon":5.367343,"is_reserved":false,"is_disabled":false,"rental_uris":{"android":"levelo://app?vid=449071dd-7626-4119-9cae-7dce8e5ed428","ios":"levelo://app?vid=449071dd-7626-4119-9cae-7dce8e5ed428"},"vehicle_type_id":"4","last_reported":1701187792,"current_range_meters":14000,"station_id":"ce4bgrp2rcd13ifvqc9g","pricing_plan_id":"free"},{"bike_id":"20ede2da-9fc8-45c3-9388-6d4b521b4d46","system_id":"levelo_inurba_marseille","lat":43.30535,"lon":5.36537,"is_reserved":false,"is_disabled":false,"rental_uris":{"android":"levelo://app?vid=20ede2da-9fc8-45c3-9388-6d4b521b4d46","ios":"levelo://app?vid=20ede2da-9fc8-45c3-9388-6d4b521b4d46"},"vehicle_type_id":"4","last_reported":1701187792,"current_range_meters":8000,"station_id":"ce4bgs12rcd13ifvqcag","pricing_plan_id":"free"},{"bike_id":"2d192a8b-6480-49e1-b509-3a4e60f995ff","system_id":"levelo_inurba_marseille","lat":43.305989,"lon":5.37225,"is_reserved":false,"is_disabled":false,"rental_uris":{"android":"levelo://app?vid=2d192a8b-6480-49e1-b509-3a4e60f995ff","ios":"levelo://app?vid=2d192a8b-6480-49e1-b509-3a4e60f995ff"},"vehicle_type_id":"4","last_reported":1701187792,"current_range_meters":16000,"station_id":"ce4bgqh2rcd13ifvqc4g","pricing_plan_id":"free"},{"bike_id":"2d653463-a71c-45b4-8f0e-99c793b6f09e","system_id":"levelo_inurba_marseille","lat":43.31122,"lon":5.37769,"is_reserved":false,"is_disabled":false,"rental_uris":{"android":"levelo://app?vid=2d653463-a71c-45b4-8f0e-99c793b6f09e","ios":"levelo://app?vid=2d653463-a71c-45b4-8f0e-99c793b6f09e"},"vehicle_type_id":"4","last_reported":1701187792,"current_range_meters":9200,"station_id":"ce4bgt92rcd13ifvqcg0","pricing_plan_id":"free"},{"bike_id":"707daf8a-c5cb-4d72-a7e8-2a483f7bd132","system_id":"levelo_inurba_marseille","lat":43.311131,"lon":5.377651,"is_reserved":false,"is_disabled":false,"rental_uris":{"android":"levelo://app?vid=707daf8a-c5cb-4d72-a7e8-2a483f7bd132","ios":"levelo://app?vid=707daf8a-c5cb-4d72-a7e8-2a483f7bd132"},"vehicle_type_id":"4","last_reported":1701187792,"current_range_meters":18000,"station_id":"ce4bgt92rcd13ifvqcg0","pricing_plan_id":"free"},{"bike_id":"24162143-6712-4875-bd61-a103a7ebe0cb","system_id":"levelo_inurba_marseille","lat":43.311131,"lon":5.377651,"is_reserved":false,"is_disabled":false,"rental_uris":{"android":"levelo://app?vid=24162143-6712-4875-bd61-a103a7ebe0cb","ios":"levelo://app?vid=24162143-6712-4875-bd61-a103a7ebe0cb"},"vehicle_type_id":"4","last_reported":1701187792,"current_range_meters":17200,"station_id":"ce4bgt92rcd13ifvqcg0","pricing_plan_id":"free"},{"bike_id":"45b3ff23-a937-45d9-9f96-088c308c0189","system_id":"levelo_inurba_marseille","lat":43.308186,"lon":5.376594,"is_reserved":false,"is_disabled":false,"rental_uris":{"android":"levelo://app?vid=45b3ff23-a937-45d9-9f96-088c308c0189","ios":"levelo://app?vid=45b3ff23-a937-45d9-9f96-088c308c0189"},"vehicle_type_id":"4","last_reported":1701187792,"current_range_meters":13600,"station_id":"ce4bgv92rcd13ifvqcq0","pricing_plan_id":"free"},{"bike_id":"f427a2c3-6e4a-446b-ae2f-9be8aa7f4122","system_id":"levelo_inurba_marseille","lat":43.31719,"lon":5.376813,"is_reserved":false,"is_disabled":false,"rental_uris":{"android":"levelo://app?vid=f427a2c3-6e4a-446b-ae2f-9be8aa7f4122","ios":"levelo://app?vid=f427a2c3-6e4a-446b-ae2f-9be8aa7f4122"},"vehicle_type_id":"4","last_reported":1701187792,"current_range_meters":12800,"station_id":"ce4bgth2rcd13ifvqch0","pricing_plan_id":"free"},{"bike_id":"e913f328-1e31-4c22-bd87-f809ea246de4","system_id":"levelo_inurba_marseille","lat":43.317168,"lon":5.376883,"is_reserved":false,"is_disabled":false,"rental_uris":{"android":"levelo://app?vid=e913f328-1e31-4c22-bd87-f809ea246de4","ios":"levelo://app?vid=e913f328-1e31-4c22-bd87-f809ea246de4"},"vehicle_type_id":"4","last_reported":1701187792,"current_range_meters":15200,"station_id":"ce4bgth2rcd13ifvqch0","pricing_plan_id":"free"},{"bike_id":"48a40410-736c-4514-a57e-ca779b3b0c15","system_id":"levelo_inurba_marseille","lat":43.303046,"lon":5.368981,"is_reserved":false,"is_disabled":false,"rental_uris":{"android":"levelo://app?vid=48a40410-736c-4514-a57e-ca779b3b0c15","ios":"levelo://app?vid=48a40410-736c-4514-a57e-ca779b3b0c15"},"vehicle_type_id":"4","last_reported":1701187792,"current_range_meters":4000,"station_id":"ce4bgqh2rcd13ifvqc5g","pricing_plan_id":"free"},{"bike_id":"09d4a452-9802-4784-b671-df3a42b58dd0","system_id":"levelo_inurba_marseille","lat":43.304606,"lon":5.379026,"is_reserved":false,"is_disabled":false,"rental_uris":{"android":"levelo://app?vid=09d4a452-9802-4784-b671-df3a42b58dd0","ios":"levelo://app?vid=09d4a452-9802-4784-b671-df3a42b58dd0"},"vehicle_type_id":"4","last_reported":1701187792,"current_range_meters":800,"station_id":"ce4bgup2rcd13ifvqcn0","pricing_plan_id":"free"},{"bike_id":"364eabcb-4b0f-4cd7-beb8-57169a6e0901","system_id":"levelo_inurba_marseille","lat":43.324771,"lon":5.36557,"is_reserved":false,"is_disabled":false,"rental_uris":{"android":"levelo://app?vid=364eabcb-4b0f-4cd7-beb8-57169a6e0901","ios":"levelo://app?vid=364eabcb-4b0f-4cd7-beb8-57169a6e0901"},"vehicle_type_id":"4","last_reported":1701187792,"current_range_meters":18800,"station_id":"ce4bhs12rcd13ifvqhvg","pricing_plan_id":"free"},{"bike_id":"f2ab2c8a-3a31-48cd-b1d9-13498f1a9289","system_id":"levelo_inurba_marseille","lat":43.313571,"lon":5.384829,"is_reserved":false,"is_disabled":false,"rental_uris":{"android":"levelo://app?vid=f2ab2c8a-3a31-48cd-b1d9-13498f1a9289","ios":"levelo://app?vid=f2ab2c8a-3a31-48cd-b1d9-13498f1a9289"},"vehicle_type_id":"4","last_reported":1701187792,"current_range_meters":21600,"station_id":"ce4bgt92rcd13ifvqcf0","pricing_plan_id":"free"},{"bike_id":"5f973af3-ae5c-4c80-aaef-2f9c1b99db55","system_id":"levelo_inurba_marseille","lat":43.313571,"lon":5.384829,"is_reserved":false,"is_disabled":false,"rental_uris":{"android":"levelo://app?vid=5f973af3-ae5c-4c80-aaef-2f9c1b99db55","ios":"levelo://app?vid=5f973af3-ae5c-4c80-aaef-2f9c1b99db55"},"vehicle_type_id":"4","last_reported":1701187792,"current_range_meters":31200,"station_id":"ce4bgt92rcd13ifvqcf0","pricing_plan_id":"free"},{"bike_id":"d3d08817-45ad-479f-b103-49814d612826","system_id":"levelo_inurba_marseille","lat":43.313571,"lon":5.384829,"is_reserved":false,"is_disabled":false,"rental_uris":{"android":"levelo://app?vid=d3d08817-45ad-479f-b103-49814d612826","ios":"levelo://app?vid=d3d08817-45ad-479f-b103-49814d612826"},"vehicle_type_id":"4","last_reported":1701187792,"current_range_meters":20000,"station_id":"ce4bgt92rcd13ifvqcf0","pricing_plan_id":"free"},{"bike_id":"e61d0111-4c62-4475-8786-a149226fff00","system_id":"levelo_inurba_marseille","lat":43.313571,"lon":5.384829,"is_reserved":false,"is_disabled":false,"rental_uris":{"android":"levelo://app?vid=e61d0111-4c62-4475-8786-a149226fff00","ios":"levelo://app?vid=e61d0111-4c62-4475-8786-a149226fff00"},"vehicle_type_id":"4","last_reported":1701187792,"current_range_meters":17200,"station_id":"ce4bgt92rcd13ifvqcf0","pricing_plan_id":"free"},{"bike_id":"f2d37ad5-253a-4284-8bd6-92e5d36f30b7","system_id":"levelo_inurba_marseille","lat":43.313571,"lon":5.384829,"is_reserved":false,"is_disabled":false,"rental_uris":{"android":"levelo://app?vid=f2d37ad5-253a-4284-8bd6-92e5d36f30b7","ios":"levelo://app?vid=f2d37ad5-253a-4284-8bd6-92e5d36f30b7"},"vehicle_type_id":"4","last_reported":1701187792,"current_range_meters":28000,"station_id":"ce4bgt92rcd13ifvqcf0","pricing_plan_id":"free"},{"bike_id":"96886a32-e2d5-464f-8bab-ffe862672798","system_id":"levelo_inurba_marseille","lat":43.313571,"lon":5.384829,"is_reserved":false,"is_disabled":false,"rental_uris":{"android":"levelo://app?vid=96886a32-e2d5-464f-8bab-ffe862672798","ios":"levelo://app?vid=96886a32-e2d5-464f-8bab-ffe862672798"},"vehicle_type_id":"4","last_reported":1701187792,"current_range_meters":23600,"station_id":"ce4bgt92rcd13ifvqcf0","pricing_plan_id":"free"},{"bike_id":"d53e210a-fdfc-4646-a7b2-909c0844678b","system_id":"levelo_inurba_marseille","lat":43.313571,"lon":5.384829,"is_reserved":false,"is_disabled":false,"rental_uris":{"android":"levelo://app?vid=d53e210a-fdfc-4646-a7b2-909c0844678b","ios":"levelo://app?vid=d53e210a-fdfc-4646-a7b2-909c0844678b"},"vehicle_type_id":"4","last_reported":1701187792,"current_range_meters":30800,"station_id":"ce4bgt92rcd13ifvqcf0","pricing_plan_id":"free"},{"bike_id":"d11eba79-6caf-4ad4-a98d-5a9028701281","system_id":"levelo_inurba_marseille","lat":43.299222,"lon":5.365554,"is_reserved":false,"is_disabled":false,"rental_uris":{"android":"levelo://app?vid=d11eba79-6caf-4ad4-a98d-5a9028701281","ios":"levelo://app?vid=d11eba79-6caf-4ad4-a98d-5a9028701281"},"vehicle_type_id":"4","last_reported":1701187792,"current_range_meters":5200,"station_id":"ce4bgm92rcd13ifvqbr0","pricing_plan_id":"free"},{"bike_id":"9c34c304-5edd-4762-97a9-a863036c03d5","system_id":"levelo_inurba_marseille","lat":43.299222,"lon":5.365554,"is_reserved":false,"is_disabled":false,"rental_uris":{"android":"levelo://app?vid=9c34c304-5edd-4762-97a9-a863036c03d5","ios":"levelo://app?vid=9c34c304-5edd-4762-97a9-a863036c03d5"},"vehicle_type_id":"4","last_reported":1701187792,"current_range_meters":29200,"station_id":"ce4bgm92rcd13ifvqbr0","pricing_plan_id":"free"},{"bike_id":"b99879b2-68ca-4d27-a348-dd4c8c15bcff","system_id":"levelo_inurba_marseille","lat":43.299222,"lon":5.365554,"is_reserved":false,"is_disabled":false,"rental_uris":{"android":"levelo://app?vid=b99879b2-68ca-4d27-a348-dd4c8c15bcff","ios":"levelo://app?vid=b99879b2-68ca-4d27-a348-dd4c8c15bcff"},"vehicle_type_id":"4","last_reported":1701187792,"current_range_meters":26000,"station_id":"ce4bgm92rcd13ifvqbr0","pricing_plan_id":"free"},{"bike_id":"97240033-6824-4621-b196-89c2bc7778b6","system_id":"levelo_inurba_marseille","lat":43.299724,"lon":5.371829,"is_reserved":false,"is_disabled":false,"rental_uris":{"android":"levelo://app?vid=97240033-6824-4621-b196-89c2bc7778b6","ios":"levelo://app?vid=97240033-6824-4621-b196-89c2bc7778b6"},"vehicle_type_id":"4","last_reported":1701187792,"current_range_meters":26000,"station_id":"ce4bgr92rcd13ifvqc7g","pricing_plan_id":"free"},{"bike_id":"927e8f08-1cee-4328-ba60-be71a0fbb899","system_id":"levelo_inurba_marseille","lat":43.299724,"lon":5.371829,"is_reserved":false,"is_disabled":false,"rental_uris":{"android":"levelo://app?vid=927e8f08-1cee-4328-ba60-be71a0fbb899","ios":"levelo://app?vid=927e8f08-1cee-4328-ba60-be71a0fbb899"},"vehicle_type_id":"4","last_reported":1701187792,"current_range_meters":19600,"station_id":"ce4bgr92rcd13ifvqc7g","pricing_plan_id":"free"},{"bike_id":"c494d314-47ac-4591-9604-84f461e83135","system_id":"levelo_inurba_marseille","lat":43.29854,"lon":5.36284,"is_reserved":false,"is_disabled":false,"rental_uris":{"android":"levelo://app?vid=c494d314-47ac-4591-9604-84f461e83135","ios":"levelo://app?vid=c494d314-47ac-4591-9604-84f461e83135"},"vehicle_type_id":"4","last_reported":1701187792,"current_range_meters":29600,"station_id":"ce4bgpp2rcd13ifvqc3g","pricing_plan_id":"free"},{"bike_id":"0923cdaf-f0e8-4595-b3f7-ac27770c3f74","system_id":"levelo_inurba_marseille","lat":43.29852,"lon":5.36275,"is_reserved":false,"is_disabled":false,"rental_uris":{"android":"levelo://app?vid=0923cdaf-f0e8-4595-b3f7-ac27770c3f74","ios":"levelo://app?vid=0923cdaf-f0e8-4595-b3f7-ac27770c3f74"},"vehicle_type_id":"4","last_reported":1701187792,"current_range_meters":6400,"station_id":"ce4bgpp2rcd13ifvqc3g","pricing_plan_id":"free"},{"bike_id":"e36fc435-e265-4153-84b0-481fcddd8142","system_id":"levelo_inurba_marseille","lat":43.311722,"lon":5.387247,"is_reserved":false,"is_disabled":false,"rental_uris":{"android":"levelo://app?vid=e36fc435-e265-4153-84b0-481fcddd8142","ios":"levelo://app?vid=e36fc435-e265-4153-84b0-481fcddd8142"},"vehicle_type_id":"4","last_reported":1701187792,"current_range_meters":4000,"station_id":"ce4bgv12rcd13ifvqcp0","pricing_plan_id":"free"},{"bike_id":"9c9e1665-cac6-416b-b176-f8349d5fd9e8","system_id":"levelo_inurba_marseille","lat":43.299243,"lon":5.374807,"is_reserved":false,"is_disabled":false,"rental_uris":{"android":"levelo://app?vid=9c9e1665-cac6-416b-b176-f8349d5fd9e8","ios":"levelo://app?vid=9c9e1665-cac6-416b-b176-f8349d5fd9e8"},"vehicle_type_id":"4","last_reported":1701187792,"current_range_meters":26800,"station_id":"ce4bgjh2rcd13ifvqbg0","pricing_plan_id":"free"},{"bike_id":"e485c843-f78c-4dd1-8513-0ee4c67f094f","system_id":"levelo_inurba_marseille","lat":43.311722,"lon":5.387247,"is_reserved":false,"is_disabled":false,"rental_uris":{"android":"levelo://app?vid=e485c843-f78c-4dd1-8513-0ee4c67f094f","ios":"levelo://app?vid=e485c843-f78c-4dd1-8513-0ee4c67f094f"},"vehicle_type_id":"4","last_reported":1701187792,"current_range_meters":4000,"station_id":"ce4bgv12rcd13ifvqcp0","pricing_plan_id":"free"},{"bike_id":"fb72b48c-18ce-4f92-813a-81992468c41a","system_id":"levelo_inurba_marseille","lat":43.311722,"lon":5.387247,"is_reserved":false,"is_disabled":false,"rental_uris":{"android":"levelo://app?vid=fb72b48c-18ce-4f92-813a-81992468c41a","ios":"levelo://app?vid=fb72b48c-18ce-4f92-813a-81992468c41a"},"vehicle_type_id":"4","last_reported":1701187792,"current_range_meters":26800,"station_id":"ce4bgv12rcd13ifvqcp0","pricing_plan_id":"free"},{"bike_id":"5ff197b8-43b5-4899-a2ff-a0f85b7accaa","system_id":"levelo_inurba_marseille","lat":43.311722,"lon":5.387247,"is_reserved":false,"is_disabled":false,"rental_uris":{"android":"levelo://app?vid=5ff197b8-43b5-4899-a2ff-a0f85b7accaa","ios":"levelo://app?vid=5ff197b8-43b5-4899-a2ff-a0f85b7accaa"},"vehicle_type_id":"4","last_reported":1701187792,"current_range_meters":23200,"station_id":"ce4bgv12rcd13ifvqcp0","pricing_plan_id":"free"},{"bike_id":"788ce8e5-3be4-405b-8bce-1aa2e99a411b","system_id":"levelo_inurba_marseille","lat":43.297794,"lon":5.370888,"is_reserved":false,"is_disabled":false,"rental_uris":{"android":"levelo://app?vid=788ce8e5-3be4-405b-8bce-1aa2e99a411b","ios":"levelo://app?vid=788ce8e5-3be4-405b-8bce-1aa2e99a411b"},"vehicle_type_id":"4","last_reported":1701187792,"current_range_meters":17200,"station_id":"ce4bgop2rcd13ifvqc1g","pricing_plan_id":"free"},{"bike_id":"8cf5765b-a39b-49e7-8543-db5e2158f39b","system_id":"levelo_inurba_marseille","lat":43.32829,"lon":5.36688,"is_reserved":false,"is_disabled":false,"rental_uris":{"android":"levelo://app?vid=8cf5765b-a39b-49e7-8543-db5e2158f39b","ios":"levelo://app?vid=8cf5765b-a39b-49e7-8543-db5e2158f39b"},"vehicle_type_id":"4","last_reported":1701187792,"current_range_meters":11200,"station_id":"ce4bhs92rcd13ifvqi0g","pricing_plan_id":"free"},{"bike_id":"1345374e-3a0f-48ed-b752-811b019274d7","system_id":"levelo_inurba_marseille","lat":43.32847,"lon":5.36668,"is_reserved":false,"is_disabled":false,"rental_uris":{"android":"levelo://app?vid=1345374e-3a0f-48ed-b752-811b019274d7","ios":"levelo://app?vid=1345374e-3a0f-48ed-b752-811b019274d7"},"vehicle_type_id":"4","last_reported":1701187792,"current_range_meters":9200,"station_id":"ce4bhs92rcd13ifvqi0g","pricing_plan_id":"free"},{"bike_id":"dc298f33-51c4-4cb4-b66c-e8fb7024d9f6","system_id":"levelo_inurba_marseille","lat":43.297163,"lon":5.365866,"is_reserved":false,"is_disabled":false,"rental_uris":{"android":"levelo://app?vid=dc298f33-51c4-4cb4-b66c-e8fb7024d9f6","ios":"levelo://app?vid=dc298f33-51c4-4cb4-b66c-e8fb7024d9f6"},"vehicle_type_id":"4","last_reported":1701187792,"current_range_meters":30800,"station_id":"ce4bgn12rcd13ifvqbt0","pricing_plan_id":"free"},{"bike_id":"4635e41d-94e9-4abb-b068-8a7095775a56","system_id":"levelo_inurba_marseille","lat":43.32371,"lon":5.38355,"is_reserved":false,"is_disabled":false,"rental_uris":{"android":"levelo://app?vid=4635e41d-94e9-4abb-b068-8a7095775a56","ios":"levelo://app?vid=4635e41d-94e9-4abb-b068-8a7095775a56"},"vehicle_type_id":"4","last_reported":1701187792,"current_range_meters":28400,"station_id":"","pricing_plan_id":"free"},{"bike_id":"9f0f067c-4570-4779-9fe7-642e24984182","system_id":"levelo_inurba_marseille","lat":43.29594,"lon":5.36585,"is_reserved":false,"is_disabled":false,"rental_uris":{"android":"levelo://app?vid=9f0f067c-4570-4779-9fe7-642e24984182","ios":"levelo://app?vid=9f0f067c-4570-4779-9fe7-642e24984182"},"vehicle_type_id":"4","last_reported":1701187792,"current_range_meters":19600,"station_id":"","pricing_plan_id":"free"},{"bike_id":"6ab3e063-8ae0-4452-bcc3-aa51b7f9360b","system_id":"levelo_inurba_marseille","lat":43.29717,"lon":5.377,"is_reserved":false,"is_disabled":false,"rental_uris":{"android":"levelo://app?vid=6ab3e063-8ae0-4452-bcc3-aa51b7f9360b","ios":"levelo://app?vid=6ab3e063-8ae0-4452-bcc3-aa51b7f9360b"},"vehicle_type_id":"4","last_reported":1701187792,"current_range_meters":0,"station_id":"ce4bgkh2rcd13ifvqbl0","pricing_plan_id":"free"},{"bike_id":"ba04f797-2047-43f8-89c9-955aec20e56d","system_id":"levelo_inurba_marseille","lat":43.296935,"lon":5.376544,"is_reserved":false,"is_disabled":false,"rental_uris":{"android":"levelo://app?vid=ba04f797-2047-43f8-89c9-955aec20e56d","ios":"levelo://app?vid=ba04f797-2047-43f8-89c9-955aec20e56d"},"vehicle_type_id":"4","last_reported":1701187792,"current_range_meters":9200,"station_id":"ce4bgkh2rcd13ifvqbl0","pricing_plan_id":"free"},{"bike_id":"d19f4aa5-404f-4373-bef1-fadec89bc707","system_id":"levelo_inurba_marseille","lat":43.29706,"lon":5.37694,"is_reserved":false,"is_disabled":false,"rental_uris":{"android":"levelo://app?vid=d19f4aa5-404f-4373-bef1-fadec89bc707","ios":"levelo://app?vid=d19f4aa5-404f-4373-bef1-fadec89bc707"},"vehicle_type_id":"4","last_reported":1701187792,"current_range_meters":18000,"station_id":"ce4bgkh2rcd13ifvqbl0","pricing_plan_id":"free"},{"bike_id":"9f7428f7-60d4-4166-b7f2-f7ec3b798bd8","system_id":"levelo_inurba_marseille","lat":43.304274,"lon":5.388873,"is_reserved":false,"is_disabled":false,"rental_uris":{"android":"levelo://app?vid=9f7428f7-60d4-4166-b7f2-f7ec3b798bd8","ios":"levelo://app?vid=9f7428f7-60d4-4166-b7f2-f7ec3b798bd8"},"vehicle_type_id":"4","last_reported":1701187792,"current_range_meters":8000,"station_id":"ce4bgk12rcd13ifvqbi0","pricing_plan_id":"free"},{"bike_id":"6232694c-a508-480a-b6d3-6c28f0dda7a0","system_id":"levelo_inurba_marseille","lat":43.296263,"lon":5.377094,"is_reserved":false,"is_disabled":false,"rental_uris":{"android":"levelo://app?vid=6232694c-a508-480a-b6d3-6c28f0dda7a0","ios":"levelo://app?vid=6232694c-a508-480a-b6d3-6c28f0dda7a0"},"vehicle_type_id":"4","last_reported":1701187792,"current_range_meters":11200,"station_id":"ce4bgi92rcd13ifvqb90","pricing_plan_id":"free"},{"bike_id":"6e2c5bf5-bf56-4005-bfb5-c2bb11c830c1","system_id":"levelo_inurba_marseille","lat":43.296263,"lon":5.377094,"is_reserved":false,"is_disabled":false,"rental_uris":{"android":"levelo://app?vid=6e2c5bf5-bf56-4005-bfb5-c2bb11c830c1","ios":"levelo://app?vid=6e2c5bf5-bf56-4005-bfb5-c2bb11c830c1"},"vehicle_type_id":"4","last_reported":1701187792,"current_range_meters":14400,"station_id":"ce4bgi92rcd13ifvqb90","pricing_plan_id":"free"},{"bike_id":"b1c83f00-c65c-4d73-aa0b-c15ce58d734b","system_id":"levelo_inurba_marseille","lat":43.298037,"lon":5.381066,"is_reserved":false,"is_disabled":false,"rental_uris":{"android":"levelo://app?vid=b1c83f00-c65c-4d73-aa0b-c15ce58d734b","ios":"levelo://app?vid=b1c83f00-c65c-4d73-aa0b-c15ce58d734b"},"vehicle_type_id":"4","last_reported":1701187792,"current_range_meters":26000,"station_id":"ce4bgip2rcd13ifvqbb0","pricing_plan_id":"free"},{"bike_id":"deed4d43-28f2-4d1d-8bf8-dda5b349a92c","system_id":"levelo_inurba_marseille","lat":43.29539,"lon":5.37447,"is_reserved":false,"is_disabled":false,"rental_uris":{"android":"levelo://app?vid=deed4d43-28f2-4d1d-8bf8-dda5b349a92c","ios":"levelo://app?vid=deed4d43-28f2-4d1d-8bf8-dda5b349a92c"},"vehicle_type_id":"4","last_reported":1701187792,"current_range_meters":18000,"station_id":"ce4bgkp2rcd13ifvqbmg","pricing_plan_id":"free"},{"bike_id":"80ed1bdf-0291-4cf8-bfc7-927353cff7c7","system_id":"levelo_inurba_marseille","lat":43.29616,"lon":5.37732,"is_reserved":false,"is_disabled":false,"rental_uris":{"android":"levelo://app?vid=80ed1bdf-0291-4cf8-bfc7-927353cff7c7","ios":"levelo://app?vid=80ed1bdf-0291-4cf8-bfc7-927353cff7c7"},"vehicle_type_id":"4","last_reported":1701187792,"current_range_meters":15600,"station_id":"ce4bgi92rcd13ifvqb90","pricing_plan_id":"free"},{"bike_id":"d7519763-a406-40d4-ab6f-83d9987731f6","system_id":"levelo_inurba_marseille","lat":43.29526,"lon":5.375,"is_reserved":false,"is_disabled":false,"rental_uris":{"android":"levelo://app?vid=d7519763-a406-40d4-ab6f-83d9987731f6","ios":"levelo://app?vid=d7519763-a406-40d4-ab6f-83d9987731f6"},"vehicle_type_id":"4","last_reported":1701187792,"current_range_meters":12400,"station_id":"ce4bgkp2rcd13ifvqbmg","pricing_plan_id":"free"},{"bike_id":"d15e7ea9-58e9-4084-baf5-256f0c558d8f","system_id":"levelo_inurba_marseille","lat":43.299717,"lon":5.384845,"is_reserved":false,"is_disabled":false,"rental_uris":{"android":"levelo://app?vid=d15e7ea9-58e9-4084-baf5-256f0c558d8f","ios":"levelo://app?vid=d15e7ea9-58e9-4084-baf5-256f0c558d8f"},"vehicle_type_id":"4","last_reported":1701187792,"current_range_meters":0,"station_id":"ce4bgj92rcd13ifvqbd0","pricing_plan_id":"free"},{"bike_id":"6d682541-e303-48f1-a51f-1a3e63d669b4","system_id":"levelo_inurba_marseille","lat":43.32369,"lon":5.38891,"is_reserved":false,"is_disabled":false,"rental_uris":{"android":"levelo://app?vid=6d682541-e303-48f1-a51f-1a3e63d669b4","ios":"levelo://app?vid=6d682541-e303-48f1-a51f-1a3e63d669b4"},"vehicle_type_id":"4","last_reported":1701187792,"current_range_meters":21200,"station_id":"ce4bhqp2rcd13ifvqhog","pricing_plan_id":"free"},{"bike_id":"a1f4d936-2a48-4ffd-abce-4c2879d83340","system_id":"levelo_inurba_marseille","lat":43.32368,"lon":5.38895,"is_reserved":false,"is_disabled":false,"rental_uris":{"android":"levelo://app?vid=a1f4d936-2a48-4ffd-abce-4c2879d83340","ios":"levelo://app?vid=a1f4d936-2a48-4ffd-abce-4c2879d83340"},"vehicle_type_id":"4","last_reported":1701187792,"current_range_meters":12800,"station_id":"ce4bhqp2rcd13ifvqhog","pricing_plan_id":"free"},{"bike_id":"822b26d0-5507-4031-94d1-bf52f84976c8","system_id":"levelo_inurba_marseille","lat":43.2926,"lon":5.36852,"is_reserved":false,"is_disabled":false,"rental_uris":{"android":"levelo://app?vid=822b26d0-5507-4031-94d1-bf52f84976c8","ios":"levelo://app?vid=822b26d0-5507-4031-94d1-bf52f84976c8"},"vehicle_type_id":"4","last_reported":1701187792,"current_range_meters":0,"station_id":"ce4bhbp2rcd13ifvqesg","pricing_plan_id":"free"},{"bike_id":"61630caf-7b57-47a5-b3e8-b4588a630852","system_id":"levelo_inurba_marseille","lat":43.2936,"lon":5.37835,"is_reserved":false,"is_disabled":false,"rental_uris":{"android":"levelo://app?vid=61630caf-7b57-47a5-b3e8-b4588a630852","ios":"levelo://app?vid=61630caf-7b57-47a5-b3e8-b4588a630852"},"vehicle_type_id":"4","last_reported":1701187792,"current_range_meters":18800,"station_id":"ce4bgjh2rcd13ifvqbf0","pricing_plan_id":"free"},{"bike_id":"8ebeb058-f1da-4c59-b8dd-2bede0ffbcdb","system_id":"levelo_inurba_marseille","lat":43.292311,"lon":5.360731,"is_reserved":false,"is_disabled":false,"rental_uris":{"android":"levelo://app?vid=8ebeb058-f1da-4c59-b8dd-2bede0ffbcdb","ios":"levelo://app?vid=8ebeb058-f1da-4c59-b8dd-2bede0ffbcdb"},"vehicle_type_id":"4","last_reported":1701187792,"current_range_meters":2800,"station_id":"ce4bhbh2rcd13ifvqeqg","pricing_plan_id":"free"},{"bike_id":"f26bbc7e-4a21-4c5d-bcde-34cc8ed1f435","system_id":"levelo_inurba_marseille","lat":43.300852,"lon":5.390859,"is_reserved":false,"is_disabled":false,"rental_uris":{"android":"levelo://app?vid=f26bbc7e-4a21-4c5d-bcde-34cc8ed1f435","ios":"levelo://app?vid=f26bbc7e-4a21-4c5d-bcde-34cc8ed1f435"},"vehicle_type_id":"4","last_reported":1701187792,"current_range_meters":16000,"station_id":"ce4bh192rcd13ifvqdb0","pricing_plan_id":"free"},{"bike_id":"13752dc6-25ee-46e9-85a3-de384ce68e9c","system_id":"levelo_inurba_marseille","lat":43.291675,"lon":5.371583,"is_reserved":false,"is_disabled":false,"rental_uris":{"android":"levelo://app?vid=13752dc6-25ee-46e9-85a3-de384ce68e9c","ios":"levelo://app?vid=13752dc6-25ee-46e9-85a3-de384ce68e9c"},"vehicle_type_id":"4","last_reported":1701187792,"current_range_meters":0,"station_id":"ce4bha92rcd13ifvqeh0","pricing_plan_id":"free"},{"bike_id":"87c8b481-b284-480a-8592-c8c2e9a1c081","system_id":"levelo_inurba_marseille","lat":43.298764,"lon":5.388973,"is_reserved":false,"is_disabled":false,"rental_uris":{"android":"levelo://app?vid=87c8b481-b284-480a-8592-c8c2e9a1c081","ios":"levelo://app?vid=87c8b481-b284-480a-8592-c8c2e9a1c081"},"vehicle_type_id":"4","last_reported":1701187792,"current_range_meters":3600,"station_id":"ce4bh392rcd13ifvqdl0","pricing_plan_id":"free"},{"bike_id":"d9ebfe48-1468-4531-a73b-a4391accf70b","system_id":"levelo_inurba_marseille","lat":43.309038,"lon":5.396546,"is_reserved":false,"is_disabled":false,"rental_uris":{"android":"levelo://app?vid=d9ebfe48-1468-4531-a73b-a4391accf70b","ios":"levelo://app?vid=d9ebfe48-1468-4531-a73b-a4391accf70b"},"vehicle_type_id":"4","last_reported":1701187792,"current_range_meters":4400,"station_id":"ce4bh012rcd13ifvqcv0","pricing_plan_id":"free"},{"bike_id":"eba9e99a-90b9-43b0-8d30-d2f357e9ffea","system_id":"levelo_inurba_marseille","lat":43.290327,"lon":5.375711,"is_reserved":false,"is_disabled":false,"rental_uris":{"android":"levelo://app?vid=eba9e99a-90b9-43b0-8d30-d2f357e9ffea","ios":"levelo://app?vid=eba9e99a-90b9-43b0-8d30-d2f357e9ffea"},"vehicle_type_id":"4","last_reported":1701187792,"current_range_meters":18800,"station_id":"ce4bh692rcd13ifvqe90","pricing_plan_id":"free"},{"bike_id":"0180328a-cbd2-4b1e-9ead-d9b1566df5fc","system_id":"levelo_inurba_marseille","lat":43.294153,"lon":5.386305,"is_reserved":false,"is_disabled":false,"rental_uris":{"android":"levelo://app?vid=0180328a-cbd2-4b1e-9ead-d9b1566df5fc","ios":"levelo://app?vid=0180328a-cbd2-4b1e-9ead-d9b1566df5fc"},"vehicle_type_id":"4","last_reported":1701187792,"current_range_meters":0,"station_id":"ce4bh2h2rcd13ifvqdh0","pricing_plan_id":"free"},{"bike_id":"4e55a4bf-94f0-43dd-8401-c653a167caaf","system_id":"levelo_inurba_marseille","lat":43.33041,"lon":5.38922,"is_reserved":false,"is_disabled":false,"rental_uris":{"android":"levelo://app?vid=4e55a4bf-94f0-43dd-8401-c653a167caaf","ios":"levelo://app?vid=4e55a4bf-94f0-43dd-8401-c653a167caaf"},"vehicle_type_id":"4","last_reported":1701187792,"current_range_meters":14800,"station_id":"ce4bhr92rcd13ifvqhrg","pricing_plan_id":"free"},{"bike_id":"5efe4576-f62e-452d-9f2f-0b722fa0df44","system_id":"levelo_inurba_marseille","lat":43.3304,"lon":5.38924,"is_reserved":false,"is_disabled":false,"rental_uris":{"android":"levelo://app?vid=5efe4576-f62e-452d-9f2f-0b722fa0df44","ios":"levelo://app?vid=5efe4576-f62e-452d-9f2f-0b722fa0df44"},"vehicle_type_id":"4","last_reported":1701187792,"current_range_meters":24800,"station_id":"ce4bhr92rcd13ifvqhrg","pricing_plan_id":"free"},{"bike_id":"eed0fe19-783c-4f08-b3f8-725072aa4250","system_id":"levelo_inurba_marseille","lat":43.33044,"lon":5.38919,"is_reserved":false,"is_disabled":false,"rental_uris":{"android":"levelo://app?vid=eed0fe19-783c-4f08-b3f8-725072aa4250","ios":"levelo://app?vid=eed0fe19-783c-4f08-b3f8-725072aa4250"},"vehicle_type_id":"4","last_reported":1701187792,"current_range_meters":9600,"station_id":"ce4bhr92rcd13ifvqhrg","pricing_plan_id":"free"},{"bike_id":"910ecd98-8c2e-4262-a70f-a5273b9e7b53","system_id":"levelo_inurba_marseille","lat":43.330442,"lon":5.389148,"is_reserved":false,"is_disabled":false,"rental_uris":{"android":"levelo://app?vid=910ecd98-8c2e-4262-a70f-a5273b9e7b53","ios":"levelo://app?vid=910ecd98-8c2e-4262-a70f-a5273b9e7b53"},"vehicle_type_id":"4","last_reported":1701187792,"current_range_meters":4400,"station_id":"ce4bhr92rcd13ifvqhrg","pricing_plan_id":"free"},{"bike_id":"ed62b155-fa53-4528-9a8d-31485160bedf","system_id":"levelo_inurba_marseille","lat":43.330442,"lon":5.389148,"is_reserved":false,"is_disabled":false,"rental_uris":{"android":"levelo://app?vid=ed62b155-fa53-4528-9a8d-31485160bedf","ios":"levelo://app?vid=ed62b155-fa53-4528-9a8d-31485160bedf"},"vehicle_type_id":"4","last_reported":1701187792,"current_range_meters":25200,"station_id":"ce4bhr92rcd13ifvqhrg","pricing_plan_id":"free"},{"bike_id":"cbbfe48c-8867-4f20-9006-8ec67884874f","system_id":"levelo_inurba_marseille","lat":43.290995,"lon":5.381361,"is_reserved":false,"is_disabled":false,"rental_uris":{"android":"levelo://app?vid=cbbfe48c-8867-4f20-9006-8ec67884874f","ios":"levelo://app?vid=cbbfe48c-8867-4f20-9006-8ec67884874f"},"vehicle_type_id":"4","last_reported":1701187792,"current_range_meters":4000,"station_id":"ce4bh512rcd13ifvqe2g","pricing_plan_id":"free"},{"bike_id":"7b38ad39-51b8-41b8-ad53-42e54e1e97a3","system_id":"levelo_inurba_marseille","lat":43.295169,"lon":5.390426,"is_reserved":false,"is_disabled":false,"rental_uris":{"android":"levelo://app?vid=7b38ad39-51b8-41b8-ad53-42e54e1e97a3","ios":"levelo://app?vid=7b38ad39-51b8-41b8-ad53-42e54e1e97a3"},"vehicle_type_id":"4","last_reported":1701187792,"current_range_meters":16800,"station_id":"ce4bh3p2rcd13ifvqdp0","pricing_plan_id":"free"},{"bike_id":"8a9fc699-e38b-4ccc-8d16-af2cb3d51d3c","system_id":"levelo_inurba_marseille","lat":43.28856,"lon":5.358371,"is_reserved":false,"is_disabled":false,"rental_uris":{"android":"levelo://app?vid=8a9fc699-e38b-4ccc-8d16-af2cb3d51d3c","ios":"levelo://app?vid=8a9fc699-e38b-4ccc-8d16-af2cb3d51d3c"},"vehicle_type_id":"4","last_reported":1701187792,"current_range_meters":21200,"station_id":"ce4bhb12rcd13ifvqem0","pricing_plan_id":"free"},{"bike_id":"dae0641e-a731-4f3b-87aa-92f04b0de092","system_id":"levelo_inurba_marseille","lat":43.30941,"lon":5.40141,"is_reserved":false,"is_disabled":false,"rental_uris":{"android":"levelo://app?vid=dae0641e-a731-4f3b-87aa-92f04b0de092","ios":"levelo://app?vid=dae0641e-a731-4f3b-87aa-92f04b0de092"},"vehicle_type_id":"4","last_reported":1701187792,"current_range_meters":10000,"station_id":"ce4bgvp2rcd13ifvqct0","pricing_plan_id":"free"},{"bike_id":"ef46b025-b048-41dd-8aa6-3ad3cb99ac58","system_id":"levelo_inurba_marseille","lat":43.31269,"lon":5.40174,"is_reserved":false,"is_disabled":false,"rental_uris":{"android":"levelo://app?vid=ef46b025-b048-41dd-8aa6-3ad3cb99ac58","ios":"levelo://app?vid=ef46b025-b048-41dd-8aa6-3ad3cb99ac58"},"vehicle_type_id":"4","last_reported":1701187792,"current_range_meters":13600,"station_id":"ce4bh092rcd13ifvqd30","pricing_plan_id":"free"},{"bike_id":"6b897b19-9b32-4379-a0e1-d8b8248e930b","system_id":"levelo_inurba_marseille","lat":43.309371,"lon":5.401449,"is_reserved":false,"is_disabled":false,"rental_uris":{"android":"levelo://app?vid=6b897b19-9b32-4379-a0e1-d8b8248e930b","ios":"levelo://app?vid=6b897b19-9b32-4379-a0e1-d8b8248e930b"},"vehicle_type_id":"4","last_reported":1701187792,"current_range_meters":27600,"station_id":"ce4bgvp2rcd13ifvqct0","pricing_plan_id":"free"},{"bike_id":"f0a1dddc-5a74-4082-b1c1-23cfb8b09800","system_id":"levelo_inurba_marseille","lat":43.309371,"lon":5.401449,"is_reserved":false,"is_disabled":false,"rental_uris":{"android":"levelo://app?vid=f0a1dddc-5a74-4082-b1c1-23cfb8b09800","ios":"levelo://app?vid=f0a1dddc-5a74-4082-b1c1-23cfb8b09800"},"vehicle_type_id":"4","last_reported":1701187792,"current_range_meters":7200,"station_id":"ce4bgvp2rcd13ifvqct0","pricing_plan_id":"free"},{"bike_id":"f97a9bc9-3a54-41de-a981-5b2e31108157","system_id":"levelo_inurba_marseille","lat":43.33765,"lon":5.37465,"is_reserved":false,"is_disabled":false,"rental_uris":{"android":"levelo://app?vid=f97a9bc9-3a54-41de-a981-5b2e31108157","ios":"levelo://app?vid=f97a9bc9-3a54-41de-a981-5b2e31108157"},"vehicle_type_id":"4","last_reported":1701187792,"current_range_meters":27600,"station_id":"","pricing_plan_id":"free"},{"bike_id":"77690bdf-c84f-4f29-9b92-4f2338e2243a","system_id":"levelo_inurba_marseille","lat":43.286591,"lon":5.363346,"is_reserved":false,"is_disabled":false,"rental_uris":{"android":"levelo://app?vid=77690bdf-c84f-4f29-9b92-4f2338e2243a","ios":"levelo://app?vid=77690bdf-c84f-4f29-9b92-4f2338e2243a"},"vehicle_type_id":"4","last_reported":1701187792,"current_range_meters":1600,"station_id":"ce4bhah2rcd13ifvqej0","pricing_plan_id":"free"},{"bike_id":"78585cca-7391-4baf-8e83-3826e63c4739","system_id":"levelo_inurba_marseille","lat":43.286591,"lon":5.363346,"is_reserved":false,"is_disabled":false,"rental_uris":{"android":"levelo://app?vid=78585cca-7391-4baf-8e83-3826e63c4739","ios":"levelo://app?vid=78585cca-7391-4baf-8e83-3826e63c4739"},"vehicle_type_id":"4","last_reported":1701187792,"current_range_meters":4000,"station_id":"ce4bhah2rcd13ifvqej0","pricing_plan_id":"free"},{"bike_id":"39e01fc7-2b77-4574-9f9b-74fca2efd79b","system_id":"levelo_inurba_marseille","lat":43.286591,"lon":5.363346,"is_reserved":false,"is_disabled":false,"rental_uris":{"android":"levelo://app?vid=39e01fc7-2b77-4574-9f9b-74fca2efd79b","ios":"levelo://app?vid=39e01fc7-2b77-4574-9f9b-74fca2efd79b"},"vehicle_type_id":"4","last_reported":1701187792,"current_range_meters":6000,"station_id":"ce4bhah2rcd13ifvqej0","pricing_plan_id":"free"},{"bike_id":"81827a5f-a5d3-4a3d-a0d2-68bc2445e080","system_id":"levelo_inurba_marseille","lat":43.295194,"lon":5.39397,"is_reserved":false,"is_disabled":false,"rental_uris":{"android":"levelo://app?vid=81827a5f-a5d3-4a3d-a0d2-68bc2445e080","ios":"levelo://app?vid=81827a5f-a5d3-4a3d-a0d2-68bc2445e080"},"vehicle_type_id":"4","last_reported":1701187792,"current_range_meters":30800,"station_id":"ce4bh292rcd13ifvqdf0","pricing_plan_id":"free"},{"bike_id":"3e38825c-3029-4ca5-9649-ec9f013f940c","system_id":"levelo_inurba_marseille","lat":43.29029,"lon":5.38648,"is_reserved":false,"is_disabled":false,"rental_uris":{"android":"levelo://app?vid=3e38825c-3029-4ca5-9649-ec9f013f940c","ios":"levelo://app?vid=3e38825c-3029-4ca5-9649-ec9f013f940c"},"vehicle_type_id":"4","last_reported":1701187792,"current_range_meters":21600,"station_id":"ce4bh4p2rcd13ifvqe0g","pricing_plan_id":"free"},{"bike_id":"5e3f7124-992b-40bf-90bc-ab890dace8d2","system_id":"levelo_inurba_marseille","lat":43.302759,"lon":5.400793,"is_reserved":false,"is_disabled":false,"rental_uris":{"android":"levelo://app?vid=5e3f7124-992b-40bf-90bc-ab890dace8d2","ios":"levelo://app?vid=5e3f7124-992b-40bf-90bc-ab890dace8d2"},"vehicle_type_id":"4","last_reported":1701187792,"current_range_meters":4000,"station_id":"ce4bgvh2rcd13ifvqcs0","pricing_plan_id":"free"},{"bike_id":"cd442b9e-d67e-45ac-879a-3bf371cb6dc3","system_id":"levelo_inurba_marseille","lat":43.304296,"lon":5.397513,"is_reserved":false,"is_disabled":false,"rental_uris":{"android":"levelo://app?vid=cd442b9e-d67e-45ac-879a-3bf371cb6dc3","ios":"levelo://app?vid=cd442b9e-d67e-45ac-879a-3bf371cb6dc3"},"vehicle_type_id":"4","last_reported":1701187792,"current_range_meters":1600,"station_id":"ce4bh092rcd13ifvqd20","pricing_plan_id":"free"},{"bike_id":"0a7d0847-6f3d-4eea-9772-824804bc038b","system_id":"levelo_inurba_marseille","lat":43.284538,"lon":5.358657,"is_reserved":false,"is_disabled":false,"rental_uris":{"android":"levelo://app?vid=0a7d0847-6f3d-4eea-9772-824804bc038b","ios":"levelo://app?vid=0a7d0847-6f3d-4eea-9772-824804bc038b"},"vehicle_type_id":"4","last_reported":1701187792,"current_range_meters":4000,"station_id":"ce4bhah2rcd13ifvqei0","pricing_plan_id":"free"},{"bike_id":"1d09a79c-0f0b-44b7-a3b3-360fa49b2f71","system_id":"levelo_inurba_marseille","lat":43.2862,"lon":5.35108,"is_reserved":false,"is_disabled":false,"rental_uris":{"android":"levelo://app?vid=1d09a79c-0f0b-44b7-a3b3-360fa49b2f71","ios":"levelo://app?vid=1d09a79c-0f0b-44b7-a3b3-360fa49b2f71"},"vehicle_type_id":"4","last_reported":1701187792,"current_range_meters":18400,"station_id":"ce4bhch2rcd13ifvqeug","pricing_plan_id":"free"},{"bike_id":"5a014ce3-48f8-4762-a738-0c92091efcdf","system_id":"levelo_inurba_marseille","lat":43.28616,"lon":5.35104,"is_reserved":false,"is_disabled":false,"rental_uris":{"android":"levelo://app?vid=5a014ce3-48f8-4762-a738-0c92091efcdf","ios":"levelo://app?vid=5a014ce3-48f8-4762-a738-0c92091efcdf"},"vehicle_type_id":"4","last_reported":1701187792,"current_range_meters":8400,"station_id":"ce4bhch2rcd13ifvqeug","pricing_plan_id":"free"},{"bike_id":"42e65a12-f278-4d45-b15b-86c7407672e6","system_id":"levelo_inurba_marseille","lat":43.323464,"lon":5.406297,"is_reserved":false,"is_disabled":false,"rental_uris":{"android":"levelo://app?vid=42e65a12-f278-4d45-b15b-86c7407672e6","ios":"levelo://app?vid=42e65a12-f278-4d45-b15b-86c7407672e6"},"vehicle_type_id":"4","last_reported":1701187792,"current_range_meters":30000,"station_id":"ce4bhq92rcd13ifvqhjg","pricing_plan_id":"free"},{"bike_id":"eba8c5e0-a17f-4ec4-b9de-d0717fab5707","system_id":"levelo_inurba_marseille","lat":43.284787,"lon":5.384116,"is_reserved":false,"is_disabled":false,"rental_uris":{"android":"levelo://app?vid=eba8c5e0-a17f-4ec4-b9de-d0717fab5707","ios":"levelo://app?vid=eba8c5e0-a17f-4ec4-b9de-d0717fab5707"},"vehicle_type_id":"4","last_reported":1701187792,"current_range_meters":0,"station_id":"ce4bh512rcd13ifvqe3g","pricing_plan_id":"free"},{"bike_id":"f4b50287-5cc2-408d-a93d-525ecd733ba1","system_id":"levelo_inurba_marseille","lat":43.283494,"lon":5.380945,"is_reserved":false,"is_disabled":false,"rental_uris":{"android":"levelo://app?vid=f4b50287-5cc2-408d-a93d-525ecd733ba1","ios":"levelo://app?vid=f4b50287-5cc2-408d-a93d-525ecd733ba1"},"vehicle_type_id":"4","last_reported":1701187792,"current_range_meters":14800,"station_id":"ce4bh412rcd13ifvqdr0","pricing_plan_id":"free"},{"bike_id":"08ddc39f-f453-4048-87fd-5d33cc4afe06","system_id":"levelo_inurba_marseille","lat":43.283498,"lon":5.380948,"is_reserved":false,"is_disabled":false,"rental_uris":{"android":"levelo://app?vid=08ddc39f-f453-4048-87fd-5d33cc4afe06","ios":"levelo://app?vid=08ddc39f-f453-4048-87fd-5d33cc4afe06"},"vehicle_type_id":"4","last_reported":1701187792,"current_range_meters":25600,"station_id":"ce4bh412rcd13ifvqdr0","pricing_plan_id":"free"},{"bike_id":"4cba9615-0b76-4bc8-b3e4-54a70552a046","system_id":"levelo_inurba_marseille","lat":43.284219,"lon":5.3497,"is_reserved":false,"is_disabled":false,"rental_uris":{"android":"levelo://app?vid=4cba9615-0b76-4bc8-b3e4-54a70552a046","ios":"levelo://app?vid=4cba9615-0b76-4bc8-b3e4-54a70552a046"},"vehicle_type_id":"4","last_reported":1701187792,"current_range_meters":0,"station_id":"ce4bhbh2rcd13ifvqepg","pricing_plan_id":"free"},{"bike_id":"e0e06706-c8e0-4b95-9b13-0e5bec7f6dd9","system_id":"levelo_inurba_marseille","lat":43.284219,"lon":5.3497,"is_reserved":false,"is_disabled":false,"rental_uris":{"android":"levelo://app?vid=e0e06706-c8e0-4b95-9b13-0e5bec7f6dd9","ios":"levelo://app?vid=e0e06706-c8e0-4b95-9b13-0e5bec7f6dd9"},"vehicle_type_id":"4","last_reported":1701187792,"current_range_meters":30800,"station_id":"ce4bhbh2rcd13ifvqepg","pricing_plan_id":"free"},{"bike_id":"835e6da1-b1c5-4079-9d25-6a7684aa03a9","system_id":"levelo_inurba_marseille","lat":43.282754,"lon":5.350519,"is_reserved":false,"is_disabled":false,"rental_uris":{"android":"levelo://app?vid=835e6da1-b1c5-4079-9d25-6a7684aa03a9","ios":"levelo://app?vid=835e6da1-b1c5-4079-9d25-6a7684aa03a9"},"vehicle_type_id":"4","last_reported":1701187792,"current_range_meters":30400,"station_id":"ce4bhbp2rcd13ifvqerg","pricing_plan_id":"free"},{"bike_id":"f4707a5c-0777-418d-8292-897594e6b09e","system_id":"levelo_inurba_marseille","lat":43.282744,"lon":5.350533,"is_reserved":false,"is_disabled":false,"rental_uris":{"android":"levelo://app?vid=f4707a5c-0777-418d-8292-897594e6b09e","ios":"levelo://app?vid=f4707a5c-0777-418d-8292-897594e6b09e"},"vehicle_type_id":"4","last_reported":1701187792,"current_range_meters":25200,"station_id":"ce4bhbp2rcd13ifvqerg","pricing_plan_id":"free"},{"bike_id":"aa345ed1-b8d8-44e3-b84b-985575f5af7e","system_id":"levelo_inurba_marseille","lat":43.28039,"lon":5.369297,"is_reserved":false,"is_disabled":false,"rental_uris":{"android":"levelo://app?vid=aa345ed1-b8d8-44e3-b84b-985575f5af7e","ios":"levelo://app?vid=aa345ed1-b8d8-44e3-b84b-985575f5af7e"},"vehicle_type_id":"4","last_reported":1701187792,"current_range_meters":21200,"station_id":"ce4bha12rcd13ifvqef0","pricing_plan_id":"free"},{"bike_id":"590a9e9d-916a-4320-a5c8-49b4b67db1b7","system_id":"levelo_inurba_marseille","lat":43.296263,"lon":5.40601,"is_reserved":false,"is_disabled":false,"rental_uris":{"android":"levelo://app?vid=590a9e9d-916a-4320-a5c8-49b4b67db1b7","ios":"levelo://app?vid=590a9e9d-916a-4320-a5c8-49b4b67db1b7"},"vehicle_type_id":"4","last_reported":1701187792,"current_range_meters":10400,"station_id":"ce4bh0h2rcd13ifvqd60","pricing_plan_id":"free"},{"bike_id":"88ea722c-8faf-4f97-b150-8394155b2bc4","system_id":"levelo_inurba_marseille","lat":43.292571,"lon":5.409107,"is_reserved":false,"is_disabled":false,"rental_uris":{"android":"levelo://app?vid=88ea722c-8faf-4f97-b150-8394155b2bc4","ios":"levelo://app?vid=88ea722c-8faf-4f97-b150-8394155b2bc4"},"vehicle_type_id":"4","last_reported":1701187792,"current_range_meters":27600,"station_id":"ce4bh192rcd13ifvqdc0","pricing_plan_id":"free"},{"bike_id":"cf5f8287-5101-4e56-a9ac-c60be78b8e10","system_id":"levelo_inurba_marseille","lat":43.292571,"lon":5.409107,"is_reserved":false,"is_disabled":false,"rental_uris":{"android":"levelo://app?vid=cf5f8287-5101-4e56-a9ac-c60be78b8e10","ios":"levelo://app?vid=cf5f8287-5101-4e56-a9ac-c60be78b8e10"},"vehicle_type_id":"4","last_reported":1701187792,"current_range_meters":18400,"station_id":"ce4bh192rcd13ifvqdc0","pricing_plan_id":"free"},{"bike_id":"77ba8069-70f8-4881-8eac-8d5ceefe11df","system_id":"levelo_inurba_marseille","lat":43.276185,"lon":5.36117,"is_reserved":false,"is_disabled":false,"rental_uris":{"android":"levelo://app?vid=77ba8069-70f8-4881-8eac-8d5ceefe11df","ios":"levelo://app?vid=77ba8069-70f8-4881-8eac-8d5ceefe11df"},"vehicle_type_id":"4","last_reported":1701187792,"current_range_meters":3600,"station_id":"ce4bgj92rcd13ifvqbe0","pricing_plan_id":"free"},{"bike_id":"b871d849-d5bf-4e02-a1f9-4a8f701b338d","system_id":"levelo_inurba_marseille","lat":43.325313,"lon":5.41448,"is_reserved":false,"is_disabled":false,"rental_uris":{"android":"levelo://app?vid=b871d849-d5bf-4e02-a1f9-4a8f701b338d","ios":"levelo://app?vid=b871d849-d5bf-4e02-a1f9-4a8f701b338d"},"vehicle_type_id":"4","last_reported":1701187792,"current_range_meters":0,"station_id":"ce4bhq12rcd13ifvqhhg","pricing_plan_id":"free"},{"bike_id":"1df39c77-fb7e-4734-a15a-502aabfa8cab","system_id":"levelo_inurba_marseille","lat":43.27615,"lon":5.36105,"is_reserved":false,"is_disabled":false,"rental_uris":{"android":"levelo://app?vid=1df39c77-fb7e-4734-a15a-502aabfa8cab","ios":"levelo://app?vid=1df39c77-fb7e-4734-a15a-502aabfa8cab"},"vehicle_type_id":"4","last_reported":1701187792,"current_range_meters":10000,"station_id":"ce4bgj92rcd13ifvqbe0","pricing_plan_id":"free"},{"bike_id":"e292fd5c-f88c-4ec9-956b-fcd907f9141e","system_id":"levelo_inurba_marseille","lat":43.276179,"lon":5.361009,"is_reserved":false,"is_disabled":false,"rental_uris":{"android":"levelo://app?vid=e292fd5c-f88c-4ec9-956b-fcd907f9141e","ios":"levelo://app?vid=e292fd5c-f88c-4ec9-956b-fcd907f9141e"},"vehicle_type_id":"4","last_reported":1701187792,"current_range_meters":7200,"station_id":"ce4bgj92rcd13ifvqbe0","pricing_plan_id":"free"},{"bike_id":"13f02ded-2a5a-4aae-93fd-4f03633936c9","system_id":"levelo_inurba_marseille","lat":43.280784,"lon":5.396622,"is_reserved":false,"is_disabled":false,"rental_uris":{"android":"levelo://app?vid=13f02ded-2a5a-4aae-93fd-4f03633936c9","ios":"levelo://app?vid=13f02ded-2a5a-4aae-93fd-4f03633936c9"},"vehicle_type_id":"4","last_reported":1701187792,"current_range_meters":20800,"station_id":"ce4bho12rcd13ifvqh2g","pricing_plan_id":"free"},{"bike_id":"f3f2b248-f075-47be-97c9-5e44eb8bc23e","system_id":"levelo_inurba_marseille","lat":43.280784,"lon":5.396622,"is_reserved":false,"is_disabled":false,"rental_uris":{"android":"levelo://app?vid=f3f2b248-f075-47be-97c9-5e44eb8bc23e","ios":"levelo://app?vid=f3f2b248-f075-47be-97c9-5e44eb8bc23e"},"vehicle_type_id":"4","last_reported":1701187792,"current_range_meters":26400,"station_id":"ce4bho12rcd13ifvqh2g","pricing_plan_id":"free"},{"bike_id":"dfb350af-d917-4be3-8f17-e4dc689328f1","system_id":"levelo_inurba_marseille","lat":43.280784,"lon":5.396622,"is_reserved":false,"is_disabled":false,"rental_uris":{"android":"levelo://app?vid=dfb350af-d917-4be3-8f17-e4dc689328f1","ios":"levelo://app?vid=dfb350af-d917-4be3-8f17-e4dc689328f1"},"vehicle_type_id":"4","last_reported":1701187792,"current_range_meters":3600,"station_id":"ce4bho12rcd13ifvqh2g","pricing_plan_id":"free"},{"bike_id":"5d0eb7b0-fe92-4bc3-832a-a1d8c28eab1c","system_id":"levelo_inurba_marseille","lat":43.275625,"lon":5.384392,"is_reserved":false,"is_disabled":false,"rental_uris":{"android":"levelo://app?vid=5d0eb7b0-fe92-4bc3-832a-a1d8c28eab1c","ios":"levelo://app?vid=5d0eb7b0-fe92-4bc3-832a-a1d8c28eab1c"},"vehicle_type_id":"4","last_reported":1701187792,"current_range_meters":16400,"station_id":"ce4bhh92rcd13ifvqfi0","pricing_plan_id":"free"},{"bike_id":"b15c3f0a-b6b2-430b-a1af-cff713c00aac","system_id":"levelo_inurba_marseille","lat":43.278399,"lon":5.392139,"is_reserved":false,"is_disabled":false,"rental_uris":{"android":"levelo://app?vid=b15c3f0a-b6b2-430b-a1af-cff713c00aac","ios":"levelo://app?vid=b15c3f0a-b6b2-430b-a1af-cff713c00aac"},"vehicle_type_id":"4","last_reported":1701187792,"current_range_meters":26000,"station_id":"ce4bhjp2rcd13ifvqga0","pricing_plan_id":"free"},{"bike_id":"2e67f439-5795-423e-9e63-6e059afdc5f3","system_id":"levelo_inurba_marseille","lat":43.275625,"lon":5.384392,"is_reserved":false,"is_disabled":false,"rental_uris":{"android":"levelo://app?vid=2e67f439-5795-423e-9e63-6e059afdc5f3","ios":"levelo://app?vid=2e67f439-5795-423e-9e63-6e059afdc5f3"},"vehicle_type_id":"4","last_reported":1701187792,"current_range_meters":24800,"station_id":"ce4bhh92rcd13ifvqfi0","pricing_plan_id":"free"},{"bike_id":"505c88a6-0a2c-4b3e-a581-086d87b6419b","system_id":"levelo_inurba_marseille","lat":43.275625,"lon":5.384392,"is_reserved":false,"is_disabled":false,"rental_uris":{"android":"levelo://app?vid=505c88a6-0a2c-4b3e-a581-086d87b6419b","ios":"levelo://app?vid=505c88a6-0a2c-4b3e-a581-086d87b6419b"},"vehicle_type_id":"4","last_reported":1701187792,"current_range_meters":23200,"station_id":"ce4bhh92rcd13ifvqfi0","pricing_plan_id":"free"},{"bike_id":"327d89cf-7091-4ff9-b2a7-93d6b84ea853","system_id":"levelo_inurba_marseille","lat":43.273613,"lon":5.362705,"is_reserved":false,"is_disabled":false,"rental_uris":{"android":"levelo://app?vid=327d89cf-7091-4ff9-b2a7-93d6b84ea853","ios":"levelo://app?vid=327d89cf-7091-4ff9-b2a7-93d6b84ea853"},"vehicle_type_id":"4","last_reported":1701187792,"current_range_meters":3200,"station_id":"ce4bhbh2rcd13ifvqeo0","pricing_plan_id":"free"},{"bike_id":"cd30ed20-1c4b-4711-b2e7-9dc55cb84e93","system_id":"levelo_inurba_marseille","lat":43.273609,"lon":5.362708,"is_reserved":false,"is_disabled":false,"rental_uris":{"android":"levelo://app?vid=cd30ed20-1c4b-4711-b2e7-9dc55cb84e93","ios":"levelo://app?vid=cd30ed20-1c4b-4711-b2e7-9dc55cb84e93"},"vehicle_type_id":"4","last_reported":1701187792,"current_range_meters":20000,"station_id":"ce4bhbh2rcd13ifvqeo0","pricing_plan_id":"free"},{"bike_id":"d777abcc-4d39-46f1-98c9-af3c0f07c4ce","system_id":"levelo_inurba_marseille","lat":43.273609,"lon":5.362708,"is_reserved":false,"is_disabled":false,"rental_uris":{"android":"levelo://app?vid=d777abcc-4d39-46f1-98c9-af3c0f07c4ce","ios":"levelo://app?vid=d777abcc-4d39-46f1-98c9-af3c0f07c4ce"},"vehicle_type_id":"4","last_reported":1701187792,"current_range_meters":7600,"station_id":"ce4bhbh2rcd13ifvqeo0","pricing_plan_id":"free"},{"bike_id":"d0fbaac9-5f1b-4e04-a4c7-06abf4bd9547","system_id":"levelo_inurba_marseille","lat":43.279952,"lon":5.400085,"is_reserved":false,"is_disabled":false,"rental_uris":{"android":"levelo://app?vid=d0fbaac9-5f1b-4e04-a4c7-06abf4bd9547","ios":"levelo://app?vid=d0fbaac9-5f1b-4e04-a4c7-06abf4bd9547"},"vehicle_type_id":"4","last_reported":1701187792,"current_range_meters":26400,"station_id":"ce4bho92rcd13ifvqh4g","pricing_plan_id":"free"},{"bike_id":"c2467411-0238-49a9-bb16-d974591a2dc2","system_id":"levelo_inurba_marseille","lat":43.279952,"lon":5.400085,"is_reserved":false,"is_disabled":false,"rental_uris":{"android":"levelo://app?vid=c2467411-0238-49a9-bb16-d974591a2dc2","ios":"levelo://app?vid=c2467411-0238-49a9-bb16-d974591a2dc2"},"vehicle_type_id":"4","last_reported":1701187792,"current_range_meters":19600,"station_id":"ce4bho92rcd13ifvqh4g","pricing_plan_id":"free"},{"bike_id":"47f8efb4-35a1-4798-88b6-947c53f1633f","system_id":"levelo_inurba_marseille","lat":43.279952,"lon":5.400085,"is_reserved":false,"is_disabled":false,"rental_uris":{"android":"levelo://app?vid=47f8efb4-35a1-4798-88b6-947c53f1633f","ios":"levelo://app?vid=47f8efb4-35a1-4798-88b6-947c53f1633f"},"vehicle_type_id":"4","last_reported":1701187792,"current_range_meters":16400,"station_id":"ce4bho92rcd13ifvqh4g","pricing_plan_id":"free"},{"bike_id":"7e50e88f-f3dd-4d63-a658-e19f1cefc2cc","system_id":"levelo_inurba_marseille","lat":43.317121,"lon":5.423936,"is_reserved":false,"is_disabled":false,"rental_uris":{"android":"levelo://app?vid=7e50e88f-f3dd-4d63-a658-e19f1cefc2cc","ios":"levelo://app?vid=7e50e88f-f3dd-4d63-a658-e19f1cefc2cc"},"vehicle_type_id":"4","last_reported":1701187792,"current_range_meters":30400,"station_id":"ce4bhp92rcd13ifvqhbg","pricing_plan_id":"free"},{"bike_id":"aa89070f-7e0c-435d-bf0e-81d595e2b7c8","system_id":"levelo_inurba_marseille","lat":43.340804,"lon":5.410219,"is_reserved":false,"is_disabled":false,"rental_uris":{"android":"levelo://app?vid=aa89070f-7e0c-435d-bf0e-81d595e2b7c8","ios":"levelo://app?vid=aa89070f-7e0c-435d-bf0e-81d595e2b7c8"},"vehicle_type_id":"4","last_reported":1701187792,"current_range_meters":29200,"station_id":"ce4bhqh2rcd13ifvqhlg","pricing_plan_id":"free"},{"bike_id":"6c074129-b079-4d63-9c32-ee9b5dfa6d3b","system_id":"levelo_inurba_marseille","lat":43.274103,"lon":5.394016,"is_reserved":false,"is_disabled":false,"rental_uris":{"android":"levelo://app?vid=6c074129-b079-4d63-9c32-ee9b5dfa6d3b","ios":"levelo://app?vid=6c074129-b079-4d63-9c32-ee9b5dfa6d3b"},"vehicle_type_id":"4","last_reported":1701187792,"current_range_meters":26800,"station_id":"ce4bhdp2rcd13ifvqf20","pricing_plan_id":"free"},{"bike_id":"182a110e-8848-4f59-a38f-434d5d173083","system_id":"levelo_inurba_marseille","lat":43.295511,"lon":5.422926,"is_reserved":false,"is_disabled":false,"rental_uris":{"android":"levelo://app?vid=182a110e-8848-4f59-a38f-434d5d173083","ios":"levelo://app?vid=182a110e-8848-4f59-a38f-434d5d173083"},"vehicle_type_id":"4","last_reported":1701187792,"current_range_meters":16400,"station_id":"ce4bhph2rcd13ifvqhdg","pricing_plan_id":"free"},{"bike_id":"62cfa572-51d4-4a04-9e45-ea785883caeb","system_id":"levelo_inurba_marseille","lat":43.2722,"lon":5.39257,"is_reserved":false,"is_disabled":false,"rental_uris":{"android":"levelo://app?vid=62cfa572-51d4-4a04-9e45-ea785883caeb","ios":"levelo://app?vid=62cfa572-51d4-4a04-9e45-ea785883caeb"},"vehicle_type_id":"4","last_reported":1701187792,"current_range_meters":14800,"station_id":"","pricing_plan_id":"free"},{"bike_id":"938187dd-cf2c-4fc2-a2cc-4c0c98a36f95","system_id":"levelo_inurba_marseille","lat":43.27216,"lon":5.39264,"is_reserved":false,"is_disabled":false,"rental_uris":{"android":"levelo://app?vid=938187dd-cf2c-4fc2-a2cc-4c0c98a36f95","ios":"levelo://app?vid=938187dd-cf2c-4fc2-a2cc-4c0c98a36f95"},"vehicle_type_id":"4","last_reported":1701187792,"current_range_meters":4400,"station_id":"","pricing_plan_id":"free"},{"bike_id":"c8f06c6b-e98f-4268-8742-64627a93f9e3","system_id":"levelo_inurba_marseille","lat":43.278128,"lon":5.407195,"is_reserved":false,"is_disabled":false,"rental_uris":{"android":"levelo://app?vid=c8f06c6b-e98f-4268-8742-64627a93f9e3","ios":"levelo://app?vid=c8f06c6b-e98f-4268-8742-64627a93f9e3"},"vehicle_type_id":"4","last_reported":1701187792,"current_range_meters":28000,"station_id":"ce4bhnh2rcd13ifvqgtg","pricing_plan_id":"free"},{"bike_id":"8a65738d-ff2a-498c-8f19-42177a18a631","system_id":"levelo_inurba_marseille","lat":43.269319,"lon":5.389397,"is_reserved":false,"is_disabled":false,"rental_uris":{"android":"levelo://app?vid=8a65738d-ff2a-498c-8f19-42177a18a631","ios":"levelo://app?vid=8a65738d-ff2a-498c-8f19-42177a18a631"},"vehicle_type_id":"4","last_reported":1701187792,"current_range_meters":14400,"station_id":"ce4bhhh2rcd13ifvqfl0","pricing_plan_id":"free"},{"bike_id":"998756c4-33d5-43ee-8d59-0d18ec85cc5c","system_id":"levelo_inurba_marseille","lat":43.26551,"lon":5.37288,"is_reserved":false,"is_disabled":false,"rental_uris":{"android":"levelo://app?vid=998756c4-33d5-43ee-8d59-0d18ec85cc5c","ios":"levelo://app?vid=998756c4-33d5-43ee-8d59-0d18ec85cc5c"},"vehicle_type_id":"4","last_reported":1701187792,"current_range_meters":22800,"station_id":"ce4bhg12rcd13ifvqf70","pricing_plan_id":"free"},{"bike_id":"15b8b200-e0c7-4824-8b51-a840df5b12c1","system_id":"levelo_inurba_marseille","lat":43.27996,"lon":5.416624,"is_reserved":false,"is_disabled":false,"rental_uris":{"android":"levelo://app?vid=15b8b200-e0c7-4824-8b51-a840df5b12c1","ios":"levelo://app?vid=15b8b200-e0c7-4824-8b51-a840df5b12c1"},"vehicle_type_id":"4","last_reported":1701187792,"current_range_meters":31200,"station_id":"ce4bho12rcd13ifvqh1g","pricing_plan_id":"free"},{"bike_id":"7535fedc-74ac-474b-8a2d-12a425012ada","system_id":"levelo_inurba_marseille","lat":43.308051,"lon":5.43527,"is_reserved":false,"is_disabled":false,"rental_uris":{"android":"levelo://app?vid=7535fedc-74ac-474b-8a2d-12a425012ada","ios":"levelo://app?vid=7535fedc-74ac-474b-8a2d-12a425012ada"},"vehicle_type_id":"4","last_reported":1701187792,"current_range_meters":24800,"station_id":"ce4bhph2rcd13ifvqheg","pricing_plan_id":"free"},{"bike_id":"901a7d32-e285-4ddb-96f0-d36533c525c1","system_id":"levelo_inurba_marseille","lat":43.261782,"lon":5.374515,"is_reserved":false,"is_disabled":false,"rental_uris":{"android":"levelo://app?vid=901a7d32-e285-4ddb-96f0-d36533c525c1","ios":"levelo://app?vid=901a7d32-e285-4ddb-96f0-d36533c525c1"},"vehicle_type_id":"4","last_reported":1701187792,"current_range_meters":4800,"station_id":"ce4bhgp2rcd13ifvqfc0","pricing_plan_id":"free"},{"bike_id":"95f7040a-9ac1-4dee-9c64-b60393d0cdd4","system_id":"levelo_inurba_marseille","lat":43.261782,"lon":5.374515,"is_reserved":false,"is_disabled":false,"rental_uris":{"android":"levelo://app?vid=95f7040a-9ac1-4dee-9c64-b60393d0cdd4","ios":"levelo://app?vid=95f7040a-9ac1-4dee-9c64-b60393d0cdd4"},"vehicle_type_id":"4","last_reported":1701187792,"current_range_meters":23600,"station_id":"ce4bhgp2rcd13ifvqfc0","pricing_plan_id":"free"},{"bike_id":"12ee55be-ae45-4b36-ba0b-cd98485e66e5","system_id":"levelo_inurba_marseille","lat":43.317104,"lon":5.436818,"is_reserved":false,"is_disabled":false,"rental_uris":{"android":"levelo://app?vid=12ee55be-ae45-4b36-ba0b-cd98485e66e5","ios":"levelo://app?vid=12ee55be-ae45-4b36-ba0b-cd98485e66e5"},"vehicle_type_id":"4","last_reported":1701187792,"current_range_meters":28800,"station_id":"ce4bhp92rcd13ifvqhcg","pricing_plan_id":"free"},{"bike_id":"bb25a6f9-5768-4fed-8293-33f0e9e4b88f","system_id":"levelo_inurba_marseille","lat":43.317104,"lon":5.436818,"is_reserved":false,"is_disabled":false,"rental_uris":{"android":"levelo://app?vid=bb25a6f9-5768-4fed-8293-33f0e9e4b88f","ios":"levelo://app?vid=bb25a6f9-5768-4fed-8293-33f0e9e4b88f"},"vehicle_type_id":"4","last_reported":1701187792,"current_range_meters":30000,"station_id":"ce4bhp92rcd13ifvqhcg","pricing_plan_id":"free"},{"bike_id":"8ce95f95-f1e1-425e-8519-b42b10e3fc8e","system_id":"levelo_inurba_marseille","lat":43.317104,"lon":5.436818,"is_reserved":false,"is_disabled":false,"rental_uris":{"android":"levelo://app?vid=8ce95f95-f1e1-425e-8519-b42b10e3fc8e","ios":"levelo://app?vid=8ce95f95-f1e1-425e-8519-b42b10e3fc8e"},"vehicle_type_id":"4","last_reported":1701187792,"current_range_meters":31200,"station_id":"ce4bhp92rcd13ifvqhcg","pricing_plan_id":"free"},{"bike_id":"3ee6d42b-be43-4558-85e1-d7d39f345c6b","system_id":"levelo_inurba_marseille","lat":43.317104,"lon":5.436818,"is_reserved":false,"is_disabled":false,"rental_uris":{"android":"levelo://app?vid=3ee6d42b-be43-4558-85e1-d7d39f345c6b","ios":"levelo://app?vid=3ee6d42b-be43-4558-85e1-d7d39f345c6b"},"vehicle_type_id":"4","last_reported":1701187792,"current_range_meters":30000,"station_id":"ce4bhp92rcd13ifvqhcg","pricing_plan_id":"free"},{"bike_id":"db2e35b6-91ba-4b8a-b10b-c020bac1b56a","system_id":"levelo_inurba_marseille","lat":43.262012,"lon":5.379307,"is_reserved":false,"is_disabled":false,"rental_uris":{"android":"levelo://app?vid=db2e35b6-91ba-4b8a-b10b-c020bac1b56a","ios":"levelo://app?vid=db2e35b6-91ba-4b8a-b10b-c020bac1b56a"},"vehicle_type_id":"4","last_reported":1701187792,"current_range_meters":25600,"station_id":"ce4bhjp2rcd13ifvqg90","pricing_plan_id":"free"},{"bike_id":"5edf4ffd-945c-46ca-853f-f4dc48bf88b7","system_id":"levelo_inurba_marseille","lat":43.26202,"lon":5.379299,"is_reserved":false,"is_disabled":false,"rental_uris":{"android":"levelo://app?vid=5edf4ffd-945c-46ca-853f-f4dc48bf88b7","ios":"levelo://app?vid=5edf4ffd-945c-46ca-853f-f4dc48bf88b7"},"vehicle_type_id":"4","last_reported":1701187792,"current_range_meters":29200,"station_id":"ce4bhjp2rcd13ifvqg90","pricing_plan_id":"free"},{"bike_id":"fa7abb30-4346-431c-b1fa-aef86f064968","system_id":"levelo_inurba_marseille","lat":43.26202,"lon":5.379299,"is_reserved":false,"is_disabled":false,"rental_uris":{"android":"levelo://app?vid=fa7abb30-4346-431c-b1fa-aef86f064968","ios":"levelo://app?vid=fa7abb30-4346-431c-b1fa-aef86f064968"},"vehicle_type_id":"4","last_reported":1701187792,"current_range_meters":12800,"station_id":"ce4bhjp2rcd13ifvqg90","pricing_plan_id":"free"},{"bike_id":"1b6e1605-822a-4d11-8a82-d6df3a659dce","system_id":"levelo_inurba_marseille","lat":43.271368,"lon":5.40928,"is_reserved":false,"is_disabled":false,"rental_uris":{"android":"levelo://app?vid=1b6e1605-822a-4d11-8a82-d6df3a659dce","ios":"levelo://app?vid=1b6e1605-822a-4d11-8a82-d6df3a659dce"},"vehicle_type_id":"4","last_reported":1701187792,"current_range_meters":4800,"station_id":"ce4bhl12rcd13ifvqgf0","pricing_plan_id":"free"},{"bike_id":"0a411095-3a8a-4221-843c-f3d98b94b3cb","system_id":"levelo_inurba_marseille","lat":43.271388,"lon":5.409269,"is_reserved":false,"is_disabled":false,"rental_uris":{"android":"levelo://app?vid=0a411095-3a8a-4221-843c-f3d98b94b3cb","ios":"levelo://app?vid=0a411095-3a8a-4221-843c-f3d98b94b3cb"},"vehicle_type_id":"4","last_reported":1701187792,"current_range_meters":28000,"station_id":"ce4bhl12rcd13ifvqgf0","pricing_plan_id":"free"},{"bike_id":"f4f2e1d5-dafa-412d-9b3a-3611814786ce","system_id":"levelo_inurba_marseille","lat":43.29895,"lon":5.43663,"is_reserved":false,"is_disabled":false,"rental_uris":{"android":"levelo://app?vid=f4f2e1d5-dafa-412d-9b3a-3611814786ce","ios":"levelo://app?vid=f4f2e1d5-dafa-412d-9b3a-3611814786ce"},"vehicle_type_id":"4","last_reported":1701187792,"current_range_meters":31200,"station_id":"ce4bhpp2rcd13ifvqhfg","pricing_plan_id":"free"},{"bike_id":"9713bde9-c9a7-4d76-bb95-dac32047e32a","system_id":"levelo_inurba_marseille","lat":43.29894,"lon":5.43668,"is_reserved":false,"is_disabled":false,"rental_uris":{"android":"levelo://app?vid=9713bde9-c9a7-4d76-bb95-dac32047e32a","ios":"levelo://app?vid=9713bde9-c9a7-4d76-bb95-dac32047e32a"},"vehicle_type_id":"4","last_reported":1701187792,"current_range_meters":29600,"station_id":"ce4bhpp2rcd13ifvqhfg","pricing_plan_id":"free"},{"bike_id":"bbd4ad1f-8d81-4392-8a90-c7c779d363a4","system_id":"levelo_inurba_marseille","lat":43.260225,"lon":5.375455,"is_reserved":false,"is_disabled":false,"rental_uris":{"android":"levelo://app?vid=bbd4ad1f-8d81-4392-8a90-c7c779d363a4","ios":"levelo://app?vid=bbd4ad1f-8d81-4392-8a90-c7c779d363a4"},"vehicle_type_id":"4","last_reported":1701187792,"current_range_meters":31600,"station_id":"ce4bhgh2rcd13ifvqfa0","pricing_plan_id":"free"},{"bike_id":"e5ff3a52-c2a1-4dfd-80ea-871162d24da3","system_id":"levelo_inurba_marseille","lat":43.260219,"lon":5.37546,"is_reserved":false,"is_disabled":false,"rental_uris":{"android":"levelo://app?vid=e5ff3a52-c2a1-4dfd-80ea-871162d24da3","ios":"levelo://app?vid=e5ff3a52-c2a1-4dfd-80ea-871162d24da3"},"vehicle_type_id":"4","last_reported":1701187792,"current_range_meters":10400,"station_id":"ce4bhgh2rcd13ifvqfa0","pricing_plan_id":"free"},{"bike_id":"baa110bc-e6be-491b-9db8-5e934046b735","system_id":"levelo_inurba_marseille","lat":43.260207,"lon":5.37555,"is_reserved":false,"is_disabled":false,"rental_uris":{"android":"levelo://app?vid=baa110bc-e6be-491b-9db8-5e934046b735","ios":"levelo://app?vid=baa110bc-e6be-491b-9db8-5e934046b735"},"vehicle_type_id":"4","last_reported":1701187792,"current_range_meters":16800,"station_id":"ce4bhgh2rcd13ifvqfa0","pricing_plan_id":"free"},{"bike_id":"639055bf-d0a4-4e2c-b6be-dd1d33973c1c","system_id":"levelo_inurba_marseille","lat":43.281548,"lon":5.42643,"is_reserved":false,"is_disabled":false,"rental_uris":{"android":"levelo://app?vid=639055bf-d0a4-4e2c-b6be-dd1d33973c1c","ios":"levelo://app?vid=639055bf-d0a4-4e2c-b6be-dd1d33973c1c"},"vehicle_type_id":"4","last_reported":1701187792,"current_range_meters":20000,"station_id":"ce4bhnh2rcd13ifvqgug","pricing_plan_id":"free"},{"bike_id":"745b3506-32ca-407f-a673-16f7d3002bc6","system_id":"levelo_inurba_marseille","lat":43.281548,"lon":5.42643,"is_reserved":false,"is_disabled":false,"rental_uris":{"android":"levelo://app?vid=745b3506-32ca-407f-a673-16f7d3002bc6","ios":"levelo://app?vid=745b3506-32ca-407f-a673-16f7d3002bc6"},"vehicle_type_id":"4","last_reported":1701187792,"current_range_meters":0,"station_id":"ce4bhnh2rcd13ifvqgug","pricing_plan_id":"free"},{"bike_id":"5055435c-997f-4d36-85b9-a8d5dc082648","system_id":"levelo_inurba_marseille","lat":43.260909,"lon":5.397591,"is_reserved":false,"is_disabled":false,"rental_uris":{"android":"levelo://app?vid=5055435c-997f-4d36-85b9-a8d5dc082648","ios":"levelo://app?vid=5055435c-997f-4d36-85b9-a8d5dc082648"},"vehicle_type_id":"4","last_reported":1701187792,"current_range_meters":2400,"station_id":"ce4bhi12rcd13ifvqfq0","pricing_plan_id":"free"},{"bike_id":"a5821566-b411-4039-a73e-876c2d019b33","system_id":"levelo_inurba_marseille","lat":43.260912,"lon":5.397584,"is_reserved":false,"is_disabled":false,"rental_uris":{"android":"levelo://app?vid=a5821566-b411-4039-a73e-876c2d019b33","ios":"levelo://app?vid=a5821566-b411-4039-a73e-876c2d019b33"},"vehicle_type_id":"4","last_reported":1701187792,"current_range_meters":21200,"station_id":"ce4bhi12rcd13ifvqfq0","pricing_plan_id":"free"},{"bike_id":"17c4468e-72ed-4f3d-a4e3-38a7759f0816","system_id":"levelo_inurba_marseille","lat":43.275028,"lon":5.424534,"is_reserved":false,"is_disabled":false,"rental_uris":{"android":"levelo://app?vid=17c4468e-72ed-4f3d-a4e3-38a7759f0816","ios":"levelo://app?vid=17c4468e-72ed-4f3d-a4e3-38a7759f0816"},"vehicle_type_id":"4","last_reported":1701187792,"current_range_meters":0,"station_id":"ce4bhn92rcd13ifvqgrg","pricing_plan_id":"free"},{"bike_id":"be32455b-e813-47c5-9094-3dfc5a0d8d7a","system_id":"levelo_inurba_marseille","lat":43.25573,"lon":5.382432,"is_reserved":false,"is_disabled":false,"rental_uris":{"android":"levelo://app?vid=be32455b-e813-47c5-9094-3dfc5a0d8d7a","ios":"levelo://app?vid=be32455b-e813-47c5-9094-3dfc5a0d8d7a"},"vehicle_type_id":"4","last_reported":1701187792,"current_range_meters":31200,"station_id":"ce4bhih2rcd13ifvqfs0","pricing_plan_id":"free"},{"bike_id":"539b0977-b087-4922-bb50-ffec0f961813","system_id":"levelo_inurba_marseille","lat":43.254947,"lon":5.376454,"is_reserved":false,"is_disabled":false,"rental_uris":{"android":"levelo://app?vid=539b0977-b087-4922-bb50-ffec0f961813","ios":"levelo://app?vid=539b0977-b087-4922-bb50-ffec0f961813"},"vehicle_type_id":"4","last_reported":1701187792,"current_range_meters":7200,"station_id":"ce4bhh12rcd13ifvqff0","pricing_plan_id":"free"},{"bike_id":"bc600659-af69-4c0f-827d-3096d1bae31b","system_id":"levelo_inurba_marseille","lat":43.254947,"lon":5.376454,"is_reserved":false,"is_disabled":false,"rental_uris":{"android":"levelo://app?vid=bc600659-af69-4c0f-827d-3096d1bae31b","ios":"levelo://app?vid=bc600659-af69-4c0f-827d-3096d1bae31b"},"vehicle_type_id":"4","last_reported":1701187792,"current_range_meters":0,"station_id":"ce4bhh12rcd13ifvqff0","pricing_plan_id":"free"},{"bike_id":"7ac28bd8-4ee4-4c25-8860-922d323292dd","system_id":"levelo_inurba_marseille","lat":43.270721,"lon":5.422764,"is_reserved":false,"is_disabled":false,"rental_uris":{"android":"levelo://app?vid=7ac28bd8-4ee4-4c25-8860-922d323292dd","ios":"levelo://app?vid=7ac28bd8-4ee4-4c25-8860-922d323292dd"},"vehicle_type_id":"4","last_reported":1701187792,"current_range_meters":31600,"station_id":"ce4bhk92rcd13ifvqgb0","pricing_plan_id":"free"},{"bike_id":"d0bbf467-5bb8-4d86-9699-d190208958fd","system_id":"levelo_inurba_marseille","lat":43.270721,"lon":5.422764,"is_reserved":false,"is_disabled":false,"rental_uris":{"android":"levelo://app?vid=d0bbf467-5bb8-4d86-9699-d190208958fd","ios":"levelo://app?vid=d0bbf467-5bb8-4d86-9699-d190208958fd"},"vehicle_type_id":"4","last_reported":1701187792,"current_range_meters":10800,"station_id":"ce4bhk92rcd13ifvqgb0","pricing_plan_id":"free"},{"bike_id":"acff6c1c-53bf-41b2-82ef-0de0cafbbd57","system_id":"levelo_inurba_marseille","lat":43.270721,"lon":5.422764,"is_reserved":false,"is_disabled":false,"rental_uris":{"android":"levelo://app?vid=acff6c1c-53bf-41b2-82ef-0de0cafbbd57","ios":"levelo://app?vid=acff6c1c-53bf-41b2-82ef-0de0cafbbd57"},"vehicle_type_id":"4","last_reported":1701187792,"current_range_meters":17200,"station_id":"ce4bhk92rcd13ifvqgb0","pricing_plan_id":"free"},{"bike_id":"db6d341f-d6f0-4958-9992-f9014ca2145b","system_id":"levelo_inurba_marseille","lat":43.257079,"lon":5.411051,"is_reserved":false,"is_disabled":false,"rental_uris":{"android":"levelo://app?vid=db6d341f-d6f0-4958-9992-f9014ca2145b","ios":"levelo://app?vid=db6d341f-d6f0-4958-9992-f9014ca2145b"},"vehicle_type_id":"4","last_reported":1701187792,"current_range_meters":31600,"station_id":"ce4bhkp2rcd13ifvqgd0","pricing_plan_id":"free"},{"bike_id":"cfe0e934-4a86-4658-a3fc-37dfe7dec3cc","system_id":"levelo_inurba_marseille","lat":43.257079,"lon":5.411051,"is_reserved":false,"is_disabled":false,"rental_uris":{"android":"levelo://app?vid=cfe0e934-4a86-4658-a3fc-37dfe7dec3cc","ios":"levelo://app?vid=cfe0e934-4a86-4658-a3fc-37dfe7dec3cc"},"vehicle_type_id":"4","last_reported":1701187792,"current_range_meters":19200,"station_id":"ce4bhkp2rcd13ifvqgd0","pricing_plan_id":"free"},{"bike_id":"c24123b4-ff50-4fc8-8386-8e3842198273","system_id":"levelo_inurba_marseille","lat":43.257185,"lon":5.411128,"is_reserved":false,"is_disabled":false,"rental_uris":{"android":"levelo://app?vid=c24123b4-ff50-4fc8-8386-8e3842198273","ios":"levelo://app?vid=c24123b4-ff50-4fc8-8386-8e3842198273"},"vehicle_type_id":"4","last_reported":1701187792,"current_range_meters":19200,"station_id":"ce4bhkp2rcd13ifvqgd0","pricing_plan_id":"free"},{"bike_id":"3e09080e-9db5-4c48-951f-c5f672a60264","system_id":"levelo_inurba_marseille","lat":43.34249,"lon":5.44554,"is_reserved":false,"is_disabled":false,"rental_uris":{"android":"levelo://app?vid=3e09080e-9db5-4c48-951f-c5f672a60264","ios":"levelo://app?vid=3e09080e-9db5-4c48-951f-c5f672a60264"},"vehicle_type_id":"4","last_reported":1701187792,"current_range_meters":15200,"station_id":"","pricing_plan_id":"free"},{"bike_id":"87fce401-ae15-4214-8d0c-cd3ecd5f960e","system_id":"levelo_inurba_marseille","lat":43.2479,"lon":5.374457,"is_reserved":false,"is_disabled":false,"rental_uris":{"android":"levelo://app?vid=87fce401-ae15-4214-8d0c-cd3ecd5f960e","ios":"levelo://app?vid=87fce401-ae15-4214-8d0c-cd3ecd5f960e"},"vehicle_type_id":"4","last_reported":1701187792,"current_range_meters":23200,"station_id":"ce4bhgh2rcd13ifvqfb0","pricing_plan_id":"free"},{"bike_id":"2c719d8c-64e7-4434-9eb7-3211a1163283","system_id":"levelo_inurba_marseille","lat":43.2479,"lon":5.374457,"is_reserved":false,"is_disabled":false,"rental_uris":{"android":"levelo://app?vid=2c719d8c-64e7-4434-9eb7-3211a1163283","ios":"levelo://app?vid=2c719d8c-64e7-4434-9eb7-3211a1163283"},"vehicle_type_id":"4","last_reported":1701187792,"current_range_meters":13600,"station_id":"ce4bhgh2rcd13ifvqfb0","pricing_plan_id":"free"},{"bike_id":"4bda34c5-b843-43f0-8a0f-770eb9051286","system_id":"levelo_inurba_marseille","lat":43.2479,"lon":5.374457,"is_reserved":false,"is_disabled":false,"rental_uris":{"android":"levelo://app?vid=4bda34c5-b843-43f0-8a0f-770eb9051286","ios":"levelo://app?vid=4bda34c5-b843-43f0-8a0f-770eb9051286"},"vehicle_type_id":"4","last_reported":1701187792,"current_range_meters":2800,"station_id":"ce4bhgh2rcd13ifvqfb0","pricing_plan_id":"free"},{"bike_id":"d123f352-91b6-48d4-960e-653a999b3839","system_id":"levelo_inurba_marseille","lat":43.2479,"lon":5.374457,"is_reserved":false,"is_disabled":false,"rental_uris":{"android":"levelo://app?vid=d123f352-91b6-48d4-960e-653a999b3839","ios":"levelo://app?vid=d123f352-91b6-48d4-960e-653a999b3839"},"vehicle_type_id":"4","last_reported":1701187792,"current_range_meters":18000,"station_id":"ce4bhgh2rcd13ifvqfb0","pricing_plan_id":"free"},{"bike_id":"bacf06e7-5a52-4d38-8de5-a594a2882e33","system_id":"levelo_inurba_marseille","lat":43.2479,"lon":5.374457,"is_reserved":false,"is_disabled":false,"rental_uris":{"android":"levelo://app?vid=bacf06e7-5a52-4d38-8de5-a594a2882e33","ios":"levelo://app?vid=bacf06e7-5a52-4d38-8de5-a594a2882e33"},"vehicle_type_id":"4","last_reported":1701187792,"current_range_meters":19600,"station_id":"ce4bhgh2rcd13ifvqfb0","pricing_plan_id":"free"},{"bike_id":"04731280-ccf1-40fc-8839-92bcb7147b20","system_id":"levelo_inurba_marseille","lat":43.2479,"lon":5.374457,"is_reserved":false,"is_disabled":false,"rental_uris":{"android":"levelo://app?vid=04731280-ccf1-40fc-8839-92bcb7147b20","ios":"levelo://app?vid=04731280-ccf1-40fc-8839-92bcb7147b20"},"vehicle_type_id":"4","last_reported":1701187792,"current_range_meters":25200,"station_id":"ce4bhgh2rcd13ifvqfb0","pricing_plan_id":"free"},{"bike_id":"2d81ee7e-bc1d-4d6d-8df6-caf9aab4c55f","system_id":"levelo_inurba_marseille","lat":43.2479,"lon":5.374457,"is_reserved":false,"is_disabled":false,"rental_uris":{"android":"levelo://app?vid=2d81ee7e-bc1d-4d6d-8df6-caf9aab4c55f","ios":"levelo://app?vid=2d81ee7e-bc1d-4d6d-8df6-caf9aab4c55f"},"vehicle_type_id":"4","last_reported":1701187792,"current_range_meters":8800,"station_id":"ce4bhgh2rcd13ifvqfb0","pricing_plan_id":"free"},{"bike_id":"4c0c3118-7eaa-4ebd-8d87-d449bea3e021","system_id":"levelo_inurba_marseille","lat":43.250897,"lon":5.395161,"is_reserved":false,"is_disabled":false,"rental_uris":{"android":"levelo://app?vid=4c0c3118-7eaa-4ebd-8d87-d449bea3e021","ios":"levelo://app?vid=4c0c3118-7eaa-4ebd-8d87-d449bea3e021"},"vehicle_type_id":"4","last_reported":1701187792,"current_range_meters":16000,"station_id":"ce4bhm12rcd13ifvqgkg","pricing_plan_id":"free"},{"bike_id":"35ae4ff9-8a3f-4a55-aaa6-45fa0c4f2f9a","system_id":"levelo_inurba_marseille","lat":43.24693,"lon":5.382096,"is_reserved":false,"is_disabled":false,"rental_uris":{"android":"levelo://app?vid=35ae4ff9-8a3f-4a55-aaa6-45fa0c4f2f9a","ios":"levelo://app?vid=35ae4ff9-8a3f-4a55-aaa6-45fa0c4f2f9a"},"vehicle_type_id":"4","last_reported":1701187792,"current_range_meters":29600,"station_id":"ce4bhih2rcd13ifvqfr0","pricing_plan_id":"free"},{"bike_id":"b60bfc4e-9b33-4b93-86fa-4c35a4b0be90","system_id":"levelo_inurba_marseille","lat":43.246613,"lon":5.381657,"is_reserved":false,"is_disabled":false,"rental_uris":{"android":"levelo://app?vid=b60bfc4e-9b33-4b93-86fa-4c35a4b0be90","ios":"levelo://app?vid=b60bfc4e-9b33-4b93-86fa-4c35a4b0be90"},"vehicle_type_id":"4","last_reported":1701187792,"current_range_meters":29600,"station_id":"ce4bhih2rcd13ifvqfr0","pricing_plan_id":"free"},{"bike_id":"b9df05b7-74b9-4447-95e4-1b2792efa828","system_id":"levelo_inurba_marseille","lat":43.246603,"lon":5.381683,"is_reserved":false,"is_disabled":false,"rental_uris":{"android":"levelo://app?vid=b9df05b7-74b9-4447-95e4-1b2792efa828","ios":"levelo://app?vid=b9df05b7-74b9-4447-95e4-1b2792efa828"},"vehicle_type_id":"4","last_reported":1701187792,"current_range_meters":28000,"station_id":"ce4bhih2rcd13ifvqfr0","pricing_plan_id":"free"},{"bike_id":"f28f0f63-225d-4852-97ee-aa985726d1b9","system_id":"levelo_inurba_marseille","lat":43.25102,"lon":5.403214,"is_reserved":false,"is_disabled":false,"rental_uris":{"android":"levelo://app?vid=f28f0f63-225d-4852-97ee-aa985726d1b9","ios":"levelo://app?vid=f28f0f63-225d-4852-97ee-aa985726d1b9"},"vehicle_type_id":"4","last_reported":1701187792,"current_range_meters":15600,"station_id":"ce4bhlh2rcd13ifvqgig","pricing_plan_id":"free"},{"bike_id":"ff268154-f02c-4a83-8095-8ed2b98cb1a2","system_id":"levelo_inurba_marseille","lat":43.25107,"lon":5.40325,"is_reserved":false,"is_disabled":false,"rental_uris":{"android":"levelo://app?vid=ff268154-f02c-4a83-8095-8ed2b98cb1a2","ios":"levelo://app?vid=ff268154-f02c-4a83-8095-8ed2b98cb1a2"},"vehicle_type_id":"4","last_reported":1701187792,"current_range_meters":0,"station_id":"ce4bhlh2rcd13ifvqgig","pricing_plan_id":"free"},{"bike_id":"f1388486-ef3c-45a1-bd38-657b364d74cc","system_id":"levelo_inurba_marseille","lat":43.246461,"lon":5.389014,"is_reserved":false,"is_disabled":false,"rental_uris":{"android":"levelo://app?vid=f1388486-ef3c-45a1-bd38-657b364d74cc","ios":"levelo://app?vid=f1388486-ef3c-45a1-bd38-657b364d74cc"},"vehicle_type_id":"4","last_reported":1701187792,"current_range_meters":22000,"station_id":"ce4bhg12rcd13ifvqf60","pricing_plan_id":"free"},{"bike_id":"98957297-3916-4d51-92a9-7ce7f05bbe72","system_id":"levelo_inurba_marseille","lat":43.246461,"lon":5.389014,"is_reserved":false,"is_disabled":false,"rental_uris":{"android":"levelo://app?vid=98957297-3916-4d51-92a9-7ce7f05bbe72","ios":"levelo://app?vid=98957297-3916-4d51-92a9-7ce7f05bbe72"},"vehicle_type_id":"4","last_reported":1701187792,"current_range_meters":15600,"station_id":"ce4bhg12rcd13ifvqf60","pricing_plan_id":"free"},{"bike_id":"d983cbd7-9a69-466a-9b7c-dcb54a38e554","system_id":"levelo_inurba_marseille","lat":43.246518,"lon":5.388924,"is_reserved":false,"is_disabled":false,"rental_uris":{"android":"levelo://app?vid=d983cbd7-9a69-466a-9b7c-dcb54a38e554","ios":"levelo://app?vid=d983cbd7-9a69-466a-9b7c-dcb54a38e554"},"vehicle_type_id":"4","last_reported":1701187792,"current_range_meters":20000,"station_id":"","pricing_plan_id":"free"},{"bike_id":"d077abcf-a9f7-488d-858f-7e6af7c7a8fb","system_id":"levelo_inurba_marseille","lat":43.246467,"lon":5.388984,"is_reserved":false,"is_disabled":false,"rental_uris":{"android":"levelo://app?vid=d077abcf-a9f7-488d-858f-7e6af7c7a8fb","ios":"levelo://app?vid=d077abcf-a9f7-488d-858f-7e6af7c7a8fb"},"vehicle_type_id":"4","last_reported":1701187792,"current_range_meters":31200,"station_id":"ce4bhg12rcd13ifvqf60","pricing_plan_id":"free"},{"bike_id":"9d0fa6c6-7d37-4709-9677-135aef041de9","system_id":"levelo_inurba_marseille","lat":43.246467,"lon":5.388984,"is_reserved":false,"is_disabled":false,"rental_uris":{"android":"levelo://app?vid=9d0fa6c6-7d37-4709-9677-135aef041de9","ios":"levelo://app?vid=9d0fa6c6-7d37-4709-9677-135aef041de9"},"vehicle_type_id":"4","last_reported":1701187792,"current_range_meters":24800,"station_id":"ce4bhg12rcd13ifvqf60","pricing_plan_id":"free"},{"bike_id":"fb3459a0-e796-475a-aa09-508857e00de2","system_id":"levelo_inurba_marseille","lat":43.243884,"lon":5.370737,"is_reserved":false,"is_disabled":false,"rental_uris":{"android":"levelo://app?vid=fb3459a0-e796-475a-aa09-508857e00de2","ios":"levelo://app?vid=fb3459a0-e796-475a-aa09-508857e00de2"},"vehicle_type_id":"4","last_reported":1701187792,"current_range_meters":19600,"station_id":"ce4bhhh2rcd13ifvqfk0","pricing_plan_id":"free"},{"bike_id":"e5910d44-6cab-4a24-8636-bdb3feee38e3","system_id":"levelo_inurba_marseille","lat":43.243884,"lon":5.370736,"is_reserved":false,"is_disabled":false,"rental_uris":{"android":"levelo://app?vid=e5910d44-6cab-4a24-8636-bdb3feee38e3","ios":"levelo://app?vid=e5910d44-6cab-4a24-8636-bdb3feee38e3"},"vehicle_type_id":"4","last_reported":1701187792,"current_range_meters":5200,"station_id":"ce4bhhh2rcd13ifvqfk0","pricing_plan_id":"free"},{"bike_id":"cc98ff31-5a8c-4af6-aeca-467e125f224a","system_id":"levelo_inurba_marseille","lat":43.24076,"lon":5.3776,"is_reserved":false,"is_disabled":false,"rental_uris":{"android":"levelo://app?vid=cc98ff31-5a8c-4af6-aeca-467e125f224a","ios":"levelo://app?vid=cc98ff31-5a8c-4af6-aeca-467e125f224a"},"vehicle_type_id":"4","last_reported":1701187792,"current_range_meters":25200,"station_id":"ce4bhnp2rcd13ifvqgvg","pricing_plan_id":"free"},{"bike_id":"c98fbf18-5baf-42c5-8365-f976905c2262","system_id":"levelo_inurba_marseille","lat":43.239588,"lon":5.366238,"is_reserved":false,"is_disabled":false,"rental_uris":{"android":"levelo://app?vid=c98fbf18-5baf-42c5-8365-f976905c2262","ios":"levelo://app?vid=c98fbf18-5baf-42c5-8365-f976905c2262"},"vehicle_type_id":"4","last_reported":1701187792,"current_range_meters":30400,"station_id":"ce4bhi12rcd13ifvqfp0","pricing_plan_id":"free"},{"bike_id":"cc95caf3-5a17-44b1-8509-402b32a2fee9","system_id":"levelo_inurba_marseille","lat":43.239588,"lon":5.366238,"is_reserved":false,"is_disabled":false,"rental_uris":{"android":"levelo://app?vid=cc95caf3-5a17-44b1-8509-402b32a2fee9","ios":"levelo://app?vid=cc95caf3-5a17-44b1-8509-402b32a2fee9"},"vehicle_type_id":"4","last_reported":1701187792,"current_range_meters":23600,"station_id":"ce4bhi12rcd13ifvqfp0","pricing_plan_id":"free"},{"bike_id":"dc15fb23-c78a-4716-a06d-4c8a284fc031","system_id":"levelo_inurba_marseille","lat":43.239588,"lon":5.366238,"is_reserved":false,"is_disabled":false,"rental_uris":{"android":"levelo://app?vid=dc15fb23-c78a-4716-a06d-4c8a284fc031","ios":"levelo://app?vid=dc15fb23-c78a-4716-a06d-4c8a284fc031"},"vehicle_type_id":"4","last_reported":1701187792,"current_range_meters":16000,"station_id":"ce4bhi12rcd13ifvqfp0","pricing_plan_id":"free"},{"bike_id":"f49e990d-6ef6-47f3-81ff-a580a8e67ac7","system_id":"levelo_inurba_marseille","lat":43.239588,"lon":5.366238,"is_reserved":false,"is_disabled":false,"rental_uris":{"android":"levelo://app?vid=f49e990d-6ef6-47f3-81ff-a580a8e67ac7","ios":"levelo://app?vid=f49e990d-6ef6-47f3-81ff-a580a8e67ac7"},"vehicle_type_id":"4","last_reported":1701187792,"current_range_meters":12800,"station_id":"ce4bhi12rcd13ifvqfp0","pricing_plan_id":"free"},{"bike_id":"fe2e14a2-dd05-44a1-9c66-2bf540c8859a","system_id":"levelo_inurba_marseille","lat":43.239588,"lon":5.366238,"is_reserved":false,"is_disabled":false,"rental_uris":{"android":"levelo://app?vid=fe2e14a2-dd05-44a1-9c66-2bf540c8859a","ios":"levelo://app?vid=fe2e14a2-dd05-44a1-9c66-2bf540c8859a"},"vehicle_type_id":"4","last_reported":1701187792,"current_range_meters":9200,"station_id":"ce4bhi12rcd13ifvqfp0","pricing_plan_id":"free"},{"bike_id":"e141d606-c7f5-450d-9a2b-6571a24ed183","system_id":"levelo_inurba_marseille","lat":43.239588,"lon":5.366238,"is_reserved":false,"is_disabled":false,"rental_uris":{"android":"levelo://app?vid=e141d606-c7f5-450d-9a2b-6571a24ed183","ios":"levelo://app?vid=e141d606-c7f5-450d-9a2b-6571a24ed183"},"vehicle_type_id":"4","last_reported":1701187792,"current_range_meters":14400,"station_id":"ce4bhi12rcd13ifvqfp0","pricing_plan_id":"free"},{"bike_id":"c96cec8f-397c-4509-8a70-0668bdde29e0","system_id":"levelo_inurba_marseille","lat":43.239588,"lon":5.366238,"is_reserved":false,"is_disabled":false,"rental_uris":{"android":"levelo://app?vid=c96cec8f-397c-4509-8a70-0668bdde29e0","ios":"levelo://app?vid=c96cec8f-397c-4509-8a70-0668bdde29e0"},"vehicle_type_id":"4","last_reported":1701187792,"current_range_meters":5200,"station_id":"ce4bhi12rcd13ifvqfp0","pricing_plan_id":"free"},{"bike_id":"17d69103-493b-4b26-828c-1b20619eeafb","system_id":"levelo_inurba_marseille","lat":43.24242,"lon":5.397975,"is_reserved":false,"is_disabled":false,"rental_uris":{"android":"levelo://app?vid=17d69103-493b-4b26-828c-1b20619eeafb","ios":"levelo://app?vid=17d69103-493b-4b26-828c-1b20619eeafb"},"vehicle_type_id":"4","last_reported":1701187792,"current_range_meters":15200,"station_id":"","pricing_plan_id":"free"},{"bike_id":"3b21d2c8-c287-4570-9746-8452112a4f45","system_id":"levelo_inurba_marseille","lat":43.2424,"lon":5.39798,"is_reserved":false,"is_disabled":false,"rental_uris":{"android":"levelo://app?vid=3b21d2c8-c287-4570-9746-8452112a4f45","ios":"levelo://app?vid=3b21d2c8-c287-4570-9746-8452112a4f45"},"vehicle_type_id":"4","last_reported":1701187792,"current_range_meters":14400,"station_id":"","pricing_plan_id":"free"},{"bike_id":"c298c075-4289-4e2a-8cbe-5956a8fee31d","system_id":"levelo_inurba_marseille","lat":43.231919,"lon":5.355532,"is_reserved":false,"is_disabled":false,"rental_uris":{"android":"levelo://app?vid=c298c075-4289-4e2a-8cbe-5956a8fee31d","ios":"levelo://app?vid=c298c075-4289-4e2a-8cbe-5956a8fee31d"},"vehicle_type_id":"4","last_reported":1701187792,"current_range_meters":15200,"station_id":"ce4bhu92rcd13ifvqi70","pricing_plan_id":"free"},{"bike_id":"02f836db-d0c9-4d7a-8466-29e57beb35fa","system_id":"levelo_inurba_marseille","lat":43.231919,"lon":5.355532,"is_reserved":false,"is_disabled":false,"rental_uris":{"android":"levelo://app?vid=02f836db-d0c9-4d7a-8466-29e57beb35fa","ios":"levelo://app?vid=02f836db-d0c9-4d7a-8466-29e57beb35fa"},"vehicle_type_id":"4","last_reported":1701187792,"current_range_meters":31200,"station_id":"ce4bhu92rcd13ifvqi70","pricing_plan_id":"free"},{"bike_id":"d1703505-b125-4a98-a807-11024241bc04","system_id":"levelo_inurba_marseille","lat":43.231923,"lon":5.355545,"is_reserved":false,"is_disabled":false,"rental_uris":{"android":"levelo://app?vid=d1703505-b125-4a98-a807-11024241bc04","ios":"levelo://app?vid=d1703505-b125-4a98-a807-11024241bc04"},"vehicle_type_id":"4","last_reported":1701187792,"current_range_meters":18400,"station_id":"ce4bhu92rcd13ifvqi70","pricing_plan_id":"free"},{"bike_id":"cb1ad581-4198-43f1-868c-486f2828ac05","system_id":"levelo_inurba_marseille","lat":43.231919,"lon":5.355532,"is_reserved":false,"is_disabled":false,"rental_uris":{"android":"levelo://app?vid=cb1ad581-4198-43f1-868c-486f2828ac05","ios":"levelo://app?vid=cb1ad581-4198-43f1-868c-486f2828ac05"},"vehicle_type_id":"4","last_reported":1701187792,"current_range_meters":22800,"station_id":"ce4bhu92rcd13ifvqi70","pricing_plan_id":"free"},{"bike_id":"b37cf8bc-ef87-4960-b38c-3279b894369f","system_id":"levelo_inurba_marseille","lat":43.231923,"lon":5.355545,"is_reserved":false,"is_disabled":false,"rental_uris":{"android":"levelo://app?vid=b37cf8bc-ef87-4960-b38c-3279b894369f","ios":"levelo://app?vid=b37cf8bc-ef87-4960-b38c-3279b894369f"},"vehicle_type_id":"4","last_reported":1701187792,"current_range_meters":9200,"station_id":"ce4bhu92rcd13ifvqi70","pricing_plan_id":"free"},{"bike_id":"8388bd6d-3236-4990-a869-ca1a9e233cac","system_id":"levelo_inurba_marseille","lat":43.231919,"lon":5.355532,"is_reserved":false,"is_disabled":false,"rental_uris":{"android":"levelo://app?vid=8388bd6d-3236-4990-a869-ca1a9e233cac","ios":"levelo://app?vid=8388bd6d-3236-4990-a869-ca1a9e233cac"},"vehicle_type_id":"4","last_reported":1701187792,"current_range_meters":10000,"station_id":"ce4bhu92rcd13ifvqi70","pricing_plan_id":"free"},{"bike_id":"d7b03b38-f119-4134-94e1-e00f1f58ff44","system_id":"levelo_inurba_marseille","lat":43.231854,"lon":5.399881,"is_reserved":false,"is_disabled":false,"rental_uris":{"android":"levelo://app?vid=d7b03b38-f119-4134-94e1-e00f1f58ff44","ios":"levelo://app?vid=d7b03b38-f119-4134-94e1-e00f1f58ff44"},"vehicle_type_id":"4","last_reported":1701187792,"current_range_meters":8400,"station_id":"ce4bhn12rcd13ifvqgqg","pricing_plan_id":"free"},{"bike_id":"9a7ef747-2d6e-4971-8c61-7fee9382ac76","system_id":"levelo_inurba_marseille","lat":43.231794,"lon":5.400052,"is_reserved":false,"is_disabled":false,"rental_uris":{"android":"levelo://app?vid=9a7ef747-2d6e-4971-8c61-7fee9382ac76","ios":"levelo://app?vid=9a7ef747-2d6e-4971-8c61-7fee9382ac76"},"vehicle_type_id":"4","last_reported":1701187792,"current_range_meters":22800,"station_id":"ce4bhn12rcd13ifvqgqg","pricing_plan_id":"free"},{"bike_id":"70f8d6b1-3beb-4459-a185-9caece882463","system_id":"levelo_inurba_marseille","lat":43.231794,"lon":5.400052,"is_reserved":false,"is_disabled":false,"rental_uris":{"android":"levelo://app?vid=70f8d6b1-3beb-4459-a185-9caece882463","ios":"levelo://app?vid=70f8d6b1-3beb-4459-a185-9caece882463"},"vehicle_type_id":"4","last_reported":1701187792,"current_range_meters":10800,"station_id":"ce4bhn12rcd13ifvqgqg","pricing_plan_id":"free"},{"bike_id":"9cda8cdf-9120-4a6e-bac3-fb3433683fe9","system_id":"levelo_inurba_marseille","lat":43.231793,"lon":5.400044,"is_reserved":false,"is_disabled":false,"rental_uris":{"android":"levelo://app?vid=9cda8cdf-9120-4a6e-bac3-fb3433683fe9","ios":"levelo://app?vid=9cda8cdf-9120-4a6e-bac3-fb3433683fe9"},"vehicle_type_id":"4","last_reported":1701187792,"current_range_meters":14400,"station_id":"ce4bhn12rcd13ifvqgqg","pricing_plan_id":"free"},{"bike_id":"addb5449-a430-4f38-91b1-be79a795825d","system_id":"levelo_inurba_marseille","lat":43.231793,"lon":5.400044,"is_reserved":false,"is_disabled":false,"rental_uris":{"android":"levelo://app?vid=addb5449-a430-4f38-91b1-be79a795825d","ios":"levelo://app?vid=addb5449-a430-4f38-91b1-be79a795825d"},"vehicle_type_id":"4","last_reported":1701187792,"current_range_meters":4400,"station_id":"ce4bhn12rcd13ifvqgqg","pricing_plan_id":"free"},{"bike_id":"e1d86ea6-4683-4b9e-8f27-180e0a317995","system_id":"levelo_inurba_marseille","lat":43.231794,"lon":5.400052,"is_reserved":false,"is_disabled":false,"rental_uris":{"android":"levelo://app?vid=e1d86ea6-4683-4b9e-8f27-180e0a317995","ios":"levelo://app?vid=e1d86ea6-4683-4b9e-8f27-180e0a317995"},"vehicle_type_id":"4","last_reported":1701187792,"current_range_meters":1600,"station_id":"ce4bhn12rcd13ifvqgqg","pricing_plan_id":"free"},{"bike_id":"9053ab29-ed81-42f8-b33c-b04d3362bbf1","system_id":"levelo_inurba_marseille","lat":43.231794,"lon":5.400052,"is_reserved":false,"is_disabled":false,"rental_uris":{"android":"levelo://app?vid=9053ab29-ed81-42f8-b33c-b04d3362bbf1","ios":"levelo://app?vid=9053ab29-ed81-42f8-b33c-b04d3362bbf1"},"vehicle_type_id":"4","last_reported":1701187792,"current_range_meters":2800,"station_id":"ce4bhn12rcd13ifvqgqg","pricing_plan_id":"free"},{"bike_id":"42a38387-074a-412b-a48f-f0ffd5a179ee","system_id":"levelo_inurba_marseille","lat":43.231562,"lon":5.436933,"is_reserved":false,"is_disabled":false,"rental_uris":{"android":"levelo://app?vid=42a38387-074a-412b-a48f-f0ffd5a179ee","ios":"levelo://app?vid=42a38387-074a-412b-a48f-f0ffd5a179ee"},"vehicle_type_id":"4","last_reported":1701187792,"current_range_meters":24800,"station_id":"ce4bhmp2rcd13ifvqgog","pricing_plan_id":"free"},{"bike_id":"813e26aa-0ce8-4ce8-b20a-5394d55e8a35","system_id":"levelo_inurba_marseille","lat":43.231562,"lon":5.436933,"is_reserved":false,"is_disabled":false,"rental_uris":{"android":"levelo://app?vid=813e26aa-0ce8-4ce8-b20a-5394d55e8a35","ios":"levelo://app?vid=813e26aa-0ce8-4ce8-b20a-5394d55e8a35"},"vehicle_type_id":"4","last_reported":1701187792,"current_range_meters":28000,"station_id":"ce4bhmp2rcd13ifvqgog","pricing_plan_id":"free"}]}}