{"last_updated":1692119138,"ttl":30,"version":"2.2","data":{"bikes":[{"bike_id":"e69f468f-0ba4-4467-ab3e-68d89368844a","system_id":"levelo_inurba_marseille","lat":43.31341,"lon":5.367098,"is_reserved":false,"is_disabled":false,"rental_uris":{"android":"levelo://app?vid=e69f468f-0ba4-4467-ab3e-68d89368844a","ios":"levelo://app?vid=e69f468f-0ba4-4467-ab3e-68d89368844a"},"vehicle_type_id":"4","last_reported":1692119139,"current_range_meters":3600,"station_id":"ce4bgr92rcd13ifvqc6g","pricing_plan_id":"free"},{"bike_id":"a094d27e-31de-43bd-afb4-80d2342316f4","system_id":"levelo_inurba_marseille","lat":43.314811,"lon":5.373104,"is_reserved":false,"is_disabled":false,"rental_uris":{"android":"levelo://app?vid=a094d27e-31de-43bd-afb4-80d2342316f4","ios":"levelo://app?vid=a094d27e-31de-43bd-afb4-80d2342316f4"},"vehicle_type_id":"4","last_reported":1692119139,"current_range_meters":2400,"station_id":"ce4bgt12rcd13ifvqcd0","pricing_plan_id":"free"},{"bike_id":"42adc1d1-b1ab-4f4e-9588-9f320f1eaa2b","system_id":"levelo_inurba_marseille","lat":43.314811,"lon":5.373104,"is_reserved":false,"is_disabled":false,"rental_uris":{"android":"levelo://app?vid=42adc1d1-b1ab-4f4e-9588-9f320f1eaa2b","ios":"levelo://app?vid=42adc1d1-b1ab-4f4e-9588-9f320f1eaa2b"},"vehicle_type_id":"4","last_reported":1692119139,"current_range_meters":21600,"station_id":"ce4bgt12rcd13ifvqcd0","pricing_plan_id":"free"},{"bike_id":"3d17acaa-4f4d-42ef-bf63-97285e2691ea","system_id":"levelo_inurba_marseille","lat":43.314811,"lon":5.373103,"is_reserved":false,"is_disabled":false,"rental_uris":{"android":"levelo://app?vid=3d17acaa-4f4d-42ef-bf63-97285e2691ea","ios":"levelo://app?vid=3d17acaa-4f4d-42ef-bf63-97285e2691ea"},"vehicle_type_id":"4","last_reported":1692119139,"current_range_meters":8800,"station_id":"ce4bgt12rcd13ifvqcd0","pricing_plan_id":"free"},{"bike_id":"37b8d7f7-106e-444e-ba36-edd9e21ef77b","system_id":"levelo_inurba_marseille","lat":43.314811,"lon":5.373104,"is_reserved":false,"is_disabled":false,"rental_uris":{"android":"levelo://app?vid=37b8d7f7-106e-444e-ba36-edd9e21ef77b","ios":"levelo://app?vid=37b8d7f7-106e-444e-ba36-edd9e21ef77b"},"vehicle_type_id":"4","last_reported":1692119139,"current_range_meters":5600,"station_id":"ce4bgt12rcd13ifvqcd0","pricing_plan_id":"free"},{"bike_id":"5a74db36-09fa-4b95-add9-746aff2858ef","system_id":"levelo_inurba_marseille","lat":43.30879,"lon":5.37191,"is_reserved":false,"is_disabled":false,"rental_uris":{"android":"levelo://app?vid=5a74db36-09fa-4b95-add9-746aff2858ef","ios":"levelo://app?vid=5a74db36-09fa-4b95-add9-746aff2858ef"},"vehicle_type_id":"4","last_reported":1692119139,"current_range_meters":13200,"station_id":"ce4bguh2rcd13ifvqckg","pricing_plan_id":"free"},{"bike_id":"9fbe6e18-d192-44c2-98b5-cafb68b41aa4","system_id":"levelo_inurba_marseille","lat":43.30529,"lon":5.36526,"is_reserved":false,"is_disabled":false,"rental_uris":{"android":"levelo://app?vid=9fbe6e18-d192-44c2-98b5-cafb68b41aa4","ios":"levelo://app?vid=9fbe6e18-d192-44c2-98b5-cafb68b41aa4"},"vehicle_type_id":"4","last_reported":1692119139,"current_range_meters":29600,"station_id":"ce4bgs12rcd13ifvqcag","pricing_plan_id":"free"},{"bike_id":"c70acee3-93d1-42da-9216-aa7f4b8f4345","system_id":"levelo_inurba_marseille","lat":43.31128,"lon":5.37748,"is_reserved":false,"is_disabled":false,"rental_uris":{"android":"levelo://app?vid=c70acee3-93d1-42da-9216-aa7f4b8f4345","ios":"levelo://app?vid=c70acee3-93d1-42da-9216-aa7f4b8f4345"},"vehicle_type_id":"4","last_reported":1692119139,"current_range_meters":15200,"station_id":"","pricing_plan_id":"free"},{"bike_id":"4cceb428-4adc-411e-beb9-b7b162d6e371","system_id":"levelo_inurba_marseille","lat":43.311131,"lon":5.377651,"is_reserved":false,"is_disabled":false,"rental_uris":{"android":"levelo://app?vid=4cceb428-4adc-411e-beb9-b7b162d6e371","ios":"levelo://app?vid=4cceb428-4adc-411e-beb9-b7b162d6e371"},"vehicle_type_id":"4","last_reported":1692119139,"current_range_meters":19200,"station_id":"ce4bgt92rcd13ifvqcg0","pricing_plan_id":"free"},{"bike_id":"4a67a2fe-b98a-426e-ad83-a2a2c2d71f18","system_id":"levelo_inurba_marseille","lat":43.311125,"lon":5.377624,"is_reserved":false,"is_disabled":false,"rental_uris":{"android":"levelo://app?vid=4a67a2fe-b98a-426e-ad83-a2a2c2d71f18","ios":"levelo://app?vid=4a67a2fe-b98a-426e-ad83-a2a2c2d71f18"},"vehicle_type_id":"4","last_reported":1692119139,"current_range_meters":4000,"station_id":"ce4bgt92rcd13ifvqcg0","pricing_plan_id":"free"},{"bike_id":"43f190e1-7891-46ef-9651-a5eb9b517d54","system_id":"levelo_inurba_marseille","lat":43.317075,"lon":5.377367,"is_reserved":false,"is_disabled":false,"rental_uris":{"android":"levelo://app?vid=43f190e1-7891-46ef-9651-a5eb9b517d54","ios":"levelo://app?vid=43f190e1-7891-46ef-9651-a5eb9b517d54"},"vehicle_type_id":"4","last_reported":1692119139,"current_range_meters":30400,"station_id":"ce4bgth2rcd13ifvqch0","pricing_plan_id":"free"},{"bike_id":"6ac21fe5-a59e-4167-b9e7-2b97d1a836d0","system_id":"levelo_inurba_marseille","lat":43.317075,"lon":5.377367,"is_reserved":false,"is_disabled":false,"rental_uris":{"android":"levelo://app?vid=6ac21fe5-a59e-4167-b9e7-2b97d1a836d0","ios":"levelo://app?vid=6ac21fe5-a59e-4167-b9e7-2b97d1a836d0"},"vehicle_type_id":"4","last_reported":1692119139,"current_range_meters":28800,"station_id":"ce4bgth2rcd13ifvqch0","pricing_plan_id":"free"},{"bike_id":"ccde4fab-a619-4b85-80d1-631ae22c1186","system_id":"levelo_inurba_marseille","lat":43.317075,"lon":5.377367,"is_reserved":false,"is_disabled":false,"rental_uris":{"android":"levelo://app?vid=ccde4fab-a619-4b85-80d1-631ae22c1186","ios":"levelo://app?vid=ccde4fab-a619-4b85-80d1-631ae22c1186"},"vehicle_type_id":"4","last_reported":1692119139,"current_range_meters":30400,"station_id":"ce4bgth2rcd13ifvqch0","pricing_plan_id":"free"},{"bike_id":"3c6e2d36-4b30-421b-90e6-04392e26023a","system_id":"levelo_inurba_marseille","lat":43.317075,"lon":5.377367,"is_reserved":false,"is_disabled":false,"rental_uris":{"android":"levelo://app?vid=3c6e2d36-4b30-421b-90e6-04392e26023a","ios":"levelo://app?vid=3c6e2d36-4b30-421b-90e6-04392e26023a"},"vehicle_type_id":"4","last_reported":1692119139,"current_range_meters":19600,"station_id":"ce4bgth2rcd13ifvqch0","pricing_plan_id":"free"},{"bike_id":"d60207e7-bdc0-494c-a40d-aad4c3b79637","system_id":"levelo_inurba_marseille","lat":43.31529,"lon":5.38036,"is_reserved":false,"is_disabled":false,"rental_uris":{"android":"levelo://app?vid=d60207e7-bdc0-494c-a40d-aad4c3b79637","ios":"levelo://app?vid=d60207e7-bdc0-494c-a40d-aad4c3b79637"},"vehicle_type_id":"4","last_reported":1692119139,"current_range_meters":16400,"station_id":"ce4bhsp2rcd13ifvqi50","pricing_plan_id":"free"},{"bike_id":"12829e48-a514-4c97-8519-4f8ed3463055","system_id":"levelo_inurba_marseille","lat":43.315289,"lon":5.380349,"is_reserved":false,"is_disabled":false,"rental_uris":{"android":"levelo://app?vid=12829e48-a514-4c97-8519-4f8ed3463055","ios":"levelo://app?vid=12829e48-a514-4c97-8519-4f8ed3463055"},"vehicle_type_id":"4","last_reported":1692119139,"current_range_meters":3600,"station_id":"ce4bhsp2rcd13ifvqi50","pricing_plan_id":"free"},{"bike_id":"fe14487d-f2ac-4e13-902c-481721309875","system_id":"levelo_inurba_marseille","lat":43.315293,"lon":5.380349,"is_reserved":false,"is_disabled":false,"rental_uris":{"android":"levelo://app?vid=fe14487d-f2ac-4e13-902c-481721309875","ios":"levelo://app?vid=fe14487d-f2ac-4e13-902c-481721309875"},"vehicle_type_id":"4","last_reported":1692119139,"current_range_meters":30800,"station_id":"ce4bhsp2rcd13ifvqi50","pricing_plan_id":"free"},{"bike_id":"7cdd1035-131d-450b-90e3-3a10e15609ee","system_id":"levelo_inurba_marseille","lat":43.311125,"lon":5.377624,"is_reserved":false,"is_disabled":false,"rental_uris":{"android":"levelo://app?vid=7cdd1035-131d-450b-90e3-3a10e15609ee","ios":"levelo://app?vid=7cdd1035-131d-450b-90e3-3a10e15609ee"},"vehicle_type_id":"4","last_reported":1692119139,"current_range_meters":29600,"station_id":"ce4bgt92rcd13ifvqcg0","pricing_plan_id":"free"},{"bike_id":"f90e435d-6a9e-4440-941d-d0e6c3a4e7ac","system_id":"levelo_inurba_marseille","lat":43.301939,"lon":5.366286,"is_reserved":false,"is_disabled":false,"rental_uris":{"android":"levelo://app?vid=f90e435d-6a9e-4440-941d-d0e6c3a4e7ac","ios":"levelo://app?vid=f90e435d-6a9e-4440-941d-d0e6c3a4e7ac"},"vehicle_type_id":"4","last_reported":1692119139,"current_range_meters":22800,"station_id":"ce4bgrh2rcd13ifvqc8g","pricing_plan_id":"free"},{"bike_id":"77e7855e-bcdd-419d-8727-1a43245be221","system_id":"levelo_inurba_marseille","lat":43.301939,"lon":5.366286,"is_reserved":false,"is_disabled":false,"rental_uris":{"android":"levelo://app?vid=77e7855e-bcdd-419d-8727-1a43245be221","ios":"levelo://app?vid=77e7855e-bcdd-419d-8727-1a43245be221"},"vehicle_type_id":"4","last_reported":1692119139,"current_range_meters":7600,"station_id":"ce4bgrh2rcd13ifvqc8g","pricing_plan_id":"free"},{"bike_id":"d9289553-0114-4148-83ea-b01e964d85a9","system_id":"levelo_inurba_marseille","lat":43.304765,"lon":5.378982,"is_reserved":false,"is_disabled":false,"rental_uris":{"android":"levelo://app?vid=d9289553-0114-4148-83ea-b01e964d85a9","ios":"levelo://app?vid=d9289553-0114-4148-83ea-b01e964d85a9"},"vehicle_type_id":"4","last_reported":1692119139,"current_range_meters":11200,"station_id":"","pricing_plan_id":"free"},{"bike_id":"508f3b35-42a0-42c0-8fb5-1eda138a04fd","system_id":"levelo_inurba_marseille","lat":43.299028,"lon":5.381509,"is_reserved":false,"is_disabled":false,"rental_uris":{"android":"levelo://app?vid=508f3b35-42a0-42c0-8fb5-1eda138a04fd","ios":"levelo://app?vid=508f3b35-42a0-42c0-8fb5-1eda138a04fd"},"vehicle_type_id":"4","last_reported":1692119139,"current_range_meters":31200,"station_id":"ce4bgj12rcd13ifvqbc0","pricing_plan_id":"free"},{"bike_id":"6f8ef17a-7233-480b-bf5c-0670e618535f","system_id":"levelo_inurba_marseille","lat":43.319935,"lon":5.381699,"is_reserved":false,"is_disabled":false,"rental_uris":{"android":"levelo://app?vid=6f8ef17a-7233-480b-bf5c-0670e618535f","ios":"levelo://app?vid=6f8ef17a-7233-480b-bf5c-0670e618535f"},"vehicle_type_id":"4","last_reported":1692119139,"current_range_meters":21200,"station_id":"ce4bhr12rcd13ifvqhpg","pricing_plan_id":"free"},{"bike_id":"6a62258e-28a8-4c03-b468-e7ee8977190a","system_id":"levelo_inurba_marseille","lat":43.319935,"lon":5.381699,"is_reserved":false,"is_disabled":false,"rental_uris":{"android":"levelo://app?vid=6a62258e-28a8-4c03-b468-e7ee8977190a","ios":"levelo://app?vid=6a62258e-28a8-4c03-b468-e7ee8977190a"},"vehicle_type_id":"4","last_reported":1692119139,"current_range_meters":28400,"station_id":"ce4bhr12rcd13ifvqhpg","pricing_plan_id":"free"},{"bike_id":"78abbae6-fb70-438b-804f-1c5ad07d176a","system_id":"levelo_inurba_marseille","lat":43.319935,"lon":5.381699,"is_reserved":false,"is_disabled":false,"rental_uris":{"android":"levelo://app?vid=78abbae6-fb70-438b-804f-1c5ad07d176a","ios":"levelo://app?vid=78abbae6-fb70-438b-804f-1c5ad07d176a"},"vehicle_type_id":"4","last_reported":1692119139,"current_range_meters":7200,"station_id":"ce4bhr12rcd13ifvqhpg","pricing_plan_id":"free"},{"bike_id":"8257b402-9e5d-4065-83c8-88f3934663dd","system_id":"levelo_inurba_marseille","lat":43.31999,"lon":5.38146,"is_reserved":false,"is_disabled":false,"rental_uris":{"android":"levelo://app?vid=8257b402-9e5d-4065-83c8-88f3934663dd","ios":"levelo://app?vid=8257b402-9e5d-4065-83c8-88f3934663dd"},"vehicle_type_id":"4","last_reported":1692119139,"current_range_meters":14800,"station_id":"ce4bhr12rcd13ifvqhpg","pricing_plan_id":"free"},{"bike_id":"c17c70c2-0b4d-4d13-87b6-0d4475584bb3","system_id":"levelo_inurba_marseille","lat":43.319935,"lon":5.381699,"is_reserved":false,"is_disabled":false,"rental_uris":{"android":"levelo://app?vid=c17c70c2-0b4d-4d13-87b6-0d4475584bb3","ios":"levelo://app?vid=c17c70c2-0b4d-4d13-87b6-0d4475584bb3"},"vehicle_type_id":"4","last_reported":1692119139,"current_range_meters":9200,"station_id":"ce4bhr12rcd13ifvqhpg","pricing_plan_id":"free"},{"bike_id":"f942aea9-b905-4405-929b-d7f7b203ebc0","system_id":"levelo_inurba_marseille","lat":43.32005,"lon":5.38145,"is_reserved":false,"is_disabled":false,"rental_uris":{"android":"levelo://app?vid=f942aea9-b905-4405-929b-d7f7b203ebc0","ios":"levelo://app?vid=f942aea9-b905-4405-929b-d7f7b203ebc0"},"vehicle_type_id":"4","last_reported":1692119139,"current_range_meters":14000,"station_id":"ce4bhr12rcd13ifvqhpg","pricing_plan_id":"free"},{"bike_id":"10ace6ff-ef76-4b4d-a04f-2ec52dd81c45","system_id":"levelo_inurba_marseille","lat":43.31996,"lon":5.38159,"is_reserved":false,"is_disabled":false,"rental_uris":{"android":"levelo://app?vid=10ace6ff-ef76-4b4d-a04f-2ec52dd81c45","ios":"levelo://app?vid=10ace6ff-ef76-4b4d-a04f-2ec52dd81c45"},"vehicle_type_id":"4","last_reported":1692119139,"current_range_meters":19200,"station_id":"ce4bhr12rcd13ifvqhpg","pricing_plan_id":"free"},{"bike_id":"7c7befd0-fd7a-4ce2-b556-524f26580b88","system_id":"levelo_inurba_marseille","lat":43.313571,"lon":5.384829,"is_reserved":false,"is_disabled":false,"rental_uris":{"android":"levelo://app?vid=7c7befd0-fd7a-4ce2-b556-524f26580b88","ios":"levelo://app?vid=7c7befd0-fd7a-4ce2-b556-524f26580b88"},"vehicle_type_id":"4","last_reported":1692119139,"current_range_meters":31200,"station_id":"ce4bgt92rcd13ifvqcf0","pricing_plan_id":"free"},{"bike_id":"790b4c66-3ad7-4041-8b03-eaf6b92e3e7f","system_id":"levelo_inurba_marseille","lat":43.313571,"lon":5.384829,"is_reserved":false,"is_disabled":false,"rental_uris":{"android":"levelo://app?vid=790b4c66-3ad7-4041-8b03-eaf6b92e3e7f","ios":"levelo://app?vid=790b4c66-3ad7-4041-8b03-eaf6b92e3e7f"},"vehicle_type_id":"4","last_reported":1692119139,"current_range_meters":9600,"station_id":"ce4bgt92rcd13ifvqcf0","pricing_plan_id":"free"},{"bike_id":"caa48c31-afbf-4377-9d4d-bbd4b24a7adb","system_id":"levelo_inurba_marseille","lat":43.313571,"lon":5.384829,"is_reserved":false,"is_disabled":false,"rental_uris":{"android":"levelo://app?vid=caa48c31-afbf-4377-9d4d-bbd4b24a7adb","ios":"levelo://app?vid=caa48c31-afbf-4377-9d4d-bbd4b24a7adb"},"vehicle_type_id":"4","last_reported":1692119139,"current_range_meters":10800,"station_id":"ce4bgt92rcd13ifvqcf0","pricing_plan_id":"free"},{"bike_id":"56c0f7b7-cdee-4194-872c-8f41aeef0b5c","system_id":"levelo_inurba_marseille","lat":43.313571,"lon":5.384829,"is_reserved":false,"is_disabled":false,"rental_uris":{"android":"levelo://app?vid=56c0f7b7-cdee-4194-872c-8f41aeef0b5c","ios":"levelo://app?vid=56c0f7b7-cdee-4194-872c-8f41aeef0b5c"},"vehicle_type_id":"4","last_reported":1692119139,"current_range_meters":0,"station_id":"ce4bgt92rcd13ifvqcf0","pricing_plan_id":"free"},{"bike_id":"df72e0d4-a11e-4097-ae4d-4e84b40cf4f6","system_id":"levelo_inurba_marseille","lat":43.298433,"lon":5.362774,"is_reserved":false,"is_disabled":false,"rental_uris":{"android":"levelo://app?vid=df72e0d4-a11e-4097-ae4d-4e84b40cf4f6","ios":"levelo://app?vid=df72e0d4-a11e-4097-ae4d-4e84b40cf4f6"},"vehicle_type_id":"4","last_reported":1692119139,"current_range_meters":30400,"station_id":"ce4bgpp2rcd13ifvqc3g","pricing_plan_id":"free"},{"bike_id":"f0c58c57-322e-4cf9-bd52-5963c5294d82","system_id":"levelo_inurba_marseille","lat":43.299243,"lon":5.37481,"is_reserved":false,"is_disabled":false,"rental_uris":{"android":"levelo://app?vid=f0c58c57-322e-4cf9-bd52-5963c5294d82","ios":"levelo://app?vid=f0c58c57-322e-4cf9-bd52-5963c5294d82"},"vehicle_type_id":"4","last_reported":1692119139,"current_range_meters":18000,"station_id":"ce4bgjh2rcd13ifvqbg0","pricing_plan_id":"free"},{"bike_id":"fc50649c-d8ee-4640-a341-b2068459d581","system_id":"levelo_inurba_marseille","lat":43.311722,"lon":5.387247,"is_reserved":false,"is_disabled":false,"rental_uris":{"android":"levelo://app?vid=fc50649c-d8ee-4640-a341-b2068459d581","ios":"levelo://app?vid=fc50649c-d8ee-4640-a341-b2068459d581"},"vehicle_type_id":"4","last_reported":1692119139,"current_range_meters":400,"station_id":"ce4bgv12rcd13ifvqcp0","pricing_plan_id":"free"},{"bike_id":"c6b539db-5b03-411d-8927-985ab9f2f17e","system_id":"levelo_inurba_marseille","lat":43.32288,"lon":5.38252,"is_reserved":false,"is_disabled":false,"rental_uris":{"android":"levelo://app?vid=c6b539db-5b03-411d-8927-985ab9f2f17e","ios":"levelo://app?vid=c6b539db-5b03-411d-8927-985ab9f2f17e"},"vehicle_type_id":"4","last_reported":1692119139,"current_range_meters":5600,"station_id":"ce4bhr12rcd13ifvqhqg","pricing_plan_id":"free"},{"bike_id":"1bf667cf-3514-4a07-b0cc-6779ab8ce747","system_id":"levelo_inurba_marseille","lat":43.32291,"lon":5.38253,"is_reserved":false,"is_disabled":false,"rental_uris":{"android":"levelo://app?vid=1bf667cf-3514-4a07-b0cc-6779ab8ce747","ios":"levelo://app?vid=1bf667cf-3514-4a07-b0cc-6779ab8ce747"},"vehicle_type_id":"4","last_reported":1692119139,"current_range_meters":20000,"station_id":"ce4bhr12rcd13ifvqhqg","pricing_plan_id":"free"},{"bike_id":"72bd70a1-a7ed-4f44-8c47-40459e9dcf7b","system_id":"levelo_inurba_marseille","lat":43.29779,"lon":5.37108,"is_reserved":false,"is_disabled":false,"rental_uris":{"android":"levelo://app?vid=72bd70a1-a7ed-4f44-8c47-40459e9dcf7b","ios":"levelo://app?vid=72bd70a1-a7ed-4f44-8c47-40459e9dcf7b"},"vehicle_type_id":"4","last_reported":1692119139,"current_range_meters":0,"station_id":"ce4bgop2rcd13ifvqc1g","pricing_plan_id":"free"},{"bike_id":"913ad8d8-ff4a-402b-845d-993d8ad47139","system_id":"levelo_inurba_marseille","lat":43.32295,"lon":5.38251,"is_reserved":false,"is_disabled":false,"rental_uris":{"android":"levelo://app?vid=913ad8d8-ff4a-402b-845d-993d8ad47139","ios":"levelo://app?vid=913ad8d8-ff4a-402b-845d-993d8ad47139"},"vehicle_type_id":"4","last_reported":1692119139,"current_range_meters":4800,"station_id":"ce4bhr12rcd13ifvqhqg","pricing_plan_id":"free"},{"bike_id":"40d61921-eefb-499e-ac11-2e37aa404bf1","system_id":"levelo_inurba_marseille","lat":43.32293,"lon":5.38254,"is_reserved":false,"is_disabled":false,"rental_uris":{"android":"levelo://app?vid=40d61921-eefb-499e-ac11-2e37aa404bf1","ios":"levelo://app?vid=40d61921-eefb-499e-ac11-2e37aa404bf1"},"vehicle_type_id":"4","last_reported":1692119139,"current_range_meters":9600,"station_id":"ce4bhr12rcd13ifvqhqg","pricing_plan_id":"free"},{"bike_id":"be2dbf05-e75a-434c-8474-c4fc485123e4","system_id":"levelo_inurba_marseille","lat":43.32294,"lon":5.38257,"is_reserved":false,"is_disabled":false,"rental_uris":{"android":"levelo://app?vid=be2dbf05-e75a-434c-8474-c4fc485123e4","ios":"levelo://app?vid=be2dbf05-e75a-434c-8474-c4fc485123e4"},"vehicle_type_id":"4","last_reported":1692119139,"current_range_meters":10000,"station_id":"ce4bhr12rcd13ifvqhqg","pricing_plan_id":"free"},{"bike_id":"0920391e-69e3-4df2-b622-a24af4e50927","system_id":"levelo_inurba_marseille","lat":43.322872,"lon":5.382756,"is_reserved":false,"is_disabled":false,"rental_uris":{"android":"levelo://app?vid=0920391e-69e3-4df2-b622-a24af4e50927","ios":"levelo://app?vid=0920391e-69e3-4df2-b622-a24af4e50927"},"vehicle_type_id":"4","last_reported":1692119139,"current_range_meters":11600,"station_id":"ce4bhr12rcd13ifvqhqg","pricing_plan_id":"free"},{"bike_id":"bded37d9-fa3d-4a53-adec-d8a907c4aaf0","system_id":"levelo_inurba_marseille","lat":43.32291,"lon":5.38266,"is_reserved":false,"is_disabled":false,"rental_uris":{"android":"levelo://app?vid=bded37d9-fa3d-4a53-adec-d8a907c4aaf0","ios":"levelo://app?vid=bded37d9-fa3d-4a53-adec-d8a907c4aaf0"},"vehicle_type_id":"4","last_reported":1692119139,"current_range_meters":30000,"station_id":"ce4bhr12rcd13ifvqhqg","pricing_plan_id":"free"},{"bike_id":"63c7f395-d84e-4403-8b6b-575626818765","system_id":"levelo_inurba_marseille","lat":43.32295,"lon":5.38262,"is_reserved":false,"is_disabled":false,"rental_uris":{"android":"levelo://app?vid=63c7f395-d84e-4403-8b6b-575626818765","ios":"levelo://app?vid=63c7f395-d84e-4403-8b6b-575626818765"},"vehicle_type_id":"4","last_reported":1692119139,"current_range_meters":21200,"station_id":"ce4bhr12rcd13ifvqhqg","pricing_plan_id":"free"},{"bike_id":"4ed96fad-2e51-49a2-879d-e8c05ef80263","system_id":"levelo_inurba_marseille","lat":43.328371,"lon":5.366909,"is_reserved":false,"is_disabled":false,"rental_uris":{"android":"levelo://app?vid=4ed96fad-2e51-49a2-879d-e8c05ef80263","ios":"levelo://app?vid=4ed96fad-2e51-49a2-879d-e8c05ef80263"},"vehicle_type_id":"4","last_reported":1692119139,"current_range_meters":19600,"station_id":"ce4bhs92rcd13ifvqi0g","pricing_plan_id":"free"},{"bike_id":"1736c7ba-8528-4e9d-b0b7-74e427fcc3c4","system_id":"levelo_inurba_marseille","lat":43.328371,"lon":5.366909,"is_reserved":false,"is_disabled":false,"rental_uris":{"android":"levelo://app?vid=1736c7ba-8528-4e9d-b0b7-74e427fcc3c4","ios":"levelo://app?vid=1736c7ba-8528-4e9d-b0b7-74e427fcc3c4"},"vehicle_type_id":"4","last_reported":1692119139,"current_range_meters":14800,"station_id":"ce4bhs92rcd13ifvqi0g","pricing_plan_id":"free"},{"bike_id":"7a379839-87fc-4106-aec0-245d7b5a467b","system_id":"levelo_inurba_marseille","lat":43.328371,"lon":5.366909,"is_reserved":false,"is_disabled":false,"rental_uris":{"android":"levelo://app?vid=7a379839-87fc-4106-aec0-245d7b5a467b","ios":"levelo://app?vid=7a379839-87fc-4106-aec0-245d7b5a467b"},"vehicle_type_id":"4","last_reported":1692119139,"current_range_meters":19200,"station_id":"ce4bhs92rcd13ifvqi0g","pricing_plan_id":"free"},{"bike_id":"50157b4f-76c7-4ef2-ab75-df84149579fe","system_id":"levelo_inurba_marseille","lat":43.32831,"lon":5.3669,"is_reserved":false,"is_disabled":false,"rental_uris":{"android":"levelo://app?vid=50157b4f-76c7-4ef2-ab75-df84149579fe","ios":"levelo://app?vid=50157b4f-76c7-4ef2-ab75-df84149579fe"},"vehicle_type_id":"4","last_reported":1692119139,"current_range_meters":24400,"station_id":"ce4bhs92rcd13ifvqi0g","pricing_plan_id":"free"},{"bike_id":"d2511d9c-66f0-4f3a-8e27-f68c39f7e2cf","system_id":"levelo_inurba_marseille","lat":43.32831,"lon":5.36687,"is_reserved":false,"is_disabled":false,"rental_uris":{"android":"levelo://app?vid=d2511d9c-66f0-4f3a-8e27-f68c39f7e2cf","ios":"levelo://app?vid=d2511d9c-66f0-4f3a-8e27-f68c39f7e2cf"},"vehicle_type_id":"4","last_reported":1692119139,"current_range_meters":14400,"station_id":"ce4bhs92rcd13ifvqi0g","pricing_plan_id":"free"},{"bike_id":"df80a436-77c5-45a5-bc80-336a70ffbd1b","system_id":"levelo_inurba_marseille","lat":43.328371,"lon":5.366909,"is_reserved":false,"is_disabled":false,"rental_uris":{"android":"levelo://app?vid=df80a436-77c5-45a5-bc80-336a70ffbd1b","ios":"levelo://app?vid=df80a436-77c5-45a5-bc80-336a70ffbd1b"},"vehicle_type_id":"4","last_reported":1692119139,"current_range_meters":20400,"station_id":"ce4bhs92rcd13ifvqi0g","pricing_plan_id":"free"},{"bike_id":"dd789220-e7b5-42c1-b9dc-dc4243148021","system_id":"levelo_inurba_marseille","lat":43.297163,"lon":5.365866,"is_reserved":false,"is_disabled":false,"rental_uris":{"android":"levelo://app?vid=dd789220-e7b5-42c1-b9dc-dc4243148021","ios":"levelo://app?vid=dd789220-e7b5-42c1-b9dc-dc4243148021"},"vehicle_type_id":"4","last_reported":1692119139,"current_range_meters":31200,"station_id":"ce4bgn12rcd13ifvqbt0","pricing_plan_id":"free"},{"bike_id":"517c149c-5650-474c-9f5c-30650d3ee01c","system_id":"levelo_inurba_marseille","lat":43.297163,"lon":5.365866,"is_reserved":false,"is_disabled":false,"rental_uris":{"android":"levelo://app?vid=517c149c-5650-474c-9f5c-30650d3ee01c","ios":"levelo://app?vid=517c149c-5650-474c-9f5c-30650d3ee01c"},"vehicle_type_id":"4","last_reported":1692119139,"current_range_meters":19200,"station_id":"ce4bgn12rcd13ifvqbt0","pricing_plan_id":"free"},{"bike_id":"e19801bb-fc5b-4fb2-9100-29ab6de83688","system_id":"levelo_inurba_marseille","lat":43.29692,"lon":5.37296,"is_reserved":false,"is_disabled":false,"rental_uris":{"android":"levelo://app?vid=e19801bb-fc5b-4fb2-9100-29ab6de83688","ios":"levelo://app?vid=e19801bb-fc5b-4fb2-9100-29ab6de83688"},"vehicle_type_id":"4","last_reported":1692119139,"current_range_meters":16000,"station_id":"ce4bgk12rcd13ifvqbj0","pricing_plan_id":"free"},{"bike_id":"60102b56-7cf6-469a-a6bb-7b1157bf5c06","system_id":"levelo_inurba_marseille","lat":43.29792,"lon":5.37674,"is_reserved":false,"is_disabled":false,"rental_uris":{"android":"levelo://app?vid=60102b56-7cf6-469a-a6bb-7b1157bf5c06","ios":"levelo://app?vid=60102b56-7cf6-469a-a6bb-7b1157bf5c06"},"vehicle_type_id":"4","last_reported":1692119139,"current_range_meters":31200,"station_id":"","pricing_plan_id":"free"},{"bike_id":"0c16fd08-1d8d-44ab-8fd3-7ffb6e7e61a0","system_id":"levelo_inurba_marseille","lat":43.296131,"lon":5.370791,"is_reserved":false,"is_disabled":false,"rental_uris":{"android":"levelo://app?vid=0c16fd08-1d8d-44ab-8fd3-7ffb6e7e61a0","ios":"levelo://app?vid=0c16fd08-1d8d-44ab-8fd3-7ffb6e7e61a0"},"vehicle_type_id":"4","last_reported":1692119139,"current_range_meters":31200,"station_id":"ce4bgnh2rcd13ifvqc0g","pricing_plan_id":"free"},{"bike_id":"da09aae6-552f-4478-b9fd-4770bc837651","system_id":"levelo_inurba_marseille","lat":43.299028,"lon":5.381509,"is_reserved":false,"is_disabled":false,"rental_uris":{"android":"levelo://app?vid=da09aae6-552f-4478-b9fd-4770bc837651","ios":"levelo://app?vid=da09aae6-552f-4478-b9fd-4770bc837651"},"vehicle_type_id":"4","last_reported":1692119139,"current_range_meters":19200,"station_id":"ce4bgj12rcd13ifvqbc0","pricing_plan_id":"free"},{"bike_id":"284e3f91-efca-47ca-95b8-1c8bbd593121","system_id":"levelo_inurba_marseille","lat":43.296921,"lon":5.376579,"is_reserved":false,"is_disabled":false,"rental_uris":{"android":"levelo://app?vid=284e3f91-efca-47ca-95b8-1c8bbd593121","ios":"levelo://app?vid=284e3f91-efca-47ca-95b8-1c8bbd593121"},"vehicle_type_id":"4","last_reported":1692119139,"current_range_meters":11200,"station_id":"ce4bgkh2rcd13ifvqbl0","pricing_plan_id":"free"},{"bike_id":"fc3b45c8-24b1-4a6d-8793-508c4f670d23","system_id":"levelo_inurba_marseille","lat":43.299028,"lon":5.381509,"is_reserved":false,"is_disabled":false,"rental_uris":{"android":"levelo://app?vid=fc3b45c8-24b1-4a6d-8793-508c4f670d23","ios":"levelo://app?vid=fc3b45c8-24b1-4a6d-8793-508c4f670d23"},"vehicle_type_id":"4","last_reported":1692119139,"current_range_meters":0,"station_id":"ce4bgj12rcd13ifvqbc0","pricing_plan_id":"free"},{"bike_id":"a4df99ce-0488-49dd-a888-94686f562e88","system_id":"levelo_inurba_marseille","lat":43.295748,"lon":5.37522,"is_reserved":false,"is_disabled":false,"rental_uris":{"android":"levelo://app?vid=a4df99ce-0488-49dd-a888-94686f562e88","ios":"levelo://app?vid=a4df99ce-0488-49dd-a888-94686f562e88"},"vehicle_type_id":"4","last_reported":1692119139,"current_range_meters":31200,"station_id":"ce4bgh92rcd13ifvqb50","pricing_plan_id":"free"},{"bike_id":"59ba3de6-61b9-4224-be42-073b9ca851bd","system_id":"levelo_inurba_marseille","lat":43.29787,"lon":5.38089,"is_reserved":false,"is_disabled":false,"rental_uris":{"android":"levelo://app?vid=59ba3de6-61b9-4224-be42-073b9ca851bd","ios":"levelo://app?vid=59ba3de6-61b9-4224-be42-073b9ca851bd"},"vehicle_type_id":"4","last_reported":1692119139,"current_range_meters":15600,"station_id":"ce4bgip2rcd13ifvqbb0","pricing_plan_id":"free"},{"bike_id":"c7087649-f4d1-44fc-ab43-ead3d28d0cac","system_id":"levelo_inurba_marseille","lat":43.29977,"lon":5.38472,"is_reserved":false,"is_disabled":false,"rental_uris":{"android":"levelo://app?vid=c7087649-f4d1-44fc-ab43-ead3d28d0cac","ios":"levelo://app?vid=c7087649-f4d1-44fc-ab43-ead3d28d0cac"},"vehicle_type_id":"4","last_reported":1692119139,"current_range_meters":30800,"station_id":"ce4bgj92rcd13ifvqbd0","pricing_plan_id":"free"},{"bike_id":"b949c806-6ceb-45f7-a9d6-4ad067229655","system_id":"levelo_inurba_marseille","lat":43.295279,"lon":5.375048,"is_reserved":false,"is_disabled":false,"rental_uris":{"android":"levelo://app?vid=b949c806-6ceb-45f7-a9d6-4ad067229655","ios":"levelo://app?vid=b949c806-6ceb-45f7-a9d6-4ad067229655"},"vehicle_type_id":"4","last_reported":1692119139,"current_range_meters":13600,"station_id":"ce4bgkp2rcd13ifvqbmg","pricing_plan_id":"free"},{"bike_id":"ba72bb02-b4f1-4dc6-b90f-6d14ffcfa08a","system_id":"levelo_inurba_marseille","lat":43.299724,"lon":5.384848,"is_reserved":false,"is_disabled":false,"rental_uris":{"android":"levelo://app?vid=ba72bb02-b4f1-4dc6-b90f-6d14ffcfa08a","ios":"levelo://app?vid=ba72bb02-b4f1-4dc6-b90f-6d14ffcfa08a"},"vehicle_type_id":"4","last_reported":1692119139,"current_range_meters":8400,"station_id":"ce4bgj92rcd13ifvqbd0","pricing_plan_id":"free"},{"bike_id":"05b331ec-025b-4d8b-9afa-fad81e85a944","system_id":"levelo_inurba_marseille","lat":43.299707,"lon":5.384859,"is_reserved":false,"is_disabled":false,"rental_uris":{"android":"levelo://app?vid=05b331ec-025b-4d8b-9afa-fad81e85a944","ios":"levelo://app?vid=05b331ec-025b-4d8b-9afa-fad81e85a944"},"vehicle_type_id":"4","last_reported":1692119139,"current_range_meters":0,"station_id":"ce4bgj92rcd13ifvqbd0","pricing_plan_id":"free"},{"bike_id":"a7004f83-cbd2-43c5-833b-2f638a8e5e42","system_id":"levelo_inurba_marseille","lat":43.295279,"lon":5.375048,"is_reserved":false,"is_disabled":false,"rental_uris":{"android":"levelo://app?vid=a7004f83-cbd2-43c5-833b-2f638a8e5e42","ios":"levelo://app?vid=a7004f83-cbd2-43c5-833b-2f638a8e5e42"},"vehicle_type_id":"4","last_reported":1692119139,"current_range_meters":17600,"station_id":"ce4bgkp2rcd13ifvqbmg","pricing_plan_id":"free"},{"bike_id":"008d7d58-91c6-42e6-a25e-bcc458e65287","system_id":"levelo_inurba_marseille","lat":43.29948,"lon":5.38522,"is_reserved":false,"is_disabled":false,"rental_uris":{"android":"levelo://app?vid=008d7d58-91c6-42e6-a25e-bcc458e65287","ios":"levelo://app?vid=008d7d58-91c6-42e6-a25e-bcc458e65287"},"vehicle_type_id":"4","last_reported":1692119139,"current_range_meters":10800,"station_id":"","pricing_plan_id":"free"},{"bike_id":"a6f78605-5e1d-4492-9096-1da42f77bbe8","system_id":"levelo_inurba_marseille","lat":43.29606,"lon":5.38097,"is_reserved":false,"is_disabled":false,"rental_uris":{"android":"levelo://app?vid=a6f78605-5e1d-4492-9096-1da42f77bbe8","ios":"levelo://app?vid=a6f78605-5e1d-4492-9096-1da42f77bbe8"},"vehicle_type_id":"4","last_reported":1692119139,"current_range_meters":1200,"station_id":"ce4bgl12rcd13ifvqbo0","pricing_plan_id":"free"},{"bike_id":"5f1cf8b6-84fc-4918-9808-1f768b9dcaaf","system_id":"levelo_inurba_marseille","lat":43.33195,"lon":5.37463,"is_reserved":false,"is_disabled":false,"rental_uris":{"android":"levelo://app?vid=5f1cf8b6-84fc-4918-9808-1f768b9dcaaf","ios":"levelo://app?vid=5f1cf8b6-84fc-4918-9808-1f768b9dcaaf"},"vehicle_type_id":"4","last_reported":1692119139,"current_range_meters":26800,"station_id":"","pricing_plan_id":"free"},{"bike_id":"dbe406a0-e31d-4174-932b-0d8d584d17c2","system_id":"levelo_inurba_marseille","lat":43.292749,"lon":5.368398,"is_reserved":false,"is_disabled":false,"rental_uris":{"android":"levelo://app?vid=dbe406a0-e31d-4174-932b-0d8d584d17c2","ios":"levelo://app?vid=dbe406a0-e31d-4174-932b-0d8d584d17c2"},"vehicle_type_id":"4","last_reported":1692119139,"current_range_meters":30400,"station_id":"ce4bhbp2rcd13ifvqesg","pricing_plan_id":"free"},{"bike_id":"94fcc4fc-0636-4063-83ed-08309f1d9565","system_id":"levelo_inurba_marseille","lat":43.293009,"lon":5.374584,"is_reserved":false,"is_disabled":false,"rental_uris":{"android":"levelo://app?vid=94fcc4fc-0636-4063-83ed-08309f1d9565","ios":"levelo://app?vid=94fcc4fc-0636-4063-83ed-08309f1d9565"},"vehicle_type_id":"4","last_reported":1692119139,"current_range_meters":20000,"station_id":"ce4bgi12rcd13ifvqb70","pricing_plan_id":"free"},{"bike_id":"221d0ee9-4574-4120-8a23-733cfe1314cf","system_id":"levelo_inurba_marseille","lat":43.2936,"lon":5.37835,"is_reserved":false,"is_disabled":false,"rental_uris":{"android":"levelo://app?vid=221d0ee9-4574-4120-8a23-733cfe1314cf","ios":"levelo://app?vid=221d0ee9-4574-4120-8a23-733cfe1314cf"},"vehicle_type_id":"4","last_reported":1692119139,"current_range_meters":22400,"station_id":"ce4bgjh2rcd13ifvqbf0","pricing_plan_id":"free"},{"bike_id":"924e880d-6911-44aa-bba5-1b3deb8f8083","system_id":"levelo_inurba_marseille","lat":43.309038,"lon":5.396546,"is_reserved":false,"is_disabled":false,"rental_uris":{"android":"levelo://app?vid=924e880d-6911-44aa-bba5-1b3deb8f8083","ios":"levelo://app?vid=924e880d-6911-44aa-bba5-1b3deb8f8083"},"vehicle_type_id":"4","last_reported":1692119139,"current_range_meters":25200,"station_id":"ce4bh012rcd13ifvqcv0","pricing_plan_id":"free"},{"bike_id":"d2cda88e-aebb-423e-8ce4-2a5a90648466","system_id":"levelo_inurba_marseille","lat":43.292663,"lon":5.376389,"is_reserved":false,"is_disabled":false,"rental_uris":{"android":"levelo://app?vid=d2cda88e-aebb-423e-8ce4-2a5a90648466","ios":"levelo://app?vid=d2cda88e-aebb-423e-8ce4-2a5a90648466"},"vehicle_type_id":"4","last_reported":1692119139,"current_range_meters":8800,"station_id":"ce4bgi12rcd13ifvqb80","pricing_plan_id":"free"},{"bike_id":"563352f7-2052-4cc6-ba76-693f5299e7e2","system_id":"levelo_inurba_marseille","lat":43.29533,"lon":5.38542,"is_reserved":false,"is_disabled":false,"rental_uris":{"android":"levelo://app?vid=563352f7-2052-4cc6-ba76-693f5299e7e2","ios":"levelo://app?vid=563352f7-2052-4cc6-ba76-693f5299e7e2"},"vehicle_type_id":"4","last_reported":1692119139,"current_range_meters":27600,"station_id":"ce4bgih2rcd13ifvqba0","pricing_plan_id":"free"},{"bike_id":"dbacdb78-e8af-46cd-af2c-458d4ddef8e4","system_id":"levelo_inurba_marseille","lat":43.290779,"lon":5.371482,"is_reserved":false,"is_disabled":false,"rental_uris":{"android":"levelo://app?vid=dbacdb78-e8af-46cd-af2c-458d4ddef8e4","ios":"levelo://app?vid=dbacdb78-e8af-46cd-af2c-458d4ddef8e4"},"vehicle_type_id":"4","last_reported":1692119139,"current_range_meters":800,"station_id":"ce4bh5p2rcd13ifvqe4g","pricing_plan_id":"free"},{"bike_id":"71cc45e8-053a-4fda-818f-e1e46ceaf14c","system_id":"levelo_inurba_marseille","lat":43.290779,"lon":5.371482,"is_reserved":false,"is_disabled":false,"rental_uris":{"android":"levelo://app?vid=71cc45e8-053a-4fda-818f-e1e46ceaf14c","ios":"levelo://app?vid=71cc45e8-053a-4fda-818f-e1e46ceaf14c"},"vehicle_type_id":"4","last_reported":1692119139,"current_range_meters":18000,"station_id":"ce4bh5p2rcd13ifvqe4g","pricing_plan_id":"free"},{"bike_id":"4025a378-9c7c-400e-aef1-b82658bdf4a5","system_id":"levelo_inurba_marseille","lat":43.2906,"lon":5.37573,"is_reserved":false,"is_disabled":false,"rental_uris":{"android":"levelo://app?vid=4025a378-9c7c-400e-aef1-b82658bdf4a5","ios":"levelo://app?vid=4025a378-9c7c-400e-aef1-b82658bdf4a5"},"vehicle_type_id":"4","last_reported":1692119139,"current_range_meters":30400,"station_id":"ce4bh692rcd13ifvqe90","pricing_plan_id":"free"},{"bike_id":"84db63fb-e193-40e3-9b17-13b503b5560b","system_id":"levelo_inurba_marseille","lat":43.294153,"lon":5.386305,"is_reserved":false,"is_disabled":false,"rental_uris":{"android":"levelo://app?vid=84db63fb-e193-40e3-9b17-13b503b5560b","ios":"levelo://app?vid=84db63fb-e193-40e3-9b17-13b503b5560b"},"vehicle_type_id":"4","last_reported":1692119139,"current_range_meters":6800,"station_id":"ce4bh2h2rcd13ifvqdh0","pricing_plan_id":"free"},{"bike_id":"801140be-27fb-428c-844f-bf2f10b0ff42","system_id":"levelo_inurba_marseille","lat":43.29415,"lon":5.3861,"is_reserved":false,"is_disabled":false,"rental_uris":{"android":"levelo://app?vid=801140be-27fb-428c-844f-bf2f10b0ff42","ios":"levelo://app?vid=801140be-27fb-428c-844f-bf2f10b0ff42"},"vehicle_type_id":"4","last_reported":1692119139,"current_range_meters":18400,"station_id":"","pricing_plan_id":"free"},{"bike_id":"2da2a3c9-ebec-4392-8036-56794eb67923","system_id":"levelo_inurba_marseille","lat":43.294153,"lon":5.386305,"is_reserved":false,"is_disabled":false,"rental_uris":{"android":"levelo://app?vid=2da2a3c9-ebec-4392-8036-56794eb67923","ios":"levelo://app?vid=2da2a3c9-ebec-4392-8036-56794eb67923"},"vehicle_type_id":"4","last_reported":1692119139,"current_range_meters":10000,"station_id":"ce4bh2h2rcd13ifvqdh0","pricing_plan_id":"free"},{"bike_id":"f3c49583-8f1a-4c03-98cc-e20bf66fd7ee","system_id":"levelo_inurba_marseille","lat":43.294153,"lon":5.386305,"is_reserved":false,"is_disabled":false,"rental_uris":{"android":"levelo://app?vid=f3c49583-8f1a-4c03-98cc-e20bf66fd7ee","ios":"levelo://app?vid=f3c49583-8f1a-4c03-98cc-e20bf66fd7ee"},"vehicle_type_id":"4","last_reported":1692119139,"current_range_meters":12800,"station_id":"ce4bh2h2rcd13ifvqdh0","pricing_plan_id":"free"},{"bike_id":"1a16ee4c-7e77-4aa2-8e5e-fee4a1a3f720","system_id":"levelo_inurba_marseille","lat":43.294153,"lon":5.386305,"is_reserved":false,"is_disabled":false,"rental_uris":{"android":"levelo://app?vid=1a16ee4c-7e77-4aa2-8e5e-fee4a1a3f720","ios":"levelo://app?vid=1a16ee4c-7e77-4aa2-8e5e-fee4a1a3f720"},"vehicle_type_id":"4","last_reported":1692119139,"current_range_meters":17600,"station_id":"ce4bh2h2rcd13ifvqdh0","pricing_plan_id":"free"},{"bike_id":"555d5679-6357-419b-8ff8-de56b90cc53c","system_id":"levelo_inurba_marseille","lat":43.294153,"lon":5.386305,"is_reserved":false,"is_disabled":false,"rental_uris":{"android":"levelo://app?vid=555d5679-6357-419b-8ff8-de56b90cc53c","ios":"levelo://app?vid=555d5679-6357-419b-8ff8-de56b90cc53c"},"vehicle_type_id":"4","last_reported":1692119139,"current_range_meters":10400,"station_id":"ce4bh2h2rcd13ifvqdh0","pricing_plan_id":"free"},{"bike_id":"898da92a-e615-4de6-a9ff-ebcb7e19f7e3","system_id":"levelo_inurba_marseille","lat":43.28944,"lon":5.36651,"is_reserved":false,"is_disabled":false,"rental_uris":{"android":"levelo://app?vid=898da92a-e615-4de6-a9ff-ebcb7e19f7e3","ios":"levelo://app?vid=898da92a-e615-4de6-a9ff-ebcb7e19f7e3"},"vehicle_type_id":"4","last_reported":1692119139,"current_range_meters":14400,"station_id":"ce4bhap2rcd13ifvqek0","pricing_plan_id":"free"},{"bike_id":"b0c8fabb-45ad-4488-b2e2-eb7d43c2e6aa","system_id":"levelo_inurba_marseille","lat":43.2894,"lon":5.36633,"is_reserved":false,"is_disabled":false,"rental_uris":{"android":"levelo://app?vid=b0c8fabb-45ad-4488-b2e2-eb7d43c2e6aa","ios":"levelo://app?vid=b0c8fabb-45ad-4488-b2e2-eb7d43c2e6aa"},"vehicle_type_id":"4","last_reported":1692119139,"current_range_meters":2400,"station_id":"ce4bhap2rcd13ifvqek0","pricing_plan_id":"free"},{"bike_id":"fe32246d-6062-47f9-af49-6c32b7a28d1c","system_id":"levelo_inurba_marseille","lat":43.294153,"lon":5.386305,"is_reserved":false,"is_disabled":false,"rental_uris":{"android":"levelo://app?vid=fe32246d-6062-47f9-af49-6c32b7a28d1c","ios":"levelo://app?vid=fe32246d-6062-47f9-af49-6c32b7a28d1c"},"vehicle_type_id":"4","last_reported":1692119139,"current_range_meters":17600,"station_id":"ce4bh2h2rcd13ifvqdh0","pricing_plan_id":"free"},{"bike_id":"b7346646-92bf-45f2-b655-9929f0429823","system_id":"levelo_inurba_marseille","lat":43.289184,"lon":5.366408,"is_reserved":false,"is_disabled":false,"rental_uris":{"android":"levelo://app?vid=b7346646-92bf-45f2-b655-9929f0429823","ios":"levelo://app?vid=b7346646-92bf-45f2-b655-9929f0429823"},"vehicle_type_id":"4","last_reported":1692119139,"current_range_meters":10800,"station_id":"ce4bhap2rcd13ifvqek0","pricing_plan_id":"free"},{"bike_id":"6b91b2e1-2157-46b7-90bb-519ebc9a2a1c","system_id":"levelo_inurba_marseille","lat":43.289184,"lon":5.366408,"is_reserved":false,"is_disabled":false,"rental_uris":{"android":"levelo://app?vid=6b91b2e1-2157-46b7-90bb-519ebc9a2a1c","ios":"levelo://app?vid=6b91b2e1-2157-46b7-90bb-519ebc9a2a1c"},"vehicle_type_id":"4","last_reported":1692119139,"current_range_meters":27200,"station_id":"ce4bhap2rcd13ifvqek0","pricing_plan_id":"free"},{"bike_id":"dd43f37d-fe5d-4f5d-9787-ad4bf39772b9","system_id":"levelo_inurba_marseille","lat":43.28934,"lon":5.36621,"is_reserved":false,"is_disabled":false,"rental_uris":{"android":"levelo://app?vid=dd43f37d-fe5d-4f5d-9787-ad4bf39772b9","ios":"levelo://app?vid=dd43f37d-fe5d-4f5d-9787-ad4bf39772b9"},"vehicle_type_id":"4","last_reported":1692119139,"current_range_meters":19200,"station_id":"","pricing_plan_id":"free"},{"bike_id":"aff377d5-6b64-44a5-8560-0e90a09bb816","system_id":"levelo_inurba_marseille","lat":43.304296,"lon":5.397513,"is_reserved":false,"is_disabled":false,"rental_uris":{"android":"levelo://app?vid=aff377d5-6b64-44a5-8560-0e90a09bb816","ios":"levelo://app?vid=aff377d5-6b64-44a5-8560-0e90a09bb816"},"vehicle_type_id":"4","last_reported":1692119139,"current_range_meters":19200,"station_id":"ce4bh092rcd13ifvqd20","pricing_plan_id":"free"},{"bike_id":"69c23820-b8c4-4b33-a6c2-28beb4ed1d2a","system_id":"levelo_inurba_marseille","lat":43.330357,"lon":5.38912,"is_reserved":false,"is_disabled":false,"rental_uris":{"android":"levelo://app?vid=69c23820-b8c4-4b33-a6c2-28beb4ed1d2a","ios":"levelo://app?vid=69c23820-b8c4-4b33-a6c2-28beb4ed1d2a"},"vehicle_type_id":"4","last_reported":1692119139,"current_range_meters":1200,"station_id":"","pricing_plan_id":"free"},{"bike_id":"be005e4f-d207-40fd-bd99-241d744b2797","system_id":"levelo_inurba_marseille","lat":43.33041,"lon":5.3891,"is_reserved":false,"is_disabled":false,"rental_uris":{"android":"levelo://app?vid=be005e4f-d207-40fd-bd99-241d744b2797","ios":"levelo://app?vid=be005e4f-d207-40fd-bd99-241d744b2797"},"vehicle_type_id":"4","last_reported":1692119139,"current_range_meters":20400,"station_id":"ce4bhr92rcd13ifvqhrg","pricing_plan_id":"free"},{"bike_id":"8ae0ce58-4162-4719-947c-e47cc63be26c","system_id":"levelo_inurba_marseille","lat":43.3304,"lon":5.38917,"is_reserved":false,"is_disabled":false,"rental_uris":{"android":"levelo://app?vid=8ae0ce58-4162-4719-947c-e47cc63be26c","ios":"levelo://app?vid=8ae0ce58-4162-4719-947c-e47cc63be26c"},"vehicle_type_id":"4","last_reported":1692119139,"current_range_meters":16400,"station_id":"ce4bhr92rcd13ifvqhrg","pricing_plan_id":"free"},{"bike_id":"e184d9f0-8163-4a17-b3ea-e9518599abc7","system_id":"levelo_inurba_marseille","lat":43.33042,"lon":5.38917,"is_reserved":false,"is_disabled":false,"rental_uris":{"android":"levelo://app?vid=e184d9f0-8163-4a17-b3ea-e9518599abc7","ios":"levelo://app?vid=e184d9f0-8163-4a17-b3ea-e9518599abc7"},"vehicle_type_id":"4","last_reported":1692119139,"current_range_meters":30000,"station_id":"ce4bhr92rcd13ifvqhrg","pricing_plan_id":"free"},{"bike_id":"859ece1b-eaf2-4429-915d-1d151e169e7f","system_id":"levelo_inurba_marseille","lat":43.33038,"lon":5.38923,"is_reserved":false,"is_disabled":false,"rental_uris":{"android":"levelo://app?vid=859ece1b-eaf2-4429-915d-1d151e169e7f","ios":"levelo://app?vid=859ece1b-eaf2-4429-915d-1d151e169e7f"},"vehicle_type_id":"4","last_reported":1692119139,"current_range_meters":23200,"station_id":"ce4bhr92rcd13ifvqhrg","pricing_plan_id":"free"},{"bike_id":"e77b24cb-b125-4747-a456-3f996451e289","system_id":"levelo_inurba_marseille","lat":43.33044,"lon":5.38915,"is_reserved":false,"is_disabled":false,"rental_uris":{"android":"levelo://app?vid=e77b24cb-b125-4747-a456-3f996451e289","ios":"levelo://app?vid=e77b24cb-b125-4747-a456-3f996451e289"},"vehicle_type_id":"4","last_reported":1692119139,"current_range_meters":30400,"station_id":"ce4bhr92rcd13ifvqhrg","pricing_plan_id":"free"},{"bike_id":"01bb66e8-6fc1-4982-b9b2-af4dae23e37f","system_id":"levelo_inurba_marseille","lat":43.33044,"lon":5.38916,"is_reserved":false,"is_disabled":false,"rental_uris":{"android":"levelo://app?vid=01bb66e8-6fc1-4982-b9b2-af4dae23e37f","ios":"levelo://app?vid=01bb66e8-6fc1-4982-b9b2-af4dae23e37f"},"vehicle_type_id":"4","last_reported":1692119139,"current_range_meters":28400,"station_id":"ce4bhr92rcd13ifvqhrg","pricing_plan_id":"free"},{"bike_id":"96ead541-9c33-4112-927f-93c74ea92183","system_id":"levelo_inurba_marseille","lat":43.33044,"lon":5.38917,"is_reserved":false,"is_disabled":false,"rental_uris":{"android":"levelo://app?vid=96ead541-9c33-4112-927f-93c74ea92183","ios":"levelo://app?vid=96ead541-9c33-4112-927f-93c74ea92183"},"vehicle_type_id":"4","last_reported":1692119139,"current_range_meters":12400,"station_id":"ce4bhr92rcd13ifvqhrg","pricing_plan_id":"free"},{"bike_id":"569fb482-04ac-449f-b013-337617dfb7a0","system_id":"levelo_inurba_marseille","lat":43.33044,"lon":5.3892,"is_reserved":false,"is_disabled":false,"rental_uris":{"android":"levelo://app?vid=569fb482-04ac-449f-b013-337617dfb7a0","ios":"levelo://app?vid=569fb482-04ac-449f-b013-337617dfb7a0"},"vehicle_type_id":"4","last_reported":1692119139,"current_range_meters":26000,"station_id":"ce4bhr92rcd13ifvqhrg","pricing_plan_id":"free"},{"bike_id":"d5578a77-3302-4d8a-ae9c-7edceb0f071e","system_id":"levelo_inurba_marseille","lat":43.33042,"lon":5.38924,"is_reserved":false,"is_disabled":false,"rental_uris":{"android":"levelo://app?vid=d5578a77-3302-4d8a-ae9c-7edceb0f071e","ios":"levelo://app?vid=d5578a77-3302-4d8a-ae9c-7edceb0f071e"},"vehicle_type_id":"4","last_reported":1692119139,"current_range_meters":30000,"station_id":"ce4bhr92rcd13ifvqhrg","pricing_plan_id":"free"},{"bike_id":"78f1a325-e5b4-4a72-bb0e-b29d3285ba24","system_id":"levelo_inurba_marseille","lat":43.290103,"lon":5.356114,"is_reserved":false,"is_disabled":false,"rental_uris":{"android":"levelo://app?vid=78f1a325-e5b4-4a72-bb0e-b29d3285ba24","ios":"levelo://app?vid=78f1a325-e5b4-4a72-bb0e-b29d3285ba24"},"vehicle_type_id":"4","last_reported":1692119139,"current_range_meters":31200,"station_id":"ce4bhb92rcd13ifvqen0","pricing_plan_id":"free"},{"bike_id":"cbd60962-68d1-41b1-888b-c2c8bd890c0e","system_id":"levelo_inurba_marseille","lat":43.295169,"lon":5.390426,"is_reserved":false,"is_disabled":false,"rental_uris":{"android":"levelo://app?vid=cbd60962-68d1-41b1-888b-c2c8bd890c0e","ios":"levelo://app?vid=cbd60962-68d1-41b1-888b-c2c8bd890c0e"},"vehicle_type_id":"4","last_reported":1692119139,"current_range_meters":16800,"station_id":"ce4bh3p2rcd13ifvqdp0","pricing_plan_id":"free"},{"bike_id":"acf55429-6ef4-4729-ad76-c3bb46bed546","system_id":"levelo_inurba_marseille","lat":43.29526,"lon":5.39039,"is_reserved":false,"is_disabled":false,"rental_uris":{"android":"levelo://app?vid=acf55429-6ef4-4729-ad76-c3bb46bed546","ios":"levelo://app?vid=acf55429-6ef4-4729-ad76-c3bb46bed546"},"vehicle_type_id":"4","last_reported":1692119139,"current_range_meters":24000,"station_id":"ce4bh3p2rcd13ifvqdp0","pricing_plan_id":"free"},{"bike_id":"faa2747d-e55f-42aa-a09c-b2ef0c0a83de","system_id":"levelo_inurba_marseille","lat":43.29029,"lon":5.38136,"is_reserved":false,"is_disabled":false,"rental_uris":{"android":"levelo://app?vid=faa2747d-e55f-42aa-a09c-b2ef0c0a83de","ios":"levelo://app?vid=faa2747d-e55f-42aa-a09c-b2ef0c0a83de"},"vehicle_type_id":"4","last_reported":1692119139,"current_range_meters":10800,"station_id":"ce4bh4p2rcd13ifvqe1g","pricing_plan_id":"free"},{"bike_id":"7a58f2e4-0f45-46a3-9a44-b8a82cb025c0","system_id":"levelo_inurba_marseille","lat":43.2901,"lon":5.381269,"is_reserved":false,"is_disabled":false,"rental_uris":{"android":"levelo://app?vid=7a58f2e4-0f45-46a3-9a44-b8a82cb025c0","ios":"levelo://app?vid=7a58f2e4-0f45-46a3-9a44-b8a82cb025c0"},"vehicle_type_id":"4","last_reported":1692119139,"current_range_meters":6800,"station_id":"ce4bh4p2rcd13ifvqe1g","pricing_plan_id":"free"},{"bike_id":"c1fac9b6-9f7e-4041-bfa2-866a18b43e7e","system_id":"levelo_inurba_marseille","lat":43.29024,"lon":5.38142,"is_reserved":false,"is_disabled":false,"rental_uris":{"android":"levelo://app?vid=c1fac9b6-9f7e-4041-bfa2-866a18b43e7e","ios":"levelo://app?vid=c1fac9b6-9f7e-4041-bfa2-866a18b43e7e"},"vehicle_type_id":"4","last_reported":1692119139,"current_range_meters":4400,"station_id":"ce4bh4p2rcd13ifvqe1g","pricing_plan_id":"free"},{"bike_id":"1dc43678-84df-49e2-9766-1f872aeb48cc","system_id":"levelo_inurba_marseille","lat":43.2901,"lon":5.381269,"is_reserved":false,"is_disabled":false,"rental_uris":{"android":"levelo://app?vid=1dc43678-84df-49e2-9766-1f872aeb48cc","ios":"levelo://app?vid=1dc43678-84df-49e2-9766-1f872aeb48cc"},"vehicle_type_id":"4","last_reported":1692119139,"current_range_meters":4000,"station_id":"ce4bh4p2rcd13ifvqe1g","pricing_plan_id":"free"},{"bike_id":"e935091b-825f-40e6-b8af-75d07d296626","system_id":"levelo_inurba_marseille","lat":43.30938,"lon":5.40142,"is_reserved":false,"is_disabled":false,"rental_uris":{"android":"levelo://app?vid=e935091b-825f-40e6-b8af-75d07d296626","ios":"levelo://app?vid=e935091b-825f-40e6-b8af-75d07d296626"},"vehicle_type_id":"4","last_reported":1692119139,"current_range_meters":23600,"station_id":"ce4bgvp2rcd13ifvqct0","pricing_plan_id":"free"},{"bike_id":"e997648f-29c7-4792-88d0-f5b517f481e2","system_id":"levelo_inurba_marseille","lat":43.30943,"lon":5.40148,"is_reserved":false,"is_disabled":false,"rental_uris":{"android":"levelo://app?vid=e997648f-29c7-4792-88d0-f5b517f481e2","ios":"levelo://app?vid=e997648f-29c7-4792-88d0-f5b517f481e2"},"vehicle_type_id":"4","last_reported":1692119139,"current_range_meters":20800,"station_id":"ce4bgvp2rcd13ifvqct0","pricing_plan_id":"free"},{"bike_id":"76fe8efb-10e0-440b-bc76-620087e807a3","system_id":"levelo_inurba_marseille","lat":43.301117,"lon":5.398795,"is_reserved":false,"is_disabled":false,"rental_uris":{"android":"levelo://app?vid=76fe8efb-10e0-440b-bc76-620087e807a3","ios":"levelo://app?vid=76fe8efb-10e0-440b-bc76-620087e807a3"},"vehicle_type_id":"4","last_reported":1692119139,"current_range_meters":18000,"station_id":"ce4bh0h2rcd13ifvqd40","pricing_plan_id":"free"},{"bike_id":"02ca5137-a87e-415e-a7df-811c5c7f8bdf","system_id":"levelo_inurba_marseille","lat":43.298681,"lon":5.397225,"is_reserved":false,"is_disabled":false,"rental_uris":{"android":"levelo://app?vid=02ca5137-a87e-415e-a7df-811c5c7f8bdf","ios":"levelo://app?vid=02ca5137-a87e-415e-a7df-811c5c7f8bdf"},"vehicle_type_id":"4","last_reported":1692119139,"current_range_meters":18800,"station_id":"ce4bh0h2rcd13ifvqd50","pricing_plan_id":"free"},{"bike_id":"75199276-b705-4ad7-b6a9-49aeaa84628a","system_id":"levelo_inurba_marseille","lat":43.286591,"lon":5.363346,"is_reserved":false,"is_disabled":false,"rental_uris":{"android":"levelo://app?vid=75199276-b705-4ad7-b6a9-49aeaa84628a","ios":"levelo://app?vid=75199276-b705-4ad7-b6a9-49aeaa84628a"},"vehicle_type_id":"4","last_reported":1692119139,"current_range_meters":31200,"station_id":"ce4bhah2rcd13ifvqej0","pricing_plan_id":"free"},{"bike_id":"5e37e6bc-62b6-4a44-a03c-b932a22cdd4a","system_id":"levelo_inurba_marseille","lat":43.290336,"lon":5.386425,"is_reserved":false,"is_disabled":false,"rental_uris":{"android":"levelo://app?vid=5e37e6bc-62b6-4a44-a03c-b932a22cdd4a","ios":"levelo://app?vid=5e37e6bc-62b6-4a44-a03c-b932a22cdd4a"},"vehicle_type_id":"4","last_reported":1692119139,"current_range_meters":6000,"station_id":"ce4bh4p2rcd13ifvqe0g","pricing_plan_id":"free"},{"bike_id":"74220d3c-4cd6-4230-be8a-c26c4d78ecbf","system_id":"levelo_inurba_marseille","lat":43.31642,"lon":5.40441,"is_reserved":false,"is_disabled":false,"rental_uris":{"android":"levelo://app?vid=74220d3c-4cd6-4230-be8a-c26c4d78ecbf","ios":"levelo://app?vid=74220d3c-4cd6-4230-be8a-c26c4d78ecbf"},"vehicle_type_id":"4","last_reported":1692119139,"current_range_meters":19200,"station_id":"ce4bh012rcd13ifvqd00","pricing_plan_id":"free"},{"bike_id":"c0e3c542-6d2f-4ad1-8a2b-1a73967d668e","system_id":"levelo_inurba_marseille","lat":43.33011,"lon":5.39667,"is_reserved":false,"is_disabled":false,"rental_uris":{"android":"levelo://app?vid=c0e3c542-6d2f-4ad1-8a2b-1a73967d668e","ios":"levelo://app?vid=c0e3c542-6d2f-4ad1-8a2b-1a73967d668e"},"vehicle_type_id":"4","last_reported":1692119139,"current_range_meters":26400,"station_id":"","pricing_plan_id":"free"},{"bike_id":"820ceae0-cab6-4b31-a4d7-d5f08541af14","system_id":"levelo_inurba_marseille","lat":43.291994,"lon":5.392907,"is_reserved":false,"is_disabled":false,"rental_uris":{"android":"levelo://app?vid=820ceae0-cab6-4b31-a4d7-d5f08541af14","ios":"levelo://app?vid=820ceae0-cab6-4b31-a4d7-d5f08541af14"},"vehicle_type_id":"4","last_reported":1692119139,"current_range_meters":26400,"station_id":"ce4bh192rcd13ifvqdd0","pricing_plan_id":"free"},{"bike_id":"fffc81db-ce5b-4a2a-92ee-04769c485f63","system_id":"levelo_inurba_marseille","lat":43.284538,"lon":5.358657,"is_reserved":false,"is_disabled":false,"rental_uris":{"android":"levelo://app?vid=fffc81db-ce5b-4a2a-92ee-04769c485f63","ios":"levelo://app?vid=fffc81db-ce5b-4a2a-92ee-04769c485f63"},"vehicle_type_id":"4","last_reported":1692119139,"current_range_meters":5600,"station_id":"ce4bhah2rcd13ifvqei0","pricing_plan_id":"free"},{"bike_id":"386ed8e3-b71e-4f68-86af-202c5b76503e","system_id":"levelo_inurba_marseille","lat":43.2863,"lon":5.35129,"is_reserved":false,"is_disabled":false,"rental_uris":{"android":"levelo://app?vid=386ed8e3-b71e-4f68-86af-202c5b76503e","ios":"levelo://app?vid=386ed8e3-b71e-4f68-86af-202c5b76503e"},"vehicle_type_id":"4","last_reported":1692119139,"current_range_meters":30400,"station_id":"","pricing_plan_id":"free"},{"bike_id":"50c8f803-2ceb-44ae-baef-6c0f30043e24","system_id":"levelo_inurba_marseille","lat":43.283998,"lon":5.375062,"is_reserved":false,"is_disabled":false,"rental_uris":{"android":"levelo://app?vid=50c8f803-2ceb-44ae-baef-6c0f30043e24","ios":"levelo://app?vid=50c8f803-2ceb-44ae-baef-6c0f30043e24"},"vehicle_type_id":"4","last_reported":1692119139,"current_range_meters":1600,"station_id":"ce4bh412rcd13ifvqds0","pricing_plan_id":"free"},{"bike_id":"89ad2d71-008b-41c1-bb9d-7b4bcdf8bcc6","system_id":"levelo_inurba_marseille","lat":43.28422,"lon":5.37512,"is_reserved":false,"is_disabled":false,"rental_uris":{"android":"levelo://app?vid=89ad2d71-008b-41c1-bb9d-7b4bcdf8bcc6","ios":"levelo://app?vid=89ad2d71-008b-41c1-bb9d-7b4bcdf8bcc6"},"vehicle_type_id":"4","last_reported":1692119139,"current_range_meters":0,"station_id":"ce4bh412rcd13ifvqds0","pricing_plan_id":"free"},{"bike_id":"380da9e2-2860-4b0d-8392-5df7d01f34bd","system_id":"levelo_inurba_marseille","lat":43.283998,"lon":5.375062,"is_reserved":false,"is_disabled":false,"rental_uris":{"android":"levelo://app?vid=380da9e2-2860-4b0d-8392-5df7d01f34bd","ios":"levelo://app?vid=380da9e2-2860-4b0d-8392-5df7d01f34bd"},"vehicle_type_id":"4","last_reported":1692119139,"current_range_meters":12400,"station_id":"ce4bh412rcd13ifvqds0","pricing_plan_id":"free"},{"bike_id":"cfa7173e-a138-4c62-87f8-9d0f4b2e3fd4","system_id":"levelo_inurba_marseille","lat":43.28417,"lon":5.37513,"is_reserved":false,"is_disabled":false,"rental_uris":{"android":"levelo://app?vid=cfa7173e-a138-4c62-87f8-9d0f4b2e3fd4","ios":"levelo://app?vid=cfa7173e-a138-4c62-87f8-9d0f4b2e3fd4"},"vehicle_type_id":"4","last_reported":1692119139,"current_range_meters":24400,"station_id":"ce4bh412rcd13ifvqds0","pricing_plan_id":"free"},{"bike_id":"4d733fab-cbf6-44a9-b9ed-fda591e73e8a","system_id":"levelo_inurba_marseille","lat":43.295713,"lon":5.399639,"is_reserved":false,"is_disabled":false,"rental_uris":{"android":"levelo://app?vid=4d733fab-cbf6-44a9-b9ed-fda591e73e8a","ios":"levelo://app?vid=4d733fab-cbf6-44a9-b9ed-fda591e73e8a"},"vehicle_type_id":"4","last_reported":1692119139,"current_range_meters":26800,"station_id":"ce4bh312rcd13ifvqdj0","pricing_plan_id":"free"},{"bike_id":"64b1775a-93a1-43b4-bbec-ac14c94d1abb","system_id":"levelo_inurba_marseille","lat":43.286595,"lon":5.386795,"is_reserved":false,"is_disabled":false,"rental_uris":{"android":"levelo://app?vid=64b1775a-93a1-43b4-bbec-ac14c94d1abb","ios":"levelo://app?vid=64b1775a-93a1-43b4-bbec-ac14c94d1abb"},"vehicle_type_id":"4","last_reported":1692119139,"current_range_meters":29600,"station_id":"ce4bh492rcd13ifvqdug","pricing_plan_id":"free"},{"bike_id":"aff48a3e-ea12-4cac-a317-0be9a9a56d14","system_id":"levelo_inurba_marseille","lat":43.319179,"lon":5.407725,"is_reserved":false,"is_disabled":false,"rental_uris":{"android":"levelo://app?vid=aff48a3e-ea12-4cac-a317-0be9a9a56d14","ios":"levelo://app?vid=aff48a3e-ea12-4cac-a317-0be9a9a56d14"},"vehicle_type_id":"4","last_reported":1692119139,"current_range_meters":26400,"station_id":"ce4bhq12rcd13ifvqhig","pricing_plan_id":"free"},{"bike_id":"af00a5a3-ae9f-405e-b889-8af3b10e3ee3","system_id":"levelo_inurba_marseille","lat":43.319179,"lon":5.407725,"is_reserved":false,"is_disabled":false,"rental_uris":{"android":"levelo://app?vid=af00a5a3-ae9f-405e-b889-8af3b10e3ee3","ios":"levelo://app?vid=af00a5a3-ae9f-405e-b889-8af3b10e3ee3"},"vehicle_type_id":"4","last_reported":1692119139,"current_range_meters":26000,"station_id":"ce4bhq12rcd13ifvqhig","pricing_plan_id":"free"},{"bike_id":"5998f81c-1eca-456a-a4d5-b95c154b11b7","system_id":"levelo_inurba_marseille","lat":43.33716,"lon":5.39171,"is_reserved":false,"is_disabled":false,"rental_uris":{"android":"levelo://app?vid=5998f81c-1eca-456a-a4d5-b95c154b11b7","ios":"levelo://app?vid=5998f81c-1eca-456a-a4d5-b95c154b11b7"},"vehicle_type_id":"4","last_reported":1692119139,"current_range_meters":28400,"station_id":"ce4bhr92rcd13ifvqhsg","pricing_plan_id":"free"},{"bike_id":"50ff99fb-43af-4912-a992-826715877a21","system_id":"levelo_inurba_marseille","lat":43.337168,"lon":5.391825,"is_reserved":false,"is_disabled":false,"rental_uris":{"android":"levelo://app?vid=50ff99fb-43af-4912-a992-826715877a21","ios":"levelo://app?vid=50ff99fb-43af-4912-a992-826715877a21"},"vehicle_type_id":"4","last_reported":1692119139,"current_range_meters":17600,"station_id":"ce4bhr92rcd13ifvqhsg","pricing_plan_id":"free"},{"bike_id":"9ca4073f-d795-475e-8fee-b528ec6069e2","system_id":"levelo_inurba_marseille","lat":43.337168,"lon":5.391825,"is_reserved":false,"is_disabled":false,"rental_uris":{"android":"levelo://app?vid=9ca4073f-d795-475e-8fee-b528ec6069e2","ios":"levelo://app?vid=9ca4073f-d795-475e-8fee-b528ec6069e2"},"vehicle_type_id":"4","last_reported":1692119139,"current_range_meters":29200,"station_id":"ce4bhr92rcd13ifvqhsg","pricing_plan_id":"free"},{"bike_id":"c7f55b38-f91b-41fb-a480-21b4dec7e541","system_id":"levelo_inurba_marseille","lat":43.33719,"lon":5.39174,"is_reserved":false,"is_disabled":false,"rental_uris":{"android":"levelo://app?vid=c7f55b38-f91b-41fb-a480-21b4dec7e541","ios":"levelo://app?vid=c7f55b38-f91b-41fb-a480-21b4dec7e541"},"vehicle_type_id":"4","last_reported":1692119139,"current_range_meters":24400,"station_id":"ce4bhr92rcd13ifvqhsg","pricing_plan_id":"free"},{"bike_id":"6ed2964b-5392-406b-b9af-45404a2ee5fa","system_id":"levelo_inurba_marseille","lat":43.337168,"lon":5.391825,"is_reserved":false,"is_disabled":false,"rental_uris":{"android":"levelo://app?vid=6ed2964b-5392-406b-b9af-45404a2ee5fa","ios":"levelo://app?vid=6ed2964b-5392-406b-b9af-45404a2ee5fa"},"vehicle_type_id":"4","last_reported":1692119139,"current_range_meters":30000,"station_id":"ce4bhr92rcd13ifvqhsg","pricing_plan_id":"free"},{"bike_id":"d1191578-a5a1-4fd7-ac86-032e8fdf04c0","system_id":"levelo_inurba_marseille","lat":43.3372,"lon":5.39173,"is_reserved":false,"is_disabled":false,"rental_uris":{"android":"levelo://app?vid=d1191578-a5a1-4fd7-ac86-032e8fdf04c0","ios":"levelo://app?vid=d1191578-a5a1-4fd7-ac86-032e8fdf04c0"},"vehicle_type_id":"4","last_reported":1692119139,"current_range_meters":27600,"station_id":"ce4bhr92rcd13ifvqhsg","pricing_plan_id":"free"},{"bike_id":"57768b0c-9496-4a75-970e-df1deaa86dad","system_id":"levelo_inurba_marseille","lat":43.28494,"lon":5.35003,"is_reserved":false,"is_disabled":false,"rental_uris":{"android":"levelo://app?vid=57768b0c-9496-4a75-970e-df1deaa86dad","ios":"levelo://app?vid=57768b0c-9496-4a75-970e-df1deaa86dad"},"vehicle_type_id":"4","last_reported":1692119139,"current_range_meters":21600,"station_id":"","pricing_plan_id":"free"},{"bike_id":"f0b3e4a8-c149-42b1-9c5e-b4e2f8c56804","system_id":"levelo_inurba_marseille","lat":43.33724,"lon":5.39177,"is_reserved":false,"is_disabled":false,"rental_uris":{"android":"levelo://app?vid=f0b3e4a8-c149-42b1-9c5e-b4e2f8c56804","ios":"levelo://app?vid=f0b3e4a8-c149-42b1-9c5e-b4e2f8c56804"},"vehicle_type_id":"4","last_reported":1692119139,"current_range_meters":30400,"station_id":"ce4bhr92rcd13ifvqhsg","pricing_plan_id":"free"},{"bike_id":"7d990ca5-f420-4945-a4a1-a0288a5b26c7","system_id":"levelo_inurba_marseille","lat":43.337168,"lon":5.391825,"is_reserved":false,"is_disabled":false,"rental_uris":{"android":"levelo://app?vid=7d990ca5-f420-4945-a4a1-a0288a5b26c7","ios":"levelo://app?vid=7d990ca5-f420-4945-a4a1-a0288a5b26c7"},"vehicle_type_id":"4","last_reported":1692119139,"current_range_meters":12400,"station_id":"ce4bhr92rcd13ifvqhsg","pricing_plan_id":"free"},{"bike_id":"6a16d4f0-1bee-4a48-8250-841c97df9d59","system_id":"levelo_inurba_marseille","lat":43.33728,"lon":5.3918,"is_reserved":false,"is_disabled":false,"rental_uris":{"android":"levelo://app?vid=6a16d4f0-1bee-4a48-8250-841c97df9d59","ios":"levelo://app?vid=6a16d4f0-1bee-4a48-8250-841c97df9d59"},"vehicle_type_id":"4","last_reported":1692119139,"current_range_meters":28000,"station_id":"ce4bhr92rcd13ifvqhsg","pricing_plan_id":"free"},{"bike_id":"3418df2e-6699-4bed-91a2-b25e9f32f724","system_id":"levelo_inurba_marseille","lat":43.337168,"lon":5.391825,"is_reserved":false,"is_disabled":false,"rental_uris":{"android":"levelo://app?vid=3418df2e-6699-4bed-91a2-b25e9f32f724","ios":"levelo://app?vid=3418df2e-6699-4bed-91a2-b25e9f32f724"},"vehicle_type_id":"4","last_reported":1692119139,"current_range_meters":22400,"station_id":"ce4bhr92rcd13ifvqhsg","pricing_plan_id":"free"},{"bike_id":"5f57cbdc-b213-4500-a3f7-f2284cce01b9","system_id":"levelo_inurba_marseille","lat":43.284793,"lon":5.384119,"is_reserved":false,"is_disabled":false,"rental_uris":{"android":"levelo://app?vid=5f57cbdc-b213-4500-a3f7-f2284cce01b9","ios":"levelo://app?vid=5f57cbdc-b213-4500-a3f7-f2284cce01b9"},"vehicle_type_id":"4","last_reported":1692119139,"current_range_meters":8000,"station_id":"ce4bh512rcd13ifvqe3g","pricing_plan_id":"free"},{"bike_id":"23f5f11c-1631-4826-9b70-90ab56e6e026","system_id":"levelo_inurba_marseille","lat":43.32351,"lon":5.40623,"is_reserved":false,"is_disabled":false,"rental_uris":{"android":"levelo://app?vid=23f5f11c-1631-4826-9b70-90ab56e6e026","ios":"levelo://app?vid=23f5f11c-1631-4826-9b70-90ab56e6e026"},"vehicle_type_id":"4","last_reported":1692119139,"current_range_meters":21200,"station_id":"ce4bhq92rcd13ifvqhjg","pricing_plan_id":"free"},{"bike_id":"72e83c44-3d51-47c7-aec1-e9570a9fb091","system_id":"levelo_inurba_marseille","lat":43.283494,"lon":5.380945,"is_reserved":false,"is_disabled":false,"rental_uris":{"android":"levelo://app?vid=72e83c44-3d51-47c7-aec1-e9570a9fb091","ios":"levelo://app?vid=72e83c44-3d51-47c7-aec1-e9570a9fb091"},"vehicle_type_id":"4","last_reported":1692119139,"current_range_meters":4000,"station_id":"ce4bh412rcd13ifvqdr0","pricing_plan_id":"free"},{"bike_id":"bef2f93a-0413-445f-96ae-63e4e2712bb0","system_id":"levelo_inurba_marseille","lat":43.284401,"lon":5.349654,"is_reserved":false,"is_disabled":false,"rental_uris":{"android":"levelo://app?vid=bef2f93a-0413-445f-96ae-63e4e2712bb0","ios":"levelo://app?vid=bef2f93a-0413-445f-96ae-63e4e2712bb0"},"vehicle_type_id":"4","last_reported":1692119139,"current_range_meters":19600,"station_id":"ce4bhbh2rcd13ifvqepg","pricing_plan_id":"free"},{"bike_id":"eadd7066-c50f-4023-a180-c93bfa9bd183","system_id":"levelo_inurba_marseille","lat":43.28431,"lon":5.34983,"is_reserved":false,"is_disabled":false,"rental_uris":{"android":"levelo://app?vid=eadd7066-c50f-4023-a180-c93bfa9bd183","ios":"levelo://app?vid=eadd7066-c50f-4023-a180-c93bfa9bd183"},"vehicle_type_id":"4","last_reported":1692119139,"current_range_meters":23200,"station_id":"ce4bhbh2rcd13ifvqepg","pricing_plan_id":"free"},{"bike_id":"2e041027-8817-47b0-900a-e30c24a7bedf","system_id":"levelo_inurba_marseille","lat":43.28428,"lon":5.34988,"is_reserved":false,"is_disabled":false,"rental_uris":{"android":"levelo://app?vid=2e041027-8817-47b0-900a-e30c24a7bedf","ios":"levelo://app?vid=2e041027-8817-47b0-900a-e30c24a7bedf"},"vehicle_type_id":"4","last_reported":1692119139,"current_range_meters":29200,"station_id":"ce4bhbh2rcd13ifvqepg","pricing_plan_id":"free"},{"bike_id":"7ba5e1e4-3cdf-46e7-8e14-aa494fbaa5ae","system_id":"levelo_inurba_marseille","lat":43.2844,"lon":5.3494,"is_reserved":false,"is_disabled":false,"rental_uris":{"android":"levelo://app?vid=7ba5e1e4-3cdf-46e7-8e14-aa494fbaa5ae","ios":"levelo://app?vid=7ba5e1e4-3cdf-46e7-8e14-aa494fbaa5ae"},"vehicle_type_id":"4","last_reported":1692119139,"current_range_meters":8800,"station_id":"","pricing_plan_id":"free"},{"bike_id":"eefdc220-7264-47c6-96f2-436ccd506135","system_id":"levelo_inurba_marseille","lat":43.28423,"lon":5.34984,"is_reserved":false,"is_disabled":false,"rental_uris":{"android":"levelo://app?vid=eefdc220-7264-47c6-96f2-436ccd506135","ios":"levelo://app?vid=eefdc220-7264-47c6-96f2-436ccd506135"},"vehicle_type_id":"4","last_reported":1692119139,"current_range_meters":24000,"station_id":"ce4bhbh2rcd13ifvqepg","pricing_plan_id":"free"},{"bike_id":"3e4e9013-6f25-449c-907b-71d6956ae302","system_id":"levelo_inurba_marseille","lat":43.28416,"lon":5.34975,"is_reserved":false,"is_disabled":false,"rental_uris":{"android":"levelo://app?vid=3e4e9013-6f25-449c-907b-71d6956ae302","ios":"levelo://app?vid=3e4e9013-6f25-449c-907b-71d6956ae302"},"vehicle_type_id":"4","last_reported":1692119139,"current_range_meters":24800,"station_id":"ce4bhbh2rcd13ifvqepg","pricing_plan_id":"free"},{"bike_id":"c7e571e9-d9c7-4e7d-885c-df3ba213020a","system_id":"levelo_inurba_marseille","lat":43.28195,"lon":5.374165,"is_reserved":false,"is_disabled":false,"rental_uris":{"android":"levelo://app?vid=c7e571e9-d9c7-4e7d-885c-df3ba213020a","ios":"levelo://app?vid=c7e571e9-d9c7-4e7d-885c-df3ba213020a"},"vehicle_type_id":"4","last_reported":1692119139,"current_range_meters":26800,"station_id":"","pricing_plan_id":"free"},{"bike_id":"b346b142-ae43-4993-8642-c11abaa0e321","system_id":"levelo_inurba_marseille","lat":43.289363,"lon":5.396322,"is_reserved":false,"is_disabled":false,"rental_uris":{"android":"levelo://app?vid=b346b142-ae43-4993-8642-c11abaa0e321","ios":"levelo://app?vid=b346b142-ae43-4993-8642-c11abaa0e321"},"vehicle_type_id":"4","last_reported":1692119139,"current_range_meters":28800,"station_id":"ce4bh3h2rcd13ifvqdn0","pricing_plan_id":"free"},{"bike_id":"5f6f976f-a152-42da-af60-b11edad91f19","system_id":"levelo_inurba_marseille","lat":43.289363,"lon":5.396322,"is_reserved":false,"is_disabled":false,"rental_uris":{"android":"levelo://app?vid=5f6f976f-a152-42da-af60-b11edad91f19","ios":"levelo://app?vid=5f6f976f-a152-42da-af60-b11edad91f19"},"vehicle_type_id":"4","last_reported":1692119139,"current_range_meters":27200,"station_id":"ce4bh3h2rcd13ifvqdn0","pricing_plan_id":"free"},{"bike_id":"5cec26ac-344f-432b-af34-450b75305b9b","system_id":"levelo_inurba_marseille","lat":43.292724,"lon":5.401131,"is_reserved":false,"is_disabled":false,"rental_uris":{"android":"levelo://app?vid=5cec26ac-344f-432b-af34-450b75305b9b","ios":"levelo://app?vid=5cec26ac-344f-432b-af34-450b75305b9b"},"vehicle_type_id":"4","last_reported":1692119139,"current_range_meters":31200,"station_id":"ce4bh312rcd13ifvqdk0","pricing_plan_id":"free"},{"bike_id":"88940920-727e-47f8-bee6-24feedff1167","system_id":"levelo_inurba_marseille","lat":43.282754,"lon":5.350519,"is_reserved":false,"is_disabled":false,"rental_uris":{"android":"levelo://app?vid=88940920-727e-47f8-bee6-24feedff1167","ios":"levelo://app?vid=88940920-727e-47f8-bee6-24feedff1167"},"vehicle_type_id":"4","last_reported":1692119139,"current_range_meters":31200,"station_id":"ce4bhbp2rcd13ifvqerg","pricing_plan_id":"free"},{"bike_id":"465fe520-6f88-4dc9-a9bb-1fd969443c5d","system_id":"levelo_inurba_marseille","lat":43.283502,"lon":5.386471,"is_reserved":false,"is_disabled":false,"rental_uris":{"android":"levelo://app?vid=465fe520-6f88-4dc9-a9bb-1fd969443c5d","ios":"levelo://app?vid=465fe520-6f88-4dc9-a9bb-1fd969443c5d"},"vehicle_type_id":"4","last_reported":1692119139,"current_range_meters":10400,"station_id":"ce4bh492rcd13ifvqdvg","pricing_plan_id":"free"},{"bike_id":"f04527c9-0c43-45e5-9c45-6ee6ef074591","system_id":"levelo_inurba_marseille","lat":43.28039,"lon":5.369297,"is_reserved":false,"is_disabled":false,"rental_uris":{"android":"levelo://app?vid=f04527c9-0c43-45e5-9c45-6ee6ef074591","ios":"levelo://app?vid=f04527c9-0c43-45e5-9c45-6ee6ef074591"},"vehicle_type_id":"4","last_reported":1692119139,"current_range_meters":13600,"station_id":"ce4bha12rcd13ifvqef0","pricing_plan_id":"free"},{"bike_id":"353d52a6-f41a-42b4-82b4-03ed8a8ef11f","system_id":"levelo_inurba_marseille","lat":43.280382,"lon":5.369291,"is_reserved":false,"is_disabled":false,"rental_uris":{"android":"levelo://app?vid=353d52a6-f41a-42b4-82b4-03ed8a8ef11f","ios":"levelo://app?vid=353d52a6-f41a-42b4-82b4-03ed8a8ef11f"},"vehicle_type_id":"4","last_reported":1692119139,"current_range_meters":5200,"station_id":"ce4bha12rcd13ifvqef0","pricing_plan_id":"free"},{"bike_id":"d182c4c4-6d75-472d-9429-5751e5c05a74","system_id":"levelo_inurba_marseille","lat":43.28034,"lon":5.36953,"is_reserved":false,"is_disabled":false,"rental_uris":{"android":"levelo://app?vid=d182c4c4-6d75-472d-9429-5751e5c05a74","ios":"levelo://app?vid=d182c4c4-6d75-472d-9429-5751e5c05a74"},"vehicle_type_id":"4","last_reported":1692119139,"current_range_meters":30000,"station_id":"ce4bha12rcd13ifvqef0","pricing_plan_id":"free"},{"bike_id":"28503c72-20ca-4360-b3c8-aef5bf4407b6","system_id":"levelo_inurba_marseille","lat":43.280382,"lon":5.369291,"is_reserved":false,"is_disabled":false,"rental_uris":{"android":"levelo://app?vid=28503c72-20ca-4360-b3c8-aef5bf4407b6","ios":"levelo://app?vid=28503c72-20ca-4360-b3c8-aef5bf4407b6"},"vehicle_type_id":"4","last_reported":1692119139,"current_range_meters":24800,"station_id":"ce4bha12rcd13ifvqef0","pricing_plan_id":"free"},{"bike_id":"dcbb606d-3fe3-4738-b15f-19bbe6272c92","system_id":"levelo_inurba_marseille","lat":43.290461,"lon":5.399602,"is_reserved":false,"is_disabled":false,"rental_uris":{"android":"levelo://app?vid=dcbb606d-3fe3-4738-b15f-19bbe6272c92","ios":"levelo://app?vid=dcbb606d-3fe3-4738-b15f-19bbe6272c92"},"vehicle_type_id":"4","last_reported":1692119139,"current_range_meters":3200,"station_id":"ce4bh392rcd13ifvqdm0","pricing_plan_id":"free"},{"bike_id":"eb8e4c4f-5fc5-4007-ab2b-231fad0dc17c","system_id":"levelo_inurba_marseille","lat":43.290412,"lon":5.399633,"is_reserved":false,"is_disabled":false,"rental_uris":{"android":"levelo://app?vid=eb8e4c4f-5fc5-4007-ab2b-231fad0dc17c","ios":"levelo://app?vid=eb8e4c4f-5fc5-4007-ab2b-231fad0dc17c"},"vehicle_type_id":"4","last_reported":1692119139,"current_range_meters":31200,"station_id":"ce4bh392rcd13ifvqdm0","pricing_plan_id":"free"},{"bike_id":"12e18878-0939-4599-8d0b-39d51bb7f968","system_id":"levelo_inurba_marseille","lat":43.281044,"lon":5.378308,"is_reserved":false,"is_disabled":false,"rental_uris":{"android":"levelo://app?vid=12e18878-0939-4599-8d0b-39d51bb7f968","ios":"levelo://app?vid=12e18878-0939-4599-8d0b-39d51bb7f968"},"vehicle_type_id":"4","last_reported":1692119139,"current_range_meters":13600,"station_id":"ce4bha12rcd13ifvqee0","pricing_plan_id":"free"},{"bike_id":"11798140-e9d4-42c3-ab08-a0fa6a537a29","system_id":"levelo_inurba_marseille","lat":43.28106,"lon":5.37831,"is_reserved":false,"is_disabled":false,"rental_uris":{"android":"levelo://app?vid=11798140-e9d4-42c3-ab08-a0fa6a537a29","ios":"levelo://app?vid=11798140-e9d4-42c3-ab08-a0fa6a537a29"},"vehicle_type_id":"4","last_reported":1692119139,"current_range_meters":9600,"station_id":"ce4bha12rcd13ifvqee0","pricing_plan_id":"free"},{"bike_id":"3007ffbd-70c6-4440-985f-a0455811364d","system_id":"levelo_inurba_marseille","lat":43.284462,"lon":5.392121,"is_reserved":false,"is_disabled":false,"rental_uris":{"android":"levelo://app?vid=3007ffbd-70c6-4440-985f-a0455811364d","ios":"levelo://app?vid=3007ffbd-70c6-4440-985f-a0455811364d"},"vehicle_type_id":"4","last_reported":1692119139,"current_range_meters":14400,"station_id":"ce4bhoh2rcd13ifvqh5g","pricing_plan_id":"free"},{"bike_id":"9ea2dcfb-23b5-4e4c-98af-6603a61c9ebc","system_id":"levelo_inurba_marseille","lat":43.284462,"lon":5.392121,"is_reserved":false,"is_disabled":false,"rental_uris":{"android":"levelo://app?vid=9ea2dcfb-23b5-4e4c-98af-6603a61c9ebc","ios":"levelo://app?vid=9ea2dcfb-23b5-4e4c-98af-6603a61c9ebc"},"vehicle_type_id":"4","last_reported":1692119139,"current_range_meters":13600,"station_id":"ce4bhoh2rcd13ifvqh5g","pricing_plan_id":"free"},{"bike_id":"73159f2b-1b1a-4cfe-8862-3cb8b69455ed","system_id":"levelo_inurba_marseille","lat":43.284462,"lon":5.392121,"is_reserved":false,"is_disabled":false,"rental_uris":{"android":"levelo://app?vid=73159f2b-1b1a-4cfe-8862-3cb8b69455ed","ios":"levelo://app?vid=73159f2b-1b1a-4cfe-8862-3cb8b69455ed"},"vehicle_type_id":"4","last_reported":1692119139,"current_range_meters":0,"station_id":"ce4bhoh2rcd13ifvqh5g","pricing_plan_id":"free"},{"bike_id":"a0f258ed-ced3-412c-a3a0-592502c28464","system_id":"levelo_inurba_marseille","lat":43.32661,"lon":5.40929,"is_reserved":false,"is_disabled":false,"rental_uris":{"android":"levelo://app?vid=a0f258ed-ced3-412c-a3a0-592502c28464","ios":"levelo://app?vid=a0f258ed-ced3-412c-a3a0-592502c28464"},"vehicle_type_id":"4","last_reported":1692119139,"current_range_meters":3600,"station_id":"","pricing_plan_id":"free"},{"bike_id":"4b776695-f734-4587-863d-2e7681066bd3","system_id":"levelo_inurba_marseille","lat":43.28573,"lon":5.394992,"is_reserved":false,"is_disabled":false,"rental_uris":{"android":"levelo://app?vid=4b776695-f734-4587-863d-2e7681066bd3","ios":"levelo://app?vid=4b776695-f734-4587-863d-2e7681066bd3"},"vehicle_type_id":"4","last_reported":1692119139,"current_range_meters":18400,"station_id":"ce4bh292rcd13ifvqdg0","pricing_plan_id":"free"},{"bike_id":"269c37ea-578a-4ad1-b83b-695cba211bce","system_id":"levelo_inurba_marseille","lat":43.28573,"lon":5.394992,"is_reserved":false,"is_disabled":false,"rental_uris":{"android":"levelo://app?vid=269c37ea-578a-4ad1-b83b-695cba211bce","ios":"levelo://app?vid=269c37ea-578a-4ad1-b83b-695cba211bce"},"vehicle_type_id":"4","last_reported":1692119139,"current_range_meters":23600,"station_id":"ce4bh292rcd13ifvqdg0","pricing_plan_id":"free"},{"bike_id":"738d5aa5-659a-4edf-9ae9-f3f148a17f92","system_id":"levelo_inurba_marseille","lat":43.32656,"lon":5.40957,"is_reserved":false,"is_disabled":false,"rental_uris":{"android":"levelo://app?vid=738d5aa5-659a-4edf-9ae9-f3f148a17f92","ios":"levelo://app?vid=738d5aa5-659a-4edf-9ae9-f3f148a17f92"},"vehicle_type_id":"4","last_reported":1692119139,"current_range_meters":8800,"station_id":"ce4bhpp2rcd13ifvqhgg","pricing_plan_id":"free"},{"bike_id":"8b957c4c-14c3-4a4b-a220-e35d3be65b38","system_id":"levelo_inurba_marseille","lat":43.304188,"lon":5.412904,"is_reserved":false,"is_disabled":false,"rental_uris":{"android":"levelo://app?vid=8b957c4c-14c3-4a4b-a220-e35d3be65b38","ios":"levelo://app?vid=8b957c4c-14c3-4a4b-a220-e35d3be65b38"},"vehicle_type_id":"4","last_reported":1692119139,"current_range_meters":10400,"station_id":"ce4bhop2rcd13ifvqh8g","pricing_plan_id":"free"},{"bike_id":"9f53587c-e45d-43b5-b26b-e2355c79dfa7","system_id":"levelo_inurba_marseille","lat":43.279742,"lon":5.38744,"is_reserved":false,"is_disabled":false,"rental_uris":{"android":"levelo://app?vid=9f53587c-e45d-43b5-b26b-e2355c79dfa7","ios":"levelo://app?vid=9f53587c-e45d-43b5-b26b-e2355c79dfa7"},"vehicle_type_id":"4","last_reported":1692119139,"current_range_meters":0,"station_id":"ce4bhg12rcd13ifvqf80","pricing_plan_id":"free"},{"bike_id":"c327718a-8fe6-4791-a349-aba0f8f94e82","system_id":"levelo_inurba_marseille","lat":43.279742,"lon":5.38744,"is_reserved":false,"is_disabled":false,"rental_uris":{"android":"levelo://app?vid=c327718a-8fe6-4791-a349-aba0f8f94e82","ios":"levelo://app?vid=c327718a-8fe6-4791-a349-aba0f8f94e82"},"vehicle_type_id":"4","last_reported":1692119139,"current_range_meters":26400,"station_id":"ce4bhg12rcd13ifvqf80","pricing_plan_id":"free"},{"bike_id":"1ff969c1-c831-4474-a936-93f1999b26ed","system_id":"levelo_inurba_marseille","lat":43.278399,"lon":5.392139,"is_reserved":false,"is_disabled":false,"rental_uris":{"android":"levelo://app?vid=1ff969c1-c831-4474-a936-93f1999b26ed","ios":"levelo://app?vid=1ff969c1-c831-4474-a936-93f1999b26ed"},"vehicle_type_id":"4","last_reported":1692119139,"current_range_meters":18800,"station_id":"ce4bhjp2rcd13ifvqga0","pricing_plan_id":"free"},{"bike_id":"bfa1b2a9-2838-479c-9a90-cf379ba16cfb","system_id":"levelo_inurba_marseille","lat":43.278399,"lon":5.392139,"is_reserved":false,"is_disabled":false,"rental_uris":{"android":"levelo://app?vid=bfa1b2a9-2838-479c-9a90-cf379ba16cfb","ios":"levelo://app?vid=bfa1b2a9-2838-479c-9a90-cf379ba16cfb"},"vehicle_type_id":"4","last_reported":1692119139,"current_range_meters":28800,"station_id":"ce4bhjp2rcd13ifvqga0","pricing_plan_id":"free"},{"bike_id":"63b37e1d-1a9c-45c8-b9f0-cf076a2990cc","system_id":"levelo_inurba_marseille","lat":43.278401,"lon":5.392152,"is_reserved":false,"is_disabled":false,"rental_uris":{"android":"levelo://app?vid=63b37e1d-1a9c-45c8-b9f0-cf076a2990cc","ios":"levelo://app?vid=63b37e1d-1a9c-45c8-b9f0-cf076a2990cc"},"vehicle_type_id":"4","last_reported":1692119139,"current_range_meters":10800,"station_id":"ce4bhjp2rcd13ifvqga0","pricing_plan_id":"free"},{"bike_id":"0fb267ce-43a3-4ed0-b20b-a13760136645","system_id":"levelo_inurba_marseille","lat":43.27376,"lon":5.36244,"is_reserved":false,"is_disabled":false,"rental_uris":{"android":"levelo://app?vid=0fb267ce-43a3-4ed0-b20b-a13760136645","ios":"levelo://app?vid=0fb267ce-43a3-4ed0-b20b-a13760136645"},"vehicle_type_id":"4","last_reported":1692119139,"current_range_meters":31200,"station_id":"ce4bhbh2rcd13ifvqeo0","pricing_plan_id":"free"},{"bike_id":"5d705d02-5926-477f-9f3b-851a28284495","system_id":"levelo_inurba_marseille","lat":43.276769,"lon":5.388787,"is_reserved":false,"is_disabled":false,"rental_uris":{"android":"levelo://app?vid=5d705d02-5926-477f-9f3b-851a28284495","ios":"levelo://app?vid=5d705d02-5926-477f-9f3b-851a28284495"},"vehicle_type_id":"4","last_reported":1692119139,"current_range_meters":28000,"station_id":"ce4bhi12rcd13ifvqfo0","pricing_plan_id":"free"},{"bike_id":"3a411de1-bcf1-40d1-8b82-8049391c7cbd","system_id":"levelo_inurba_marseille","lat":43.275625,"lon":5.384392,"is_reserved":false,"is_disabled":false,"rental_uris":{"android":"levelo://app?vid=3a411de1-bcf1-40d1-8b82-8049391c7cbd","ios":"levelo://app?vid=3a411de1-bcf1-40d1-8b82-8049391c7cbd"},"vehicle_type_id":"4","last_reported":1692119139,"current_range_meters":6000,"station_id":"ce4bhh92rcd13ifvqfi0","pricing_plan_id":"free"},{"bike_id":"7a2f820f-6967-4767-849f-25a1eb7ad56d","system_id":"levelo_inurba_marseille","lat":43.336134,"lon":5.410341,"is_reserved":false,"is_disabled":false,"rental_uris":{"android":"levelo://app?vid=7a2f820f-6967-4767-849f-25a1eb7ad56d","ios":"levelo://app?vid=7a2f820f-6967-4767-849f-25a1eb7ad56d"},"vehicle_type_id":"4","last_reported":1692119139,"current_range_meters":0,"station_id":"ce4bhqh2rcd13ifvqhmg","pricing_plan_id":"free"},{"bike_id":"98bcd0b4-60cb-4216-8411-e72e651ae7e8","system_id":"levelo_inurba_marseille","lat":43.276771,"lon":5.388799,"is_reserved":false,"is_disabled":false,"rental_uris":{"android":"levelo://app?vid=98bcd0b4-60cb-4216-8411-e72e651ae7e8","ios":"levelo://app?vid=98bcd0b4-60cb-4216-8411-e72e651ae7e8"},"vehicle_type_id":"4","last_reported":1692119139,"current_range_meters":16400,"station_id":"ce4bhi12rcd13ifvqfo0","pricing_plan_id":"free"},{"bike_id":"bbba1271-9664-4302-8ef3-49a285e67e4c","system_id":"levelo_inurba_marseille","lat":43.33612,"lon":5.410321,"is_reserved":false,"is_disabled":false,"rental_uris":{"android":"levelo://app?vid=bbba1271-9664-4302-8ef3-49a285e67e4c","ios":"levelo://app?vid=bbba1271-9664-4302-8ef3-49a285e67e4c"},"vehicle_type_id":"4","last_reported":1692119139,"current_range_meters":25200,"station_id":"ce4bhqh2rcd13ifvqhmg","pricing_plan_id":"free"},{"bike_id":"ad6ffb81-003d-442f-ae70-ee16c0dd18be","system_id":"levelo_inurba_marseille","lat":43.275625,"lon":5.384392,"is_reserved":false,"is_disabled":false,"rental_uris":{"android":"levelo://app?vid=ad6ffb81-003d-442f-ae70-ee16c0dd18be","ios":"levelo://app?vid=ad6ffb81-003d-442f-ae70-ee16c0dd18be"},"vehicle_type_id":"4","last_reported":1692119139,"current_range_meters":6000,"station_id":"ce4bhh92rcd13ifvqfi0","pricing_plan_id":"free"},{"bike_id":"01371662-b7b1-4eee-81a1-59b364fd59c4","system_id":"levelo_inurba_marseille","lat":43.275625,"lon":5.384392,"is_reserved":false,"is_disabled":false,"rental_uris":{"android":"levelo://app?vid=01371662-b7b1-4eee-81a1-59b364fd59c4","ios":"levelo://app?vid=01371662-b7b1-4eee-81a1-59b364fd59c4"},"vehicle_type_id":"4","last_reported":1692119139,"current_range_meters":24000,"station_id":"ce4bhh92rcd13ifvqfi0","pricing_plan_id":"free"},{"bike_id":"28c96643-3b91-41a4-9655-deb6c724baad","system_id":"levelo_inurba_marseille","lat":43.27554,"lon":5.38418,"is_reserved":false,"is_disabled":false,"rental_uris":{"android":"levelo://app?vid=28c96643-3b91-41a4-9655-deb6c724baad","ios":"levelo://app?vid=28c96643-3b91-41a4-9655-deb6c724baad"},"vehicle_type_id":"4","last_reported":1692119139,"current_range_meters":8000,"station_id":"ce4bhh92rcd13ifvqfi0","pricing_plan_id":"free"},{"bike_id":"2c002134-e4d2-41d1-b436-28e8e2ea24ca","system_id":"levelo_inurba_marseille","lat":43.276769,"lon":5.388787,"is_reserved":false,"is_disabled":false,"rental_uris":{"android":"levelo://app?vid=2c002134-e4d2-41d1-b436-28e8e2ea24ca","ios":"levelo://app?vid=2c002134-e4d2-41d1-b436-28e8e2ea24ca"},"vehicle_type_id":"4","last_reported":1692119139,"current_range_meters":30800,"station_id":"ce4bhi12rcd13ifvqfo0","pricing_plan_id":"free"},{"bike_id":"1894affa-0873-404a-a26a-fe23a2321b56","system_id":"levelo_inurba_marseille","lat":43.336134,"lon":5.410341,"is_reserved":false,"is_disabled":false,"rental_uris":{"android":"levelo://app?vid=1894affa-0873-404a-a26a-fe23a2321b56","ios":"levelo://app?vid=1894affa-0873-404a-a26a-fe23a2321b56"},"vehicle_type_id":"4","last_reported":1692119139,"current_range_meters":6000,"station_id":"ce4bhqh2rcd13ifvqhmg","pricing_plan_id":"free"},{"bike_id":"144536db-9679-4726-aa21-f665aee7edbb","system_id":"levelo_inurba_marseille","lat":43.336134,"lon":5.410341,"is_reserved":false,"is_disabled":false,"rental_uris":{"android":"levelo://app?vid=144536db-9679-4726-aa21-f665aee7edbb","ios":"levelo://app?vid=144536db-9679-4726-aa21-f665aee7edbb"},"vehicle_type_id":"4","last_reported":1692119139,"current_range_meters":29200,"station_id":"ce4bhqh2rcd13ifvqhmg","pricing_plan_id":"free"},{"bike_id":"90e76974-441b-4f92-8aa0-15ad055c7ec0","system_id":"levelo_inurba_marseille","lat":43.275625,"lon":5.384392,"is_reserved":false,"is_disabled":false,"rental_uris":{"android":"levelo://app?vid=90e76974-441b-4f92-8aa0-15ad055c7ec0","ios":"levelo://app?vid=90e76974-441b-4f92-8aa0-15ad055c7ec0"},"vehicle_type_id":"4","last_reported":1692119139,"current_range_meters":24000,"station_id":"ce4bhh92rcd13ifvqfi0","pricing_plan_id":"free"},{"bike_id":"9c1f30cc-4ee0-4694-a2d0-ff505789b146","system_id":"levelo_inurba_marseille","lat":43.275625,"lon":5.384392,"is_reserved":false,"is_disabled":false,"rental_uris":{"android":"levelo://app?vid=9c1f30cc-4ee0-4694-a2d0-ff505789b146","ios":"levelo://app?vid=9c1f30cc-4ee0-4694-a2d0-ff505789b146"},"vehicle_type_id":"4","last_reported":1692119139,"current_range_meters":23600,"station_id":"ce4bhh92rcd13ifvqfi0","pricing_plan_id":"free"},{"bike_id":"54afe85a-f98b-4099-81b8-308d86958c3f","system_id":"levelo_inurba_marseille","lat":43.276771,"lon":5.388799,"is_reserved":false,"is_disabled":false,"rental_uris":{"android":"levelo://app?vid=54afe85a-f98b-4099-81b8-308d86958c3f","ios":"levelo://app?vid=54afe85a-f98b-4099-81b8-308d86958c3f"},"vehicle_type_id":"4","last_reported":1692119139,"current_range_meters":0,"station_id":"ce4bhi12rcd13ifvqfo0","pricing_plan_id":"free"},{"bike_id":"f29761c8-e9ab-4bb7-83a7-875d7e018736","system_id":"levelo_inurba_marseille","lat":43.317121,"lon":5.423936,"is_reserved":false,"is_disabled":false,"rental_uris":{"android":"levelo://app?vid=f29761c8-e9ab-4bb7-83a7-875d7e018736","ios":"levelo://app?vid=f29761c8-e9ab-4bb7-83a7-875d7e018736"},"vehicle_type_id":"4","last_reported":1692119139,"current_range_meters":31200,"station_id":"ce4bhp92rcd13ifvqhbg","pricing_plan_id":"free"},{"bike_id":"708cb3d6-3fe8-41bd-a9cd-40d68d3be175","system_id":"levelo_inurba_marseille","lat":43.317121,"lon":5.423936,"is_reserved":false,"is_disabled":false,"rental_uris":{"android":"levelo://app?vid=708cb3d6-3fe8-41bd-a9cd-40d68d3be175","ios":"levelo://app?vid=708cb3d6-3fe8-41bd-a9cd-40d68d3be175"},"vehicle_type_id":"4","last_reported":1692119139,"current_range_meters":26800,"station_id":"ce4bhp92rcd13ifvqhbg","pricing_plan_id":"free"},{"bike_id":"9241b22a-deb3-4e40-a80d-43c8cc870ac4","system_id":"levelo_inurba_marseille","lat":43.3414,"lon":5.40896,"is_reserved":false,"is_disabled":false,"rental_uris":{"android":"levelo://app?vid=9241b22a-deb3-4e40-a80d-43c8cc870ac4","ios":"levelo://app?vid=9241b22a-deb3-4e40-a80d-43c8cc870ac4"},"vehicle_type_id":"4","last_reported":1692119139,"current_range_meters":17200,"station_id":"ce4bhqh2rcd13ifvqhlg","pricing_plan_id":"free"},{"bike_id":"63de9e5d-7779-4328-9f90-868143bff4b5","system_id":"levelo_inurba_marseille","lat":43.340804,"lon":5.410219,"is_reserved":false,"is_disabled":false,"rental_uris":{"android":"levelo://app?vid=63de9e5d-7779-4328-9f90-868143bff4b5","ios":"levelo://app?vid=63de9e5d-7779-4328-9f90-868143bff4b5"},"vehicle_type_id":"4","last_reported":1692119139,"current_range_meters":24000,"station_id":"ce4bhqh2rcd13ifvqhlg","pricing_plan_id":"free"},{"bike_id":"2d8346a6-7f0c-45d4-9d3b-857e656c609a","system_id":"levelo_inurba_marseille","lat":43.3414,"lon":5.40898,"is_reserved":false,"is_disabled":false,"rental_uris":{"android":"levelo://app?vid=2d8346a6-7f0c-45d4-9d3b-857e656c609a","ios":"levelo://app?vid=2d8346a6-7f0c-45d4-9d3b-857e656c609a"},"vehicle_type_id":"4","last_reported":1692119139,"current_range_meters":27600,"station_id":"ce4bhqh2rcd13ifvqhlg","pricing_plan_id":"free"},{"bike_id":"47ce54ab-84fa-4f95-8b5a-6599448f3a8c","system_id":"levelo_inurba_marseille","lat":43.3414,"lon":5.40899,"is_reserved":false,"is_disabled":false,"rental_uris":{"android":"levelo://app?vid=47ce54ab-84fa-4f95-8b5a-6599448f3a8c","ios":"levelo://app?vid=47ce54ab-84fa-4f95-8b5a-6599448f3a8c"},"vehicle_type_id":"4","last_reported":1692119139,"current_range_meters":30400,"station_id":"ce4bhqh2rcd13ifvqhlg","pricing_plan_id":"free"},{"bike_id":"f41fc991-ddab-451d-ae3b-bb6a9c0b5d87","system_id":"levelo_inurba_marseille","lat":43.34141,"lon":5.40899,"is_reserved":false,"is_disabled":false,"rental_uris":{"android":"levelo://app?vid=f41fc991-ddab-451d-ae3b-bb6a9c0b5d87","ios":"levelo://app?vid=f41fc991-ddab-451d-ae3b-bb6a9c0b5d87"},"vehicle_type_id":"4","last_reported":1692119139,"current_range_meters":14000,"station_id":"ce4bhqh2rcd13ifvqhlg","pricing_plan_id":"free"},{"bike_id":"8ad18b8a-4dd0-4fed-a43e-b28eb0d6eb1c","system_id":"levelo_inurba_marseille","lat":43.340804,"lon":5.410219,"is_reserved":false,"is_disabled":false,"rental_uris":{"android":"levelo://app?vid=8ad18b8a-4dd0-4fed-a43e-b28eb0d6eb1c","ios":"levelo://app?vid=8ad18b8a-4dd0-4fed-a43e-b28eb0d6eb1c"},"vehicle_type_id":"4","last_reported":1692119139,"current_range_meters":17600,"station_id":"ce4bhqh2rcd13ifvqhlg","pricing_plan_id":"free"},{"bike_id":"a03d994b-f873-4516-875a-16e147925de7","system_id":"levelo_inurba_marseille","lat":43.34143,"lon":5.40899,"is_reserved":false,"is_disabled":false,"rental_uris":{"android":"levelo://app?vid=a03d994b-f873-4516-875a-16e147925de7","ios":"levelo://app?vid=a03d994b-f873-4516-875a-16e147925de7"},"vehicle_type_id":"4","last_reported":1692119139,"current_range_meters":29200,"station_id":"ce4bhqh2rcd13ifvqhlg","pricing_plan_id":"free"},{"bike_id":"2d634f48-4618-4769-baad-2acd886e7d45","system_id":"levelo_inurba_marseille","lat":43.34137,"lon":5.40908,"is_reserved":false,"is_disabled":false,"rental_uris":{"android":"levelo://app?vid=2d634f48-4618-4769-baad-2acd886e7d45","ios":"levelo://app?vid=2d634f48-4618-4769-baad-2acd886e7d45"},"vehicle_type_id":"4","last_reported":1692119139,"current_range_meters":22800,"station_id":"ce4bhqh2rcd13ifvqhlg","pricing_plan_id":"free"},{"bike_id":"c7d7b1be-9741-4f2d-84fa-9e5e59567b63","system_id":"levelo_inurba_marseille","lat":43.34146,"lon":5.40904,"is_reserved":false,"is_disabled":false,"rental_uris":{"android":"levelo://app?vid=c7d7b1be-9741-4f2d-84fa-9e5e59567b63","ios":"levelo://app?vid=c7d7b1be-9741-4f2d-84fa-9e5e59567b63"},"vehicle_type_id":"4","last_reported":1692119139,"current_range_meters":23600,"station_id":"ce4bhqh2rcd13ifvqhlg","pricing_plan_id":"free"},{"bike_id":"6e4bb6bc-2e92-46fc-a65c-befd3ad29f39","system_id":"levelo_inurba_marseille","lat":43.273125,"lon":5.390731,"is_reserved":false,"is_disabled":false,"rental_uris":{"android":"levelo://app?vid=6e4bb6bc-2e92-46fc-a65c-befd3ad29f39","ios":"levelo://app?vid=6e4bb6bc-2e92-46fc-a65c-befd3ad29f39"},"vehicle_type_id":"4","last_reported":1692119139,"current_range_meters":11200,"station_id":"ce4bhgp2rcd13ifvqfe0","pricing_plan_id":"free"},{"bike_id":"ec722065-f5c7-4a70-bb24-3391541eed15","system_id":"levelo_inurba_marseille","lat":43.273125,"lon":5.390731,"is_reserved":false,"is_disabled":false,"rental_uris":{"android":"levelo://app?vid=ec722065-f5c7-4a70-bb24-3391541eed15","ios":"levelo://app?vid=ec722065-f5c7-4a70-bb24-3391541eed15"},"vehicle_type_id":"4","last_reported":1692119139,"current_range_meters":24400,"station_id":"ce4bhgp2rcd13ifvqfe0","pricing_plan_id":"free"},{"bike_id":"730cfe93-9f05-4da2-b638-d603bcf21769","system_id":"levelo_inurba_marseille","lat":43.273129,"lon":5.390725,"is_reserved":false,"is_disabled":false,"rental_uris":{"android":"levelo://app?vid=730cfe93-9f05-4da2-b638-d603bcf21769","ios":"levelo://app?vid=730cfe93-9f05-4da2-b638-d603bcf21769"},"vehicle_type_id":"4","last_reported":1692119139,"current_range_meters":11600,"station_id":"ce4bhgp2rcd13ifvqfe0","pricing_plan_id":"free"},{"bike_id":"18db09cf-c228-4f34-8dba-bf9d1262142f","system_id":"levelo_inurba_marseille","lat":43.273129,"lon":5.390725,"is_reserved":false,"is_disabled":false,"rental_uris":{"android":"levelo://app?vid=18db09cf-c228-4f34-8dba-bf9d1262142f","ios":"levelo://app?vid=18db09cf-c228-4f34-8dba-bf9d1262142f"},"vehicle_type_id":"4","last_reported":1692119139,"current_range_meters":10000,"station_id":"ce4bhgp2rcd13ifvqfe0","pricing_plan_id":"free"},{"bike_id":"2c2305cd-2398-48e1-9b02-8e30cc9cdd05","system_id":"levelo_inurba_marseille","lat":43.274103,"lon":5.394016,"is_reserved":false,"is_disabled":false,"rental_uris":{"android":"levelo://app?vid=2c2305cd-2398-48e1-9b02-8e30cc9cdd05","ios":"levelo://app?vid=2c2305cd-2398-48e1-9b02-8e30cc9cdd05"},"vehicle_type_id":"4","last_reported":1692119139,"current_range_meters":21200,"station_id":"ce4bhdp2rcd13ifvqf20","pricing_plan_id":"free"},{"bike_id":"7d00ab72-95df-42d1-8d94-ecc8364caeef","system_id":"levelo_inurba_marseille","lat":43.273125,"lon":5.390731,"is_reserved":false,"is_disabled":false,"rental_uris":{"android":"levelo://app?vid=7d00ab72-95df-42d1-8d94-ecc8364caeef","ios":"levelo://app?vid=7d00ab72-95df-42d1-8d94-ecc8364caeef"},"vehicle_type_id":"4","last_reported":1692119139,"current_range_meters":11600,"station_id":"ce4bhgp2rcd13ifvqfe0","pricing_plan_id":"free"},{"bike_id":"1c6fc226-935c-4f40-baf1-c4a990cadcd6","system_id":"levelo_inurba_marseille","lat":43.273129,"lon":5.390725,"is_reserved":false,"is_disabled":false,"rental_uris":{"android":"levelo://app?vid=1c6fc226-935c-4f40-baf1-c4a990cadcd6","ios":"levelo://app?vid=1c6fc226-935c-4f40-baf1-c4a990cadcd6"},"vehicle_type_id":"4","last_reported":1692119139,"current_range_meters":21200,"station_id":"ce4bhgp2rcd13ifvqfe0","pricing_plan_id":"free"},{"bike_id":"45f16719-c9fc-4c97-b16f-43b0e5d6d23b","system_id":"levelo_inurba_marseille","lat":43.273129,"lon":5.390725,"is_reserved":false,"is_disabled":false,"rental_uris":{"android":"levelo://app?vid=45f16719-c9fc-4c97-b16f-43b0e5d6d23b","ios":"levelo://app?vid=45f16719-c9fc-4c97-b16f-43b0e5d6d23b"},"vehicle_type_id":"4","last_reported":1692119139,"current_range_meters":28800,"station_id":"ce4bhgp2rcd13ifvqfe0","pricing_plan_id":"free"},{"bike_id":"2c634eff-cc8f-4737-831c-d7c9cf7cdd09","system_id":"levelo_inurba_marseille","lat":43.273125,"lon":5.390731,"is_reserved":false,"is_disabled":false,"rental_uris":{"android":"levelo://app?vid=2c634eff-cc8f-4737-831c-d7c9cf7cdd09","ios":"levelo://app?vid=2c634eff-cc8f-4737-831c-d7c9cf7cdd09"},"vehicle_type_id":"4","last_reported":1692119139,"current_range_meters":25600,"station_id":"ce4bhgp2rcd13ifvqfe0","pricing_plan_id":"free"},{"bike_id":"acd4030c-50fd-42d0-bed0-ff8a185f1e48","system_id":"levelo_inurba_marseille","lat":43.27421,"lon":5.39404,"is_reserved":false,"is_disabled":false,"rental_uris":{"android":"levelo://app?vid=acd4030c-50fd-42d0-bed0-ff8a185f1e48","ios":"levelo://app?vid=acd4030c-50fd-42d0-bed0-ff8a185f1e48"},"vehicle_type_id":"4","last_reported":1692119139,"current_range_meters":22000,"station_id":"ce4bhdp2rcd13ifvqf20","pricing_plan_id":"free"},{"bike_id":"6a8f422b-f3ce-4a09-b651-077437ca231e","system_id":"levelo_inurba_marseille","lat":43.273129,"lon":5.390725,"is_reserved":false,"is_disabled":false,"rental_uris":{"android":"levelo://app?vid=6a8f422b-f3ce-4a09-b651-077437ca231e","ios":"levelo://app?vid=6a8f422b-f3ce-4a09-b651-077437ca231e"},"vehicle_type_id":"4","last_reported":1692119139,"current_range_meters":3600,"station_id":"ce4bhgp2rcd13ifvqfe0","pricing_plan_id":"free"},{"bike_id":"d1ea664d-8960-413d-b91e-ef04b96f21bb","system_id":"levelo_inurba_marseille","lat":43.273129,"lon":5.390725,"is_reserved":false,"is_disabled":false,"rental_uris":{"android":"levelo://app?vid=d1ea664d-8960-413d-b91e-ef04b96f21bb","ios":"levelo://app?vid=d1ea664d-8960-413d-b91e-ef04b96f21bb"},"vehicle_type_id":"4","last_reported":1692119139,"current_range_meters":10000,"station_id":"ce4bhgp2rcd13ifvqfe0","pricing_plan_id":"free"},{"bike_id":"d5350463-e056-4319-b374-f96cf3c0f11d","system_id":"levelo_inurba_marseille","lat":43.274103,"lon":5.394016,"is_reserved":false,"is_disabled":false,"rental_uris":{"android":"levelo://app?vid=d5350463-e056-4319-b374-f96cf3c0f11d","ios":"levelo://app?vid=d5350463-e056-4319-b374-f96cf3c0f11d"},"vehicle_type_id":"4","last_reported":1692119139,"current_range_meters":30800,"station_id":"ce4bhdp2rcd13ifvqf20","pricing_plan_id":"free"},{"bike_id":"6df379b2-ee62-4a26-bf9c-cfc24a6d6fbc","system_id":"levelo_inurba_marseille","lat":43.275625,"lon":5.384392,"is_reserved":false,"is_disabled":false,"rental_uris":{"android":"levelo://app?vid=6df379b2-ee62-4a26-bf9c-cfc24a6d6fbc","ios":"levelo://app?vid=6df379b2-ee62-4a26-bf9c-cfc24a6d6fbc"},"vehicle_type_id":"4","last_reported":1692119139,"current_range_meters":18400,"station_id":"ce4bhh92rcd13ifvqfi0","pricing_plan_id":"free"},{"bike_id":"239c8e0e-3c43-471f-9943-5f9695b2d0f9","system_id":"levelo_inurba_marseille","lat":43.29556,"lon":5.42288,"is_reserved":false,"is_disabled":false,"rental_uris":{"android":"levelo://app?vid=239c8e0e-3c43-471f-9943-5f9695b2d0f9","ios":"levelo://app?vid=239c8e0e-3c43-471f-9943-5f9695b2d0f9"},"vehicle_type_id":"4","last_reported":1692119139,"current_range_meters":25200,"station_id":"ce4bhph2rcd13ifvqhdg","pricing_plan_id":"free"},{"bike_id":"886ee7b6-c191-4e11-a481-a9263dda8d87","system_id":"levelo_inurba_marseille","lat":43.272116,"lon":5.391763,"is_reserved":false,"is_disabled":false,"rental_uris":{"android":"levelo://app?vid=886ee7b6-c191-4e11-a481-a9263dda8d87","ios":"levelo://app?vid=886ee7b6-c191-4e11-a481-a9263dda8d87"},"vehicle_type_id":"4","last_reported":1692119139,"current_range_meters":30400,"station_id":"ce4bhhp2rcd13ifvqfm0","pricing_plan_id":"free"},{"bike_id":"5a325b90-1449-45e7-a315-a70fa3cced13","system_id":"levelo_inurba_marseille","lat":43.272116,"lon":5.391763,"is_reserved":false,"is_disabled":false,"rental_uris":{"android":"levelo://app?vid=5a325b90-1449-45e7-a315-a70fa3cced13","ios":"levelo://app?vid=5a325b90-1449-45e7-a315-a70fa3cced13"},"vehicle_type_id":"4","last_reported":1692119139,"current_range_meters":22400,"station_id":"ce4bhhp2rcd13ifvqfm0","pricing_plan_id":"free"},{"bike_id":"46f55a6d-3b91-4fcc-b706-1da7fdf89fea","system_id":"levelo_inurba_marseille","lat":43.272116,"lon":5.391747,"is_reserved":false,"is_disabled":false,"rental_uris":{"android":"levelo://app?vid=46f55a6d-3b91-4fcc-b706-1da7fdf89fea","ios":"levelo://app?vid=46f55a6d-3b91-4fcc-b706-1da7fdf89fea"},"vehicle_type_id":"4","last_reported":1692119139,"current_range_meters":21600,"station_id":"ce4bhhp2rcd13ifvqfm0","pricing_plan_id":"free"},{"bike_id":"eb822a58-585b-4396-b53b-969a1fb910d8","system_id":"levelo_inurba_marseille","lat":43.272116,"lon":5.391747,"is_reserved":false,"is_disabled":false,"rental_uris":{"android":"levelo://app?vid=eb822a58-585b-4396-b53b-969a1fb910d8","ios":"levelo://app?vid=eb822a58-585b-4396-b53b-969a1fb910d8"},"vehicle_type_id":"4","last_reported":1692119139,"current_range_meters":3600,"station_id":"ce4bhhp2rcd13ifvqfm0","pricing_plan_id":"free"},{"bike_id":"0877354f-7e33-4426-9713-8b7ce09afdcb","system_id":"levelo_inurba_marseille","lat":43.272118,"lon":5.391758,"is_reserved":false,"is_disabled":false,"rental_uris":{"android":"levelo://app?vid=0877354f-7e33-4426-9713-8b7ce09afdcb","ios":"levelo://app?vid=0877354f-7e33-4426-9713-8b7ce09afdcb"},"vehicle_type_id":"4","last_reported":1692119139,"current_range_meters":14000,"station_id":"ce4bhhp2rcd13ifvqfm0","pricing_plan_id":"free"},{"bike_id":"8163baa4-dc51-4f38-804f-bff7b84a5868","system_id":"levelo_inurba_marseille","lat":43.27201,"lon":5.39195,"is_reserved":false,"is_disabled":false,"rental_uris":{"android":"levelo://app?vid=8163baa4-dc51-4f38-804f-bff7b84a5868","ios":"levelo://app?vid=8163baa4-dc51-4f38-804f-bff7b84a5868"},"vehicle_type_id":"4","last_reported":1692119139,"current_range_meters":18800,"station_id":"ce4bhhp2rcd13ifvqfm0","pricing_plan_id":"free"},{"bike_id":"b6cc456a-58bd-4679-9aac-0924535bb5a5","system_id":"levelo_inurba_marseille","lat":43.278128,"lon":5.407195,"is_reserved":false,"is_disabled":false,"rental_uris":{"android":"levelo://app?vid=b6cc456a-58bd-4679-9aac-0924535bb5a5","ios":"levelo://app?vid=b6cc456a-58bd-4679-9aac-0924535bb5a5"},"vehicle_type_id":"4","last_reported":1692119139,"current_range_meters":22800,"station_id":"ce4bhnh2rcd13ifvqgtg","pricing_plan_id":"free"},{"bike_id":"0bc88005-0eaa-4ab3-93b5-b26d36266541","system_id":"levelo_inurba_marseille","lat":43.278128,"lon":5.407195,"is_reserved":false,"is_disabled":false,"rental_uris":{"android":"levelo://app?vid=0bc88005-0eaa-4ab3-93b5-b26d36266541","ios":"levelo://app?vid=0bc88005-0eaa-4ab3-93b5-b26d36266541"},"vehicle_type_id":"4","last_reported":1692119139,"current_range_meters":31200,"station_id":"ce4bhnh2rcd13ifvqgtg","pricing_plan_id":"free"},{"bike_id":"d3b53f9b-a7eb-4e24-b957-25d4022dc580","system_id":"levelo_inurba_marseille","lat":43.278128,"lon":5.407195,"is_reserved":false,"is_disabled":false,"rental_uris":{"android":"levelo://app?vid=d3b53f9b-a7eb-4e24-b957-25d4022dc580","ios":"levelo://app?vid=d3b53f9b-a7eb-4e24-b957-25d4022dc580"},"vehicle_type_id":"4","last_reported":1692119139,"current_range_meters":31200,"station_id":"ce4bhnh2rcd13ifvqgtg","pricing_plan_id":"free"},{"bike_id":"f7168389-cdd5-4e96-8805-1187507f90b7","system_id":"levelo_inurba_marseille","lat":43.269467,"lon":5.386439,"is_reserved":false,"is_disabled":false,"rental_uris":{"android":"levelo://app?vid=f7168389-cdd5-4e96-8805-1187507f90b7","ios":"levelo://app?vid=f7168389-cdd5-4e96-8805-1187507f90b7"},"vehicle_type_id":"4","last_reported":1692119139,"current_range_meters":28000,"station_id":"ce4bhh92rcd13ifvqfh0","pricing_plan_id":"free"},{"bike_id":"64f0c9f5-83bc-43bf-9d3f-b649eb90b699","system_id":"levelo_inurba_marseille","lat":43.26957,"lon":5.38623,"is_reserved":false,"is_disabled":false,"rental_uris":{"android":"levelo://app?vid=64f0c9f5-83bc-43bf-9d3f-b649eb90b699","ios":"levelo://app?vid=64f0c9f5-83bc-43bf-9d3f-b649eb90b699"},"vehicle_type_id":"4","last_reported":1692119139,"current_range_meters":3600,"station_id":"ce4bhh92rcd13ifvqfh0","pricing_plan_id":"free"},{"bike_id":"8ef5be82-5bab-4fd6-919d-8c7117e5c401","system_id":"levelo_inurba_marseille","lat":43.269467,"lon":5.386439,"is_reserved":false,"is_disabled":false,"rental_uris":{"android":"levelo://app?vid=8ef5be82-5bab-4fd6-919d-8c7117e5c401","ios":"levelo://app?vid=8ef5be82-5bab-4fd6-919d-8c7117e5c401"},