{"last_updated":1769012763,"ttl":60,"version":"2.2","data":{"bikes":[{"bike_id":"f9c756b7-6ab4-4842-b242-46f06e32e85d","system_id":"levelo_inurba_marseille","lat":43.279948,"lon":5.400312,"is_reserved":false,"is_disabled":false,"rental_uris":{"android":"levelo://app?vid=f9c756b7-6ab4-4842-b242-46f06e32e85d","ios":"levelo://app?vid=f9c756b7-6ab4-4842-b242-46f06e32e85d"},"vehicle_type_id":"4","last_reported":1769012764,"current_range_meters":2800,"station_id":"ce4bho92rcd13ifvqh4g","pricing_plan_id":"cebpf4jnsgd1na2vs0mg"},{"bike_id":"c90f8d49-c464-4abb-b50f-a6f2833250ba","system_id":"levelo_inurba_marseille","lat":43.26064,"lon":5.39377,"is_reserved":false,"is_disabled":false,"rental_uris":{"android":"levelo://app?vid=c90f8d49-c464-4abb-b50f-a6f2833250ba","ios":"levelo://app?vid=c90f8d49-c464-4abb-b50f-a6f2833250ba"},"vehicle_type_id":"4","last_reported":1769012764,"current_range_meters":2800,"station_id":"ce4bhh92rcd13ifvqfj0","pricing_plan_id":"cebpf4jnsgd1na2vs0mg"},{"bike_id":"b16264cb-1aad-4ff2-b53e-9cf50b0e29dd","system_id":"levelo_inurba_marseille","lat":43.25494,"lon":5.37652,"is_reserved":false,"is_disabled":false,"rental_uris":{"android":"levelo://app?vid=b16264cb-1aad-4ff2-b53e-9cf50b0e29dd","ios":"levelo://app?vid=b16264cb-1aad-4ff2-b53e-9cf50b0e29dd"},"vehicle_type_id":"4","last_reported":1769012764,"current_range_meters":2800,"station_id":"ce4bhh12rcd13ifvqff0","pricing_plan_id":"cebpf4jnsgd1na2vs0mg"},{"bike_id":"65bb14cd-16b1-4e9b-9544-278b60729e3a","system_id":"levelo_inurba_marseille","lat":43.29605,"lon":5.37345,"is_reserved":false,"is_disabled":false,"rental_uris":{"android":"levelo://app?vid=65bb14cd-16b1-4e9b-9544-278b60729e3a","ios":"levelo://app?vid=65bb14cd-16b1-4e9b-9544-278b60729e3a"},"vehicle_type_id":"4","last_reported":1769012764,"current_range_meters":2800,"station_id":"ce4bgk12rcd13ifvqbj0","pricing_plan_id":"cebpf4jnsgd1na2vs0mg"},{"bike_id":"db9bc4c2-caac-40a2-9e57-04109862dc52","system_id":"levelo_inurba_marseille","lat":43.2418,"lon":5.39724,"is_reserved":false,"is_disabled":false,"rental_uris":{"android":"levelo://app?vid=db9bc4c2-caac-40a2-9e57-04109862dc52","ios":"levelo://app?vid=db9bc4c2-caac-40a2-9e57-04109862dc52"},"vehicle_type_id":"4","last_reported":1769012764,"current_range_meters":2800,"station_id":"ce4bhn12rcd13ifvqgpg","pricing_plan_id":"cebpf4jnsgd1na2vs0mg"},{"bike_id":"891f6b82-5e33-4505-a6d8-10743050b11b","system_id":"levelo_inurba_marseille","lat":43.29535,"lon":5.39039,"is_reserved":false,"is_disabled":false,"rental_uris":{"android":"levelo://app?vid=891f6b82-5e33-4505-a6d8-10743050b11b","ios":"levelo://app?vid=891f6b82-5e33-4505-a6d8-10743050b11b"},"vehicle_type_id":"4","last_reported":1769012764,"current_range_meters":2800,"station_id":"ce4bh3p2rcd13ifvqdp0","pricing_plan_id":"cebpf4jnsgd1na2vs0mg"},{"bike_id":"9af7f0a1-80d7-41d7-982c-81adfecf82bc","system_id":"levelo_inurba_marseille","lat":43.27575,"lon":5.384256,"is_reserved":false,"is_disabled":false,"rental_uris":{"android":"levelo://app?vid=9af7f0a1-80d7-41d7-982c-81adfecf82bc","ios":"levelo://app?vid=9af7f0a1-80d7-41d7-982c-81adfecf82bc"},"vehicle_type_id":"4","last_reported":1769012764,"current_range_meters":2800,"station_id":"ce4bhh92rcd13ifvqfi0","pricing_plan_id":"cebpf4jnsgd1na2vs0mg"},{"bike_id":"fbbedfeb-5767-4a40-9eeb-fb558ba05242","system_id":"levelo_inurba_marseille","lat":43.25001,"lon":5.38933,"is_reserved":false,"is_disabled":false,"rental_uris":{"android":"levelo://app?vid=fbbedfeb-5767-4a40-9eeb-fb558ba05242","ios":"levelo://app?vid=fbbedfeb-5767-4a40-9eeb-fb558ba05242"},"vehicle_type_id":"4","last_reported":1769012764,"current_range_meters":2800,"station_id":"ce4bhgp2rcd13ifvqfd0","pricing_plan_id":"cebpf4jnsgd1na2vs0mg"},{"bike_id":"1d8a67c1-6997-49fe-8fb4-66843c48a09f","system_id":"levelo_inurba_marseille","lat":43.2921,"lon":5.39339,"is_reserved":false,"is_disabled":false,"rental_uris":{"android":"levelo://app?vid=1d8a67c1-6997-49fe-8fb4-66843c48a09f","ios":"levelo://app?vid=1d8a67c1-6997-49fe-8fb4-66843c48a09f"},"vehicle_type_id":"4","last_reported":1769012764,"current_range_meters":2800,"station_id":"ce4bh192rcd13ifvqdd0","pricing_plan_id":"cebpf4jnsgd1na2vs0mg"},{"bike_id":"8794cdb3-b07a-4a6a-b8a7-d49e68bcc2e0","system_id":"levelo_inurba_marseille","lat":43.278114,"lon":5.407027,"is_reserved":false,"is_disabled":false,"rental_uris":{"android":"levelo://app?vid=8794cdb3-b07a-4a6a-b8a7-d49e68bcc2e0","ios":"levelo://app?vid=8794cdb3-b07a-4a6a-b8a7-d49e68bcc2e0"},"vehicle_type_id":"4","last_reported":1769012764,"current_range_meters":2800,"station_id":"ce4bhnh2rcd13ifvqgtg","pricing_plan_id":"cebpf4jnsgd1na2vs0mg"},{"bike_id":"52c85b02-607c-4226-bd7b-fd246dd2dae8","system_id":"levelo_inurba_marseille","lat":43.22567,"lon":5.4163,"is_reserved":false,"is_disabled":false,"rental_uris":{"android":"levelo://app?vid=52c85b02-607c-4226-bd7b-fd246dd2dae8","ios":"levelo://app?vid=52c85b02-607c-4226-bd7b-fd246dd2dae8"},"vehicle_type_id":"4","last_reported":1769012764,"current_range_meters":2800,"station_id":"st_d2o4gvlbi1j2169b742g","pricing_plan_id":"cebpf4jnsgd1na2vs0mg"},{"bike_id":"f6855ca8-5d8f-4f6d-92c6-fde988a4c89a","system_id":"levelo_inurba_marseille","lat":43.27366,"lon":5.36257,"is_reserved":false,"is_disabled":false,"rental_uris":{"android":"levelo://app?vid=f6855ca8-5d8f-4f6d-92c6-fde988a4c89a","ios":"levelo://app?vid=f6855ca8-5d8f-4f6d-92c6-fde988a4c89a"},"vehicle_type_id":"4","last_reported":1769012764,"current_range_meters":2800,"station_id":"ce4bhbh2rcd13ifvqeo0","pricing_plan_id":"cebpf4jnsgd1na2vs0mg"},{"bike_id":"ec3505f8-2e5f-442c-868b-c38116e6be45","system_id":"levelo_inurba_marseille","lat":43.24824,"lon":5.37427,"is_reserved":false,"is_disabled":false,"rental_uris":{"android":"levelo://app?vid=ec3505f8-2e5f-442c-868b-c38116e6be45","ios":"levelo://app?vid=ec3505f8-2e5f-442c-868b-c38116e6be45"},"vehicle_type_id":"4","last_reported":1769012764,"current_range_meters":2800,"station_id":"ce4bhgh2rcd13ifvqfb0","pricing_plan_id":"cebpf4jnsgd1na2vs0mg"},{"bike_id":"ce65da15-5103-4c08-86e5-b4783ea2b238","system_id":"levelo_inurba_marseille","lat":43.29313,"lon":5.37181,"is_reserved":false,"is_disabled":false,"rental_uris":{"android":"levelo://app?vid=ce65da15-5103-4c08-86e5-b4783ea2b238","ios":"levelo://app?vid=ce65da15-5103-4c08-86e5-b4783ea2b238"},"vehicle_type_id":"4","last_reported":1769012764,"current_range_meters":2800,"station_id":"ce4bgh92rcd13ifvqb40","pricing_plan_id":"cebpf4jnsgd1na2vs0mg"},{"bike_id":"998ff437-cfda-4beb-b521-7ca9672ae8b3","system_id":"levelo_inurba_marseille","lat":43.30148,"lon":5.37431,"is_reserved":false,"is_disabled":false,"rental_uris":{"android":"levelo://app?vid=998ff437-cfda-4beb-b521-7ca9672ae8b3","ios":"levelo://app?vid=998ff437-cfda-4beb-b521-7ca9672ae8b3"},"vehicle_type_id":"4","last_reported":1769012764,"current_range_meters":2800,"station_id":"ce4bgs92rcd13ifvqcc0","pricing_plan_id":"cebpf4jnsgd1na2vs0mg"},{"bike_id":"9dff9bae-d519-49ab-850f-a6b93762d1fc","system_id":"levelo_inurba_marseille","lat":43.25337,"lon":5.42157,"is_reserved":false,"is_disabled":false,"rental_uris":{"android":"levelo://app?vid=9dff9bae-d519-49ab-850f-a6b93762d1fc","ios":"levelo://app?vid=9dff9bae-d519-49ab-850f-a6b93762d1fc"},"vehicle_type_id":"4","last_reported":1769012764,"current_range_meters":2800,"station_id":"st_d2m65c5bi1j21697t3ng","pricing_plan_id":"cebpf4jnsgd1na2vs0mg"},{"bike_id":"31096d93-1491-4886-84da-d02432ca2a62","system_id":"levelo_inurba_marseille","lat":43.24171,"lon":5.36394,"is_reserved":false,"is_disabled":false,"rental_uris":{"android":"levelo://app?vid=31096d93-1491-4886-84da-d02432ca2a62","ios":"levelo://app?vid=31096d93-1491-4886-84da-d02432ca2a62"},"vehicle_type_id":"4","last_reported":1769012764,"current_range_meters":2800,"station_id":"cpo36qri1sfpv3e86is0","pricing_plan_id":"cebpf4jnsgd1na2vs0mg"},{"bike_id":"fadeb19c-7981-410f-b386-2c03409acc00","system_id":"levelo_inurba_marseille","lat":43.27837,"lon":5.39206,"is_reserved":false,"is_disabled":false,"rental_uris":{"android":"levelo://app?vid=fadeb19c-7981-410f-b386-2c03409acc00","ios":"levelo://app?vid=fadeb19c-7981-410f-b386-2c03409acc00"},"vehicle_type_id":"4","last_reported":1769012764,"current_range_meters":3200,"station_id":"ce4bhjp2rcd13ifvqga0","pricing_plan_id":"cebpf4jnsgd1na2vs0mg"},{"bike_id":"ce785a3a-eab6-495b-8e54-6a58ed472267","system_id":"levelo_inurba_marseille","lat":43.28498,"lon":5.38572,"is_reserved":false,"is_disabled":false,"rental_uris":{"android":"levelo://app?vid=ce785a3a-eab6-495b-8e54-6a58ed472267","ios":"levelo://app?vid=ce785a3a-eab6-495b-8e54-6a58ed472267"},"vehicle_type_id":"4","last_reported":1769012764,"current_range_meters":3200,"station_id":"ce4bh8p2rcd13ifvqeb0","pricing_plan_id":"cebpf4jnsgd1na2vs0mg"},{"bike_id":"1b07b2a6-a2fd-4098-82ae-8b8702b5bb31","system_id":"levelo_inurba_marseille","lat":43.30951,"lon":5.39021,"is_reserved":false,"is_disabled":false,"rental_uris":{"android":"levelo://app?vid=1b07b2a6-a2fd-4098-82ae-8b8702b5bb31","ios":"levelo://app?vid=1b07b2a6-a2fd-4098-82ae-8b8702b5bb31"},"vehicle_type_id":"4","last_reported":1769012764,"current_range_meters":3200,"station_id":"ce4bgup2rcd13ifvqco0","pricing_plan_id":"cebpf4jnsgd1na2vs0mg"},{"bike_id":"b3e3a655-44a1-42f9-a5d1-8403f099fa55","system_id":"levelo_inurba_marseille","lat":43.28425,"lon":5.34996,"is_reserved":false,"is_disabled":false,"rental_uris":{"android":"levelo://app?vid=b3e3a655-44a1-42f9-a5d1-8403f099fa55","ios":"levelo://app?vid=b3e3a655-44a1-42f9-a5d1-8403f099fa55"},"vehicle_type_id":"4","last_reported":1769012764,"current_range_meters":3200,"station_id":"ce4bhbh2rcd13ifvqepg","pricing_plan_id":"cebpf4jnsgd1na2vs0mg"},{"bike_id":"d2cb0070-0422-466b-b462-1892f78475a2","system_id":"levelo_inurba_marseille","lat":43.229193,"lon":5.353754,"is_reserved":false,"is_disabled":false,"rental_uris":{"android":"levelo://app?vid=d2cb0070-0422-466b-b462-1892f78475a2","ios":"levelo://app?vid=d2cb0070-0422-466b-b462-1892f78475a2"},"vehicle_type_id":"4","last_reported":1769012764,"current_range_meters":3200,"station_id":"cpo3532slgdg3j2ikp40","pricing_plan_id":"cebpf4jnsgd1na2vs0mg"},{"bike_id":"0ff79933-977c-4c29-925c-8c6ecc04f788","system_id":"levelo_inurba_marseille","lat":43.299246,"lon":5.374715,"is_reserved":false,"is_disabled":false,"rental_uris":{"android":"levelo://app?vid=0ff79933-977c-4c29-925c-8c6ecc04f788","ios":"levelo://app?vid=0ff79933-977c-4c29-925c-8c6ecc04f788"},"vehicle_type_id":"4","last_reported":1769012764,"current_range_meters":3200,"station_id":"ce4bgkh2rcd13ifvqbl0","pricing_plan_id":"cebpf4jnsgd1na2vs0mg"},{"bike_id":"10483c0a-1726-407f-8492-2530493c0d67","system_id":"levelo_inurba_marseille","lat":43.25005,"lon":5.38908,"is_reserved":false,"is_disabled":false,"rental_uris":{"android":"levelo://app?vid=10483c0a-1726-407f-8492-2530493c0d67","ios":"levelo://app?vid=10483c0a-1726-407f-8492-2530493c0d67"},"vehicle_type_id":"4","last_reported":1769012764,"current_range_meters":3200,"station_id":"ce4bhgp2rcd13ifvqfd0","pricing_plan_id":"cebpf4jnsgd1na2vs0mg"},{"bike_id":"36b6ff96-f4d5-47a0-b829-3045b6e301e2","system_id":"levelo_inurba_marseille","lat":43.28954,"lon":5.36383,"is_reserved":false,"is_disabled":false,"rental_uris":{"android":"levelo://app?vid=36b6ff96-f4d5-47a0-b829-3045b6e301e2","ios":"levelo://app?vid=36b6ff96-f4d5-47a0-b829-3045b6e301e2"},"vehicle_type_id":"4","last_reported":1769012764,"current_range_meters":3200,"station_id":"ce4bhc92rcd13ifvqetg","pricing_plan_id":"cebpf4jnsgd1na2vs0mg"},{"bike_id":"1e0423b6-d52c-4f1c-b67a-7c9e6080b903","system_id":"levelo_inurba_marseille","lat":43.24402,"lon":5.37037,"is_reserved":false,"is_disabled":false,"rental_uris":{"android":"levelo://app?vid=1e0423b6-d52c-4f1c-b67a-7c9e6080b903","ios":"levelo://app?vid=1e0423b6-d52c-4f1c-b67a-7c9e6080b903"},"vehicle_type_id":"4","last_reported":1769012764,"current_range_meters":3200,"station_id":"ce4bhhh2rcd13ifvqfk0","pricing_plan_id":"cebpf4jnsgd1na2vs0mg"},{"bike_id":"d9d259ef-225c-4373-ba75-518a5c906d5f","system_id":"levelo_inurba_marseille","lat":43.291609,"lon":5.359159,"is_reserved":false,"is_disabled":false,"rental_uris":{"android":"levelo://app?vid=d9d259ef-225c-4373-ba75-518a5c906d5f","ios":"levelo://app?vid=d9d259ef-225c-4373-ba75-518a5c906d5f"},"vehicle_type_id":"4","last_reported":1769012764,"current_range_meters":3200,"station_id":"ce4bhbh2rcd13ifvqeqg","pricing_plan_id":"cebpf4jnsgd1na2vs0mg"},{"bike_id":"5c5d8eba-7ee4-4e8f-8c15-5f2384fc7801","system_id":"levelo_inurba_marseille","lat":43.299383,"lon":5.365536,"is_reserved":false,"is_disabled":false,"rental_uris":{"android":"levelo://app?vid=5c5d8eba-7ee4-4e8f-8c15-5f2384fc7801","ios":"levelo://app?vid=5c5d8eba-7ee4-4e8f-8c15-5f2384fc7801"},"vehicle_type_id":"4","last_reported":1769012764,"current_range_meters":3200,"station_id":"ce4bgm92rcd13ifvqbr0","pricing_plan_id":"cebpf4jnsgd1na2vs0mg"},{"bike_id":"b58926fa-b148-4e20-80b1-6946c658167c","system_id":"levelo_inurba_marseille","lat":43.296631,"lon":5.366389,"is_reserved":false,"is_disabled":false,"rental_uris":{"android":"levelo://app?vid=b58926fa-b148-4e20-80b1-6946c658167c","ios":"levelo://app?vid=b58926fa-b148-4e20-80b1-6946c658167c"},"vehicle_type_id":"4","last_reported":1769012764,"current_range_meters":3200,"station_id":"ce4bhbp2rcd13ifvqesg","pricing_plan_id":"cebpf4jnsgd1na2vs0mg"},{"bike_id":"05445378-8a5d-473e-a02e-3796d63a29c8","system_id":"levelo_inurba_marseille","lat":43.26396,"lon":5.41096,"is_reserved":false,"is_disabled":false,"rental_uris":{"android":"levelo://app?vid=05445378-8a5d-473e-a02e-3796d63a29c8","ios":"levelo://app?vid=05445378-8a5d-473e-a02e-3796d63a29c8"},"vehicle_type_id":"4","last_reported":1769012764,"current_range_meters":3200,"station_id":"st_d4e5ca6na9uc73bfl5fg","pricing_plan_id":"cebpf4jnsgd1na2vs0mg"},{"bike_id":"4730ac5c-64de-49aa-82c1-159fded22752","system_id":"levelo_inurba_marseille","lat":43.24664,"lon":5.4312,"is_reserved":false,"is_disabled":false,"rental_uris":{"android":"levelo://app?vid=4730ac5c-64de-49aa-82c1-159fded22752","ios":"levelo://app?vid=4730ac5c-64de-49aa-82c1-159fded22752"},"vehicle_type_id":"4","last_reported":1769012764,"current_range_meters":3200,"station_id":"st_d2m6c4gdas8pm72e190g","pricing_plan_id":"cebpf4jnsgd1na2vs0mg"},{"bike_id":"73ce5e70-986e-4904-834d-1a5290f908bc","system_id":"levelo_inurba_marseille","lat":43.3127,"lon":5.40173,"is_reserved":false,"is_disabled":false,"rental_uris":{"android":"levelo://app?vid=73ce5e70-986e-4904-834d-1a5290f908bc","ios":"levelo://app?vid=73ce5e70-986e-4904-834d-1a5290f908bc"},"vehicle_type_id":"4","last_reported":1769012764,"current_range_meters":3200,"station_id":"ce4bh092rcd13ifvqd30","pricing_plan_id":"cebpf4jnsgd1na2vs0mg"},{"bike_id":"8155f86b-6d64-4287-9ed7-7fbe9d103dde","system_id":"levelo_inurba_marseille","lat":43.2258,"lon":5.41625,"is_reserved":false,"is_disabled":false,"rental_uris":{"android":"levelo://app?vid=8155f86b-6d64-4287-9ed7-7fbe9d103dde","ios":"levelo://app?vid=8155f86b-6d64-4287-9ed7-7fbe9d103dde"},"vehicle_type_id":"4","last_reported":1769012764,"current_range_meters":3200,"station_id":"st_d2o4gvlbi1j2169b742g","pricing_plan_id":"cebpf4jnsgd1na2vs0mg"},{"bike_id":"d89723de-e603-4547-b826-b6b41cf5109c","system_id":"levelo_inurba_marseille","lat":43.24655,"lon":5.38156,"is_reserved":false,"is_disabled":false,"rental_uris":{"android":"levelo://app?vid=d89723de-e603-4547-b826-b6b41cf5109c","ios":"levelo://app?vid=d89723de-e603-4547-b826-b6b41cf5109c"},"vehicle_type_id":"4","last_reported":1769012764,"current_range_meters":3200,"station_id":"ce4bhih2rcd13ifvqfr0","pricing_plan_id":"cebpf4jnsgd1na2vs0mg"},{"bike_id":"03be0d56-088b-4e37-92f3-96031893d73e","system_id":"levelo_inurba_marseille","lat":43.2991,"lon":5.39724,"is_reserved":false,"is_disabled":false,"rental_uris":{"android":"levelo://app?vid=03be0d56-088b-4e37-92f3-96031893d73e","ios":"levelo://app?vid=03be0d56-088b-4e37-92f3-96031893d73e"},"vehicle_type_id":"4","last_reported":1769012764,"current_range_meters":3600,"station_id":"ce4bh0h2rcd13ifvqd50","pricing_plan_id":"cebpf4jnsgd1na2vs0mg"},{"bike_id":"5a189905-becb-4960-b63e-73a3449707ee","system_id":"levelo_inurba_marseille","lat":43.29788,"lon":5.37113,"is_reserved":false,"is_disabled":false,"rental_uris":{"android":"levelo://app?vid=5a189905-becb-4960-b63e-73a3449707ee","ios":"levelo://app?vid=5a189905-becb-4960-b63e-73a3449707ee"},"vehicle_type_id":"4","last_reported":1769012764,"current_range_meters":3600,"station_id":"ce4bgop2rcd13ifvqc1g","pricing_plan_id":"cebpf4jnsgd1na2vs0mg"},{"bike_id":"567dba0e-f71a-43a8-a23e-2d15e0e7afe4","system_id":"levelo_inurba_marseille","lat":43.26958,"lon":5.38636,"is_reserved":false,"is_disabled":false,"rental_uris":{"android":"levelo://app?vid=567dba0e-f71a-43a8-a23e-2d15e0e7afe4","ios":"levelo://app?vid=567dba0e-f71a-43a8-a23e-2d15e0e7afe4"},"vehicle_type_id":"4","last_reported":1769012764,"current_range_meters":3600,"station_id":"ce4bhh92rcd13ifvqfh0","pricing_plan_id":"cebpf4jnsgd1na2vs0mg"},{"bike_id":"fc70f58f-0b3f-44c7-9098-69e216dd5f28","system_id":"levelo_inurba_marseille","lat":43.28614,"lon":5.39878,"is_reserved":false,"is_disabled":false,"rental_uris":{"android":"levelo://app?vid=fc70f58f-0b3f-44c7-9098-69e216dd5f28","ios":"levelo://app?vid=fc70f58f-0b3f-44c7-9098-69e216dd5f28"},"vehicle_type_id":"4","last_reported":1769012764,"current_range_meters":3600,"station_id":"st_d4a7ka997mjs738ck50g","pricing_plan_id":"cebpf4jnsgd1na2vs0mg"},{"bike_id":"fe707b76-4b40-428e-bf9d-d60281fa7ab0","system_id":"levelo_inurba_marseille","lat":43.29265,"lon":5.37634,"is_reserved":false,"is_disabled":false,"rental_uris":{"android":"levelo://app?vid=fe707b76-4b40-428e-bf9d-d60281fa7ab0","ios":"levelo://app?vid=fe707b76-4b40-428e-bf9d-d60281fa7ab0"},"vehicle_type_id":"4","last_reported":1769012764,"current_range_meters":3600,"station_id":"ce4bgi12rcd13ifvqb80","pricing_plan_id":"cebpf4jnsgd1na2vs0mg"},{"bike_id":"29d3502e-11ed-4c6b-a39b-ecdd333795df","system_id":"levelo_inurba_marseille","lat":43.28001,"lon":5.38743,"is_reserved":false,"is_disabled":false,"rental_uris":{"android":"levelo://app?vid=29d3502e-11ed-4c6b-a39b-ecdd333795df","ios":"levelo://app?vid=29d3502e-11ed-4c6b-a39b-ecdd333795df"},"vehicle_type_id":"4","last_reported":1769012764,"current_range_meters":3600,"station_id":"ce4bhg12rcd13ifvqf80","pricing_plan_id":"cebpf4jnsgd1na2vs0mg"},{"bike_id":"51469472-4cc7-4fff-babd-738f91e7aa30","system_id":"levelo_inurba_marseille","lat":43.26238,"lon":5.40438,"is_reserved":false,"is_disabled":false,"rental_uris":{"android":"levelo://app?vid=51469472-4cc7-4fff-babd-738f91e7aa30","ios":"levelo://app?vid=51469472-4cc7-4fff-babd-738f91e7aa30"},"vehicle_type_id":"4","last_reported":1769012764,"current_range_meters":3600,"station_id":"ce4bhmh2rcd13ifvqgmg","pricing_plan_id":"cebpf4jnsgd1na2vs0mg"},{"bike_id":"27c24749-f12a-4e13-b38a-832fe309cebf","system_id":"levelo_inurba_marseille","lat":43.26547,"lon":5.37292,"is_reserved":false,"is_disabled":false,"rental_uris":{"android":"levelo://app?vid=27c24749-f12a-4e13-b38a-832fe309cebf","ios":"levelo://app?vid=27c24749-f12a-4e13-b38a-832fe309cebf"},"vehicle_type_id":"4","last_reported":1769012764,"current_range_meters":3600,"station_id":"ce4bhg12rcd13ifvqf70","pricing_plan_id":"cebpf4jnsgd1na2vs0mg"},{"bike_id":"61044dd1-fb06-4150-a7c6-457e1c0d2b88","system_id":"levelo_inurba_marseille","lat":43.23182,"lon":5.39989,"is_reserved":false,"is_disabled":false,"rental_uris":{"android":"levelo://app?vid=61044dd1-fb06-4150-a7c6-457e1c0d2b88","ios":"levelo://app?vid=61044dd1-fb06-4150-a7c6-457e1c0d2b88"},"vehicle_type_id":"4","last_reported":1769012764,"current_range_meters":3600,"station_id":"ce4bhn12rcd13ifvqgqg","pricing_plan_id":"cebpf4jnsgd1na2vs0mg"},{"bike_id":"56aebe64-5e14-40af-99f2-62c233e94a99","system_id":"levelo_inurba_marseille","lat":43.297159,"lon":5.387321,"is_reserved":false,"is_disabled":false,"rental_uris":{"android":"levelo://app?vid=56aebe64-5e14-40af-99f2-62c233e94a99","ios":"levelo://app?vid=56aebe64-5e14-40af-99f2-62c233e94a99"},"vehicle_type_id":"4","last_reported":1769012764,"current_range_meters":3600,"station_id":"","pricing_plan_id":"cebpf4jnsgd1na2vs0mg"},{"bike_id":"35eb0f0f-42a8-4fd5-956e-bec6aa3f7ee3","system_id":"levelo_inurba_marseille","lat":43.231788,"lon":5.399988,"is_reserved":false,"is_disabled":false,"rental_uris":{"android":"levelo://app?vid=35eb0f0f-42a8-4fd5-956e-bec6aa3f7ee3","ios":"levelo://app?vid=35eb0f0f-42a8-4fd5-956e-bec6aa3f7ee3"},"vehicle_type_id":"4","last_reported":1769012764,"current_range_meters":3600,"station_id":"ce4bhn12rcd13ifvqgqg","pricing_plan_id":"cebpf4jnsgd1na2vs0mg"},{"bike_id":"54f17dc7-a18f-482f-876e-cdb4c51a38de","system_id":"levelo_inurba_marseille","lat":43.28603,"lon":5.39895,"is_reserved":false,"is_disabled":false,"rental_uris":{"android":"levelo://app?vid=54f17dc7-a18f-482f-876e-cdb4c51a38de","ios":"levelo://app?vid=54f17dc7-a18f-482f-876e-cdb4c51a38de"},"vehicle_type_id":"4","last_reported":1769012764,"current_range_meters":3600,"station_id":"st_d4a7ka997mjs738ck50g","pricing_plan_id":"cebpf4jnsgd1na2vs0mg"},{"bike_id":"ad473098-59c2-4c8e-8fd2-dd511975eb09","system_id":"levelo_inurba_marseille","lat":43.21759,"lon":5.34595,"is_reserved":false,"is_disabled":true,"rental_uris":{"android":"levelo://app?vid=ad473098-59c2-4c8e-8fd2-dd511975eb09","ios":"levelo://app?vid=ad473098-59c2-4c8e-8fd2-dd511975eb09"},"vehicle_type_id":"4","last_reported":1769012764,"current_range_meters":3600,"station_id":"","pricing_plan_id":"cebpf4jnsgd1na2vs0mg"},{"bike_id":"ae82840e-6713-4278-be7e-382935799675","system_id":"levelo_inurba_marseille","lat":43.32355,"lon":5.38494,"is_reserved":false,"is_disabled":false,"rental_uris":{"android":"levelo://app?vid=ae82840e-6713-4278-be7e-382935799675","ios":"levelo://app?vid=ae82840e-6713-4278-be7e-382935799675"},"vehicle_type_id":"4","last_reported":1769012764,"current_range_meters":3600,"station_id":"st_d45171o9ee8s73djdqug","pricing_plan_id":"cebpf4jnsgd1na2vs0mg"},{"bike_id":"3e32b554-fc0b-43d9-a2fa-3ed804c5f10f","system_id":"levelo_inurba_marseille","lat":43.31185,"lon":5.38725,"is_reserved":false,"is_disabled":false,"rental_uris":{"android":"levelo://app?vid=3e32b554-fc0b-43d9-a2fa-3ed804c5f10f","ios":"levelo://app?vid=3e32b554-fc0b-43d9-a2fa-3ed804c5f10f"},"vehicle_type_id":"4","last_reported":1769012764,"current_range_meters":3600,"station_id":"ce4bgv12rcd13ifvqcp0","pricing_plan_id":"cebpf4jnsgd1na2vs0mg"},{"bike_id":"4b68c0f2-a098-4371-9aa9-73b5399ef6fa","system_id":"levelo_inurba_marseille","lat":43.25577,"lon":5.38241,"is_reserved":false,"is_disabled":false,"rental_uris":{"android":"levelo://app?vid=4b68c0f2-a098-4371-9aa9-73b5399ef6fa","ios":"levelo://app?vid=4b68c0f2-a098-4371-9aa9-73b5399ef6fa"},"vehicle_type_id":"4","last_reported":1769012764,"current_range_meters":3600,"station_id":"ce4bhih2rcd13ifvqfs0","pricing_plan_id":"cebpf4jnsgd1na2vs0mg"},{"bike_id":"0b857ada-bed9-47df-869a-44f8e17a76e1","system_id":"levelo_inurba_marseille","lat":43.22571,"lon":5.41629,"is_reserved":false,"is_disabled":false,"rental_uris":{"android":"levelo://app?vid=0b857ada-bed9-47df-869a-44f8e17a76e1","ios":"levelo://app?vid=0b857ada-bed9-47df-869a-44f8e17a76e1"},"vehicle_type_id":"4","last_reported":1769012764,"current_range_meters":4000,"station_id":"st_d2o4gvlbi1j2169b742g","pricing_plan_id":"cebpf4jnsgd1na2vs0mg"},{"bike_id":"04d1fa74-7078-4e54-86c0-c9d3f7b08c45","system_id":"levelo_inurba_marseille","lat":43.255839,"lon":5.382194,"is_reserved":false,"is_disabled":false,"rental_uris":{"android":"levelo://app?vid=04d1fa74-7078-4e54-86c0-c9d3f7b08c45","ios":"levelo://app?vid=04d1fa74-7078-4e54-86c0-c9d3f7b08c45"},"vehicle_type_id":"4","last_reported":1769012764,"current_range_meters":4000,"station_id":"ce4bhih2rcd13ifvqfs0","pricing_plan_id":"cebpf4jnsgd1na2vs0mg"},{"bike_id":"20f2e691-7ee8-4508-9b1c-b43a813819d1","system_id":"levelo_inurba_marseille","lat":43.26039,"lon":5.37532,"is_reserved":false,"is_disabled":false,"rental_uris":{"android":"levelo://app?vid=20f2e691-7ee8-4508-9b1c-b43a813819d1","ios":"levelo://app?vid=20f2e691-7ee8-4508-9b1c-b43a813819d1"},"vehicle_type_id":"4","last_reported":1769012764,"current_range_meters":4000,"station_id":"ce4bhgh2rcd13ifvqfa0","pricing_plan_id":"cebpf4jnsgd1na2vs0mg"},{"bike_id":"7d2f250a-191b-441d-876b-7325dd6245a6","system_id":"levelo_inurba_marseille","lat":43.24996,"lon":5.38922,"is_reserved":false,"is_disabled":false,"rental_uris":{"android":"levelo://app?vid=7d2f250a-191b-441d-876b-7325dd6245a6","ios":"levelo://app?vid=7d2f250a-191b-441d-876b-7325dd6245a6"},"vehicle_type_id":"4","last_reported":1769012764,"current_range_meters":4000,"station_id":"ce4bhgp2rcd13ifvqfd0","pricing_plan_id":"cebpf4jnsgd1na2vs0mg"},{"bike_id":"5dbfcf3f-7cec-4c29-8168-14f9c37f7762","system_id":"levelo_inurba_marseille","lat":43.225633,"lon":5.416265,"is_reserved":false,"is_disabled":false,"rental_uris":{"android":"levelo://app?vid=5dbfcf3f-7cec-4c29-8168-14f9c37f7762","ios":"levelo://app?vid=5dbfcf3f-7cec-4c29-8168-14f9c37f7762"},"vehicle_type_id":"4","last_reported":1769012764,"current_range_meters":4000,"station_id":"st_d2o4gvlbi1j2169b742g","pricing_plan_id":"cebpf4jnsgd1na2vs0mg"},{"bike_id":"454f8a34-e720-4d42-8d72-40c5ec72a650","system_id":"levelo_inurba_marseille","lat":43.27684,"lon":5.3891,"is_reserved":false,"is_disabled":false,"rental_uris":{"android":"levelo://app?vid=454f8a34-e720-4d42-8d72-40c5ec72a650","ios":"levelo://app?vid=454f8a34-e720-4d42-8d72-40c5ec72a650"},"vehicle_type_id":"4","last_reported":1769012764,"current_range_meters":4000,"station_id":"ce4bhi12rcd13ifvqfo0","pricing_plan_id":"cebpf4jnsgd1na2vs0mg"},{"bike_id":"66160d64-23f9-4d70-b989-daa254cf260e","system_id":"levelo_inurba_marseille","lat":43.28138,"lon":5.42614,"is_reserved":false,"is_disabled":true,"rental_uris":{"android":"levelo://app?vid=66160d64-23f9-4d70-b989-daa254cf260e","ios":"levelo://app?vid=66160d64-23f9-4d70-b989-daa254cf260e"},"vehicle_type_id":"4","last_reported":1769012764,"current_range_meters":4000,"station_id":"ce4bhnh2rcd13ifvqgug","pricing_plan_id":"cebpf4jnsgd1na2vs0mg"},{"bike_id":"2cf1ea64-26bb-4964-939a-03465aee6659","system_id":"levelo_inurba_marseille","lat":43.22559,"lon":5.4163,"is_reserved":false,"is_disabled":false,"rental_uris":{"android":"levelo://app?vid=2cf1ea64-26bb-4964-939a-03465aee6659","ios":"levelo://app?vid=2cf1ea64-26bb-4964-939a-03465aee6659"},"vehicle_type_id":"4","last_reported":1769012764,"current_range_meters":4000,"station_id":"st_d2o4gvlbi1j2169b742g","pricing_plan_id":"cebpf4jnsgd1na2vs0mg"},{"bike_id":"e1d15d99-c26f-4b4e-b4a6-2694b4af7b78","system_id":"levelo_inurba_marseille","lat":43.292321,"lon":5.360489,"is_reserved":false,"is_disabled":false,"rental_uris":{"android":"levelo://app?vid=e1d15d99-c26f-4b4e-b4a6-2694b4af7b78","ios":"levelo://app?vid=e1d15d99-c26f-4b4e-b4a6-2694b4af7b78"},"vehicle_type_id":"4","last_reported":1769012764,"current_range_meters":4000,"station_id":"","pricing_plan_id":"cebpf4jnsgd1na2vs0mg"},{"bike_id":"673852a4-6416-4b33-a80d-5a20f826521f","system_id":"levelo_inurba_marseille","lat":43.28992,"lon":5.39039,"is_reserved":false,"is_disabled":false,"rental_uris":{"android":"levelo://app?vid=673852a4-6416-4b33-a80d-5a20f826521f","ios":"levelo://app?vid=673852a4-6416-4b33-a80d-5a20f826521f"},"vehicle_type_id":"4","last_reported":1769012764,"current_range_meters":4000,"station_id":"","pricing_plan_id":"cebpf4jnsgd1na2vs0mg"},{"bike_id":"f32f99ba-3ead-4e04-9bcb-0439bdc4e6db","system_id":"levelo_inurba_marseille","lat":43.2988,"lon":5.40334,"is_reserved":false,"is_disabled":false,"rental_uris":{"android":"levelo://app?vid=f32f99ba-3ead-4e04-9bcb-0439bdc4e6db","ios":"levelo://app?vid=f32f99ba-3ead-4e04-9bcb-0439bdc4e6db"},"vehicle_type_id":"4","last_reported":1769012764,"current_range_meters":4400,"station_id":"","pricing_plan_id":"cebpf4jnsgd1na2vs0mg"},{"bike_id":"02b19501-ae2b-4d21-ae93-ce26586838ae","system_id":"levelo_inurba_marseille","lat":43.29606,"lon":5.4229,"is_reserved":false,"is_disabled":false,"rental_uris":{"android":"levelo://app?vid=02b19501-ae2b-4d21-ae93-ce26586838ae","ios":"levelo://app?vid=02b19501-ae2b-4d21-ae93-ce26586838ae"},"vehicle_type_id":"4","last_reported":1769012764,"current_range_meters":4400,"station_id":"","pricing_plan_id":"cebpf4jnsgd1na2vs0mg"},{"bike_id":"394ccb93-cc2d-4e8a-ac01-18019d2f80ad","system_id":"levelo_inurba_marseille","lat":43.298936,"lon":5.436741,"is_reserved":false,"is_disabled":false,"rental_uris":{"android":"levelo://app?vid=394ccb93-cc2d-4e8a-ac01-18019d2f80ad","ios":"levelo://app?vid=394ccb93-cc2d-4e8a-ac01-18019d2f80ad"},"vehicle_type_id":"4","last_reported":1769012764,"current_range_meters":4400,"station_id":"ce4bhpp2rcd13ifvqhfg","pricing_plan_id":"cebpf4jnsgd1na2vs0mg"},{"bike_id":"7ad1ae74-ca03-4e43-b8e3-8d86fc1cfa4a","system_id":"levelo_inurba_marseille","lat":43.26199,"lon":5.37927,"is_reserved":false,"is_disabled":false,"rental_uris":{"android":"levelo://app?vid=7ad1ae74-ca03-4e43-b8e3-8d86fc1cfa4a","ios":"levelo://app?vid=7ad1ae74-ca03-4e43-b8e3-8d86fc1cfa4a"},"vehicle_type_id":"4","last_reported":1769012764,"current_range_meters":4400,"station_id":"ce4bhjp2rcd13ifvqg90","pricing_plan_id":"cebpf4jnsgd1na2vs0mg"},{"bike_id":"c59cf9aa-35b0-4bd8-91bd-87b77ac8b35e","system_id":"levelo_inurba_marseille","lat":43.25334,"lon":5.42175,"is_reserved":false,"is_disabled":false,"rental_uris":{"android":"levelo://app?vid=c59cf9aa-35b0-4bd8-91bd-87b77ac8b35e","ios":"levelo://app?vid=c59cf9aa-35b0-4bd8-91bd-87b77ac8b35e"},"vehicle_type_id":"4","last_reported":1769012764,"current_range_meters":4400,"station_id":"st_d2m65c5bi1j21697t3ng","pricing_plan_id":"cebpf4jnsgd1na2vs0mg"},{"bike_id":"74db63e2-d1f2-400f-9474-68a341ed39eb","system_id":"levelo_inurba_marseille","lat":43.25828,"lon":5.3944,"is_reserved":false,"is_disabled":false,"rental_uris":{"android":"levelo://app?vid=74db63e2-d1f2-400f-9474-68a341ed39eb","ios":"levelo://app?vid=74db63e2-d1f2-400f-9474-68a341ed39eb"},"vehicle_type_id":"4","last_reported":1769012764,"current_range_meters":4400,"station_id":"ce4bhip2rcd13ifvqft0","pricing_plan_id":"cebpf4jnsgd1na2vs0mg"},{"bike_id":"a4e733b1-b17e-4089-b974-213fbcd56ebd","system_id":"levelo_inurba_marseille","lat":43.31357,"lon":5.38485,"is_reserved":false,"is_disabled":false,"rental_uris":{"android":"levelo://app?vid=a4e733b1-b17e-4089-b974-213fbcd56ebd","ios":"levelo://app?vid=a4e733b1-b17e-4089-b974-213fbcd56ebd"},"vehicle_type_id":"4","last_reported":1769012764,"current_range_meters":4400,"station_id":"ce4bgt92rcd13ifvqcf0","pricing_plan_id":"cebpf4jnsgd1na2vs0mg"},{"bike_id":"968eb0f0-c773-4674-8933-62f5b9ac3112","system_id":"levelo_inurba_marseille","lat":43.29537,"lon":5.38539,"is_reserved":false,"is_disabled":false,"rental_uris":{"android":"levelo://app?vid=968eb0f0-c773-4674-8933-62f5b9ac3112","ios":"levelo://app?vid=968eb0f0-c773-4674-8933-62f5b9ac3112"},"vehicle_type_id":"4","last_reported":1769012764,"current_range_meters":4800,"station_id":"ce4bgih2rcd13ifvqba0","pricing_plan_id":"cebpf4jnsgd1na2vs0mg"},{"bike_id":"5a0256d6-823e-4d32-b9b1-3e3ddb948137","system_id":"levelo_inurba_marseille","lat":43.29039,"lon":5.39966,"is_reserved":false,"is_disabled":false,"rental_uris":{"android":"levelo://app?vid=5a0256d6-823e-4d32-b9b1-3e3ddb948137","ios":"levelo://app?vid=5a0256d6-823e-4d32-b9b1-3e3ddb948137"},"vehicle_type_id":"4","last_reported":1769012764,"current_range_meters":4800,"station_id":"ce4bh392rcd13ifvqdm0","pricing_plan_id":"cebpf4jnsgd1na2vs0mg"},{"bike_id":"ced3a2ee-ffc6-426f-aa6c-134fe31cd032","system_id":"levelo_inurba_marseille","lat":43.27378,"lon":5.36261,"is_reserved":false,"is_disabled":false,"rental_uris":{"android":"levelo://app?vid=ced3a2ee-ffc6-426f-aa6c-134fe31cd032","ios":"levelo://app?vid=ced3a2ee-ffc6-426f-aa6c-134fe31cd032"},"vehicle_type_id":"4","last_reported":1769012764,"current_range_meters":4800,"station_id":"ce4bhbh2rcd13ifvqeo0","pricing_plan_id":"cebpf4jnsgd1na2vs0mg"},{"bike_id":"34c0e104-8ac5-4f79-b594-51b7631e1c5d","system_id":"levelo_inurba_marseille","lat":43.299615,"lon":5.371654,"is_reserved":false,"is_disabled":false,"rental_uris":{"android":"levelo://app?vid=34c0e104-8ac5-4f79-b594-51b7631e1c5d","ios":"levelo://app?vid=34c0e104-8ac5-4f79-b594-51b7631e1c5d"},"vehicle_type_id":"4","last_reported":1769012764,"current_range_meters":4800,"station_id":"ce4bgr92rcd13ifvqc7g","pricing_plan_id":"cebpf4jnsgd1na2vs0mg"},{"bike_id":"153495b2-5255-43d3-b257-40aa9dbeb33b","system_id":"levelo_inurba_marseille","lat":43.273722,"lon":5.362626,"is_reserved":false,"is_disabled":false,"rental_uris":{"android":"levelo://app?vid=153495b2-5255-43d3-b257-40aa9dbeb33b","ios":"levelo://app?vid=153495b2-5255-43d3-b257-40aa9dbeb33b"},"vehicle_type_id":"4","last_reported":1769012764,"current_range_meters":4800,"station_id":"ce4bhbh2rcd13ifvqeo0","pricing_plan_id":"cebpf4jnsgd1na2vs0mg"},{"bike_id":"8071b732-6495-4355-8bd2-d391f59dfffd","system_id":"levelo_inurba_marseille","lat":43.217511,"lon":5.346008,"is_reserved":false,"is_disabled":false,"rental_uris":{"android":"levelo://app?vid=8071b732-6495-4355-8bd2-d391f59dfffd","ios":"levelo://app?vid=8071b732-6495-4355-8bd2-d391f59dfffd"},"vehicle_type_id":"4","last_reported":1769012764,"current_range_meters":4800,"station_id":"","pricing_plan_id":"cebpf4jnsgd1na2vs0mg"},{"bike_id":"4d755896-9582-4758-91af-66367ae21645","system_id":"levelo_inurba_marseille","lat":43.2893,"lon":5.38402,"is_reserved":false,"is_disabled":false,"rental_uris":{"android":"levelo://app?vid=4d755896-9582-4758-91af-66367ae21645","ios":"levelo://app?vid=4d755896-9582-4758-91af-66367ae21645"},"vehicle_type_id":"4","last_reported":1769012764,"current_range_meters":4800,"station_id":"ce4bh612rcd13ifvqe6g","pricing_plan_id":"cebpf4jnsgd1na2vs0mg"},{"bike_id":"f1d361c8-08f0-4ae2-b277-236dec5ef5cd","system_id":"levelo_inurba_marseille","lat":43.24183,"lon":5.39726,"is_reserved":false,"is_disabled":false,"rental_uris":{"android":"levelo://app?vid=f1d361c8-08f0-4ae2-b277-236dec5ef5cd","ios":"levelo://app?vid=f1d361c8-08f0-4ae2-b277-236dec5ef5cd"},"vehicle_type_id":"4","last_reported":1769012764,"current_range_meters":5600,"station_id":"ce4bhn12rcd13ifvqgpg","pricing_plan_id":"cebpf4jnsgd1na2vs0mg"},{"bike_id":"7f57e4b7-adcc-40f6-a2f9-1294ef7abba0","system_id":"levelo_inurba_marseille","lat":43.30921,"lon":5.36846,"is_reserved":false,"is_disabled":false,"rental_uris":{"android":"levelo://app?vid=7f57e4b7-adcc-40f6-a2f9-1294ef7abba0","ios":"levelo://app?vid=7f57e4b7-adcc-40f6-a2f9-1294ef7abba0"},"vehicle_type_id":"4","last_reported":1769012764,"current_range_meters":5600,"station_id":"ce4bgn92rcd13ifvqbvg","pricing_plan_id":"cebpf4jnsgd1na2vs0mg"},{"bike_id":"e9cf4d98-a47d-4cc7-82f6-b2e075f45c6a","system_id":"levelo_inurba_marseille","lat":43.22568,"lon":5.41623,"is_reserved":false,"is_disabled":false,"rental_uris":{"android":"levelo://app?vid=e9cf4d98-a47d-4cc7-82f6-b2e075f45c6a","ios":"levelo://app?vid=e9cf4d98-a47d-4cc7-82f6-b2e075f45c6a"},"vehicle_type_id":"4","last_reported":1769012764,"current_range_meters":5600,"station_id":"st_d2o4gvlbi1j2169b742g","pricing_plan_id":"cebpf4jnsgd1na2vs0mg"},{"bike_id":"7368a1d8-c36e-4cf8-b90a-6d57c4108b22","system_id":"levelo_inurba_marseille","lat":43.26564,"lon":5.39005,"is_reserved":false,"is_disabled":false,"rental_uris":{"android":"levelo://app?vid=7368a1d8-c36e-4cf8-b90a-6d57c4108b22","ios":"levelo://app?vid=7368a1d8-c36e-4cf8-b90a-6d57c4108b22"},"vehicle_type_id":"4","last_reported":1769012764,"current_range_meters":5600,"station_id":"ce4bhe12rcd13ifvqf30","pricing_plan_id":"cebpf4jnsgd1na2vs0mg"},{"bike_id":"8069f374-6bb2-4df8-950d-be2e50fcd180","system_id":"levelo_inurba_marseille","lat":43.311267,"lon":5.37764,"is_reserved":false,"is_disabled":true,"rental_uris":{"android":"levelo://app?vid=8069f374-6bb2-4df8-950d-be2e50fcd180","ios":"levelo://app?vid=8069f374-6bb2-4df8-950d-be2e50fcd180"},"vehicle_type_id":"4","last_reported":1769012764,"current_range_meters":5600,"station_id":"ce4bgt92rcd13ifvqcg0","pricing_plan_id":"cebpf4jnsgd1na2vs0mg"},{"bike_id":"f2f81720-71f9-4e35-a868-42f6483cbd8c","system_id":"levelo_inurba_marseille","lat":43.29023,"lon":5.38128,"is_reserved":false,"is_disabled":false,"rental_uris":{"android":"levelo://app?vid=f2f81720-71f9-4e35-a868-42f6483cbd8c","ios":"levelo://app?vid=f2f81720-71f9-4e35-a868-42f6483cbd8c"},"vehicle_type_id":"4","last_reported":1769012764,"current_range_meters":5600,"station_id":"ce4bh4p2rcd13ifvqe1g","pricing_plan_id":"cebpf4jnsgd1na2vs0mg"},{"bike_id":"5f6a0a0c-aaf7-41c1-be98-33b50db68fe6","system_id":"levelo_inurba_marseille","lat":43.26486,"lon":5.39555,"is_reserved":false,"is_disabled":true,"rental_uris":{"android":"levelo://app?vid=5f6a0a0c-aaf7-41c1-be98-33b50db68fe6","ios":"levelo://app?vid=5f6a0a0c-aaf7-41c1-be98-33b50db68fe6"},"vehicle_type_id":"4","last_reported":1769012764,"current_range_meters":5600,"station_id":"ce4bhi12rcd13ifvqfq0","pricing_plan_id":"cebpf4jnsgd1na2vs0mg"},{"bike_id":"fb90fa15-2592-4ccc-b435-09066c897f87","system_id":"levelo_inurba_marseille","lat":43.31072,"lon":5.38344,"is_reserved":false,"is_disabled":false,"rental_uris":{"android":"levelo://app?vid=fb90fa15-2592-4ccc-b435-09066c897f87","ios":"levelo://app?vid=fb90fa15-2592-4ccc-b435-09066c897f87"},"vehicle_type_id":"4","last_reported":1769012764,"current_range_meters":5600,"station_id":"ce4bgv92rcd13ifvqcr0","pricing_plan_id":"cebpf4jnsgd1na2vs0mg"},{"bike_id":"02bb5eed-6d46-4907-942b-2953f5d09c0c","system_id":"levelo_inurba_marseille","lat":43.3091,"lon":5.36847,"is_reserved":false,"is_disabled":false,"rental_uris":{"android":"levelo://app?vid=02bb5eed-6d46-4907-942b-2953f5d09c0c","ios":"levelo://app?vid=02bb5eed-6d46-4907-942b-2953f5d09c0c"},"vehicle_type_id":"4","last_reported":1769012764,"current_range_meters":5600,"station_id":"ce4bgn92rcd13ifvqbvg","pricing_plan_id":"cebpf4jnsgd1na2vs0mg"},{"bike_id":"09b46eb9-4514-4aec-bcf3-8d3951351f4b","system_id":"levelo_inurba_marseille","lat":43.28486,"lon":5.38559,"is_reserved":false,"is_disabled":false,"rental_uris":{"android":"levelo://app?vid=09b46eb9-4514-4aec-bcf3-8d3951351f4b","ios":"levelo://app?vid=09b46eb9-4514-4aec-bcf3-8d3951351f4b"},"vehicle_type_id":"4","last_reported":1769012764,"current_range_meters":5600,"station_id":"ce4bh8p2rcd13ifvqeb0","pricing_plan_id":"cebpf4jnsgd1na2vs0mg"},{"bike_id":"1e9683fd-3419-4707-ab97-e3b80d5f4bea","system_id":"levelo_inurba_marseille","lat":43.27158,"lon":5.40458,"is_reserved":false,"is_disabled":false,"rental_uris":{"android":"levelo://app?vid=1e9683fd-3419-4707-ab97-e3b80d5f4bea","ios":"levelo://app?vid=1e9683fd-3419-4707-ab97-e3b80d5f4bea"},"vehicle_type_id":"4","last_reported":1769012764,"current_range_meters":5600,"station_id":"","pricing_plan_id":"cebpf4jnsgd1na2vs0mg"},{"bike_id":"d167d83f-a42f-4cc5-bce7-f045751b7073","system_id":"levelo_inurba_marseille","lat":43.30939,"lon":5.3906,"is_reserved":false,"is_disabled":false,"rental_uris":{"android":"levelo://app?vid=d167d83f-a42f-4cc5-bce7-f045751b7073","ios":"levelo://app?vid=d167d83f-a42f-4cc5-bce7-f045751b7073"},"vehicle_type_id":"4","last_reported":1769012764,"current_range_meters":5600,"station_id":"ce4bgup2rcd13ifvqco0","pricing_plan_id":"cebpf4jnsgd1na2vs0mg"},{"bike_id":"8995ac81-24f2-4052-a771-f6aaf6f34a78","system_id":"levelo_inurba_marseille","lat":43.29035,"lon":5.38648,"is_reserved":false,"is_disabled":false,"rental_uris":{"android":"levelo://app?vid=8995ac81-24f2-4052-a771-f6aaf6f34a78","ios":"levelo://app?vid=8995ac81-24f2-4052-a771-f6aaf6f34a78"},"vehicle_type_id":"4","last_reported":1769012764,"current_range_meters":5600,"station_id":"ce4bh4p2rcd13ifvqe0g","pricing_plan_id":"cebpf4jnsgd1na2vs0mg"},{"bike_id":"fc4e3a66-55ac-450e-a159-861862597655","system_id":"levelo_inurba_marseille","lat":43.27336,"lon":5.39111,"is_reserved":false,"is_disabled":false,"rental_uris":{"android":"levelo://app?vid=fc4e3a66-55ac-450e-a159-861862597655","ios":"levelo://app?vid=fc4e3a66-55ac-450e-a159-861862597655"},"vehicle_type_id":"4","last_reported":1769012764,"current_range_meters":6000,"station_id":"ce4bhgp2rcd13ifvqfe0","pricing_plan_id":"cebpf4jnsgd1na2vs0mg"},{"bike_id":"58e4d651-4dc6-4922-9751-2fe8e694cd79","system_id":"levelo_inurba_marseille","lat":43.29705,"lon":5.37296,"is_reserved":false,"is_disabled":false,"rental_uris":{"android":"levelo://app?vid=58e4d651-4dc6-4922-9751-2fe8e694cd79","ios":"levelo://app?vid=58e4d651-4dc6-4922-9751-2fe8e694cd79"},"vehicle_type_id":"4","last_reported":1769012764,"current_range_meters":6000,"station_id":"ce4bgk12rcd13ifvqbj0","pricing_plan_id":"cebpf4jnsgd1na2vs0mg"},{"bike_id":"511fc97e-4342-48bd-969a-a85990179b2c","system_id":"levelo_inurba_marseille","lat":43.30152,"lon":5.38072,"is_reserved":false,"is_disabled":false,"rental_uris":{"android":"levelo://app?vid=511fc97e-4342-48bd-969a-a85990179b2c","ios":"levelo://app?vid=511fc97e-4342-48bd-969a-a85990179b2c"},"vehicle_type_id":"4","last_reported":1769012764,"current_range_meters":6000,"station_id":"ce4bgjp2rcd13ifvqbh0","pricing_plan_id":"cebpf4jnsgd1na2vs0mg"},{"bike_id":"35398e46-8a19-476f-81ec-0d5c414a7575","system_id":"levelo_inurba_marseille","lat":43.28785,"lon":5.36241,"is_reserved":false,"is_disabled":false,"rental_uris":{"android":"levelo://app?vid=35398e46-8a19-476f-81ec-0d5c414a7575","ios":"levelo://app?vid=35398e46-8a19-476f-81ec-0d5c414a7575"},"vehicle_type_id":"4","last_reported":1769012764,"current_range_meters":6000,"station_id":"","pricing_plan_id":"cebpf4jnsgd1na2vs0mg"},{"bike_id":"56496f15-285b-4dff-92b3-54ffdff3e399","system_id":"levelo_inurba_marseille","lat":43.26818,"lon":5.39597,"is_reserved":false,"is_disabled":false,"rental_uris":{"android":"levelo://app?vid=56496f15-285b-4dff-92b3-54ffdff3e399","ios":"levelo://app?vid=56496f15-285b-4dff-92b3-54ffdff3e399"},"vehicle_type_id":"4","last_reported":1769012764,"current_range_meters":6000,"station_id":"","pricing_plan_id":"cebpf4jnsgd1na2vs0mg"},{"bike_id":"d83b9ca6-2d45-4f1f-b4e9-b8bc26f8d6e5","system_id":"levelo_inurba_marseille","lat":43.29794,"lon":5.39343,"is_reserved":false,"is_disabled":false,"rental_uris":{"android":"levelo://app?vid=d83b9ca6-2d45-4f1f-b4e9-b8bc26f8d6e5","ios":"levelo://app?vid=d83b9ca6-2d45-4f1f-b4e9-b8bc26f8d6e5"},"vehicle_type_id":"4","last_reported":1769012764,"current_range_meters":6000,"station_id":"chh1huq6cuj3fo74tm60","pricing_plan_id":"cebpf4jnsgd1na2vs0mg"},{"bike_id":"6b0a7910-4f3c-47d6-b165-5319282e4ed9","system_id":"levelo_inurba_marseille","lat":43.3354,"lon":5.37463,"is_reserved":false,"is_disabled":false,"rental_uris":{"android":"levelo://app?vid=6b0a7910-4f3c-47d6-b165-5319282e4ed9","ios":"levelo://app?vid=6b0a7910-4f3c-47d6-b165-5319282e4ed9"},"vehicle_type_id":"4","last_reported":1769012764,"current_range_meters":6000,"station_id":"","pricing_plan_id":"cebpf4jnsgd1na2vs0mg"},{"bike_id":"12d50624-36fb-429d-be6d-b5122cf2de21","system_id":"levelo_inurba_marseille","lat":43.317612,"lon":5.389922,"is_reserved":false,"is_disabled":false,"rental_uris":{"android":"levelo://app?vid=12d50624-36fb-429d-be6d-b5122cf2de21","ios":"levelo://app?vid=12d50624-36fb-429d-be6d-b5122cf2de21"},"vehicle_type_id":"4","last_reported":1769012764,"current_range_meters":6000,"station_id":"ce4bhqp2rcd13ifvqhng","pricing_plan_id":"cebpf4jnsgd1na2vs0mg"},{"bike_id":"93c7a025-127d-40b2-862c-98919fbc02da","system_id":"levelo_inurba_marseille","lat":43.231854,"lon":5.399809,"is_reserved":false,"is_disabled":false,"rental_uris":{"android":"levelo://app?vid=93c7a025-127d-40b2-862c-98919fbc02da","ios":"levelo://app?vid=93c7a025-127d-40b2-862c-98919fbc02da"},"vehicle_type_id":"4","last_reported":1769012764,"current_range_meters":6000,"station_id":"ce4bhn12rcd13ifvqgqg","pricing_plan_id":"cebpf4jnsgd1na2vs0mg"},{"bike_id":"f72efe51-12d3-4c91-8eb1-b0d276f7cb47","system_id":"levelo_inurba_marseille","lat":43.248039,"lon":5.374545,"is_reserved":false,"is_disabled":false,"rental_uris":{"android":"levelo://app?vid=f72efe51-12d3-4c91-8eb1-b0d276f7cb47","ios":"levelo://app?vid=f72efe51-12d3-4c91-8eb1-b0d276f7cb47"},"vehicle_type_id":"4","last_reported":1769012764,"current_range_meters":6000,"station_id":"ce4bhgh2rcd13ifvqfb0","pricing_plan_id":"cebpf4jnsgd1na2vs0mg"},{"bike_id":"bc53fded-5652-4ab5-920f-ec142a69c388","system_id":"levelo_inurba_marseille","lat":43.29806,"lon":5.39353,"is_reserved":false,"is_disabled":false,"rental_uris":{"android":"levelo://app?vid=bc53fded-5652-4ab5-920f-ec142a69c388","ios":"levelo://app?vid=bc53fded-5652-4ab5-920f-ec142a69c388"},"vehicle_type_id":"4","last_reported":1769012764,"current_range_meters":6000,"station_id":"chh1huq6cuj3fo74tm60","pricing_plan_id":"cebpf4jnsgd1na2vs0mg"},{"bike_id":"9d7d0159-1577-4d71-9a54-87a909c479e1","system_id":"levelo_inurba_marseille","lat":43.30158,"lon":5.38086,"is_reserved":false,"is_disabled":false,"rental_uris":{"android":"levelo://app?vid=9d7d0159-1577-4d71-9a54-87a909c479e1","ios":"levelo://app?vid=9d7d0159-1577-4d71-9a54-87a909c479e1"},"vehicle_type_id":"4","last_reported":1769012764,"current_range_meters":6000,"station_id":"ce4bgjp2rcd13ifvqbh0","pricing_plan_id":"cebpf4jnsgd1na2vs0mg"},{"bike_id":"29bfec45-ad76-429c-882a-34b6f5ca4191","system_id":"levelo_inurba_marseille","lat":43.321101,"lon":5.367713,"is_reserved":false,"is_disabled":false,"rental_uris":{"android":"levelo://app?vid=29bfec45-ad76-429c-882a-34b6f5ca4191","ios":"levelo://app?vid=29bfec45-ad76-429c-882a-34b6f5ca4191"},"vehicle_type_id":"4","last_reported":1769012764,"current_range_meters":6000,"station_id":"ce4bhrh2rcd13ifvqhug","pricing_plan_id":"cebpf4jnsgd1na2vs0mg"},{"bike_id":"cda0f623-77d7-4396-ba37-f963eff0a96a","system_id":"levelo_inurba_marseille","lat":43.30245,"lon":5.40088,"is_reserved":false,"is_disabled":false,"rental_uris":{"android":"levelo://app?vid=cda0f623-77d7-4396-ba37-f963eff0a96a","ios":"levelo://app?vid=cda0f623-77d7-4396-ba37-f963eff0a96a"},"vehicle_type_id":"4","last_reported":1769012764,"current_range_meters":6400,"station_id":"ce4bgvh2rcd13ifvqcs0","pricing_plan_id":"cebpf4jnsgd1na2vs0mg"},{"bike_id":"92627d90-ac48-4227-8b3f-dad6aa59d4b3","system_id":"levelo_inurba_marseille","lat":43.21195,"lon":5.35082,"is_reserved":false,"is_disabled":false,"rental_uris":{"android":"levelo://app?vid=92627d90-ac48-4227-8b3f-dad6aa59d4b3","ios":"levelo://app?vid=92627d90-ac48-4227-8b3f-dad6aa59d4b3"},"vehicle_type_id":"4","last_reported":1769012764,"current_range_meters":6400,"station_id":"","pricing_plan_id":"cebpf4jnsgd1na2vs0mg"},{"bike_id":"5ccd4b49-397b-4ce5-a22c-752ca0560289","system_id":"levelo_inurba_marseille","lat":43.2959,"lon":5.39962,"is_reserved":false,"is_disabled":false,"rental_uris":{"android":"levelo://app?vid=5ccd4b49-397b-4ce5-a22c-752ca0560289","ios":"levelo://app?vid=5ccd4b49-397b-4ce5-a22c-752ca0560289"},"vehicle_type_id":"4","last_reported":1769012764,"current_range_meters":6400,"station_id":"ce4bh312rcd13ifvqdj0","pricing_plan_id":"cebpf4jnsgd1na2vs0mg"},{"bike_id":"803733c4-b819-4927-bf05-40aac469076a","system_id":"levelo_inurba_marseille","lat":43.2962,"lon":5.37166,"is_reserved":false,"is_disabled":false,"rental_uris":{"android":"levelo://app?vid=803733c4-b819-4927-bf05-40aac469076a","ios":"levelo://app?vid=803733c4-b819-4927-bf05-40aac469076a"},"vehicle_type_id":"4","last_reported":1769012764,"current_range_meters":6400,"station_id":"ce4bgnh2rcd13ifvqc0g","pricing_plan_id":"cebpf4jnsgd1na2vs0mg"},{"bike_id":"d467da63-cb7f-4239-ab33-5d0b6ddccd3e","system_id":"levelo_inurba_marseille","lat":43.28403,"lon":5.37525,"is_reserved":false,"is_disabled":false,"rental_uris":{"android":"levelo://app?vid=d467da63-cb7f-4239-ab33-5d0b6ddccd3e","ios":"levelo://app?vid=d467da63-cb7f-4239-ab33-5d0b6ddccd3e"},"vehicle_type_id":"4","last_reported":1769012764,"current_range_meters":6400,"station_id":"ce4bh412rcd13ifvqds0","pricing_plan_id":"cebpf4jnsgd1na2vs0mg"},{"bike_id":"99d65f09-c0e6-4f0f-b72f-6e110c0f1bd4","system_id":"levelo_inurba_marseille","lat":43.290089,"lon":5.376181,"is_reserved":false,"is_disabled":false,"rental_uris":{"android":"levelo://app?vid=99d65f09-c0e6-4f0f-b72f-6e110c0f1bd4","ios":"levelo://app?vid=99d65f09-c0e6-4f0f-b72f-6e110c0f1bd4"},"vehicle_type_id":"4","last_reported":1769012764,"current_range_meters":6400,"station_id":"ce4bh692rcd13ifvqe90","pricing_plan_id":"cebpf4jnsgd1na2vs0mg"},{"bike_id":"9fe9b7fa-bf5e-456b-b148-d56a572e2392","system_id":"levelo_inurba_marseille","lat":43.2256,"lon":5.41632,"is_reserved":false,"is_disabled":false,"rental_uris":{"android":"levelo://app?vid=9fe9b7fa-bf5e-456b-b148-d56a572e2392","ios":"levelo://app?vid=9fe9b7fa-bf5e-456b-b148-d56a572e2392"},"vehicle_type_id":"4","last_reported":1769012764,"current_range_meters":6400,"station_id":"st_d2o4gvlbi1j2169b742g","pricing_plan_id":"cebpf4jnsgd1na2vs0mg"},{"bike_id":"e3a4b0bd-d0e0-4196-b9ff-c98e6e263190","system_id":"levelo_inurba_marseille","lat":43.26573,"lon":5.3902,"is_reserved":false,"is_disabled":false,"rental_uris":{"android":"levelo://app?vid=e3a4b0bd-d0e0-4196-b9ff-c98e6e263190","ios":"levelo://app?vid=e3a4b0bd-d0e0-4196-b9ff-c98e6e263190"},"vehicle_type_id":"4","last_reported":1769012764,"current_range_meters":6400,"station_id":"ce4bhe12rcd13ifvqf30","pricing_plan_id":"cebpf4jnsgd1na2vs0mg"},{"bike_id":"2351e1c9-97c0-42ed-8ba7-93d168c64106","system_id":"levelo_inurba_marseille","lat":43.297704,"lon":5.427758,"is_reserved":false,"is_disabled":false,"rental_uris":{"android":"levelo://app?vid=2351e1c9-97c0-42ed-8ba7-93d168c64106","ios":"levelo://app?vid=2351e1c9-97c0-42ed-8ba7-93d168c64106"},"vehicle_type_id":"4","last_reported":1769012764,"current_range_meters":6400,"station_id":"st_d3md5207bmas73dh9klg","pricing_plan_id":"cebpf4jnsgd1na2vs0mg"},{"bike_id":"00729f81-defe-4949-ab38-da427b717ebf","system_id":"levelo_inurba_marseille","lat":43.26224,"lon":5.40455,"is_reserved":false,"is_disabled":false,"rental_uris":{"android":"levelo://app?vid=00729f81-defe-4949-ab38-da427b717ebf","ios":"levelo://app?vid=00729f81-defe-4949-ab38-da427b717ebf"},"vehicle_type_id":"4","last_reported":1769012764,"current_range_meters":6400,"station_id":"ce4bhmh2rcd13ifvqgmg","pricing_plan_id":"cebpf4jnsgd1na2vs0mg"},{"bike_id":"5bdad711-817a-42cc-84b1-10d4beae812a","system_id":"levelo_inurba_marseille","lat":43.225644,"lon":5.416423,"is_reserved":false,"is_disabled":false,"rental_uris":{"android":"levelo://app?vid=5bdad711-817a-42cc-84b1-10d4beae812a","ios":"levelo://app?vid=5bdad711-817a-42cc-84b1-10d4beae812a"},"vehicle_type_id":"4","last_reported":1769012764,"current_range_meters":6400,"station_id":"st_d2o4gvlbi1j2169b742g","pricing_plan_id":"cebpf4jnsgd1na2vs0mg"},{"bike_id":"9a8e9162-3975-4ea1-bd89-80f95dc97af6","system_id":"levelo_inurba_marseille","lat":43.26952,"lon":5.40264,"is_reserved":false,"is_disabled":false,"rental_uris":{"android":"levelo://app?vid=9a8e9162-3975-4ea1-bd89-80f95dc97af6","ios":"levelo://app?vid=9a8e9162-3975-4ea1-bd89-80f95dc97af6"},"vehicle_type_id":"4","last_reported":1769012764,"current_range_meters":6400,"station_id":"cjm6bp8fraef2m0cb0m0","pricing_plan_id":"cebpf4jnsgd1na2vs0mg"},{"bike_id":"dde7b0e0-bbd1-44de-82f6-999f8e69694c","system_id":"levelo_inurba_marseille","lat":43.25509,"lon":5.37651,"is_reserved":false,"is_disabled":false,"rental_uris":{"android":"levelo://app?vid=dde7b0e0-bbd1-44de-82f6-999f8e69694c","ios":"levelo://app?vid=dde7b0e0-bbd1-44de-82f6-999f8e69694c"},"vehicle_type_id":"4","last_reported":1769012764,"current_range_meters":6400,"station_id":"ce4bhh12rcd13ifvqff0","pricing_plan_id":"cebpf4jnsgd1na2vs0mg"},{"bike_id":"8c9d9dd5-6ae3-4a8b-ab79-ea51ac5d3931","system_id":"levelo_inurba_marseille","lat":43.27986,"lon":5.41662,"is_reserved":false,"is_disabled":false,"rental_uris":{"android":"levelo://app?vid=8c9d9dd5-6ae3-4a8b-ab79-ea51ac5d3931","ios":"levelo://app?vid=8c9d9dd5-6ae3-4a8b-ab79-ea51ac5d3931"},"vehicle_type_id":"4","last_reported":1769012764,"current_range_meters":6400,"station_id":"ce4bho12rcd13ifvqh1g","pricing_plan_id":"cebpf4jnsgd1na2vs0mg"},{"bike_id":"d89b50c4-db54-4baa-aec9-247ae4e92aef","system_id":"levelo_inurba_marseille","lat":43.273426,"lon":5.362575,"is_reserved":false,"is_disabled":false,"rental_uris":{"android":"levelo://app?vid=d89b50c4-db54-4baa-aec9-247ae4e92aef","ios":"levelo://app?vid=d89b50c4-db54-4baa-aec9-247ae4e92aef"},"vehicle_type_id":"4","last_reported":1769012764,"current_range_meters":6400,"station_id":"ce4bhbh2rcd13ifvqeo0","pricing_plan_id":"cebpf4jnsgd1na2vs0mg"},{"bike_id":"31c21be6-18ca-494d-8d01-2f205767068d","system_id":"levelo_inurba_marseille","lat":43.31858,"lon":5.37479,"is_reserved":false,"is_disabled":false,"rental_uris":{"android":"levelo://app?vid=31c21be6-18ca-494d-8d01-2f205767068d","ios":"levelo://app?vid=31c21be6-18ca-494d-8d01-2f205767068d"},"vehicle_type_id":"4","last_reported":1769012764,"current_range_meters":6400,"station_id":"","pricing_plan_id":"cebpf4jnsgd1na2vs0mg"},{"bike_id":"f301122d-f153-4ba4-b2ce-7618956b050f","system_id":"levelo_inurba_marseille","lat":43.26186,"lon":5.37421,"is_reserved":false,"is_disabled":false,"rental_uris":{"android":"levelo://app?vid=f301122d-f153-4ba4-b2ce-7618956b050f","ios":"levelo://app?vid=f301122d-f153-4ba4-b2ce-7618956b050f"},"vehicle_type_id":"4","last_reported":1769012764,"current_range_meters":6400,"station_id":"ce4bhgp2rcd13ifvqfc0","pricing_plan_id":"cebpf4jnsgd1na2vs0mg"},{"bike_id":"019ceb53-5592-4d8b-8ed7-8ec71fe45a46","system_id":"levelo_inurba_marseille","lat":43.29265,"lon":5.38452,"is_reserved":false,"is_disabled":false,"rental_uris":{"android":"levelo://app?vid=019ceb53-5592-4d8b-8ed7-8ec71fe45a46","ios":"levelo://app?vid=019ceb53-5592-4d8b-8ed7-8ec71fe45a46"},"vehicle_type_id":"4","last_reported":1769012764,"current_range_meters":6400,"station_id":"ce4bh692rcd13ifvqea0","pricing_plan_id":"cebpf4jnsgd1na2vs0mg"},{"bike_id":"9c6a25af-e602-4830-9f55-98a08de3d70c","system_id":"levelo_inurba_marseille","lat":43.286176,"lon":5.351018,"is_reserved":false,"is_disabled":false,"rental_uris":{"android":"levelo://app?vid=9c6a25af-e602-4830-9f55-98a08de3d70c","ios":"levelo://app?vid=9c6a25af-e602-4830-9f55-98a08de3d70c"},"vehicle_type_id":"4","last_reported":1769012764,"current_range_meters":6400,"station_id":"ce4bhch2rcd13ifvqeug","pricing_plan_id":"cebpf4jnsgd1na2vs0mg"},{"bike_id":"b403b836-066b-4bd3-8441-dd35e28285ca","system_id":"levelo_inurba_marseille","lat":43.28953,"lon":5.36634,"is_reserved":false,"is_disabled":false,"rental_uris":{"android":"levelo://app?vid=b403b836-066b-4bd3-8441-dd35e28285ca","ios":"levelo://app?vid=b403b836-066b-4bd3-8441-dd35e28285ca"},"vehicle_type_id":"4","last_reported":1769012764,"current_range_meters":6400,"station_id":"ce4bhap2rcd13ifvqek0","pricing_plan_id":"cebpf4jnsgd1na2vs0mg"},{"bike_id":"e6df6fb7-994b-4037-99d6-76175fe9a7d0","system_id":"levelo_inurba_marseille","lat":43.2319,"lon":5.39996,"is_reserved":false,"is_disabled":false,"rental_uris":{"android":"levelo://app?vid=e6df6fb7-994b-4037-99d6-76175fe9a7d0","ios":"levelo://app?vid=e6df6fb7-994b-4037-99d6-76175fe9a7d0"},"vehicle_type_id":"4","last_reported":1769012764,"current_range_meters":6400,"station_id":"ce4bhn12rcd13ifvqgqg","pricing_plan_id":"cebpf4jnsgd1na2vs0mg"},{"bike_id":"779c5370-daaa-4d54-ab12-1755b8458758","system_id":"levelo_inurba_marseille","lat":43.29244,"lon":5.40104,"is_reserved":false,"is_disabled":false,"rental_uris":{"android":"levelo://app?vid=779c5370-daaa-4d54-ab12-1755b8458758","ios":"levelo://app?vid=779c5370-daaa-4d54-ab12-1755b8458758"},"vehicle_type_id":"4","last_reported":1769012764,"current_range_meters":6400,"station_id":"ce4bh312rcd13ifvqdk0","pricing_plan_id":"cebpf4jnsgd1na2vs0mg"},{"bike_id":"b0382666-7bcf-4a47-be07-585d3037d0d6","system_id":"levelo_inurba_marseille","lat":43.28941,"lon":5.366476,"is_reserved":false,"is_disabled":false,"rental_uris":{"android":"levelo://app?vid=b0382666-7bcf-4a47-be07-585d3037d0d6","ios":"levelo://app?vid=b0382666-7bcf-4a47-be07-585d3037d0d6"},"vehicle_type_id":"4","last_reported":1769012764,"current_range_meters":6400,"station_id":"ce4bhap2rcd13ifvqek0","pricing_plan_id":"cebpf4jnsgd1na2vs0mg"},{"bike_id":"a434f134-6eb6-4867-8251-9e0dd07859cc","system_id":"levelo_inurba_marseille","lat":43.30099,"lon":5.39079,"is_reserved":false,"is_disabled":false,"rental_uris":{"android":"levelo://app?vid=a434f134-6eb6-4867-8251-9e0dd07859cc","ios":"levelo://app?vid=a434f134-6eb6-4867-8251-9e0dd07859cc"},"vehicle_type_id":"4","last_reported":1769012764,"current_range_meters":6400,"station_id":"ce4bh192rcd13ifvqdb0","pricing_plan_id":"cebpf4jnsgd1na2vs0mg"},{"bike_id":"f3f27d86-0784-4222-889b-15433e5b0baf","system_id":"levelo_inurba_marseille","lat":43.2448,"lon":5.42527,"is_reserved":false,"is_disabled":false,"rental_uris":{"android":"levelo://app?vid=f3f27d86-0784-4222-889b-15433e5b0baf","ios":"levelo://app?vid=f3f27d86-0784-4222-889b-15433e5b0baf"},"vehicle_type_id":"4","last_reported":1769012764,"current_range_meters":6800,"station_id":"st_d4a3vfp97mjs738cd8kg","pricing_plan_id":"cebpf4jnsgd1na2vs0mg"},{"bike_id":"f09c06aa-a05d-4b00-b228-d8bee2b62b4f","system_id":"levelo_inurba_marseille","lat":43.32355,"lon":5.36734,"is_reserved":false,"is_disabled":false,"rental_uris":{"android":"levelo://app?vid=f09c06aa-a05d-4b00-b228-d8bee2b62b4f","ios":"levelo://app?vid=f09c06aa-a05d-4b00-b228-d8bee2b62b4f"},"vehicle_type_id":"4","last_reported":1769012764,"current_range_meters":6800,"station_id":"ce4bhsh2rcd13ifvqi2g","pricing_plan_id":"cebpf4jnsgd1na2vs0mg"},{"bike_id":"f73788f7-dec5-4308-a431-6e346b811946","system_id":"levelo_inurba_marseille","lat":43.30176,"lon":5.38071,"is_reserved":false,"is_disabled":false,"rental_uris":{"android":"levelo://app?vid=f73788f7-dec5-4308-a431-6e346b811946","ios":"levelo://app?vid=f73788f7-dec5-4308-a431-6e346b811946"},"vehicle_type_id":"4","last_reported":1769012764,"current_range_meters":6800,"station_id":"ce4bgjp2rcd13ifvqbh0","pricing_plan_id":"cebpf4jnsgd1na2vs0mg"},{"bike_id":"5f477738-733e-4c98-961a-33429c5938fd","system_id":"levelo_inurba_marseille","lat":43.260586,"lon":5.393984,"is_reserved":false,"is_disabled":false,"rental_uris":{"android":"levelo://app?vid=5f477738-733e-4c98-961a-33429c5938fd","ios":"levelo://app?vid=5f477738-733e-4c98-961a-33429c5938fd"},"vehicle_type_id":"4","last_reported":1769012764,"current_range_meters":6800,"station_id":"ce4bhh92rcd13ifvqfj0","pricing_plan_id":"cebpf4jnsgd1na2vs0mg"},{"bike_id":"18733fae-0cf8-40b6-9a54-a68e7889f499","system_id":"levelo_inurba_marseille","lat":43.29175,"lon":5.37157,"is_reserved":false,"is_disabled":false,"rental_uris":{"android":"levelo://app?vid=18733fae-0cf8-40b6-9a54-a68e7889f499","ios":"levelo://app?vid=18733fae-0cf8-40b6-9a54-a68e7889f499"},"vehicle_type_id":"4","last_reported":1769012764,"current_range_meters":6800,"station_id":"ce4bha92rcd13ifvqeh0","pricing_plan_id":"cebpf4jnsgd1na2vs0mg"},{"bike_id":"33af4a1a-dc80-4d5a-925e-3d7355a63574","system_id":"levelo_inurba_marseille","lat":43.27961,"lon":5.38747,"is_reserved":false,"is_disabled":false,"rental_uris":{"android":"levelo://app?vid=33af4a1a-dc80-4d5a-925e-3d7355a63574","ios":"levelo://app?vid=33af4a1a-dc80-4d5a-925e-3d7355a63574"},"vehicle_type_id":"4","last_reported":1769012764,"current_range_meters":6800,"station_id":"ce4bhg12rcd13ifvqf80","pricing_plan_id":"cebpf4jnsgd1na2vs0mg"},{"bike_id":"5b9b3b18-99c1-4f9d-8b57-c4139ebc48e1","system_id":"levelo_inurba_marseille","lat":43.317065,"lon":5.376988,"is_reserved":false,"is_disabled":false,"rental_uris":{"android":"levelo://app?vid=5b9b3b18-99c1-4f9d-8b57-c4139ebc48e1","ios":"levelo://app?vid=5b9b3b18-99c1-4f9d-8b57-c4139ebc48e1"},"vehicle_type_id":"4","last_reported":1769012764,"current_range_meters":6800,"station_id":"","pricing_plan_id":"cebpf4jnsgd1na2vs0mg"},{"bike_id":"64853922-a30e-49f4-b7ec-98488f9f2a85","system_id":"levelo_inurba_marseille","lat":43.28841,"lon":5.39324,"is_reserved":false,"is_disabled":false,"rental_uris":{"android":"levelo://app?vid=64853922-a30e-49f4-b7ec-98488f9f2a85","ios":"levelo://app?vid=64853922-a30e-49f4-b7ec-98488f9f2a85"},"vehicle_type_id":"4","last_reported":1769012764,"current_range_meters":6800,"station_id":"ce4bh2p2rcd13ifvqdi0","pricing_plan_id":"cebpf4jnsgd1na2vs0mg"},{"bike_id":"60f5b5d2-bdd9-4296-ae74-cba0d079ef9d","system_id":"levelo_inurba_marseille","lat":43.29566,"lon":5.3752,"is_reserved":false,"is_disabled":false,"rental_uris":{"android":"levelo://app?vid=60f5b5d2-bdd9-4296-ae74-cba0d079ef9d","ios":"levelo://app?vid=60f5b5d2-bdd9-4296-ae74-cba0d079ef9d"},"vehicle_type_id":"4","last_reported":1769012764,"current_range_meters":6800,"station_id":"ce4bgh92rcd13ifvqb50","pricing_plan_id":"cebpf4jnsgd1na2vs0mg"},{"bike_id":"d219e86e-7bd2-4634-893c-c4dc3b412045","system_id":"levelo_inurba_marseille","lat":43.25582,"lon":5.38252,"is_reserved":false,"is_disabled":false,"rental_uris":{"android":"levelo://app?vid=d219e86e-7bd2-4634-893c-c4dc3b412045","ios":"levelo://app?vid=d219e86e-7bd2-4634-893c-c4dc3b412045"},"vehicle_type_id":"4","last_reported":1769012764,"current_range_meters":6800,"station_id":"ce4bhih2rcd13ifvqfs0","pricing_plan_id":"cebpf4jnsgd1na2vs0mg"},{"bike_id":"16a8eb4e-6065-4983-a65c-04af9ed7c7ec","system_id":"levelo_inurba_marseille","lat":43.2928,"lon":5.36843,"is_reserved":false,"is_disabled":false,"rental_uris":{"android":"levelo://app?vid=16a8eb4e-6065-4983-a65c-04af9ed7c7ec","ios":"levelo://app?vid=16a8eb4e-6065-4983-a65c-04af9ed7c7ec"},"vehicle_type_id":"4","last_reported":1769012764,"current_range_meters":6800,"station_id":"ce4bhbp2rcd13ifvqesg","pricing_plan_id":"cebpf4jnsgd1na2vs0mg"},{"bike_id":"5e4f73e3-15b5-4161-b411-195292d3e766","system_id":"levelo_inurba_marseille","lat":43.24468,"lon":5.42525,"is_reserved":false,"is_disabled":false,"rental_uris":{"android":"levelo://app?vid=5e4f73e3-15b5-4161-b411-195292d3e766","ios":"levelo://app?vid=5e4f73e3-15b5-4161-b411-195292d3e766"},"vehicle_type_id":"4","last_reported":1769012764,"current_range_meters":6800,"station_id":"st_d4a3vfp97mjs738cd8kg","pricing_plan_id":"cebpf4jnsgd1na2vs0mg"},{"bike_id":"a7431c3d-8d6c-410a-b433-b3e6bc843bb5","system_id":"levelo_inurba_marseille","lat":43.2678,"lon":5.39401,"is_reserved":false,"is_disabled":false,"rental_uris":{"android":"levelo://app?vid=a7431c3d-8d6c-410a-b433-b3e6bc843bb5","ios":"levelo://app?vid=a7431c3d-8d6c-410a-b433-b3e6bc843bb5"},"vehicle_type_id":"4","last_reported":1769012764,"current_range_meters":6800,"station_id":"ce4bhh12rcd13ifvqfg0","pricing_plan_id":"cebpf4jnsgd1na2vs0mg"},{"bike_id":"9db479b6-f66f-4d67-bdc3-bbb2f6f90086","system_id":"levelo_inurba_marseille","lat":43.25868,"lon":5.39895,"is_reserved":false,"is_disabled":false,"rental_uris":{"android":"levelo://app?vid=9db479b6-f66f-4d67-bdc3-bbb2f6f90086","ios":"levelo://app?vid=9db479b6-f66f-4d67-bdc3-bbb2f6f90086"},"vehicle_type_id":"4","last_reported":1769012764,"current_range_meters":6800,"station_id":"ce4bhl92rcd13ifvqghg","pricing_plan_id":"cebpf4jnsgd1na2vs0mg"},{"bike_id":"fd603ab1-7fba-4f8b-9938-c63d3924c1a0","system_id":"levelo_inurba_marseille","lat":43.276242,"lon":5.361057,"is_reserved":false,"is_disabled":false,"rental_uris":{"android":"levelo://app?vid=fd603ab1-7fba-4f8b-9938-c63d3924c1a0","ios":"levelo://app?vid=fd603ab1-7fba-4f8b-9938-c63d3924c1a0"},"vehicle_type_id":"4","last_reported":1769012764,"current_range_meters":6800,"station_id":"ce4bgj92rcd13ifvqbe0","pricing_plan_id":"cebpf4jnsgd1na2vs0mg"},{"bike_id":"416786c9-5441-4ae2-97be-8dd18ff4a833","system_id":"levelo_inurba_marseille","lat":43.265645,"lon":5.403279,"is_reserved":false,"is_disabled":false,"rental_uris":{"android":"levelo://app?vid=416786c9-5441-4ae2-97be-8dd18ff4a833","ios":"levelo://app?vid=416786c9-5441-4ae2-97be-8dd18ff4a833"},"vehicle_type_id":"4","last_reported":1769012764,"current_range_meters":6800,"station_id":"ce4bhmp2rcd13ifvqgng","pricing_plan_id":"cebpf4jnsgd1na2vs0mg"},{"bike_id":"90c19265-57a1-4fe8-a374-f449486aea64","system_id":"levelo_inurba_marseille","lat":43.295294,"lon":5.385581,"is_reserved":false,"is_disabled":false,"rental_uris":{"android":"levelo://app?vid=90c19265-57a1-4fe8-a374-f449486aea64","ios":"levelo://app?vid=90c19265-57a1-4fe8-a374-f449486aea64"},"vehicle_type_id":"4","last_reported":1769012764,"current_range_meters":6800,"station_id":"ce4bgih2rcd13ifvqba0","pricing_plan_id":"cebpf4jnsgd1na2vs0mg"},{"bike_id":"0379376e-0eb6-46fc-a08a-b7751f70a695","system_id":"levelo_inurba_marseille","lat":43.305627,"lon":5.365316,"is_reserved":false,"is_disabled":false,"rental_uris":{"android":"levelo://app?vid=0379376e-0eb6-46fc-a08a-b7751f70a695","ios":"levelo://app?vid=0379376e-0eb6-46fc-a08a-b7751f70a695"},"vehicle_type_id":"4","last_reported":1769012764,"current_range_meters":7200,"station_id":"ce4bgs12rcd13ifvqcag","pricing_plan_id":"cebpf4jnsgd1na2vs0mg"},{"bike_id":"e07cc4c7-f8da-43b9-86b7-9b5a29a91e8f","system_id":"levelo_inurba_marseille","lat":43.27913,"lon":5.38033,"is_reserved":false,"is_disabled":false,"rental_uris":{"android":"levelo://app?vid=e07cc4c7-f8da-43b9-86b7-9b5a29a91e8f","ios":"levelo://app?vid=e07cc4c7-f8da-43b9-86b7-9b5a29a91e8f"},"vehicle_type_id":"4","last_reported":1769012764,"current_range_meters":7200,"station_id":"ce4bhf92rcd13ifvqf50","pricing_plan_id":"cebpf4jnsgd1na2vs0mg"},{"bike_id":"07334ae3-a27a-46ae-b685-938785481481","system_id":"levelo_inurba_marseille","lat":43.28542,"lon":5.44079,"is_reserved":false,"is_disabled":false,"rental_uris":{"android":"levelo://app?vid=07334ae3-a27a-46ae-b685-938785481481","ios":"levelo://app?vid=07334ae3-a27a-46ae-b685-938785481481"},"vehicle_type_id":"4","last_reported":1769012764,"current_range_meters":7200,"station_id":"st_d3j3df2ikq2c7380ej80","pricing_plan_id":"cebpf4jnsgd1na2vs0mg"},{"bike_id":"f3a01c85-86e9-4a7c-837b-602faf4bbfde","system_id":"levelo_inurba_marseille","lat":43.28019,"lon":5.38712,"is_reserved":false,"is_disabled":false,"rental_uris":{"android":"levelo://app?vid=f3a01c85-86e9-4a7c-837b-602faf4bbfde","ios":"levelo://app?vid=f3a01c85-86e9-4a7c-837b-602faf4bbfde"},"vehicle_type_id":"4","last_reported":1769012764,"current_range_meters":7200,"station_id":"","pricing_plan_id":"cebpf4jnsgd1na2vs0mg"},{"bike_id":"054e163b-1e47-4a0a-a038-a7939885860e","system_id":"levelo_inurba_marseille","lat":43.323567,"lon":5.36741,"is_reserved":false,"is_disabled":false,"rental_uris":{"android":"levelo://app?vid=054e163b-1e47-4a0a-a038-a7939885860e","ios":"levelo://app?vid=054e163b-1e47-4a0a-a038-a7939885860e"},"vehicle_type_id":"4","last_reported":1769012764,"current_range_meters":7200,"station_id":"","pricing_plan_id":"cebpf4jnsgd1na2vs0mg"},{"bike_id":"ffabd398-f54b-45bd-9851-1b3115defcf6","system_id":"levelo_inurba_marseille","lat":43.2418,"lon":5.39701,"is_reserved":false,"is_disabled":false,"rental_uris":{"android":"levelo://app?vid=ffabd398-f54b-45bd-9851-1b3115defcf6","ios":"levelo://app?vid=ffabd398-f54b-45bd-9851-1b3115defcf6"},"vehicle_type_id":"4","last_reported":1769012764,"current_range_meters":7200,"station_id":"ce4bhn12rcd13ifvqgpg","pricing_plan_id":"cebpf4jnsgd1na2vs0mg"},{"bike_id":"29ee78ad-8ace-4aba-bb31-12cf83dec1d4","system_id":"levelo_inurba_marseille","lat":43.24649,"lon":5.38893,"is_reserved":false,"is_disabled":false,"rental_uris":{"android":"levelo://app?vid=29ee78ad-8ace-4aba-bb31-12cf83dec1d4","ios":"levelo://app?vid=29ee78ad-8ace-4aba-bb31-12cf83dec1d4"},"vehicle_type_id":"4","last_reported":1769012764,"current_range_meters":7200,"station_id":"ce4bhg12rcd13ifvqf60","pricing_plan_id":"cebpf4jnsgd1na2vs0mg"},{"bike_id":"f2be0d3a-c780-49f9-ac96-5d6cd13e769b","system_id":"levelo_inurba_marseille","lat":43.24552,"lon":5.39537,"is_reserved":false,"is_disabled":false,"rental_uris":{"android":"levelo://app?vid=f2be0d3a-c780-49f9-ac96-5d6cd13e769b","ios":"levelo://app?vid=f2be0d3a-c780-49f9-ac96-5d6cd13e769b"},"vehicle_type_id":"4","last_reported":1769012764,"current_range_meters":7200,"station_id":"ce4bhlp2rcd13ifvqgjg","pricing_plan_id":"cebpf4jnsgd1na2vs0mg"},{"bike_id":"24f5638e-e6c4-4dbb-b4ff-1fcee341538c","system_id":"levelo_inurba_marseille","lat":43.26774,"lon":5.39462,"is_reserved":false,"is_disabled":false,"rental_uris":{"android":"levelo://app?vid=24f5638e-e6c4-4dbb-b4ff-1fcee341538c","ios":"levelo://app?vid=24f5638e-e6c4-4dbb-b4ff-1fcee341538c"},"vehicle_type_id":"4","last_reported":1769012764,"current_range_meters":7200,"station_id":"","pricing_plan_id":"cebpf4jnsgd1na2vs0mg"},{"bike_id":"a9c9651b-31cf-43bd-9ce7-6cec2082a31b","system_id":"levelo_inurba_marseille","lat":43.273671,"lon":5.362628,"is_reserved":false,"is_disabled":false,"rental_uris":{"android":"levelo://app?vid=a9c9651b-31cf-43bd-9ce7-6cec2082a31b","ios":"levelo://app?vid=a9c9651b-31cf-43bd-9ce7-6cec2082a31b"},"vehicle_type_id":"4","last_reported":1769012764,"current_range_meters":7200,"station_id":"ce4bhbh2rcd13ifvqeo0","pricing_plan_id":"cebpf4jnsgd1na2vs0mg"},{"bike_id":"0c39f0d8-be10-4e6d-9b77-03ab45f27e26","system_id":"levelo_inurba_marseille","lat":43.27807,"lon":5.40693,"is_reserved":false,"is_disabled":false,"rental_uris":{"android":"levelo://app?vid=0c39f0d8-be10-4e6d-9b77-03ab45f27e26","ios":"levelo://app?vid=0c39f0d8-be10-4e6d-9b77-03ab45f27e26"},"vehicle_type_id":"4","last_reported":1769012764,"current_range_meters":7200,"station_id":"ce4bhnh2rcd13ifvqgtg","pricing_plan_id":"cebpf4jnsgd1na2vs0mg"},{"bike_id":"7bf2cdba-338f-492c-aadf-49e2d691c7c3","system_id":"levelo_inurba_marseille","lat":43.24654,"lon":5.38164,"is_reserved":false,"is_disabled":false,"rental_uris":{"android":"levelo://app?vid=7bf2cdba-338f-492c-aadf-49e2d691c7c3","ios":"levelo://app?vid=7bf2cdba-338f-492c-aadf-49e2d691c7c3"},"vehicle_type_id":"4","last_reported":1769012764,"current_range_meters":7200,"station_id":"ce4bhih2rcd13ifvqfr0","pricing_plan_id":"cebpf4jnsgd1na2vs0mg"},{"bike_id":"35e1e6b2-f7fb-465a-b4ac-58ae52245472","system_id":"levelo_inurba_marseille","lat":43.25933,"lon":5.409,"is_reserved":false,"is_disabled":false,"rental_uris":{"android":"levelo://app?vid=35e1e6b2-f7fb-465a-b4ac-58ae52245472","ios":"levelo://app?vid=35e1e6b2-f7fb-465a-b4ac-58ae52245472"},"vehicle_type_id":"4","last_reported":1769012764,"current_range_meters":7200,"station_id":"ce4bhm92rcd13ifvqglg","pricing_plan_id":"cebpf4jnsgd1na2vs0mg"},{"bike_id":"4c91f685-8dc9-40fe-a5c1-0abb3aa70f07","system_id":"levelo_inurba_marseille","lat":43.2762,"lon":5.36109,"is_reserved":false,"is_disabled":false,"rental_uris":{"android":"levelo://app?vid=4c91f685-8dc9-40fe-a5c1-0abb3aa70f07","ios":"levelo://app?vid=4c91f685-8dc9-40fe-a5c1-0abb3aa70f07"},"vehicle_type_id":"4","last_reported":1769012764,"current_range_meters":7200,"station_id":"ce4bgj92rcd13ifvqbe0","pricing_plan_id":"cebpf4jnsgd1na2vs0mg"},{"bike_id":"85598b62-9e21-42b9-8216-829b206d084e","system_id":"levelo_inurba_marseille","lat":43.28151,"lon":5.38329,"is_reserved":false,"is_disabled":false,"rental_uris":{"android":"levelo://app?vid=85598b62-9e21-42b9-8216-829b206d084e","ios":"levelo://app?vid=85598b62-9e21-42b9-8216-829b206d084e"},"vehicle_type_id":"4","last_reported":1769012764,"current_range_meters":7200,"station_id":"","pricing_plan_id":"cebpf4jnsgd1na2vs0mg"},{"bike_id":"37d03e6d-5fde-4ae4-b206-d0c565d25b2f","system_id":"levelo_inurba_marseille","lat":43.30792,"lon":5.38151,"is_reserved":false,"is_disabled":false,"rental_uris":{"android":"levelo://app?vid=37d03e6d-5fde-4ae4-b206-d0c565d25b2f","ios":"levelo://app?vid=37d03e6d-5fde-4ae4-b206-d0c565d25b2f"},"vehicle_type_id":"4","last_reported":1769012764,"current_range_meters":7200,"station_id":"ce4bgt12rcd13ifvqce0","pricing_plan_id":"cebpf4jnsgd1na2vs0mg"},{"bike_id":"680c5331-bc27-4ba1-877b-285f359ab6df","system_id":"levelo_inurba_marseille","lat":43.32754,"lon":5.39228,"is_reserved":false,"is_disabled":false,"rental_uris":{"android":"levelo://app?vid=680c5331-bc27-4ba1-877b-285f359ab6df","ios":"levelo://app?vid=680c5331-bc27-4ba1-877b-285f359ab6df"},"vehicle_type_id":"4","last_reported":1769012764,"current_range_meters":7200,"station_id":"","pricing_plan_id":"cebpf4jnsgd1na2vs0mg"},{"bike_id":"87376c51-7b52-4611-acd2-49441baafe3f","system_id":"levelo_inurba_marseille","lat":43.24585,"lon":5.40214,"is_reserved":false,"is_disabled":false,"rental_uris":{"android":"levelo://app?vid=87376c51-7b52-4611-acd2-49441baafe3f","ios":"levelo://app?vid=87376c51-7b52-4611-acd2-49441baafe3f"},"vehicle_type_id":"4","last_reported":1769012764,"current_range_meters":7200,"station_id":"","pricing_plan_id":"cebpf4jnsgd1na2vs0mg"},{"bike_id":"cc08d2b6-69fb-4c32-9f0f-91f88c556b74","system_id":"levelo_inurba_marseille","lat":43.2294,"lon":5.35375,"is_reserved":false,"is_disabled":false,"rental_uris":{"android":"levelo://app?vid=cc08d2b6-69fb-4c32-9f0f-91f88c556b74","ios":"levelo://app?vid=cc08d2b6-69fb-4c32-9f0f-91f88c556b74"},"vehicle_type_id":"4","last_reported":1769012764,"current_range_meters":7200,"station_id":"cpo3532slgdg3j2ikp40","pricing_plan_id":"cebpf4jnsgd1na2vs0mg"},{"bike_id":"43448dd5-9537-449d-8160-6a955b585b98","system_id":"levelo_inurba_marseille","lat":43.25582,"lon":5.3824,"is_reserved":false,"is_disabled":false,"rental_uris":{"android":"levelo://app?vid=43448dd5-9537-449d-8160-6a955b585b98","ios":"levelo://app?vid=43448dd5-9537-449d-8160-6a955b585b98"},"vehicle_type_id":"4","last_reported":1769012764,"current_range_meters":7200,"station_id":"ce4bhih2rcd13ifvqfs0","pricing_plan_id":"cebpf4jnsgd1na2vs0mg"},{"bike_id":"15323a66-193b-4084-987d-2a29bba519f3","system_id":"levelo_inurba_marseille","lat":43.30163,"lon":5.43119,"is_reserved":false,"is_disabled":false,"rental_uris":{"android":"levelo://app?vid=15323a66-193b-4084-987d-2a29bba519f3","ios":"levelo://app?vid=15323a66-193b-4084-987d-2a29bba519f3"},"vehicle_type_id":"4","last_reported":1769012764,"current_range_meters":7200,"station_id":"st_d3js3co5814s73ftftug","pricing_plan_id":"cebpf4jnsgd1na2vs0mg"},{"bike_id":"039e46a1-b205-4952-99a8-416159f7b7c8","system_id":"levelo_inurba_marseille","lat":43.28271,"lon":5.35082,"is_reserved":false,"is_disabled":false,"rental_uris":{"android":"levelo://app?vid=039e46a1-b205-4952-99a8-416159f7b7c8","ios":"levelo://app?vid=039e46a1-b205-4952-99a8-416159f7b7c8"},"vehicle_type_id":"4","last_reported":1769012764,"current_range_meters":7200,"station_id":"ce4bhbp2rcd13ifvqerg","pricing_plan_id":"cebpf4jnsgd1na2vs0mg"},{"bike_id":"045c0c3f-a502-4d81-b288-881f7608660a","system_id":"levelo_inurba_marseille","lat":43.2733,"lon":5.39075,"is_reserved":false,"is_disabled":false,"rental_uris":{"android":"levelo://app?vid=045c0c3f-a502-4d81-b288-881f7608660a","ios":"levelo://app?vid=045c0c3f-a502-4d81-b288-881f7608660a"},"vehicle_type_id":"4","last_reported":1769012764,"current_range_meters":7200,"station_id":"ce4bhgp2rcd13ifvqfe0","pricing_plan_id":"cebpf4jnsgd1na2vs0mg"},{"bike_id":"c055199c-bd62-490e-8577-d64c0f179897","system_id":"levelo_inurba_marseille","lat":43.28531,"lon":5.44092,"is_reserved":false,"is_disabled":false,"rental_uris":{"android":"levelo://app?vid=c055199c-bd62-490e-8577-d64c0f179897","ios":"levelo://app?vid=c055199c-bd62-490e-8577-d64c0f179897"},"vehicle_type_id":"4","last_reported":1769012764,"current_range_meters":7200,"station_id":"st_d3j3df2ikq2c7380ej80","pricing_plan_id":"cebpf4jnsgd1na2vs0mg"},{"bike_id":"beaf6aa9-4cbf-44dd-bec4-ec4006ccecb7","system_id":"levelo_inurba_marseille","lat":43.29964,"lon":5.38494,"is_reserved":false,"is_disabled":false,"rental_uris":{"android":"levelo://app?vid=beaf6aa9-4cbf-44dd-bec4-ec4006ccecb7","ios":"levelo://app?vid=beaf6aa9-4cbf-44dd-bec4-ec4006ccecb7"},"vehicle_type_id":"4","last_reported":1769012764,"current_range_meters":8000,"station_id":"ce4bgj92rcd13ifvqbd0","pricing_plan_id":"cebpf4jnsgd1na2vs0mg"},{"bike_id":"047f864e-c916-4ecb-a53f-221914f1f48a","system_id":"levelo_inurba_marseille","lat":43.29533,"lon":5.38545,"is_reserved":false,"is_disabled":false,"rental_uris":{"android":"levelo://app?vid=047f864e-c916-4ecb-a53f-221914f1f48a","ios":"levelo://app?vid=047f864e-c916-4ecb-a53f-221914f1f48a"},"vehicle_type_id":"4","last_reported":1769012764,"current_range_meters":8000,"station_id":"ce4bgih2rcd13ifvqba0","pricing_plan_id":"cebpf4jnsgd1na2vs0mg"},{"bike_id":"8f239562-586c-4ad1-a5ed-d804cb4bb6f0","system_id":"levelo_inurba_marseille","lat":43.29973,"lon":5.37167,"is_reserved":false,"is_disabled":false,"rental_uris":{"android":"levelo://app?vid=8f239562-586c-4ad1-a5ed-d804cb4bb6f0","ios":"levelo://app?vid=8f239562-586c-4ad1-a5ed-d804cb4bb6f0"},"vehicle_type_id":"4","last_reported":1769012764,"current_range_meters":8000,"station_id":"ce4bgr92rcd13ifvqc7g","pricing_plan_id":"cebpf4jnsgd1na2vs0mg"},{"bike_id":"f1bb088f-7852-4bdc-bd02-6065110d0872","system_id":"levelo_inurba_marseille","lat":43.28537,"lon":5.441005,"is_reserved":false,"is_disabled":false,"rental_uris":{"android":"levelo://app?vid=f1bb088f-7852-4bdc-bd02-6065110d0872","ios":"levelo://app?vid=f1bb088f-7852-4bdc-bd02-6065110d0872"},"vehicle_type_id":"4","last_reported":1769012764,"current_range_meters":8000,"station_id":"st_d3j3df2ikq2c7380ej80","pricing_plan_id":"cebpf4jnsgd1na2vs0mg"},{"bike_id":"19c9b524-76f1-4e5d-8be9-000b11a19079","system_id":"levelo_inurba_marseille","lat":43.250068,"lon":5.389152,"is_reserved":false,"is_disabled":false,"rental_uris":{"android":"levelo://app?vid=19c9b524-76f1-4e5d-8be9-000b11a19079","ios":"levelo://app?vid=19c9b524-76f1-4e5d-8be9-000b11a19079"},"vehicle_type_id":"4","last_reported":1769012764,"current_range_meters":8000,"station_id":"ce4bhgp2rcd13ifvqfd0","pricing_plan_id":"cebpf4jnsgd1na2vs0mg"},{"bike_id":"fe2a828f-710f-491e-b529-f22ca09a8365","system_id":"levelo_inurba_marseille","lat":43.307341,"lon":5.409478,"is_reserved":false,"is_disabled":false,"rental_uris":{"android":"levelo://app?vid=fe2a828f-710f-491e-b529-f22ca09a8365","ios":"levelo://app?vid=fe2a828f-710f-491e-b529-f22ca09a8365"},"vehicle_type_id":"4","last_reported":1769012764,"current_range_meters":8000,"station_id":"","pricing_plan_id":"cebpf4jnsgd1na2vs0mg"},{"bike_id":"d9fff92a-3943-4a01-98e1-7c430b29f114","system_id":"levelo_inurba_marseille","lat":43.27988,"lon":5.41673,"is_reserved":false,"is_disabled":false,"rental_uris":{"android":"levelo://app?vid=d9fff92a-3943-4a01-98e1-7c430b29f114","ios":"levelo://app?vid=d9fff92a-3943-4a01-98e1-7c430b29f114"},"vehicle_type_id":"4","last_reported":1769012764,"current_range_meters":8000,"station_id":"ce4bho12rcd13ifvqh1g","pricing_plan_id":"cebpf4jnsgd1na2vs0mg"},{"bike_id":"eaad7dcc-c797-4d78-96ea-aa702bdcc172","system_id":"levelo_inurba_marseille","lat":43.315306,"lon":5.38023,"is_reserved":false,"is_disabled":false,"rental_uris":{"android":"levelo://app?vid=eaad7dcc-c797-4d78-96ea-aa702bdcc172","ios":"levelo://app?vid=eaad7dcc-c797-4d78-96ea-aa702bdcc172"},"vehicle_type_id":"4","last_reported":1769012764,"current_range_meters":8000,"station_id":"ce4bhsp2rcd13ifvqi50","pricing_plan_id":"cebpf4jnsgd1na2vs0mg"},{"bike_id":"f6de2d43-1f49-448d-9d89-c685ca8fe5a3","system_id":"levelo_inurba_marseille","lat":43.3054,"lon":5.36553,"is_reserved":false,"is_disabled":false,"rental_uris":{"android":"levelo://app?vid=f6de2d43-1f49-448d-9d89-c685ca8fe5a3","ios":"levelo://app?vid=f6de2d43-1f49-448d-9d89-c685ca8fe5a3"},"vehicle_type_id":"4","last_reported":1769012764,"current_range_meters":8000,"station_id":"ce4bgs12rcd13ifvqcag","pricing_plan_id":"cebpf4jnsgd1na2vs0mg"},{"bike_id":"42e2f836-f732-42d5-89f6-46970f6ef1a5","system_id":"levelo_inurba_marseille","lat":43.30315,"lon":5.36895,"is_reserved":false,"is_disabled":false,"rental_uris":{"android":"levelo://app?vid=42e2f836-f732-42d5-89f6-46970f6ef1a5","ios":"levelo://app?vid=42e2f836-f732-42d5-89f6-46970f6ef1a5"},"vehicle_type_id":"4","last_reported":1769012764,"current_range_meters":8000,"station_id":"ce4bgqh2rcd13ifvqc5g","pricing_plan_id":"cebpf4jnsgd1na2vs0mg"},{"bike_id":"0b64e895-792b-4498-9172-5f40249c5668","system_id":"levelo_inurba_marseille","lat":43.26048,"lon":5.39376,"is_reserved":false,"is_disabled":false,"rental_uris":{"android":"levelo://app?vid=0b64e895-792b-4498-9172-5f40249c5668","ios":"levelo://app?vid=0b64e895-792b-4498-9172-5f40249c5668"},"vehicle_type_id":"4","last_reported":1769012764,"current_range_meters":8000,"station_id":"ce4bhh92rcd13ifvqfj0","pricing_plan_id":"cebpf4jnsgd1na2vs0mg"},{"bike_id":"4e85fa8c-57e3-4e36-a297-3393787ad757","system_id":"levelo_inurba_marseille","lat":43.29259,"lon":5.40907,"is_reserved":false,"is_disabled":false,"rental_uris":{"android":"levelo://app?vid=4e85fa8c-57e3-4e36-a297-3393787ad757","ios":"levelo://app?vid=4e85fa8c-57e3-4e36-a297-3393787ad757"},"vehicle_type_id":"4","last_reported":1769012764,"current_range_meters":8000,"station_id":"ce4bh192rcd13ifvqdc0","pricing_plan_id":"cebpf4jnsgd1na2vs0mg"},{"bike_id":"d68cd528-87dc-4a28-8471-721b0cea6df0","system_id":"levelo_inurba_marseille","lat":43.28153,"lon":5.39212,"is_reserved":false,"is_disabled":false,"rental_uris":{"android":"levelo://app?vid=d68cd528-87dc-4a28-8471-721b0cea6df0","ios":"levelo://app?vid=d68cd528-87dc-4a28-8471-721b0cea6df0"},"vehicle_type_id":"4","last_reported":1769012764,"current_range_meters":8000,"station_id":"","pricing_plan_id":"cebpf4jnsgd1na2vs0mg"},{"bike_id":"6ec86b6a-11af-44ec-aa58-beb1b9c8a19f","system_id":"levelo_inurba_marseille","lat":43.32483,"lon":5.36575,"is_reserved":false,"is_disabled":false,"rental_uris":{"android":"levelo://app?vid=6ec86b6a-11af-44ec-aa58-beb1b9c8a19f","ios":"levelo://app?vid=6ec86b6a-11af-44ec-aa58-beb1b9c8a19f"},"vehicle_type_id":"4","last_reported":1769012764,"current_range_meters":8000,"station_id":"ce4bhs12rcd13ifvqhvg","pricing_plan_id":"cebpf4jnsgd1na2vs0mg"},{"bike_id":"e60b80c1-e035-4d06-8dfd-6a5996278e1f","system_id":"levelo_inurba_marseille","lat":43.244656,"lon":5.425171,"is_reserved":false,"is_disabled":false,"rental_uris":{"android":"levelo://app?vid=e60b80c1-e035-4d06-8dfd-6a5996278e1f","ios":"levelo://app?vid=e60b80c1-e035-4d06-8dfd-6a5996278e1f"},"vehicle_type_id":"4","last_reported":1769012764,"current_range_meters":8000,"station_id":"st_d4a3vfp97mjs738cd8kg","pricing_plan_id":"cebpf4jnsgd1na2vs0mg"},{"bike_id":"131d083d-d299-49de-ae79-91ebeb210640","system_id":"levelo_inurba_marseille","lat":43.25725,"lon":5.41805,"is_reserved":false,"is_disabled":false,"rental_uris":{"android":"levelo://app?vid=131d083d-d299-49de-ae79-91ebeb210640","ios":"levelo://app?vid=131d083d-d299-49de-ae79-91ebeb210640"},"vehicle_type_id":"4","last_reported":1769012764,"current_range_meters":8000,"station_id":"","pricing_plan_id":"cebpf4jnsgd1na2vs0mg"},{"bike_id":"89376639-26fc-4bcb-9f21-690b14251cb6","system_id":"levelo_inurba_marseille","lat":43.27327,"lon":5.39081,"is_reserved":false,"is_disabled":false,"rental_uris":{"android":"levelo://app?vid=89376639-26fc-4bcb-9f21-690b14251cb6","ios":"levelo://app?vid=89376639-26fc-4bcb-9f21-690b14251cb6"},"vehicle_type_id":"4","last_reported":1769012764,"current_range_meters":8000,"station_id":"ce4bhgp2rcd13ifvqfe0","pricing_plan_id":"cebpf4jnsgd1na2vs0mg"},{"bike_id":"ae81f703-6fce-4689-aec6-93c71bd3ec52","system_id":"levelo_inurba_marseille","lat":43.30551,"lon":5.36527,"is_reserved":false,"is_disabled":false,"rental_uris":{"android":"levelo://app?vid=ae81f703-6fce-4689-aec6-93c71bd3ec52","ios":"levelo://app?vid=ae81f703-6fce-4689-aec6-93c71bd3ec52"},"vehicle_type_id":"4","last_reported":1769012764,"current_range_meters":8000,"station_id":"ce4bgs12rcd13ifvqcag","pricing_plan_id":"cebpf4jnsgd1na2vs0mg"},{"bike_id":"be769fd2-e0f2-434c-a844-074b28c71c90","system_id":"levelo_inurba_marseille","lat":43.25936,"lon":5.40906,"is_reserved":false,"is_disabled":false,"rental_uris":{"android":"levelo://app?vid=be769fd2-e0f2-434c-a844-074b28c71c90","ios":"levelo://app?vid=be769fd2-e0f2-434c-a844-074b28c71c90"},"vehicle_type_id":"4","last_reported":1769012764,"current_range_meters":8400,"station_id":"ce4bhm92rcd13ifvqglg","pricing_plan_id":"cebpf4jnsgd1na2vs0mg"},{"bike_id":"ebc59118-e1a4-482d-84d0-eafb34b0b9ea","system_id":"levelo_inurba_marseille","lat":43.23777,"lon":5.36632,"is_reserved":false,"is_disabled":false,"rental_uris":{"android":"levelo://app?vid=ebc59118-e1a4-482d-84d0-eafb34b0b9ea","ios":"levelo://app?vid=ebc59118-e1a4-482d-84d0-eafb34b0b9ea"},"vehicle_type_id":"4","last_reported":1769012764,"current_range_meters":8400,"station_id":"st_d3nk18o9ro0c73en2l3g","pricing_plan_id":"cebpf4jnsgd1na2vs0mg"},{"bike_id":"90fd9743-abf7-4844-951b-b0c621e30ae6","system_id":"levelo_inurba_marseille","lat":43.309015,"lon":5.368569,"is_reserved":false,"is_disabled":false,"rental_uris":{"android":"levelo://app?vid=90fd9743-abf7-4844-951b-b0c621e30ae6","ios":"levelo://app?vid=90fd9743-abf7-4844-951b-b0c621e30ae6"},"vehicle_type_id":"4","last_reported":1769012764,"current_range_meters":8400,"station_id":"ce4bgn92rcd13ifvqbvg","pricing_plan_id":"cebpf4jnsgd1na2vs0mg"},{"bike_id":"fddbb7cb-a21d-46ff-8d07-df9eecd44019","system_id":"levelo_inurba_marseille","lat":43.32094,"lon":5.36767,"is_reserved":false,"is_disabled":false,"rental_uris":{"android":"levelo://app?vid=fddbb7cb-a21d-46ff-8d07-df9eecd44019","ios":"levelo://app?vid=fddbb7cb-a21d-46ff-8d07-df9eecd44019"},"vehicle_type_id":"4","last_reported":1769012764,"current_range_meters":8400,"station_id":"ce4bhrh2rcd13ifvqhug","pricing_plan_id":"cebpf4jnsgd1na2vs0mg"},{"bike_id":"bf9df301-dc0d-41cc-96a1-27301e9f819b","system_id":"levelo_inurba_marseille","lat":43.28482,"lon":5.48395,"is_reserved":false,"is_disabled":false,"rental_uris":{"android":"levelo://app?vid=bf9df301-dc0d-41cc-96a1-27301e9f819b","ios":"levelo://app?vid=bf9df301-dc0d-41cc-96a1-27301e9f819b"},"vehicle_type_id":"4","last_reported":1769012764,"current_range_meters":8400,"station_id":"","pricing_plan_id":"cebpf4jnsgd1na2vs0mg"},{"bike_id":"3a05cc6e-50be-46aa-996b-cd6b30cbdddf","system_id":"levelo_inurba_marseille","lat":43.26684,"lon":5.38276,"is_reserved":false,"is_disabled":false,"rental_uris":{"android":"levelo://app?vid=3a05cc6e-50be-46aa-996b-cd6b30cbdddf","ios":"levelo://app?vid=3a05cc6e-50be-46aa-996b-cd6b30cbdddf"},"vehicle_type_id":"4","last_reported":1769012764,"current_range_meters":8400,"station_id":"ce4bhg92rcd13ifvqf90","pricing_plan_id":"cebpf4jnsgd1na2vs0mg"},{"bike_id":"800ac751-b72d-4eb8-b5ef-7e899db1abd8","system_id":"levelo_inurba_marseille","lat":43.32721,"lon":5.39256,"is_reserved":false,"is_disabled":false,"rental_uris":{"android":"levelo://app?vid=800ac751-b72d-4eb8-b5ef-7e899db1abd8","ios":"levelo://app?vid=800ac751-b72d-4eb8-b5ef-7e899db1abd8"},"vehicle_type_id":"4","last_reported":1769012764,"current_range_meters":8400,"station_id":"","pricing_plan_id":"cebpf4jnsgd1na2vs0mg"},{"bike_id":"6ce190b6-c466-4ac6-bb9d-9cc75b2398c8","system_id":"levelo_inurba_marseille","lat":43.30951,"lon":5.39043,"is_reserved":false,"is_disabled":false,"rental_uris":{"android":"levelo://app?vid=6ce190b6-c466-4ac6-bb9d-9cc75b2398c8","ios":"levelo://app?vid=6ce190b6-c466-4ac6-bb9d-9cc75b2398c8"},"vehicle_type_id":"4","last_reported":1769012764,"current_range_meters":8400,"station_id":"ce4bgup2rcd13ifvqco0","pricing_plan_id":"cebpf4jnsgd1na2vs0mg"},{"bike_id":"488d3d36-c3f0-4390-80be-f0194a76248a","system_id":"levelo_inurba_marseille","lat":43.25576,"lon":5.40422,"is_reserved":false,"is_disabled":false,"rental_uris":{"android":"levelo://app?vid=488d3d36-c3f0-4390-80be-f0194a76248a","ios":"levelo://app?vid=488d3d36-c3f0-4390-80be-f0194a76248a"},"vehicle_type_id":"4","last_reported":1769012764,"current_range_meters":8400,"station_id":"","pricing_plan_id":"cebpf4jnsgd1na2vs0mg"},{"bike_id":"aec5c08c-9f05-47e9-bb02-2d63b83fc483","system_id":"levelo_inurba_marseille","lat":43.26758,"lon":5.39242,"is_reserved":false,"is_disabled":false,"rental_uris":{"android":"levelo://app?vid=aec5c08c-9f05-47e9-bb02-2d63b83fc483","ios":"levelo://app?vid=aec5c08c-9f05-47e9-bb02-2d63b83fc483"},"vehicle_type_id":"4","last_reported":1769012764,"current_range_meters":8400,"station_id":"","pricing_plan_id":"cebpf4jnsgd1na2vs0mg"},{"bike_id":"42ad3ecc-0a5c-4850-9931-a019c27979e1","system_id":"levelo_inurba_marseille","lat":43.28617,"lon":5.35095,"is_reserved":false,"is_disabled":false,"rental_uris":{"android":"levelo://app?vid=42ad3ecc-0a5c-4850-9931-a019c27979e1","ios":"levelo://app?vid=42ad3ecc-0a5c-4850-9931-a019c27979e1"},"vehicle_type_id":"4","last_reported":1769012764,"current_range_meters":8400,"station_id":"ce4bhch2rcd13ifvqeug","pricing_plan_id":"cebpf4jnsgd1na2vs0mg"},{"bike_id":"83461687-2d6f-44e3-8195-fb721f9fb181","system_id":"levelo_inurba_marseille","lat":43.28467,"lon":5.48404,"is_reserved":false,"is_disabled":false,"rental_uris":{"android":"levelo://app?vid=83461687-2d6f-44e3-8195-fb721f9fb181","ios":"levelo://app?vid=83461687-2d6f-44e3-8195-fb721f9fb181"},"vehicle_type_id":"4","last_reported":1769012764,"current_range_meters":8400,"station_id":"","pricing_plan_id":"cebpf4jnsgd1na2vs0mg"},{"bike_id":"b14b7864-c78c-4d3b-8985-7705cba3866f","system_id":"levelo_inurba_marseille","lat":43.2293,"lon":5.35379,"is_reserved":false,"is_disabled":false,"rental_uris":{"android":"levelo://app?vid=b14b7864-c78c-4d3b-8985-7705cba3866f","ios":"levelo://app?vid=b14b7864-c78c-4d3b-8985-7705cba3866f"},"vehicle_type_id":"4","last_reported":1769012764,"current_range_meters":8400,"station_id":"cpo3532slgdg3j2ikp40","pricing_plan_id":"cebpf4jnsgd1na2vs0mg"},{"bike_id":"fcc38dd0-d054-4ca5-aa92-f2800c06f9a2","system_id":"levelo_inurba_marseille","lat":43.25343,"lon":5.4217,"is_reserved":false,"is_disabled":false,"rental_uris":{"android":"levelo://app?vid=fcc38dd0-d054-4ca5-aa92-f2800c06f9a2","ios":"levelo://app?vid=fcc38dd0-d054-4ca5-aa92-f2800c06f9a2"},"vehicle_type_id":"4","last_reported":1769012764,"current_range_meters":8400,"station_id":"st_d2m65c5bi1j21697t3ng","pricing_plan_id":"cebpf4jnsgd1na2vs0mg"},{"bike_id":"ecfc27b6-0c9d-4736-9411-d84a0608e0ae","system_id":"levelo_inurba_marseille","lat":43.278123,"lon":5.407177,"is_reserved":false,"is_disabled":true,"rental_uris":{"android":"levelo://app?vid=ecfc27b6-0c9d-4736-9411-d84a0608e0ae","ios":"levelo://app?vid=ecfc27b6-0c9d-4736-9411-d84a0608e0ae"},"vehicle_type_id":"4","last_reported":1769012764,"current_range_meters":8400,"station_id":"ce4bhnh2rcd13ifvqgtg","pricing_plan_id":"cebpf4jnsgd1na2vs0mg"},{"bike_id":"19c9b4d2-1ea0-4167-80ed-614d6330d907","system_id":"levelo_inurba_marseille","lat":43.23192,"lon":5.39981,"is_reserved":false,"is_disabled":false,"rental_uris":{"android":"levelo://app?vid=19c9b4d2-1ea0-4167-80ed-614d6330d907","ios":"levelo://app?vid=19c9b4d2-1ea0-4167-80ed-614d6330d907"},"vehicle_type_id":"4","last_reported":1769012764,"current_range_meters":8400,"station_id":"ce4bhn12rcd13ifvqgqg","pricing_plan_id":"cebpf4jnsgd1na2vs0mg"},{"bike_id":"db5c533d-ad6a-4cca-9da6-b7b91ac05bc1","system_id":"levelo_inurba_marseille","lat":43.21758,"lon":5.34606,"is_reserved":false,"is_disabled":false,"rental_uris":{"android":"levelo://app?vid=db5c533d-ad6a-4cca-9da6-b7b91ac05bc1","ios":"levelo://app?vid=db5c533d-ad6a-4cca-9da6-b7b91ac05bc1"},"vehicle_type_id":"4","last_reported":1769012764,"current_range_meters":8400,"station_id":"st_cvj6r9ubvosntc0bgbag","pricing_plan_id":"cebpf4jnsgd1na2vs0mg"},{"bike_id":"d8903209-6fa2-4155-9052-85954318829d","system_id":"levelo_inurba_marseille","lat":43.24178,"lon":5.39721,"is_reserved":false,"is_disabled":false,"rental_uris":{"android":"levelo://app?vid=d8903209-6fa2-4155-9052-85954318829d","ios":"levelo://app?vid=d8903209-6fa2-4155-9052-85954318829d"},"vehicle_type_id":"4","last_reported":1769012764,"current_range_meters":8400,"station_id":"ce4bhn12rcd13ifvqgpg","pricing_plan_id":"cebpf4jnsgd1na2vs0mg"},{"bike_id":"f90d591e-6a6d-42e1-8113-46d220044075","system_id":"levelo_inurba_marseille","lat":43.27371,"lon":5.36259,"is_reserved":false,"is_disabled":false,"rental_uris":{"android":"levelo://app?vid=f90d591e-6a6d-42e1-8113-46d220044075","ios":"levelo://app?vid=f90d591e-6a6d-42e1-8113-46d220044075"},"vehicle_type_id":"4","last_reported":1769012764,"current_range_meters":8800,"station_id":"ce4bhbh2rcd13ifvqeo0","pricing_plan_id":"cebpf4jnsgd1na2vs0mg"},{"bike_id":"0fb3d036-2071-4d4b-a99c-0b94be6cfd65","system_id":"levelo_inurba_marseille","lat":43.28184,"lon":5.42649,"is_reserved":false,"is_disabled":false,"rental_uris":{"android":"levelo://app?vid=0fb3d036-2071-4d4b-a99c-0b94be6cfd65","ios":"levelo://app?vid=0fb3d036-2071-4d4b-a99c-0b94be6cfd65"},"vehicle_type_id":"4","last_reported":1769012764,"current_range_meters":8800,"station_id":"ce4bhnh2rcd13ifvqgug","pricing_plan_id":"cebpf4jnsgd1na2vs0mg"},{"bike_id":"ae082b45-528d-4d2d-a946-c7dc2ab87b58","system_id":"levelo_inurba_marseille","lat":43.27375,"lon":5.36245,"is_reserved":false,"is_disabled":false,"rental_uris":{"android":"levelo://app?vid=ae082b45-528d-4d2d-a946-c7dc2ab87b58","ios":"levelo://app?vid=ae082b45-528d-4d2d-a946-c7dc2ab87b58"},"vehicle_type_id":"4","last_reported":1769012764,"current_range_meters":8800,"station_id":"ce4bhbh2rcd13ifvqeo0","pricing_plan_id":"cebpf4jnsgd1na2vs0mg"},{"bike_id":"4811d5ca-4ba8-4e04-9f2c-15071aa09c8b","system_id":"levelo_inurba_marseille","lat":43.284,"lon":5.37518,"is_reserved":false,"is_disabled":false,"rental_uris":{"android":"levelo://app?vid=4811d5ca-4ba8-4e04-9f2c-15071aa09c8b","ios":"levelo://app?vid=4811d5ca-4ba8-4e04-9f2c-15071aa09c8b"},"vehicle_type_id":"4","last_reported":1769012764,"current_range_meters":8800,"station_id":"ce4bh412rcd13ifvqds0","pricing_plan_id":"cebpf4jnsgd1na2vs0mg"},{"bike_id":"c3a2f5ff-349d-4d17-adef-94ad6293c23b","system_id":"levelo_inurba_marseille","lat":43.29528,"lon":5.39052,"is_reserved":false,"is_disabled":false,"rental_uris":{"android":"levelo://app?vid=c3a2f5ff-349d-4d17-adef-94ad6293c23b","ios":"levelo://app?vid=c3a2f5ff-349d-4d17-adef-94ad6293c23b"},"vehicle_type_id":"4","last_reported":1769012764,"current_range_meters":8800,"station_id":"ce4bh3p2rcd13ifvqdp0","pricing_plan_id":"cebpf4jnsgd1na2vs0mg"},{"bike_id":"bf7d9e73-b9c3-4d40-8ec3-4466cd35aed1","system_id":"levelo_inurba_marseille","lat":43.30632,"lon":5.40078,"is_reserved":false,"is_disabled":false,"rental_uris":{"android":"levelo://app?vid=bf7d9e73-b9c3-4d40-8ec3-4466cd35aed1","ios":"levelo://app?vid=bf7d9e73-b9c3-4d40-8ec3-4466cd35aed1"},"vehicle_type_id":"4","last_reported":1769012764,"current_range_meters":8800,"station_id":"ce4bh112rcd13ifvqda0","pricing_plan_id":"cebpf4jnsgd1na2vs0mg"},{"bike_id":"4170916e-f70d-4de8-9cd7-0569ec797e95","system_id":"levelo_inurba_marseille","lat":43.25503,"lon":5.37653,"is_reserved":false,"is_disabled":false,"rental_uris":{"android":"levelo://app?vid=4170916e-f70d-4de8-9cd7-0569ec797e95","ios":"levelo://app?vid=4170916e-f70d-4de8-9cd7-0569ec797e95"},"vehicle_type_id":"4","last_reported":1769012764,"current_range_meters":8800,"station_id":"ce4bhh12rcd13ifvqff0","pricing_plan_id":"cebpf4jnsgd1na2vs0mg"},{"bike_id":"22bc6d8e-7e0c-4234-afe0-c88e2589ac70","system_id":"levelo_inurba_marseille","lat":43.27105,"lon":5.39842,"is_reserved":false,"is_disabled":false,"rental_uris":{"android":"levelo://app?vid=22bc6d8e-7e0c-4234-afe0-c88e2589ac70","ios":"levelo://app?vid=22bc6d8e-7e0c-4234-afe0-c88e2589ac70"},"vehicle_type_id":"4","last_reported":1769012764,"current_range_meters":8800,"station_id":"","pricing_plan_id":"cebpf4jnsgd1na2vs0mg"},{"bike_id":"63550df3-d87e-4087-bfb2-31599e2ca646","system_id":"levelo_inurba_marseille","lat":43.25818,"lon":5.39431,"is_reserved":false,"is_disabled":false,"rental_uris":{"android":"levelo://app?vid=63550df3-d87e-4087-bfb2-31599e2ca646","ios":"levelo://app?vid=63550df3-d87e-4087-bfb2-31599e2ca646"},"vehicle_type_id":"4","last_reported":1769012764,"current_range_meters":8800,"station_id":"ce4bhip2rcd13ifvqft0","pricing_plan_id":"cebpf4jnsgd1na2vs0mg"},{"bike_id":"707d746c-6304-4c0b-bdf7-9e705ef4a7a0","system_id":"levelo_inurba_marseille","lat":43.27798,"lon":5.40704,"is_reserved":false,"is_disabled":false,"rental_uris":{"android":"levelo://app?vid=707d746c-6304-4c0b-bdf7-9e705ef4a7a0","ios":"levelo://app?vid=707d746c-6304-4c0b-bdf7-9e705ef4a7a0"},"vehicle_type_id":"4","last_reported":1769012764,"current_range_meters":8800,"station_id":"ce4bhnh2rcd13ifvqgtg","pricing_plan_id":"cebpf4jnsgd1na2vs0mg"},{"bike_id":"0010bb61-fe35-42a9-b909-60f5305e538e","system_id":"levelo_inurba_marseille","lat":43.25832,"lon":5.3941,"is_reserved":false,"is_disabled":false,"rental_uris":{"android":"levelo://app?vid=0010bb61-fe35-42a9-b909-60f5305e538e","ios":"levelo://app?vid=0010bb61-fe35-42a9-b909-60f5305e538e"},"vehicle_type_id":"4","last_reported":1769012764,"current_range_meters":8800,"station_id":"ce4bhip2rcd13ifvqft0","pricing_plan_id":"cebpf4jnsgd1na2vs0mg"},{"bike_id":"5cad2eef-e31e-4735-a004-19f3a53583ff","system_id":"levelo_inurba_marseille","lat":43.30554,"lon":5.36538,"is_reserved":false,"is_disabled":false,"rental_uris":{"android":"levelo://app?vid=5cad2eef-e31e-4735-a004-19f3a53583ff","ios":"levelo://app?vid=5cad2eef-e31e-4735-a004-19f3a53583ff"},"vehicle_type_id":"4","last_reported":1769012764,"current_range_meters":8800,"station_id":"ce4bgs12rcd13ifvqcag","pricing_plan_id":"cebpf4jnsgd1na2vs0mg"},{"bike_id":"bc1749f2-e201-428b-aae0-5e7b316293ca","system_id":"levelo_inurba_marseille","lat":43.29506,"lon":5.37807,"is_reserved":false,"is_disabled":false,"rental_uris":{"android":"levelo://app?vid=bc1749f2-e201-428b-aae0-5e7b316293ca","ios":"levelo://app?vid=bc1749f2-e201-428b-aae0-5e7b316293ca"},"vehicle_type_id":"4","last_reported":1769012764,"current_range_meters":8800,"station_id":"","pricing_plan_id":"cebpf4jnsgd1na2vs0mg"},{"bike_id":"6c204b96-83b8-46f9-8fc7-4380bedb2b62","system_id":"levelo_inurba_marseille","lat":43.27329,"lon":5.39084,"is_reserved":false,"is_disabled":false,"rental_uris":{"android":"levelo://app?vid=6c204b96-83b8-46f9-8fc7-4380bedb2b62","ios":"levelo://app?vid=6c204b96-83b8-46f9-8fc7-4380bedb2b62"},"vehicle_type_id":"4","last_reported":1769012764,"current_range_meters":8800,"station_id":"ce4bhgp2rcd13ifvqfe0","pricing_plan_id":"cebpf4jnsgd1na2vs0mg"},{"bike_id":"fc5d102e-6a36-4a5b-99d5-23cf30eec9b5","system_id":"levelo_inurba_marseille","lat":43.23192,"lon":5.3555,"is_reserved":false,"is_disabled":false,"rental_uris":{"android":"levelo://app?vid=fc5d102e-6a36-4a5b-99d5-23cf30eec9b5","ios":"levelo://app?vid=fc5d102e-6a36-4a5b-99d5-23cf30eec9b5"},"vehicle_type_id":"4","last_reported":1769012764,"current_range_meters":9200,"station_id":"ce4bhu92rcd13ifvqi70","pricing_plan_id":"cebpf4jnsgd1na2vs0mg"},{"bike_id":"82187fbb-1ace-4e56-872d-48253f7ed51f","system_id":"levelo_inurba_marseille","lat":43.29307,"lon":5.37459,"is_reserved":false,"is_disabled":false,"rental_uris":{"android":"levelo://app?vid=82187fbb-1ace-4e56-872d-48253f7ed51f","ios":"levelo://app?vid=82187fbb-1ace-4e56-872d-48253f7ed51f"},"vehicle_type_id":"4","last_reported":1769012764,"current_range_meters":9200,"station_id":"ce4bgi12rcd13ifvqb70","pricing_plan_id":"cebpf4jnsgd1na2vs0mg"},{"bike_id":"bd3222b3-dffe-4214-a25c-da1b23e1c71b","system_id":"levelo_inurba_marseille","lat":43.3235,"lon":5.36753,"is_reserved":false,"is_disabled":false,"rental_uris":{"android":"levelo://app?vid=bd3222b3-dffe-4214-a25c-da1b23e1c71b","ios":"levelo://app?vid=bd3222b3-dffe-4214-a25c-da1b23e1c71b"},"vehicle_type_id":"4","last_reported":1769012764,"current_range_meters":9200,"station_id":"ce4bhsh2rcd13ifvqi2g","pricing_plan_id":"cebpf4jnsgd1na2vs0mg"},{"bike_id":"f7c73976-0c54-45d7-97d8-658965ad58a7","system_id":"levelo_inurba_marseille","lat":43.28944,"lon":5.39642,"is_reserved":false,"is_disabled":false,"rental_uris":{"android":"levelo://app?vid=f7c73976-0c54-45d7-97d8-658965ad58a7","ios":"levelo://app?vid=f7c73976-0c54-45d7-97d8-658965ad58a7"},"vehicle_type_id":"4","last_reported":1769012764,"current_range_meters":9200,"station_id":"ce4bh3h2rcd13ifvqdn0","pricing_plan_id":"cebpf4jnsgd1na2vs0mg"},{"bike_id":"4b5aa404-a223-4202-a9b4-4364010f0fb4","system_id":"levelo_inurba_marseille","lat":43.337644,"lon":5.374705,"is_reserved":false,"is_disabled":false,"rental_uris":{"android":"levelo://app?vid=4b5aa404-a223-4202-a9b4-4364010f0fb4","ios":"levelo://app?vid=4b5aa404-a223-4202-a9b4-4364010f0fb4"},"vehicle_type_id":"4","last_reported":1769012764,"current_range_meters":9200,"station_id":"","pricing_plan_id":"cebpf4jnsgd1na2vs0mg"},