{"last_updated":1713204568,"ttl":30,"version":"2.2","data":{"bikes":[{"bike_id":"9829b91d-ec7e-4570-9def-888294f98ad5","system_id":"levelo_inurba_marseille","lat":43.31341,"lon":5.367098,"is_reserved":false,"is_disabled":false,"rental_uris":{"android":"levelo://app?vid=9829b91d-ec7e-4570-9def-888294f98ad5","ios":"levelo://app?vid=9829b91d-ec7e-4570-9def-888294f98ad5"},"vehicle_type_id":"4","last_reported":1713204568,"current_range_meters":6400,"station_id":"ce4bgr92rcd13ifvqc6g","pricing_plan_id":"cebpf4jnsgd1na2vs0mg"},{"bike_id":"15c1cacd-6a68-45f0-bc9b-625607bab80f","system_id":"levelo_inurba_marseille","lat":43.312239,"lon":5.368562,"is_reserved":false,"is_disabled":false,"rental_uris":{"android":"levelo://app?vid=15c1cacd-6a68-45f0-bc9b-625607bab80f","ios":"levelo://app?vid=15c1cacd-6a68-45f0-bc9b-625607bab80f"},"vehicle_type_id":"4","last_reported":1713204568,"current_range_meters":4000,"station_id":"ce4bgl92rcd13ifvqbq0","pricing_plan_id":"cebpf4jnsgd1na2vs0mg"},{"bike_id":"e7fd6028-98b7-4142-82f0-af5167d3bf19","system_id":"levelo_inurba_marseille","lat":43.309076,"lon":5.368465,"is_reserved":false,"is_disabled":false,"rental_uris":{"android":"levelo://app?vid=e7fd6028-98b7-4142-82f0-af5167d3bf19","ios":"levelo://app?vid=e7fd6028-98b7-4142-82f0-af5167d3bf19"},"vehicle_type_id":"4","last_reported":1713204568,"current_range_meters":14000,"station_id":"ce4bgn92rcd13ifvqbvg","pricing_plan_id":"cebpf4jnsgd1na2vs0mg"},{"bike_id":"75cf029a-176e-43f5-8afe-a04a417e6483","system_id":"levelo_inurba_marseille","lat":43.315289,"lon":5.380349,"is_reserved":false,"is_disabled":false,"rental_uris":{"android":"levelo://app?vid=75cf029a-176e-43f5-8afe-a04a417e6483","ios":"levelo://app?vid=75cf029a-176e-43f5-8afe-a04a417e6483"},"vehicle_type_id":"4","last_reported":1713204568,"current_range_meters":0,"station_id":"ce4bhsp2rcd13ifvqi50","pricing_plan_id":"cebpf4jnsgd1na2vs0mg"},{"bike_id":"76875ad9-5315-4c75-a841-2eb262d51731","system_id":"levelo_inurba_marseille","lat":43.30909,"lon":5.368473,"is_reserved":false,"is_disabled":false,"rental_uris":{"android":"levelo://app?vid=76875ad9-5315-4c75-a841-2eb262d51731","ios":"levelo://app?vid=76875ad9-5315-4c75-a841-2eb262d51731"},"vehicle_type_id":"4","last_reported":1713204568,"current_range_meters":0,"station_id":"ce4bgn92rcd13ifvqbvg","pricing_plan_id":"cebpf4jnsgd1na2vs0mg"},{"bike_id":"a1d48e4b-30d4-4eb4-8fe5-1ac48c76f873","system_id":"levelo_inurba_marseille","lat":43.314811,"lon":5.373103,"is_reserved":false,"is_disabled":false,"rental_uris":{"android":"levelo://app?vid=a1d48e4b-30d4-4eb4-8fe5-1ac48c76f873","ios":"levelo://app?vid=a1d48e4b-30d4-4eb4-8fe5-1ac48c76f873"},"vehicle_type_id":"4","last_reported":1713204568,"current_range_meters":6400,"station_id":"ce4bgt12rcd13ifvqcd0","pricing_plan_id":"cebpf4jnsgd1na2vs0mg"},{"bike_id":"67d5f558-cfe4-4e65-b29c-970eeb61c005","system_id":"levelo_inurba_marseille","lat":43.30886,"lon":5.37202,"is_reserved":false,"is_disabled":false,"rental_uris":{"android":"levelo://app?vid=67d5f558-cfe4-4e65-b29c-970eeb61c005","ios":"levelo://app?vid=67d5f558-cfe4-4e65-b29c-970eeb61c005"},"vehicle_type_id":"4","last_reported":1713204568,"current_range_meters":0,"station_id":"ce4bguh2rcd13ifvqckg","pricing_plan_id":"cebpf4jnsgd1na2vs0mg"},{"bike_id":"772e81c0-7d82-450f-9ac9-15dbc0b69f9f","system_id":"levelo_inurba_marseille","lat":43.30532,"lon":5.36717,"is_reserved":false,"is_disabled":false,"rental_uris":{"android":"levelo://app?vid=772e81c0-7d82-450f-9ac9-15dbc0b69f9f","ios":"levelo://app?vid=772e81c0-7d82-450f-9ac9-15dbc0b69f9f"},"vehicle_type_id":"4","last_reported":1713204568,"current_range_meters":0,"station_id":"ce4bgrp2rcd13ifvqc9g","pricing_plan_id":"cebpf4jnsgd1na2vs0mg"},{"bike_id":"69fdbb61-a453-4047-9aad-85811db0522e","system_id":"levelo_inurba_marseille","lat":43.305989,"lon":5.37225,"is_reserved":false,"is_disabled":false,"rental_uris":{"android":"levelo://app?vid=69fdbb61-a453-4047-9aad-85811db0522e","ios":"levelo://app?vid=69fdbb61-a453-4047-9aad-85811db0522e"},"vehicle_type_id":"4","last_reported":1713204568,"current_range_meters":0,"station_id":"ce4bgqh2rcd13ifvqc4g","pricing_plan_id":"cebpf4jnsgd1na2vs0mg"},{"bike_id":"bd1f6e0c-b466-46e7-b239-408d92d34131","system_id":"levelo_inurba_marseille","lat":43.305989,"lon":5.37225,"is_reserved":false,"is_disabled":false,"rental_uris":{"android":"levelo://app?vid=bd1f6e0c-b466-46e7-b239-408d92d34131","ios":"levelo://app?vid=bd1f6e0c-b466-46e7-b239-408d92d34131"},"vehicle_type_id":"4","last_reported":1713204568,"current_range_meters":15200,"station_id":"ce4bgqh2rcd13ifvqc4g","pricing_plan_id":"cebpf4jnsgd1na2vs0mg"},{"bike_id":"8de0b0b2-e433-47bb-bd6e-3abdb2330d02","system_id":"levelo_inurba_marseille","lat":43.305989,"lon":5.37225,"is_reserved":false,"is_disabled":false,"rental_uris":{"android":"levelo://app?vid=8de0b0b2-e433-47bb-bd6e-3abdb2330d02","ios":"levelo://app?vid=8de0b0b2-e433-47bb-bd6e-3abdb2330d02"},"vehicle_type_id":"4","last_reported":1713204568,"current_range_meters":2000,"station_id":"ce4bgqh2rcd13ifvqc4g","pricing_plan_id":"cebpf4jnsgd1na2vs0mg"},{"bike_id":"85ca2ff9-ba95-456a-b88f-890f4edbefc6","system_id":"levelo_inurba_marseille","lat":43.311131,"lon":5.377651,"is_reserved":false,"is_disabled":false,"rental_uris":{"android":"levelo://app?vid=85ca2ff9-ba95-456a-b88f-890f4edbefc6","ios":"levelo://app?vid=85ca2ff9-ba95-456a-b88f-890f4edbefc6"},"vehicle_type_id":"4","last_reported":1713204568,"current_range_meters":6800,"station_id":"ce4bgt92rcd13ifvqcg0","pricing_plan_id":"cebpf4jnsgd1na2vs0mg"},{"bike_id":"ef430d45-28bc-40cf-a43f-a2d54aeffab7","system_id":"levelo_inurba_marseille","lat":43.317075,"lon":5.377367,"is_reserved":false,"is_disabled":false,"rental_uris":{"android":"levelo://app?vid=ef430d45-28bc-40cf-a43f-a2d54aeffab7","ios":"levelo://app?vid=ef430d45-28bc-40cf-a43f-a2d54aeffab7"},"vehicle_type_id":"4","last_reported":1713204568,"current_range_meters":0,"station_id":"ce4bgth2rcd13ifvqch0","pricing_plan_id":"cebpf4jnsgd1na2vs0mg"},{"bike_id":"00520040-e8df-4527-9d67-16354de401ba","system_id":"levelo_inurba_marseille","lat":43.317075,"lon":5.377367,"is_reserved":false,"is_disabled":false,"rental_uris":{"android":"levelo://app?vid=00520040-e8df-4527-9d67-16354de401ba","ios":"levelo://app?vid=00520040-e8df-4527-9d67-16354de401ba"},"vehicle_type_id":"4","last_reported":1713204568,"current_range_meters":12800,"station_id":"ce4bgth2rcd13ifvqch0","pricing_plan_id":"cebpf4jnsgd1na2vs0mg"},{"bike_id":"b5bb3a04-66ff-4d18-999b-1d948cf03ef4","system_id":"levelo_inurba_marseille","lat":43.317075,"lon":5.377367,"is_reserved":false,"is_disabled":false,"rental_uris":{"android":"levelo://app?vid=b5bb3a04-66ff-4d18-999b-1d948cf03ef4","ios":"levelo://app?vid=b5bb3a04-66ff-4d18-999b-1d948cf03ef4"},"vehicle_type_id":"4","last_reported":1713204568,"current_range_meters":4000,"station_id":"ce4bgth2rcd13ifvqch0","pricing_plan_id":"cebpf4jnsgd1na2vs0mg"},{"bike_id":"01d8d732-b95a-4022-aa02-9beba29077b0","system_id":"levelo_inurba_marseille","lat":43.317075,"lon":5.377367,"is_reserved":false,"is_disabled":false,"rental_uris":{"android":"levelo://app?vid=01d8d732-b95a-4022-aa02-9beba29077b0","ios":"levelo://app?vid=01d8d732-b95a-4022-aa02-9beba29077b0"},"vehicle_type_id":"4","last_reported":1713204568,"current_range_meters":6400,"station_id":"ce4bgth2rcd13ifvqch0","pricing_plan_id":"cebpf4jnsgd1na2vs0mg"},{"bike_id":"a8ee5f63-5861-4d05-b05f-db8e8d958f7a","system_id":"levelo_inurba_marseille","lat":43.315289,"lon":5.380349,"is_reserved":false,"is_disabled":false,"rental_uris":{"android":"levelo://app?vid=a8ee5f63-5861-4d05-b05f-db8e8d958f7a","ios":"levelo://app?vid=a8ee5f63-5861-4d05-b05f-db8e8d958f7a"},"vehicle_type_id":"4","last_reported":1713204568,"current_range_meters":13200,"station_id":"ce4bhsp2rcd13ifvqi50","pricing_plan_id":"cebpf4jnsgd1na2vs0mg"},{"bike_id":"965b09e0-052a-40df-855d-413597bf7caf","system_id":"levelo_inurba_marseille","lat":43.324771,"lon":5.36557,"is_reserved":false,"is_disabled":false,"rental_uris":{"android":"levelo://app?vid=965b09e0-052a-40df-855d-413597bf7caf","ios":"levelo://app?vid=965b09e0-052a-40df-855d-413597bf7caf"},"vehicle_type_id":"4","last_reported":1713204568,"current_range_meters":0,"station_id":"ce4bhs12rcd13ifvqhvg","pricing_plan_id":"cebpf4jnsgd1na2vs0mg"},{"bike_id":"e09f501c-f398-46db-99e7-e76471cc58a3","system_id":"levelo_inurba_marseille","lat":43.308047,"lon":5.3815,"is_reserved":false,"is_disabled":false,"rental_uris":{"android":"levelo://app?vid=e09f501c-f398-46db-99e7-e76471cc58a3","ios":"levelo://app?vid=e09f501c-f398-46db-99e7-e76471cc58a3"},"vehicle_type_id":"4","last_reported":1713204568,"current_range_meters":0,"station_id":"ce4bgt12rcd13ifvqce0","pricing_plan_id":"cebpf4jnsgd1na2vs0mg"},{"bike_id":"2e533276-7b48-4706-b9f5-9ab089d1c602","system_id":"levelo_inurba_marseille","lat":43.308012,"lon":5.381511,"is_reserved":false,"is_disabled":false,"rental_uris":{"android":"levelo://app?vid=2e533276-7b48-4706-b9f5-9ab089d1c602","ios":"levelo://app?vid=2e533276-7b48-4706-b9f5-9ab089d1c602"},"vehicle_type_id":"4","last_reported":1713204568,"current_range_meters":11600,"station_id":"ce4bgt12rcd13ifvqce0","pricing_plan_id":"cebpf4jnsgd1na2vs0mg"},{"bike_id":"96124cb2-356a-45fd-9cda-f6155e8ca01f","system_id":"levelo_inurba_marseille","lat":43.30795,"lon":5.3816,"is_reserved":false,"is_disabled":false,"rental_uris":{"android":"levelo://app?vid=96124cb2-356a-45fd-9cda-f6155e8ca01f","ios":"levelo://app?vid=96124cb2-356a-45fd-9cda-f6155e8ca01f"},"vehicle_type_id":"4","last_reported":1713204568,"current_range_meters":0,"station_id":"ce4bgt12rcd13ifvqce0","pricing_plan_id":"cebpf4jnsgd1na2vs0mg"},{"bike_id":"9ed7b2b3-2881-4829-a446-143203fb163d","system_id":"levelo_inurba_marseille","lat":43.30474,"lon":5.37904,"is_reserved":false,"is_disabled":false,"rental_uris":{"android":"levelo://app?vid=9ed7b2b3-2881-4829-a446-143203fb163d","ios":"levelo://app?vid=9ed7b2b3-2881-4829-a446-143203fb163d"},"vehicle_type_id":"4","last_reported":1713204568,"current_range_meters":0,"station_id":"ce4bgup2rcd13ifvqcn0","pricing_plan_id":"cebpf4jnsgd1na2vs0mg"},{"bike_id":"d0d8f742-f7b0-4758-92ba-96170e17ba4c","system_id":"levelo_inurba_marseille","lat":43.304606,"lon":5.379026,"is_reserved":false,"is_disabled":false,"rental_uris":{"android":"levelo://app?vid=d0d8f742-f7b0-4758-92ba-96170e17ba4c","ios":"levelo://app?vid=d0d8f742-f7b0-4758-92ba-96170e17ba4c"},"vehicle_type_id":"4","last_reported":1713204568,"current_range_meters":0,"station_id":"ce4bgup2rcd13ifvqcn0","pricing_plan_id":"cebpf4jnsgd1na2vs0mg"},{"bike_id":"eced5523-8170-4a2c-b494-bdb924c384f2","system_id":"levelo_inurba_marseille","lat":43.304606,"lon":5.379026,"is_reserved":false,"is_disabled":false,"rental_uris":{"android":"levelo://app?vid=eced5523-8170-4a2c-b494-bdb924c384f2","ios":"levelo://app?vid=eced5523-8170-4a2c-b494-bdb924c384f2"},"vehicle_type_id":"4","last_reported":1713204568,"current_range_meters":8000,"station_id":"ce4bgup2rcd13ifvqcn0","pricing_plan_id":"cebpf4jnsgd1na2vs0mg"},{"bike_id":"50dc5783-03bc-4351-873a-4db9f8b5417b","system_id":"levelo_inurba_marseille","lat":43.324771,"lon":5.36557,"is_reserved":false,"is_disabled":false,"rental_uris":{"android":"levelo://app?vid=50dc5783-03bc-4351-873a-4db9f8b5417b","ios":"levelo://app?vid=50dc5783-03bc-4351-873a-4db9f8b5417b"},"vehicle_type_id":"4","last_reported":1713204568,"current_range_meters":0,"station_id":"ce4bhs12rcd13ifvqhvg","pricing_plan_id":"cebpf4jnsgd1na2vs0mg"},{"bike_id":"4b60f9ef-ea5d-46cd-9895-c76ddde103e7","system_id":"levelo_inurba_marseille","lat":43.310804,"lon":5.38359,"is_reserved":false,"is_disabled":false,"rental_uris":{"android":"levelo://app?vid=4b60f9ef-ea5d-46cd-9895-c76ddde103e7","ios":"levelo://app?vid=4b60f9ef-ea5d-46cd-9895-c76ddde103e7"},"vehicle_type_id":"4","last_reported":1713204568,"current_range_meters":0,"station_id":"ce4bgv92rcd13ifvqcr0","pricing_plan_id":"cebpf4jnsgd1na2vs0mg"},{"bike_id":"2f563c5f-354f-4403-b8dd-fadad1bfda83","system_id":"levelo_inurba_marseille","lat":43.305989,"lon":5.37225,"is_reserved":false,"is_disabled":false,"rental_uris":{"android":"levelo://app?vid=2f563c5f-354f-4403-b8dd-fadad1bfda83","ios":"levelo://app?vid=2f563c5f-354f-4403-b8dd-fadad1bfda83"},"vehicle_type_id":"4","last_reported":1713204568,"current_range_meters":26800,"station_id":"ce4bgqh2rcd13ifvqc4g","pricing_plan_id":"cebpf4jnsgd1na2vs0mg"},{"bike_id":"d144366e-f255-448a-aa5a-9bfdb54c3fc4","system_id":"levelo_inurba_marseille","lat":43.310804,"lon":5.38359,"is_reserved":false,"is_disabled":false,"rental_uris":{"android":"levelo://app?vid=d144366e-f255-448a-aa5a-9bfdb54c3fc4","ios":"levelo://app?vid=d144366e-f255-448a-aa5a-9bfdb54c3fc4"},"vehicle_type_id":"4","last_reported":1713204568,"current_range_meters":18000,"station_id":"ce4bgv92rcd13ifvqcr0","pricing_plan_id":"cebpf4jnsgd1na2vs0mg"},{"bike_id":"aea5f7dc-5a9d-4b29-96d0-776cb7b3b0e4","system_id":"levelo_inurba_marseille","lat":43.30143,"lon":5.37413,"is_reserved":false,"is_disabled":false,"rental_uris":{"android":"levelo://app?vid=aea5f7dc-5a9d-4b29-96d0-776cb7b3b0e4","ios":"levelo://app?vid=aea5f7dc-5a9d-4b29-96d0-776cb7b3b0e4"},"vehicle_type_id":"4","last_reported":1713204568,"current_range_meters":10400,"station_id":"ce4bgs92rcd13ifvqcc0","pricing_plan_id":"cebpf4jnsgd1na2vs0mg"},{"bike_id":"5e4d85df-4f10-4fd7-84a6-ec309a044fd2","system_id":"levelo_inurba_marseille","lat":43.301429,"lon":5.37413,"is_reserved":false,"is_disabled":false,"rental_uris":{"android":"levelo://app?vid=5e4d85df-4f10-4fd7-84a6-ec309a044fd2","ios":"levelo://app?vid=5e4d85df-4f10-4fd7-84a6-ec309a044fd2"},"vehicle_type_id":"4","last_reported":1713204568,"current_range_meters":4000,"station_id":"ce4bgs92rcd13ifvqcc0","pricing_plan_id":"cebpf4jnsgd1na2vs0mg"},{"bike_id":"67e1d857-05a9-4203-9751-fefb0ce3e0c7","system_id":"levelo_inurba_marseille","lat":43.302784,"lon":5.377158,"is_reserved":false,"is_disabled":false,"rental_uris":{"android":"levelo://app?vid=67e1d857-05a9-4203-9751-fefb0ce3e0c7","ios":"levelo://app?vid=67e1d857-05a9-4203-9751-fefb0ce3e0c7"},"vehicle_type_id":"4","last_reported":1713204568,"current_range_meters":29600,"station_id":"ce4bguh2rcd13ifvqcj0","pricing_plan_id":"cebpf4jnsgd1na2vs0mg"},{"bike_id":"9ec4616c-37b8-40fb-bd58-07d1211193f0","system_id":"levelo_inurba_marseille","lat":43.314582,"lon":5.384216,"is_reserved":false,"is_disabled":false,"rental_uris":{"android":"levelo://app?vid=9ec4616c-37b8-40fb-bd58-07d1211193f0","ios":"levelo://app?vid=9ec4616c-37b8-40fb-bd58-07d1211193f0"},"vehicle_type_id":"4","last_reported":1713204568,"current_range_meters":0,"station_id":"","pricing_plan_id":"cebpf4jnsgd1na2vs0mg"},{"bike_id":"daa0325e-f213-47ea-b397-49e30d2b9c1d","system_id":"levelo_inurba_marseille","lat":43.31996,"lon":5.38146,"is_reserved":false,"is_disabled":false,"rental_uris":{"android":"levelo://app?vid=daa0325e-f213-47ea-b397-49e30d2b9c1d","ios":"levelo://app?vid=daa0325e-f213-47ea-b397-49e30d2b9c1d"},"vehicle_type_id":"4","last_reported":1713204568,"current_range_meters":0,"station_id":"ce4bhr12rcd13ifvqhpg","pricing_plan_id":"cebpf4jnsgd1na2vs0mg"},{"bike_id":"9e2ae624-d0cd-4a55-9ac5-bf11278c0d13","system_id":"levelo_inurba_marseille","lat":43.302877,"lon":5.378171,"is_reserved":false,"is_disabled":false,"rental_uris":{"android":"levelo://app?vid=9e2ae624-d0cd-4a55-9ac5-bf11278c0d13","ios":"levelo://app?vid=9e2ae624-d0cd-4a55-9ac5-bf11278c0d13"},"vehicle_type_id":"4","last_reported":1713204568,"current_range_meters":0,"station_id":"ce4bh0h2rcd13ifvqd40","pricing_plan_id":"cebpf4jnsgd1na2vs0mg"},{"bike_id":"b0b0397d-d18e-4ca1-b8cb-90aa92f7aa5c","system_id":"levelo_inurba_marseille","lat":43.319935,"lon":5.381699,"is_reserved":false,"is_disabled":false,"rental_uris":{"android":"levelo://app?vid=b0b0397d-d18e-4ca1-b8cb-90aa92f7aa5c","ios":"levelo://app?vid=b0b0397d-d18e-4ca1-b8cb-90aa92f7aa5c"},"vehicle_type_id":"4","last_reported":1713204568,"current_range_meters":26400,"station_id":"ce4bhr12rcd13ifvqhpg","pricing_plan_id":"cebpf4jnsgd1na2vs0mg"},{"bike_id":"6a1d1697-0ba0-47de-8f6e-e857cfdf3fbf","system_id":"levelo_inurba_marseille","lat":43.301429,"lon":5.37413,"is_reserved":false,"is_disabled":false,"rental_uris":{"android":"levelo://app?vid=6a1d1697-0ba0-47de-8f6e-e857cfdf3fbf","ios":"levelo://app?vid=6a1d1697-0ba0-47de-8f6e-e857cfdf3fbf"},"vehicle_type_id":"4","last_reported":1713204568,"current_range_meters":0,"station_id":"ce4bgs92rcd13ifvqcc0","pricing_plan_id":"cebpf4jnsgd1na2vs0mg"},{"bike_id":"11064e4b-571f-4364-bbad-dde15d2089ac","system_id":"levelo_inurba_marseille","lat":43.319935,"lon":5.381699,"is_reserved":false,"is_disabled":false,"rental_uris":{"android":"levelo://app?vid=11064e4b-571f-4364-bbad-dde15d2089ac","ios":"levelo://app?vid=11064e4b-571f-4364-bbad-dde15d2089ac"},"vehicle_type_id":"4","last_reported":1713204568,"current_range_meters":11600,"station_id":"ce4bhr12rcd13ifvqhpg","pricing_plan_id":"cebpf4jnsgd1na2vs0mg"},{"bike_id":"d454a361-5334-4b47-b65b-f3b59a2d2b2c","system_id":"levelo_inurba_marseille","lat":43.284219,"lon":5.3497,"is_reserved":false,"is_disabled":false,"rental_uris":{"android":"levelo://app?vid=d454a361-5334-4b47-b65b-f3b59a2d2b2c","ios":"levelo://app?vid=d454a361-5334-4b47-b65b-f3b59a2d2b2c"},"vehicle_type_id":"4","last_reported":1713204568,"current_range_meters":20800,"station_id":"ce4bhbh2rcd13ifvqepg","pricing_plan_id":"cebpf4jnsgd1na2vs0mg"},{"bike_id":"26237e02-ecab-4b4b-bc24-03809f316507","system_id":"levelo_inurba_marseille","lat":43.313571,"lon":5.384829,"is_reserved":false,"is_disabled":false,"rental_uris":{"android":"levelo://app?vid=26237e02-ecab-4b4b-bc24-03809f316507","ios":"levelo://app?vid=26237e02-ecab-4b4b-bc24-03809f316507"},"vehicle_type_id":"4","last_reported":1713204568,"current_range_meters":7600,"station_id":"ce4bgt92rcd13ifvqcf0","pricing_plan_id":"cebpf4jnsgd1na2vs0mg"},{"bike_id":"4776135a-d919-4e0d-bcc0-4785e4a0ca56","system_id":"levelo_inurba_marseille","lat":43.313571,"lon":5.384829,"is_reserved":false,"is_disabled":false,"rental_uris":{"android":"levelo://app?vid=4776135a-d919-4e0d-bcc0-4785e4a0ca56","ios":"levelo://app?vid=4776135a-d919-4e0d-bcc0-4785e4a0ca56"},"vehicle_type_id":"4","last_reported":1713204568,"current_range_meters":31600,"station_id":"ce4bgt92rcd13ifvqcf0","pricing_plan_id":"cebpf4jnsgd1na2vs0mg"},{"bike_id":"f4a4324c-c810-449a-942c-df0b6a812944","system_id":"levelo_inurba_marseille","lat":43.313571,"lon":5.384829,"is_reserved":false,"is_disabled":false,"rental_uris":{"android":"levelo://app?vid=f4a4324c-c810-449a-942c-df0b6a812944","ios":"levelo://app?vid=f4a4324c-c810-449a-942c-df0b6a812944"},"vehicle_type_id":"4","last_reported":1713204568,"current_range_meters":15200,"station_id":"ce4bgt92rcd13ifvqcf0","pricing_plan_id":"cebpf4jnsgd1na2vs0mg"},{"bike_id":"c6150925-82e6-496b-8c69-f28cc7beee4d","system_id":"levelo_inurba_marseille","lat":43.313693,"lon":5.38497,"is_reserved":false,"is_disabled":false,"rental_uris":{"android":"levelo://app?vid=c6150925-82e6-496b-8c69-f28cc7beee4d","ios":"levelo://app?vid=c6150925-82e6-496b-8c69-f28cc7beee4d"},"vehicle_type_id":"4","last_reported":1713204568,"current_range_meters":0,"station_id":"ce4bgt92rcd13ifvqcf0","pricing_plan_id":"cebpf4jnsgd1na2vs0mg"},{"bike_id":"3eee3bbf-6b65-4957-820b-fece539dbfad","system_id":"levelo_inurba_marseille","lat":43.305989,"lon":5.37225,"is_reserved":false,"is_disabled":false,"rental_uris":{"android":"levelo://app?vid=3eee3bbf-6b65-4957-820b-fece539dbfad","ios":"levelo://app?vid=3eee3bbf-6b65-4957-820b-fece539dbfad"},"vehicle_type_id":"4","last_reported":1713204568,"current_range_meters":26400,"station_id":"ce4bgqh2rcd13ifvqc4g","pricing_plan_id":"cebpf4jnsgd1na2vs0mg"},{"bike_id":"ad379142-8f6f-4259-9936-250eb7e0f902","system_id":"levelo_inurba_marseille","lat":43.299438,"lon":5.365413,"is_reserved":false,"is_disabled":false,"rental_uris":{"android":"levelo://app?vid=ad379142-8f6f-4259-9936-250eb7e0f902","ios":"levelo://app?vid=ad379142-8f6f-4259-9936-250eb7e0f902"},"vehicle_type_id":"4","last_reported":1713204568,"current_range_meters":0,"station_id":"ce4bgm92rcd13ifvqbr0","pricing_plan_id":"cebpf4jnsgd1na2vs0mg"},{"bike_id":"e5837103-4d5b-4fcd-8014-70ea6e1aa46f","system_id":"levelo_inurba_marseille","lat":43.299222,"lon":5.365554,"is_reserved":false,"is_disabled":false,"rental_uris":{"android":"levelo://app?vid=e5837103-4d5b-4fcd-8014-70ea6e1aa46f","ios":"levelo://app?vid=e5837103-4d5b-4fcd-8014-70ea6e1aa46f"},"vehicle_type_id":"4","last_reported":1713204568,"current_range_meters":0,"station_id":"ce4bgm92rcd13ifvqbr0","pricing_plan_id":"cebpf4jnsgd1na2vs0mg"},{"bike_id":"e445f40d-b3bf-4bd1-ad1b-a988b93c18fb","system_id":"levelo_inurba_marseille","lat":43.29981,"lon":5.37185,"is_reserved":false,"is_disabled":false,"rental_uris":{"android":"levelo://app?vid=e445f40d-b3bf-4bd1-ad1b-a988b93c18fb","ios":"levelo://app?vid=e445f40d-b3bf-4bd1-ad1b-a988b93c18fb"},"vehicle_type_id":"4","last_reported":1713204568,"current_range_meters":4400,"station_id":"ce4bgr92rcd13ifvqc7g","pricing_plan_id":"cebpf4jnsgd1na2vs0mg"},{"bike_id":"d577dbd0-a63c-45e2-a195-5c234b0e455e","system_id":"levelo_inurba_marseille","lat":43.299724,"lon":5.371829,"is_reserved":false,"is_disabled":false,"rental_uris":{"android":"levelo://app?vid=d577dbd0-a63c-45e2-a195-5c234b0e455e","ios":"levelo://app?vid=d577dbd0-a63c-45e2-a195-5c234b0e455e"},"vehicle_type_id":"4","last_reported":1713204568,"current_range_meters":0,"station_id":"ce4bgr92rcd13ifvqc7g","pricing_plan_id":"cebpf4jnsgd1na2vs0mg"},{"bike_id":"801a84de-500f-46ad-a1a4-a68f7620e95f","system_id":"levelo_inurba_marseille","lat":43.297163,"lon":5.365866,"is_reserved":false,"is_disabled":false,"rental_uris":{"android":"levelo://app?vid=801a84de-500f-46ad-a1a4-a68f7620e95f","ios":"levelo://app?vid=801a84de-500f-46ad-a1a4-a68f7620e95f"},"vehicle_type_id":"4","last_reported":1713204568,"current_range_meters":17600,"station_id":"ce4bgn12rcd13ifvqbt0","pricing_plan_id":"cebpf4jnsgd1na2vs0mg"},{"bike_id":"cac6ae7a-71d8-47ae-8c77-bc81ecf51cf4","system_id":"levelo_inurba_marseille","lat":43.298433,"lon":5.362774,"is_reserved":false,"is_disabled":false,"rental_uris":{"android":"levelo://app?vid=cac6ae7a-71d8-47ae-8c77-bc81ecf51cf4","ios":"levelo://app?vid=cac6ae7a-71d8-47ae-8c77-bc81ecf51cf4"},"vehicle_type_id":"4","last_reported":1713204568,"current_range_meters":27200,"station_id":"ce4bgpp2rcd13ifvqc3g","pricing_plan_id":"cebpf4jnsgd1na2vs0mg"},{"bike_id":"7babda92-d578-4a23-a3ed-e3c6c53599ef","system_id":"levelo_inurba_marseille","lat":43.305364,"lon":5.384119,"is_reserved":false,"is_disabled":false,"rental_uris":{"android":"levelo://app?vid=7babda92-d578-4a23-a3ed-e3c6c53599ef","ios":"levelo://app?vid=7babda92-d578-4a23-a3ed-e3c6c53599ef"},"vehicle_type_id":"4","last_reported":1713204568,"current_range_meters":3600,"station_id":"ce4bgg92rcd13ifvqb30","pricing_plan_id":"cebpf4jnsgd1na2vs0mg"},{"bike_id":"3fe80d0f-5e99-4a61-ae57-6243ada054ea","system_id":"levelo_inurba_marseille","lat":43.298433,"lon":5.362774,"is_reserved":false,"is_disabled":false,"rental_uris":{"android":"levelo://app?vid=3fe80d0f-5e99-4a61-ae57-6243ada054ea","ios":"levelo://app?vid=3fe80d0f-5e99-4a61-ae57-6243ada054ea"},"vehicle_type_id":"4","last_reported":1713204568,"current_range_meters":5200,"station_id":"ce4bgpp2rcd13ifvqc3g","pricing_plan_id":"cebpf4jnsgd1na2vs0mg"},{"bike_id":"4a3bb5e6-2ddb-41c1-8e16-54d944916f6e","system_id":"levelo_inurba_marseille","lat":43.298433,"lon":5.362774,"is_reserved":false,"is_disabled":false,"rental_uris":{"android":"levelo://app?vid=4a3bb5e6-2ddb-41c1-8e16-54d944916f6e","ios":"levelo://app?vid=4a3bb5e6-2ddb-41c1-8e16-54d944916f6e"},"vehicle_type_id":"4","last_reported":1713204568,"current_range_meters":3200,"station_id":"ce4bgpp2rcd13ifvqc3g","pricing_plan_id":"cebpf4jnsgd1na2vs0mg"},{"bike_id":"dc6cf81b-3f3e-4173-88f5-fcba7eaf654c","system_id":"levelo_inurba_marseille","lat":43.298433,"lon":5.362774,"is_reserved":false,"is_disabled":false,"rental_uris":{"android":"levelo://app?vid=dc6cf81b-3f3e-4173-88f5-fcba7eaf654c","ios":"levelo://app?vid=dc6cf81b-3f3e-4173-88f5-fcba7eaf654c"},"vehicle_type_id":"4","last_reported":1713204568,"current_range_meters":400,"station_id":"ce4bgpp2rcd13ifvqc3g","pricing_plan_id":"cebpf4jnsgd1na2vs0mg"},{"bike_id":"bad3e5f0-bae3-4563-9b01-b22b57a2ad26","system_id":"levelo_inurba_marseille","lat":43.298433,"lon":5.362774,"is_reserved":false,"is_disabled":false,"rental_uris":{"android":"levelo://app?vid=bad3e5f0-bae3-4563-9b01-b22b57a2ad26","ios":"levelo://app?vid=bad3e5f0-bae3-4563-9b01-b22b57a2ad26"},"vehicle_type_id":"4","last_reported":1713204568,"current_range_meters":21600,"station_id":"ce4bgpp2rcd13ifvqc3g","pricing_plan_id":"cebpf4jnsgd1na2vs0mg"},{"bike_id":"0ab7ec3d-7815-474f-8469-88e63002c926","system_id":"levelo_inurba_marseille","lat":43.298433,"lon":5.362774,"is_reserved":false,"is_disabled":false,"rental_uris":{"android":"levelo://app?vid=0ab7ec3d-7815-474f-8469-88e63002c926","ios":"levelo://app?vid=0ab7ec3d-7815-474f-8469-88e63002c926"},"vehicle_type_id":"4","last_reported":1713204568,"current_range_meters":0,"station_id":"ce4bgpp2rcd13ifvqc3g","pricing_plan_id":"cebpf4jnsgd1na2vs0mg"},{"bike_id":"59672a50-83a2-40de-956c-8f0bc2956966","system_id":"levelo_inurba_marseille","lat":43.298433,"lon":5.362774,"is_reserved":false,"is_disabled":false,"rental_uris":{"android":"levelo://app?vid=59672a50-83a2-40de-956c-8f0bc2956966","ios":"levelo://app?vid=59672a50-83a2-40de-956c-8f0bc2956966"},"vehicle_type_id":"4","last_reported":1713204568,"current_range_meters":7200,"station_id":"ce4bgpp2rcd13ifvqc3g","pricing_plan_id":"cebpf4jnsgd1na2vs0mg"},{"bike_id":"f9135845-60ca-4b2f-ae75-882e8f0d9790","system_id":"levelo_inurba_marseille","lat":43.298433,"lon":5.362774,"is_reserved":false,"is_disabled":false,"rental_uris":{"android":"levelo://app?vid=f9135845-60ca-4b2f-ae75-882e8f0d9790","ios":"levelo://app?vid=f9135845-60ca-4b2f-ae75-882e8f0d9790"},"vehicle_type_id":"4","last_reported":1713204568,"current_range_meters":0,"station_id":"ce4bgpp2rcd13ifvqc3g","pricing_plan_id":"cebpf4jnsgd1na2vs0mg"},{"bike_id":"53f369c5-aa68-45c5-ae29-063a2c424909","system_id":"levelo_inurba_marseille","lat":43.298433,"lon":5.362774,"is_reserved":false,"is_disabled":false,"rental_uris":{"android":"levelo://app?vid=53f369c5-aa68-45c5-ae29-063a2c424909","ios":"levelo://app?vid=53f369c5-aa68-45c5-ae29-063a2c424909"},"vehicle_type_id":"4","last_reported":1713204568,"current_range_meters":11200,"station_id":"ce4bgpp2rcd13ifvqc3g","pricing_plan_id":"cebpf4jnsgd1na2vs0mg"},{"bike_id":"04a4435d-7cef-494d-aeb3-f2a24562a7f7","system_id":"levelo_inurba_marseille","lat":43.299243,"lon":5.374807,"is_reserved":false,"is_disabled":false,"rental_uris":{"android":"levelo://app?vid=04a4435d-7cef-494d-aeb3-f2a24562a7f7","ios":"levelo://app?vid=04a4435d-7cef-494d-aeb3-f2a24562a7f7"},"vehicle_type_id":"4","last_reported":1713204568,"current_range_meters":6400,"station_id":"ce4bgjh2rcd13ifvqbg0","pricing_plan_id":"cebpf4jnsgd1na2vs0mg"},{"bike_id":"57dd8e8e-39d5-46e9-96d8-7974a73cf40a","system_id":"levelo_inurba_marseille","lat":43.299243,"lon":5.37481,"is_reserved":false,"is_disabled":false,"rental_uris":{"android":"levelo://app?vid=57dd8e8e-39d5-46e9-96d8-7974a73cf40a","ios":"levelo://app?vid=57dd8e8e-39d5-46e9-96d8-7974a73cf40a"},"vehicle_type_id":"4","last_reported":1713204568,"current_range_meters":31200,"station_id":"ce4bgjh2rcd13ifvqbg0","pricing_plan_id":"cebpf4jnsgd1na2vs0mg"},{"bike_id":"3d5abd0e-d112-44eb-99a1-a3b282fc0903","system_id":"levelo_inurba_marseille","lat":43.297863,"lon":5.37105,"is_reserved":false,"is_disabled":false,"rental_uris":{"android":"levelo://app?vid=3d5abd0e-d112-44eb-99a1-a3b282fc0903","ios":"levelo://app?vid=3d5abd0e-d112-44eb-99a1-a3b282fc0903"},"vehicle_type_id":"4","last_reported":1713204568,"current_range_meters":0,"station_id":"ce4bgop2rcd13ifvqc1g","pricing_plan_id":"cebpf4jnsgd1na2vs0mg"},{"bike_id":"147f837d-8369-4f04-a16a-bebdfec793b0","system_id":"levelo_inurba_marseille","lat":43.297794,"lon":5.370888,"is_reserved":false,"is_disabled":false,"rental_uris":{"android":"levelo://app?vid=147f837d-8369-4f04-a16a-bebdfec793b0","ios":"levelo://app?vid=147f837d-8369-4f04-a16a-bebdfec793b0"},"vehicle_type_id":"4","last_reported":1713204568,"current_range_meters":28400,"station_id":"ce4bgop2rcd13ifvqc1g","pricing_plan_id":"cebpf4jnsgd1na2vs0mg"},{"bike_id":"de060c0f-9a3a-4402-8a5e-9e4dfeee0c18","system_id":"levelo_inurba_marseille","lat":43.322872,"lon":5.382756,"is_reserved":false,"is_disabled":false,"rental_uris":{"android":"levelo://app?vid=de060c0f-9a3a-4402-8a5e-9e4dfeee0c18","ios":"levelo://app?vid=de060c0f-9a3a-4402-8a5e-9e4dfeee0c18"},"vehicle_type_id":"4","last_reported":1713204568,"current_range_meters":30000,"station_id":"ce4bhr12rcd13ifvqhqg","pricing_plan_id":"cebpf4jnsgd1na2vs0mg"},{"bike_id":"70f8e219-bc67-4c10-ab51-350d51c89e33","system_id":"levelo_inurba_marseille","lat":43.322872,"lon":5.382756,"is_reserved":false,"is_disabled":false,"rental_uris":{"android":"levelo://app?vid=70f8e219-bc67-4c10-ab51-350d51c89e33","ios":"levelo://app?vid=70f8e219-bc67-4c10-ab51-350d51c89e33"},"vehicle_type_id":"4","last_reported":1713204568,"current_range_meters":13200,"station_id":"ce4bhr12rcd13ifvqhqg","pricing_plan_id":"cebpf4jnsgd1na2vs0mg"},{"bike_id":"4a662abd-1cff-4c94-882d-aded3b304e17","system_id":"levelo_inurba_marseille","lat":43.322872,"lon":5.382756,"is_reserved":false,"is_disabled":false,"rental_uris":{"android":"levelo://app?vid=4a662abd-1cff-4c94-882d-aded3b304e17","ios":"levelo://app?vid=4a662abd-1cff-4c94-882d-aded3b304e17"},"vehicle_type_id":"4","last_reported":1713204568,"current_range_meters":8400,"station_id":"ce4bhr12rcd13ifvqhqg","pricing_plan_id":"cebpf4jnsgd1na2vs0mg"},{"bike_id":"9cee0150-6e35-492c-b343-fa45b1299c95","system_id":"levelo_inurba_marseille","lat":43.297163,"lon":5.365866,"is_reserved":false,"is_disabled":false,"rental_uris":{"android":"levelo://app?vid=9cee0150-6e35-492c-b343-fa45b1299c95","ios":"levelo://app?vid=9cee0150-6e35-492c-b343-fa45b1299c95"},"vehicle_type_id":"4","last_reported":1713204568,"current_range_meters":19600,"station_id":"ce4bgn12rcd13ifvqbt0","pricing_plan_id":"cebpf4jnsgd1na2vs0mg"},{"bike_id":"305fbc42-7a92-4f3e-96a7-9a0761ea306a","system_id":"levelo_inurba_marseille","lat":43.297163,"lon":5.365866,"is_reserved":false,"is_disabled":false,"rental_uris":{"android":"levelo://app?vid=305fbc42-7a92-4f3e-96a7-9a0761ea306a","ios":"levelo://app?vid=305fbc42-7a92-4f3e-96a7-9a0761ea306a"},"vehicle_type_id":"4","last_reported":1713204568,"current_range_meters":3200,"station_id":"ce4bgn12rcd13ifvqbt0","pricing_plan_id":"cebpf4jnsgd1na2vs0mg"},{"bike_id":"42db2559-be21-42c9-b6d3-d284c8a6fa7e","system_id":"levelo_inurba_marseille","lat":43.29629,"lon":5.3715,"is_reserved":false,"is_disabled":false,"rental_uris":{"android":"levelo://app?vid=42db2559-be21-42c9-b6d3-d284c8a6fa7e","ios":"levelo://app?vid=42db2559-be21-42c9-b6d3-d284c8a6fa7e"},"vehicle_type_id":"4","last_reported":1713204568,"current_range_meters":0,"station_id":"ce4bgnh2rcd13ifvqc0g","pricing_plan_id":"cebpf4jnsgd1na2vs0mg"},{"bike_id":"86a342f4-1e52-4987-9bb6-173bdecbd09f","system_id":"levelo_inurba_marseille","lat":43.29591,"lon":5.36733,"is_reserved":false,"is_disabled":false,"rental_uris":{"android":"levelo://app?vid=86a342f4-1e52-4987-9bb6-173bdecbd09f","ios":"levelo://app?vid=86a342f4-1e52-4987-9bb6-173bdecbd09f"},"vehicle_type_id":"4","last_reported":1713204568,"current_range_meters":0,"station_id":"ce4bgph2rcd13ifvqc2g","pricing_plan_id":"cebpf4jnsgd1na2vs0mg"},{"bike_id":"f0efd1dc-2119-49da-993c-61a6ed38ab7b","system_id":"levelo_inurba_marseille","lat":43.296131,"lon":5.370791,"is_reserved":false,"is_disabled":false,"rental_uris":{"android":"levelo://app?vid=f0efd1dc-2119-49da-993c-61a6ed38ab7b","ios":"levelo://app?vid=f0efd1dc-2119-49da-993c-61a6ed38ab7b"},"vehicle_type_id":"4","last_reported":1713204568,"current_range_meters":0,"station_id":"ce4bgnh2rcd13ifvqc0g","pricing_plan_id":"cebpf4jnsgd1na2vs0mg"},{"bike_id":"eb4bc64a-a423-46ff-8bec-5ba2994f9adc","system_id":"levelo_inurba_marseille","lat":43.296131,"lon":5.370791,"is_reserved":false,"is_disabled":false,"rental_uris":{"android":"levelo://app?vid=eb4bc64a-a423-46ff-8bec-5ba2994f9adc","ios":"levelo://app?vid=eb4bc64a-a423-46ff-8bec-5ba2994f9adc"},"vehicle_type_id":"4","last_reported":1713204568,"current_range_meters":4800,"station_id":"ce4bgnh2rcd13ifvqc0g","pricing_plan_id":"cebpf4jnsgd1na2vs0mg"},{"bike_id":"0deacdb9-1605-4715-ab1d-7d744b2ac900","system_id":"levelo_inurba_marseille","lat":43.299028,"lon":5.381509,"is_reserved":false,"is_disabled":false,"rental_uris":{"android":"levelo://app?vid=0deacdb9-1605-4715-ab1d-7d744b2ac900","ios":"levelo://app?vid=0deacdb9-1605-4715-ab1d-7d744b2ac900"},"vehicle_type_id":"4","last_reported":1713204568,"current_range_meters":10800,"station_id":"ce4bgj12rcd13ifvqbc0","pricing_plan_id":"cebpf4jnsgd1na2vs0mg"},{"bike_id":"70815762-273e-44f9-b5d2-0cd1193ca94f","system_id":"levelo_inurba_marseille","lat":43.296935,"lon":5.376544,"is_reserved":false,"is_disabled":false,"rental_uris":{"android":"levelo://app?vid=70815762-273e-44f9-b5d2-0cd1193ca94f","ios":"levelo://app?vid=70815762-273e-44f9-b5d2-0cd1193ca94f"},"vehicle_type_id":"4","last_reported":1713204568,"current_range_meters":5600,"station_id":"ce4bgkh2rcd13ifvqbl0","pricing_plan_id":"cebpf4jnsgd1na2vs0mg"},{"bike_id":"48be6094-4eb3-4555-8dac-288dffe75769","system_id":"levelo_inurba_marseille","lat":43.30958,"lon":5.39036,"is_reserved":false,"is_disabled":false,"rental_uris":{"android":"levelo://app?vid=48be6094-4eb3-4555-8dac-288dffe75769","ios":"levelo://app?vid=48be6094-4eb3-4555-8dac-288dffe75769"},"vehicle_type_id":"4","last_reported":1713204568,"current_range_meters":0,"station_id":"ce4bgup2rcd13ifvqco0","pricing_plan_id":"cebpf4jnsgd1na2vs0mg"},{"bike_id":"38118902-c27f-4cd5-a2ef-d77a2a31bc5d","system_id":"levelo_inurba_marseille","lat":43.317606,"lon":5.39011,"is_reserved":false,"is_disabled":false,"rental_uris":{"android":"levelo://app?vid=38118902-c27f-4cd5-a2ef-d77a2a31bc5d","ios":"levelo://app?vid=38118902-c27f-4cd5-a2ef-d77a2a31bc5d"},"vehicle_type_id":"4","last_reported":1713204568,"current_range_meters":0,"station_id":"ce4bhqp2rcd13ifvqhng","pricing_plan_id":"cebpf4jnsgd1na2vs0mg"},{"bike_id":"39c9d536-daf8-44f9-b755-ed804dd028ed","system_id":"levelo_inurba_marseille","lat":43.31756,"lon":5.39015,"is_reserved":false,"is_disabled":false,"rental_uris":{"android":"levelo://app?vid=39c9d536-daf8-44f9-b755-ed804dd028ed","ios":"levelo://app?vid=39c9d536-daf8-44f9-b755-ed804dd028ed"},"vehicle_type_id":"4","last_reported":1713204568,"current_range_meters":29200,"station_id":"ce4bhqp2rcd13ifvqhng","pricing_plan_id":"cebpf4jnsgd1na2vs0mg"},{"bike_id":"f4c21c3e-2b58-4083-a05e-a4ad2c735b0d","system_id":"levelo_inurba_marseille","lat":43.317557,"lon":5.390173,"is_reserved":false,"is_disabled":false,"rental_uris":{"android":"levelo://app?vid=f4c21c3e-2b58-4083-a05e-a4ad2c735b0d","ios":"levelo://app?vid=f4c21c3e-2b58-4083-a05e-a4ad2c735b0d"},"vehicle_type_id":"4","last_reported":1713204568,"current_range_meters":4800,"station_id":"ce4bhqp2rcd13ifvqhng","pricing_plan_id":"cebpf4jnsgd1na2vs0mg"},{"bike_id":"1671ada3-7cc2-4879-87fa-4388658c414b","system_id":"levelo_inurba_marseille","lat":43.317557,"lon":5.390173,"is_reserved":false,"is_disabled":false,"rental_uris":{"android":"levelo://app?vid=1671ada3-7cc2-4879-87fa-4388658c414b","ios":"levelo://app?vid=1671ada3-7cc2-4879-87fa-4388658c414b"},"vehicle_type_id":"4","last_reported":1713204568,"current_range_meters":23600,"station_id":"ce4bhqp2rcd13ifvqhng","pricing_plan_id":"cebpf4jnsgd1na2vs0mg"},{"bike_id":"c871a46b-ada6-42e5-a9b9-d9a44c8d48f9","system_id":"levelo_inurba_marseille","lat":43.31757,"lon":5.39019,"is_reserved":false,"is_disabled":false,"rental_uris":{"android":"levelo://app?vid=c871a46b-ada6-42e5-a9b9-d9a44c8d48f9","ios":"levelo://app?vid=c871a46b-ada6-42e5-a9b9-d9a44c8d48f9"},"vehicle_type_id":"4","last_reported":1713204568,"current_range_meters":0,"station_id":"ce4bhqp2rcd13ifvqhng","pricing_plan_id":"cebpf4jnsgd1na2vs0mg"},{"bike_id":"b6b4c947-1bda-4de4-9df1-137f712ed154","system_id":"levelo_inurba_marseille","lat":43.317557,"lon":5.390173,"is_reserved":false,"is_disabled":false,"rental_uris":{"android":"levelo://app?vid=b6b4c947-1bda-4de4-9df1-137f712ed154","ios":"levelo://app?vid=b6b4c947-1bda-4de4-9df1-137f712ed154"},"vehicle_type_id":"4","last_reported":1713204568,"current_range_meters":21600,"station_id":"ce4bhqp2rcd13ifvqhng","pricing_plan_id":"cebpf4jnsgd1na2vs0mg"},{"bike_id":"351faa87-075d-4c2f-9316-27613709c55d","system_id":"levelo_inurba_marseille","lat":43.31751,"lon":5.39022,"is_reserved":false,"is_disabled":false,"rental_uris":{"android":"levelo://app?vid=351faa87-075d-4c2f-9316-27613709c55d","ios":"levelo://app?vid=351faa87-075d-4c2f-9316-27613709c55d"},"vehicle_type_id":"4","last_reported":1713204568,"current_range_meters":29600,"station_id":"ce4bhqp2rcd13ifvqhng","pricing_plan_id":"cebpf4jnsgd1na2vs0mg"},{"bike_id":"eb81f15a-31e4-449a-bac1-5e007dbb130e","system_id":"levelo_inurba_marseille","lat":43.317557,"lon":5.390173,"is_reserved":false,"is_disabled":false,"rental_uris":{"android":"levelo://app?vid=eb81f15a-31e4-449a-bac1-5e007dbb130e","ios":"levelo://app?vid=eb81f15a-31e4-449a-bac1-5e007dbb130e"},"vehicle_type_id":"4","last_reported":1713204568,"current_range_meters":12800,"station_id":"ce4bhqp2rcd13ifvqhng","pricing_plan_id":"cebpf4jnsgd1na2vs0mg"},{"bike_id":"5ee6e09d-c1fd-4050-b022-e9352f822dc4","system_id":"levelo_inurba_marseille","lat":43.317557,"lon":5.390173,"is_reserved":false,"is_disabled":false,"rental_uris":{"android":"levelo://app?vid=5ee6e09d-c1fd-4050-b022-e9352f822dc4","ios":"levelo://app?vid=5ee6e09d-c1fd-4050-b022-e9352f822dc4"},"vehicle_type_id":"4","last_reported":1713204568,"current_range_meters":21600,"station_id":"ce4bhqp2rcd13ifvqhng","pricing_plan_id":"cebpf4jnsgd1na2vs0mg"},{"bike_id":"8a98c414-8b87-4131-997b-c54838dc3303","system_id":"levelo_inurba_marseille","lat":43.317557,"lon":5.390173,"is_reserved":false,"is_disabled":false,"rental_uris":{"android":"levelo://app?vid=8a98c414-8b87-4131-997b-c54838dc3303","ios":"levelo://app?vid=8a98c414-8b87-4131-997b-c54838dc3303"},"vehicle_type_id":"4","last_reported":1713204568,"current_range_meters":12800,"station_id":"ce4bhqp2rcd13ifvqhng","pricing_plan_id":"cebpf4jnsgd1na2vs0mg"},{"bike_id":"4229d75f-e36d-4505-abd5-1b6889e14a30","system_id":"levelo_inurba_marseille","lat":43.31758,"lon":5.39028,"is_reserved":false,"is_disabled":false,"rental_uris":{"android":"levelo://app?vid=4229d75f-e36d-4505-abd5-1b6889e14a30","ios":"levelo://app?vid=4229d75f-e36d-4505-abd5-1b6889e14a30"},"vehicle_type_id":"4","last_reported":1713204568,"current_range_meters":14400,"station_id":"ce4bhqp2rcd13ifvqhng","pricing_plan_id":"cebpf4jnsgd1na2vs0mg"},{"bike_id":"5c9ef370-2a18-4a5a-ade8-a7e5136125d0","system_id":"levelo_inurba_marseille","lat":43.294153,"lon":5.386305,"is_reserved":false,"is_disabled":false,"rental_uris":{"android":"levelo://app?vid=5c9ef370-2a18-4a5a-ade8-a7e5136125d0","ios":"levelo://app?vid=5c9ef370-2a18-4a5a-ade8-a7e5136125d0"},"vehicle_type_id":"4","last_reported":1713204568,"current_range_meters":0,"station_id":"ce4bh2h2rcd13ifvqdh0","pricing_plan_id":"cebpf4jnsgd1na2vs0mg"},{"bike_id":"15e7a68c-0e1b-4d0c-b82b-ce4010bbc729","system_id":"levelo_inurba_marseille","lat":43.29909,"lon":5.38295,"is_reserved":false,"is_disabled":false,"rental_uris":{"android":"levelo://app?vid=15e7a68c-0e1b-4d0c-b82b-ce4010bbc729","ios":"levelo://app?vid=15e7a68c-0e1b-4d0c-b82b-ce4010bbc729"},"vehicle_type_id":"4","last_reported":1713204568,"current_range_meters":15600,"station_id":"","pricing_plan_id":"cebpf4jnsgd1na2vs0mg"},{"bike_id":"8cd28dee-8017-4a21-87c5-599c775c0a54","system_id":"levelo_inurba_marseille","lat":43.297902,"lon":5.381044,"is_reserved":false,"is_disabled":false,"rental_uris":{"android":"levelo://app?vid=8cd28dee-8017-4a21-87c5-599c775c0a54","ios":"levelo://app?vid=8cd28dee-8017-4a21-87c5-599c775c0a54"},"vehicle_type_id":"4","last_reported":1713204568,"current_range_meters":0,"station_id":"ce4bgip2rcd13ifvqbb0","pricing_plan_id":"cebpf4jnsgd1na2vs0mg"},{"bike_id":"3104528e-eb61-423c-902e-3bd387cd309a","system_id":"levelo_inurba_marseille","lat":43.295748,"lon":5.37522,"is_reserved":false,"is_disabled":false,"rental_uris":{"android":"levelo://app?vid=3104528e-eb61-423c-902e-3bd387cd309a","ios":"levelo://app?vid=3104528e-eb61-423c-902e-3bd387cd309a"},"vehicle_type_id":"4","last_reported":1713204568,"current_range_meters":0,"station_id":"ce4bgh92rcd13ifvqb50","pricing_plan_id":"cebpf4jnsgd1na2vs0mg"},{"bike_id":"97c251ab-0eec-4c26-9a0f-83121ce3c066","system_id":"levelo_inurba_marseille","lat":43.304282,"lon":5.388889,"is_reserved":false,"is_disabled":false,"rental_uris":{"android":"levelo://app?vid=97c251ab-0eec-4c26-9a0f-83121ce3c066","ios":"levelo://app?vid=97c251ab-0eec-4c26-9a0f-83121ce3c066"},"vehicle_type_id":"4","last_reported":1713204568,"current_range_meters":0,"station_id":"ce4bgk12rcd13ifvqbi0","pricing_plan_id":"cebpf4jnsgd1na2vs0mg"},{"bike_id":"f2d04337-cc7d-4a75-8a54-102d1ce78392","system_id":"levelo_inurba_marseille","lat":43.29786,"lon":5.38108,"is_reserved":false,"is_disabled":false,"rental_uris":{"android":"levelo://app?vid=f2d04337-cc7d-4a75-8a54-102d1ce78392","ios":"levelo://app?vid=f2d04337-cc7d-4a75-8a54-102d1ce78392"},"vehicle_type_id":"4","last_reported":1713204568,"current_range_meters":0,"station_id":"ce4bgip2rcd13ifvqbb0","pricing_plan_id":"cebpf4jnsgd1na2vs0mg"},{"bike_id":"f91b7d12-118a-43a9-b9ff-4ef8d5da05b0","system_id":"levelo_inurba_marseille","lat":43.29789,"lon":5.38119,"is_reserved":false,"is_disabled":false,"rental_uris":{"android":"levelo://app?vid=f91b7d12-118a-43a9-b9ff-4ef8d5da05b0","ios":"levelo://app?vid=f91b7d12-118a-43a9-b9ff-4ef8d5da05b0"},"vehicle_type_id":"4","last_reported":1713204568,"current_range_meters":0,"station_id":"ce4bgip2rcd13ifvqbb0","pricing_plan_id":"cebpf4jnsgd1na2vs0mg"},{"bike_id":"12ba8088-18f5-492a-b8bc-8c344c5010bc","system_id":"levelo_inurba_marseille","lat":43.296263,"lon":5.377094,"is_reserved":false,"is_disabled":false,"rental_uris":{"android":"levelo://app?vid=12ba8088-18f5-492a-b8bc-8c344c5010bc","ios":"levelo://app?vid=12ba8088-18f5-492a-b8bc-8c344c5010bc"},"vehicle_type_id":"4","last_reported":1713204568,"current_range_meters":0,"station_id":"ce4bgi92rcd13ifvqb90","pricing_plan_id":"cebpf4jnsgd1na2vs0mg"},{"bike_id":"d8d7a1f3-4ffd-4576-879e-2ebe3b15ab44","system_id":"levelo_inurba_marseille","lat":43.29872,"lon":5.38328,"is_reserved":false,"is_disabled":false,"rental_uris":{"android":"levelo://app?vid=d8d7a1f3-4ffd-4576-879e-2ebe3b15ab44","ios":"levelo://app?vid=d8d7a1f3-4ffd-4576-879e-2ebe3b15ab44"},"vehicle_type_id":"4","last_reported":1713204568,"current_range_meters":400,"station_id":"","pricing_plan_id":"cebpf4jnsgd1na2vs0mg"},{"bike_id":"68b1b283-6965-440c-9d64-a9dc1cb8bee5","system_id":"levelo_inurba_marseille","lat":43.29527,"lon":5.37494,"is_reserved":false,"is_disabled":false,"rental_uris":{"android":"levelo://app?vid=68b1b283-6965-440c-9d64-a9dc1cb8bee5","ios":"levelo://app?vid=68b1b283-6965-440c-9d64-a9dc1cb8bee5"},"vehicle_type_id":"4","last_reported":1713204568,"current_range_meters":0,"station_id":"ce4bgkp2rcd13ifvqbmg","pricing_plan_id":"cebpf4jnsgd1na2vs0mg"},{"bike_id":"47d2fbba-51aa-4a44-a893-0268a10678bb","system_id":"levelo_inurba_marseille","lat":43.299724,"lon":5.384848,"is_reserved":false,"is_disabled":false,"rental_uris":{"android":"levelo://app?vid=47d2fbba-51aa-4a44-a893-0268a10678bb","ios":"levelo://app?vid=47d2fbba-51aa-4a44-a893-0268a10678bb"},"vehicle_type_id":"4","last_reported":1713204568,"current_range_meters":0,"station_id":"ce4bgj92rcd13ifvqbd0","pricing_plan_id":"cebpf4jnsgd1na2vs0mg"},{"bike_id":"cafed1da-9deb-498e-a61b-19d179ee2cae","system_id":"levelo_inurba_marseille","lat":43.29602,"lon":5.381084,"is_reserved":false,"is_disabled":false,"rental_uris":{"android":"levelo://app?vid=cafed1da-9deb-498e-a61b-19d179ee2cae","ios":"levelo://app?vid=cafed1da-9deb-498e-a61b-19d179ee2cae"},"vehicle_type_id":"4","last_reported":1713204568,"current_range_meters":0,"station_id":"ce4bgl12rcd13ifvqbo0","pricing_plan_id":"cebpf4jnsgd1na2vs0mg"},{"bike_id":"62d018b7-999b-4571-9fc3-e79bbfc1fee1","system_id":"levelo_inurba_marseille","lat":43.29602,"lon":5.381084,"is_reserved":false,"is_disabled":false,"rental_uris":{"android":"levelo://app?vid=62d018b7-999b-4571-9fc3-e79bbfc1fee1","ios":"levelo://app?vid=62d018b7-999b-4571-9fc3-e79bbfc1fee1"},"vehicle_type_id":"4","last_reported":1713204568,"current_range_meters":6000,"station_id":"ce4bgl12rcd13ifvqbo0","pricing_plan_id":"cebpf4jnsgd1na2vs0mg"},{"bike_id":"24f1ec73-c88d-453b-a18f-4af363b915e7","system_id":"levelo_inurba_marseille","lat":43.293249,"lon":5.371578,"is_reserved":false,"is_disabled":false,"rental_uris":{"android":"levelo://app?vid=24f1ec73-c88d-453b-a18f-4af363b915e7","ios":"levelo://app?vid=24f1ec73-c88d-453b-a18f-4af363b915e7"},"vehicle_type_id":"4","last_reported":1713204568,"current_range_meters":0,"station_id":"ce4bgh92rcd13ifvqb40","pricing_plan_id":"cebpf4jnsgd1na2vs0mg"},{"bike_id":"46d7a2c7-4676-4fc8-99c2-08d95abeb3d8","system_id":"levelo_inurba_marseille","lat":43.293249,"lon":5.371578,"is_reserved":false,"is_disabled":false,"rental_uris":{"android":"levelo://app?vid=46d7a2c7-4676-4fc8-99c2-08d95abeb3d8","ios":"levelo://app?vid=46d7a2c7-4676-4fc8-99c2-08d95abeb3d8"},"vehicle_type_id":"4","last_reported":1713204568,"current_range_meters":0,"station_id":"ce4bgh92rcd13ifvqb40","pricing_plan_id":"cebpf4jnsgd1na2vs0mg"},{"bike_id":"52a79c83-92b4-4ca4-8e09-850c003472ba","system_id":"levelo_inurba_marseille","lat":43.304274,"lon":5.388873,"is_reserved":false,"is_disabled":false,"rental_uris":{"android":"levelo://app?vid=52a79c83-92b4-4ca4-8e09-850c003472ba","ios":"levelo://app?vid=52a79c83-92b4-4ca4-8e09-850c003472ba"},"vehicle_type_id":"4","last_reported":1713204568,"current_range_meters":13200,"station_id":"ce4bgk12rcd13ifvqbi0","pricing_plan_id":"cebpf4jnsgd1na2vs0mg"},{"bike_id":"4abac766-da06-457c-91a8-7188975f1a63","system_id":"levelo_inurba_marseille","lat":43.293009,"lon":5.374584,"is_reserved":false,"is_disabled":false,"rental_uris":{"android":"levelo://app?vid=4abac766-da06-457c-91a8-7188975f1a63","ios":"levelo://app?vid=4abac766-da06-457c-91a8-7188975f1a63"},"vehicle_type_id":"4","last_reported":1713204568,"current_range_meters":0,"station_id":"ce4bgi12rcd13ifvqb70","pricing_plan_id":"cebpf4jnsgd1na2vs0mg"},{"bike_id":"0ce89a7d-6cf7-4980-8fad-6427c0f37e03","system_id":"levelo_inurba_marseille","lat":43.293009,"lon":5.374584,"is_reserved":false,"is_disabled":false,"rental_uris":{"android":"levelo://app?vid=0ce89a7d-6cf7-4980-8fad-6427c0f37e03","ios":"levelo://app?vid=0ce89a7d-6cf7-4980-8fad-6427c0f37e03"},"vehicle_type_id":"4","last_reported":1713204568,"current_range_meters":1200,"station_id":"ce4bgi12rcd13ifvqb70","pricing_plan_id":"cebpf4jnsgd1na2vs0mg"},{"bike_id":"c2c76b3e-fda8-4fa1-ad47-81fffaf0840a","system_id":"levelo_inurba_marseille","lat":43.303002,"lon":5.392142,"is_reserved":false,"is_disabled":false,"rental_uris":{"android":"levelo://app?vid=c2c76b3e-fda8-4fa1-ad47-81fffaf0840a","ios":"levelo://app?vid=c2c76b3e-fda8-4fa1-ad47-81fffaf0840a"},"vehicle_type_id":"4","last_reported":1713204568,"current_range_meters":0,"station_id":"ce4bgkh2rcd13ifvqbk0","pricing_plan_id":"cebpf4jnsgd1na2vs0mg"},{"bike_id":"2fc84e61-6e12-4a66-a672-d7190179f6ed","system_id":"levelo_inurba_marseille","lat":43.302992,"lon":5.392136,"is_reserved":false,"is_disabled":false,"rental_uris":{"android":"levelo://app?vid=2fc84e61-6e12-4a66-a672-d7190179f6ed","ios":"levelo://app?vid=2fc84e61-6e12-4a66-a672-d7190179f6ed"},"vehicle_type_id":"4","last_reported":1713204568,"current_range_meters":6400,"station_id":"ce4bgkh2rcd13ifvqbk0","pricing_plan_id":"cebpf4jnsgd1na2vs0mg"},{"bike_id":"8475c08b-eae6-473a-87fe-2cb6fee732e8","system_id":"levelo_inurba_marseille","lat":43.286595,"lon":5.386795,"is_reserved":false,"is_disabled":false,"rental_uris":{"android":"levelo://app?vid=8475c08b-eae6-473a-87fe-2cb6fee732e8","ios":"levelo://app?vid=8475c08b-eae6-473a-87fe-2cb6fee732e8"},"vehicle_type_id":"4","last_reported":1713204568,"current_range_meters":7600,"station_id":"ce4bh492rcd13ifvqdug","pricing_plan_id":"cebpf4jnsgd1na2vs0mg"},{"bike_id":"04713471-b173-4ce9-961f-96e2e9bd1f53","system_id":"levelo_inurba_marseille","lat":43.303017,"lon":5.392137,"is_reserved":false,"is_disabled":false,"rental_uris":{"android":"levelo://app?vid=04713471-b173-4ce9-961f-96e2e9bd1f53","ios":"levelo://app?vid=04713471-b173-4ce9-961f-96e2e9bd1f53"},"vehicle_type_id":"4","last_reported":1713204568,"current_range_meters":0,"station_id":"ce4bgkh2rcd13ifvqbk0","pricing_plan_id":"cebpf4jnsgd1na2vs0mg"},{"bike_id":"402cad60-1d8e-4eff-a7f5-ef9ccd4e30b4","system_id":"levelo_inurba_marseille","lat":43.2936,"lon":5.37835,"is_reserved":false,"is_disabled":false,"rental_uris":{"android":"levelo://app?vid=402cad60-1d8e-4eff-a7f5-ef9ccd4e30b4","ios":"levelo://app?vid=402cad60-1d8e-4eff-a7f5-ef9ccd4e30b4"},"vehicle_type_id":"4","last_reported":1713204568,"current_range_meters":0,"station_id":"ce4bgjh2rcd13ifvqbf0","pricing_plan_id":"cebpf4jnsgd1na2vs0mg"},{"bike_id":"77225a22-a46d-450f-a8f2-a353411a781f","system_id":"levelo_inurba_marseille","lat":43.292311,"lon":5.360731,"is_reserved":false,"is_disabled":false,"rental_uris":{"android":"levelo://app?vid=77225a22-a46d-450f-a8f2-a353411a781f","ios":"levelo://app?vid=77225a22-a46d-450f-a8f2-a353411a781f"},"vehicle_type_id":"4","last_reported":1713204568,"current_range_meters":4800,"station_id":"ce4bhbh2rcd13ifvqeqg","pricing_plan_id":"cebpf4jnsgd1na2vs0mg"},{"bike_id":"3dc2aeb9-b583-4f3f-b3e0-2db79d79449c","system_id":"levelo_inurba_marseille","lat":43.292311,"lon":5.360731,"is_reserved":false,"is_disabled":false,"rental_uris":{"android":"levelo://app?vid=3dc2aeb9-b583-4f3f-b3e0-2db79d79449c","ios":"levelo://app?vid=3dc2aeb9-b583-4f3f-b3e0-2db79d79449c"},"vehicle_type_id":"4","last_reported":1713204568,"current_range_meters":31200,"station_id":"ce4bhbh2rcd13ifvqeqg","pricing_plan_id":"cebpf4jnsgd1na2vs0mg"},{"bike_id":"72669327-3664-4703-8ca6-3af907d64045","system_id":"levelo_inurba_marseille","lat":43.292311,"lon":5.360731,"is_reserved":false,"is_disabled":false,"rental_uris":{"android":"levelo://app?vid=72669327-3664-4703-8ca6-3af907d64045","ios":"levelo://app?vid=72669327-3664-4703-8ca6-3af907d64045"},"vehicle_type_id":"4","last_reported":1713204568,"current_range_meters":31200,"station_id":"ce4bhbh2rcd13ifvqeqg","pricing_plan_id":"cebpf4jnsgd1na2vs0mg"},{"bike_id":"c336c202-e5f0-4c1c-a31b-222643b5c50c","system_id":"levelo_inurba_marseille","lat":43.292311,"lon":5.360731,"is_reserved":false,"is_disabled":false,"rental_uris":{"android":"levelo://app?vid=c336c202-e5f0-4c1c-a31b-222643b5c50c","ios":"levelo://app?vid=c336c202-e5f0-4c1c-a31b-222643b5c50c"},"vehicle_type_id":"4","last_reported":1713204568,"current_range_meters":31200,"station_id":"ce4bhbh2rcd13ifvqeqg","pricing_plan_id":"cebpf4jnsgd1na2vs0mg"},{"bike_id":"34f6ba85-03f9-4c5f-9a18-3685c44852de","system_id":"levelo_inurba_marseille","lat":43.292311,"lon":5.360731,"is_reserved":false,"is_disabled":false,"rental_uris":{"android":"levelo://app?vid=34f6ba85-03f9-4c5f-9a18-3685c44852de","ios":"levelo://app?vid=34f6ba85-03f9-4c5f-9a18-3685c44852de"},"vehicle_type_id":"4","last_reported":1713204568,"current_range_meters":27200,"station_id":"ce4bhbh2rcd13ifvqeqg","pricing_plan_id":"cebpf4jnsgd1na2vs0mg"},{"bike_id":"53ba89cb-db60-4ffb-b14c-081749026c41","system_id":"levelo_inurba_marseille","lat":43.298764,"lon":5.388973,"is_reserved":false,"is_disabled":false,"rental_uris":{"android":"levelo://app?vid=53ba89cb-db60-4ffb-b14c-081749026c41","ios":"levelo://app?vid=53ba89cb-db60-4ffb-b14c-081749026c41"},"vehicle_type_id":"4","last_reported":1713204568,"current_range_meters":28000,"station_id":"ce4bh392rcd13ifvqdl0","pricing_plan_id":"cebpf4jnsgd1na2vs0mg"},{"bike_id":"0d430a91-bf34-401c-8958-874271bf603b","system_id":"levelo_inurba_marseille","lat":43.291671,"lon":5.371575,"is_reserved":false,"is_disabled":false,"rental_uris":{"android":"levelo://app?vid=0d430a91-bf34-401c-8958-874271bf603b","ios":"levelo://app?vid=0d430a91-bf34-401c-8958-874271bf603b"},"vehicle_type_id":"4","last_reported":1713204568,"current_range_meters":0,"station_id":"ce4bha92rcd13ifvqeh0","pricing_plan_id":"cebpf4jnsgd1na2vs0mg"},{"bike_id":"0e40f26f-fcf6-465b-b1de-8f5afad78ceb","system_id":"levelo_inurba_marseille","lat":43.291994,"lon":5.357886,"is_reserved":false,"is_disabled":false,"rental_uris":{"android":"levelo://app?vid=0e40f26f-fcf6-465b-b1de-8f5afad78ceb","ios":"levelo://app?vid=0e40f26f-fcf6-465b-b1de-8f5afad78ceb"},"vehicle_type_id":"4","last_reported":1713204568,"current_range_meters":10400,"station_id":"ce4bhb12rcd13ifvqel0","pricing_plan_id":"cebpf4jnsgd1na2vs0mg"},{"bike_id":"f9195f06-a82c-46bf-9584-5af4432c7aca","system_id":"levelo_inurba_marseille","lat":43.313291,"lon":5.396838,"is_reserved":false,"is_disabled":false,"rental_uris":{"android":"levelo://app?vid=f9195f06-a82c-46bf-9584-5af4432c7aca","ios":"levelo://app?vid=f9195f06-a82c-46bf-9584-5af4432c7aca"},"vehicle_type_id":"4","last_reported":1713204568,"current_range_meters":400,"station_id":"ce4bgvp2rcd13ifvqcu0","pricing_plan_id":"cebpf4jnsgd1na2vs0mg"},{"bike_id":"165f75c6-b024-4ca9-82e6-73a9750d6666","system_id":"levelo_inurba_marseille","lat":43.284538,"lon":5.358657,"is_reserved":false,"is_disabled":false,"rental_uris":{"android":"levelo://app?vid=165f75c6-b024-4ca9-82e6-73a9750d6666","ios":"levelo://app?vid=165f75c6-b024-4ca9-82e6-73a9750d6666"},"vehicle_type_id":"4","last_reported":1713204568,"current_range_meters":29600,"station_id":"ce4bhah2rcd13ifvqei0","pricing_plan_id":"cebpf4jnsgd1na2vs0mg"},{"bike_id":"a3478b24-fb60-43b4-aac6-57bd6083abfd","system_id":"levelo_inurba_marseille","lat":43.291994,"lon":5.357886,"is_reserved":false,"is_disabled":false,"rental_uris":{"android":"levelo://app?vid=a3478b24-fb60-43b4-aac6-57bd6083abfd","ios":"levelo://app?vid=a3478b24-fb60-43b4-aac6-57bd6083abfd"},"vehicle_type_id":"4","last_reported":1713204568,"current_range_meters":0,"station_id":"ce4bhb12rcd13ifvqel0","pricing_plan_id":"cebpf4jnsgd1na2vs0mg"},{"bike_id":"d0c9dc9a-1e13-4ac7-91f0-6f7d286e5dd3","system_id":"levelo_inurba_marseille","lat":43.313291,"lon":5.396838,"is_reserved":false,"is_disabled":false,"rental_uris":{"android":"levelo://app?vid=d0c9dc9a-1e13-4ac7-91f0-6f7d286e5dd3","ios":"levelo://app?vid=d0c9dc9a-1e13-4ac7-91f0-6f7d286e5dd3"},"vehicle_type_id":"4","last_reported":1713204568,"current_range_meters":6800,"station_id":"ce4bgvp2rcd13ifvqcu0","pricing_plan_id":"cebpf4jnsgd1na2vs0mg"},{"bike_id":"82fa7294-c68a-4bfa-a4ad-54e86782801c","system_id":"levelo_inurba_marseille","lat":43.29529,"lon":5.385581,"is_reserved":false,"is_disabled":false,"rental_uris":{"android":"levelo://app?vid=82fa7294-c68a-4bfa-a4ad-54e86782801c","ios":"levelo://app?vid=82fa7294-c68a-4bfa-a4ad-54e86782801c"},"vehicle_type_id":"4","last_reported":1713204568,"current_range_meters":4800,"station_id":"ce4bgih2rcd13ifvqba0","pricing_plan_id":"cebpf4jnsgd1na2vs0mg"},{"bike_id":"eb6b24c9-cc81-406e-b878-8f12469657ac","system_id":"levelo_inurba_marseille","lat":43.29529,"lon":5.385581,"is_reserved":false,"is_disabled":false,"rental_uris":{"android":"levelo://app?vid=eb6b24c9-cc81-406e-b878-8f12469657ac","ios":"levelo://app?vid=eb6b24c9-cc81-406e-b878-8f12469657ac"},"vehicle_type_id":"4","last_reported":1713204568,"current_range_meters":10400,"station_id":"ce4bgih2rcd13ifvqba0","pricing_plan_id":"cebpf4jnsgd1na2vs0mg"},{"bike_id":"e0198155-3ff4-4e33-b5f1-4f55a375ae85","system_id":"levelo_inurba_marseille","lat":43.309047,"lon":5.396551,"is_reserved":false,"is_disabled":false,"rental_uris":{"android":"levelo://app?vid=e0198155-3ff4-4e33-b5f1-4f55a375ae85","ios":"levelo://app?vid=e0198155-3ff4-4e33-b5f1-4f55a375ae85"},"vehicle_type_id":"4","last_reported":1713204568,"current_range_meters":4000,"station_id":"ce4bh012rcd13ifvqcv0","pricing_plan_id":"cebpf4jnsgd1na2vs0mg"},{"bike_id":"df9c7c5d-3ea1-472a-819f-291dbb7d3c84","system_id":"levelo_inurba_marseille","lat":43.29529,"lon":5.385581,"is_reserved":false,"is_disabled":false,"rental_uris":{"android":"levelo://app?vid=df9c7c5d-3ea1-472a-819f-291dbb7d3c84","ios":"levelo://app?vid=df9c7c5d-3ea1-472a-819f-291dbb7d3c84"},"vehicle_type_id":"4","last_reported":1713204568,"current_range_meters":0,"station_id":"ce4bgih2rcd13ifvqba0","pricing_plan_id":"cebpf4jnsgd1na2vs0mg"},{"bike_id":"b1738ede-5e57-470d-b930-cc65d716dd87","system_id":"levelo_inurba_marseille","lat":43.294153,"lon":5.386305,"is_reserved":false,"is_disabled":false,"rental_uris":{"android":"levelo://app?vid=b1738ede-5e57-470d-b930-cc65d716dd87","ios":"levelo://app?vid=b1738ede-5e57-470d-b930-cc65d716dd87"},"vehicle_type_id":"4","last_reported":1713204568,"current_range_meters":3200,"station_id":"ce4bh2h2rcd13ifvqdh0","pricing_plan_id":"cebpf4jnsgd1na2vs0mg"},{"bike_id":"dbb5be5b-fef6-457b-a070-adbd46fb84c5","system_id":"levelo_inurba_marseille","lat":43.295196,"lon":5.39397,"is_reserved":false,"is_disabled":false,"rental_uris":{"android":"levelo://app?vid=dbb5be5b-fef6-457b-a070-adbd46fb84c5","ios":"levelo://app?vid=dbb5be5b-fef6-457b-a070-adbd46fb84c5"},"vehicle_type_id":"4","last_reported":1713204568,"current_range_meters":4800,"station_id":"ce4bh292rcd13ifvqdf0","pricing_plan_id":"cebpf4jnsgd1na2vs0mg"},{"bike_id":"dad487c7-18c3-429c-83dd-ac2fba25a32f","system_id":"levelo_inurba_marseille","lat":43.29529,"lon":5.385581,"is_reserved":false,"is_disabled":false,"rental_uris":{"android":"levelo://app?vid=dad487c7-18c3-429c-83dd-ac2fba25a32f","ios":"levelo://app?vid=dad487c7-18c3-429c-83dd-ac2fba25a32f"},"vehicle_type_id":"4","last_reported":1713204568,"current_range_meters":800,"station_id":"ce4bgih2rcd13ifvqba0","pricing_plan_id":"cebpf4jnsgd1na2vs0mg"},{"bike_id":"38391a1e-43f5-4781-bd8c-a8e881145dcc","system_id":"levelo_inurba_marseille","lat":43.29529,"lon":5.385581,"is_reserved":false,"is_disabled":false,"rental_uris":{"android":"levelo://app?vid=38391a1e-43f5-4781-bd8c-a8e881145dcc","ios":"levelo://app?vid=38391a1e-43f5-4781-bd8c-a8e881145dcc"},"vehicle_type_id":"4","last_reported":1713204568,"current_range_meters":22000,"station_id":"ce4bgih2rcd13ifvqba0","pricing_plan_id":"cebpf4jnsgd1na2vs0mg"},{"bike_id":"e85601bd-a7d6-483d-9156-00807942f7da","system_id":"levelo_inurba_marseille","lat":43.286591,"lon":5.363346,"is_reserved":false,"is_disabled":false,"rental_uris":{"android":"levelo://app?vid=e85601bd-a7d6-483d-9156-00807942f7da","ios":"levelo://app?vid=e85601bd-a7d6-483d-9156-00807942f7da"},"vehicle_type_id":"4","last_reported":1713204568,"current_range_meters":800,"station_id":"ce4bhah2rcd13ifvqej0","pricing_plan_id":"cebpf4jnsgd1na2vs0mg"},{"bike_id":"328ffc6f-ca80-4bc6-a432-da75122a75a8","system_id":"levelo_inurba_marseille","lat":43.290624,"lon":5.359245,"is_reserved":false,"is_disabled":false,"rental_uris":{"android":"levelo://app?vid=328ffc6f-ca80-4bc6-a432-da75122a75a8","ios":"levelo://app?vid=328ffc6f-ca80-4bc6-a432-da75122a75a8"},"vehicle_type_id":"4","last_reported":1713204568,"current_range_meters":15200,"station_id":"ce4bha92rcd13ifvqeg0","pricing_plan_id":"cebpf4jnsgd1na2vs0mg"},{"bike_id":"042eadd0-8b45-4c69-a8eb-8ac6441d5368","system_id":"levelo_inurba_marseille","lat":43.30209,"lon":5.39462,"is_reserved":false,"is_disabled":false,"rental_uris":{"android":"levelo://app?vid=042eadd0-8b45-4c69-a8eb-8ac6441d5368","ios":"levelo://app?vid=042eadd0-8b45-4c69-a8eb-8ac6441d5368"},"vehicle_type_id":"4","last_reported":1713204568,"current_range_meters":0,"station_id":"ce4bh0p2rcd13ifvqd70","pricing_plan_id":"cebpf4jnsgd1na2vs0mg"},{"bike_id":"90d1ae98-336d-41a1-96c6-8a0edc8416e3","system_id":"levelo_inurba_marseille","lat":43.302008,"lon":5.394694,"is_reserved":false,"is_disabled":false,"rental_uris":{"android":"levelo://app?vid=90d1ae98-336d-41a1-96c6-8a0edc8416e3","ios":"levelo://app?vid=90d1ae98-336d-41a1-96c6-8a0edc8416e3"},"vehicle_type_id":"4","last_reported":1713204568,"current_range_meters":26400,"station_id":"ce4bh0p2rcd13ifvqd70","pricing_plan_id":"cebpf4jnsgd1na2vs0mg"},{"bike_id":"fa47bd9f-b580-4a27-8565-13e82ca0b943","system_id":"levelo_inurba_marseille","lat":43.299028,"lon":5.381509,"is_reserved":false,"is_disabled":false,"rental_uris":{"android":"levelo://app?vid=fa47bd9f-b580-4a27-8565-13e82ca0b943","ios":"levelo://app?vid=fa47bd9f-b580-4a27-8565-13e82ca0b943"},"vehicle_type_id":"4","last_reported":1713204568,"current_range_meters":12400,"station_id":"ce4bgj12rcd13ifvqbc0","pricing_plan_id":"cebpf4jnsgd1na2vs0mg"},{"bike_id":"bff4b610-7aab-4f99-ba87-925eeb762c96","system_id":"levelo_inurba_marseille","lat":43.290624,"lon":5.359245,"is_reserved":false,"is_disabled":false,"rental_uris":{"android":"levelo://app?vid=bff4b610-7aab-4f99-ba87-925eeb762c96","ios":"levelo://app?vid=bff4b610-7aab-4f99-ba87-925eeb762c96"},"vehicle_type_id":"4","last_reported":1713204568,"current_range_meters":28400,"station_id":"ce4bha92rcd13ifvqeg0","pricing_plan_id":"cebpf4jnsgd1na2vs0mg"},{"bike_id":"ae798089-c303-4ac4-af95-048d21b775ec","system_id":"levelo_inurba_marseille","lat":43.290624,"lon":5.359245,"is_reserved":false,"is_disabled":false,"rental_uris":{"android":"levelo://app?vid=ae798089-c303-4ac4-af95-048d21b775ec","ios":"levelo://app?vid=ae798089-c303-4ac4-af95-048d21b775ec"},"vehicle_type_id":"4","last_reported":1713204568,"current_range_meters":13200,"station_id":"ce4bha92rcd13ifvqeg0","pricing_plan_id":"cebpf4jnsgd1na2vs0mg"},{"bike_id":"a8e95fb4-f531-4624-aa2b-ecb7d00f36d3","system_id":"levelo_inurba_marseille","lat":43.289184,"lon":5.366408,"is_reserved":false,"is_disabled":false,"rental_uris":{"android":"levelo://app?vid=a8e95fb4-f531-4624-aa2b-ecb7d00f36d3","ios":"levelo://app?vid=a8e95fb4-f531-4624-aa2b-ecb7d00f36d3"},"vehicle_type_id":"4","last_reported":1713204568,"current_range_meters":800,"station_id":"ce4bhap2rcd13ifvqek0","pricing_plan_id":"cebpf4jnsgd1na2vs0mg"},{"bike_id":"051d1bf9-0253-45a2-98ac-4f5f736087fe","system_id":"levelo_inurba_marseille","lat":43.294153,"lon":5.386305,"is_reserved":false,"is_disabled":false,"rental_uris":{"android":"levelo://app?vid=051d1bf9-0253-45a2-98ac-4f5f736087fe","ios":"levelo://app?vid=051d1bf9-0253-45a2-98ac-4f5f736087fe"},"vehicle_type_id":"4","last_reported":1713204568,"current_range_meters":13600,"station_id":"ce4bh2h2rcd13ifvqdh0","pricing_plan_id":"cebpf4jnsgd1na2vs0mg"},{"bike_id":"b53b9774-b2a2-49a6-a952-2369809a2e67","system_id":"levelo_inurba_marseille","lat":43.294197,"lon":5.38623,"is_reserved":false,"is_disabled":false,"rental_uris":{"android":"levelo://app?vid=b53b9774-b2a2-49a6-a952-2369809a2e67","ios":"levelo://app?vid=b53b9774-b2a2-49a6-a952-2369809a2e67"},"vehicle_type_id":"4","last_reported":1713204568,"current_range_meters":0,"station_id":"ce4bh2h2rcd13ifvqdh0","pricing_plan_id":"cebpf4jnsgd1na2vs0mg"},{"bike_id":"7be3955c-213c-425b-b027-2207a407f31f","system_id":"levelo_inurba_marseille","lat":43.294153,"lon":5.386305,"is_reserved":false,"is_disabled":false,"rental_uris":{"android":"levelo://app?vid=7be3955c-213c-425b-b027-2207a407f31f","ios":"levelo://app?vid=7be3955c-213c-425b-b027-2207a407f31f"},"vehicle_type_id":"4","last_reported":1713204568,"current_range_meters":0,"station_id":"ce4bh2h2rcd13ifvqdh0","pricing_plan_id":"cebpf4jnsgd1na2vs0mg"},{"bike_id":"67f9a676-59e2-4036-86c1-2c5bba9f7c4f","system_id":"levelo_inurba_marseille","lat":43.2942,"lon":5.38629,"is_reserved":false,"is_disabled":false,"rental_uris":{"android":"levelo://app?vid=67f9a676-59e2-4036-86c1-2c5bba9f7c4f","ios":"levelo://app?vid=67f9a676-59e2-4036-86c1-2c5bba9f7c4f"},"vehicle_type_id":"4","last_reported":1713204568,"current_range_meters":1200,"station_id":"ce4bh2h2rcd13ifvqdh0","pricing_plan_id":"cebpf4jnsgd1na2vs0mg"},{"bike_id":"733d93a4-9da8-474e-8145-fa6f400e1f8a","system_id":"levelo_inurba_marseille","lat":43.29416,"lon":5.38625,"is_reserved":false,"is_disabled":false,"rental_uris":{"android":"levelo://app?vid=733d93a4-9da8-474e-8145-fa6f400e1f8a","ios":"levelo://app?vid=733d93a4-9da8-474e-8145-fa6f400e1f8a"},"vehicle_type_id":"4","last_reported":1713204568,"current_range_meters":11200,"station_id":"ce4bh2h2rcd13ifvqdh0","pricing_plan_id":"cebpf4jnsgd1na2vs0mg"},{"bike_id":"2659995f-b29f-4e31-bebe-fbac045587fa","system_id":"levelo_inurba_marseille","lat":43.29412,"lon":5.38618,"is_reserved":false,"is_disabled":false,"rental_uris":{"android":"levelo://app?vid=2659995f-b29f-4e31-bebe-fbac045587fa","ios":"levelo://app?vid=2659995f-b29f-4e31-bebe-fbac045587fa"},"vehicle_type_id":"4","last_reported":1713204568,"current_range_meters":6400,"station_id":"ce4bh2h2rcd13ifvqdh0","pricing_plan_id":"cebpf4jnsgd1na2vs0mg"},{"bike_id":"07393cfb-bc24-45c7-93c1-72e379cb036b","system_id":"levelo_inurba_marseille","lat":43.289184,"lon":5.366408,"is_reserved":false,"is_disabled":false,"rental_uris":{"android":"levelo://app?vid=07393cfb-bc24-45c7-93c1-72e379cb036b","ios":"levelo://app?vid=07393cfb-bc24-45c7-93c1-72e379cb036b"},"vehicle_type_id":"4","last_reported":1713204568,"current_range_meters":0,"station_id":"ce4bhap2rcd13ifvqek0","pricing_plan_id":"cebpf4jnsgd1na2vs0mg"},{"bike_id":"ccde0965-5785-4260-9100-fc68ae45ec15","system_id":"levelo_inurba_marseille","lat":43.2942,"lon":5.38636,"is_reserved":false,"is_disabled":false,"rental_uris":{"android":"levelo://app?vid=ccde0965-5785-4260-9100-fc68ae45ec15","ios":"levelo://app?vid=ccde0965-5785-4260-9100-fc68ae45ec15"},"vehicle_type_id":"4","last_reported":1713204568,"current_range_meters":22000,"station_id":"ce4bh2h2rcd13ifvqdh0","pricing_plan_id":"cebpf4jnsgd1na2vs0mg"},{"bike_id":"d00706c1-d66f-4383-8500-d8cec4aa2f99","system_id":"levelo_inurba_marseille","lat":43.289184,"lon":5.366408,"is_reserved":false,"is_disabled":false,"rental_uris":{"android":"levelo://app?vid=d00706c1-d66f-4383-8500-d8cec4aa2f99","ios":"levelo://app?vid=d00706c1-d66f-4383-8500-d8cec4aa2f99"},"vehicle_type_id":"4","last_reported":1713204568,"current_range_meters":1200,"station_id":"ce4bhap2rcd13ifvqek0","pricing_plan_id":"cebpf4jnsgd1na2vs0mg"},{"bike_id":"5dba7e2f-f2d2-498e-8aa7-368f118bd22f","system_id":"levelo_inurba_marseille","lat":43.290319,"lon":5.375732,"is_reserved":false,"is_disabled":false,"rental_uris":{"android":"levelo://app?vid=5dba7e2f-f2d2-498e-8aa7-368f118bd22f","ios":"levelo://app?vid=5dba7e2f-f2d2-498e-8aa7-368f118bd22f"},"vehicle_type_id":"4","last_reported":1713204568,"current_range_meters":0,"station_id":"ce4bh692rcd13ifvqe90","pricing_plan_id":"cebpf4jnsgd1na2vs0mg"},{"bike_id":"1f50c6e6-8c96-4784-b011-e2032ae8c2b2","system_id":"levelo_inurba_marseille","lat":43.292644,"lon":5.384257,"is_reserved":false,"is_disabled":false,"rental_uris":{"android":"levelo://app?vid=1f50c6e6-8c96-4784-b011-e2032ae8c2b2","ios":"levelo://app?vid=1f50c6e6-8c96-4784-b011-e2032ae8c2b2"},"vehicle_type_id":"4","last_reported":1713204568,"current_range_meters":0,"station_id":"ce4bh692rcd13ifvqea0","pricing_plan_id":"cebpf4jnsgd1na2vs0mg"},{"bike_id":"95af4911-6955-4ecf-a4fe-f923ebf51e7f","system_id":"levelo_inurba_marseille","lat":43.30435,"lon":5.3975,"is_reserved":false,"is_disabled":false,"rental_uris":{"android":"levelo://app?vid=95af4911-6955-4ecf-a4fe-f923ebf51e7f","ios":"levelo://app?vid=95af4911-6955-4ecf-a4fe-f923ebf51e7f"},"vehicle_type_id":"4","last_reported":1713204568,"current_range_meters":9600,"station_id":"ce4bgj92rcd13ifvqbd0","pricing_plan_id":"cebpf4jnsgd1na2vs0mg"},{"bike_id":"39a57e91-6e7d-4516-8fee-d4eca101e520","system_id":"levelo_inurba_marseille","lat":43.304223,"lon":5.39751,"is_reserved":false,"is_disabled":false,"rental_uris":{"android":"levelo://app?vid=39a57e91-6e7d-4516-8fee-d4eca101e520","ios":"levelo://app?vid=39a57e91-6e7d-4516-8fee-d4eca101e520"},"vehicle_type_id":"4","last_reported":1713204568,"current_range_meters":12400,"station_id":"ce4bh092rcd13ifvqd20","pricing_plan_id":"cebpf4jnsgd1na2vs0mg"},{"bike_id":"8adb170c-2b09-45ff-99af-b821bd92ee2d","system_id":"levelo_inurba_marseille","lat":43.292598,"lon":5.384475,"is_reserved":false,"is_disabled":false,"rental_uris":{"android":"levelo://app?vid=8adb170c-2b09-45ff-99af-b821bd92ee2d","ios":"levelo://app?vid=8adb170c-2b09-45ff-99af-b821bd92ee2d"},"vehicle_type_id":"4","last_reported":1713204568,"current_range_meters":0,"station_id":"ce4bh692rcd13ifvqea0","pricing_plan_id":"cebpf4jnsgd1na2vs0mg"},{"bike_id":"b0c7f3a0-0c3c-49e0-9dcf-5d6aab401e69","system_id":"levelo_inurba_marseille","lat":43.292644,"lon":5.384257,"is_reserved":false,"is_disabled":false,"rental_uris":{"android":"levelo://app?vid=b0c7f3a0-0c3c-49e0-9dcf-5d6aab401e69","ios":"levelo://app?vid=b0c7f3a0-0c3c-49e0-9dcf-5d6aab401e69"},"vehicle_type_id":"4","last_reported":1713204568,"current_range_meters":0,"station_id":"ce4bh692rcd13ifvqea0","pricing_plan_id":"cebpf4jnsgd1na2vs0mg"},{"bike_id":"4551ac9d-7a06-43a9-97c3-aa9299765425","system_id":"levelo_inurba_marseille","lat":43.292644,"lon":5.384257,"is_reserved":false,"is_disabled":false,"rental_uris":{"android":"levelo://app?vid=4551ac9d-7a06-43a9-97c3-aa9299765425","ios":"levelo://app?vid=4551ac9d-7a06-43a9-97c3-aa9299765425"},"vehicle_type_id":"4","last_reported":1713204568,"current_range_meters":2400,"station_id":"ce4bh692rcd13ifvqea0","pricing_plan_id":"cebpf4jnsgd1na2vs0mg"},{"bike_id":"df885e42-af6a-44cc-bdf9-cbe75b4d080e","system_id":"levelo_inurba_marseille","lat":43.290104,"lon":5.356111,"is_reserved":false,"is_disabled":false,"rental_uris":{"android":"levelo://app?vid=df885e42-af6a-44cc-bdf9-cbe75b4d080e","ios":"levelo://app?vid=df885e42-af6a-44cc-bdf9-cbe75b4d080e"},"vehicle_type_id":"4","last_reported":1713204568,"current_range_meters":30400,"station_id":"ce4bhb92rcd13ifvqen0","pricing_plan_id":"cebpf4jnsgd1na2vs0mg"},{"bike_id":"cdd8298b-357a-4474-830c-4322bd1ba61d","system_id":"levelo_inurba_marseille","lat":43.290104,"lon":5.356111,"is_reserved":false,"is_disabled":false,"rental_uris":{"android":"levelo://app?vid=cdd8298b-357a-4474-830c-4322bd1ba61d","ios":"levelo://app?vid=cdd8298b-357a-4474-830c-4322bd1ba61d"},"vehicle_type_id":"4","last_reported":1713204568,"current_range_meters":0,"station_id":"ce4bhb92rcd13ifvqen0","pricing_plan_id":"cebpf4jnsgd1na2vs0mg"},{"bike_id":"5c38711b-6c95-4c78-a61b-eb488defb595","system_id":"levelo_inurba_marseille","lat":43.290103,"lon":5.356114,"is_reserved":false,"is_disabled":false,"rental_uris":{"android":"levelo://app?vid=5c38711b-6c95-4c78-a61b-eb488defb595","ios":"levelo://app?vid=5c38711b-6c95-4c78-a61b-eb488defb595"},"vehicle_type_id":"4","last_reported":1713204568,"current_range_meters":31600,"station_id":"ce4bhb92rcd13ifvqen0","pricing_plan_id":"cebpf4jnsgd1na2vs0mg"},{"bike_id":"f0a40838-d7e6-4f46-827a-6851ab590904","system_id":"levelo_inurba_marseille","lat":43.29009,"lon":5.35614,"is_reserved":false,"is_disabled":false,"rental_uris":{"android":"levelo://app?vid=f0a40838-d7e6-4f46-827a-6851ab590904","ios":"levelo://app?vid=f0a40838-d7e6-4f46-827a-6851ab590904"},"vehicle_type_id":"4","last_reported":1713204568,"current_range_meters":25600,"station_id":"ce4bhbh2rcd13ifvqeo0","pricing_plan_id":"cebpf4jnsgd1na2vs0mg"},{"bike_id":"19a0d40c-72b6-47e5-8921-43e39ea40fbb","system_id":"levelo_inurba_marseille","lat":43.290104,"lon":5.356111,"is_reserved":false,"is_disabled":false,"rental_uris":{"android":"levelo://app?vid=19a0d40c-72b6-47e5-8921-43e39ea40fbb","ios":"levelo://app?vid=19a0d40c-72b6-47e5-8921-43e39ea40fbb"},"vehicle_type_id":"4","last_reported":1713204568,"current_range_meters":2000,"station_id":"ce4bhb92rcd13ifvqen0","pricing_plan_id":"cebpf4jnsgd1na2vs0mg"},{"bike_id":"00ac76b4-9db2-4c1e-a6bd-312149b20e8b","system_id":"levelo_inurba_marseille","lat":43.290103,"lon":5.356114,"is_reserved":false,"is_disabled":false,"rental_uris":{"android":"levelo://app?vid=00ac76b4-9db2-4c1e-a6bd-312149b20e8b","ios":"levelo://app?vid=00ac76b4-9db2-4c1e-a6bd-312149b20e8b"},"vehicle_type_id":"4","last_reported":1713204568,"current_range_meters":31200,"station_id":"ce4bhb92rcd13ifvqen0","pricing_plan_id":"cebpf4jnsgd1na2vs0mg"},{"bike_id":"4e3efbee-963a-4a44-a5d3-ba04abd7dda9","system_id":"levelo_inurba_marseille","lat":43.290104,"lon":5.356111,"is_reserved":false,"is_disabled":false,"rental_uris":{"android":"levelo://app?vid=4e3efbee-963a-4a44-a5d3-ba04abd7dda9","ios":"levelo://app?vid=4e3efbee-963a-4a44-a5d3-ba04abd7dda9"},"vehicle_type_id":"4","last_reported":1713204568,"current_range_meters":31200,"station_id":"ce4bhb92rcd13ifvqen0","pricing_plan_id":"cebpf4jnsgd1na2vs0mg"},{"bike_id":"117186cd-fdd5-4e7f-a451-b474fedb87d3","system_id":"levelo_inurba_marseille","lat":43.290104,"lon":5.356111,"is_reserved":false,"is_disabled":false,"rental_uris":{"android":"levelo://app?vid=117186cd-fdd5-4e7f-a451-b474fedb87d3","ios":"levelo://app?vid=117186cd-fdd5-4e7f-a451-b474fedb87d3"},"vehicle_type_id":"4","last_reported":1713204568,"current_range_meters":30000,"station_id":"ce4bhb92rcd13ifvqen0","pricing_plan_id":"cebpf4jnsgd1na2vs0mg"},{"bike_id":"306dda69-acea-4203-8ec9-e5424548831a","system_id":"levelo_inurba_marseille","lat":43.290103,"lon":5.356114,"is_reserved":false,"is_disabled":false,"rental_uris":{"android":"levelo://app?vid=306dda69-acea-4203-8ec9-e5424548831a","ios":"levelo://app?vid=306dda69-acea-4203-8ec9-e5424548831a"},"vehicle_type_id":"4","last_reported":1713204568,"current_range_meters":15600,"station_id":"ce4bhb92rcd13ifvqen0","pricing_plan_id":"cebpf4jnsgd1na2vs0mg"},{"bike_id":"92af855e-1618-4c3c-bb03-bd1235a019ec","system_id":"levelo_inurba_marseille","lat":43.290104,"lon":5.356111,"is_reserved":false,"is_disabled":false,"rental_uris":{"android":"levelo://app?vid=92af855e-1618-4c3c-bb03-bd1235a019ec","ios":"levelo://app?vid=92af855e-1618-4c3c-bb03-bd1235a019ec"},"vehicle_type_id":"4","last_reported":1713204568,"current_range_meters":31200,"station_id":"ce4bhb92rcd13ifvqen0","pricing_plan_id":"cebpf4jnsgd1na2vs0mg"},{"bike_id":"f87c83f9-33d2-48de-9102-6a91eaffc89e","system_id":"levelo_inurba_marseille","lat":43.290103,"lon":5.356114,"is_reserved":false,"is_disabled":false,"rental_uris":{"android":"levelo://app?vid=f87c83f9-33d2-48de-9102-6a91eaffc89e","ios":"levelo://app?vid=f87c83f9-33d2-48de-9102-6a91eaffc89e"},"vehicle_type_id":"4","last_reported":1713204568,"current_range_meters":5600,"station_id":"ce4bhb92rcd13ifvqen0","pricing_plan_id":"cebpf4jnsgd1na2vs0mg"},{"bike_id":"8819ceb4-a45c-4950-9bd6-a06491b641c1","system_id":"levelo_inurba_marseille","lat":43.290104,"lon":5.356111,"is_reserved":false,"is_disabled":false,"rental_uris":{"android":"levelo://app?vid=8819ceb4-a45c-4950-9bd6-a06491b641c1","ios":"levelo://app?vid=8819ceb4-a45c-4950-9bd6-a06491b641c1"},"vehicle_type_id":"4","last_reported":1713204568,"current_range_meters":31200,"station_id":"ce4bhb92rcd13ifvqen0","pricing_plan_id":"cebpf4jnsgd1na2vs0mg"},{"bike_id":"c3b56f48-5a3d-4d92-a828-b147a8bede27","system_id":"levelo_inurba_marseille","lat":43.290103,"lon":5.356114,"is_reserved":false,"is_disabled":false,"rental_uris":{"android":"levelo://app?vid=c3b56f48-5a3d-4d92-a828-b147a8bede27","ios":"levelo://app?vid=c3b56f48-5a3d-4d92-a828-b147a8bede27"},"vehicle_type_id":"4","last_reported":1713204568,"current_range_meters":31200,"station_id":"ce4bhb92rcd13ifvqen0","pricing_plan_id":"cebpf4jnsgd1na2vs0mg"},{"bike_id":"18e5de67-f44f-4aa1-94e2-af42bce01988","system_id":"levelo_inurba_marseille","lat":43.29,"lon":5.35602,"is_reserved":false,"is_disabled":false,"rental_uris":{"android":"levelo://app?vid=18e5de67-f44f-4aa1-94e2-af42bce01988","ios":"levelo://app?vid=18e5de67-f44f-4aa1-94e2-af42bce01988"},"vehicle_type_id":"4","last_reported":1713204568,"current_range_meters":30800,"station_id":"ce4bhb92rcd13ifvqen0","pricing_plan_id":"cebpf4jnsgd1na2vs0mg"},{"bike_id":"c4685c79-be0c-47ae-83d5-0bc64fd63179","system_id":"levelo_inurba_marseille","lat":43.295169,"lon":5.390426,"is_reserved":false,"is_disabled":false,"rental_uris":{"android":"levelo://app?vid=c4685c79-be0c-47ae-83d5-0bc64fd63179","ios":"levelo://app?vid=c4685c79-be0c-47ae-83d5-0bc64fd63179"},"vehicle_type_id":"4","last_reported":1713204568,"current_range_meters":17200,"station_id":"ce4bh3p2rcd13ifvqdp0","pricing_plan_id":"cebpf4jnsgd1na2vs0mg"},{"bike_id":"d9611923-0b3a-4990-8f32-e503fb6c6c70","system_id":"levelo_inurba_marseille","lat":43.297815,"lon":5.393548,"is_reserved":false,"is_disabled":false,"rental_uris":{"android":"levelo://app?vid=d9611923-0b3a-4990-8f32-e503fb6c6c70","ios":"levelo://app?vid=d9611923-0b3a-4990-8f32-e503fb6c6c70"},"vehicle_type_id":"4","last_reported":1713204568,"current_range_meters":4800,"station_id":"chh1huq6cuj3fo74tm60","pricing_plan_id":"cebpf4jnsgd1na2vs0mg"},{"bike_id":"b4d4d2ab-43c2-498c-bde6-4fe8c9194a29","system_id":"levelo_inurba_marseille","lat":43.297815,"lon":5.393548,"is_reserved":false,"is_disabled":false,"rental_uris":{"android":"levelo://app?vid=b4d4d2ab-43c2-498c-bde6-4fe8c9194a29","ios":"levelo://app?vid=b4d4d2ab-43c2-498c-bde6-4fe8c9194a29"},"vehicle_type_id":"4","last_reported":1713204568,"current_range_meters":800,"station_id":"chh1huq6cuj3fo74tm60","pricing_plan_id":"cebpf4jnsgd1na2vs0mg"},{"bike_id":"d35ba75f-39ed-4ccd-ac0e-288aa00089e0","system_id":"levelo_inurba_marseille","lat":43.330442,"lon":5.389148,"is_reserved":false,"is_disabled":false,"rental_uris":{"android":"levelo://app?vid=d35ba75f-39ed-4ccd-ac0e-288aa00089e0","ios":"levelo://app?vid=d35ba75f-39ed-4ccd-ac0e-288aa00089e0"},"vehicle_type_id":"4","last_reported":1713204568,"current_range_meters":1600,"station_id":"ce4bhr92rcd13ifvqhrg","pricing_plan_id":"cebpf4jnsgd1na2vs0mg"},{"bike_id":"e7870f04-9946-47af-b326-e15da4a91b34","system_id":"levelo_inurba_marseille","lat":43.330442,"lon":5.389148,"is_reserved":false,"is_disabled":false,"rental_uris":{"android":"levelo://app?vid=e7870f04-9946-47af-b326-e15da4a91b34","ios":"levelo://app?vid=e7870f04-9946-47af-b326-e15da4a91b34"},"vehicle_type_id":"4","last_reported":1713204568,"current_range_meters":12800,"station_id":"ce4bhr92rcd13ifvqhrg","pricing_plan_id":"cebpf4jnsgd1na2vs0mg"},{"bike_id":"0d61691a-a5f5-4c41-bf90-3a515a689454","system_id":"levelo_inurba_marseille","lat":43.2953,"lon":5.3905,"is_reserved":false,"is_disabled":false,"rental_uris":{"android":"levelo://app?vid=0d61691a-a5f5-4c41-bf90-3a515a689454","ios":"levelo://app?vid=0d61691a-a5f5-4c41-bf90-3a515a689454"},"vehicle_type_id":"4","last_reported":1713204568,"current_range_meters":16000,"station_id":"ce4bh3p2rcd13ifvqdp0","pricing_plan_id":"cebpf4jnsgd1na2vs0mg"},{"bike_id":"5c3035fb-e444-43b5-b5e5-746aa24a6eb9","system_id":"levelo_inurba_marseille","lat":43.330238,"lon":5.390428,"is_reserved":false,"is_disabled":false,"rental_uris":{"android":"levelo://app?vid=5c3035fb-e444-43b5-b5e5-746aa24a6eb9","ios":"levelo://app?vid=5c3035fb-e444-43b5-b5e5-746aa24a6eb9"},"vehicle_type_id":"4","last_reported":1713204568,"current_range_meters":0,"station_id":"ce4bhr92rcd13ifvqhrg","pricing_plan_id":"cebpf4jnsgd1na2vs0mg"},{"bike_id":"48790040-8044-4abf-890c-a35283f226d7","system_id":"levelo_inurba_marseille","lat":43.33024,"lon":5.39043,"is_reserved":false,"is_disabled":false,"rental_uris":{"android":"levelo://app?vid=48790040-8044-4abf-890c-a35283f226d7","ios":"levelo://app?vid=48790040-8044-4abf-890c-a35283f226d7"},"vehicle_type_id":"4","last_reported":1713204568,"current_range_meters":2800,"station_id":"ce4bhr92rcd13ifvqhrg","pricing_plan_id":"cebpf4jnsgd1na2vs0mg"},{"bike_id":"9c1c16cd-6359-46bd-aaf9-b0fc26dfc518","system_id":"levelo_inurba_marseille","lat":43.330442,"lon":5.389148,"is_reserved":false,"is_disabled":false,"rental_uris":{"android":"levelo://app?vid=9c1c16cd-6359-46bd-aaf9-b0fc26dfc518","ios":"levelo://app?vid=9c1c16cd-6359-46bd-aaf9-b0fc26dfc518"},"vehicle_type_id":"4","last_reported":1713204568,"current_range_meters":10400,"station_id":"ce4bhr92rcd13ifvqhrg","pricing_plan_id":"cebpf4jnsgd1na2vs0mg"},{"bike_id":"b5a248dc-9382-4b84-92cd-0ab3a8395d6a","system_id":"levelo_inurba_marseille","lat":43.33025,"lon":5.39043,"is_reserved":false,"is_disabled":false,"rental_uris":{"android":"levelo://app?vid=b5a248dc-9382-4b84-92cd-0ab3a8395d6a","ios":"levelo://app?vid=b5a248dc-9382-4b84-92cd-0ab3a8395d6a"},"vehicle_type_id":"4","last_reported":1713204568,"current_range_meters":29600,"station_id":"ce4bhr92rcd13ifvqhrg","pricing_plan_id":"cebpf4jnsgd1na2vs0mg"},{"bike_id":"cb8b9c01-a0f5-4a5b-b2f9-4fb643bf52fe","system_id":"levelo_inurba_marseille","lat":43.33027,"lon":5.39043,"is_reserved":false,"is_disabled":false,"rental_uris":{"android":"levelo://app?vid=cb8b9c01-a0f5-4a5b-b2f9-4fb643bf52fe","ios":"levelo://app?vid=cb8b9c01-a0f5-4a5b-b2f9-4fb643bf52fe"},"vehicle_type_id":"4","last_reported":1713204568,"current_range_meters":18000,"station_id":"ce4bhr92rcd13ifvqhrg","pricing_plan_id":"cebpf4jnsgd1na2vs0mg"},{"bike_id":"c27de58c-4d51-4d8b-804e-15754e64d2d9","system_id":"levelo_inurba_marseille","lat":43.33029,"lon":5.39043,"is_reserved":false,"is_disabled":false,"rental_uris":{"android":"levelo://app?vid=c27de58c-4d51-4d8b-804e-15754e64d2d9","ios":"levelo://app?vid=c27de58c-4d51-4d8b-804e-15754e64d2d9"},"vehicle_type_id":"4","last_reported":1713204568,"current_range_meters":0,"station_id":"ce4bhr92rcd13ifvqhrg","pricing_plan_id":"cebpf4jnsgd1na2vs0mg"},{"bike_id":"a989aae2-0f7f-464b-98fd-c475a7ddf230","system_id":"levelo_inurba_marseille","lat":43.29514,"lon":5.39046,"is_reserved":false,"is_disabled":false,"rental_uris":{"android":"levelo://app?vid=a989aae2-0f7f-464b-98fd-c475a7ddf230","ios":"levelo://app?vid=a989aae2-0f7f-464b-98fd-c475a7ddf230"},"vehicle_type_id":"4","last_reported":1713204568,"current_range_meters":21200,"station_id":"ce4bh3p2rcd13ifvqdp0","pricing_plan_id":"cebpf4jnsgd1na2vs0mg"},{"bike_id":"70e96e94-f3de-4fe3-b94c-efe930f51cd4","system_id":"levelo_inurba_marseille","lat":43.288497,"lon":5.393089,"is_reserved":false,"is_disabled":false,"rental_uris":{"android":"levelo://app?vid=70e96e94-f3de-4fe3-b94c-efe930f51cd4","ios":"levelo://app?vid=70e96e94-f3de-4fe3-b94c-efe930f51cd4"},"vehicle_type_id":"4","last_reported":1713204568,"current_range_meters":0,"station_id":"ce4bh2p2rcd13ifvqdi0","pricing_plan_id":"cebpf4jnsgd1na2vs0mg"},{"bike_id":"ef135bcc-5762-42d1-8ae9-a3ad8f792e7d","system_id":"levelo_inurba_marseille","lat":43.28856,"lon":5.358371,"is_reserved":false,"is_disabled":false,"rental_uris":{"android":"levelo://app?vid=ef135bcc-5762-42d1-8ae9-a3ad8f792e7d","ios":"levelo://app?vid=ef135bcc-5762-42d1-8ae9-a3ad8f792e7d"},"vehicle_type_id":"4","last_reported":1713204568,"current_range_meters":25200,"station_id":"ce4bhb12rcd13ifvqem0","pricing_plan_id":"cebpf4jnsgd1na2vs0mg"},{"bike_id":"8cedfe00-4c18-47ac-b584-ef784b990c39","system_id":"levelo_inurba_marseille","lat":43.28856,"lon":5.358371,"is_reserved":false,"is_disabled":false,"rental_uris":{"android":"levelo://app?vid=8cedfe00-4c18-47ac-b584-ef784b990c39","ios":"levelo://app?vid=8cedfe00-4c18-47ac-b584-ef784b990c39"},"vehicle_type_id":"4","last_reported":1713204568,"current_range_meters":4400,"station_id":"ce4bhb12rcd13ifvqem0","pricing_plan_id":"cebpf4jnsgd1na2vs0mg"},{"bike_id":"02dd82d3-f05a-4210-8dea-08c66577171e","system_id":"levelo_inurba_marseille","lat":43.28856,"lon":5.358371,"is_reserved":false,"is_disabled":false,"rental_uris":{"android":"levelo://app?vid=02dd82d3-f05a-4210-8dea-08c66577171e","ios":"levelo://app?vid=02dd82d3-f05a-4210-8dea-08c66577171e"},"vehicle_type_id":"4","last_reported":1713204568,"current_range_meters":14800,"station_id":"ce4bhb12rcd13ifvqem0","pricing_plan_id":"cebpf4jnsgd1na2vs0mg"},{"bike_id":"108539b8-3712-4d77-97b8-165492d9e4ff","system_id":"levelo_inurba_marseille","lat":43.290104,"lon":5.356111,"is_reserved":false,"is_disabled":false,"rental_uris":{"android":"levelo://app?vid=108539b8-3712-4d77-97b8-165492d9e4ff","ios":"levelo://app?vid=108539b8-3712-4d77-97b8-165492d9e4ff"},"vehicle_type_id":"4","last_reported":1713204568,"current_range_meters":13600,"station_id":"ce4bhb92rcd13ifvqen0","pricing_plan_id":"cebpf4jnsgd1na2vs0mg"},{"bike_id":"534a0e11-e949-4d50-a102-d56cb49dac88","system_id":"levelo_inurba_marseille","lat":43.28856,"lon":5.358371,"is_reserved":false,"is_disabled":false,"rental_uris":{"android":"levelo://app?vid=534a0e11-e949-4d50-a102-d56cb49dac88","ios":"levelo://app?vid=534a0e11-e949-4d50-a102-d56cb49dac88"},"vehicle_type_id":"4","last_reported":1713204568,"current_range_meters":31200,"station_id":"ce4bhb12rcd13ifvqem0","pricing_plan_id":"cebpf4jnsgd1na2vs0mg"},{"bike_id":"237513ba-d438-43e3-a3d9-2160f266ecdf","system_id":"levelo_inurba_marseille","lat":43.28856,"lon":5.358371,"is_reserved":false,"is_disabled":false,"rental_uris":{"android":"levelo://app?vid=237513ba-d438-43e3-a3d9-2160f266ecdf","ios":"levelo://app?vid=237513ba-d438-43e3-a3d9-2160f266ecdf"},"vehicle_type_id":"4","last_reported":1713204568,"current_range_meters":3200,"station_id":"ce4bhb12rcd13ifvqem0","pricing_plan_id":"cebpf4jnsgd1na2vs0mg"},{"bike_id":"33fd77e8-5e74-4a7e-ade6-5bb3471d76ac","system_id":"levelo_inurba_marseille","lat":43.28856,"lon":5.358371,"is_reserved":false,"is_disabled":false,"rental_uris":{"android":"levelo://app?vid=33fd77e8-5e74-4a7e-ade6-5bb3471d76ac","ios":"levelo://app?vid=33fd77e8-5e74-4a7e-ade6-5bb3471d76ac"},"vehicle_type_id":"4","last_reported":1713204568,"current_range_meters":29200,"station_id":"ce4bhb12rcd13ifvqem0","pricing_plan_id":"cebpf4jnsgd1na2vs0mg"},{"bike_id":"1b5c1016-3608-4017-98ee-7237d158aa28","system_id":"levelo_inurba_marseille","lat":43.28856,"lon":5.358371,"is_reserved":false,"is_disabled":false,"rental_uris":{"android":"levelo://app?vid=1b5c1016-3608-4017-98ee-7237d158aa28","ios":"levelo://app?vid=1b5c1016-3608-4017-98ee-7237d158aa28"},"vehicle_type_id":"4","last_reported":1713204568,"current_range_meters":4000,"station_id":"ce4bhb12rcd13ifvqem0","pricing_plan_id":"cebpf4jnsgd1na2vs0mg"},{"bike_id":"ed7b21c4-cab6-4db6-9b8f-c8e44ffaae63","system_id":"levelo_inurba_marseille","lat":43.28856,"lon":5.358371,"is_reserved":false,"is_disabled":false,"rental_uris":{"android":"levelo://app?vid=ed7b21c4-cab6-4db6-9b8f-c8e44ffaae63","ios":"levelo://app?vid=ed7b21c4-cab6-4db6-9b8f-c8e44ffaae63"},"vehicle_type_id":"4","last_reported":1713204568,"current_range_meters":31200,"station_id":"ce4bhb12rcd13ifvqem0","pricing_plan_id":"cebpf4jnsgd1na2vs0mg"},{"bike_id":"759cbe7a-0054-44de-a72b-a398f97e7a6a","system_id":"levelo_inurba_marseille","lat":43.28856,"lon":5.358371,"is_reserved":false,"is_disabled":false,"rental_uris":{"android":"levelo://app?vid=759cbe7a-0054-44de-a72b-a398f97e7a6a","ios":"levelo://app?vid=759cbe7a-0054-44de-a72b-a398f97e7a6a"},"vehicle_type_id":"4","last_reported":1713204568,"current_range_meters":19200,"station_id":"ce4bhb12rcd13ifvqem0","pricing_plan_id":"cebpf4jnsgd1na2vs0mg"},{"bike_id":"b2e8df34-5629-40ea-adb5-742f678647b4","system_id":"levelo_inurba_marseille","lat":43.28856,"lon":5.358371,"is_reserved":false,"is_disabled":false,"rental_uris":{"android":"levelo://app?vid=b2e8df34-5629-40ea-adb5-742f678647b4","ios":"levelo://app?vid=b2e8df34-5629-40ea-adb5-742f678647b4"},"vehicle_type_id":"4","last_reported":1713204568,"current_range_meters":5200,"station_id":"ce4bhb12rcd13ifvqem0","pricing_plan_id":"cebpf4jnsgd1na2vs0mg"},{"bike_id":"966863ae-4660-497c-a8c7-8eee15038dd2","system_id":"levelo_inurba_marseille","lat":43.28856,"lon":5.358371,"is_reserved":false,"is_disabled":false,"rental_uris":{"android":"levelo://app?vid=966863ae-4660-497c-a8c7-8eee15038dd2","ios":"levelo://app?vid=966863ae-4660-497c-a8c7-8eee15038dd2"},"vehicle_type_id":"4","last_reported":1713204568,"current_range_meters":6800,"station_id":"ce4bhb12rcd13ifvqem0","pricing_plan_id":"cebpf4jnsgd1na2vs0mg"},{"bike_id":"387d9b11-385c-4960-80f5-584cd92f5828","system_id":"levelo_inurba_marseille","lat":43.337631,"lon":5.374482,"is_reserved":false,"is_disabled":false,"rental_uris":{"android":"levelo://app?vid=387d9b11-385c-4960-80f5-584cd92f5828","ios":"levelo://app?vid=387d9b11-385c-4960-80f5-584cd92f5828"},"vehicle_type_id":"4","last_reported":1713204568,"current_range_meters":27600,"station_id":"","pricing_plan_id":"cebpf4jnsgd1na2vs0mg"},{"bike_id":"9ad07c57-32dc-4f50-8b3d-ef8ae9915c39","system_id":"levelo_inurba_marseille","lat":43.306412,"lon":5.401035,"is_reserved":false,"is_disabled":false,"rental_uris":{"android":"levelo://app?vid=9ad07c57-32dc-4f50-8b3d-ef8ae9915c39","ios":"levelo://app?vid=9ad07c57-32dc-4f50-8b3d-ef8ae9915c39"},"vehicle_type_id":"4","last_reported":1713204568,"current_range_meters":0,"station_id":"ce4bh112rcd13ifvqda0","pricing_plan_id":"cebpf4jnsgd1na2vs0mg"},{"bike_id":"a39f5224-c737-4241-b67d-2191231c077a","system_id":"levelo_inurba_marseille","lat":43.33768,"lon":5.37472,"is_reserved":false,"is_disabled":false,"rental_uris":{"android":"levelo://app?vid=a39f5224-c737-4241-b67d-2191231c077a","ios":"levelo://app?vid=a39f5224-c737-4241-b67d-2191231c077a"},"vehicle_type_id":"4","last_reported":1713204568,"current_range_meters":11600,"station_id":"","pricing_plan_id":"cebpf4jnsgd1na2vs0mg"},{"bike_id":"1303fbcc-c07e-4099-82f2-2c51a3205733","system_id":"levelo_inurba_marseille","lat":43.30151,"lon":5.39865,"is_reserved":false,"is_disabled":false,"rental_uris":{"android":"levelo://app?vid=1303fbcc-c07e-4099-82f2-2c51a3205733","ios":"levelo://app?vid=1303fbcc-c07e-4099-82f2-2c51a3205733"},"vehicle_type_id":"4","last_reported":1713204568,"current_range_meters":0,"station_id":"ce4bh0h2rcd13ifvqd40","pricing_plan_id":"cebpf4jnsgd1na2vs0mg"},{"bike_id":"8c33cda8-26d1-4341-9d8c-612a92a0ceaa","system_id":"levelo_inurba_marseille","lat":43.30141,"lon":5.39863,"is_reserved":false,"is_disabled":false,"rental_uris":{"android":"levelo://app?vid=8c33cda8-26d1-4341-9d8c-612a92a0ceaa","ios":"levelo://app?vid=8c33cda8-26d1-4341-9d8c-612a92a0ceaa"},"vehicle_type_id":"4","last_reported":1713204568,"current_range_meters":0,"station_id":"ce4bh0h2rcd13ifvqd40","pricing_plan_id":"cebpf4jnsgd1na2vs0mg"},{"bike_id":"48c5770a-9058-49dc-bb6b-14625a72d206","system_id":"levelo_inurba_marseille","lat":43.30138,"lon":5.39863,"is_reserved":false,"is_disabled":false,"rental_uris":{"android":"levelo://app?vid=48c5770a-9058-49dc-bb6b-14625a72d206","ios":"levelo://app?vid=48c5770a-9058-49dc-bb6b-14625a72d206"},"vehicle_type_id":"4","last_reported":1713204568,"current_range_meters":3200,"station_id":"ce4bh0h2rcd13ifvqd40","pricing_plan_id":"cebpf4jnsgd1na2vs0mg"},{"bike_id":"15eb439c-641b-411d-b575-1e09590f2f91","system_id":"levelo_inurba_marseille","lat":43.301422,"lon":5.398682,"is_reserved":false,"is_disabled":false,"rental_uris":{"android":"levelo://app?vid=15eb439c-641b-411d-b575-1e09590f2f91","ios":"levelo://app?vid=15eb439c-641b-411d-b575-1e09590f2f91"},"vehicle_type_id":"4","last_reported":1713204568,"current_range_meters":800,"station_id":"ce4bh0h2rcd13ifvqd40","pricing_plan_id":"cebpf4jnsgd1na2vs0mg"},{"bike_id":"7f1af4c4-a453-4991-b391-8a7278140cf5","system_id":"levelo_inurba_marseille","lat":43.301447,"lon":5.398738,"is_reserved":false,"is_disabled":false,"rental_uris":{"android":"levelo://app?vid=7f1af4c4-a453-4991-b391-8a7278140cf5","ios":"levelo://app?vid=7f1af4c4-a453-4991-b391-8a7278140cf5"},"vehicle_type_id":"4","last_reported":1713204568,"current_range_meters":13200,"station_id":"ce4bh0h2rcd13ifvqd40","pricing_plan_id":"cebpf4jnsgd1na2vs0mg"},{"bike_id":"1ac636b1-b890-43af-aab3-5664e1e7b80a","system_id":"levelo_inurba_marseille","lat":43.301117,"lon":5.398795,"is_reserved":false,"is_disabled":false,"rental_uris":{"android":"levelo://app?vid=1ac636b1-b890-43af-aab3-5664e1e7b80a","ios":"levelo://app?vid=1ac636b1-b890-43af-aab3-5664e1e7b80a"},"vehicle_type_id":"4","last_reported":1713204568,"current_range_meters":14800,"station_id":"ce4bh0h2rcd13ifvqd40","pricing_plan_id":"cebpf4jnsgd1na2vs0mg"},{"bike_id":"8081dde0-28a8-49ae-b3e9-f00ffa4477d9","system_id":"levelo_inurba_marseille","lat":43.30141,"lon":5.39878,"is_reserved":false,"is_disabled":false,"rental_uris":{"android":"levelo://app?vid=8081dde0-28a8-49ae-b3e9-f00ffa4477d9","ios":"levelo://app?vid=8081dde0-28a8-49ae-b3e9-f00ffa4477d9"},"vehicle_type_id":"4","last_reported":1713204568,"current_range_meters":0,"station_id":"ce4bh0h2rcd13ifvqd40","pricing_plan_id":"cebpf4jnsgd1na2vs0mg"},{"bike_id":"cce21f8a-fd82-4eba-8b5f-a8379d36c43a","system_id":"levelo_inurba_marseille","lat":43.30143,"lon":5.3988,"is_reserved":false,"is_disabled":false,"rental_uris":{"android":"levelo://app?vid=cce21f8a-fd82-4eba-8b5f-a8379d36c43a","ios":"levelo://app?vid=cce21f8a-fd82-4eba-8b5f-a8379d36c43a"},"vehicle_type_id":"4","last_reported":1713204568,"current_range_meters":21600,"station_id":"ce4bh0h2rcd13ifvqd40","pricing_plan_id":"cebpf4jnsgd1na2vs0mg"},{"bike_id":"89a79904-8a4e-461c-aa2c-12b12dea9e7c","system_id":"levelo_inurba_marseille","lat":43.28727,"lon":5.36078,"is_reserved":false,"is_disabled":false,"rental_uris":{"android":"levelo://app?vid=89a79904-8a4e-461c-aa2c-12b12dea9e7c","ios":"levelo://app?vid=89a79904-8a4e-461c-aa2c-12b12dea9e7c"},"vehicle_type_id":"4","last_reported":1713204568,"current_range_meters":17200,"station_id":"cki0cbj6b192h4jlfktg","pricing_plan_id":"cebpf4jnsgd1na2vs0mg"},{"bike_id":"35eaff97-ef08-4ede-98df-8992cee82e39","system_id":"levelo_inurba_marseille","lat":43.286591,"lon":5.363346,"is_reserved":false,"is_disabled":false,"rental_uris":{"android":"levelo://app?vid=35eaff97-ef08-4ede-98df-8992cee82e39","ios":"levelo://app?vid=35eaff97-ef08-4ede-98df-8992cee82e39"},"vehicle_type_id":"4","last_reported":1713204568,"current_range_meters":12400,"station_id":"ce4bhah2rcd13ifvqej0","pricing_plan_id":"cebpf4jnsgd1na2vs0mg"},{"bike_id":"c3859be5-c060-4ebb-852f-9807a0c95487","system_id":"levelo_inurba_marseille","lat":43.286591,"lon":5.363346,"is_reserved":false,"is_disabled":false,"rental_uris":{"android":"levelo://app?vid=c3859be5-c060-4ebb-852f-9807a0c95487","ios":"levelo://app?vid=c3859be5-c060-4ebb-852f-9807a0c95487"},"vehicle_type_id":"4","last_reported":1713204568,"current_range_meters":2400,"station_id":"ce4bhah2rcd13ifvqej0","pricing_plan_id":"cebpf4jnsgd1na2vs0mg"},{"bike_id":"d5a44ccd-2e42-4323-9e92-3d4c33f77c8d","system_id":"levelo_inurba_marseille","lat":43.286591,"lon":5.363346,"is_reserved":false,"is_disabled":false,"rental_uris":{"android":"levelo://app?vid=d5a44ccd-2e42-4323-9e92-3d4c33f77c8d","ios":"levelo://app?vid=d5a44ccd-2e42-4323-9e92-3d4c33f77c8d"},"vehicle_type_id":"4","last_reported":1713204568,"current_range_meters":0,"station_id":"ce4bhah2rcd13ifvqej0","pricing_plan_id":"cebpf4jnsgd1na2vs0mg"},{"bike_id":"8128f89b-5ff6-4724-94ec-e58933e9e28b","system_id":"levelo_inurba_marseille","lat":43.286961,"lon":5.373785,"is_reserved":false,"is_disabled":false,"rental_uris":{"android":"levelo://app?vid=8128f89b-5ff6-4724-94ec-e58933e9e28b","ios":"levelo://app?vid=8128f89b-5ff6-4724-94ec-e58933e9e28b"},"vehicle_type_id":"4","last_reported":1713204568,"current_range_meters":6400,"station_id":"ce4bh3p2rcd13ifvqdq0","pricing_plan_id":"cebpf4jnsgd1na2vs0mg"},{"bike_id":"a8a0dbc1-d578-4c70-8cf1-e888b4f0ae0b","system_id":"levelo_inurba_marseille","lat":43.295196,"lon":5.39397,"is_reserved":false,"is_disabled":false,"rental_uris":{"android":"levelo://app?vid=a8a0dbc1-d578-4c70-8cf1-e888b4f0ae0b","ios":"levelo://app?vid=a8a0dbc1-d578-4c70-8cf1-e888b4f0ae0b"},"vehicle_type_id":"4","last_reported":1713204568,"current_range_meters":2000,"station_id":"ce4bh292rcd13ifvqdf0","pricing_plan_id":"cebpf4jnsgd1na2vs0mg"},{"bike_id":"2db59653-4c22-4ef1-aada-d2ae07e95a84","system_id":"levelo_inurba_marseille","lat":43.29876,"lon":5.39735,"is_reserved":false,"is_disabled":false,"rental_uris":{"android":"levelo://app?vid=2db59653-4c22-4ef1-aada-d2ae07e95a84","ios":"levelo://app?vid=2db59653-4c22-4ef1-aada-d2ae07e95a84"},"vehicle_type_id":"4","last_reported":1713204568,"current_range_meters":28000,"station_id":"ce4bh0h2rcd13ifvqd50","pricing_plan_id":"cebpf4jnsgd1na2vs0mg"},{"bike_id":"010d53e1-f953-495c-93df-f1d207ee3506","system_id":"levelo_inurba_marseille","lat":43.298681,"lon":5.397225,"is_reserved":false,"is_disabled":false,"rental_uris":{"android":"levelo://app?vid=010d53e1-f953-495c-93df-f1d207ee3506","ios":"levelo://app?vid=010d53e1-f953-495c-93df-f1d207ee3506"},"vehicle_type_id":"4","last_reported":1713204568,"current_range_meters":5600,"station_id":"ce4bh0h2rcd13ifvqd50","pricing_plan_id":"cebpf4jnsgd1na2vs0mg"},{"bike_id":"cacf4dd7-390d-43bf-94ef-67e0dd7c5640","system_id":"levelo_inurba_marseille","lat":43.286593,"lon":5.363346,"is_reserved":false,"is_disabled":false,"rental_uris":{"android":"levelo://app?vid=cacf4dd7-390d-43bf-94ef-67e0dd7c5640","ios":"levelo://app?vid=cacf4dd7-390d-43bf-94ef-67e0dd7c5640"},"vehicle_type_id":"4","last_reported":1713204568,"current_range_meters":1600,"station_id":"ce4bhah2rcd13ifvqej0","pricing_plan_id":"cebpf4jnsgd1na2vs0mg"},{"bike_id":"9e9a2a1a-ed39-4018-91aa-738345e1b4a9","system_id":"levelo_inurba_marseille","lat":43.298765,"lon":5.39745,"is_reserved":false,"is_disabled":false,"rental_uris":{"android":"levelo://app?vid=9e9a2a1a-ed39-4018-91aa-738345e1b4a9","ios":"levelo://app?vid=9e9a2a1a-ed39-4018-91aa-738345e1b4a9"},"vehicle_type_id":"4","last_reported":1713204568,"current_range_meters":0,"station_id":"ce4bh0h2rcd13ifvqd50","pricing_plan_id":"cebpf4jnsgd1na2vs0mg"},{"bike_id":"3caca7b2-bb37-42c4-80ae-858720d5c317","system_id":"levelo_inurba_marseille","lat":43.286961,"lon":5.373785,"is_reserved":false,"is_disabled":false,"rental_uris":{"android":"levelo://app?vid=3caca7b2-bb37-42c4-80ae-858720d5c317","ios":"levelo://app?vid=3caca7b2-bb37-42c4-80ae-858720d5c317"},"vehicle_type_id":"4","last_reported":1713204568,"current_range_meters":400,"station_id":"ce4bh3p2rcd13ifvqdq0","pricing_plan_id":"cebpf4jnsgd1na2vs0mg"},{"bike_id":"4362a777-986a-4f4d-b531-13ae15a16417","system_id":"levelo_inurba_marseille","lat":43.298681,"lon":5.397225,"is_reserved":false,"is_disabled":false,"rental_uris":{"android":"levelo://app?vid=4362a777-986a-4f4d-b531-13ae15a16417","ios":"levelo://app?vid=4362a777-986a-4f4d-b531-13ae15a16417"},"vehicle_type_id":"4","last_reported":1713204568,"current_range_meters":17600,"station_id":"ce4bh0h2rcd13ifvqd50","pricing_plan_id":"cebpf4jnsgd1na2vs0mg"},{"bike_id":"cff28b85-2cca-4625-aa45-98f97f37d538","system_id":"levelo_inurba_marseille","lat":43.289307,"lon":5.38406,"is_reserved":false,"is_disabled":false,"rental_uris":{"android":"levelo://app?vid=cff28b85-2cca-4625-aa45-98f97f37d538","ios":"levelo://app?vid=cff28b85-2cca-4625-aa45-98f97f37d538"},"vehicle_type_id":"4","last_reported":1713204568,"current_range_meters":10000,"station_id":"ce4bh612rcd13ifvqe6g","pricing_plan_id":"cebpf4jnsgd1na2vs0mg"},{"bike_id":"e2d15b50-ec2c-4460-ba86-90ee5d1a047a","system_id":"levelo_inurba_marseille","lat":43.290336,"lon":5.386425,"is_reserved":false,"is_disabled":false,"rental_uris":{"android":"levelo://app?vid=e2d15b50-ec2c-4460-ba86-90ee5d1a047a","ios":"levelo://app?vid=e2d15b50-ec2c-4460-ba86-90ee5d1a047a"},"vehicle_type_id":"4","last_reported":1713204568,"current_range_meters":0,"station_id":"ce4bh4p2rcd13ifvqe0g","pricing_plan_id":"cebpf4jnsgd1na2vs0mg"},{"bike_id":"dca916c3-8fb8-40e0-a3a6-9e48621e6b9f","system_id":"levelo_inurba_marseille","lat":43.289307,"lon":5.38406,"is_reserved":false,"is_disabled":false,"rental_uris":{"android":"levelo://app?vid=dca916c3-8fb8-40e0-a3a6-9e48621e6b9f","ios":"levelo://app?vid=dca916c3-8fb8-40e0-a3a6-9e48621e6b9f"},"vehicle_type_id":"4","last_reported":1713204568,"current_range_meters":8800,"station_id":"ce4bh612rcd13ifvqe6g","pricing_plan_id":"cebpf4jnsgd1na2vs0mg"},{"bike_id":"e33e0612-a2b3-4d02-b9c9-8a16c0760124","system_id":"levelo_inurba_marseille","lat":43.29036,"lon":5.3865,"is_reserved":false,"is_disabled":false,"rental_uris":{"android":"levelo://app?vid=e33e0612-a2b3-4d02-b9c9-8a16c0760124","ios":"levelo://app?vid=e33e0612-a2b3-4d02-b9c9-8a16c0760124"},"vehicle_type_id":"4","last_reported":1713204568,"current_range_meters":0,"station_id":"","pricing_plan_id":"cebpf4jnsgd1na2vs0mg"},