{"last_updated":1727464013,"ttl":60,"version":"2.2","data":{"bikes":[{"bike_id":"93df8700-17db-4727-a136-7f515c6e856f","system_id":"levelo_inurba_marseille","lat":43.29417,"lon":5.38635,"is_reserved":false,"is_disabled":false,"rental_uris":{"android":"levelo://app?vid=93df8700-17db-4727-a136-7f515c6e856f","ios":"levelo://app?vid=93df8700-17db-4727-a136-7f515c6e856f"},"vehicle_type_id":"4","last_reported":1727464014,"current_range_meters":37600,"station_id":"ce4bh2h2rcd13ifvqdh0","pricing_plan_id":"cebpf4jnsgd1na2vs0mg"},{"bike_id":"0c774154-64f0-4d31-90d2-afc577e49743","system_id":"levelo_inurba_marseille","lat":43.25821,"lon":5.39428,"is_reserved":false,"is_disabled":false,"rental_uris":{"android":"levelo://app?vid=0c774154-64f0-4d31-90d2-afc577e49743","ios":"levelo://app?vid=0c774154-64f0-4d31-90d2-afc577e49743"},"vehicle_type_id":"4","last_reported":1727464014,"current_range_meters":28000,"station_id":"ce4bhip2rcd13ifvqft0","pricing_plan_id":"cebpf4jnsgd1na2vs0mg"},{"bike_id":"744cf924-a98d-4773-a867-56d5f5153337","system_id":"levelo_inurba_marseille","lat":43.24175,"lon":5.39738,"is_reserved":false,"is_disabled":false,"rental_uris":{"android":"levelo://app?vid=744cf924-a98d-4773-a867-56d5f5153337","ios":"levelo://app?vid=744cf924-a98d-4773-a867-56d5f5153337"},"vehicle_type_id":"4","last_reported":1727464014,"current_range_meters":6800,"station_id":"ce4bhn12rcd13ifvqgpg","pricing_plan_id":"cebpf4jnsgd1na2vs0mg"},{"bike_id":"8d49f5b8-6706-49f5-a939-a58a97032a5f","system_id":"levelo_inurba_marseille","lat":43.29951,"lon":5.37204,"is_reserved":false,"is_disabled":false,"rental_uris":{"android":"levelo://app?vid=8d49f5b8-6706-49f5-a939-a58a97032a5f","ios":"levelo://app?vid=8d49f5b8-6706-49f5-a939-a58a97032a5f"},"vehicle_type_id":"4","last_reported":1727464014,"current_range_meters":36400,"station_id":"ce4bgr92rcd13ifvqc7g","pricing_plan_id":"cebpf4jnsgd1na2vs0mg"},{"bike_id":"006dde3f-c56b-43d1-99d2-9db23c079aa7","system_id":"levelo_inurba_marseille","lat":43.29572,"lon":5.39973,"is_reserved":false,"is_disabled":false,"rental_uris":{"android":"levelo://app?vid=006dde3f-c56b-43d1-99d2-9db23c079aa7","ios":"levelo://app?vid=006dde3f-c56b-43d1-99d2-9db23c079aa7"},"vehicle_type_id":"4","last_reported":1727464014,"current_range_meters":38800,"station_id":"ce4bh312rcd13ifvqdj0","pricing_plan_id":"cebpf4jnsgd1na2vs0mg"},{"bike_id":"1b243c27-662f-4dc5-82fc-8b7032b42a93","system_id":"levelo_inurba_marseille","lat":43.23184,"lon":5.39998,"is_reserved":false,"is_disabled":false,"rental_uris":{"android":"levelo://app?vid=1b243c27-662f-4dc5-82fc-8b7032b42a93","ios":"levelo://app?vid=1b243c27-662f-4dc5-82fc-8b7032b42a93"},"vehicle_type_id":"4","last_reported":1727464014,"current_range_meters":26800,"station_id":"ce4bhn12rcd13ifvqgqg","pricing_plan_id":"cebpf4jnsgd1na2vs0mg"},{"bike_id":"3343b2cf-b80c-4c9d-a872-91eddbaf1b36","system_id":"levelo_inurba_marseille","lat":43.28081,"lon":5.39623,"is_reserved":false,"is_disabled":false,"rental_uris":{"android":"levelo://app?vid=3343b2cf-b80c-4c9d-a872-91eddbaf1b36","ios":"levelo://app?vid=3343b2cf-b80c-4c9d-a872-91eddbaf1b36"},"vehicle_type_id":"4","last_reported":1727464014,"current_range_meters":24400,"station_id":"ce4bho12rcd13ifvqh2g","pricing_plan_id":"cebpf4jnsgd1na2vs0mg"},{"bike_id":"a4f03b77-df69-47ad-99a0-9220744f4777","system_id":"levelo_inurba_marseille","lat":43.28616,"lon":5.35107,"is_reserved":false,"is_disabled":false,"rental_uris":{"android":"levelo://app?vid=a4f03b77-df69-47ad-99a0-9220744f4777","ios":"levelo://app?vid=a4f03b77-df69-47ad-99a0-9220744f4777"},"vehicle_type_id":"4","last_reported":1727464014,"current_range_meters":5600,"station_id":"ce4bhch2rcd13ifvqeug","pricing_plan_id":"cebpf4jnsgd1na2vs0mg"},{"bike_id":"d0f4f0d4-b0c4-4e68-b545-fda6278231fd","system_id":"levelo_inurba_marseille","lat":43.29719,"lon":5.37695,"is_reserved":false,"is_disabled":false,"rental_uris":{"android":"levelo://app?vid=d0f4f0d4-b0c4-4e68-b545-fda6278231fd","ios":"levelo://app?vid=d0f4f0d4-b0c4-4e68-b545-fda6278231fd"},"vehicle_type_id":"4","last_reported":1727464014,"current_range_meters":6000,"station_id":"ce4bgkh2rcd13ifvqbl0","pricing_plan_id":"cebpf4jnsgd1na2vs0mg"},{"bike_id":"86c5afc8-78c3-41e2-adc8-27514cf16aa2","system_id":"levelo_inurba_marseille","lat":43.28037,"lon":5.36953,"is_reserved":false,"is_disabled":false,"rental_uris":{"android":"levelo://app?vid=86c5afc8-78c3-41e2-adc8-27514cf16aa2","ios":"levelo://app?vid=86c5afc8-78c3-41e2-adc8-27514cf16aa2"},"vehicle_type_id":"4","last_reported":1727464014,"current_range_meters":6400,"station_id":"ce4bha12rcd13ifvqef0","pricing_plan_id":"cebpf4jnsgd1na2vs0mg"},{"bike_id":"3ed6da31-f8cb-4ecb-b728-b0ca71a38115","system_id":"levelo_inurba_marseille","lat":43.24649,"lon":5.38892,"is_reserved":false,"is_disabled":false,"rental_uris":{"android":"levelo://app?vid=3ed6da31-f8cb-4ecb-b728-b0ca71a38115","ios":"levelo://app?vid=3ed6da31-f8cb-4ecb-b728-b0ca71a38115"},"vehicle_type_id":"4","last_reported":1727464014,"current_range_meters":14800,"station_id":"ce4bhg12rcd13ifvqf60","pricing_plan_id":"cebpf4jnsgd1na2vs0mg"},{"bike_id":"4d472db1-cbfc-4567-9658-076fbfefcf49","system_id":"levelo_inurba_marseille","lat":43.22925,"lon":5.3538,"is_reserved":false,"is_disabled":false,"rental_uris":{"android":"levelo://app?vid=4d472db1-cbfc-4567-9658-076fbfefcf49","ios":"levelo://app?vid=4d472db1-cbfc-4567-9658-076fbfefcf49"},"vehicle_type_id":"4","last_reported":1727464014,"current_range_meters":38800,"station_id":"cpo3532slgdg3j2ikp40","pricing_plan_id":"cebpf4jnsgd1na2vs0mg"},{"bike_id":"02a45cea-fb2e-4732-b922-93bc2dcaed7d","system_id":"levelo_inurba_marseille","lat":43.29271,"lon":5.36848,"is_reserved":false,"is_disabled":false,"rental_uris":{"android":"levelo://app?vid=02a45cea-fb2e-4732-b922-93bc2dcaed7d","ios":"levelo://app?vid=02a45cea-fb2e-4732-b922-93bc2dcaed7d"},"vehicle_type_id":"4","last_reported":1727464014,"current_range_meters":27200,"station_id":"ce4bhbp2rcd13ifvqesg","pricing_plan_id":"cebpf4jnsgd1na2vs0mg"},{"bike_id":"2742751a-81a4-43fe-83f9-f6d9c8f17f37","system_id":"levelo_inurba_marseille","lat":43.29548,"lon":5.42289,"is_reserved":false,"is_disabled":false,"rental_uris":{"android":"levelo://app?vid=2742751a-81a4-43fe-83f9-f6d9c8f17f37","ios":"levelo://app?vid=2742751a-81a4-43fe-83f9-f6d9c8f17f37"},"vehicle_type_id":"4","last_reported":1727464014,"current_range_meters":15200,"station_id":"ce4bhph2rcd13ifvqhdg","pricing_plan_id":"cebpf4jnsgd1na2vs0mg"},{"bike_id":"cf017958-1953-4007-9728-675ec719401b","system_id":"levelo_inurba_marseille","lat":43.25834,"lon":5.39425,"is_reserved":false,"is_disabled":false,"rental_uris":{"android":"levelo://app?vid=cf017958-1953-4007-9728-675ec719401b","ios":"levelo://app?vid=cf017958-1953-4007-9728-675ec719401b"},"vehicle_type_id":"4","last_reported":1727464014,"current_range_meters":8800,"station_id":"ce4bhip2rcd13ifvqft0","pricing_plan_id":"cebpf4jnsgd1na2vs0mg"},{"bike_id":"b8bfcbe3-64f7-43f2-bd66-776e62010c64","system_id":"levelo_inurba_marseille","lat":43.29249,"lon":5.38451,"is_reserved":false,"is_disabled":false,"rental_uris":{"android":"levelo://app?vid=b8bfcbe3-64f7-43f2-bd66-776e62010c64","ios":"levelo://app?vid=b8bfcbe3-64f7-43f2-bd66-776e62010c64"},"vehicle_type_id":"4","last_reported":1727464014,"current_range_meters":18000,"station_id":"ce4bh692rcd13ifvqea0","pricing_plan_id":"cebpf4jnsgd1na2vs0mg"},{"bike_id":"80fe4a40-a502-4db0-b980-a485af7c8744","system_id":"levelo_inurba_marseille","lat":43.33752,"lon":5.37361,"is_reserved":false,"is_disabled":false,"rental_uris":{"android":"levelo://app?vid=80fe4a40-a502-4db0-b980-a485af7c8744","ios":"levelo://app?vid=80fe4a40-a502-4db0-b980-a485af7c8744"},"vehicle_type_id":"4","last_reported":1727464014,"current_range_meters":25600,"station_id":"","pricing_plan_id":"cebpf4jnsgd1na2vs0mg"},{"bike_id":"5f03db8a-f240-48b5-83bd-cad051fecef5","system_id":"levelo_inurba_marseille","lat":43.29549,"lon":5.42289,"is_reserved":false,"is_disabled":false,"rental_uris":{"android":"levelo://app?vid=5f03db8a-f240-48b5-83bd-cad051fecef5","ios":"levelo://app?vid=5f03db8a-f240-48b5-83bd-cad051fecef5"},"vehicle_type_id":"4","last_reported":1727464014,"current_range_meters":35200,"station_id":"ce4bhph2rcd13ifvqhdg","pricing_plan_id":"cebpf4jnsgd1na2vs0mg"},{"bike_id":"c49ec0de-4371-4f14-927d-050fb8783c37","system_id":"levelo_inurba_marseille","lat":43.24387,"lon":5.37056,"is_reserved":false,"is_disabled":false,"rental_uris":{"android":"levelo://app?vid=c49ec0de-4371-4f14-927d-050fb8783c37","ios":"levelo://app?vid=c49ec0de-4371-4f14-927d-050fb8783c37"},"vehicle_type_id":"4","last_reported":1727464014,"current_range_meters":33600,"station_id":"ce4bhhh2rcd13ifvqfk0","pricing_plan_id":"cebpf4jnsgd1na2vs0mg"},{"bike_id":"f21983c5-3265-446d-b37f-836bdc7b0f78","system_id":"levelo_inurba_marseille","lat":43.337444,"lon":5.374475,"is_reserved":false,"is_disabled":false,"rental_uris":{"android":"levelo://app?vid=f21983c5-3265-446d-b37f-836bdc7b0f78","ios":"levelo://app?vid=f21983c5-3265-446d-b37f-836bdc7b0f78"},"vehicle_type_id":"4","last_reported":1727464014,"current_range_meters":15200,"station_id":"","pricing_plan_id":"cebpf4jnsgd1na2vs0mg"},{"bike_id":"a5f7bd71-b557-4e02-b973-7ea6ed14089a","system_id":"levelo_inurba_marseille","lat":43.29417,"lon":5.38625,"is_reserved":false,"is_disabled":false,"rental_uris":{"android":"levelo://app?vid=a5f7bd71-b557-4e02-b973-7ea6ed14089a","ios":"levelo://app?vid=a5f7bd71-b557-4e02-b973-7ea6ed14089a"},"vehicle_type_id":"4","last_reported":1727464014,"current_range_meters":16800,"station_id":"ce4bh2h2rcd13ifvqdh0","pricing_plan_id":"cebpf4jnsgd1na2vs0mg"},{"bike_id":"0442cc7b-ccc0-4574-9de2-1648ded92593","system_id":"levelo_inurba_marseille","lat":43.26803,"lon":5.40269,"is_reserved":false,"is_disabled":false,"rental_uris":{"android":"levelo://app?vid=0442cc7b-ccc0-4574-9de2-1648ded92593","ios":"levelo://app?vid=0442cc7b-ccc0-4574-9de2-1648ded92593"},"vehicle_type_id":"4","last_reported":1727464014,"current_range_meters":38800,"station_id":"ce501612rcd8frsf0b60","pricing_plan_id":"cebpf4jnsgd1na2vs0mg"},{"bike_id":"089a31b6-874a-499e-a089-1a516c764bb5","system_id":"levelo_inurba_marseille","lat":43.27822,"lon":5.40714,"is_reserved":false,"is_disabled":false,"rental_uris":{"android":"levelo://app?vid=089a31b6-874a-499e-a089-1a516c764bb5","ios":"levelo://app?vid=089a31b6-874a-499e-a089-1a516c764bb5"},"vehicle_type_id":"4","last_reported":1727464014,"current_range_meters":38800,"station_id":"ce4bhnh2rcd13ifvqgtg","pricing_plan_id":"cebpf4jnsgd1na2vs0mg"},{"bike_id":"c522eb91-cefa-4c0b-ab09-be02bdbae53f","system_id":"levelo_inurba_marseille","lat":43.2925,"lon":5.38448,"is_reserved":false,"is_disabled":false,"rental_uris":{"android":"levelo://app?vid=c522eb91-cefa-4c0b-ab09-be02bdbae53f","ios":"levelo://app?vid=c522eb91-cefa-4c0b-ab09-be02bdbae53f"},"vehicle_type_id":"4","last_reported":1727464014,"current_range_meters":36800,"station_id":"ce4bh692rcd13ifvqea0","pricing_plan_id":"cebpf4jnsgd1na2vs0mg"},{"bike_id":"21e8af0e-4742-456b-8251-9124e8f3a7e6","system_id":"levelo_inurba_marseille","lat":43.31993,"lon":5.38155,"is_reserved":false,"is_disabled":false,"rental_uris":{"android":"levelo://app?vid=21e8af0e-4742-456b-8251-9124e8f3a7e6","ios":"levelo://app?vid=21e8af0e-4742-456b-8251-9124e8f3a7e6"},"vehicle_type_id":"4","last_reported":1727464014,"current_range_meters":38800,"station_id":"ce4bhr12rcd13ifvqhpg","pricing_plan_id":"cebpf4jnsgd1na2vs0mg"},{"bike_id":"4fba6e72-f557-48a5-97ab-0a5a35554da0","system_id":"levelo_inurba_marseille","lat":43.29071,"lon":5.37165,"is_reserved":false,"is_disabled":false,"rental_uris":{"android":"levelo://app?vid=4fba6e72-f557-48a5-97ab-0a5a35554da0","ios":"levelo://app?vid=4fba6e72-f557-48a5-97ab-0a5a35554da0"},"vehicle_type_id":"4","last_reported":1727464014,"current_range_meters":38000,"station_id":"ce4bh5p2rcd13ifvqe4g","pricing_plan_id":"cebpf4jnsgd1na2vs0mg"},{"bike_id":"2f6ebc23-6686-4385-ae5e-587cd6abadb6","system_id":"levelo_inurba_marseille","lat":43.288392,"lon":5.39315,"is_reserved":false,"is_disabled":false,"rental_uris":{"android":"levelo://app?vid=2f6ebc23-6686-4385-ae5e-587cd6abadb6","ios":"levelo://app?vid=2f6ebc23-6686-4385-ae5e-587cd6abadb6"},"vehicle_type_id":"4","last_reported":1727464014,"current_range_meters":9600,"station_id":"ce4bh2p2rcd13ifvqdi0","pricing_plan_id":"cebpf4jnsgd1na2vs0mg"},{"bike_id":"f7be5d61-5da8-493f-b7ec-f9b20a398837","system_id":"levelo_inurba_marseille","lat":43.29275,"lon":5.36848,"is_reserved":false,"is_disabled":false,"rental_uris":{"android":"levelo://app?vid=f7be5d61-5da8-493f-b7ec-f9b20a398837","ios":"levelo://app?vid=f7be5d61-5da8-493f-b7ec-f9b20a398837"},"vehicle_type_id":"4","last_reported":1727464014,"current_range_meters":4800,"station_id":"ce4bhbp2rcd13ifvqesg","pricing_plan_id":"cebpf4jnsgd1na2vs0mg"},{"bike_id":"d2c593f7-ebc0-4cd0-813e-87a2f644cb0e","system_id":"levelo_inurba_marseille","lat":43.29028,"lon":5.3757,"is_reserved":false,"is_disabled":false,"rental_uris":{"android":"levelo://app?vid=d2c593f7-ebc0-4cd0-813e-87a2f644cb0e","ios":"levelo://app?vid=d2c593f7-ebc0-4cd0-813e-87a2f644cb0e"},"vehicle_type_id":"4","last_reported":1727464014,"current_range_meters":12400,"station_id":"ce4bh692rcd13ifvqe90","pricing_plan_id":"cebpf4jnsgd1na2vs0mg"},{"bike_id":"96f53fc8-f97a-428b-9a98-719c37597a95","system_id":"levelo_inurba_marseille","lat":43.29418,"lon":5.38629,"is_reserved":false,"is_disabled":false,"rental_uris":{"android":"levelo://app?vid=96f53fc8-f97a-428b-9a98-719c37597a95","ios":"levelo://app?vid=96f53fc8-f97a-428b-9a98-719c37597a95"},"vehicle_type_id":"4","last_reported":1727464014,"current_range_meters":38800,"station_id":"ce4bh2h2rcd13ifvqdh0","pricing_plan_id":"cebpf4jnsgd1na2vs0mg"},{"bike_id":"cfc82549-f4f8-416f-8073-fc3011115e45","system_id":"levelo_inurba_marseille","lat":43.31686,"lon":5.40478,"is_reserved":false,"is_disabled":false,"rental_uris":{"android":"levelo://app?vid=cfc82549-f4f8-416f-8073-fc3011115e45","ios":"levelo://app?vid=cfc82549-f4f8-416f-8073-fc3011115e45"},"vehicle_type_id":"4","last_reported":1727464014,"current_range_meters":38800,"station_id":"ce4bh012rcd13ifvqd00","pricing_plan_id":"cebpf4jnsgd1na2vs0mg"},{"bike_id":"e1792dfc-2b2a-453d-a8fa-6d36fcd903e3","system_id":"levelo_inurba_marseille","lat":43.2318,"lon":5.39993,"is_reserved":false,"is_disabled":false,"rental_uris":{"android":"levelo://app?vid=e1792dfc-2b2a-453d-a8fa-6d36fcd903e3","ios":"levelo://app?vid=e1792dfc-2b2a-453d-a8fa-6d36fcd903e3"},"vehicle_type_id":"4","last_reported":1727464014,"current_range_meters":24800,"station_id":"ce4bhn12rcd13ifvqgqg","pricing_plan_id":"cebpf4jnsgd1na2vs0mg"},{"bike_id":"a6a4b217-17a0-486c-8b77-7cd4353ecf59","system_id":"levelo_inurba_marseille","lat":43.280342,"lon":5.369422,"is_reserved":false,"is_disabled":false,"rental_uris":{"android":"levelo://app?vid=a6a4b217-17a0-486c-8b77-7cd4353ecf59","ios":"levelo://app?vid=a6a4b217-17a0-486c-8b77-7cd4353ecf59"},"vehicle_type_id":"4","last_reported":1727464014,"current_range_meters":25600,"station_id":"ce4bha12rcd13ifvqef0","pricing_plan_id":"cebpf4jnsgd1na2vs0mg"},{"bike_id":"f2f05147-35d4-423a-b7e6-dc64b0be4e84","system_id":"levelo_inurba_marseille","lat":43.29272,"lon":5.36839,"is_reserved":false,"is_disabled":false,"rental_uris":{"android":"levelo://app?vid=f2f05147-35d4-423a-b7e6-dc64b0be4e84","ios":"levelo://app?vid=f2f05147-35d4-423a-b7e6-dc64b0be4e84"},"vehicle_type_id":"4","last_reported":1727464014,"current_range_meters":34000,"station_id":"ce4bhbp2rcd13ifvqesg","pricing_plan_id":"cebpf4jnsgd1na2vs0mg"},{"bike_id":"78e6d79a-7015-4109-af1e-c50d10f7c7ca","system_id":"levelo_inurba_marseille","lat":43.30589,"lon":5.39364,"is_reserved":false,"is_disabled":false,"rental_uris":{"android":"levelo://app?vid=78e6d79a-7015-4109-af1e-c50d10f7c7ca","ios":"levelo://app?vid=78e6d79a-7015-4109-af1e-c50d10f7c7ca"},"vehicle_type_id":"4","last_reported":1727464014,"current_range_meters":14400,"station_id":"ce4bh0p2rcd13ifvqd80","pricing_plan_id":"cebpf4jnsgd1na2vs0mg"},{"bike_id":"706aaea0-ef9a-4c5b-9ed7-e58e19addb8d","system_id":"levelo_inurba_marseille","lat":43.27564,"lon":5.38426,"is_reserved":false,"is_disabled":false,"rental_uris":{"android":"levelo://app?vid=706aaea0-ef9a-4c5b-9ed7-e58e19addb8d","ios":"levelo://app?vid=706aaea0-ef9a-4c5b-9ed7-e58e19addb8d"},"vehicle_type_id":"4","last_reported":1727464014,"current_range_meters":38800,"station_id":"ce4bhh92rcd13ifvqfi0","pricing_plan_id":"cebpf4jnsgd1na2vs0mg"},{"bike_id":"f56f1f8a-a835-4fde-a196-1c56526100a5","system_id":"levelo_inurba_marseille","lat":43.29926,"lon":5.37492,"is_reserved":false,"is_disabled":false,"rental_uris":{"android":"levelo://app?vid=f56f1f8a-a835-4fde-a196-1c56526100a5","ios":"levelo://app?vid=f56f1f8a-a835-4fde-a196-1c56526100a5"},"vehicle_type_id":"4","last_reported":1727464014,"current_range_meters":3200,"station_id":"ce4bgjh2rcd13ifvqbg0","pricing_plan_id":"cebpf4jnsgd1na2vs0mg"},{"bike_id":"22fd8915-ac9f-4f66-bf1e-48583edcce53","system_id":"levelo_inurba_marseille","lat":43.30642,"lon":5.40103,"is_reserved":false,"is_disabled":false,"rental_uris":{"android":"levelo://app?vid=22fd8915-ac9f-4f66-bf1e-48583edcce53","ios":"levelo://app?vid=22fd8915-ac9f-4f66-bf1e-48583edcce53"},"vehicle_type_id":"4","last_reported":1727464014,"current_range_meters":7200,"station_id":"ce4bh112rcd13ifvqda0","pricing_plan_id":"cebpf4jnsgd1na2vs0mg"},{"bike_id":"9f9756ce-f94d-436e-973d-db99b1f0d839","system_id":"levelo_inurba_marseille","lat":43.30951,"lon":5.39039,"is_reserved":false,"is_disabled":false,"rental_uris":{"android":"levelo://app?vid=9f9756ce-f94d-436e-973d-db99b1f0d839","ios":"levelo://app?vid=9f9756ce-f94d-436e-973d-db99b1f0d839"},"vehicle_type_id":"4","last_reported":1727464014,"current_range_meters":35600,"station_id":"ce4bgup2rcd13ifvqco0","pricing_plan_id":"cebpf4jnsgd1na2vs0mg"},{"bike_id":"dc74da9c-f0ec-48af-800a-5b92fb95dd65","system_id":"levelo_inurba_marseille","lat":43.23181,"lon":5.39987,"is_reserved":false,"is_disabled":false,"rental_uris":{"android":"levelo://app?vid=dc74da9c-f0ec-48af-800a-5b92fb95dd65","ios":"levelo://app?vid=dc74da9c-f0ec-48af-800a-5b92fb95dd65"},"vehicle_type_id":"4","last_reported":1727464014,"current_range_meters":18800,"station_id":"ce4bhn12rcd13ifvqgqg","pricing_plan_id":"cebpf4jnsgd1na2vs0mg"},{"bike_id":"93f370fb-4743-4dac-9b60-8d92bfbe4497","system_id":"levelo_inurba_marseille","lat":43.29242,"lon":5.38459,"is_reserved":false,"is_disabled":false,"rental_uris":{"android":"levelo://app?vid=93f370fb-4743-4dac-9b60-8d92bfbe4497","ios":"levelo://app?vid=93f370fb-4743-4dac-9b60-8d92bfbe4497"},"vehicle_type_id":"4","last_reported":1727464014,"current_range_meters":38800,"station_id":"ce4bh692rcd13ifvqea0","pricing_plan_id":"cebpf4jnsgd1na2vs0mg"},{"bike_id":"d7885bbd-5020-4172-86c3-920efd8e6c37","system_id":"levelo_inurba_marseille","lat":43.2318,"lon":5.3999,"is_reserved":false,"is_disabled":false,"rental_uris":{"android":"levelo://app?vid=d7885bbd-5020-4172-86c3-920efd8e6c37","ios":"levelo://app?vid=d7885bbd-5020-4172-86c3-920efd8e6c37"},"vehicle_type_id":"4","last_reported":1727464014,"current_range_meters":5600,"station_id":"ce4bhn12rcd13ifvqgqg","pricing_plan_id":"cebpf4jnsgd1na2vs0mg"},{"bike_id":"16725672-48f8-41b4-88f5-6a6725f13a22","system_id":"levelo_inurba_marseille","lat":43.28659,"lon":5.36358,"is_reserved":false,"is_disabled":false,"rental_uris":{"android":"levelo://app?vid=16725672-48f8-41b4-88f5-6a6725f13a22","ios":"levelo://app?vid=16725672-48f8-41b4-88f5-6a6725f13a22"},"vehicle_type_id":"4","last_reported":1727464014,"current_range_meters":4400,"station_id":"ce4bhah2rcd13ifvqej0","pricing_plan_id":"cebpf4jnsgd1na2vs0mg"},{"bike_id":"4c5926a7-abdb-4bb0-8100-d0d5ae39e46c","system_id":"levelo_inurba_marseille","lat":43.2927,"lon":5.3685,"is_reserved":false,"is_disabled":false,"rental_uris":{"android":"levelo://app?vid=4c5926a7-abdb-4bb0-8100-d0d5ae39e46c","ios":"levelo://app?vid=4c5926a7-abdb-4bb0-8100-d0d5ae39e46c"},"vehicle_type_id":"4","last_reported":1727464014,"current_range_meters":18800,"station_id":"ce4bhbp2rcd13ifvqesg","pricing_plan_id":"cebpf4jnsgd1na2vs0mg"},{"bike_id":"36ea8ff6-211f-4201-a95d-27ad10a2e72a","system_id":"levelo_inurba_marseille","lat":43.29963,"lon":5.41327,"is_reserved":false,"is_disabled":false,"rental_uris":{"android":"levelo://app?vid=36ea8ff6-211f-4201-a95d-27ad10a2e72a","ios":"levelo://app?vid=36ea8ff6-211f-4201-a95d-27ad10a2e72a"},"vehicle_type_id":"4","last_reported":1727464014,"current_range_meters":18800,"station_id":"ce4bhp12rcd13ifvqh9g","pricing_plan_id":"cebpf4jnsgd1na2vs0mg"},{"bike_id":"62919c84-7cfb-49ae-92bb-ea69ffe9e856","system_id":"levelo_inurba_marseille","lat":43.29423,"lon":5.38631,"is_reserved":false,"is_disabled":false,"rental_uris":{"android":"levelo://app?vid=62919c84-7cfb-49ae-92bb-ea69ffe9e856","ios":"levelo://app?vid=62919c84-7cfb-49ae-92bb-ea69ffe9e856"},"vehicle_type_id":"4","last_reported":1727464014,"current_range_meters":24400,"station_id":"ce4bh2h2rcd13ifvqdh0","pricing_plan_id":"cebpf4jnsgd1na2vs0mg"},{"bike_id":"0b36ccd2-c4b3-45b3-a3a6-9085343d050b","system_id":"levelo_inurba_marseille","lat":43.29579,"lon":5.36735,"is_reserved":false,"is_disabled":false,"rental_uris":{"android":"levelo://app?vid=0b36ccd2-c4b3-45b3-a3a6-9085343d050b","ios":"levelo://app?vid=0b36ccd2-c4b3-45b3-a3a6-9085343d050b"},"vehicle_type_id":"4","last_reported":1727464014,"current_range_meters":32000,"station_id":"ce4bgph2rcd13ifvqc2g","pricing_plan_id":"cebpf4jnsgd1na2vs0mg"},{"bike_id":"726c52be-ac29-47f7-83a0-0e907614d78b","system_id":"levelo_inurba_marseille","lat":43.29596,"lon":5.36743,"is_reserved":false,"is_disabled":false,"rental_uris":{"android":"levelo://app?vid=726c52be-ac29-47f7-83a0-0e907614d78b","ios":"levelo://app?vid=726c52be-ac29-47f7-83a0-0e907614d78b"},"vehicle_type_id":"4","last_reported":1727464014,"current_range_meters":28400,"station_id":"ce4bgph2rcd13ifvqc2g","pricing_plan_id":"cebpf4jnsgd1na2vs0mg"},{"bike_id":"01669f9f-c914-446c-863b-c8b6da599c1a","system_id":"levelo_inurba_marseille","lat":43.3133,"lon":5.39704,"is_reserved":false,"is_disabled":false,"rental_uris":{"android":"levelo://app?vid=01669f9f-c914-446c-863b-c8b6da599c1a","ios":"levelo://app?vid=01669f9f-c914-446c-863b-c8b6da599c1a"},"vehicle_type_id":"4","last_reported":1727464014,"current_range_meters":38800,"station_id":"ce4bgvp2rcd13ifvqcu0","pricing_plan_id":"cebpf4jnsgd1na2vs0mg"},{"bike_id":"d7cae8ce-5053-4a26-b806-d35318df59e9","system_id":"levelo_inurba_marseille","lat":43.30958,"lon":5.39038,"is_reserved":false,"is_disabled":false,"rental_uris":{"android":"levelo://app?vid=d7cae8ce-5053-4a26-b806-d35318df59e9","ios":"levelo://app?vid=d7cae8ce-5053-4a26-b806-d35318df59e9"},"vehicle_type_id":"4","last_reported":1727464014,"current_range_meters":8800,"station_id":"ce4bgup2rcd13ifvqco0","pricing_plan_id":"cebpf4jnsgd1na2vs0mg"},{"bike_id":"4b3bba35-5f49-41fa-b58a-6e1280397c7e","system_id":"levelo_inurba_marseille","lat":43.31184,"lon":5.38716,"is_reserved":false,"is_disabled":false,"rental_uris":{"android":"levelo://app?vid=4b3bba35-5f49-41fa-b58a-6e1280397c7e","ios":"levelo://app?vid=4b3bba35-5f49-41fa-b58a-6e1280397c7e"},"vehicle_type_id":"4","last_reported":1727464014,"current_range_meters":38800,"station_id":"ce4bgv12rcd13ifvqcp0","pricing_plan_id":"cebpf4jnsgd1na2vs0mg"},{"bike_id":"d1bdffd0-db72-47ad-a26b-7d2fd19579b7","system_id":"levelo_inurba_marseille","lat":43.32659,"lon":5.41003,"is_reserved":false,"is_disabled":false,"rental_uris":{"android":"levelo://app?vid=d1bdffd0-db72-47ad-a26b-7d2fd19579b7","ios":"levelo://app?vid=d1bdffd0-db72-47ad-a26b-7d2fd19579b7"},"vehicle_type_id":"4","last_reported":1727464014,"current_range_meters":14800,"station_id":"ce4bhpp2rcd13ifvqhgg","pricing_plan_id":"cebpf4jnsgd1na2vs0mg"},{"bike_id":"f3d92808-e6ac-4d08-b0be-1e0a80b106f4","system_id":"levelo_inurba_marseille","lat":43.28719,"lon":5.37947,"is_reserved":false,"is_disabled":false,"rental_uris":{"android":"levelo://app?vid=f3d92808-e6ac-4d08-b0be-1e0a80b106f4","ios":"levelo://app?vid=f3d92808-e6ac-4d08-b0be-1e0a80b106f4"},"vehicle_type_id":"4","last_reported":1727464014,"current_range_meters":24800,"station_id":"ce4bh9p2rcd13ifvqec0","pricing_plan_id":"cebpf4jnsgd1na2vs0mg"},{"bike_id":"eaff5abd-d4ea-46e6-86b8-478167451cb7","system_id":"levelo_inurba_marseille","lat":43.33739,"lon":5.37468,"is_reserved":false,"is_disabled":false,"rental_uris":{"android":"levelo://app?vid=eaff5abd-d4ea-46e6-86b8-478167451cb7","ios":"levelo://app?vid=eaff5abd-d4ea-46e6-86b8-478167451cb7"},"vehicle_type_id":"4","last_reported":1727464014,"current_range_meters":28000,"station_id":"","pricing_plan_id":"cebpf4jnsgd1na2vs0mg"},{"bike_id":"a6b26dd6-fa8e-4173-9e2d-6294bf7aa62a","system_id":"levelo_inurba_marseille","lat":43.26501,"lon":5.39545,"is_reserved":false,"is_disabled":false,"rental_uris":{"android":"levelo://app?vid=a6b26dd6-fa8e-4173-9e2d-6294bf7aa62a","ios":"levelo://app?vid=a6b26dd6-fa8e-4173-9e2d-6294bf7aa62a"},"vehicle_type_id":"4","last_reported":1727464014,"current_range_meters":6800,"station_id":"ce4bhi12rcd13ifvqfq0","pricing_plan_id":"cebpf4jnsgd1na2vs0mg"},{"bike_id":"43300752-b81e-4f74-8ce8-cacbc77e3c52","system_id":"levelo_inurba_marseille","lat":43.28147,"lon":5.37851,"is_reserved":false,"is_disabled":false,"rental_uris":{"android":"levelo://app?vid=43300752-b81e-4f74-8ce8-cacbc77e3c52","ios":"levelo://app?vid=43300752-b81e-4f74-8ce8-cacbc77e3c52"},"vehicle_type_id":"4","last_reported":1727464014,"current_range_meters":21600,"station_id":"","pricing_plan_id":"cebpf4jnsgd1na2vs0mg"},{"bike_id":"d1c89207-ba57-4187-9075-9013efcba608","system_id":"levelo_inurba_marseille","lat":43.2952,"lon":5.39404,"is_reserved":false,"is_disabled":false,"rental_uris":{"android":"levelo://app?vid=d1c89207-ba57-4187-9075-9013efcba608","ios":"levelo://app?vid=d1c89207-ba57-4187-9075-9013efcba608"},"vehicle_type_id":"4","last_reported":1727464014,"current_range_meters":7200,"station_id":"ce4bh292rcd13ifvqdf0","pricing_plan_id":"cebpf4jnsgd1na2vs0mg"},{"bike_id":"370c78c6-d5d5-4ad9-8171-38d3781f356f","system_id":"levelo_inurba_marseille","lat":43.28032,"lon":5.36947,"is_reserved":false,"is_disabled":false,"rental_uris":{"android":"levelo://app?vid=370c78c6-d5d5-4ad9-8171-38d3781f356f","ios":"levelo://app?vid=370c78c6-d5d5-4ad9-8171-38d3781f356f"},"vehicle_type_id":"4","last_reported":1727464014,"current_range_meters":27200,"station_id":"ce4bha12rcd13ifvqef0","pricing_plan_id":"cebpf4jnsgd1na2vs0mg"},{"bike_id":"51745000-1ac8-471d-9808-be0675923494","system_id":"levelo_inurba_marseille","lat":43.29532,"lon":5.38541,"is_reserved":false,"is_disabled":false,"rental_uris":{"android":"levelo://app?vid=51745000-1ac8-471d-9808-be0675923494","ios":"levelo://app?vid=51745000-1ac8-471d-9808-be0675923494"},"vehicle_type_id":"4","last_reported":1727464014,"current_range_meters":8800,"station_id":"ce4bgih2rcd13ifvqba0","pricing_plan_id":"cebpf4jnsgd1na2vs0mg"},{"bike_id":"846a2377-2a9e-4a1d-a027-b905c271950d","system_id":"levelo_inurba_marseille","lat":43.30285,"lon":5.37702,"is_reserved":false,"is_disabled":false,"rental_uris":{"android":"levelo://app?vid=846a2377-2a9e-4a1d-a027-b905c271950d","ios":"levelo://app?vid=846a2377-2a9e-4a1d-a027-b905c271950d"},"vehicle_type_id":"4","last_reported":1727464014,"current_range_meters":18000,"station_id":"ce4bguh2rcd13ifvqcj0","pricing_plan_id":"cebpf4jnsgd1na2vs0mg"},{"bike_id":"e7efe5dc-320c-4d4f-b884-9a38c8ff61c5","system_id":"levelo_inurba_marseille","lat":43.30545,"lon":5.36559,"is_reserved":false,"is_disabled":false,"rental_uris":{"android":"levelo://app?vid=e7efe5dc-320c-4d4f-b884-9a38c8ff61c5","ios":"levelo://app?vid=e7efe5dc-320c-4d4f-b884-9a38c8ff61c5"},"vehicle_type_id":"4","last_reported":1727464014,"current_range_meters":11200,"station_id":"ce4bgs12rcd13ifvqcag","pricing_plan_id":"cebpf4jnsgd1na2vs0mg"},{"bike_id":"1b8585f5-8fb0-42e3-aeb8-462c15d30517","system_id":"levelo_inurba_marseille","lat":43.29701,"lon":5.36616,"is_reserved":false,"is_disabled":false,"rental_uris":{"android":"levelo://app?vid=1b8585f5-8fb0-42e3-aeb8-462c15d30517","ios":"levelo://app?vid=1b8585f5-8fb0-42e3-aeb8-462c15d30517"},"vehicle_type_id":"4","last_reported":1727464014,"current_range_meters":37600,"station_id":"ce4bgn12rcd13ifvqbt0","pricing_plan_id":"cebpf4jnsgd1na2vs0mg"},{"bike_id":"18c2ccda-fb1d-42f5-a4f4-19d17fde2b7c","system_id":"levelo_inurba_marseille","lat":43.29518,"lon":5.39029,"is_reserved":false,"is_disabled":false,"rental_uris":{"android":"levelo://app?vid=18c2ccda-fb1d-42f5-a4f4-19d17fde2b7c","ios":"levelo://app?vid=18c2ccda-fb1d-42f5-a4f4-19d17fde2b7c"},"vehicle_type_id":"4","last_reported":1727464014,"current_range_meters":38000,"station_id":"ce4bh3p2rcd13ifvqdp0","pricing_plan_id":"cebpf4jnsgd1na2vs0mg"},{"bike_id":"31e28f2c-4397-4e6f-99b5-b58bb27c38d7","system_id":"levelo_inurba_marseille","lat":43.31272,"lon":5.40178,"is_reserved":false,"is_disabled":false,"rental_uris":{"android":"levelo://app?vid=31e28f2c-4397-4e6f-99b5-b58bb27c38d7","ios":"levelo://app?vid=31e28f2c-4397-4e6f-99b5-b58bb27c38d7"},"vehicle_type_id":"4","last_reported":1727464014,"current_range_meters":28400,"station_id":"ce4bh092rcd13ifvqd30","pricing_plan_id":"cebpf4jnsgd1na2vs0mg"},{"bike_id":"d0e7e5fb-6435-48ea-8691-fe43ea6f3c00","system_id":"levelo_inurba_marseille","lat":43.3266,"lon":5.40992,"is_reserved":false,"is_disabled":false,"rental_uris":{"android":"levelo://app?vid=d0e7e5fb-6435-48ea-8691-fe43ea6f3c00","ios":"levelo://app?vid=d0e7e5fb-6435-48ea-8691-fe43ea6f3c00"},"vehicle_type_id":"4","last_reported":1727464014,"current_range_meters":3200,"station_id":"ce4bhpp2rcd13ifvqhgg","pricing_plan_id":"cebpf4jnsgd1na2vs0mg"},{"bike_id":"cf0b8685-8a69-450a-95b2-03f5dbb8b43e","system_id":"levelo_inurba_marseille","lat":43.2668,"lon":5.39005,"is_reserved":false,"is_disabled":false,"rental_uris":{"android":"levelo://app?vid=cf0b8685-8a69-450a-95b2-03f5dbb8b43e","ios":"levelo://app?vid=cf0b8685-8a69-450a-95b2-03f5dbb8b43e"},"vehicle_type_id":"4","last_reported":1727464014,"current_range_meters":15200,"station_id":"ce4bhe12rcd13ifvqf30","pricing_plan_id":"cebpf4jnsgd1na2vs0mg"},{"bike_id":"6a6fc03d-feb6-418b-9d20-ec231cf4c236","system_id":"levelo_inurba_marseille","lat":43.29519,"lon":5.394,"is_reserved":false,"is_disabled":false,"rental_uris":{"android":"levelo://app?vid=6a6fc03d-feb6-418b-9d20-ec231cf4c236","ios":"levelo://app?vid=6a6fc03d-feb6-418b-9d20-ec231cf4c236"},"vehicle_type_id":"4","last_reported":1727464014,"current_range_meters":9600,"station_id":"ce4bh292rcd13ifvqdf0","pricing_plan_id":"cebpf4jnsgd1na2vs0mg"},{"bike_id":"cbf6decf-a54e-429c-b650-eec76bdf5def","system_id":"levelo_inurba_marseille","lat":43.32286,"lon":5.38272,"is_reserved":false,"is_disabled":false,"rental_uris":{"android":"levelo://app?vid=cbf6decf-a54e-429c-b650-eec76bdf5def","ios":"levelo://app?vid=cbf6decf-a54e-429c-b650-eec76bdf5def"},"vehicle_type_id":"4","last_reported":1727464014,"current_range_meters":38800,"station_id":"ce4bhr12rcd13ifvqhqg","pricing_plan_id":"cebpf4jnsgd1na2vs0mg"},{"bike_id":"dace2bb3-10a4-4f46-b7d8-eb3a3c6bfebc","system_id":"levelo_inurba_marseille","lat":43.269265,"lon":5.389104,"is_reserved":false,"is_disabled":false,"rental_uris":{"android":"levelo://app?vid=dace2bb3-10a4-4f46-b7d8-eb3a3c6bfebc","ios":"levelo://app?vid=dace2bb3-10a4-4f46-b7d8-eb3a3c6bfebc"},"vehicle_type_id":"4","last_reported":1727464014,"current_range_meters":29600,"station_id":"ce4bhhh2rcd13ifvqfl0","pricing_plan_id":"cebpf4jnsgd1na2vs0mg"},{"bike_id":"202d0f96-9b89-45a2-b019-3507273a30d5","system_id":"levelo_inurba_marseille","lat":43.2319,"lon":5.39996,"is_reserved":false,"is_disabled":false,"rental_uris":{"android":"levelo://app?vid=202d0f96-9b89-45a2-b019-3507273a30d5","ios":"levelo://app?vid=202d0f96-9b89-45a2-b019-3507273a30d5"},"vehicle_type_id":"4","last_reported":1727464014,"current_range_meters":38400,"station_id":"ce4bhn12rcd13ifvqgqg","pricing_plan_id":"cebpf4jnsgd1na2vs0mg"},{"bike_id":"af3b8fb4-9de2-47f1-b51b-cd9d7406c621","system_id":"levelo_inurba_marseille","lat":43.25492,"lon":5.37649,"is_reserved":false,"is_disabled":false,"rental_uris":{"android":"levelo://app?vid=af3b8fb4-9de2-47f1-b51b-cd9d7406c621","ios":"levelo://app?vid=af3b8fb4-9de2-47f1-b51b-cd9d7406c621"},"vehicle_type_id":"4","last_reported":1727464014,"current_range_meters":6400,"station_id":"ce4bhh12rcd13ifvqff0","pricing_plan_id":"cebpf4jnsgd1na2vs0mg"},{"bike_id":"c88309f9-4d0a-4024-814a-1c179c0bfdcc","system_id":"levelo_inurba_marseille","lat":43.31325,"lon":5.39698,"is_reserved":false,"is_disabled":false,"rental_uris":{"android":"levelo://app?vid=c88309f9-4d0a-4024-814a-1c179c0bfdcc","ios":"levelo://app?vid=c88309f9-4d0a-4024-814a-1c179c0bfdcc"},"vehicle_type_id":"4","last_reported":1727464014,"current_range_meters":11200,"station_id":"ce4bgvp2rcd13ifvqcu0","pricing_plan_id":"cebpf4jnsgd1na2vs0mg"},{"bike_id":"ac5bbc82-9210-4c88-a50f-35ebfa070e0f","system_id":"levelo_inurba_marseille","lat":43.23145,"lon":5.43722,"is_reserved":false,"is_disabled":false,"rental_uris":{"android":"levelo://app?vid=ac5bbc82-9210-4c88-a50f-35ebfa070e0f","ios":"levelo://app?vid=ac5bbc82-9210-4c88-a50f-35ebfa070e0f"},"vehicle_type_id":"4","last_reported":1727464014,"current_range_meters":22000,"station_id":"ce4bhmp2rcd13ifvqgog","pricing_plan_id":"cebpf4jnsgd1na2vs0mg"},{"bike_id":"4d2b2e5a-f864-42f2-865e-f7b26541933a","system_id":"levelo_inurba_marseille","lat":43.29931,"lon":5.36554,"is_reserved":false,"is_disabled":false,"rental_uris":{"android":"levelo://app?vid=4d2b2e5a-f864-42f2-865e-f7b26541933a","ios":"levelo://app?vid=4d2b2e5a-f864-42f2-865e-f7b26541933a"},"vehicle_type_id":"4","last_reported":1727464014,"current_range_meters":20000,"station_id":"ce4bgm92rcd13ifvqbr0","pricing_plan_id":"cebpf4jnsgd1na2vs0mg"},{"bike_id":"b2f0cef3-219f-4add-8065-3652e919cd75","system_id":"levelo_inurba_marseille","lat":43.29042,"lon":5.39962,"is_reserved":false,"is_disabled":false,"rental_uris":{"android":"levelo://app?vid=b2f0cef3-219f-4add-8065-3652e919cd75","ios":"levelo://app?vid=b2f0cef3-219f-4add-8065-3652e919cd75"},"vehicle_type_id":"4","last_reported":1727464014,"current_range_meters":25200,"station_id":"ce4bh392rcd13ifvqdm0","pricing_plan_id":"cebpf4jnsgd1na2vs0mg"},{"bike_id":"000f5c0b-520a-4c34-bab1-17fcab09c2c9","system_id":"levelo_inurba_marseille","lat":43.31365,"lon":5.3849,"is_reserved":false,"is_disabled":false,"rental_uris":{"android":"levelo://app?vid=000f5c0b-520a-4c34-bab1-17fcab09c2c9","ios":"levelo://app?vid=000f5c0b-520a-4c34-bab1-17fcab09c2c9"},"vehicle_type_id":"4","last_reported":1727464014,"current_range_meters":23200,"station_id":"ce4bgt92rcd13ifvqcf0","pricing_plan_id":"cebpf4jnsgd1na2vs0mg"},{"bike_id":"a5e4464a-0e0b-4cae-88b3-e36bf4aea090","system_id":"levelo_inurba_marseille","lat":43.22928,"lon":5.3538,"is_reserved":false,"is_disabled":false,"rental_uris":{"android":"levelo://app?vid=a5e4464a-0e0b-4cae-88b3-e36bf4aea090","ios":"levelo://app?vid=a5e4464a-0e0b-4cae-88b3-e36bf4aea090"},"vehicle_type_id":"4","last_reported":1727464014,"current_range_meters":8800,"station_id":"cpo3532slgdg3j2ikp40","pricing_plan_id":"cebpf4jnsgd1na2vs0mg"},{"bike_id":"f834e384-6622-45c5-95d2-9856c72f84e8","system_id":"levelo_inurba_marseille","lat":43.29979,"lon":5.38492,"is_reserved":false,"is_disabled":false,"rental_uris":{"android":"levelo://app?vid=f834e384-6622-45c5-95d2-9856c72f84e8","ios":"levelo://app?vid=f834e384-6622-45c5-95d2-9856c72f84e8"},"vehicle_type_id":"4","last_reported":1727464014,"current_range_meters":37600,"station_id":"ce4bgj92rcd13ifvqbd0","pricing_plan_id":"cebpf4jnsgd1na2vs0mg"},{"bike_id":"3632fa2f-62bd-4fdc-801d-e7e5e39cde09","system_id":"levelo_inurba_marseille","lat":43.29527,"lon":5.39034,"is_reserved":false,"is_disabled":false,"rental_uris":{"android":"levelo://app?vid=3632fa2f-62bd-4fdc-801d-e7e5e39cde09","ios":"levelo://app?vid=3632fa2f-62bd-4fdc-801d-e7e5e39cde09"},"vehicle_type_id":"4","last_reported":1727464014,"current_range_meters":15200,"station_id":"ce4bh3p2rcd13ifvqdp0","pricing_plan_id":"cebpf4jnsgd1na2vs0mg"},{"bike_id":"75a57ddf-dbc9-4398-8a39-88def97a7cb6","system_id":"levelo_inurba_marseille","lat":43.29038,"lon":5.39961,"is_reserved":false,"is_disabled":false,"rental_uris":{"android":"levelo://app?vid=75a57ddf-dbc9-4398-8a39-88def97a7cb6","ios":"levelo://app?vid=75a57ddf-dbc9-4398-8a39-88def97a7cb6"},"vehicle_type_id":"4","last_reported":1727464014,"current_range_meters":16400,"station_id":"ce4bh392rcd13ifvqdm0","pricing_plan_id":"cebpf4jnsgd1na2vs0mg"},{"bike_id":"c752170d-5bcb-4773-941e-b35a5337b5e5","system_id":"levelo_inurba_marseille","lat":43.315351,"lon":5.380301,"is_reserved":false,"is_disabled":false,"rental_uris":{"android":"levelo://app?vid=c752170d-5bcb-4773-941e-b35a5337b5e5","ios":"levelo://app?vid=c752170d-5bcb-4773-941e-b35a5337b5e5"},"vehicle_type_id":"4","last_reported":1727464014,"current_range_meters":38800,"station_id":"ce4bhsp2rcd13ifvqi50","pricing_plan_id":"cebpf4jnsgd1na2vs0mg"},{"bike_id":"941aa7dc-e708-4f3e-accb-60c0c5c9d163","system_id":"levelo_inurba_marseille","lat":43.30794,"lon":5.43533,"is_reserved":false,"is_disabled":false,"rental_uris":{"android":"levelo://app?vid=941aa7dc-e708-4f3e-accb-60c0c5c9d163","ios":"levelo://app?vid=941aa7dc-e708-4f3e-accb-60c0c5c9d163"},"vehicle_type_id":"4","last_reported":1727464014,"current_range_meters":31200,"station_id":"ce4bhph2rcd13ifvqheg","pricing_plan_id":"cebpf4jnsgd1na2vs0mg"},{"bike_id":"afb3fc9a-1214-41ee-86fc-9b8978e98176","system_id":"levelo_inurba_marseille","lat":43.28398,"lon":5.3751,"is_reserved":false,"is_disabled":false,"rental_uris":{"android":"levelo://app?vid=afb3fc9a-1214-41ee-86fc-9b8978e98176","ios":"levelo://app?vid=afb3fc9a-1214-41ee-86fc-9b8978e98176"},"vehicle_type_id":"4","last_reported":1727464014,"current_range_meters":2800,"station_id":"ce4bh412rcd13ifvqds0","pricing_plan_id":"cebpf4jnsgd1na2vs0mg"},{"bike_id":"01776a67-f0d1-444d-a313-0f450065fcbb","system_id":"levelo_inurba_marseille","lat":43.29522,"lon":5.39412,"is_reserved":false,"is_disabled":false,"rental_uris":{"android":"levelo://app?vid=01776a67-f0d1-444d-a313-0f450065fcbb","ios":"levelo://app?vid=01776a67-f0d1-444d-a313-0f450065fcbb"},"vehicle_type_id":"4","last_reported":1727464014,"current_range_meters":4400,"station_id":"ce4bh292rcd13ifvqdf0","pricing_plan_id":"cebpf4jnsgd1na2vs0mg"},{"bike_id":"606a2540-fc60-4a7e-98d0-95dc8bdb56b6","system_id":"levelo_inurba_marseille","lat":43.28036,"lon":5.36951,"is_reserved":false,"is_disabled":false,"rental_uris":{"android":"levelo://app?vid=606a2540-fc60-4a7e-98d0-95dc8bdb56b6","ios":"levelo://app?vid=606a2540-fc60-4a7e-98d0-95dc8bdb56b6"},"vehicle_type_id":"4","last_reported":1727464014,"current_range_meters":20400,"station_id":"ce4bha12rcd13ifvqef0","pricing_plan_id":"cebpf4jnsgd1na2vs0mg"},{"bike_id":"e9ffd357-c023-4de4-b23a-0d97e28ed439","system_id":"levelo_inurba_marseille","lat":43.26801,"lon":5.40271,"is_reserved":false,"is_disabled":false,"rental_uris":{"android":"levelo://app?vid=e9ffd357-c023-4de4-b23a-0d97e28ed439","ios":"levelo://app?vid=e9ffd357-c023-4de4-b23a-0d97e28ed439"},"vehicle_type_id":"4","last_reported":1727464014,"current_range_meters":40000,"station_id":"ce501612rcd8frsf0b60","pricing_plan_id":"cebpf4jnsgd1na2vs0mg"},{"bike_id":"738e7e6c-8c54-4726-b743-05a0b0cf6bde","system_id":"levelo_inurba_marseille","lat":43.28375,"lon":5.37301,"is_reserved":false,"is_disabled":false,"rental_uris":{"android":"levelo://app?vid=738e7e6c-8c54-4726-b743-05a0b0cf6bde","ios":"levelo://app?vid=738e7e6c-8c54-4726-b743-05a0b0cf6bde"},"vehicle_type_id":"4","last_reported":1727464014,"current_range_meters":20000,"station_id":"","pricing_plan_id":"cebpf4jnsgd1na2vs0mg"},{"bike_id":"372ee004-086b-4908-8c36-4a60452a2d6f","system_id":"levelo_inurba_marseille","lat":43.2893,"lon":5.36404,"is_reserved":false,"is_disabled":false,"rental_uris":{"android":"levelo://app?vid=372ee004-086b-4908-8c36-4a60452a2d6f","ios":"levelo://app?vid=372ee004-086b-4908-8c36-4a60452a2d6f"},"vehicle_type_id":"4","last_reported":1727464014,"current_range_meters":24800,"station_id":"ce4bhc92rcd13ifvqetg","pricing_plan_id":"cebpf4jnsgd1na2vs0mg"},{"bike_id":"ab8e6419-64ea-4fe3-8398-45d93e97adeb","system_id":"levelo_inurba_marseille","lat":43.26927,"lon":5.38918,"is_reserved":false,"is_disabled":false,"rental_uris":{"android":"levelo://app?vid=ab8e6419-64ea-4fe3-8398-45d93e97adeb","ios":"levelo://app?vid=ab8e6419-64ea-4fe3-8398-45d93e97adeb"},"vehicle_type_id":"4","last_reported":1727464014,"current_range_meters":9600,"station_id":"ce4bhhh2rcd13ifvqfl0","pricing_plan_id":"cebpf4jnsgd1na2vs0mg"},{"bike_id":"6833e81a-3478-43e5-89cb-0cd9be1d75fe","system_id":"levelo_inurba_marseille","lat":43.29553,"lon":5.42296,"is_reserved":false,"is_disabled":false,"rental_uris":{"android":"levelo://app?vid=6833e81a-3478-43e5-89cb-0cd9be1d75fe","ios":"levelo://app?vid=6833e81a-3478-43e5-89cb-0cd9be1d75fe"},"vehicle_type_id":"4","last_reported":1727464014,"current_range_meters":25200,"station_id":"ce4bhph2rcd13ifvqhdg","pricing_plan_id":"cebpf4jnsgd1na2vs0mg"},{"bike_id":"7df4defa-e90a-4820-ac06-9981801322d4","system_id":"levelo_inurba_marseille","lat":43.31083,"lon":5.40132,"is_reserved":false,"is_disabled":false,"rental_uris":{"android":"levelo://app?vid=7df4defa-e90a-4820-ac06-9981801322d4","ios":"levelo://app?vid=7df4defa-e90a-4820-ac06-9981801322d4"},"vehicle_type_id":"4","last_reported":1727464014,"current_range_meters":12000,"station_id":"","pricing_plan_id":"cebpf4jnsgd1na2vs0mg"},{"bike_id":"03a2b468-ba18-4113-8727-b9d83c3dda27","system_id":"levelo_inurba_marseille","lat":43.30948,"lon":5.39037,"is_reserved":false,"is_disabled":false,"rental_uris":{"android":"levelo://app?vid=03a2b468-ba18-4113-8727-b9d83c3dda27","ios":"levelo://app?vid=03a2b468-ba18-4113-8727-b9d83c3dda27"},"vehicle_type_id":"4","last_reported":1727464014,"current_range_meters":4400,"station_id":"ce4bgup2rcd13ifvqco0","pricing_plan_id":"cebpf4jnsgd1na2vs0mg"},{"bike_id":"8d376c0a-4cd9-4010-a914-edd03fcdd8f9","system_id":"levelo_inurba_marseille","lat":43.30909,"lon":5.36853,"is_reserved":false,"is_disabled":false,"rental_uris":{"android":"levelo://app?vid=8d376c0a-4cd9-4010-a914-edd03fcdd8f9","ios":"levelo://app?vid=8d376c0a-4cd9-4010-a914-edd03fcdd8f9"},"vehicle_type_id":"4","last_reported":1727464014,"current_range_meters":38000,"station_id":"ce4bgn92rcd13ifvqbvg","pricing_plan_id":"cebpf4jnsgd1na2vs0mg"},{"bike_id":"80e7f5bd-cb5d-4eed-a405-1daff3235810","system_id":"levelo_inurba_marseille","lat":43.2606,"lon":5.394,"is_reserved":false,"is_disabled":false,"rental_uris":{"android":"levelo://app?vid=80e7f5bd-cb5d-4eed-a405-1daff3235810","ios":"levelo://app?vid=80e7f5bd-cb5d-4eed-a405-1daff3235810"},"vehicle_type_id":"4","last_reported":1727464014,"current_range_meters":9200,"station_id":"ce4bhh92rcd13ifvqfj0","pricing_plan_id":"cebpf4jnsgd1na2vs0mg"},{"bike_id":"420b6f26-7fa2-4650-8553-790220a250f6","system_id":"levelo_inurba_marseille","lat":43.27814,"lon":5.40723,"is_reserved":false,"is_disabled":false,"rental_uris":{"android":"levelo://app?vid=420b6f26-7fa2-4650-8553-790220a250f6","ios":"levelo://app?vid=420b6f26-7fa2-4650-8553-790220a250f6"},"vehicle_type_id":"4","last_reported":1727464014,"current_range_meters":38800,"station_id":"ce4bhnh2rcd13ifvqgtg","pricing_plan_id":"cebpf4jnsgd1na2vs0mg"},{"bike_id":"873ecee3-bd87-4849-85c7-1f031cba5533","system_id":"levelo_inurba_marseille","lat":43.31064,"lon":5.38355,"is_reserved":false,"is_disabled":false,"rental_uris":{"android":"levelo://app?vid=873ecee3-bd87-4849-85c7-1f031cba5533","ios":"levelo://app?vid=873ecee3-bd87-4849-85c7-1f031cba5533"},"vehicle_type_id":"4","last_reported":1727464014,"current_range_meters":6400,"station_id":"ce4bgv92rcd13ifvqcr0","pricing_plan_id":"cebpf4jnsgd1na2vs0mg"},{"bike_id":"a93ed487-121d-4ead-9d6e-de68e81f444f","system_id":"levelo_inurba_marseille","lat":43.31995,"lon":5.38159,"is_reserved":false,"is_disabled":false,"rental_uris":{"android":"levelo://app?vid=a93ed487-121d-4ead-9d6e-de68e81f444f","ios":"levelo://app?vid=a93ed487-121d-4ead-9d6e-de68e81f444f"},"vehicle_type_id":"4","last_reported":1727464014,"current_range_meters":26000,"station_id":"ce4bhr12rcd13ifvqhpg","pricing_plan_id":"cebpf4jnsgd1na2vs0mg"},{"bike_id":"8672df4b-8fd4-4b1a-8388-04e2a08e47f9","system_id":"levelo_inurba_marseille","lat":43.30955,"lon":5.39039,"is_reserved":false,"is_disabled":false,"rental_uris":{"android":"levelo://app?vid=8672df4b-8fd4-4b1a-8388-04e2a08e47f9","ios":"levelo://app?vid=8672df4b-8fd4-4b1a-8388-04e2a08e47f9"},"vehicle_type_id":"4","last_reported":1727464014,"current_range_meters":25600,"station_id":"ce4bgup2rcd13ifvqco0","pricing_plan_id":"cebpf4jnsgd1na2vs0mg"},{"bike_id":"c9656059-b28e-4b64-b742-b3daf1e4b552","system_id":"levelo_inurba_marseille","lat":43.28957,"lon":5.37609,"is_reserved":false,"is_disabled":false,"rental_uris":{"android":"levelo://app?vid=c9656059-b28e-4b64-b742-b3daf1e4b552","ios":"levelo://app?vid=c9656059-b28e-4b64-b742-b3daf1e4b552"},"vehicle_type_id":"4","last_reported":1727464014,"current_range_meters":32000,"station_id":"","pricing_plan_id":"cebpf4jnsgd1na2vs0mg"},{"bike_id":"201b0575-09b8-4a04-bf06-69c7ec92b06c","system_id":"levelo_inurba_marseille","lat":43.24178,"lon":5.39736,"is_reserved":false,"is_disabled":false,"rental_uris":{"android":"levelo://app?vid=201b0575-09b8-4a04-bf06-69c7ec92b06c","ios":"levelo://app?vid=201b0575-09b8-4a04-bf06-69c7ec92b06c"},"vehicle_type_id":"4","last_reported":1727464014,"current_range_meters":28000,"station_id":"ce4bhn12rcd13ifvqgpg","pricing_plan_id":"cebpf4jnsgd1na2vs0mg"},{"bike_id":"28ba29e2-7eb7-41c3-a269-ea5b9410063f","system_id":"levelo_inurba_marseille","lat":43.2903,"lon":5.38638,"is_reserved":false,"is_disabled":false,"rental_uris":{"android":"levelo://app?vid=28ba29e2-7eb7-41c3-a269-ea5b9410063f","ios":"levelo://app?vid=28ba29e2-7eb7-41c3-a269-ea5b9410063f"},"vehicle_type_id":"4","last_reported":1727464014,"current_range_meters":13600,"station_id":"ce4bh4p2rcd13ifvqe0g","pricing_plan_id":"cebpf4jnsgd1na2vs0mg"},{"bike_id":"b45730cb-2c2d-4fa4-a350-e7493e28fc53","system_id":"levelo_inurba_marseille","lat":43.2586,"lon":5.39901,"is_reserved":false,"is_disabled":false,"rental_uris":{"android":"levelo://app?vid=b45730cb-2c2d-4fa4-a350-e7493e28fc53","ios":"levelo://app?vid=b45730cb-2c2d-4fa4-a350-e7493e28fc53"},"vehicle_type_id":"4","last_reported":1727464014,"current_range_meters":8400,"station_id":"ce4bhl92rcd13ifvqghg","pricing_plan_id":"cebpf4jnsgd1na2vs0mg"},{"bike_id":"dd6aa879-af0d-4ea5-a01a-372960ba777a","system_id":"levelo_inurba_marseille","lat":43.26796,"lon":5.40273,"is_reserved":false,"is_disabled":false,"rental_uris":{"android":"levelo://app?vid=dd6aa879-af0d-4ea5-a01a-372960ba777a","ios":"levelo://app?vid=dd6aa879-af0d-4ea5-a01a-372960ba777a"},"vehicle_type_id":"4","last_reported":1727464014,"current_range_meters":39200,"station_id":"ce501612rcd8frsf0b60","pricing_plan_id":"cebpf4jnsgd1na2vs0mg"},{"bike_id":"35df6dcc-5b40-4eae-9f88-d4f7ac824959","system_id":"levelo_inurba_marseille","lat":43.28853,"lon":5.39323,"is_reserved":false,"is_disabled":false,"rental_uris":{"android":"levelo://app?vid=35df6dcc-5b40-4eae-9f88-d4f7ac824959","ios":"levelo://app?vid=35df6dcc-5b40-4eae-9f88-d4f7ac824959"},"vehicle_type_id":"4","last_reported":1727464014,"current_range_meters":2800,"station_id":"ce4bh2p2rcd13ifvqdi0","pricing_plan_id":"cebpf4jnsgd1na2vs0mg"},{"bike_id":"1f096d1e-7e1d-4d47-a24e-cbc22e583f18","system_id":"levelo_inurba_marseille","lat":43.27986,"lon":5.40041,"is_reserved":false,"is_disabled":false,"rental_uris":{"android":"levelo://app?vid=1f096d1e-7e1d-4d47-a24e-cbc22e583f18","ios":"levelo://app?vid=1f096d1e-7e1d-4d47-a24e-cbc22e583f18"},"vehicle_type_id":"4","last_reported":1727464014,"current_range_meters":38000,"station_id":"ce4bho92rcd13ifvqh4g","pricing_plan_id":"cebpf4jnsgd1na2vs0mg"},{"bike_id":"b0b5beee-636c-4dd7-a94a-dcb3b855c0a1","system_id":"levelo_inurba_marseille","lat":43.29515,"lon":5.3941,"is_reserved":false,"is_disabled":false,"rental_uris":{"android":"levelo://app?vid=b0b5beee-636c-4dd7-a94a-dcb3b855c0a1","ios":"levelo://app?vid=b0b5beee-636c-4dd7-a94a-dcb3b855c0a1"},"vehicle_type_id":"4","last_reported":1727464014,"current_range_meters":38800,"station_id":"ce4bh292rcd13ifvqdf0","pricing_plan_id":"cebpf4jnsgd1na2vs0mg"},{"bike_id":"9b61af20-7084-4d52-b144-0d2461a6f626","system_id":"levelo_inurba_marseille","lat":43.31758,"lon":5.39009,"is_reserved":false,"is_disabled":false,"rental_uris":{"android":"levelo://app?vid=9b61af20-7084-4d52-b144-0d2461a6f626","ios":"levelo://app?vid=9b61af20-7084-4d52-b144-0d2461a6f626"},"vehicle_type_id":"4","last_reported":1727464014,"current_range_meters":3600,"station_id":"ce4bhqp2rcd13ifvqhng","pricing_plan_id":"cebpf4jnsgd1na2vs0mg"},{"bike_id":"076f94c7-d033-490e-8e83-1b365a7c6e34","system_id":"levelo_inurba_marseille","lat":43.25496,"lon":5.37653,"is_reserved":false,"is_disabled":false,"rental_uris":{"android":"levelo://app?vid=076f94c7-d033-490e-8e83-1b365a7c6e34","ios":"levelo://app?vid=076f94c7-d033-490e-8e83-1b365a7c6e34"},"vehicle_type_id":"4","last_reported":1727464014,"current_range_meters":34000,"station_id":"ce4bhh12rcd13ifvqff0","pricing_plan_id":"cebpf4jnsgd1na2vs0mg"},{"bike_id":"d5377155-d7de-4103-9fae-bba8273b726e","system_id":"levelo_inurba_marseille","lat":43.31709,"lon":5.43715,"is_reserved":false,"is_disabled":false,"rental_uris":{"android":"levelo://app?vid=d5377155-d7de-4103-9fae-bba8273b726e","ios":"levelo://app?vid=d5377155-d7de-4103-9fae-bba8273b726e"},"vehicle_type_id":"4","last_reported":1727464014,"current_range_meters":2800,"station_id":"ce4bhp92rcd13ifvqhcg","pricing_plan_id":"cebpf4jnsgd1na2vs0mg"},{"bike_id":"84e91030-21f6-4737-b5c1-37d05d2a9806","system_id":"levelo_inurba_marseille","lat":43.30863,"lon":5.3685,"is_reserved":false,"is_disabled":false,"rental_uris":{"android":"levelo://app?vid=84e91030-21f6-4737-b5c1-37d05d2a9806","ios":"levelo://app?vid=84e91030-21f6-4737-b5c1-37d05d2a9806"},"vehicle_type_id":"4","last_reported":1727464014,"current_range_meters":14800,"station_id":"ce4bgn92rcd13ifvqbvg","pricing_plan_id":"cebpf4jnsgd1na2vs0mg"},{"bike_id":"a84009e3-6541-473d-b160-fe44f7f5f17b","system_id":"levelo_inurba_marseille","lat":43.28001,"lon":5.40015,"is_reserved":false,"is_disabled":false,"rental_uris":{"android":"levelo://app?vid=a84009e3-6541-473d-b160-fe44f7f5f17b","ios":"levelo://app?vid=a84009e3-6541-473d-b160-fe44f7f5f17b"},"vehicle_type_id":"4","last_reported":1727464014,"current_range_meters":37600,"station_id":"ce4bho92rcd13ifvqh4g","pricing_plan_id":"cebpf4jnsgd1na2vs0mg"},{"bike_id":"92f0f6d1-e9e9-48b2-957f-81056b3dcae6","system_id":"levelo_inurba_marseille","lat":43.29515,"lon":5.39053,"is_reserved":false,"is_disabled":false,"rental_uris":{"android":"levelo://app?vid=92f0f6d1-e9e9-48b2-957f-81056b3dcae6","ios":"levelo://app?vid=92f0f6d1-e9e9-48b2-957f-81056b3dcae6"},"vehicle_type_id":"4","last_reported":1727464014,"current_range_meters":13600,"station_id":"ce4bh3p2rcd13ifvqdp0","pricing_plan_id":"cebpf4jnsgd1na2vs0mg"},{"bike_id":"10a8a0ed-a684-424e-9fb0-4a762e8e345c","system_id":"levelo_inurba_marseille","lat":43.313591,"lon":5.384895,"is_reserved":false,"is_disabled":false,"rental_uris":{"android":"levelo://app?vid=10a8a0ed-a684-424e-9fb0-4a762e8e345c","ios":"levelo://app?vid=10a8a0ed-a684-424e-9fb0-4a762e8e345c"},"vehicle_type_id":"4","last_reported":1727464014,"current_range_meters":38800,"station_id":"ce4bgt92rcd13ifvqcf0","pricing_plan_id":"cebpf4jnsgd1na2vs0mg"},{"bike_id":"64511bca-5629-4266-951c-cd2f5dbe5a46","system_id":"levelo_inurba_marseille","lat":43.22933,"lon":5.35379,"is_reserved":false,"is_disabled":false,"rental_uris":{"android":"levelo://app?vid=64511bca-5629-4266-951c-cd2f5dbe5a46","ios":"levelo://app?vid=64511bca-5629-4266-951c-cd2f5dbe5a46"},"vehicle_type_id":"4","last_reported":1727464014,"current_range_meters":37600,"station_id":"cpo3532slgdg3j2ikp40","pricing_plan_id":"cebpf4jnsgd1na2vs0mg"},{"bike_id":"2be78326-eb86-4373-85e3-d2b02f13544b","system_id":"levelo_inurba_marseille","lat":43.31115,"lon":5.3778,"is_reserved":false,"is_disabled":false,"rental_uris":{"android":"levelo://app?vid=2be78326-eb86-4373-85e3-d2b02f13544b","ios":"levelo://app?vid=2be78326-eb86-4373-85e3-d2b02f13544b"},"vehicle_type_id":"4","last_reported":1727464014,"current_range_meters":4000,"station_id":"ce4bgt92rcd13ifvqcg0","pricing_plan_id":"cebpf4jnsgd1na2vs0mg"},{"bike_id":"e6f58f71-d6bd-459c-a5f7-2a4d1616d376","system_id":"levelo_inurba_marseille","lat":43.27058,"lon":5.40262,"is_reserved":false,"is_disabled":false,"rental_uris":{"android":"levelo://app?vid=e6f58f71-d6bd-459c-a5f7-2a4d1616d376","ios":"levelo://app?vid=e6f58f71-d6bd-459c-a5f7-2a4d1616d376"},"vehicle_type_id":"4","last_reported":1727464014,"current_range_meters":38800,"station_id":"ce4bhk92rcd13ifvqgc0","pricing_plan_id":"cebpf4jnsgd1na2vs0mg"},{"bike_id":"41756a85-4769-48ae-b5bc-2506a6648273","system_id":"levelo_inurba_marseille","lat":43.28667,"lon":5.38681,"is_reserved":false,"is_disabled":false,"rental_uris":{"android":"levelo://app?vid=41756a85-4769-48ae-b5bc-2506a6648273","ios":"levelo://app?vid=41756a85-4769-48ae-b5bc-2506a6648273"},"vehicle_type_id":"4","last_reported":1727464014,"current_range_meters":22800,"station_id":"ce4bh492rcd13ifvqdug","pricing_plan_id":"cebpf4jnsgd1na2vs0mg"},{"bike_id":"43c0c15c-7c74-4c12-b23e-4393ebb911d0","system_id":"levelo_inurba_marseille","lat":43.32284,"lon":5.38278,"is_reserved":false,"is_disabled":false,"rental_uris":{"android":"levelo://app?vid=43c0c15c-7c74-4c12-b23e-4393ebb911d0","ios":"levelo://app?vid=43c0c15c-7c74-4c12-b23e-4393ebb911d0"},"vehicle_type_id":"4","last_reported":1727464014,"current_range_meters":39200,"station_id":"ce4bhr12rcd13ifvqhqg","pricing_plan_id":"cebpf4jnsgd1na2vs0mg"},{"bike_id":"3c1f5b82-e793-4a54-ab78-47bff3813599","system_id":"levelo_inurba_marseille","lat":43.29252,"lon":5.40904,"is_reserved":false,"is_disabled":false,"rental_uris":{"android":"levelo://app?vid=3c1f5b82-e793-4a54-ab78-47bff3813599","ios":"levelo://app?vid=3c1f5b82-e793-4a54-ab78-47bff3813599"},"vehicle_type_id":"4","last_reported":1727464014,"current_range_meters":38800,"station_id":"ce4bh192rcd13ifvqdc0","pricing_plan_id":"cebpf4jnsgd1na2vs0mg"},{"bike_id":"06e54d7a-aac6-406e-96ad-1c22cb9ce093","system_id":"levelo_inurba_marseille","lat":43.30424,"lon":5.3889,"is_reserved":false,"is_disabled":false,"rental_uris":{"android":"levelo://app?vid=06e54d7a-aac6-406e-96ad-1c22cb9ce093","ios":"levelo://app?vid=06e54d7a-aac6-406e-96ad-1c22cb9ce093"},"vehicle_type_id":"4","last_reported":1727464014,"current_range_meters":28800,"station_id":"ce4bgk12rcd13ifvqbi0","pricing_plan_id":"cebpf4jnsgd1na2vs0mg"},{"bike_id":"dfd2921f-040f-46f8-a226-1b036b708e63","system_id":"levelo_inurba_marseille","lat":43.25092,"lon":5.39518,"is_reserved":false,"is_disabled":false,"rental_uris":{"android":"levelo://app?vid=dfd2921f-040f-46f8-a226-1b036b708e63","ios":"levelo://app?vid=dfd2921f-040f-46f8-a226-1b036b708e63"},"vehicle_type_id":"4","last_reported":1727464014,"current_range_meters":2000,"station_id":"ce4bhm12rcd13ifvqgkg","pricing_plan_id":"cebpf4jnsgd1na2vs0mg"},{"bike_id":"b579715c-20e2-4755-8fdf-8d2fd1b7b809","system_id":"levelo_inurba_marseille","lat":43.337444,"lon":5.374475,"is_reserved":false,"is_disabled":false,"rental_uris":{"android":"levelo://app?vid=b579715c-20e2-4755-8fdf-8d2fd1b7b809","ios":"levelo://app?vid=b579715c-20e2-4755-8fdf-8d2fd1b7b809"},"vehicle_type_id":"4","last_reported":1727464014,"current_range_meters":34000,"station_id":"","pricing_plan_id":"cebpf4jnsgd1na2vs0mg"},{"bike_id":"7d56de46-351c-4d42-aa14-562e88205e86","system_id":"levelo_inurba_marseille","lat":43.31223,"lon":5.36866,"is_reserved":false,"is_disabled":false,"rental_uris":{"android":"levelo://app?vid=7d56de46-351c-4d42-aa14-562e88205e86","ios":"levelo://app?vid=7d56de46-351c-4d42-aa14-562e88205e86"},"vehicle_type_id":"4","last_reported":1727464014,"current_range_meters":29600,"station_id":"ce4bgl92rcd13ifvqbq0","pricing_plan_id":"cebpf4jnsgd1na2vs0mg"},{"bike_id":"b0e5e3b6-84ca-41bf-b6e5-9387c0993bfd","system_id":"levelo_inurba_marseille","lat":43.29575,"lon":5.39977,"is_reserved":false,"is_disabled":false,"rental_uris":{"android":"levelo://app?vid=b0e5e3b6-84ca-41bf-b6e5-9387c0993bfd","ios":"levelo://app?vid=b0e5e3b6-84ca-41bf-b6e5-9387c0993bfd"},"vehicle_type_id":"4","last_reported":1727464014,"current_range_meters":38800,"station_id":"ce4bh312rcd13ifvqdj0","pricing_plan_id":"cebpf4jnsgd1na2vs0mg"},{"bike_id":"26417185-e4df-4039-a6a1-7ead33dbf3b1","system_id":"levelo_inurba_marseille","lat":43.29248,"lon":5.38451,"is_reserved":false,"is_disabled":false,"rental_uris":{"android":"levelo://app?vid=26417185-e4df-4039-a6a1-7ead33dbf3b1","ios":"levelo://app?vid=26417185-e4df-4039-a6a1-7ead33dbf3b1"},"vehicle_type_id":"4","last_reported":1727464014,"current_range_meters":22000,"station_id":"ce4bh692rcd13ifvqea0","pricing_plan_id":"cebpf4jnsgd1na2vs0mg"},{"bike_id":"a8ad96dc-e0f4-4a3f-9725-4f83b8c05346","system_id":"levelo_inurba_marseille","lat":43.23182,"lon":5.39988,"is_reserved":false,"is_disabled":false,"rental_uris":{"android":"levelo://app?vid=a8ad96dc-e0f4-4a3f-9725-4f83b8c05346","ios":"levelo://app?vid=a8ad96dc-e0f4-4a3f-9725-4f83b8c05346"},"vehicle_type_id":"4","last_reported":1727464014,"current_range_meters":38800,"station_id":"ce4bhn12rcd13ifvqgqg","pricing_plan_id":"cebpf4jnsgd1na2vs0mg"},{"bike_id":"fd6e197d-3ea4-491e-be63-35531aa72442","system_id":"levelo_inurba_marseille","lat":43.30579,"lon":5.37089,"is_reserved":false,"is_disabled":false,"rental_uris":{"android":"levelo://app?vid=fd6e197d-3ea4-491e-be63-35531aa72442","ios":"levelo://app?vid=fd6e197d-3ea4-491e-be63-35531aa72442"},"vehicle_type_id":"4","last_reported":1727464014,"current_range_meters":8800,"station_id":"","pricing_plan_id":"cebpf4jnsgd1na2vs0mg"},{"bike_id":"c34e91e4-9c5f-4e6c-833b-823275cbbd6c","system_id":"levelo_inurba_marseille","lat":43.2925,"lon":5.38451,"is_reserved":false,"is_disabled":false,"rental_uris":{"android":"levelo://app?vid=c34e91e4-9c5f-4e6c-833b-823275cbbd6c","ios":"levelo://app?vid=c34e91e4-9c5f-4e6c-833b-823275cbbd6c"},"vehicle_type_id":"4","last_reported":1727464014,"current_range_meters":28000,"station_id":"ce4bh692rcd13ifvqea0","pricing_plan_id":"cebpf4jnsgd1na2vs0mg"},{"bike_id":"67eb37f3-e390-4369-9e25-7b8d62e9013a","system_id":"levelo_inurba_marseille","lat":43.28033,"lon":5.36943,"is_reserved":false,"is_disabled":false,"rental_uris":{"android":"levelo://app?vid=67eb37f3-e390-4369-9e25-7b8d62e9013a","ios":"levelo://app?vid=67eb37f3-e390-4369-9e25-7b8d62e9013a"},"vehicle_type_id":"4","last_reported":1727464014,"current_range_meters":38400,"station_id":"ce4bha12rcd13ifvqef0","pricing_plan_id":"cebpf4jnsgd1na2vs0mg"},{"bike_id":"33368b60-c72e-4fb2-8dc9-3c1f8247aa82","system_id":"levelo_inurba_marseille","lat":43.276214,"lon":5.361033,"is_reserved":false,"is_disabled":false,"rental_uris":{"android":"levelo://app?vid=33368b60-c72e-4fb2-8dc9-3c1f8247aa82","ios":"levelo://app?vid=33368b60-c72e-4fb2-8dc9-3c1f8247aa82"},"vehicle_type_id":"4","last_reported":1727464014,"current_range_meters":28800,"station_id":"ce4bgj92rcd13ifvqbe0","pricing_plan_id":"cebpf4jnsgd1na2vs0mg"},{"bike_id":"88f8065c-f3bb-4191-9d10-ab7bda23b387","system_id":"levelo_inurba_marseille","lat":43.28832,"lon":5.39337,"is_reserved":false,"is_disabled":false,"rental_uris":{"android":"levelo://app?vid=88f8065c-f3bb-4191-9d10-ab7bda23b387","ios":"levelo://app?vid=88f8065c-f3bb-4191-9d10-ab7bda23b387"},"vehicle_type_id":"4","last_reported":1727464014,"current_range_meters":38800,"station_id":"ce4bh2p2rcd13ifvqdi0","pricing_plan_id":"cebpf4jnsgd1na2vs0mg"},{"bike_id":"39a21b09-2fdc-4dc7-8c16-e12e191b2068","system_id":"levelo_inurba_marseille","lat":43.31087,"lon":5.42431,"is_reserved":false,"is_disabled":false,"rental_uris":{"android":"levelo://app?vid=39a21b09-2fdc-4dc7-8c16-e12e191b2068","ios":"levelo://app?vid=39a21b09-2fdc-4dc7-8c16-e12e191b2068"},"vehicle_type_id":"4","last_reported":1727464014,"current_range_meters":37600,"station_id":"ce4bhp92rcd13ifvqhag","pricing_plan_id":"cebpf4jnsgd1na2vs0mg"},{"bike_id":"4ea19298-4a1a-4bdb-96aa-f832512955a4","system_id":"levelo_inurba_marseille","lat":43.29256,"lon":5.38453,"is_reserved":false,"is_disabled":false,"rental_uris":{"android":"levelo://app?vid=4ea19298-4a1a-4bdb-96aa-f832512955a4","ios":"levelo://app?vid=4ea19298-4a1a-4bdb-96aa-f832512955a4"},"vehicle_type_id":"4","last_reported":1727464014,"current_range_meters":25600,"station_id":"ce4bh692rcd13ifvqea0","pricing_plan_id":"cebpf4jnsgd1na2vs0mg"},{"bike_id":"25587c68-2a9d-48f9-a6f1-5531a222d162","system_id":"levelo_inurba_marseille","lat":43.29567,"lon":5.39983,"is_reserved":false,"is_disabled":false,"rental_uris":{"android":"levelo://app?vid=25587c68-2a9d-48f9-a6f1-5531a222d162","ios":"levelo://app?vid=25587c68-2a9d-48f9-a6f1-5531a222d162"},"vehicle_type_id":"4","last_reported":1727464014,"current_range_meters":38000,"station_id":"ce4bh312rcd13ifvqdj0","pricing_plan_id":"cebpf4jnsgd1na2vs0mg"},{"bike_id":"3c19afbd-bd81-48ca-a6a2-9d7abf181fdb","system_id":"levelo_inurba_marseille","lat":43.23189,"lon":5.39993,"is_reserved":false,"is_disabled":false,"rental_uris":{"android":"levelo://app?vid=3c19afbd-bd81-48ca-a6a2-9d7abf181fdb","ios":"levelo://app?vid=3c19afbd-bd81-48ca-a6a2-9d7abf181fdb"},"vehicle_type_id":"4","last_reported":1727464014,"current_range_meters":38400,"station_id":"ce4bhn12rcd13ifvqgqg","pricing_plan_id":"cebpf4jnsgd1na2vs0mg"},{"bike_id":"46eefe45-54e0-4558-8039-d7db32d020ac","system_id":"levelo_inurba_marseille","lat":43.28708,"lon":5.37376,"is_reserved":false,"is_disabled":false,"rental_uris":{"android":"levelo://app?vid=46eefe45-54e0-4558-8039-d7db32d020ac","ios":"levelo://app?vid=46eefe45-54e0-4558-8039-d7db32d020ac"},"vehicle_type_id":"4","last_reported":1727464014,"current_range_meters":9600,"station_id":"ce4bh3p2rcd13ifvqdq0","pricing_plan_id":"cebpf4jnsgd1na2vs0mg"},{"bike_id":"670f85b4-de55-4b77-9f59-b9890e5d1210","system_id":"levelo_inurba_marseille","lat":43.28716,"lon":5.36091,"is_reserved":false,"is_disabled":false,"rental_uris":{"android":"levelo://app?vid=670f85b4-de55-4b77-9f59-b9890e5d1210","ios":"levelo://app?vid=670f85b4-de55-4b77-9f59-b9890e5d1210"},"vehicle_type_id":"4","last_reported":1727464014,"current_range_meters":10800,"station_id":"cki0cbj6b192h4jlfktg","pricing_plan_id":"cebpf4jnsgd1na2vs0mg"},{"bike_id":"fad647cc-b8b2-4dbb-bbbc-6af5a32708b1","system_id":"levelo_inurba_marseille","lat":43.299065,"lon":5.381487,"is_reserved":false,"is_disabled":false,"rental_uris":{"android":"levelo://app?vid=fad647cc-b8b2-4dbb-bbbc-6af5a32708b1","ios":"levelo://app?vid=fad647cc-b8b2-4dbb-bbbc-6af5a32708b1"},"vehicle_type_id":"4","last_reported":1727464014,"current_range_meters":39200,"station_id":"ce4bgj12rcd13ifvqbc0","pricing_plan_id":"cebpf4jnsgd1na2vs0mg"},{"bike_id":"3ab7080b-071f-4fcb-bded-f030f4a95fc1","system_id":"levelo_inurba_marseille","lat":43.30967,"lon":5.39041,"is_reserved":false,"is_disabled":false,"rental_uris":{"android":"levelo://app?vid=3ab7080b-071f-4fcb-bded-f030f4a95fc1","ios":"levelo://app?vid=3ab7080b-071f-4fcb-bded-f030f4a95fc1"},"vehicle_type_id":"4","last_reported":1727464014,"current_range_meters":10000,"station_id":"ce4bgup2rcd13ifvqco0","pricing_plan_id":"cebpf4jnsgd1na2vs0mg"},{"bike_id":"7fc99dbf-6c82-40dc-a387-339299217f0c","system_id":"levelo_inurba_marseille","lat":43.2927,"lon":5.36842,"is_reserved":false,"is_disabled":false,"rental_uris":{"android":"levelo://app?vid=7fc99dbf-6c82-40dc-a387-339299217f0c","ios":"levelo://app?vid=7fc99dbf-6c82-40dc-a387-339299217f0c"},"vehicle_type_id":"4","last_reported":1727464014,"current_range_meters":4400,"station_id":"ce4bhbp2rcd13ifvqesg","pricing_plan_id":"cebpf4jnsgd1na2vs0mg"},{"bike_id":"6f732804-a8c2-4e5b-94a1-29abc810f87d","system_id":"levelo_inurba_marseille","lat":43.2963,"lon":5.40035,"is_reserved":false,"is_disabled":false,"rental_uris":{"android":"levelo://app?vid=6f732804-a8c2-4e5b-94a1-29abc810f87d","ios":"levelo://app?vid=6f732804-a8c2-4e5b-94a1-29abc810f87d"},"vehicle_type_id":"4","last_reported":1727464014,"current_range_meters":28000,"station_id":"","pricing_plan_id":"cebpf4jnsgd1na2vs0mg"},{"bike_id":"d30ba694-2797-43ae-964c-4ed500703942","system_id":"levelo_inurba_marseille","lat":43.292727,"lon":5.368385,"is_reserved":false,"is_disabled":false,"rental_uris":{"android":"levelo://app?vid=d30ba694-2797-43ae-964c-4ed500703942","ios":"levelo://app?vid=d30ba694-2797-43ae-964c-4ed500703942"},"vehicle_type_id":"4","last_reported":1727464014,"current_range_meters":3600,"station_id":"ce4bgj12rcd13ifvqbc0","pricing_plan_id":"cebpf4jnsgd1na2vs0mg"},{"bike_id":"f3006399-bbfe-49d2-ab61-6661541d0f12","system_id":"levelo_inurba_marseille","lat":43.27983,"lon":5.38742,"is_reserved":false,"is_disabled":false,"rental_uris":{"android":"levelo://app?vid=f3006399-bbfe-49d2-ab61-6661541d0f12","ios":"levelo://app?vid=f3006399-bbfe-49d2-ab61-6661541d0f12"},"vehicle_type_id":"4","last_reported":1727464014,"current_range_meters":38800,"station_id":"ce4bhg12rcd13ifvqf80","pricing_plan_id":"cebpf4jnsgd1na2vs0mg"},{"bike_id":"b1f647a8-e340-4599-9adb-c0b1394a522e","system_id":"levelo_inurba_marseille","lat":43.2465,"lon":5.389,"is_reserved":false,"is_disabled":false,"rental_uris":{"android":"levelo://app?vid=b1f647a8-e340-4599-9adb-c0b1394a522e","ios":"levelo://app?vid=b1f647a8-e340-4599-9adb-c0b1394a522e"},"vehicle_type_id":"4","last_reported":1727464014,"current_range_meters":28000,"station_id":"ce4bhg12rcd13ifvqf60","pricing_plan_id":"cebpf4jnsgd1na2vs0mg"},{"bike_id":"9c2522c5-c0fa-4f53-b8c1-a4924ed5a647","system_id":"levelo_inurba_marseille","lat":43.31711,"lon":5.43704,"is_reserved":false,"is_disabled":false,"rental_uris":{"android":"levelo://app?vid=9c2522c5-c0fa-4f53-b8c1-a4924ed5a647","ios":"levelo://app?vid=9c2522c5-c0fa-4f53-b8c1-a4924ed5a647"},"vehicle_type_id":"4","last_reported":1727464014,"current_range_meters":4000,"station_id":"ce4bhp92rcd13ifvqhcg","pricing_plan_id":"cebpf4jnsgd1na2vs0mg"},{"bike_id":"cb07f0fe-09ef-4da3-b729-def49a7fb7f8","system_id":"levelo_inurba_marseille","lat":43.23178,"lon":5.3999,"is_reserved":false,"is_disabled":false,"rental_uris":{"android":"levelo://app?vid=cb07f0fe-09ef-4da3-b729-def49a7fb7f8","ios":"levelo://app?vid=cb07f0fe-09ef-4da3-b729-def49a7fb7f8"},"vehicle_type_id":"4","last_reported":1727464014,"current_range_meters":39200,"station_id":"ce4bhn12rcd13ifvqgqg","pricing_plan_id":"cebpf4jnsgd1na2vs0mg"},{"bike_id":"e78b6a25-86ef-4305-a8eb-88ff111ec270","system_id":"levelo_inurba_marseille","lat":43.27062,"lon":5.40267,"is_reserved":false,"is_disabled":false,"rental_uris":{"android":"levelo://app?vid=e78b6a25-86ef-4305-a8eb-88ff111ec270","ios":"levelo://app?vid=e78b6a25-86ef-4305-a8eb-88ff111ec270"},"vehicle_type_id":"4","last_reported":1727464014,"current_range_meters":38000,"station_id":"ce4bhk92rcd13ifvqgc0","pricing_plan_id":"cebpf4jnsgd1na2vs0mg"},{"bike_id":"83e2c764-9f2d-461d-85f9-528bee877cf2","system_id":"levelo_inurba_marseille","lat":43.26938,"lon":5.40252,"is_reserved":false,"is_disabled":false,"rental_uris":{"android":"levelo://app?vid=83e2c764-9f2d-461d-85f9-528bee877cf2","ios":"levelo://app?vid=83e2c764-9f2d-461d-85f9-528bee877cf2"},"vehicle_type_id":"4","last_reported":1727464014,"current_range_meters":38800,"station_id":"cjm6bp8fraef2m0cb0m0","pricing_plan_id":"cebpf4jnsgd1na2vs0mg"},{"bike_id":"72a190a7-8db0-4255-b745-fa85457d91da","system_id":"levelo_inurba_marseille","lat":43.2804,"lon":5.36945,"is_reserved":false,"is_disabled":false,"rental_uris":{"android":"levelo://app?vid=72a190a7-8db0-4255-b745-fa85457d91da","ios":"levelo://app?vid=72a190a7-8db0-4255-b745-fa85457d91da"},"vehicle_type_id":"4","last_reported":1727464014,"current_range_meters":10800,"station_id":"ce4bha12rcd13ifvqef0","pricing_plan_id":"cebpf4jnsgd1na2vs0mg"},{"bike_id":"bd17cf3e-e676-4774-be71-b7cb2fbdaf10","system_id":"levelo_inurba_marseille","lat":43.3014,"lon":5.37429,"is_reserved":false,"is_disabled":false,"rental_uris":{"android":"levelo://app?vid=bd17cf3e-e676-4774-be71-b7cb2fbdaf10","ios":"levelo://app?vid=bd17cf3e-e676-4774-be71-b7cb2fbdaf10"},"vehicle_type_id":"4","last_reported":1727464014,"current_range_meters":17200,"station_id":"ce4bgs92rcd13ifvqcc0","pricing_plan_id":"cebpf4jnsgd1na2vs0mg"},{"bike_id":"fd63a2d4-5e48-46a8-b7c4-c38f4929ecf0","system_id":"levelo_inurba_marseille","lat":43.29257,"lon":5.38449,"is_reserved":false,"is_disabled":false,"rental_uris":{"android":"levelo://app?vid=fd63a2d4-5e48-46a8-b7c4-c38f4929ecf0","ios":"levelo://app?vid=fd63a2d4-5e48-46a8-b7c4-c38f4929ecf0"},"vehicle_type_id":"4","last_reported":1727464014,"current_range_meters":28400,"station_id":"ce4bh692rcd13ifvqea0","pricing_plan_id":"cebpf4jnsgd1na2vs0mg"},{"bike_id":"deab055e-d79d-4c85-bc6c-038a345305e9","system_id":"levelo_inurba_marseille","lat":43.22932,"lon":5.35382,"is_reserved":false,"is_disabled":false,"rental_uris":{"android":"levelo://app?vid=deab055e-d79d-4c85-bc6c-038a345305e9","ios":"levelo://app?vid=deab055e-d79d-4c85-bc6c-038a345305e9"},"vehicle_type_id":"4","last_reported":1727464014,"current_range_meters":38800,"station_id":"cpo3532slgdg3j2ikp40","pricing_plan_id":"cebpf4jnsgd1na2vs0mg"},{"bike_id":"da51996d-4010-4981-ab52-b1f0a604307a","system_id":"levelo_inurba_marseille","lat":43.28929,"lon":5.36392,"is_reserved":false,"is_disabled":false,"rental_uris":{"android":"levelo://app?vid=da51996d-4010-4981-ab52-b1f0a604307a","ios":"levelo://app?vid=da51996d-4010-4981-ab52-b1f0a604307a"},"vehicle_type_id":"4","last_reported":1727464014,"current_range_meters":38800,"station_id":"ce4bhc92rcd13ifvqetg","pricing_plan_id":"cebpf4jnsgd1na2vs0mg"},{"bike_id":"ef1b1bd1-138a-4d59-bc76-d6cf6b82e8eb","system_id":"levelo_inurba_marseille","lat":43.31325,"lon":5.39705,"is_reserved":false,"is_disabled":false,"rental_uris":{"android":"levelo://app?vid=ef1b1bd1-138a-4d59-bc76-d6cf6b82e8eb","ios":"levelo://app?vid=ef1b1bd1-138a-4d59-bc76-d6cf6b82e8eb"},"vehicle_type_id":"4","last_reported":1727464014,"current_range_meters":2000,"station_id":"ce4bgvp2rcd13ifvqcu0","pricing_plan_id":"cebpf4jnsgd1na2vs0mg"},{"bike_id":"caf561c8-a893-4dd1-aa1c-a1eca09b6fc2","system_id":"levelo_inurba_marseille","lat":43.29039,"lon":5.35926,"is_reserved":false,"is_disabled":false,"rental_uris":{"android":"levelo://app?vid=caf561c8-a893-4dd1-aa1c-a1eca09b6fc2","ios":"levelo://app?vid=caf561c8-a893-4dd1-aa1c-a1eca09b6fc2"},"vehicle_type_id":"4","last_reported":1727464014,"current_range_meters":14800,"station_id":"ce4bha92rcd13ifvqeg0","pricing_plan_id":"cebpf4jnsgd1na2vs0mg"},{"bike_id":"af4757aa-97c6-461a-92c9-9c8e72bf8280","system_id":"levelo_inurba_marseille","lat":43.2931,"lon":5.37178,"is_reserved":false,"is_disabled":false,"rental_uris":{"android":"levelo://app?vid=af4757aa-97c6-461a-92c9-9c8e72bf8280","ios":"levelo://app?vid=af4757aa-97c6-461a-92c9-9c8e72bf8280"},"vehicle_type_id":"4","last_reported":1727464014,"current_range_meters":36800,"station_id":"ce4bgh92rcd13ifvqb40","pricing_plan_id":"cebpf4jnsgd1na2vs0mg"},{"bike_id":"468cbca9-7d68-46f5-9dc0-af0a837b909f","system_id":"levelo_inurba_marseille","lat":43.29249,"lon":5.38448,"is_reserved":false,"is_disabled":false,"rental_uris":{"android":"levelo://app?vid=468cbca9-7d68-46f5-9dc0-af0a837b909f","ios":"levelo://app?vid=468cbca9-7d68-46f5-9dc0-af0a837b909f"},"vehicle_type_id":"4","last_reported":1727464014,"current_range_meters":16000,"station_id":"ce4bh692rcd13ifvqea0","pricing_plan_id":"cebpf4jnsgd1na2vs0mg"},{"bike_id":"589bf101-03e3-485e-ad47-54bc5aa2aa27","system_id":"levelo_inurba_marseille","lat":43.3133,"lon":5.397,"is_reserved":false,"is_disabled":false,"rental_uris":{"android":"levelo://app?vid=589bf101-03e3-485e-ad47-54bc5aa2aa27","ios":"levelo://app?vid=589bf101-03e3-485e-ad47-54bc5aa2aa27"},"vehicle_type_id":"4","last_reported":1727464014,"current_range_meters":35200,"station_id":"ce4bgvp2rcd13ifvqcu0","pricing_plan_id":"cebpf4jnsgd1na2vs0mg"},{"bike_id":"41b2a179-642b-4fee-ac3e-e7915562aa91","system_id":"levelo_inurba_marseille","lat":43.26802,"lon":5.40268,"is_reserved":false,"is_disabled":false,"rental_uris":{"android":"levelo://app?vid=41b2a179-642b-4fee-ac3e-e7915562aa91","ios":"levelo://app?vid=41b2a179-642b-4fee-ac3e-e7915562aa91"},"vehicle_type_id":"4","last_reported":1727464014,"current_range_meters":39200,"station_id":"ce501612rcd8frsf0b60","pricing_plan_id":"cebpf4jnsgd1na2vs0mg"},{"bike_id":"24e84acc-76a7-403d-836c-d5936e8f68bf","system_id":"levelo_inurba_marseille","lat":43.29257,"lon":5.38436,"is_reserved":false,"is_disabled":false,"rental_uris":{"android":"levelo://app?vid=24e84acc-76a7-403d-836c-d5936e8f68bf","ios":"levelo://app?vid=24e84acc-76a7-403d-836c-d5936e8f68bf"},"vehicle_type_id":"4","last_reported":1727464014,"current_range_meters":36000,"station_id":"ce4bh692rcd13ifvqea0","pricing_plan_id":"cebpf4jnsgd1na2vs0mg"},{"bike_id":"580be1eb-8973-47a1-a5cc-a1362a6bbd7f","system_id":"levelo_inurba_marseille","lat":43.29271,"lon":5.36846,"is_reserved":false,"is_disabled":false,"rental_uris":{"android":"levelo://app?vid=580be1eb-8973-47a1-a5cc-a1362a6bbd7f","ios":"levelo://app?vid=580be1eb-8973-47a1-a5cc-a1362a6bbd7f"},"vehicle_type_id":"4","last_reported":1727464014,"current_range_meters":26800,"station_id":"ce4bhbp2rcd13ifvqesg","pricing_plan_id":"cebpf4jnsgd1na2vs0mg"},{"bike_id":"c48fb40f-13be-4ae6-9130-ce556eeb5aa8","system_id":"levelo_inurba_marseille","lat":43.3211,"lon":5.36767,"is_reserved":false,"is_disabled":false,"rental_uris":{"android":"levelo://app?vid=c48fb40f-13be-4ae6-9130-ce556eeb5aa8","ios":"levelo://app?vid=c48fb40f-13be-4ae6-9130-ce556eeb5aa8"},"vehicle_type_id":"4","last_reported":1727464014,"current_range_meters":32800,"station_id":"ce4bhrh2rcd13ifvqhug","pricing_plan_id":"cebpf4jnsgd1na2vs0mg"},{"bike_id":"92ed948a-9f9a-4968-accc-b2fe3b391b37","system_id":"levelo_inurba_marseille","lat":43.32662,"lon":5.40988,"is_reserved":false,"is_disabled":false,"rental_uris":{"android":"levelo://app?vid=92ed948a-9f9a-4968-accc-b2fe3b391b37","ios":"levelo://app?vid=92ed948a-9f9a-4968-accc-b2fe3b391b37"},"vehicle_type_id":"4","last_reported":1727464014,"current_range_meters":11200,"station_id":"ce4bhpp2rcd13ifvqhgg","pricing_plan_id":"cebpf4jnsgd1na2vs0mg"},{"bike_id":"c04ce273-611c-426d-99eb-97b9fa4c9a0c","system_id":"levelo_inurba_marseille","lat":43.24998,"lon":5.38945,"is_reserved":false,"is_disabled":false,"rental_uris":{"android":"levelo://app?vid=c04ce273-611c-426d-99eb-97b9fa4c9a0c","ios":"levelo://app?vid=c04ce273-611c-426d-99eb-97b9fa4c9a0c"},"vehicle_type_id":"4","last_reported":1727464014,"current_range_meters":5600,"station_id":"ce4bhgp2rcd13ifvqfd0","pricing_plan_id":"cebpf4jnsgd1na2vs0mg"},{"bike_id":"a3b7aa0e-d9e4-40bc-9ca1-64e037eb2535","system_id":"levelo_inurba_marseille","lat":43.29541,"lon":5.36455,"is_reserved":false,"is_disabled":false,"rental_uris":{"android":"levelo://app?vid=a3b7aa0e-d9e4-40bc-9ca1-64e037eb2535","ios":"levelo://app?vid=a3b7aa0e-d9e4-40bc-9ca1-64e037eb2535"},"vehicle_type_id":"4","last_reported":1727464014,"current_range_meters":21600,"station_id":"","pricing_plan_id":"cebpf4jnsgd1na2vs0mg"},{"bike_id":"0ec4d074-35b9-48dd-9b90-3d3a72982ca2","system_id":"levelo_inurba_marseille","lat":43.26042,"lon":5.38189,"is_reserved":false,"is_disabled":false,"rental_uris":{"android":"levelo://app?vid=0ec4d074-35b9-48dd-9b90-3d3a72982ca2","ios":"levelo://app?vid=0ec4d074-35b9-48dd-9b90-3d3a72982ca2"},"vehicle_type_id":"4","last_reported":1727464014,"current_range_meters":31200,"station_id":"","pricing_plan_id":"cebpf4jnsgd1na2vs0mg"},{"bike_id":"93700c27-b02c-4e8b-9f40-019de92866b8","system_id":"levelo_inurba_marseille","lat":43.29254,"lon":5.38446,"is_reserved":false,"is_disabled":false,"rental_uris":{"android":"levelo://app?vid=93700c27-b02c-4e8b-9f40-019de92866b8","ios":"levelo://app?vid=93700c27-b02c-4e8b-9f40-019de92866b8"},"vehicle_type_id":"4","last_reported":1727464014,"current_range_meters":17200,"station_id":"ce4bh692rcd13ifvqea0","pricing_plan_id":"cebpf4jnsgd1na2vs0mg"},{"bike_id":"c7aa4852-5841-4ab6-b733-e4168a4180b6","system_id":"levelo_inurba_marseille","lat":43.3229,"lon":5.38259,"is_reserved":false,"is_disabled":false,"rental_uris":{"android":"levelo://app?vid=c7aa4852-5841-4ab6-b733-e4168a4180b6","ios":"levelo://app?vid=c7aa4852-5841-4ab6-b733-e4168a4180b6"},"vehicle_type_id":"4","last_reported":1727464014,"current_range_meters":12000,"station_id":"ce4bhr12rcd13ifvqhqg","pricing_plan_id":"cebpf4jnsgd1na2vs0mg"},{"bike_id":"fc73c488-094a-4ac2-ad34-e5d6a2ffb8d2","system_id":"levelo_inurba_marseille","lat":43.33022,"lon":5.39044,"is_reserved":false,"is_disabled":false,"rental_uris":{"android":"levelo://app?vid=fc73c488-094a-4ac2-ad34-e5d6a2ffb8d2","ios":"levelo://app?vid=fc73c488-094a-4ac2-ad34-e5d6a2ffb8d2"},"vehicle_type_id":"4","last_reported":1727464014,"current_range_meters":6800,"station_id":"ce4bhr92rcd13ifvqhrg","pricing_plan_id":"cebpf4jnsgd1na2vs0mg"},{"bike_id":"9336c7fd-afd0-4f54-b99d-183fa8a7e5a3","system_id":"levelo_inurba_marseille","lat":43.29033,"lon":5.38637,"is_reserved":false,"is_disabled":false,"rental_uris":{"android":"levelo://app?vid=9336c7fd-afd0-4f54-b99d-183fa8a7e5a3","ios":"levelo://app?vid=9336c7fd-afd0-4f54-b99d-183fa8a7e5a3"},"vehicle_type_id":"4","last_reported":1727464014,"current_range_meters":2800,"station_id":"ce4bh4p2rcd13ifvqe0g","pricing_plan_id":"cebpf4jnsgd1na2vs0mg"},{"bike_id":"85956136-be8c-48b1-8979-b0f6898d6666","system_id":"levelo_inurba_marseille","lat":43.26939,"lon":5.40256,"is_reserved":false,"is_disabled":false,"rental_uris":{"android":"levelo://app?vid=85956136-be8c-48b1-8979-b0f6898d6666","ios":"levelo://app?vid=85956136-be8c-48b1-8979-b0f6898d6666"},"vehicle_type_id":"4","last_reported":1727464014,"current_range_meters":38800,"station_id":"cjm6bp8fraef2m0cb0m0","pricing_plan_id":"cebpf4jnsgd1na2vs0mg"},{"bike_id":"9a5665ee-8d4d-4448-9526-5f8fd10b1d36","system_id":"levelo_inurba_marseille","lat":43.30955,"lon":5.39042,"is_reserved":false,"is_disabled":false,"rental_uris":{"android":"levelo://app?vid=9a5665ee-8d4d-4448-9526-5f8fd10b1d36","ios":"levelo://app?vid=9a5665ee-8d4d-4448-9526-5f8fd10b1d36"},"vehicle_type_id":"4","last_reported":1727464014,"current_range_meters":26800,"station_id":"ce4bgup2rcd13ifvqco0","pricing_plan_id":"cebpf4jnsgd1na2vs0mg"},{"bike_id":"613129f8-2639-4f91-a258-3f64bf011efa","system_id":"levelo_inurba_marseille","lat":43.23181,"lon":5.39986,"is_reserved":false,"is_disabled":false,"rental_uris":{"android":"levelo://app?vid=613129f8-2639-4f91-a258-3f64bf011efa","ios":"levelo://app?vid=613129f8-2639-4f91-a258-3f64bf011efa"},"vehicle_type_id":"4","last_reported":1727464014,"current_range_meters":38400,"station_id":"ce4bhn12rcd13ifvqgqg","pricing_plan_id":"cebpf4jnsgd1na2vs0mg"},{"bike_id":"1b461fa5-bdb0-4973-a9ad-9d10a4701c54","system_id":"levelo_inurba_marseille","lat":43.29262,"lon":5.40902,"is_reserved":false,"is_disabled":false,"rental_uris":{"android":"levelo://app?vid=1b461fa5-bdb0-4973-a9ad-9d10a4701c54","ios":"levelo://app?vid=1b461fa5-bdb0-4973-a9ad-9d10a4701c54"},"vehicle_type_id":"4","last_reported":1727464014,"current_range_meters":15200,"station_id":"ce4bh192rcd13ifvqdc0","pricing_plan_id":"cebpf4jnsgd1na2vs0mg"},{"bike_id":"199edcc5-56ef-4c70-9bb4-f8e553670bd7","system_id":"levelo_inurba_marseille","lat":43.33724,"lon":5.39189,"is_reserved":false,"is_disabled":false,"rental_uris":{"android":"levelo://app?vid=199edcc5-56ef-4c70-9bb4-f8e553670bd7","ios":"levelo://app?vid=199edcc5-56ef-4c70-9bb4-f8e553670bd7"},"vehicle_type_id":"4","last_reported":1727464014,"current_range_meters":39200,"station_id":"ce4bhr92rcd13ifvqhsg","pricing_plan_id":"cebpf4jnsgd1na2vs0mg"},{"bike_id":"bb9db4a1-8b34-4f51-84be-94e935d292ef","system_id":"levelo_inurba_marseille","lat":43.313754,"lon":5.384932,"is_reserved":false,"is_disabled":false,"rental_uris":{"android":"levelo://app?vid=bb9db4a1-8b34-4f51-84be-94e935d292ef","ios":"levelo://app?vid=bb9db4a1-8b34-4f51-84be-94e935d292ef"},"vehicle_type_id":"4","last_reported":1727464014,"current_range_meters":38800,"station_id":"ce4bgt92rcd13ifvqcf0","pricing_plan_id":"cebpf4jnsgd1na2vs0mg"},{"bike_id":"ecd2da13-3bff-4d86-87dc-d4e4c6efb032","system_id":"levelo_inurba_marseille","lat":43.29415,"lon":5.38632,"is_reserved":false,"is_disabled":false,"rental_uris":{"android":"levelo://app?vid=ecd2da13-3bff-4d86-87dc-d4e4c6efb032","ios":"levelo://app?vid=ecd2da13-3bff-4d86-87dc-d4e4c6efb032"},"vehicle_type_id":"4","last_reported":1727464014,"current_range_meters":9200,"station_id":"ce4bh2h2rcd13ifvqdh0","pricing_plan_id":"cebpf4jnsgd1na2vs0mg"},{"bike_id":"e8937631-aec2-4226-80c8-fca58136745a","system_id":"levelo_inurba_marseille","lat":43.24645,"lon":5.389,"is_reserved":false,"is_disabled":false,"rental_uris":{"android":"levelo://app?vid=e8937631-aec2-4226-80c8-fca58136745a","ios":"levelo://app?vid=e8937631-aec2-4226-80c8-fca58136745a"},"vehicle_type_id":"4","last_reported":1727464014,"current_range_meters":38400,"station_id":"ce4bhg12rcd13ifvqf60","pricing_plan_id":"cebpf4jnsgd1na2vs0mg"},{"bike_id":"9a1f15eb-2e0d-4006-9b5b-460c886cad3a","system_id":"levelo_inurba_marseille","lat":43.30958,"lon":5.39032,"is_reserved":false,"is_disabled":false,"rental_uris":{"android":"levelo://app?vid=9a1f15eb-2e0d-4006-9b5b-460c886cad3a","ios":"levelo://app?vid=9a1f15eb-2e0d-4006-9b5b-460c886cad3a"},"vehicle_type_id":"4","last_reported":1727464014,"current_range_meters":27200,"station_id":"ce4bgup2rcd13ifvqco0","pricing_plan_id":"cebpf4jnsgd1na2vs0mg"},{"bike_id":"7dda85b3-d3fb-4880-9699-4265d099c7f9","system_id":"levelo_inurba_marseille","lat":43.30159,"lon":5.3663,"is_reserved":false,"is_disabled":false,"rental_uris":{"android":"levelo://app?vid=7dda85b3-d3fb-4880-9699-4265d099c7f9","ios":"levelo://app?vid=7dda85b3-d3fb-4880-9699-4265d099c7f9"},"vehicle_type_id":"4","last_reported":1727464014,"current_range_meters":8800,"station_id":"ce4bgrh2rcd13ifvqc8g","pricing_plan_id":"cebpf4jnsgd1na2vs0mg"},{"bike_id":"2c12228d-0caa-45db-98ac-5b7a6deeb5b0","system_id":"levelo_inurba_marseille","lat":43.31713,"lon":5.43708,"is_reserved":false,"is_disabled":false,"rental_uris":{"android":"levelo://app?vid=2c12228d-0caa-45db-98ac-5b7a6deeb5b0","ios":"levelo://app?vid=2c12228d-0caa-45db-98ac-5b7a6deeb5b0"},"vehicle_type_id":"4","last_reported":1727464014,"current_range_meters":13600,"station_id":"ce4bhp92rcd13ifvqhcg","pricing_plan_id":"cebpf4jnsgd1na2vs0mg"},{"bike_id":"7a5e3a25-0702-462f-993e-e3337dbd8bc6","system_id":"levelo_inurba_marseille","lat":43.29937,"lon":5.36556,"is_reserved":false,"is_disabled":false,"rental_uris":{"android":"levelo://app?vid=7a5e3a25-0702-462f-993e-e3337dbd8bc6","ios":"levelo://app?vid=7a5e3a25-0702-462f-993e-e3337dbd8bc6"},"vehicle_type_id":"4","last_reported":1727464014,"current_range_meters":36800,"station_id":"ce4bgm92rcd13ifvqbr0","pricing_plan_id":"cebpf4jnsgd1na2vs0mg"},{"bike_id":"6df9ab72-d94b-456a-a4fc-92cbbae6c188","system_id":"levelo_inurba_marseille","lat":43.311749,"lon":5.38715,"is_reserved":false,"is_disabled":false,"rental_uris":{"android":"levelo://app?vid=6df9ab72-d94b-456a-a4fc-92cbbae6c188","ios":"levelo://app?vid=6df9ab72-d94b-456a-a4fc-92cbbae6c188"},"vehicle_type_id":"4","last_reported":1727464014,"current_range_meters":38800,"station_id":"ce4bgv12rcd13ifvqcp0","pricing_plan_id":"cebpf4jnsgd1na2vs0mg"},{"bike_id":"31c1e17d-b6a3-4372-a1a2-d4bc36a1410b","system_id":"levelo_inurba_marseille","lat":43.28714,"lon":5.37949,"is_reserved":false,"is_disabled":false,"rental_uris":{"android":"levelo://app?vid=31c1e17d-b6a3-4372-a1a2-d4bc36a1410b","ios":"levelo://app?vid=31c1e17d-b6a3-4372-a1a2-d4bc36a1410b"},"vehicle_type_id":"4","last_reported":1727464014,"current_range_meters":32400,"station_id":"ce4bh9p2rcd13ifvqec0","pricing_plan_id":"cebpf4jnsgd1na2vs0mg"},{"bike_id":"7b9f8371-1b86-4eec-ba02-e0a8bc3f0345","system_id":"levelo_inurba_marseille","lat":43.26829,"lon":5.41122,"is_reserved":false,"is_disabled":false,"rental_uris":{"android":"levelo://app?vid=7b9f8371-1b86-4eec-ba02-e0a8bc3f0345","ios":"levelo://app?vid=7b9f8371-1b86-4eec-ba02-e0a8bc3f0345"},"vehicle_type_id":"4","last_reported":1727464014,"current_range_meters":33600,"station_id":"","pricing_plan_id":"cebpf4jnsgd1na2vs0mg"},{"bike_id":"a67bb241-9130-41b3-ac97-c38d211799eb","system_id":"levelo_inurba_marseille","lat":43.31241,"lon":5.40113,"is_reserved":false,"is_disabled":false,"rental_uris":{"android":"levelo://app?vid=a67bb241-9130-41b3-ac97-c38d211799eb","ios":"levelo://app?vid=a67bb241-9130-41b3-ac97-c38d211799eb"},"vehicle_type_id":"4","last_reported":1727464014,"current_range_meters":4000,"station_id":"ce4bh092rcd13ifvqd30","pricing_plan_id":"cebpf4jnsgd1na2vs0mg"},{"bike_id":"ba14360e-2c32-4c23-a5a6-8aaff7ba3170","system_id":"levelo_inurba_marseille","lat":43.26948,"lon":5.38642,"is_reserved":false,"is_disabled":false,"rental_uris":{"android":"levelo://app?vid=ba14360e-2c32-4c23-a5a6-8aaff7ba3170","ios":"levelo://app?vid=ba14360e-2c32-4c23-a5a6-8aaff7ba3170"},"vehicle_type_id":"4","last_reported":1727464014,"current_range_meters":37600,"station_id":"ce4bhh92rcd13ifvqfh0","pricing_plan_id":"cebpf4jnsgd1na2vs0mg"},{"bike_id":"821c9dbd-de40-4203-8a92-db9a6aef2dfc","system_id":"levelo_inurba_marseille","lat":43.28715,"lon":5.37947,"is_reserved":false,"is_disabled":false,"rental_uris":{"android":"levelo://app?vid=821c9dbd-de40-4203-8a92-db9a6aef2dfc","ios":"levelo://app?vid=821c9dbd-de40-4203-8a92-db9a6aef2dfc"},"vehicle_type_id":"4","last_reported":1727464014,"current_range_meters":4800,"station_id":"ce4bh9p2rcd13ifvqec0","pricing_plan_id":"cebpf4jnsgd1na2vs0mg"},{"bike_id":"83a597ec-c00a-4111-9bb2-accce956b906","system_id":"levelo_inurba_marseille","lat":43.30251,"lon":5.40064,"is_reserved":false,"is_disabled":false,"rental_uris":{"android":"levelo://app?vid=83a597ec-c00a-4111-9bb2-accce956b906","ios":"levelo://app?vid=83a597ec-c00a-4111-9bb2-accce956b906"},"vehicle_type_id":"4","last_reported":1727464014,"current_range_meters":35200,"station_id":"ce4bgvh2rcd13ifvqcs0","pricing_plan_id":"cebpf4jnsgd1na2vs0mg"},{"bike_id":"5e6ae0fa-e82e-4924-ba08-83c9a2b4a699","system_id":"levelo_inurba_marseille","lat":43.25889,"lon":5.38592,"is_reserved":false,"is_disabled":false,"rental_uris":{"android":"levelo://app?vid=5e6ae0fa-e82e-4924-ba08-83c9a2b4a699","ios":"levelo://app?vid=5e6ae0fa-e82e-4924-ba08-83c9a2b4a699"},"vehicle_type_id":"4","last_reported":1727464014,"current_range_meters":30400,"station_id":"","pricing_plan_id":"cebpf4jnsgd1na2vs0mg"},{"bike_id":"7f0bfa97-8563-4caa-8fe1-de4bf16f8d01","system_id":"levelo_inurba_marseille","lat":43.24169,"lon":5.39719,"is_reserved":false,"is_disabled":false,"rental_uris":{"android":"levelo://app?vid=7f0bfa97-8563-4caa-8fe1-de4bf16f8d01","ios":"levelo://app?vid=7f0bfa97-8563-4caa-8fe1-de4bf16f8d01"},"vehicle_type_id":"4","last_reported":1727464014,"current_range_meters":36800,"station_id":"ce4bhn12rcd13ifvqgpg","pricing_plan_id":"cebpf4jnsgd1na2vs0mg"},{"bike_id":"b708e9f4-2cf2-4297-baf7-faa64dee24fc","system_id":"levelo_inurba_marseille","lat":43.29276,"lon":5.36846,"is_reserved":false,"is_disabled":false,"rental_uris":{"android":"levelo://app?vid=b708e9f4-2cf2-4297-baf7-faa64dee24fc","ios":"levelo://app?vid=b708e9f4-2cf2-4297-baf7-faa64dee24fc"},"vehicle_type_id":"4","last_reported":1727464014,"current_range_meters":27600,"station_id":"ce4bhbp2rcd13ifvqesg","pricing_plan_id":"cebpf4jnsgd1na2vs0mg"},{"bike_id":"93d0d015-02c4-4dc3-818c-a1bcd80a780b","system_id":"levelo_inurba_marseille","lat":43.27173,"lon":5.40997,"is_reserved":false,"is_disabled":false,"rental_uris":{"android":"levelo://app?vid=93d0d015-02c4-4dc3-818c-a1bcd80a780b","ios":"levelo://app?vid=93d0d015-02c4-4dc3-818c-a1bcd80a780b"},"vehicle_type_id":"4","last_reported":1727464014,"current_range_meters":24000,"station_id":"ce4bhl12rcd13ifvqgf0","pricing_plan_id":"cebpf4jnsgd1na2vs0mg"},{"bike_id":"c7cb570e-8905-4969-b3d6-d62b3caf3387","system_id":"levelo_inurba_marseille","lat":43.30421,"lon":5.41276,"is_reserved":false,"is_disabled":false,"rental_uris":{"android":"levelo://app?vid=c7cb570e-8905-4969-b3d6-d62b3caf3387","ios":"levelo://app?vid=c7cb570e-8905-4969-b3d6-d62b3caf3387"},"vehicle_type_id":"4","last_reported":1727464014,"current_range_meters":2800,"station_id":"ce4bhop2rcd13ifvqh8g","pricing_plan_id":"cebpf4jnsgd1na2vs0mg"},{"bike_id":"ca5a40f6-a181-477a-a529-33b0d8828684","system_id":"levelo_inurba_marseille","lat":43.29408,"lon":5.38624,"is_reserved":false,"is_disabled":false,"rental_uris":{"android":"levelo://app?vid=ca5a40f6-a181-477a-a529-33b0d8828684","ios":"levelo://app?vid=ca5a40f6-a181-477a-a529-33b0d8828684"},"vehicle_type_id":"4","last_reported":1727464014,"current_range_meters":36800,"station_id":"ce4bh2h2rcd13ifvqdh0","pricing_plan_id":"cebpf4jnsgd1na2vs0mg"},{"bike_id":"4e08238c-5b15-41e0-bf7e-c56f400293e2","system_id":"levelo_inurba_marseille","lat":43.3133,"lon":5.39697,"is_reserved":false,"is_disabled":false,"rental_uris":{"android":"levelo://app?vid=4e08238c-5b15-41e0-bf7e-c56f400293e2","ios":"levelo://app?vid=4e08238c-5b15-41e0-bf7e-c56f400293e2"},"vehicle_type_id":"4","last_reported":1727464014,"current_range_meters":6000,"station_id":"ce4bgvp2rcd13ifvqcu0","pricing_plan_id":"cebpf4jnsgd1na2vs0mg"},{"bike_id":"a37b2259-2ae1-4d75-9679-29f2ca2b10e8","system_id":"levelo_inurba_marseille","lat":43.27496,"lon":5.42456,"is_reserved":false,"is_disabled":false,"rental_uris":{"android":"levelo://app?vid=a37b2259-2ae1-4d75-9679-29f2ca2b10e8","ios":"levelo://app?vid=a37b2259-2ae1-4d75-9679-29f2ca2b10e8"},"vehicle_type_id":"4","last_reported":1727464014,"current_range_meters":20400,"station_id":"ce4bhn92rcd13ifvqgrg","pricing_plan_id":"cebpf4jnsgd1na2vs0mg"},{"bike_id":"4f89d83c-fefb-44bf-b96b-159e7adfad8e","system_id":"levelo_inurba_marseille","lat":43.29269,"lon":5.36848,"is_reserved":false,"is_disabled":false,"rental_uris":{"android":"levelo://app?vid=4f89d83c-fefb-44bf-b96b-159e7adfad8e","ios":"levelo://app?vid=4f89d83c-fefb-44bf-b96b-159e7adfad8e"},"vehicle_type_id":"4","last_reported":1727464014,"current_range_meters":38000,"station_id":"ce4bhbp2rcd13ifvqesg","pricing_plan_id":"cebpf4jnsgd1na2vs0mg"},{"bike_id":"2ff57769-3f9c-48b1-9a99-191c5fd2df06","system_id":"levelo_inurba_marseille","lat":43.24178,"lon":5.39737,"is_reserved":false,"is_disabled":false,"rental_uris":{"android":"levelo://app?vid=2ff57769-3f9c-48b1-9a99-191c5fd2df06","ios":"levelo://app?vid=2ff57769-3f9c-48b1-9a99-191c5fd2df06"},"vehicle_type_id":"4","last_reported":1727464014,"current_range_meters":24400,"station_id":"ce4bhn12rcd13ifvqgpg","pricing_plan_id":"cebpf4jnsgd1na2vs0mg"},{"bike_id":"6f8317c5-c00f-469f-bad4-ca2a2b760298","system_id":"levelo_inurba_marseille","lat":43.2988,"lon":5.38914,"is_reserved":false,"is_disabled":false,"rental_uris":{"android":"levelo://app?vid=6f8317c5-c00f-469f-bad4-ca2a2b760298","ios":"levelo://app?vid=6f8317c5-c00f-469f-bad4-ca2a2b760298"},"vehicle_type_id":"4","last_reported":1727464014,"current_range_meters":5600,"station_id":"ce4bh392rcd13ifvqdl0","pricing_plan_id":"cebpf4jnsgd1na2vs0mg"},{"bike_id":"e3b07859-da9f-45b4-ba24-9be33b523fa6","system_id":"levelo_inurba_marseille","lat":43.3042,"lon":5.41286,"is_reserved":false,"is_disabled":false,"rental_uris":{"android":"levelo://app?vid=e3b07859-da9f-45b4-ba24-9be33b523fa6","ios":"levelo://app?vid=e3b07859-da9f-45b4-ba24-9be33b523fa6"},"vehicle_type_id":"4","last_reported":1727464014,"current_range_meters":29600,"station_id":"ce4bhop2rcd13ifvqh8g","pricing_plan_id":"cebpf4jnsgd1na2vs0mg"},{"bike_id":"e25b6d1e-ff32-4b70-9d91-18d8d2de02d4","system_id":"levelo_inurba_marseille","lat":43.25867,"lon":5.39906,"is_reserved":false,"is_disabled":false,"rental_uris":{"android":"levelo://app?vid=e25b6d1e-ff32-4b70-9d91-18d8d2de02d4","ios":"levelo://app?vid=e25b6d1e-ff32-4b70-9d91-18d8d2de02d4"},"vehicle_type_id":"4","last_reported":1727464014,"current_range_meters":37600,"station_id":"ce4bhl92rcd13ifvqghg","pricing_plan_id":"cebpf4jnsgd1na2vs0mg"},{"bike_id":"49012fc7-8958-4693-830b-cfd30c43299f","system_id":"levelo_inurba_marseille","lat":43.27319,"lon":5.39075,"is_reserved":false,"is_disabled":false,"rental_uris":{"android":"levelo://app?vid=49012fc7-8958-4693-830b-cfd30c43299f","ios":"levelo://app?vid=49012fc7-8958-4693-830b-cfd30c43299f"},"vehicle_type_id":"4","last_reported":1727464014,"current_range_meters":16000,"station_id":"ce4bhgp2rcd13ifvqfe0","pricing_plan_id":"cebpf4jnsgd1na2vs0mg"},{"bike_id":"9cdab595-eec6-49a0-8cea-01339ad83013","system_id":"levelo_inurba_marseille","lat":43.28031,"lon":5.36946,"is_reserved":false,"is_disabled":false,"rental_uris":{"android":"levelo://app?vid=9cdab595-eec6-49a0-8cea-01339ad83013","ios":"levelo://app?vid=9cdab595-eec6-49a0-8cea-01339ad83013"},"vehicle_type_id":"4","last_reported":1727464014,"current_range_meters":14800,"station_id":"ce4bha12rcd13ifvqef0","pricing_plan_id":"cebpf4jnsgd1na2vs0mg"},{"bike_id":"f402bee5-7020-48e2-b0ab-2678a6003210","system_id":"levelo_inurba_marseille","lat":43.3211,"lon":5.3678,"is_reserved":false,"is_disabled":false,"rental_uris":{"android":"levelo://app?vid=f402bee5-7020-48e2-b0ab-2678a6003210","ios":"levelo://app?vid=f402bee5-7020-48e2-b0ab-2678a6003210"},"vehicle_type_id":"4","last_reported":1727464014,"current_range_meters":33600,"station_id":"ce4bhrh2rcd13ifvqhug","pricing_plan_id":"cebpf4jnsgd1na2vs0mg"},{"bike_id":"59f6a19b-141c-414d-806b-745d280a7e9a","system_id":"levelo_inurba_marseille","lat":43.32473,"lon":5.36559,"is_reserved":false,"is_disabled":false,"rental_uris":{"android":"levelo://app?vid=59f6a19b-141c-414d-806b-745d280a7e9a","ios":"levelo://app?vid=59f6a19b-141c-414d-806b-745d280a7e9a"},"vehicle_type_id":"4","last_reported":1727464014,"current_range_meters":4000,"station_id":"ce4bhs12rcd13ifvqhvg","pricing_plan_id":"cebpf4jnsgd1na2vs0mg"},{"bike_id":"4bf5757f-e217-46ff-8e72-ee264beef92e","system_id":"levelo_inurba_marseille","lat":43.28978,"lon":5.37826,"is_reserved":false,"is_disabled":false,"rental_uris":{"android":"levelo://app?vid=4bf5757f-e217-46ff-8e72-ee264beef92e","ios":"levelo://app?vid=4bf5757f-e217-46ff-8e72-ee264beef92e"},"vehicle_type_id":"4","last_reported":1727464014,"current_range_meters":15200,"station_id":"ce4bh9p2rcd13ifvqed0","pricing_plan_id":"cebpf4jnsgd1na2vs0mg"},{"bike_id":"7c97c9d1-cdfa-4e0e-b11a-92d37b249995","system_id":"levelo_inurba_marseille","lat":43.24652,"lon":5.38895,"is_reserved":false,"is_disabled":false,"rental_uris":{"android":"levelo://app?vid=7c97c9d1-cdfa-4e0e-b11a-92d37b249995","ios":"levelo://app?vid=7c97c9d1-cdfa-4e0e-b11a-92d37b249995"},"vehicle_type_id":"4","last_reported":1727464014,"current_range_meters":10000,"station_id":"ce4bhg12rcd13ifvqf60","pricing_plan_id":"cebpf4jnsgd1na2vs0mg"},{"bike_id":"ee07f5fd-3518-46e3-849d-4b50e0ca61c9","system_id":"levelo_inurba_marseille","lat":43.274139,"lon":5.394093,"is_reserved":false,"is_disabled":false,"rental_uris":{"android":"levelo://app?vid=ee07f5fd-3518-46e3-849d-4b50e0ca61c9","ios":"levelo://app?vid=ee07f5fd-3518-46e3-849d-4b50e0ca61c9"},"vehicle_type_id":"4","last_reported":1727464014,"current_range_meters":12400,"station_id":"ce4bhdp2rcd13ifvqf20","pricing_plan_id":"cebpf4jnsgd1na2vs0mg"},{"bike_id":"63eee3fe-3c12-4322-bf3d-d4a0380c2347","system_id":"levelo_inurba_marseille","lat":43.2953,"lon":5.38535,"is_reserved":false,"is_disabled":false,"rental_uris":{"android":"levelo://app?vid=63eee3fe-3c12-4322-bf3d-d4a0380c2347","ios":"levelo://app?vid=63eee3fe-3c12-4322-bf3d-d4a0380c2347"},"vehicle_type_id":"4","last_reported":1727464014,"current_range_meters":6400,"station_id":"ce4bgih2rcd13ifvqba0","pricing_plan_id":"cebpf4jnsgd1na2vs0mg"},{"bike_id":"25b5fe3c-daa7-4b13-bbea-6cfb2ca3af5e","system_id":"levelo_inurba_marseille","lat":43.30955,"lon":5.39034,"is_reserved":false,"is_disabled":false,"rental_uris":{"android":"levelo://app?vid=25b5fe3c-daa7-4b13-bbea-6cfb2ca3af5e","ios":"levelo://app?vid=25b5fe3c-daa7-4b13-bbea-6cfb2ca3af5e"},"vehicle_type_id":"4","last_reported":1727464014,"current_range_meters":4400,"station_id":"ce4bgup2rcd13ifvqco0","pricing_plan_id":"cebpf4jnsgd1na2vs0mg"},{"bike_id":"18b92e2e-17dd-45a5-8083-fcae81f76d69","system_id":"levelo_inurba_marseille","lat":43.29417,"lon":5.38627,"is_reserved":false,"is_disabled":false,"rental_uris":{"android":"levelo://app?vid=18b92e2e-17dd-45a5-8083-fcae81f76d69","ios":"levelo://app?vid=18b92e2e-17dd-45a5-8083-fcae81f76d69"},"vehicle_type_id":"4","last_reported":1727464014,"current_range_meters":4000,"station_id":"ce4bh2h2rcd13ifvqdh0","pricing_plan_id":"cebpf4jnsgd1na2vs0mg"},{"bike_id":"6b5c9dd8-0501-461c-a3b6-922a95d08479","system_id":"levelo_inurba_marseille","lat":43.22932,"lon":5.35383,"is_reserved":false,"is_disabled":false,"rental_uris":{"android":"levelo://app?vid=6b5c9dd8-0501-461c-a3b6-922a95d08479","ios":"levelo://app?vid=6b5c9dd8-0501-461c-a3b6-922a95d08479"},"vehicle_type_id":"4","last_reported":1727464014,"current_range_meters":12000,"station_id":"cpo3532slgdg3j2ikp40","pricing_plan_id":"cebpf4jnsgd1na2vs0mg"},{"bike_id":"b7cc7dc1-a778-4557-be4b-d6b9af344daa","system_id":"levelo_inurba_marseille","lat":43.27825,"lon":5.40732,"is_reserved":false,"is_disabled":false,"rental_uris":{"android":"levelo://app?vid=b7cc7dc1-a778-4557-be4b-d6b9af344daa","ios":"levelo://app?vid=b7cc7dc1-a778-4557-be4b-d6b9af344daa"},"vehicle_type_id":"4","last_reported":1727464014,"current_range_meters":38800,"station_id":"ce4bhnh2rcd13ifvqgtg","pricing_plan_id":"cebpf4jnsgd1na2vs0mg"},{"bike_id":"e39404bf-de5d-4e02-a2c9-ada015555e87","system_id":"levelo_inurba_marseille","lat":43.30963,"lon":5.39034,"is_reserved":false,"is_disabled":false,"rental_uris":{"android":"levelo://app?vid=e39404bf-de5d-4e02-a2c9-ada015555e87","ios":"levelo://app?vid=e39404bf-de5d-4e02-a2c9-ada015555e87"},"vehicle_type_id":"4","last_reported":1727464014,"current_range_meters":30400,"station_id":"ce4bgup2rcd13ifvqco0","pricing_plan_id":"cebpf4jnsgd1na2vs0mg"},{"bike_id":"fdea911c-4247-474a-9853-0ddd9f45ca4d","system_id":"levelo_inurba_marseille","lat":43.3112,"lon":5.38341,"is_reserved":false,"is_disabled":false,"rental_uris":{"android":"levelo://app?vid=fdea911c-4247-474a-9853-0ddd9f45ca4d","ios":"levelo://app?vid=fdea911c-4247-474a-9853-0ddd9f45ca4d"},"vehicle_type_id":"4","last_reported":1727464014,"current_range_meters":30800,"station_id":"ce4bgv92rcd13ifvqcr0","pricing_plan_id":"cebpf4jnsgd1na2vs0mg"},{"bike_id":"6c4d2925-f469-497f-bcb2-8681e68704fe","system_id":"levelo_inurba_marseille","lat":43.2783,"lon":5.39215,"is_reserved":false,"is_disabled":false,"rental_uris":{"android":"levelo://app?vid=6c4d2925-f469-497f-bcb2-8681e68704fe","ios":"levelo://app?vid=6c4d2925-f469-497f-bcb2-8681e68704fe"},"vehicle_type_id":"4","last_reported":1727464014,"current_range_meters":4800,"station_id":"ce4bhjp2rcd13ifvqga0","pricing_plan_id":"cebpf4jnsgd1na2vs0mg"},{"bike_id":"7c2b4289-32f8-48cf-80ab-8ec5989e32a5","system_id":"levelo_inurba_marseille","lat":43.31492,"lon":5.37316,"is_reserved":false,"is_disabled":false,"rental_uris":{"android":"levelo://app?vid=7c2b4289-32f8-48cf-80ab-8ec5989e32a5","ios":"levelo://app?vid=7c2b4289-32f8-48cf-80ab-8ec5989e32a5"},"vehicle_type_id":"4","last_reported":1727464014,"current_range_meters":9200,"station_id":"ce4bgt12rcd13ifvqcd0","pricing_plan_id":"cebpf4jnsgd1na2vs0mg"},{"bike_id":"71609bba-bc9c-4736-98a9-7787b098738c","system_id":"levelo_inurba_marseille","lat":43.23196,"lon":5.35556,"is_reserved":false,"is_disabled":false,"rental_uris":{"android":"levelo://app?vid=71609bba-bc9c-4736-98a9-7787b098738c","ios":"levelo://app?vid=71609bba-bc9c-4736-98a9-7787b098738c"},"vehicle_type_id":"4","last_reported":1727464014,"current_range_meters":24800,"station_id":"ce4bhu92rcd13ifvqi70","pricing_plan_id":"cebpf4jnsgd1na2vs0mg"},