{"last_updated":1773400913,"ttl":60,"version":"2.2","data":{"bikes":[{"bike_id":"19691a7e-d227-4f2f-9137-873d9a39eff4","system_id":"levelo_inurba_marseille","lat":43.2315,"lon":5.43703,"is_reserved":false,"is_disabled":false,"rental_uris":{"android":"levelo://app?vid=19691a7e-d227-4f2f-9137-873d9a39eff4","ios":"levelo://app?vid=19691a7e-d227-4f2f-9137-873d9a39eff4"},"vehicle_type_id":"4","last_reported":1773400914,"current_range_meters":38000,"station_id":"ce4bhmp2rcd13ifvqgog","pricing_plan_id":"cebpf4jnsgd1na2vs0mg"},{"bike_id":"ebf75af1-c1e1-4ab4-be7a-03ecdd2c2597","system_id":"levelo_inurba_marseille","lat":43.31042,"lon":5.37179,"is_reserved":false,"is_disabled":false,"rental_uris":{"android":"levelo://app?vid=ebf75af1-c1e1-4ab4-be7a-03ecdd2c2597","ios":"levelo://app?vid=ebf75af1-c1e1-4ab4-be7a-03ecdd2c2597"},"vehicle_type_id":"4","last_reported":1773400914,"current_range_meters":34800,"station_id":"st_d4kl2rp97mjs73e7tdfg","pricing_plan_id":"cebpf4jnsgd1na2vs0mg"},{"bike_id":"51d02c11-617e-4c73-a65d-561ee346ae17","system_id":"levelo_inurba_marseille","lat":43.23146,"lon":5.43712,"is_reserved":false,"is_disabled":false,"rental_uris":{"android":"levelo://app?vid=51d02c11-617e-4c73-a65d-561ee346ae17","ios":"levelo://app?vid=51d02c11-617e-4c73-a65d-561ee346ae17"},"vehicle_type_id":"4","last_reported":1773400914,"current_range_meters":36000,"station_id":"ce4bhmp2rcd13ifvqgog","pricing_plan_id":"cebpf4jnsgd1na2vs0mg"},{"bike_id":"fb0917ca-b860-4570-9fd5-06282ab6a937","system_id":"levelo_inurba_marseille","lat":43.2315,"lon":5.43711,"is_reserved":false,"is_disabled":false,"rental_uris":{"android":"levelo://app?vid=fb0917ca-b860-4570-9fd5-06282ab6a937","ios":"levelo://app?vid=fb0917ca-b860-4570-9fd5-06282ab6a937"},"vehicle_type_id":"4","last_reported":1773400914,"current_range_meters":34000,"station_id":"ce4bhmp2rcd13ifvqgog","pricing_plan_id":"cebpf4jnsgd1na2vs0mg"},{"bike_id":"dbcd0d5d-c925-42ce-8639-98c254a6f766","system_id":"levelo_inurba_marseille","lat":43.31048,"lon":5.37166,"is_reserved":false,"is_disabled":false,"rental_uris":{"android":"levelo://app?vid=dbcd0d5d-c925-42ce-8639-98c254a6f766","ios":"levelo://app?vid=dbcd0d5d-c925-42ce-8639-98c254a6f766"},"vehicle_type_id":"4","last_reported":1773400914,"current_range_meters":35600,"station_id":"st_d4kl2rp97mjs73e7tdfg","pricing_plan_id":"cebpf4jnsgd1na2vs0mg"},{"bike_id":"895e7cf9-4cb2-4dc3-aec9-fd7326baacbe","system_id":"levelo_inurba_marseille","lat":43.31041,"lon":5.37195,"is_reserved":false,"is_disabled":false,"rental_uris":{"android":"levelo://app?vid=895e7cf9-4cb2-4dc3-aec9-fd7326baacbe","ios":"levelo://app?vid=895e7cf9-4cb2-4dc3-aec9-fd7326baacbe"},"vehicle_type_id":"4","last_reported":1773400914,"current_range_meters":35600,"station_id":"st_d4kl2rp97mjs73e7tdfg","pricing_plan_id":"cebpf4jnsgd1na2vs0mg"},{"bike_id":"c1e18796-ccf6-47fb-9411-4f27272cf92b","system_id":"levelo_inurba_marseille","lat":43.31057,"lon":5.3718,"is_reserved":false,"is_disabled":false,"rental_uris":{"android":"levelo://app?vid=c1e18796-ccf6-47fb-9411-4f27272cf92b","ios":"levelo://app?vid=c1e18796-ccf6-47fb-9411-4f27272cf92b"},"vehicle_type_id":"4","last_reported":1773400914,"current_range_meters":35600,"station_id":"st_d4kl2rp97mjs73e7tdfg","pricing_plan_id":"cebpf4jnsgd1na2vs0mg"},{"bike_id":"c5f8db76-81c5-4830-8fdb-99bfa9447012","system_id":"levelo_inurba_marseille","lat":43.3104,"lon":5.37182,"is_reserved":false,"is_disabled":false,"rental_uris":{"android":"levelo://app?vid=c5f8db76-81c5-4830-8fdb-99bfa9447012","ios":"levelo://app?vid=c5f8db76-81c5-4830-8fdb-99bfa9447012"},"vehicle_type_id":"4","last_reported":1773400914,"current_range_meters":34800,"station_id":"st_d4kl2rp97mjs73e7tdfg","pricing_plan_id":"cebpf4jnsgd1na2vs0mg"},{"bike_id":"f8859008-76ae-4d29-a566-36c686b68670","system_id":"levelo_inurba_marseille","lat":43.31045,"lon":5.372,"is_reserved":false,"is_disabled":false,"rental_uris":{"android":"levelo://app?vid=f8859008-76ae-4d29-a566-36c686b68670","ios":"levelo://app?vid=f8859008-76ae-4d29-a566-36c686b68670"},"vehicle_type_id":"4","last_reported":1773400914,"current_range_meters":34800,"station_id":"st_d4kl2rp97mjs73e7tdfg","pricing_plan_id":"cebpf4jnsgd1na2vs0mg"},{"bike_id":"dd72790d-8792-4358-a59b-7a678d40fe17","system_id":"levelo_inurba_marseille","lat":43.292724,"lon":5.401098,"is_reserved":false,"is_disabled":true,"rental_uris":{"android":"levelo://app?vid=dd72790d-8792-4358-a59b-7a678d40fe17","ios":"levelo://app?vid=dd72790d-8792-4358-a59b-7a678d40fe17"},"vehicle_type_id":"4","last_reported":1773400914,"current_range_meters":0,"station_id":"ce4bh312rcd13ifvqdk0","pricing_plan_id":"cebpf4jnsgd1na2vs0mg"},{"bike_id":"84258842-b27c-44d2-a3e3-a8ab065af084","system_id":"levelo_inurba_marseille","lat":43.26043,"lon":5.39381,"is_reserved":false,"is_disabled":false,"rental_uris":{"android":"levelo://app?vid=84258842-b27c-44d2-a3e3-a8ab065af084","ios":"levelo://app?vid=84258842-b27c-44d2-a3e3-a8ab065af084"},"vehicle_type_id":"4","last_reported":1773400914,"current_range_meters":34800,"station_id":"ce4bhh92rcd13ifvqfj0","pricing_plan_id":"cebpf4jnsgd1na2vs0mg"},{"bike_id":"4c85c741-0ae5-49a8-a29b-65693ed0e962","system_id":"levelo_inurba_marseille","lat":43.29043,"lon":5.37566,"is_reserved":false,"is_disabled":false,"rental_uris":{"android":"levelo://app?vid=4c85c741-0ae5-49a8-a29b-65693ed0e962","ios":"levelo://app?vid=4c85c741-0ae5-49a8-a29b-65693ed0e962"},"vehicle_type_id":"4","last_reported":1773400914,"current_range_meters":27600,"station_id":"ce4bh692rcd13ifvqe90","pricing_plan_id":"cebpf4jnsgd1na2vs0mg"},{"bike_id":"0c0089e7-1a1e-46a0-9bbc-b3db79f60db5","system_id":"levelo_inurba_marseille","lat":43.27384,"lon":5.3627,"is_reserved":false,"is_disabled":false,"rental_uris":{"android":"levelo://app?vid=0c0089e7-1a1e-46a0-9bbc-b3db79f60db5","ios":"levelo://app?vid=0c0089e7-1a1e-46a0-9bbc-b3db79f60db5"},"vehicle_type_id":"4","last_reported":1773400914,"current_range_meters":39200,"station_id":"ce4bhbh2rcd13ifvqeo0","pricing_plan_id":"cebpf4jnsgd1na2vs0mg"},{"bike_id":"7ffa041c-bc7f-4159-90b7-8ee18db551ca","system_id":"levelo_inurba_marseille","lat":43.29934,"lon":5.37322,"is_reserved":false,"is_disabled":false,"rental_uris":{"android":"levelo://app?vid=7ffa041c-bc7f-4159-90b7-8ee18db551ca","ios":"levelo://app?vid=7ffa041c-bc7f-4159-90b7-8ee18db551ca"},"vehicle_type_id":"4","last_reported":1773400914,"current_range_meters":10800,"station_id":"","pricing_plan_id":"cebpf4jnsgd1na2vs0mg"},{"bike_id":"8ba1bffe-13bd-4d1e-8ac0-8b9df0b06a3e","system_id":"levelo_inurba_marseille","lat":43.29781,"lon":5.38102,"is_reserved":false,"is_disabled":true,"rental_uris":{"android":"levelo://app?vid=8ba1bffe-13bd-4d1e-8ac0-8b9df0b06a3e","ios":"levelo://app?vid=8ba1bffe-13bd-4d1e-8ac0-8b9df0b06a3e"},"vehicle_type_id":"4","last_reported":1773400914,"current_range_meters":18800,"station_id":"ce4bgip2rcd13ifvqbb0","pricing_plan_id":"cebpf4jnsgd1na2vs0mg"},{"bike_id":"f8752ee3-a186-49f5-9eb6-2d352a6260f7","system_id":"levelo_inurba_marseille","lat":43.32651,"lon":5.40983,"is_reserved":false,"is_disabled":true,"rental_uris":{"android":"levelo://app?vid=f8752ee3-a186-49f5-9eb6-2d352a6260f7","ios":"levelo://app?vid=f8752ee3-a186-49f5-9eb6-2d352a6260f7"},"vehicle_type_id":"4","last_reported":1773400914,"current_range_meters":40000,"station_id":"ce4bhpp2rcd13ifvqhgg","pricing_plan_id":"cebpf4jnsgd1na2vs0mg"},{"bike_id":"ae540bed-ed3b-4247-abad-fe29acd1fb3e","system_id":"levelo_inurba_marseille","lat":43.33019,"lon":5.39048,"is_reserved":false,"is_disabled":false,"rental_uris":{"android":"levelo://app?vid=ae540bed-ed3b-4247-abad-fe29acd1fb3e","ios":"levelo://app?vid=ae540bed-ed3b-4247-abad-fe29acd1fb3e"},"vehicle_type_id":"4","last_reported":1773400914,"current_range_meters":38400,"station_id":"ce4bhr92rcd13ifvqhrg","pricing_plan_id":"cebpf4jnsgd1na2vs0mg"},{"bike_id":"18f35d94-7133-4b4b-a629-0bec9d48af36","system_id":"levelo_inurba_marseille","lat":43.2847,"lon":5.48401,"is_reserved":false,"is_disabled":false,"rental_uris":{"android":"levelo://app?vid=18f35d94-7133-4b4b-a629-0bec9d48af36","ios":"levelo://app?vid=18f35d94-7133-4b4b-a629-0bec9d48af36"},"vehicle_type_id":"4","last_reported":1773400914,"current_range_meters":28400,"station_id":"","pricing_plan_id":"cebpf4jnsgd1na2vs0mg"},{"bike_id":"b2399a9f-a598-463b-80a6-f3cff6f3600d","system_id":"levelo_inurba_marseille","lat":43.29787,"lon":5.36503,"is_reserved":false,"is_disabled":false,"rental_uris":{"android":"levelo://app?vid=b2399a9f-a598-463b-80a6-f3cff6f3600d","ios":"levelo://app?vid=b2399a9f-a598-463b-80a6-f3cff6f3600d"},"vehicle_type_id":"4","last_reported":1773400914,"current_range_meters":27600,"station_id":"","pricing_plan_id":"cebpf4jnsgd1na2vs0mg"},{"bike_id":"a0fde954-4bbc-4f5a-aaed-afe4183c8e70","system_id":"levelo_inurba_marseille","lat":43.2953,"lon":5.38548,"is_reserved":false,"is_disabled":false,"rental_uris":{"android":"levelo://app?vid=a0fde954-4bbc-4f5a-aaed-afe4183c8e70","ios":"levelo://app?vid=a0fde954-4bbc-4f5a-aaed-afe4183c8e70"},"vehicle_type_id":"4","last_reported":1773400914,"current_range_meters":30800,"station_id":"ce4bgih2rcd13ifvqba0","pricing_plan_id":"cebpf4jnsgd1na2vs0mg"},{"bike_id":"7db92065-fd6e-4014-982f-daf9b3e1e88d","system_id":"levelo_inurba_marseille","lat":43.25839,"lon":5.39429,"is_reserved":false,"is_disabled":false,"rental_uris":{"android":"levelo://app?vid=7db92065-fd6e-4014-982f-daf9b3e1e88d","ios":"levelo://app?vid=7db92065-fd6e-4014-982f-daf9b3e1e88d"},"vehicle_type_id":"4","last_reported":1773400914,"current_range_meters":19600,"station_id":"ce4bhip2rcd13ifvqft0","pricing_plan_id":"cebpf4jnsgd1na2vs0mg"},{"bike_id":"6bad8123-d96b-46d8-998f-b074f8a93280","system_id":"levelo_inurba_marseille","lat":43.29301,"lon":5.37167,"is_reserved":false,"is_disabled":false,"rental_uris":{"android":"levelo://app?vid=6bad8123-d96b-46d8-998f-b074f8a93280","ios":"levelo://app?vid=6bad8123-d96b-46d8-998f-b074f8a93280"},"vehicle_type_id":"4","last_reported":1773400914,"current_range_meters":38400,"station_id":"ce4bgh92rcd13ifvqb40","pricing_plan_id":"cebpf4jnsgd1na2vs0mg"},{"bike_id":"2160cf90-c2ed-4bac-8d60-36bbdf94fd16","system_id":"levelo_inurba_marseille","lat":43.31497,"lon":5.37307,"is_reserved":false,"is_disabled":false,"rental_uris":{"android":"levelo://app?vid=2160cf90-c2ed-4bac-8d60-36bbdf94fd16","ios":"levelo://app?vid=2160cf90-c2ed-4bac-8d60-36bbdf94fd16"},"vehicle_type_id":"4","last_reported":1773400914,"current_range_meters":34800,"station_id":"ce4bgt12rcd13ifvqcd0","pricing_plan_id":"cebpf4jnsgd1na2vs0mg"},{"bike_id":"bb59f437-04ce-472a-8259-f42eb5a79dcb","system_id":"levelo_inurba_marseille","lat":43.29904,"lon":5.37432,"is_reserved":false,"is_disabled":false,"rental_uris":{"android":"levelo://app?vid=bb59f437-04ce-472a-8259-f42eb5a79dcb","ios":"levelo://app?vid=bb59f437-04ce-472a-8259-f42eb5a79dcb"},"vehicle_type_id":"4","last_reported":1773400914,"current_range_meters":38000,"station_id":"ce4bgjh2rcd13ifvqbg0","pricing_plan_id":"cebpf4jnsgd1na2vs0mg"},{"bike_id":"21ebfc21-6686-4f1f-ba42-dedc008b4317","system_id":"levelo_inurba_marseille","lat":43.29884,"lon":5.37396,"is_reserved":false,"is_disabled":false,"rental_uris":{"android":"levelo://app?vid=21ebfc21-6686-4f1f-ba42-dedc008b4317","ios":"levelo://app?vid=21ebfc21-6686-4f1f-ba42-dedc008b4317"},"vehicle_type_id":"4","last_reported":1773400914,"current_range_meters":32000,"station_id":"","pricing_plan_id":"cebpf4jnsgd1na2vs0mg"},{"bike_id":"6857a8f7-cd07-415a-91c1-a0266e63ea1a","system_id":"levelo_inurba_marseille","lat":43.31526,"lon":5.38041,"is_reserved":false,"is_disabled":false,"rental_uris":{"android":"levelo://app?vid=6857a8f7-cd07-415a-91c1-a0266e63ea1a","ios":"levelo://app?vid=6857a8f7-cd07-415a-91c1-a0266e63ea1a"},"vehicle_type_id":"4","last_reported":1773400914,"current_range_meters":30800,"station_id":"ce4bhsp2rcd13ifvqi50","pricing_plan_id":"cebpf4jnsgd1na2vs0mg"},{"bike_id":"a4fa99c6-9544-41e7-a29d-0cec1b2a1917","system_id":"levelo_inurba_marseille","lat":43.24806,"lon":5.37446,"is_reserved":false,"is_disabled":true,"rental_uris":{"android":"levelo://app?vid=a4fa99c6-9544-41e7-a29d-0cec1b2a1917","ios":"levelo://app?vid=a4fa99c6-9544-41e7-a29d-0cec1b2a1917"},"vehicle_type_id":"4","last_reported":1773400914,"current_range_meters":1200,"station_id":"ce4bhgh2rcd13ifvqfb0","pricing_plan_id":"cebpf4jnsgd1na2vs0mg"},{"bike_id":"6ce6bc7e-4959-45b9-bda0-88b32a35e3f9","system_id":"levelo_inurba_marseille","lat":43.25859,"lon":5.39913,"is_reserved":false,"is_disabled":false,"rental_uris":{"android":"levelo://app?vid=6ce6bc7e-4959-45b9-bda0-88b32a35e3f9","ios":"levelo://app?vid=6ce6bc7e-4959-45b9-bda0-88b32a35e3f9"},"vehicle_type_id":"4","last_reported":1773400914,"current_range_meters":22000,"station_id":"ce4bhl92rcd13ifvqghg","pricing_plan_id":"cebpf4jnsgd1na2vs0mg"},{"bike_id":"0e81feb6-9532-4ed6-99e4-9e1b06422676","system_id":"levelo_inurba_marseille","lat":43.30535,"lon":5.36695,"is_reserved":false,"is_disabled":false,"rental_uris":{"android":"levelo://app?vid=0e81feb6-9532-4ed6-99e4-9e1b06422676","ios":"levelo://app?vid=0e81feb6-9532-4ed6-99e4-9e1b06422676"},"vehicle_type_id":"4","last_reported":1773400914,"current_range_meters":32800,"station_id":"ce4bgrp2rcd13ifvqc9g","pricing_plan_id":"cebpf4jnsgd1na2vs0mg"},{"bike_id":"3a4ac662-ce3c-41aa-9a77-27b82ac360d5","system_id":"levelo_inurba_marseille","lat":43.31237,"lon":5.36838,"is_reserved":false,"is_disabled":false,"rental_uris":{"android":"levelo://app?vid=3a4ac662-ce3c-41aa-9a77-27b82ac360d5","ios":"levelo://app?vid=3a4ac662-ce3c-41aa-9a77-27b82ac360d5"},"vehicle_type_id":"4","last_reported":1773400914,"current_range_meters":30400,"station_id":"ce4bgl92rcd13ifvqbq0","pricing_plan_id":"cebpf4jnsgd1na2vs0mg"},{"bike_id":"edba2805-93b3-4349-8087-e8db6903d3e1","system_id":"levelo_inurba_marseille","lat":43.24823,"lon":5.37423,"is_reserved":false,"is_disabled":false,"rental_uris":{"android":"levelo://app?vid=edba2805-93b3-4349-8087-e8db6903d3e1","ios":"levelo://app?vid=edba2805-93b3-4349-8087-e8db6903d3e1"},"vehicle_type_id":"4","last_reported":1773400914,"current_range_meters":7200,"station_id":"ce4bhgh2rcd13ifvqfb0","pricing_plan_id":"cebpf4jnsgd1na2vs0mg"},{"bike_id":"6bda1185-2025-4ec3-898c-5a3f89a270a7","system_id":"levelo_inurba_marseille","lat":43.29849,"lon":5.36284,"is_reserved":false,"is_disabled":false,"rental_uris":{"android":"levelo://app?vid=6bda1185-2025-4ec3-898c-5a3f89a270a7","ios":"levelo://app?vid=6bda1185-2025-4ec3-898c-5a3f89a270a7"},"vehicle_type_id":"4","last_reported":1773400914,"current_range_meters":33200,"station_id":"ce4bgpp2rcd13ifvqc3g","pricing_plan_id":"cebpf4jnsgd1na2vs0mg"},{"bike_id":"e577adda-cdb0-416e-aca2-d615afe41105","system_id":"levelo_inurba_marseille","lat":43.29786,"lon":5.38107,"is_reserved":false,"is_disabled":false,"rental_uris":{"android":"levelo://app?vid=e577adda-cdb0-416e-aca2-d615afe41105","ios":"levelo://app?vid=e577adda-cdb0-416e-aca2-d615afe41105"},"vehicle_type_id":"4","last_reported":1773400914,"current_range_meters":39200,"station_id":"ce4bgip2rcd13ifvqbb0","pricing_plan_id":"cebpf4jnsgd1na2vs0mg"},{"bike_id":"480a954f-db3c-4cd5-acb5-179ba9006c67","system_id":"levelo_inurba_marseille","lat":43.28542,"lon":5.44132,"is_reserved":false,"is_disabled":false,"rental_uris":{"android":"levelo://app?vid=480a954f-db3c-4cd5-acb5-179ba9006c67","ios":"levelo://app?vid=480a954f-db3c-4cd5-acb5-179ba9006c67"},"vehicle_type_id":"4","last_reported":1773400914,"current_range_meters":32400,"station_id":"st_d3j3df2ikq2c7380ej80","pricing_plan_id":"cebpf4jnsgd1na2vs0mg"},{"bike_id":"196cd20c-58cf-4336-8acd-ad13b5d67dbc","system_id":"levelo_inurba_marseille","lat":43.24161,"lon":5.36388,"is_reserved":false,"is_disabled":false,"rental_uris":{"android":"levelo://app?vid=196cd20c-58cf-4336-8acd-ad13b5d67dbc","ios":"levelo://app?vid=196cd20c-58cf-4336-8acd-ad13b5d67dbc"},"vehicle_type_id":"4","last_reported":1773400914,"current_range_meters":27200,"station_id":"cpo36qri1sfpv3e86is0","pricing_plan_id":"cebpf4jnsgd1na2vs0mg"},{"bike_id":"1cf06faf-0211-4a86-bffe-8e533567710b","system_id":"levelo_inurba_marseille","lat":43.24948,"lon":5.40508,"is_reserved":false,"is_disabled":true,"rental_uris":{"android":"levelo://app?vid=1cf06faf-0211-4a86-bffe-8e533567710b","ios":"levelo://app?vid=1cf06faf-0211-4a86-bffe-8e533567710b"},"vehicle_type_id":"4","last_reported":1773400914,"current_range_meters":20800,"station_id":"st_d2ngiaodas8pm72gd1h0","pricing_plan_id":"cebpf4jnsgd1na2vs0mg"},{"bike_id":"95233d2e-e51c-4cd9-903b-26608d1b63d3","system_id":"levelo_inurba_marseille","lat":43.29867,"lon":5.39732,"is_reserved":false,"is_disabled":false,"rental_uris":{"android":"levelo://app?vid=95233d2e-e51c-4cd9-903b-26608d1b63d3","ios":"levelo://app?vid=95233d2e-e51c-4cd9-903b-26608d1b63d3"},"vehicle_type_id":"4","last_reported":1773400914,"current_range_meters":10800,"station_id":"ce4bh0h2rcd13ifvqd50","pricing_plan_id":"cebpf4jnsgd1na2vs0mg"},{"bike_id":"25ccd1f4-28a1-4381-943b-f59e0018edf1","system_id":"levelo_inurba_marseille","lat":43.26785,"lon":5.39411,"is_reserved":false,"is_disabled":false,"rental_uris":{"android":"levelo://app?vid=25ccd1f4-28a1-4381-943b-f59e0018edf1","ios":"levelo://app?vid=25ccd1f4-28a1-4381-943b-f59e0018edf1"},"vehicle_type_id":"4","last_reported":1773400914,"current_range_meters":30000,"station_id":"ce4bhh12rcd13ifvqfg0","pricing_plan_id":"cebpf4jnsgd1na2vs0mg"},{"bike_id":"0250d5d1-3619-42b3-955a-0a937e09165f","system_id":"levelo_inurba_marseille","lat":43.23056,"lon":5.35503,"is_reserved":false,"is_disabled":false,"rental_uris":{"android":"levelo://app?vid=0250d5d1-3619-42b3-955a-0a937e09165f","ios":"levelo://app?vid=0250d5d1-3619-42b3-955a-0a937e09165f"},"vehicle_type_id":"4","last_reported":1773400914,"current_range_meters":36000,"station_id":"cpo3342slgdg3j2ifvpg","pricing_plan_id":"cebpf4jnsgd1na2vs0mg"},{"bike_id":"1b8416df-3f6d-4c68-ac11-112b698b39c2","system_id":"levelo_inurba_marseille","lat":43.25881,"lon":5.39891,"is_reserved":false,"is_disabled":false,"rental_uris":{"android":"levelo://app?vid=1b8416df-3f6d-4c68-ac11-112b698b39c2","ios":"levelo://app?vid=1b8416df-3f6d-4c68-ac11-112b698b39c2"},"vehicle_type_id":"4","last_reported":1773400914,"current_range_meters":40000,"station_id":"ce4bhl92rcd13ifvqghg","pricing_plan_id":"cebpf4jnsgd1na2vs0mg"},{"bike_id":"b18c21a3-b898-415d-94b6-52acf60ebc54","system_id":"levelo_inurba_marseille","lat":43.26946,"lon":5.40262,"is_reserved":false,"is_disabled":false,"rental_uris":{"android":"levelo://app?vid=b18c21a3-b898-415d-94b6-52acf60ebc54","ios":"levelo://app?vid=b18c21a3-b898-415d-94b6-52acf60ebc54"},"vehicle_type_id":"4","last_reported":1773400914,"current_range_meters":39200,"station_id":"cjm6bp8fraef2m0cb0m0","pricing_plan_id":"cebpf4jnsgd1na2vs0mg"},{"bike_id":"0f3b3aa8-6f96-44fb-8620-3db50c6d6ad8","system_id":"levelo_inurba_marseille","lat":43.29708,"lon":5.36606,"is_reserved":false,"is_disabled":false,"rental_uris":{"android":"levelo://app?vid=0f3b3aa8-6f96-44fb-8620-3db50c6d6ad8","ios":"levelo://app?vid=0f3b3aa8-6f96-44fb-8620-3db50c6d6ad8"},"vehicle_type_id":"4","last_reported":1773400914,"current_range_meters":39200,"station_id":"ce4bgn12rcd13ifvqbt0","pricing_plan_id":"cebpf4jnsgd1na2vs0mg"},{"bike_id":"2d90a59f-b703-41f6-ab9e-396374884dbc","system_id":"levelo_inurba_marseille","lat":43.31381,"lon":5.36704,"is_reserved":false,"is_disabled":false,"rental_uris":{"android":"levelo://app?vid=2d90a59f-b703-41f6-ab9e-396374884dbc","ios":"levelo://app?vid=2d90a59f-b703-41f6-ab9e-396374884dbc"},"vehicle_type_id":"4","last_reported":1773400914,"current_range_meters":28400,"station_id":"ce4bgr92rcd13ifvqc6g","pricing_plan_id":"cebpf4jnsgd1na2vs0mg"},{"bike_id":"886bcfc7-63ee-4067-a44e-c7f27783757e","system_id":"levelo_inurba_marseille","lat":43.30898,"lon":5.38269,"is_reserved":false,"is_disabled":false,"rental_uris":{"android":"levelo://app?vid=886bcfc7-63ee-4067-a44e-c7f27783757e","ios":"levelo://app?vid=886bcfc7-63ee-4067-a44e-c7f27783757e"},"vehicle_type_id":"4","last_reported":1773400914,"current_range_meters":10800,"station_id":"","pricing_plan_id":"cebpf4jnsgd1na2vs0mg"},{"bike_id":"68e3ada1-9432-4c58-b591-0f8812633e60","system_id":"levelo_inurba_marseille","lat":43.29295,"lon":5.37168,"is_reserved":false,"is_disabled":true,"rental_uris":{"android":"levelo://app?vid=68e3ada1-9432-4c58-b591-0f8812633e60","ios":"levelo://app?vid=68e3ada1-9432-4c58-b591-0f8812633e60"},"vehicle_type_id":"4","last_reported":1773400914,"current_range_meters":0,"station_id":"ce4bgh92rcd13ifvqb40","pricing_plan_id":"cebpf4jnsgd1na2vs0mg"},{"bike_id":"ba8d9ef5-6fd3-48fa-8d92-09e9ea63831d","system_id":"levelo_inurba_marseille","lat":43.29953,"lon":5.4132,"is_reserved":false,"is_disabled":false,"rental_uris":{"android":"levelo://app?vid=ba8d9ef5-6fd3-48fa-8d92-09e9ea63831d","ios":"levelo://app?vid=ba8d9ef5-6fd3-48fa-8d92-09e9ea63831d"},"vehicle_type_id":"4","last_reported":1773400914,"current_range_meters":39200,"station_id":"ce4bhp12rcd13ifvqh9g","pricing_plan_id":"cebpf4jnsgd1na2vs0mg"},{"bike_id":"45270c3b-5541-43f4-aedd-1dc3baf09aab","system_id":"levelo_inurba_marseille","lat":43.26808,"lon":5.40255,"is_reserved":false,"is_disabled":false,"rental_uris":{"android":"levelo://app?vid=45270c3b-5541-43f4-aedd-1dc3baf09aab","ios":"levelo://app?vid=45270c3b-5541-43f4-aedd-1dc3baf09aab"},"vehicle_type_id":"4","last_reported":1773400914,"current_range_meters":39200,"station_id":"ce501612rcd8frsf0b60","pricing_plan_id":"cebpf4jnsgd1na2vs0mg"},{"bike_id":"5c8b00a4-5fa9-40c2-8a77-4e3272f85452","system_id":"levelo_inurba_marseille","lat":43.30145,"lon":5.37417,"is_reserved":false,"is_disabled":false,"rental_uris":{"android":"levelo://app?vid=5c8b00a4-5fa9-40c2-8a77-4e3272f85452","ios":"levelo://app?vid=5c8b00a4-5fa9-40c2-8a77-4e3272f85452"},"vehicle_type_id":"4","last_reported":1773400914,"current_range_meters":20800,"station_id":"ce4bgs92rcd13ifvqcc0","pricing_plan_id":"cebpf4jnsgd1na2vs0mg"},{"bike_id":"2dd51874-11a3-43a9-8809-5310bb1e8ead","system_id":"levelo_inurba_marseille","lat":43.24403,"lon":5.37052,"is_reserved":false,"is_disabled":false,"rental_uris":{"android":"levelo://app?vid=2dd51874-11a3-43a9-8809-5310bb1e8ead","ios":"levelo://app?vid=2dd51874-11a3-43a9-8809-5310bb1e8ead"},"vehicle_type_id":"4","last_reported":1773400914,"current_range_meters":39200,"station_id":"ce4bhhh2rcd13ifvqfk0","pricing_plan_id":"cebpf4jnsgd1na2vs0mg"},{"bike_id":"bd62e445-95dc-43ce-b4d8-48e3cdcba7ac","system_id":"levelo_inurba_marseille","lat":43.29205,"lon":5.35785,"is_reserved":false,"is_disabled":false,"rental_uris":{"android":"levelo://app?vid=bd62e445-95dc-43ce-b4d8-48e3cdcba7ac","ios":"levelo://app?vid=bd62e445-95dc-43ce-b4d8-48e3cdcba7ac"},"vehicle_type_id":"4","last_reported":1773400914,"current_range_meters":22000,"station_id":"ce4bhb12rcd13ifvqel0","pricing_plan_id":"cebpf4jnsgd1na2vs0mg"},{"bike_id":"10378ec6-c1b0-4612-8463-4f5896302b67","system_id":"levelo_inurba_marseille","lat":43.26558,"lon":5.37286,"is_reserved":false,"is_disabled":true,"rental_uris":{"android":"levelo://app?vid=10378ec6-c1b0-4612-8463-4f5896302b67","ios":"levelo://app?vid=10378ec6-c1b0-4612-8463-4f5896302b67"},"vehicle_type_id":"4","last_reported":1773400914,"current_range_meters":400,"station_id":"ce4bhg12rcd13ifvqf70","pricing_plan_id":"cebpf4jnsgd1na2vs0mg"},{"bike_id":"107eaf49-0b8c-4b97-b025-129dee039626","system_id":"levelo_inurba_marseille","lat":43.29253,"lon":5.37619,"is_reserved":false,"is_disabled":false,"rental_uris":{"android":"levelo://app?vid=107eaf49-0b8c-4b97-b025-129dee039626","ios":"levelo://app?vid=107eaf49-0b8c-4b97-b025-129dee039626"},"vehicle_type_id":"4","last_reported":1773400914,"current_range_meters":40000,"station_id":"ce4bgi12rcd13ifvqb80","pricing_plan_id":"cebpf4jnsgd1na2vs0mg"},{"bike_id":"97ecf467-9bc2-4716-8380-618c7c7ef61e","system_id":"levelo_inurba_marseille","lat":43.31591,"lon":5.37365,"is_reserved":false,"is_disabled":false,"rental_uris":{"android":"levelo://app?vid=97ecf467-9bc2-4716-8380-618c7c7ef61e","ios":"levelo://app?vid=97ecf467-9bc2-4716-8380-618c7c7ef61e"},"vehicle_type_id":"4","last_reported":1773400914,"current_range_meters":6000,"station_id":"","pricing_plan_id":"cebpf4jnsgd1na2vs0mg"},{"bike_id":"aed41f63-b638-409e-b99f-5db7af0576eb","system_id":"levelo_inurba_marseille","lat":43.30471,"lon":5.37911,"is_reserved":false,"is_disabled":false,"rental_uris":{"android":"levelo://app?vid=aed41f63-b638-409e-b99f-5db7af0576eb","ios":"levelo://app?vid=aed41f63-b638-409e-b99f-5db7af0576eb"},"vehicle_type_id":"4","last_reported":1773400914,"current_range_meters":34000,"station_id":"ce4bgup2rcd13ifvqcn0","pricing_plan_id":"cebpf4jnsgd1na2vs0mg"},{"bike_id":"79483cf5-647d-48ac-aac7-04b4eee60681","system_id":"levelo_inurba_marseille","lat":43.337444,"lon":5.374475,"is_reserved":false,"is_disabled":true,"rental_uris":{"android":"levelo://app?vid=79483cf5-647d-48ac-aac7-04b4eee60681","ios":"levelo://app?vid=79483cf5-647d-48ac-aac7-04b4eee60681"},"vehicle_type_id":"4","last_reported":1773400914,"current_range_meters":34800,"station_id":"","pricing_plan_id":"cebpf4jnsgd1na2vs0mg"},{"bike_id":"cedeb143-8ef5-4332-864c-2ee01e08ac10","system_id":"levelo_inurba_marseille","lat":43.29592,"lon":5.36727,"is_reserved":false,"is_disabled":false,"rental_uris":{"android":"levelo://app?vid=cedeb143-8ef5-4332-864c-2ee01e08ac10","ios":"levelo://app?vid=cedeb143-8ef5-4332-864c-2ee01e08ac10"},"vehicle_type_id":"4","last_reported":1773400914,"current_range_meters":27200,"station_id":"ce4bgph2rcd13ifvqc2g","pricing_plan_id":"cebpf4jnsgd1na2vs0mg"},{"bike_id":"f2223d48-976e-4a05-b385-8f32a53fe8f3","system_id":"levelo_inurba_marseille","lat":43.30471,"lon":5.37909,"is_reserved":false,"is_disabled":false,"rental_uris":{"android":"levelo://app?vid=f2223d48-976e-4a05-b385-8f32a53fe8f3","ios":"levelo://app?vid=f2223d48-976e-4a05-b385-8f32a53fe8f3"},"vehicle_type_id":"4","last_reported":1773400914,"current_range_meters":12800,"station_id":"ce4bgup2rcd13ifvqcn0","pricing_plan_id":"cebpf4jnsgd1na2vs0mg"},{"bike_id":"1456d7b8-e2f9-4205-9584-20f6abe58a4d","system_id":"levelo_inurba_marseille","lat":43.30068,"lon":5.4372,"is_reserved":false,"is_disabled":false,"rental_uris":{"android":"levelo://app?vid=1456d7b8-e2f9-4205-9584-20f6abe58a4d","ios":"levelo://app?vid=1456d7b8-e2f9-4205-9584-20f6abe58a4d"},"vehicle_type_id":"4","last_reported":1773400914,"current_range_meters":38800,"station_id":"","pricing_plan_id":"cebpf4jnsgd1na2vs0mg"},{"bike_id":"b01ee254-6954-43ca-b7f9-b851382930a8","system_id":"levelo_inurba_marseille","lat":43.27612,"lon":5.3612,"is_reserved":false,"is_disabled":false,"rental_uris":{"android":"levelo://app?vid=b01ee254-6954-43ca-b7f9-b851382930a8","ios":"levelo://app?vid=b01ee254-6954-43ca-b7f9-b851382930a8"},"vehicle_type_id":"4","last_reported":1773400914,"current_range_meters":36400,"station_id":"ce4bgj92rcd13ifvqbe0","pricing_plan_id":"cebpf4jnsgd1na2vs0mg"},{"bike_id":"a29ef319-c201-4a0d-88b8-75666b991d70","system_id":"levelo_inurba_marseille","lat":43.30207,"lon":5.39438,"is_reserved":false,"is_disabled":false,"rental_uris":{"android":"levelo://app?vid=a29ef319-c201-4a0d-88b8-75666b991d70","ios":"levelo://app?vid=a29ef319-c201-4a0d-88b8-75666b991d70"},"vehicle_type_id":"4","last_reported":1773400914,"current_range_meters":15200,"station_id":"ce4bh0p2rcd13ifvqd70","pricing_plan_id":"cebpf4jnsgd1na2vs0mg"},{"bike_id":"b3eb5008-db77-4fa1-ad7e-4f507dde5179","system_id":"levelo_inurba_marseille","lat":43.30246,"lon":5.37037,"is_reserved":false,"is_disabled":false,"rental_uris":{"android":"levelo://app?vid=b3eb5008-db77-4fa1-ad7e-4f507dde5179","ios":"levelo://app?vid=b3eb5008-db77-4fa1-ad7e-4f507dde5179"},"vehicle_type_id":"4","last_reported":1773400914,"current_range_meters":30000,"station_id":"","pricing_plan_id":"cebpf4jnsgd1na2vs0mg"},{"bike_id":"1e135ecf-364b-4d09-9dfa-e69bdbd67cbb","system_id":"levelo_inurba_marseille","lat":43.24462,"lon":5.4253,"is_reserved":false,"is_disabled":false,"rental_uris":{"android":"levelo://app?vid=1e135ecf-364b-4d09-9dfa-e69bdbd67cbb","ios":"levelo://app?vid=1e135ecf-364b-4d09-9dfa-e69bdbd67cbb"},"vehicle_type_id":"4","last_reported":1773400914,"current_range_meters":7200,"station_id":"st_d4a3vfp97mjs738cd8kg","pricing_plan_id":"cebpf4jnsgd1na2vs0mg"},{"bike_id":"8c4b960d-5954-4172-b115-4532186a219f","system_id":"levelo_inurba_marseille","lat":43.32123,"lon":5.36766,"is_reserved":false,"is_disabled":false,"rental_uris":{"android":"levelo://app?vid=8c4b960d-5954-4172-b115-4532186a219f","ios":"levelo://app?vid=8c4b960d-5954-4172-b115-4532186a219f"},"vehicle_type_id":"4","last_reported":1773400914,"current_range_meters":11600,"station_id":"ce4bhrh2rcd13ifvqhug","pricing_plan_id":"cebpf4jnsgd1na2vs0mg"},{"bike_id":"012bb7fa-e4d0-4138-9c92-350c5c6b2640","system_id":"levelo_inurba_marseille","lat":43.28538,"lon":5.44103,"is_reserved":false,"is_disabled":false,"rental_uris":{"android":"levelo://app?vid=012bb7fa-e4d0-4138-9c92-350c5c6b2640","ios":"levelo://app?vid=012bb7fa-e4d0-4138-9c92-350c5c6b2640"},"vehicle_type_id":"4","last_reported":1773400914,"current_range_meters":30400,"station_id":"st_d3j3df2ikq2c7380ej80","pricing_plan_id":"cebpf4jnsgd1na2vs0mg"},{"bike_id":"92e7fa8e-0d87-4739-8288-c38276f4caaa","system_id":"levelo_inurba_marseille","lat":43.29285,"lon":5.37441,"is_reserved":false,"is_disabled":false,"rental_uris":{"android":"levelo://app?vid=92e7fa8e-0d87-4739-8288-c38276f4caaa","ios":"levelo://app?vid=92e7fa8e-0d87-4739-8288-c38276f4caaa"},"vehicle_type_id":"4","last_reported":1773400914,"current_range_meters":30800,"station_id":"ce4bgi12rcd13ifvqb70","pricing_plan_id":"cebpf4jnsgd1na2vs0mg"},{"bike_id":"959cb468-adf5-492c-a8a7-a3170c99be64","system_id":"levelo_inurba_marseille","lat":43.27053,"lon":5.38297,"is_reserved":false,"is_disabled":false,"rental_uris":{"android":"levelo://app?vid=959cb468-adf5-492c-a8a7-a3170c99be64","ios":"levelo://app?vid=959cb468-adf5-492c-a8a7-a3170c99be64"},"vehicle_type_id":"4","last_reported":1773400914,"current_range_meters":14400,"station_id":"st_d3n2fo6cfp8s73cte1j0","pricing_plan_id":"cebpf4jnsgd1na2vs0mg"},{"bike_id":"2de6172c-18d4-4217-9296-2466a94dce83","system_id":"levelo_inurba_marseille","lat":43.29198,"lon":5.35806,"is_reserved":false,"is_disabled":false,"rental_uris":{"android":"levelo://app?vid=2de6172c-18d4-4217-9296-2466a94dce83","ios":"levelo://app?vid=2de6172c-18d4-4217-9296-2466a94dce83"},"vehicle_type_id":"4","last_reported":1773400914,"current_range_meters":24000,"station_id":"ce4bhb12rcd13ifvqel0","pricing_plan_id":"cebpf4jnsgd1na2vs0mg"},{"bike_id":"f32212cf-6d01-43e1-9d28-c332d31396c9","system_id":"levelo_inurba_marseille","lat":43.24672,"lon":5.43349,"is_reserved":false,"is_disabled":false,"rental_uris":{"android":"levelo://app?vid=f32212cf-6d01-43e1-9d28-c332d31396c9","ios":"levelo://app?vid=f32212cf-6d01-43e1-9d28-c332d31396c9"},"vehicle_type_id":"4","last_reported":1773400914,"current_range_meters":22800,"station_id":"","pricing_plan_id":"cebpf4jnsgd1na2vs0mg"},{"bike_id":"f71b9c53-97dd-413f-a488-f091190a75c0","system_id":"levelo_inurba_marseille","lat":43.21194,"lon":5.350722,"is_reserved":false,"is_disabled":true,"rental_uris":{"android":"levelo://app?vid=f71b9c53-97dd-413f-a488-f091190a75c0","ios":"levelo://app?vid=f71b9c53-97dd-413f-a488-f091190a75c0"},"vehicle_type_id":"4","last_reported":1773400914,"current_range_meters":1600,"station_id":"st_cvj6sg6p6f1abm77japg","pricing_plan_id":"cebpf4jnsgd1na2vs0mg"},{"bike_id":"6acc6294-778e-4389-ae09-ea37b9c06714","system_id":"levelo_inurba_marseille","lat":43.29727,"lon":5.41059,"is_reserved":false,"is_disabled":false,"rental_uris":{"android":"levelo://app?vid=6acc6294-778e-4389-ae09-ea37b9c06714","ios":"levelo://app?vid=6acc6294-778e-4389-ae09-ea37b9c06714"},"vehicle_type_id":"4","last_reported":1773400914,"current_range_meters":20000,"station_id":"","pricing_plan_id":"cebpf4jnsgd1na2vs0mg"},{"bike_id":"7b8fe4cb-4fd3-4a81-a3e2-4e05b02ff564","system_id":"levelo_inurba_marseille","lat":43.29028,"lon":5.39957,"is_reserved":false,"is_disabled":false,"rental_uris":{"android":"levelo://app?vid=7b8fe4cb-4fd3-4a81-a3e2-4e05b02ff564","ios":"levelo://app?vid=7b8fe4cb-4fd3-4a81-a3e2-4e05b02ff564"},"vehicle_type_id":"4","last_reported":1773400914,"current_range_meters":30000,"station_id":"ce4bh392rcd13ifvqdm0","pricing_plan_id":"cebpf4jnsgd1na2vs0mg"},{"bike_id":"968e0752-94e3-4427-8693-dccfb2dc93c6","system_id":"levelo_inurba_marseille","lat":43.32339,"lon":5.38841,"is_reserved":false,"is_disabled":false,"rental_uris":{"android":"levelo://app?vid=968e0752-94e3-4427-8693-dccfb2dc93c6","ios":"levelo://app?vid=968e0752-94e3-4427-8693-dccfb2dc93c6"},"vehicle_type_id":"4","last_reported":1773400914,"current_range_meters":39200,"station_id":"ce4bhqp2rcd13ifvqhog","pricing_plan_id":"cebpf4jnsgd1na2vs0mg"},{"bike_id":"51f828e2-11c4-49f0-bea7-708c81d716b5","system_id":"levelo_inurba_marseille","lat":43.27396,"lon":5.4248,"is_reserved":false,"is_disabled":false,"rental_uris":{"android":"levelo://app?vid=51f828e2-11c4-49f0-bea7-708c81d716b5","ios":"levelo://app?vid=51f828e2-11c4-49f0-bea7-708c81d716b5"},"vehicle_type_id":"4","last_reported":1773400914,"current_range_meters":14800,"station_id":"","pricing_plan_id":"cebpf4jnsgd1na2vs0mg"},{"bike_id":"f9347597-5862-4691-9f11-64caea787242","system_id":"levelo_inurba_marseille","lat":43.25926,"lon":5.40881,"is_reserved":false,"is_disabled":false,"rental_uris":{"android":"levelo://app?vid=f9347597-5862-4691-9f11-64caea787242","ios":"levelo://app?vid=f9347597-5862-4691-9f11-64caea787242"},"vehicle_type_id":"4","last_reported":1773400914,"current_range_meters":17600,"station_id":"ce4bhm92rcd13ifvqglg","pricing_plan_id":"cebpf4jnsgd1na2vs0mg"},{"bike_id":"40cdf2e8-76b5-43fa-bd2e-1a8eb6026b51","system_id":"levelo_inurba_marseille","lat":43.28979,"lon":5.42582,"is_reserved":false,"is_disabled":false,"rental_uris":{"android":"levelo://app?vid=40cdf2e8-76b5-43fa-bd2e-1a8eb6026b51","ios":"levelo://app?vid=40cdf2e8-76b5-43fa-bd2e-1a8eb6026b51"},"vehicle_type_id":"4","last_reported":1773400914,"current_range_meters":26800,"station_id":"","pricing_plan_id":"cebpf4jnsgd1na2vs0mg"},{"bike_id":"c705bf6d-6b2d-4dfc-b2dc-335dd671ec66","system_id":"levelo_inurba_marseille","lat":43.29275,"lon":5.36837,"is_reserved":false,"is_disabled":false,"rental_uris":{"android":"levelo://app?vid=c705bf6d-6b2d-4dfc-b2dc-335dd671ec66","ios":"levelo://app?vid=c705bf6d-6b2d-4dfc-b2dc-335dd671ec66"},"vehicle_type_id":"4","last_reported":1773400914,"current_range_meters":38800,"station_id":"ce4bhbp2rcd13ifvqesg","pricing_plan_id":"cebpf4jnsgd1na2vs0mg"},{"bike_id":"c334c42b-6558-40ea-9aa2-a6d0ce2e63e9","system_id":"levelo_inurba_marseille","lat":43.32496,"lon":5.36586,"is_reserved":false,"is_disabled":false,"rental_uris":{"android":"levelo://app?vid=c334c42b-6558-40ea-9aa2-a6d0ce2e63e9","ios":"levelo://app?vid=c334c42b-6558-40ea-9aa2-a6d0ce2e63e9"},"vehicle_type_id":"4","last_reported":1773400914,"current_range_meters":32400,"station_id":"ce4bhs12rcd13ifvqhvg","pricing_plan_id":"cebpf4jnsgd1na2vs0mg"},{"bike_id":"de0a6a3b-52e8-4ae5-b2ae-a0757d56737c","system_id":"levelo_inurba_marseille","lat":43.2835,"lon":5.38095,"is_reserved":false,"is_disabled":false,"rental_uris":{"android":"levelo://app?vid=de0a6a3b-52e8-4ae5-b2ae-a0757d56737c","ios":"levelo://app?vid=de0a6a3b-52e8-4ae5-b2ae-a0757d56737c"},"vehicle_type_id":"4","last_reported":1773400914,"current_range_meters":17200,"station_id":"ce4bh412rcd13ifvqdr0","pricing_plan_id":"cebpf4jnsgd1na2vs0mg"},{"bike_id":"72e16886-e6be-40d7-9db6-717ac812c857","system_id":"levelo_inurba_marseille","lat":43.30183,"lon":5.40058,"is_reserved":false,"is_disabled":true,"rental_uris":{"android":"levelo://app?vid=72e16886-e6be-40d7-9db6-717ac812c857","ios":"levelo://app?vid=72e16886-e6be-40d7-9db6-717ac812c857"},"vehicle_type_id":"4","last_reported":1773400914,"current_range_meters":18800,"station_id":"","pricing_plan_id":"cebpf4jnsgd1na2vs0mg"},{"bike_id":"2d175e7b-a19c-4126-a7aa-f1cff5b6aef9","system_id":"levelo_inurba_marseille","lat":43.29036,"lon":5.39945,"is_reserved":false,"is_disabled":false,"rental_uris":{"android":"levelo://app?vid=2d175e7b-a19c-4126-a7aa-f1cff5b6aef9","ios":"levelo://app?vid=2d175e7b-a19c-4126-a7aa-f1cff5b6aef9"},"vehicle_type_id":"4","last_reported":1773400914,"current_range_meters":7200,"station_id":"ce4bh392rcd13ifvqdm0","pricing_plan_id":"cebpf4jnsgd1na2vs0mg"},{"bike_id":"82a787a8-c1c6-476e-85d3-714aa3249937","system_id":"levelo_inurba_marseille","lat":43.28375,"lon":5.38625,"is_reserved":false,"is_disabled":false,"rental_uris":{"android":"levelo://app?vid=82a787a8-c1c6-476e-85d3-714aa3249937","ios":"levelo://app?vid=82a787a8-c1c6-476e-85d3-714aa3249937"},"vehicle_type_id":"4","last_reported":1773400914,"current_range_meters":36800,"station_id":"ce4bh492rcd13ifvqdvg","pricing_plan_id":"cebpf4jnsgd1na2vs0mg"},{"bike_id":"a310bf7c-b846-4f73-8825-c0041ee29512","system_id":"levelo_inurba_marseille","lat":43.27984,"lon":5.4166,"is_reserved":false,"is_disabled":false,"rental_uris":{"android":"levelo://app?vid=a310bf7c-b846-4f73-8825-c0041ee29512","ios":"levelo://app?vid=a310bf7c-b846-4f73-8825-c0041ee29512"},"vehicle_type_id":"4","last_reported":1773400914,"current_range_meters":10000,"station_id":"ce4bho12rcd13ifvqh1g","pricing_plan_id":"cebpf4jnsgd1na2vs0mg"},{"bike_id":"ea60c6e4-4382-4e15-84df-d8ab5b4c7ad6","system_id":"levelo_inurba_marseille","lat":43.28034,"lon":5.3694,"is_reserved":false,"is_disabled":false,"rental_uris":{"android":"levelo://app?vid=ea60c6e4-4382-4e15-84df-d8ab5b4c7ad6","ios":"levelo://app?vid=ea60c6e4-4382-4e15-84df-d8ab5b4c7ad6"},"vehicle_type_id":"4","last_reported":1773400914,"current_range_meters":32000,"station_id":"ce4bha12rcd13ifvqef0","pricing_plan_id":"cebpf4jnsgd1na2vs0mg"},{"bike_id":"049d0339-5799-4ade-8ff8-59295e8c39c6","system_id":"levelo_inurba_marseille","lat":43.32483,"lon":5.36548,"is_reserved":false,"is_disabled":false,"rental_uris":{"android":"levelo://app?vid=049d0339-5799-4ade-8ff8-59295e8c39c6","ios":"levelo://app?vid=049d0339-5799-4ade-8ff8-59295e8c39c6"},"vehicle_type_id":"4","last_reported":1773400914,"current_range_meters":38400,"station_id":"ce4bhs12rcd13ifvqhvg","pricing_plan_id":"cebpf4jnsgd1na2vs0mg"},{"bike_id":"1b76ca95-f18f-46ad-b5e2-115c03b09dc0","system_id":"levelo_inurba_marseille","lat":43.29764,"lon":5.42784,"is_reserved":false,"is_disabled":false,"rental_uris":{"android":"levelo://app?vid=1b76ca95-f18f-46ad-b5e2-115c03b09dc0","ios":"levelo://app?vid=1b76ca95-f18f-46ad-b5e2-115c03b09dc0"},"vehicle_type_id":"4","last_reported":1773400914,"current_range_meters":25600,"station_id":"st_d3md5207bmas73dh9klg","pricing_plan_id":"cebpf4jnsgd1na2vs0mg"},{"bike_id":"aa1ea814-effc-4a82-a7ce-fc6b0be25510","system_id":"levelo_inurba_marseille","lat":43.33502,"lon":5.36116,"is_reserved":false,"is_disabled":false,"rental_uris":{"android":"levelo://app?vid=aa1ea814-effc-4a82-a7ce-fc6b0be25510","ios":"levelo://app?vid=aa1ea814-effc-4a82-a7ce-fc6b0be25510"},"vehicle_type_id":"4","last_reported":1773400914,"current_range_meters":38800,"station_id":"","pricing_plan_id":"cebpf4jnsgd1na2vs0mg"},{"bike_id":"a05de7dc-4c09-425d-bdb7-b5d77b24aee2","system_id":"levelo_inurba_marseille","lat":43.29618,"lon":5.3716,"is_reserved":false,"is_disabled":false,"rental_uris":{"android":"levelo://app?vid=a05de7dc-4c09-425d-bdb7-b5d77b24aee2","ios":"levelo://app?vid=a05de7dc-4c09-425d-bdb7-b5d77b24aee2"},"vehicle_type_id":"4","last_reported":1773400914,"current_range_meters":34800,"station_id":"ce4bgnh2rcd13ifvqc0g","pricing_plan_id":"cebpf4jnsgd1na2vs0mg"},{"bike_id":"f935e136-5d1c-4977-b6fb-865e760ce259","system_id":"levelo_inurba_marseille","lat":43.30139,"lon":5.38067,"is_reserved":false,"is_disabled":false,"rental_uris":{"android":"levelo://app?vid=f935e136-5d1c-4977-b6fb-865e760ce259","ios":"levelo://app?vid=f935e136-5d1c-4977-b6fb-865e760ce259"},"vehicle_type_id":"4","last_reported":1773400914,"current_range_meters":20000,"station_id":"ce4bgjp2rcd13ifvqbh0","pricing_plan_id":"cebpf4jnsgd1na2vs0mg"},{"bike_id":"c9e5375c-ed69-4090-8e87-9cbfcd20bc36","system_id":"levelo_inurba_marseille","lat":43.27213,"lon":5.39179,"is_reserved":false,"is_disabled":false,"rental_uris":{"android":"levelo://app?vid=c9e5375c-ed69-4090-8e87-9cbfcd20bc36","ios":"levelo://app?vid=c9e5375c-ed69-4090-8e87-9cbfcd20bc36"},"vehicle_type_id":"4","last_reported":1773400914,"current_range_meters":39200,"station_id":"ce4bhhp2rcd13ifvqfm0","pricing_plan_id":"cebpf4jnsgd1na2vs0mg"},{"bike_id":"f75301e2-3e33-484d-ba72-8de128d9af03","system_id":"levelo_inurba_marseille","lat":43.26565,"lon":5.37274,"is_reserved":false,"is_disabled":false,"rental_uris":{"android":"levelo://app?vid=f75301e2-3e33-484d-ba72-8de128d9af03","ios":"levelo://app?vid=f75301e2-3e33-484d-ba72-8de128d9af03"},"vehicle_type_id":"4","last_reported":1773400914,"current_range_meters":27200,"station_id":"ce4bhg12rcd13ifvqf70","pricing_plan_id":"cebpf4jnsgd1na2vs0mg"},{"bike_id":"4fb0d3ac-74ff-440f-a7b2-19d232936e09","system_id":"levelo_inurba_marseille","lat":43.30138,"lon":5.3739,"is_reserved":false,"is_disabled":false,"rental_uris":{"android":"levelo://app?vid=4fb0d3ac-74ff-440f-a7b2-19d232936e09","ios":"levelo://app?vid=4fb0d3ac-74ff-440f-a7b2-19d232936e09"},"vehicle_type_id":"4","last_reported":1773400914,"current_range_meters":20400,"station_id":"ce4bgs92rcd13ifvqcc0","pricing_plan_id":"cebpf4jnsgd1na2vs0mg"},{"bike_id":"eb2f308c-8a12-4604-91b5-c6e7beca1962","system_id":"levelo_inurba_marseille","lat":43.25572,"lon":5.38256,"is_reserved":false,"is_disabled":false,"rental_uris":{"android":"levelo://app?vid=eb2f308c-8a12-4604-91b5-c6e7beca1962","ios":"levelo://app?vid=eb2f308c-8a12-4604-91b5-c6e7beca1962"},"vehicle_type_id":"4","last_reported":1773400914,"current_range_meters":28400,"station_id":"ce4bhih2rcd13ifvqfs0","pricing_plan_id":"cebpf4jnsgd1na2vs0mg"},{"bike_id":"9275d7e0-6f92-4728-99cc-26ef8f5159ad","system_id":"levelo_inurba_marseille","lat":43.29116,"lon":5.43276,"is_reserved":false,"is_disabled":false,"rental_uris":{"android":"levelo://app?vid=9275d7e0-6f92-4728-99cc-26ef8f5159ad","ios":"levelo://app?vid=9275d7e0-6f92-4728-99cc-26ef8f5159ad"},"vehicle_type_id":"4","last_reported":1773400914,"current_range_meters":36000,"station_id":"","pricing_plan_id":"cebpf4jnsgd1na2vs0mg"},{"bike_id":"ca6172bb-1bde-4c29-82ad-418bf4e991bb","system_id":"levelo_inurba_marseille","lat":43.28153,"lon":5.42641,"is_reserved":false,"is_disabled":false,"rental_uris":{"android":"levelo://app?vid=ca6172bb-1bde-4c29-82ad-418bf4e991bb","ios":"levelo://app?vid=ca6172bb-1bde-4c29-82ad-418bf4e991bb"},"vehicle_type_id":"4","last_reported":1773400914,"current_range_meters":20800,"station_id":"ce4bhnh2rcd13ifvqgug","pricing_plan_id":"cebpf4jnsgd1na2vs0mg"},{"bike_id":"be4b33f3-f666-4b28-9e53-550c3c6e8b23","system_id":"levelo_inurba_marseille","lat":43.28472,"lon":5.48408,"is_reserved":false,"is_disabled":false,"rental_uris":{"android":"levelo://app?vid=be4b33f3-f666-4b28-9e53-550c3c6e8b23","ios":"levelo://app?vid=be4b33f3-f666-4b28-9e53-550c3c6e8b23"},"vehicle_type_id":"4","last_reported":1773400914,"current_range_meters":22800,"station_id":"","pricing_plan_id":"cebpf4jnsgd1na2vs0mg"},{"bike_id":"7e93006e-36a2-465d-83ba-4c6c7efd21e7","system_id":"levelo_inurba_marseille","lat":43.28491,"lon":5.48391,"is_reserved":false,"is_disabled":false,"rental_uris":{"android":"levelo://app?vid=7e93006e-36a2-465d-83ba-4c6c7efd21e7","ios":"levelo://app?vid=7e93006e-36a2-465d-83ba-4c6c7efd21e7"},"vehicle_type_id":"4","last_reported":1773400914,"current_range_meters":8400,"station_id":"","pricing_plan_id":"cebpf4jnsgd1na2vs0mg"},{"bike_id":"ca023ede-959e-4411-943d-f9c615c571b1","system_id":"levelo_inurba_marseille","lat":43.31035,"lon":5.37178,"is_reserved":false,"is_disabled":false,"rental_uris":{"android":"levelo://app?vid=ca023ede-959e-4411-943d-f9c615c571b1","ios":"levelo://app?vid=ca023ede-959e-4411-943d-f9c615c571b1"},"vehicle_type_id":"4","last_reported":1773400914,"current_range_meters":37600,"station_id":"st_d4kl2rp97mjs73e7tdfg","pricing_plan_id":"cebpf4jnsgd1na2vs0mg"},{"bike_id":"193cbe9d-b7d2-421e-9f76-9c8c86aebb4a","system_id":"levelo_inurba_marseille","lat":43.3354,"lon":5.37456,"is_reserved":false,"is_disabled":false,"rental_uris":{"android":"levelo://app?vid=193cbe9d-b7d2-421e-9f76-9c8c86aebb4a","ios":"levelo://app?vid=193cbe9d-b7d2-421e-9f76-9c8c86aebb4a"},"vehicle_type_id":"4","last_reported":1773400914,"current_range_meters":13600,"station_id":"st_d46tts09ee8s73dlu43g","pricing_plan_id":"cebpf4jnsgd1na2vs0mg"},{"bike_id":"9f555977-ed84-4e25-9c81-1c0c6fccc8b6","system_id":"levelo_inurba_marseille","lat":43.24367,"lon":5.44089,"is_reserved":false,"is_disabled":true,"rental_uris":{"android":"levelo://app?vid=9f555977-ed84-4e25-9c81-1c0c6fccc8b6","ios":"levelo://app?vid=9f555977-ed84-4e25-9c81-1c0c6fccc8b6"},"vehicle_type_id":"4","last_reported":1773400914,"current_range_meters":6400,"station_id":"","pricing_plan_id":"cebpf4jnsgd1na2vs0mg"},{"bike_id":"751b8d02-ece8-4e58-8456-95b73cc7814a","system_id":"levelo_inurba_marseille","lat":43.29523,"lon":5.3855,"is_reserved":false,"is_disabled":true,"rental_uris":{"android":"levelo://app?vid=751b8d02-ece8-4e58-8456-95b73cc7814a","ios":"levelo://app?vid=751b8d02-ece8-4e58-8456-95b73cc7814a"},"vehicle_type_id":"4","last_reported":1773400914,"current_range_meters":2000,"station_id":"ce4bgih2rcd13ifvqba0","pricing_plan_id":"cebpf4jnsgd1na2vs0mg"},{"bike_id":"b9df914a-bd17-4d56-94c4-458c1a200f5d","system_id":"levelo_inurba_marseille","lat":43.337605,"lon":5.374586,"is_reserved":false,"is_disabled":false,"rental_uris":{"android":"levelo://app?vid=b9df914a-bd17-4d56-94c4-458c1a200f5d","ios":"levelo://app?vid=b9df914a-bd17-4d56-94c4-458c1a200f5d"},"vehicle_type_id":"4","last_reported":1773400914,"current_range_meters":11600,"station_id":"","pricing_plan_id":"cebpf4jnsgd1na2vs0mg"},{"bike_id":"35633058-1c8d-41f2-a2e3-e1101467a98c","system_id":"levelo_inurba_marseille","lat":43.23378,"lon":5.41241,"is_reserved":false,"is_disabled":false,"rental_uris":{"android":"levelo://app?vid=35633058-1c8d-41f2-a2e3-e1101467a98c","ios":"levelo://app?vid=35633058-1c8d-41f2-a2e3-e1101467a98c"},"vehicle_type_id":"4","last_reported":1773400914,"current_range_meters":12000,"station_id":"","pricing_plan_id":"cebpf4jnsgd1na2vs0mg"},{"bike_id":"e44ce07f-b4ba-4e55-8858-6faa78a5bb09","system_id":"levelo_inurba_marseille","lat":43.30146,"lon":5.38101,"is_reserved":false,"is_disabled":false,"rental_uris":{"android":"levelo://app?vid=e44ce07f-b4ba-4e55-8858-6faa78a5bb09","ios":"levelo://app?vid=e44ce07f-b4ba-4e55-8858-6faa78a5bb09"},"vehicle_type_id":"4","last_reported":1773400914,"current_range_meters":36800,"station_id":"ce4bgjp2rcd13ifvqbh0","pricing_plan_id":"cebpf4jnsgd1na2vs0mg"},{"bike_id":"fe7300c6-3844-436e-a075-e7fe4466cf11","system_id":"levelo_inurba_marseille","lat":43.23798,"lon":5.36621,"is_reserved":false,"is_disabled":false,"rental_uris":{"android":"levelo://app?vid=fe7300c6-3844-436e-a075-e7fe4466cf11","ios":"levelo://app?vid=fe7300c6-3844-436e-a075-e7fe4466cf11"},"vehicle_type_id":"4","last_reported":1773400914,"current_range_meters":39200,"station_id":"st_d3nk18o9ro0c73en2l3g","pricing_plan_id":"cebpf4jnsgd1na2vs0mg"},{"bike_id":"3115ec2c-0e1c-40e3-beba-8ab26217ce9f","system_id":"levelo_inurba_marseille","lat":43.2822,"lon":5.3906,"is_reserved":false,"is_disabled":true,"rental_uris":{"android":"levelo://app?vid=3115ec2c-0e1c-40e3-beba-8ab26217ce9f","ios":"levelo://app?vid=3115ec2c-0e1c-40e3-beba-8ab26217ce9f"},"vehicle_type_id":"4","last_reported":1773400914,"current_range_meters":36400,"station_id":"ce4bhn92rcd13ifvqgsg","pricing_plan_id":"cebpf4jnsgd1na2vs0mg"},{"bike_id":"dec7e136-8e46-49db-9f8c-f6ff1cf5ddff","system_id":"levelo_inurba_marseille","lat":43.21752,"lon":5.346,"is_reserved":false,"is_disabled":false,"rental_uris":{"android":"levelo://app?vid=dec7e136-8e46-49db-9f8c-f6ff1cf5ddff","ios":"levelo://app?vid=dec7e136-8e46-49db-9f8c-f6ff1cf5ddff"},"vehicle_type_id":"4","last_reported":1773400914,"current_range_meters":9600,"station_id":"st_cvj6r9ubvosntc0bgbag","pricing_plan_id":"cebpf4jnsgd1na2vs0mg"},{"bike_id":"9c3f11b1-6c96-472d-acf9-a5ac4e6e8a32","system_id":"levelo_inurba_marseille","lat":43.24657,"lon":5.38896,"is_reserved":false,"is_disabled":false,"rental_uris":{"android":"levelo://app?vid=9c3f11b1-6c96-472d-acf9-a5ac4e6e8a32","ios":"levelo://app?vid=9c3f11b1-6c96-472d-acf9-a5ac4e6e8a32"},"vehicle_type_id":"4","last_reported":1773400914,"current_range_meters":37600,"station_id":"ce4bhg12rcd13ifvqf60","pricing_plan_id":"cebpf4jnsgd1na2vs0mg"},{"bike_id":"ddffd595-e4d6-4840-a075-89e0d98ad68d","system_id":"levelo_inurba_marseille","lat":43.27063,"lon":5.42271,"is_reserved":false,"is_disabled":false,"rental_uris":{"android":"levelo://app?vid=ddffd595-e4d6-4840-a075-89e0d98ad68d","ios":"levelo://app?vid=ddffd595-e4d6-4840-a075-89e0d98ad68d"},"vehicle_type_id":"4","last_reported":1773400914,"current_range_meters":10800,"station_id":"ce4bhk92rcd13ifvqgb0","pricing_plan_id":"cebpf4jnsgd1na2vs0mg"},{"bike_id":"483b51bc-13b6-4f8e-bf1c-b113cd698669","system_id":"levelo_inurba_marseille","lat":43.28268,"lon":5.35062,"is_reserved":false,"is_disabled":false,"rental_uris":{"android":"levelo://app?vid=483b51bc-13b6-4f8e-bf1c-b113cd698669","ios":"levelo://app?vid=483b51bc-13b6-4f8e-bf1c-b113cd698669"},"vehicle_type_id":"4","last_reported":1773400914,"current_range_meters":37600,"station_id":"ce4bhbp2rcd13ifvqerg","pricing_plan_id":"cebpf4jnsgd1na2vs0mg"},{"bike_id":"d4265320-4bdb-405e-aa89-ece42b3e0cb7","system_id":"levelo_inurba_marseille","lat":43.3415,"lon":5.40887,"is_reserved":false,"is_disabled":false,"rental_uris":{"android":"levelo://app?vid=d4265320-4bdb-405e-aa89-ece42b3e0cb7","ios":"levelo://app?vid=d4265320-4bdb-405e-aa89-ece42b3e0cb7"},"vehicle_type_id":"4","last_reported":1773400914,"current_range_meters":40000,"station_id":"ce4bhqh2rcd13ifvqhlg","pricing_plan_id":"cebpf4jnsgd1na2vs0mg"},{"bike_id":"02ead4dc-b645-4d56-ad65-ea6ca89e6836","system_id":"levelo_inurba_marseille","lat":43.28149,"lon":5.4265,"is_reserved":false,"is_disabled":false,"rental_uris":{"android":"levelo://app?vid=02ead4dc-b645-4d56-ad65-ea6ca89e6836","ios":"levelo://app?vid=02ead4dc-b645-4d56-ad65-ea6ca89e6836"},"vehicle_type_id":"4","last_reported":1773400914,"current_range_meters":38000,"station_id":"ce4bhnh2rcd13ifvqgug","pricing_plan_id":"cebpf4jnsgd1na2vs0mg"},{"bike_id":"48f7318f-42c7-4aa4-b62f-fc9ed340836e","system_id":"levelo_inurba_marseille","lat":43.28149,"lon":5.42642,"is_reserved":false,"is_disabled":false,"rental_uris":{"android":"levelo://app?vid=48f7318f-42c7-4aa4-b62f-fc9ed340836e","ios":"levelo://app?vid=48f7318f-42c7-4aa4-b62f-fc9ed340836e"},"vehicle_type_id":"4","last_reported":1773400914,"current_range_meters":9600,"station_id":"ce4bhnh2rcd13ifvqgug","pricing_plan_id":"cebpf4jnsgd1na2vs0mg"},{"bike_id":"2ddab465-249a-493c-a75f-64a391d22fe1","system_id":"levelo_inurba_marseille","lat":43.30539,"lon":5.36697,"is_reserved":false,"is_disabled":false,"rental_uris":{"android":"levelo://app?vid=2ddab465-249a-493c-a75f-64a391d22fe1","ios":"levelo://app?vid=2ddab465-249a-493c-a75f-64a391d22fe1"},"vehicle_type_id":"4","last_reported":1773400914,"current_range_meters":23200,"station_id":"ce4bgrp2rcd13ifvqc9g","pricing_plan_id":"cebpf4jnsgd1na2vs0mg"},{"bike_id":"085d9f80-e450-4ad6-81b9-46074072f150","system_id":"levelo_inurba_marseille","lat":43.31472,"lon":5.37331,"is_reserved":false,"is_disabled":false,"rental_uris":{"android":"levelo://app?vid=085d9f80-e450-4ad6-81b9-46074072f150","ios":"levelo://app?vid=085d9f80-e450-4ad6-81b9-46074072f150"},"vehicle_type_id":"4","last_reported":1773400914,"current_range_meters":39200,"station_id":"ce4bgt12rcd13ifvqcd0","pricing_plan_id":"cebpf4jnsgd1na2vs0mg"},{"bike_id":"785c672b-b04e-4d06-bd7e-7d7f6fe09d9f","system_id":"levelo_inurba_marseille","lat":43.29026,"lon":5.3997,"is_reserved":false,"is_disabled":false,"rental_uris":{"android":"levelo://app?vid=785c672b-b04e-4d06-bd7e-7d7f6fe09d9f","ios":"levelo://app?vid=785c672b-b04e-4d06-bd7e-7d7f6fe09d9f"},"vehicle_type_id":"4","last_reported":1773400914,"current_range_meters":10000,"station_id":"ce4bh392rcd13ifvqdm0","pricing_plan_id":"cebpf4jnsgd1na2vs0mg"},{"bike_id":"64069c02-c977-4af0-a752-efe4502ec874","system_id":"levelo_inurba_marseille","lat":43.28475,"lon":5.48394,"is_reserved":false,"is_disabled":false,"rental_uris":{"android":"levelo://app?vid=64069c02-c977-4af0-a752-efe4502ec874","ios":"levelo://app?vid=64069c02-c977-4af0-a752-efe4502ec874"},"vehicle_type_id":"4","last_reported":1773400914,"current_range_meters":11200,"station_id":"","pricing_plan_id":"cebpf4jnsgd1na2vs0mg"},{"bike_id":"489b4cfb-fccc-4eb6-8d28-eb867a3bc809","system_id":"levelo_inurba_marseille","lat":43.29629,"lon":5.40596,"is_reserved":false,"is_disabled":false,"rental_uris":{"android":"levelo://app?vid=489b4cfb-fccc-4eb6-8d28-eb867a3bc809","ios":"levelo://app?vid=489b4cfb-fccc-4eb6-8d28-eb867a3bc809"},"vehicle_type_id":"4","last_reported":1773400914,"current_range_meters":37600,"station_id":"ce4bh0h2rcd13ifvqd60","pricing_plan_id":"cebpf4jnsgd1na2vs0mg"},{"bike_id":"9169dbfe-5d07-47fa-b3ba-3ea6ec6e8900","system_id":"levelo_inurba_marseille","lat":43.31717,"lon":5.43697,"is_reserved":false,"is_disabled":false,"rental_uris":{"android":"levelo://app?vid=9169dbfe-5d07-47fa-b3ba-3ea6ec6e8900","ios":"levelo://app?vid=9169dbfe-5d07-47fa-b3ba-3ea6ec6e8900"},"vehicle_type_id":"4","last_reported":1773400914,"current_range_meters":32000,"station_id":"ce4bhp92rcd13ifvqhcg","pricing_plan_id":"cebpf4jnsgd1na2vs0mg"},{"bike_id":"5db6e19a-4369-4327-b7e4-06c2f961c22d","system_id":"levelo_inurba_marseille","lat":43.30905,"lon":5.36801,"is_reserved":false,"is_disabled":false,"rental_uris":{"android":"levelo://app?vid=5db6e19a-4369-4327-b7e4-06c2f961c22d","ios":"levelo://app?vid=5db6e19a-4369-4327-b7e4-06c2f961c22d"},"vehicle_type_id":"4","last_reported":1773400914,"current_range_meters":40000,"station_id":"ce4bgn92rcd13ifvqbvg","pricing_plan_id":"cebpf4jnsgd1na2vs0mg"},{"bike_id":"7bf0a830-d498-457c-a030-91c3bd84fed4","system_id":"levelo_inurba_marseille","lat":43.23196,"lon":5.35555,"is_reserved":false,"is_disabled":false,"rental_uris":{"android":"levelo://app?vid=7bf0a830-d498-457c-a030-91c3bd84fed4","ios":"levelo://app?vid=7bf0a830-d498-457c-a030-91c3bd84fed4"},"vehicle_type_id":"4","last_reported":1773400914,"current_range_meters":18000,"station_id":"ce4bhu92rcd13ifvqi70","pricing_plan_id":"cebpf4jnsgd1na2vs0mg"},{"bike_id":"db5fc025-f609-443b-b481-2f6cefb137d4","system_id":"levelo_inurba_marseille","lat":43.28476,"lon":5.48389,"is_reserved":false,"is_disabled":false,"rental_uris":{"android":"levelo://app?vid=db5fc025-f609-443b-b481-2f6cefb137d4","ios":"levelo://app?vid=db5fc025-f609-443b-b481-2f6cefb137d4"},"vehicle_type_id":"4","last_reported":1773400914,"current_range_meters":34000,"station_id":"","pricing_plan_id":"cebpf4jnsgd1na2vs0mg"},{"bike_id":"d5b94fb7-6ed2-4115-8925-47fdf09de149","system_id":"levelo_inurba_marseille","lat":43.30542,"lon":5.36694,"is_reserved":false,"is_disabled":false,"rental_uris":{"android":"levelo://app?vid=d5b94fb7-6ed2-4115-8925-47fdf09de149","ios":"levelo://app?vid=d5b94fb7-6ed2-4115-8925-47fdf09de149"},"vehicle_type_id":"4","last_reported":1773400914,"current_range_meters":39200,"station_id":"ce4bgrp2rcd13ifvqc9g","pricing_plan_id":"cebpf4jnsgd1na2vs0mg"},{"bike_id":"552db961-6ff4-4a02-9e5d-7a6056b861cd","system_id":"levelo_inurba_marseille","lat":43.30911,"lon":5.36856,"is_reserved":false,"is_disabled":false,"rental_uris":{"android":"levelo://app?vid=552db961-6ff4-4a02-9e5d-7a6056b861cd","ios":"levelo://app?vid=552db961-6ff4-4a02-9e5d-7a6056b861cd"},"vehicle_type_id":"4","last_reported":1773400914,"current_range_meters":40000,"station_id":"ce4bgn92rcd13ifvqbvg","pricing_plan_id":"cebpf4jnsgd1na2vs0mg"},{"bike_id":"9c2b5d2a-9cac-40e8-8612-2d62a5457827","system_id":"levelo_inurba_marseille","lat":43.2766,"lon":5.38931,"is_reserved":false,"is_disabled":false,"rental_uris":{"android":"levelo://app?vid=9c2b5d2a-9cac-40e8-8612-2d62a5457827","ios":"levelo://app?vid=9c2b5d2a-9cac-40e8-8612-2d62a5457827"},"vehicle_type_id":"4","last_reported":1773400914,"current_range_meters":39200,"station_id":"ce4bhi12rcd13ifvqfo0","pricing_plan_id":"cebpf4jnsgd1na2vs0mg"},{"bike_id":"ab7d9189-2568-4974-829e-49dee9a447d5","system_id":"levelo_inurba_marseille","lat":43.23189,"lon":5.35544,"is_reserved":false,"is_disabled":false,"rental_uris":{"android":"levelo://app?vid=ab7d9189-2568-4974-829e-49dee9a447d5","ios":"levelo://app?vid=ab7d9189-2568-4974-829e-49dee9a447d5"},"vehicle_type_id":"4","last_reported":1773400914,"current_range_meters":39200,"station_id":"ce4bhu92rcd13ifvqi70","pricing_plan_id":"cebpf4jnsgd1na2vs0mg"},{"bike_id":"c0c5d9dc-928d-48b1-bc04-fe5d71707694","system_id":"levelo_inurba_marseille","lat":43.32353,"lon":5.36745,"is_reserved":false,"is_disabled":false,"rental_uris":{"android":"levelo://app?vid=c0c5d9dc-928d-48b1-bc04-fe5d71707694","ios":"levelo://app?vid=c0c5d9dc-928d-48b1-bc04-fe5d71707694"},"vehicle_type_id":"4","last_reported":1773400914,"current_range_meters":39200,"station_id":"ce4bhsh2rcd13ifvqi2g","pricing_plan_id":"cebpf4jnsgd1na2vs0mg"},{"bike_id":"34067b23-0c56-4b26-b659-525005b5345f","system_id":"levelo_inurba_marseille","lat":43.21757,"lon":5.34589,"is_reserved":false,"is_disabled":false,"rental_uris":{"android":"levelo://app?vid=34067b23-0c56-4b26-b659-525005b5345f","ios":"levelo://app?vid=34067b23-0c56-4b26-b659-525005b5345f"},"vehicle_type_id":"4","last_reported":1773400914,"current_range_meters":26800,"station_id":"st_cvj6r9ubvosntc0bgbag","pricing_plan_id":"cebpf4jnsgd1na2vs0mg"},{"bike_id":"a243ae06-bdb1-4295-b949-9b571a79a0aa","system_id":"levelo_inurba_marseille","lat":43.27809,"lon":5.4071,"is_reserved":false,"is_disabled":false,"rental_uris":{"android":"levelo://app?vid=a243ae06-bdb1-4295-b949-9b571a79a0aa","ios":"levelo://app?vid=a243ae06-bdb1-4295-b949-9b571a79a0aa"},"vehicle_type_id":"4","last_reported":1773400914,"current_range_meters":40000,"station_id":"ce4bhnh2rcd13ifvqgtg","pricing_plan_id":"cebpf4jnsgd1na2vs0mg"},{"bike_id":"91ad5159-ee4f-4775-9e76-ea40758cdb2d","system_id":"levelo_inurba_marseille","lat":43.24162,"lon":5.3641,"is_reserved":false,"is_disabled":false,"rental_uris":{"android":"levelo://app?vid=91ad5159-ee4f-4775-9e76-ea40758cdb2d","ios":"levelo://app?vid=91ad5159-ee4f-4775-9e76-ea40758cdb2d"},"vehicle_type_id":"4","last_reported":1773400914,"current_range_meters":39200,"station_id":"cpo36qri1sfpv3e86is0","pricing_plan_id":"cebpf4jnsgd1na2vs0mg"},{"bike_id":"d0d0f7af-ac18-434b-92a7-5f1afa6754a1","system_id":"levelo_inurba_marseille","lat":43.28858,"lon":5.39317,"is_reserved":false,"is_disabled":false,"rental_uris":{"android":"levelo://app?vid=d0d0f7af-ac18-434b-92a7-5f1afa6754a1","ios":"levelo://app?vid=d0d0f7af-ac18-434b-92a7-5f1afa6754a1"},"vehicle_type_id":"4","last_reported":1773400914,"current_range_meters":33200,"station_id":"ce4bh2p2rcd13ifvqdi0","pricing_plan_id":"cebpf4jnsgd1na2vs0mg"},{"bike_id":"6737ca02-2d43-49c4-a10a-3e68cea6b2e2","system_id":"levelo_inurba_marseille","lat":43.29763,"lon":5.42774,"is_reserved":false,"is_disabled":false,"rental_uris":{"android":"levelo://app?vid=6737ca02-2d43-49c4-a10a-3e68cea6b2e2","ios":"levelo://app?vid=6737ca02-2d43-49c4-a10a-3e68cea6b2e2"},"vehicle_type_id":"4","last_reported":1773400914,"current_range_meters":31200,"station_id":"st_d3md5207bmas73dh9klg","pricing_plan_id":"cebpf4jnsgd1na2vs0mg"},{"bike_id":"130bfb14-641e-4243-aedb-1640189e2b97","system_id":"levelo_inurba_marseille","lat":43.28423,"lon":5.34992,"is_reserved":false,"is_disabled":false,"rental_uris":{"android":"levelo://app?vid=130bfb14-641e-4243-aedb-1640189e2b97","ios":"levelo://app?vid=130bfb14-641e-4243-aedb-1640189e2b97"},"vehicle_type_id":"4","last_reported":1773400914,"current_range_meters":24000,"station_id":"ce4bhbh2rcd13ifvqepg","pricing_plan_id":"cebpf4jnsgd1na2vs0mg"},{"bike_id":"61d17a9a-a13c-45e9-a277-495a8d0f82a3","system_id":"levelo_inurba_marseille","lat":43.24369,"lon":5.37084,"is_reserved":false,"is_disabled":false,"rental_uris":{"android":"levelo://app?vid=61d17a9a-a13c-45e9-a277-495a8d0f82a3","ios":"levelo://app?vid=61d17a9a-a13c-45e9-a277-495a8d0f82a3"},"vehicle_type_id":"4","last_reported":1773400914,"current_range_meters":39200,"station_id":"ce4bhhh2rcd13ifvqfk0","pricing_plan_id":"cebpf4jnsgd1na2vs0mg"},{"bike_id":"4196441c-f694-4be9-bf27-34dac1d26de8","system_id":"levelo_inurba_marseille","lat":43.27829,"lon":5.40711,"is_reserved":false,"is_disabled":false,"rental_uris":{"android":"levelo://app?vid=4196441c-f694-4be9-bf27-34dac1d26de8","ios":"levelo://app?vid=4196441c-f694-4be9-bf27-34dac1d26de8"},"vehicle_type_id":"4","last_reported":1773400914,"current_range_meters":39200,"station_id":"ce4bhnh2rcd13ifvqgtg","pricing_plan_id":"cebpf4jnsgd1na2vs0mg"},{"bike_id":"3682c19e-e351-458f-a5f7-c0fe3b0b3b23","system_id":"levelo_inurba_marseille","lat":43.28427,"lon":5.3499,"is_reserved":false,"is_disabled":false,"rental_uris":{"android":"levelo://app?vid=3682c19e-e351-458f-a5f7-c0fe3b0b3b23","ios":"levelo://app?vid=3682c19e-e351-458f-a5f7-c0fe3b0b3b23"},"vehicle_type_id":"4","last_reported":1773400914,"current_range_meters":24000,"station_id":"ce4bhbh2rcd13ifvqepg","pricing_plan_id":"cebpf4jnsgd1na2vs0mg"},{"bike_id":"9769682f-7437-4429-a488-336659c4c35c","system_id":"levelo_inurba_marseille","lat":43.24171,"lon":5.39719,"is_reserved":false,"is_disabled":false,"rental_uris":{"android":"levelo://app?vid=9769682f-7437-4429-a488-336659c4c35c","ios":"levelo://app?vid=9769682f-7437-4429-a488-336659c4c35c"},"vehicle_type_id":"4","last_reported":1773400914,"current_range_meters":22800,"station_id":"ce4bhn12rcd13ifvqgpg","pricing_plan_id":"cebpf4jnsgd1na2vs0mg"},{"bike_id":"68e11dcd-1fc6-4315-b0f8-44e02470960c","system_id":"levelo_inurba_marseille","lat":43.28531,"lon":5.44088,"is_reserved":false,"is_disabled":false,"rental_uris":{"android":"levelo://app?vid=68e11dcd-1fc6-4315-b0f8-44e02470960c","ios":"levelo://app?vid=68e11dcd-1fc6-4315-b0f8-44e02470960c"},"vehicle_type_id":"4","last_reported":1773400914,"current_range_meters":35200,"station_id":"st_d3j3df2ikq2c7380ej80","pricing_plan_id":"cebpf4jnsgd1na2vs0mg"},{"bike_id":"afbc0b51-0001-4489-b652-62fc6b4576df","system_id":"levelo_inurba_marseille","lat":43.27814,"lon":5.40694,"is_reserved":false,"is_disabled":false,"rental_uris":{"android":"levelo://app?vid=afbc0b51-0001-4489-b652-62fc6b4576df","ios":"levelo://app?vid=afbc0b51-0001-4489-b652-62fc6b4576df"},"vehicle_type_id":"4","last_reported":1773400914,"current_range_meters":39200,"station_id":"ce4bhnh2rcd13ifvqgtg","pricing_plan_id":"cebpf4jnsgd1na2vs0mg"},{"bike_id":"32358ead-44ff-491d-882b-0c4122b7d796","system_id":"levelo_inurba_marseille","lat":43.21181,"lon":5.35074,"is_reserved":false,"is_disabled":false,"rental_uris":{"android":"levelo://app?vid=32358ead-44ff-491d-882b-0c4122b7d796","ios":"levelo://app?vid=32358ead-44ff-491d-882b-0c4122b7d796"},"vehicle_type_id":"4","last_reported":1773400914,"current_range_meters":9200,"station_id":"st_cvj6sg6p6f1abm77japg","pricing_plan_id":"cebpf4jnsgd1na2vs0mg"},{"bike_id":"e0309c42-c4a6-4550-8fcd-55c2ce8f87bf","system_id":"levelo_inurba_marseille","lat":43.33754,"lon":5.37457,"is_reserved":false,"is_disabled":false,"rental_uris":{"android":"levelo://app?vid=e0309c42-c4a6-4550-8fcd-55c2ce8f87bf","ios":"levelo://app?vid=e0309c42-c4a6-4550-8fcd-55c2ce8f87bf"},"vehicle_type_id":"4","last_reported":1773400914,"current_range_meters":34800,"station_id":"","pricing_plan_id":"cebpf4jnsgd1na2vs0mg"},{"bike_id":"88baf1fe-4b9b-4c52-81f7-dd067c921a9f","system_id":"levelo_inurba_marseille","lat":43.29819,"lon":5.44057,"is_reserved":false,"is_disabled":false,"rental_uris":{"android":"levelo://app?vid=88baf1fe-4b9b-4c52-81f7-dd067c921a9f","ios":"levelo://app?vid=88baf1fe-4b9b-4c52-81f7-dd067c921a9f"},"vehicle_type_id":"4","last_reported":1773400914,"current_range_meters":17200,"station_id":"st_d3jp68qikq2c7381ktn0","pricing_plan_id":"cebpf4jnsgd1na2vs0mg"},{"bike_id":"2f414416-cb10-40e4-8635-ad7f4bf7120a","system_id":"levelo_inurba_marseille","lat":43.265506,"lon":5.372845,"is_reserved":false,"is_disabled":false,"rental_uris":{"android":"levelo://app?vid=2f414416-cb10-40e4-8635-ad7f4bf7120a","ios":"levelo://app?vid=2f414416-cb10-40e4-8635-ad7f4bf7120a"},"vehicle_type_id":"4","last_reported":1773400914,"current_range_meters":23200,"station_id":"ce4bhg12rcd13ifvqf70","pricing_plan_id":"cebpf4jnsgd1na2vs0mg"},{"bike_id":"3fe9ee8f-02f5-45ab-ab2f-88a189618cd0","system_id":"levelo_inurba_marseille","lat":43.29872,"lon":5.39735,"is_reserved":false,"is_disabled":false,"rental_uris":{"android":"levelo://app?vid=3fe9ee8f-02f5-45ab-ab2f-88a189618cd0","ios":"levelo://app?vid=3fe9ee8f-02f5-45ab-ab2f-88a189618cd0"},"vehicle_type_id":"4","last_reported":1773400914,"current_range_meters":36800,"station_id":"ce4bh0h2rcd13ifvqd50","pricing_plan_id":"cebpf4jnsgd1na2vs0mg"},{"bike_id":"ebb39f18-503d-4328-a195-9c9cc1ad8abd","system_id":"levelo_inurba_marseille","lat":43.24796,"lon":5.37452,"is_reserved":false,"is_disabled":true,"rental_uris":{"android":"levelo://app?vid=ebb39f18-503d-4328-a195-9c9cc1ad8abd","ios":"levelo://app?vid=ebb39f18-503d-4328-a195-9c9cc1ad8abd"},"vehicle_type_id":"4","last_reported":1773400914,"current_range_meters":4800,"station_id":"ce4bhgh2rcd13ifvqfb0","pricing_plan_id":"cebpf4jnsgd1na2vs0mg"},{"bike_id":"ac6bfa62-93e1-410e-a201-c92e8a6a4c47","system_id":"levelo_inurba_marseille","lat":43.30464,"lon":5.37903,"is_reserved":false,"is_disabled":false,"rental_uris":{"android":"levelo://app?vid=ac6bfa62-93e1-410e-a201-c92e8a6a4c47","ios":"levelo://app?vid=ac6bfa62-93e1-410e-a201-c92e8a6a4c47"},"vehicle_type_id":"4","last_reported":1773400914,"current_range_meters":16400,"station_id":"ce4bgup2rcd13ifvqcn0","pricing_plan_id":"cebpf4jnsgd1na2vs0mg"},{"bike_id":"5ac94716-44b8-4ae4-8f63-01aed3be190f","system_id":"levelo_inurba_marseille","lat":43.23958,"lon":5.36629,"is_reserved":false,"is_disabled":false,"rental_uris":{"android":"levelo://app?vid=5ac94716-44b8-4ae4-8f63-01aed3be190f","ios":"levelo://app?vid=5ac94716-44b8-4ae4-8f63-01aed3be190f"},"vehicle_type_id":"4","last_reported":1773400914,"current_range_meters":14400,"station_id":"ce4bhi12rcd13ifvqfp0","pricing_plan_id":"cebpf4jnsgd1na2vs0mg"},{"bike_id":"cbf3c1c8-949f-47c5-8ffa-840c4c8920af","system_id":"levelo_inurba_marseille","lat":43.31363,"lon":5.36727,"is_reserved":false,"is_disabled":false,"rental_uris":{"android":"levelo://app?vid=cbf3c1c8-949f-47c5-8ffa-840c4c8920af","ios":"levelo://app?vid=cbf3c1c8-949f-47c5-8ffa-840c4c8920af"},"vehicle_type_id":"4","last_reported":1773400914,"current_range_meters":36800,"station_id":"ce4bgr92rcd13ifvqc6g","pricing_plan_id":"cebpf4jnsgd1na2vs0mg"},{"bike_id":"b9f80436-b025-4780-b392-7d89975f7b62","system_id":"levelo_inurba_marseille","lat":43.27398,"lon":5.42465,"is_reserved":false,"is_disabled":false,"rental_uris":{"android":"levelo://app?vid=b9f80436-b025-4780-b392-7d89975f7b62","ios":"levelo://app?vid=b9f80436-b025-4780-b392-7d89975f7b62"},"vehicle_type_id":"4","last_reported":1773400914,"current_range_meters":27200,"station_id":"","pricing_plan_id":"cebpf4jnsgd1na2vs0mg"},{"bike_id":"d008a3ca-bdab-43f7-957e-465391a2d48d","system_id":"levelo_inurba_marseille","lat":43.31717,"lon":5.42399,"is_reserved":false,"is_disabled":false,"rental_uris":{"android":"levelo://app?vid=d008a3ca-bdab-43f7-957e-465391a2d48d","ios":"levelo://app?vid=d008a3ca-bdab-43f7-957e-465391a2d48d"},"vehicle_type_id":"4","last_reported":1773400914,"current_range_meters":36000,"station_id":"ce4bhp92rcd13ifvqhbg","pricing_plan_id":"cebpf4jnsgd1na2vs0mg"},{"bike_id":"061e265a-0602-40cd-8c80-4693d8e8b09f","system_id":"levelo_inurba_marseille","lat":43.27367,"lon":5.3626,"is_reserved":false,"is_disabled":false,"rental_uris":{"android":"levelo://app?vid=061e265a-0602-40cd-8c80-4693d8e8b09f","ios":"levelo://app?vid=061e265a-0602-40cd-8c80-4693d8e8b09f"},"vehicle_type_id":"4","last_reported":1773400914,"current_range_meters":26800,"station_id":"ce4bhbh2rcd13ifvqeo0","pricing_plan_id":"cebpf4jnsgd1na2vs0mg"},{"bike_id":"e2e20909-6632-45e5-aa38-0278a6ab2476","system_id":"levelo_inurba_marseille","lat":43.24182,"lon":5.39722,"is_reserved":false,"is_disabled":false,"rental_uris":{"android":"levelo://app?vid=e2e20909-6632-45e5-aa38-0278a6ab2476","ios":"levelo://app?vid=e2e20909-6632-45e5-aa38-0278a6ab2476"},"vehicle_type_id":"4","last_reported":1773400914,"current_range_meters":2800,"station_id":"ce4bhn12rcd13ifvqgpg","pricing_plan_id":"cebpf4jnsgd1na2vs0mg"},{"bike_id":"1682d056-fdab-4527-af67-8d06aa137368","system_id":"levelo_inurba_marseille","lat":43.23383,"lon":5.41244,"is_reserved":false,"is_disabled":false,"rental_uris":{"android":"levelo://app?vid=1682d056-fdab-4527-af67-8d06aa137368","ios":"levelo://app?vid=1682d056-fdab-4527-af67-8d06aa137368"},"vehicle_type_id":"4","last_reported":1773400914,"current_range_meters":26800,"station_id":"","pricing_plan_id":"cebpf4jnsgd1na2vs0mg"},{"bike_id":"d6020f80-4f12-4b16-9868-71a9b4fcf4bf","system_id":"levelo_inurba_marseille","lat":43.30469,"lon":5.37908,"is_reserved":false,"is_disabled":false,"rental_uris":{"android":"levelo://app?vid=d6020f80-4f12-4b16-9868-71a9b4fcf4bf","ios":"levelo://app?vid=d6020f80-4f12-4b16-9868-71a9b4fcf4bf"},"vehicle_type_id":"4","last_reported":1773400914,"current_range_meters":38400,"station_id":"ce4bgup2rcd13ifvqcn0","pricing_plan_id":"cebpf4jnsgd1na2vs0mg"},{"bike_id":"77104936-f36f-4a1c-b5f6-9be1e7ca6ed3","system_id":"levelo_inurba_marseille","lat":43.33536,"lon":5.3747,"is_reserved":false,"is_disabled":false,"rental_uris":{"android":"levelo://app?vid=77104936-f36f-4a1c-b5f6-9be1e7ca6ed3","ios":"levelo://app?vid=77104936-f36f-4a1c-b5f6-9be1e7ca6ed3"},"vehicle_type_id":"4","last_reported":1773400914,"current_range_meters":30000,"station_id":"st_d46tts09ee8s73dlu43g","pricing_plan_id":"cebpf4jnsgd1na2vs0mg"},{"bike_id":"06d745d1-9428-42bd-8f26-b9b68078900b","system_id":"levelo_inurba_marseille","lat":43.271888,"lon":5.391714,"is_reserved":false,"is_disabled":false,"rental_uris":{"android":"levelo://app?vid=06d745d1-9428-42bd-8f26-b9b68078900b","ios":"levelo://app?vid=06d745d1-9428-42bd-8f26-b9b68078900b"},"vehicle_type_id":"4","last_reported":1773400914,"current_range_meters":27600,"station_id":"ce4bhdp2rcd13ifvqf20","pricing_plan_id":"cebpf4jnsgd1na2vs0mg"},{"bike_id":"dd9d0c71-7df6-4dbc-b282-7a633630fe60","system_id":"levelo_inurba_marseille","lat":43.24805,"lon":5.37459,"is_reserved":false,"is_disabled":false,"rental_uris":{"android":"levelo://app?vid=dd9d0c71-7df6-4dbc-b282-7a633630fe60","ios":"levelo://app?vid=dd9d0c71-7df6-4dbc-b282-7a633630fe60"},"vehicle_type_id":"4","last_reported":1773400914,"current_range_meters":34000,"station_id":"ce4bhgh2rcd13ifvqfb0","pricing_plan_id":"cebpf4jnsgd1na2vs0mg"},{"bike_id":"ea304849-fd51-4961-bfc0-efabcbe3b6ad","system_id":"levelo_inurba_marseille","lat":43.23374,"lon":5.4124,"is_reserved":false,"is_disabled":false,"rental_uris":{"android":"levelo://app?vid=ea304849-fd51-4961-bfc0-efabcbe3b6ad","ios":"levelo://app?vid=ea304849-fd51-4961-bfc0-efabcbe3b6ad"},"vehicle_type_id":"4","last_reported":1773400914,"current_range_meters":20000,"station_id":"","pricing_plan_id":"cebpf4jnsgd1na2vs0mg"},{"bike_id":"c514af3d-99f3-462a-a5ff-b0c3a231404d","system_id":"levelo_inurba_marseille","lat":43.31373,"lon":5.36675,"is_reserved":false,"is_disabled":false,"rental_uris":{"android":"levelo://app?vid=c514af3d-99f3-462a-a5ff-b0c3a231404d","ios":"levelo://app?vid=c514af3d-99f3-462a-a5ff-b0c3a231404d"},"vehicle_type_id":"4","last_reported":1773400914,"current_range_meters":36400,"station_id":"ce4bgr92rcd13ifvqc6g","pricing_plan_id":"cebpf4jnsgd1na2vs0mg"},{"bike_id":"4b3f1641-369b-4608-a709-2ae69ef016b2","system_id":"levelo_inurba_marseille","lat":43.31988,"lon":5.3815,"is_reserved":false,"is_disabled":false,"rental_uris":{"android":"levelo://app?vid=4b3f1641-369b-4608-a709-2ae69ef016b2","ios":"levelo://app?vid=4b3f1641-369b-4608-a709-2ae69ef016b2"},"vehicle_type_id":"4","last_reported":1773400914,"current_range_meters":33600,"station_id":"ce4bhr12rcd13ifvqhpg","pricing_plan_id":"cebpf4jnsgd1na2vs0mg"},{"bike_id":"52c0e189-e831-4c3c-a72a-ee2208e9bced","system_id":"levelo_inurba_marseille","lat":43.33154,"lon":5.37686,"is_reserved":false,"is_disabled":false,"rental_uris":{"android":"levelo://app?vid=52c0e189-e831-4c3c-a72a-ee2208e9bced","ios":"levelo://app?vid=52c0e189-e831-4c3c-a72a-ee2208e9bced"},"vehicle_type_id":"4","last_reported":1773400914,"current_range_meters":33200,"station_id":"st_d46cu089ee8s73dldbu0","pricing_plan_id":"cebpf4jnsgd1na2vs0mg"},{"bike_id":"8617b24d-bdd2-49e3-beda-5d74fc474252","system_id":"levelo_inurba_marseille","lat":43.28476,"lon":5.48401,"is_reserved":false,"is_disabled":false,"rental_uris":{"android":"levelo://app?vid=8617b24d-bdd2-49e3-beda-5d74fc474252","ios":"levelo://app?vid=8617b24d-bdd2-49e3-beda-5d74fc474252"},"vehicle_type_id":"4","last_reported":1773400914,"current_range_meters":30000,"station_id":"","pricing_plan_id":"cebpf4jnsgd1na2vs0mg"},{"bike_id":"fa2bba8a-18e3-4b70-aead-eb8340ccd9cb","system_id":"levelo_inurba_marseille","lat":43.23386,"lon":5.41248,"is_reserved":false,"is_disabled":false,"rental_uris":{"android":"levelo://app?vid=fa2bba8a-18e3-4b70-aead-eb8340ccd9cb","ios":"levelo://app?vid=fa2bba8a-18e3-4b70-aead-eb8340ccd9cb"},"vehicle_type_id":"4","last_reported":1773400914,"current_range_meters":28400,"station_id":"","pricing_plan_id":"cebpf4jnsgd1na2vs0mg"},{"bike_id":"b05d6568-765d-403a-8952-1b9fa076e64d","system_id":"levelo_inurba_marseille","lat":43.29898,"lon":5.38137,"is_reserved":false,"is_disabled":false,"rental_uris":{"android":"levelo://app?vid=b05d6568-765d-403a-8952-1b9fa076e64d","ios":"levelo://app?vid=b05d6568-765d-403a-8952-1b9fa076e64d"},"vehicle_type_id":"4","last_reported":1773400914,"current_range_meters":40000,"station_id":"ce4bgj12rcd13ifvqbc0","pricing_plan_id":"cebpf4jnsgd1na2vs0mg"},{"bike_id":"2c4b9baa-150c-43c0-9983-79477495e674","system_id":"levelo_inurba_marseille","lat":43.33053,"lon":5.39021,"is_reserved":false,"is_disabled":false,"rental_uris":{"android":"levelo://app?vid=2c4b9baa-150c-43c0-9983-79477495e674","ios":"levelo://app?vid=2c4b9baa-150c-43c0-9983-79477495e674"},"vehicle_type_id":"4","last_reported":1773400914,"current_range_meters":7200,"station_id":"ce4bhr92rcd13ifvqhrg","pricing_plan_id":"cebpf4jnsgd1na2vs0mg"},{"bike_id":"5513dccf-31e4-4825-b6d2-d5fbbde55b2d","system_id":"levelo_inurba_marseille","lat":43.27196,"lon":5.40975,"is_reserved":false,"is_disabled":true,"rental_uris":{"android":"levelo://app?vid=5513dccf-31e4-4825-b6d2-d5fbbde55b2d","ios":"levelo://app?vid=5513dccf-31e4-4825-b6d2-d5fbbde55b2d"},"vehicle_type_id":"4","last_reported":1773400914,"current_range_meters":1600,"station_id":"ce4bhl12rcd13ifvqgf0","pricing_plan_id":"cebpf4jnsgd1na2vs0mg"},{"bike_id":"4490770a-a7b3-4eb0-8520-3f226aa4ca1e","system_id":"levelo_inurba_marseille","lat":43.25578,"lon":5.38227,"is_reserved":false,"is_disabled":false,"rental_uris":{"android":"levelo://app?vid=4490770a-a7b3-4eb0-8520-3f226aa4ca1e","ios":"levelo://app?vid=4490770a-a7b3-4eb0-8520-3f226aa4ca1e"},"vehicle_type_id":"4","last_reported":1773400914,"current_range_meters":39200,"station_id":"ce4bhih2rcd13ifvqfs0","pricing_plan_id":"cebpf4jnsgd1na2vs0mg"},{"bike_id":"e0f4c726-c891-4b59-a727-5f7bf2fb4325","system_id":"levelo_inurba_marseille","lat":43.2853,"lon":5.44083,"is_reserved":false,"is_disabled":false,"rental_uris":{"android":"levelo://app?vid=e0f4c726-c891-4b59-a727-5f7bf2fb4325","ios":"levelo://app?vid=e0f4c726-c891-4b59-a727-5f7bf2fb4325"},"vehicle_type_id":"4","last_reported":1773400914,"current_range_meters":4400,"station_id":"st_d3j3df2ikq2c7380ej80","pricing_plan_id":"cebpf4jnsgd1na2vs0mg"},{"bike_id":"fea054e9-9687-462f-a721-42a34c23bbef","system_id":"levelo_inurba_marseille","lat":43.24672,"lon":5.3818,"is_reserved":false,"is_disabled":false,"rental_uris":{"android":"levelo://app?vid=fea054e9-9687-462f-a721-42a34c23bbef","ios":"levelo://app?vid=fea054e9-9687-462f-a721-42a34c23bbef"},"vehicle_type_id":"4","last_reported":1773400914,"current_range_meters":12800,"station_id":"ce4bhih2rcd13ifvqfr0","pricing_plan_id":"cebpf4jnsgd1na2vs0mg"},{"bike_id":"3d4208c2-815f-40bf-8bb0-f78b87ee07d6","system_id":"levelo_inurba_marseille","lat":43.2842,"lon":5.34981,"is_reserved":false,"is_disabled":false,"rental_uris":{"android":"levelo://app?vid=3d4208c2-815f-40bf-8bb0-f78b87ee07d6","ios":"levelo://app?vid=3d4208c2-815f-40bf-8bb0-f78b87ee07d6"},"vehicle_type_id":"4","last_reported":1773400914,"current_range_meters":38000,"station_id":"ce4bhbh2rcd13ifvqepg","pricing_plan_id":"cebpf4jnsgd1na2vs0mg"},{"bike_id":"f516d8f7-b497-4c5a-a65d-b7f43298643e","system_id":"levelo_inurba_marseille","lat":43.27629,"lon":5.36096,"is_reserved":false,"is_disabled":false,"rental_uris":{"android":"levelo://app?vid=f516d8f7-b497-4c5a-a65d-b7f43298643e","ios":"levelo://app?vid=f516d8f7-b497-4c5a-a65d-b7f43298643e"},"vehicle_type_id":"4","last_reported":1773400914,"current_range_meters":38000,"station_id":"ce4bgj92rcd13ifvqbe0","pricing_plan_id":"cebpf4jnsgd1na2vs0mg"},{"bike_id":"0ade407e-4211-4e89-8c0d-dbdf9b61948a","system_id":"levelo_inurba_marseille","lat":43.29039,"lon":5.3996,"is_reserved":false,"is_disabled":false,"rental_uris":{"android":"levelo://app?vid=0ade407e-4211-4e89-8c0d-dbdf9b61948a","ios":"levelo://app?vid=0ade407e-4211-4e89-8c0d-dbdf9b61948a"},"vehicle_type_id":"4","last_reported":1773400914,"current_range_meters":30400,"station_id":"ce4bh392rcd13ifvqdm0","pricing_plan_id":"cebpf4jnsgd1na2vs0mg"},{"bike_id":"c05084b8-7c4d-477b-9642-6723199eab4b","system_id":"levelo_inurba_marseille","lat":43.26953,"lon":5.3863,"is_reserved":false,"is_disabled":false,"rental_uris":{"android":"levelo://app?vid=c05084b8-7c4d-477b-9642-6723199eab4b","ios":"levelo://app?vid=c05084b8-7c4d-477b-9642-6723199eab4b"},"vehicle_type_id":"4","last_reported":1773400914,"current_range_meters":8000,"station_id":"ce4bhh92rcd13ifvqfh0","pricing_plan_id":"cebpf4jnsgd1na2vs0mg"},{"bike_id":"125b3aae-375e-4839-a266-47ffb1745519","system_id":"levelo_inurba_marseille","lat":43.31368,"lon":5.38486,"is_reserved":false,"is_disabled":false,"rental_uris":{"android":"levelo://app?vid=125b3aae-375e-4839-a266-47ffb1745519","ios":"levelo://app?vid=125b3aae-375e-4839-a266-47ffb1745519"},"vehicle_type_id":"4","last_reported":1773400914,"current_range_meters":14400,"station_id":"ce4bgt92rcd13ifvqcf0","pricing_plan_id":"cebpf4jnsgd1na2vs0mg"},{"bike_id":"7c562c0f-e462-4dbb-aac8-440fd40d84a6","system_id":"levelo_inurba_marseille","lat":43.28418,"lon":5.34974,"is_reserved":false,"is_disabled":false,"rental_uris":{"android":"levelo://app?vid=7c562c0f-e462-4dbb-aac8-440fd40d84a6","ios":"levelo://app?vid=7c562c0f-e462-4dbb-aac8-440fd40d84a6"},"vehicle_type_id":"4","last_reported":1773400914,"current_range_meters":22000,"station_id":"ce4bhbh2rcd13ifvqepg","pricing_plan_id":"cebpf4jnsgd1na2vs0mg"},{"bike_id":"04d16ef4-39d1-4e51-b75d-bfa218adb8ad","system_id":"levelo_inurba_marseille","lat":43.30895,"lon":5.37329,"is_reserved":false,"is_disabled":false,"rental_uris":{"android":"levelo://app?vid=04d16ef4-39d1-4e51-b75d-bfa218adb8ad","ios":"levelo://app?vid=04d16ef4-39d1-4e51-b75d-bfa218adb8ad"},"vehicle_type_id":"4","last_reported":1773400914,"current_range_meters":25200,"station_id":"","pricing_plan_id":"cebpf4jnsgd1na2vs0mg"},{"bike_id":"08ec0bd7-db6c-4004-87ba-401b19a3211e","system_id":"levelo_inurba_marseille","lat":43.26555,"lon":5.39017,"is_reserved":false,"is_disabled":false,"rental_uris":{"android":"levelo://app?vid=08ec0bd7-db6c-4004-87ba-401b19a3211e","ios":"levelo://app?vid=08ec0bd7-db6c-4004-87ba-401b19a3211e"},"vehicle_type_id":"4","last_reported":1773400914,"current_range_meters":17200,"station_id":"ce4bhe12rcd13ifvqf30","pricing_plan_id":"cebpf4jnsgd1na2vs0mg"},{"bike_id":"4cf4f64e-772e-4006-afb1-782e77cd10a2","system_id":"levelo_inurba_marseille","lat":43.2808,"lon":5.3966,"is_reserved":false,"is_disabled":false,"rental_uris":{"android":"levelo://app?vid=4cf4f64e-772e-4006-afb1-782e77cd10a2","ios":"levelo://app?vid=4cf4f64e-772e-4006-afb1-782e77cd10a2"},"vehicle_type_id":"4","last_reported":1773400914,"current_range_meters":30400,"station_id":"ce4bho12rcd13ifvqh2g","pricing_plan_id":"cebpf4jnsgd1na2vs0mg"},{"bike_id":"5a390fd0-1a67-4363-9778-5fe8c3144f22","system_id":"levelo_inurba_marseille","lat":43.30365,"lon":5.42402,"is_reserved":false,"is_disabled":false,"rental_uris":{"android":"levelo://app?vid=5a390fd0-1a67-4363-9778-5fe8c3144f22","ios":"levelo://app?vid=5a390fd0-1a67-4363-9778-5fe8c3144f22"},"vehicle_type_id":"4","last_reported":1773400914,"current_range_meters":28800,"station_id":"ce4bhoh2rcd13ifvqh6g","pricing_plan_id":"cebpf4jnsgd1na2vs0mg"},{"bike_id":"bf93a527-b1ed-4fdb-8946-ebae8cb40888","system_id":"levelo_inurba_marseille","lat":43.29204,"lon":5.36055,"is_reserved":false,"is_disabled":false,"rental_uris":{"android":"levelo://app?vid=bf93a527-b1ed-4fdb-8946-ebae8cb40888","ios":"levelo://app?vid=bf93a527-b1ed-4fdb-8946-ebae8cb40888"},"vehicle_type_id":"4","last_reported":1773400914,"current_range_meters":38000,"station_id":"ce4bhbh2rcd13ifvqeqg","pricing_plan_id":"cebpf4jnsgd1na2vs0mg"},{"bike_id":"deefd341-27ef-4648-a8c7-7dfc876c3d2a","system_id":"levelo_inurba_marseille","lat":43.29287,"lon":5.37447,"is_reserved":false,"is_disabled":false,"rental_uris":{"android":"levelo://app?vid=deefd341-27ef-4648-a8c7-7dfc876c3d2a","ios":"levelo://app?vid=deefd341-27ef-4648-a8c7-7dfc876c3d2a"},"vehicle_type_id":"4","last_reported":1773400914,"current_range_meters":39200,"station_id":"ce4bgi12rcd13ifvqb70","pricing_plan_id":"cebpf4jnsgd1na2vs0mg"},{"bike_id":"ef20f139-5308-449a-a8f1-979163f50765","system_id":"levelo_inurba_marseille","lat":43.23155,"lon":5.43727,"is_reserved":false,"is_disabled":false,"rental_uris":{"android":"levelo://app?vid=ef20f139-5308-449a-a8f1-979163f50765","ios":"levelo://app?vid=ef20f139-5308-449a-a8f1-979163f50765"},"vehicle_type_id":"4","last_reported":1773400914,"current_range_meters":12000,"station_id":"ce4bhmp2rcd13ifvqgog","pricing_plan_id":"cebpf4jnsgd1na2vs0mg"},{"bike_id":"26cd541b-8bb9-44ab-a573-fc5d08927001","system_id":"levelo_inurba_marseille","lat":43.30457,"lon":5.37913,"is_reserved":false,"is_disabled":false,"rental_uris":{"android":"levelo://app?vid=26cd541b-8bb9-44ab-a573-fc5d08927001","ios":"levelo://app?vid=26cd541b-8bb9-44ab-a573-fc5d08927001"},"vehicle_type_id":"4","last_reported":1773400914,"current_range_meters":28400,"station_id":"ce4bgup2rcd13ifvqcn0","pricing_plan_id":"cebpf4jnsgd1na2vs0mg"},{"bike_id":"1cbaa364-4ae2-4578-a5e3-47bed79e4157","system_id":"levelo_inurba_marseille","lat":43.2406,"lon":5.37754,"is_reserved":false,"is_disabled":true,"rental_uris":{"android":"levelo://app?vid=1cbaa364-4ae2-4578-a5e3-47bed79e4157","ios":"levelo://app?vid=1cbaa364-4ae2-4578-a5e3-47bed79e4157"},"vehicle_type_id":"4","last_reported":1773400914,"current_range_meters":0,"station_id":"ce4bhnp2rcd13ifvqgvg","pricing_plan_id":"cebpf4jnsgd1na2vs0mg"},{"bike_id":"4f0cba16-0f34-413d-b101-96643d7935f4","system_id":"levelo_inurba_marseille","lat":43.31168,"lon":5.38714,"is_reserved":false,"is_disabled":false,"rental_uris":{"android":"levelo://app?vid=4f0cba16-0f34-413d-b101-96643d7935f4","ios":"levelo://app?vid=4f0cba16-0f34-413d-b101-96643d7935f4"},"vehicle_type_id":"4","last_reported":1773400914,"current_range_meters":10000,"station_id":"ce4bgv12rcd13ifvqcp0","pricing_plan_id":"cebpf4jnsgd1na2vs0mg"},{"bike_id":"25646a06-8d7d-4ddc-89bc-d59a9e664009","system_id":"levelo_inurba_marseille","lat":43.27207,"lon":5.39172,"is_reserved":false,"is_disabled":false,"rental_uris":{"android":"levelo://app?vid=25646a06-8d7d-4ddc-89bc-d59a9e664009","ios":"levelo://app?vid=25646a06-8d7d-4ddc-89bc-d59a9e664009"},"vehicle_type_id":"4","last_reported":1773400914,"current_range_meters":15200,"station_id":"ce4bhhp2rcd13ifvqfm0","pricing_plan_id":"cebpf4jnsgd1na2vs0mg"},{"bike_id":"2f9faa93-3e56-45df-8d6f-fa01bcc5242d","system_id":"levelo_inurba_marseille","lat":43.28264,"lon":5.35061,"is_reserved":false,"is_disabled":false,"rental_uris":{"android":"levelo://app?vid=2f9faa93-3e56-45df-8d6f-fa01bcc5242d","ios":"levelo://app?vid=2f9faa93-3e56-45df-8d6f-fa01bcc5242d"},"vehicle_type_id":"4","last_reported":1773400914,"current_range_meters":8400,"station_id":"ce4bhbp2rcd13ifvqerg","pricing_plan_id":"cebpf4jnsgd1na2vs0mg"},{"bike_id":"d7300473-fe0c-4712-b685-29e2ff9116c4","system_id":"levelo_inurba_marseille","lat":43.29807,"lon":5.40395,"is_reserved":false,"is_disabled":false,"rental_uris":{"android":"levelo://app?vid=d7300473-fe0c-4712-b685-29e2ff9116c4","ios":"levelo://app?vid=d7300473-fe0c-4712-b685-29e2ff9116c4"},"vehicle_type_id":"4","last_reported":1773400914,"current_range_meters":30800,"station_id":"ce4bh112rcd13ifvqd90","pricing_plan_id":"cebpf4jnsgd1na2vs0mg"},{"bike_id":"6840f6df-3461-42c8-98d7-357f6584e26f","system_id":"levelo_inurba_marseille","lat":43.2737,"lon":5.36248,"is_reserved":false,"is_disabled":false,"rental_uris":{"android":"levelo://app?vid=6840f6df-3461-42c8-98d7-357f6584e26f","ios":"levelo://app?vid=6840f6df-3461-42c8-98d7-357f6584e26f"},"vehicle_type_id":"4","last_reported":1773400914,"current_range_meters":38400,"station_id":"ce4bhbh2rcd13ifvqeo0","pricing_plan_id":"cebpf4jnsgd1na2vs0mg"},{"bike_id":"824fb975-1c56-48f8-a19c-aeedaf1c3bdb","system_id":"levelo_inurba_marseille","lat":43.23148,"lon":5.43715,"is_reserved":false,"is_disabled":false,"rental_uris":{"android":"levelo://app?vid=824fb975-1c56-48f8-a19c-aeedaf1c3bdb","ios":"levelo://app?vid=824fb975-1c56-48f8-a19c-aeedaf1c3bdb"},"vehicle_type_id":"4","last_reported":1773400914,"current_range_meters":20000,"station_id":"ce4bhmp2rcd13ifvqgog","pricing_plan_id":"cebpf4jnsgd1na2vs0mg"},{"bike_id":"33f37743-2ed8-4a0e-a99b-593c4a6534ea","system_id":"levelo_inurba_marseille","lat":43.21187,"lon":5.35061,"is_reserved":false,"is_disabled":false,"rental_uris":{"android":"levelo://app?vid=33f37743-2ed8-4a0e-a99b-593c4a6534ea","ios":"levelo://app?vid=33f37743-2ed8-4a0e-a99b-593c4a6534ea"},"vehicle_type_id":"4","last_reported":1773400914,"current_range_meters":8000,"station_id":"st_cvj6sg6p6f1abm77japg","pricing_plan_id":"cebpf4jnsgd1na2vs0mg"},{"bike_id":"c2c2087e-014d-48df-ab4e-5047e7218004","system_id":"levelo_inurba_marseille","lat":43.31042,"lon":5.37167,"is_reserved":false,"is_disabled":false,"rental_uris":{"android":"levelo://app?vid=c2c2087e-014d-48df-ab4e-5047e7218004","ios":"levelo://app?vid=c2c2087e-014d-48df-ab4e-5047e7218004"},"vehicle_type_id":"4","last_reported":1773400914,"current_range_meters":30800,"station_id":"st_d4kl2rp97mjs73e7tdfg","pricing_plan_id":"cebpf4jnsgd1na2vs0mg"},{"bike_id":"7189398a-c44f-4c26-8898-ed1ba4a6cef9","system_id":"levelo_inurba_marseille","lat":43.28167,"lon":5.42642,"is_reserved":false,"is_disabled":false,"rental_uris":{"android":"levelo://app?vid=7189398a-c44f-4c26-8898-ed1ba4a6cef9","ios":"levelo://app?vid=7189398a-c44f-4c26-8898-ed1ba4a6cef9"},"vehicle_type_id":"4","last_reported":1773400914,"current_range_meters":38800,"station_id":"ce4bhnh2rcd13ifvqgug","pricing_plan_id":"cebpf4jnsgd1na2vs0mg"},{"bike_id":"54e5ab79-af7f-4958-b1e4-35efefa5e997","system_id":"levelo_inurba_marseille","lat":43.28147,"lon":5.37892,"is_reserved":false,"is_disabled":true,"rental_uris":{"android":"levelo://app?vid=54e5ab79-af7f-4958-b1e4-35efefa5e997","ios":"levelo://app?vid=54e5ab79-af7f-4958-b1e4-35efefa5e997"},"vehicle_type_id":"4","last_reported":1773400914,"current_range_meters":6400,"station_id":"","pricing_plan_id":"cebpf4jnsgd1na2vs0mg"},{"bike_id":"e2f7b690-c221-4e70-84da-04f394af1cab","system_id":"levelo_inurba_marseille","lat":43.28915,"lon":5.38396,"is_reserved":false,"is_disabled":false,"rental_uris":{"android":"levelo://app?vid=e2f7b690-c221-4e70-84da-04f394af1cab","ios":"levelo://app?vid=e2f7b690-c221-4e70-84da-04f394af1cab"},"vehicle_type_id":"4","last_reported":1773400914,"current_range_meters":30000,"station_id":"ce4bh612rcd13ifvqe6g","pricing_plan_id":"cebpf4jnsgd1na2vs0mg"},{"bike_id":"4605d0eb-aef4-494c-b103-fe3cbd9a939f","system_id":"levelo_inurba_marseille","lat":43.26065,"lon":5.3939,"is_reserved":false,"is_disabled":false,"rental_uris":{"android":"levelo://app?vid=4605d0eb-aef4-494c-b103-fe3cbd9a939f","ios":"levelo://app?vid=4605d0eb-aef4-494c-b103-fe3cbd9a939f"},"vehicle_type_id":"4","last_reported":1773400914,"current_range_meters":24400,"station_id":"ce4bhh92rcd13ifvqfj0","pricing_plan_id":"cebpf4jnsgd1na2vs0mg"},{"bike_id":"b26a5b6f-c7d4-4ecb-a965-5f0df6878da3","system_id":"levelo_inurba_marseille","lat":43.30137,"lon":5.37409,"is_reserved":false,"is_disabled":false,"rental_uris":{"android":"levelo://app?vid=b26a5b6f-c7d4-4ecb-a965-5f0df6878da3","ios":"levelo://app?vid=b26a5b6f-c7d4-4ecb-a965-5f0df6878da3"},"vehicle_type_id":"4","last_reported":1773400914,"current_range_meters":16400,"station_id":"ce4bgs92rcd13ifvqcc0","pricing_plan_id":"cebpf4jnsgd1na2vs0mg"},{"bike_id":"c4bc4c4b-1b65-4f1c-9292-7dbc626f973c","system_id":"levelo_inurba_marseille","lat":43.33779,"lon":5.37461,"is_reserved":false,"is_disabled":false,"rental_uris":{"android":"levelo://app?vid=c4bc4c4b-1b65-4f1c-9292-7dbc626f973c","ios":"levelo://app?vid=c4bc4c4b-1b65-4f1c-9292-7dbc626f973c"},"vehicle_type_id":"4","last_reported":1773400914,"current_range_meters":38800,"station_id":"","pricing_plan_id":"cebpf4jnsgd1na2vs0mg"},{"bike_id":"4ca34fa1-d655-4e9a-9a4c-40464ac80323","system_id":"levelo_inurba_marseille","lat":43.28354,"lon":5.38105,"is_reserved":false,"is_disabled":false,"rental_uris":{"android":"levelo://app?vid=4ca34fa1-d655-4e9a-9a4c-40464ac80323","ios":"levelo://app?vid=4ca34fa1-d655-4e9a-9a4c-40464ac80323"},"vehicle_type_id":"4","last_reported":1773400914,"current_range_meters":38000,"station_id":"ce4bh412rcd13ifvqdr0","pricing_plan_id":"cebpf4jnsgd1na2vs0mg"},{"bike_id":"9727335e-b61a-4523-9101-aea877851cb8","system_id":"levelo_inurba_marseille","lat":43.27913,"lon":5.37989,"is_reserved":false,"is_disabled":false,"rental_uris":{"android":"levelo://app?vid=9727335e-b61a-4523-9101-aea877851cb8","ios":"levelo://app?vid=9727335e-b61a-4523-9101-aea877851cb8"},"vehicle_type_id":"4","last_reported":1773400914,"current_range_meters":38000,"station_id":"ce4bhf92rcd13ifvqf50","pricing_plan_id":"cebpf4jnsgd1na2vs0mg"},{"bike_id":"df3b8325-25b1-4cf7-81d6-79f2cfacae31","system_id":"levelo_inurba_marseille","lat":43.30269,"lon":5.37694,"is_reserved":false,"is_disabled":false,"rental_uris":{"android":"levelo://app?vid=df3b8325-25b1-4cf7-81d6-79f2cfacae31","ios":"levelo://app?vid=df3b8325-25b1-4cf7-81d6-79f2cfacae31"},"vehicle_type_id":"4","last_reported":1773400914,"current_range_meters":36000,"station_id":"ce4bguh2rcd13ifvqcj0","pricing_plan_id":"cebpf4jnsgd1na2vs0mg"},{"bike_id":"48358f2d-f55c-46c5-9640-4bd45a2b2905","system_id":"levelo_inurba_marseille","lat":43.24436,"lon":5.37052,"is_reserved":false,"is_disabled":true,"rental_uris":{"android":"levelo://app?vid=48358f2d-f55c-46c5-9640-4bd45a2b2905","ios":"levelo://app?vid=48358f2d-f55c-46c5-9640-4bd45a2b2905"},"vehicle_type_id":"4","last_reported":1773400914,"current_range_meters":34000,"station_id":"","pricing_plan_id":"cebpf4jnsgd1na2vs0mg"},{"bike_id":"61094b85-ed10-4b6a-8a53-0403299825c4","system_id":"levelo_inurba_marseille","lat":43.26929,"lon":5.40249,"is_reserved":false,"is_disabled":false,"rental_uris":{"android":"levelo://app?vid=61094b85-ed10-4b6a-8a53-0403299825c4","ios":"levelo://app?vid=61094b85-ed10-4b6a-8a53-0403299825c4"},"vehicle_type_id":"4","last_reported":1773400914,"current_range_meters":39200,"station_id":"cjm6bp8fraef2m0cb0m0","pricing_plan_id":"cebpf4jnsgd1na2vs0mg"},{"bike_id":"01b25557-0f7a-421a-adbc-7c29fad9f848","system_id":"levelo_inurba_marseille","lat":43.32653,"lon":5.40994,"is_reserved":false,"is_disabled":false,"rental_uris":{"android":"levelo://app?vid=01b25557-0f7a-421a-adbc-7c29fad9f848","ios":"levelo://app?vid=01b25557-0f7a-421a-adbc-7c29fad9f848"},"vehicle_type_id":"4","last_reported":1773400914,"current_range_meters":20000,"station_id":"ce4bhpp2rcd13ifvqhgg","pricing_plan_id":"cebpf4jnsgd1na2vs0mg"},{"bike_id":"05453a13-c34b-4b5a-a135-bc1734140d83","system_id":"levelo_inurba_marseille","lat":43.27212,"lon":5.39174,"is_reserved":false,"is_disabled":false,"rental_uris":{"android":"levelo://app?vid=05453a13-c34b-4b5a-a135-bc1734140d83","ios":"levelo://app?vid=05453a13-c34b-4b5a-a135-bc1734140d83"},"vehicle_type_id":"4","last_reported":1773400914,"current_range_meters":22800,"station_id":"ce4bhhp2rcd13ifvqfm0","pricing_plan_id":"cebpf4jnsgd1na2vs0mg"},{"bike_id":"ca16c415-6bbd-4eda-b90f-7e492e4ab881","system_id":"levelo_inurba_marseille","lat":43.30954,"lon":5.39041,"is_reserved":false,"is_disabled":false,"rental_uris":{"android":"levelo://app?vid=ca16c415-6bbd-4eda-b90f-7e492e4ab881","ios":"levelo://app?vid=ca16c415-6bbd-4eda-b90f-7e492e4ab881"},"vehicle_type_id":"4","last_reported":1773400914,"current_range_meters":33200,"station_id":"ce4bgup2rcd13ifvqco0","pricing_plan_id":"cebpf4jnsgd1na2vs0mg"},{"bike_id":"cc861bc1-1aca-46be-a176-b5ecc6ef06de","system_id":"levelo_inurba_marseille","lat":43.29277,"lon":5.36847,"is_reserved":false,"is_disabled":false,"rental_uris":{"android":"levelo://app?vid=cc861bc1-1aca-46be-a176-b5ecc6ef06de","ios":"levelo://app?vid=cc861bc1-1aca-46be-a176-b5ecc6ef06de"},"vehicle_type_id":"4","last_reported":1773400914,"current_range_meters":8000,"station_id":"ce4bhbp2rcd13ifvqesg","pricing_plan_id":"cebpf4jnsgd1na2vs0mg"},{"bike_id":"03ebd25c-20f7-4152-ac51-be4bca2e30df","system_id":"levelo_inurba_marseille","lat":43.250365,"lon":5.389168,"is_reserved":false,"is_disabled":false,"rental_uris":{"android":"levelo://app?vid=03ebd25c-20f7-4152-ac51-be4bca2e30df","ios":"levelo://app?vid=03ebd25c-20f7-4152-ac51-be4bca2e30df"},"vehicle_type_id":"4","last_reported":1773400914,"current_range_meters":8400,"station_id":"ce4bhgp2rcd13ifvqfd0","pricing_plan_id":"cebpf4jnsgd1na2vs0mg"},{"bike_id":"ac674d76-ca93-4ad7-bdea-78469a1a7757","system_id":"levelo_inurba_marseille","lat":43.225326,"lon":5.348355,"is_reserved":false,"is_disabled":false,"rental_uris":{"android":"levelo://app?vid=ac674d76-ca93-4ad7-bdea-78469a1a7757","ios":"levelo://app?vid=ac674d76-ca93-4ad7-bdea-78469a1a7757"},"vehicle_type_id":"4","last_reported":1773400914,"current_range_meters":14000,"station_id":"","pricing_plan_id":"cebpf4jnsgd1na2vs0mg"},{"bike_id":"dd5af46f-97b1-42a9-ad15-4f22ef725660","system_id":"levelo_inurba_marseille","lat":43.28219,"lon":5.39052,"is_reserved":false,"is_disabled":false,"rental_uris":{"android":"levelo://app?vid=dd5af46f-97b1-42a9-ad15-4f22ef725660","ios":"levelo://app?vid=dd5af46f-97b1-42a9-ad15-4f22ef725660"},"vehicle_type_id":"4","last_reported":1773400914,"current_range_meters":38000,"station_id":"ce4bhn92rcd13ifvqgsg","pricing_plan_id":"cebpf4jnsgd1na2vs0mg"},{"bike_id":"70110da8-5382-4c09-bf3c-ec1dc9cf26b7","system_id":"levelo_inurba_marseille","lat":43.29757,"lon":5.42771,"is_reserved":false,"is_disabled":false,"rental_uris":{"android":"levelo://app?vid=70110da8-5382-4c09-bf3c-ec1dc9cf26b7","ios":"levelo://app?vid=70110da8-5382-4c09-bf3c-ec1dc9cf26b7"},"vehicle_type_id":"4","last_reported":1773400914,"current_range_meters":24400,"station_id":"st_d3md5207bmas73dh9klg","pricing_plan_id":"cebpf4jnsgd1na2vs0mg"},{"bike_id":"7f6fd1a4-9bf4-4e0a-a55a-a55e3a70a2a0","system_id":"levelo_inurba_marseille","lat":43.27063,"lon":5.42276,"is_reserved":false,"is_disabled":false,"rental_uris":{"android":"levelo://app?vid=7f6fd1a4-9bf4-4e0a-a55a-a55e3a70a2a0","ios":"levelo://app?vid=7f6fd1a4-9bf4-4e0a-a55a-a55e3a70a2a0"},"vehicle_type_id":"4","last_reported":1773400914,"current_range_meters":14800,"station_id":"ce4bhk92rcd13ifvqgb0","pricing_plan_id":"cebpf4jnsgd1na2vs0mg"},{"bike_id":"ced17ad9-8f87-4562-9107-187102ffc823","system_id":"levelo_inurba_marseille","lat":43.24388,"lon":5.37053,"is_reserved":false,"is_disabled":false,"rental_uris":{"android":"levelo://app?vid=ced17ad9-8f87-4562-9107-187102ffc823","ios":"levelo://app?vid=ced17ad9-8f87-4562-9107-187102ffc823"},"vehicle_type_id":"4","last_reported":1773400914,"current_range_meters":37600,"station_id":"ce4bhhh2rcd13ifvqfk0","pricing_plan_id":"cebpf4jnsgd1na2vs0mg"},{"bike_id":"2e34bd7b-6a39-4ba1-8f0e-2cc9bbf360cc","system_id":"levelo_inurba_marseille","lat":43.24075,"lon":5.37741,"is_reserved":false,"is_disabled":false,"rental_uris":{"android":"levelo://app?vid=2e34bd7b-6a39-4ba1-8f0e-2cc9bbf360cc","ios":"levelo://app?vid=2e34bd7b-6a39-4ba1-8f0e-2cc9bbf360cc"},"vehicle_type_id":"4","last_reported":1773400914,"current_range_meters":20000,"station_id":"ce4bhnp2rcd13ifvqgvg","pricing_plan_id":"cebpf4jnsgd1na2vs0mg"},{"bike_id":"d2f26d83-dc8d-4b86-be8e-0eef4b5ebbb5","system_id":"levelo_inurba_marseille","lat":43.27386,"lon":5.38975,"is_reserved":false,"is_disabled":false,"rental_uris":{"android":"levelo://app?vid=d2f26d83-dc8d-4b86-be8e-0eef4b5ebbb5","ios":"levelo://app?vid=d2f26d83-dc8d-4b86-be8e-0eef4b5ebbb5"},"vehicle_type_id":"4","last_reported":1773400914,"current_range_meters":18000,"station_id":"","pricing_plan_id":"cebpf4jnsgd1na2vs0mg"},{"bike_id":"ed0157ed-e5ed-4463-a35e-e3af36488bfa","system_id":"levelo_inurba_marseille","lat":43.23978,"lon":5.36637,"is_reserved":false,"is_disabled":false,"rental_uris":{"android":"levelo://app?vid=ed0157ed-e5ed-4463-a35e-e3af36488bfa","ios":"levelo://app?vid=ed0157ed-e5ed-4463-a35e-e3af36488bfa"},"vehicle_type_id":"4","last_reported":1773400914,"current_range_meters":40000,"station_id":"ce4bhi12rcd13ifvqfp0","pricing_plan_id":"cebpf4jnsgd1na2vs0mg"},{"bike_id":"54dac517-c1d0-4e9c-8cbe-bf61b660aa02","system_id":"levelo_inurba_marseille","lat":43.2903,"lon":5.39963,"is_reserved":false,"is_disabled":false,"rental_uris":{"android":"levelo://app?vid=54dac517-c1d0-4e9c-8cbe-bf61b660aa02","ios":"levelo://app?vid=54dac517-c1d0-4e9c-8cbe-bf61b660aa02"},"vehicle_type_id":"4","last_reported":1773400914,"current_range_meters":38400,"station_id":"ce4bh392rcd13ifvqdm0","pricing_plan_id":"cebpf4jnsgd1na2vs0mg"},{"bike_id":"415b5ecf-3590-4d72-93f5-d38da3b165f0","system_id":"levelo_inurba_marseille","lat":43.33018,"lon":5.39039,"is_reserved":false,"is_disabled":false,"rental_uris":{"android":"levelo://app?vid=415b5ecf-3590-4d72-93f5-d38da3b165f0","ios":"levelo://app?vid=415b5ecf-3590-4d72-93f5-d38da3b165f0"},"vehicle_type_id":"4","last_reported":1773400914,"current_range_meters":38400,"station_id":"ce4bhr92rcd13ifvqhrg","pricing_plan_id":"cebpf4jnsgd1na2vs0mg"},{"bike_id":"2cc4bff9-1aec-497c-9fcb-b85037507eab","system_id":"levelo_inurba_marseille","lat":43.28268,"lon":5.35057,"is_reserved":false,"is_disabled":false,"rental_uris":{"android":"levelo://app?vid=2cc4bff9-1aec-497c-9fcb-b85037507eab","ios":"levelo://app?vid=2cc4bff9-1aec-497c-9fcb-b85037507eab"},"vehicle_type_id":"4","last_reported":1773400914,"current_range_meters":22000,"station_id":"ce4bhbp2rcd13ifvqerg","pricing_plan_id":"cebpf4jnsgd1na2vs0mg"},{"bike_id":"bc4e731c-a9e9-4875-9662-730ef371eb71","system_id":"levelo_inurba_marseille","lat":43.30467,"lon":5.37904,"is_reserved":false,"is_disabled":false,"rental_uris":{"android":"levelo://app?vid=bc4e731c-a9e9-4875-9662-730ef371eb71","ios":"levelo://app?vid=bc4e731c-a9e9-4875-9662-730ef371eb71"},"vehicle_type_id":"4","last_reported":1773400914,"current_range_meters":36400,"station_id":"ce4bgup2rcd13ifvqcn0","pricing_plan_id":"cebpf4jnsgd1na2vs0mg"},{"bike_id":"1dd391c1-5690-496c-bfd7-2b164a299125","system_id":"levelo_inurba_marseille","lat":43.33601,"lon":5.41006,"is_reserved":false,"is_disabled":false,"rental_uris":{"android":"levelo://app?vid=1dd391c1-5690-496c-bfd7-2b164a299125","ios":"levelo://app?vid=1dd391c1-5690-496c-bfd7-2b164a299125"},"vehicle_type_id":"4","last_reported":1773400914,"current_range_meters":39200,"station_id":"ce4bhqh2rcd13ifvqhmg","pricing_plan_id":"cebpf4jnsgd1na2vs0mg"},