{"last_updated":1753373576,"ttl":60,"version":"2.2","data":{"bikes":[{"bike_id":"0d4c2fad-047f-4a03-9123-780b6b0d8e60","system_id":"levelo_inurba_marseille","lat":43.30541,"lon":5.36535,"is_reserved":false,"is_disabled":false,"rental_uris":{"android":"levelo://app?vid=0d4c2fad-047f-4a03-9123-780b6b0d8e60","ios":"levelo://app?vid=0d4c2fad-047f-4a03-9123-780b6b0d8e60"},"vehicle_type_id":"4","last_reported":1753373576,"current_range_meters":2800,"station_id":"ce4bgs12rcd13ifvqcag","pricing_plan_id":"cebpf4jnsgd1na2vs0mg"},{"bike_id":"03642075-adcc-4426-8eaf-de6089185bc4","system_id":"levelo_inurba_marseille","lat":43.28421,"lon":5.349831,"is_reserved":false,"is_disabled":false,"rental_uris":{"android":"levelo://app?vid=03642075-adcc-4426-8eaf-de6089185bc4","ios":"levelo://app?vid=03642075-adcc-4426-8eaf-de6089185bc4"},"vehicle_type_id":"4","last_reported":1753373576,"current_range_meters":2800,"station_id":"ce4bhbh2rcd13ifvqepg","pricing_plan_id":"cebpf4jnsgd1na2vs0mg"},{"bike_id":"0836f668-bebb-41e9-a6dd-df53647bdc7f","system_id":"levelo_inurba_marseille","lat":43.255676,"lon":5.382113,"is_reserved":false,"is_disabled":false,"rental_uris":{"android":"levelo://app?vid=0836f668-bebb-41e9-a6dd-df53647bdc7f","ios":"levelo://app?vid=0836f668-bebb-41e9-a6dd-df53647bdc7f"},"vehicle_type_id":"4","last_reported":1753373576,"current_range_meters":3200,"station_id":"ce4bhih2rcd13ifvqfs0","pricing_plan_id":"cebpf4jnsgd1na2vs0mg"},{"bike_id":"9ae7d50c-a3ea-4136-8080-315c191e000a","system_id":"levelo_inurba_marseille","lat":43.28761,"lon":5.38416,"is_reserved":false,"is_disabled":false,"rental_uris":{"android":"levelo://app?vid=9ae7d50c-a3ea-4136-8080-315c191e000a","ios":"levelo://app?vid=9ae7d50c-a3ea-4136-8080-315c191e000a"},"vehicle_type_id":"4","last_reported":1753373576,"current_range_meters":3200,"station_id":"","pricing_plan_id":"cebpf4jnsgd1na2vs0mg"},{"bike_id":"aaf19045-9fb6-460e-932c-1d836dea2a05","system_id":"levelo_inurba_marseille","lat":43.23968,"lon":5.36633,"is_reserved":false,"is_disabled":false,"rental_uris":{"android":"levelo://app?vid=aaf19045-9fb6-460e-932c-1d836dea2a05","ios":"levelo://app?vid=aaf19045-9fb6-460e-932c-1d836dea2a05"},"vehicle_type_id":"4","last_reported":1753373576,"current_range_meters":3200,"station_id":"ce4bhi12rcd13ifvqfp0","pricing_plan_id":"cebpf4jnsgd1na2vs0mg"},{"bike_id":"3151bc9b-bcfa-4747-aaeb-6b920d0461c2","system_id":"levelo_inurba_marseille","lat":43.27374,"lon":5.36259,"is_reserved":false,"is_disabled":false,"rental_uris":{"android":"levelo://app?vid=3151bc9b-bcfa-4747-aaeb-6b920d0461c2","ios":"levelo://app?vid=3151bc9b-bcfa-4747-aaeb-6b920d0461c2"},"vehicle_type_id":"4","last_reported":1753373576,"current_range_meters":3600,"station_id":"ce4bhbh2rcd13ifvqeo0","pricing_plan_id":"cebpf4jnsgd1na2vs0mg"},{"bike_id":"fdc5c26a-1eb0-4cf0-9499-6617b39f1069","system_id":"levelo_inurba_marseille","lat":43.30214,"lon":5.39468,"is_reserved":false,"is_disabled":false,"rental_uris":{"android":"levelo://app?vid=fdc5c26a-1eb0-4cf0-9499-6617b39f1069","ios":"levelo://app?vid=fdc5c26a-1eb0-4cf0-9499-6617b39f1069"},"vehicle_type_id":"4","last_reported":1753373576,"current_range_meters":3600,"station_id":"ce4bh0p2rcd13ifvqd70","pricing_plan_id":"cebpf4jnsgd1na2vs0mg"},{"bike_id":"fce4dc2a-28ee-498b-9746-61e0e15275ef","system_id":"levelo_inurba_marseille","lat":43.314869,"lon":5.373085,"is_reserved":false,"is_disabled":false,"rental_uris":{"android":"levelo://app?vid=fce4dc2a-28ee-498b-9746-61e0e15275ef","ios":"levelo://app?vid=fce4dc2a-28ee-498b-9746-61e0e15275ef"},"vehicle_type_id":"4","last_reported":1753373576,"current_range_meters":3600,"station_id":"ce4bgt12rcd13ifvqcd0","pricing_plan_id":"cebpf4jnsgd1na2vs0mg"},{"bike_id":"c8cbe188-8c80-4aac-881d-65feb870e521","system_id":"levelo_inurba_marseille","lat":43.33034,"lon":5.38027,"is_reserved":false,"is_disabled":false,"rental_uris":{"android":"levelo://app?vid=c8cbe188-8c80-4aac-881d-65feb870e521","ios":"levelo://app?vid=c8cbe188-8c80-4aac-881d-65feb870e521"},"vehicle_type_id":"4","last_reported":1753373576,"current_range_meters":3600,"station_id":"","pricing_plan_id":"cebpf4jnsgd1na2vs0mg"},{"bike_id":"f347dbd5-96fc-4462-ac6d-ce70103ac70b","system_id":"levelo_inurba_marseille","lat":43.292763,"lon":5.368413,"is_reserved":false,"is_disabled":false,"rental_uris":{"android":"levelo://app?vid=f347dbd5-96fc-4462-ac6d-ce70103ac70b","ios":"levelo://app?vid=f347dbd5-96fc-4462-ac6d-ce70103ac70b"},"vehicle_type_id":"4","last_reported":1753373576,"current_range_meters":3600,"station_id":"","pricing_plan_id":"cebpf4jnsgd1na2vs0mg"},{"bike_id":"f7c97f42-5458-42d0-a1de-41546cc6162c","system_id":"levelo_inurba_marseille","lat":43.31333,"lon":5.396937,"is_reserved":false,"is_disabled":false,"rental_uris":{"android":"levelo://app?vid=f7c97f42-5458-42d0-a1de-41546cc6162c","ios":"levelo://app?vid=f7c97f42-5458-42d0-a1de-41546cc6162c"},"vehicle_type_id":"4","last_reported":1753373576,"current_range_meters":4000,"station_id":"ce4bgvp2rcd13ifvqcu0","pricing_plan_id":"cebpf4jnsgd1na2vs0mg"},{"bike_id":"12aa18e6-54b4-4f17-8d75-27573f932a0c","system_id":"levelo_inurba_marseille","lat":43.296823,"lon":5.372723,"is_reserved":false,"is_disabled":true,"rental_uris":{"android":"levelo://app?vid=12aa18e6-54b4-4f17-8d75-27573f932a0c","ios":"levelo://app?vid=12aa18e6-54b4-4f17-8d75-27573f932a0c"},"vehicle_type_id":"4","last_reported":1753373576,"current_range_meters":4000,"station_id":"ce4bgk12rcd13ifvqbj0","pricing_plan_id":"cebpf4jnsgd1na2vs0mg"},{"bike_id":"4023483f-3ba3-4c42-9344-97a39fb1ff87","system_id":"levelo_inurba_marseille","lat":43.22504,"lon":5.34777,"is_reserved":false,"is_disabled":false,"rental_uris":{"android":"levelo://app?vid=4023483f-3ba3-4c42-9344-97a39fb1ff87","ios":"levelo://app?vid=4023483f-3ba3-4c42-9344-97a39fb1ff87"},"vehicle_type_id":"4","last_reported":1753373576,"current_range_meters":4000,"station_id":"st_cvj5dfep6f1abm77gieg","pricing_plan_id":"cebpf4jnsgd1na2vs0mg"},{"bike_id":"fe7cb682-c070-42ce-a4e7-f24b0098c2e5","system_id":"levelo_inurba_marseille","lat":43.290186,"lon":5.386418,"is_reserved":false,"is_disabled":false,"rental_uris":{"android":"levelo://app?vid=fe7cb682-c070-42ce-a4e7-f24b0098c2e5","ios":"levelo://app?vid=fe7cb682-c070-42ce-a4e7-f24b0098c2e5"},"vehicle_type_id":"4","last_reported":1753373576,"current_range_meters":4400,"station_id":"ce4bh4p2rcd13ifvqe0g","pricing_plan_id":"cebpf4jnsgd1na2vs0mg"},{"bike_id":"b56c8a11-ef6b-4ccb-a1c2-973806f8cec0","system_id":"levelo_inurba_marseille","lat":43.29776,"lon":5.371,"is_reserved":false,"is_disabled":false,"rental_uris":{"android":"levelo://app?vid=b56c8a11-ef6b-4ccb-a1c2-973806f8cec0","ios":"levelo://app?vid=b56c8a11-ef6b-4ccb-a1c2-973806f8cec0"},"vehicle_type_id":"4","last_reported":1753373576,"current_range_meters":4400,"station_id":"ce4bgop2rcd13ifvqc1g","pricing_plan_id":"cebpf4jnsgd1na2vs0mg"},{"bike_id":"ef6324c5-b9bb-4999-a70e-17ffde9e4602","system_id":"levelo_inurba_marseille","lat":43.28445,"lon":5.39189,"is_reserved":false,"is_disabled":false,"rental_uris":{"android":"levelo://app?vid=ef6324c5-b9bb-4999-a70e-17ffde9e4602","ios":"levelo://app?vid=ef6324c5-b9bb-4999-a70e-17ffde9e4602"},"vehicle_type_id":"4","last_reported":1753373576,"current_range_meters":4800,"station_id":"ce4bhoh2rcd13ifvqh5g","pricing_plan_id":"cebpf4jnsgd1na2vs0mg"},{"bike_id":"2d106688-a4c0-4309-ba94-2ac1a50e0a67","system_id":"levelo_inurba_marseille","lat":43.29611,"lon":5.37717,"is_reserved":false,"is_disabled":false,"rental_uris":{"android":"levelo://app?vid=2d106688-a4c0-4309-ba94-2ac1a50e0a67","ios":"levelo://app?vid=2d106688-a4c0-4309-ba94-2ac1a50e0a67"},"vehicle_type_id":"4","last_reported":1753373576,"current_range_meters":0,"station_id":"ce4bgi92rcd13ifvqb90","pricing_plan_id":"cebpf4jnsgd1na2vs0mg"},{"bike_id":"7c3de0da-af32-43c0-8717-9b419bd1e36e","system_id":"levelo_inurba_marseille","lat":43.27061,"lon":5.40258,"is_reserved":false,"is_disabled":false,"rental_uris":{"android":"levelo://app?vid=7c3de0da-af32-43c0-8717-9b419bd1e36e","ios":"levelo://app?vid=7c3de0da-af32-43c0-8717-9b419bd1e36e"},"vehicle_type_id":"4","last_reported":1753373576,"current_range_meters":4800,"station_id":"ce4bhk92rcd13ifvqgc0","pricing_plan_id":"cebpf4jnsgd1na2vs0mg"},{"bike_id":"c9dbd36b-479c-4a5c-b200-3aa7673340d9","system_id":"levelo_inurba_marseille","lat":43.241448,"lon":5.363743,"is_reserved":false,"is_disabled":false,"rental_uris":{"android":"levelo://app?vid=c9dbd36b-479c-4a5c-b200-3aa7673340d9","ios":"levelo://app?vid=c9dbd36b-479c-4a5c-b200-3aa7673340d9"},"vehicle_type_id":"4","last_reported":1753373576,"current_range_meters":5600,"station_id":"","pricing_plan_id":"cebpf4jnsgd1na2vs0mg"},{"bike_id":"a266a979-96b7-4089-9ca0-47ec4595d6f9","system_id":"levelo_inurba_marseille","lat":43.312751,"lon":5.401798,"is_reserved":false,"is_disabled":false,"rental_uris":{"android":"levelo://app?vid=a266a979-96b7-4089-9ca0-47ec4595d6f9","ios":"levelo://app?vid=a266a979-96b7-4089-9ca0-47ec4595d6f9"},"vehicle_type_id":"4","last_reported":1753373576,"current_range_meters":5600,"station_id":"ce4bh092rcd13ifvqd20","pricing_plan_id":"cebpf4jnsgd1na2vs0mg"},{"bike_id":"49b33783-f9c3-464f-8430-45648a6cb01b","system_id":"levelo_inurba_marseille","lat":43.29102,"lon":5.38127,"is_reserved":false,"is_disabled":false,"rental_uris":{"android":"levelo://app?vid=49b33783-f9c3-464f-8430-45648a6cb01b","ios":"levelo://app?vid=49b33783-f9c3-464f-8430-45648a6cb01b"},"vehicle_type_id":"4","last_reported":1753373576,"current_range_meters":6000,"station_id":"ce4bh512rcd13ifvqe2g","pricing_plan_id":"cebpf4jnsgd1na2vs0mg"},{"bike_id":"453d681e-c02b-47db-9d4f-fd2b95d4e06a","system_id":"levelo_inurba_marseille","lat":43.27744,"lon":5.40787,"is_reserved":false,"is_disabled":false,"rental_uris":{"android":"levelo://app?vid=453d681e-c02b-47db-9d4f-fd2b95d4e06a","ios":"levelo://app?vid=453d681e-c02b-47db-9d4f-fd2b95d4e06a"},"vehicle_type_id":"4","last_reported":1753373576,"current_range_meters":6000,"station_id":"ce4bhnh2rcd13ifvqgtg","pricing_plan_id":"cebpf4jnsgd1na2vs0mg"},{"bike_id":"fe3ecce4-a940-499e-9b63-aa011c651612","system_id":"levelo_inurba_marseille","lat":43.31331,"lon":5.39683,"is_reserved":false,"is_disabled":false,"rental_uris":{"android":"levelo://app?vid=fe3ecce4-a940-499e-9b63-aa011c651612","ios":"levelo://app?vid=fe3ecce4-a940-499e-9b63-aa011c651612"},"vehicle_type_id":"4","last_reported":1753373576,"current_range_meters":5600,"station_id":"ce4bgvp2rcd13ifvqcu0","pricing_plan_id":"cebpf4jnsgd1na2vs0mg"},{"bike_id":"430d8998-dd0b-4a60-8171-5b31f416f34d","system_id":"levelo_inurba_marseille","lat":43.26941,"lon":5.40246,"is_reserved":false,"is_disabled":false,"rental_uris":{"android":"levelo://app?vid=430d8998-dd0b-4a60-8171-5b31f416f34d","ios":"levelo://app?vid=430d8998-dd0b-4a60-8171-5b31f416f34d"},"vehicle_type_id":"4","last_reported":1753373576,"current_range_meters":6000,"station_id":"cjm6bp8fraef2m0cb0m0","pricing_plan_id":"cebpf4jnsgd1na2vs0mg"},{"bike_id":"bf968b92-5005-473b-891e-1cce1cc20ac2","system_id":"levelo_inurba_marseille","lat":43.28065,"lon":5.36886,"is_reserved":false,"is_disabled":false,"rental_uris":{"android":"levelo://app?vid=bf968b92-5005-473b-891e-1cce1cc20ac2","ios":"levelo://app?vid=bf968b92-5005-473b-891e-1cce1cc20ac2"},"vehicle_type_id":"4","last_reported":1753373576,"current_range_meters":6000,"station_id":"ce4bha12rcd13ifvqef0","pricing_plan_id":"cebpf4jnsgd1na2vs0mg"},{"bike_id":"aa5097b6-6968-4aec-b711-e7780938924b","system_id":"levelo_inurba_marseille","lat":43.32887,"lon":5.36081,"is_reserved":false,"is_disabled":false,"rental_uris":{"android":"levelo://app?vid=aa5097b6-6968-4aec-b711-e7780938924b","ios":"levelo://app?vid=aa5097b6-6968-4aec-b711-e7780938924b"},"vehicle_type_id":"4","last_reported":1753373576,"current_range_meters":6000,"station_id":"","pricing_plan_id":"cebpf4jnsgd1na2vs0mg"},{"bike_id":"f3e108f9-3913-4097-a512-bc8cca1325ed","system_id":"levelo_inurba_marseille","lat":43.30942,"lon":5.40137,"is_reserved":false,"is_disabled":false,"rental_uris":{"android":"levelo://app?vid=f3e108f9-3913-4097-a512-bc8cca1325ed","ios":"levelo://app?vid=f3e108f9-3913-4097-a512-bc8cca1325ed"},"vehicle_type_id":"4","last_reported":1753373576,"current_range_meters":6400,"station_id":"ce4bgvp2rcd13ifvqct0","pricing_plan_id":"cebpf4jnsgd1na2vs0mg"},{"bike_id":"a8dba003-01a9-4676-b5a5-a3670a777ca4","system_id":"levelo_inurba_marseille","lat":43.28572,"lon":5.39494,"is_reserved":false,"is_disabled":false,"rental_uris":{"android":"levelo://app?vid=a8dba003-01a9-4676-b5a5-a3670a777ca4","ios":"levelo://app?vid=a8dba003-01a9-4676-b5a5-a3670a777ca4"},"vehicle_type_id":"4","last_reported":1753373576,"current_range_meters":6000,"station_id":"ce4bh292rcd13ifvqdg0","pricing_plan_id":"cebpf4jnsgd1na2vs0mg"},{"bike_id":"457a3402-7099-44b3-9bd7-4697a600e7b3","system_id":"levelo_inurba_marseille","lat":43.29786,"lon":5.37104,"is_reserved":false,"is_disabled":false,"rental_uris":{"android":"levelo://app?vid=457a3402-7099-44b3-9bd7-4697a600e7b3","ios":"levelo://app?vid=457a3402-7099-44b3-9bd7-4697a600e7b3"},"vehicle_type_id":"4","last_reported":1753373576,"current_range_meters":6400,"station_id":"ce4bgop2rcd13ifvqc1g","pricing_plan_id":"cebpf4jnsgd1na2vs0mg"},{"bike_id":"41285c58-4e2d-4617-9d2f-f28a5704bea9","system_id":"levelo_inurba_marseille","lat":43.2941,"lon":5.37389,"is_reserved":false,"is_disabled":false,"rental_uris":{"android":"levelo://app?vid=41285c58-4e2d-4617-9d2f-f28a5704bea9","ios":"levelo://app?vid=41285c58-4e2d-4617-9d2f-f28a5704bea9"},"vehicle_type_id":"4","last_reported":1753373576,"current_range_meters":6800,"station_id":"ce4bgkp2rcd13ifvqbmg","pricing_plan_id":"cebpf4jnsgd1na2vs0mg"},{"bike_id":"99c1ff47-7e3d-43fc-bfee-d043ed09c83a","system_id":"levelo_inurba_marseille","lat":43.29615,"lon":5.37714,"is_reserved":false,"is_disabled":false,"rental_uris":{"android":"levelo://app?vid=99c1ff47-7e3d-43fc-bfee-d043ed09c83a","ios":"levelo://app?vid=99c1ff47-7e3d-43fc-bfee-d043ed09c83a"},"vehicle_type_id":"4","last_reported":1753373576,"current_range_meters":6800,"station_id":"ce4bgi92rcd13ifvqb90","pricing_plan_id":"cebpf4jnsgd1na2vs0mg"},{"bike_id":"de64d7ef-f7c3-4280-956d-020b461c9ddf","system_id":"levelo_inurba_marseille","lat":43.27565,"lon":5.38408,"is_reserved":false,"is_disabled":false,"rental_uris":{"android":"levelo://app?vid=de64d7ef-f7c3-4280-956d-020b461c9ddf","ios":"levelo://app?vid=de64d7ef-f7c3-4280-956d-020b461c9ddf"},"vehicle_type_id":"4","last_reported":1753373576,"current_range_meters":6800,"station_id":"ce4bhh92rcd13ifvqfi0","pricing_plan_id":"cebpf4jnsgd1na2vs0mg"},{"bike_id":"c0ecd8c8-599f-4ded-b6f4-d0cb59f3531e","system_id":"levelo_inurba_marseille","lat":43.29932,"lon":5.37466,"is_reserved":false,"is_disabled":false,"rental_uris":{"android":"levelo://app?vid=c0ecd8c8-599f-4ded-b6f4-d0cb59f3531e","ios":"levelo://app?vid=c0ecd8c8-599f-4ded-b6f4-d0cb59f3531e"},"vehicle_type_id":"4","last_reported":1753373576,"current_range_meters":6800,"station_id":"ce4bgjh2rcd13ifvqbg0","pricing_plan_id":"cebpf4jnsgd1na2vs0mg"},{"bike_id":"c5972101-8530-487c-987b-34676433c9e6","system_id":"levelo_inurba_marseille","lat":43.28696,"lon":5.39986,"is_reserved":false,"is_disabled":false,"rental_uris":{"android":"levelo://app?vid=c5972101-8530-487c-987b-34676433c9e6","ios":"levelo://app?vid=c5972101-8530-487c-987b-34676433c9e6"},"vehicle_type_id":"4","last_reported":1753373576,"current_range_meters":6400,"station_id":"ce4bho92rcd13ifvqh3g","pricing_plan_id":"cebpf4jnsgd1na2vs0mg"},{"bike_id":"3b238064-c80a-479d-af5c-029b097362eb","system_id":"levelo_inurba_marseille","lat":43.27307,"lon":5.39232,"is_reserved":false,"is_disabled":false,"rental_uris":{"android":"levelo://app?vid=3b238064-c80a-479d-af5c-029b097362eb","ios":"levelo://app?vid=3b238064-c80a-479d-af5c-029b097362eb"},"vehicle_type_id":"4","last_reported":1753373576,"current_range_meters":6800,"station_id":"ce4bhgp2rcd13ifvqfc0","pricing_plan_id":"cebpf4jnsgd1na2vs0mg"},{"bike_id":"54093107-debc-40b1-8d62-415bf8bb385c","system_id":"levelo_inurba_marseille","lat":43.26949,"lon":5.386,"is_reserved":false,"is_disabled":false,"rental_uris":{"android":"levelo://app?vid=54093107-debc-40b1-8d62-415bf8bb385c","ios":"levelo://app?vid=54093107-debc-40b1-8d62-415bf8bb385c"},"vehicle_type_id":"4","last_reported":1753373576,"current_range_meters":4800,"station_id":"ce4bhh92rcd13ifvqfh0","pricing_plan_id":"cebpf4jnsgd1na2vs0mg"},{"bike_id":"da5a7555-a7f5-49d8-97b5-4f66f0755b09","system_id":"levelo_inurba_marseille","lat":43.30304,"lon":5.39201,"is_reserved":false,"is_disabled":false,"rental_uris":{"android":"levelo://app?vid=da5a7555-a7f5-49d8-97b5-4f66f0755b09","ios":"levelo://app?vid=da5a7555-a7f5-49d8-97b5-4f66f0755b09"},"vehicle_type_id":"4","last_reported":1753373576,"current_range_meters":7200,"station_id":"ce4bgkh2rcd13ifvqbk0","pricing_plan_id":"cebpf4jnsgd1na2vs0mg"},{"bike_id":"8a28f266-9442-4bbe-beda-788924ec328b","system_id":"levelo_inurba_marseille","lat":43.29297,"lon":5.37467,"is_reserved":false,"is_disabled":false,"rental_uris":{"android":"levelo://app?vid=8a28f266-9442-4bbe-beda-788924ec328b","ios":"levelo://app?vid=8a28f266-9442-4bbe-beda-788924ec328b"},"vehicle_type_id":"4","last_reported":1753373576,"current_range_meters":7200,"station_id":"ce4bgi12rcd13ifvqb70","pricing_plan_id":"cebpf4jnsgd1na2vs0mg"},{"bike_id":"895e1a11-3ede-483d-8d1a-e83ad331feaa","system_id":"levelo_inurba_marseille","lat":43.25493,"lon":5.37647,"is_reserved":false,"is_disabled":false,"rental_uris":{"android":"levelo://app?vid=895e1a11-3ede-483d-8d1a-e83ad331feaa","ios":"levelo://app?vid=895e1a11-3ede-483d-8d1a-e83ad331feaa"},"vehicle_type_id":"4","last_reported":1753373576,"current_range_meters":7200,"station_id":"ce4bhh12rcd13ifvqff0","pricing_plan_id":"cebpf4jnsgd1na2vs0mg"},{"bike_id":"da053e6a-15f2-492e-8bc1-42b1d66cc329","system_id":"levelo_inurba_marseille","lat":43.28367,"lon":5.43211,"is_reserved":false,"is_disabled":false,"rental_uris":{"android":"levelo://app?vid=da053e6a-15f2-492e-8bc1-42b1d66cc329","ios":"levelo://app?vid=da053e6a-15f2-492e-8bc1-42b1d66cc329"},"vehicle_type_id":"4","last_reported":1753373576,"current_range_meters":8000,"station_id":"","pricing_plan_id":"cebpf4jnsgd1na2vs0mg"},{"bike_id":"5fd88518-0ded-45cc-adab-b426e5fee01a","system_id":"levelo_inurba_marseille","lat":43.32362,"lon":5.3888,"is_reserved":false,"is_disabled":false,"rental_uris":{"android":"levelo://app?vid=5fd88518-0ded-45cc-adab-b426e5fee01a","ios":"levelo://app?vid=5fd88518-0ded-45cc-adab-b426e5fee01a"},"vehicle_type_id":"4","last_reported":1753373576,"current_range_meters":8000,"station_id":"ce4bhqp2rcd13ifvqhog","pricing_plan_id":"cebpf4jnsgd1na2vs0mg"},{"bike_id":"d869bd05-b6a8-474a-ae75-dea7f9b3f6de","system_id":"levelo_inurba_marseille","lat":43.279127,"lon":5.412113,"is_reserved":false,"is_disabled":false,"rental_uris":{"android":"levelo://app?vid=d869bd05-b6a8-474a-ae75-dea7f9b3f6de","ios":"levelo://app?vid=d869bd05-b6a8-474a-ae75-dea7f9b3f6de"},"vehicle_type_id":"4","last_reported":1753373576,"current_range_meters":8000,"station_id":"","pricing_plan_id":"cebpf4jnsgd1na2vs0mg"},{"bike_id":"68138c0e-a4cd-4250-9158-8242d7f28af1","system_id":"levelo_inurba_marseille","lat":43.29634,"lon":5.40597,"is_reserved":false,"is_disabled":false,"rental_uris":{"android":"levelo://app?vid=68138c0e-a4cd-4250-9158-8242d7f28af1","ios":"levelo://app?vid=68138c0e-a4cd-4250-9158-8242d7f28af1"},"vehicle_type_id":"4","last_reported":1753373576,"current_range_meters":8400,"station_id":"ce4bh0h2rcd13ifvqd60","pricing_plan_id":"cebpf4jnsgd1na2vs0mg"},{"bike_id":"b26298b6-f9ea-46f7-8f45-5323ebae5b77","system_id":"levelo_inurba_marseille","lat":43.30644,"lon":5.40093,"is_reserved":false,"is_disabled":false,"rental_uris":{"android":"levelo://app?vid=b26298b6-f9ea-46f7-8f45-5323ebae5b77","ios":"levelo://app?vid=b26298b6-f9ea-46f7-8f45-5323ebae5b77"},"vehicle_type_id":"4","last_reported":1753373576,"current_range_meters":8400,"station_id":"ce4bh112rcd13ifvqda0","pricing_plan_id":"cebpf4jnsgd1na2vs0mg"},{"bike_id":"6d63d13c-cc74-47ee-b0e5-2ef7deaa488c","system_id":"levelo_inurba_marseille","lat":43.31489,"lon":5.3731,"is_reserved":false,"is_disabled":false,"rental_uris":{"android":"levelo://app?vid=6d63d13c-cc74-47ee-b0e5-2ef7deaa488c","ios":"levelo://app?vid=6d63d13c-cc74-47ee-b0e5-2ef7deaa488c"},"vehicle_type_id":"4","last_reported":1753373576,"current_range_meters":8400,"station_id":"ce4bgt12rcd13ifvqcd0","pricing_plan_id":"cebpf4jnsgd1na2vs0mg"},{"bike_id":"bc18a05c-4b38-420e-adca-bc42d86f6006","system_id":"levelo_inurba_marseille","lat":43.31282,"lon":5.40165,"is_reserved":false,"is_disabled":false,"rental_uris":{"android":"levelo://app?vid=bc18a05c-4b38-420e-adca-bc42d86f6006","ios":"levelo://app?vid=bc18a05c-4b38-420e-adca-bc42d86f6006"},"vehicle_type_id":"4","last_reported":1753373576,"current_range_meters":8400,"station_id":"ce4bh092rcd13ifvqd30","pricing_plan_id":"cebpf4jnsgd1na2vs0mg"},{"bike_id":"e8c03e79-7a9b-48c7-b347-52a5e1703aa1","system_id":"levelo_inurba_marseille","lat":43.26886,"lon":5.40294,"is_reserved":false,"is_disabled":false,"rental_uris":{"android":"levelo://app?vid=e8c03e79-7a9b-48c7-b347-52a5e1703aa1","ios":"levelo://app?vid=e8c03e79-7a9b-48c7-b347-52a5e1703aa1"},"vehicle_type_id":"4","last_reported":1753373576,"current_range_meters":8400,"station_id":"","pricing_plan_id":"cebpf4jnsgd1na2vs0mg"},{"bike_id":"5960460b-2372-4c0f-9d40-cb8319eaa879","system_id":"levelo_inurba_marseille","lat":43.29375,"lon":5.37848,"is_reserved":false,"is_disabled":false,"rental_uris":{"android":"levelo://app?vid=5960460b-2372-4c0f-9d40-cb8319eaa879","ios":"levelo://app?vid=5960460b-2372-4c0f-9d40-cb8319eaa879"},"vehicle_type_id":"4","last_reported":1753373576,"current_range_meters":8400,"station_id":"ce4bgjh2rcd13ifvqbf0","pricing_plan_id":"cebpf4jnsgd1na2vs0mg"},{"bike_id":"20d0565f-9b0d-4a20-9a05-26b2f55e6362","system_id":"levelo_inurba_marseille","lat":43.24172,"lon":5.36395,"is_reserved":false,"is_disabled":false,"rental_uris":{"android":"levelo://app?vid=20d0565f-9b0d-4a20-9a05-26b2f55e6362","ios":"levelo://app?vid=20d0565f-9b0d-4a20-9a05-26b2f55e6362"},"vehicle_type_id":"4","last_reported":1753373576,"current_range_meters":8800,"station_id":"","pricing_plan_id":"cebpf4jnsgd1na2vs0mg"},{"bike_id":"e0f4556b-1525-4eff-ac19-a1270436371d","system_id":"levelo_inurba_marseille","lat":43.27848,"lon":5.39761,"is_reserved":false,"is_disabled":false,"rental_uris":{"android":"levelo://app?vid=e0f4556b-1525-4eff-ac19-a1270436371d","ios":"levelo://app?vid=e0f4556b-1525-4eff-ac19-a1270436371d"},"vehicle_type_id":"4","last_reported":1753373576,"current_range_meters":8800,"station_id":"","pricing_plan_id":"cebpf4jnsgd1na2vs0mg"},{"bike_id":"e6ce45a2-acc7-459e-a7f3-ebfa640b027b","system_id":"levelo_inurba_marseille","lat":43.29929,"lon":5.37473,"is_reserved":false,"is_disabled":false,"rental_uris":{"android":"levelo://app?vid=e6ce45a2-acc7-459e-a7f3-ebfa640b027b","ios":"levelo://app?vid=e6ce45a2-acc7-459e-a7f3-ebfa640b027b"},"vehicle_type_id":"4","last_reported":1753373576,"current_range_meters":8400,"station_id":"ce4bgjh2rcd13ifvqbg0","pricing_plan_id":"cebpf4jnsgd1na2vs0mg"},{"bike_id":"dec93502-9771-4f3a-879a-cbdfb860df89","system_id":"levelo_inurba_marseille","lat":43.27662,"lon":5.38368,"is_reserved":false,"is_disabled":false,"rental_uris":{"android":"levelo://app?vid=dec93502-9771-4f3a-879a-cbdfb860df89","ios":"levelo://app?vid=dec93502-9771-4f3a-879a-cbdfb860df89"},"vehicle_type_id":"4","last_reported":1753373576,"current_range_meters":8800,"station_id":"","pricing_plan_id":"cebpf4jnsgd1na2vs0mg"},{"bike_id":"7b7524ae-8ecd-499f-93b7-a6de3bab91d4","system_id":"levelo_inurba_marseille","lat":43.29917,"lon":5.43677,"is_reserved":false,"is_disabled":false,"rental_uris":{"android":"levelo://app?vid=7b7524ae-8ecd-499f-93b7-a6de3bab91d4","ios":"levelo://app?vid=7b7524ae-8ecd-499f-93b7-a6de3bab91d4"},"vehicle_type_id":"4","last_reported":1753373576,"current_range_meters":8800,"station_id":"","pricing_plan_id":"cebpf4jnsgd1na2vs0mg"},{"bike_id":"3c9a7dea-72b9-49e2-b48a-87c6f7542f30","system_id":"levelo_inurba_marseille","lat":43.27378,"lon":5.36256,"is_reserved":false,"is_disabled":false,"rental_uris":{"android":"levelo://app?vid=3c9a7dea-72b9-49e2-b48a-87c6f7542f30","ios":"levelo://app?vid=3c9a7dea-72b9-49e2-b48a-87c6f7542f30"},"vehicle_type_id":"4","last_reported":1753373576,"current_range_meters":8800,"station_id":"ce4bhbh2rcd13ifvqeo0","pricing_plan_id":"cebpf4jnsgd1na2vs0mg"},{"bike_id":"1be76234-7dfc-46a9-99af-dd3d406fa12e","system_id":"levelo_inurba_marseille","lat":43.29196,"lon":5.35798,"is_reserved":false,"is_disabled":false,"rental_uris":{"android":"levelo://app?vid=1be76234-7dfc-46a9-99af-dd3d406fa12e","ios":"levelo://app?vid=1be76234-7dfc-46a9-99af-dd3d406fa12e"},"vehicle_type_id":"4","last_reported":1753373576,"current_range_meters":8800,"station_id":"ce4bhb12rcd13ifvqel0","pricing_plan_id":"cebpf4jnsgd1na2vs0mg"},{"bike_id":"2d588fe3-c1e3-445e-a276-3eb9dfb9b3ab","system_id":"levelo_inurba_marseille","lat":43.304331,"lon":5.38889,"is_reserved":false,"is_disabled":false,"rental_uris":{"android":"levelo://app?vid=2d588fe3-c1e3-445e-a276-3eb9dfb9b3ab","ios":"levelo://app?vid=2d588fe3-c1e3-445e-a276-3eb9dfb9b3ab"},"vehicle_type_id":"4","last_reported":1753373576,"current_range_meters":9200,"station_id":"ce4bgk12rcd13ifvqbi0","pricing_plan_id":"cebpf4jnsgd1na2vs0mg"},{"bike_id":"ad569f8b-fe9f-4fa5-881c-0509aa2f3190","system_id":"levelo_inurba_marseille","lat":43.29849,"lon":5.36273,"is_reserved":false,"is_disabled":false,"rental_uris":{"android":"levelo://app?vid=ad569f8b-fe9f-4fa5-881c-0509aa2f3190","ios":"levelo://app?vid=ad569f8b-fe9f-4fa5-881c-0509aa2f3190"},"vehicle_type_id":"4","last_reported":1753373576,"current_range_meters":9200,"station_id":"ce4bgpp2rcd13ifvqc3g","pricing_plan_id":"cebpf4jnsgd1na2vs0mg"},{"bike_id":"b15e348e-ab39-4f05-a999-219818f9d552","system_id":"levelo_inurba_marseille","lat":43.29583,"lon":5.36748,"is_reserved":false,"is_disabled":false,"rental_uris":{"android":"levelo://app?vid=b15e348e-ab39-4f05-a999-219818f9d552","ios":"levelo://app?vid=b15e348e-ab39-4f05-a999-219818f9d552"},"vehicle_type_id":"4","last_reported":1753373576,"current_range_meters":9200,"station_id":"ce4bgph2rcd13ifvqc2g","pricing_plan_id":"cebpf4jnsgd1na2vs0mg"},{"bike_id":"b982e5a3-88f5-4403-a53a-38d90073ed80","system_id":"levelo_inurba_marseille","lat":43.29428,"lon":5.43217,"is_reserved":false,"is_disabled":false,"rental_uris":{"android":"levelo://app?vid=b982e5a3-88f5-4403-a53a-38d90073ed80","ios":"levelo://app?vid=b982e5a3-88f5-4403-a53a-38d90073ed80"},"vehicle_type_id":"4","last_reported":1753373576,"current_range_meters":9200,"station_id":"","pricing_plan_id":"cebpf4jnsgd1na2vs0mg"},{"bike_id":"104e4142-9473-40e9-8125-7018ac695e8a","system_id":"levelo_inurba_marseille","lat":43.26067,"lon":5.39393,"is_reserved":false,"is_disabled":false,"rental_uris":{"android":"levelo://app?vid=104e4142-9473-40e9-8125-7018ac695e8a","ios":"levelo://app?vid=104e4142-9473-40e9-8125-7018ac695e8a"},"vehicle_type_id":"4","last_reported":1753373576,"current_range_meters":9200,"station_id":"ce4bhh92rcd13ifvqfj0","pricing_plan_id":"cebpf4jnsgd1na2vs0mg"},{"bike_id":"050eeecb-9998-4480-9aef-48d898f7cbe5","system_id":"levelo_inurba_marseille","lat":43.29786,"lon":5.38089,"is_reserved":false,"is_disabled":false,"rental_uris":{"android":"levelo://app?vid=050eeecb-9998-4480-9aef-48d898f7cbe5","ios":"levelo://app?vid=050eeecb-9998-4480-9aef-48d898f7cbe5"},"vehicle_type_id":"4","last_reported":1753373576,"current_range_meters":8800,"station_id":"ce4bgip2rcd13ifvqbb0","pricing_plan_id":"cebpf4jnsgd1na2vs0mg"},{"bike_id":"996825bc-8d6e-4bda-992e-aebd673d09cd","system_id":"levelo_inurba_marseille","lat":43.23206,"lon":5.35548,"is_reserved":false,"is_disabled":false,"rental_uris":{"android":"levelo://app?vid=996825bc-8d6e-4bda-992e-aebd673d09cd","ios":"levelo://app?vid=996825bc-8d6e-4bda-992e-aebd673d09cd"},"vehicle_type_id":"4","last_reported":1753373576,"current_range_meters":9200,"station_id":"ce4bhu92rcd13ifvqi70","pricing_plan_id":"cebpf4jnsgd1na2vs0mg"},{"bike_id":"bef04e39-ec8a-4a5e-8dcc-6963bb980117","system_id":"levelo_inurba_marseille","lat":43.29029,"lon":5.38635,"is_reserved":false,"is_disabled":false,"rental_uris":{"android":"levelo://app?vid=bef04e39-ec8a-4a5e-8dcc-6963bb980117","ios":"levelo://app?vid=bef04e39-ec8a-4a5e-8dcc-6963bb980117"},"vehicle_type_id":"4","last_reported":1753373576,"current_range_meters":8800,"station_id":"ce4bh4p2rcd13ifvqe0g","pricing_plan_id":"cebpf4jnsgd1na2vs0mg"},{"bike_id":"9f3ce0fb-8f76-4574-a446-7e3099cfdbfb","system_id":"levelo_inurba_marseille","lat":43.33024,"lon":5.39043,"is_reserved":false,"is_disabled":false,"rental_uris":{"android":"levelo://app?vid=9f3ce0fb-8f76-4574-a446-7e3099cfdbfb","ios":"levelo://app?vid=9f3ce0fb-8f76-4574-a446-7e3099cfdbfb"},"vehicle_type_id":"4","last_reported":1753373576,"current_range_meters":9200,"station_id":"ce4bhr92rcd13ifvqhrg","pricing_plan_id":"cebpf4jnsgd1na2vs0mg"},{"bike_id":"bbc2b271-396f-4875-9f1d-0fcc163d87b6","system_id":"levelo_inurba_marseille","lat":43.290766,"lon":5.398861,"is_reserved":false,"is_disabled":false,"rental_uris":{"android":"levelo://app?vid=bbc2b271-396f-4875-9f1d-0fcc163d87b6","ios":"levelo://app?vid=bbc2b271-396f-4875-9f1d-0fcc163d87b6"},"vehicle_type_id":"4","last_reported":1753373576,"current_range_meters":9600,"station_id":"","pricing_plan_id":"cebpf4jnsgd1na2vs0mg"},{"bike_id":"758a78af-f3f5-46fa-89ec-c3951ab02b40","system_id":"levelo_inurba_marseille","lat":43.30915,"lon":5.36841,"is_reserved":false,"is_disabled":false,"rental_uris":{"android":"levelo://app?vid=758a78af-f3f5-46fa-89ec-c3951ab02b40","ios":"levelo://app?vid=758a78af-f3f5-46fa-89ec-c3951ab02b40"},"vehicle_type_id":"4","last_reported":1753373576,"current_range_meters":9600,"station_id":"ce4bgn92rcd13ifvqbvg","pricing_plan_id":"cebpf4jnsgd1na2vs0mg"},{"bike_id":"f3217e35-0bb5-43ab-beb0-dd5e233a7114","system_id":"levelo_inurba_marseille","lat":43.25578,"lon":5.382244,"is_reserved":false,"is_disabled":true,"rental_uris":{"android":"levelo://app?vid=f3217e35-0bb5-43ab-beb0-dd5e233a7114","ios":"levelo://app?vid=f3217e35-0bb5-43ab-beb0-dd5e233a7114"},"vehicle_type_id":"4","last_reported":1753373576,"current_range_meters":9600,"station_id":"ce4bhih2rcd13ifvqfs0","pricing_plan_id":"cebpf4jnsgd1na2vs0mg"},{"bike_id":"7250624a-63df-4e44-9e5a-1056e5f8a90f","system_id":"levelo_inurba_marseille","lat":43.29553,"lon":5.40675,"is_reserved":false,"is_disabled":false,"rental_uris":{"android":"levelo://app?vid=7250624a-63df-4e44-9e5a-1056e5f8a90f","ios":"levelo://app?vid=7250624a-63df-4e44-9e5a-1056e5f8a90f"},"vehicle_type_id":"4","last_reported":1753373576,"current_range_meters":9600,"station_id":"","pricing_plan_id":"cebpf4jnsgd1na2vs0mg"},{"bike_id":"fe5ee126-0973-4532-958f-0bba46557fdc","system_id":"levelo_inurba_marseille","lat":43.27994,"lon":5.4001,"is_reserved":false,"is_disabled":false,"rental_uris":{"android":"levelo://app?vid=fe5ee126-0973-4532-958f-0bba46557fdc","ios":"levelo://app?vid=fe5ee126-0973-4532-958f-0bba46557fdc"},"vehicle_type_id":"4","last_reported":1753373576,"current_range_meters":9600,"station_id":"ce4bho92rcd13ifvqh4g","pricing_plan_id":"cebpf4jnsgd1na2vs0mg"},{"bike_id":"bc3b7285-bb1c-40f8-a0c9-a54bd854fee0","system_id":"levelo_inurba_marseille","lat":43.29687,"lon":5.37294,"is_reserved":false,"is_disabled":false,"rental_uris":{"android":"levelo://app?vid=bc3b7285-bb1c-40f8-a0c9-a54bd854fee0","ios":"levelo://app?vid=bc3b7285-bb1c-40f8-a0c9-a54bd854fee0"},"vehicle_type_id":"4","last_reported":1753373576,"current_range_meters":9600,"station_id":"ce4bgk12rcd13ifvqbj0","pricing_plan_id":"cebpf4jnsgd1na2vs0mg"},{"bike_id":"37bb2c50-80ed-47a2-a566-141e60e01cae","system_id":"levelo_inurba_marseille","lat":43.30526,"lon":5.36699,"is_reserved":false,"is_disabled":false,"rental_uris":{"android":"levelo://app?vid=37bb2c50-80ed-47a2-a566-141e60e01cae","ios":"levelo://app?vid=37bb2c50-80ed-47a2-a566-141e60e01cae"},"vehicle_type_id":"4","last_reported":1753373576,"current_range_meters":9600,"station_id":"ce4bgrp2rcd13ifvqc9g","pricing_plan_id":"cebpf4jnsgd1na2vs0mg"},{"bike_id":"70e328ea-76c5-42ed-9cf4-e9804143ad3e","system_id":"levelo_inurba_marseille","lat":43.29842,"lon":5.36274,"is_reserved":false,"is_disabled":false,"rental_uris":{"android":"levelo://app?vid=70e328ea-76c5-42ed-9cf4-e9804143ad3e","ios":"levelo://app?vid=70e328ea-76c5-42ed-9cf4-e9804143ad3e"},"vehicle_type_id":"4","last_reported":1753373576,"current_range_meters":10000,"station_id":"ce4bgpp2rcd13ifvqc3g","pricing_plan_id":"cebpf4jnsgd1na2vs0mg"},{"bike_id":"8476377b-de90-4770-89b0-5561019c50fb","system_id":"levelo_inurba_marseille","lat":43.28667,"lon":5.38651,"is_reserved":false,"is_disabled":false,"rental_uris":{"android":"levelo://app?vid=8476377b-de90-4770-89b0-5561019c50fb","ios":"levelo://app?vid=8476377b-de90-4770-89b0-5561019c50fb"},"vehicle_type_id":"4","last_reported":1753373576,"current_range_meters":10000,"station_id":"ce4bh492rcd13ifvqdug","pricing_plan_id":"cebpf4jnsgd1na2vs0mg"},{"bike_id":"b5ce8d93-17c0-45a5-b2b1-eefce45c2d79","system_id":"levelo_inurba_marseille","lat":43.31887,"lon":5.43569,"is_reserved":false,"is_disabled":false,"rental_uris":{"android":"levelo://app?vid=b5ce8d93-17c0-45a5-b2b1-eefce45c2d79","ios":"levelo://app?vid=b5ce8d93-17c0-45a5-b2b1-eefce45c2d79"},"vehicle_type_id":"4","last_reported":1753373576,"current_range_meters":10000,"station_id":"","pricing_plan_id":"cebpf4jnsgd1na2vs0mg"},{"bike_id":"06667231-9491-402b-a9ce-661f9818def9","system_id":"levelo_inurba_marseille","lat":43.232143,"lon":5.35572,"is_reserved":false,"is_disabled":true,"rental_uris":{"android":"levelo://app?vid=06667231-9491-402b-a9ce-661f9818def9","ios":"levelo://app?vid=06667231-9491-402b-a9ce-661f9818def9"},"vehicle_type_id":"4","last_reported":1753373576,"current_range_meters":10000,"station_id":"ce4bhu92rcd13ifvqi70","pricing_plan_id":"cebpf4jnsgd1na2vs0mg"},{"bike_id":"98d81ccc-d5a8-49fb-be26-1aa0d7cea6bd","system_id":"levelo_inurba_marseille","lat":43.28642,"lon":5.35059,"is_reserved":false,"is_disabled":false,"rental_uris":{"android":"levelo://app?vid=98d81ccc-d5a8-49fb-be26-1aa0d7cea6bd","ios":"levelo://app?vid=98d81ccc-d5a8-49fb-be26-1aa0d7cea6bd"},"vehicle_type_id":"4","last_reported":1753373576,"current_range_meters":10000,"station_id":"ce4bhch2rcd13ifvqeug","pricing_plan_id":"cebpf4jnsgd1na2vs0mg"},{"bike_id":"2ec55ee9-3c89-498b-8c25-0a9c0c02887a","system_id":"levelo_inurba_marseille","lat":43.26202,"lon":5.37935,"is_reserved":false,"is_disabled":false,"rental_uris":{"android":"levelo://app?vid=2ec55ee9-3c89-498b-8c25-0a9c0c02887a","ios":"levelo://app?vid=2ec55ee9-3c89-498b-8c25-0a9c0c02887a"},"vehicle_type_id":"4","last_reported":1753373576,"current_range_meters":10800,"station_id":"ce4bhjp2rcd13ifvqg90","pricing_plan_id":"cebpf4jnsgd1na2vs0mg"},{"bike_id":"5c52a68d-0d67-40aa-a5c4-7c2afce6fef8","system_id":"levelo_inurba_marseille","lat":43.29878,"lon":5.39735,"is_reserved":false,"is_disabled":false,"rental_uris":{"android":"levelo://app?vid=5c52a68d-0d67-40aa-a5c4-7c2afce6fef8","ios":"levelo://app?vid=5c52a68d-0d67-40aa-a5c4-7c2afce6fef8"},"vehicle_type_id":"4","last_reported":1753373576,"current_range_meters":10800,"station_id":"ce4bh0h2rcd13ifvqd50","pricing_plan_id":"cebpf4jnsgd1na2vs0mg"},{"bike_id":"e6abe674-1656-4672-b471-30d1dd3011e1","system_id":"levelo_inurba_marseille","lat":43.28723,"lon":5.361,"is_reserved":false,"is_disabled":false,"rental_uris":{"android":"levelo://app?vid=e6abe674-1656-4672-b471-30d1dd3011e1","ios":"levelo://app?vid=e6abe674-1656-4672-b471-30d1dd3011e1"},"vehicle_type_id":"4","last_reported":1753373576,"current_range_meters":10800,"station_id":"cki0cbj6b192h4jlfktg","pricing_plan_id":"cebpf4jnsgd1na2vs0mg"},{"bike_id":"ee3e62c3-77ca-4e8a-9a18-b6dda1dfdf78","system_id":"levelo_inurba_marseille","lat":43.282715,"lon":5.350601,"is_reserved":false,"is_disabled":false,"rental_uris":{"android":"levelo://app?vid=ee3e62c3-77ca-4e8a-9a18-b6dda1dfdf78","ios":"levelo://app?vid=ee3e62c3-77ca-4e8a-9a18-b6dda1dfdf78"},"vehicle_type_id":"4","last_reported":1753373576,"current_range_meters":22000,"station_id":"ce4bhbp2rcd13ifvqerg","pricing_plan_id":"cebpf4jnsgd1na2vs0mg"},{"bike_id":"fbff8f0e-d0d6-4715-8692-f47546d626b9","system_id":"levelo_inurba_marseille","lat":43.288545,"lon":5.358527,"is_reserved":false,"is_disabled":false,"rental_uris":{"android":"levelo://app?vid=fbff8f0e-d0d6-4715-8692-f47546d626b9","ios":"levelo://app?vid=fbff8f0e-d0d6-4715-8692-f47546d626b9"},"vehicle_type_id":"4","last_reported":1753373576,"current_range_meters":10800,"station_id":"","pricing_plan_id":"cebpf4jnsgd1na2vs0mg"},{"bike_id":"099ce6e9-2eaf-4e18-81e9-8cac0bb8b329","system_id":"levelo_inurba_marseille","lat":43.293086,"lon":5.371815,"is_reserved":false,"is_disabled":false,"rental_uris":{"android":"levelo://app?vid=099ce6e9-2eaf-4e18-81e9-8cac0bb8b329","ios":"levelo://app?vid=099ce6e9-2eaf-4e18-81e9-8cac0bb8b329"},"vehicle_type_id":"4","last_reported":1753373576,"current_range_meters":10800,"station_id":"ce4bgh92rcd13ifvqb40","pricing_plan_id":"cebpf4jnsgd1na2vs0mg"},{"bike_id":"276a2451-1daf-4f46-abea-55fc341b9e1e","system_id":"levelo_inurba_marseille","lat":43.31093,"lon":5.4243,"is_reserved":false,"is_disabled":false,"rental_uris":{"android":"levelo://app?vid=276a2451-1daf-4f46-abea-55fc341b9e1e","ios":"levelo://app?vid=276a2451-1daf-4f46-abea-55fc341b9e1e"},"vehicle_type_id":"4","last_reported":1753373576,"current_range_meters":10800,"station_id":"ce4bhp92rcd13ifvqhag","pricing_plan_id":"cebpf4jnsgd1na2vs0mg"},{"bike_id":"dc6d8f25-1015-4e0b-9e05-112c71779f13","system_id":"levelo_inurba_marseille","lat":43.24391,"lon":5.37057,"is_reserved":false,"is_disabled":false,"rental_uris":{"android":"levelo://app?vid=dc6d8f25-1015-4e0b-9e05-112c71779f13","ios":"levelo://app?vid=dc6d8f25-1015-4e0b-9e05-112c71779f13"},"vehicle_type_id":"4","last_reported":1753373576,"current_range_meters":10000,"station_id":"ce4bhhh2rcd13ifvqfk0","pricing_plan_id":"cebpf4jnsgd1na2vs0mg"},{"bike_id":"b339e861-5662-4b90-b3e8-64fc1c9facfd","system_id":"levelo_inurba_marseille","lat":43.26806,"lon":5.40272,"is_reserved":false,"is_disabled":false,"rental_uris":{"android":"levelo://app?vid=b339e861-5662-4b90-b3e8-64fc1c9facfd","ios":"levelo://app?vid=b339e861-5662-4b90-b3e8-64fc1c9facfd"},"vehicle_type_id":"4","last_reported":1753373576,"current_range_meters":10800,"station_id":"ce501612rcd8frsf0b60","pricing_plan_id":"cebpf4jnsgd1na2vs0mg"},{"bike_id":"bcf17d33-a266-472f-9c2c-0ffb6a32fcd4","system_id":"levelo_inurba_marseille","lat":43.29281,"lon":5.4011,"is_reserved":false,"is_disabled":false,"rental_uris":{"android":"levelo://app?vid=bcf17d33-a266-472f-9c2c-0ffb6a32fcd4","ios":"levelo://app?vid=bcf17d33-a266-472f-9c2c-0ffb6a32fcd4"},"vehicle_type_id":"4","last_reported":1753373576,"current_range_meters":10800,"station_id":"ce4bh312rcd13ifvqdk0","pricing_plan_id":"cebpf4jnsgd1na2vs0mg"},{"bike_id":"27a75d8d-a43d-4fea-a876-5382ce8f9584","system_id":"levelo_inurba_marseille","lat":43.29796,"lon":5.3711,"is_reserved":false,"is_disabled":false,"rental_uris":{"android":"levelo://app?vid=27a75d8d-a43d-4fea-a876-5382ce8f9584","ios":"levelo://app?vid=27a75d8d-a43d-4fea-a876-5382ce8f9584"},"vehicle_type_id":"4","last_reported":1753373576,"current_range_meters":10800,"station_id":"ce4bgop2rcd13ifvqc1g","pricing_plan_id":"cebpf4jnsgd1na2vs0mg"},{"bike_id":"b95457be-7239-4811-aac2-c7b660e49f71","system_id":"levelo_inurba_marseille","lat":43.260659,"lon":5.394005,"is_reserved":false,"is_disabled":false,"rental_uris":{"android":"levelo://app?vid=b95457be-7239-4811-aac2-c7b660e49f71","ios":"levelo://app?vid=b95457be-7239-4811-aac2-c7b660e49f71"},"vehicle_type_id":"4","last_reported":1753373576,"current_range_meters":11200,"station_id":"ce4bhh92rcd13ifvqfj0","pricing_plan_id":"cebpf4jnsgd1na2vs0mg"},{"bike_id":"e97d0c3e-9006-4fa8-8ce2-0a65ceb526f0","system_id":"levelo_inurba_marseille","lat":43.27372,"lon":5.3626,"is_reserved":false,"is_disabled":false,"rental_uris":{"android":"levelo://app?vid=e97d0c3e-9006-4fa8-8ce2-0a65ceb526f0","ios":"levelo://app?vid=e97d0c3e-9006-4fa8-8ce2-0a65ceb526f0"},"vehicle_type_id":"4","last_reported":1753373576,"current_range_meters":11200,"station_id":"ce4bhbh2rcd13ifvqeo0","pricing_plan_id":"cebpf4jnsgd1na2vs0mg"},{"bike_id":"300a4756-01bd-4e0c-90d5-87daadcf6e14","system_id":"levelo_inurba_marseille","lat":43.290972,"lon":5.359105,"is_reserved":false,"is_disabled":true,"rental_uris":{"android":"levelo://app?vid=300a4756-01bd-4e0c-90d5-87daadcf6e14","ios":"levelo://app?vid=300a4756-01bd-4e0c-90d5-87daadcf6e14"},"vehicle_type_id":"4","last_reported":1753373576,"current_range_meters":11200,"station_id":"","pricing_plan_id":"cebpf4jnsgd1na2vs0mg"},{"bike_id":"ae131367-d818-44a0-9e1d-4aa65dcdb16a","system_id":"levelo_inurba_marseille","lat":43.27494,"lon":5.39651,"is_reserved":false,"is_disabled":false,"rental_uris":{"android":"levelo://app?vid=ae131367-d818-44a0-9e1d-4aa65dcdb16a","ios":"levelo://app?vid=ae131367-d818-44a0-9e1d-4aa65dcdb16a"},"vehicle_type_id":"4","last_reported":1753373576,"current_range_meters":11200,"station_id":"","pricing_plan_id":"cebpf4jnsgd1na2vs0mg"},{"bike_id":"3cd09fc8-9554-4236-8496-0931a7be09d1","system_id":"levelo_inurba_marseille","lat":43.21186,"lon":5.3506,"is_reserved":false,"is_disabled":false,"rental_uris":{"android":"levelo://app?vid=3cd09fc8-9554-4236-8496-0931a7be09d1","ios":"levelo://app?vid=3cd09fc8-9554-4236-8496-0931a7be09d1"},"vehicle_type_id":"4","last_reported":1753373576,"current_range_meters":11200,"station_id":"st_cvj6sg6p6f1abm77japg","pricing_plan_id":"cebpf4jnsgd1na2vs0mg"},{"bike_id":"d3910dc5-d05c-4613-b321-2428417a2b70","system_id":"levelo_inurba_marseille","lat":43.29807,"lon":5.40402,"is_reserved":false,"is_disabled":false,"rental_uris":{"android":"levelo://app?vid=d3910dc5-d05c-4613-b321-2428417a2b70","ios":"levelo://app?vid=d3910dc5-d05c-4613-b321-2428417a2b70"},"vehicle_type_id":"4","last_reported":1753373576,"current_range_meters":11200,"station_id":"ce4bh112rcd13ifvqd90","pricing_plan_id":"cebpf4jnsgd1na2vs0mg"},{"bike_id":"8e84bc89-0687-43f4-85da-f6485e49b39e","system_id":"levelo_inurba_marseille","lat":43.31329,"lon":5.39692,"is_reserved":false,"is_disabled":false,"rental_uris":{"android":"levelo://app?vid=8e84bc89-0687-43f4-85da-f6485e49b39e","ios":"levelo://app?vid=8e84bc89-0687-43f4-85da-f6485e49b39e"},"vehicle_type_id":"4","last_reported":1753373576,"current_range_meters":11200,"station_id":"ce4bgvp2rcd13ifvqcu0","pricing_plan_id":"cebpf4jnsgd1na2vs0mg"},{"bike_id":"6a79a396-2f47-4b1c-9dce-b0d5464f72e4","system_id":"levelo_inurba_marseille","lat":43.22912,"lon":5.35387,"is_reserved":false,"is_disabled":false,"rental_uris":{"android":"levelo://app?vid=6a79a396-2f47-4b1c-9dce-b0d5464f72e4","ios":"levelo://app?vid=6a79a396-2f47-4b1c-9dce-b0d5464f72e4"},"vehicle_type_id":"4","last_reported":1753373576,"current_range_meters":11200,"station_id":"cpo3532slgdg3j2ikp40","pricing_plan_id":"cebpf4jnsgd1na2vs0mg"},{"bike_id":"2ae83899-90fd-4b59-b691-4169c75aef1a","system_id":"levelo_inurba_marseille","lat":43.33787,"lon":5.37445,"is_reserved":false,"is_disabled":false,"rental_uris":{"android":"levelo://app?vid=2ae83899-90fd-4b59-b691-4169c75aef1a","ios":"levelo://app?vid=2ae83899-90fd-4b59-b691-4169c75aef1a"},"vehicle_type_id":"4","last_reported":1753373576,"current_range_meters":11200,"station_id":"","pricing_plan_id":"cebpf4jnsgd1na2vs0mg"},{"bike_id":"e2d6174f-602e-4392-9f3f-ea1f96f1515d","system_id":"levelo_inurba_marseille","lat":43.29563,"lon":5.37501,"is_reserved":false,"is_disabled":false,"rental_uris":{"android":"levelo://app?vid=e2d6174f-602e-4392-9f3f-ea1f96f1515d","ios":"levelo://app?vid=e2d6174f-602e-4392-9f3f-ea1f96f1515d"},"vehicle_type_id":"4","last_reported":1753373576,"current_range_meters":10800,"station_id":"ce4bgh92rcd13ifvqb50","pricing_plan_id":"cebpf4jnsgd1na2vs0mg"},{"bike_id":"29fea180-6178-4aa8-aded-c072a99b3b9d","system_id":"levelo_inurba_marseille","lat":43.28615,"lon":5.35099,"is_reserved":false,"is_disabled":false,"rental_uris":{"android":"levelo://app?vid=29fea180-6178-4aa8-aded-c072a99b3b9d","ios":"levelo://app?vid=29fea180-6178-4aa8-aded-c072a99b3b9d"},"vehicle_type_id":"4","last_reported":1753373576,"current_range_meters":11600,"station_id":"ce4bhch2rcd13ifvqeug","pricing_plan_id":"cebpf4jnsgd1na2vs0mg"},{"bike_id":"c3b7093a-c6fc-4872-a465-95918521be48","system_id":"levelo_inurba_marseille","lat":43.314986,"lon":5.373025,"is_reserved":false,"is_disabled":false,"rental_uris":{"android":"levelo://app?vid=c3b7093a-c6fc-4872-a465-95918521be48","ios":"levelo://app?vid=c3b7093a-c6fc-4872-a465-95918521be48"},"vehicle_type_id":"4","last_reported":1753373576,"current_range_meters":11600,"station_id":"ce4bgt12rcd13ifvqcd0","pricing_plan_id":"cebpf4jnsgd1na2vs0mg"},{"bike_id":"abd4e941-78d4-495e-a2c0-8e6e663c4703","system_id":"levelo_inurba_marseille","lat":43.28942,"lon":5.36409,"is_reserved":false,"is_disabled":false,"rental_uris":{"android":"levelo://app?vid=abd4e941-78d4-495e-a2c0-8e6e663c4703","ios":"levelo://app?vid=abd4e941-78d4-495e-a2c0-8e6e663c4703"},"vehicle_type_id":"4","last_reported":1753373576,"current_range_meters":11200,"station_id":"ce4bhc92rcd13ifvqetg","pricing_plan_id":"cebpf4jnsgd1na2vs0mg"},{"bike_id":"309d4060-ddf9-4a4e-ad61-5e0bda7766c8","system_id":"levelo_inurba_marseille","lat":43.29312,"lon":5.37179,"is_reserved":false,"is_disabled":false,"rental_uris":{"android":"levelo://app?vid=309d4060-ddf9-4a4e-ad61-5e0bda7766c8","ios":"levelo://app?vid=309d4060-ddf9-4a4e-ad61-5e0bda7766c8"},"vehicle_type_id":"4","last_reported":1753373576,"current_range_meters":11600,"station_id":"ce4bgh92rcd13ifvqb40","pricing_plan_id":"cebpf4jnsgd1na2vs0mg"},{"bike_id":"8515c3fc-bc6e-4171-bd9d-0b3e8793665d","system_id":"levelo_inurba_marseille","lat":43.30464,"lon":5.37903,"is_reserved":false,"is_disabled":false,"rental_uris":{"android":"levelo://app?vid=8515c3fc-bc6e-4171-bd9d-0b3e8793665d","ios":"levelo://app?vid=8515c3fc-bc6e-4171-bd9d-0b3e8793665d"},"vehicle_type_id":"4","last_reported":1753373576,"current_range_meters":11200,"station_id":"ce4bgup2rcd13ifvqcn0","pricing_plan_id":"cebpf4jnsgd1na2vs0mg"},{"bike_id":"2734adb0-28ba-4964-bda6-1fed8a054980","system_id":"levelo_inurba_marseille","lat":43.29787,"lon":5.39333,"is_reserved":false,"is_disabled":false,"rental_uris":{"android":"levelo://app?vid=2734adb0-28ba-4964-bda6-1fed8a054980","ios":"levelo://app?vid=2734adb0-28ba-4964-bda6-1fed8a054980"},"vehicle_type_id":"4","last_reported":1753373576,"current_range_meters":11600,"station_id":"chh1huq6cuj3fo74tm60","pricing_plan_id":"cebpf4jnsgd1na2vs0mg"},{"bike_id":"ce59a62d-17ec-416f-b54d-751bd3f6f3dd","system_id":"levelo_inurba_marseille","lat":43.27107,"lon":5.4225,"is_reserved":false,"is_disabled":false,"rental_uris":{"android":"levelo://app?vid=ce59a62d-17ec-416f-b54d-751bd3f6f3dd","ios":"levelo://app?vid=ce59a62d-17ec-416f-b54d-751bd3f6f3dd"},"vehicle_type_id":"4","last_reported":1753373576,"current_range_meters":11600,"station_id":"ce4bhk92rcd13ifvqgb0","pricing_plan_id":"cebpf4jnsgd1na2vs0mg"},{"bike_id":"b89d6267-55af-48a1-8887-3f0adc5ff195","system_id":"levelo_inurba_marseille","lat":43.301319,"lon":5.39874,"is_reserved":false,"is_disabled":false,"rental_uris":{"android":"levelo://app?vid=b89d6267-55af-48a1-8887-3f0adc5ff195","ios":"levelo://app?vid=b89d6267-55af-48a1-8887-3f0adc5ff195"},"vehicle_type_id":"4","last_reported":1753373576,"current_range_meters":11600,"station_id":"","pricing_plan_id":"cebpf4jnsgd1na2vs0mg"},{"bike_id":"2006d6ab-c619-4a15-b9f3-97c1160843f0","system_id":"levelo_inurba_marseille","lat":43.28167,"lon":5.36098,"is_reserved":false,"is_disabled":false,"rental_uris":{"android":"levelo://app?vid=2006d6ab-c619-4a15-b9f3-97c1160843f0","ios":"levelo://app?vid=2006d6ab-c619-4a15-b9f3-97c1160843f0"},"vehicle_type_id":"4","last_reported":1753373576,"current_range_meters":11600,"station_id":"","pricing_plan_id":"cebpf4jnsgd1na2vs0mg"},{"bike_id":"75921511-23bf-408f-9470-1062209789d6","system_id":"levelo_inurba_marseille","lat":43.25572,"lon":5.38189,"is_reserved":false,"is_disabled":false,"rental_uris":{"android":"levelo://app?vid=75921511-23bf-408f-9470-1062209789d6","ios":"levelo://app?vid=75921511-23bf-408f-9470-1062209789d6"},"vehicle_type_id":"4","last_reported":1753373576,"current_range_meters":12000,"station_id":"ce4bhih2rcd13ifvqfs0","pricing_plan_id":"cebpf4jnsgd1na2vs0mg"},{"bike_id":"5ac85406-65d0-4336-aa89-4b04b2e6689e","system_id":"levelo_inurba_marseille","lat":43.33259,"lon":5.41989,"is_reserved":false,"is_disabled":false,"rental_uris":{"android":"levelo://app?vid=5ac85406-65d0-4336-aa89-4b04b2e6689e","ios":"levelo://app?vid=5ac85406-65d0-4336-aa89-4b04b2e6689e"},"vehicle_type_id":"4","last_reported":1753373576,"current_range_meters":12000,"station_id":"","pricing_plan_id":"cebpf4jnsgd1na2vs0mg"},{"bike_id":"5d87b23a-c80e-4be9-94f1-23440a1312b0","system_id":"levelo_inurba_marseille","lat":43.28928,"lon":5.38396,"is_reserved":false,"is_disabled":false,"rental_uris":{"android":"levelo://app?vid=5d87b23a-c80e-4be9-94f1-23440a1312b0","ios":"levelo://app?vid=5d87b23a-c80e-4be9-94f1-23440a1312b0"},"vehicle_type_id":"4","last_reported":1753373576,"current_range_meters":11600,"station_id":"ce4bh612rcd13ifvqe6g","pricing_plan_id":"cebpf4jnsgd1na2vs0mg"},{"bike_id":"c056311f-78c9-4e18-8685-91c659ddb125","system_id":"levelo_inurba_marseille","lat":43.3161,"lon":5.38974,"is_reserved":false,"is_disabled":false,"rental_uris":{"android":"levelo://app?vid=c056311f-78c9-4e18-8685-91c659ddb125","ios":"levelo://app?vid=c056311f-78c9-4e18-8685-91c659ddb125"},"vehicle_type_id":"4","last_reported":1753373576,"current_range_meters":12000,"station_id":"","pricing_plan_id":"cebpf4jnsgd1na2vs0mg"},{"bike_id":"b38596bd-a4cc-44dd-88f9-0473e1e571c1","system_id":"levelo_inurba_marseille","lat":43.27376,"lon":5.36263,"is_reserved":false,"is_disabled":false,"rental_uris":{"android":"levelo://app?vid=b38596bd-a4cc-44dd-88f9-0473e1e571c1","ios":"levelo://app?vid=b38596bd-a4cc-44dd-88f9-0473e1e571c1"},"vehicle_type_id":"4","last_reported":1753373576,"current_range_meters":12000,"station_id":"ce4bhbh2rcd13ifvqeo0","pricing_plan_id":"cebpf4jnsgd1na2vs0mg"},{"bike_id":"effeb500-6e69-4888-a750-57ae7c962c80","system_id":"levelo_inurba_marseille","lat":43.3237,"lon":5.36728,"is_reserved":false,"is_disabled":false,"rental_uris":{"android":"levelo://app?vid=effeb500-6e69-4888-a750-57ae7c962c80","ios":"levelo://app?vid=effeb500-6e69-4888-a750-57ae7c962c80"},"vehicle_type_id":"4","last_reported":1753373576,"current_range_meters":12000,"station_id":"ce4bhsh2rcd13ifvqi2g","pricing_plan_id":"cebpf4jnsgd1na2vs0mg"},{"bike_id":"1b881d96-d774-4dbb-829f-75f4d935174c","system_id":"levelo_inurba_marseille","lat":43.21195,"lon":5.35068,"is_reserved":false,"is_disabled":false,"rental_uris":{"android":"levelo://app?vid=1b881d96-d774-4dbb-829f-75f4d935174c","ios":"levelo://app?vid=1b881d96-d774-4dbb-829f-75f4d935174c"},"vehicle_type_id":"4","last_reported":1753373576,"current_range_meters":12000,"station_id":"st_cvj6sg6p6f1abm77japg","pricing_plan_id":"cebpf4jnsgd1na2vs0mg"},{"bike_id":"3cc0439d-ec6e-4f4d-81f7-c12810a3cb13","system_id":"levelo_inurba_marseille","lat":43.29249,"lon":5.40905,"is_reserved":false,"is_disabled":false,"rental_uris":{"android":"levelo://app?vid=3cc0439d-ec6e-4f4d-81f7-c12810a3cb13","ios":"levelo://app?vid=3cc0439d-ec6e-4f4d-81f7-c12810a3cb13"},"vehicle_type_id":"4","last_reported":1753373576,"current_range_meters":12000,"station_id":"ce4bh192rcd13ifvqdc0","pricing_plan_id":"cebpf4jnsgd1na2vs0mg"},{"bike_id":"ea15574a-0d58-41cd-8e99-7fef95444123","system_id":"levelo_inurba_marseille","lat":43.301759,"lon":5.397886,"is_reserved":false,"is_disabled":false,"rental_uris":{"android":"levelo://app?vid=ea15574a-0d58-41cd-8e99-7fef95444123","ios":"levelo://app?vid=ea15574a-0d58-41cd-8e99-7fef95444123"},"vehicle_type_id":"4","last_reported":1753373576,"current_range_meters":12400,"station_id":"ce4bh0h2rcd13ifvqd40","pricing_plan_id":"cebpf4jnsgd1na2vs0mg"},{"bike_id":"6bb1f31c-9335-4f39-9585-31374a4775f9","system_id":"levelo_inurba_marseille","lat":43.325583,"lon":5.379059,"is_reserved":false,"is_disabled":false,"rental_uris":{"android":"levelo://app?vid=6bb1f31c-9335-4f39-9585-31374a4775f9","ios":"levelo://app?vid=6bb1f31c-9335-4f39-9585-31374a4775f9"},"vehicle_type_id":"4","last_reported":1753373576,"current_range_meters":12400,"station_id":"","pricing_plan_id":"cebpf4jnsgd1na2vs0mg"},{"bike_id":"e867a822-084a-47de-8930-284270ea9e10","system_id":"levelo_inurba_marseille","lat":43.31759,"lon":5.39011,"is_reserved":false,"is_disabled":false,"rental_uris":{"android":"levelo://app?vid=e867a822-084a-47de-8930-284270ea9e10","ios":"levelo://app?vid=e867a822-084a-47de-8930-284270ea9e10"},"vehicle_type_id":"4","last_reported":1753373576,"current_range_meters":12000,"station_id":"ce4bhqp2rcd13ifvqhng","pricing_plan_id":"cebpf4jnsgd1na2vs0mg"},{"bike_id":"6a95c831-81fc-4eff-8256-834e950cede6","system_id":"levelo_inurba_marseille","lat":43.26559,"lon":5.3729,"is_reserved":false,"is_disabled":false,"rental_uris":{"android":"levelo://app?vid=6a95c831-81fc-4eff-8256-834e950cede6","ios":"levelo://app?vid=6a95c831-81fc-4eff-8256-834e950cede6"},"vehicle_type_id":"4","last_reported":1753373576,"current_range_meters":12400,"station_id":"","pricing_plan_id":"cebpf4jnsgd1na2vs0mg"},{"bike_id":"e2c6973b-7ebe-4fc3-b3fb-5a97464b613f","system_id":"levelo_inurba_marseille","lat":43.29034,"lon":5.38647,"is_reserved":false,"is_disabled":false,"rental_uris":{"android":"levelo://app?vid=e2c6973b-7ebe-4fc3-b3fb-5a97464b613f","ios":"levelo://app?vid=e2c6973b-7ebe-4fc3-b3fb-5a97464b613f"},"vehicle_type_id":"4","last_reported":1753373576,"current_range_meters":12800,"station_id":"ce4bh4p2rcd13ifvqe0g","pricing_plan_id":"cebpf4jnsgd1na2vs0mg"},{"bike_id":"ce112d5f-7de2-45f1-93cd-b59b4fcf181b","system_id":"levelo_inurba_marseille","lat":43.2784,"lon":5.3921,"is_reserved":false,"is_disabled":false,"rental_uris":{"android":"levelo://app?vid=ce112d5f-7de2-45f1-93cd-b59b4fcf181b","ios":"levelo://app?vid=ce112d5f-7de2-45f1-93cd-b59b4fcf181b"},"vehicle_type_id":"4","last_reported":1753373576,"current_range_meters":12800,"station_id":"ce4bhjp2rcd13ifvqga0","pricing_plan_id":"cebpf4jnsgd1na2vs0mg"},{"bike_id":"74c2099d-a1b1-4c4d-b370-5f2d22f180f3","system_id":"levelo_inurba_marseille","lat":43.240722,"lon":5.377196,"is_reserved":false,"is_disabled":false,"rental_uris":{"android":"levelo://app?vid=74c2099d-a1b1-4c4d-b370-5f2d22f180f3","ios":"levelo://app?vid=74c2099d-a1b1-4c4d-b370-5f2d22f180f3"},"vehicle_type_id":"4","last_reported":1753373576,"current_range_meters":12800,"station_id":"ce4bhnp2rcd13ifvqgvg","pricing_plan_id":"cebpf4jnsgd1na2vs0mg"},{"bike_id":"1d7cab05-f3df-4512-93e6-096fa6cb4d14","system_id":"levelo_inurba_marseille","lat":43.29569,"lon":5.37504,"is_reserved":false,"is_disabled":false,"rental_uris":{"android":"levelo://app?vid=1d7cab05-f3df-4512-93e6-096fa6cb4d14","ios":"levelo://app?vid=1d7cab05-f3df-4512-93e6-096fa6cb4d14"},"vehicle_type_id":"4","last_reported":1753373576,"current_range_meters":12800,"station_id":"ce4bgh92rcd13ifvqb50","pricing_plan_id":"cebpf4jnsgd1na2vs0mg"},{"bike_id":"18b86593-4f21-41ed-81b3-f3a5b378dc91","system_id":"levelo_inurba_marseille","lat":43.31236,"lon":5.38111,"is_reserved":false,"is_disabled":false,"rental_uris":{"android":"levelo://app?vid=18b86593-4f21-41ed-81b3-f3a5b378dc91","ios":"levelo://app?vid=18b86593-4f21-41ed-81b3-f3a5b378dc91"},"vehicle_type_id":"4","last_reported":1753373576,"current_range_meters":12800,"station_id":"","pricing_plan_id":"cebpf4jnsgd1na2vs0mg"},{"bike_id":"6922a19c-cda9-466e-9fbf-327576a1380b","system_id":"levelo_inurba_marseille","lat":43.2841,"lon":5.34984,"is_reserved":false,"is_disabled":false,"rental_uris":{"android":"levelo://app?vid=6922a19c-cda9-466e-9fbf-327576a1380b","ios":"levelo://app?vid=6922a19c-cda9-466e-9fbf-327576a1380b"},"vehicle_type_id":"4","last_reported":1753373576,"current_range_meters":12800,"station_id":"ce4bhbh2rcd13ifvqepg","pricing_plan_id":"cebpf4jnsgd1na2vs0mg"},{"bike_id":"1ad257b5-7f83-42c1-867f-92635ff1abbf","system_id":"levelo_inurba_marseille","lat":43.229325,"lon":5.353833,"is_reserved":false,"is_disabled":false,"rental_uris":{"android":"levelo://app?vid=1ad257b5-7f83-42c1-867f-92635ff1abbf","ios":"levelo://app?vid=1ad257b5-7f83-42c1-867f-92635ff1abbf"},"vehicle_type_id":"4","last_reported":1753373576,"current_range_meters":12800,"station_id":"cpo3532slgdg3j2ikp40","pricing_plan_id":"cebpf4jnsgd1na2vs0mg"},{"bike_id":"f0962816-ca47-4344-a3a0-51b1c89b25d2","system_id":"levelo_inurba_marseille","lat":43.29534,"lon":5.39026,"is_reserved":false,"is_disabled":false,"rental_uris":{"android":"levelo://app?vid=f0962816-ca47-4344-a3a0-51b1c89b25d2","ios":"levelo://app?vid=f0962816-ca47-4344-a3a0-51b1c89b25d2"},"vehicle_type_id":"4","last_reported":1753373576,"current_range_meters":13600,"station_id":"ce4bh3p2rcd13ifvqdp0","pricing_plan_id":"cebpf4jnsgd1na2vs0mg"},{"bike_id":"b63e7084-a9d7-4158-b229-23a12be9f930","system_id":"levelo_inurba_marseille","lat":43.25492,"lon":5.37646,"is_reserved":false,"is_disabled":false,"rental_uris":{"android":"levelo://app?vid=b63e7084-a9d7-4158-b229-23a12be9f930","ios":"levelo://app?vid=b63e7084-a9d7-4158-b229-23a12be9f930"},"vehicle_type_id":"4","last_reported":1753373576,"current_range_meters":13600,"station_id":"ce4bhh12rcd13ifvqff0","pricing_plan_id":"cebpf4jnsgd1na2vs0mg"},{"bike_id":"76c65f84-3b49-4269-890c-8259fe6ade74","system_id":"levelo_inurba_marseille","lat":43.32377,"lon":5.36774,"is_reserved":false,"is_disabled":false,"rental_uris":{"android":"levelo://app?vid=76c65f84-3b49-4269-890c-8259fe6ade74","ios":"levelo://app?vid=76c65f84-3b49-4269-890c-8259fe6ade74"},"vehicle_type_id":"4","last_reported":1753373576,"current_range_meters":13600,"station_id":"ce4bhsh2rcd13ifvqi2g","pricing_plan_id":"cebpf4jnsgd1na2vs0mg"},{"bike_id":"d4c4338c-1670-4a6b-b386-7b67182a03ce","system_id":"levelo_inurba_marseille","lat":43.29536,"lon":5.38542,"is_reserved":false,"is_disabled":false,"rental_uris":{"android":"levelo://app?vid=d4c4338c-1670-4a6b-b386-7b67182a03ce","ios":"levelo://app?vid=d4c4338c-1670-4a6b-b386-7b67182a03ce"},"vehicle_type_id":"4","last_reported":1753373576,"current_range_meters":14000,"station_id":"ce4bgih2rcd13ifvqba0","pricing_plan_id":"cebpf4jnsgd1na2vs0mg"},{"bike_id":"61415049-9d00-480c-8831-05363d0af0d6","system_id":"levelo_inurba_marseille","lat":43.30143,"lon":5.37417,"is_reserved":false,"is_disabled":false,"rental_uris":{"android":"levelo://app?vid=61415049-9d00-480c-8831-05363d0af0d6","ios":"levelo://app?vid=61415049-9d00-480c-8831-05363d0af0d6"},"vehicle_type_id":"4","last_reported":1753373576,"current_range_meters":14000,"station_id":"ce4bgs92rcd13ifvqcc0","pricing_plan_id":"cebpf4jnsgd1na2vs0mg"},{"bike_id":"edd8ef35-6c81-487e-927e-cd629b24fcdd","system_id":"levelo_inurba_marseille","lat":43.29271,"lon":5.37629,"is_reserved":false,"is_disabled":false,"rental_uris":{"android":"levelo://app?vid=edd8ef35-6c81-487e-927e-cd629b24fcdd","ios":"levelo://app?vid=edd8ef35-6c81-487e-927e-cd629b24fcdd"},"vehicle_type_id":"4","last_reported":1753373576,"current_range_meters":14000,"station_id":"ce4bgi12rcd13ifvqb80","pricing_plan_id":"cebpf4jnsgd1na2vs0mg"},{"bike_id":"9437277c-d886-4a0b-9535-11724bd91051","system_id":"levelo_inurba_marseille","lat":43.2709,"lon":5.42278,"is_reserved":false,"is_disabled":false,"rental_uris":{"android":"levelo://app?vid=9437277c-d886-4a0b-9535-11724bd91051","ios":"levelo://app?vid=9437277c-d886-4a0b-9535-11724bd91051"},"vehicle_type_id":"4","last_reported":1753373576,"current_range_meters":14000,"station_id":"ce4bhk92rcd13ifvqgb0","pricing_plan_id":"cebpf4jnsgd1na2vs0mg"},{"bike_id":"d9f19711-627b-447e-8c54-f16f523622e6","system_id":"levelo_inurba_marseille","lat":43.31714,"lon":5.37733,"is_reserved":false,"is_disabled":false,"rental_uris":{"android":"levelo://app?vid=d9f19711-627b-447e-8c54-f16f523622e6","ios":"levelo://app?vid=d9f19711-627b-447e-8c54-f16f523622e6"},"vehicle_type_id":"4","last_reported":1753373576,"current_range_meters":14000,"station_id":"ce4bgth2rcd13ifvqch0","pricing_plan_id":"cebpf4jnsgd1na2vs0mg"},{"bike_id":"7c75f7f1-1751-4a03-bbea-de64dc2a7795","system_id":"levelo_inurba_marseille","lat":43.30538,"lon":5.36719,"is_reserved":false,"is_disabled":false,"rental_uris":{"android":"levelo://app?vid=7c75f7f1-1751-4a03-bbea-de64dc2a7795","ios":"levelo://app?vid=7c75f7f1-1751-4a03-bbea-de64dc2a7795"},"vehicle_type_id":"4","last_reported":1753373576,"current_range_meters":14000,"station_id":"ce4bgrp2rcd13ifvqc9g","pricing_plan_id":"cebpf4jnsgd1na2vs0mg"},{"bike_id":"f640c3f3-c77f-44da-86f2-0ad487426311","system_id":"levelo_inurba_marseille","lat":43.21184,"lon":5.35079,"is_reserved":false,"is_disabled":false,"rental_uris":{"android":"levelo://app?vid=f640c3f3-c77f-44da-86f2-0ad487426311","ios":"levelo://app?vid=f640c3f3-c77f-44da-86f2-0ad487426311"},"vehicle_type_id":"4","last_reported":1753373576,"current_range_meters":14400,"station_id":"st_cvj6sg6p6f1abm77japg","pricing_plan_id":"cebpf4jnsgd1na2vs0mg"},{"bike_id":"de993af1-8c6e-4fcd-aa11-3cbf2991a890","system_id":"levelo_inurba_marseille","lat":43.23188,"lon":5.35546,"is_reserved":false,"is_disabled":false,"rental_uris":{"android":"levelo://app?vid=de993af1-8c6e-4fcd-aa11-3cbf2991a890","ios":"levelo://app?vid=de993af1-8c6e-4fcd-aa11-3cbf2991a890"},"vehicle_type_id":"4","last_reported":1753373576,"current_range_meters":14400,"station_id":"ce4bhu92rcd13ifvqi70","pricing_plan_id":"cebpf4jnsgd1na2vs0mg"},{"bike_id":"81df7d6f-832b-40f6-ad7c-3d213cee8b09","system_id":"levelo_inurba_marseille","lat":43.241,"lon":5.3773,"is_reserved":false,"is_disabled":false,"rental_uris":{"android":"levelo://app?vid=81df7d6f-832b-40f6-ad7c-3d213cee8b09","ios":"levelo://app?vid=81df7d6f-832b-40f6-ad7c-3d213cee8b09"},"vehicle_type_id":"4","last_reported":1753373576,"current_range_meters":14800,"station_id":"ce4bhnp2rcd13ifvqgvg","pricing_plan_id":"cebpf4jnsgd1na2vs0mg"},{"bike_id":"eaea15aa-98ae-4f78-b37a-80e2e4524837","system_id":"levelo_inurba_marseille","lat":43.297916,"lon":5.381026,"is_reserved":false,"is_disabled":false,"rental_uris":{"android":"levelo://app?vid=eaea15aa-98ae-4f78-b37a-80e2e4524837","ios":"levelo://app?vid=eaea15aa-98ae-4f78-b37a-80e2e4524837"},"vehicle_type_id":"4","last_reported":1753373576,"current_range_meters":14800,"station_id":"","pricing_plan_id":"cebpf4jnsgd1na2vs0mg"},{"bike_id":"5f824980-27aa-4ef2-856d-b766bebead8a","system_id":"levelo_inurba_marseille","lat":43.225155,"lon":5.347623,"is_reserved":false,"is_disabled":false,"rental_uris":{"android":"levelo://app?vid=5f824980-27aa-4ef2-856d-b766bebead8a","ios":"levelo://app?vid=5f824980-27aa-4ef2-856d-b766bebead8a"},"vehicle_type_id":"4","last_reported":1753373576,"current_range_meters":14800,"station_id":"st_cvj5dfep6f1abm77gieg","pricing_plan_id":"cebpf4jnsgd1na2vs0mg"},{"bike_id":"3847ae48-ac5d-4c83-bd7f-d782d53fb9c4","system_id":"levelo_inurba_marseille","lat":43.2798,"lon":5.38741,"is_reserved":false,"is_disabled":true,"rental_uris":{"android":"levelo://app?vid=3847ae48-ac5d-4c83-bd7f-d782d53fb9c4","ios":"levelo://app?vid=3847ae48-ac5d-4c83-bd7f-d782d53fb9c4"},"vehicle_type_id":"4","last_reported":1753373576,"current_range_meters":14800,"station_id":"ce4bhg12rcd13ifvqf80","pricing_plan_id":"cebpf4jnsgd1na2vs0mg"},{"bike_id":"0a5dc1f9-61d7-4faa-a2c7-4c435426678c","system_id":"levelo_inurba_marseille","lat":43.29005,"lon":5.3862,"is_reserved":false,"is_disabled":false,"rental_uris":{"android":"levelo://app?vid=0a5dc1f9-61d7-4faa-a2c7-4c435426678c","ios":"levelo://app?vid=0a5dc1f9-61d7-4faa-a2c7-4c435426678c"},"vehicle_type_id":"4","last_reported":1753373576,"current_range_meters":14800,"station_id":"ce4bh4p2rcd13ifvqe0g","pricing_plan_id":"cebpf4jnsgd1na2vs0mg"},{"bike_id":"35a86048-76dd-4de0-afb2-7da8772fad44","system_id":"levelo_inurba_marseille","lat":43.21545,"lon":5.3473,"is_reserved":false,"is_disabled":false,"rental_uris":{"android":"levelo://app?vid=35a86048-76dd-4de0-afb2-7da8772fad44","ios":"levelo://app?vid=35a86048-76dd-4de0-afb2-7da8772fad44"},"vehicle_type_id":"4","last_reported":1753373576,"current_range_meters":14800,"station_id":"","pricing_plan_id":"cebpf4jnsgd1na2vs0mg"},{"bike_id":"3a0f52e0-a5c6-44fa-b3a8-e77daf0a7ad5","system_id":"levelo_inurba_marseille","lat":43.304193,"lon":5.388501,"is_reserved":false,"is_disabled":false,"rental_uris":{"android":"levelo://app?vid=3a0f52e0-a5c6-44fa-b3a8-e77daf0a7ad5","ios":"levelo://app?vid=3a0f52e0-a5c6-44fa-b3a8-e77daf0a7ad5"},"vehicle_type_id":"4","last_reported":1753373576,"current_range_meters":14800,"station_id":"ce4bgk12rcd13ifvqbi0","pricing_plan_id":"cebpf4jnsgd1na2vs0mg"},{"bike_id":"4bdc2f17-fd18-4f12-ba5e-6fac931ef2cd","system_id":"levelo_inurba_marseille","lat":43.30435,"lon":5.388985,"is_reserved":false,"is_disabled":false,"rental_uris":{"android":"levelo://app?vid=4bdc2f17-fd18-4f12-ba5e-6fac931ef2cd","ios":"levelo://app?vid=4bdc2f17-fd18-4f12-ba5e-6fac931ef2cd"},"vehicle_type_id":"4","last_reported":1753373576,"current_range_meters":14800,"station_id":"ce4bgk12rcd13ifvqbi0","pricing_plan_id":"cebpf4jnsgd1na2vs0mg"},{"bike_id":"d6d5c9d7-9ed0-41db-96cc-e8355b7e1a71","system_id":"levelo_inurba_marseille","lat":43.29634,"lon":5.40594,"is_reserved":false,"is_disabled":false,"rental_uris":{"android":"levelo://app?vid=d6d5c9d7-9ed0-41db-96cc-e8355b7e1a71","ios":"levelo://app?vid=d6d5c9d7-9ed0-41db-96cc-e8355b7e1a71"},"vehicle_type_id":"4","last_reported":1753373576,"current_range_meters":15200,"station_id":"ce4bh0h2rcd13ifvqd60","pricing_plan_id":"cebpf4jnsgd1na2vs0mg"},{"bike_id":"2741a3b9-bae4-4c02-bca0-4f7b740fbf24","system_id":"levelo_inurba_marseille","lat":43.2603,"lon":5.37544,"is_reserved":false,"is_disabled":false,"rental_uris":{"android":"levelo://app?vid=2741a3b9-bae4-4c02-bca0-4f7b740fbf24","ios":"levelo://app?vid=2741a3b9-bae4-4c02-bca0-4f7b740fbf24"},"vehicle_type_id":"4","last_reported":1753373576,"current_range_meters":15200,"station_id":"ce4bhgh2rcd13ifvqfa0","pricing_plan_id":"cebpf4jnsgd1na2vs0mg"},{"bike_id":"f7f07796-c7c9-4a74-80e9-fb85744448b8","system_id":"levelo_inurba_marseille","lat":43.22928,"lon":5.35371,"is_reserved":false,"is_disabled":false,"rental_uris":{"android":"levelo://app?vid=f7f07796-c7c9-4a74-80e9-fb85744448b8","ios":"levelo://app?vid=f7f07796-c7c9-4a74-80e9-fb85744448b8"},"vehicle_type_id":"4","last_reported":1753373576,"current_range_meters":15200,"station_id":"cpo3532slgdg3j2ikp40","pricing_plan_id":"cebpf4jnsgd1na2vs0mg"},{"bike_id":"5327bf75-ec58-4d1d-9baa-edaa3c987f8e","system_id":"levelo_inurba_marseille","lat":43.28939,"lon":5.38391,"is_reserved":false,"is_disabled":false,"rental_uris":{"android":"levelo://app?vid=5327bf75-ec58-4d1d-9baa-edaa3c987f8e","ios":"levelo://app?vid=5327bf75-ec58-4d1d-9baa-edaa3c987f8e"},"vehicle_type_id":"4","last_reported":1753373576,"current_range_meters":15200,"station_id":"ce4bh612rcd13ifvqe6g","pricing_plan_id":"cebpf4jnsgd1na2vs0mg"},{"bike_id":"e401289a-83cf-4377-aa07-419b9b37079e","system_id":"levelo_inurba_marseille","lat":43.23069,"lon":5.355,"is_reserved":false,"is_disabled":false,"rental_uris":{"android":"levelo://app?vid=e401289a-83cf-4377-aa07-419b9b37079e","ios":"levelo://app?vid=e401289a-83cf-4377-aa07-419b9b37079e"},"vehicle_type_id":"4","last_reported":1753373576,"current_range_meters":15200,"station_id":"cpo3342slgdg3j2ifvpg","pricing_plan_id":"cebpf4jnsgd1na2vs0mg"},{"bike_id":"86682107-6f13-4985-882b-d19c3ac848fa","system_id":"levelo_inurba_marseille","lat":43.28433,"lon":5.34974,"is_reserved":false,"is_disabled":false,"rental_uris":{"android":"levelo://app?vid=86682107-6f13-4985-882b-d19c3ac848fa","ios":"levelo://app?vid=86682107-6f13-4985-882b-d19c3ac848fa"},"vehicle_type_id":"4","last_reported":1753373576,"current_range_meters":15200,"station_id":"ce4bhbh2rcd13ifvqepg","pricing_plan_id":"cebpf4jnsgd1na2vs0mg"},{"bike_id":"27b5acbc-b1fd-4385-9be5-bae49e9e4f6a","system_id":"levelo_inurba_marseille","lat":43.24807,"lon":5.37457,"is_reserved":false,"is_disabled":false,"rental_uris":{"android":"levelo://app?vid=27b5acbc-b1fd-4385-9be5-bae49e9e4f6a","ios":"levelo://app?vid=27b5acbc-b1fd-4385-9be5-bae49e9e4f6a"},"vehicle_type_id":"4","last_reported":1753373576,"current_range_meters":15200,"station_id":"ce4bhgh2rcd13ifvqfb0","pricing_plan_id":"cebpf4jnsgd1na2vs0mg"},{"bike_id":"fbda76a5-068e-4d90-b9ba-25721acd9298","system_id":"levelo_inurba_marseille","lat":43.29052,"lon":5.43966,"is_reserved":false,"is_disabled":false,"rental_uris":{"android":"levelo://app?vid=fbda76a5-068e-4d90-b9ba-25721acd9298","ios":"levelo://app?vid=fbda76a5-068e-4d90-b9ba-25721acd9298"},"vehicle_type_id":"4","last_reported":1753373576,"current_range_meters":16000,"station_id":"","pricing_plan_id":"cebpf4jnsgd1na2vs0mg"},{"bike_id":"1f39eb17-34c7-4235-9069-0f68f613789c","system_id":"levelo_inurba_marseille","lat":43.26886,"lon":5.36871,"is_reserved":false,"is_disabled":false,"rental_uris":{"android":"levelo://app?vid=1f39eb17-34c7-4235-9069-0f68f613789c","ios":"levelo://app?vid=1f39eb17-34c7-4235-9069-0f68f613789c"},"vehicle_type_id":"4","last_reported":1753373576,"current_range_meters":16000,"station_id":"","pricing_plan_id":"cebpf4jnsgd1na2vs0mg"},{"bike_id":"9d80bddd-3548-41c4-b1e3-e9f1b7e04c15","system_id":"levelo_inurba_marseille","lat":43.29526,"lon":5.38539,"is_reserved":false,"is_disabled":false,"rental_uris":{"android":"levelo://app?vid=9d80bddd-3548-41c4-b1e3-e9f1b7e04c15","ios":"levelo://app?vid=9d80bddd-3548-41c4-b1e3-e9f1b7e04c15"},"vehicle_type_id":"4","last_reported":1753373576,"current_range_meters":16000,"station_id":"ce4bgih2rcd13ifvqba0","pricing_plan_id":"cebpf4jnsgd1na2vs0mg"},{"bike_id":"cd46d7a3-2aff-40e0-9e50-73919cfa0e11","system_id":"levelo_inurba_marseille","lat":43.27367,"lon":5.3625,"is_reserved":false,"is_disabled":false,"rental_uris":{"android":"levelo://app?vid=cd46d7a3-2aff-40e0-9e50-73919cfa0e11","ios":"levelo://app?vid=cd46d7a3-2aff-40e0-9e50-73919cfa0e11"},"vehicle_type_id":"4","last_reported":1753373576,"current_range_meters":16000,"station_id":"ce4bhbh2rcd13ifvqeo0","pricing_plan_id":"cebpf4jnsgd1na2vs0mg"},{"bike_id":"9ea44151-4ed3-49b9-af64-869780027ee9","system_id":"levelo_inurba_marseille","lat":43.25726,"lon":5.41114,"is_reserved":false,"is_disabled":false,"rental_uris":{"android":"levelo://app?vid=9ea44151-4ed3-49b9-af64-869780027ee9","ios":"levelo://app?vid=9ea44151-4ed3-49b9-af64-869780027ee9"},"vehicle_type_id":"4","last_reported":1753373576,"current_range_meters":16000,"station_id":"ce4bhkp2rcd13ifvqgd0","pricing_plan_id":"cebpf4jnsgd1na2vs0mg"},{"bike_id":"93b9f0dd-5b5b-46b7-be18-ca553d150240","system_id":"levelo_inurba_marseille","lat":43.30139,"lon":5.39864,"is_reserved":false,"is_disabled":false,"rental_uris":{"android":"levelo://app?vid=93b9f0dd-5b5b-46b7-be18-ca553d150240","ios":"levelo://app?vid=93b9f0dd-5b5b-46b7-be18-ca553d150240"},"vehicle_type_id":"4","last_reported":1753373576,"current_range_meters":16000,"station_id":"ce4bh0h2rcd13ifvqd40","pricing_plan_id":"cebpf4jnsgd1na2vs0mg"},{"bike_id":"5cc79cad-ddd8-405c-b9fe-aa1994994947","system_id":"levelo_inurba_marseille","lat":43.26507,"lon":5.39555,"is_reserved":false,"is_disabled":false,"rental_uris":{"android":"levelo://app?vid=5cc79cad-ddd8-405c-b9fe-aa1994994947","ios":"levelo://app?vid=5cc79cad-ddd8-405c-b9fe-aa1994994947"},"vehicle_type_id":"4","last_reported":1753373576,"current_range_meters":16000,"station_id":"ce4bhi12rcd13ifvqfq0","pricing_plan_id":"cebpf4jnsgd1na2vs0mg"},{"bike_id":"df52031d-f6ba-4af3-a318-cddaa787b97a","system_id":"levelo_inurba_marseille","lat":43.27062,"lon":5.4026,"is_reserved":false,"is_disabled":false,"rental_uris":{"android":"levelo://app?vid=df52031d-f6ba-4af3-a318-cddaa787b97a","ios":"levelo://app?vid=df52031d-f6ba-4af3-a318-cddaa787b97a"},"vehicle_type_id":"4","last_reported":1753373576,"current_range_meters":16000,"station_id":"ce4bhk92rcd13ifvqgc0","pricing_plan_id":"cebpf4jnsgd1na2vs0mg"},{"bike_id":"2397ecaa-253d-4ce0-97ee-3f031fcd0dcb","system_id":"levelo_inurba_marseille","lat":43.29056,"lon":5.35909,"is_reserved":false,"is_disabled":false,"rental_uris":{"android":"levelo://app?vid=2397ecaa-253d-4ce0-97ee-3f031fcd0dcb","ios":"levelo://app?vid=2397ecaa-253d-4ce0-97ee-3f031fcd0dcb"},"vehicle_type_id":"4","last_reported":1753373576,"current_range_meters":16000,"station_id":"ce4bha92rcd13ifvqeg0","pricing_plan_id":"cebpf4jnsgd1na2vs0mg"},{"bike_id":"cf776233-7766-4109-aadc-a0d3c334d400","system_id":"levelo_inurba_marseille","lat":43.24065,"lon":5.3778,"is_reserved":false,"is_disabled":false,"rental_uris":{"android":"levelo://app?vid=cf776233-7766-4109-aadc-a0d3c334d400","ios":"levelo://app?vid=cf776233-7766-4109-aadc-a0d3c334d400"},"vehicle_type_id":"4","last_reported":1753373576,"current_range_meters":16400,"station_id":"ce4bhnp2rcd13ifvqgvg","pricing_plan_id":"cebpf4jnsgd1na2vs0mg"},{"bike_id":"d1da6715-3a30-45dc-a566-201585f319c6","system_id":"levelo_inurba_marseille","lat":43.28415,"lon":5.37503,"is_reserved":false,"is_disabled":false,"rental_uris":{"android":"levelo://app?vid=d1da6715-3a30-45dc-a566-201585f319c6","ios":"levelo://app?vid=d1da6715-3a30-45dc-a566-201585f319c6"},"vehicle_type_id":"4","last_reported":1753373576,"current_range_meters":16400,"station_id":"ce4bh412rcd13ifvqds0","pricing_plan_id":"cebpf4jnsgd1na2vs0mg"},{"bike_id":"44ceb5e6-9c92-4b23-b1cc-245e3ce6b0fc","system_id":"levelo_inurba_marseille","lat":43.29574,"lon":5.39974,"is_reserved":false,"is_disabled":false,"rental_uris":{"android":"levelo://app?vid=44ceb5e6-9c92-4b23-b1cc-245e3ce6b0fc","ios":"levelo://app?vid=44ceb5e6-9c92-4b23-b1cc-245e3ce6b0fc"},"vehicle_type_id":"4","last_reported":1753373576,"current_range_meters":16000,"station_id":"ce4bh312rcd13ifvqdj0","pricing_plan_id":"cebpf4jnsgd1na2vs0mg"},{"bike_id":"33ce2ff8-7e21-4229-9288-7ac129269db8","system_id":"levelo_inurba_marseille","lat":43.32113,"lon":5.36766,"is_reserved":false,"is_disabled":false,"rental_uris":{"android":"levelo://app?vid=33ce2ff8-7e21-4229-9288-7ac129269db8","ios":"levelo://app?vid=33ce2ff8-7e21-4229-9288-7ac129269db8"},"vehicle_type_id":"4","last_reported":1753373576,"current_range_meters":16400,"station_id":"ce4bhrh2rcd13ifvqhug","pricing_plan_id":"cebpf4jnsgd1na2vs0mg"},{"bike_id":"51514067-0364-49f7-b683-22287d2137ed","system_id":"levelo_inurba_marseille","lat":43.30328,"lon":5.40435,"is_reserved":false,"is_disabled":false,"rental_uris":{"android":"levelo://app?vid=51514067-0364-49f7-b683-22287d2137ed","ios":"levelo://app?vid=51514067-0364-49f7-b683-22287d2137ed"},"vehicle_type_id":"4","last_reported":1753373576,"current_range_meters":16400,"station_id":"ce4bh012rcd13ifvqd10","pricing_plan_id":"cebpf4jnsgd1na2vs0mg"},{"bike_id":"be91dc7a-12be-4163-ae97-8fba70f88391","system_id":"levelo_inurba_marseille","lat":43.30428,"lon":5.37956,"is_reserved":false,"is_disabled":false,"rental_uris":{"android":"levelo://app?vid=be91dc7a-12be-4163-ae97-8fba70f88391","ios":"levelo://app?vid=be91dc7a-12be-4163-ae97-8fba70f88391"},"vehicle_type_id":"4","last_reported":1753373576,"current_range_meters":16400,"station_id":"","pricing_plan_id":"cebpf4jnsgd1na2vs0mg"},{"bike_id":"0aa2d153-96d1-4d69-83b8-d39119aa9dd5","system_id":"levelo_inurba_marseille","lat":43.33523,"lon":5.36229,"is_reserved":false,"is_disabled":false,"rental_uris":{"android":"levelo://app?vid=0aa2d153-96d1-4d69-83b8-d39119aa9dd5","ios":"levelo://app?vid=0aa2d153-96d1-4d69-83b8-d39119aa9dd5"},"vehicle_type_id":"4","last_reported":1753373576,"current_range_meters":16400,"station_id":"","pricing_plan_id":"cebpf4jnsgd1na2vs0mg"},{"bike_id":"8bf2041f-a165-47bf-84f1-41526695fbf0","system_id":"levelo_inurba_marseille","lat":43.24167,"lon":5.36388,"is_reserved":false,"is_disabled":false,"rental_uris":{"android":"levelo://app?vid=8bf2041f-a165-47bf-84f1-41526695fbf0","ios":"levelo://app?vid=8bf2041f-a165-47bf-84f1-41526695fbf0"},"vehicle_type_id":"4","last_reported":1753373576,"current_range_meters":16400,"station_id":"cpo36qri1sfpv3e86is0","pricing_plan_id":"cebpf4jnsgd1na2vs0mg"},{"bike_id":"d2c1d56d-6a3a-4ae3-b7ab-84022ad7ad84","system_id":"levelo_inurba_marseille","lat":43.29827,"lon":5.37614,"is_reserved":false,"is_disabled":false,"rental_uris":{"android":"levelo://app?vid=d2c1d56d-6a3a-4ae3-b7ab-84022ad7ad84","ios":"levelo://app?vid=d2c1d56d-6a3a-4ae3-b7ab-84022ad7ad84"},"vehicle_type_id":"4","last_reported":1753373576,"current_range_meters":16400,"station_id":"","pricing_plan_id":"cebpf4jnsgd1na2vs0mg"},{"bike_id":"4583de6c-90ab-4672-af73-8d5c10745a1f","system_id":"levelo_inurba_marseille","lat":43.26581,"lon":5.39038,"is_reserved":false,"is_disabled":false,"rental_uris":{"android":"levelo://app?vid=4583de6c-90ab-4672-af73-8d5c10745a1f","ios":"levelo://app?vid=4583de6c-90ab-4672-af73-8d5c10745a1f"},"vehicle_type_id":"4","last_reported":1753373576,"current_range_meters":16800,"station_id":"ce4bhe12rcd13ifvqf30","pricing_plan_id":"cebpf4jnsgd1na2vs0mg"},{"bike_id":"b369d3b5-ead0-4944-a05b-081ccef5e5aa","system_id":"levelo_inurba_marseille","lat":43.276184,"lon":5.361066,"is_reserved":false,"is_disabled":false,"rental_uris":{"android":"levelo://app?vid=b369d3b5-ead0-4944-a05b-081ccef5e5aa","ios":"levelo://app?vid=b369d3b5-ead0-4944-a05b-081ccef5e5aa"},"vehicle_type_id":"4","last_reported":1753373576,"current_range_meters":16800,"station_id":"","pricing_plan_id":"cebpf4jnsgd1na2vs0mg"},{"bike_id":"a2e9f613-09ac-400c-a305-e865a881746c","system_id":"levelo_inurba_marseille","lat":43.21202,"lon":5.35061,"is_reserved":false,"is_disabled":false,"rental_uris":{"android":"levelo://app?vid=a2e9f613-09ac-400c-a305-e865a881746c","ios":"levelo://app?vid=a2e9f613-09ac-400c-a305-e865a881746c"},"vehicle_type_id":"4","last_reported":1753373576,"current_range_meters":16800,"station_id":"st_cvj6sg6p6f1abm77japg","pricing_plan_id":"cebpf4jnsgd1na2vs0mg"},{"bike_id":"37241898-d18b-4757-94e3-520d9bb055ab","system_id":"levelo_inurba_marseille","lat":43.24805,"lon":5.37453,"is_reserved":false,"is_disabled":false,"rental_uris":{"android":"levelo://app?vid=37241898-d18b-4757-94e3-520d9bb055ab","ios":"levelo://app?vid=37241898-d18b-4757-94e3-520d9bb055ab"},"vehicle_type_id":"4","last_reported":1753373576,"current_range_meters":16800,"station_id":"ce4bhgh2rcd13ifvqfb0","pricing_plan_id":"cebpf4jnsgd1na2vs0mg"},{"bike_id":"784eeebd-2893-4f27-84ae-c797089b4166","system_id":"levelo_inurba_marseille","lat":43.22529,"lon":5.34764,"is_reserved":false,"is_disabled":false,"rental_uris":{"android":"levelo://app?vid=784eeebd-2893-4f27-84ae-c797089b4166","ios":"levelo://app?vid=784eeebd-2893-4f27-84ae-c797089b4166"},"vehicle_type_id":"4","last_reported":1753373576,"current_range_meters":16800,"station_id":"st_cvj5dfep6f1abm77gieg","pricing_plan_id":"cebpf4jnsgd1na2vs0mg"},{"bike_id":"ad25e224-b15c-4949-92a3-53289b1bd1fb","system_id":"levelo_inurba_marseille","lat":43.28784,"lon":5.3847,"is_reserved":false,"is_disabled":false,"rental_uris":{"android":"levelo://app?vid=ad25e224-b15c-4949-92a3-53289b1bd1fb","ios":"levelo://app?vid=ad25e224-b15c-4949-92a3-53289b1bd1fb"},"vehicle_type_id":"4","last_reported":1753373576,"current_range_meters":16800,"station_id":"","pricing_plan_id":"cebpf4jnsgd1na2vs0mg"},{"bike_id":"d8ab8225-ebfc-48f1-9981-f15e3b9960ea","system_id":"levelo_inurba_marseille","lat":43.22925,"lon":5.35375,"is_reserved":false,"is_disabled":false,"rental_uris":{"android":"levelo://app?vid=d8ab8225-ebfc-48f1-9981-f15e3b9960ea","ios":"levelo://app?vid=d8ab8225-ebfc-48f1-9981-f15e3b9960ea"},"vehicle_type_id":"4","last_reported":1753373576,"current_range_meters":16800,"station_id":"cpo3532slgdg3j2ikp40","pricing_plan_id":"cebpf4jnsgd1na2vs0mg"},{"bike_id":"481351de-e3d5-4a6f-aa67-c1762e7ed223","system_id":"levelo_inurba_marseille","lat":43.27081,"lon":5.42297,"is_reserved":false,"is_disabled":false,"rental_uris":{"android":"levelo://app?vid=481351de-e3d5-4a6f-aa67-c1762e7ed223","ios":"levelo://app?vid=481351de-e3d5-4a6f-aa67-c1762e7ed223"},"vehicle_type_id":"4","last_reported":1753373576,"current_range_meters":16800,"station_id":"ce4bhk92rcd13ifvqgb0","pricing_plan_id":"cebpf4jnsgd1na2vs0mg"},{"bike_id":"0a7e2862-d8ec-4c77-89d9-cfcdd51f8d75","system_id":"levelo_inurba_marseille","lat":43.31206,"lon":5.37842,"is_reserved":false,"is_disabled":false,"rental_uris":{"android":"levelo://app?vid=0a7e2862-d8ec-4c77-89d9-cfcdd51f8d75","ios":"levelo://app?vid=0a7e2862-d8ec-4c77-89d9-cfcdd51f8d75"},"vehicle_type_id":"4","last_reported":1753373576,"current_range_meters":16800,"station_id":"","pricing_plan_id":"cebpf4jnsgd1na2vs0mg"},{"bike_id":"9e71a50e-df43-4a48-bc37-13460235be7b","system_id":"levelo_inurba_marseille","lat":43.24168,"lon":5.3638,"is_reserved":false,"is_disabled":false,"rental_uris":{"android":"levelo://app?vid=9e71a50e-df43-4a48-bc37-13460235be7b","ios":"levelo://app?vid=9e71a50e-df43-4a48-bc37-13460235be7b"},"vehicle_type_id":"4","last_reported":1753373576,"current_range_meters":16800,"station_id":"cpo36qri1sfpv3e86is0","pricing_plan_id":"cebpf4jnsgd1na2vs0mg"},{"bike_id":"eee05789-f787-4601-865f-9112c2e8e323","system_id":"levelo_inurba_marseille","lat":43.296463,"lon":5.371835,"is_reserved":false,"is_disabled":false,"rental_uris":{"android":"levelo://app?vid=eee05789-f787-4601-865f-9112c2e8e323","ios":"levelo://app?vid=eee05789-f787-4601-865f-9112c2e8e323"},"vehicle_type_id":"4","last_reported":1753373576,"current_range_meters":17200,"station_id":"ce4bgnh2rcd13ifvqc0g","pricing_plan_id":"cebpf4jnsgd1na2vs0mg"},{"bike_id":"f2ca3887-7e82-498b-8c49-e80cd18a3051","system_id":"levelo_inurba_marseille","lat":43.23972,"lon":5.36625,"is_reserved":false,"is_disabled":false,"rental_uris":{"android":"levelo://app?vid=f2ca3887-7e82-498b-8c49-e80cd18a3051","ios":"levelo://app?vid=f2ca3887-7e82-498b-8c49-e80cd18a3051"},"vehicle_type_id":"4","last_reported":1753373576,"current_range_meters":17200,"station_id":"ce4bhi12rcd13ifvqfp0","pricing_plan_id":"cebpf4jnsgd1na2vs0mg"},{"bike_id":"e48fa4b0-947b-41b6-9903-1aa9a0c5a819","system_id":"levelo_inurba_marseille","lat":43.287051,"lon":5.37386,"is_reserved":false,"is_disabled":false,"rental_uris":{"android":"levelo://app?vid=e48fa4b0-947b-41b6-9903-1aa9a0c5a819","ios":"levelo://app?vid=e48fa4b0-947b-41b6-9903-1aa9a0c5a819"},"vehicle_type_id":"4","last_reported":1753373576,"current_range_meters":17200,"station_id":"ce4bh3p2rcd13ifvqdq0","pricing_plan_id":"cebpf4jnsgd1na2vs0mg"},{"bike_id":"ce193c8e-90e0-4599-95e2-d02b7d163b03","system_id":"levelo_inurba_marseille","lat":43.241,"lon":5.37762,"is_reserved":false,"is_disabled":false,"rental_uris":{"android":"levelo://app?vid=ce193c8e-90e0-4599-95e2-d02b7d163b03","ios":"levelo://app?vid=ce193c8e-90e0-4599-95e2-d02b7d163b03"},"vehicle_type_id":"4","last_reported":1753373576,"current_range_meters":17200,"station_id":"ce4bhnp2rcd13ifvqgvg","pricing_plan_id":"cebpf4jnsgd1na2vs0mg"},{"bike_id":"ecb8ed1f-611a-405e-8727-926a6b20adf4","system_id":"levelo_inurba_marseille","lat":43.27372,"lon":5.36261,"is_reserved":false,"is_disabled":false,"rental_uris":{"android":"levelo://app?vid=ecb8ed1f-611a-405e-8727-926a6b20adf4","ios":"levelo://app?vid=ecb8ed1f-611a-405e-8727-926a6b20adf4"},"vehicle_type_id":"4","last_reported":1753373576,"current_range_meters":17200,"station_id":"ce4bhbh2rcd13ifvqeo0","pricing_plan_id":"cebpf4jnsgd1na2vs0mg"},{"bike_id":"f78b69a5-7f99-469b-9809-db12b867eb2e","system_id":"levelo_inurba_marseille","lat":43.241668,"lon":5.364007,"is_reserved":false,"is_disabled":false,"rental_uris":{"android":"levelo://app?vid=f78b69a5-7f99-469b-9809-db12b867eb2e","ios":"levelo://app?vid=f78b69a5-7f99-469b-9809-db12b867eb2e"},"vehicle_type_id":"4","last_reported":1753373576,"current_range_meters":17200,"station_id":"cpo36qri1sfpv3e86is0","pricing_plan_id":"cebpf4jnsgd1na2vs0mg"},{"bike_id":"df5850cc-98aa-4e40-be6e-8b4428cf6578","system_id":"levelo_inurba_marseille","lat":43.29775,"lon":5.3709,"is_reserved":false,"is_disabled":false,"rental_uris":{"android":"levelo://app?vid=df5850cc-98aa-4e40-be6e-8b4428cf6578","ios":"levelo://app?vid=df5850cc-98aa-4e40-be6e-8b4428cf6578"},"vehicle_type_id":"4","last_reported":1753373576,"current_range_meters":17200,"station_id":"ce4bgop2rcd13ifvqc1g","pricing_plan_id":"cebpf4jnsgd1na2vs0mg"},{"bike_id":"ddf62379-49da-4898-b667-47ad52a11555","system_id":"levelo_inurba_marseille","lat":43.29529,"lon":5.39403,"is_reserved":false,"is_disabled":false,"rental_uris":{"android":"levelo://app?vid=ddf62379-49da-4898-b667-47ad52a11555","ios":"levelo://app?vid=ddf62379-49da-4898-b667-47ad52a11555"},"vehicle_type_id":"4","last_reported":1753373576,"current_range_meters":17200,"station_id":"ce4bh292rcd13ifvqdf0","pricing_plan_id":"cebpf4jnsgd1na2vs0mg"},{"bike_id":"b63b11be-5ecd-48c8-a48d-2b0558b136c7","system_id":"levelo_inurba_marseille","lat":43.29256,"lon":5.36064,"is_reserved":false,"is_disabled":false,"rental_uris":{"android":"levelo://app?vid=b63b11be-5ecd-48c8-a48d-2b0558b136c7","ios":"levelo://app?vid=b63b11be-5ecd-48c8-a48d-2b0558b136c7"},"vehicle_type_id":"4","last_reported":1753373576,"current_range_meters":17200,"station_id":"ce4bhbh2rcd13ifvqeqg","pricing_plan_id":"cebpf4jnsgd1na2vs0mg"},{"bike_id":"53a26903-464f-4fc4-9933-61532f3dde60","system_id":"levelo_inurba_marseille","lat":43.26555,"lon":5.37283,"is_reserved":false,"is_disabled":false,"rental_uris":{"android":"levelo://app?vid=53a26903-464f-4fc4-9933-61532f3dde60","ios":"levelo://app?vid=53a26903-464f-4fc4-9933-61532f3dde60"},"vehicle_type_id":"4","last_reported":1753373576,"current_range_meters":17200,"station_id":"ce4bhg12rcd13ifvqf70","pricing_plan_id":"cebpf4jnsgd1na2vs0mg"},{"bike_id":"1f11d5ee-a6cd-4f05-b83b-e11ffc238884","system_id":"levelo_inurba_marseille","lat":43.29611,"lon":5.37731,"is_reserved":false,"is_disabled":false,"rental_uris":{"android":"levelo://app?vid=1f11d5ee-a6cd-4f05-b83b-e11ffc238884","ios":"levelo://app?vid=1f11d5ee-a6cd-4f05-b83b-e11ffc238884"},"vehicle_type_id":"4","last_reported":1753373576,"current_range_meters":17600,"station_id":"ce4bgi92rcd13ifvqb90","pricing_plan_id":"cebpf4jnsgd1na2vs0mg"},{"bike_id":"c7cfe8ad-c1e6-448e-bd93-7627578c2be6","system_id":"levelo_inurba_marseille","lat":43.28439,"lon":5.39182,"is_reserved":false,"is_disabled":false,"rental_uris":{"android":"levelo://app?vid=c7cfe8ad-c1e6-448e-bd93-7627578c2be6","ios":"levelo://app?vid=c7cfe8ad-c1e6-448e-bd93-7627578c2be6"},"vehicle_type_id":"4","last_reported":1753373576,"current_range_meters":17600,"station_id":"ce4bhoh2rcd13ifvqh5g","pricing_plan_id":"cebpf4jnsgd1na2vs0mg"},{"bike_id":"663b299f-8184-4770-9f2f-ae5f0522660a","system_id":"levelo_inurba_marseille","lat":43.30147,"lon":5.37482,"is_reserved":false,"is_disabled":false,"rental_uris":{"android":"levelo://app?vid=663b299f-8184-4770-9f2f-ae5f0522660a","ios":"levelo://app?vid=663b299f-8184-4770-9f2f-ae5f0522660a"},"vehicle_type_id":"4","last_reported":1753373576,"current_range_meters":17600,"station_id":"","pricing_plan_id":"cebpf4jnsgd1na2vs0mg"},{"bike_id":"261d4bb0-7bb9-4c80-93f3-cd6f68b7285e","system_id":"levelo_inurba_marseille","lat":43.31532,"lon":5.36879,"is_reserved":false,"is_disabled":false,"rental_uris":{"android":"levelo://app?vid=261d4bb0-7bb9-4c80-93f3-cd6f68b7285e","ios":"levelo://app?vid=261d4bb0-7bb9-4c80-93f3-cd6f68b7285e"},"vehicle_type_id":"4","last_reported":1753373576,"current_range_meters":17600,"station_id":"","pricing_plan_id":"cebpf4jnsgd1na2vs0mg"},{"bike_id":"1e9cf983-3afc-4620-a4d4-2dd094704fd1","system_id":"levelo_inurba_marseille","lat":43.22501,"lon":5.34774,"is_reserved":false,"is_disabled":false,"rental_uris":{"android":"levelo://app?vid=1e9cf983-3afc-4620-a4d4-2dd094704fd1","ios":"levelo://app?vid=1e9cf983-3afc-4620-a4d4-2dd094704fd1"},"vehicle_type_id":"4","last_reported":1753373576,"current_range_meters":17600,"station_id":"st_cvj5dfep6f1abm77gieg","pricing_plan_id":"cebpf4jnsgd1na2vs0mg"},{"bike_id":"22832dd9-6f40-41f0-84f7-20d5b045fc09","system_id":"levelo_inurba_marseille","lat":43.30381,"lon":5.42474,"is_reserved":false,"is_disabled":false,"rental_uris":{"android":"levelo://app?vid=22832dd9-6f40-41f0-84f7-20d5b045fc09","ios":"levelo://app?vid=22832dd9-6f40-41f0-84f7-20d5b045fc09"},"vehicle_type_id":"4","last_reported":1753373576,"current_range_meters":17600,"station_id":"ce4bhoh2rcd13ifvqh6g","pricing_plan_id":"cebpf4jnsgd1na2vs0mg"},{"bike_id":"2879b7bd-46bd-4d5a-b26c-fe3641ead362","system_id":"levelo_inurba_marseille","lat":43.29265,"lon":5.38428,"is_reserved":false,"is_disabled":false,"rental_uris":{"android":"levelo://app?vid=2879b7bd-46bd-4d5a-b26c-fe3641ead362","ios":"levelo://app?vid=2879b7bd-46bd-4d5a-b26c-fe3641ead362"},"vehicle_type_id":"4","last_reported":1753373576,"current_range_meters":17600,"station_id":"ce4bh692rcd13ifvqea0","pricing_plan_id":"cebpf4jnsgd1na2vs0mg"},{"bike_id":"07fb7a0b-f8ab-48fa-8507-90b6a31d697a","system_id":"levelo_inurba_marseille","lat":43.28448,"lon":5.39192,"is_reserved":false,"is_disabled":false,"rental_uris":{"android":"levelo://app?vid=07fb7a0b-f8ab-48fa-8507-90b6a31d697a","ios":"levelo://app?vid=07fb7a0b-f8ab-48fa-8507-90b6a31d697a"},"vehicle_type_id":"4","last_reported":1753373576,"current_range_meters":17600,"station_id":"ce4bhoh2rcd13ifvqh5g","pricing_plan_id":"cebpf4jnsgd1na2vs0mg"},{"bike_id":"b9bbc816-4b12-43e4-b4aa-0bc791c1ec53","system_id":"levelo_inurba_marseille","lat":43.27949,"lon":5.41043,"is_reserved":false,"is_disabled":false,"rental_uris":{"android":"levelo://app?vid=b9bbc816-4b12-43e4-b4aa-0bc791c1ec53","ios":"levelo://app?vid=b9bbc816-4b12-43e4-b4aa-0bc791c1ec53"},"vehicle_type_id":"4","last_reported":1753373576,"current_range_meters":17600,"station_id":"ce4bhnp2rcd13ifvqh0g","pricing_plan_id":"cebpf4jnsgd1na2vs0mg"},{"bike_id":"b72aea31-c70f-4e36-82e0-1827455012f7","system_id":"levelo_inurba_marseille","lat":43.28938,"lon":5.36628,"is_reserved":false,"is_disabled":false,"rental_uris":{"android":"levelo://app?vid=b72aea31-c70f-4e36-82e0-1827455012f7","ios":"levelo://app?vid=b72aea31-c70f-4e36-82e0-1827455012f7"},"vehicle_type_id":"4","last_reported":1753373576,"current_range_meters":17200,"station_id":"ce4bhap2rcd13ifvqek0","pricing_plan_id":"cebpf4jnsgd1na2vs0mg"},{"bike_id":"b6de12aa-1d58-440d-9bd3-cbee868a98b8","system_id":"levelo_inurba_marseille","lat":43.2316,"lon":5.43706,"is_reserved":false,"is_disabled":false,"rental_uris":{"android":"levelo://app?vid=b6de12aa-1d58-440d-9bd3-cbee868a98b8","ios":"levelo://app?vid=b6de12aa-1d58-440d-9bd3-cbee868a98b8"},"vehicle_type_id":"4","last_reported":1753373576,"current_range_meters":17600,"station_id":"ce4bhmp2rcd13ifvqgog","pricing_plan_id":"cebpf4jnsgd1na2vs0mg"},{"bike_id":"cf9c7ec5-6d43-4e81-94d9-a22b51cc9f3b","system_id":"levelo_inurba_marseille","lat":43.24171,"lon":5.36391,"is_reserved":false,"is_disabled":false,"rental_uris":{"android":"levelo://app?vid=cf9c7ec5-6d43-4e81-94d9-a22b51cc9f3b","ios":"levelo://app?vid=cf9c7ec5-6d43-4e81-94d9-a22b51cc9f3b"},"vehicle_type_id":"4","last_reported":1753373576,"current_range_meters":17600,"station_id":"cpo36qri1sfpv3e86is0","pricing_plan_id":"cebpf4jnsgd1na2vs0mg"},{"bike_id":"cff7d12b-de5d-4559-9e9b-db3bc43fba7c","system_id":"levelo_inurba_marseille","lat":43.28612,"lon":5.35102,"is_reserved":false,"is_disabled":false,"rental_uris":{"android":"levelo://app?vid=cff7d12b-de5d-4559-9e9b-db3bc43fba7c","ios":"levelo://app?vid=cff7d12b-de5d-4559-9e9b-db3bc43fba7c"},"vehicle_type_id":"4","last_reported":1753373576,"current_range_meters":17600,"station_id":"ce4bhch2rcd13ifvqeug","pricing_plan_id":"cebpf4jnsgd1na2vs0mg"},{"bike_id":"8308ae66-9251-4b45-9c06-50c1d667d88a","system_id":"levelo_inurba_marseille","lat":43.26065,"lon":5.39396,"is_reserved":false,"is_disabled":false,"rental_uris":{"android":"levelo://app?vid=8308ae66-9251-4b45-9c06-50c1d667d88a","ios":"levelo://app?vid=8308ae66-9251-4b45-9c06-50c1d667d88a"},"vehicle_type_id":"4","last_reported":1753373576,"current_range_meters":18000,"station_id":"ce4bhh92rcd13ifvqfj0","pricing_plan_id":"cebpf4jnsgd1na2vs0mg"},{"bike_id":"74054fd4-1ac3-4c18-b1e8-192aa565524c","system_id":"levelo_inurba_marseille","lat":43.28428,"lon":5.34988,"is_reserved":false,"is_disabled":false,"rental_uris":{"android":"levelo://app?vid=74054fd4-1ac3-4c18-b1e8-192aa565524c","ios":"levelo://app?vid=74054fd4-1ac3-4c18-b1e8-192aa565524c"},"vehicle_type_id":"4","last_reported":1753373576,"current_range_meters":18000,"station_id":"ce4bhbh2rcd13ifvqepg","pricing_plan_id":"cebpf4jnsgd1na2vs0mg"},{"bike_id":"4cb65977-f12a-4007-9a6f-bc769660619e","system_id":"levelo_inurba_marseille","lat":43.24812,"lon":5.374804,"is_reserved":false,"is_disabled":false,"rental_uris":{"android":"levelo://app?vid=4cb65977-f12a-4007-9a6f-bc769660619e","ios":"levelo://app?vid=4cb65977-f12a-4007-9a6f-bc769660619e"},"vehicle_type_id":"4","last_reported":1753373576,"current_range_meters":18000,"station_id":"ce4bhgh2rcd13ifvqfb0","pricing_plan_id":"cebpf4jnsgd1na2vs0mg"},{"bike_id":"184dd696-a175-47ac-8af1-548fdbc31847","system_id":"levelo_inurba_marseille","lat":43.305,"lon":5.36547,"is_reserved":false,"is_disabled":false,"rental_uris":{"android":"levelo://app?vid=184dd696-a175-47ac-8af1-548fdbc31847","ios":"levelo://app?vid=184dd696-a175-47ac-8af1-548fdbc31847"},"vehicle_type_id":"4","last_reported":1753373576,"current_range_meters":18000,"station_id":"","pricing_plan_id":"cebpf4jnsgd1na2vs0mg"},{"bike_id":"5ff116b2-d6d8-42dc-bffc-64af329cd2f0","system_id":"levelo_inurba_marseille","lat":43.24999,"lon":5.38929,"is_reserved":false,"is_disabled":false,"rental_uris":{"android":"levelo://app?vid=5ff116b2-d6d8-42dc-bffc-64af329cd2f0","ios":"levelo://app?vid=5ff116b2-d6d8-42dc-bffc-64af329cd2f0"},"vehicle_type_id":"4","last_reported":1753373576,"current_range_meters":18000,"station_id":"ce4bhgp2rcd13ifvqfd0","pricing_plan_id":"cebpf4jnsgd1na2vs0mg"},{"bike_id":"238cb4e5-0209-4fe3-be15-ae9f11e628ac","system_id":"levelo_inurba_marseille","lat":43.28699,"lon":5.39978,"is_reserved":false,"is_disabled":false,"rental_uris":{"android":"levelo://app?vid=238cb4e5-0209-4fe3-be15-ae9f11e628ac","ios":"levelo://app?vid=238cb4e5-0209-4fe3-be15-ae9f11e628ac"},"vehicle_type_id":"4","last_reported":1753373576,"current_range_meters":18000,"station_id":"ce4bho92rcd13ifvqh3g","pricing_plan_id":"cebpf4jnsgd1na2vs0mg"},{"bike_id":"166cc376-5185-49c9-bb17-6e25d9b59719","system_id":"levelo_inurba_marseille","lat":43.31083,"lon":5.42431,"is_reserved":false,"is_disabled":false,"rental_uris":{"android":"levelo://app?vid=166cc376-5185-49c9-bb17-6e25d9b59719","ios":"levelo://app?vid=166cc376-5185-49c9-bb17-6e25d9b59719"},"vehicle_type_id":"4","last_reported":1753373576,"current_range_meters":18000,"station_id":"ce4bhp92rcd13ifvqhag","pricing_plan_id":"cebpf4jnsgd1na2vs0mg"},{"bike_id":"dddbef83-b47e-460f-a4ac-beade05833f1","system_id":"levelo_inurba_marseille","lat":43.22938,"lon":5.35384,"is_reserved":false,"is_disabled":false,"rental_uris":{"android":"levelo://app?vid=dddbef83-b47e-460f-a4ac-beade05833f1","ios":"levelo://app?vid=dddbef83-b47e-460f-a4ac-beade05833f1"},"vehicle_type_id":"4","last_reported":1753373576,"current_range_meters":18000,"station_id":"cpo3532slgdg3j2ikp40","pricing_plan_id":"cebpf4jnsgd1na2vs0mg"},{"bike_id":"40f55cb4-8528-4690-a0ea-0ea104aa3f0f","system_id":"levelo_inurba_marseille","lat":43.29037,"lon":5.38637,"is_reserved":false,"is_disabled":false,"rental_uris":{"android":"levelo://app?vid=40f55cb4-8528-4690-a0ea-0ea104aa3f0f","ios":"levelo://app?vid=40f55cb4-8528-4690-a0ea-0ea104aa3f0f"},"vehicle_type_id":"4","last_reported":1753373576,"current_range_meters":18000,"station_id":"ce4bh4p2rcd13ifvqe0g","pricing_plan_id":"cebpf4jnsgd1na2vs0mg"},{"bike_id":"5d3598ef-1bad-4315-a82e-6d8d757affba","system_id":"levelo_inurba_marseille","lat":43.3107,"lon":5.38352,"is_reserved":false,"is_disabled":false,"rental_uris":{"android":"levelo://app?vid=5d3598ef-1bad-4315-a82e-6d8d757affba","ios":"levelo://app?vid=5d3598ef-1bad-4315-a82e-6d8d757affba"},"vehicle_type_id":"4","last_reported":1753373576,"current_range_meters":18000,"station_id":"ce4bgv92rcd13ifvqcr0","pricing_plan_id":"cebpf4jnsgd1na2vs0mg"},{"bike_id":"8f70915d-bc1c-45ca-8fe6-323b2b3282c8","system_id":"levelo_inurba_marseille","lat":43.24806,"lon":5.37454,"is_reserved":false,"is_disabled":false,"rental_uris":{"android":"levelo://app?vid=8f70915d-bc1c-45ca-8fe6-323b2b3282c8","ios":"levelo://app?vid=8f70915d-bc1c-45ca-8fe6-323b2b3282c8"},"vehicle_type_id":"4","last_reported":1753373576,"current_range_meters":18000,"station_id":"ce4bhgh2rcd13ifvqfb0","pricing_plan_id":"cebpf4jnsgd1na2vs0mg"},{"bike_id":"4a2cc3d2-a6ba-4f76-86a7-b9bd91b884d4","system_id":"levelo_inurba_marseille","lat":43.303209,"lon":5.404378,"is_reserved":false,"is_disabled":false,"rental_uris":{"android":"levelo://app?vid=4a2cc3d2-a6ba-4f76-86a7-b9bd91b884d4","ios":"levelo://app?vid=4a2cc3d2-a6ba-4f76-86a7-b9bd91b884d4"},"vehicle_type_id":"4","last_reported":1753373576,"current_range_meters":18800,"station_id":"ce4bh012rcd13ifvqd10","pricing_plan_id":"cebpf4jnsgd1na2vs0mg"},{"bike_id":"04f8621d-e280-40eb-b541-49adfa8880bd","system_id":"levelo_inurba_marseille","lat":43.27373,"lon":5.36253,"is_reserved":false,"is_disabled":false,"rental_uris":{"android":"levelo://app?vid=04f8621d-e280-40eb-b541-49adfa8880bd","ios":"levelo://app?vid=04f8621d-e280-40eb-b541-49adfa8880bd"},"vehicle_type_id":"4","last_reported":1753373576,"current_range_meters":18800,"station_id":"ce4bhbh2rcd13ifvqeo0","pricing_plan_id":"cebpf4jnsgd1na2vs0mg"},{"bike_id":"91a1a090-14ff-4864-ab64-65ac4f58f132","system_id":"levelo_inurba_marseille","lat":43.241639,"lon":5.363976,"is_reserved":false,"is_disabled":false,"rental_uris":{"android":"levelo://app?vid=91a1a090-14ff-4864-ab64-65ac4f58f132","ios":"levelo://app?vid=91a1a090-14ff-4864-ab64-65ac4f58f132"},"vehicle_type_id":"4","last_reported":1753373576,"current_range_meters":18800,"station_id":"cpo36qri1sfpv3e86is0","pricing_plan_id":"cebpf4jnsgd1na2vs0mg"},{"bike_id":"cee10a10-187e-4ed0-bb82-a39b38395646","system_id":"levelo_inurba_marseille","lat":43.24815,"lon":5.37449,"is_reserved":false,"is_disabled":false,"rental_uris":{"android":"levelo://app?vid=cee10a10-187e-4ed0-bb82-a39b38395646","ios":"levelo://app?vid=cee10a10-187e-4ed0-bb82-a39b38395646"},"vehicle_type_id":"4","last_reported":1753373576,"current_range_meters":18800,"station_id":"ce4bhgh2rcd13ifvqfb0","pricing_plan_id":"cebpf4jnsgd1na2vs0mg"},{"bike_id":"0d9afe33-f66a-4fa0-a4dc-1a08d1d19fe1","system_id":"levelo_inurba_marseille","lat":43.25921,"lon":5.40883,"is_reserved":false,"is_disabled":true,"rental_uris":{"android":"levelo://app?vid=0d9afe33-f66a-4fa0-a4dc-1a08d1d19fe1","ios":"levelo://app?vid=0d9afe33-f66a-4fa0-a4dc-1a08d1d19fe1"},"vehicle_type_id":"4","last_reported":1753373576,"current_range_meters":18800,"station_id":"ce4bhm92rcd13ifvqglg","pricing_plan_id":"cebpf4jnsgd1na2vs0mg"},{"bike_id":"21bb3fef-81ef-46bb-a48d-d85402757c94","system_id":"levelo_inurba_marseille","lat":43.25469,"lon":5.37966,"is_reserved":false,"is_disabled":false,"rental_uris":{"android":"levelo://app?vid=21bb3fef-81ef-46bb-a48d-d85402757c94","ios":"levelo://app?vid=21bb3fef-81ef-46bb-a48d-d85402757c94"},"vehicle_type_id":"4","last_reported":1753373576,"current_range_meters":18800,"station_id":"","pricing_plan_id":"cebpf4jnsgd1na2vs0mg"},{"bike_id":"a61c3ffa-f010-453d-a8ff-d64e52ad67dc","system_id":"levelo_inurba_marseille","lat":43.29909,"lon":5.38284,"is_reserved":false,"is_disabled":false,"rental_uris":{"android":"levelo://app?vid=a61c3ffa-f010-453d-a8ff-d64e52ad67dc","ios":"levelo://app?vid=a61c3ffa-f010-453d-a8ff-d64e52ad67dc"},"vehicle_type_id":"4","last_reported":1753373576,"current_range_meters":18800,"station_id":"","pricing_plan_id":"cebpf4jnsgd1na2vs0mg"},