{"last_updated":1679591212,"ttl":30,"version":"2.2","data":{"bikes":[{"bike_id":"e500456f-d403-4de8-b602-b41aab7e3ee2","system_id":"levelo_inurba_marseille","lat":43.312239,"lon":5.368562,"is_reserved":false,"is_disabled":false,"rental_uris":{"android":"levelo://app?vid=e500456f-d403-4de8-b602-b41aab7e3ee2","ios":"levelo://app?vid=e500456f-d403-4de8-b602-b41aab7e3ee2"},"vehicle_type_id":"4","last_reported":1679591213,"current_range_meters":0,"station_id":"ce4bgl92rcd13ifvqbq0","pricing_plan_id":"free"},{"bike_id":"104391a1-dad8-4e83-83a3-fa60370cf5f8","system_id":"levelo_inurba_marseille","lat":43.309117,"lon":5.368582,"is_reserved":false,"is_disabled":false,"rental_uris":{"android":"levelo://app?vid=104391a1-dad8-4e83-83a3-fa60370cf5f8","ios":"levelo://app?vid=104391a1-dad8-4e83-83a3-fa60370cf5f8"},"vehicle_type_id":"4","last_reported":1679591213,"current_range_meters":0,"station_id":"ce4bgn92rcd13ifvqbvg","pricing_plan_id":"free"},{"bike_id":"3a1697c5-c7d9-4c78-92dc-c00f7aed29f0","system_id":"levelo_inurba_marseille","lat":43.309095,"lon":5.3686,"is_reserved":false,"is_disabled":false,"rental_uris":{"android":"levelo://app?vid=3a1697c5-c7d9-4c78-92dc-c00f7aed29f0","ios":"levelo://app?vid=3a1697c5-c7d9-4c78-92dc-c00f7aed29f0"},"vehicle_type_id":"4","last_reported":1679591213,"current_range_meters":0,"station_id":"ce4bgn92rcd13ifvqbvg","pricing_plan_id":"free"},{"bike_id":"cea14b1b-e414-4a1f-80d1-6951cb2d72b6","system_id":"levelo_inurba_marseille","lat":43.30471,"lon":5.37917,"is_reserved":false,"is_disabled":false,"rental_uris":{"android":"levelo://app?vid=cea14b1b-e414-4a1f-80d1-6951cb2d72b6","ios":"levelo://app?vid=cea14b1b-e414-4a1f-80d1-6951cb2d72b6"},"vehicle_type_id":"4","last_reported":1679591213,"current_range_meters":0,"station_id":"","pricing_plan_id":"free"},{"bike_id":"37c3c9cf-102e-40a4-aabd-d97506d303a9","system_id":"levelo_inurba_marseille","lat":43.31718,"lon":5.38272,"is_reserved":false,"is_disabled":false,"rental_uris":{"android":"levelo://app?vid=37c3c9cf-102e-40a4-aabd-d97506d303a9","ios":"levelo://app?vid=37c3c9cf-102e-40a4-aabd-d97506d303a9"},"vehicle_type_id":"4","last_reported":1679591213,"current_range_meters":27200,"station_id":"","pricing_plan_id":"free"},{"bike_id":"86482586-5e59-4a89-bb4b-2e492b8ea22d","system_id":"levelo_inurba_marseille","lat":43.31371,"lon":5.38489,"is_reserved":false,"is_disabled":false,"rental_uris":{"android":"levelo://app?vid=86482586-5e59-4a89-bb4b-2e492b8ea22d","ios":"levelo://app?vid=86482586-5e59-4a89-bb4b-2e492b8ea22d"},"vehicle_type_id":"4","last_reported":1679591213,"current_range_meters":0,"station_id":"","pricing_plan_id":"free"},{"bike_id":"7cc1943e-98ad-4af9-beb7-422cc706e2b0","system_id":"levelo_inurba_marseille","lat":43.313571,"lon":5.384829,"is_reserved":false,"is_disabled":false,"rental_uris":{"android":"levelo://app?vid=7cc1943e-98ad-4af9-beb7-422cc706e2b0","ios":"levelo://app?vid=7cc1943e-98ad-4af9-beb7-422cc706e2b0"},"vehicle_type_id":"4","last_reported":1679591213,"current_range_meters":12000,"station_id":"ce4bgt92rcd13ifvqcf0","pricing_plan_id":"free"},{"bike_id":"6c83b100-d37d-4c72-93dd-d3899a67a470","system_id":"levelo_inurba_marseille","lat":43.313571,"lon":5.384829,"is_reserved":false,"is_disabled":false,"rental_uris":{"android":"levelo://app?vid=6c83b100-d37d-4c72-93dd-d3899a67a470","ios":"levelo://app?vid=6c83b100-d37d-4c72-93dd-d3899a67a470"},"vehicle_type_id":"4","last_reported":1679591213,"current_range_meters":0,"station_id":"ce4bgt92rcd13ifvqcf0","pricing_plan_id":"free"},{"bike_id":"f809f4c3-d057-4410-a7ff-1d6f5de224aa","system_id":"levelo_inurba_marseille","lat":43.298433,"lon":5.362774,"is_reserved":false,"is_disabled":false,"rental_uris":{"android":"levelo://app?vid=f809f4c3-d057-4410-a7ff-1d6f5de224aa","ios":"levelo://app?vid=f809f4c3-d057-4410-a7ff-1d6f5de224aa"},"vehicle_type_id":"4","last_reported":1679591213,"current_range_meters":0,"station_id":"ce4bgpp2rcd13ifvqc3g","pricing_plan_id":"free"},{"bike_id":"8e7191ef-00a6-45cd-b154-bc870a385d92","system_id":"levelo_inurba_marseille","lat":43.305403,"lon":5.384288,"is_reserved":false,"is_disabled":false,"rental_uris":{"android":"levelo://app?vid=8e7191ef-00a6-45cd-b154-bc870a385d92","ios":"levelo://app?vid=8e7191ef-00a6-45cd-b154-bc870a385d92"},"vehicle_type_id":"4","last_reported":1679591213,"current_range_meters":0,"station_id":"ce4bgg92rcd13ifvqb30","pricing_plan_id":"free"},{"bike_id":"88e2e5e6-b25a-4ac2-b3e7-ae3eb8387eb6","system_id":"levelo_inurba_marseille","lat":43.29844,"lon":5.36272,"is_reserved":false,"is_disabled":false,"rental_uris":{"android":"levelo://app?vid=88e2e5e6-b25a-4ac2-b3e7-ae3eb8387eb6","ios":"levelo://app?vid=88e2e5e6-b25a-4ac2-b3e7-ae3eb8387eb6"},"vehicle_type_id":"4","last_reported":1679591213,"current_range_meters":0,"station_id":"","pricing_plan_id":"free"},{"bike_id":"9ff64b86-4ae1-40fc-befc-a5d93f5582c2","system_id":"levelo_inurba_marseille","lat":43.29769,"lon":5.37114,"is_reserved":false,"is_disabled":false,"rental_uris":{"android":"levelo://app?vid=9ff64b86-4ae1-40fc-befc-a5d93f5582c2","ios":"levelo://app?vid=9ff64b86-4ae1-40fc-befc-a5d93f5582c2"},"vehicle_type_id":"4","last_reported":1679591213,"current_range_meters":16000,"station_id":"ce4bgop2rcd13ifvqc1g","pricing_plan_id":"free"},{"bike_id":"b74fd0f6-25df-47ec-bb1e-80e841de3f6a","system_id":"levelo_inurba_marseille","lat":43.32824,"lon":5.36687,"is_reserved":false,"is_disabled":false,"rental_uris":{"android":"levelo://app?vid=b74fd0f6-25df-47ec-bb1e-80e841de3f6a","ios":"levelo://app?vid=b74fd0f6-25df-47ec-bb1e-80e841de3f6a"},"vehicle_type_id":"4","last_reported":1679591213,"current_range_meters":24400,"station_id":"","pricing_plan_id":"free"},{"bike_id":"11a176bc-14ab-4b82-a6c6-369e683b06ca","system_id":"levelo_inurba_marseille","lat":43.328371,"lon":5.366912,"is_reserved":false,"is_disabled":false,"rental_uris":{"android":"levelo://app?vid=11a176bc-14ab-4b82-a6c6-369e683b06ca","ios":"levelo://app?vid=11a176bc-14ab-4b82-a6c6-369e683b06ca"},"vehicle_type_id":"4","last_reported":1679591213,"current_range_meters":0,"station_id":"ce4bhs92rcd13ifvqi0g","pricing_plan_id":"free"},{"bike_id":"95381055-66b6-439d-8f18-9c229dff0d38","system_id":"levelo_inurba_marseille","lat":43.32833,"lon":5.36682,"is_reserved":false,"is_disabled":false,"rental_uris":{"android":"levelo://app?vid=95381055-66b6-439d-8f18-9c229dff0d38","ios":"levelo://app?vid=95381055-66b6-439d-8f18-9c229dff0d38"},"vehicle_type_id":"4","last_reported":1679591213,"current_range_meters":5200,"station_id":"","pricing_plan_id":"free"},{"bike_id":"231c5c3c-f83d-4d48-9bd3-6162a25cb0ae","system_id":"levelo_inurba_marseille","lat":43.317557,"lon":5.390173,"is_reserved":false,"is_disabled":false,"rental_uris":{"android":"levelo://app?vid=231c5c3c-f83d-4d48-9bd3-6162a25cb0ae","ios":"levelo://app?vid=231c5c3c-f83d-4d48-9bd3-6162a25cb0ae"},"vehicle_type_id":"4","last_reported":1679591213,"current_range_meters":15600,"station_id":"ce4bhqp2rcd13ifvqhng","pricing_plan_id":"free"},{"bike_id":"66360c01-5ead-4fb3-9091-423678f05609","system_id":"levelo_inurba_marseille","lat":43.304278,"lon":5.388868,"is_reserved":false,"is_disabled":false,"rental_uris":{"android":"levelo://app?vid=66360c01-5ead-4fb3-9091-423678f05609","ios":"levelo://app?vid=66360c01-5ead-4fb3-9091-423678f05609"},"vehicle_type_id":"4","last_reported":1679591213,"current_range_meters":9200,"station_id":"ce4bgk12rcd13ifvqbi0","pricing_plan_id":"free"},{"bike_id":"63fdb1ad-50d6-4b91-bcf7-2caaba337dd9","system_id":"levelo_inurba_marseille","lat":43.296263,"lon":5.377094,"is_reserved":false,"is_disabled":false,"rental_uris":{"android":"levelo://app?vid=63fdb1ad-50d6-4b91-bcf7-2caaba337dd9","ios":"levelo://app?vid=63fdb1ad-50d6-4b91-bcf7-2caaba337dd9"},"vehicle_type_id":"4","last_reported":1679591213,"current_range_meters":2800,"station_id":"ce4bgi92rcd13ifvqb90","pricing_plan_id":"free"},{"bike_id":"135ef47a-d8b7-4e5e-ac4b-fdb6d2feabc0","system_id":"levelo_inurba_marseille","lat":43.299707,"lon":5.384859,"is_reserved":false,"is_disabled":false,"rental_uris":{"android":"levelo://app?vid=135ef47a-d8b7-4e5e-ac4b-fdb6d2feabc0","ios":"levelo://app?vid=135ef47a-d8b7-4e5e-ac4b-fdb6d2feabc0"},"vehicle_type_id":"4","last_reported":1679591213,"current_range_meters":12000,"station_id":"ce4bgj92rcd13ifvqbd0","pricing_plan_id":"free"},{"bike_id":"d4f72bca-dab7-4422-b079-93889d621263","system_id":"levelo_inurba_marseille","lat":43.313291,"lon":5.396838,"is_reserved":false,"is_disabled":false,"rental_uris":{"android":"levelo://app?vid=d4f72bca-dab7-4422-b079-93889d621263","ios":"levelo://app?vid=d4f72bca-dab7-4422-b079-93889d621263"},"vehicle_type_id":"4","last_reported":1679591213,"current_range_meters":30400,"station_id":"ce4bgvp2rcd13ifvqcu0","pricing_plan_id":"free"},{"bike_id":"356efc89-01bd-4ce2-9ee3-413820f9e245","system_id":"levelo_inurba_marseille","lat":43.313291,"lon":5.396838,"is_reserved":false,"is_disabled":false,"rental_uris":{"android":"levelo://app?vid=356efc89-01bd-4ce2-9ee3-413820f9e245","ios":"levelo://app?vid=356efc89-01bd-4ce2-9ee3-413820f9e245"},"vehicle_type_id":"4","last_reported":1679591213,"current_range_meters":31600,"station_id":"ce4bgvp2rcd13ifvqcu0","pricing_plan_id":"free"},{"bike_id":"c8b1381b-8a40-4a01-8e46-15250b05afe8","system_id":"levelo_inurba_marseille","lat":43.302012,"lon":5.393278,"is_reserved":false,"is_disabled":false,"rental_uris":{"android":"levelo://app?vid=c8b1381b-8a40-4a01-8e46-15250b05afe8","ios":"levelo://app?vid=c8b1381b-8a40-4a01-8e46-15250b05afe8"},"vehicle_type_id":"4","last_reported":1679591213,"current_range_meters":24800,"station_id":"ce4bh0p2rcd13ifvqd70","pricing_plan_id":"free"},{"bike_id":"54d04a6f-fa2d-4ae0-a612-e933335e054c","system_id":"levelo_inurba_marseille","lat":43.30211,"lon":5.39471,"is_reserved":false,"is_disabled":false,"rental_uris":{"android":"levelo://app?vid=54d04a6f-fa2d-4ae0-a612-e933335e054c","ios":"levelo://app?vid=54d04a6f-fa2d-4ae0-a612-e933335e054c"},"vehicle_type_id":"4","last_reported":1679591213,"current_range_meters":12800,"station_id":"ce4bh0p2rcd13ifvqd70","pricing_plan_id":"free"},{"bike_id":"b2914192-4e75-4af3-92f2-ac1ab1de1b8b","system_id":"levelo_inurba_marseille","lat":43.290378,"lon":5.359213,"is_reserved":false,"is_disabled":false,"rental_uris":{"android":"levelo://app?vid=b2914192-4e75-4af3-92f2-ac1ab1de1b8b","ios":"levelo://app?vid=b2914192-4e75-4af3-92f2-ac1ab1de1b8b"},"vehicle_type_id":"4","last_reported":1679591213,"current_range_meters":0,"station_id":"ce4bha92rcd13ifvqeg0","pricing_plan_id":"free"},{"bike_id":"92a54200-c345-48ce-bb51-cfe2ebab8adc","system_id":"levelo_inurba_marseille","lat":43.290378,"lon":5.375594,"is_reserved":false,"is_disabled":false,"rental_uris":{"android":"levelo://app?vid=92a54200-c345-48ce-bb51-cfe2ebab8adc","ios":"levelo://app?vid=92a54200-c345-48ce-bb51-cfe2ebab8adc"},"vehicle_type_id":"4","last_reported":1679591213,"current_range_meters":0,"station_id":"ce4bh692rcd13ifvqe90","pricing_plan_id":"free"},{"bike_id":"fb887dc2-2dcd-4c69-9816-75baeaf780af","system_id":"levelo_inurba_marseille","lat":43.289435,"lon":5.366388,"is_reserved":false,"is_disabled":false,"rental_uris":{"android":"levelo://app?vid=fb887dc2-2dcd-4c69-9816-75baeaf780af","ios":"levelo://app?vid=fb887dc2-2dcd-4c69-9816-75baeaf780af"},"vehicle_type_id":"4","last_reported":1679591213,"current_range_meters":31600,"station_id":"ce4bhap2rcd13ifvqek0","pricing_plan_id":"free"},{"bike_id":"b3ebd2c3-dc8a-4588-a6d8-df16cbb1fe72","system_id":"levelo_inurba_marseille","lat":43.32936,"lon":5.389412,"is_reserved":false,"is_disabled":false,"rental_uris":{"android":"levelo://app?vid=b3ebd2c3-dc8a-4588-a6d8-df16cbb1fe72","ios":"levelo://app?vid=b3ebd2c3-dc8a-4588-a6d8-df16cbb1fe72"},"vehicle_type_id":"4","last_reported":1679591213,"current_range_meters":0,"station_id":"","pricing_plan_id":"free"},{"bike_id":"059b350f-c956-4721-8c67-0c9075374c8c","system_id":"levelo_inurba_marseille","lat":43.289184,"lon":5.366408,"is_reserved":false,"is_disabled":false,"rental_uris":{"android":"levelo://app?vid=059b350f-c956-4721-8c67-0c9075374c8c","ios":"levelo://app?vid=059b350f-c956-4721-8c67-0c9075374c8c"},"vehicle_type_id":"4","last_reported":1679591213,"current_range_meters":28800,"station_id":"ce4bhap2rcd13ifvqek0","pricing_plan_id":"free"},{"bike_id":"12fec15d-74e0-45b8-8e69-9b76ebe128f9","system_id":"levelo_inurba_marseille","lat":43.292654,"lon":5.384466,"is_reserved":false,"is_disabled":false,"rental_uris":{"android":"levelo://app?vid=12fec15d-74e0-45b8-8e69-9b76ebe128f9","ios":"levelo://app?vid=12fec15d-74e0-45b8-8e69-9b76ebe128f9"},"vehicle_type_id":"4","last_reported":1679591213,"current_range_meters":0,"station_id":"ce4bh692rcd13ifvqea0","pricing_plan_id":"free"},{"bike_id":"825c2a4a-acff-4705-a9ed-cb6fd29443a5","system_id":"levelo_inurba_marseille","lat":43.29008,"lon":5.356254,"is_reserved":false,"is_disabled":false,"rental_uris":{"android":"levelo://app?vid=825c2a4a-acff-4705-a9ed-cb6fd29443a5","ios":"levelo://app?vid=825c2a4a-acff-4705-a9ed-cb6fd29443a5"},"vehicle_type_id":"4","last_reported":1679591213,"current_range_meters":4000,"station_id":"ce4bhb92rcd13ifvqen0","pricing_plan_id":"free"},{"bike_id":"3b8c753a-52b0-46c0-a0f0-31fc95e53c86","system_id":"levelo_inurba_marseille","lat":43.33045,"lon":5.38916,"is_reserved":false,"is_disabled":false,"rental_uris":{"android":"levelo://app?vid=3b8c753a-52b0-46c0-a0f0-31fc95e53c86","ios":"levelo://app?vid=3b8c753a-52b0-46c0-a0f0-31fc95e53c86"},"vehicle_type_id":"4","last_reported":1679591213,"current_range_meters":28000,"station_id":"ce4bhr92rcd13ifvqhrg","pricing_plan_id":"free"},{"bike_id":"5f565f2c-1372-4203-9b41-b402c16b30ce","system_id":"levelo_inurba_marseille","lat":43.33044,"lon":5.38918,"is_reserved":false,"is_disabled":false,"rental_uris":{"android":"levelo://app?vid=5f565f2c-1372-4203-9b41-b402c16b30ce","ios":"levelo://app?vid=5f565f2c-1372-4203-9b41-b402c16b30ce"},"vehicle_type_id":"4","last_reported":1679591213,"current_range_meters":15200,"station_id":"","pricing_plan_id":"free"},{"bike_id":"9fa6b0ed-9c4a-4051-95b7-7a4e05e2b852","system_id":"levelo_inurba_marseille","lat":43.33045,"lon":5.38917,"is_reserved":false,"is_disabled":false,"rental_uris":{"android":"levelo://app?vid=9fa6b0ed-9c4a-4051-95b7-7a4e05e2b852","ios":"levelo://app?vid=9fa6b0ed-9c4a-4051-95b7-7a4e05e2b852"},"vehicle_type_id":"4","last_reported":1679591213,"current_range_meters":8000,"station_id":"","pricing_plan_id":"free"},{"bike_id":"0c1adef8-6067-4dde-9d8a-f3d5e3112516","system_id":"levelo_inurba_marseille","lat":43.33046,"lon":5.38916,"is_reserved":false,"is_disabled":false,"rental_uris":{"android":"levelo://app?vid=0c1adef8-6067-4dde-9d8a-f3d5e3112516","ios":"levelo://app?vid=0c1adef8-6067-4dde-9d8a-f3d5e3112516"},"vehicle_type_id":"4","last_reported":1679591213,"current_range_meters":11200,"station_id":"ce4bhr92rcd13ifvqhrg","pricing_plan_id":"free"},{"bike_id":"5850681a-c151-4c90-9cd8-a88020c6cc15","system_id":"levelo_inurba_marseille","lat":43.290104,"lon":5.356111,"is_reserved":false,"is_disabled":false,"rental_uris":{"android":"levelo://app?vid=5850681a-c151-4c90-9cd8-a88020c6cc15","ios":"levelo://app?vid=5850681a-c151-4c90-9cd8-a88020c6cc15"},"vehicle_type_id":"4","last_reported":1679591213,"current_range_meters":0,"station_id":"ce4bhb92rcd13ifvqen0","pricing_plan_id":"free"},{"bike_id":"213046de-0059-46be-8908-ccd982f03339","system_id":"levelo_inurba_marseille","lat":43.301117,"lon":5.398795,"is_reserved":false,"is_disabled":false,"rental_uris":{"android":"levelo://app?vid=213046de-0059-46be-8908-ccd982f03339","ios":"levelo://app?vid=213046de-0059-46be-8908-ccd982f03339"},"vehicle_type_id":"4","last_reported":1679591213,"current_range_meters":0,"station_id":"ce4bh0h2rcd13ifvqd40","pricing_plan_id":"free"},{"bike_id":"8f81f65c-7d71-459e-a840-52cb65aa1c23","system_id":"levelo_inurba_marseille","lat":43.301266,"lon":5.398606,"is_reserved":false,"is_disabled":false,"rental_uris":{"android":"levelo://app?vid=8f81f65c-7d71-459e-a840-52cb65aa1c23","ios":"levelo://app?vid=8f81f65c-7d71-459e-a840-52cb65aa1c23"},"vehicle_type_id":"4","last_reported":1679591213,"current_range_meters":800,"station_id":"","pricing_plan_id":"free"},{"bike_id":"12e61614-bb8f-452c-896d-a69d56e9f9e7","system_id":"levelo_inurba_marseille","lat":43.29536,"lon":5.39394,"is_reserved":false,"is_disabled":false,"rental_uris":{"android":"levelo://app?vid=12e61614-bb8f-452c-896d-a69d56e9f9e7","ios":"levelo://app?vid=12e61614-bb8f-452c-896d-a69d56e9f9e7"},"vehicle_type_id":"4","last_reported":1679591213,"current_range_meters":2400,"station_id":"ce4bh212rcd13ifvqde0","pricing_plan_id":"free"},{"bike_id":"8ffd6a82-e126-41ca-9db3-0ca34cfbff6c","system_id":"levelo_inurba_marseille","lat":43.2953,"lon":5.39401,"is_reserved":false,"is_disabled":false,"rental_uris":{"android":"levelo://app?vid=8ffd6a82-e126-41ca-9db3-0ca34cfbff6c","ios":"levelo://app?vid=8ffd6a82-e126-41ca-9db3-0ca34cfbff6c"},"vehicle_type_id":"4","last_reported":1679591213,"current_range_meters":20800,"station_id":"ce4bh212rcd13ifvqde0","pricing_plan_id":"free"},{"bike_id":"25373e2b-80ee-41a6-b1a2-3131efddb7ee","system_id":"levelo_inurba_marseille","lat":43.29523,"lon":5.39398,"is_reserved":false,"is_disabled":false,"rental_uris":{"android":"levelo://app?vid=25373e2b-80ee-41a6-b1a2-3131efddb7ee","ios":"levelo://app?vid=25373e2b-80ee-41a6-b1a2-3131efddb7ee"},"vehicle_type_id":"4","last_reported":1679591213,"current_range_meters":1600,"station_id":"ce4bh212rcd13ifvqde0","pricing_plan_id":"free"},{"bike_id":"219a3e38-1f26-45f4-8638-0bf1f918a9ea","system_id":"levelo_inurba_marseille","lat":43.29524,"lon":5.39408,"is_reserved":false,"is_disabled":false,"rental_uris":{"android":"levelo://app?vid=219a3e38-1f26-45f4-8638-0bf1f918a9ea","ios":"levelo://app?vid=219a3e38-1f26-45f4-8638-0bf1f918a9ea"},"vehicle_type_id":"4","last_reported":1679591213,"current_range_meters":0,"station_id":"ce4bh212rcd13ifvqde0","pricing_plan_id":"free"},{"bike_id":"7c3b4830-39ea-4a79-b419-189293b1dcde","system_id":"levelo_inurba_marseille","lat":43.302759,"lon":5.400793,"is_reserved":false,"is_disabled":false,"rental_uris":{"android":"levelo://app?vid=7c3b4830-39ea-4a79-b419-189293b1dcde","ios":"levelo://app?vid=7c3b4830-39ea-4a79-b419-189293b1dcde"},"vehicle_type_id":"4","last_reported":1679591213,"current_range_meters":0,"station_id":"ce4bgvh2rcd13ifvqcs0","pricing_plan_id":"free"},{"bike_id":"332dbfa7-f197-4cdc-8eb3-d074a1fd705a","system_id":"levelo_inurba_marseille","lat":43.28611,"lon":5.37065,"is_reserved":false,"is_disabled":false,"rental_uris":{"android":"levelo://app?vid=332dbfa7-f197-4cdc-8eb3-d074a1fd705a","ios":"levelo://app?vid=332dbfa7-f197-4cdc-8eb3-d074a1fd705a"},"vehicle_type_id":"4","last_reported":1679591213,"current_range_meters":0,"station_id":"","pricing_plan_id":"free"},{"bike_id":"d1cd2b69-6b39-4534-ba55-d67000b61aef","system_id":"levelo_inurba_marseille","lat":43.287185,"lon":5.379373,"is_reserved":false,"is_disabled":false,"rental_uris":{"android":"levelo://app?vid=d1cd2b69-6b39-4534-ba55-d67000b61aef","ios":"levelo://app?vid=d1cd2b69-6b39-4534-ba55-d67000b61aef"},"vehicle_type_id":"4","last_reported":1679591213,"current_range_meters":15200,"station_id":"ce4bh9p2rcd13ifvqec0","pricing_plan_id":"free"},{"bike_id":"4eb62658-51b8-4834-bc1e-473cf73299f7","system_id":"levelo_inurba_marseille","lat":43.287185,"lon":5.379373,"is_reserved":false,"is_disabled":false,"rental_uris":{"android":"levelo://app?vid=4eb62658-51b8-4834-bc1e-473cf73299f7","ios":"levelo://app?vid=4eb62658-51b8-4834-bc1e-473cf73299f7"},"vehicle_type_id":"4","last_reported":1679591213,"current_range_meters":24800,"station_id":"ce4bh9p2rcd13ifvqec0","pricing_plan_id":"free"},{"bike_id":"cd3d4217-59be-45c8-baaf-fd0a3fe7e8ba","system_id":"levelo_inurba_marseille","lat":43.287185,"lon":5.379373,"is_reserved":false,"is_disabled":false,"rental_uris":{"android":"levelo://app?vid=cd3d4217-59be-45c8-baaf-fd0a3fe7e8ba","ios":"levelo://app?vid=cd3d4217-59be-45c8-baaf-fd0a3fe7e8ba"},"vehicle_type_id":"4","last_reported":1679591213,"current_range_meters":400,"station_id":"ce4bh9p2rcd13ifvqec0","pricing_plan_id":"free"},{"bike_id":"1b173026-1826-4494-8e77-c2773706ce9b","system_id":"levelo_inurba_marseille","lat":43.28707,"lon":5.35204,"is_reserved":false,"is_disabled":false,"rental_uris":{"android":"levelo://app?vid=1b173026-1826-4494-8e77-c2773706ce9b","ios":"levelo://app?vid=1b173026-1826-4494-8e77-c2773706ce9b"},"vehicle_type_id":"4","last_reported":1679591213,"current_range_meters":3200,"station_id":"","pricing_plan_id":"free"},{"bike_id":"add5cd00-ab58-40f3-b3dd-46ef1544cf41","system_id":"levelo_inurba_marseille","lat":43.284534,"lon":5.358662,"is_reserved":false,"is_disabled":false,"rental_uris":{"android":"levelo://app?vid=add5cd00-ab58-40f3-b3dd-46ef1544cf41","ios":"levelo://app?vid=add5cd00-ab58-40f3-b3dd-46ef1544cf41"},"vehicle_type_id":"4","last_reported":1679591213,"current_range_meters":400,"station_id":"ce4bhah2rcd13ifvqei0","pricing_plan_id":"free"},{"bike_id":"fcce9511-f4f6-4d0d-88af-1a5e20175d93","system_id":"levelo_inurba_marseille","lat":43.284534,"lon":5.358662,"is_reserved":false,"is_disabled":false,"rental_uris":{"android":"levelo://app?vid=fcce9511-f4f6-4d0d-88af-1a5e20175d93","ios":"levelo://app?vid=fcce9511-f4f6-4d0d-88af-1a5e20175d93"},"vehicle_type_id":"4","last_reported":1679591213,"current_range_meters":8000,"station_id":"ce4bhah2rcd13ifvqei0","pricing_plan_id":"free"},{"bike_id":"bfc2391c-a466-43ab-9438-18e27a3c17de","system_id":"levelo_inurba_marseille","lat":43.284534,"lon":5.358662,"is_reserved":false,"is_disabled":false,"rental_uris":{"android":"levelo://app?vid=bfc2391c-a466-43ab-9438-18e27a3c17de","ios":"levelo://app?vid=bfc2391c-a466-43ab-9438-18e27a3c17de"},"vehicle_type_id":"4","last_reported":1679591213,"current_range_meters":0,"station_id":"ce4bhah2rcd13ifvqei0","pricing_plan_id":"free"},{"bike_id":"8cc46495-7e00-4d05-a6f7-551730e2d59b","system_id":"levelo_inurba_marseille","lat":43.284534,"lon":5.358662,"is_reserved":false,"is_disabled":false,"rental_uris":{"android":"levelo://app?vid=8cc46495-7e00-4d05-a6f7-551730e2d59b","ios":"levelo://app?vid=8cc46495-7e00-4d05-a6f7-551730e2d59b"},"vehicle_type_id":"4","last_reported":1679591213,"current_range_meters":32000,"station_id":"ce4bhah2rcd13ifvqei0","pricing_plan_id":"free"},{"bike_id":"83a6ab68-6a36-46dd-9e80-ee232c26aa82","system_id":"levelo_inurba_marseille","lat":43.284638,"lon":5.358856,"is_reserved":false,"is_disabled":false,"rental_uris":{"android":"levelo://app?vid=83a6ab68-6a36-46dd-9e80-ee232c26aa82","ios":"levelo://app?vid=83a6ab68-6a36-46dd-9e80-ee232c26aa82"},"vehicle_type_id":"4","last_reported":1679591213,"current_range_meters":16400,"station_id":"ce4bhap2rcd13ifvqek0","pricing_plan_id":"free"},{"bike_id":"e67a2b33-a80f-4aab-af37-32e446b9dbb1","system_id":"levelo_inurba_marseille","lat":43.284534,"lon":5.358662,"is_reserved":false,"is_disabled":false,"rental_uris":{"android":"levelo://app?vid=e67a2b33-a80f-4aab-af37-32e446b9dbb1","ios":"levelo://app?vid=e67a2b33-a80f-4aab-af37-32e446b9dbb1"},"vehicle_type_id":"4","last_reported":1679591213,"current_range_meters":19200,"station_id":"ce4bhah2rcd13ifvqei0","pricing_plan_id":"free"},{"bike_id":"e4726cfe-05d7-4d61-b6c7-b882bf2b4831","system_id":"levelo_inurba_marseille","lat":43.33717,"lon":5.391857,"is_reserved":false,"is_disabled":false,"rental_uris":{"android":"levelo://app?vid=e4726cfe-05d7-4d61-b6c7-b882bf2b4831","ios":"levelo://app?vid=e4726cfe-05d7-4d61-b6c7-b882bf2b4831"},"vehicle_type_id":"4","last_reported":1679591213,"current_range_meters":0,"station_id":"ce4bhr92rcd13ifvqhsg","pricing_plan_id":"free"},{"bike_id":"6cad7e7f-85c9-4bc7-bc80-e9e9d092488e","system_id":"levelo_inurba_marseille","lat":43.284786,"lon":5.384079,"is_reserved":false,"is_disabled":false,"rental_uris":{"android":"levelo://app?vid=6cad7e7f-85c9-4bc7-bc80-e9e9d092488e","ios":"levelo://app?vid=6cad7e7f-85c9-4bc7-bc80-e9e9d092488e"},"vehicle_type_id":"4","last_reported":1679591213,"current_range_meters":8000,"station_id":"ce4bh512rcd13ifvqe3g","pricing_plan_id":"free"},{"bike_id":"e90c91ac-8e88-404e-8a97-747439e85a37","system_id":"levelo_inurba_marseille","lat":43.28479,"lon":5.38415,"is_reserved":false,"is_disabled":false,"rental_uris":{"android":"levelo://app?vid=e90c91ac-8e88-404e-8a97-747439e85a37","ios":"levelo://app?vid=e90c91ac-8e88-404e-8a97-747439e85a37"},"vehicle_type_id":"4","last_reported":1679591213,"current_range_meters":2000,"station_id":"ce4bh512rcd13ifvqe3g","pricing_plan_id":"free"},{"bike_id":"48f33223-db99-40d6-a577-767a4500ac15","system_id":"levelo_inurba_marseille","lat":43.28479,"lon":5.38421,"is_reserved":false,"is_disabled":false,"rental_uris":{"android":"levelo://app?vid=48f33223-db99-40d6-a577-767a4500ac15","ios":"levelo://app?vid=48f33223-db99-40d6-a577-767a4500ac15"},"vehicle_type_id":"4","last_reported":1679591213,"current_range_meters":3200,"station_id":"ce4bh512rcd13ifvqe3g","pricing_plan_id":"free"},{"bike_id":"9befffe7-ab8d-4f23-8421-c8088a3b5a74","system_id":"levelo_inurba_marseille","lat":43.28353,"lon":5.381069,"is_reserved":false,"is_disabled":false,"rental_uris":{"android":"levelo://app?vid=9befffe7-ab8d-4f23-8421-c8088a3b5a74","ios":"levelo://app?vid=9befffe7-ab8d-4f23-8421-c8088a3b5a74"},"vehicle_type_id":"4","last_reported":1679591213,"current_range_meters":0,"station_id":"","pricing_plan_id":"free"},{"bike_id":"c97cdeb0-eda5-469f-9eea-1b1df52fbd2f","system_id":"levelo_inurba_marseille","lat":43.28427,"lon":5.349935,"is_reserved":false,"is_disabled":false,"rental_uris":{"android":"levelo://app?vid=c97cdeb0-eda5-469f-9eea-1b1df52fbd2f","ios":"levelo://app?vid=c97cdeb0-eda5-469f-9eea-1b1df52fbd2f"},"vehicle_type_id":"4","last_reported":1679591213,"current_range_meters":5200,"station_id":"","pricing_plan_id":"free"},{"bike_id":"9672d917-ee6c-44c8-bb8c-560d1e44eef6","system_id":"levelo_inurba_marseille","lat":43.28427,"lon":5.34988,"is_reserved":false,"is_disabled":false,"rental_uris":{"android":"levelo://app?vid=9672d917-ee6c-44c8-bb8c-560d1e44eef6","ios":"levelo://app?vid=9672d917-ee6c-44c8-bb8c-560d1e44eef6"},"vehicle_type_id":"4","last_reported":1679591213,"current_range_meters":31600,"station_id":"ce4bhbh2rcd13ifvqepg","pricing_plan_id":"free"},{"bike_id":"9666492c-8ded-4df9-bd95-f74ba0cec60a","system_id":"levelo_inurba_marseille","lat":43.284219,"lon":5.3497,"is_reserved":false,"is_disabled":false,"rental_uris":{"android":"levelo://app?vid=9666492c-8ded-4df9-bd95-f74ba0cec60a","ios":"levelo://app?vid=9666492c-8ded-4df9-bd95-f74ba0cec60a"},"vehicle_type_id":"4","last_reported":1679591213,"current_range_meters":0,"station_id":"ce4bhbh2rcd13ifvqepg","pricing_plan_id":"free"},{"bike_id":"b9ca15a1-063a-49de-a9c7-4937535a625f","system_id":"levelo_inurba_marseille","lat":43.28425,"lon":5.34986,"is_reserved":false,"is_disabled":false,"rental_uris":{"android":"levelo://app?vid=b9ca15a1-063a-49de-a9c7-4937535a625f","ios":"levelo://app?vid=b9ca15a1-063a-49de-a9c7-4937535a625f"},"vehicle_type_id":"4","last_reported":1679591213,"current_range_meters":0,"station_id":"ce4bhbh2rcd13ifvqepg","pricing_plan_id":"free"},{"bike_id":"c4218f6c-0e12-470e-9ecd-baae85c226f6","system_id":"levelo_inurba_marseille","lat":43.284219,"lon":5.3497,"is_reserved":false,"is_disabled":false,"rental_uris":{"android":"levelo://app?vid=c4218f6c-0e12-470e-9ecd-baae85c226f6","ios":"levelo://app?vid=c4218f6c-0e12-470e-9ecd-baae85c226f6"},"vehicle_type_id":"4","last_reported":1679591213,"current_range_meters":0,"station_id":"ce4bhbh2rcd13ifvqepg","pricing_plan_id":"free"},{"bike_id":"462bb38d-825f-4419-a00f-858808c204f4","system_id":"levelo_inurba_marseille","lat":43.284217,"lon":5.349697,"is_reserved":false,"is_disabled":false,"rental_uris":{"android":"levelo://app?vid=462bb38d-825f-4419-a00f-858808c204f4","ios":"levelo://app?vid=462bb38d-825f-4419-a00f-858808c204f4"},"vehicle_type_id":"4","last_reported":1679591213,"current_range_meters":21600,"station_id":"ce4bhbh2rcd13ifvqepg","pricing_plan_id":"free"},{"bike_id":"b3b3d7f8-56bf-4877-adf8-f1f6c8186157","system_id":"levelo_inurba_marseille","lat":43.284217,"lon":5.349697,"is_reserved":false,"is_disabled":false,"rental_uris":{"android":"levelo://app?vid=b3b3d7f8-56bf-4877-adf8-f1f6c8186157","ios":"levelo://app?vid=b3b3d7f8-56bf-4877-adf8-f1f6c8186157"},"vehicle_type_id":"4","last_reported":1679591213,"current_range_meters":0,"station_id":"ce4bhbh2rcd13ifvqepg","pricing_plan_id":"free"},{"bike_id":"aa020344-3cbb-4dd9-9d3e-ba1c6b3f35f5","system_id":"levelo_inurba_marseille","lat":43.284217,"lon":5.349697,"is_reserved":false,"is_disabled":false,"rental_uris":{"android":"levelo://app?vid=aa020344-3cbb-4dd9-9d3e-ba1c6b3f35f5","ios":"levelo://app?vid=aa020344-3cbb-4dd9-9d3e-ba1c6b3f35f5"},"vehicle_type_id":"4","last_reported":1679591213,"current_range_meters":1200,"station_id":"ce4bhbh2rcd13ifvqepg","pricing_plan_id":"free"},{"bike_id":"c6085c87-a1f2-43ca-aaaf-185df3c79c5e","system_id":"levelo_inurba_marseille","lat":43.28274,"lon":5.350653,"is_reserved":false,"is_disabled":false,"rental_uris":{"android":"levelo://app?vid=c6085c87-a1f2-43ca-aaaf-185df3c79c5e","ios":"levelo://app?vid=c6085c87-a1f2-43ca-aaaf-185df3c79c5e"},"vehicle_type_id":"4","last_reported":1679591213,"current_range_meters":8400,"station_id":"ce4bhbp2rcd13ifvqerg","pricing_plan_id":"free"},{"bike_id":"fe9f9c61-5a2b-4d30-9353-f4dcb9022d7c","system_id":"levelo_inurba_marseille","lat":43.282707,"lon":5.350633,"is_reserved":false,"is_disabled":false,"rental_uris":{"android":"levelo://app?vid=fe9f9c61-5a2b-4d30-9353-f4dcb9022d7c","ios":"levelo://app?vid=fe9f9c61-5a2b-4d30-9353-f4dcb9022d7c"},"vehicle_type_id":"4","last_reported":1679591213,"current_range_meters":28000,"station_id":"","pricing_plan_id":"free"},{"bike_id":"6d2b03ab-0907-421a-ba13-95c9b7b133f9","system_id":"levelo_inurba_marseille","lat":43.280384,"lon":5.369414,"is_reserved":false,"is_disabled":false,"rental_uris":{"android":"levelo://app?vid=6d2b03ab-0907-421a-ba13-95c9b7b133f9","ios":"levelo://app?vid=6d2b03ab-0907-421a-ba13-95c9b7b133f9"},"vehicle_type_id":"4","last_reported":1679591213,"current_range_meters":14000,"station_id":"","pricing_plan_id":"free"},{"bike_id":"809159e6-58b0-407a-b3ec-89bd2373d7c5","system_id":"levelo_inurba_marseille","lat":43.28256,"lon":5.35049,"is_reserved":false,"is_disabled":false,"rental_uris":{"android":"levelo://app?vid=809159e6-58b0-407a-b3ec-89bd2373d7c5","ios":"levelo://app?vid=809159e6-58b0-407a-b3ec-89bd2373d7c5"},"vehicle_type_id":"4","last_reported":1679591213,"current_range_meters":4400,"station_id":"ce4bhbp2rcd13ifvqerg","pricing_plan_id":"free"},{"bike_id":"796f7b38-cfeb-4f30-999f-2ed3b8cd7732","system_id":"levelo_inurba_marseille","lat":43.281044,"lon":5.378308,"is_reserved":false,"is_disabled":false,"rental_uris":{"android":"levelo://app?vid=796f7b38-cfeb-4f30-999f-2ed3b8cd7732","ios":"levelo://app?vid=796f7b38-cfeb-4f30-999f-2ed3b8cd7732"},"vehicle_type_id":"4","last_reported":1679591213,"current_range_meters":17600,"station_id":"ce4bha12rcd13ifvqee0","pricing_plan_id":"free"},{"bike_id":"4ed148e5-a50f-424a-a93f-ca663d1af7b7","system_id":"levelo_inurba_marseille","lat":43.304138,"lon":5.412832,"is_reserved":false,"is_disabled":false,"rental_uris":{"android":"levelo://app?vid=4ed148e5-a50f-424a-a93f-ca663d1af7b7","ios":"levelo://app?vid=4ed148e5-a50f-424a-a93f-ca663d1af7b7"},"vehicle_type_id":"4","last_reported":1679591213,"current_range_meters":26000,"station_id":"ce4bhop2rcd13ifvqh8g","pricing_plan_id":"free"},{"bike_id":"726b32b1-6c11-46bb-a873-58bcc7f04575","system_id":"levelo_inurba_marseille","lat":43.29264,"lon":5.40916,"is_reserved":false,"is_disabled":false,"rental_uris":{"android":"levelo://app?vid=726b32b1-6c11-46bb-a873-58bcc7f04575","ios":"levelo://app?vid=726b32b1-6c11-46bb-a873-58bcc7f04575"},"vehicle_type_id":"4","last_reported":1679591213,"current_range_meters":400,"station_id":"","pricing_plan_id":"free"},{"bike_id":"ba2cc5d1-916d-439b-8a1d-170e322aa1e7","system_id":"levelo_inurba_marseille","lat":43.325233,"lon":5.414318,"is_reserved":false,"is_disabled":false,"rental_uris":{"android":"levelo://app?vid=ba2cc5d1-916d-439b-8a1d-170e322aa1e7","ios":"levelo://app?vid=ba2cc5d1-916d-439b-8a1d-170e322aa1e7"},"vehicle_type_id":"4","last_reported":1679591213,"current_range_meters":0,"station_id":"ce4bhq12rcd13ifvqhhg","pricing_plan_id":"free"},{"bike_id":"1ecf22c9-3184-4ccb-8a60-21a6bc3f4de2","system_id":"levelo_inurba_marseille","lat":43.27618,"lon":5.361009,"is_reserved":false,"is_disabled":false,"rental_uris":{"android":"levelo://app?vid=1ecf22c9-3184-4ccb-8a60-21a6bc3f4de2","ios":"levelo://app?vid=1ecf22c9-3184-4ccb-8a60-21a6bc3f4de2"},"vehicle_type_id":"4","last_reported":1679591213,"current_range_meters":7600,"station_id":"ce4bgj92rcd13ifvqbe0","pricing_plan_id":"free"},{"bike_id":"c4bf4d1c-8107-4236-84d1-cc3afcb8f5db","system_id":"levelo_inurba_marseille","lat":43.27618,"lon":5.361009,"is_reserved":false,"is_disabled":false,"rental_uris":{"android":"levelo://app?vid=c4bf4d1c-8107-4236-84d1-cc3afcb8f5db","ios":"levelo://app?vid=c4bf4d1c-8107-4236-84d1-cc3afcb8f5db"},"vehicle_type_id":"4","last_reported":1679591213,"current_range_meters":7200,"station_id":"ce4bgj92rcd13ifvqbe0","pricing_plan_id":"free"},{"bike_id":"8f5b428d-0b80-4fb7-99aa-0536ade3d755","system_id":"levelo_inurba_marseille","lat":43.27618,"lon":5.361009,"is_reserved":false,"is_disabled":false,"rental_uris":{"android":"levelo://app?vid=8f5b428d-0b80-4fb7-99aa-0536ade3d755","ios":"levelo://app?vid=8f5b428d-0b80-4fb7-99aa-0536ade3d755"},"vehicle_type_id":"4","last_reported":1679591213,"current_range_meters":31600,"station_id":"ce4bgj92rcd13ifvqbe0","pricing_plan_id":"free"},{"bike_id":"deb4e5f7-d743-461b-9f90-f91127487478","system_id":"levelo_inurba_marseille","lat":43.28077,"lon":5.39658,"is_reserved":false,"is_disabled":false,"rental_uris":{"android":"levelo://app?vid=deb4e5f7-d743-461b-9f90-f91127487478","ios":"levelo://app?vid=deb4e5f7-d743-461b-9f90-f91127487478"},"vehicle_type_id":"4","last_reported":1679591213,"current_range_meters":1600,"station_id":"ce4bho12rcd13ifvqh2g","pricing_plan_id":"free"},{"bike_id":"879db0f5-205e-4e10-947f-8cc2475d4fb8","system_id":"levelo_inurba_marseille","lat":43.273916,"lon":5.362716,"is_reserved":false,"is_disabled":false,"rental_uris":{"android":"levelo://app?vid=879db0f5-205e-4e10-947f-8cc2475d4fb8","ios":"levelo://app?vid=879db0f5-205e-4e10-947f-8cc2475d4fb8"},"vehicle_type_id":"4","last_reported":1679591213,"current_range_meters":31600,"station_id":"","pricing_plan_id":"free"},{"bike_id":"ecb1fe5e-f43f-45b0-b776-35deeeffab1a","system_id":"levelo_inurba_marseille","lat":43.27382,"lon":5.36266,"is_reserved":false,"is_disabled":false,"rental_uris":{"android":"levelo://app?vid=ecb1fe5e-f43f-45b0-b776-35deeeffab1a","ios":"levelo://app?vid=ecb1fe5e-f43f-45b0-b776-35deeeffab1a"},"vehicle_type_id":"4","last_reported":1679591213,"current_range_meters":23600,"station_id":"","pricing_plan_id":"free"},{"bike_id":"3c177f96-c00f-4501-ac50-3a60b5268075","system_id":"levelo_inurba_marseille","lat":43.273613,"lon":5.362705,"is_reserved":false,"is_disabled":false,"rental_uris":{"android":"levelo://app?vid=3c177f96-c00f-4501-ac50-3a60b5268075","ios":"levelo://app?vid=3c177f96-c00f-4501-ac50-3a60b5268075"},"vehicle_type_id":"4","last_reported":1679591213,"current_range_meters":31600,"station_id":"ce4bhbh2rcd13ifvqeo0","pricing_plan_id":"free"},{"bike_id":"b37b623c-ec92-4633-9524-e2a3c5236eb8","system_id":"levelo_inurba_marseille","lat":43.273613,"lon":5.362705,"is_reserved":false,"is_disabled":false,"rental_uris":{"android":"levelo://app?vid=b37b623c-ec92-4633-9524-e2a3c5236eb8","ios":"levelo://app?vid=b37b623c-ec92-4633-9524-e2a3c5236eb8"},"vehicle_type_id":"4","last_reported":1679591213,"current_range_meters":31200,"station_id":"ce4bhbh2rcd13ifvqeo0","pricing_plan_id":"free"},{"bike_id":"10cdcc7e-dfe0-44d3-9e03-21bd78465d3d","system_id":"levelo_inurba_marseille","lat":43.273613,"lon":5.362705,"is_reserved":false,"is_disabled":false,"rental_uris":{"android":"levelo://app?vid=10cdcc7e-dfe0-44d3-9e03-21bd78465d3d","ios":"levelo://app?vid=10cdcc7e-dfe0-44d3-9e03-21bd78465d3d"},"vehicle_type_id":"4","last_reported":1679591213,"current_range_meters":31200,"station_id":"ce4bhbh2rcd13ifvqeo0","pricing_plan_id":"free"},{"bike_id":"6dda1240-66c1-4a81-a2f2-fa30615dd477","system_id":"levelo_inurba_marseille","lat":43.32721,"lon":5.41775,"is_reserved":false,"is_disabled":false,"rental_uris":{"android":"levelo://app?vid=6dda1240-66c1-4a81-a2f2-fa30615dd477","ios":"levelo://app?vid=6dda1240-66c1-4a81-a2f2-fa30615dd477"},"vehicle_type_id":"4","last_reported":1679591213,"current_range_meters":2400,"station_id":"","pricing_plan_id":"free"},{"bike_id":"98825b3c-7833-4996-b81f-f7c7f8b95c2b","system_id":"levelo_inurba_marseille","lat":43.295523,"lon":5.422926,"is_reserved":false,"is_disabled":false,"rental_uris":{"android":"levelo://app?vid=98825b3c-7833-4996-b81f-f7c7f8b95c2b","ios":"levelo://app?vid=98825b3c-7833-4996-b81f-f7c7f8b95c2b"},"vehicle_type_id":"4","last_reported":1679591213,"current_range_meters":11600,"station_id":"ce4bhph2rcd13ifvqhdg","pricing_plan_id":"free"},{"bike_id":"b84689b3-017d-4192-a071-f090fbf7eaa8","system_id":"levelo_inurba_marseille","lat":43.295523,"lon":5.422926,"is_reserved":false,"is_disabled":false,"rental_uris":{"android":"levelo://app?vid=b84689b3-017d-4192-a071-f090fbf7eaa8","ios":"levelo://app?vid=b84689b3-017d-4192-a071-f090fbf7eaa8"},"vehicle_type_id":"4","last_reported":1679591213,"current_range_meters":29600,"station_id":"ce4bhph2rcd13ifvqhdg","pricing_plan_id":"free"},{"bike_id":"f2cb1a2f-ece5-4e58-8dea-db0be3931bc3","system_id":"levelo_inurba_marseille","lat":43.295523,"lon":5.422926,"is_reserved":false,"is_disabled":false,"rental_uris":{"android":"levelo://app?vid=f2cb1a2f-ece5-4e58-8dea-db0be3931bc3","ios":"levelo://app?vid=f2cb1a2f-ece5-4e58-8dea-db0be3931bc3"},"vehicle_type_id":"4","last_reported":1679591213,"current_range_meters":29200,"station_id":"ce4bhph2rcd13ifvqhdg","pricing_plan_id":"free"},{"bike_id":"05ee3580-e68d-4bef-99ab-99f24cb57563","system_id":"levelo_inurba_marseille","lat":43.29559,"lon":5.422919,"is_reserved":false,"is_disabled":false,"rental_uris":{"android":"levelo://app?vid=05ee3580-e68d-4bef-99ab-99f24cb57563","ios":"levelo://app?vid=05ee3580-e68d-4bef-99ab-99f24cb57563"},"vehicle_type_id":"4","last_reported":1679591213,"current_range_meters":28800,"station_id":"","pricing_plan_id":"free"},{"bike_id":"73631606-4774-4e5a-893b-4bed2bca946d","system_id":"levelo_inurba_marseille","lat":43.295523,"lon":5.422926,"is_reserved":false,"is_disabled":false,"rental_uris":{"android":"levelo://app?vid=73631606-4774-4e5a-893b-4bed2bca946d","ios":"levelo://app?vid=73631606-4774-4e5a-893b-4bed2bca946d"},"vehicle_type_id":"4","last_reported":1679591213,"current_range_meters":31600,"station_id":"ce4bhph2rcd13ifvqhdg","pricing_plan_id":"free"},{"bike_id":"7744a821-f757-4aa8-bcaa-147137f3c9ac","system_id":"levelo_inurba_marseille","lat":43.295572,"lon":5.422926,"is_reserved":false,"is_disabled":false,"rental_uris":{"android":"levelo://app?vid=7744a821-f757-4aa8-bcaa-147137f3c9ac","ios":"levelo://app?vid=7744a821-f757-4aa8-bcaa-147137f3c9ac"},"vehicle_type_id":"4","last_reported":1679591213,"current_range_meters":30000,"station_id":"","pricing_plan_id":"free"},{"bike_id":"6a59ee58-5e55-4d7f-8a94-57e619275ce0","system_id":"levelo_inurba_marseille","lat":43.295523,"lon":5.422926,"is_reserved":false,"is_disabled":false,"rental_uris":{"android":"levelo://app?vid=6a59ee58-5e55-4d7f-8a94-57e619275ce0","ios":"levelo://app?vid=6a59ee58-5e55-4d7f-8a94-57e619275ce0"},"vehicle_type_id":"4","last_reported":1679591213,"current_range_meters":29600,"station_id":"ce4bhph2rcd13ifvqhdg","pricing_plan_id":"free"},{"bike_id":"83e23c09-8b96-4739-8e53-ebd3e9c695b0","system_id":"levelo_inurba_marseille","lat":43.295523,"lon":5.422926,"is_reserved":false,"is_disabled":false,"rental_uris":{"android":"levelo://app?vid=83e23c09-8b96-4739-8e53-ebd3e9c695b0","ios":"levelo://app?vid=83e23c09-8b96-4739-8e53-ebd3e9c695b0"},"vehicle_type_id":"4","last_reported":1679591213,"current_range_meters":31600,"station_id":"ce4bhph2rcd13ifvqhdg","pricing_plan_id":"free"},{"bike_id":"16851cae-aebf-4826-9f45-9defea16c433","system_id":"levelo_inurba_marseille","lat":43.295523,"lon":5.422926,"is_reserved":false,"is_disabled":false,"rental_uris":{"android":"levelo://app?vid=16851cae-aebf-4826-9f45-9defea16c433","ios":"levelo://app?vid=16851cae-aebf-4826-9f45-9defea16c433"},"vehicle_type_id":"4","last_reported":1679591213,"current_range_meters":30000,"station_id":"ce4bhph2rcd13ifvqhdg","pricing_plan_id":"free"},{"bike_id":"f5b3471a-5a66-4315-9038-e7c188be425e","system_id":"levelo_inurba_marseille","lat":43.328241,"lon":5.42536,"is_reserved":false,"is_disabled":false,"rental_uris":{"android":"levelo://app?vid=f5b3471a-5a66-4315-9038-e7c188be425e","ios":"levelo://app?vid=f5b3471a-5a66-4315-9038-e7c188be425e"},"vehicle_type_id":"4","last_reported":1679591213,"current_range_meters":0,"station_id":"","pricing_plan_id":"free"},{"bike_id":"3fab0330-9cdf-4efb-96dc-c2cc9e606add","system_id":"levelo_inurba_marseille","lat":43.265714,"lon":5.372891,"is_reserved":false,"is_disabled":false,"rental_uris":{"android":"levelo://app?vid=3fab0330-9cdf-4efb-96dc-c2cc9e606add","ios":"levelo://app?vid=3fab0330-9cdf-4efb-96dc-c2cc9e606add"},"vehicle_type_id":"4","last_reported":1679591213,"current_range_meters":27200,"station_id":"ce4bhg12rcd13ifvqf70","pricing_plan_id":"free"},{"bike_id":"93bc258b-4126-43e6-a840-b95174b44511","system_id":"levelo_inurba_marseille","lat":43.265714,"lon":5.372891,"is_reserved":false,"is_disabled":false,"rental_uris":{"android":"levelo://app?vid=93bc258b-4126-43e6-a840-b95174b44511","ios":"levelo://app?vid=93bc258b-4126-43e6-a840-b95174b44511"},"vehicle_type_id":"4","last_reported":1679591213,"current_range_meters":30000,"station_id":"ce4bhg12rcd13ifvqf70","pricing_plan_id":"free"},{"bike_id":"217d1f59-d800-46d8-aa49-62d81e46c48e","system_id":"levelo_inurba_marseille","lat":43.26681,"lon":5.382694,"is_reserved":false,"is_disabled":false,"rental_uris":{"android":"levelo://app?vid=217d1f59-d800-46d8-aa49-62d81e46c48e","ios":"levelo://app?vid=217d1f59-d800-46d8-aa49-62d81e46c48e"},"vehicle_type_id":"4","last_reported":1679591213,"current_range_meters":2800,"station_id":"ce4bhg92rcd13ifvqf90","pricing_plan_id":"free"},{"bike_id":"d27f4745-56d6-4753-90f5-23e7418bfaed","system_id":"levelo_inurba_marseille","lat":43.265714,"lon":5.372891,"is_reserved":false,"is_disabled":false,"rental_uris":{"android":"levelo://app?vid=d27f4745-56d6-4753-90f5-23e7418bfaed","ios":"levelo://app?vid=d27f4745-56d6-4753-90f5-23e7418bfaed"},"vehicle_type_id":"4","last_reported":1679591213,"current_range_meters":14000,"station_id":"ce4bhg12rcd13ifvqf70","pricing_plan_id":"free"},{"bike_id":"ba16cf1f-67b2-4591-88f7-a7dc0c8c6ded","system_id":"levelo_inurba_marseille","lat":43.265714,"lon":5.372891,"is_reserved":false,"is_disabled":false,"rental_uris":{"android":"levelo://app?vid=ba16cf1f-67b2-4591-88f7-a7dc0c8c6ded","ios":"levelo://app?vid=ba16cf1f-67b2-4591-88f7-a7dc0c8c6ded"},"vehicle_type_id":"4","last_reported":1679591213,"current_range_meters":17200,"station_id":"ce4bhg12rcd13ifvqf70","pricing_plan_id":"free"},{"bike_id":"22601710-7adf-42ad-99b2-7fbe5912fa64","system_id":"levelo_inurba_marseille","lat":43.265714,"lon":5.372891,"is_reserved":false,"is_disabled":false,"rental_uris":{"android":"levelo://app?vid=22601710-7adf-42ad-99b2-7fbe5912fa64","ios":"levelo://app?vid=22601710-7adf-42ad-99b2-7fbe5912fa64"},"vehicle_type_id":"4","last_reported":1679591213,"current_range_meters":20800,"station_id":"ce4bhg12rcd13ifvqf70","pricing_plan_id":"free"},{"bike_id":"f476b5db-d6d6-4da8-8445-58ce6da08c06","system_id":"levelo_inurba_marseille","lat":43.265714,"lon":5.372891,"is_reserved":false,"is_disabled":false,"rental_uris":{"android":"levelo://app?vid=f476b5db-d6d6-4da8-8445-58ce6da08c06","ios":"levelo://app?vid=f476b5db-d6d6-4da8-8445-58ce6da08c06"},"vehicle_type_id":"4","last_reported":1679591213,"current_range_meters":19600,"station_id":"ce4bhg12rcd13ifvqf70","pricing_plan_id":"free"},{"bike_id":"75110bb4-b625-408c-ade6-137040565320","system_id":"levelo_inurba_marseille","lat":43.265714,"lon":5.372891,"is_reserved":false,"is_disabled":false,"rental_uris":{"android":"levelo://app?vid=75110bb4-b625-408c-ade6-137040565320","ios":"levelo://app?vid=75110bb4-b625-408c-ade6-137040565320"},"vehicle_type_id":"4","last_reported":1679591213,"current_range_meters":30400,"station_id":"ce4bhg12rcd13ifvqf70","pricing_plan_id":"free"},{"bike_id":"ade85767-3dac-406b-b815-2473c38e3718","system_id":"levelo_inurba_marseille","lat":43.26794,"lon":5.39409,"is_reserved":false,"is_disabled":false,"rental_uris":{"android":"levelo://app?vid=ade85767-3dac-406b-b815-2473c38e3718","ios":"levelo://app?vid=ade85767-3dac-406b-b815-2473c38e3718"},"vehicle_type_id":"4","last_reported":1679591213,"current_range_meters":0,"station_id":"ce4bhh12rcd13ifvqfg0","pricing_plan_id":"free"},{"bike_id":"83279b7d-9af0-4752-8799-b852f342ecf7","system_id":"levelo_inurba_marseille","lat":43.30803,"lon":5.43523,"is_reserved":false,"is_disabled":false,"rental_uris":{"android":"levelo://app?vid=83279b7d-9af0-4752-8799-b852f342ecf7","ios":"levelo://app?vid=83279b7d-9af0-4752-8799-b852f342ecf7"},"vehicle_type_id":"4","last_reported":1679591213,"current_range_meters":0,"station_id":"","pricing_plan_id":"free"},{"bike_id":"7acfdb38-1837-4735-a9ea-33cd21e04fae","system_id":"levelo_inurba_marseille","lat":43.26566,"lon":5.39011,"is_reserved":false,"is_disabled":false,"rental_uris":{"android":"levelo://app?vid=7acfdb38-1837-4735-a9ea-33cd21e04fae","ios":"levelo://app?vid=7acfdb38-1837-4735-a9ea-33cd21e04fae"},"vehicle_type_id":"4","last_reported":1679591213,"current_range_meters":0,"station_id":"ce4bhe12rcd13ifvqf30","pricing_plan_id":"free"},{"bike_id":"7fcf39d6-4c41-499d-8080-c27d55cddc62","system_id":"levelo_inurba_marseille","lat":43.331811,"lon":5.431739,"is_reserved":false,"is_disabled":false,"rental_uris":{"android":"levelo://app?vid=7fcf39d6-4c41-499d-8080-c27d55cddc62","ios":"levelo://app?vid=7fcf39d6-4c41-499d-8080-c27d55cddc62"},"vehicle_type_id":"4","last_reported":1679591213,"current_range_meters":17200,"station_id":"","pricing_plan_id":"free"},{"bike_id":"77a8c479-679f-4d1e-a898-ca41bcb53886","system_id":"levelo_inurba_marseille","lat":43.317104,"lon":5.436818,"is_reserved":false,"is_disabled":false,"rental_uris":{"android":"levelo://app?vid=77a8c479-679f-4d1e-a898-ca41bcb53886","ios":"levelo://app?vid=77a8c479-679f-4d1e-a898-ca41bcb53886"},"vehicle_type_id":"4","last_reported":1679591213,"current_range_meters":0,"station_id":"ce4bhp92rcd13ifvqhcg","pricing_plan_id":"free"},{"bike_id":"96aa5c6d-8ec9-4cbd-bc8d-d4d68fb53f6b","system_id":"levelo_inurba_marseille","lat":43.29902,"lon":5.436685,"is_reserved":false,"is_disabled":false,"rental_uris":{"android":"levelo://app?vid=96aa5c6d-8ec9-4cbd-bc8d-d4d68fb53f6b","ios":"levelo://app?vid=96aa5c6d-8ec9-4cbd-bc8d-d4d68fb53f6b"},"vehicle_type_id":"4","last_reported":1679591213,"current_range_meters":17600,"station_id":"","pricing_plan_id":"free"},{"bike_id":"e072b309-1d1f-49aa-8d49-8395ecd76e48","system_id":"levelo_inurba_marseille","lat":43.25123,"lon":5.40316,"is_reserved":false,"is_disabled":false,"rental_uris":{"android":"levelo://app?vid=e072b309-1d1f-49aa-8d49-8395ecd76e48","ios":"levelo://app?vid=e072b309-1d1f-49aa-8d49-8395ecd76e48"},"vehicle_type_id":"4","last_reported":1679591213,"current_range_meters":17600,"station_id":"ce4bhlh2rcd13ifvqgig","pricing_plan_id":"free"},{"bike_id":"70bf99e2-f226-4065-8a3b-b56c6bfdf67c","system_id":"levelo_inurba_marseille","lat":43.25102,"lon":5.403214,"is_reserved":false,"is_disabled":false,"rental_uris":{"android":"levelo://app?vid=70bf99e2-f226-4065-8a3b-b56c6bfdf67c","ios":"levelo://app?vid=70bf99e2-f226-4065-8a3b-b56c6bfdf67c"},"vehicle_type_id":"4","last_reported":1679591213,"current_range_meters":3600,"station_id":"ce4bhlh2rcd13ifvqgig","pricing_plan_id":"free"},{"bike_id":"3e0f2867-0147-44de-a331-a48834d5f72c","system_id":"levelo_inurba_marseille","lat":43.251209,"lon":5.403248,"is_reserved":false,"is_disabled":false,"rental_uris":{"android":"levelo://app?vid=3e0f2867-0147-44de-a331-a48834d5f72c","ios":"levelo://app?vid=3e0f2867-0147-44de-a331-a48834d5f72c"},"vehicle_type_id":"4","last_reported":1679591213,"current_range_meters":0,"station_id":"","pricing_plan_id":"free"},{"bike_id":"7364474b-83f8-43a9-8699-17413e3d14ae","system_id":"levelo_inurba_marseille","lat":43.25102,"lon":5.403214,"is_reserved":false,"is_disabled":false,"rental_uris":{"android":"levelo://app?vid=7364474b-83f8-43a9-8699-17413e3d14ae","ios":"levelo://app?vid=7364474b-83f8-43a9-8699-17413e3d14ae"},"vehicle_type_id":"4","last_reported":1679591213,"current_range_meters":4000,"station_id":"ce4bhlh2rcd13ifvqgig","pricing_plan_id":"free"},{"bike_id":"45f2349a-57a9-4731-9070-041b7f06a1dd","system_id":"levelo_inurba_marseille","lat":43.25102,"lon":5.403214,"is_reserved":false,"is_disabled":false,"rental_uris":{"android":"levelo://app?vid=45f2349a-57a9-4731-9070-041b7f06a1dd","ios":"levelo://app?vid=45f2349a-57a9-4731-9070-041b7f06a1dd"},"vehicle_type_id":"4","last_reported":1679591213,"current_range_meters":2800,"station_id":"ce4bhlh2rcd13ifvqgig","pricing_plan_id":"free"},{"bike_id":"8b1afbdc-3a37-44ad-a73c-077e3566650c","system_id":"levelo_inurba_marseille","lat":43.24183,"lon":5.39733,"is_reserved":false,"is_disabled":false,"rental_uris":{"android":"levelo://app?vid=8b1afbdc-3a37-44ad-a73c-077e3566650c","ios":"levelo://app?vid=8b1afbdc-3a37-44ad-a73c-077e3566650c"},"vehicle_type_id":"4","last_reported":1679591213,"current_range_meters":13200,"station_id":"","pricing_plan_id":"free"},{"bike_id":"0448f426-07c4-4755-b920-9c68fba92d87","system_id":"levelo_inurba_marseille","lat":43.241782,"lon":5.397264,"is_reserved":false,"is_disabled":false,"rental_uris":{"android":"levelo://app?vid=0448f426-07c4-4755-b920-9c68fba92d87","ios":"levelo://app?vid=0448f426-07c4-4755-b920-9c68fba92d87"},"vehicle_type_id":"4","last_reported":1679591213,"current_range_meters":16000,"station_id":"ce4bhn12rcd13ifvqgpg","pricing_plan_id":"free"},{"bike_id":"044bed48-ac1c-4446-999d-3689d6fda8f7","system_id":"levelo_inurba_marseille","lat":43.241782,"lon":5.397264,"is_reserved":false,"is_disabled":false,"rental_uris":{"android":"levelo://app?vid=044bed48-ac1c-4446-999d-3689d6fda8f7","ios":"levelo://app?vid=044bed48-ac1c-4446-999d-3689d6fda8f7"},"vehicle_type_id":"4","last_reported":1679591213,"current_range_meters":2800,"station_id":"ce4bhn12rcd13ifvqgpg","pricing_plan_id":"free"},{"bike_id":"0437c86e-73e1-47b0-a553-13ad441ba205","system_id":"levelo_inurba_marseille","lat":43.241782,"lon":5.397264,"is_reserved":false,"is_disabled":false,"rental_uris":{"android":"levelo://app?vid=0437c86e-73e1-47b0-a553-13ad441ba205","ios":"levelo://app?vid=0437c86e-73e1-47b0-a553-13ad441ba205"},"vehicle_type_id":"4","last_reported":1679591213,"current_range_meters":1600,"station_id":"ce4bhn12rcd13ifvqgpg","pricing_plan_id":"free"},{"bike_id":"0084afd2-398c-40f4-a3fb-b27d3c69568d","system_id":"levelo_inurba_marseille","lat":43.241782,"lon":5.397264,"is_reserved":false,"is_disabled":false,"rental_uris":{"android":"levelo://app?vid=0084afd2-398c-40f4-a3fb-b27d3c69568d","ios":"levelo://app?vid=0084afd2-398c-40f4-a3fb-b27d3c69568d"},"vehicle_type_id":"4","last_reported":1679591213,"current_range_meters":0,"station_id":"ce4bhn12rcd13ifvqgpg","pricing_plan_id":"free"},{"bike_id":"53734f53-3ac0-49af-9dc1-b8ffb67ba7ab","system_id":"levelo_inurba_marseille","lat":43.231919,"lon":5.355532,"is_reserved":false,"is_disabled":false,"rental_uris":{"android":"levelo://app?vid=53734f53-3ac0-49af-9dc1-b8ffb67ba7ab","ios":"levelo://app?vid=53734f53-3ac0-49af-9dc1-b8ffb67ba7ab"},"vehicle_type_id":"4","last_reported":1679591213,"current_range_meters":6800,"station_id":"ce4bhu92rcd13ifvqi70","pricing_plan_id":"free"},{"bike_id":"0fe18a6e-e5f7-47da-b33b-d78501b3ad7e","system_id":"levelo_inurba_marseille","lat":43.231923,"lon":5.355545,"is_reserved":false,"is_disabled":false,"rental_uris":{"android":"levelo://app?vid=0fe18a6e-e5f7-47da-b33b-d78501b3ad7e","ios":"levelo://app?vid=0fe18a6e-e5f7-47da-b33b-d78501b3ad7e"},"vehicle_type_id":"4","last_reported":1679591213,"current_range_meters":1600,"station_id":"ce4bhu92rcd13ifvqi70","pricing_plan_id":"free"}]}}