{"last_updated":1679242093,"ttl":30,"version":"2.2","data":{"bikes":[{"bike_id":"487b2fcd-383a-4221-a133-7acec92d6df5","system_id":"levelo_inurba_marseille","lat":43.312239,"lon":5.368562,"is_reserved":false,"is_disabled":false,"rental_uris":{"android":"levelo://app?vid=487b2fcd-383a-4221-a133-7acec92d6df5","ios":"levelo://app?vid=487b2fcd-383a-4221-a133-7acec92d6df5"},"vehicle_type_id":"4","last_reported":1679242094,"current_range_meters":18800,"station_id":"ce4bgl92rcd13ifvqbq0","pricing_plan_id":"free"},{"bike_id":"dee4bc3f-b827-43b1-a383-c477dc084b30","system_id":"levelo_inurba_marseille","lat":43.312239,"lon":5.368562,"is_reserved":false,"is_disabled":false,"rental_uris":{"android":"levelo://app?vid=dee4bc3f-b827-43b1-a383-c477dc084b30","ios":"levelo://app?vid=dee4bc3f-b827-43b1-a383-c477dc084b30"},"vehicle_type_id":"4","last_reported":1679242094,"current_range_meters":13200,"station_id":"ce4bgl92rcd13ifvqbq0","pricing_plan_id":"free"},{"bike_id":"4abfb0c7-17e2-4ee6-afb2-53320b0645ed","system_id":"levelo_inurba_marseille","lat":43.312239,"lon":5.368562,"is_reserved":false,"is_disabled":false,"rental_uris":{"android":"levelo://app?vid=4abfb0c7-17e2-4ee6-afb2-53320b0645ed","ios":"levelo://app?vid=4abfb0c7-17e2-4ee6-afb2-53320b0645ed"},"vehicle_type_id":"4","last_reported":1679242094,"current_range_meters":4400,"station_id":"ce4bgl92rcd13ifvqbq0","pricing_plan_id":"free"},{"bike_id":"1a4b750c-198e-4978-ae7c-227319236f2f","system_id":"levelo_inurba_marseille","lat":43.30907,"lon":5.36843,"is_reserved":false,"is_disabled":false,"rental_uris":{"android":"levelo://app?vid=1a4b750c-198e-4978-ae7c-227319236f2f","ios":"levelo://app?vid=1a4b750c-198e-4978-ae7c-227319236f2f"},"vehicle_type_id":"4","last_reported":1679242094,"current_range_meters":8000,"station_id":"","pricing_plan_id":"free"},{"bike_id":"e5b1d8b3-336d-4a7c-bf21-11e30fc3bf51","system_id":"levelo_inurba_marseille","lat":43.314811,"lon":5.373103,"is_reserved":false,"is_disabled":false,"rental_uris":{"android":"levelo://app?vid=e5b1d8b3-336d-4a7c-bf21-11e30fc3bf51","ios":"levelo://app?vid=e5b1d8b3-336d-4a7c-bf21-11e30fc3bf51"},"vehicle_type_id":"4","last_reported":1679242094,"current_range_meters":5200,"station_id":"ce4bgt12rcd13ifvqcd0","pricing_plan_id":"free"},{"bike_id":"b4231c33-02c2-41a7-acca-fe076cbf54d8","system_id":"levelo_inurba_marseille","lat":43.314811,"lon":5.373103,"is_reserved":false,"is_disabled":false,"rental_uris":{"android":"levelo://app?vid=b4231c33-02c2-41a7-acca-fe076cbf54d8","ios":"levelo://app?vid=b4231c33-02c2-41a7-acca-fe076cbf54d8"},"vehicle_type_id":"4","last_reported":1679242094,"current_range_meters":31600,"station_id":"ce4bgt12rcd13ifvqcd0","pricing_plan_id":"free"},{"bike_id":"aa5788a5-b65d-4c8c-b18d-866ff9c89d4d","system_id":"levelo_inurba_marseille","lat":43.314811,"lon":5.373103,"is_reserved":false,"is_disabled":false,"rental_uris":{"android":"levelo://app?vid=aa5788a5-b65d-4c8c-b18d-866ff9c89d4d","ios":"levelo://app?vid=aa5788a5-b65d-4c8c-b18d-866ff9c89d4d"},"vehicle_type_id":"4","last_reported":1679242094,"current_range_meters":14800,"station_id":"ce4bgt12rcd13ifvqcd0","pricing_plan_id":"free"},{"bike_id":"33c69dc9-3ca3-4f96-bd57-ed63d3de320c","system_id":"levelo_inurba_marseille","lat":43.314811,"lon":5.373103,"is_reserved":false,"is_disabled":false,"rental_uris":{"android":"levelo://app?vid=33c69dc9-3ca3-4f96-bd57-ed63d3de320c","ios":"levelo://app?vid=33c69dc9-3ca3-4f96-bd57-ed63d3de320c"},"vehicle_type_id":"4","last_reported":1679242094,"current_range_meters":19200,"station_id":"ce4bgt12rcd13ifvqcd0","pricing_plan_id":"free"},{"bike_id":"9259daed-6327-4c2a-a72d-21a69c03ac07","system_id":"levelo_inurba_marseille","lat":43.30601,"lon":5.37221,"is_reserved":false,"is_disabled":false,"rental_uris":{"android":"levelo://app?vid=9259daed-6327-4c2a-a72d-21a69c03ac07","ios":"levelo://app?vid=9259daed-6327-4c2a-a72d-21a69c03ac07"},"vehicle_type_id":"4","last_reported":1679242094,"current_range_meters":16000,"station_id":"","pricing_plan_id":"free"},{"bike_id":"0620025a-1417-4a45-b265-a0ff6da40bd3","system_id":"levelo_inurba_marseille","lat":43.301939,"lon":5.366286,"is_reserved":false,"is_disabled":false,"rental_uris":{"android":"levelo://app?vid=0620025a-1417-4a45-b265-a0ff6da40bd3","ios":"levelo://app?vid=0620025a-1417-4a45-b265-a0ff6da40bd3"},"vehicle_type_id":"4","last_reported":1679242094,"current_range_meters":20800,"station_id":"ce4bgrh2rcd13ifvqc8g","pricing_plan_id":"free"},{"bike_id":"d49ecf09-6e73-473d-aedc-f89745c3baff","system_id":"levelo_inurba_marseille","lat":43.301939,"lon":5.366286,"is_reserved":false,"is_disabled":false,"rental_uris":{"android":"levelo://app?vid=d49ecf09-6e73-473d-aedc-f89745c3baff","ios":"levelo://app?vid=d49ecf09-6e73-473d-aedc-f89745c3baff"},"vehicle_type_id":"4","last_reported":1679242094,"current_range_meters":3600,"station_id":"ce4bgrh2rcd13ifvqc8g","pricing_plan_id":"free"},{"bike_id":"80028cac-8576-4050-b910-6aa398d37821","system_id":"levelo_inurba_marseille","lat":43.30859,"lon":5.380778,"is_reserved":false,"is_disabled":false,"rental_uris":{"android":"levelo://app?vid=80028cac-8576-4050-b910-6aa398d37821","ios":"levelo://app?vid=80028cac-8576-4050-b910-6aa398d37821"},"vehicle_type_id":"4","last_reported":1679242094,"current_range_meters":0,"station_id":"","pricing_plan_id":"free"},{"bike_id":"4f59d4bc-56c4-43ab-951c-edca8280c6b1","system_id":"levelo_inurba_marseille","lat":43.313296,"lon":5.382262,"is_reserved":false,"is_disabled":false,"rental_uris":{"android":"levelo://app?vid=4f59d4bc-56c4-43ab-951c-edca8280c6b1","ios":"levelo://app?vid=4f59d4bc-56c4-43ab-951c-edca8280c6b1"},"vehicle_type_id":"4","last_reported":1679242094,"current_range_meters":0,"station_id":"","pricing_plan_id":"free"},{"bike_id":"f4b17ebd-3e23-4834-ac63-7be28e8ca8ec","system_id":"levelo_inurba_marseille","lat":43.304606,"lon":5.379026,"is_reserved":false,"is_disabled":false,"rental_uris":{"android":"levelo://app?vid=f4b17ebd-3e23-4834-ac63-7be28e8ca8ec","ios":"levelo://app?vid=f4b17ebd-3e23-4834-ac63-7be28e8ca8ec"},"vehicle_type_id":"4","last_reported":1679242094,"current_range_meters":7200,"station_id":"ce4bgup2rcd13ifvqcn0","pricing_plan_id":"free"},{"bike_id":"ce5483ca-3097-4c97-831b-a05f784c37ec","system_id":"levelo_inurba_marseille","lat":43.30143,"lon":5.37413,"is_reserved":false,"is_disabled":false,"rental_uris":{"android":"levelo://app?vid=ce5483ca-3097-4c97-831b-a05f784c37ec","ios":"levelo://app?vid=ce5483ca-3097-4c97-831b-a05f784c37ec"},"vehicle_type_id":"4","last_reported":1679242094,"current_range_meters":13200,"station_id":"ce4bgs92rcd13ifvqcc0","pricing_plan_id":"free"},{"bike_id":"61b3602d-736d-4955-a32a-b59d83e46bc8","system_id":"levelo_inurba_marseille","lat":43.299094,"lon":5.365415,"is_reserved":false,"is_disabled":false,"rental_uris":{"android":"levelo://app?vid=61b3602d-736d-4955-a32a-b59d83e46bc8","ios":"levelo://app?vid=61b3602d-736d-4955-a32a-b59d83e46bc8"},"vehicle_type_id":"4","last_reported":1679242094,"current_range_meters":16800,"station_id":"ce4bgm92rcd13ifvqbr0","pricing_plan_id":"free"},{"bike_id":"f89b0bc4-c837-40c7-908d-efe0295fc6dd","system_id":"levelo_inurba_marseille","lat":43.326511,"lon":5.367591,"is_reserved":false,"is_disabled":false,"rental_uris":{"android":"levelo://app?vid=f89b0bc4-c837-40c7-908d-efe0295fc6dd","ios":"levelo://app?vid=f89b0bc4-c837-40c7-908d-efe0295fc6dd"},"vehicle_type_id":"4","last_reported":1679242094,"current_range_meters":1200,"station_id":"ce4bhs92rcd13ifvqi0g","pricing_plan_id":"free"},{"bike_id":"44017b6f-fbd1-4b19-b21b-3f879f8c7166","system_id":"levelo_inurba_marseille","lat":43.29924,"lon":5.37464,"is_reserved":false,"is_disabled":false,"rental_uris":{"android":"levelo://app?vid=44017b6f-fbd1-4b19-b21b-3f879f8c7166","ios":"levelo://app?vid=44017b6f-fbd1-4b19-b21b-3f879f8c7166"},"vehicle_type_id":"4","last_reported":1679242094,"current_range_meters":11600,"station_id":"","pricing_plan_id":"free"},{"bike_id":"5bccfd6e-3c10-424e-8e6e-79f27b06d6b1","system_id":"levelo_inurba_marseille","lat":43.29918,"lon":5.37459,"is_reserved":false,"is_disabled":false,"rental_uris":{"android":"levelo://app?vid=5bccfd6e-3c10-424e-8e6e-79f27b06d6b1","ios":"levelo://app?vid=5bccfd6e-3c10-424e-8e6e-79f27b06d6b1"},"vehicle_type_id":"4","last_reported":1679242094,"current_range_meters":22800,"station_id":"","pricing_plan_id":"free"},{"bike_id":"0d03ea2b-39f8-4c5e-ab1e-8096ccb15f1e","system_id":"levelo_inurba_marseille","lat":43.328371,"lon":5.366912,"is_reserved":false,"is_disabled":false,"rental_uris":{"android":"levelo://app?vid=0d03ea2b-39f8-4c5e-ab1e-8096ccb15f1e","ios":"levelo://app?vid=0d03ea2b-39f8-4c5e-ab1e-8096ccb15f1e"},"vehicle_type_id":"4","last_reported":1679242094,"current_range_meters":18800,"station_id":"ce4bhs92rcd13ifvqi0g","pricing_plan_id":"free"},{"bike_id":"f627b79f-65d9-406a-9da8-052ded460d6a","system_id":"levelo_inurba_marseille","lat":43.29573,"lon":5.367355,"is_reserved":false,"is_disabled":false,"rental_uris":{"android":"levelo://app?vid=f627b79f-65d9-406a-9da8-052ded460d6a","ios":"levelo://app?vid=f627b79f-65d9-406a-9da8-052ded460d6a"},"vehicle_type_id":"4","last_reported":1679242094,"current_range_meters":0,"station_id":"ce4bgph2rcd13ifvqc2g","pricing_plan_id":"free"},{"bike_id":"7acf979e-3c86-4160-b8d9-bf7af2b894b1","system_id":"levelo_inurba_marseille","lat":43.317588,"lon":5.390063,"is_reserved":false,"is_disabled":false,"rental_uris":{"android":"levelo://app?vid=7acf979e-3c86-4160-b8d9-bf7af2b894b1","ios":"levelo://app?vid=7acf979e-3c86-4160-b8d9-bf7af2b894b1"},"vehicle_type_id":"4","last_reported":1679242094,"current_range_meters":0,"station_id":"","pricing_plan_id":"free"},{"bike_id":"22b6b0ca-9cdd-4ee9-a8a5-37ab3cedee0b","system_id":"levelo_inurba_marseille","lat":43.317557,"lon":5.390173,"is_reserved":false,"is_disabled":false,"rental_uris":{"android":"levelo://app?vid=22b6b0ca-9cdd-4ee9-a8a5-37ab3cedee0b","ios":"levelo://app?vid=22b6b0ca-9cdd-4ee9-a8a5-37ab3cedee0b"},"vehicle_type_id":"4","last_reported":1679242094,"current_range_meters":6400,"station_id":"ce4bhqp2rcd13ifvqhng","pricing_plan_id":"free"},{"bike_id":"d440f30f-c0c8-4a6a-ab4a-196dd841554f","system_id":"levelo_inurba_marseille","lat":43.317557,"lon":5.390173,"is_reserved":false,"is_disabled":false,"rental_uris":{"android":"levelo://app?vid=d440f30f-c0c8-4a6a-ab4a-196dd841554f","ios":"levelo://app?vid=d440f30f-c0c8-4a6a-ab4a-196dd841554f"},"vehicle_type_id":"4","last_reported":1679242094,"current_range_meters":7200,"station_id":"ce4bhqp2rcd13ifvqhng","pricing_plan_id":"free"},{"bike_id":"8f0253d3-dd17-42cf-841b-2d4082d06618","system_id":"levelo_inurba_marseille","lat":43.298056,"lon":5.380908,"is_reserved":false,"is_disabled":false,"rental_uris":{"android":"levelo://app?vid=8f0253d3-dd17-42cf-841b-2d4082d06618","ios":"levelo://app?vid=8f0253d3-dd17-42cf-841b-2d4082d06618"},"vehicle_type_id":"4","last_reported":1679242094,"current_range_meters":0,"station_id":"ce4bgip2rcd13ifvqbb0","pricing_plan_id":"free"},{"bike_id":"e4d09ce9-4d14-49a9-8cab-805a7cdc7db1","system_id":"levelo_inurba_marseille","lat":43.296277,"lon":5.377108,"is_reserved":false,"is_disabled":false,"rental_uris":{"android":"levelo://app?vid=e4d09ce9-4d14-49a9-8cab-805a7cdc7db1","ios":"levelo://app?vid=e4d09ce9-4d14-49a9-8cab-805a7cdc7db1"},"vehicle_type_id":"4","last_reported":1679242094,"current_range_meters":13200,"station_id":"ce4bgi92rcd13ifvqb90","pricing_plan_id":"free"},{"bike_id":"4b1cc913-7244-4162-a75a-9021cd87c2d9","system_id":"levelo_inurba_marseille","lat":43.299724,"lon":5.384848,"is_reserved":false,"is_disabled":false,"rental_uris":{"android":"levelo://app?vid=4b1cc913-7244-4162-a75a-9021cd87c2d9","ios":"levelo://app?vid=4b1cc913-7244-4162-a75a-9021cd87c2d9"},"vehicle_type_id":"4","last_reported":1679242094,"current_range_meters":10800,"station_id":"ce4bgj92rcd13ifvqbd0","pricing_plan_id":"free"},{"bike_id":"cf252b66-3f5c-45eb-b31e-bb776f505cb2","system_id":"levelo_inurba_marseille","lat":43.293009,"lon":5.374584,"is_reserved":false,"is_disabled":false,"rental_uris":{"android":"levelo://app?vid=cf252b66-3f5c-45eb-b31e-bb776f505cb2","ios":"levelo://app?vid=cf252b66-3f5c-45eb-b31e-bb776f505cb2"},"vehicle_type_id":"4","last_reported":1679242094,"current_range_meters":22000,"station_id":"ce4bgi12rcd13ifvqb70","pricing_plan_id":"free"},{"bike_id":"d874b5a0-1b8f-4e08-89f9-4875df6cb26f","system_id":"levelo_inurba_marseille","lat":43.292311,"lon":5.360731,"is_reserved":false,"is_disabled":false,"rental_uris":{"android":"levelo://app?vid=d874b5a0-1b8f-4e08-89f9-4875df6cb26f","ios":"levelo://app?vid=d874b5a0-1b8f-4e08-89f9-4875df6cb26f"},"vehicle_type_id":"4","last_reported":1679242094,"current_range_meters":800,"station_id":"ce4bhbh2rcd13ifvqeqg","pricing_plan_id":"free"},{"bike_id":"6f190165-2e65-47f0-898b-1a995f2641b4","system_id":"levelo_inurba_marseille","lat":43.291675,"lon":5.371583,"is_reserved":false,"is_disabled":false,"rental_uris":{"android":"levelo://app?vid=6f190165-2e65-47f0-898b-1a995f2641b4","ios":"levelo://app?vid=6f190165-2e65-47f0-898b-1a995f2641b4"},"vehicle_type_id":"4","last_reported":1679242094,"current_range_meters":0,"station_id":"ce4bha92rcd13ifvqeh0","pricing_plan_id":"free"},{"bike_id":"a3907f92-c43d-4a45-8489-24b1af7d1cec","system_id":"levelo_inurba_marseille","lat":43.291675,"lon":5.371583,"is_reserved":false,"is_disabled":false,"rental_uris":{"android":"levelo://app?vid=a3907f92-c43d-4a45-8489-24b1af7d1cec","ios":"levelo://app?vid=a3907f92-c43d-4a45-8489-24b1af7d1cec"},"vehicle_type_id":"4","last_reported":1679242094,"current_range_meters":21200,"station_id":"ce4bha92rcd13ifvqeh0","pricing_plan_id":"free"},{"bike_id":"c6b50d85-215f-410a-b3f1-3657a7194a74","system_id":"levelo_inurba_marseille","lat":43.291723,"lon":5.371577,"is_reserved":false,"is_disabled":false,"rental_uris":{"android":"levelo://app?vid=c6b50d85-215f-410a-b3f1-3657a7194a74","ios":"levelo://app?vid=c6b50d85-215f-410a-b3f1-3657a7194a74"},"vehicle_type_id":"4","last_reported":1679242094,"current_range_meters":9600,"station_id":"","pricing_plan_id":"free"},{"bike_id":"ee2c1249-0d7d-475c-9725-9fb44d9155c4","system_id":"levelo_inurba_marseille","lat":43.291675,"lon":5.371583,"is_reserved":false,"is_disabled":false,"rental_uris":{"android":"levelo://app?vid=ee2c1249-0d7d-475c-9725-9fb44d9155c4","ios":"levelo://app?vid=ee2c1249-0d7d-475c-9725-9fb44d9155c4"},"vehicle_type_id":"4","last_reported":1679242094,"current_range_meters":13600,"station_id":"ce4bha92rcd13ifvqeh0","pricing_plan_id":"free"},{"bike_id":"ef0d798e-bfef-44c1-aac6-d560facc5f15","system_id":"levelo_inurba_marseille","lat":43.291675,"lon":5.371583,"is_reserved":false,"is_disabled":false,"rental_uris":{"android":"levelo://app?vid=ef0d798e-bfef-44c1-aac6-d560facc5f15","ios":"levelo://app?vid=ef0d798e-bfef-44c1-aac6-d560facc5f15"},"vehicle_type_id":"4","last_reported":1679242094,"current_range_meters":22800,"station_id":"ce4bha92rcd13ifvqeh0","pricing_plan_id":"free"},{"bike_id":"9cc33113-08fc-4a57-9acf-93995cc965a7","system_id":"levelo_inurba_marseille","lat":43.290779,"lon":5.371482,"is_reserved":false,"is_disabled":false,"rental_uris":{"android":"levelo://app?vid=9cc33113-08fc-4a57-9acf-93995cc965a7","ios":"levelo://app?vid=9cc33113-08fc-4a57-9acf-93995cc965a7"},"vehicle_type_id":"4","last_reported":1679242094,"current_range_meters":18800,"station_id":"ce4bh5p2rcd13ifvqe4g","pricing_plan_id":"free"},{"bike_id":"9980db58-b762-4ec3-9284-3694713ee50b","system_id":"levelo_inurba_marseille","lat":43.290779,"lon":5.371482,"is_reserved":false,"is_disabled":false,"rental_uris":{"android":"levelo://app?vid=9980db58-b762-4ec3-9284-3694713ee50b","ios":"levelo://app?vid=9980db58-b762-4ec3-9284-3694713ee50b"},"vehicle_type_id":"4","last_reported":1679242094,"current_range_meters":400,"station_id":"ce4bh5p2rcd13ifvqe4g","pricing_plan_id":"free"},{"bike_id":"39579edc-b1ff-4756-8a7b-008d378dbe18","system_id":"levelo_inurba_marseille","lat":43.290779,"lon":5.371482,"is_reserved":false,"is_disabled":false,"rental_uris":{"android":"levelo://app?vid=39579edc-b1ff-4756-8a7b-008d378dbe18","ios":"levelo://app?vid=39579edc-b1ff-4756-8a7b-008d378dbe18"},"vehicle_type_id":"4","last_reported":1679242094,"current_range_meters":0,"station_id":"ce4bh5p2rcd13ifvqe4g","pricing_plan_id":"free"},{"bike_id":"9dd3c24a-4dbf-48c3-908f-9412b2b7287f","system_id":"levelo_inurba_marseille","lat":43.292644,"lon":5.384257,"is_reserved":false,"is_disabled":false,"rental_uris":{"android":"levelo://app?vid=9dd3c24a-4dbf-48c3-908f-9412b2b7287f","ios":"levelo://app?vid=9dd3c24a-4dbf-48c3-908f-9412b2b7287f"},"vehicle_type_id":"4","last_reported":1679242094,"current_range_meters":22000,"station_id":"ce4bh692rcd13ifvqea0","pricing_plan_id":"free"},{"bike_id":"f6b47893-db2c-4283-b371-030676db922c","system_id":"levelo_inurba_marseille","lat":43.292644,"lon":5.384257,"is_reserved":false,"is_disabled":false,"rental_uris":{"android":"levelo://app?vid=f6b47893-db2c-4283-b371-030676db922c","ios":"levelo://app?vid=f6b47893-db2c-4283-b371-030676db922c"},"vehicle_type_id":"4","last_reported":1679242094,"current_range_meters":7200,"station_id":"ce4bh692rcd13ifvqea0","pricing_plan_id":"free"},{"bike_id":"a399dce6-8df3-4bb1-8bab-515f9f366716","system_id":"levelo_inurba_marseille","lat":43.292644,"lon":5.384257,"is_reserved":false,"is_disabled":false,"rental_uris":{"android":"levelo://app?vid=a399dce6-8df3-4bb1-8bab-515f9f366716","ios":"levelo://app?vid=a399dce6-8df3-4bb1-8bab-515f9f366716"},"vehicle_type_id":"4","last_reported":1679242094,"current_range_meters":15200,"station_id":"ce4bh692rcd13ifvqea0","pricing_plan_id":"free"},{"bike_id":"2a407996-2c46-4bb2-a14c-3657f6670af2","system_id":"levelo_inurba_marseille","lat":43.295169,"lon":5.390426,"is_reserved":false,"is_disabled":false,"rental_uris":{"android":"levelo://app?vid=2a407996-2c46-4bb2-a14c-3657f6670af2","ios":"levelo://app?vid=2a407996-2c46-4bb2-a14c-3657f6670af2"},"vehicle_type_id":"4","last_reported":1679242094,"current_range_meters":6000,"station_id":"ce4bh3p2rcd13ifvqdp0","pricing_plan_id":"free"},{"bike_id":"d0d7df32-c37a-428a-9862-70b0480dd19b","system_id":"levelo_inurba_marseille","lat":43.337455,"lon":5.374605,"is_reserved":false,"is_disabled":false,"rental_uris":{"android":"levelo://app?vid=d0d7df32-c37a-428a-9862-70b0480dd19b","ios":"levelo://app?vid=d0d7df32-c37a-428a-9862-70b0480dd19b"},"vehicle_type_id":"4","last_reported":1679242094,"current_range_meters":5200,"station_id":"","pricing_plan_id":"free"},{"bike_id":"3691d997-1cad-46ed-b7e6-586680d35f2f","system_id":"levelo_inurba_marseille","lat":43.337479,"lon":5.374594,"is_reserved":false,"is_disabled":false,"rental_uris":{"android":"levelo://app?vid=3691d997-1cad-46ed-b7e6-586680d35f2f","ios":"levelo://app?vid=3691d997-1cad-46ed-b7e6-586680d35f2f"},"vehicle_type_id":"4","last_reported":1679242094,"current_range_meters":17600,"station_id":"","pricing_plan_id":"free"},{"bike_id":"f3e60a9c-2b74-43cb-ac11-5dfafdbb73c0","system_id":"levelo_inurba_marseille","lat":43.337597,"lon":5.374671,"is_reserved":false,"is_disabled":false,"rental_uris":{"android":"levelo://app?vid=f3e60a9c-2b74-43cb-ac11-5dfafdbb73c0","ios":"levelo://app?vid=f3e60a9c-2b74-43cb-ac11-5dfafdbb73c0"},"vehicle_type_id":"4","last_reported":1679242094,"current_range_meters":21200,"station_id":"","pricing_plan_id":"free"},{"bike_id":"78bf842d-10d0-4e83-b36c-15f561ac3588","system_id":"levelo_inurba_marseille","lat":43.30642,"lon":5.401031,"is_reserved":false,"is_disabled":false,"rental_uris":{"android":"levelo://app?vid=78bf842d-10d0-4e83-b36c-15f561ac3588","ios":"levelo://app?vid=78bf842d-10d0-4e83-b36c-15f561ac3588"},"vehicle_type_id":"4","last_reported":1679242094,"current_range_meters":2400,"station_id":"ce4bh112rcd13ifvqda0","pricing_plan_id":"free"},{"bike_id":"12592f75-6822-42ad-89bc-148eb998a5fd","system_id":"levelo_inurba_marseille","lat":43.301117,"lon":5.398795,"is_reserved":false,"is_disabled":false,"rental_uris":{"android":"levelo://app?vid=12592f75-6822-42ad-89bc-148eb998a5fd","ios":"levelo://app?vid=12592f75-6822-42ad-89bc-148eb998a5fd"},"vehicle_type_id":"4","last_reported":1679242094,"current_range_meters":11200,"station_id":"ce4bh0h2rcd13ifvqd40","pricing_plan_id":"free"},{"bike_id":"a2b06b2c-4304-4722-9d37-896026885f1f","system_id":"levelo_inurba_marseille","lat":43.316517,"lon":5.404375,"is_reserved":false,"is_disabled":false,"rental_uris":{"android":"levelo://app?vid=a2b06b2c-4304-4722-9d37-896026885f1f","ios":"levelo://app?vid=a2b06b2c-4304-4722-9d37-896026885f1f"},"vehicle_type_id":"4","last_reported":1679242094,"current_range_meters":31600,"station_id":"ce4bh012rcd13ifvqd00","pricing_plan_id":"free"},{"bike_id":"172b49b9-e596-41bb-a495-7f5e84de82b8","system_id":"levelo_inurba_marseille","lat":43.30316,"lon":5.403066,"is_reserved":false,"is_disabled":false,"rental_uris":{"android":"levelo://app?vid=172b49b9-e596-41bb-a495-7f5e84de82b8","ios":"levelo://app?vid=172b49b9-e596-41bb-a495-7f5e84de82b8"},"vehicle_type_id":"4","last_reported":1679242094,"current_range_meters":0,"station_id":"","pricing_plan_id":"free"},{"bike_id":"6c222e00-9883-4877-bb78-60a82628dedf","system_id":"levelo_inurba_marseille","lat":43.284534,"lon":5.358662,"is_reserved":false,"is_disabled":false,"rental_uris":{"android":"levelo://app?vid=6c222e00-9883-4877-bb78-60a82628dedf","ios":"levelo://app?vid=6c222e00-9883-4877-bb78-60a82628dedf"},"vehicle_type_id":"4","last_reported":1679242094,"current_range_meters":20800,"station_id":"ce4bhah2rcd13ifvqei0","pricing_plan_id":"free"},{"bike_id":"8a28b32b-0dda-451b-b9f4-c2f295f88822","system_id":"levelo_inurba_marseille","lat":43.295713,"lon":5.399639,"is_reserved":false,"is_disabled":false,"rental_uris":{"android":"levelo://app?vid=8a28b32b-0dda-451b-b9f4-c2f295f88822","ios":"levelo://app?vid=8a28b32b-0dda-451b-b9f4-c2f295f88822"},"vehicle_type_id":"4","last_reported":1679242094,"current_range_meters":6800,"station_id":"ce4bh312rcd13ifvqdj0","pricing_plan_id":"free"},{"bike_id":"075017c7-5b76-4c42-9071-817e7a97e923","system_id":"levelo_inurba_marseille","lat":43.295713,"lon":5.399639,"is_reserved":false,"is_disabled":false,"rental_uris":{"android":"levelo://app?vid=075017c7-5b76-4c42-9071-817e7a97e923","ios":"levelo://app?vid=075017c7-5b76-4c42-9071-817e7a97e923"},"vehicle_type_id":"4","last_reported":1679242094,"current_range_meters":13200,"station_id":"ce4bh312rcd13ifvqdj0","pricing_plan_id":"free"},{"bike_id":"945a2d32-32bb-404c-b6ec-d8c1d128d80a","system_id":"levelo_inurba_marseille","lat":43.295713,"lon":5.399639,"is_reserved":false,"is_disabled":false,"rental_uris":{"android":"levelo://app?vid=945a2d32-32bb-404c-b6ec-d8c1d128d80a","ios":"levelo://app?vid=945a2d32-32bb-404c-b6ec-d8c1d128d80a"},"vehicle_type_id":"4","last_reported":1679242094,"current_range_meters":26400,"station_id":"ce4bh312rcd13ifvqdj0","pricing_plan_id":"free"},{"bike_id":"d88f3a14-6b8c-4772-859c-b79fd2661b54","system_id":"levelo_inurba_marseille","lat":43.28846,"lon":5.39308,"is_reserved":false,"is_disabled":false,"rental_uris":{"android":"levelo://app?vid=d88f3a14-6b8c-4772-859c-b79fd2661b54","ios":"levelo://app?vid=d88f3a14-6b8c-4772-859c-b79fd2661b54"},"vehicle_type_id":"4","last_reported":1679242094,"current_range_meters":30000,"station_id":"ce4bh2p2rcd13ifvqdi0","pricing_plan_id":"free"},{"bike_id":"b82c931d-6999-4f48-9839-0bac3ecf35a8","system_id":"levelo_inurba_marseille","lat":43.284219,"lon":5.3497,"is_reserved":false,"is_disabled":false,"rental_uris":{"android":"levelo://app?vid=b82c931d-6999-4f48-9839-0bac3ecf35a8","ios":"levelo://app?vid=b82c931d-6999-4f48-9839-0bac3ecf35a8"},"vehicle_type_id":"4","last_reported":1679242094,"current_range_meters":19200,"station_id":"ce4bhbh2rcd13ifvqepg","pricing_plan_id":"free"},{"bike_id":"60007814-c5c9-4145-8660-512c894b5e97","system_id":"levelo_inurba_marseille","lat":43.32411,"lon":5.406808,"is_reserved":false,"is_disabled":false,"rental_uris":{"android":"levelo://app?vid=60007814-c5c9-4145-8660-512c894b5e97","ios":"levelo://app?vid=60007814-c5c9-4145-8660-512c894b5e97"},"vehicle_type_id":"4","last_reported":1679242094,"current_range_meters":0,"station_id":"","pricing_plan_id":"free"},{"bike_id":"3dc61311-327c-4ee6-abe1-adc200772933","system_id":"levelo_inurba_marseille","lat":43.280382,"lon":5.369291,"is_reserved":false,"is_disabled":false,"rental_uris":{"android":"levelo://app?vid=3dc61311-327c-4ee6-abe1-adc200772933","ios":"levelo://app?vid=3dc61311-327c-4ee6-abe1-adc200772933"},"vehicle_type_id":"4","last_reported":1679242094,"current_range_meters":6000,"station_id":"ce4bha12rcd13ifvqef0","pricing_plan_id":"free"},{"bike_id":"d48e6a3e-cc15-47b7-ad94-dcca04f9859b","system_id":"levelo_inurba_marseille","lat":43.28039,"lon":5.369297,"is_reserved":false,"is_disabled":false,"rental_uris":{"android":"levelo://app?vid=d48e6a3e-cc15-47b7-ad94-dcca04f9859b","ios":"levelo://app?vid=d48e6a3e-cc15-47b7-ad94-dcca04f9859b"},"vehicle_type_id":"4","last_reported":1679242094,"current_range_meters":26800,"station_id":"ce4bha12rcd13ifvqef0","pricing_plan_id":"free"},{"bike_id":"66545219-fac3-4430-9800-56a78158c2ae","system_id":"levelo_inurba_marseille","lat":43.28039,"lon":5.369297,"is_reserved":false,"is_disabled":false,"rental_uris":{"android":"levelo://app?vid=66545219-fac3-4430-9800-56a78158c2ae","ios":"levelo://app?vid=66545219-fac3-4430-9800-56a78158c2ae"},"vehicle_type_id":"4","last_reported":1679242094,"current_range_meters":26800,"station_id":"ce4bha12rcd13ifvqef0","pricing_plan_id":"free"},{"bike_id":"fe1ddf41-6791-42c4-9866-2ffbac8332ba","system_id":"levelo_inurba_marseille","lat":43.325243,"lon":5.414326,"is_reserved":false,"is_disabled":false,"rental_uris":{"android":"levelo://app?vid=fe1ddf41-6791-42c4-9866-2ffbac8332ba","ios":"levelo://app?vid=fe1ddf41-6791-42c4-9866-2ffbac8332ba"},"vehicle_type_id":"4","last_reported":1679242094,"current_range_meters":1600,"station_id":"ce4bhq12rcd13ifvqhhg","pricing_plan_id":"free"},{"bike_id":"229e1c4a-a89e-4c2e-ab50-85550d4f7067","system_id":"levelo_inurba_marseille","lat":43.27618,"lon":5.361009,"is_reserved":false,"is_disabled":false,"rental_uris":{"android":"levelo://app?vid=229e1c4a-a89e-4c2e-ab50-85550d4f7067","ios":"levelo://app?vid=229e1c4a-a89e-4c2e-ab50-85550d4f7067"},"vehicle_type_id":"4","last_reported":1679242094,"current_range_meters":13600,"station_id":"ce4bgj92rcd13ifvqbe0","pricing_plan_id":"free"},{"bike_id":"023d97a7-62bd-4e85-9aae-863e8a5c20b6","system_id":"levelo_inurba_marseille","lat":43.276194,"lon":5.361136,"is_reserved":false,"is_disabled":false,"rental_uris":{"android":"levelo://app?vid=023d97a7-62bd-4e85-9aae-863e8a5c20b6","ios":"levelo://app?vid=023d97a7-62bd-4e85-9aae-863e8a5c20b6"},"vehicle_type_id":"4","last_reported":1679242094,"current_range_meters":28000,"station_id":"","pricing_plan_id":"free"},{"bike_id":"dbf580d0-fc09-4faa-ad5d-12f749e3a199","system_id":"levelo_inurba_marseille","lat":43.27618,"lon":5.361009,"is_reserved":false,"is_disabled":false,"rental_uris":{"android":"levelo://app?vid=dbf580d0-fc09-4faa-ad5d-12f749e3a199","ios":"levelo://app?vid=dbf580d0-fc09-4faa-ad5d-12f749e3a199"},"vehicle_type_id":"4","last_reported":1679242094,"current_range_meters":30800,"station_id":"ce4bgj92rcd13ifvqbe0","pricing_plan_id":"free"},{"bike_id":"232e11cb-fc22-4e57-a623-17d44806111b","system_id":"levelo_inurba_marseille","lat":43.27618,"lon":5.361009,"is_reserved":false,"is_disabled":false,"rental_uris":{"android":"levelo://app?vid=232e11cb-fc22-4e57-a623-17d44806111b","ios":"levelo://app?vid=232e11cb-fc22-4e57-a623-17d44806111b"},"vehicle_type_id":"4","last_reported":1679242094,"current_range_meters":31200,"station_id":"ce4bgj92rcd13ifvqbe0","pricing_plan_id":"free"},{"bike_id":"1aaa30e0-ed9b-43b8-94ae-9b481ae02da4","system_id":"levelo_inurba_marseille","lat":43.27618,"lon":5.361009,"is_reserved":false,"is_disabled":false,"rental_uris":{"android":"levelo://app?vid=1aaa30e0-ed9b-43b8-94ae-9b481ae02da4","ios":"levelo://app?vid=1aaa30e0-ed9b-43b8-94ae-9b481ae02da4"},"vehicle_type_id":"4","last_reported":1679242094,"current_range_meters":27600,"station_id":"ce4bgj92rcd13ifvqbe0","pricing_plan_id":"free"},{"bike_id":"cd9fe0d1-0f3f-4751-90bc-d85329306b58","system_id":"levelo_inurba_marseille","lat":43.27741,"lon":5.3883,"is_reserved":false,"is_disabled":false,"rental_uris":{"android":"levelo://app?vid=cd9fe0d1-0f3f-4751-90bc-d85329306b58","ios":"levelo://app?vid=cd9fe0d1-0f3f-4751-90bc-d85329306b58"},"vehicle_type_id":"4","last_reported":1679242094,"current_range_meters":0,"station_id":"","pricing_plan_id":"free"},{"bike_id":"acbee94d-0172-47db-9715-948344314c84","system_id":"levelo_inurba_marseille","lat":43.27379,"lon":5.36259,"is_reserved":false,"is_disabled":false,"rental_uris":{"android":"levelo://app?vid=acbee94d-0172-47db-9715-948344314c84","ios":"levelo://app?vid=acbee94d-0172-47db-9715-948344314c84"},"vehicle_type_id":"4","last_reported":1679242094,"current_range_meters":8400,"station_id":"","pricing_plan_id":"free"},{"bike_id":"f567aac7-4487-4cef-9f02-9f8b960b80f3","system_id":"levelo_inurba_marseille","lat":43.276771,"lon":5.388799,"is_reserved":false,"is_disabled":false,"rental_uris":{"android":"levelo://app?vid=f567aac7-4487-4cef-9f02-9f8b960b80f3","ios":"levelo://app?vid=f567aac7-4487-4cef-9f02-9f8b960b80f3"},"vehicle_type_id":"4","last_reported":1679242094,"current_range_meters":23200,"station_id":"ce4bhi12rcd13ifvqfo0","pricing_plan_id":"free"},{"bike_id":"b39bb045-3ddb-490d-914a-db761a079e11","system_id":"levelo_inurba_marseille","lat":43.273613,"lon":5.362705,"is_reserved":false,"is_disabled":false,"rental_uris":{"android":"levelo://app?vid=b39bb045-3ddb-490d-914a-db761a079e11","ios":"levelo://app?vid=b39bb045-3ddb-490d-914a-db761a079e11"},"vehicle_type_id":"4","last_reported":1679242094,"current_range_meters":2800,"station_id":"ce4bhbh2rcd13ifvqeo0","pricing_plan_id":"free"},{"bike_id":"a309b365-d90f-49eb-ba7f-1b3961be9f35","system_id":"levelo_inurba_marseille","lat":43.27377,"lon":5.36261,"is_reserved":false,"is_disabled":false,"rental_uris":{"android":"levelo://app?vid=a309b365-d90f-49eb-ba7f-1b3961be9f35","ios":"levelo://app?vid=a309b365-d90f-49eb-ba7f-1b3961be9f35"},"vehicle_type_id":"4","last_reported":1679242094,"current_range_meters":3200,"station_id":"ce4bhbh2rcd13ifvqeo0","pricing_plan_id":"free"},{"bike_id":"b36b92e0-2eae-4676-86df-d73825be4948","system_id":"levelo_inurba_marseille","lat":43.273702,"lon":5.362612,"is_reserved":false,"is_disabled":false,"rental_uris":{"android":"levelo://app?vid=b36b92e0-2eae-4676-86df-d73825be4948","ios":"levelo://app?vid=b36b92e0-2eae-4676-86df-d73825be4948"},"vehicle_type_id":"4","last_reported":1679242094,"current_range_meters":0,"station_id":"","pricing_plan_id":"free"},{"bike_id":"447e9ea2-4aff-4b10-bba7-a8c68ba0bfec","system_id":"levelo_inurba_marseille","lat":43.317446,"lon":5.423964,"is_reserved":false,"is_disabled":false,"rental_uris":{"android":"levelo://app?vid=447e9ea2-4aff-4b10-bba7-a8c68ba0bfec","ios":"levelo://app?vid=447e9ea2-4aff-4b10-bba7-a8c68ba0bfec"},"vehicle_type_id":"4","last_reported":1679242094,"current_range_meters":21600,"station_id":"ce4bhp92rcd13ifvqhbg","pricing_plan_id":"free"},{"bike_id":"0c462d48-5519-45cb-b395-6cd9b5c501d6","system_id":"levelo_inurba_marseille","lat":43.317121,"lon":5.423936,"is_reserved":false,"is_disabled":false,"rental_uris":{"android":"levelo://app?vid=0c462d48-5519-45cb-b395-6cd9b5c501d6","ios":"levelo://app?vid=0c462d48-5519-45cb-b395-6cd9b5c501d6"},"vehicle_type_id":"4","last_reported":1679242094,"current_range_meters":28000,"station_id":"ce4bhp92rcd13ifvqhbg","pricing_plan_id":"free"},{"bike_id":"5b07bd46-d3f2-4ec2-b9d9-aeea9df301b3","system_id":"levelo_inurba_marseille","lat":43.27321,"lon":5.39081,"is_reserved":false,"is_disabled":false,"rental_uris":{"android":"levelo://app?vid=5b07bd46-d3f2-4ec2-b9d9-aeea9df301b3","ios":"levelo://app?vid=5b07bd46-d3f2-4ec2-b9d9-aeea9df301b3"},"vehicle_type_id":"4","last_reported":1679242094,"current_range_meters":0,"station_id":"ce4bhgp2rcd13ifvqfe0","pricing_plan_id":"free"},{"bike_id":"1a04adbb-f061-4595-be83-869ec214b82b","system_id":"levelo_inurba_marseille","lat":43.291675,"lon":5.371583,"is_reserved":false,"is_disabled":false,"rental_uris":{"android":"levelo://app?vid=1a04adbb-f061-4595-be83-869ec214b82b","ios":"levelo://app?vid=1a04adbb-f061-4595-be83-869ec214b82b"},"vehicle_type_id":"4","last_reported":1679242094,"current_range_meters":10400,"station_id":"ce4bha92rcd13ifvqeh0","pricing_plan_id":"free"},{"bike_id":"bab545f6-f8b9-44f9-95a0-f51e6e50ceb9","system_id":"levelo_inurba_marseille","lat":43.278128,"lon":5.407195,"is_reserved":false,"is_disabled":false,"rental_uris":{"android":"levelo://app?vid=bab545f6-f8b9-44f9-95a0-f51e6e50ceb9","ios":"levelo://app?vid=bab545f6-f8b9-44f9-95a0-f51e6e50ceb9"},"vehicle_type_id":"4","last_reported":1679242094,"current_range_meters":800,"station_id":"ce4bhnh2rcd13ifvqgtg","pricing_plan_id":"free"},{"bike_id":"24a1c477-dfa9-4252-a443-ff08baee48f7","system_id":"levelo_inurba_marseille","lat":43.278128,"lon":5.407195,"is_reserved":false,"is_disabled":false,"rental_uris":{"android":"levelo://app?vid=24a1c477-dfa9-4252-a443-ff08baee48f7","ios":"levelo://app?vid=24a1c477-dfa9-4252-a443-ff08baee48f7"},"vehicle_type_id":"4","last_reported":1679242094,"current_range_meters":29200,"station_id":"ce4bhnh2rcd13ifvqgtg","pricing_plan_id":"free"},{"bike_id":"54a24f5a-21c5-4c54-be27-d33ae6dd66b4","system_id":"levelo_inurba_marseille","lat":43.26681,"lon":5.382694,"is_reserved":false,"is_disabled":false,"rental_uris":{"android":"levelo://app?vid=54a24f5a-21c5-4c54-be27-d33ae6dd66b4","ios":"levelo://app?vid=54a24f5a-21c5-4c54-be27-d33ae6dd66b4"},"vehicle_type_id":"4","last_reported":1679242094,"current_range_meters":28400,"station_id":"ce4bhg92rcd13ifvqf90","pricing_plan_id":"free"},{"bike_id":"faf6586e-5458-4882-b1bc-6fe1e0f19e99","system_id":"levelo_inurba_marseille","lat":43.27996,"lon":5.416624,"is_reserved":false,"is_disabled":false,"rental_uris":{"android":"levelo://app?vid=faf6586e-5458-4882-b1bc-6fe1e0f19e99","ios":"levelo://app?vid=faf6586e-5458-4882-b1bc-6fe1e0f19e99"},"vehicle_type_id":"4","last_reported":1679242094,"current_range_meters":31600,"station_id":"ce4bho12rcd13ifvqh1g","pricing_plan_id":"free"},{"bike_id":"1e214747-079a-4adf-a866-49b7c8866cf1","system_id":"levelo_inurba_marseille","lat":43.27996,"lon":5.416624,"is_reserved":false,"is_disabled":false,"rental_uris":{"android":"levelo://app?vid=1e214747-079a-4adf-a866-49b7c8866cf1","ios":"levelo://app?vid=1e214747-079a-4adf-a866-49b7c8866cf1"},"vehicle_type_id":"4","last_reported":1679242094,"current_range_meters":31600,"station_id":"ce4bho12rcd13ifvqh1g","pricing_plan_id":"free"},{"bike_id":"81fb3d29-a690-4b12-817d-c24ab2ebe966","system_id":"levelo_inurba_marseille","lat":43.27996,"lon":5.416624,"is_reserved":false,"is_disabled":false,"rental_uris":{"android":"levelo://app?vid=81fb3d29-a690-4b12-817d-c24ab2ebe966","ios":"levelo://app?vid=81fb3d29-a690-4b12-817d-c24ab2ebe966"},"vehicle_type_id":"4","last_reported":1679242094,"current_range_meters":24800,"station_id":"ce4bho12rcd13ifvqh1g","pricing_plan_id":"free"},{"bike_id":"7ded292b-681d-488b-a088-6443f687a0d0","system_id":"levelo_inurba_marseille","lat":43.27996,"lon":5.416624,"is_reserved":false,"is_disabled":false,"rental_uris":{"android":"levelo://app?vid=7ded292b-681d-488b-a088-6443f687a0d0","ios":"levelo://app?vid=7ded292b-681d-488b-a088-6443f687a0d0"},"vehicle_type_id":"4","last_reported":1679242094,"current_range_meters":31600,"station_id":"ce4bho12rcd13ifvqh1g","pricing_plan_id":"free"},{"bike_id":"0379ab00-ceba-4e5c-b5be-7b1db6693bf8","system_id":"levelo_inurba_marseille","lat":43.30799,"lon":5.43522,"is_reserved":false,"is_disabled":false,"rental_uris":{"android":"levelo://app?vid=0379ab00-ceba-4e5c-b5be-7b1db6693bf8","ios":"levelo://app?vid=0379ab00-ceba-4e5c-b5be-7b1db6693bf8"},"vehicle_type_id":"4","last_reported":1679242094,"current_range_meters":0,"station_id":"ce4bhph2rcd13ifvqheg","pricing_plan_id":"free"},{"bike_id":"4c5edb97-a139-4166-9928-38cfed504648","system_id":"levelo_inurba_marseille","lat":43.30796,"lon":5.43531,"is_reserved":false,"is_disabled":false,"rental_uris":{"android":"levelo://app?vid=4c5edb97-a139-4166-9928-38cfed504648","ios":"levelo://app?vid=4c5edb97-a139-4166-9928-38cfed504648"},"vehicle_type_id":"4","last_reported":1679242094,"current_range_meters":0,"station_id":"ce4bhph2rcd13ifvqheg","pricing_plan_id":"free"},{"bike_id":"dc744fc4-1714-4416-9821-02964000c895","system_id":"levelo_inurba_marseille","lat":43.26196,"lon":5.37445,"is_reserved":false,"is_disabled":false,"rental_uris":{"android":"levelo://app?vid=dc744fc4-1714-4416-9821-02964000c895","ios":"levelo://app?vid=dc744fc4-1714-4416-9821-02964000c895"},"vehicle_type_id":"4","last_reported":1679242094,"current_range_meters":8000,"station_id":"","pricing_plan_id":"free"},{"bike_id":"a061a74b-5bde-478a-86ec-adcc8d1e5b15","system_id":"levelo_inurba_marseille","lat":43.260909,"lon":5.397624,"is_reserved":false,"is_disabled":false,"rental_uris":{"android":"levelo://app?vid=a061a74b-5bde-478a-86ec-adcc8d1e5b15","ios":"levelo://app?vid=a061a74b-5bde-478a-86ec-adcc8d1e5b15"},"vehicle_type_id":"4","last_reported":1679242094,"current_range_meters":20400,"station_id":"","pricing_plan_id":"free"},{"bike_id":"217a32fe-0161-43b0-bec3-ad3345425f35","system_id":"levelo_inurba_marseille","lat":43.29248,"lon":5.44137,"is_reserved":false,"is_disabled":false,"rental_uris":{"android":"levelo://app?vid=217a32fe-0161-43b0-bec3-ad3345425f35","ios":"levelo://app?vid=217a32fe-0161-43b0-bec3-ad3345425f35"},"vehicle_type_id":"4","last_reported":1679242094,"current_range_meters":19200,"station_id":"","pricing_plan_id":"free"},{"bike_id":"93538dc3-febb-40be-9280-e4d431502ea0","system_id":"levelo_inurba_marseille","lat":43.254947,"lon":5.376454,"is_reserved":false,"is_disabled":false,"rental_uris":{"android":"levelo://app?vid=93538dc3-febb-40be-9280-e4d431502ea0","ios":"levelo://app?vid=93538dc3-febb-40be-9280-e4d431502ea0"},"vehicle_type_id":"4","last_reported":1679242094,"current_range_meters":2400,"station_id":"ce4bhh12rcd13ifvqff0","pricing_plan_id":"free"},{"bike_id":"7ac923ae-8df8-4746-89ad-15d2cff17902","system_id":"levelo_inurba_marseille","lat":43.2481,"lon":5.37461,"is_reserved":false,"is_disabled":false,"rental_uris":{"android":"levelo://app?vid=7ac923ae-8df8-4746-89ad-15d2cff17902","ios":"levelo://app?vid=7ac923ae-8df8-4746-89ad-15d2cff17902"},"vehicle_type_id":"4","last_reported":1679242094,"current_range_meters":0,"station_id":"ce4bhgh2rcd13ifvqfb0","pricing_plan_id":"free"},{"bike_id":"a4f12bc7-06c7-4d25-ad85-3baacb19b464","system_id":"levelo_inurba_marseille","lat":43.25102,"lon":5.403214,"is_reserved":false,"is_disabled":false,"rental_uris":{"android":"levelo://app?vid=a4f12bc7-06c7-4d25-ad85-3baacb19b464","ios":"levelo://app?vid=a4f12bc7-06c7-4d25-ad85-3baacb19b464"},"vehicle_type_id":"4","last_reported":1679242094,"current_range_meters":19600,"station_id":"ce4bhlh2rcd13ifvqgig","pricing_plan_id":"free"},{"bike_id":"23e3e993-3725-48d7-8744-dc092bfad2a7","system_id":"levelo_inurba_marseille","lat":43.243905,"lon":5.370616,"is_reserved":false,"is_disabled":false,"rental_uris":{"android":"levelo://app?vid=23e3e993-3725-48d7-8744-dc092bfad2a7","ios":"levelo://app?vid=23e3e993-3725-48d7-8744-dc092bfad2a7"},"vehicle_type_id":"4","last_reported":1679242094,"current_range_meters":16400,"station_id":"ce4bhhh2rcd13ifvqfk0","pricing_plan_id":"free"},{"bike_id":"2ae50f88-73b7-412a-a50b-556d4678d0ac","system_id":"levelo_inurba_marseille","lat":43.243884,"lon":5.370736,"is_reserved":false,"is_disabled":false,"rental_uris":{"android":"levelo://app?vid=2ae50f88-73b7-412a-a50b-556d4678d0ac","ios":"levelo://app?vid=2ae50f88-73b7-412a-a50b-556d4678d0ac"},"vehicle_type_id":"4","last_reported":1679242094,"current_range_meters":18000,"station_id":"ce4bhhh2rcd13ifvqfk0","pricing_plan_id":"free"},{"bike_id":"1189894f-34db-4648-8527-926528101898","system_id":"levelo_inurba_marseille","lat":43.243884,"lon":5.370736,"is_reserved":false,"is_disabled":false,"rental_uris":{"android":"levelo://app?vid=1189894f-34db-4648-8527-926528101898","ios":"levelo://app?vid=1189894f-34db-4648-8527-926528101898"},"vehicle_type_id":"4","last_reported":1679242094,"current_range_meters":11200,"station_id":"ce4bhhh2rcd13ifvqfk0","pricing_plan_id":"free"},{"bike_id":"a6c16eca-47f8-4820-a6a1-8b406f6224c2","system_id":"levelo_inurba_marseille","lat":43.243884,"lon":5.370736,"is_reserved":false,"is_disabled":false,"rental_uris":{"android":"levelo://app?vid=a6c16eca-47f8-4820-a6a1-8b406f6224c2","ios":"levelo://app?vid=a6c16eca-47f8-4820-a6a1-8b406f6224c2"},"vehicle_type_id":"4","last_reported":1679242094,"current_range_meters":14800,"station_id":"ce4bhhh2rcd13ifvqfk0","pricing_plan_id":"free"},{"bike_id":"afd9d1df-a4ec-4e3a-b1c7-2d2faa43b8f9","system_id":"levelo_inurba_marseille","lat":43.239588,"lon":5.366238,"is_reserved":false,"is_disabled":false,"rental_uris":{"android":"levelo://app?vid=afd9d1df-a4ec-4e3a-b1c7-2d2faa43b8f9","ios":"levelo://app?vid=afd9d1df-a4ec-4e3a-b1c7-2d2faa43b8f9"},"vehicle_type_id":"4","last_reported":1679242094,"current_range_meters":30400,"station_id":"ce4bhi12rcd13ifvqfp0","pricing_plan_id":"free"},{"bike_id":"1b1b7c61-dbe7-4748-b31b-b4560b1cfadc","system_id":"levelo_inurba_marseille","lat":43.239588,"lon":5.366238,"is_reserved":false,"is_disabled":false,"rental_uris":{"android":"levelo://app?vid=1b1b7c61-dbe7-4748-b31b-b4560b1cfadc","ios":"levelo://app?vid=1b1b7c61-dbe7-4748-b31b-b4560b1cfadc"},"vehicle_type_id":"4","last_reported":1679242094,"current_range_meters":1200,"station_id":"ce4bhi12rcd13ifvqfp0","pricing_plan_id":"free"},{"bike_id":"c2c9379b-4f41-4885-a94e-39d469949a82","system_id":"levelo_inurba_marseille","lat":43.23967,"lon":5.36627,"is_reserved":false,"is_disabled":false,"rental_uris":{"android":"levelo://app?vid=c2c9379b-4f41-4885-a94e-39d469949a82","ios":"levelo://app?vid=c2c9379b-4f41-4885-a94e-39d469949a82"},"vehicle_type_id":"4","last_reported":1679242094,"current_range_meters":10400,"station_id":"ce4bhi12rcd13ifvqfp0","pricing_plan_id":"free"},{"bike_id":"99916481-0148-4a8d-897f-3fa0cd04ba60","system_id":"levelo_inurba_marseille","lat":43.241782,"lon":5.397261,"is_reserved":false,"is_disabled":false,"rental_uris":{"android":"levelo://app?vid=99916481-0148-4a8d-897f-3fa0cd04ba60","ios":"levelo://app?vid=99916481-0148-4a8d-897f-3fa0cd04ba60"},"vehicle_type_id":"4","last_reported":1679242094,"current_range_meters":12400,"station_id":"ce4bhn12rcd13ifvqgpg","pricing_plan_id":"free"},{"bike_id":"04195f36-cfd2-4d28-972a-6f6d33adf533","system_id":"levelo_inurba_marseille","lat":43.231919,"lon":5.355532,"is_reserved":false,"is_disabled":false,"rental_uris":{"android":"levelo://app?vid=04195f36-cfd2-4d28-972a-6f6d33adf533","ios":"levelo://app?vid=04195f36-cfd2-4d28-972a-6f6d33adf533"},"vehicle_type_id":"4","last_reported":1679242094,"current_range_meters":17600,"station_id":"ce4bhu92rcd13ifvqi70","pricing_plan_id":"free"},{"bike_id":"c321f84c-65f3-4b34-9702-0ae262b45d1f","system_id":"levelo_inurba_marseille","lat":43.231919,"lon":5.355532,"is_reserved":false,"is_disabled":false,"rental_uris":{"android":"levelo://app?vid=c321f84c-65f3-4b34-9702-0ae262b45d1f","ios":"levelo://app?vid=c321f84c-65f3-4b34-9702-0ae262b45d1f"},"vehicle_type_id":"4","last_reported":1679242094,"current_range_meters":20800,"station_id":"ce4bhu92rcd13ifvqi70","pricing_plan_id":"free"},{"bike_id":"c4a765e8-1981-4501-b559-fd423b924ef4","system_id":"levelo_inurba_marseille","lat":43.231923,"lon":5.355545,"is_reserved":false,"is_disabled":false,"rental_uris":{"android":"levelo://app?vid=c4a765e8-1981-4501-b559-fd423b924ef4","ios":"levelo://app?vid=c4a765e8-1981-4501-b559-fd423b924ef4"},"vehicle_type_id":"4","last_reported":1679242094,"current_range_meters":30800,"station_id":"ce4bhu92rcd13ifvqi70","pricing_plan_id":"free"},{"bike_id":"67654c62-39f1-4e96-8f71-178ed6012533","system_id":"levelo_inurba_marseille","lat":43.231919,"lon":5.355532,"is_reserved":false,"is_disabled":false,"rental_uris":{"android":"levelo://app?vid=67654c62-39f1-4e96-8f71-178ed6012533","ios":"levelo://app?vid=67654c62-39f1-4e96-8f71-178ed6012533"},"vehicle_type_id":"4","last_reported":1679242094,"current_range_meters":12000,"station_id":"ce4bhu92rcd13ifvqi70","pricing_plan_id":"free"},{"bike_id":"14ddca2a-0eed-411e-88bb-771616fdebf3","system_id":"levelo_inurba_marseille","lat":43.231919,"lon":5.355532,"is_reserved":false,"is_disabled":false,"rental_uris":{"android":"levelo://app?vid=14ddca2a-0eed-411e-88bb-771616fdebf3","ios":"levelo://app?vid=14ddca2a-0eed-411e-88bb-771616fdebf3"},"vehicle_type_id":"4","last_reported":1679242094,"current_range_meters":2800,"station_id":"ce4bhu92rcd13ifvqi70","pricing_plan_id":"free"},{"bike_id":"f9b60aec-3818-4dd3-a896-df2d8139caf2","system_id":"levelo_inurba_marseille","lat":43.231919,"lon":5.355532,"is_reserved":false,"is_disabled":false,"rental_uris":{"android":"levelo://app?vid=f9b60aec-3818-4dd3-a896-df2d8139caf2","ios":"levelo://app?vid=f9b60aec-3818-4dd3-a896-df2d8139caf2"},"vehicle_type_id":"4","last_reported":1679242094,"current_range_meters":9200,"station_id":"ce4bhu92rcd13ifvqi70","pricing_plan_id":"free"},{"bike_id":"9bb97a9c-940c-4745-9bd2-72489ee2f38b","system_id":"levelo_inurba_marseille","lat":43.231923,"lon":5.355545,"is_reserved":false,"is_disabled":false,"rental_uris":{"android":"levelo://app?vid=9bb97a9c-940c-4745-9bd2-72489ee2f38b","ios":"levelo://app?vid=9bb97a9c-940c-4745-9bd2-72489ee2f38b"},"vehicle_type_id":"4","last_reported":1679242094,"current_range_meters":16000,"station_id":"ce4bhu92rcd13ifvqi70","pricing_plan_id":"free"},{"bike_id":"bc665d64-5f37-4b19-8117-bf941b8f569e","system_id":"levelo_inurba_marseille","lat":43.231923,"lon":5.355545,"is_reserved":false,"is_disabled":false,"rental_uris":{"android":"levelo://app?vid=bc665d64-5f37-4b19-8117-bf941b8f569e","ios":"levelo://app?vid=bc665d64-5f37-4b19-8117-bf941b8f569e"},"vehicle_type_id":"4","last_reported":1679242094,"current_range_meters":11600,"station_id":"ce4bhu92rcd13ifvqi70","pricing_plan_id":"free"},{"bike_id":"03d03c50-0d9f-426c-bf56-dfed78feeb2e","system_id":"levelo_inurba_marseille","lat":43.231919,"lon":5.355532,"is_reserved":false,"is_disabled":false,"rental_uris":{"android":"levelo://app?vid=03d03c50-0d9f-426c-bf56-dfed78feeb2e","ios":"levelo://app?vid=03d03c50-0d9f-426c-bf56-dfed78feeb2e"},"vehicle_type_id":"4","last_reported":1679242094,"current_range_meters":6000,"station_id":"ce4bhu92rcd13ifvqi70","pricing_plan_id":"free"},{"bike_id":"beaf722f-8cce-48cc-9f08-62b9af3ed634","system_id":"levelo_inurba_marseille","lat":43.231919,"lon":5.355532,"is_reserved":false,"is_disabled":false,"rental_uris":{"android":"levelo://app?vid=beaf722f-8cce-48cc-9f08-62b9af3ed634","ios":"levelo://app?vid=beaf722f-8cce-48cc-9f08-62b9af3ed634"},"vehicle_type_id":"4","last_reported":1679242094,"current_range_meters":21600,"station_id":"ce4bhu92rcd13ifvqi70","pricing_plan_id":"free"},{"bike_id":"e8fea5b7-48a9-48c9-b449-fe6211bd9de6","system_id":"levelo_inurba_marseille","lat":43.231923,"lon":5.355545,"is_reserved":false,"is_disabled":false,"rental_uris":{"android":"levelo://app?vid=e8fea5b7-48a9-48c9-b449-fe6211bd9de6","ios":"levelo://app?vid=e8fea5b7-48a9-48c9-b449-fe6211bd9de6"},"vehicle_type_id":"4","last_reported":1679242094,"current_range_meters":32000,"station_id":"ce4bhu92rcd13ifvqi70","pricing_plan_id":"free"}]}}