{"last_updated":1731596983,"ttl":60,"version":"2.2","data":{"bikes":[{"bike_id":"4b945961-be3a-43dd-9b69-013ae0a6c031","system_id":"levelo_inurba_marseille","lat":43.28416,"lon":5.34986,"is_reserved":false,"is_disabled":false,"rental_uris":{"android":"levelo://app?vid=4b945961-be3a-43dd-9b69-013ae0a6c031","ios":"levelo://app?vid=4b945961-be3a-43dd-9b69-013ae0a6c031"},"vehicle_type_id":"4","last_reported":1731596983,"current_range_meters":27200,"station_id":"ce4bhbh2rcd13ifvqepg","pricing_plan_id":"cebpf4jnsgd1na2vs0mg"},{"bike_id":"d72e41e0-b2be-44d4-9a5d-48e19d343592","system_id":"levelo_inurba_marseille","lat":43.31356,"lon":5.36718,"is_reserved":false,"is_disabled":false,"rental_uris":{"android":"levelo://app?vid=d72e41e0-b2be-44d4-9a5d-48e19d343592","ios":"levelo://app?vid=d72e41e0-b2be-44d4-9a5d-48e19d343592"},"vehicle_type_id":"4","last_reported":1731596983,"current_range_meters":31200,"station_id":"ce4bgr92rcd13ifvqc6g","pricing_plan_id":"cebpf4jnsgd1na2vs0mg"},{"bike_id":"408ff6a1-72c6-4c3c-8ea1-ca7ce9936ce5","system_id":"levelo_inurba_marseille","lat":43.31361,"lon":5.38501,"is_reserved":false,"is_disabled":false,"rental_uris":{"android":"levelo://app?vid=408ff6a1-72c6-4c3c-8ea1-ca7ce9936ce5","ios":"levelo://app?vid=408ff6a1-72c6-4c3c-8ea1-ca7ce9936ce5"},"vehicle_type_id":"4","last_reported":1731596983,"current_range_meters":9600,"station_id":"ce4bgt92rcd13ifvqcf0","pricing_plan_id":"cebpf4jnsgd1na2vs0mg"},{"bike_id":"4d22103c-2c70-44aa-9749-90ce0b2876ac","system_id":"levelo_inurba_marseille","lat":43.30206,"lon":5.39466,"is_reserved":false,"is_disabled":false,"rental_uris":{"android":"levelo://app?vid=4d22103c-2c70-44aa-9749-90ce0b2876ac","ios":"levelo://app?vid=4d22103c-2c70-44aa-9749-90ce0b2876ac"},"vehicle_type_id":"4","last_reported":1731596983,"current_range_meters":8000,"station_id":"ce4bh0p2rcd13ifvqd70","pricing_plan_id":"cebpf4jnsgd1na2vs0mg"},{"bike_id":"818ea99d-f8e5-479f-ae5f-900c7d62307d","system_id":"levelo_inurba_marseille","lat":43.25813,"lon":5.39432,"is_reserved":false,"is_disabled":false,"rental_uris":{"android":"levelo://app?vid=818ea99d-f8e5-479f-ae5f-900c7d62307d","ios":"levelo://app?vid=818ea99d-f8e5-479f-ae5f-900c7d62307d"},"vehicle_type_id":"4","last_reported":1731596983,"current_range_meters":16400,"station_id":"ce4bhip2rcd13ifvqft0","pricing_plan_id":"cebpf4jnsgd1na2vs0mg"},{"bike_id":"9077f966-b1d1-494c-adb1-8c5416e32d7b","system_id":"levelo_inurba_marseille","lat":43.29703,"lon":5.37698,"is_reserved":false,"is_disabled":false,"rental_uris":{"android":"levelo://app?vid=9077f966-b1d1-494c-adb1-8c5416e32d7b","ios":"levelo://app?vid=9077f966-b1d1-494c-adb1-8c5416e32d7b"},"vehicle_type_id":"4","last_reported":1731596983,"current_range_meters":37600,"station_id":"ce4bgkh2rcd13ifvqbl0","pricing_plan_id":"cebpf4jnsgd1na2vs0mg"},{"bike_id":"82f1aa9a-ca13-4506-adbb-99ccd1f3d43e","system_id":"levelo_inurba_marseille","lat":43.3175,"lon":5.39023,"is_reserved":false,"is_disabled":false,"rental_uris":{"android":"levelo://app?vid=82f1aa9a-ca13-4506-adbb-99ccd1f3d43e","ios":"levelo://app?vid=82f1aa9a-ca13-4506-adbb-99ccd1f3d43e"},"vehicle_type_id":"4","last_reported":1731596983,"current_range_meters":20400,"station_id":"ce4bhqp2rcd13ifvqhng","pricing_plan_id":"cebpf4jnsgd1na2vs0mg"},{"bike_id":"5e037161-5400-4423-af02-6af083627406","system_id":"levelo_inurba_marseille","lat":43.24999,"lon":5.38926,"is_reserved":false,"is_disabled":false,"rental_uris":{"android":"levelo://app?vid=5e037161-5400-4423-af02-6af083627406","ios":"levelo://app?vid=5e037161-5400-4423-af02-6af083627406"},"vehicle_type_id":"4","last_reported":1731596983,"current_range_meters":28000,"station_id":"ce4bhgp2rcd13ifvqfd0","pricing_plan_id":"cebpf4jnsgd1na2vs0mg"},{"bike_id":"4584c66c-8a97-40bb-bb39-a443ef4936a5","system_id":"levelo_inurba_marseille","lat":43.30527,"lon":5.36722,"is_reserved":false,"is_disabled":false,"rental_uris":{"android":"levelo://app?vid=4584c66c-8a97-40bb-bb39-a443ef4936a5","ios":"levelo://app?vid=4584c66c-8a97-40bb-bb39-a443ef4936a5"},"vehicle_type_id":"4","last_reported":1731596983,"current_range_meters":6800,"station_id":"ce4bgrp2rcd13ifvqc9g","pricing_plan_id":"cebpf4jnsgd1na2vs0mg"},{"bike_id":"2ca76c5b-c647-4dd0-91f2-e1ccfd29b7c2","system_id":"levelo_inurba_marseille","lat":43.29852,"lon":5.3629,"is_reserved":false,"is_disabled":false,"rental_uris":{"android":"levelo://app?vid=2ca76c5b-c647-4dd0-91f2-e1ccfd29b7c2","ios":"levelo://app?vid=2ca76c5b-c647-4dd0-91f2-e1ccfd29b7c2"},"vehicle_type_id":"4","last_reported":1731596983,"current_range_meters":34800,"station_id":"ce4bgpp2rcd13ifvqc3g","pricing_plan_id":"cebpf4jnsgd1na2vs0mg"},{"bike_id":"d35b3259-d731-40d5-9bb6-75f9a68457d6","system_id":"levelo_inurba_marseille","lat":43.31365,"lon":5.38492,"is_reserved":false,"is_disabled":false,"rental_uris":{"android":"levelo://app?vid=d35b3259-d731-40d5-9bb6-75f9a68457d6","ios":"levelo://app?vid=d35b3259-d731-40d5-9bb6-75f9a68457d6"},"vehicle_type_id":"4","last_reported":1731596983,"current_range_meters":33200,"station_id":"ce4bgt92rcd13ifvqcf0","pricing_plan_id":"cebpf4jnsgd1na2vs0mg"},{"bike_id":"91fe36a8-bc4f-4b08-8287-b0444a16f338","system_id":"levelo_inurba_marseille","lat":43.23141,"lon":5.43734,"is_reserved":false,"is_disabled":false,"rental_uris":{"android":"levelo://app?vid=91fe36a8-bc4f-4b08-8287-b0444a16f338","ios":"levelo://app?vid=91fe36a8-bc4f-4b08-8287-b0444a16f338"},"vehicle_type_id":"4","last_reported":1731596983,"current_range_meters":38800,"station_id":"ce4bhmp2rcd13ifvqgog","pricing_plan_id":"cebpf4jnsgd1na2vs0mg"},{"bike_id":"8472a442-1b27-4429-9cbb-acb2837e6d0f","system_id":"levelo_inurba_marseille","lat":43.24072,"lon":5.3774,"is_reserved":false,"is_disabled":false,"rental_uris":{"android":"levelo://app?vid=8472a442-1b27-4429-9cbb-acb2837e6d0f","ios":"levelo://app?vid=8472a442-1b27-4429-9cbb-acb2837e6d0f"},"vehicle_type_id":"4","last_reported":1731596983,"current_range_meters":24000,"station_id":"ce4bhnp2rcd13ifvqgvg","pricing_plan_id":"cebpf4jnsgd1na2vs0mg"},{"bike_id":"cc792d10-5e3a-4b03-849b-38a1e4ffc260","system_id":"levelo_inurba_marseille","lat":43.337444,"lon":5.374475,"is_reserved":false,"is_disabled":false,"rental_uris":{"android":"levelo://app?vid=cc792d10-5e3a-4b03-849b-38a1e4ffc260","ios":"levelo://app?vid=cc792d10-5e3a-4b03-849b-38a1e4ffc260"},"vehicle_type_id":"4","last_reported":1731596983,"current_range_meters":34000,"station_id":"","pricing_plan_id":"cebpf4jnsgd1na2vs0mg"},{"bike_id":"87c53cb9-72b3-4c11-8146-fab6f7f7afed","system_id":"levelo_inurba_marseille","lat":43.28268,"lon":5.35065,"is_reserved":false,"is_disabled":false,"rental_uris":{"android":"levelo://app?vid=87c53cb9-72b3-4c11-8146-fab6f7f7afed","ios":"levelo://app?vid=87c53cb9-72b3-4c11-8146-fab6f7f7afed"},"vehicle_type_id":"4","last_reported":1731596983,"current_range_meters":14400,"station_id":"ce4bhbp2rcd13ifvqerg","pricing_plan_id":"cebpf4jnsgd1na2vs0mg"},{"bike_id":"e9c08c1d-93d7-4a99-8ed0-bfc08fe8d790","system_id":"levelo_inurba_marseille","lat":43.25078,"lon":5.3952,"is_reserved":false,"is_disabled":false,"rental_uris":{"android":"levelo://app?vid=e9c08c1d-93d7-4a99-8ed0-bfc08fe8d790","ios":"levelo://app?vid=e9c08c1d-93d7-4a99-8ed0-bfc08fe8d790"},"vehicle_type_id":"4","last_reported":1731596983,"current_range_meters":35600,"station_id":"ce4bhm12rcd13ifvqgkg","pricing_plan_id":"cebpf4jnsgd1na2vs0mg"},{"bike_id":"932395bd-923e-44e4-b148-b2f944a09eaa","system_id":"levelo_inurba_marseille","lat":43.2958,"lon":5.36743,"is_reserved":false,"is_disabled":false,"rental_uris":{"android":"levelo://app?vid=932395bd-923e-44e4-b148-b2f944a09eaa","ios":"levelo://app?vid=932395bd-923e-44e4-b148-b2f944a09eaa"},"vehicle_type_id":"4","last_reported":1731596983,"current_range_meters":19600,"station_id":"ce4bgph2rcd13ifvqc2g","pricing_plan_id":"cebpf4jnsgd1na2vs0mg"},{"bike_id":"7e465898-a890-47d7-a27e-266939b652fb","system_id":"levelo_inurba_marseille","lat":43.24991,"lon":5.38926,"is_reserved":false,"is_disabled":false,"rental_uris":{"android":"levelo://app?vid=7e465898-a890-47d7-a27e-266939b652fb","ios":"levelo://app?vid=7e465898-a890-47d7-a27e-266939b652fb"},"vehicle_type_id":"4","last_reported":1731596983,"current_range_meters":36800,"station_id":"ce4bhgp2rcd13ifvqfd0","pricing_plan_id":"cebpf4jnsgd1na2vs0mg"},{"bike_id":"6eb59a68-a12c-48e4-b212-565d46400eb2","system_id":"levelo_inurba_marseille","lat":43.292933,"lon":5.374666,"is_reserved":false,"is_disabled":false,"rental_uris":{"android":"levelo://app?vid=6eb59a68-a12c-48e4-b212-565d46400eb2","ios":"levelo://app?vid=6eb59a68-a12c-48e4-b212-565d46400eb2"},"vehicle_type_id":"4","last_reported":1731596983,"current_range_meters":39200,"station_id":"ce4bgi12rcd13ifvqb70","pricing_plan_id":"cebpf4jnsgd1na2vs0mg"},{"bike_id":"8110c8a0-ab32-4c0b-9062-1c82f07299d0","system_id":"levelo_inurba_marseille","lat":43.29781,"lon":5.37105,"is_reserved":false,"is_disabled":false,"rental_uris":{"android":"levelo://app?vid=8110c8a0-ab32-4c0b-9062-1c82f07299d0","ios":"levelo://app?vid=8110c8a0-ab32-4c0b-9062-1c82f07299d0"},"vehicle_type_id":"4","last_reported":1731596983,"current_range_meters":19600,"station_id":"ce4bgop2rcd13ifvqc1g","pricing_plan_id":"cebpf4jnsgd1na2vs0mg"},{"bike_id":"93f6e0a3-b901-4cdc-a44d-96f4e8453cd4","system_id":"levelo_inurba_marseille","lat":43.3378,"lon":5.37434,"is_reserved":false,"is_disabled":false,"rental_uris":{"android":"levelo://app?vid=93f6e0a3-b901-4cdc-a44d-96f4e8453cd4","ios":"levelo://app?vid=93f6e0a3-b901-4cdc-a44d-96f4e8453cd4"},"vehicle_type_id":"4","last_reported":1731596983,"current_range_meters":33200,"station_id":"","pricing_plan_id":"cebpf4jnsgd1na2vs0mg"},{"bike_id":"056364a7-d54e-4bb2-9656-321c82172ee4","system_id":"levelo_inurba_marseille","lat":43.26208,"lon":5.37932,"is_reserved":false,"is_disabled":false,"rental_uris":{"android":"levelo://app?vid=056364a7-d54e-4bb2-9656-321c82172ee4","ios":"levelo://app?vid=056364a7-d54e-4bb2-9656-321c82172ee4"},"vehicle_type_id":"4","last_reported":1731596983,"current_range_meters":37600,"station_id":"ce4bhjp2rcd13ifvqg90","pricing_plan_id":"cebpf4jnsgd1na2vs0mg"},{"bike_id":"1622353b-6708-48bc-85a0-98f1e9da5565","system_id":"levelo_inurba_marseille","lat":43.28001,"lon":5.41647,"is_reserved":false,"is_disabled":false,"rental_uris":{"android":"levelo://app?vid=1622353b-6708-48bc-85a0-98f1e9da5565","ios":"levelo://app?vid=1622353b-6708-48bc-85a0-98f1e9da5565"},"vehicle_type_id":"4","last_reported":1731596983,"current_range_meters":20000,"station_id":"ce4bho12rcd13ifvqh1g","pricing_plan_id":"cebpf4jnsgd1na2vs0mg"},{"bike_id":"573499d1-0cb4-4690-bede-d5ca1c06b37f","system_id":"levelo_inurba_marseille","lat":43.295751,"lon":5.399791,"is_reserved":false,"is_disabled":false,"rental_uris":{"android":"levelo://app?vid=573499d1-0cb4-4690-bede-d5ca1c06b37f","ios":"levelo://app?vid=573499d1-0cb4-4690-bede-d5ca1c06b37f"},"vehicle_type_id":"4","last_reported":1731596983,"current_range_meters":22800,"station_id":"","pricing_plan_id":"cebpf4jnsgd1na2vs0mg"},{"bike_id":"4a74f469-1d99-48ee-a8ca-9199898c00a4","system_id":"levelo_inurba_marseille","lat":43.23199,"lon":5.35547,"is_reserved":false,"is_disabled":false,"rental_uris":{"android":"levelo://app?vid=4a74f469-1d99-48ee-a8ca-9199898c00a4","ios":"levelo://app?vid=4a74f469-1d99-48ee-a8ca-9199898c00a4"},"vehicle_type_id":"4","last_reported":1731596983,"current_range_meters":20400,"station_id":"ce4bhu92rcd13ifvqi70","pricing_plan_id":"cebpf4jnsgd1na2vs0mg"},{"bike_id":"c4b2bafb-ae76-412e-a120-055cc31bbdd6","system_id":"levelo_inurba_marseille","lat":43.25019,"lon":5.38917,"is_reserved":false,"is_disabled":false,"rental_uris":{"android":"levelo://app?vid=c4b2bafb-ae76-412e-a120-055cc31bbdd6","ios":"levelo://app?vid=c4b2bafb-ae76-412e-a120-055cc31bbdd6"},"vehicle_type_id":"4","last_reported":1731596983,"current_range_meters":21600,"station_id":"ce4bhgp2rcd13ifvqfd0","pricing_plan_id":"cebpf4jnsgd1na2vs0mg"},{"bike_id":"75afd082-ddd8-43b2-b557-3755431b883e","system_id":"levelo_inurba_marseille","lat":43.30138,"lon":5.38781,"is_reserved":false,"is_disabled":false,"rental_uris":{"android":"levelo://app?vid=75afd082-ddd8-43b2-b557-3755431b883e","ios":"levelo://app?vid=75afd082-ddd8-43b2-b557-3755431b883e"},"vehicle_type_id":"4","last_reported":1731596983,"current_range_meters":36000,"station_id":"ce4bghh2rcd13ifvqb60","pricing_plan_id":"cebpf4jnsgd1na2vs0mg"},{"bike_id":"42d4f2be-ea86-44b4-880d-ff3a14fc22f1","system_id":"levelo_inurba_marseille","lat":43.30353,"lon":5.41878,"is_reserved":false,"is_disabled":false,"rental_uris":{"android":"levelo://app?vid=42d4f2be-ea86-44b4-880d-ff3a14fc22f1","ios":"levelo://app?vid=42d4f2be-ea86-44b4-880d-ff3a14fc22f1"},"vehicle_type_id":"4","last_reported":1731596983,"current_range_meters":37600,"station_id":"ce4bhop2rcd13ifvqh7g","pricing_plan_id":"cebpf4jnsgd1na2vs0mg"},{"bike_id":"4fe14a01-1c12-497d-a125-9a1a9f420889","system_id":"levelo_inurba_marseille","lat":43.27611,"lon":5.36113,"is_reserved":false,"is_disabled":false,"rental_uris":{"android":"levelo://app?vid=4fe14a01-1c12-497d-a125-9a1a9f420889","ios":"levelo://app?vid=4fe14a01-1c12-497d-a125-9a1a9f420889"},"vehicle_type_id":"4","last_reported":1731596983,"current_range_meters":27600,"station_id":"ce4bgj92rcd13ifvqbe0","pricing_plan_id":"cebpf4jnsgd1na2vs0mg"},{"bike_id":"c9710bd3-9512-4b49-9686-837dbc79b6ce","system_id":"levelo_inurba_marseille","lat":43.28262,"lon":5.3507,"is_reserved":false,"is_disabled":false,"rental_uris":{"android":"levelo://app?vid=c9710bd3-9512-4b49-9686-837dbc79b6ce","ios":"levelo://app?vid=c9710bd3-9512-4b49-9686-837dbc79b6ce"},"vehicle_type_id":"4","last_reported":1731596983,"current_range_meters":12400,"station_id":"ce4bhbp2rcd13ifvqerg","pricing_plan_id":"cebpf4jnsgd1na2vs0mg"},{"bike_id":"5c36c5dc-10d4-4a6f-8cac-3a9d3dcb2cd2","system_id":"levelo_inurba_marseille","lat":43.29577,"lon":5.37731,"is_reserved":false,"is_disabled":false,"rental_uris":{"android":"levelo://app?vid=5c36c5dc-10d4-4a6f-8cac-3a9d3dcb2cd2","ios":"levelo://app?vid=5c36c5dc-10d4-4a6f-8cac-3a9d3dcb2cd2"},"vehicle_type_id":"4","last_reported":1731596983,"current_range_meters":38800,"station_id":"ce4bgi92rcd13ifvqb90","pricing_plan_id":"cebpf4jnsgd1na2vs0mg"},{"bike_id":"47c967a5-3c8a-4d73-a522-90111361a0a0","system_id":"levelo_inurba_marseille","lat":43.32479,"lon":5.36569,"is_reserved":false,"is_disabled":false,"rental_uris":{"android":"levelo://app?vid=47c967a5-3c8a-4d73-a522-90111361a0a0","ios":"levelo://app?vid=47c967a5-3c8a-4d73-a522-90111361a0a0"},"vehicle_type_id":"4","last_reported":1731596983,"current_range_meters":39200,"station_id":"ce4bhs12rcd13ifvqhvg","pricing_plan_id":"cebpf4jnsgd1na2vs0mg"},{"bike_id":"b401526e-9797-412b-a024-2aeff2654ce6","system_id":"levelo_inurba_marseille","lat":43.27929,"lon":5.35513,"is_reserved":false,"is_disabled":false,"rental_uris":{"android":"levelo://app?vid=b401526e-9797-412b-a024-2aeff2654ce6","ios":"levelo://app?vid=b401526e-9797-412b-a024-2aeff2654ce6"},"vehicle_type_id":"4","last_reported":1731596983,"current_range_meters":4400,"station_id":"","pricing_plan_id":"cebpf4jnsgd1na2vs0mg"},{"bike_id":"a32d9d84-8ed2-4c72-bc8c-a8b1f9fbf83a","system_id":"levelo_inurba_marseille","lat":43.30523,"lon":5.36544,"is_reserved":false,"is_disabled":false,"rental_uris":{"android":"levelo://app?vid=a32d9d84-8ed2-4c72-bc8c-a8b1f9fbf83a","ios":"levelo://app?vid=a32d9d84-8ed2-4c72-bc8c-a8b1f9fbf83a"},"vehicle_type_id":"4","last_reported":1731596983,"current_range_meters":39200,"station_id":"ce4bgs12rcd13ifvqcag","pricing_plan_id":"cebpf4jnsgd1na2vs0mg"},{"bike_id":"03829838-9104-4fc2-a922-3274a797c9f7","system_id":"levelo_inurba_marseille","lat":43.28074,"lon":5.39671,"is_reserved":false,"is_disabled":false,"rental_uris":{"android":"levelo://app?vid=03829838-9104-4fc2-a922-3274a797c9f7","ios":"levelo://app?vid=03829838-9104-4fc2-a922-3274a797c9f7"},"vehicle_type_id":"4","last_reported":1731596983,"current_range_meters":38800,"station_id":"ce4bho12rcd13ifvqh2g","pricing_plan_id":"cebpf4jnsgd1na2vs0mg"},{"bike_id":"aeed6b71-0d01-46c1-a1c7-ea5ddbe344f0","system_id":"levelo_inurba_marseille","lat":43.231903,"lon":5.355504,"is_reserved":false,"is_disabled":false,"rental_uris":{"android":"levelo://app?vid=aeed6b71-0d01-46c1-a1c7-ea5ddbe344f0","ios":"levelo://app?vid=aeed6b71-0d01-46c1-a1c7-ea5ddbe344f0"},"vehicle_type_id":"4","last_reported":1731596983,"current_range_meters":22400,"station_id":"ce4bhu92rcd13ifvqi70","pricing_plan_id":"cebpf4jnsgd1na2vs0mg"},{"bike_id":"2d988347-9c45-4c49-a1fc-7c2979a31818","system_id":"levelo_inurba_marseille","lat":43.28258,"lon":5.35072,"is_reserved":false,"is_disabled":false,"rental_uris":{"android":"levelo://app?vid=2d988347-9c45-4c49-a1fc-7c2979a31818","ios":"levelo://app?vid=2d988347-9c45-4c49-a1fc-7c2979a31818"},"vehicle_type_id":"4","last_reported":1731596983,"current_range_meters":38800,"station_id":"ce4bhbp2rcd13ifvqerg","pricing_plan_id":"cebpf4jnsgd1na2vs0mg"},{"bike_id":"7427f906-074e-419b-9913-72e531b99e24","system_id":"levelo_inurba_marseille","lat":43.26053,"lon":5.39399,"is_reserved":false,"is_disabled":false,"rental_uris":{"android":"levelo://app?vid=7427f906-074e-419b-9913-72e531b99e24","ios":"levelo://app?vid=7427f906-074e-419b-9913-72e531b99e24"},"vehicle_type_id":"4","last_reported":1731596983,"current_range_meters":12000,"station_id":"ce4bhh92rcd13ifvqfj0","pricing_plan_id":"cebpf4jnsgd1na2vs0mg"},{"bike_id":"ed7bc0ef-778b-45b1-a727-d612d2d55fbd","system_id":"levelo_inurba_marseille","lat":43.23147,"lon":5.43716,"is_reserved":false,"is_disabled":false,"rental_uris":{"android":"levelo://app?vid=ed7bc0ef-778b-45b1-a727-d612d2d55fbd","ios":"levelo://app?vid=ed7bc0ef-778b-45b1-a727-d612d2d55fbd"},"vehicle_type_id":"4","last_reported":1731596983,"current_range_meters":18000,"station_id":"ce4bhmp2rcd13ifvqgog","pricing_plan_id":"cebpf4jnsgd1na2vs0mg"},{"bike_id":"9f9c8144-349b-460f-baa0-0ad22028efff","system_id":"levelo_inurba_marseille","lat":43.25724,"lon":5.41115,"is_reserved":false,"is_disabled":false,"rental_uris":{"android":"levelo://app?vid=9f9c8144-349b-460f-baa0-0ad22028efff","ios":"levelo://app?vid=9f9c8144-349b-460f-baa0-0ad22028efff"},"vehicle_type_id":"4","last_reported":1731596983,"current_range_meters":19200,"station_id":"ce4bhkp2rcd13ifvqgd0","pricing_plan_id":"cebpf4jnsgd1na2vs0mg"},{"bike_id":"785a4434-c998-4c07-9e49-6240ac8eab46","system_id":"levelo_inurba_marseille","lat":43.33023,"lon":5.39041,"is_reserved":false,"is_disabled":false,"rental_uris":{"android":"levelo://app?vid=785a4434-c998-4c07-9e49-6240ac8eab46","ios":"levelo://app?vid=785a4434-c998-4c07-9e49-6240ac8eab46"},"vehicle_type_id":"4","last_reported":1731596983,"current_range_meters":38800,"station_id":"ce4bhr92rcd13ifvqhrg","pricing_plan_id":"cebpf4jnsgd1na2vs0mg"},{"bike_id":"67e98c1c-4e95-4bc0-8e84-8d78b9449178","system_id":"levelo_inurba_marseille","lat":43.29354,"lon":5.37844,"is_reserved":false,"is_disabled":false,"rental_uris":{"android":"levelo://app?vid=67e98c1c-4e95-4bc0-8e84-8d78b9449178","ios":"levelo://app?vid=67e98c1c-4e95-4bc0-8e84-8d78b9449178"},"vehicle_type_id":"4","last_reported":1731596983,"current_range_meters":34800,"station_id":"ce4bgjh2rcd13ifvqbf0","pricing_plan_id":"cebpf4jnsgd1na2vs0mg"},{"bike_id":"95df8ae7-94af-4ee0-9903-e87fe72cdf9c","system_id":"levelo_inurba_marseille","lat":43.29207,"lon":5.39333,"is_reserved":false,"is_disabled":false,"rental_uris":{"android":"levelo://app?vid=95df8ae7-94af-4ee0-9903-e87fe72cdf9c","ios":"levelo://app?vid=95df8ae7-94af-4ee0-9903-e87fe72cdf9c"},"vehicle_type_id":"4","last_reported":1731596983,"current_range_meters":39200,"station_id":"ce4bh192rcd13ifvqdd0","pricing_plan_id":"cebpf4jnsgd1na2vs0mg"},{"bike_id":"75801e28-b69b-4a5e-945c-714926c1ddf7","system_id":"levelo_inurba_marseille","lat":43.337444,"lon":5.374475,"is_reserved":false,"is_disabled":false,"rental_uris":{"android":"levelo://app?vid=75801e28-b69b-4a5e-945c-714926c1ddf7","ios":"levelo://app?vid=75801e28-b69b-4a5e-945c-714926c1ddf7"},"vehicle_type_id":"4","last_reported":1731596983,"current_range_meters":35200,"station_id":"","pricing_plan_id":"cebpf4jnsgd1na2vs0mg"},{"bike_id":"b551cc0e-1413-405a-8613-9fc631337e3d","system_id":"levelo_inurba_marseille","lat":43.28413,"lon":5.34981,"is_reserved":false,"is_disabled":false,"rental_uris":{"android":"levelo://app?vid=b551cc0e-1413-405a-8613-9fc631337e3d","ios":"levelo://app?vid=b551cc0e-1413-405a-8613-9fc631337e3d"},"vehicle_type_id":"4","last_reported":1731596983,"current_range_meters":24400,"station_id":"ce4bhbh2rcd13ifvqepg","pricing_plan_id":"cebpf4jnsgd1na2vs0mg"},{"bike_id":"1fe395a2-697b-4dbd-915f-7cd3940edb4b","system_id":"levelo_inurba_marseille","lat":43.29788,"lon":5.38101,"is_reserved":false,"is_disabled":false,"rental_uris":{"android":"levelo://app?vid=1fe395a2-697b-4dbd-915f-7cd3940edb4b","ios":"levelo://app?vid=1fe395a2-697b-4dbd-915f-7cd3940edb4b"},"vehicle_type_id":"4","last_reported":1731596983,"current_range_meters":29600,"station_id":"ce4bgip2rcd13ifvqbb0","pricing_plan_id":"cebpf4jnsgd1na2vs0mg"},{"bike_id":"9154bf1e-444b-40fa-8e9b-d170946317df","system_id":"levelo_inurba_marseille","lat":43.28343,"lon":5.3811,"is_reserved":false,"is_disabled":false,"rental_uris":{"android":"levelo://app?vid=9154bf1e-444b-40fa-8e9b-d170946317df","ios":"levelo://app?vid=9154bf1e-444b-40fa-8e9b-d170946317df"},"vehicle_type_id":"4","last_reported":1731596983,"current_range_meters":18800,"station_id":"ce4bh412rcd13ifvqdr0","pricing_plan_id":"cebpf4jnsgd1na2vs0mg"},{"bike_id":"e1a6970f-d408-49cf-a4fe-ef82d2512acf","system_id":"levelo_inurba_marseille","lat":43.32471,"lon":5.36562,"is_reserved":false,"is_disabled":false,"rental_uris":{"android":"levelo://app?vid=e1a6970f-d408-49cf-a4fe-ef82d2512acf","ios":"levelo://app?vid=e1a6970f-d408-49cf-a4fe-ef82d2512acf"},"vehicle_type_id":"4","last_reported":1731596983,"current_range_meters":12800,"station_id":"ce4bhs12rcd13ifvqhvg","pricing_plan_id":"cebpf4jnsgd1na2vs0mg"},{"bike_id":"93ae85a9-54f0-42ad-9c51-1a3763cfaf3a","system_id":"levelo_inurba_marseille","lat":43.28929,"lon":5.36403,"is_reserved":false,"is_disabled":false,"rental_uris":{"android":"levelo://app?vid=93ae85a9-54f0-42ad-9c51-1a3763cfaf3a","ios":"levelo://app?vid=93ae85a9-54f0-42ad-9c51-1a3763cfaf3a"},"vehicle_type_id":"4","last_reported":1731596983,"current_range_meters":25200,"station_id":"ce4bhc92rcd13ifvqetg","pricing_plan_id":"cebpf4jnsgd1na2vs0mg"},{"bike_id":"1bfc1805-df94-4903-8cd9-2de634826a28","system_id":"levelo_inurba_marseille","lat":43.27062,"lon":5.40271,"is_reserved":false,"is_disabled":false,"rental_uris":{"android":"levelo://app?vid=1bfc1805-df94-4903-8cd9-2de634826a28","ios":"levelo://app?vid=1bfc1805-df94-4903-8cd9-2de634826a28"},"vehicle_type_id":"4","last_reported":1731596983,"current_range_meters":8400,"station_id":"ce4bhk92rcd13ifvqgc0","pricing_plan_id":"cebpf4jnsgd1na2vs0mg"},{"bike_id":"7006e856-2ce9-4055-a812-5cb80a2d0764","system_id":"levelo_inurba_marseille","lat":43.28617,"lon":5.35113,"is_reserved":false,"is_disabled":false,"rental_uris":{"android":"levelo://app?vid=7006e856-2ce9-4055-a812-5cb80a2d0764","ios":"levelo://app?vid=7006e856-2ce9-4055-a812-5cb80a2d0764"},"vehicle_type_id":"4","last_reported":1731596983,"current_range_meters":21600,"station_id":"ce4bhch2rcd13ifvqeug","pricing_plan_id":"cebpf4jnsgd1na2vs0mg"},{"bike_id":"25951a50-0f62-423f-af90-8c7ae1a21e00","system_id":"levelo_inurba_marseille","lat":43.2902,"lon":5.37583,"is_reserved":false,"is_disabled":false,"rental_uris":{"android":"levelo://app?vid=25951a50-0f62-423f-af90-8c7ae1a21e00","ios":"levelo://app?vid=25951a50-0f62-423f-af90-8c7ae1a21e00"},"vehicle_type_id":"4","last_reported":1731596983,"current_range_meters":31200,"station_id":"ce4bh692rcd13ifvqe90","pricing_plan_id":"cebpf4jnsgd1na2vs0mg"},{"bike_id":"a583d3ea-648d-4ca4-ab6d-7c3a4f13bd72","system_id":"levelo_inurba_marseille","lat":43.23967,"lon":5.36632,"is_reserved":false,"is_disabled":false,"rental_uris":{"android":"levelo://app?vid=a583d3ea-648d-4ca4-ab6d-7c3a4f13bd72","ios":"levelo://app?vid=a583d3ea-648d-4ca4-ab6d-7c3a4f13bd72"},"vehicle_type_id":"4","last_reported":1731596983,"current_range_meters":23200,"station_id":"ce4bhi12rcd13ifvqfp0","pricing_plan_id":"cebpf4jnsgd1na2vs0mg"},{"bike_id":"817849d8-25eb-48a4-b155-e11b87f519ff","system_id":"levelo_inurba_marseille","lat":43.30527,"lon":5.36551,"is_reserved":false,"is_disabled":false,"rental_uris":{"android":"levelo://app?vid=817849d8-25eb-48a4-b155-e11b87f519ff","ios":"levelo://app?vid=817849d8-25eb-48a4-b155-e11b87f519ff"},"vehicle_type_id":"4","last_reported":1731596983,"current_range_meters":39200,"station_id":"ce4bgs12rcd13ifvqcag","pricing_plan_id":"cebpf4jnsgd1na2vs0mg"},{"bike_id":"19403e5b-9388-47f8-803d-8d1235a538c6","system_id":"levelo_inurba_marseille","lat":43.23193,"lon":5.35555,"is_reserved":false,"is_disabled":false,"rental_uris":{"android":"levelo://app?vid=19403e5b-9388-47f8-803d-8d1235a538c6","ios":"levelo://app?vid=19403e5b-9388-47f8-803d-8d1235a538c6"},"vehicle_type_id":"4","last_reported":1731596983,"current_range_meters":29600,"station_id":"ce4bhu92rcd13ifvqi70","pricing_plan_id":"cebpf4jnsgd1na2vs0mg"},{"bike_id":"75b99c30-b29f-427f-a2e5-1f3169e45369","system_id":"levelo_inurba_marseille","lat":43.28276,"lon":5.35086,"is_reserved":false,"is_disabled":false,"rental_uris":{"android":"levelo://app?vid=75b99c30-b29f-427f-a2e5-1f3169e45369","ios":"levelo://app?vid=75b99c30-b29f-427f-a2e5-1f3169e45369"},"vehicle_type_id":"4","last_reported":1731596983,"current_range_meters":19200,"station_id":"ce4bhbp2rcd13ifvqerg","pricing_plan_id":"cebpf4jnsgd1na2vs0mg"},{"bike_id":"42c53d78-daef-4fab-bfbd-4685365bed2c","system_id":"levelo_inurba_marseille","lat":43.25724,"lon":5.41106,"is_reserved":false,"is_disabled":false,"rental_uris":{"android":"levelo://app?vid=42c53d78-daef-4fab-bfbd-4685365bed2c","ios":"levelo://app?vid=42c53d78-daef-4fab-bfbd-4685365bed2c"},"vehicle_type_id":"4","last_reported":1731596983,"current_range_meters":26800,"station_id":"ce4bhkp2rcd13ifvqgd0","pricing_plan_id":"cebpf4jnsgd1na2vs0mg"},{"bike_id":"3bab429e-9034-487f-9a7a-faf9706ab0a6","system_id":"levelo_inurba_marseille","lat":43.30877,"lon":5.39643,"is_reserved":false,"is_disabled":false,"rental_uris":{"android":"levelo://app?vid=3bab429e-9034-487f-9a7a-faf9706ab0a6","ios":"levelo://app?vid=3bab429e-9034-487f-9a7a-faf9706ab0a6"},"vehicle_type_id":"4","last_reported":1731596983,"current_range_meters":38800,"station_id":"ce4bh012rcd13ifvqcv0","pricing_plan_id":"cebpf4jnsgd1na2vs0mg"},{"bike_id":"91158999-1dc9-4b4e-87a3-c66eff7611e3","system_id":"levelo_inurba_marseille","lat":43.2679,"lon":5.39419,"is_reserved":false,"is_disabled":false,"rental_uris":{"android":"levelo://app?vid=91158999-1dc9-4b4e-87a3-c66eff7611e3","ios":"levelo://app?vid=91158999-1dc9-4b4e-87a3-c66eff7611e3"},"vehicle_type_id":"4","last_reported":1731596983,"current_range_meters":10000,"station_id":"ce4bhh12rcd13ifvqfg0","pricing_plan_id":"cebpf4jnsgd1na2vs0mg"},{"bike_id":"d99bff46-e3e0-4c25-9719-3fa3dd9a1a6e","system_id":"levelo_inurba_marseille","lat":43.31655,"lon":5.37321,"is_reserved":false,"is_disabled":false,"rental_uris":{"android":"levelo://app?vid=d99bff46-e3e0-4c25-9719-3fa3dd9a1a6e","ios":"levelo://app?vid=d99bff46-e3e0-4c25-9719-3fa3dd9a1a6e"},"vehicle_type_id":"4","last_reported":1731596983,"current_range_meters":20000,"station_id":"ce4bgt12rcd13ifvqcd0","pricing_plan_id":"cebpf4jnsgd1na2vs0mg"},{"bike_id":"4dd2cafd-994e-4a6b-9ee8-cb8ccf464a3e","system_id":"levelo_inurba_marseille","lat":43.25107,"lon":5.40324,"is_reserved":false,"is_disabled":false,"rental_uris":{"android":"levelo://app?vid=4dd2cafd-994e-4a6b-9ee8-cb8ccf464a3e","ios":"levelo://app?vid=4dd2cafd-994e-4a6b-9ee8-cb8ccf464a3e"},"vehicle_type_id":"4","last_reported":1731596983,"current_range_meters":38800,"station_id":"ce4bhlh2rcd13ifvqgig","pricing_plan_id":"cebpf4jnsgd1na2vs0mg"},{"bike_id":"05d9c569-c83d-4338-b613-93d5a6ff20f8","system_id":"levelo_inurba_marseille","lat":43.28612,"lon":5.35105,"is_reserved":false,"is_disabled":false,"rental_uris":{"android":"levelo://app?vid=05d9c569-c83d-4338-b613-93d5a6ff20f8","ios":"levelo://app?vid=05d9c569-c83d-4338-b613-93d5a6ff20f8"},"vehicle_type_id":"4","last_reported":1731596983,"current_range_meters":30000,"station_id":"ce4bhch2rcd13ifvqeug","pricing_plan_id":"cebpf4jnsgd1na2vs0mg"},{"bike_id":"0d1a89ff-50bf-44bc-8fda-7208e2482795","system_id":"levelo_inurba_marseille","lat":43.25085,"lon":5.39526,"is_reserved":false,"is_disabled":false,"rental_uris":{"android":"levelo://app?vid=0d1a89ff-50bf-44bc-8fda-7208e2482795","ios":"levelo://app?vid=0d1a89ff-50bf-44bc-8fda-7208e2482795"},"vehicle_type_id":"4","last_reported":1731596983,"current_range_meters":19200,"station_id":"ce4bhm12rcd13ifvqgkg","pricing_plan_id":"cebpf4jnsgd1na2vs0mg"},{"bike_id":"d76abcf7-f032-4b13-8553-7c2be43897c4","system_id":"levelo_inurba_marseille","lat":43.29965,"lon":5.37172,"is_reserved":false,"is_disabled":false,"rental_uris":{"android":"levelo://app?vid=d76abcf7-f032-4b13-8553-7c2be43897c4","ios":"levelo://app?vid=d76abcf7-f032-4b13-8553-7c2be43897c4"},"vehicle_type_id":"4","last_reported":1731596983,"current_range_meters":8400,"station_id":"ce4bgr92rcd13ifvqc7g","pricing_plan_id":"cebpf4jnsgd1na2vs0mg"},{"bike_id":"c6447c43-d0cc-468e-995f-86d29098b762","system_id":"levelo_inurba_marseille","lat":43.3172,"lon":5.42402,"is_reserved":false,"is_disabled":false,"rental_uris":{"android":"levelo://app?vid=c6447c43-d0cc-468e-995f-86d29098b762","ios":"levelo://app?vid=c6447c43-d0cc-468e-995f-86d29098b762"},"vehicle_type_id":"4","last_reported":1731596983,"current_range_meters":38800,"station_id":"ce4bhp92rcd13ifvqhbg","pricing_plan_id":"cebpf4jnsgd1na2vs0mg"},{"bike_id":"c43dced0-7e60-4265-8cd8-c883a11a7632","system_id":"levelo_inurba_marseille","lat":43.2992,"lon":5.36559,"is_reserved":false,"is_disabled":false,"rental_uris":{"android":"levelo://app?vid=c43dced0-7e60-4265-8cd8-c883a11a7632","ios":"levelo://app?vid=c43dced0-7e60-4265-8cd8-c883a11a7632"},"vehicle_type_id":"4","last_reported":1731596983,"current_range_meters":15200,"station_id":"ce4bgm92rcd13ifvqbr0","pricing_plan_id":"cebpf4jnsgd1na2vs0mg"},{"bike_id":"63bd93d5-63dd-4683-a5d8-4a155823bc4a","system_id":"levelo_inurba_marseille","lat":43.25074,"lon":5.39534,"is_reserved":false,"is_disabled":false,"rental_uris":{"android":"levelo://app?vid=63bd93d5-63dd-4683-a5d8-4a155823bc4a","ios":"levelo://app?vid=63bd93d5-63dd-4683-a5d8-4a155823bc4a"},"vehicle_type_id":"4","last_reported":1731596983,"current_range_meters":38800,"station_id":"ce4bhm12rcd13ifvqgkg","pricing_plan_id":"cebpf4jnsgd1na2vs0mg"},{"bike_id":"21c3f886-bafe-4236-aa7c-30af499af7f0","system_id":"levelo_inurba_marseille","lat":43.32477,"lon":5.3657,"is_reserved":false,"is_disabled":false,"rental_uris":{"android":"levelo://app?vid=21c3f886-bafe-4236-aa7c-30af499af7f0","ios":"levelo://app?vid=21c3f886-bafe-4236-aa7c-30af499af7f0"},"vehicle_type_id":"4","last_reported":1731596983,"current_range_meters":22000,"station_id":"ce4bhs12rcd13ifvqhvg","pricing_plan_id":"cebpf4jnsgd1na2vs0mg"},{"bike_id":"9b8f297d-7dfb-42d1-8125-13cc6ca71fe4","system_id":"levelo_inurba_marseille","lat":43.29619,"lon":5.37743,"is_reserved":false,"is_disabled":false,"rental_uris":{"android":"levelo://app?vid=9b8f297d-7dfb-42d1-8125-13cc6ca71fe4","ios":"levelo://app?vid=9b8f297d-7dfb-42d1-8125-13cc6ca71fe4"},"vehicle_type_id":"4","last_reported":1731596983,"current_range_meters":18000,"station_id":"ce4bh2h2rcd13ifvqdh0","pricing_plan_id":"cebpf4jnsgd1na2vs0mg"},{"bike_id":"7e68d8eb-008a-41fa-8d76-b35dd2ccf3ff","system_id":"levelo_inurba_marseille","lat":43.25002,"lon":5.38924,"is_reserved":false,"is_disabled":false,"rental_uris":{"android":"levelo://app?vid=7e68d8eb-008a-41fa-8d76-b35dd2ccf3ff","ios":"levelo://app?vid=7e68d8eb-008a-41fa-8d76-b35dd2ccf3ff"},"vehicle_type_id":"4","last_reported":1731596983,"current_range_meters":25200,"station_id":"ce4bhgp2rcd13ifvqfd0","pricing_plan_id":"cebpf4jnsgd1na2vs0mg"},{"bike_id":"f0bb4405-bbbf-4616-bc8b-08a36af6964b","system_id":"levelo_inurba_marseille","lat":43.28272,"lon":5.3508,"is_reserved":false,"is_disabled":false,"rental_uris":{"android":"levelo://app?vid=f0bb4405-bbbf-4616-bc8b-08a36af6964b","ios":"levelo://app?vid=f0bb4405-bbbf-4616-bc8b-08a36af6964b"},"vehicle_type_id":"4","last_reported":1731596983,"current_range_meters":22800,"station_id":"ce4bhbp2rcd13ifvqerg","pricing_plan_id":"cebpf4jnsgd1na2vs0mg"},{"bike_id":"f15f84e3-6119-4797-bcba-f763c86025cb","system_id":"levelo_inurba_marseille","lat":43.337444,"lon":5.374475,"is_reserved":false,"is_disabled":false,"rental_uris":{"android":"levelo://app?vid=f15f84e3-6119-4797-bcba-f763c86025cb","ios":"levelo://app?vid=f15f84e3-6119-4797-bcba-f763c86025cb"},"vehicle_type_id":"4","last_reported":1731596983,"current_range_meters":34800,"station_id":"","pricing_plan_id":"cebpf4jnsgd1na2vs0mg"},{"bike_id":"934be49d-77fa-4bc7-88f0-5afb60d5edf8","system_id":"levelo_inurba_marseille","lat":43.25569,"lon":5.38241,"is_reserved":false,"is_disabled":false,"rental_uris":{"android":"levelo://app?vid=934be49d-77fa-4bc7-88f0-5afb60d5edf8","ios":"levelo://app?vid=934be49d-77fa-4bc7-88f0-5afb60d5edf8"},"vehicle_type_id":"4","last_reported":1731596983,"current_range_meters":26800,"station_id":"ce4bhih2rcd13ifvqfs0","pricing_plan_id":"cebpf4jnsgd1na2vs0mg"},{"bike_id":"61f70be7-b6f9-4297-ba8d-487d69b7ea54","system_id":"levelo_inurba_marseille","lat":43.2892,"lon":5.38392,"is_reserved":false,"is_disabled":false,"rental_uris":{"android":"levelo://app?vid=61f70be7-b6f9-4297-ba8d-487d69b7ea54","ios":"levelo://app?vid=61f70be7-b6f9-4297-ba8d-487d69b7ea54"},"vehicle_type_id":"4","last_reported":1731596983,"current_range_meters":37600,"station_id":"ce4bh612rcd13ifvqe6g","pricing_plan_id":"cebpf4jnsgd1na2vs0mg"},{"bike_id":"ba295aa4-e303-4da2-9863-82d8a34fc59c","system_id":"levelo_inurba_marseille","lat":43.23952,"lon":5.36644,"is_reserved":false,"is_disabled":false,"rental_uris":{"android":"levelo://app?vid=ba295aa4-e303-4da2-9863-82d8a34fc59c","ios":"levelo://app?vid=ba295aa4-e303-4da2-9863-82d8a34fc59c"},"vehicle_type_id":"4","last_reported":1731596983,"current_range_meters":27200,"station_id":"ce4bhi12rcd13ifvqfp0","pricing_plan_id":"cebpf4jnsgd1na2vs0mg"},{"bike_id":"f0f5c311-eccb-4b46-8e6f-37005aa162a9","system_id":"levelo_inurba_marseille","lat":43.30635,"lon":5.40119,"is_reserved":false,"is_disabled":false,"rental_uris":{"android":"levelo://app?vid=f0f5c311-eccb-4b46-8e6f-37005aa162a9","ios":"levelo://app?vid=f0f5c311-eccb-4b46-8e6f-37005aa162a9"},"vehicle_type_id":"4","last_reported":1731596983,"current_range_meters":34800,"station_id":"ce4bh112rcd13ifvqda0","pricing_plan_id":"cebpf4jnsgd1na2vs0mg"},{"bike_id":"8843f815-b619-485c-a98f-ddb2596bfa31","system_id":"levelo_inurba_marseille","lat":43.25576,"lon":5.38253,"is_reserved":false,"is_disabled":false,"rental_uris":{"android":"levelo://app?vid=8843f815-b619-485c-a98f-ddb2596bfa31","ios":"levelo://app?vid=8843f815-b619-485c-a98f-ddb2596bfa31"},"vehicle_type_id":"4","last_reported":1731596983,"current_range_meters":38000,"station_id":"ce4bhih2rcd13ifvqfs0","pricing_plan_id":"cebpf4jnsgd1na2vs0mg"},{"bike_id":"6bb4607c-5ac5-46e3-ac0a-de4d96ec0cb1","system_id":"levelo_inurba_marseille","lat":43.30546,"lon":5.36551,"is_reserved":false,"is_disabled":false,"rental_uris":{"android":"levelo://app?vid=6bb4607c-5ac5-46e3-ac0a-de4d96ec0cb1","ios":"levelo://app?vid=6bb4607c-5ac5-46e3-ac0a-de4d96ec0cb1"},"vehicle_type_id":"4","last_reported":1731596983,"current_range_meters":22800,"station_id":"ce4bgs12rcd13ifvqcag","pricing_plan_id":"cebpf4jnsgd1na2vs0mg"},{"bike_id":"e6f46053-89cb-4aae-b2c6-496668feb794","system_id":"levelo_inurba_marseille","lat":43.30353,"lon":5.4188,"is_reserved":false,"is_disabled":false,"rental_uris":{"android":"levelo://app?vid=e6f46053-89cb-4aae-b2c6-496668feb794","ios":"levelo://app?vid=e6f46053-89cb-4aae-b2c6-496668feb794"},"vehicle_type_id":"4","last_reported":1731596983,"current_range_meters":26000,"station_id":"ce4bhop2rcd13ifvqh7g","pricing_plan_id":"cebpf4jnsgd1na2vs0mg"},{"bike_id":"8963f262-bdcb-43f5-9e37-237198779ba8","system_id":"levelo_inurba_marseille","lat":43.33773,"lon":5.37442,"is_reserved":false,"is_disabled":false,"rental_uris":{"android":"levelo://app?vid=8963f262-bdcb-43f5-9e37-237198779ba8","ios":"levelo://app?vid=8963f262-bdcb-43f5-9e37-237198779ba8"},"vehicle_type_id":"4","last_reported":1731596983,"current_range_meters":33200,"station_id":"","pricing_plan_id":"cebpf4jnsgd1na2vs0mg"},{"bike_id":"398b47b3-a042-4cec-b1dd-254773a78263","system_id":"levelo_inurba_marseille","lat":43.27399,"lon":5.3896,"is_reserved":false,"is_disabled":false,"rental_uris":{"android":"levelo://app?vid=398b47b3-a042-4cec-b1dd-254773a78263","ios":"levelo://app?vid=398b47b3-a042-4cec-b1dd-254773a78263"},"vehicle_type_id":"4","last_reported":1731596983,"current_range_meters":3600,"station_id":"","pricing_plan_id":"cebpf4jnsgd1na2vs0mg"},{"bike_id":"8917990b-e521-4dd2-be3a-39fb95bd43be","system_id":"levelo_inurba_marseille","lat":43.30419,"lon":5.41286,"is_reserved":false,"is_disabled":false,"rental_uris":{"android":"levelo://app?vid=8917990b-e521-4dd2-be3a-39fb95bd43be","ios":"levelo://app?vid=8917990b-e521-4dd2-be3a-39fb95bd43be"},"vehicle_type_id":"4","last_reported":1731596983,"current_range_meters":24800,"station_id":"ce4bhop2rcd13ifvqh8g","pricing_plan_id":"cebpf4jnsgd1na2vs0mg"},{"bike_id":"59493fbf-8e34-4756-9655-6822db492597","system_id":"levelo_inurba_marseille","lat":43.29619,"lon":5.37739,"is_reserved":false,"is_disabled":false,"rental_uris":{"android":"levelo://app?vid=59493fbf-8e34-4756-9655-6822db492597","ios":"levelo://app?vid=59493fbf-8e34-4756-9655-6822db492597"},"vehicle_type_id":"4","last_reported":1731596983,"current_range_meters":37600,"station_id":"ce4bgi92rcd13ifvqb90","pricing_plan_id":"cebpf4jnsgd1na2vs0mg"},{"bike_id":"ac1081cc-aff5-436e-a11b-24d06190a755","system_id":"levelo_inurba_marseille","lat":43.337444,"lon":5.374475,"is_reserved":false,"is_disabled":false,"rental_uris":{"android":"levelo://app?vid=ac1081cc-aff5-436e-a11b-24d06190a755","ios":"levelo://app?vid=ac1081cc-aff5-436e-a11b-24d06190a755"},"vehicle_type_id":"4","last_reported":1731596983,"current_range_meters":33600,"station_id":"","pricing_plan_id":"cebpf4jnsgd1na2vs0mg"},{"bike_id":"92e3ad17-17c9-4714-a148-ef9436ad6113","system_id":"levelo_inurba_marseille","lat":43.22935,"lon":5.3538,"is_reserved":false,"is_disabled":false,"rental_uris":{"android":"levelo://app?vid=92e3ad17-17c9-4714-a148-ef9436ad6113","ios":"levelo://app?vid=92e3ad17-17c9-4714-a148-ef9436ad6113"},"vehicle_type_id":"4","last_reported":1731596983,"current_range_meters":38800,"station_id":"cpo3532slgdg3j2ikp40","pricing_plan_id":"cebpf4jnsgd1na2vs0mg"},{"bike_id":"3959eab5-15c5-4ed6-a889-9acfe67f1614","system_id":"levelo_inurba_marseille","lat":43.31328,"lon":5.39699,"is_reserved":false,"is_disabled":false,"rental_uris":{"android":"levelo://app?vid=3959eab5-15c5-4ed6-a889-9acfe67f1614","ios":"levelo://app?vid=3959eab5-15c5-4ed6-a889-9acfe67f1614"},"vehicle_type_id":"4","last_reported":1731596983,"current_range_meters":38400,"station_id":"ce4bgvp2rcd13ifvqcu0","pricing_plan_id":"cebpf4jnsgd1na2vs0mg"},{"bike_id":"5326c5f8-bba7-40e6-bfc7-8e986a3bddf3","system_id":"levelo_inurba_marseille","lat":43.32285,"lon":5.3828,"is_reserved":false,"is_disabled":false,"rental_uris":{"android":"levelo://app?vid=5326c5f8-bba7-40e6-bfc7-8e986a3bddf3","ios":"levelo://app?vid=5326c5f8-bba7-40e6-bfc7-8e986a3bddf3"},"vehicle_type_id":"4","last_reported":1731596983,"current_range_meters":23200,"station_id":"ce4bhr12rcd13ifvqhqg","pricing_plan_id":"cebpf4jnsgd1na2vs0mg"},{"bike_id":"82f309e6-c4ae-421f-89cb-1d64a8e0ef10","system_id":"levelo_inurba_marseille","lat":43.337444,"lon":5.374475,"is_reserved":false,"is_disabled":false,"rental_uris":{"android":"levelo://app?vid=82f309e6-c4ae-421f-89cb-1d64a8e0ef10","ios":"levelo://app?vid=82f309e6-c4ae-421f-89cb-1d64a8e0ef10"},"vehicle_type_id":"4","last_reported":1731596983,"current_range_meters":32400,"station_id":"","pricing_plan_id":"cebpf4jnsgd1na2vs0mg"},{"bike_id":"5419d154-3ce9-4c40-9294-d16b9d2b3431","system_id":"levelo_inurba_marseille","lat":43.337444,"lon":5.374475,"is_reserved":false,"is_disabled":false,"rental_uris":{"android":"levelo://app?vid=5419d154-3ce9-4c40-9294-d16b9d2b3431","ios":"levelo://app?vid=5419d154-3ce9-4c40-9294-d16b9d2b3431"},"vehicle_type_id":"4","last_reported":1731596983,"current_range_meters":32400,"station_id":"","pricing_plan_id":"cebpf4jnsgd1na2vs0mg"},{"bike_id":"1d7ed258-ac0f-499e-94e3-30158698c091","system_id":"levelo_inurba_marseille","lat":43.28263,"lon":5.35077,"is_reserved":false,"is_disabled":false,"rental_uris":{"android":"levelo://app?vid=1d7ed258-ac0f-499e-94e3-30158698c091","ios":"levelo://app?vid=1d7ed258-ac0f-499e-94e3-30158698c091"},"vehicle_type_id":"4","last_reported":1731596983,"current_range_meters":38800,"station_id":"ce4bhbp2rcd13ifvqerg","pricing_plan_id":"cebpf4jnsgd1na2vs0mg"},{"bike_id":"6e4ab7d2-c1df-4ea4-bb4b-2f5c43ed5717","system_id":"levelo_inurba_marseille","lat":43.33768,"lon":5.37439,"is_reserved":false,"is_disabled":false,"rental_uris":{"android":"levelo://app?vid=6e4ab7d2-c1df-4ea4-bb4b-2f5c43ed5717","ios":"levelo://app?vid=6e4ab7d2-c1df-4ea4-bb4b-2f5c43ed5717"},"vehicle_type_id":"4","last_reported":1731596983,"current_range_meters":32400,"station_id":"","pricing_plan_id":"cebpf4jnsgd1na2vs0mg"},{"bike_id":"bd465249-964f-4479-968e-5f6e32af60f1","system_id":"levelo_inurba_marseille","lat":43.337444,"lon":5.374475,"is_reserved":false,"is_disabled":false,"rental_uris":{"android":"levelo://app?vid=bd465249-964f-4479-968e-5f6e32af60f1","ios":"levelo://app?vid=bd465249-964f-4479-968e-5f6e32af60f1"},"vehicle_type_id":"4","last_reported":1731596983,"current_range_meters":34800,"station_id":"","pricing_plan_id":"cebpf4jnsgd1na2vs0mg"},{"bike_id":"d1bb9a1d-6278-4858-9d21-6a0f2130261f","system_id":"levelo_inurba_marseille","lat":43.24804,"lon":5.37451,"is_reserved":false,"is_disabled":false,"rental_uris":{"android":"levelo://app?vid=d1bb9a1d-6278-4858-9d21-6a0f2130261f","ios":"levelo://app?vid=d1bb9a1d-6278-4858-9d21-6a0f2130261f"},"vehicle_type_id":"4","last_reported":1731596983,"current_range_meters":39200,"station_id":"ce4bhgh2rcd13ifvqfb0","pricing_plan_id":"cebpf4jnsgd1na2vs0mg"},{"bike_id":"edc8be6c-01b6-4f15-a3aa-9bd61d4ae148","system_id":"levelo_inurba_marseille","lat":43.25086,"lon":5.39523,"is_reserved":false,"is_disabled":false,"rental_uris":{"android":"levelo://app?vid=edc8be6c-01b6-4f15-a3aa-9bd61d4ae148","ios":"levelo://app?vid=edc8be6c-01b6-4f15-a3aa-9bd61d4ae148"},"vehicle_type_id":"4","last_reported":1731596983,"current_range_meters":4800,"station_id":"ce4bhm12rcd13ifvqgkg","pricing_plan_id":"cebpf4jnsgd1na2vs0mg"},{"bike_id":"e3758ba3-84ed-469f-b909-b46ce0b37036","system_id":"levelo_inurba_marseille","lat":43.31061,"lon":5.38365,"is_reserved":false,"is_disabled":false,"rental_uris":{"android":"levelo://app?vid=e3758ba3-84ed-469f-b909-b46ce0b37036","ios":"levelo://app?vid=e3758ba3-84ed-469f-b909-b46ce0b37036"},"vehicle_type_id":"4","last_reported":1731596983,"current_range_meters":22000,"station_id":"ce4bgv92rcd13ifvqcr0","pricing_plan_id":"cebpf4jnsgd1na2vs0mg"},{"bike_id":"95d2d5e1-6cb6-41fd-97a4-d6d8c0e2b65e","system_id":"levelo_inurba_marseille","lat":43.31173,"lon":5.387169,"is_reserved":false,"is_disabled":false,"rental_uris":{"android":"levelo://app?vid=95d2d5e1-6cb6-41fd-97a4-d6d8c0e2b65e","ios":"levelo://app?vid=95d2d5e1-6cb6-41fd-97a4-d6d8c0e2b65e"},"vehicle_type_id":"4","last_reported":1731596983,"current_range_meters":38000,"station_id":"ce4bgv12rcd13ifvqcp0","pricing_plan_id":"cebpf4jnsgd1na2vs0mg"},{"bike_id":"e94faea4-9b10-422b-bd8c-255c607bf877","system_id":"levelo_inurba_marseille","lat":43.31535,"lon":5.38032,"is_reserved":false,"is_disabled":false,"rental_uris":{"android":"levelo://app?vid=e94faea4-9b10-422b-bd8c-255c607bf877","ios":"levelo://app?vid=e94faea4-9b10-422b-bd8c-255c607bf877"},"vehicle_type_id":"4","last_reported":1731596983,"current_range_meters":30400,"station_id":"ce4bhsp2rcd13ifvqi50","pricing_plan_id":"cebpf4jnsgd1na2vs0mg"},{"bike_id":"17839581-b57c-4252-82f7-218e57a88d34","system_id":"levelo_inurba_marseille","lat":43.28462,"lon":5.35893,"is_reserved":false,"is_disabled":false,"rental_uris":{"android":"levelo://app?vid=17839581-b57c-4252-82f7-218e57a88d34","ios":"levelo://app?vid=17839581-b57c-4252-82f7-218e57a88d34"},"vehicle_type_id":"4","last_reported":1731596983,"current_range_meters":9600,"station_id":"ce4bhah2rcd13ifvqei0","pricing_plan_id":"cebpf4jnsgd1na2vs0mg"},{"bike_id":"6406f7b0-e2d9-446f-b79f-4b7dff955240","system_id":"levelo_inurba_marseille","lat":43.284,"lon":5.34995,"is_reserved":false,"is_disabled":false,"rental_uris":{"android":"levelo://app?vid=6406f7b0-e2d9-446f-b79f-4b7dff955240","ios":"levelo://app?vid=6406f7b0-e2d9-446f-b79f-4b7dff955240"},"vehicle_type_id":"4","last_reported":1731596983,"current_range_meters":38800,"station_id":"ce4bhbh2rcd13ifvqepg","pricing_plan_id":"cebpf4jnsgd1na2vs0mg"},{"bike_id":"c9d041c0-acec-4cf4-bba2-e01a92441368","system_id":"levelo_inurba_marseille","lat":43.337444,"lon":5.374475,"is_reserved":false,"is_disabled":false,"rental_uris":{"android":"levelo://app?vid=c9d041c0-acec-4cf4-bba2-e01a92441368","ios":"levelo://app?vid=c9d041c0-acec-4cf4-bba2-e01a92441368"},"vehicle_type_id":"4","last_reported":1731596983,"current_range_meters":33600,"station_id":"","pricing_plan_id":"cebpf4jnsgd1na2vs0mg"},{"bike_id":"7ad49510-310d-478d-be5a-905a086de82e","system_id":"levelo_inurba_marseille","lat":43.29269,"lon":5.36853,"is_reserved":false,"is_disabled":false,"rental_uris":{"android":"levelo://app?vid=7ad49510-310d-478d-be5a-905a086de82e","ios":"levelo://app?vid=7ad49510-310d-478d-be5a-905a086de82e"},"vehicle_type_id":"4","last_reported":1731596983,"current_range_meters":34000,"station_id":"ce4bhbp2rcd13ifvqesg","pricing_plan_id":"cebpf4jnsgd1na2vs0mg"},{"bike_id":"871f1c6d-af66-4cc8-996c-74ee3d5c8e2d","system_id":"levelo_inurba_marseille","lat":43.2958,"lon":5.38113,"is_reserved":false,"is_disabled":false,"rental_uris":{"android":"levelo://app?vid=871f1c6d-af66-4cc8-996c-74ee3d5c8e2d","ios":"levelo://app?vid=871f1c6d-af66-4cc8-996c-74ee3d5c8e2d"},"vehicle_type_id":"4","last_reported":1731596983,"current_range_meters":800,"station_id":"ce4bgl12rcd13ifvqbo0","pricing_plan_id":"cebpf4jnsgd1na2vs0mg"},{"bike_id":"81612d66-ab97-479c-9fbb-ea8c82562210","system_id":"levelo_inurba_marseille","lat":43.340851,"lon":5.361055,"is_reserved":false,"is_disabled":false,"rental_uris":{"android":"levelo://app?vid=81612d66-ab97-479c-9fbb-ea8c82562210","ios":"levelo://app?vid=81612d66-ab97-479c-9fbb-ea8c82562210"},"vehicle_type_id":"4","last_reported":1731596983,"current_range_meters":16000,"station_id":"","pricing_plan_id":"cebpf4jnsgd1na2vs0mg"},{"bike_id":"92eef5a4-7413-4712-aa62-eb761eb3479d","system_id":"levelo_inurba_marseille","lat":43.28112,"lon":5.37851,"is_reserved":false,"is_disabled":false,"rental_uris":{"android":"levelo://app?vid=92eef5a4-7413-4712-aa62-eb761eb3479d","ios":"levelo://app?vid=92eef5a4-7413-4712-aa62-eb761eb3479d"},"vehicle_type_id":"4","last_reported":1731596983,"current_range_meters":36800,"station_id":"ce4bha12rcd13ifvqee0","pricing_plan_id":"cebpf4jnsgd1na2vs0mg"},{"bike_id":"c4172982-430f-4871-b934-5f935d1d1681","system_id":"levelo_inurba_marseille","lat":43.29564,"lon":5.37507,"is_reserved":false,"is_disabled":false,"rental_uris":{"android":"levelo://app?vid=c4172982-430f-4871-b934-5f935d1d1681","ios":"levelo://app?vid=c4172982-430f-4871-b934-5f935d1d1681"},"vehicle_type_id":"4","last_reported":1731596983,"current_range_meters":38000,"station_id":"ce4bgh92rcd13ifvqb50","pricing_plan_id":"cebpf4jnsgd1na2vs0mg"},{"bike_id":"e0ec9fe1-dd2f-48ef-b9fd-a87b13a8b782","system_id":"levelo_inurba_marseille","lat":43.27059,"lon":5.40265,"is_reserved":false,"is_disabled":false,"rental_uris":{"android":"levelo://app?vid=e0ec9fe1-dd2f-48ef-b9fd-a87b13a8b782","ios":"levelo://app?vid=e0ec9fe1-dd2f-48ef-b9fd-a87b13a8b782"},"vehicle_type_id":"4","last_reported":1731596983,"current_range_meters":5600,"station_id":"ce4bhk92rcd13ifvqgc0","pricing_plan_id":"cebpf4jnsgd1na2vs0mg"},{"bike_id":"ac8ea4f1-15c4-45af-922d-3cac28cd1e73","system_id":"levelo_inurba_marseille","lat":43.28348,"lon":5.38101,"is_reserved":false,"is_disabled":false,"rental_uris":{"android":"levelo://app?vid=ac8ea4f1-15c4-45af-922d-3cac28cd1e73","ios":"levelo://app?vid=ac8ea4f1-15c4-45af-922d-3cac28cd1e73"},"vehicle_type_id":"4","last_reported":1731596983,"current_range_meters":18000,"station_id":"ce4bh412rcd13ifvqdr0","pricing_plan_id":"cebpf4jnsgd1na2vs0mg"},{"bike_id":"f2ba7ebb-3d7b-4d7b-a714-97d9295713f8","system_id":"levelo_inurba_marseille","lat":43.280762,"lon":5.396631,"is_reserved":false,"is_disabled":false,"rental_uris":{"android":"levelo://app?vid=f2ba7ebb-3d7b-4d7b-a714-97d9295713f8","ios":"levelo://app?vid=f2ba7ebb-3d7b-4d7b-a714-97d9295713f8"},"vehicle_type_id":"4","last_reported":1731596983,"current_range_meters":38000,"station_id":"ce4bho12rcd13ifvqh2g","pricing_plan_id":"cebpf4jnsgd1na2vs0mg"},{"bike_id":"5e5384b9-4782-4d50-806a-78ab6db97745","system_id":"levelo_inurba_marseille","lat":43.27986,"lon":5.41663,"is_reserved":false,"is_disabled":false,"rental_uris":{"android":"levelo://app?vid=5e5384b9-4782-4d50-806a-78ab6db97745","ios":"levelo://app?vid=5e5384b9-4782-4d50-806a-78ab6db97745"},"vehicle_type_id":"4","last_reported":1731596983,"current_range_meters":35200,"station_id":"ce4bho12rcd13ifvqh1g","pricing_plan_id":"cebpf4jnsgd1na2vs0mg"},{"bike_id":"7993481c-6af9-41f2-9bac-c327a53be150","system_id":"levelo_inurba_marseille","lat":43.23155,"lon":5.43702,"is_reserved":false,"is_disabled":false,"rental_uris":{"android":"levelo://app?vid=7993481c-6af9-41f2-9bac-c327a53be150","ios":"levelo://app?vid=7993481c-6af9-41f2-9bac-c327a53be150"},"vehicle_type_id":"4","last_reported":1731596983,"current_range_meters":37600,"station_id":"ce4bhmp2rcd13ifvqgog","pricing_plan_id":"cebpf4jnsgd1na2vs0mg"},{"bike_id":"3bc7c932-c9ee-4ce7-a923-4ae60356d621","system_id":"levelo_inurba_marseille","lat":43.249969,"lon":5.389251,"is_reserved":false,"is_disabled":false,"rental_uris":{"android":"levelo://app?vid=3bc7c932-c9ee-4ce7-a923-4ae60356d621","ios":"levelo://app?vid=3bc7c932-c9ee-4ce7-a923-4ae60356d621"},"vehicle_type_id":"4","last_reported":1731596983,"current_range_meters":22000,"station_id":"ce4bhgp2rcd13ifvqfd0","pricing_plan_id":"cebpf4jnsgd1na2vs0mg"},{"bike_id":"d523880d-65c6-4526-b6fe-cd64e6cd69a8","system_id":"levelo_inurba_marseille","lat":43.30928,"lon":5.40148,"is_reserved":false,"is_disabled":false,"rental_uris":{"android":"levelo://app?vid=d523880d-65c6-4526-b6fe-cd64e6cd69a8","ios":"levelo://app?vid=d523880d-65c6-4526-b6fe-cd64e6cd69a8"},"vehicle_type_id":"4","last_reported":1731596983,"current_range_meters":38800,"station_id":"ce4bgvp2rcd13ifvqct0","pricing_plan_id":"cebpf4jnsgd1na2vs0mg"},{"bike_id":"4f403e37-a8c3-4d70-a9e9-789f448b0b15","system_id":"levelo_inurba_marseille","lat":43.31989,"lon":5.3815,"is_reserved":false,"is_disabled":false,"rental_uris":{"android":"levelo://app?vid=4f403e37-a8c3-4d70-a9e9-789f448b0b15","ios":"levelo://app?vid=4f403e37-a8c3-4d70-a9e9-789f448b0b15"},"vehicle_type_id":"4","last_reported":1731596983,"current_range_meters":24000,"station_id":"ce4bhr12rcd13ifvqhpg","pricing_plan_id":"cebpf4jnsgd1na2vs0mg"},{"bike_id":"9349eebe-93fd-472c-91d4-00e053b1829b","system_id":"levelo_inurba_marseille","lat":43.24388,"lon":5.37064,"is_reserved":false,"is_disabled":false,"rental_uris":{"android":"levelo://app?vid=9349eebe-93fd-472c-91d4-00e053b1829b","ios":"levelo://app?vid=9349eebe-93fd-472c-91d4-00e053b1829b"},"vehicle_type_id":"4","last_reported":1731596983,"current_range_meters":37600,"station_id":"ce4bhhh2rcd13ifvqfk0","pricing_plan_id":"cebpf4jnsgd1na2vs0mg"},{"bike_id":"96352786-b953-4b6d-96b3-5df619023394","system_id":"levelo_inurba_marseille","lat":43.31358,"lon":5.36717,"is_reserved":false,"is_disabled":false,"rental_uris":{"android":"levelo://app?vid=96352786-b953-4b6d-96b3-5df619023394","ios":"levelo://app?vid=96352786-b953-4b6d-96b3-5df619023394"},"vehicle_type_id":"4","last_reported":1731596983,"current_range_meters":38800,"station_id":"ce4bgr92rcd13ifvqc6g","pricing_plan_id":"cebpf4jnsgd1na2vs0mg"},{"bike_id":"4732d80e-6243-4e53-95f3-22d2176c9618","system_id":"levelo_inurba_marseille","lat":43.2838,"lon":5.38654,"is_reserved":false,"is_disabled":false,"rental_uris":{"android":"levelo://app?vid=4732d80e-6243-4e53-95f3-22d2176c9618","ios":"levelo://app?vid=4732d80e-6243-4e53-95f3-22d2176c9618"},"vehicle_type_id":"4","last_reported":1731596983,"current_range_meters":32400,"station_id":"ce4bh492rcd13ifvqdvg","pricing_plan_id":"cebpf4jnsgd1na2vs0mg"},{"bike_id":"55d209e1-fbe2-4a90-8240-258116347e63","system_id":"levelo_inurba_marseille","lat":43.23153,"lon":5.43715,"is_reserved":false,"is_disabled":false,"rental_uris":{"android":"levelo://app?vid=55d209e1-fbe2-4a90-8240-258116347e63","ios":"levelo://app?vid=55d209e1-fbe2-4a90-8240-258116347e63"},"vehicle_type_id":"4","last_reported":1731596983,"current_range_meters":28000,"station_id":"ce4bhmp2rcd13ifvqgog","pricing_plan_id":"cebpf4jnsgd1na2vs0mg"},{"bike_id":"96982182-a7c7-450e-8433-0ac9d985aed2","system_id":"levelo_inurba_marseille","lat":43.33717,"lon":5.39195,"is_reserved":false,"is_disabled":false,"rental_uris":{"android":"levelo://app?vid=96982182-a7c7-450e-8433-0ac9d985aed2","ios":"levelo://app?vid=96982182-a7c7-450e-8433-0ac9d985aed2"},"vehicle_type_id":"4","last_reported":1731596983,"current_range_meters":37600,"station_id":"ce4bhr92rcd13ifvqhsg","pricing_plan_id":"cebpf4jnsgd1na2vs0mg"},{"bike_id":"37212eb8-cfa6-47ba-9ed7-bfed51287466","system_id":"levelo_inurba_marseille","lat":43.31459,"lon":5.37398,"is_reserved":false,"is_disabled":false,"rental_uris":{"android":"levelo://app?vid=37212eb8-cfa6-47ba-9ed7-bfed51287466","ios":"levelo://app?vid=37212eb8-cfa6-47ba-9ed7-bfed51287466"},"vehicle_type_id":"4","last_reported":1731596983,"current_range_meters":38000,"station_id":"","pricing_plan_id":"cebpf4jnsgd1na2vs0mg"},{"bike_id":"0a7a7ac5-f54c-44af-a6b9-bff324764339","system_id":"levelo_inurba_marseille","lat":43.23056,"lon":5.35494,"is_reserved":false,"is_disabled":false,"rental_uris":{"android":"levelo://app?vid=0a7a7ac5-f54c-44af-a6b9-bff324764339","ios":"levelo://app?vid=0a7a7ac5-f54c-44af-a6b9-bff324764339"},"vehicle_type_id":"4","last_reported":1731596983,"current_range_meters":20400,"station_id":"cpo3342slgdg3j2ifvpg","pricing_plan_id":"cebpf4jnsgd1na2vs0mg"},{"bike_id":"c7f984cf-e1fa-4383-ab1b-5be19e090e1b","system_id":"levelo_inurba_marseille","lat":43.33767,"lon":5.37436,"is_reserved":false,"is_disabled":false,"rental_uris":{"android":"levelo://app?vid=c7f984cf-e1fa-4383-ab1b-5be19e090e1b","ios":"levelo://app?vid=c7f984cf-e1fa-4383-ab1b-5be19e090e1b"},"vehicle_type_id":"4","last_reported":1731596983,"current_range_meters":33600,"station_id":"","pricing_plan_id":"cebpf4jnsgd1na2vs0mg"},{"bike_id":"a13c7708-d87b-4218-8927-329742d4f8b9","system_id":"levelo_inurba_marseille","lat":43.31988,"lon":5.38148,"is_reserved":false,"is_disabled":false,"rental_uris":{"android":"levelo://app?vid=a13c7708-d87b-4218-8927-329742d4f8b9","ios":"levelo://app?vid=a13c7708-d87b-4218-8927-329742d4f8b9"},"vehicle_type_id":"4","last_reported":1731596983,"current_range_meters":39200,"station_id":"ce4bhr12rcd13ifvqhpg","pricing_plan_id":"cebpf4jnsgd1na2vs0mg"},{"bike_id":"bef7ca68-0ccd-456c-a245-4471193ed987","system_id":"levelo_inurba_marseille","lat":43.26058,"lon":5.39404,"is_reserved":false,"is_disabled":false,"rental_uris":{"android":"levelo://app?vid=bef7ca68-0ccd-456c-a245-4471193ed987","ios":"levelo://app?vid=bef7ca68-0ccd-456c-a245-4471193ed987"},"vehicle_type_id":"4","last_reported":1731596983,"current_range_meters":26000,"station_id":"ce4bhh92rcd13ifvqfj0","pricing_plan_id":"cebpf4jnsgd1na2vs0mg"},{"bike_id":"f833861e-92da-4d9e-8a95-ef01e773ecaa","system_id":"levelo_inurba_marseille","lat":43.28258,"lon":5.35076,"is_reserved":false,"is_disabled":false,"rental_uris":{"android":"levelo://app?vid=f833861e-92da-4d9e-8a95-ef01e773ecaa","ios":"levelo://app?vid=f833861e-92da-4d9e-8a95-ef01e773ecaa"},"vehicle_type_id":"4","last_reported":1731596983,"current_range_meters":11600,"station_id":"ce4bhbp2rcd13ifvqerg","pricing_plan_id":"cebpf4jnsgd1na2vs0mg"},{"bike_id":"db29862a-e58c-40a0-ad2d-ba142a0b40ac","system_id":"levelo_inurba_marseille","lat":43.29868,"lon":5.39733,"is_reserved":false,"is_disabled":false,"rental_uris":{"android":"levelo://app?vid=db29862a-e58c-40a0-ad2d-ba142a0b40ac","ios":"levelo://app?vid=db29862a-e58c-40a0-ad2d-ba142a0b40ac"},"vehicle_type_id":"4","last_reported":1731596983,"current_range_meters":35200,"station_id":"ce4bh0h2rcd13ifvqd50","pricing_plan_id":"cebpf4jnsgd1na2vs0mg"},{"bike_id":"7fd0953d-1bf7-448f-8450-677880c3fed8","system_id":"levelo_inurba_marseille","lat":43.29699,"lon":5.36607,"is_reserved":false,"is_disabled":false,"rental_uris":{"android":"levelo://app?vid=7fd0953d-1bf7-448f-8450-677880c3fed8","ios":"levelo://app?vid=7fd0953d-1bf7-448f-8450-677880c3fed8"},"vehicle_type_id":"4","last_reported":1731596983,"current_range_meters":38800,"station_id":"ce4bgn12rcd13ifvqbt0","pricing_plan_id":"cebpf4jnsgd1na2vs0mg"},{"bike_id":"9571fd97-c0fe-4a0a-a188-293db4f2b9c7","system_id":"levelo_inurba_marseille","lat":43.2315,"lon":5.43707,"is_reserved":false,"is_disabled":false,"rental_uris":{"android":"levelo://app?vid=9571fd97-c0fe-4a0a-a188-293db4f2b9c7","ios":"levelo://app?vid=9571fd97-c0fe-4a0a-a188-293db4f2b9c7"},"vehicle_type_id":"4","last_reported":1731596983,"current_range_meters":38000,"station_id":"ce4bhmp2rcd13ifvqgog","pricing_plan_id":"cebpf4jnsgd1na2vs0mg"},{"bike_id":"e190ecc4-0d74-4988-a8a4-22f1dbe46485","system_id":"levelo_inurba_marseille","lat":43.28455,"lon":5.383984,"is_reserved":false,"is_disabled":false,"rental_uris":{"android":"levelo://app?vid=e190ecc4-0d74-4988-a8a4-22f1dbe46485","ios":"levelo://app?vid=e190ecc4-0d74-4988-a8a4-22f1dbe46485"},"vehicle_type_id":"4","last_reported":1731596983,"current_range_meters":2800,"station_id":"ce4bh512rcd13ifvqe3g","pricing_plan_id":"cebpf4jnsgd1na2vs0mg"},{"bike_id":"282ed784-ba3d-41f6-a62b-fb761717aa10","system_id":"levelo_inurba_marseille","lat":43.2959,"lon":5.36743,"is_reserved":false,"is_disabled":false,"rental_uris":{"android":"levelo://app?vid=282ed784-ba3d-41f6-a62b-fb761717aa10","ios":"levelo://app?vid=282ed784-ba3d-41f6-a62b-fb761717aa10"},"vehicle_type_id":"4","last_reported":1731596983,"current_range_meters":38800,"station_id":"ce4bgph2rcd13ifvqc2g","pricing_plan_id":"cebpf4jnsgd1na2vs0mg"},{"bike_id":"6d757fef-4f26-43f9-ac2c-ffab39bf7dae","system_id":"levelo_inurba_marseille","lat":43.32249,"lon":5.36901,"is_reserved":false,"is_disabled":false,"rental_uris":{"android":"levelo://app?vid=6d757fef-4f26-43f9-ac2c-ffab39bf7dae","ios":"levelo://app?vid=6d757fef-4f26-43f9-ac2c-ffab39bf7dae"},"vehicle_type_id":"4","last_reported":1731596983,"current_range_meters":28400,"station_id":"","pricing_plan_id":"cebpf4jnsgd1na2vs0mg"},{"bike_id":"e216e8fa-6a96-4bd4-ac43-a50c02110f51","system_id":"levelo_inurba_marseille","lat":43.31324,"lon":5.39698,"is_reserved":false,"is_disabled":false,"rental_uris":{"android":"levelo://app?vid=e216e8fa-6a96-4bd4-ac43-a50c02110f51","ios":"levelo://app?vid=e216e8fa-6a96-4bd4-ac43-a50c02110f51"},"vehicle_type_id":"4","last_reported":1731596983,"current_range_meters":36800,"station_id":"ce4bgvp2rcd13ifvqcu0","pricing_plan_id":"cebpf4jnsgd1na2vs0mg"},{"bike_id":"8d06e41d-acbb-422d-9c3f-49462f4119df","system_id":"levelo_inurba_marseille","lat":43.33756,"lon":5.3745,"is_reserved":false,"is_disabled":false,"rental_uris":{"android":"levelo://app?vid=8d06e41d-acbb-422d-9c3f-49462f4119df","ios":"levelo://app?vid=8d06e41d-acbb-422d-9c3f-49462f4119df"},"vehicle_type_id":"4","last_reported":1731596983,"current_range_meters":20800,"station_id":"","pricing_plan_id":"cebpf4jnsgd1na2vs0mg"},{"bike_id":"8e27b135-0d0f-4482-973d-321a3b630af8","system_id":"levelo_inurba_marseille","lat":43.31709,"lon":5.37755,"is_reserved":false,"is_disabled":false,"rental_uris":{"android":"levelo://app?vid=8e27b135-0d0f-4482-973d-321a3b630af8","ios":"levelo://app?vid=8e27b135-0d0f-4482-973d-321a3b630af8"},"vehicle_type_id":"4","last_reported":1731596983,"current_range_meters":28400,"station_id":"ce4bgth2rcd13ifvqch0","pricing_plan_id":"cebpf4jnsgd1na2vs0mg"},{"bike_id":"992bd31a-5df9-46d3-83cb-b0b47c6977a8","system_id":"levelo_inurba_marseille","lat":43.29707,"lon":5.36601,"is_reserved":false,"is_disabled":false,"rental_uris":{"android":"levelo://app?vid=992bd31a-5df9-46d3-83cb-b0b47c6977a8","ios":"levelo://app?vid=992bd31a-5df9-46d3-83cb-b0b47c6977a8"},"vehicle_type_id":"4","last_reported":1731596983,"current_range_meters":30800,"station_id":"ce4bgn12rcd13ifvqbt0","pricing_plan_id":"cebpf4jnsgd1na2vs0mg"},{"bike_id":"5fcf0b0a-1c96-4f2a-bab7-01f1f4d82dde","system_id":"levelo_inurba_marseille","lat":43.23148,"lon":5.4371,"is_reserved":false,"is_disabled":false,"rental_uris":{"android":"levelo://app?vid=5fcf0b0a-1c96-4f2a-bab7-01f1f4d82dde","ios":"levelo://app?vid=5fcf0b0a-1c96-4f2a-bab7-01f1f4d82dde"},"vehicle_type_id":"4","last_reported":1731596983,"current_range_meters":32000,"station_id":"ce4bhmp2rcd13ifvqgog","pricing_plan_id":"cebpf4jnsgd1na2vs0mg"},{"bike_id":"2e56507a-09fc-45f5-9d4f-fd076d3c1369","system_id":"levelo_inurba_marseille","lat":43.317608,"lon":5.39023,"is_reserved":false,"is_disabled":false,"rental_uris":{"android":"levelo://app?vid=2e56507a-09fc-45f5-9d4f-fd076d3c1369","ios":"levelo://app?vid=2e56507a-09fc-45f5-9d4f-fd076d3c1369"},"vehicle_type_id":"4","last_reported":1731596983,"current_range_meters":17200,"station_id":"ce4bhqp2rcd13ifvqhng","pricing_plan_id":"cebpf4jnsgd1na2vs0mg"},{"bike_id":"3c5bd607-570e-4c10-9330-59aae7c5eabb","system_id":"levelo_inurba_marseille","lat":43.31045,"lon":5.38377,"is_reserved":false,"is_disabled":false,"rental_uris":{"android":"levelo://app?vid=3c5bd607-570e-4c10-9330-59aae7c5eabb","ios":"levelo://app?vid=3c5bd607-570e-4c10-9330-59aae7c5eabb"},"vehicle_type_id":"4","last_reported":1731596983,"current_range_meters":33200,"station_id":"ce4bgv92rcd13ifvqcr0","pricing_plan_id":"cebpf4jnsgd1na2vs0mg"},{"bike_id":"070aae14-a984-4613-8ade-edb7cfd29691","system_id":"levelo_inurba_marseille","lat":43.3041,"lon":5.41294,"is_reserved":false,"is_disabled":false,"rental_uris":{"android":"levelo://app?vid=070aae14-a984-4613-8ade-edb7cfd29691","ios":"levelo://app?vid=070aae14-a984-4613-8ade-edb7cfd29691"},"vehicle_type_id":"4","last_reported":1731596983,"current_range_meters":38800,"station_id":"ce4bhop2rcd13ifvqh8g","pricing_plan_id":"cebpf4jnsgd1na2vs0mg"},{"bike_id":"fc992a78-96c0-4575-bb3d-4b9fd49c9617","system_id":"levelo_inurba_marseille","lat":43.29694,"lon":5.36598,"is_reserved":false,"is_disabled":false,"rental_uris":{"android":"levelo://app?vid=fc992a78-96c0-4575-bb3d-4b9fd49c9617","ios":"levelo://app?vid=fc992a78-96c0-4575-bb3d-4b9fd49c9617"},"vehicle_type_id":"4","last_reported":1731596983,"current_range_meters":38800,"station_id":"ce4bgn12rcd13ifvqbt0","pricing_plan_id":"cebpf4jnsgd1na2vs0mg"},{"bike_id":"1b7af4a5-4a9e-4219-be2b-1e22ecef0dd2","system_id":"levelo_inurba_marseille","lat":43.29617,"lon":5.3774,"is_reserved":false,"is_disabled":false,"rental_uris":{"android":"levelo://app?vid=1b7af4a5-4a9e-4219-be2b-1e22ecef0dd2","ios":"levelo://app?vid=1b7af4a5-4a9e-4219-be2b-1e22ecef0dd2"},"vehicle_type_id":"4","last_reported":1731596983,"current_range_meters":8800,"station_id":"ce4bgi92rcd13ifvqb90","pricing_plan_id":"cebpf4jnsgd1na2vs0mg"},{"bike_id":"c3b9ced7-2951-4845-9c00-c49c8c3e851f","system_id":"levelo_inurba_marseille","lat":43.27676,"lon":5.38891,"is_reserved":false,"is_disabled":false,"rental_uris":{"android":"levelo://app?vid=c3b9ced7-2951-4845-9c00-c49c8c3e851f","ios":"levelo://app?vid=c3b9ced7-2951-4845-9c00-c49c8c3e851f"},"vehicle_type_id":"4","last_reported":1731596983,"current_range_meters":38800,"station_id":"ce4bhi12rcd13ifvqfo0","pricing_plan_id":"cebpf4jnsgd1na2vs0mg"},{"bike_id":"8b0c9c31-2e7c-41e4-b690-cd65a3be8cf0","system_id":"levelo_inurba_marseille","lat":43.33019,"lon":5.39045,"is_reserved":false,"is_disabled":false,"rental_uris":{"android":"levelo://app?vid=8b0c9c31-2e7c-41e4-b690-cd65a3be8cf0","ios":"levelo://app?vid=8b0c9c31-2e7c-41e4-b690-cd65a3be8cf0"},"vehicle_type_id":"4","last_reported":1731596983,"current_range_meters":10800,"station_id":"ce4bhr92rcd13ifvqhrg","pricing_plan_id":"cebpf4jnsgd1na2vs0mg"},{"bike_id":"4bbaf73d-fc2a-4e45-a669-e4b5032ca381","system_id":"levelo_inurba_marseille","lat":43.28258,"lon":5.35075,"is_reserved":false,"is_disabled":false,"rental_uris":{"android":"levelo://app?vid=4bbaf73d-fc2a-4e45-a669-e4b5032ca381","ios":"levelo://app?vid=4bbaf73d-fc2a-4e45-a669-e4b5032ca381"},"vehicle_type_id":"4","last_reported":1731596983,"current_range_meters":39200,"station_id":"ce4bhbp2rcd13ifvqerg","pricing_plan_id":"cebpf4jnsgd1na2vs0mg"},{"bike_id":"2ba01715-3170-4a7e-ae00-4a8868ac1042","system_id":"levelo_inurba_marseille","lat":43.25088,"lon":5.39512,"is_reserved":false,"is_disabled":false,"rental_uris":{"android":"levelo://app?vid=2ba01715-3170-4a7e-ae00-4a8868ac1042","ios":"levelo://app?vid=2ba01715-3170-4a7e-ae00-4a8868ac1042"},"vehicle_type_id":"4","last_reported":1731596983,"current_range_meters":28400,"station_id":"ce4bhm12rcd13ifvqgkg","pricing_plan_id":"cebpf4jnsgd1na2vs0mg"},{"bike_id":"8c2c5c70-e073-4fc3-adbd-49a7e0bbbd4e","system_id":"levelo_inurba_marseille","lat":43.24388,"lon":5.3707,"is_reserved":false,"is_disabled":false,"rental_uris":{"android":"levelo://app?vid=8c2c5c70-e073-4fc3-adbd-49a7e0bbbd4e","ios":"levelo://app?vid=8c2c5c70-e073-4fc3-adbd-49a7e0bbbd4e"},"vehicle_type_id":"4","last_reported":1731596983,"current_range_meters":4400,"station_id":"ce4bhhh2rcd13ifvqfk0","pricing_plan_id":"cebpf4jnsgd1na2vs0mg"},{"bike_id":"890394d9-d027-42d8-8d4b-306c8879b0e0","system_id":"levelo_inurba_marseille","lat":43.337444,"lon":5.374475,"is_reserved":false,"is_disabled":false,"rental_uris":{"android":"levelo://app?vid=890394d9-d027-42d8-8d4b-306c8879b0e0","ios":"levelo://app?vid=890394d9-d027-42d8-8d4b-306c8879b0e0"},"vehicle_type_id":"4","last_reported":1731596983,"current_range_meters":33600,"station_id":"","pricing_plan_id":"cebpf4jnsgd1na2vs0mg"},{"bike_id":"40fd1c35-02a8-458b-87fc-e61bc6902052","system_id":"levelo_inurba_marseille","lat":43.24993,"lon":5.38944,"is_reserved":false,"is_disabled":false,"rental_uris":{"android":"levelo://app?vid=40fd1c35-02a8-458b-87fc-e61bc6902052","ios":"levelo://app?vid=40fd1c35-02a8-458b-87fc-e61bc6902052"},"vehicle_type_id":"4","last_reported":1731596983,"current_range_meters":11600,"station_id":"ce4bhgp2rcd13ifvqfd0","pricing_plan_id":"cebpf4jnsgd1na2vs0mg"},{"bike_id":"3f60a30b-5da6-4f1d-a390-17d6663d42c4","system_id":"levelo_inurba_marseille","lat":43.29279,"lon":5.40145,"is_reserved":false,"is_disabled":false,"rental_uris":{"android":"levelo://app?vid=3f60a30b-5da6-4f1d-a390-17d6663d42c4","ios":"levelo://app?vid=3f60a30b-5da6-4f1d-a390-17d6663d42c4"},"vehicle_type_id":"4","last_reported":1731596983,"current_range_meters":16400,"station_id":"ce4bh312rcd13ifvqdk0","pricing_plan_id":"cebpf4jnsgd1na2vs0mg"},{"bike_id":"8459340c-7963-433e-bad3-6aecb697895d","system_id":"levelo_inurba_marseille","lat":43.27808,"lon":5.40709,"is_reserved":false,"is_disabled":false,"rental_uris":{"android":"levelo://app?vid=8459340c-7963-433e-bad3-6aecb697895d","ios":"levelo://app?vid=8459340c-7963-433e-bad3-6aecb697895d"},"vehicle_type_id":"4","last_reported":1731596983,"current_range_meters":38800,"station_id":"ce4bhnh2rcd13ifvqgtg","pricing_plan_id":"cebpf4jnsgd1na2vs0mg"},{"bike_id":"cefd6eab-6f19-4560-89c5-217b1e9d5ea1","system_id":"levelo_inurba_marseille","lat":43.26556,"lon":5.39004,"is_reserved":false,"is_disabled":false,"rental_uris":{"android":"levelo://app?vid=cefd6eab-6f19-4560-89c5-217b1e9d5ea1","ios":"levelo://app?vid=cefd6eab-6f19-4560-89c5-217b1e9d5ea1"},"vehicle_type_id":"4","last_reported":1731596983,"current_range_meters":10800,"station_id":"ce4bhe12rcd13ifvqf30","pricing_plan_id":"cebpf4jnsgd1na2vs0mg"},{"bike_id":"d64789a5-6f7a-491a-b16a-1ea1a1a93312","system_id":"levelo_inurba_marseille","lat":43.30779,"lon":5.37655,"is_reserved":false,"is_disabled":false,"rental_uris":{"android":"levelo://app?vid=d64789a5-6f7a-491a-b16a-1ea1a1a93312","ios":"levelo://app?vid=d64789a5-6f7a-491a-b16a-1ea1a1a93312"},"vehicle_type_id":"4","last_reported":1731596983,"current_range_meters":38000,"station_id":"ce4bgv92rcd13ifvqcq0","pricing_plan_id":"cebpf4jnsgd1na2vs0mg"},{"bike_id":"c18d421f-cb4f-4b97-9cf3-da6ee13cb00a","system_id":"levelo_inurba_marseille","lat":43.23149,"lon":5.43729,"is_reserved":false,"is_disabled":false,"rental_uris":{"android":"levelo://app?vid=c18d421f-cb4f-4b97-9cf3-da6ee13cb00a","ios":"levelo://app?vid=c18d421f-cb4f-4b97-9cf3-da6ee13cb00a"},"vehicle_type_id":"4","last_reported":1731596983,"current_range_meters":18800,"station_id":"ce4bhmp2rcd13ifvqgog","pricing_plan_id":"cebpf4jnsgd1na2vs0mg"},{"bike_id":"340269ab-6138-4e6f-93e1-6d3f9bddbe23","system_id":"levelo_inurba_marseille","lat":43.31068,"lon":5.3836,"is_reserved":false,"is_disabled":false,"rental_uris":{"android":"levelo://app?vid=340269ab-6138-4e6f-93e1-6d3f9bddbe23","ios":"levelo://app?vid=340269ab-6138-4e6f-93e1-6d3f9bddbe23"},"vehicle_type_id":"4","last_reported":1731596983,"current_range_meters":3200,"station_id":"ce4bgv92rcd13ifvqcr0","pricing_plan_id":"cebpf4jnsgd1na2vs0mg"},{"bike_id":"008477ca-ef6e-4913-9878-d5e71f7ac945","system_id":"levelo_inurba_marseille","lat":43.26935,"lon":5.40259,"is_reserved":false,"is_disabled":false,"rental_uris":{"android":"levelo://app?vid=008477ca-ef6e-4913-9878-d5e71f7ac945","ios":"levelo://app?vid=008477ca-ef6e-4913-9878-d5e71f7ac945"},"vehicle_type_id":"4","last_reported":1731596983,"current_range_meters":16400,"station_id":"cjm6bp8fraef2m0cb0m0","pricing_plan_id":"cebpf4jnsgd1na2vs0mg"},{"bike_id":"07ee4904-f535-458a-b0b5-2f7426ce7969","system_id":"levelo_inurba_marseille","lat":43.24079,"lon":5.37747,"is_reserved":false,"is_disabled":false,"rental_uris":{"android":"levelo://app?vid=07ee4904-f535-458a-b0b5-2f7426ce7969","ios":"levelo://app?vid=07ee4904-f535-458a-b0b5-2f7426ce7969"},"vehicle_type_id":"4","last_reported":1731596983,"current_range_meters":6800,"station_id":"ce4bhnp2rcd13ifvqgvg","pricing_plan_id":"cebpf4jnsgd1na2vs0mg"},{"bike_id":"427ff689-4b9a-422f-bdd4-68d7e8d7c342","system_id":"levelo_inurba_marseille","lat":43.31079,"lon":5.38355,"is_reserved":false,"is_disabled":false,"rental_uris":{"android":"levelo://app?vid=427ff689-4b9a-422f-bdd4-68d7e8d7c342","ios":"levelo://app?vid=427ff689-4b9a-422f-bdd4-68d7e8d7c342"},"vehicle_type_id":"4","last_reported":1731596983,"current_range_meters":34800,"station_id":"ce4bgv92rcd13ifvqcr0","pricing_plan_id":"cebpf4jnsgd1na2vs0mg"},{"bike_id":"cce41bad-42ae-4e8f-abca-4fef23f9a5d2","system_id":"levelo_inurba_marseille","lat":43.32104,"lon":5.36778,"is_reserved":false,"is_disabled":false,"rental_uris":{"android":"levelo://app?vid=cce41bad-42ae-4e8f-abca-4fef23f9a5d2","ios":"levelo://app?vid=cce41bad-42ae-4e8f-abca-4fef23f9a5d2"},"vehicle_type_id":"4","last_reported":1731596983,"current_range_meters":28000,"station_id":"ce4bhrh2rcd13ifvqhug","pricing_plan_id":"cebpf4jnsgd1na2vs0mg"},{"bike_id":"28db0c02-3ab6-4a46-8ec6-844d0aeb664a","system_id":"levelo_inurba_marseille","lat":43.28405,"lon":5.34988,"is_reserved":false,"is_disabled":false,"rental_uris":{"android":"levelo://app?vid=28db0c02-3ab6-4a46-8ec6-844d0aeb664a","ios":"levelo://app?vid=28db0c02-3ab6-4a46-8ec6-844d0aeb664a"},"vehicle_type_id":"4","last_reported":1731596983,"current_range_meters":29600,"station_id":"ce4bhbh2rcd13ifvqepg","pricing_plan_id":"cebpf4jnsgd1na2vs0mg"},{"bike_id":"92cf8a3e-24d5-4897-bc75-b9999f35f0f7","system_id":"levelo_inurba_marseille","lat":43.31702,"lon":5.37744,"is_reserved":false,"is_disabled":false,"rental_uris":{"android":"levelo://app?vid=92cf8a3e-24d5-4897-bc75-b9999f35f0f7","ios":"levelo://app?vid=92cf8a3e-24d5-4897-bc75-b9999f35f0f7"},"vehicle_type_id":"4","last_reported":1731596983,"current_range_meters":37600,"station_id":"ce4bgth2rcd13ifvqch0","pricing_plan_id":"cebpf4jnsgd1na2vs0mg"},{"bike_id":"00f17721-feec-4d32-b803-2a9b60d6ffb5","system_id":"levelo_inurba_marseille","lat":43.31111,"lon":5.37771,"is_reserved":false,"is_disabled":false,"rental_uris":{"android":"levelo://app?vid=00f17721-feec-4d32-b803-2a9b60d6ffb5","ios":"levelo://app?vid=00f17721-feec-4d32-b803-2a9b60d6ffb5"},"vehicle_type_id":"4","last_reported":1731596983,"current_range_meters":8800,"station_id":"ce4bgt92rcd13ifvqcg0","pricing_plan_id":"cebpf4jnsgd1na2vs0mg"},{"bike_id":"3ea0d423-d42f-42d6-8d44-2a091b76ef6a","system_id":"levelo_inurba_marseille","lat":43.27613,"lon":5.36122,"is_reserved":false,"is_disabled":false,"rental_uris":{"android":"levelo://app?vid=3ea0d423-d42f-42d6-8d44-2a091b76ef6a","ios":"levelo://app?vid=3ea0d423-d42f-42d6-8d44-2a091b76ef6a"},"vehicle_type_id":"4","last_reported":1731596983,"current_range_meters":22000,"station_id":"ce4bgj92rcd13ifvqbe0","pricing_plan_id":"cebpf4jnsgd1na2vs0mg"},{"bike_id":"d7ba2b57-73cb-48a5-a53b-aa07b10f58b1","system_id":"levelo_inurba_marseille","lat":43.256888,"lon":5.383402,"is_reserved":false,"is_disabled":false,"rental_uris":{"android":"levelo://app?vid=d7ba2b57-73cb-48a5-a53b-aa07b10f58b1","ios":"levelo://app?vid=d7ba2b57-73cb-48a5-a53b-aa07b10f58b1"},"vehicle_type_id":"4","last_reported":1731596983,"current_range_meters":34800,"station_id":"","pricing_plan_id":"cebpf4jnsgd1na2vs0mg"},{"bike_id":"b761fbf5-2bb8-4246-8985-7f4acd907d8e","system_id":"levelo_inurba_marseille","lat":43.29686,"lon":5.37288,"is_reserved":false,"is_disabled":false,"rental_uris":{"android":"levelo://app?vid=b761fbf5-2bb8-4246-8985-7f4acd907d8e","ios":"levelo://app?vid=b761fbf5-2bb8-4246-8985-7f4acd907d8e"},"vehicle_type_id":"4","last_reported":1731596983,"current_range_meters":38800,"station_id":"ce4bgk12rcd13ifvqbj0","pricing_plan_id":"cebpf4jnsgd1na2vs0mg"},{"bike_id":"6a6ea60f-2251-4c20-a3fd-b8dbfc3cb31a","system_id":"levelo_inurba_marseille","lat":43.33764,"lon":5.37473,"is_reserved":false,"is_disabled":false,"rental_uris":{"android":"levelo://app?vid=6a6ea60f-2251-4c20-a3fd-b8dbfc3cb31a","ios":"levelo://app?vid=6a6ea60f-2251-4c20-a3fd-b8dbfc3cb31a"},"vehicle_type_id":"4","last_reported":1731596983,"current_range_meters":34000,"station_id":"","pricing_plan_id":"cebpf4jnsgd1na2vs0mg"},{"bike_id":"70dbac14-4ff1-4ee8-9da1-31cf9c0d2e62","system_id":"levelo_inurba_marseille","lat":43.27182,"lon":5.409958,"is_reserved":false,"is_disabled":false,"rental_uris":{"android":"levelo://app?vid=70dbac14-4ff1-4ee8-9da1-31cf9c0d2e62","ios":"levelo://app?vid=70dbac14-4ff1-4ee8-9da1-31cf9c0d2e62"},"vehicle_type_id":"4","last_reported":1731596983,"current_range_meters":26000,"station_id":"ce4bhl12rcd13ifvqgf0","pricing_plan_id":"cebpf4jnsgd1na2vs0mg"},{"bike_id":"1311c692-6e9d-4afb-b7b0-20686564fe7a","system_id":"levelo_inurba_marseille","lat":43.337444,"lon":5.374475,"is_reserved":false,"is_disabled":false,"rental_uris":{"android":"levelo://app?vid=1311c692-6e9d-4afb-b7b0-20686564fe7a","ios":"levelo://app?vid=1311c692-6e9d-4afb-b7b0-20686564fe7a"},"vehicle_type_id":"4","last_reported":1731596983,"current_range_meters":32400,"station_id":"","pricing_plan_id":"cebpf4jnsgd1na2vs0mg"},{"bike_id":"8a9575bc-692c-40bb-9f85-cfb9d09c12cf","system_id":"levelo_inurba_marseille","lat":43.27201,"lon":5.39182,"is_reserved":false,"is_disabled":false,"rental_uris":{"android":"levelo://app?vid=8a9575bc-692c-40bb-9f85-cfb9d09c12cf","ios":"levelo://app?vid=8a9575bc-692c-40bb-9f85-cfb9d09c12cf"},"vehicle_type_id":"4","last_reported":1731596983,"current_range_meters":37600,"station_id":"ce4bhhp2rcd13ifvqfm0","pricing_plan_id":"cebpf4jnsgd1na2vs0mg"},{"bike_id":"07a4be1c-5cf0-4f3e-8c27-4c3e24078daa","system_id":"levelo_inurba_marseille","lat":43.24809,"lon":5.37461,"is_reserved":false,"is_disabled":false,"rental_uris":{"android":"levelo://app?vid=07a4be1c-5cf0-4f3e-8c27-4c3e24078daa","ios":"levelo://app?vid=07a4be1c-5cf0-4f3e-8c27-4c3e24078daa"},"vehicle_type_id":"4","last_reported":1731596983,"current_range_meters":38400,"station_id":"ce4bhgh2rcd13ifvqfb0","pricing_plan_id":"cebpf4jnsgd1na2vs0mg"},{"bike_id":"f5d1f9a8-dee4-4b92-8a8e-3b784768392f","system_id":"levelo_inurba_marseille","lat":43.31709,"lon":5.4371,"is_reserved":false,"is_disabled":false,"rental_uris":{"android":"levelo://app?vid=f5d1f9a8-dee4-4b92-8a8e-3b784768392f","ios":"levelo://app?vid=f5d1f9a8-dee4-4b92-8a8e-3b784768392f"},"vehicle_type_id":"4","last_reported":1731596983,"current_range_meters":19200,"station_id":"ce4bhp92rcd13ifvqhcg","pricing_plan_id":"cebpf4jnsgd1na2vs0mg"},{"bike_id":"50275074-9bf2-4da5-9609-e6ad008f930c","system_id":"levelo_inurba_marseille","lat":43.30889,"lon":5.39654,"is_reserved":false,"is_disabled":false,"rental_uris":{"android":"levelo://app?vid=50275074-9bf2-4da5-9609-e6ad008f930c","ios":"levelo://app?vid=50275074-9bf2-4da5-9609-e6ad008f930c"},"vehicle_type_id":"4","last_reported":1731596983,"current_range_meters":22000,"station_id":"ce4bh012rcd13ifvqcv0","pricing_plan_id":"cebpf4jnsgd1na2vs0mg"},{"bike_id":"805aef12-8df9-4428-9e6a-7c9b8dcc8c7b","system_id":"levelo_inurba_marseille","lat":43.25085,"lon":5.39524,"is_reserved":false,"is_disabled":false,"rental_uris":{"android":"levelo://app?vid=805aef12-8df9-4428-9e6a-7c9b8dcc8c7b","ios":"levelo://app?vid=805aef12-8df9-4428-9e6a-7c9b8dcc8c7b"},"vehicle_type_id":"4","last_reported":1731596983,"current_range_meters":24400,"station_id":"ce4bhm12rcd13ifvqgkg","pricing_plan_id":"cebpf4jnsgd1na2vs0mg"},{"bike_id":"558c5932-3dd5-42c9-83c3-af7bdc1698cf","system_id":"levelo_inurba_marseille","lat":43.26947,"lon":5.38644,"is_reserved":false,"is_disabled":false,"rental_uris":{"android":"levelo://app?vid=558c5932-3dd5-42c9-83c3-af7bdc1698cf","ios":"levelo://app?vid=558c5932-3dd5-42c9-83c3-af7bdc1698cf"},"vehicle_type_id":"4","last_reported":1731596983,"current_range_meters":38000,"station_id":"ce4bhh92rcd13ifvqfh0","pricing_plan_id":"cebpf4jnsgd1na2vs0mg"},{"bike_id":"b2ab9daf-6bcf-4260-a669-d3965a290486","system_id":"levelo_inurba_marseille","lat":43.30914,"lon":5.36853,"is_reserved":false,"is_disabled":false,"rental_uris":{"android":"levelo://app?vid=b2ab9daf-6bcf-4260-a669-d3965a290486","ios":"levelo://app?vid=b2ab9daf-6bcf-4260-a669-d3965a290486"},"vehicle_type_id":"4","last_reported":1731596983,"current_range_meters":37600,"station_id":"ce4bgn92rcd13ifvqbvg","pricing_plan_id":"cebpf4jnsgd1na2vs0mg"},{"bike_id":"d82bfb8b-5cdd-4419-911b-c1b73e452dbd","system_id":"levelo_inurba_marseille","lat":43.30317,"lon":5.40436,"is_reserved":false,"is_disabled":false,"rental_uris":{"android":"levelo://app?vid=d82bfb8b-5cdd-4419-911b-c1b73e452dbd","ios":"levelo://app?vid=d82bfb8b-5cdd-4419-911b-c1b73e452dbd"},"vehicle_type_id":"4","last_reported":1731596983,"current_range_meters":34800,"station_id":"ce4bh012rcd13ifvqd10","pricing_plan_id":"cebpf4jnsgd1na2vs0mg"},{"bike_id":"81b74b7f-16da-440f-be78-fc8cf25dc9fc","system_id":"levelo_inurba_marseille","lat":43.282715,"lon":5.350615,"is_reserved":false,"is_disabled":false,"rental_uris":{"android":"levelo://app?vid=81b74b7f-16da-440f-be78-fc8cf25dc9fc","ios":"levelo://app?vid=81b74b7f-16da-440f-be78-fc8cf25dc9fc"},"vehicle_type_id":"4","last_reported":1731596983,"current_range_meters":38400,"station_id":"ce4bhbp2rcd13ifvqerg","pricing_plan_id":"cebpf4jnsgd1na2vs0mg"},{"bike_id":"a6b8c285-acc9-4039-9531-1aae39136a33","system_id":"levelo_inurba_marseille","lat":43.312042,"lon":5.367348,"is_reserved":false,"is_disabled":false,"rental_uris":{"android":"levelo://app?vid=a6b8c285-acc9-4039-9531-1aae39136a33","ios":"levelo://app?vid=a6b8c285-acc9-4039-9531-1aae39136a33"},"vehicle_type_id":"4","last_reported":1731596983,"current_range_meters":23200,"station_id":"","pricing_plan_id":"cebpf4jnsgd1na2vs0mg"},{"bike_id":"00ff7ce3-532e-4bb7-b69f-8eb3d1d23b37","system_id":"levelo_inurba_marseille","lat":43.25085,"lon":5.39526,"is_reserved":false,"is_disabled":false,"rental_uris":{"android":"levelo://app?vid=00ff7ce3-532e-4bb7-b69f-8eb3d1d23b37","ios":"levelo://app?vid=00ff7ce3-532e-4bb7-b69f-8eb3d1d23b37"},"vehicle_type_id":"4","last_reported":1731596983,"current_range_meters":23200,"station_id":"ce4bhm12rcd13ifvqgkg","pricing_plan_id":"cebpf4jnsgd1na2vs0mg"},{"bike_id":"08e6e568-0b5f-458c-b937-9b19fc3b60c2","system_id":"levelo_inurba_marseille","lat":43.30195,"lon":5.36624,"is_reserved":false,"is_disabled":false,"rental_uris":{"android":"levelo://app?vid=08e6e568-0b5f-458c-b937-9b19fc3b60c2","ios":"levelo://app?vid=08e6e568-0b5f-458c-b937-9b19fc3b60c2"},"vehicle_type_id":"4","last_reported":1731596983,"current_range_meters":36800,"station_id":"ce4bgrh2rcd13ifvqc8g","pricing_plan_id":"cebpf4jnsgd1na2vs0mg"},{"bike_id":"bba76986-27db-4a0b-aac9-b12dd5c4e056","system_id":"levelo_inurba_marseille","lat":43.30278,"lon":5.37718,"is_reserved":false,"is_disabled":false,"rental_uris":{"android":"levelo://app?vid=bba76986-27db-4a0b-aac9-b12dd5c4e056","ios":"levelo://app?vid=bba76986-27db-4a0b-aac9-b12dd5c4e056"},"vehicle_type_id":"4","last_reported":1731596983,"current_range_meters":38800,"station_id":"ce4bguh2rcd13ifvqcj0","pricing_plan_id":"cebpf4jnsgd1na2vs0mg"},{"bike_id":"ad71cfc7-dc81-4b89-812b-40fd12046558","system_id":"levelo_inurba_marseille","lat":43.28921,"lon":5.38401,"is_reserved":false,"is_disabled":false,"rental_uris":{"android":"levelo://app?vid=ad71cfc7-dc81-4b89-812b-40fd12046558","ios":"levelo://app?vid=ad71cfc7-dc81-4b89-812b-40fd12046558"},"vehicle_type_id":"4","last_reported":1731596983,"current_range_meters":8400,"station_id":"ce4bh612rcd13ifvqe6g","pricing_plan_id":"cebpf4jnsgd1na2vs0mg"},{"bike_id":"30579d2d-afec-421e-bd07-fe577ab81dba","system_id":"levelo_inurba_marseille","lat":43.337444,"lon":5.374475,"is_reserved":false,"is_disabled":false,"rental_uris":{"android":"levelo://app?vid=30579d2d-afec-421e-bd07-fe577ab81dba","ios":"levelo://app?vid=30579d2d-afec-421e-bd07-fe577ab81dba"},"vehicle_type_id":"4","last_reported":1731596983,"current_range_meters":34800,"station_id":"","pricing_plan_id":"cebpf4jnsgd1na2vs0mg"},{"bike_id":"a487934c-ec91-478c-9718-f510adb67add","system_id":"levelo_inurba_marseille","lat":43.28924,"lon":5.38406,"is_reserved":false,"is_disabled":false,"rental_uris":{"android":"levelo://app?vid=a487934c-ec91-478c-9718-f510adb67add","ios":"levelo://app?vid=a487934c-ec91-478c-9718-f510adb67add"},"vehicle_type_id":"4","last_reported":1731596983,"current_range_meters":2800,"station_id":"ce4bh612rcd13ifvqe6g","pricing_plan_id":"cebpf4jnsgd1na2vs0mg"},{"bike_id":"04f6571f-7beb-4537-b557-fe582d081646","system_id":"levelo_inurba_marseille","lat":43.24996,"lon":5.38931,"is_reserved":false,"is_disabled":false,"rental_uris":{"android":"levelo://app?vid=04f6571f-7beb-4537-b557-fe582d081646","ios":"levelo://app?vid=04f6571f-7beb-4537-b557-fe582d081646"},"vehicle_type_id":"4","last_reported":1731596983,"current_range_meters":24400,"station_id":"ce4bhgp2rcd13ifvqfd0","pricing_plan_id":"cebpf4jnsgd1na2vs0mg"},{"bike_id":"b0c21b57-705e-44bb-8b51-74975fc55d1b","system_id":"levelo_inurba_marseille","lat":43.28458,"lon":5.3589,"is_reserved":false,"is_disabled":false,"rental_uris":{"android":"levelo://app?vid=b0c21b57-705e-44bb-8b51-74975fc55d1b","ios":"levelo://app?vid=b0c21b57-705e-44bb-8b51-74975fc55d1b"},"vehicle_type_id":"4","last_reported":1731596983,"current_range_meters":27600,"station_id":"ce4bhah2rcd13ifvqei0","pricing_plan_id":"cebpf4jnsgd1na2vs0mg"},{"bike_id":"0adbe115-1e2e-4f19-aaa6-64977261b7d0","system_id":"levelo_inurba_marseille","lat":43.3374,"lon":5.37485,"is_reserved":false,"is_disabled":false,"rental_uris":{"android":"levelo://app?vid=0adbe115-1e2e-4f19-aaa6-64977261b7d0","ios":"levelo://app?vid=0adbe115-1e2e-4f19-aaa6-64977261b7d0"},"vehicle_type_id":"4","last_reported":1731596983,"current_range_meters":33200,"station_id":"","pricing_plan_id":"cebpf4jnsgd1na2vs0mg"},{"bike_id":"d90b63c1-fb2f-4dc4-b0c5-6e6cf9107d93","system_id":"levelo_inurba_marseille","lat":43.30647,"lon":5.40085,"is_reserved":false,"is_disabled":false,"rental_uris":{"android":"levelo://app?vid=d90b63c1-fb2f-4dc4-b0c5-6e6cf9107d93","ios":"levelo://app?vid=d90b63c1-fb2f-4dc4-b0c5-6e6cf9107d93"},"vehicle_type_id":"4","last_reported":1731596983,"current_range_meters":37600,"station_id":"ce4bh112rcd13ifvqda0","pricing_plan_id":"cebpf4jnsgd1na2vs0mg"},{"bike_id":"92ac4858-87d6-4ceb-8f6e-004635a816a8","system_id":"levelo_inurba_marseille","lat":43.27789,"lon":5.40737,"is_reserved":false,"is_disabled":false,"rental_uris":{"android":"levelo://app?vid=92ac4858-87d6-4ceb-8f6e-004635a816a8","ios":"levelo://app?vid=92ac4858-87d6-4ceb-8f6e-004635a816a8"},"vehicle_type_id":"4","last_reported":1731596983,"current_range_meters":38800,"station_id":"ce4bhnh2rcd13ifvqgtg","pricing_plan_id":"cebpf4jnsgd1na2vs0mg"},{"bike_id":"7c76a875-124b-4ce1-820e-22e76d43affb","system_id":"levelo_inurba_marseille","lat":43.28419,"lon":5.34982,"is_reserved":false,"is_disabled":false,"rental_uris":{"android":"levelo://app?vid=7c76a875-124b-4ce1-820e-22e76d43affb","ios":"levelo://app?vid=7c76a875-124b-4ce1-820e-22e76d43affb"},"vehicle_type_id":"4","last_reported":1731596983,"current_range_meters":30400,"station_id":"ce4bhbh2rcd13ifvqepg","pricing_plan_id":"cebpf4jnsgd1na2vs0mg"},{"bike_id":"96580690-3f2b-42f2-a59f-c350b41c5f75","system_id":"levelo_inurba_marseille","lat":43.26196,"lon":5.37936,"is_reserved":false,"is_disabled":false,"rental_uris":{"android":"levelo://app?vid=96580690-3f2b-42f2-a59f-c350b41c5f75","ios":"levelo://app?vid=96580690-3f2b-42f2-a59f-c350b41c5f75"},"vehicle_type_id":"4","last_reported":1731596983,"current_range_meters":25200,"station_id":"ce4bhjp2rcd13ifvqg90","pricing_plan_id":"cebpf4jnsgd1na2vs0mg"},{"bike_id":"1bda1f07-b7d4-4dea-acbc-bba7a290c9cc","system_id":"levelo_inurba_marseille","lat":43.2985,"lon":5.36281,"is_reserved":false,"is_disabled":false,"rental_uris":{"android":"levelo://app?vid=1bda1f07-b7d4-4dea-acbc-bba7a290c9cc","ios":"levelo://app?vid=1bda1f07-b7d4-4dea-acbc-bba7a290c9cc"},"vehicle_type_id":"4","last_reported":1731596983,"current_range_meters":33600,"station_id":"ce4bgpp2rcd13ifvqc3g","pricing_plan_id":"cebpf4jnsgd1na2vs0mg"},{"bike_id":"1899402c-7b61-49f1-948e-ad0b2eb232d5","system_id":"levelo_inurba_marseille","lat":43.28851,"lon":5.3585,"is_reserved":false,"is_disabled":false,"rental_uris":{"android":"levelo://app?vid=1899402c-7b61-49f1-948e-ad0b2eb232d5","ios":"levelo://app?vid=1899402c-7b61-49f1-948e-ad0b2eb232d5"},"vehicle_type_id":"4","last_reported":1731596983,"current_range_meters":6400,"station_id":"ce4bhb12rcd13ifvqem0","pricing_plan_id":"cebpf4jnsgd1na2vs0mg"},{"bike_id":"9bcfd93a-6161-4fca-ac69-4c7ed3a1542e","system_id":"levelo_inurba_marseille","lat":43.31325,"lon":5.39699,"is_reserved":false,"is_disabled":false,"rental_uris":{"android":"levelo://app?vid=9bcfd93a-6161-4fca-ac69-4c7ed3a1542e","ios":"levelo://app?vid=9bcfd93a-6161-4fca-ac69-4c7ed3a1542e"},"vehicle_type_id":"4","last_reported":1731596983,"current_range_meters":36400,"station_id":"ce4bgvp2rcd13ifvqcu0","pricing_plan_id":"cebpf4jnsgd1na2vs0mg"},{"bike_id":"32163a7c-87fe-4787-9fae-0fde4291b040","system_id":"levelo_inurba_marseille","lat":43.30932,"lon":5.40145,"is_reserved":false,"is_disabled":false,"rental_uris":{"android":"levelo://app?vid=32163a7c-87fe-4787-9fae-0fde4291b040","ios":"levelo://app?vid=32163a7c-87fe-4787-9fae-0fde4291b040"},"vehicle_type_id":"4","last_reported":1731596983,"current_range_meters":38800,"station_id":"ce4bgvp2rcd13ifvqct0","pricing_plan_id":"cebpf4jnsgd1na2vs0mg"},{"bike_id":"fbcf3c4a-d774-4942-b41d-8640c39035f5","system_id":"levelo_inurba_marseille","lat":43.26196,"lon":5.37923,"is_reserved":false,"is_disabled":false,"rental_uris":{"android":"levelo://app?vid=fbcf3c4a-d774-4942-b41d-8640c39035f5","ios":"levelo://app?vid=fbcf3c4a-d774-4942-b41d-8640c39035f5"},"vehicle_type_id":"4","last_reported":1731596983,"current_range_meters":38800,"station_id":"ce4bhjp2rcd13ifvqg90","pricing_plan_id":"cebpf4jnsgd1na2vs0mg"},{"bike_id":"0f433459-e074-4293-bfa5-3b5b113abeb1","system_id":"levelo_inurba_marseille","lat":43.33718,"lon":5.39188,"is_reserved":false,"is_disabled":false,"rental_uris":{"android":"levelo://app?vid=0f433459-e074-4293-bfa5-3b5b113abeb1","ios":"levelo://app?vid=0f433459-e074-4293-bfa5-3b5b113abeb1"},"vehicle_type_id":"4","last_reported":1731596983,"current_range_meters":38800,"station_id":"ce4bhr92rcd13ifvqhsg","pricing_plan_id":"cebpf4jnsgd1na2vs0mg"},{"bike_id":"b6bca026-1efe-4754-928d-9042ba992b22","system_id":"levelo_inurba_marseille","lat":43.28409,"lon":5.34984,"is_reserved":false,"is_disabled":false,"rental_uris":{"android":"levelo://app?vid=b6bca026-1efe-4754-928d-9042ba992b22","ios":"levelo://app?vid=b6bca026-1efe-4754-928d-9042ba992b22"},"vehicle_type_id":"4","last_reported":1731596983,"current_range_meters":36400,"station_id":"ce4bhbh2rcd13ifvqepg","pricing_plan_id":"cebpf4jnsgd1na2vs0mg"},{"bike_id":"180bdc79-78d6-408c-aa9a-d447ae0cabc0","system_id":"levelo_inurba_marseille","lat":43.25577,"lon":5.38233,"is_reserved":false,"is_disabled":false,"rental_uris":{"android":"levelo://app?vid=180bdc79-78d6-408c-aa9a-d447ae0cabc0","ios":"levelo://app?vid=180bdc79-78d6-408c-aa9a-d447ae0cabc0"},"vehicle_type_id":"4","last_reported":1731596983,"current_range_meters":19200,"station_id":"ce4bhih2rcd13ifvqfs0","pricing_plan_id":"cebpf4jnsgd1na2vs0mg"},{"bike_id":"dbd750a9-0c24-495b-8b51-27338322d10f","system_id":"levelo_inurba_marseille","lat":43.30265,"lon":5.37741,"is_reserved":false,"is_disabled":false,"rental_uris":{"android":"levelo://app?vid=dbd750a9-0c24-495b-8b51-27338322d10f","ios":"levelo://app?vid=dbd750a9-0c24-495b-8b51-27338322d10f"},"vehicle_type_id":"4","last_reported":1731596983,"current_range_meters":38400,"station_id":"ce4bguh2rcd13ifvqcj0","pricing_plan_id":"cebpf4jnsgd1na2vs0mg"},{"bike_id":"ed5c2c20-724b-499a-9e0c-9babe0ad9c1d","system_id":"levelo_inurba_marseille","lat":43.31993,"lon":5.38173,"is_reserved":false,"is_disabled":false,"rental_uris":{"android":"levelo://app?vid=ed5c2c20-724b-499a-9e0c-9babe0ad9c1d","ios":"levelo://app?vid=ed5c2c20-724b-499a-9e0c-9babe0ad9c1d"},"vehicle_type_id":"4","last_reported":1731596983,"current_range_meters":32000,"station_id":"ce4bhr12rcd13ifvqhpg","pricing_plan_id":"cebpf4jnsgd1na2vs0mg"},{"bike_id":"13a39013-8643-47b8-9f5c-b49d5521ae5c","system_id":"levelo_inurba_marseille","lat":43.29792,"lon":5.40395,"is_reserved":false,"is_disabled":false,"rental_uris":{"android":"levelo://app?vid=13a39013-8643-47b8-9f5c-b49d5521ae5c","ios":"levelo://app?vid=13a39013-8643-47b8-9f5c-b49d5521ae5c"},"vehicle_type_id":"4","last_reported":1731596983,"current_range_meters":38000,"station_id":"ce4bh112rcd13ifvqd90","pricing_plan_id":"cebpf4jnsgd1na2vs0mg"},{"bike_id":"b7fb8d75-d625-4c08-9dbb-f681a5ef902e","system_id":"levelo_inurba_marseille","lat":43.29902,"lon":5.37482,"is_reserved":false,"is_disabled":false,"rental_uris":{"android":"levelo://app?vid=b7fb8d75-d625-4c08-9dbb-f681a5ef902e","ios":"levelo://app?vid=b7fb8d75-d625-4c08-9dbb-f681a5ef902e"},"vehicle_type_id":"4","last_reported":1731596983,"current_range_meters":20400,"station_id":"ce4bgjh2rcd13ifvqbg0","pricing_plan_id":"cebpf4jnsgd1na2vs0mg"},{"bike_id":"2260b08b-e51a-4f71-aab9-a20c91cd8504","system_id":"levelo_inurba_marseille","lat":43.27378,"lon":5.36262,"is_reserved":false,"is_disabled":false,"rental_uris":{"android":"levelo://app?vid=2260b08b-e51a-4f71-aab9-a20c91cd8504","ios":"levelo://app?vid=2260b08b-e51a-4f71-aab9-a20c91cd8504"},"vehicle_type_id":"4","last_reported":1731596983,"current_range_meters":38800,"station_id":"ce4bhbh2rcd13ifvqeo0","pricing_plan_id":"cebpf4jnsgd1na2vs0mg"},{"bike_id":"b448c76e-6a85-4e4e-8af8-7d9249501502","system_id":"levelo_inurba_marseille","lat":43.337444,"lon":5.374475,"is_reserved":false,"is_disabled":false,"rental_uris":{"android":"levelo://app?vid=b448c76e-6a85-4e4e-8af8-7d9249501502","ios":"levelo://app?vid=b448c76e-6a85-4e4e-8af8-7d9249501502"},"vehicle_type_id":"4","last_reported":1731596983,"current_range_meters":32400,"station_id":"","pricing_plan_id":"cebpf4jnsgd1na2vs0mg"},{"bike_id":"27180a1a-1e8e-44cf-be67-76727484dd68","system_id":"levelo_inurba_marseille","lat":43.32354,"lon":5.38887,"is_reserved":false,"is_disabled":false,"rental_uris":{"android":"levelo://app?vid=27180a1a-1e8e-44cf-be67-76727484dd68","ios":"levelo://app?vid=27180a1a-1e8e-44cf-be67-76727484dd68"},"vehicle_type_id":"4","last_reported":1731596983,"current_range_meters":38800,"station_id":"ce4bhqp2rcd13ifvqhog","pricing_plan_id":"cebpf4jnsgd1na2vs0mg"},{"bike_id":"28673255-5bbb-42d9-8b9c-3bf4a4ff7630","system_id":"levelo_inurba_marseille","lat":43.23154,"lon":5.4372,"is_reserved":false,"is_disabled":false,"rental_uris":{"android":"levelo://app?vid=28673255-5bbb-42d9-8b9c-3bf4a4ff7630","ios":"levelo://app?vid=28673255-5bbb-42d9-8b9c-3bf4a4ff7630"},"vehicle_type_id":"4","last_reported":1731596983,"current_range_meters":24800,"station_id":"ce4bhmp2rcd13ifvqgog","pricing_plan_id":"cebpf4jnsgd1na2vs0mg"},{"bike_id":"cd27f829-5b11-4b99-aa70-0212cc0b8f56","system_id":"levelo_inurba_marseille","lat":43.28455,"lon":5.35893,"is_reserved":false,"is_disabled":false,"rental_uris":{"android":"levelo://app?vid=cd27f829-5b11-4b99-aa70-0212cc0b8f56","ios":"levelo://app?vid=cd27f829-5b11-4b99-aa70-0212cc0b8f56"},"vehicle_type_id":"4","last_reported":1731596983,"current_range_meters":18800,"station_id":"ce4bhah2rcd13ifvqei0","pricing_plan_id":"cebpf4jnsgd1na2vs0mg"},{"bike_id":"016665cb-ff8f-4bb7-bf3a-4a522a72ea3b","system_id":"levelo_inurba_marseille","lat":43.312627,"lon":5.401787,"is_reserved":false,"is_disabled":false,"rental_uris":{"android":"levelo://app?vid=016665cb-ff8f-4bb7-bf3a-4a522a72ea3b","ios":"levelo://app?vid=016665cb-ff8f-4bb7-bf3a-4a522a72ea3b"},"vehicle_type_id":"4","last_reported":1731596983,"current_range_meters":30800,"station_id":"ce4bh092rcd13ifvqd30","pricing_plan_id":"cebpf4jnsgd1na2vs0mg"},{"bike_id":"414dea06-0073-498d-8e43-6a1238984f59","system_id":"levelo_inurba_marseille","lat":43.337444,"lon":5.374475,"is_reserved":false,"is_disabled":false,"rental_uris":{"android":"levelo://app?vid=414dea06-0073-498d-8e43-6a1238984f59","ios":"levelo://app?vid=414dea06-0073-498d-8e43-6a1238984f59"},"vehicle_type_id":"4","last_reported":1731596983,"current_range_meters":34800,"station_id":"","pricing_plan_id":"cebpf4jnsgd1na2vs0mg"},{"bike_id":"784c32a1-e293-4f83-9cdd-3531ee0a0bfe","system_id":"levelo_inurba_marseille","lat":43.29849,"lon":5.36279,"is_reserved":false,"is_disabled":false,"rental_uris":{"android":"levelo://app?vid=784c32a1-e293-4f83-9cdd-3531ee0a0bfe","ios":"levelo://app?vid=784c32a1-e293-4f83-9cdd-3531ee0a0bfe"},"vehicle_type_id":"4","last_reported":1731596983,"current_range_meters":38800,"station_id":"ce4bgpp2rcd13ifvqc3g","pricing_plan_id":"cebpf4jnsgd1na2vs0mg"},{"bike_id":"722bb67e-8443-449f-b8b3-b1694341aeba","system_id":"levelo_inurba_marseille","lat":43.3091,"lon":5.3686,"is_reserved":false,"is_disabled":false,"rental_uris":{"android":"levelo://app?vid=722bb67e-8443-449f-b8b3-b1694341aeba","ios":"levelo://app?vid=722bb67e-8443-449f-b8b3-b1694341aeba"},"vehicle_type_id":"4","last_reported":1731596983,"current_range_meters":19200,"station_id":"ce4bgn92rcd13ifvqbvg","pricing_plan_id":"cebpf4jnsgd1na2vs0mg"},{"bike_id":"8f73b388-b7a9-4ec4-8d9b-e013e784e5e3","system_id":"levelo_inurba_marseille","lat":43.29615,"lon":5.37737,"is_reserved":false,"is_disabled":false,"rental_uris":{"android":"levelo://app?vid=8f73b388-b7a9-4ec4-8d9b-e013e784e5e3","ios":"levelo://app?vid=8f73b388-b7a9-4ec4-8d9b-e013e784e5e3"},"vehicle_type_id":"4","last_reported":1731596983,"current_range_meters":32800,"station_id":"ce4bgi92rcd13ifvqb90","pricing_plan_id":"cebpf4jnsgd1na2vs0mg"},{"bike_id":"b613702c-21b0-4c7d-8000-0fe3d104d85f","system_id":"levelo_inurba_marseille","lat":43.337444,"lon":5.374475,"is_reserved":false,"is_disabled":false,"rental_uris":{"android":"levelo://app?vid=b613702c-21b0-4c7d-8000-0fe3d104d85f","ios":"levelo://app?vid=b613702c-21b0-4c7d-8000-0fe3d104d85f"},"vehicle_type_id":"4","last_reported":1731596983,"current_range_meters":36000,"station_id":"","pricing_plan_id":"cebpf4jnsgd1na2vs0mg"},{"bike_id":"71675479-65a3-432e-900f-c13f815182ff","system_id":"levelo_inurba_marseille","lat":43.29657,"lon":5.40621,"is_reserved":false,"is_disabled":false,"rental_uris":{"android":"levelo://app?vid=71675479-65a3-432e-900f-c13f815182ff","ios":"levelo://app?vid=71675479-65a3-432e-900f-c13f815182ff"},"vehicle_type_id":"4","last_reported":1731596983,"current_range_meters":16800,"station_id":"ce4bh0h2rcd13ifvqd60","pricing_plan_id":"cebpf4jnsgd1na2vs0mg"},{"bike_id":"26d602d3-01c4-4818-b009-e91a22c502e9","system_id":"levelo_inurba_marseille","lat":43.24386,"lon":5.37054,"is_reserved":false,"is_disabled":false,"rental_uris":{"android":"levelo://app?vid=26d602d3-01c4-4818-b009-e91a22c502e9","ios":"levelo://app?vid=26d602d3-01c4-4818-b009-e91a22c502e9"},"vehicle_type_id":"4","last_reported":1731596983,"current_range_meters":38400,"station_id":"ce4bhhh2rcd13ifvqfk0","pricing_plan_id":"cebpf4jnsgd1na2vs0mg"},{"bike_id":"f6175456-182e-4e80-8eda-f24bb54333c4","system_id":"levelo_inurba_marseille","lat":43.26025,"lon":5.3755,"is_reserved":false,"is_disabled":false,"rental_uris":{"android":"levelo://app?vid=f6175456-182e-4e80-8eda-f24bb54333c4","ios":"levelo://app?vid=f6175456-182e-4e80-8eda-f24bb54333c4"},"vehicle_type_id":"4","last_reported":1731596983,"current_range_meters":38000,"station_id":"ce4bhgh2rcd13ifvqfa0","pricing_plan_id":"cebpf4jnsgd1na2vs0mg"},{"bike_id":"a8a111dc-0ab9-4513-bcea-a7a847bde5ed","system_id":"levelo_inurba_marseille","lat":43.32038,"lon":5.41572,"is_reserved":false,"is_disabled":false,"rental_uris":{"android":"levelo://app?vid=a8a111dc-0ab9-4513-bcea-a7a847bde5ed","ios":"levelo://app?vid=a8a111dc-0ab9-4513-bcea-a7a847bde5ed"},"vehicle_type_id":"4","last_reported":1731596983,"current_range_meters":38800,"station_id":"ce4bhq92rcd13ifvqhkg","pricing_plan_id":"cebpf4jnsgd1na2vs0mg"},{"bike_id":"d016a293-647b-4a56-9e6a-a54a6a310cdd","system_id":"levelo_inurba_marseille","lat":43.337444,"lon":5.374475,"is_reserved":false,"is_disabled":false,"rental_uris":{"android":"levelo://app?vid=d016a293-647b-4a56-9e6a-a54a6a310cdd","ios":"levelo://app?vid=d016a293-647b-4a56-9e6a-a54a6a310cdd"},"vehicle_type_id":"4","last_reported":1731596983,"current_range_meters":36800,"station_id":"","pricing_plan_id":"cebpf4jnsgd1na2vs0mg"},{"bike_id":"bf8877aa-4e3b-4217-ae53-5d8001def350","system_id":"levelo_inurba_marseille","lat":43.3248,"lon":5.36566,"is_reserved":false,"is_disabled":false,"rental_uris":{"android":"levelo://app?vid=bf8877aa-4e3b-4217-ae53-5d8001def350","ios":"levelo://app?vid=bf8877aa-4e3b-4217-ae53-5d8001def350"},"vehicle_type_id":"4","last_reported":1731596983,"current_range_meters":20400,"station_id":"ce4bhs12rcd13ifvqhvg","pricing_plan_id":"cebpf4jnsgd1na2vs0mg"},{"bike_id":"51dfc62a-c40c-4a49-aacb-cdbfb4131a6b","system_id":"levelo_inurba_marseille","lat":43.29649,"lon":5.37648,"is_reserved":false,"is_disabled":false,"rental_uris":{"android":"levelo://app?vid=51dfc62a-c40c-4a49-aacb-cdbfb4131a6b","ios":"levelo://app?vid=51dfc62a-c40c-4a49-aacb-cdbfb4131a6b"},"vehicle_type_id":"4","last_reported":1731596983,"current_range_meters":20800,"station_id":"","pricing_plan_id":"cebpf4jnsgd1na2vs0mg"},{"bike_id":"c11f295f-9556-4e7a-8467-2315a4370abc","system_id":"levelo_inurba_marseille","lat":43.27494,"lon":5.42462,"is_reserved":false,"is_disabled":false,"rental_uris":{"android":"levelo://app?vid=c11f295f-9556-4e7a-8467-2315a4370abc","ios":"levelo://app?vid=c11f295f-9556-4e7a-8467-2315a4370abc"},"vehicle_type_id":"4","last_reported":1731596983,"current_range_meters":27200,"station_id":"ce4bhn92rcd13ifvqgrg","pricing_plan_id":"cebpf4jnsgd1na2vs0mg"},