{"last_updated":1737828664,"ttl":60,"version":"2.2","data":{"bikes":[{"bike_id":"03c64e80-5e01-4332-bc90-93a2fb6ac145","system_id":"levelo_inurba_marseille","lat":43.22937,"lon":5.35352,"is_reserved":false,"is_disabled":false,"rental_uris":{"android":"levelo://app?vid=03c64e80-5e01-4332-bc90-93a2fb6ac145","ios":"levelo://app?vid=03c64e80-5e01-4332-bc90-93a2fb6ac145"},"vehicle_type_id":"4","last_reported":1737828664,"current_range_meters":38800,"station_id":"cpo3532slgdg3j2ikp40","pricing_plan_id":"cebpf4jnsgd1na2vs0mg"},{"bike_id":"d2761b5d-d954-42ab-98b1-5cfb383757cf","system_id":"levelo_inurba_marseille","lat":43.32049,"lon":5.41584,"is_reserved":false,"is_disabled":false,"rental_uris":{"android":"levelo://app?vid=d2761b5d-d954-42ab-98b1-5cfb383757cf","ios":"levelo://app?vid=d2761b5d-d954-42ab-98b1-5cfb383757cf"},"vehicle_type_id":"4","last_reported":1737828664,"current_range_meters":38400,"station_id":"ce4bhq92rcd13ifvqhkg","pricing_plan_id":"cebpf4jnsgd1na2vs0mg"},{"bike_id":"7cb17210-e6bd-4f16-9d5a-6665c44a1097","system_id":"levelo_inurba_marseille","lat":43.26059,"lon":5.39395,"is_reserved":false,"is_disabled":false,"rental_uris":{"android":"levelo://app?vid=7cb17210-e6bd-4f16-9d5a-6665c44a1097","ios":"levelo://app?vid=7cb17210-e6bd-4f16-9d5a-6665c44a1097"},"vehicle_type_id":"4","last_reported":1737828664,"current_range_meters":8000,"station_id":"ce4bhh92rcd13ifvqfj0","pricing_plan_id":"cebpf4jnsgd1na2vs0mg"},{"bike_id":"22fdda07-29f7-4097-aa7c-457566d3caba","system_id":"levelo_inurba_marseille","lat":43.25083,"lon":5.39541,"is_reserved":false,"is_disabled":false,"rental_uris":{"android":"levelo://app?vid=22fdda07-29f7-4097-aa7c-457566d3caba","ios":"levelo://app?vid=22fdda07-29f7-4097-aa7c-457566d3caba"},"vehicle_type_id":"4","last_reported":1737828664,"current_range_meters":28800,"station_id":"ce4bhm12rcd13ifvqgkg","pricing_plan_id":"cebpf4jnsgd1na2vs0mg"},{"bike_id":"862e31d7-0a02-4827-8575-c388a773a9a9","system_id":"levelo_inurba_marseille","lat":43.267705,"lon":5.39431,"is_reserved":false,"is_disabled":false,"rental_uris":{"android":"levelo://app?vid=862e31d7-0a02-4827-8575-c388a773a9a9","ios":"levelo://app?vid=862e31d7-0a02-4827-8575-c388a773a9a9"},"vehicle_type_id":"4","last_reported":1737828664,"current_range_meters":38800,"station_id":"ce4bhh12rcd13ifvqfg0","pricing_plan_id":"cebpf4jnsgd1na2vs0mg"},{"bike_id":"b51011c3-0c5f-4102-93f1-146f0c7825fe","system_id":"levelo_inurba_marseille","lat":43.26943,"lon":5.40253,"is_reserved":false,"is_disabled":false,"rental_uris":{"android":"levelo://app?vid=b51011c3-0c5f-4102-93f1-146f0c7825fe","ios":"levelo://app?vid=b51011c3-0c5f-4102-93f1-146f0c7825fe"},"vehicle_type_id":"4","last_reported":1737828664,"current_range_meters":32000,"station_id":"cjm6bp8fraef2m0cb0m0","pricing_plan_id":"cebpf4jnsgd1na2vs0mg"},{"bike_id":"9cedd3d7-2917-488f-a495-9de286e43dd6","system_id":"levelo_inurba_marseille","lat":43.29973,"lon":5.3849,"is_reserved":false,"is_disabled":false,"rental_uris":{"android":"levelo://app?vid=9cedd3d7-2917-488f-a495-9de286e43dd6","ios":"levelo://app?vid=9cedd3d7-2917-488f-a495-9de286e43dd6"},"vehicle_type_id":"4","last_reported":1737828664,"current_range_meters":8800,"station_id":"ce4bgj92rcd13ifvqbd0","pricing_plan_id":"cebpf4jnsgd1na2vs0mg"},{"bike_id":"58d9e3df-28a3-4560-b2cd-4d33fefbd544","system_id":"levelo_inurba_marseille","lat":43.283441,"lon":5.381054,"is_reserved":false,"is_disabled":true,"rental_uris":{"android":"levelo://app?vid=58d9e3df-28a3-4560-b2cd-4d33fefbd544","ios":"levelo://app?vid=58d9e3df-28a3-4560-b2cd-4d33fefbd544"},"vehicle_type_id":"4","last_reported":1737828664,"current_range_meters":21600,"station_id":"ce4bh412rcd13ifvqdr0","pricing_plan_id":"cebpf4jnsgd1na2vs0mg"},{"bike_id":"6398e6de-bb42-42b9-b22c-91b389c19382","system_id":"levelo_inurba_marseille","lat":43.29701,"lon":5.36602,"is_reserved":false,"is_disabled":false,"rental_uris":{"android":"levelo://app?vid=6398e6de-bb42-42b9-b22c-91b389c19382","ios":"levelo://app?vid=6398e6de-bb42-42b9-b22c-91b389c19382"},"vehicle_type_id":"4","last_reported":1737828664,"current_range_meters":12800,"station_id":"ce4bgn12rcd13ifvqbt0","pricing_plan_id":"cebpf4jnsgd1na2vs0mg"},{"bike_id":"4914872c-162c-4b5d-a9af-cff65f389580","system_id":"levelo_inurba_marseille","lat":43.29592,"lon":5.3812,"is_reserved":false,"is_disabled":true,"rental_uris":{"android":"levelo://app?vid=4914872c-162c-4b5d-a9af-cff65f389580","ios":"levelo://app?vid=4914872c-162c-4b5d-a9af-cff65f389580"},"vehicle_type_id":"4","last_reported":1737828664,"current_range_meters":0,"station_id":"ce4bgl12rcd13ifvqbo0","pricing_plan_id":"cebpf4jnsgd1na2vs0mg"},{"bike_id":"b23be976-85d9-4419-bd0c-ee701bf070bb","system_id":"levelo_inurba_marseille","lat":43.30946,"lon":5.39037,"is_reserved":false,"is_disabled":false,"rental_uris":{"android":"levelo://app?vid=b23be976-85d9-4419-bd0c-ee701bf070bb","ios":"levelo://app?vid=b23be976-85d9-4419-bd0c-ee701bf070bb"},"vehicle_type_id":"4","last_reported":1737828664,"current_range_meters":28400,"station_id":"ce4bgup2rcd13ifvqco0","pricing_plan_id":"cebpf4jnsgd1na2vs0mg"},{"bike_id":"7a948520-d35f-473f-a31c-b05cc8bdb9fc","system_id":"levelo_inurba_marseille","lat":43.26556,"lon":5.37287,"is_reserved":false,"is_disabled":false,"rental_uris":{"android":"levelo://app?vid=7a948520-d35f-473f-a31c-b05cc8bdb9fc","ios":"levelo://app?vid=7a948520-d35f-473f-a31c-b05cc8bdb9fc"},"vehicle_type_id":"4","last_reported":1737828664,"current_range_meters":21600,"station_id":"ce4bhg12rcd13ifvqf70","pricing_plan_id":"cebpf4jnsgd1na2vs0mg"},{"bike_id":"0690bf94-1c09-4e27-aca4-e61048090c31","system_id":"levelo_inurba_marseille","lat":43.32655,"lon":5.40992,"is_reserved":false,"is_disabled":false,"rental_uris":{"android":"levelo://app?vid=0690bf94-1c09-4e27-aca4-e61048090c31","ios":"levelo://app?vid=0690bf94-1c09-4e27-aca4-e61048090c31"},"vehicle_type_id":"4","last_reported":1737828664,"current_range_meters":37600,"station_id":"ce4bhpp2rcd13ifvqhgg","pricing_plan_id":"cebpf4jnsgd1na2vs0mg"},{"bike_id":"8c359e53-4823-4574-bdae-1258ac8cefd9","system_id":"levelo_inurba_marseille","lat":43.25117,"lon":5.40317,"is_reserved":false,"is_disabled":false,"rental_uris":{"android":"levelo://app?vid=8c359e53-4823-4574-bdae-1258ac8cefd9","ios":"levelo://app?vid=8c359e53-4823-4574-bdae-1258ac8cefd9"},"vehicle_type_id":"4","last_reported":1737828664,"current_range_meters":38800,"station_id":"ce4bhlh2rcd13ifvqgig","pricing_plan_id":"cebpf4jnsgd1na2vs0mg"},{"bike_id":"7802172b-e916-461b-a36f-7dc2f6acf00c","system_id":"levelo_inurba_marseille","lat":43.30292,"lon":5.39212,"is_reserved":false,"is_disabled":false,"rental_uris":{"android":"levelo://app?vid=7802172b-e916-461b-a36f-7dc2f6acf00c","ios":"levelo://app?vid=7802172b-e916-461b-a36f-7dc2f6acf00c"},"vehicle_type_id":"4","last_reported":1737828664,"current_range_meters":38000,"station_id":"ce4bgkh2rcd13ifvqbk0","pricing_plan_id":"cebpf4jnsgd1na2vs0mg"},{"bike_id":"457dbd0e-8f95-45e9-8ae6-40b39a5ca596","system_id":"levelo_inurba_marseille","lat":43.232,"lon":5.3555,"is_reserved":false,"is_disabled":false,"rental_uris":{"android":"levelo://app?vid=457dbd0e-8f95-45e9-8ae6-40b39a5ca596","ios":"levelo://app?vid=457dbd0e-8f95-45e9-8ae6-40b39a5ca596"},"vehicle_type_id":"4","last_reported":1737828664,"current_range_meters":38800,"station_id":"ce4bhu92rcd13ifvqi70","pricing_plan_id":"cebpf4jnsgd1na2vs0mg"},{"bike_id":"6e507a1c-6faf-4c02-abf0-0c63eb98226d","system_id":"levelo_inurba_marseille","lat":43.2929,"lon":5.37462,"is_reserved":false,"is_disabled":false,"rental_uris":{"android":"levelo://app?vid=6e507a1c-6faf-4c02-abf0-0c63eb98226d","ios":"levelo://app?vid=6e507a1c-6faf-4c02-abf0-0c63eb98226d"},"vehicle_type_id":"4","last_reported":1737828664,"current_range_meters":23200,"station_id":"ce4bgi12rcd13ifvqb70","pricing_plan_id":"cebpf4jnsgd1na2vs0mg"},{"bike_id":"e5a30d51-78ea-43cc-a39d-c28354fa034e","system_id":"levelo_inurba_marseille","lat":43.2991,"lon":5.38149,"is_reserved":false,"is_disabled":false,"rental_uris":{"android":"levelo://app?vid=e5a30d51-78ea-43cc-a39d-c28354fa034e","ios":"levelo://app?vid=e5a30d51-78ea-43cc-a39d-c28354fa034e"},"vehicle_type_id":"4","last_reported":1737828664,"current_range_meters":38400,"station_id":"ce4bgj12rcd13ifvqbc0","pricing_plan_id":"cebpf4jnsgd1na2vs0mg"},{"bike_id":"34fd7956-88f6-4bc0-8512-2636610900a4","system_id":"levelo_inurba_marseille","lat":43.2319,"lon":5.35555,"is_reserved":false,"is_disabled":false,"rental_uris":{"android":"levelo://app?vid=34fd7956-88f6-4bc0-8512-2636610900a4","ios":"levelo://app?vid=34fd7956-88f6-4bc0-8512-2636610900a4"},"vehicle_type_id":"4","last_reported":1737828664,"current_range_meters":38800,"station_id":"ce4bhu92rcd13ifvqi70","pricing_plan_id":"cebpf4jnsgd1na2vs0mg"},{"bike_id":"96f22527-9833-49f8-80a9-53be1a4985ab","system_id":"levelo_inurba_marseille","lat":43.3171,"lon":5.43712,"is_reserved":false,"is_disabled":false,"rental_uris":{"android":"levelo://app?vid=96f22527-9833-49f8-80a9-53be1a4985ab","ios":"levelo://app?vid=96f22527-9833-49f8-80a9-53be1a4985ab"},"vehicle_type_id":"4","last_reported":1737828664,"current_range_meters":20400,"station_id":"ce4bhp92rcd13ifvqhcg","pricing_plan_id":"cebpf4jnsgd1na2vs0mg"},{"bike_id":"d06b6dd8-7b26-4e14-8483-8f8817ba9baf","system_id":"levelo_inurba_marseille","lat":43.32046,"lon":5.41575,"is_reserved":false,"is_disabled":false,"rental_uris":{"android":"levelo://app?vid=d06b6dd8-7b26-4e14-8483-8f8817ba9baf","ios":"levelo://app?vid=d06b6dd8-7b26-4e14-8483-8f8817ba9baf"},"vehicle_type_id":"4","last_reported":1737828664,"current_range_meters":37600,"station_id":"ce4bhq92rcd13ifvqhkg","pricing_plan_id":"cebpf4jnsgd1na2vs0mg"},{"bike_id":"d99263c5-4811-4486-96f3-68d0800d240a","system_id":"levelo_inurba_marseille","lat":43.30794,"lon":5.37639,"is_reserved":false,"is_disabled":true,"rental_uris":{"android":"levelo://app?vid=d99263c5-4811-4486-96f3-68d0800d240a","ios":"levelo://app?vid=d99263c5-4811-4486-96f3-68d0800d240a"},"vehicle_type_id":"4","last_reported":1737828664,"current_range_meters":0,"station_id":"ce4bgv92rcd13ifvqcq0","pricing_plan_id":"cebpf4jnsgd1na2vs0mg"},{"bike_id":"7e83737e-17a3-4dc8-b275-b52a496072fd","system_id":"levelo_inurba_marseille","lat":43.25493,"lon":5.37649,"is_reserved":false,"is_disabled":false,"rental_uris":{"android":"levelo://app?vid=7e83737e-17a3-4dc8-b275-b52a496072fd","ios":"levelo://app?vid=7e83737e-17a3-4dc8-b275-b52a496072fd"},"vehicle_type_id":"4","last_reported":1737828664,"current_range_meters":38000,"station_id":"ce4bhh12rcd13ifvqff0","pricing_plan_id":"cebpf4jnsgd1na2vs0mg"},{"bike_id":"4e4c21f1-31be-4bf3-860c-01436ea78d15","system_id":"levelo_inurba_marseille","lat":43.27373,"lon":5.3625,"is_reserved":false,"is_disabled":false,"rental_uris":{"android":"levelo://app?vid=4e4c21f1-31be-4bf3-860c-01436ea78d15","ios":"levelo://app?vid=4e4c21f1-31be-4bf3-860c-01436ea78d15"},"vehicle_type_id":"4","last_reported":1737828664,"current_range_meters":6800,"station_id":"ce4bhbh2rcd13ifvqeo0","pricing_plan_id":"cebpf4jnsgd1na2vs0mg"},{"bike_id":"0f281060-f959-44a5-ac47-7386b99057dd","system_id":"levelo_inurba_marseille","lat":43.29297,"lon":5.37153,"is_reserved":false,"is_disabled":false,"rental_uris":{"android":"levelo://app?vid=0f281060-f959-44a5-ac47-7386b99057dd","ios":"levelo://app?vid=0f281060-f959-44a5-ac47-7386b99057dd"},"vehicle_type_id":"4","last_reported":1737828664,"current_range_meters":7200,"station_id":"ce4bgh92rcd13ifvqb40","pricing_plan_id":"cebpf4jnsgd1na2vs0mg"},{"bike_id":"e9b18d33-2c32-4c0b-bac5-aee7380b5154","system_id":"levelo_inurba_marseille","lat":43.2508,"lon":5.39508,"is_reserved":false,"is_disabled":false,"rental_uris":{"android":"levelo://app?vid=e9b18d33-2c32-4c0b-bac5-aee7380b5154","ios":"levelo://app?vid=e9b18d33-2c32-4c0b-bac5-aee7380b5154"},"vehicle_type_id":"4","last_reported":1737828664,"current_range_meters":38800,"station_id":"ce4bhm12rcd13ifvqgkg","pricing_plan_id":"cebpf4jnsgd1na2vs0mg"},{"bike_id":"bdc5b466-fcc5-4012-8d6b-a1b9beef9ffe","system_id":"levelo_inurba_marseille","lat":43.29524,"lon":5.39045,"is_reserved":false,"is_disabled":false,"rental_uris":{"android":"levelo://app?vid=bdc5b466-fcc5-4012-8d6b-a1b9beef9ffe","ios":"levelo://app?vid=bdc5b466-fcc5-4012-8d6b-a1b9beef9ffe"},"vehicle_type_id":"4","last_reported":1737828664,"current_range_meters":8800,"station_id":"ce4bh3p2rcd13ifvqdp0","pricing_plan_id":"cebpf4jnsgd1na2vs0mg"},{"bike_id":"b120ac7d-bd56-4a78-844b-01f77abb520b","system_id":"levelo_inurba_marseille","lat":43.26779,"lon":5.39417,"is_reserved":false,"is_disabled":false,"rental_uris":{"android":"levelo://app?vid=b120ac7d-bd56-4a78-844b-01f77abb520b","ios":"levelo://app?vid=b120ac7d-bd56-4a78-844b-01f77abb520b"},"vehicle_type_id":"4","last_reported":1737828664,"current_range_meters":28800,"station_id":"ce4bhh12rcd13ifvqfg0","pricing_plan_id":"cebpf4jnsgd1na2vs0mg"},{"bike_id":"1e92e7d7-0433-4103-8bb4-1a1f96f05228","system_id":"levelo_inurba_marseille","lat":43.2707,"lon":5.42279,"is_reserved":false,"is_disabled":false,"rental_uris":{"android":"levelo://app?vid=1e92e7d7-0433-4103-8bb4-1a1f96f05228","ios":"levelo://app?vid=1e92e7d7-0433-4103-8bb4-1a1f96f05228"},"vehicle_type_id":"4","last_reported":1737828664,"current_range_meters":30800,"station_id":"ce4bhk92rcd13ifvqgb0","pricing_plan_id":"cebpf4jnsgd1na2vs0mg"},{"bike_id":"b8c7ac08-94bb-4c1a-be59-442ad905fc87","system_id":"levelo_inurba_marseille","lat":43.29258,"lon":5.36603,"is_reserved":false,"is_disabled":false,"rental_uris":{"android":"levelo://app?vid=b8c7ac08-94bb-4c1a-be59-442ad905fc87","ios":"levelo://app?vid=b8c7ac08-94bb-4c1a-be59-442ad905fc87"},"vehicle_type_id":"4","last_reported":1737828664,"current_range_meters":33600,"station_id":"","pricing_plan_id":"cebpf4jnsgd1na2vs0mg"},{"bike_id":"a119a5bd-3e64-4668-b3de-9a75e9a04ac8","system_id":"levelo_inurba_marseille","lat":43.25577,"lon":5.3823,"is_reserved":false,"is_disabled":false,"rental_uris":{"android":"levelo://app?vid=a119a5bd-3e64-4668-b3de-9a75e9a04ac8","ios":"levelo://app?vid=a119a5bd-3e64-4668-b3de-9a75e9a04ac8"},"vehicle_type_id":"4","last_reported":1737828664,"current_range_meters":38400,"station_id":"ce4bhih2rcd13ifvqfs0","pricing_plan_id":"cebpf4jnsgd1na2vs0mg"},{"bike_id":"691d37ee-d127-43f1-89c7-d2deab8fd8d7","system_id":"levelo_inurba_marseille","lat":43.29741,"lon":5.36253,"is_reserved":false,"is_disabled":false,"rental_uris":{"android":"levelo://app?vid=691d37ee-d127-43f1-89c7-d2deab8fd8d7","ios":"levelo://app?vid=691d37ee-d127-43f1-89c7-d2deab8fd8d7"},"vehicle_type_id":"4","last_reported":1737828664,"current_range_meters":25600,"station_id":"","pricing_plan_id":"cebpf4jnsgd1na2vs0mg"},{"bike_id":"1261b509-8885-4cc1-a428-b6274d9a5c58","system_id":"levelo_inurba_marseille","lat":43.29274,"lon":5.36851,"is_reserved":false,"is_disabled":false,"rental_uris":{"android":"levelo://app?vid=1261b509-8885-4cc1-a428-b6274d9a5c58","ios":"levelo://app?vid=1261b509-8885-4cc1-a428-b6274d9a5c58"},"vehicle_type_id":"4","last_reported":1737828664,"current_range_meters":38400,"station_id":"ce4bhbp2rcd13ifvqesg","pricing_plan_id":"cebpf4jnsgd1na2vs0mg"},{"bike_id":"d97b23ac-1532-416d-97a4-ebdf3acd4687","system_id":"levelo_inurba_marseille","lat":43.28414,"lon":5.34987,"is_reserved":false,"is_disabled":false,"rental_uris":{"android":"levelo://app?vid=d97b23ac-1532-416d-97a4-ebdf3acd4687","ios":"levelo://app?vid=d97b23ac-1532-416d-97a4-ebdf3acd4687"},"vehicle_type_id":"4","last_reported":1737828664,"current_range_meters":24400,"station_id":"ce4bhbh2rcd13ifvqepg","pricing_plan_id":"cebpf4jnsgd1na2vs0mg"},{"bike_id":"e728db78-d9e2-4f24-98ce-995a832b69f4","system_id":"levelo_inurba_marseille","lat":43.30435,"lon":5.39755,"is_reserved":false,"is_disabled":false,"rental_uris":{"android":"levelo://app?vid=e728db78-d9e2-4f24-98ce-995a832b69f4","ios":"levelo://app?vid=e728db78-d9e2-4f24-98ce-995a832b69f4"},"vehicle_type_id":"4","last_reported":1737828664,"current_range_meters":30400,"station_id":"ce4bh092rcd13ifvqd20","pricing_plan_id":"cebpf4jnsgd1na2vs0mg"},{"bike_id":"4865b0d6-3464-44d4-a1d1-b4d30367174e","system_id":"levelo_inurba_marseille","lat":43.3111,"lon":5.3776,"is_reserved":false,"is_disabled":false,"rental_uris":{"android":"levelo://app?vid=4865b0d6-3464-44d4-a1d1-b4d30367174e","ios":"levelo://app?vid=4865b0d6-3464-44d4-a1d1-b4d30367174e"},"vehicle_type_id":"4","last_reported":1737828664,"current_range_meters":22800,"station_id":"ce4bgt92rcd13ifvqcg0","pricing_plan_id":"cebpf4jnsgd1na2vs0mg"},{"bike_id":"cebc5c85-d7a8-4bbb-b14e-31ef000f8a4d","system_id":"levelo_inurba_marseille","lat":43.30528,"lon":5.3652,"is_reserved":false,"is_disabled":true,"rental_uris":{"android":"levelo://app?vid=cebc5c85-d7a8-4bbb-b14e-31ef000f8a4d","ios":"levelo://app?vid=cebc5c85-d7a8-4bbb-b14e-31ef000f8a4d"},"vehicle_type_id":"4","last_reported":1737828664,"current_range_meters":0,"station_id":"","pricing_plan_id":"cebpf4jnsgd1na2vs0mg"},{"bike_id":"d034704b-6405-432f-bd08-7a708b7ec9de","system_id":"levelo_inurba_marseille","lat":43.29521,"lon":5.39404,"is_reserved":false,"is_disabled":false,"rental_uris":{"android":"levelo://app?vid=d034704b-6405-432f-bd08-7a708b7ec9de","ios":"levelo://app?vid=d034704b-6405-432f-bd08-7a708b7ec9de"},"vehicle_type_id":"4","last_reported":1737828664,"current_range_meters":32000,"station_id":"ce4bh292rcd13ifvqdf0","pricing_plan_id":"cebpf4jnsgd1na2vs0mg"},{"bike_id":"0450f74d-fee4-4a9f-8ed0-811e28c64bd4","system_id":"levelo_inurba_marseille","lat":43.29419,"lon":5.39764,"is_reserved":false,"is_disabled":false,"rental_uris":{"android":"levelo://app?vid=0450f74d-fee4-4a9f-8ed0-811e28c64bd4","ios":"levelo://app?vid=0450f74d-fee4-4a9f-8ed0-811e28c64bd4"},"vehicle_type_id":"4","last_reported":1737828664,"current_range_meters":9600,"station_id":"ce4bh3h2rcd13ifvqdo0","pricing_plan_id":"cebpf4jnsgd1na2vs0mg"},{"bike_id":"eaee1b0f-f06d-45f6-a98c-ea80c9270f5e","system_id":"levelo_inurba_marseille","lat":43.27374,"lon":5.36266,"is_reserved":false,"is_disabled":false,"rental_uris":{"android":"levelo://app?vid=eaee1b0f-f06d-45f6-a98c-ea80c9270f5e","ios":"levelo://app?vid=eaee1b0f-f06d-45f6-a98c-ea80c9270f5e"},"vehicle_type_id":"4","last_reported":1737828664,"current_range_meters":38800,"station_id":"ce4bhbh2rcd13ifvqeo0","pricing_plan_id":"cebpf4jnsgd1na2vs0mg"},{"bike_id":"2581265e-461e-4093-96e3-176dcfa2ce51","system_id":"levelo_inurba_marseille","lat":43.24643,"lon":5.38911,"is_reserved":false,"is_disabled":false,"rental_uris":{"android":"levelo://app?vid=2581265e-461e-4093-96e3-176dcfa2ce51","ios":"levelo://app?vid=2581265e-461e-4093-96e3-176dcfa2ce51"},"vehicle_type_id":"4","last_reported":1737828664,"current_range_meters":38800,"station_id":"ce4bhg12rcd13ifvqf60","pricing_plan_id":"cebpf4jnsgd1na2vs0mg"},{"bike_id":"17ef082e-a3c4-420b-b159-1c0b23b8592b","system_id":"levelo_inurba_marseille","lat":43.24668,"lon":5.38143,"is_reserved":false,"is_disabled":true,"rental_uris":{"android":"levelo://app?vid=17ef082e-a3c4-420b-b159-1c0b23b8592b","ios":"levelo://app?vid=17ef082e-a3c4-420b-b159-1c0b23b8592b"},"vehicle_type_id":"4","last_reported":1737828664,"current_range_meters":0,"station_id":"ce4bhih2rcd13ifvqfr0","pricing_plan_id":"cebpf4jnsgd1na2vs0mg"},{"bike_id":"8255dbbf-6c45-432a-91ed-9addf8fa8ef1","system_id":"levelo_inurba_marseille","lat":43.27373,"lon":5.36266,"is_reserved":false,"is_disabled":false,"rental_uris":{"android":"levelo://app?vid=8255dbbf-6c45-432a-91ed-9addf8fa8ef1","ios":"levelo://app?vid=8255dbbf-6c45-432a-91ed-9addf8fa8ef1"},"vehicle_type_id":"4","last_reported":1737828664,"current_range_meters":28000,"station_id":"ce4bhbh2rcd13ifvqeo0","pricing_plan_id":"cebpf4jnsgd1na2vs0mg"},{"bike_id":"1456db87-157a-4a77-8064-78e4f37fab19","system_id":"levelo_inurba_marseille","lat":43.30905,"lon":5.3684,"is_reserved":false,"is_disabled":false,"rental_uris":{"android":"levelo://app?vid=1456db87-157a-4a77-8064-78e4f37fab19","ios":"levelo://app?vid=1456db87-157a-4a77-8064-78e4f37fab19"},"vehicle_type_id":"4","last_reported":1737828664,"current_range_meters":6000,"station_id":"ce4bgn92rcd13ifvqbvg","pricing_plan_id":"cebpf4jnsgd1na2vs0mg"},{"bike_id":"429bce8c-f4c3-46ae-9d64-0235fe5f58a6","system_id":"levelo_inurba_marseille","lat":43.28102,"lon":5.37829,"is_reserved":false,"is_disabled":false,"rental_uris":{"android":"levelo://app?vid=429bce8c-f4c3-46ae-9d64-0235fe5f58a6","ios":"levelo://app?vid=429bce8c-f4c3-46ae-9d64-0235fe5f58a6"},"vehicle_type_id":"4","last_reported":1737828664,"current_range_meters":20400,"station_id":"ce4bha12rcd13ifvqee0","pricing_plan_id":"cebpf4jnsgd1na2vs0mg"},{"bike_id":"e687267b-04bd-4fe6-a55b-66e9d075a7c9","system_id":"levelo_inurba_marseille","lat":43.2702,"lon":5.40064,"is_reserved":false,"is_disabled":false,"rental_uris":{"android":"levelo://app?vid=e687267b-04bd-4fe6-a55b-66e9d075a7c9","ios":"levelo://app?vid=e687267b-04bd-4fe6-a55b-66e9d075a7c9"},"vehicle_type_id":"4","last_reported":1737828664,"current_range_meters":34800,"station_id":"cjm6bp8fraef2m0cb0m0","pricing_plan_id":"cebpf4jnsgd1na2vs0mg"},{"bike_id":"b5da9ebd-5215-4d3a-9ca7-584f4b0898a3","system_id":"levelo_inurba_marseille","lat":43.28147,"lon":5.42636,"is_reserved":false,"is_disabled":false,"rental_uris":{"android":"levelo://app?vid=b5da9ebd-5215-4d3a-9ca7-584f4b0898a3","ios":"levelo://app?vid=b5da9ebd-5215-4d3a-9ca7-584f4b0898a3"},"vehicle_type_id":"4","last_reported":1737828664,"current_range_meters":12000,"station_id":"ce4bhnh2rcd13ifvqgug","pricing_plan_id":"cebpf4jnsgd1na2vs0mg"},{"bike_id":"73f19d59-fb27-4d3a-8f81-0557c467d90c","system_id":"levelo_inurba_marseille","lat":43.29533,"lon":5.39035,"is_reserved":false,"is_disabled":false,"rental_uris":{"android":"levelo://app?vid=73f19d59-fb27-4d3a-8f81-0557c467d90c","ios":"levelo://app?vid=73f19d59-fb27-4d3a-8f81-0557c467d90c"},"vehicle_type_id":"4","last_reported":1737828664,"current_range_meters":36000,"station_id":"ce4bh3p2rcd13ifvqdp0","pricing_plan_id":"cebpf4jnsgd1na2vs0mg"},{"bike_id":"a80a4397-82ec-4cf2-beca-a447bb1f3769","system_id":"levelo_inurba_marseille","lat":43.29519,"lon":5.39405,"is_reserved":false,"is_disabled":false,"rental_uris":{"android":"levelo://app?vid=a80a4397-82ec-4cf2-beca-a447bb1f3769","ios":"levelo://app?vid=a80a4397-82ec-4cf2-beca-a447bb1f3769"},"vehicle_type_id":"4","last_reported":1737828664,"current_range_meters":26000,"station_id":"ce4bh292rcd13ifvqdf0","pricing_plan_id":"cebpf4jnsgd1na2vs0mg"},{"bike_id":"c4334391-da17-451c-ae81-1489c65db72d","system_id":"levelo_inurba_marseille","lat":43.3046,"lon":5.37908,"is_reserved":false,"is_disabled":false,"rental_uris":{"android":"levelo://app?vid=c4334391-da17-451c-ae81-1489c65db72d","ios":"levelo://app?vid=c4334391-da17-451c-ae81-1489c65db72d"},"vehicle_type_id":"4","last_reported":1737828664,"current_range_meters":7200,"station_id":"ce4bgup2rcd13ifvqcn0","pricing_plan_id":"cebpf4jnsgd1na2vs0mg"},{"bike_id":"e76e5adc-a353-4bc4-977f-eaa5c8fa7ed3","system_id":"levelo_inurba_marseille","lat":43.28995,"lon":5.35608,"is_reserved":false,"is_disabled":false,"rental_uris":{"android":"levelo://app?vid=e76e5adc-a353-4bc4-977f-eaa5c8fa7ed3","ios":"levelo://app?vid=e76e5adc-a353-4bc4-977f-eaa5c8fa7ed3"},"vehicle_type_id":"4","last_reported":1737828664,"current_range_meters":9200,"station_id":"ce4bhb92rcd13ifvqen0","pricing_plan_id":"cebpf4jnsgd1na2vs0mg"},{"bike_id":"6c4bb03b-e5d1-4a1e-bed7-99a76a42e7ea","system_id":"levelo_inurba_marseille","lat":43.29499,"lon":5.39413,"is_reserved":false,"is_disabled":false,"rental_uris":{"android":"levelo://app?vid=6c4bb03b-e5d1-4a1e-bed7-99a76a42e7ea","ios":"levelo://app?vid=6c4bb03b-e5d1-4a1e-bed7-99a76a42e7ea"},"vehicle_type_id":"4","last_reported":1737828664,"current_range_meters":2800,"station_id":"ce4bh292rcd13ifvqdf0","pricing_plan_id":"cebpf4jnsgd1na2vs0mg"},{"bike_id":"71820ba0-5f6b-4668-9822-c6afafd17192","system_id":"levelo_inurba_marseille","lat":43.29596,"lon":5.36721,"is_reserved":false,"is_disabled":false,"rental_uris":{"android":"levelo://app?vid=71820ba0-5f6b-4668-9822-c6afafd17192","ios":"levelo://app?vid=71820ba0-5f6b-4668-9822-c6afafd17192"},"vehicle_type_id":"4","last_reported":1737828664,"current_range_meters":38800,"station_id":"ce4bgph2rcd13ifvqc2g","pricing_plan_id":"cebpf4jnsgd1na2vs0mg"},{"bike_id":"c54f5b2e-f783-418a-8119-a38c5ea2c0aa","system_id":"levelo_inurba_marseille","lat":43.28988,"lon":5.35606,"is_reserved":false,"is_disabled":true,"rental_uris":{"android":"levelo://app?vid=c54f5b2e-f783-418a-8119-a38c5ea2c0aa","ios":"levelo://app?vid=c54f5b2e-f783-418a-8119-a38c5ea2c0aa"},"vehicle_type_id":"4","last_reported":1737828664,"current_range_meters":8800,"station_id":"ce4bhb92rcd13ifvqen0","pricing_plan_id":"cebpf4jnsgd1na2vs0mg"},{"bike_id":"9838cc78-2b53-49d3-ae13-82df62c4fd64","system_id":"levelo_inurba_marseille","lat":43.28422,"lon":5.40935,"is_reserved":false,"is_disabled":true,"rental_uris":{"android":"levelo://app?vid=9838cc78-2b53-49d3-ae13-82df62c4fd64","ios":"levelo://app?vid=9838cc78-2b53-49d3-ae13-82df62c4fd64"},"vehicle_type_id":"4","last_reported":1737828664,"current_range_meters":0,"station_id":"","pricing_plan_id":"cebpf4jnsgd1na2vs0mg"},{"bike_id":"cd2c3e6b-4e99-4030-8f38-99ce34b03608","system_id":"levelo_inurba_marseille","lat":43.26539,"lon":5.38992,"is_reserved":false,"is_disabled":false,"rental_uris":{"android":"levelo://app?vid=cd2c3e6b-4e99-4030-8f38-99ce34b03608","ios":"levelo://app?vid=cd2c3e6b-4e99-4030-8f38-99ce34b03608"},"vehicle_type_id":"4","last_reported":1737828664,"current_range_meters":38800,"station_id":"ce4bhe12rcd13ifvqf30","pricing_plan_id":"cebpf4jnsgd1na2vs0mg"},{"bike_id":"c53bdbcf-eaf6-4122-9e64-e5a2deb02092","system_id":"levelo_inurba_marseille","lat":43.27369,"lon":5.36257,"is_reserved":false,"is_disabled":false,"rental_uris":{"android":"levelo://app?vid=c53bdbcf-eaf6-4122-9e64-e5a2deb02092","ios":"levelo://app?vid=c53bdbcf-eaf6-4122-9e64-e5a2deb02092"},"vehicle_type_id":"4","last_reported":1737828664,"current_range_meters":22000,"station_id":"ce4bhbh2rcd13ifvqeo0","pricing_plan_id":"cebpf4jnsgd1na2vs0mg"},{"bike_id":"f6b896f2-48fc-4d80-93a1-f56b278daada","system_id":"levelo_inurba_marseille","lat":43.24672,"lon":5.3816,"is_reserved":false,"is_disabled":false,"rental_uris":{"android":"levelo://app?vid=f6b896f2-48fc-4d80-93a1-f56b278daada","ios":"levelo://app?vid=f6b896f2-48fc-4d80-93a1-f56b278daada"},"vehicle_type_id":"4","last_reported":1737828664,"current_range_meters":6800,"station_id":"ce4bhih2rcd13ifvqfr0","pricing_plan_id":"cebpf4jnsgd1na2vs0mg"},{"bike_id":"bf096a89-ee72-4f37-85bd-7b3cf9f0cb41","system_id":"levelo_inurba_marseille","lat":43.33737,"lon":5.39196,"is_reserved":false,"is_disabled":false,"rental_uris":{"android":"levelo://app?vid=bf096a89-ee72-4f37-85bd-7b3cf9f0cb41","ios":"levelo://app?vid=bf096a89-ee72-4f37-85bd-7b3cf9f0cb41"},"vehicle_type_id":"4","last_reported":1737828664,"current_range_meters":30400,"station_id":"ce4bhr92rcd13ifvqhsg","pricing_plan_id":"cebpf4jnsgd1na2vs0mg"},{"bike_id":"bb47c47f-aa7e-443f-8a36-a6da3462811e","system_id":"levelo_inurba_marseille","lat":43.26501,"lon":5.39531,"is_reserved":false,"is_disabled":false,"rental_uris":{"android":"levelo://app?vid=bb47c47f-aa7e-443f-8a36-a6da3462811e","ios":"levelo://app?vid=bb47c47f-aa7e-443f-8a36-a6da3462811e"},"vehicle_type_id":"4","last_reported":1737828664,"current_range_meters":36800,"station_id":"ce4bhi12rcd13ifvqfq0","pricing_plan_id":"cebpf4jnsgd1na2vs0mg"},{"bike_id":"c2378bb1-796c-4edf-bf87-198266dfa5e8","system_id":"levelo_inurba_marseille","lat":43.23189,"lon":5.35548,"is_reserved":false,"is_disabled":false,"rental_uris":{"android":"levelo://app?vid=c2378bb1-796c-4edf-bf87-198266dfa5e8","ios":"levelo://app?vid=c2378bb1-796c-4edf-bf87-198266dfa5e8"},"vehicle_type_id":"4","last_reported":1737828664,"current_range_meters":5600,"station_id":"ce4bhu92rcd13ifvqi70","pricing_plan_id":"cebpf4jnsgd1na2vs0mg"},{"bike_id":"55484666-3036-4f10-9cf4-3205ec5b4812","system_id":"levelo_inurba_marseille","lat":43.26539,"lon":5.39046,"is_reserved":false,"is_disabled":false,"rental_uris":{"android":"levelo://app?vid=55484666-3036-4f10-9cf4-3205ec5b4812","ios":"levelo://app?vid=55484666-3036-4f10-9cf4-3205ec5b4812"},"vehicle_type_id":"4","last_reported":1737828664,"current_range_meters":38800,"station_id":"ce4bhe12rcd13ifvqf30","pricing_plan_id":"cebpf4jnsgd1na2vs0mg"},{"bike_id":"d69cf1fa-59ad-4f44-a9fb-82fbbe1b6b05","system_id":"levelo_inurba_marseille","lat":43.307972,"lon":5.435285,"is_reserved":false,"is_disabled":false,"rental_uris":{"android":"levelo://app?vid=d69cf1fa-59ad-4f44-a9fb-82fbbe1b6b05","ios":"levelo://app?vid=d69cf1fa-59ad-4f44-a9fb-82fbbe1b6b05"},"vehicle_type_id":"4","last_reported":1737828664,"current_range_meters":28000,"station_id":"ce4bhph2rcd13ifvqheg","pricing_plan_id":"cebpf4jnsgd1na2vs0mg"},{"bike_id":"8d5ea9c8-4a76-428c-a168-ed68bfb49a3d","system_id":"levelo_inurba_marseille","lat":43.29884,"lon":5.39737,"is_reserved":false,"is_disabled":false,"rental_uris":{"android":"levelo://app?vid=8d5ea9c8-4a76-428c-a168-ed68bfb49a3d","ios":"levelo://app?vid=8d5ea9c8-4a76-428c-a168-ed68bfb49a3d"},"vehicle_type_id":"4","last_reported":1737828664,"current_range_meters":33600,"station_id":"ce4bh0h2rcd13ifvqd50","pricing_plan_id":"cebpf4jnsgd1na2vs0mg"},{"bike_id":"2e0a8b86-b457-48a0-8577-213b01080398","system_id":"levelo_inurba_marseille","lat":43.23205,"lon":5.3554,"is_reserved":false,"is_disabled":false,"rental_uris":{"android":"levelo://app?vid=2e0a8b86-b457-48a0-8577-213b01080398","ios":"levelo://app?vid=2e0a8b86-b457-48a0-8577-213b01080398"},"vehicle_type_id":"4","last_reported":1737828664,"current_range_meters":38800,"station_id":"ce4bhu92rcd13ifvqi70","pricing_plan_id":"cebpf4jnsgd1na2vs0mg"},{"bike_id":"a7cf4467-440c-4bb8-a849-e8f193507576","system_id":"levelo_inurba_marseille","lat":43.29714,"lon":5.37685,"is_reserved":false,"is_disabled":false,"rental_uris":{"android":"levelo://app?vid=a7cf4467-440c-4bb8-a849-e8f193507576","ios":"levelo://app?vid=a7cf4467-440c-4bb8-a849-e8f193507576"},"vehicle_type_id":"4","last_reported":1737828664,"current_range_meters":30800,"station_id":"ce4bgkh2rcd13ifvqbl0","pricing_plan_id":"cebpf4jnsgd1na2vs0mg"},{"bike_id":"aa0df972-55de-4184-8239-6c1734f44424","system_id":"levelo_inurba_marseille","lat":43.2872,"lon":5.36095,"is_reserved":false,"is_disabled":false,"rental_uris":{"android":"levelo://app?vid=aa0df972-55de-4184-8239-6c1734f44424","ios":"levelo://app?vid=aa0df972-55de-4184-8239-6c1734f44424"},"vehicle_type_id":"4","last_reported":1737828664,"current_range_meters":8800,"station_id":"cki0cbj6b192h4jlfktg","pricing_plan_id":"cebpf4jnsgd1na2vs0mg"},{"bike_id":"0f5cd764-7390-4077-9c7a-85d343cf14c1","system_id":"levelo_inurba_marseille","lat":43.29413,"lon":5.38618,"is_reserved":false,"is_disabled":false,"rental_uris":{"android":"levelo://app?vid=0f5cd764-7390-4077-9c7a-85d343cf14c1","ios":"levelo://app?vid=0f5cd764-7390-4077-9c7a-85d343cf14c1"},"vehicle_type_id":"4","last_reported":1737828664,"current_range_meters":24000,"station_id":"ce4bh2h2rcd13ifvqdh0","pricing_plan_id":"cebpf4jnsgd1na2vs0mg"},{"bike_id":"26886f27-9e44-4f9b-b027-714b5c8fecc2","system_id":"levelo_inurba_marseille","lat":43.29193,"lon":5.39326,"is_reserved":false,"is_disabled":false,"rental_uris":{"android":"levelo://app?vid=26886f27-9e44-4f9b-b027-714b5c8fecc2","ios":"levelo://app?vid=26886f27-9e44-4f9b-b027-714b5c8fecc2"},"vehicle_type_id":"4","last_reported":1737828664,"current_range_meters":13600,"station_id":"ce4bh192rcd13ifvqdd0","pricing_plan_id":"cebpf4jnsgd1na2vs0mg"},{"bike_id":"87a5bed0-aef1-423b-bd85-fe44fdeeb863","system_id":"levelo_inurba_marseille","lat":43.3374,"lon":5.39201,"is_reserved":false,"is_disabled":false,"rental_uris":{"android":"levelo://app?vid=87a5bed0-aef1-423b-bd85-fe44fdeeb863","ios":"levelo://app?vid=87a5bed0-aef1-423b-bd85-fe44fdeeb863"},"vehicle_type_id":"4","last_reported":1737828664,"current_range_meters":37600,"station_id":"ce4bhr92rcd13ifvqhsg","pricing_plan_id":"cebpf4jnsgd1na2vs0mg"},{"bike_id":"4e195046-41c8-4de0-89bb-8e64ff8624eb","system_id":"levelo_inurba_marseille","lat":43.26787,"lon":5.39445,"is_reserved":false,"is_disabled":false,"rental_uris":{"android":"levelo://app?vid=4e195046-41c8-4de0-89bb-8e64ff8624eb","ios":"levelo://app?vid=4e195046-41c8-4de0-89bb-8e64ff8624eb"},"vehicle_type_id":"4","last_reported":1737828664,"current_range_meters":38000,"station_id":"ce4bhh12rcd13ifvqfg0","pricing_plan_id":"cebpf4jnsgd1na2vs0mg"},{"bike_id":"770988d0-47fd-4d12-8823-5c1dca0d5dcb","system_id":"levelo_inurba_marseille","lat":43.27362,"lon":5.36248,"is_reserved":false,"is_disabled":false,"rental_uris":{"android":"levelo://app?vid=770988d0-47fd-4d12-8823-5c1dca0d5dcb","ios":"levelo://app?vid=770988d0-47fd-4d12-8823-5c1dca0d5dcb"},"vehicle_type_id":"4","last_reported":1737828664,"current_range_meters":38800,"station_id":"ce4bhbh2rcd13ifvqeo0","pricing_plan_id":"cebpf4jnsgd1na2vs0mg"},{"bike_id":"c1532b0e-6c49-45ea-aea4-fc793fac28a6","system_id":"levelo_inurba_marseille","lat":43.29533,"lon":5.38547,"is_reserved":false,"is_disabled":false,"rental_uris":{"android":"levelo://app?vid=c1532b0e-6c49-45ea-aea4-fc793fac28a6","ios":"levelo://app?vid=c1532b0e-6c49-45ea-aea4-fc793fac28a6"},"vehicle_type_id":"4","last_reported":1737828664,"current_range_meters":28000,"station_id":"ce4bgih2rcd13ifvqba0","pricing_plan_id":"cebpf4jnsgd1na2vs0mg"},{"bike_id":"a1c2f027-8f63-4c02-9b46-293ad1bf208b","system_id":"levelo_inurba_marseille","lat":43.30143,"lon":5.39879,"is_reserved":false,"is_disabled":false,"rental_uris":{"android":"levelo://app?vid=a1c2f027-8f63-4c02-9b46-293ad1bf208b","ios":"levelo://app?vid=a1c2f027-8f63-4c02-9b46-293ad1bf208b"},"vehicle_type_id":"4","last_reported":1737828664,"current_range_meters":27600,"station_id":"ce4bh0h2rcd13ifvqd40","pricing_plan_id":"cebpf4jnsgd1na2vs0mg"},{"bike_id":"58ac677e-bd2d-4595-a4e5-8d57a56cb96c","system_id":"levelo_inurba_marseille","lat":43.28151,"lon":5.4265,"is_reserved":false,"is_disabled":false,"rental_uris":{"android":"levelo://app?vid=58ac677e-bd2d-4595-a4e5-8d57a56cb96c","ios":"levelo://app?vid=58ac677e-bd2d-4595-a4e5-8d57a56cb96c"},"vehicle_type_id":"4","last_reported":1737828664,"current_range_meters":28800,"station_id":"ce4bhnh2rcd13ifvqgug","pricing_plan_id":"cebpf4jnsgd1na2vs0mg"},{"bike_id":"2ab7215a-9b31-4994-94e1-f9c34e39c0d5","system_id":"levelo_inurba_marseille","lat":43.31266,"lon":5.40165,"is_reserved":false,"is_disabled":false,"rental_uris":{"android":"levelo://app?vid=2ab7215a-9b31-4994-94e1-f9c34e39c0d5","ios":"levelo://app?vid=2ab7215a-9b31-4994-94e1-f9c34e39c0d5"},"vehicle_type_id":"4","last_reported":1737828664,"current_range_meters":14800,"station_id":"ce4bh092rcd13ifvqd30","pricing_plan_id":"cebpf4jnsgd1na2vs0mg"},{"bike_id":"aac8ada5-22a2-42c0-9b43-68987328236e","system_id":"levelo_inurba_marseille","lat":43.3128,"lon":5.40181,"is_reserved":false,"is_disabled":false,"rental_uris":{"android":"levelo://app?vid=aac8ada5-22a2-42c0-9b43-68987328236e","ios":"levelo://app?vid=aac8ada5-22a2-42c0-9b43-68987328236e"},"vehicle_type_id":"4","last_reported":1737828664,"current_range_meters":14000,"station_id":"ce4bh092rcd13ifvqd30","pricing_plan_id":"cebpf4jnsgd1na2vs0mg"},{"bike_id":"024aaa43-98dc-4f3b-bcfc-6594e26f63d6","system_id":"levelo_inurba_marseille","lat":43.33719,"lon":5.39203,"is_reserved":false,"is_disabled":false,"rental_uris":{"android":"levelo://app?vid=024aaa43-98dc-4f3b-bcfc-6594e26f63d6","ios":"levelo://app?vid=024aaa43-98dc-4f3b-bcfc-6594e26f63d6"},"vehicle_type_id":"4","last_reported":1737828664,"current_range_meters":34000,"station_id":"ce4bhr92rcd13ifvqhsg","pricing_plan_id":"cebpf4jnsgd1na2vs0mg"},{"bike_id":"474d415f-8e9e-4808-a33e-f1dacf021fce","system_id":"levelo_inurba_marseille","lat":43.29023,"lon":5.38629,"is_reserved":false,"is_disabled":false,"rental_uris":{"android":"levelo://app?vid=474d415f-8e9e-4808-a33e-f1dacf021fce","ios":"levelo://app?vid=474d415f-8e9e-4808-a33e-f1dacf021fce"},"vehicle_type_id":"4","last_reported":1737828664,"current_range_meters":39200,"station_id":"ce4bh4p2rcd13ifvqe0g","pricing_plan_id":"cebpf4jnsgd1na2vs0mg"},{"bike_id":"c959572c-6974-4ed4-8889-654758c49222","system_id":"levelo_inurba_marseille","lat":43.26569,"lon":5.38998,"is_reserved":false,"is_disabled":true,"rental_uris":{"android":"levelo://app?vid=c959572c-6974-4ed4-8889-654758c49222","ios":"levelo://app?vid=c959572c-6974-4ed4-8889-654758c49222"},"vehicle_type_id":"4","last_reported":1737828664,"current_range_meters":400,"station_id":"ce4bhe12rcd13ifvqf30","pricing_plan_id":"cebpf4jnsgd1na2vs0mg"},{"bike_id":"c3bd7401-a0a1-4db6-9bf7-5d8ba49195e1","system_id":"levelo_inurba_marseille","lat":43.26492,"lon":5.3954,"is_reserved":false,"is_disabled":false,"rental_uris":{"android":"levelo://app?vid=c3bd7401-a0a1-4db6-9bf7-5d8ba49195e1","ios":"levelo://app?vid=c3bd7401-a0a1-4db6-9bf7-5d8ba49195e1"},"vehicle_type_id":"4","last_reported":1737828664,"current_range_meters":12400,"station_id":"ce4bhi12rcd13ifvqfq0","pricing_plan_id":"cebpf4jnsgd1na2vs0mg"},{"bike_id":"7116d13c-cc3f-4974-a0d3-1cfc5926dacb","system_id":"levelo_inurba_marseille","lat":43.28938,"lon":5.39631,"is_reserved":false,"is_disabled":false,"rental_uris":{"android":"levelo://app?vid=7116d13c-cc3f-4974-a0d3-1cfc5926dacb","ios":"levelo://app?vid=7116d13c-cc3f-4974-a0d3-1cfc5926dacb"},"vehicle_type_id":"4","last_reported":1737828664,"current_range_meters":37600,"station_id":"ce4bh3h2rcd13ifvqdn0","pricing_plan_id":"cebpf4jnsgd1na2vs0mg"},{"bike_id":"0ef12574-f0a3-43d6-9ab6-974610ff0676","system_id":"levelo_inurba_marseille","lat":43.27809,"lon":5.40716,"is_reserved":false,"is_disabled":false,"rental_uris":{"android":"levelo://app?vid=0ef12574-f0a3-43d6-9ab6-974610ff0676","ios":"levelo://app?vid=0ef12574-f0a3-43d6-9ab6-974610ff0676"},"vehicle_type_id":"4","last_reported":1737828664,"current_range_meters":22400,"station_id":"ce4bhnh2rcd13ifvqgtg","pricing_plan_id":"cebpf4jnsgd1na2vs0mg"},{"bike_id":"5d94a5f3-6724-45da-a6b8-1c6ad20706f4","system_id":"levelo_inurba_marseille","lat":43.27624,"lon":5.36106,"is_reserved":false,"is_disabled":false,"rental_uris":{"android":"levelo://app?vid=5d94a5f3-6724-45da-a6b8-1c6ad20706f4","ios":"levelo://app?vid=5d94a5f3-6724-45da-a6b8-1c6ad20706f4"},"vehicle_type_id":"4","last_reported":1737828664,"current_range_meters":28000,"station_id":"ce4bgj92rcd13ifvqbe0","pricing_plan_id":"cebpf4jnsgd1na2vs0mg"},{"bike_id":"b942ba61-21e3-4cd1-b317-ebec467d46ba","system_id":"levelo_inurba_marseille","lat":43.28148,"lon":5.4267,"is_reserved":false,"is_disabled":true,"rental_uris":{"android":"levelo://app?vid=b942ba61-21e3-4cd1-b317-ebec467d46ba","ios":"levelo://app?vid=b942ba61-21e3-4cd1-b317-ebec467d46ba"},"vehicle_type_id":"4","last_reported":1737828664,"current_range_meters":1600,"station_id":"ce4bhnh2rcd13ifvqgug","pricing_plan_id":"cebpf4jnsgd1na2vs0mg"},{"bike_id":"51844996-2dce-4734-a901-002168c2f25e","system_id":"levelo_inurba_marseille","lat":43.29983,"lon":5.38487,"is_reserved":false,"is_disabled":false,"rental_uris":{"android":"levelo://app?vid=51844996-2dce-4734-a901-002168c2f25e","ios":"levelo://app?vid=51844996-2dce-4734-a901-002168c2f25e"},"vehicle_type_id":"4","last_reported":1737828664,"current_range_meters":8400,"station_id":"ce4bgj92rcd13ifvqbd0","pricing_plan_id":"cebpf4jnsgd1na2vs0mg"},{"bike_id":"0efff2f7-79c7-4011-a6d4-0010e4d39997","system_id":"levelo_inurba_marseille","lat":43.31483,"lon":5.37308,"is_reserved":false,"is_disabled":true,"rental_uris":{"android":"levelo://app?vid=0efff2f7-79c7-4011-a6d4-0010e4d39997","ios":"levelo://app?vid=0efff2f7-79c7-4011-a6d4-0010e4d39997"},"vehicle_type_id":"4","last_reported":1737828664,"current_range_meters":0,"station_id":"ce4bgt12rcd13ifvqcd0","pricing_plan_id":"cebpf4jnsgd1na2vs0mg"},{"bike_id":"28e7993a-e915-4037-8df1-40ab752bb183","system_id":"levelo_inurba_marseille","lat":43.27497,"lon":5.42454,"is_reserved":false,"is_disabled":false,"rental_uris":{"android":"levelo://app?vid=28e7993a-e915-4037-8df1-40ab752bb183","ios":"levelo://app?vid=28e7993a-e915-4037-8df1-40ab752bb183"},"vehicle_type_id":"4","last_reported":1737828664,"current_range_meters":32000,"station_id":"ce4bhn92rcd13ifvqgrg","pricing_plan_id":"cebpf4jnsgd1na2vs0mg"},{"bike_id":"d664833f-4534-474b-b138-7088f7f99177","system_id":"levelo_inurba_marseille","lat":43.309601,"lon":5.390066,"is_reserved":false,"is_disabled":false,"rental_uris":{"android":"levelo://app?vid=d664833f-4534-474b-b138-7088f7f99177","ios":"levelo://app?vid=d664833f-4534-474b-b138-7088f7f99177"},"vehicle_type_id":"4","last_reported":1737828664,"current_range_meters":28400,"station_id":"ce4bgup2rcd13ifvqco0","pricing_plan_id":"cebpf4jnsgd1na2vs0mg"},{"bike_id":"e9bc701b-86ce-45d6-bb9e-c295f6ce732c","system_id":"levelo_inurba_marseille","lat":43.30658,"lon":5.40099,"is_reserved":false,"is_disabled":true,"rental_uris":{"android":"levelo://app?vid=e9bc701b-86ce-45d6-bb9e-c295f6ce732c","ios":"levelo://app?vid=e9bc701b-86ce-45d6-bb9e-c295f6ce732c"},"vehicle_type_id":"4","last_reported":1737828664,"current_range_meters":38000,"station_id":"ce4bh112rcd13ifvqda0","pricing_plan_id":"cebpf4jnsgd1na2vs0mg"},{"bike_id":"ebbb6dd1-ea2a-4b9e-a0fd-f2fc38df1042","system_id":"levelo_inurba_marseille","lat":43.24999,"lon":5.38953,"is_reserved":false,"is_disabled":true,"rental_uris":{"android":"levelo://app?vid=ebbb6dd1-ea2a-4b9e-a0fd-f2fc38df1042","ios":"levelo://app?vid=ebbb6dd1-ea2a-4b9e-a0fd-f2fc38df1042"},"vehicle_type_id":"4","last_reported":1737828664,"current_range_meters":0,"station_id":"ce4bhgp2rcd13ifvqfd0","pricing_plan_id":"cebpf4jnsgd1na2vs0mg"},{"bike_id":"3cc4c2cf-0a44-458b-85c3-ba901b682e7d","system_id":"levelo_inurba_marseille","lat":43.29708,"lon":5.36601,"is_reserved":false,"is_disabled":false,"rental_uris":{"android":"levelo://app?vid=3cc4c2cf-0a44-458b-85c3-ba901b682e7d","ios":"levelo://app?vid=3cc4c2cf-0a44-458b-85c3-ba901b682e7d"},"vehicle_type_id":"4","last_reported":1737828664,"current_range_meters":39200,"station_id":"ce4bgn12rcd13ifvqbt0","pricing_plan_id":"cebpf4jnsgd1na2vs0mg"},{"bike_id":"f76a8511-1638-4bbc-81b6-3e86daf501f9","system_id":"levelo_inurba_marseille","lat":43.29227,"lon":5.36465,"is_reserved":false,"is_disabled":true,"rental_uris":{"android":"levelo://app?vid=f76a8511-1638-4bbc-81b6-3e86daf501f9","ios":"levelo://app?vid=f76a8511-1638-4bbc-81b6-3e86daf501f9"},"vehicle_type_id":"4","last_reported":1737828664,"current_range_meters":0,"station_id":"","pricing_plan_id":"cebpf4jnsgd1na2vs0mg"},{"bike_id":"f6f4b82a-b3ec-45aa-a01d-a0663afc6a1c","system_id":"levelo_inurba_marseille","lat":43.29197,"lon":5.39323,"is_reserved":false,"is_disabled":false,"rental_uris":{"android":"levelo://app?vid=f6f4b82a-b3ec-45aa-a01d-a0663afc6a1c","ios":"levelo://app?vid=f6f4b82a-b3ec-45aa-a01d-a0663afc6a1c"},"vehicle_type_id":"4","last_reported":1737828664,"current_range_meters":28400,"station_id":"ce4bh192rcd13ifvqdd0","pricing_plan_id":"cebpf4jnsgd1na2vs0mg"},{"bike_id":"784d372f-471f-4ee2-b3ad-2636ed3dde27","system_id":"levelo_inurba_marseille","lat":43.27812,"lon":5.40708,"is_reserved":false,"is_disabled":false,"rental_uris":{"android":"levelo://app?vid=784d372f-471f-4ee2-b3ad-2636ed3dde27","ios":"levelo://app?vid=784d372f-471f-4ee2-b3ad-2636ed3dde27"},"vehicle_type_id":"4","last_reported":1737828664,"current_range_meters":12800,"station_id":"ce4bhnh2rcd13ifvqgtg","pricing_plan_id":"cebpf4jnsgd1na2vs0mg"},{"bike_id":"7b183114-3aa4-4776-af10-7d074edca2b6","system_id":"levelo_inurba_marseille","lat":43.26062,"lon":5.394,"is_reserved":false,"is_disabled":false,"rental_uris":{"android":"levelo://app?vid=7b183114-3aa4-4776-af10-7d074edca2b6","ios":"levelo://app?vid=7b183114-3aa4-4776-af10-7d074edca2b6"},"vehicle_type_id":"4","last_reported":1737828664,"current_range_meters":38800,"station_id":"ce4bhh92rcd13ifvqfj0","pricing_plan_id":"cebpf4jnsgd1na2vs0mg"},{"bike_id":"d30b3783-8233-407d-9dc8-76ac03b68013","system_id":"levelo_inurba_marseille","lat":43.298,"lon":5.38115,"is_reserved":false,"is_disabled":false,"rental_uris":{"android":"levelo://app?vid=d30b3783-8233-407d-9dc8-76ac03b68013","ios":"levelo://app?vid=d30b3783-8233-407d-9dc8-76ac03b68013"},"vehicle_type_id":"4","last_reported":1737828664,"current_range_meters":7200,"station_id":"ce4bgip2rcd13ifvqbb0","pricing_plan_id":"cebpf4jnsgd1na2vs0mg"},{"bike_id":"0af52f93-e2ad-4e70-93eb-a6c272fbfbe2","system_id":"levelo_inurba_marseille","lat":43.3124,"lon":5.36881,"is_reserved":false,"is_disabled":false,"rental_uris":{"android":"levelo://app?vid=0af52f93-e2ad-4e70-93eb-a6c272fbfbe2","ios":"levelo://app?vid=0af52f93-e2ad-4e70-93eb-a6c272fbfbe2"},"vehicle_type_id":"4","last_reported":1737828664,"current_range_meters":38000,"station_id":"ce4bgl92rcd13ifvqbq0","pricing_plan_id":"cebpf4jnsgd1na2vs0mg"},{"bike_id":"26bf4424-9484-49e9-8ce4-346a151a167e","system_id":"levelo_inurba_marseille","lat":43.29026,"lon":5.3865,"is_reserved":false,"is_disabled":false,"rental_uris":{"android":"levelo://app?vid=26bf4424-9484-49e9-8ce4-346a151a167e","ios":"levelo://app?vid=26bf4424-9484-49e9-8ce4-346a151a167e"},"vehicle_type_id":"4","last_reported":1737828664,"current_range_meters":28000,"station_id":"ce4bh4p2rcd13ifvqe0g","pricing_plan_id":"cebpf4jnsgd1na2vs0mg"},{"bike_id":"18affd99-92c5-496a-ba0e-7ddb808eac8b","system_id":"levelo_inurba_marseille","lat":43.28722,"lon":5.37393,"is_reserved":false,"is_disabled":true,"rental_uris":{"android":"levelo://app?vid=18affd99-92c5-496a-ba0e-7ddb808eac8b","ios":"levelo://app?vid=18affd99-92c5-496a-ba0e-7ddb808eac8b"},"vehicle_type_id":"4","last_reported":1737828664,"current_range_meters":0,"station_id":"ce4bh3p2rcd13ifvqdq0","pricing_plan_id":"cebpf4jnsgd1na2vs0mg"},{"bike_id":"99e5a445-cdc2-4210-a04c-7608d52032be","system_id":"levelo_inurba_marseille","lat":43.31177,"lon":5.36822,"is_reserved":false,"is_disabled":true,"rental_uris":{"android":"levelo://app?vid=99e5a445-cdc2-4210-a04c-7608d52032be","ios":"levelo://app?vid=99e5a445-cdc2-4210-a04c-7608d52032be"},"vehicle_type_id":"4","last_reported":1737828664,"current_range_meters":0,"station_id":"","pricing_plan_id":"cebpf4jnsgd1na2vs0mg"},{"bike_id":"4dbbf03c-5369-4b03-95c0-5f5f6cd5d7ae","system_id":"levelo_inurba_marseille","lat":43.30461,"lon":5.37911,"is_reserved":false,"is_disabled":false,"rental_uris":{"android":"levelo://app?vid=4dbbf03c-5369-4b03-95c0-5f5f6cd5d7ae","ios":"levelo://app?vid=4dbbf03c-5369-4b03-95c0-5f5f6cd5d7ae"},"vehicle_type_id":"4","last_reported":1737828664,"current_range_meters":19600,"station_id":"ce4bgup2rcd13ifvqcn0","pricing_plan_id":"cebpf4jnsgd1na2vs0mg"},{"bike_id":"d54e7416-9133-47cb-bc55-3d590b1f98b8","system_id":"levelo_inurba_marseille","lat":43.28688,"lon":5.36363,"is_reserved":false,"is_disabled":true,"rental_uris":{"android":"levelo://app?vid=d54e7416-9133-47cb-bc55-3d590b1f98b8","ios":"levelo://app?vid=d54e7416-9133-47cb-bc55-3d590b1f98b8"},"vehicle_type_id":"4","last_reported":1737828664,"current_range_meters":0,"station_id":"ce4bhah2rcd13ifvqej0","pricing_plan_id":"cebpf4jnsgd1na2vs0mg"},{"bike_id":"57c70a1e-3417-40c8-a330-5d6598b77653","system_id":"levelo_inurba_marseille","lat":43.32553,"lon":5.42912,"is_reserved":false,"is_disabled":true,"rental_uris":{"android":"levelo://app?vid=57c70a1e-3417-40c8-a330-5d6598b77653","ios":"levelo://app?vid=57c70a1e-3417-40c8-a330-5d6598b77653"},"vehicle_type_id":"4","last_reported":1737828664,"current_range_meters":0,"station_id":"","pricing_plan_id":"cebpf4jnsgd1na2vs0mg"},{"bike_id":"8f418039-64b4-4f8b-9b93-bbb14214da89","system_id":"levelo_inurba_marseille","lat":43.317103,"lon":5.377529,"is_reserved":false,"is_disabled":false,"rental_uris":{"android":"levelo://app?vid=8f418039-64b4-4f8b-9b93-bbb14214da89","ios":"levelo://app?vid=8f418039-64b4-4f8b-9b93-bbb14214da89"},"vehicle_type_id":"4","last_reported":1737828664,"current_range_meters":15200,"station_id":"ce4bgth2rcd13ifvqch0","pricing_plan_id":"cebpf4jnsgd1na2vs0mg"},{"bike_id":"4ba17b62-67ad-47d4-ae06-50d84fbf1296","system_id":"levelo_inurba_marseille","lat":43.29896,"lon":5.43657,"is_reserved":false,"is_disabled":false,"rental_uris":{"android":"levelo://app?vid=4ba17b62-67ad-47d4-ae06-50d84fbf1296","ios":"levelo://app?vid=4ba17b62-67ad-47d4-ae06-50d84fbf1296"},"vehicle_type_id":"4","last_reported":1737828664,"current_range_meters":11600,"station_id":"ce4bhpp2rcd13ifvqhfg","pricing_plan_id":"cebpf4jnsgd1na2vs0mg"},{"bike_id":"bf136050-61de-46e4-904b-5f0c0177d5fa","system_id":"levelo_inurba_marseille","lat":43.28265,"lon":5.35072,"is_reserved":false,"is_disabled":false,"rental_uris":{"android":"levelo://app?vid=bf136050-61de-46e4-904b-5f0c0177d5fa","ios":"levelo://app?vid=bf136050-61de-46e4-904b-5f0c0177d5fa"},"vehicle_type_id":"4","last_reported":1737828664,"current_range_meters":6800,"station_id":"ce4bhbp2rcd13ifvqerg","pricing_plan_id":"cebpf4jnsgd1na2vs0mg"},{"bike_id":"1c35c755-8b1c-439e-8798-f1a001a3969d","system_id":"levelo_inurba_marseille","lat":43.28104,"lon":5.37841,"is_reserved":false,"is_disabled":true,"rental_uris":{"android":"levelo://app?vid=1c35c755-8b1c-439e-8798-f1a001a3969d","ios":"levelo://app?vid=1c35c755-8b1c-439e-8798-f1a001a3969d"},"vehicle_type_id":"4","last_reported":1737828664,"current_range_meters":0,"station_id":"ce4bha12rcd13ifvqee0","pricing_plan_id":"cebpf4jnsgd1na2vs0mg"},{"bike_id":"cb6f6b32-3911-4443-9b3a-c38da69447eb","system_id":"levelo_inurba_marseille","lat":43.31325,"lon":5.39692,"is_reserved":false,"is_disabled":false,"rental_uris":{"android":"levelo://app?vid=cb6f6b32-3911-4443-9b3a-c38da69447eb","ios":"levelo://app?vid=cb6f6b32-3911-4443-9b3a-c38da69447eb"},"vehicle_type_id":"4","last_reported":1737828664,"current_range_meters":30000,"station_id":"ce4bgvp2rcd13ifvqcu0","pricing_plan_id":"cebpf4jnsgd1na2vs0mg"},{"bike_id":"636012c7-c239-42a3-a1e4-504db4358db4","system_id":"levelo_inurba_marseille","lat":43.29004,"lon":5.38145,"is_reserved":false,"is_disabled":false,"rental_uris":{"android":"levelo://app?vid=636012c7-c239-42a3-a1e4-504db4358db4","ios":"levelo://app?vid=636012c7-c239-42a3-a1e4-504db4358db4"},"vehicle_type_id":"4","last_reported":1737828664,"current_range_meters":30800,"station_id":"ce4bh4p2rcd13ifvqe1g","pricing_plan_id":"cebpf4jnsgd1na2vs0mg"},{"bike_id":"884f4337-debb-4f4e-9ffb-854d7bf11416","system_id":"levelo_inurba_marseille","lat":43.31325,"lon":5.39692,"is_reserved":false,"is_disabled":true,"rental_uris":{"android":"levelo://app?vid=884f4337-debb-4f4e-9ffb-854d7bf11416","ios":"levelo://app?vid=884f4337-debb-4f4e-9ffb-854d7bf11416"},"vehicle_type_id":"4","last_reported":1737828664,"current_range_meters":0,"station_id":"ce4bgvp2rcd13ifvqcu0","pricing_plan_id":"cebpf4jnsgd1na2vs0mg"},{"bike_id":"a1857060-22d4-4d3b-a73f-438446778574","system_id":"levelo_inurba_marseille","lat":43.29244,"lon":5.38428,"is_reserved":false,"is_disabled":false,"rental_uris":{"android":"levelo://app?vid=a1857060-22d4-4d3b-a73f-438446778574","ios":"levelo://app?vid=a1857060-22d4-4d3b-a73f-438446778574"},"vehicle_type_id":"4","last_reported":1737828664,"current_range_meters":6400,"station_id":"ce4bh692rcd13ifvqea0","pricing_plan_id":"cebpf4jnsgd1na2vs0mg"},{"bike_id":"35d1fa35-3863-43f2-a63d-7ff780d87a9a","system_id":"levelo_inurba_marseille","lat":43.28409,"lon":5.37516,"is_reserved":false,"is_disabled":false,"rental_uris":{"android":"levelo://app?vid=35d1fa35-3863-43f2-a63d-7ff780d87a9a","ios":"levelo://app?vid=35d1fa35-3863-43f2-a63d-7ff780d87a9a"},"vehicle_type_id":"4","last_reported":1737828664,"current_range_meters":25200,"station_id":"ce4bh412rcd13ifvqds0","pricing_plan_id":"cebpf4jnsgd1na2vs0mg"},{"bike_id":"bfc75c4c-ae68-48ca-8b19-c7e6e1b535f1","system_id":"levelo_inurba_marseille","lat":43.28153,"lon":5.42648,"is_reserved":false,"is_disabled":false,"rental_uris":{"android":"levelo://app?vid=bfc75c4c-ae68-48ca-8b19-c7e6e1b535f1","ios":"levelo://app?vid=bfc75c4c-ae68-48ca-8b19-c7e6e1b535f1"},"vehicle_type_id":"4","last_reported":1737828664,"current_range_meters":6400,"station_id":"ce4bhnh2rcd13ifvqgug","pricing_plan_id":"cebpf4jnsgd1na2vs0mg"},{"bike_id":"b96c22ba-a4c6-4ca8-b881-a2a2972e9bc2","system_id":"levelo_inurba_marseille","lat":43.26009,"lon":5.37566,"is_reserved":false,"is_disabled":true,"rental_uris":{"android":"levelo://app?vid=b96c22ba-a4c6-4ca8-b881-a2a2972e9bc2","ios":"levelo://app?vid=b96c22ba-a4c6-4ca8-b881-a2a2972e9bc2"},"vehicle_type_id":"4","last_reported":1737828664,"current_range_meters":36400,"station_id":"ce4bhgh2rcd13ifvqfa0","pricing_plan_id":"cebpf4jnsgd1na2vs0mg"},{"bike_id":"7706cc9b-7f09-42ef-812e-7c12e3d4551a","system_id":"levelo_inurba_marseille","lat":43.29019,"lon":5.38639,"is_reserved":false,"is_disabled":false,"rental_uris":{"android":"levelo://app?vid=7706cc9b-7f09-42ef-812e-7c12e3d4551a","ios":"levelo://app?vid=7706cc9b-7f09-42ef-812e-7c12e3d4551a"},"vehicle_type_id":"4","last_reported":1737828664,"current_range_meters":5600,"station_id":"ce4bh4p2rcd13ifvqe0g","pricing_plan_id":"cebpf4jnsgd1na2vs0mg"},{"bike_id":"db03a405-fabb-4192-bf7b-47f2f53f7187","system_id":"levelo_inurba_marseille","lat":43.30426,"lon":5.39751,"is_reserved":false,"is_disabled":false,"rental_uris":{"android":"levelo://app?vid=db03a405-fabb-4192-bf7b-47f2f53f7187","ios":"levelo://app?vid=db03a405-fabb-4192-bf7b-47f2f53f7187"},"vehicle_type_id":"4","last_reported":1737828664,"current_range_meters":18000,"station_id":"ce4bh092rcd13ifvqd20","pricing_plan_id":"cebpf4jnsgd1na2vs0mg"},{"bike_id":"b891fc89-2185-42f4-9667-25459f4eb2dd","system_id":"levelo_inurba_marseille","lat":43.29291,"lon":5.3745,"is_reserved":false,"is_disabled":false,"rental_uris":{"android":"levelo://app?vid=b891fc89-2185-42f4-9667-25459f4eb2dd","ios":"levelo://app?vid=b891fc89-2185-42f4-9667-25459f4eb2dd"},"vehicle_type_id":"4","last_reported":1737828664,"current_range_meters":2000,"station_id":"ce4bgi12rcd13ifvqb70","pricing_plan_id":"cebpf4jnsgd1na2vs0mg"},{"bike_id":"62320d91-e7ed-4e1a-8869-3185f9c0457a","system_id":"levelo_inurba_marseille","lat":43.29427,"lon":5.38624,"is_reserved":false,"is_disabled":false,"rental_uris":{"android":"levelo://app?vid=62320d91-e7ed-4e1a-8869-3185f9c0457a","ios":"levelo://app?vid=62320d91-e7ed-4e1a-8869-3185f9c0457a"},"vehicle_type_id":"4","last_reported":1737828664,"current_range_meters":26000,"station_id":"ce4bh2h2rcd13ifvqdh0","pricing_plan_id":"cebpf4jnsgd1na2vs0mg"},{"bike_id":"1346ff93-9ddb-4093-aa5d-b6cb09dfef3c","system_id":"levelo_inurba_marseille","lat":43.28487,"lon":5.36816,"is_reserved":false,"is_disabled":true,"rental_uris":{"android":"levelo://app?vid=1346ff93-9ddb-4093-aa5d-b6cb09dfef3c","ios":"levelo://app?vid=1346ff93-9ddb-4093-aa5d-b6cb09dfef3c"},"vehicle_type_id":"4","last_reported":1737828664,"current_range_meters":0,"station_id":"","pricing_plan_id":"cebpf4jnsgd1na2vs0mg"},{"bike_id":"f8767ddb-17a6-497c-a3fe-f6b41da640b1","system_id":"levelo_inurba_marseille","lat":43.29587,"lon":5.36778,"is_reserved":false,"is_disabled":false,"rental_uris":{"android":"levelo://app?vid=f8767ddb-17a6-497c-a3fe-f6b41da640b1","ios":"levelo://app?vid=f8767ddb-17a6-497c-a3fe-f6b41da640b1"},"vehicle_type_id":"4","last_reported":1737828664,"current_range_meters":37600,"station_id":"ce4bgnh2rcd13ifvqc0g","pricing_plan_id":"cebpf4jnsgd1na2vs0mg"},{"bike_id":"cff6a491-5284-4b58-81b6-6f262d74c4a9","system_id":"levelo_inurba_marseille","lat":43.27811,"lon":5.4071,"is_reserved":false,"is_disabled":false,"rental_uris":{"android":"levelo://app?vid=cff6a491-5284-4b58-81b6-6f262d74c4a9","ios":"levelo://app?vid=cff6a491-5284-4b58-81b6-6f262d74c4a9"},"vehicle_type_id":"4","last_reported":1737828664,"current_range_meters":24400,"station_id":"ce4bhnh2rcd13ifvqgtg","pricing_plan_id":"cebpf4jnsgd1na2vs0mg"},{"bike_id":"d0b97dd4-6015-4f42-b5f6-8f3b6c506949","system_id":"levelo_inurba_marseille","lat":43.29543,"lon":5.42305,"is_reserved":false,"is_disabled":false,"rental_uris":{"android":"levelo://app?vid=d0b97dd4-6015-4f42-b5f6-8f3b6c506949","ios":"levelo://app?vid=d0b97dd4-6015-4f42-b5f6-8f3b6c506949"},"vehicle_type_id":"4","last_reported":1737828664,"current_range_meters":36800,"station_id":"ce4bhph2rcd13ifvqhdg","pricing_plan_id":"cebpf4jnsgd1na2vs0mg"},{"bike_id":"c6f247f0-a037-460a-90f0-2b0c901e9375","system_id":"levelo_inurba_marseille","lat":43.32107,"lon":5.36781,"is_reserved":false,"is_disabled":false,"rental_uris":{"android":"levelo://app?vid=c6f247f0-a037-460a-90f0-2b0c901e9375","ios":"levelo://app?vid=c6f247f0-a037-460a-90f0-2b0c901e9375"},"vehicle_type_id":"4","last_reported":1737828664,"current_range_meters":32000,"station_id":"ce4bhrh2rcd13ifvqhug","pricing_plan_id":"cebpf4jnsgd1na2vs0mg"},{"bike_id":"5658bf19-5e40-4edf-ac7a-3999a5207afd","system_id":"levelo_inurba_marseille","lat":43.23203,"lon":5.3555,"is_reserved":false,"is_disabled":false,"rental_uris":{"android":"levelo://app?vid=5658bf19-5e40-4edf-ac7a-3999a5207afd","ios":"levelo://app?vid=5658bf19-5e40-4edf-ac7a-3999a5207afd"},"vehicle_type_id":"4","last_reported":1737828664,"current_range_meters":7200,"station_id":"ce4bhu92rcd13ifvqi70","pricing_plan_id":"cebpf4jnsgd1na2vs0mg"},{"bike_id":"551bc567-1527-4410-8c9c-7bc34ddb623f","system_id":"levelo_inurba_marseille","lat":43.3087,"lon":5.39651,"is_reserved":false,"is_disabled":false,"rental_uris":{"android":"levelo://app?vid=551bc567-1527-4410-8c9c-7bc34ddb623f","ios":"levelo://app?vid=551bc567-1527-4410-8c9c-7bc34ddb623f"},"vehicle_type_id":"4","last_reported":1737828664,"current_range_meters":10000,"station_id":"ce4bh012rcd13ifvqcv0","pricing_plan_id":"cebpf4jnsgd1na2vs0mg"},{"bike_id":"f1deb34c-18fa-481a-924e-d66237d090a5","system_id":"levelo_inurba_marseille","lat":43.28935,"lon":5.36624,"is_reserved":false,"is_disabled":true,"rental_uris":{"android":"levelo://app?vid=f1deb34c-18fa-481a-924e-d66237d090a5","ios":"levelo://app?vid=f1deb34c-18fa-481a-924e-d66237d090a5"},"vehicle_type_id":"4","last_reported":1737828664,"current_range_meters":400,"station_id":"ce4bhap2rcd13ifvqek0","pricing_plan_id":"cebpf4jnsgd1na2vs0mg"},{"bike_id":"1ac11873-f505-4afe-8684-dc584923bcf2","system_id":"levelo_inurba_marseille","lat":43.29161,"lon":5.37152,"is_reserved":false,"is_disabled":false,"rental_uris":{"android":"levelo://app?vid=1ac11873-f505-4afe-8684-dc584923bcf2","ios":"levelo://app?vid=1ac11873-f505-4afe-8684-dc584923bcf2"},"vehicle_type_id":"4","last_reported":1737828664,"current_range_meters":36800,"station_id":"ce4bha92rcd13ifvqeh0","pricing_plan_id":"cebpf4jnsgd1na2vs0mg"},{"bike_id":"9a8662d2-8f4d-4deb-817e-9e4ba7ab7e19","system_id":"levelo_inurba_marseille","lat":43.29418,"lon":5.38642,"is_reserved":false,"is_disabled":false,"rental_uris":{"android":"levelo://app?vid=9a8662d2-8f4d-4deb-817e-9e4ba7ab7e19","ios":"levelo://app?vid=9a8662d2-8f4d-4deb-817e-9e4ba7ab7e19"},"vehicle_type_id":"4","last_reported":1737828664,"current_range_meters":28000,"station_id":"ce4bh2h2rcd13ifvqdh0","pricing_plan_id":"cebpf4jnsgd1na2vs0mg"},{"bike_id":"2e7656e1-960c-4d12-89d8-31a6b71661b2","system_id":"levelo_inurba_marseille","lat":43.29046,"lon":5.35915,"is_reserved":false,"is_disabled":false,"rental_uris":{"android":"levelo://app?vid=2e7656e1-960c-4d12-89d8-31a6b71661b2","ios":"levelo://app?vid=2e7656e1-960c-4d12-89d8-31a6b71661b2"},"vehicle_type_id":"4","last_reported":1737828664,"current_range_meters":38400,"station_id":"ce4bha92rcd13ifvqeg0","pricing_plan_id":"cebpf4jnsgd1na2vs0mg"},{"bike_id":"e3d6955a-0441-439a-9f31-15ba87247ebb","system_id":"levelo_inurba_marseille","lat":43.27223,"lon":5.39146,"is_reserved":false,"is_disabled":false,"rental_uris":{"android":"levelo://app?vid=e3d6955a-0441-439a-9f31-15ba87247ebb","ios":"levelo://app?vid=e3d6955a-0441-439a-9f31-15ba87247ebb"},"vehicle_type_id":"4","last_reported":1737828664,"current_range_meters":1200,"station_id":"ce4bhhp2rcd13ifvqfm0","pricing_plan_id":"cebpf4jnsgd1na2vs0mg"},{"bike_id":"479cb780-8c58-44a6-99d3-0353db3a07bb","system_id":"levelo_inurba_marseille","lat":43.30793,"lon":5.43531,"is_reserved":false,"is_disabled":false,"rental_uris":{"android":"levelo://app?vid=479cb780-8c58-44a6-99d3-0353db3a07bb","ios":"levelo://app?vid=479cb780-8c58-44a6-99d3-0353db3a07bb"},"vehicle_type_id":"4","last_reported":1737828664,"current_range_meters":36800,"station_id":"ce4bhph2rcd13ifvqheg","pricing_plan_id":"cebpf4jnsgd1na2vs0mg"},{"bike_id":"6df622cf-2b94-459d-83ad-09577dedd11f","system_id":"levelo_inurba_marseille","lat":43.32029,"lon":5.4154,"is_reserved":false,"is_disabled":false,"rental_uris":{"android":"levelo://app?vid=6df622cf-2b94-459d-83ad-09577dedd11f","ios":"levelo://app?vid=6df622cf-2b94-459d-83ad-09577dedd11f"},"vehicle_type_id":"4","last_reported":1737828664,"current_range_meters":27200,"station_id":"ce4bhq92rcd13ifvqhkg","pricing_plan_id":"cebpf4jnsgd1na2vs0mg"},{"bike_id":"0d6b5fe0-b37b-4b5f-a572-54fef00b675a","system_id":"levelo_inurba_marseille","lat":43.30889,"lon":5.36806,"is_reserved":false,"is_disabled":false,"rental_uris":{"android":"levelo://app?vid=0d6b5fe0-b37b-4b5f-a572-54fef00b675a","ios":"levelo://app?vid=0d6b5fe0-b37b-4b5f-a572-54fef00b675a"},"vehicle_type_id":"4","last_reported":1737828664,"current_range_meters":8800,"station_id":"ce4bgn92rcd13ifvqbvg","pricing_plan_id":"cebpf4jnsgd1na2vs0mg"},{"bike_id":"dc610946-44ab-480d-aaf9-4f08fa9d1b47","system_id":"levelo_inurba_marseille","lat":43.31521,"lon":5.38771,"is_reserved":false,"is_disabled":true,"rental_uris":{"android":"levelo://app?vid=dc610946-44ab-480d-aaf9-4f08fa9d1b47","ios":"levelo://app?vid=dc610946-44ab-480d-aaf9-4f08fa9d1b47"},"vehicle_type_id":"4","last_reported":1737828664,"current_range_meters":0,"station_id":"","pricing_plan_id":"cebpf4jnsgd1na2vs0mg"},{"bike_id":"ac81a550-3d81-4e84-8fbd-aa6028999d0e","system_id":"levelo_inurba_marseille","lat":43.30431,"lon":5.38891,"is_reserved":false,"is_disabled":false,"rental_uris":{"android":"levelo://app?vid=ac81a550-3d81-4e84-8fbd-aa6028999d0e","ios":"levelo://app?vid=ac81a550-3d81-4e84-8fbd-aa6028999d0e"},"vehicle_type_id":"4","last_reported":1737828664,"current_range_meters":28800,"station_id":"ce4bgk12rcd13ifvqbi0","pricing_plan_id":"cebpf4jnsgd1na2vs0mg"},{"bike_id":"74d8d8a5-18e9-4001-bf8a-4cd63311c620","system_id":"levelo_inurba_marseille","lat":43.30321,"lon":5.4046,"is_reserved":false,"is_disabled":true,"rental_uris":{"android":"levelo://app?vid=74d8d8a5-18e9-4001-bf8a-4cd63311c620","ios":"levelo://app?vid=74d8d8a5-18e9-4001-bf8a-4cd63311c620"},"vehicle_type_id":"4","last_reported":1737828664,"current_range_meters":1200,"station_id":"ce4bh012rcd13ifvqd10","pricing_plan_id":"cebpf4jnsgd1na2vs0mg"},{"bike_id":"14549f3c-9b93-4dce-b64e-10da7e275aeb","system_id":"levelo_inurba_marseille","lat":43.31152,"lon":5.37136,"is_reserved":false,"is_disabled":false,"rental_uris":{"android":"levelo://app?vid=14549f3c-9b93-4dce-b64e-10da7e275aeb","ios":"levelo://app?vid=14549f3c-9b93-4dce-b64e-10da7e275aeb"},"vehicle_type_id":"4","last_reported":1737828664,"current_range_meters":34800,"station_id":"","pricing_plan_id":"cebpf4jnsgd1na2vs0mg"},{"bike_id":"e84ea28d-d6c1-4a23-bfa5-fecf89bc2a9f","system_id":"levelo_inurba_marseille","lat":43.32465,"lon":5.36573,"is_reserved":false,"is_disabled":false,"rental_uris":{"android":"levelo://app?vid=e84ea28d-d6c1-4a23-bfa5-fecf89bc2a9f","ios":"levelo://app?vid=e84ea28d-d6c1-4a23-bfa5-fecf89bc2a9f"},"vehicle_type_id":"4","last_reported":1737828664,"current_range_meters":35200,"station_id":"ce4bhs12rcd13ifvqhvg","pricing_plan_id":"cebpf4jnsgd1na2vs0mg"},{"bike_id":"57823e25-308b-4f11-a2b6-a7f52902c1c5","system_id":"levelo_inurba_marseille","lat":43.30806,"lon":5.38147,"is_reserved":false,"is_disabled":true,"rental_uris":{"android":"levelo://app?vid=57823e25-308b-4f11-a2b6-a7f52902c1c5","ios":"levelo://app?vid=57823e25-308b-4f11-a2b6-a7f52902c1c5"},"vehicle_type_id":"4","last_reported":1737828664,"current_range_meters":28800,"station_id":"ce4bgt12rcd13ifvqce0","pricing_plan_id":"cebpf4jnsgd1na2vs0mg"},{"bike_id":"ff68af14-5554-4f8d-a3de-4549d987f602","system_id":"levelo_inurba_marseille","lat":43.29902,"lon":5.43652,"is_reserved":false,"is_disabled":false,"rental_uris":{"android":"levelo://app?vid=ff68af14-5554-4f8d-a3de-4549d987f602","ios":"levelo://app?vid=ff68af14-5554-4f8d-a3de-4549d987f602"},"vehicle_type_id":"4","last_reported":1737828664,"current_range_meters":11200,"station_id":"ce4bhpp2rcd13ifvqhfg","pricing_plan_id":"cebpf4jnsgd1na2vs0mg"},{"bike_id":"fc793649-c00c-47d5-b622-02de5283e126","system_id":"levelo_inurba_marseille","lat":43.29175,"lon":5.37164,"is_reserved":false,"is_disabled":false,"rental_uris":{"android":"levelo://app?vid=fc793649-c00c-47d5-b622-02de5283e126","ios":"levelo://app?vid=fc793649-c00c-47d5-b622-02de5283e126"},"vehicle_type_id":"4","last_reported":1737828664,"current_range_meters":22400,"station_id":"ce4bha92rcd13ifvqeh0","pricing_plan_id":"cebpf4jnsgd1na2vs0mg"},{"bike_id":"787fabc3-eb91-469a-81b6-44a6fdcc4a9b","system_id":"levelo_inurba_marseille","lat":43.23065,"lon":5.35495,"is_reserved":false,"is_disabled":false,"rental_uris":{"android":"levelo://app?vid=787fabc3-eb91-469a-81b6-44a6fdcc4a9b","ios":"levelo://app?vid=787fabc3-eb91-469a-81b6-44a6fdcc4a9b"},"vehicle_type_id":"4","last_reported":1737828664,"current_range_meters":38800,"station_id":"cpo3342slgdg3j2ifvpg","pricing_plan_id":"cebpf4jnsgd1na2vs0mg"},{"bike_id":"e78c1169-47c8-4567-972b-d01ea79ea5f0","system_id":"levelo_inurba_marseille","lat":43.32467,"lon":5.36561,"is_reserved":false,"is_disabled":false,"rental_uris":{"android":"levelo://app?vid=e78c1169-47c8-4567-972b-d01ea79ea5f0","ios":"levelo://app?vid=e78c1169-47c8-4567-972b-d01ea79ea5f0"},"vehicle_type_id":"4","last_reported":1737828664,"current_range_meters":17200,"station_id":"ce4bhs12rcd13ifvqhvg","pricing_plan_id":"cebpf4jnsgd1na2vs0mg"},{"bike_id":"57ee3804-d766-461a-b2b2-1f4120ec976b","system_id":"levelo_inurba_marseille","lat":43.30421,"lon":5.38882,"is_reserved":false,"is_disabled":false,"rental_uris":{"android":"levelo://app?vid=57ee3804-d766-461a-b2b2-1f4120ec976b","ios":"levelo://app?vid=57ee3804-d766-461a-b2b2-1f4120ec976b"},"vehicle_type_id":"4","last_reported":1737828664,"current_range_meters":38000,"station_id":"ce4bgk12rcd13ifvqbi0","pricing_plan_id":"cebpf4jnsgd1na2vs0mg"},{"bike_id":"1e328aaf-06e5-4767-a395-a9b21576497f","system_id":"levelo_inurba_marseille","lat":43.29801,"lon":5.3711,"is_reserved":false,"is_disabled":true,"rental_uris":{"android":"levelo://app?vid=1e328aaf-06e5-4767-a395-a9b21576497f","ios":"levelo://app?vid=1e328aaf-06e5-4767-a395-a9b21576497f"},"vehicle_type_id":"4","last_reported":1737828664,"current_range_meters":22400,"station_id":"ce4bgop2rcd13ifvqc1g","pricing_plan_id":"cebpf4jnsgd1na2vs0mg"},{"bike_id":"690e5855-16c3-435f-a043-a3b33b8b61ce","system_id":"levelo_inurba_marseille","lat":43.29525,"lon":5.38547,"is_reserved":false,"is_disabled":true,"rental_uris":{"android":"levelo://app?vid=690e5855-16c3-435f-a043-a3b33b8b61ce","ios":"levelo://app?vid=690e5855-16c3-435f-a043-a3b33b8b61ce"},"vehicle_type_id":"4","last_reported":1737828664,"current_range_meters":0,"station_id":"ce4bgih2rcd13ifvqba0","pricing_plan_id":"cebpf4jnsgd1na2vs0mg"},{"bike_id":"7facede7-71a3-4129-a1f3-f8692190d63d","system_id":"levelo_inurba_marseille","lat":43.32493,"lon":5.36572,"is_reserved":false,"is_disabled":false,"rental_uris":{"android":"levelo://app?vid=7facede7-71a3-4129-a1f3-f8692190d63d","ios":"levelo://app?vid=7facede7-71a3-4129-a1f3-f8692190d63d"},"vehicle_type_id":"4","last_reported":1737828664,"current_range_meters":23200,"station_id":"ce4bhs12rcd13ifvqhvg","pricing_plan_id":"cebpf4jnsgd1na2vs0mg"},{"bike_id":"4e4e3261-1e8e-454c-bc50-3865a1c9b7fd","system_id":"levelo_inurba_marseille","lat":43.28492,"lon":5.38525,"is_reserved":false,"is_disabled":true,"rental_uris":{"android":"levelo://app?vid=4e4e3261-1e8e-454c-bc50-3865a1c9b7fd","ios":"levelo://app?vid=4e4e3261-1e8e-454c-bc50-3865a1c9b7fd"},"vehicle_type_id":"4","last_reported":1737828664,"current_range_meters":800,"station_id":"ce4bh8p2rcd13ifvqeb0","pricing_plan_id":"cebpf4jnsgd1na2vs0mg"},{"bike_id":"ea624404-124a-4128-9041-089ad79942c5","system_id":"levelo_inurba_marseille","lat":43.29546,"lon":5.42273,"is_reserved":false,"is_disabled":false,"rental_uris":{"android":"levelo://app?vid=ea624404-124a-4128-9041-089ad79942c5","ios":"levelo://app?vid=ea624404-124a-4128-9041-089ad79942c5"},"vehicle_type_id":"4","last_reported":1737828664,"current_range_meters":31200,"station_id":"ce4bhph2rcd13ifvqhdg","pricing_plan_id":"cebpf4jnsgd1na2vs0mg"},{"bike_id":"ad243039-16c6-42b3-baed-a49a90967726","system_id":"levelo_inurba_marseille","lat":43.2927,"lon":5.36844,"is_reserved":false,"is_disabled":false,"rental_uris":{"android":"levelo://app?vid=ad243039-16c6-42b3-baed-a49a90967726","ios":"levelo://app?vid=ad243039-16c6-42b3-baed-a49a90967726"},"vehicle_type_id":"4","last_reported":1737828664,"current_range_meters":27200,"station_id":"ce4bhbp2rcd13ifvqesg","pricing_plan_id":"cebpf4jnsgd1na2vs0mg"},{"bike_id":"662826ac-353a-4d90-b4d6-b01a8f2632b2","system_id":"levelo_inurba_marseille","lat":43.22942,"lon":5.35387,"is_reserved":false,"is_disabled":false,"rental_uris":{"android":"levelo://app?vid=662826ac-353a-4d90-b4d6-b01a8f2632b2","ios":"levelo://app?vid=662826ac-353a-4d90-b4d6-b01a8f2632b2"},"vehicle_type_id":"4","last_reported":1737828664,"current_range_meters":38000,"station_id":"cpo3532slgdg3j2ikp40","pricing_plan_id":"cebpf4jnsgd1na2vs0mg"},{"bike_id":"8aae1feb-77b2-4f24-8061-8e0e77c775aa","system_id":"levelo_inurba_marseille","lat":43.30133,"lon":5.39864,"is_reserved":false,"is_disabled":false,"rental_uris":{"android":"levelo://app?vid=8aae1feb-77b2-4f24-8061-8e0e77c775aa","ios":"levelo://app?vid=8aae1feb-77b2-4f24-8061-8e0e77c775aa"},"vehicle_type_id":"4","last_reported":1737828664,"current_range_meters":13600,"station_id":"ce4bh0h2rcd13ifvqd40","pricing_plan_id":"cebpf4jnsgd1na2vs0mg"},{"bike_id":"163b0be8-f1db-4665-a41b-823b767c63a6","system_id":"levelo_inurba_marseille","lat":43.26943,"lon":5.40254,"is_reserved":false,"is_disabled":false,"rental_uris":{"android":"levelo://app?vid=163b0be8-f1db-4665-a41b-823b767c63a6","ios":"levelo://app?vid=163b0be8-f1db-4665-a41b-823b767c63a6"},"vehicle_type_id":"4","last_reported":1737828664,"current_range_meters":36400,"station_id":"cjm6bp8fraef2m0cb0m0","pricing_plan_id":"cebpf4jnsgd1na2vs0mg"},{"bike_id":"ad486261-5015-4fae-82bf-d14f5d4d8a97","system_id":"levelo_inurba_marseille","lat":43.29538,"lon":5.38556,"is_reserved":false,"is_disabled":false,"rental_uris":{"android":"levelo://app?vid=ad486261-5015-4fae-82bf-d14f5d4d8a97","ios":"levelo://app?vid=ad486261-5015-4fae-82bf-d14f5d4d8a97"},"vehicle_type_id":"4","last_reported":1737828664,"current_range_meters":2000,"station_id":"ce4bgih2rcd13ifvqba0","pricing_plan_id":"cebpf4jnsgd1na2vs0mg"},{"bike_id":"cd639bd5-9261-4d8d-9671-4baa5027d171","system_id":"levelo_inurba_marseille","lat":43.31111,"lon":5.37779,"is_reserved":false,"is_disabled":false,"rental_uris":{"android":"levelo://app?vid=cd639bd5-9261-4d8d-9671-4baa5027d171","ios":"levelo://app?vid=cd639bd5-9261-4d8d-9671-4baa5027d171"},"vehicle_type_id":"4","last_reported":1737828664,"current_range_meters":36000,"station_id":"ce4bgt92rcd13ifvqcg0","pricing_plan_id":"cebpf4jnsgd1na2vs0mg"},{"bike_id":"c683b8d7-700b-46ff-afa9-73683eb8ee8c","system_id":"levelo_inurba_marseille","lat":43.29804,"lon":5.40419,"is_reserved":false,"is_disabled":false,"rental_uris":{"android":"levelo://app?vid=c683b8d7-700b-46ff-afa9-73683eb8ee8c","ios":"levelo://app?vid=c683b8d7-700b-46ff-afa9-73683eb8ee8c"},"vehicle_type_id":"4","last_reported":1737828664,"current_range_meters":38800,"station_id":"ce4bh112rcd13ifvqd90","pricing_plan_id":"cebpf4jnsgd1na2vs0mg"},{"bike_id":"9d51a323-06c6-4041-be75-c5d7d927e0fc","system_id":"levelo_inurba_marseille","lat":43.30138,"lon":5.38774,"is_reserved":false,"is_disabled":false,"rental_uris":{"android":"levelo://app?vid=9d51a323-06c6-4041-be75-c5d7d927e0fc","ios":"levelo://app?vid=9d51a323-06c6-4041-be75-c5d7d927e0fc"},"vehicle_type_id":"4","last_reported":1737828664,"current_range_meters":28800,"station_id":"ce4bhoh2rcd13ifvqh6g","pricing_plan_id":"cebpf4jnsgd1na2vs0mg"},{"bike_id":"4fd81f51-66cd-49c2-8173-f14e49403f39","system_id":"levelo_inurba_marseille","lat":43.28112,"lon":5.37836,"is_reserved":false,"is_disabled":false,"rental_uris":{"android":"levelo://app?vid=4fd81f51-66cd-49c2-8173-f14e49403f39","ios":"levelo://app?vid=4fd81f51-66cd-49c2-8173-f14e49403f39"},"vehicle_type_id":"4","last_reported":1737828664,"current_range_meters":30400,"station_id":"ce4bha12rcd13ifvqee0","pricing_plan_id":"cebpf4jnsgd1na2vs0mg"},{"bike_id":"7532e7c4-2524-427b-b547-730d4ba49800","system_id":"levelo_inurba_marseille","lat":43.28419,"lon":5.37523,"is_reserved":false,"is_disabled":false,"rental_uris":{"android":"levelo://app?vid=7532e7c4-2524-427b-b547-730d4ba49800","ios":"levelo://app?vid=7532e7c4-2524-427b-b547-730d4ba49800"},"vehicle_type_id":"4","last_reported":1737828664,"current_range_meters":38400,"station_id":"ce4bh412rcd13ifvqds0","pricing_plan_id":"cebpf4jnsgd1na2vs0mg"},{"bike_id":"03deefff-87ac-4b19-8932-093032a2512e","system_id":"levelo_inurba_marseille","lat":43.32284,"lon":5.38272,"is_reserved":false,"is_disabled":false,"rental_uris":{"android":"levelo://app?vid=03deefff-87ac-4b19-8932-093032a2512e","ios":"levelo://app?vid=03deefff-87ac-4b19-8932-093032a2512e"},"vehicle_type_id":"4","last_reported":1737828664,"current_range_meters":33600,"station_id":"ce4bhr12rcd13ifvqhqg","pricing_plan_id":"cebpf4jnsgd1na2vs0mg"},{"bike_id":"4b237394-74a6-4059-8607-138a1f4530ca","system_id":"levelo_inurba_marseille","lat":43.23963,"lon":5.3663,"is_reserved":false,"is_disabled":true,"rental_uris":{"android":"levelo://app?vid=4b237394-74a6-4059-8607-138a1f4530ca","ios":"levelo://app?vid=4b237394-74a6-4059-8607-138a1f4530ca"},"vehicle_type_id":"4","last_reported":1737828664,"current_range_meters":0,"station_id":"ce4bhi12rcd13ifvqfp0","pricing_plan_id":"cebpf4jnsgd1na2vs0mg"},{"bike_id":"06db7b38-d368-4168-a3af-68cb37ab41ea","system_id":"levelo_inurba_marseille","lat":43.316918,"lon":5.404756,"is_reserved":false,"is_disabled":false,"rental_uris":{"android":"levelo://app?vid=06db7b38-d368-4168-a3af-68cb37ab41ea","ios":"levelo://app?vid=06db7b38-d368-4168-a3af-68cb37ab41ea"},"vehicle_type_id":"4","last_reported":1737828664,"current_range_meters":10000,"station_id":"ce4bh012rcd13ifvqd00","pricing_plan_id":"cebpf4jnsgd1na2vs0mg"},{"bike_id":"0fc6b265-2619-43e0-affd-77dce8b2d2a3","system_id":"levelo_inurba_marseille","lat":43.31514,"lon":5.40361,"is_reserved":false,"is_disabled":false,"rental_uris":{"android":"levelo://app?vid=0fc6b265-2619-43e0-affd-77dce8b2d2a3","ios":"levelo://app?vid=0fc6b265-2619-43e0-affd-77dce8b2d2a3"},"vehicle_type_id":"4","last_reported":1737828664,"current_range_meters":22000,"station_id":"ce4bhqh2rcd13ifvqhmg","pricing_plan_id":"cebpf4jnsgd1na2vs0mg"},{"bike_id":"5acd6d4c-ef87-4c68-b129-dd7f9a07b39b","system_id":"levelo_inurba_marseille","lat":43.32654,"lon":5.40999,"is_reserved":false,"is_disabled":false,"rental_uris":{"android":"levelo://app?vid=5acd6d4c-ef87-4c68-b129-dd7f9a07b39b","ios":"levelo://app?vid=5acd6d4c-ef87-4c68-b129-dd7f9a07b39b"},"vehicle_type_id":"4","last_reported":1737828664,"current_range_meters":38800,"station_id":"ce4bhpp2rcd13ifvqhgg","pricing_plan_id":"cebpf4jnsgd1na2vs0mg"},{"bike_id":"f8f0e055-a936-4bf8-bbc6-ff72bbb394ca","system_id":"levelo_inurba_marseille","lat":43.30953,"lon":5.39036,"is_reserved":false,"is_disabled":false,"rental_uris":{"android":"levelo://app?vid=f8f0e055-a936-4bf8-bbc6-ff72bbb394ca","ios":"levelo://app?vid=f8f0e055-a936-4bf8-bbc6-ff72bbb394ca"},"vehicle_type_id":"4","last_reported":1737828664,"current_range_meters":19600,"station_id":"ce4bgup2rcd13ifvqco0","pricing_plan_id":"cebpf4jnsgd1na2vs0mg"},{"bike_id":"6a9e34c1-9f2c-44ed-af34-4f040d9ae6f3","system_id":"levelo_inurba_marseille","lat":43.29569,"lon":5.42261,"is_reserved":false,"is_disabled":false,"rental_uris":{"android":"levelo://app?vid=6a9e34c1-9f2c-44ed-af34-4f040d9ae6f3","ios":"levelo://app?vid=6a9e34c1-9f2c-44ed-af34-4f040d9ae6f3"},"vehicle_type_id":"4","last_reported":1737828664,"current_range_meters":22000,"station_id":"ce4bhph2rcd13ifvqhdg","pricing_plan_id":"cebpf4jnsgd1na2vs0mg"},{"bike_id":"7f94b57f-e0f8-45f0-8394-4dedd17df1a0","system_id":"levelo_inurba_marseille","lat":43.28453,"lon":5.39192,"is_reserved":false,"is_disabled":true,"rental_uris":{"android":"levelo://app?vid=7f94b57f-e0f8-45f0-8394-4dedd17df1a0","ios":"levelo://app?vid=7f94b57f-e0f8-45f0-8394-4dedd17df1a0"},"vehicle_type_id":"4","last_reported":1737828664,"current_range_meters":0,"station_id":"ce4bhoh2rcd13ifvqh5g","pricing_plan_id":"cebpf4jnsgd1na2vs0mg"},{"bike_id":"d310d1e2-9c45-4033-ae67-5460960ae570","system_id":"levelo_inurba_marseille","lat":43.31109,"lon":5.40026,"is_reserved":false,"is_disabled":false,"rental_uris":{"android":"levelo://app?vid=d310d1e2-9c45-4033-ae67-5460960ae570","ios":"levelo://app?vid=d310d1e2-9c45-4033-ae67-5460960ae570"},"vehicle_type_id":"4","last_reported":1737828664,"current_range_meters":20400,"station_id":"","pricing_plan_id":"cebpf4jnsgd1na2vs0mg"},{"bike_id":"f9c62656-c213-4d37-bccf-53ca245dbdbd","system_id":"levelo_inurba_marseille","lat":43.32639,"lon":5.39219,"is_reserved":false,"is_disabled":false,"rental_uris":{"android":"levelo://app?vid=f9c62656-c213-4d37-bccf-53ca245dbdbd","ios":"levelo://app?vid=f9c62656-c213-4d37-bccf-53ca245dbdbd"},"vehicle_type_id":"4","last_reported":1737828664,"current_range_meters":11600,"station_id":"","pricing_plan_id":"cebpf4jnsgd1na2vs0mg"},{"bike_id":"26d3de6a-b7db-4cd7-885c-9cb71bb28aa5","system_id":"levelo_inurba_marseille","lat":43.27374,"lon":5.36263,"is_reserved":false,"is_disabled":false,"rental_uris":{"android":"levelo://app?vid=26d3de6a-b7db-4cd7-885c-9cb71bb28aa5","ios":"levelo://app?vid=26d3de6a-b7db-4cd7-885c-9cb71bb28aa5"},"vehicle_type_id":"4","last_reported":1737828664,"current_range_meters":38400,"station_id":"ce4bhbh2rcd13ifvqeo0","pricing_plan_id":"cebpf4jnsgd1na2vs0mg"},{"bike_id":"7c78a755-c7f5-4f07-a96b-621451d47948","system_id":"levelo_inurba_marseille","lat":43.29903,"lon":5.43667,"is_reserved":false,"is_disabled":false,"rental_uris":{"android":"levelo://app?vid=7c78a755-c7f5-4f07-a96b-621451d47948","ios":"levelo://app?vid=7c78a755-c7f5-4f07-a96b-621451d47948"},"vehicle_type_id":"4","last_reported":1737828664,"current_range_meters":35600,"station_id":"ce4bhpp2rcd13ifvqhfg","pricing_plan_id":"cebpf4jnsgd1na2vs0mg"},{"bike_id":"9fe340fa-045d-4db7-bf8d-67f59ab57dfc","system_id":"levelo_inurba_marseille","lat":43.29272,"lon":5.36853,"is_reserved":false,"is_disabled":false,"rental_uris":{"android":"levelo://app?vid=9fe340fa-045d-4db7-bf8d-67f59ab57dfc","ios":"levelo://app?vid=9fe340fa-045d-4db7-bf8d-67f59ab57dfc"},"vehicle_type_id":"4","last_reported":1737828664,"current_range_meters":10800,"station_id":"ce4bhbp2rcd13ifvqesg","pricing_plan_id":"cebpf4jnsgd1na2vs0mg"},{"bike_id":"c69d1b2a-5537-4cf0-8c1d-991576479533","system_id":"levelo_inurba_marseille","lat":43.29166,"lon":5.37154,"is_reserved":false,"is_disabled":false,"rental_uris":{"android":"levelo://app?vid=c69d1b2a-5537-4cf0-8c1d-991576479533","ios":"levelo://app?vid=c69d1b2a-5537-4cf0-8c1d-991576479533"},"vehicle_type_id":"4","last_reported":1737828664,"current_range_meters":38800,"station_id":"ce4bha92rcd13ifvqeh0","pricing_plan_id":"cebpf4jnsgd1na2vs0mg"},{"bike_id":"a9d8de31-0dd9-4943-a5a7-a41649763c7b","system_id":"levelo_inurba_marseille","lat":43.26187,"lon":5.37448,"is_reserved":false,"is_disabled":false,"rental_uris":{"android":"levelo://app?vid=a9d8de31-0dd9-4943-a5a7-a41649763c7b","ios":"levelo://app?vid=a9d8de31-0dd9-4943-a5a7-a41649763c7b"},"vehicle_type_id":"4","last_reported":1737828664,"current_range_meters":16000,"station_id":"ce4bhgp2rcd13ifvqfc0","pricing_plan_id":"cebpf4jnsgd1na2vs0mg"},{"bike_id":"6f8dd015-bb08-4179-9c8a-8711c36856b8","system_id":"levelo_inurba_marseille","lat":43.30249,"lon":5.400599,"is_reserved":false,"is_disabled":false,"rental_uris":{"android":"levelo://app?vid=6f8dd015-bb08-4179-9c8a-8711c36856b8","ios":"levelo://app?vid=6f8dd015-bb08-4179-9c8a-8711c36856b8"},"vehicle_type_id":"4","last_reported":1737828664,"current_range_meters":22000,"station_id":"ce4bgvh2rcd13ifvqcs0","pricing_plan_id":"cebpf4jnsgd1na2vs0mg"},{"bike_id":"8586a018-4fea-4b1c-99a3-10529402c58c","system_id":"levelo_inurba_marseille","lat":43.29198,"lon":5.39317,"is_reserved":false,"is_disabled":false,"rental_uris":{"android":"levelo://app?vid=8586a018-4fea-4b1c-99a3-10529402c58c","ios":"levelo://app?vid=8586a018-4fea-4b1c-99a3-10529402c58c"},"vehicle_type_id":"4","last_reported":1737828664,"current_range_meters":3200,"station_id":"ce4bh192rcd13ifvqdd0","pricing_plan_id":"cebpf4jnsgd1na2vs0mg"},{"bike_id":"b88515f4-c0ae-406a-9ff9-71ba549bef06","system_id":"levelo_inurba_marseille","lat":43.23961,"lon":5.36623,"is_reserved":false,"is_disabled":true,"rental_uris":{"android":"levelo://app?vid=b88515f4-c0ae-406a-9ff9-71ba549bef06","ios":"levelo://app?vid=b88515f4-c0ae-406a-9ff9-71ba549bef06"},"vehicle_type_id":"4","last_reported":1737828664,"current_range_meters":1200,"station_id":"ce4bhi12rcd13ifvqfp0","pricing_plan_id":"cebpf4jnsgd1na2vs0mg"},{"bike_id":"a48a4fa8-387b-4ecc-bc7a-c3f07822bf47","system_id":"levelo_inurba_marseille","lat":43.27061,"lon":5.39232,"is_reserved":false,"is_disabled":true,"rental_uris":{"android":"levelo://app?vid=a48a4fa8-387b-4ecc-bc7a-c3f07822bf47","ios":"levelo://app?vid=a48a4fa8-387b-4ecc-bc7a-c3f07822bf47"},"vehicle_type_id":"4","last_reported":1737828664,"current_range_meters":0,"station_id":"","pricing_plan_id":"cebpf4jnsgd1na2vs0mg"},{"bike_id":"2b282691-3531-430e-8a08-0b5df2036c36","system_id":"levelo_inurba_marseille","lat":43.29873,"lon":5.39731,"is_reserved":false,"is_disabled":false,"rental_uris":{"android":"levelo://app?vid=2b282691-3531-430e-8a08-0b5df2036c36","ios":"levelo://app?vid=2b282691-3531-430e-8a08-0b5df2036c36"},"vehicle_type_id":"4","last_reported":1737828664,"current_range_meters":17600,"station_id":"ce4bh0h2rcd13ifvqd50","pricing_plan_id":"cebpf4jnsgd1na2vs0mg"},{"bike_id":"5b059397-def6-43a8-8ac7-c9f7afbc2013","system_id":"levelo_inurba_marseille","lat":43.28864,"lon":5.38797,"is_reserved":false,"is_disabled":true,"rental_uris":{"android":"levelo://app?vid=5b059397-def6-43a8-8ac7-c9f7afbc2013","ios":"levelo://app?vid=5b059397-def6-43a8-8ac7-c9f7afbc2013"},"vehicle_type_id":"4","last_reported":1737828664,"current_range_meters":1600,"station_id":"","pricing_plan_id":"cebpf4jnsgd1na2vs0mg"},{"bike_id":"44dbd9c0-b3f8-44a0-94df-41e3a299819c","system_id":"levelo_inurba_marseille","lat":43.26494,"lon":5.39545,"is_reserved":false,"is_disabled":false,"rental_uris":{"android":"levelo://app?vid=44dbd9c0-b3f8-44a0-94df-41e3a299819c","ios":"levelo://app?vid=44dbd9c0-b3f8-44a0-94df-41e3a299819c"},"vehicle_type_id":"4","last_reported":1737828664,"current_range_meters":11200,"station_id":"ce4bhi12rcd13ifvqfq0","pricing_plan_id":"cebpf4jnsgd1na2vs0mg"},{"bike_id":"8fd0082a-8558-471d-bd5c-8f2bb03de120","system_id":"levelo_inurba_marseille","lat":43.287183,"lon":5.399896,"is_reserved":false,"is_disabled":true,"rental_uris":{"android":"levelo://app?vid=8fd0082a-8558-471d-bd5c-8f2bb03de120","ios":"levelo://app?vid=8fd0082a-8558-471d-bd5c-8f2bb03de120"},"vehicle_type_id":"4","last_reported":1737828664,"current_range_meters":30000,"station_id":"ce4bho92rcd13ifvqh3g","pricing_plan_id":"cebpf4jnsgd1na2vs0mg"},{"bike_id":"d366cae2-82ff-4e64-9fca-0a14d02521b6","system_id":"levelo_inurba_marseille","lat":43.31073,"lon":5.38381,"is_reserved":false,"is_disabled":true,"rental_uris":{"android":"levelo://app?vid=d366cae2-82ff-4e64-9fca-0a14d02521b6","ios":"levelo://app?vid=d366cae2-82ff-4e64-9fca-0a14d02521b6"},"vehicle_type_id":"4","last_reported":1737828664,"current_range_meters":0,"station_id":"ce4bgv92rcd13ifvqcr0","pricing_plan_id":"cebpf4jnsgd1na2vs0mg"},{"bike_id":"0bede117-b7f8-483b-9e15-3bf7e60cfde0","system_id":"levelo_inurba_marseille","lat":43.2977,"lon":5.37096,"is_reserved":false,"is_disabled":false,"rental_uris":{"android":"levelo://app?vid=0bede117-b7f8-483b-9e15-3bf7e60cfde0","ios":"levelo://app?vid=0bede117-b7f8-483b-9e15-3bf7e60cfde0"},"vehicle_type_id":"4","last_reported":1737828664,"current_range_meters":38800,"station_id":"ce4bgop2rcd13ifvqc1g","pricing_plan_id":"cebpf4jnsgd1na2vs0mg"},{"bike_id":"001597bf-a1f7-42cb-baa4-52ce3f1a761a","system_id":"levelo_inurba_marseille","lat":43.28149,"lon":5.42645,"is_reserved":false,"is_disabled":false,"rental_uris":{"android":"levelo://app?vid=001597bf-a1f7-42cb-baa4-52ce3f1a761a","ios":"levelo://app?vid=001597bf-a1f7-42cb-baa4-52ce3f1a761a"},"vehicle_type_id":"4","last_reported":1737828664,"current_range_meters":8800,"station_id":"ce4bhnh2rcd13ifvqgug","pricing_plan_id":"cebpf4jnsgd1na2vs0mg"},{"bike_id":"504435f9-097a-4ce2-af79-57b8a70f5403","system_id":"levelo_inurba_marseille","lat":43.299708,"lon":5.384911,"is_reserved":false,"is_disabled":false,"rental_uris":{"android":"levelo://app?vid=504435f9-097a-4ce2-af79-57b8a70f5403","ios":"levelo://app?vid=504435f9-097a-4ce2-af79-57b8a70f5403"},"vehicle_type_id":"4","last_reported":1737828664,"current_range_meters":34800,"station_id":"ce4bgj92rcd13ifvqbd0","pricing_plan_id":"cebpf4jnsgd1na2vs0mg"},{"bike_id":"baca95ea-ad6e-437b-b628-a29897d78a58","system_id":"levelo_inurba_marseille","lat":43.29974,"lon":5.38499,"is_reserved":false,"is_disabled":false,"rental_uris":{"android":"levelo://app?vid=baca95ea-ad6e-437b-b628-a29897d78a58","ios":"levelo://app?vid=baca95ea-ad6e-437b-b628-a29897d78a58"},"vehicle_type_id":"4","last_reported":1737828664,"current_range_meters":38800,"station_id":"ce4bgj92rcd13ifvqbd0","pricing_plan_id":"cebpf4jnsgd1na2vs0mg"},{"bike_id":"b996c87f-d903-42b5-80db-0cef1eda72fd","system_id":"levelo_inurba_marseille","lat":43.23065,"lon":5.35495,"is_reserved":false,"is_disabled":false,"rental_uris":{"android":"levelo://app?vid=b996c87f-d903-42b5-80db-0cef1eda72fd","ios":"levelo://app?vid=b996c87f-d903-42b5-80db-0cef1eda72fd"},"vehicle_type_id":"4","last_reported":1737828664,"current_range_meters":8400,"station_id":"cpo3342slgdg3j2ifvpg","pricing_plan_id":"cebpf4jnsgd1na2vs0mg"},{"bike_id":"323d4be9-bd67-43e2-8721-837d10bc21f2","system_id":"levelo_inurba_marseille","lat":43.29415,"lon":5.38624,"is_reserved":false,"is_disabled":false,"rental_uris":{"android":"levelo://app?vid=323d4be9-bd67-43e2-8721-837d10bc21f2","ios":"levelo://app?vid=323d4be9-bd67-43e2-8721-837d10bc21f2"},"vehicle_type_id":"4","last_reported":1737828664,"current_range_meters":36800,"station_id":"ce4bh2h2rcd13ifvqdh0","pricing_plan_id":"cebpf4jnsgd1na2vs0mg"},{"bike_id":"9ac6df9c-934d-4765-89a0-d998eb54f95e","system_id":"levelo_inurba_marseille","lat":43.29534,"lon":5.38541,"is_reserved":false,"is_disabled":false,"rental_uris":{"android":"levelo://app?vid=9ac6df9c-934d-4765-89a0-d998eb54f95e","ios":"levelo://app?vid=9ac6df9c-934d-4765-89a0-d998eb54f95e"},"vehicle_type_id":"4","last_reported":1737828664,"current_range_meters":28000,"station_id":"ce4bgih2rcd13ifvqba0","pricing_plan_id":"cebpf4jnsgd1na2vs0mg"},{"bike_id":"9353a8c9-0fb0-4e94-853c-ea392ad3a4d6","system_id":"levelo_inurba_marseille","lat":43.33025,"lon":5.39047,"is_reserved":false,"is_disabled":false,"rental_uris":{"android":"levelo://app?vid=9353a8c9-0fb0-4e94-853c-ea392ad3a4d6","ios":"levelo://app?vid=9353a8c9-0fb0-4e94-853c-ea392ad3a4d6"},"vehicle_type_id":"4","last_reported":1737828664,"current_range_meters":27600,"station_id":"ce4bhr92rcd13ifvqhrg","pricing_plan_id":"cebpf4jnsgd1na2vs0mg"},{"bike_id":"882e4d97-ad36-4f32-b0ee-359384324109","system_id":"levelo_inurba_marseille","lat":43.29896,"lon":5.38122,"is_reserved":false,"is_disabled":false,"rental_uris":{"android":"levelo://app?vid=882e4d97-ad36-4f32-b0ee-359384324109","ios":"levelo://app?vid=882e4d97-ad36-4f32-b0ee-359384324109"},"vehicle_type_id":"4","last_reported":1737828664,"current_range_meters":31200,"station_id":"ce4bgj12rcd13ifvqbc0","pricing_plan_id":"cebpf4jnsgd1na2vs0mg"},{"bike_id":"74ec7b73-5944-4727-a553-9a42f094efbc","system_id":"levelo_inurba_marseille","lat":43.29295,"lon":5.37454,"is_reserved":false,"is_disabled":false,"rental_uris":{"android":"levelo://app?vid=74ec7b73-5944-4727-a553-9a42f094efbc","ios":"levelo://app?vid=74ec7b73-5944-4727-a553-9a42f094efbc"},"vehicle_type_id":"4","last_reported":1737828664,"current_range_meters":39200,"station_id":"ce4bgi12rcd13ifvqb70","pricing_plan_id":"cebpf4jnsgd1na2vs0mg"},{"bike_id":"84466c0c-6271-4e0d-90a2-73cb451c9a4f","system_id":"levelo_inurba_marseille","lat":43.26805,"lon":5.40266,"is_reserved":false,"is_disabled":false,"rental_uris":{"android":"levelo://app?vid=84466c0c-6271-4e0d-90a2-73cb451c9a4f","ios":"levelo://app?vid=84466c0c-6271-4e0d-90a2-73cb451c9a4f"},"vehicle_type_id":"4","last_reported":1737828664,"current_range_meters":8800,"station_id":"ce501612rcd8frsf0b60","pricing_plan_id":"cebpf4jnsgd1na2vs0mg"},{"bike_id":"74541591-fb7d-43ae-a5c9-934ab206ff98","system_id":"levelo_inurba_marseille","lat":43.30806,"lon":5.38151,"is_reserved":false,"is_disabled":false,"rental_uris":{"android":"levelo://app?vid=74541591-fb7d-43ae-a5c9-934ab206ff98","ios":"levelo://app?vid=74541591-fb7d-43ae-a5c9-934ab206ff98"},"vehicle_type_id":"4","last_reported":1737828664,"current_range_meters":38400,"station_id":"ce4bgt12rcd13ifvqce0","pricing_plan_id":"cebpf4jnsgd1na2vs0mg"},{"bike_id":"35b4539c-ff66-40b1-b56f-a956749f9d8a","system_id":"levelo_inurba_marseille","lat":43.32663,"lon":5.4098,"is_reserved":false,"is_disabled":true,"rental_uris":{"android":"levelo://app?vid=35b4539c-ff66-40b1-b56f-a956749f9d8a","ios":"levelo://app?vid=35b4539c-ff66-40b1-b56f-a956749f9d8a"},"vehicle_type_id":"4","last_reported":1737828664,"current_range_meters":0,"station_id":"ce4bhpp2rcd13ifvqhgg","pricing_plan_id":"cebpf4jnsgd1na2vs0mg"},{"bike_id":"d5d932cd-00ef-4374-a2a5-9e2b3b96d9a7","system_id":"levelo_inurba_marseille","lat":43.29891,"lon":5.39746,"is_reserved":false,"is_disabled":false,"rental_uris":{"android":"levelo://app?vid=d5d932cd-00ef-4374-a2a5-9e2b3b96d9a7","ios":"levelo://app?vid=d5d932cd-00ef-4374-a2a5-9e2b3b96d9a7"},"vehicle_type_id":"4","last_reported":1737828664,"current_range_meters":39200,"station_id":"ce4bh0h2rcd13ifvqd50","pricing_plan_id":"cebpf4jnsgd1na2vs0mg"},{"bike_id":"8d4ddec4-c5b1-4949-8b22-91bcf0236bb4","system_id":"levelo_inurba_marseille","lat":43.24641,"lon":5.38915,"is_reserved":false,"is_disabled":false,"rental_uris":{"android":"levelo://app?vid=8d4ddec4-c5b1-4949-8b22-91bcf0236bb4","ios":"levelo://app?vid=8d4ddec4-c5b1-4949-8b22-91bcf0236bb4"},"vehicle_type_id":"4","last_reported":1737828664,"current_range_meters":38800,"station_id":"ce4bhg12rcd13ifvqf60","pricing_plan_id":"cebpf4jnsgd1na2vs0mg"},{"bike_id":"3d98c6ce-e80d-46e8-b577-648cd8c28632","system_id":"levelo_inurba_marseille","lat":43.30418,"lon":5.36681,"is_reserved":false,"is_disabled":false,"rental_uris":{"android":"levelo://app?vid=3d98c6ce-e80d-46e8-b577-648cd8c28632","ios":"levelo://app?vid=3d98c6ce-e80d-46e8-b577-648cd8c28632"},"vehicle_type_id":"4","last_reported":1737828664,"current_range_meters":19200,"station_id":"","pricing_plan_id":"cebpf4jnsgd1na2vs0mg"},{"bike_id":"86167669-87ec-46d8-942a-1b0cb002dce8","system_id":"levelo_inurba_marseille","lat":43.29377,"lon":5.40066,"is_reserved":false,"is_disabled":true,"rental_uris":{"android":"levelo://app?vid=86167669-87ec-46d8-942a-1b0cb002dce8","ios":"levelo://app?vid=86167669-87ec-46d8-942a-1b0cb002dce8"},"vehicle_type_id":"4","last_reported":1737828664,"current_range_meters":28400,"station_id":"","pricing_plan_id":"cebpf4jnsgd1na2vs0mg"},{"bike_id":"10a16e86-bffa-4f98-b4ba-0b88a73eeab1","system_id":"levelo_inurba_marseille","lat":43.29412,"lon":5.3865,"is_reserved":false,"is_disabled":false,"rental_uris":{"android":"levelo://app?vid=10a16e86-bffa-4f98-b4ba-0b88a73eeab1","ios":"levelo://app?vid=10a16e86-bffa-4f98-b4ba-0b88a73eeab1"},"vehicle_type_id":"4","last_reported":1737828664,"current_range_meters":8000,"station_id":"ce4bh2h2rcd13ifvqdh0","pricing_plan_id":"cebpf4jnsgd1na2vs0mg"},{"bike_id":"16cba4e1-cb10-44ef-b1a1-eca95385335f","system_id":"levelo_inurba_marseille","lat":43.28421,"lon":5.35,"is_reserved":false,"is_disabled":true,"rental_uris":{"android":"levelo://app?vid=16cba4e1-cb10-44ef-b1a1-eca95385335f","ios":"levelo://app?vid=16cba4e1-cb10-44ef-b1a1-eca95385335f"},"vehicle_type_id":"4","last_reported":1737828664,"current_range_meters":16000,"station_id":"ce4bhbh2rcd13ifvqepg","pricing_plan_id":"cebpf4jnsgd1na2vs0mg"},{"bike_id":"b77efc8b-41fe-4709-b58e-05026c2b2ca6","system_id":"levelo_inurba_marseille","lat":43.30797,"lon":5.43516,"is_reserved":false,"is_disabled":false,"rental_uris":{"android":"levelo://app?vid=b77efc8b-41fe-4709-b58e-05026c2b2ca6","ios":"levelo://app?vid=b77efc8b-41fe-4709-b58e-05026c2b2ca6"},"vehicle_type_id":"4","last_reported":1737828664,"current_range_meters":20400,"station_id":"ce4bhph2rcd13ifvqheg","pricing_plan_id":"cebpf4jnsgd1na2vs0mg"},{"bike_id":"8fc5f132-29ed-47c1-bff0-bf17728d82ae","system_id":"levelo_inurba_marseille","lat":43.29378,"lon":5.37857,"is_reserved":false,"is_disabled":true,"rental_uris":{"android":"levelo://app?vid=8fc5f132-29ed-47c1-bff0-bf17728d82ae","ios":"levelo://app?vid=8fc5f132-29ed-47c1-bff0-bf17728d82ae"},"vehicle_type_id":"4","last_reported":1737828664,"current_range_meters":37600,"station_id":"ce4bgjh2rcd13ifvqbf0","pricing_plan_id":"cebpf4jnsgd1na2vs0mg"},{"bike_id":"5f8ee669-dbac-4c91-b474-6f128339f560","system_id":"levelo_inurba_marseille","lat":43.29422,"lon":5.38632,"is_reserved":false,"is_disabled":false,"rental_uris":{"android":"levelo://app?vid=5f8ee669-dbac-4c91-b474-6f128339f560","ios":"levelo://app?vid=5f8ee669-dbac-4c91-b474-6f128339f560"},"vehicle_type_id":"4","last_reported":1737828664,"current_range_meters":28400,"station_id":"ce4bh2h2rcd13ifvqdh0","pricing_plan_id":"cebpf4jnsgd1na2vs0mg"},{"bike_id":"e9f8b0cf-c871-4326-b898-8a66766f0a8f","system_id":"levelo_inurba_marseille","lat":43.33023,"lon":5.39037,"is_reserved":false,"is_disabled":false,"rental_uris":{"android":"levelo://app?vid=e9f8b0cf-c871-4326-b898-8a66766f0a8f","ios":"levelo://app?vid=e9f8b0cf-c871-4326-b898-8a66766f0a8f"},"vehicle_type_id":"4","last_reported":1737828664,"current_range_meters":38000,"station_id":"ce4bhr92rcd13ifvqhrg","pricing_plan_id":"cebpf4jnsgd1na2vs0mg"},{"bike_id":"188a9add-d2d2-45ca-8579-076c65fcd94d","system_id":"levelo_inurba_marseille","lat":43.293,"lon":5.37466,"is_reserved":false,"is_disabled":false,"rental_uris":{"android":"levelo://app?vid=188a9add-d2d2-45ca-8579-076c65fcd94d","ios":"levelo://app?vid=188a9add-d2d2-45ca-8579-076c65fcd94d"},"vehicle_type_id":"4","last_reported":1737828664,"current_range_meters":14000,"station_id":"ce4bgi12rcd13ifvqb70","pricing_plan_id":"cebpf4jnsgd1na2vs0mg"},{"bike_id":"7647b86e-0f6e-4adb-a138-c9688bcaf08b","system_id":"levelo_inurba_marseille","lat":43.29702,"lon":5.36608,"is_reserved":false,"is_disabled":false,"rental_uris":{"android":"levelo://app?vid=7647b86e-0f6e-4adb-a138-c9688bcaf08b","ios":"levelo://app?vid=7647b86e-0f6e-4adb-a138-c9688bcaf08b"},"vehicle_type_id":"4","last_reported":1737828664,"current_range_meters":38000,"station_id":"ce4bgn12rcd13ifvqbt0","pricing_plan_id":"cebpf4jnsgd1na2vs0mg"},{"bike_id":"c08e7b2f-e829-4ab0-b741-4cc16102febe","system_id":"levelo_inurba_marseille","lat":43.30445,"lon":5.38864,"is_reserved":false,"is_disabled":false,"rental_uris":{"android":"levelo://app?vid=c08e7b2f-e829-4ab0-b741-4cc16102febe","ios":"levelo://app?vid=c08e7b2f-e829-4ab0-b741-4cc16102febe"},"vehicle_type_id":"4","last_reported":1737828664,"current_range_meters":8000,"station_id":"ce4bgk12rcd13ifvqbi0","pricing_plan_id":"cebpf4jnsgd1na2vs0mg"},{"bike_id":"69af696e-6418-4fbf-bb04-b2b7443b06af","system_id":"levelo_inurba_marseille","lat":43.29025,"lon":5.38146,"is_reserved":false,"is_disabled":false,"rental_uris":{"android":"levelo://app?vid=69af696e-6418-4fbf-bb04-b2b7443b06af","ios":"levelo://app?vid=69af696e-6418-4fbf-bb04-b2b7443b06af"},"vehicle_type_id":"4","last_reported":1737828664,"current_range_meters":4000,"station_id":"ce4bh4p2rcd13ifvqe1g","pricing_plan_id":"cebpf4jnsgd1na2vs0mg"},{"bike_id":"51d20cf7-8cb9-417e-8bfb-8e1d86735dad","system_id":"levelo_inurba_marseille","lat":43.28675,"lon":5.38664,"is_reserved":false,"is_disabled":false,"rental_uris":{"android":"levelo://app?vid=51d20cf7-8cb9-417e-8bfb-8e1d86735dad","ios":"levelo://app?vid=51d20cf7-8cb9-417e-8bfb-8e1d86735dad"},"vehicle_type_id":"4","last_reported":1737828664,"current_range_meters":17200,"station_id":"ce4bh492rcd13ifvqdug","pricing_plan_id":"cebpf4jnsgd1na2vs0mg"},{"bike_id":"f4a67fd7-7ba0-462e-b321-724410a83bc3","system_id":"levelo_inurba_marseille","lat":43.28611,"lon":5.35096,"is_reserved":false,"is_disabled":true,"rental_uris":{"android":"levelo://app?vid=f4a67fd7-7ba0-462e-b321-724410a83bc3","ios":"levelo://app?vid=f4a67fd7-7ba0-462e-b321-724410a83bc3"},"vehicle_type_id":"4","last_reported":1737828664,"current_range_meters":16400,"station_id":"ce4bhch2rcd13ifvqeug","pricing_plan_id":"cebpf4jnsgd1na2vs0mg"},{"bike_id":"448c1f11-d237-40ab-b6ad-740df4108ed1","system_id":"levelo_inurba_marseille","lat":43.26499,"lon":5.39544,"is_reserved":false,"is_disabled":false,"rental_uris":{"android":"levelo://app?vid=448c1f11-d237-40ab-b6ad-740df4108ed1","ios":"levelo://app?vid=448c1f11-d237-40ab-b6ad-740df4108ed1"},"vehicle_type_id":"4","last_reported":1737828664,"current_range_meters":3200,"station_id":"ce4bhi12rcd13ifvqfq0","pricing_plan_id":"cebpf4jnsgd1na2vs0mg"},{"bike_id":"7fe25b4b-cab4-481a-8b60-fa5158ed7f56","system_id":"levelo_inurba_marseille","lat":43.2928,"lon":5.36844,"is_reserved":false,"is_disabled":false,"rental_uris":{"android":"levelo://app?vid=7fe25b4b-cab4-481a-8b60-fa5158ed7f56","ios":"levelo://app?vid=7fe25b4b-cab4-481a-8b60-fa5158ed7f56"},"vehicle_type_id":"4","last_reported":1737828664,"current_range_meters":22400,"station_id":"ce4bhbp2rcd13ifvqesg","pricing_plan_id":"cebpf4jnsgd1na2vs0mg"},{"bike_id":"e7baa8f4-0eae-4f93-8b25-2287a5a5b4d0","system_id":"levelo_inurba_marseille","lat":43.29257,"lon":5.38439,"is_reserved":false,"is_disabled":false,"rental_uris":{"android":"levelo://app?vid=e7baa8f4-0eae-4f93-8b25-2287a5a5b4d0","ios":"levelo://app?vid=e7baa8f4-0eae-4f93-8b25-2287a5a5b4d0"},"vehicle_type_id":"4","last_reported":1737828664,"current_range_meters":32000,"station_id":"ce4bh692rcd13ifvqea0","pricing_plan_id":"cebpf4jnsgd1na2vs0mg"},{"bike_id":"7779e28d-a91b-493e-83cf-08a9195c73c5","system_id":"levelo_inurba_marseille","lat":43.29288,"lon":5.36828,"is_reserved":false,"is_disabled":false,"rental_uris":{"android":"levelo://app?vid=7779e28d-a91b-493e-83cf-08a9195c73c5","ios":"levelo://app?vid=7779e28d-a91b-493e-83cf-08a9195c73c5"},"vehicle_type_id":"4","last_reported":1737828664,"current_range_meters":38800,"station_id":"ce4bhbp2rcd13ifvqesg","pricing_plan_id":"cebpf4jnsgd1na2vs0mg"},{"bike_id":"34ad125d-ed2e-4b82-84f0-6e7b5ceef009","system_id":"levelo_inurba_marseille","lat":43.28852,"lon":5.39322,"is_reserved":false,"is_disabled":false,"rental_uris":{"android":"levelo://app?vid=34ad125d-ed2e-4b82-84f0-6e7b5ceef009","ios":"levelo://app?vid=34ad125d-ed2e-4b82-84f0-6e7b5ceef009"},"vehicle_type_id":"4","last_reported":1737828664,"current_range_meters":26000,"station_id":"ce4bh2p2rcd13ifvqdi0","pricing_plan_id":"cebpf4jnsgd1na2vs0mg"},{"bike_id":"a0a7eaaa-48bd-4be7-a329-3c746288a46b","system_id":"levelo_inurba_marseille","lat":43.29449,"lon":5.39758,"is_reserved":false,"is_disabled":true,"rental_uris":{"android":"levelo://app?vid=a0a7eaaa-48bd-4be7-a329-3c746288a46b","ios":"levelo://app?vid=a0a7eaaa-48bd-4be7-a329-3c746288a46b"},"vehicle_type_id":"4","last_reported":1737828664,"current_range_meters":22800,"station_id":"ce4bh3h2rcd13ifvqdo0","pricing_plan_id":"cebpf4jnsgd1na2vs0mg"},{"bike_id":"bad9e39c-1f64-4340-aaf7-44b2cfb96c17","system_id":"levelo_inurba_marseille","lat":43.32039,"lon":5.41548,"is_reserved":false,"is_disabled":false,"rental_uris":{"android":"levelo://app?vid=bad9e39c-1f64-4340-aaf7-44b2cfb96c17","ios":"levelo://app?vid=bad9e39c-1f64-4340-aaf7-44b2cfb96c17"},