{"last_updated":1727903403,"ttl":60,"version":"2.2","data":{"bikes":[{"bike_id":"56edf063-4465-4465-8fba-a922b551198c","system_id":"levelo_inurba_marseille","lat":43.28456,"lon":5.35892,"is_reserved":false,"is_disabled":false,"rental_uris":{"android":"levelo://app?vid=56edf063-4465-4465-8fba-a922b551198c","ios":"levelo://app?vid=56edf063-4465-4465-8fba-a922b551198c"},"vehicle_type_id":"4","last_reported":1727903404,"current_range_meters":9200,"station_id":"ce4bhah2rcd13ifvqei0","pricing_plan_id":"cebpf4jnsgd1na2vs0mg"},{"bike_id":"8bc0aa01-1d61-49ab-973d-784704f64634","system_id":"levelo_inurba_marseille","lat":43.30151,"lon":5.36507,"is_reserved":false,"is_disabled":false,"rental_uris":{"android":"levelo://app?vid=8bc0aa01-1d61-49ab-973d-784704f64634","ios":"levelo://app?vid=8bc0aa01-1d61-49ab-973d-784704f64634"},"vehicle_type_id":"4","last_reported":1727903404,"current_range_meters":9600,"station_id":"","pricing_plan_id":"cebpf4jnsgd1na2vs0mg"},{"bike_id":"9fcb4fa3-22c0-447c-9c4b-cd3b15a26793","system_id":"levelo_inurba_marseille","lat":43.31171,"lon":5.38709,"is_reserved":false,"is_disabled":false,"rental_uris":{"android":"levelo://app?vid=9fcb4fa3-22c0-447c-9c4b-cd3b15a26793","ios":"levelo://app?vid=9fcb4fa3-22c0-447c-9c4b-cd3b15a26793"},"vehicle_type_id":"4","last_reported":1727903404,"current_range_meters":37600,"station_id":"ce4bgv12rcd13ifvqcp0","pricing_plan_id":"cebpf4jnsgd1na2vs0mg"},{"bike_id":"ff95fd71-a032-4106-b338-dfc900b7311c","system_id":"levelo_inurba_marseille","lat":43.28161,"lon":5.4265,"is_reserved":false,"is_disabled":false,"rental_uris":{"android":"levelo://app?vid=ff95fd71-a032-4106-b338-dfc900b7311c","ios":"levelo://app?vid=ff95fd71-a032-4106-b338-dfc900b7311c"},"vehicle_type_id":"4","last_reported":1727903404,"current_range_meters":5600,"station_id":"ce4bhnh2rcd13ifvqgug","pricing_plan_id":"cebpf4jnsgd1na2vs0mg"},{"bike_id":"b8d32f9e-42f8-4564-8290-6be3e340ccec","system_id":"levelo_inurba_marseille","lat":43.28031,"lon":5.36952,"is_reserved":false,"is_disabled":false,"rental_uris":{"android":"levelo://app?vid=b8d32f9e-42f8-4564-8290-6be3e340ccec","ios":"levelo://app?vid=b8d32f9e-42f8-4564-8290-6be3e340ccec"},"vehicle_type_id":"4","last_reported":1727903404,"current_range_meters":11600,"station_id":"ce4bha12rcd13ifvqef0","pricing_plan_id":"cebpf4jnsgd1na2vs0mg"},{"bike_id":"9c492e13-5c31-425d-b51e-ab3cf1364e42","system_id":"levelo_inurba_marseille","lat":43.266881,"lon":5.382796,"is_reserved":false,"is_disabled":false,"rental_uris":{"android":"levelo://app?vid=9c492e13-5c31-425d-b51e-ab3cf1364e42","ios":"levelo://app?vid=9c492e13-5c31-425d-b51e-ab3cf1364e42"},"vehicle_type_id":"4","last_reported":1727903404,"current_range_meters":37600,"station_id":"ce4bhg92rcd13ifvqf90","pricing_plan_id":"cebpf4jnsgd1na2vs0mg"},{"bike_id":"df4ec099-b188-48ab-96c7-11a1ce7c7011","system_id":"levelo_inurba_marseille","lat":43.24657,"lon":5.38905,"is_reserved":false,"is_disabled":false,"rental_uris":{"android":"levelo://app?vid=df4ec099-b188-48ab-96c7-11a1ce7c7011","ios":"levelo://app?vid=df4ec099-b188-48ab-96c7-11a1ce7c7011"},"vehicle_type_id":"4","last_reported":1727903404,"current_range_meters":14400,"station_id":"ce4bhg12rcd13ifvqf60","pricing_plan_id":"cebpf4jnsgd1na2vs0mg"},{"bike_id":"9ade3805-4c4b-4f13-84dc-cbed8d16c5b1","system_id":"levelo_inurba_marseille","lat":43.27997,"lon":5.40019,"is_reserved":false,"is_disabled":false,"rental_uris":{"android":"levelo://app?vid=9ade3805-4c4b-4f13-84dc-cbed8d16c5b1","ios":"levelo://app?vid=9ade3805-4c4b-4f13-84dc-cbed8d16c5b1"},"vehicle_type_id":"4","last_reported":1727903404,"current_range_meters":36000,"station_id":"ce4bho92rcd13ifvqh4g","pricing_plan_id":"cebpf4jnsgd1na2vs0mg"},{"bike_id":"a955c07c-7411-4978-bdef-3a223f18e310","system_id":"levelo_inurba_marseille","lat":43.28853,"lon":5.3586,"is_reserved":false,"is_disabled":false,"rental_uris":{"android":"levelo://app?vid=a955c07c-7411-4978-bdef-3a223f18e310","ios":"levelo://app?vid=a955c07c-7411-4978-bdef-3a223f18e310"},"vehicle_type_id":"4","last_reported":1727903404,"current_range_meters":36000,"station_id":"ce4bhb12rcd13ifvqem0","pricing_plan_id":"cebpf4jnsgd1na2vs0mg"},{"bike_id":"ff89b7e6-8dbb-4502-ae6b-954b46feae02","system_id":"levelo_inurba_marseille","lat":43.25006,"lon":5.38921,"is_reserved":false,"is_disabled":false,"rental_uris":{"android":"levelo://app?vid=ff89b7e6-8dbb-4502-ae6b-954b46feae02","ios":"levelo://app?vid=ff89b7e6-8dbb-4502-ae6b-954b46feae02"},"vehicle_type_id":"4","last_reported":1727903404,"current_range_meters":38800,"station_id":"ce4bhgp2rcd13ifvqfd0","pricing_plan_id":"cebpf4jnsgd1na2vs0mg"},{"bike_id":"bc41810d-3fc6-4e9c-bcc1-3b1d7bce3ce2","system_id":"levelo_inurba_marseille","lat":43.23184,"lon":5.39981,"is_reserved":false,"is_disabled":false,"rental_uris":{"android":"levelo://app?vid=bc41810d-3fc6-4e9c-bcc1-3b1d7bce3ce2","ios":"levelo://app?vid=bc41810d-3fc6-4e9c-bcc1-3b1d7bce3ce2"},"vehicle_type_id":"4","last_reported":1727903404,"current_range_meters":27600,"station_id":"ce4bhn12rcd13ifvqgqg","pricing_plan_id":"cebpf4jnsgd1na2vs0mg"},{"bike_id":"105019b0-87a5-46e0-a5f9-e33b57491653","system_id":"levelo_inurba_marseille","lat":43.2408,"lon":5.37757,"is_reserved":false,"is_disabled":false,"rental_uris":{"android":"levelo://app?vid=105019b0-87a5-46e0-a5f9-e33b57491653","ios":"levelo://app?vid=105019b0-87a5-46e0-a5f9-e33b57491653"},"vehicle_type_id":"4","last_reported":1727903404,"current_range_meters":38800,"station_id":"ce4bhnp2rcd13ifvqgvg","pricing_plan_id":"cebpf4jnsgd1na2vs0mg"},{"bike_id":"4b6721b8-1a28-4ce5-a9fa-1b893f7f0ac0","system_id":"levelo_inurba_marseille","lat":43.32491,"lon":5.36556,"is_reserved":false,"is_disabled":false,"rental_uris":{"android":"levelo://app?vid=4b6721b8-1a28-4ce5-a9fa-1b893f7f0ac0","ios":"levelo://app?vid=4b6721b8-1a28-4ce5-a9fa-1b893f7f0ac0"},"vehicle_type_id":"4","last_reported":1727903404,"current_range_meters":40000,"station_id":"ce4bhs12rcd13ifvqhvg","pricing_plan_id":"cebpf4jnsgd1na2vs0mg"},{"bike_id":"56991410-d98c-48b7-8ffa-26c899931d2b","system_id":"levelo_inurba_marseille","lat":43.28032,"lon":5.36941,"is_reserved":false,"is_disabled":false,"rental_uris":{"android":"levelo://app?vid=56991410-d98c-48b7-8ffa-26c899931d2b","ios":"levelo://app?vid=56991410-d98c-48b7-8ffa-26c899931d2b"},"vehicle_type_id":"4","last_reported":1727903404,"current_range_meters":19200,"station_id":"ce4bha12rcd13ifvqef0","pricing_plan_id":"cebpf4jnsgd1na2vs0mg"},{"bike_id":"3321b570-086d-4091-a24d-ba1d97ba7ad9","system_id":"levelo_inurba_marseille","lat":43.27984,"lon":5.4166,"is_reserved":false,"is_disabled":false,"rental_uris":{"android":"levelo://app?vid=3321b570-086d-4091-a24d-ba1d97ba7ad9","ios":"levelo://app?vid=3321b570-086d-4091-a24d-ba1d97ba7ad9"},"vehicle_type_id":"4","last_reported":1727903404,"current_range_meters":14800,"station_id":"ce4bho12rcd13ifvqh1g","pricing_plan_id":"cebpf4jnsgd1na2vs0mg"},{"bike_id":"a55fd103-df0f-40ea-9c6b-3f6ab24d0c8e","system_id":"levelo_inurba_marseille","lat":43.31762,"lon":5.39023,"is_reserved":false,"is_disabled":false,"rental_uris":{"android":"levelo://app?vid=a55fd103-df0f-40ea-9c6b-3f6ab24d0c8e","ios":"levelo://app?vid=a55fd103-df0f-40ea-9c6b-3f6ab24d0c8e"},"vehicle_type_id":"4","last_reported":1727903404,"current_range_meters":38400,"station_id":"ce4bhqp2rcd13ifvqhng","pricing_plan_id":"cebpf4jnsgd1na2vs0mg"},{"bike_id":"470f2d44-5abb-4482-b043-0a7825232744","system_id":"levelo_inurba_marseille","lat":43.30924,"lon":5.40145,"is_reserved":false,"is_disabled":false,"rental_uris":{"android":"levelo://app?vid=470f2d44-5abb-4482-b043-0a7825232744","ios":"levelo://app?vid=470f2d44-5abb-4482-b043-0a7825232744"},"vehicle_type_id":"4","last_reported":1727903404,"current_range_meters":20000,"station_id":"ce4bgvp2rcd13ifvqct0","pricing_plan_id":"cebpf4jnsgd1na2vs0mg"},{"bike_id":"8c6bba2b-8164-4661-aca3-27cd3afa4391","system_id":"levelo_inurba_marseille","lat":43.28857,"lon":5.39309,"is_reserved":false,"is_disabled":false,"rental_uris":{"android":"levelo://app?vid=8c6bba2b-8164-4661-aca3-27cd3afa4391","ios":"levelo://app?vid=8c6bba2b-8164-4661-aca3-27cd3afa4391"},"vehicle_type_id":"4","last_reported":1727903404,"current_range_meters":30400,"station_id":"ce4bh2p2rcd13ifvqdi0","pricing_plan_id":"cebpf4jnsgd1na2vs0mg"},{"bike_id":"989ed9ab-6dd3-4dcf-a381-79f990781f0e","system_id":"levelo_inurba_marseille","lat":43.28846,"lon":5.39309,"is_reserved":false,"is_disabled":false,"rental_uris":{"android":"levelo://app?vid=989ed9ab-6dd3-4dcf-a381-79f990781f0e","ios":"levelo://app?vid=989ed9ab-6dd3-4dcf-a381-79f990781f0e"},"vehicle_type_id":"4","last_reported":1727903404,"current_range_meters":24800,"station_id":"ce4bh2p2rcd13ifvqdi0","pricing_plan_id":"cebpf4jnsgd1na2vs0mg"},{"bike_id":"d9adb201-8636-4451-a6b5-fbf80998aa9c","system_id":"levelo_inurba_marseille","lat":43.25806,"lon":5.39445,"is_reserved":false,"is_disabled":false,"rental_uris":{"android":"levelo://app?vid=d9adb201-8636-4451-a6b5-fbf80998aa9c","ios":"levelo://app?vid=d9adb201-8636-4451-a6b5-fbf80998aa9c"},"vehicle_type_id":"4","last_reported":1727903404,"current_range_meters":39200,"station_id":"ce4bhip2rcd13ifvqft0","pricing_plan_id":"cebpf4jnsgd1na2vs0mg"},{"bike_id":"f730a887-ab52-460a-884b-3e5ce7ef04f6","system_id":"levelo_inurba_marseille","lat":43.33027,"lon":5.39043,"is_reserved":false,"is_disabled":false,"rental_uris":{"android":"levelo://app?vid=f730a887-ab52-460a-884b-3e5ce7ef04f6","ios":"levelo://app?vid=f730a887-ab52-460a-884b-3e5ce7ef04f6"},"vehicle_type_id":"4","last_reported":1727903404,"current_range_meters":22800,"station_id":"ce4bhr92rcd13ifvqhrg","pricing_plan_id":"cebpf4jnsgd1na2vs0mg"},{"bike_id":"25454cee-75e1-4829-863e-96eae8fc3747","system_id":"levelo_inurba_marseille","lat":43.34134,"lon":5.40904,"is_reserved":false,"is_disabled":false,"rental_uris":{"android":"levelo://app?vid=25454cee-75e1-4829-863e-96eae8fc3747","ios":"levelo://app?vid=25454cee-75e1-4829-863e-96eae8fc3747"},"vehicle_type_id":"4","last_reported":1727903404,"current_range_meters":39200,"station_id":"ce4bhqh2rcd13ifvqhlg","pricing_plan_id":"cebpf4jnsgd1na2vs0mg"},{"bike_id":"8fdd6557-ee64-4d16-ad79-3f7248fb6900","system_id":"levelo_inurba_marseille","lat":43.29043,"lon":5.39978,"is_reserved":false,"is_disabled":false,"rental_uris":{"android":"levelo://app?vid=8fdd6557-ee64-4d16-ad79-3f7248fb6900","ios":"levelo://app?vid=8fdd6557-ee64-4d16-ad79-3f7248fb6900"},"vehicle_type_id":"4","last_reported":1727903404,"current_range_meters":38800,"station_id":"ce4bh392rcd13ifvqdm0","pricing_plan_id":"cebpf4jnsgd1na2vs0mg"},{"bike_id":"976b0247-357e-451c-88dc-97d5e6b73f42","system_id":"levelo_inurba_marseille","lat":43.288547,"lon":5.35854,"is_reserved":false,"is_disabled":false,"rental_uris":{"android":"levelo://app?vid=976b0247-357e-451c-88dc-97d5e6b73f42","ios":"levelo://app?vid=976b0247-357e-451c-88dc-97d5e6b73f42"},"vehicle_type_id":"4","last_reported":1727903404,"current_range_meters":26000,"station_id":"ce4bhb12rcd13ifvqem0","pricing_plan_id":"cebpf4jnsgd1na2vs0mg"},{"bike_id":"968b1168-4e3b-4ea4-9c14-6591b0af6c74","system_id":"levelo_inurba_marseille","lat":43.29715,"lon":5.36612,"is_reserved":false,"is_disabled":false,"rental_uris":{"android":"levelo://app?vid=968b1168-4e3b-4ea4-9c14-6591b0af6c74","ios":"levelo://app?vid=968b1168-4e3b-4ea4-9c14-6591b0af6c74"},"vehicle_type_id":"4","last_reported":1727903404,"current_range_meters":38800,"station_id":"ce4bgn12rcd13ifvqbt0","pricing_plan_id":"cebpf4jnsgd1na2vs0mg"},{"bike_id":"e9bb3a8b-d187-4997-8ba2-08d330c1d3c6","system_id":"levelo_inurba_marseille","lat":43.29009,"lon":5.35615,"is_reserved":false,"is_disabled":false,"rental_uris":{"android":"levelo://app?vid=e9bb3a8b-d187-4997-8ba2-08d330c1d3c6","ios":"levelo://app?vid=e9bb3a8b-d187-4997-8ba2-08d330c1d3c6"},"vehicle_type_id":"4","last_reported":1727903404,"current_range_meters":17200,"station_id":"ce4bhb92rcd13ifvqen0","pricing_plan_id":"cebpf4jnsgd1na2vs0mg"},{"bike_id":"e7be1456-30cd-4206-bfa6-5cd79c2ad407","system_id":"levelo_inurba_marseille","lat":43.25497,"lon":5.3765,"is_reserved":false,"is_disabled":false,"rental_uris":{"android":"levelo://app?vid=e7be1456-30cd-4206-bfa6-5cd79c2ad407","ios":"levelo://app?vid=e7be1456-30cd-4206-bfa6-5cd79c2ad407"},"vehicle_type_id":"4","last_reported":1727903404,"current_range_meters":14800,"station_id":"ce4bhh12rcd13ifvqff0","pricing_plan_id":"cebpf4jnsgd1na2vs0mg"},{"bike_id":"8975a5a7-278f-4d5f-bd0b-adae377ca66d","system_id":"levelo_inurba_marseille","lat":43.24671,"lon":5.38174,"is_reserved":false,"is_disabled":false,"rental_uris":{"android":"levelo://app?vid=8975a5a7-278f-4d5f-bd0b-adae377ca66d","ios":"levelo://app?vid=8975a5a7-278f-4d5f-bd0b-adae377ca66d"},"vehicle_type_id":"4","last_reported":1727903404,"current_range_meters":38400,"station_id":"ce4bhih2rcd13ifvqfr0","pricing_plan_id":"cebpf4jnsgd1na2vs0mg"},{"bike_id":"af501c78-7631-4860-acb5-122e74b9c092","system_id":"levelo_inurba_marseille","lat":43.25002,"lon":5.38926,"is_reserved":false,"is_disabled":false,"rental_uris":{"android":"levelo://app?vid=af501c78-7631-4860-acb5-122e74b9c092","ios":"levelo://app?vid=af501c78-7631-4860-acb5-122e74b9c092"},"vehicle_type_id":"4","last_reported":1727903404,"current_range_meters":17600,"station_id":"ce4bhgp2rcd13ifvqfd0","pricing_plan_id":"cebpf4jnsgd1na2vs0mg"},{"bike_id":"25b9cba0-5a12-4431-9b60-6768cb0c1f32","system_id":"levelo_inurba_marseille","lat":43.22936,"lon":5.35378,"is_reserved":false,"is_disabled":false,"rental_uris":{"android":"levelo://app?vid=25b9cba0-5a12-4431-9b60-6768cb0c1f32","ios":"levelo://app?vid=25b9cba0-5a12-4431-9b60-6768cb0c1f32"},"vehicle_type_id":"4","last_reported":1727903404,"current_range_meters":3200,"station_id":"cpo3532slgdg3j2ikp40","pricing_plan_id":"cebpf4jnsgd1na2vs0mg"},{"bike_id":"cc554f51-c49f-4a7e-b935-073d446d9b2e","system_id":"levelo_inurba_marseille","lat":43.2894,"lon":5.36635,"is_reserved":false,"is_disabled":false,"rental_uris":{"android":"levelo://app?vid=cc554f51-c49f-4a7e-b935-073d446d9b2e","ios":"levelo://app?vid=cc554f51-c49f-4a7e-b935-073d446d9b2e"},"vehicle_type_id":"4","last_reported":1727903404,"current_range_meters":38800,"station_id":"ce4bhap2rcd13ifvqek0","pricing_plan_id":"cebpf4jnsgd1na2vs0mg"},{"bike_id":"59f1bb81-6a4b-4063-b7a2-5fc8ce8aa2a6","system_id":"levelo_inurba_marseille","lat":43.3133,"lon":5.39696,"is_reserved":false,"is_disabled":false,"rental_uris":{"android":"levelo://app?vid=59f1bb81-6a4b-4063-b7a2-5fc8ce8aa2a6","ios":"levelo://app?vid=59f1bb81-6a4b-4063-b7a2-5fc8ce8aa2a6"},"vehicle_type_id":"4","last_reported":1727903404,"current_range_meters":40000,"station_id":"ce4bgvp2rcd13ifvqcu0","pricing_plan_id":"cebpf4jnsgd1na2vs0mg"},{"bike_id":"baf545b0-7fa5-41ff-9fdc-e94b60c0513e","system_id":"levelo_inurba_marseille","lat":43.27816,"lon":5.407232,"is_reserved":false,"is_disabled":false,"rental_uris":{"android":"levelo://app?vid=baf545b0-7fa5-41ff-9fdc-e94b60c0513e","ios":"levelo://app?vid=baf545b0-7fa5-41ff-9fdc-e94b60c0513e"},"vehicle_type_id":"4","last_reported":1727903404,"current_range_meters":35600,"station_id":"ce4bhnh2rcd13ifvqgtg","pricing_plan_id":"cebpf4jnsgd1na2vs0mg"},{"bike_id":"e892a682-8f0d-45b4-9511-6f7eaf94e86f","system_id":"levelo_inurba_marseille","lat":43.2894,"lon":5.39636,"is_reserved":false,"is_disabled":false,"rental_uris":{"android":"levelo://app?vid=e892a682-8f0d-45b4-9511-6f7eaf94e86f","ios":"levelo://app?vid=e892a682-8f0d-45b4-9511-6f7eaf94e86f"},"vehicle_type_id":"4","last_reported":1727903404,"current_range_meters":26800,"station_id":"ce4bh3h2rcd13ifvqdn0","pricing_plan_id":"cebpf4jnsgd1na2vs0mg"},{"bike_id":"23bb1853-774f-426e-9a30-b5b61ea65b06","system_id":"levelo_inurba_marseille","lat":43.26681,"lon":5.38264,"is_reserved":false,"is_disabled":false,"rental_uris":{"android":"levelo://app?vid=23bb1853-774f-426e-9a30-b5b61ea65b06","ios":"levelo://app?vid=23bb1853-774f-426e-9a30-b5b61ea65b06"},"vehicle_type_id":"4","last_reported":1727903404,"current_range_meters":21600,"station_id":"ce4bhg92rcd13ifvqf90","pricing_plan_id":"cebpf4jnsgd1na2vs0mg"},{"bike_id":"a5bc78e8-0ff4-4da0-acba-f17ca5d6e61c","system_id":"levelo_inurba_marseille","lat":43.28034,"lon":5.36947,"is_reserved":false,"is_disabled":false,"rental_uris":{"android":"levelo://app?vid=a5bc78e8-0ff4-4da0-acba-f17ca5d6e61c","ios":"levelo://app?vid=a5bc78e8-0ff4-4da0-acba-f17ca5d6e61c"},"vehicle_type_id":"4","last_reported":1727903404,"current_range_meters":39200,"station_id":"ce4bha12rcd13ifvqef0","pricing_plan_id":"cebpf4jnsgd1na2vs0mg"},{"bike_id":"7abba7f8-027c-47e5-bdf4-c0b33099bbee","system_id":"levelo_inurba_marseille","lat":43.305389,"lon":5.384249,"is_reserved":false,"is_disabled":false,"rental_uris":{"android":"levelo://app?vid=7abba7f8-027c-47e5-bdf4-c0b33099bbee","ios":"levelo://app?vid=7abba7f8-027c-47e5-bdf4-c0b33099bbee"},"vehicle_type_id":"4","last_reported":1727903404,"current_range_meters":27200,"station_id":"ce4bgvp2rcd13ifvqcu0","pricing_plan_id":"cebpf4jnsgd1na2vs0mg"},{"bike_id":"ea1188b7-ac96-4afd-9344-ae967a924877","system_id":"levelo_inurba_marseille","lat":43.31532,"lon":5.38036,"is_reserved":false,"is_disabled":false,"rental_uris":{"android":"levelo://app?vid=ea1188b7-ac96-4afd-9344-ae967a924877","ios":"levelo://app?vid=ea1188b7-ac96-4afd-9344-ae967a924877"},"vehicle_type_id":"4","last_reported":1727903404,"current_range_meters":34800,"station_id":"ce4bhsp2rcd13ifvqi50","pricing_plan_id":"cebpf4jnsgd1na2vs0mg"},{"bike_id":"c9db3f60-427c-4925-8b51-d81989497936","system_id":"levelo_inurba_marseille","lat":43.28708,"lon":5.37377,"is_reserved":false,"is_disabled":false,"rental_uris":{"android":"levelo://app?vid=c9db3f60-427c-4925-8b51-d81989497936","ios":"levelo://app?vid=c9db3f60-427c-4925-8b51-d81989497936"},"vehicle_type_id":"4","last_reported":1727903404,"current_range_meters":39200,"station_id":"ce4bh3p2rcd13ifvqdq0","pricing_plan_id":"cebpf4jnsgd1na2vs0mg"},{"bike_id":"700f43df-a81e-46fd-b7d8-6beab4a2c0a8","system_id":"levelo_inurba_marseille","lat":43.312272,"lon":5.387697,"is_reserved":false,"is_disabled":false,"rental_uris":{"android":"levelo://app?vid=700f43df-a81e-46fd-b7d8-6beab4a2c0a8","ios":"levelo://app?vid=700f43df-a81e-46fd-b7d8-6beab4a2c0a8"},"vehicle_type_id":"4","last_reported":1727903404,"current_range_meters":38800,"station_id":"","pricing_plan_id":"cebpf4jnsgd1na2vs0mg"},{"bike_id":"91a34acf-7ef7-4662-b769-c1b781cebd21","system_id":"levelo_inurba_marseille","lat":43.32296,"lon":5.38278,"is_reserved":false,"is_disabled":false,"rental_uris":{"android":"levelo://app?vid=91a34acf-7ef7-4662-b769-c1b781cebd21","ios":"levelo://app?vid=91a34acf-7ef7-4662-b769-c1b781cebd21"},"vehicle_type_id":"4","last_reported":1727903404,"current_range_meters":37600,"station_id":"ce4bhr12rcd13ifvqhqg","pricing_plan_id":"cebpf4jnsgd1na2vs0mg"},{"bike_id":"1788357e-4d2c-46b7-a391-26a4e6c6111c","system_id":"levelo_inurba_marseille","lat":43.30938,"lon":5.40141,"is_reserved":false,"is_disabled":false,"rental_uris":{"android":"levelo://app?vid=1788357e-4d2c-46b7-a391-26a4e6c6111c","ios":"levelo://app?vid=1788357e-4d2c-46b7-a391-26a4e6c6111c"},"vehicle_type_id":"4","last_reported":1727903404,"current_range_meters":24000,"station_id":"ce4bgvp2rcd13ifvqct0","pricing_plan_id":"cebpf4jnsgd1na2vs0mg"},{"bike_id":"1a092ddf-d495-48af-acc4-5588274e43d7","system_id":"levelo_inurba_marseille","lat":43.28859,"lon":5.35848,"is_reserved":false,"is_disabled":false,"rental_uris":{"android":"levelo://app?vid=1a092ddf-d495-48af-acc4-5588274e43d7","ios":"levelo://app?vid=1a092ddf-d495-48af-acc4-5588274e43d7"},"vehicle_type_id":"4","last_reported":1727903404,"current_range_meters":4000,"station_id":"ce4bhb12rcd13ifvqem0","pricing_plan_id":"cebpf4jnsgd1na2vs0mg"},{"bike_id":"26b21c5b-d888-47bb-863e-31bd08a7f79a","system_id":"levelo_inurba_marseille","lat":43.311732,"lon":5.387205,"is_reserved":false,"is_disabled":false,"rental_uris":{"android":"levelo://app?vid=26b21c5b-d888-47bb-863e-31bd08a7f79a","ios":"levelo://app?vid=26b21c5b-d888-47bb-863e-31bd08a7f79a"},"vehicle_type_id":"4","last_reported":1727903404,"current_range_meters":39200,"station_id":"ce4bgv12rcd13ifvqcp0","pricing_plan_id":"cebpf4jnsgd1na2vs0mg"},{"bike_id":"f62171c3-3a5a-42f9-889e-39e223d1fdfe","system_id":"levelo_inurba_marseille","lat":43.29049,"lon":5.3591,"is_reserved":false,"is_disabled":false,"rental_uris":{"android":"levelo://app?vid=f62171c3-3a5a-42f9-889e-39e223d1fdfe","ios":"levelo://app?vid=f62171c3-3a5a-42f9-889e-39e223d1fdfe"},"vehicle_type_id":"4","last_reported":1727903404,"current_range_meters":21600,"station_id":"ce4bha92rcd13ifvqeg0","pricing_plan_id":"cebpf4jnsgd1na2vs0mg"},{"bike_id":"24d92f51-0476-4c2e-838c-c91673ebb0c9","system_id":"levelo_inurba_marseille","lat":43.28164,"lon":5.42641,"is_reserved":false,"is_disabled":false,"rental_uris":{"android":"levelo://app?vid=24d92f51-0476-4c2e-838c-c91673ebb0c9","ios":"levelo://app?vid=24d92f51-0476-4c2e-838c-c91673ebb0c9"},"vehicle_type_id":"4","last_reported":1727903404,"current_range_meters":38800,"station_id":"ce4bhnh2rcd13ifvqgug","pricing_plan_id":"cebpf4jnsgd1na2vs0mg"},{"bike_id":"149ff410-e6d0-4c7a-9459-cc82bab3c39f","system_id":"levelo_inurba_marseille","lat":43.308,"lon":5.38154,"is_reserved":false,"is_disabled":false,"rental_uris":{"android":"levelo://app?vid=149ff410-e6d0-4c7a-9459-cc82bab3c39f","ios":"levelo://app?vid=149ff410-e6d0-4c7a-9459-cc82bab3c39f"},"vehicle_type_id":"4","last_reported":1727903404,"current_range_meters":38800,"station_id":"ce4bgt12rcd13ifvqce0","pricing_plan_id":"cebpf4jnsgd1na2vs0mg"},{"bike_id":"62669ff4-b352-4568-985e-131ea3f31b7a","system_id":"levelo_inurba_marseille","lat":43.29583,"lon":5.36739,"is_reserved":false,"is_disabled":false,"rental_uris":{"android":"levelo://app?vid=62669ff4-b352-4568-985e-131ea3f31b7a","ios":"levelo://app?vid=62669ff4-b352-4568-985e-131ea3f31b7a"},"vehicle_type_id":"4","last_reported":1727903404,"current_range_meters":21600,"station_id":"ce4bgph2rcd13ifvqc2g","pricing_plan_id":"cebpf4jnsgd1na2vs0mg"},{"bike_id":"0d38caac-4e1b-4bc6-8634-fba8549655ca","system_id":"levelo_inurba_marseille","lat":43.32112,"lon":5.36778,"is_reserved":false,"is_disabled":false,"rental_uris":{"android":"levelo://app?vid=0d38caac-4e1b-4bc6-8634-fba8549655ca","ios":"levelo://app?vid=0d38caac-4e1b-4bc6-8634-fba8549655ca"},"vehicle_type_id":"4","last_reported":1727903404,"current_range_meters":38800,"station_id":"ce4bhrh2rcd13ifvqhug","pricing_plan_id":"cebpf4jnsgd1na2vs0mg"},{"bike_id":"e2c709ab-362f-4f28-8df2-e58b4fabe9a9","system_id":"levelo_inurba_marseille","lat":43.28108,"lon":5.37851,"is_reserved":false,"is_disabled":false,"rental_uris":{"android":"levelo://app?vid=e2c709ab-362f-4f28-8df2-e58b4fabe9a9","ios":"levelo://app?vid=e2c709ab-362f-4f28-8df2-e58b4fabe9a9"},"vehicle_type_id":"4","last_reported":1727903404,"current_range_meters":9600,"station_id":"ce4bha12rcd13ifvqee0","pricing_plan_id":"cebpf4jnsgd1na2vs0mg"},{"bike_id":"c000849c-5bdd-4942-9148-10e6e205fcbc","system_id":"levelo_inurba_marseille","lat":43.311762,"lon":5.387117,"is_reserved":false,"is_disabled":false,"rental_uris":{"android":"levelo://app?vid=c000849c-5bdd-4942-9148-10e6e205fcbc","ios":"levelo://app?vid=c000849c-5bdd-4942-9148-10e6e205fcbc"},"vehicle_type_id":"4","last_reported":1727903404,"current_range_meters":39200,"station_id":"ce4bgv12rcd13ifvqcp0","pricing_plan_id":"cebpf4jnsgd1na2vs0mg"},{"bike_id":"928a629e-8e97-4aa4-be5e-ab44717b40f3","system_id":"levelo_inurba_marseille","lat":43.28708,"lon":5.39984,"is_reserved":false,"is_disabled":false,"rental_uris":{"android":"levelo://app?vid=928a629e-8e97-4aa4-be5e-ab44717b40f3","ios":"levelo://app?vid=928a629e-8e97-4aa4-be5e-ab44717b40f3"},"vehicle_type_id":"4","last_reported":1727903404,"current_range_meters":27600,"station_id":"ce4bho92rcd13ifvqh3g","pricing_plan_id":"cebpf4jnsgd1na2vs0mg"},{"bike_id":"5193785c-263c-401d-a7b6-51f84a49819f","system_id":"levelo_inurba_marseille","lat":43.29554,"lon":5.422931,"is_reserved":false,"is_disabled":false,"rental_uris":{"android":"levelo://app?vid=5193785c-263c-401d-a7b6-51f84a49819f","ios":"levelo://app?vid=5193785c-263c-401d-a7b6-51f84a49819f"},"vehicle_type_id":"4","last_reported":1727903404,"current_range_meters":39200,"station_id":"ce4bhph2rcd13ifvqhdg","pricing_plan_id":"cebpf4jnsgd1na2vs0mg"},{"bike_id":"e44f7360-cba0-46f8-982b-60e2cc13de75","system_id":"levelo_inurba_marseille","lat":43.31765,"lon":5.39021,"is_reserved":false,"is_disabled":false,"rental_uris":{"android":"levelo://app?vid=e44f7360-cba0-46f8-982b-60e2cc13de75","ios":"levelo://app?vid=e44f7360-cba0-46f8-982b-60e2cc13de75"},"vehicle_type_id":"4","last_reported":1727903404,"current_range_meters":17200,"station_id":"ce4bhqp2rcd13ifvqhng","pricing_plan_id":"cebpf4jnsgd1na2vs0mg"},{"bike_id":"244b6c9b-f197-4618-a8c9-5e3c388ab8d8","system_id":"levelo_inurba_marseille","lat":43.29199,"lon":5.39317,"is_reserved":false,"is_disabled":false,"rental_uris":{"android":"levelo://app?vid=244b6c9b-f197-4618-a8c9-5e3c388ab8d8","ios":"levelo://app?vid=244b6c9b-f197-4618-a8c9-5e3c388ab8d8"},"vehicle_type_id":"4","last_reported":1727903404,"current_range_meters":24000,"station_id":"ce4bh192rcd13ifvqdd0","pricing_plan_id":"cebpf4jnsgd1na2vs0mg"},{"bike_id":"499cb64c-6fb8-4407-89d8-a118e3c5c28d","system_id":"levelo_inurba_marseille","lat":43.2799,"lon":5.40015,"is_reserved":false,"is_disabled":false,"rental_uris":{"android":"levelo://app?vid=499cb64c-6fb8-4407-89d8-a118e3c5c28d","ios":"levelo://app?vid=499cb64c-6fb8-4407-89d8-a118e3c5c28d"},"vehicle_type_id":"4","last_reported":1727903404,"current_range_meters":24400,"station_id":"ce4bho92rcd13ifvqh4g","pricing_plan_id":"cebpf4jnsgd1na2vs0mg"},{"bike_id":"506e55c5-b8fd-4962-aa7f-acad910ad64e","system_id":"levelo_inurba_marseille","lat":43.287,"lon":5.37389,"is_reserved":false,"is_disabled":false,"rental_uris":{"android":"levelo://app?vid=506e55c5-b8fd-4962-aa7f-acad910ad64e","ios":"levelo://app?vid=506e55c5-b8fd-4962-aa7f-acad910ad64e"},"vehicle_type_id":"4","last_reported":1727903404,"current_range_meters":20400,"station_id":"ce4bh3p2rcd13ifvqdq0","pricing_plan_id":"cebpf4jnsgd1na2vs0mg"},{"bike_id":"d0d06845-1dc5-4899-b3aa-475033bc69c4","system_id":"levelo_inurba_marseille","lat":43.29721,"lon":5.36616,"is_reserved":false,"is_disabled":false,"rental_uris":{"android":"levelo://app?vid=d0d06845-1dc5-4899-b3aa-475033bc69c4","ios":"levelo://app?vid=d0d06845-1dc5-4899-b3aa-475033bc69c4"},"vehicle_type_id":"4","last_reported":1727903404,"current_range_meters":38800,"station_id":"ce4bgn12rcd13ifvqbt0","pricing_plan_id":"cebpf4jnsgd1na2vs0mg"},{"bike_id":"5b4e8a6d-9968-46a7-a227-a49167cb9469","system_id":"levelo_inurba_marseille","lat":43.28083,"lon":5.39657,"is_reserved":false,"is_disabled":false,"rental_uris":{"android":"levelo://app?vid=5b4e8a6d-9968-46a7-a227-a49167cb9469","ios":"levelo://app?vid=5b4e8a6d-9968-46a7-a227-a49167cb9469"},"vehicle_type_id":"4","last_reported":1727903404,"current_range_meters":18000,"station_id":"ce4bho12rcd13ifvqh2g","pricing_plan_id":"cebpf4jnsgd1na2vs0mg"},{"bike_id":"bce48427-8489-47e0-bbc9-d8d9c03012e7","system_id":"levelo_inurba_marseille","lat":43.29093,"lon":5.38144,"is_reserved":false,"is_disabled":false,"rental_uris":{"android":"levelo://app?vid=bce48427-8489-47e0-bbc9-d8d9c03012e7","ios":"levelo://app?vid=bce48427-8489-47e0-bbc9-d8d9c03012e7"},"vehicle_type_id":"4","last_reported":1727903404,"current_range_meters":3600,"station_id":"ce4bh512rcd13ifvqe2g","pricing_plan_id":"cebpf4jnsgd1na2vs0mg"},{"bike_id":"2f7ca155-27b5-4231-88e8-21b2d81267c1","system_id":"levelo_inurba_marseille","lat":43.29717,"lon":5.36619,"is_reserved":false,"is_disabled":false,"rental_uris":{"android":"levelo://app?vid=2f7ca155-27b5-4231-88e8-21b2d81267c1","ios":"levelo://app?vid=2f7ca155-27b5-4231-88e8-21b2d81267c1"},"vehicle_type_id":"4","last_reported":1727903404,"current_range_meters":39200,"station_id":"ce4bgn12rcd13ifvqbt0","pricing_plan_id":"cebpf4jnsgd1na2vs0mg"},{"bike_id":"8f181795-3aeb-4156-971d-e32d9f5f03a5","system_id":"levelo_inurba_marseille","lat":43.28869,"lon":5.36088,"is_reserved":false,"is_disabled":false,"rental_uris":{"android":"levelo://app?vid=8f181795-3aeb-4156-971d-e32d9f5f03a5","ios":"levelo://app?vid=8f181795-3aeb-4156-971d-e32d9f5f03a5"},"vehicle_type_id":"4","last_reported":1727903404,"current_range_meters":34000,"station_id":"","pricing_plan_id":"cebpf4jnsgd1na2vs0mg"},{"bike_id":"ab0ec3d3-4f39-4c45-bb5f-ebeb07cb01d2","system_id":"levelo_inurba_marseille","lat":43.27816,"lon":5.40718,"is_reserved":false,"is_disabled":false,"rental_uris":{"android":"levelo://app?vid=ab0ec3d3-4f39-4c45-bb5f-ebeb07cb01d2","ios":"levelo://app?vid=ab0ec3d3-4f39-4c45-bb5f-ebeb07cb01d2"},"vehicle_type_id":"4","last_reported":1727903404,"current_range_meters":36800,"station_id":"ce4bhnh2rcd13ifvqgtg","pricing_plan_id":"cebpf4jnsgd1na2vs0mg"},{"bike_id":"12924d24-3cc0-4103-9cc5-36dfbf266a2c","system_id":"levelo_inurba_marseille","lat":43.27892,"lon":5.38005,"is_reserved":false,"is_disabled":false,"rental_uris":{"android":"levelo://app?vid=12924d24-3cc0-4103-9cc5-36dfbf266a2c","ios":"levelo://app?vid=12924d24-3cc0-4103-9cc5-36dfbf266a2c"},"vehicle_type_id":"4","last_reported":1727903404,"current_range_meters":12000,"station_id":"ce4bhf92rcd13ifvqf50","pricing_plan_id":"cebpf4jnsgd1na2vs0mg"},{"bike_id":"7bfb5721-baf3-4893-bbf9-7c8112a113a1","system_id":"levelo_inurba_marseille","lat":43.27996,"lon":5.40011,"is_reserved":false,"is_disabled":false,"rental_uris":{"android":"levelo://app?vid=7bfb5721-baf3-4893-bbf9-7c8112a113a1","ios":"levelo://app?vid=7bfb5721-baf3-4893-bbf9-7c8112a113a1"},"vehicle_type_id":"4","last_reported":1727903404,"current_range_meters":37600,"station_id":"ce4bho92rcd13ifvqh4g","pricing_plan_id":"cebpf4jnsgd1na2vs0mg"},{"bike_id":"9bb1827b-7858-47e7-aca0-f7469a633994","system_id":"levelo_inurba_marseille","lat":43.30323,"lon":5.40439,"is_reserved":false,"is_disabled":false,"rental_uris":{"android":"levelo://app?vid=9bb1827b-7858-47e7-aca0-f7469a633994","ios":"levelo://app?vid=9bb1827b-7858-47e7-aca0-f7469a633994"},"vehicle_type_id":"4","last_reported":1727903404,"current_range_meters":35600,"station_id":"ce4bh012rcd13ifvqd10","pricing_plan_id":"cebpf4jnsgd1na2vs0mg"},{"bike_id":"c28aadbf-2763-4c15-b0ea-1af098ca2508","system_id":"levelo_inurba_marseille","lat":43.32536,"lon":5.41449,"is_reserved":false,"is_disabled":false,"rental_uris":{"android":"levelo://app?vid=c28aadbf-2763-4c15-b0ea-1af098ca2508","ios":"levelo://app?vid=c28aadbf-2763-4c15-b0ea-1af098ca2508"},"vehicle_type_id":"4","last_reported":1727903404,"current_range_meters":38000,"station_id":"ce4bhq12rcd13ifvqhhg","pricing_plan_id":"cebpf4jnsgd1na2vs0mg"},{"bike_id":"1f8d1e3d-9d2a-4e06-afd4-5fea70da48f3","system_id":"levelo_inurba_marseille","lat":43.24669,"lon":5.38167,"is_reserved":false,"is_disabled":false,"rental_uris":{"android":"levelo://app?vid=1f8d1e3d-9d2a-4e06-afd4-5fea70da48f3","ios":"levelo://app?vid=1f8d1e3d-9d2a-4e06-afd4-5fea70da48f3"},"vehicle_type_id":"4","last_reported":1727903404,"current_range_meters":38800,"station_id":"ce4bhih2rcd13ifvqfr0","pricing_plan_id":"cebpf4jnsgd1na2vs0mg"},{"bike_id":"720575a9-1c2c-4181-b3f7-c1b39f8bdabb","system_id":"levelo_inurba_marseille","lat":43.28706,"lon":5.39974,"is_reserved":false,"is_disabled":false,"rental_uris":{"android":"levelo://app?vid=720575a9-1c2c-4181-b3f7-c1b39f8bdabb","ios":"levelo://app?vid=720575a9-1c2c-4181-b3f7-c1b39f8bdabb"},"vehicle_type_id":"4","last_reported":1727903404,"current_range_meters":40000,"station_id":"ce4bho92rcd13ifvqh3g","pricing_plan_id":"cebpf4jnsgd1na2vs0mg"},{"bike_id":"87d92067-e2ac-4ff4-a13f-97ec0b946668","system_id":"levelo_inurba_marseille","lat":43.29693,"lon":5.36596,"is_reserved":false,"is_disabled":false,"rental_uris":{"android":"levelo://app?vid=87d92067-e2ac-4ff4-a13f-97ec0b946668","ios":"levelo://app?vid=87d92067-e2ac-4ff4-a13f-97ec0b946668"},"vehicle_type_id":"4","last_reported":1727903404,"current_range_meters":39200,"station_id":"ce4bgn12rcd13ifvqbt0","pricing_plan_id":"cebpf4jnsgd1na2vs0mg"},{"bike_id":"f13ae62b-0d02-4c4a-bd54-f8d021796470","system_id":"levelo_inurba_marseille","lat":43.30424,"lon":5.38909,"is_reserved":false,"is_disabled":false,"rental_uris":{"android":"levelo://app?vid=f13ae62b-0d02-4c4a-bd54-f8d021796470","ios":"levelo://app?vid=f13ae62b-0d02-4c4a-bd54-f8d021796470"},"vehicle_type_id":"4","last_reported":1727903404,"current_range_meters":35600,"station_id":"ce4bgk12rcd13ifvqbi0","pricing_plan_id":"cebpf4jnsgd1na2vs0mg"},{"bike_id":"3c0bd4e6-4779-458a-9829-e363210f5384","system_id":"levelo_inurba_marseille","lat":43.2928,"lon":5.40122,"is_reserved":false,"is_disabled":false,"rental_uris":{"android":"levelo://app?vid=3c0bd4e6-4779-458a-9829-e363210f5384","ios":"levelo://app?vid=3c0bd4e6-4779-458a-9829-e363210f5384"},"vehicle_type_id":"4","last_reported":1727903404,"current_range_meters":24400,"station_id":"ce4bh312rcd13ifvqdk0","pricing_plan_id":"cebpf4jnsgd1na2vs0mg"},{"bike_id":"8b324eaf-db0e-4f63-abfa-425c372857cb","system_id":"levelo_inurba_marseille","lat":43.30775,"lon":5.37657,"is_reserved":false,"is_disabled":false,"rental_uris":{"android":"levelo://app?vid=8b324eaf-db0e-4f63-abfa-425c372857cb","ios":"levelo://app?vid=8b324eaf-db0e-4f63-abfa-425c372857cb"},"vehicle_type_id":"4","last_reported":1727903404,"current_range_meters":37600,"station_id":"ce4bgv92rcd13ifvqcq0","pricing_plan_id":"cebpf4jnsgd1na2vs0mg"},{"bike_id":"3e55463a-ac46-4231-9101-abcd2156792a","system_id":"levelo_inurba_marseille","lat":43.308007,"lon":5.435238,"is_reserved":false,"is_disabled":false,"rental_uris":{"android":"levelo://app?vid=3e55463a-ac46-4231-9101-abcd2156792a","ios":"levelo://app?vid=3e55463a-ac46-4231-9101-abcd2156792a"},"vehicle_type_id":"4","last_reported":1727903404,"current_range_meters":24800,"station_id":"","pricing_plan_id":"cebpf4jnsgd1na2vs0mg"},{"bike_id":"65e7b6b0-2911-4a20-a5c1-7d9c323667da","system_id":"levelo_inurba_marseille","lat":43.32558,"lon":5.4144,"is_reserved":false,"is_disabled":false,"rental_uris":{"android":"levelo://app?vid=65e7b6b0-2911-4a20-a5c1-7d9c323667da","ios":"levelo://app?vid=65e7b6b0-2911-4a20-a5c1-7d9c323667da"},"vehicle_type_id":"4","last_reported":1727903404,"current_range_meters":17600,"station_id":"ce4bhq12rcd13ifvqhhg","pricing_plan_id":"cebpf4jnsgd1na2vs0mg"},{"bike_id":"c85b7db7-064f-4a10-aa76-ee1ae6256e6f","system_id":"levelo_inurba_marseille","lat":43.29195,"lon":5.39314,"is_reserved":false,"is_disabled":false,"rental_uris":{"android":"levelo://app?vid=c85b7db7-064f-4a10-aa76-ee1ae6256e6f","ios":"levelo://app?vid=c85b7db7-064f-4a10-aa76-ee1ae6256e6f"},"vehicle_type_id":"4","last_reported":1727903404,"current_range_meters":38800,"station_id":"ce4bh192rcd13ifvqdd0","pricing_plan_id":"cebpf4jnsgd1na2vs0mg"},{"bike_id":"5d8041cf-19b6-4f04-b6db-837ad2e405c1","system_id":"levelo_inurba_marseille","lat":43.28451,"lon":5.35897,"is_reserved":false,"is_disabled":false,"rental_uris":{"android":"levelo://app?vid=5d8041cf-19b6-4f04-b6db-837ad2e405c1","ios":"levelo://app?vid=5d8041cf-19b6-4f04-b6db-837ad2e405c1"},"vehicle_type_id":"4","last_reported":1727903404,"current_range_meters":21600,"station_id":"ce4bhah2rcd13ifvqei0","pricing_plan_id":"cebpf4jnsgd1na2vs0mg"},{"bike_id":"e865db4a-278f-4374-8259-819184dcd8f4","system_id":"levelo_inurba_marseille","lat":43.29805,"lon":5.39337,"is_reserved":false,"is_disabled":false,"rental_uris":{"android":"levelo://app?vid=e865db4a-278f-4374-8259-819184dcd8f4","ios":"levelo://app?vid=e865db4a-278f-4374-8259-819184dcd8f4"},"vehicle_type_id":"4","last_reported":1727903404,"current_range_meters":11600,"station_id":"chh1huq6cuj3fo74tm60","pricing_plan_id":"cebpf4jnsgd1na2vs0mg"},{"bike_id":"fab07bf1-09c2-4882-a9c1-73b120270859","system_id":"levelo_inurba_marseille","lat":43.2657,"lon":5.39033,"is_reserved":false,"is_disabled":false,"rental_uris":{"android":"levelo://app?vid=fab07bf1-09c2-4882-a9c1-73b120270859","ios":"levelo://app?vid=fab07bf1-09c2-4882-a9c1-73b120270859"},"vehicle_type_id":"4","last_reported":1727903404,"current_range_meters":38800,"station_id":"ce4bhe12rcd13ifvqf30","pricing_plan_id":"cebpf4jnsgd1na2vs0mg"},{"bike_id":"a9348a12-a267-4fc5-b521-58a8dc6419d6","system_id":"levelo_inurba_marseille","lat":43.28846,"lon":5.35843,"is_reserved":false,"is_disabled":false,"rental_uris":{"android":"levelo://app?vid=a9348a12-a267-4fc5-b521-58a8dc6419d6","ios":"levelo://app?vid=a9348a12-a267-4fc5-b521-58a8dc6419d6"},"vehicle_type_id":"4","last_reported":1727903404,"current_range_meters":10800,"station_id":"ce4bhb12rcd13ifvqem0","pricing_plan_id":"cebpf4jnsgd1na2vs0mg"},{"bike_id":"5b95b53b-de42-4354-8e1a-9524026b6a69","system_id":"levelo_inurba_marseille","lat":43.27924,"lon":5.39588,"is_reserved":false,"is_disabled":false,"rental_uris":{"android":"levelo://app?vid=5b95b53b-de42-4354-8e1a-9524026b6a69","ios":"levelo://app?vid=5b95b53b-de42-4354-8e1a-9524026b6a69"},"vehicle_type_id":"4","last_reported":1727903404,"current_range_meters":35200,"station_id":"ce4bhf92rcd13ifvqf40","pricing_plan_id":"cebpf4jnsgd1na2vs0mg"},{"bike_id":"508b3170-34e3-430c-b754-dd4ea96fae6e","system_id":"levelo_inurba_marseille","lat":43.28737,"lon":5.36081,"is_reserved":false,"is_disabled":false,"rental_uris":{"android":"levelo://app?vid=508b3170-34e3-430c-b754-dd4ea96fae6e","ios":"levelo://app?vid=508b3170-34e3-430c-b754-dd4ea96fae6e"},"vehicle_type_id":"4","last_reported":1727903404,"current_range_meters":40000,"station_id":"cki0cbj6b192h4jlfktg","pricing_plan_id":"cebpf4jnsgd1na2vs0mg"},{"bike_id":"30077ecd-1d3c-4ffe-bf30-a1a2991e1aca","system_id":"levelo_inurba_marseille","lat":43.23064,"lon":5.35499,"is_reserved":false,"is_disabled":false,"rental_uris":{"android":"levelo://app?vid=30077ecd-1d3c-4ffe-bf30-a1a2991e1aca","ios":"levelo://app?vid=30077ecd-1d3c-4ffe-bf30-a1a2991e1aca"},"vehicle_type_id":"4","last_reported":1727903404,"current_range_meters":36800,"station_id":"cpo3342slgdg3j2ifvpg","pricing_plan_id":"cebpf4jnsgd1na2vs0mg"},{"bike_id":"ba76bde8-4837-48f2-a654-89f03ceb034e","system_id":"levelo_inurba_marseille","lat":43.28039,"lon":5.36941,"is_reserved":false,"is_disabled":false,"rental_uris":{"android":"levelo://app?vid=ba76bde8-4837-48f2-a654-89f03ceb034e","ios":"levelo://app?vid=ba76bde8-4837-48f2-a654-89f03ceb034e"},"vehicle_type_id":"4","last_reported":1727903404,"current_range_meters":26800,"station_id":"ce4bha12rcd13ifvqef0","pricing_plan_id":"cebpf4jnsgd1na2vs0mg"},{"bike_id":"f3941c0a-0621-4d7a-9487-f1489e1f7ac3","system_id":"levelo_inurba_marseille","lat":43.29033,"lon":5.37572,"is_reserved":false,"is_disabled":false,"rental_uris":{"android":"levelo://app?vid=f3941c0a-0621-4d7a-9487-f1489e1f7ac3","ios":"levelo://app?vid=f3941c0a-0621-4d7a-9487-f1489e1f7ac3"},"vehicle_type_id":"4","last_reported":1727903404,"current_range_meters":9200,"station_id":"ce4bh692rcd13ifvqe90","pricing_plan_id":"cebpf4jnsgd1na2vs0mg"},{"bike_id":"e37eb050-aec1-4959-aa63-8219d0b7cd60","system_id":"levelo_inurba_marseille","lat":43.2782,"lon":5.40714,"is_reserved":false,"is_disabled":false,"rental_uris":{"android":"levelo://app?vid=e37eb050-aec1-4959-aa63-8219d0b7cd60","ios":"levelo://app?vid=e37eb050-aec1-4959-aa63-8219d0b7cd60"},"vehicle_type_id":"4","last_reported":1727903404,"current_range_meters":24400,"station_id":"ce4bhnh2rcd13ifvqgtg","pricing_plan_id":"cebpf4jnsgd1na2vs0mg"},{"bike_id":"123ff6ed-4385-4a10-999b-eb298bcab43c","system_id":"levelo_inurba_marseille","lat":43.33029,"lon":5.39037,"is_reserved":false,"is_disabled":false,"rental_uris":{"android":"levelo://app?vid=123ff6ed-4385-4a10-999b-eb298bcab43c","ios":"levelo://app?vid=123ff6ed-4385-4a10-999b-eb298bcab43c"},"vehicle_type_id":"4","last_reported":1727903404,"current_range_meters":38800,"station_id":"ce4bhr92rcd13ifvqhrg","pricing_plan_id":"cebpf4jnsgd1na2vs0mg"},{"bike_id":"64e20bcb-fdaf-4190-a780-c5d3ba0792ae","system_id":"levelo_inurba_marseille","lat":43.29807,"lon":5.40402,"is_reserved":false,"is_disabled":false,"rental_uris":{"android":"levelo://app?vid=64e20bcb-fdaf-4190-a780-c5d3ba0792ae","ios":"levelo://app?vid=64e20bcb-fdaf-4190-a780-c5d3ba0792ae"},"vehicle_type_id":"4","last_reported":1727903404,"current_range_meters":8800,"station_id":"ce4bh112rcd13ifvqd90","pricing_plan_id":"cebpf4jnsgd1na2vs0mg"},{"bike_id":"640b8549-bc68-40bd-be27-419d7fdefb72","system_id":"levelo_inurba_marseille","lat":43.26499,"lon":5.39536,"is_reserved":false,"is_disabled":false,"rental_uris":{"android":"levelo://app?vid=640b8549-bc68-40bd-be27-419d7fdefb72","ios":"levelo://app?vid=640b8549-bc68-40bd-be27-419d7fdefb72"},"vehicle_type_id":"4","last_reported":1727903404,"current_range_meters":26000,"station_id":"ce4bhi12rcd13ifvqfq0","pricing_plan_id":"cebpf4jnsgd1na2vs0mg"},{"bike_id":"fb574acc-ae2d-41f7-81bc-2a60a0484ebf","system_id":"levelo_inurba_marseille","lat":43.30146,"lon":5.38084,"is_reserved":false,"is_disabled":false,"rental_uris":{"android":"levelo://app?vid=fb574acc-ae2d-41f7-81bc-2a60a0484ebf","ios":"levelo://app?vid=fb574acc-ae2d-41f7-81bc-2a60a0484ebf"},"vehicle_type_id":"4","last_reported":1727903404,"current_range_meters":38800,"station_id":"ce4bgjp2rcd13ifvqbh0","pricing_plan_id":"cebpf4jnsgd1na2vs0mg"},{"bike_id":"ad9bd38c-6e21-41e8-8513-132c1c15c21b","system_id":"levelo_inurba_marseille","lat":43.29888,"lon":5.43664,"is_reserved":false,"is_disabled":false,"rental_uris":{"android":"levelo://app?vid=ad9bd38c-6e21-41e8-8513-132c1c15c21b","ios":"levelo://app?vid=ad9bd38c-6e21-41e8-8513-132c1c15c21b"},"vehicle_type_id":"4","last_reported":1727903404,"current_range_meters":20000,"station_id":"ce4bhpp2rcd13ifvqhfg","pricing_plan_id":"cebpf4jnsgd1na2vs0mg"},{"bike_id":"8acb8a62-24a9-468c-99ca-565a01689086","system_id":"levelo_inurba_marseille","lat":43.29256,"lon":5.4092,"is_reserved":false,"is_disabled":false,"rental_uris":{"android":"levelo://app?vid=8acb8a62-24a9-468c-99ca-565a01689086","ios":"levelo://app?vid=8acb8a62-24a9-468c-99ca-565a01689086"},"vehicle_type_id":"4","last_reported":1727903404,"current_range_meters":32000,"station_id":"ce4bh192rcd13ifvqdc0","pricing_plan_id":"cebpf4jnsgd1na2vs0mg"},{"bike_id":"a4965f4a-14d9-4262-bebf-3d2d5b88c161","system_id":"levelo_inurba_marseille","lat":43.29794,"lon":5.39379,"is_reserved":false,"is_disabled":false,"rental_uris":{"android":"levelo://app?vid=a4965f4a-14d9-4262-bebf-3d2d5b88c161","ios":"levelo://app?vid=a4965f4a-14d9-4262-bebf-3d2d5b88c161"},"vehicle_type_id":"4","last_reported":1727903404,"current_range_meters":28400,"station_id":"chh1huq6cuj3fo74tm60","pricing_plan_id":"cebpf4jnsgd1na2vs0mg"},{"bike_id":"9a2d3eb4-5bb0-446a-b10a-38f2501ad9e5","system_id":"levelo_inurba_marseille","lat":43.28083,"lon":5.39658,"is_reserved":false,"is_disabled":false,"rental_uris":{"android":"levelo://app?vid=9a2d3eb4-5bb0-446a-b10a-38f2501ad9e5","ios":"levelo://app?vid=9a2d3eb4-5bb0-446a-b10a-38f2501ad9e5"},"vehicle_type_id":"4","last_reported":1727903404,"current_range_meters":38800,"station_id":"ce4bho12rcd13ifvqh2g","pricing_plan_id":"cebpf4jnsgd1na2vs0mg"},{"bike_id":"16064f74-3613-4fe2-9a57-457e6e8d81c5","system_id":"levelo_inurba_marseille","lat":43.31714,"lon":5.43707,"is_reserved":false,"is_disabled":false,"rental_uris":{"android":"levelo://app?vid=16064f74-3613-4fe2-9a57-457e6e8d81c5","ios":"levelo://app?vid=16064f74-3613-4fe2-9a57-457e6e8d81c5"},"vehicle_type_id":"4","last_reported":1727903404,"current_range_meters":21600,"station_id":"ce4bhp92rcd13ifvqhcg","pricing_plan_id":"cebpf4jnsgd1na2vs0mg"},{"bike_id":"d9c2381b-f5b4-4f9c-adb6-506d987db672","system_id":"levelo_inurba_marseille","lat":43.28655,"lon":5.36342,"is_reserved":false,"is_disabled":false,"rental_uris":{"android":"levelo://app?vid=d9c2381b-f5b4-4f9c-adb6-506d987db672","ios":"levelo://app?vid=d9c2381b-f5b4-4f9c-adb6-506d987db672"},"vehicle_type_id":"4","last_reported":1727903404,"current_range_meters":8800,"station_id":"ce4bhah2rcd13ifvqej0","pricing_plan_id":"cebpf4jnsgd1na2vs0mg"},{"bike_id":"32fc2753-529a-4d3f-9dea-dc7b52e35d15","system_id":"levelo_inurba_marseille","lat":43.30647,"lon":5.40096,"is_reserved":false,"is_disabled":false,"rental_uris":{"android":"levelo://app?vid=32fc2753-529a-4d3f-9dea-dc7b52e35d15","ios":"levelo://app?vid=32fc2753-529a-4d3f-9dea-dc7b52e35d15"},"vehicle_type_id":"4","last_reported":1727903404,"current_range_meters":11200,"station_id":"ce4bh112rcd13ifvqda0","pricing_plan_id":"cebpf4jnsgd1na2vs0mg"},{"bike_id":"3cf74a3f-8222-4d03-b2e6-c9d25d38cf35","system_id":"levelo_inurba_marseille","lat":43.25004,"lon":5.38926,"is_reserved":false,"is_disabled":false,"rental_uris":{"android":"levelo://app?vid=3cf74a3f-8222-4d03-b2e6-c9d25d38cf35","ios":"levelo://app?vid=3cf74a3f-8222-4d03-b2e6-c9d25d38cf35"},"vehicle_type_id":"4","last_reported":1727903404,"current_range_meters":38800,"station_id":"ce4bhgp2rcd13ifvqfd0","pricing_plan_id":"cebpf4jnsgd1na2vs0mg"},{"bike_id":"19386771-a944-4e44-9422-814e4b60163a","system_id":"levelo_inurba_marseille","lat":43.30534,"lon":5.36701,"is_reserved":false,"is_disabled":false,"rental_uris":{"android":"levelo://app?vid=19386771-a944-4e44-9422-814e4b60163a","ios":"levelo://app?vid=19386771-a944-4e44-9422-814e4b60163a"},"vehicle_type_id":"4","last_reported":1727903404,"current_range_meters":39200,"station_id":"ce4bgrp2rcd13ifvqc9g","pricing_plan_id":"cebpf4jnsgd1na2vs0mg"},{"bike_id":"50fd90fe-2219-4f2e-9ba5-06d593c1eb24","system_id":"levelo_inurba_marseille","lat":43.30799,"lon":5.38148,"is_reserved":false,"is_disabled":false,"rental_uris":{"android":"levelo://app?vid=50fd90fe-2219-4f2e-9ba5-06d593c1eb24","ios":"levelo://app?vid=50fd90fe-2219-4f2e-9ba5-06d593c1eb24"},"vehicle_type_id":"4","last_reported":1727903404,"current_range_meters":16400,"station_id":"ce4bgt12rcd13ifvqce0","pricing_plan_id":"cebpf4jnsgd1na2vs0mg"},{"bike_id":"de302269-fdda-4ef3-9935-87f4834e17d5","system_id":"levelo_inurba_marseille","lat":43.25933,"lon":5.40914,"is_reserved":false,"is_disabled":false,"rental_uris":{"android":"levelo://app?vid=de302269-fdda-4ef3-9935-87f4834e17d5","ios":"levelo://app?vid=de302269-fdda-4ef3-9935-87f4834e17d5"},"vehicle_type_id":"4","last_reported":1727903404,"current_range_meters":12800,"station_id":"ce4bhm92rcd13ifvqglg","pricing_plan_id":"cebpf4jnsgd1na2vs0mg"},{"bike_id":"0c96b1bb-428c-438b-9e93-a7688a1db556","system_id":"levelo_inurba_marseille","lat":43.31763,"lon":5.39017,"is_reserved":false,"is_disabled":false,"rental_uris":{"android":"levelo://app?vid=0c96b1bb-428c-438b-9e93-a7688a1db556","ios":"levelo://app?vid=0c96b1bb-428c-438b-9e93-a7688a1db556"},"vehicle_type_id":"4","last_reported":1727903404,"current_range_meters":20800,"station_id":"ce4bhqp2rcd13ifvqhng","pricing_plan_id":"cebpf4jnsgd1na2vs0mg"},{"bike_id":"14e40e04-1990-43df-9b8c-eeb5c1dd1802","system_id":"levelo_inurba_marseille","lat":43.28692,"lon":5.37395,"is_reserved":false,"is_disabled":false,"rental_uris":{"android":"levelo://app?vid=14e40e04-1990-43df-9b8c-eeb5c1dd1802","ios":"levelo://app?vid=14e40e04-1990-43df-9b8c-eeb5c1dd1802"},"vehicle_type_id":"4","last_reported":1727903404,"current_range_meters":8400,"station_id":"ce4bh3p2rcd13ifvqdq0","pricing_plan_id":"cebpf4jnsgd1na2vs0mg"},{"bike_id":"5bd58d62-3e59-4583-9f27-c2849b27bd5c","system_id":"levelo_inurba_marseille","lat":43.24184,"lon":5.39727,"is_reserved":false,"is_disabled":false,"rental_uris":{"android":"levelo://app?vid=5bd58d62-3e59-4583-9f27-c2849b27bd5c","ios":"levelo://app?vid=5bd58d62-3e59-4583-9f27-c2849b27bd5c"},"vehicle_type_id":"4","last_reported":1727903404,"current_range_meters":37600,"station_id":"ce4bhn12rcd13ifvqgpg","pricing_plan_id":"cebpf4jnsgd1na2vs0mg"},{"bike_id":"bceeceef-28be-4631-befc-7ca2509a7015","system_id":"levelo_inurba_marseille","lat":43.28844,"lon":5.35842,"is_reserved":false,"is_disabled":false,"rental_uris":{"android":"levelo://app?vid=bceeceef-28be-4631-befc-7ca2509a7015","ios":"levelo://app?vid=bceeceef-28be-4631-befc-7ca2509a7015"},"vehicle_type_id":"4","last_reported":1727903404,"current_range_meters":25600,"station_id":"ce4bhb12rcd13ifvqem0","pricing_plan_id":"cebpf4jnsgd1na2vs0mg"},{"bike_id":"d0a2f13c-3126-4465-9ed6-284e17bd89d4","system_id":"levelo_inurba_marseille","lat":43.28727,"lon":5.37926,"is_reserved":false,"is_disabled":false,"rental_uris":{"android":"levelo://app?vid=d0a2f13c-3126-4465-9ed6-284e17bd89d4","ios":"levelo://app?vid=d0a2f13c-3126-4465-9ed6-284e17bd89d4"},"vehicle_type_id":"4","last_reported":1727903404,"current_range_meters":14800,"station_id":"ce4bh9p2rcd13ifvqec0","pricing_plan_id":"cebpf4jnsgd1na2vs0mg"},{"bike_id":"cddc9843-fee7-437e-b2f3-26f36fa987eb","system_id":"levelo_inurba_marseille","lat":43.27183,"lon":5.4099,"is_reserved":false,"is_disabled":false,"rental_uris":{"android":"levelo://app?vid=cddc9843-fee7-437e-b2f3-26f36fa987eb","ios":"levelo://app?vid=cddc9843-fee7-437e-b2f3-26f36fa987eb"},"vehicle_type_id":"4","last_reported":1727903404,"current_range_meters":19600,"station_id":"ce4bhl12rcd13ifvqgf0","pricing_plan_id":"cebpf4jnsgd1na2vs0mg"},{"bike_id":"43f49d82-631b-4935-835c-5bba04851cb5","system_id":"levelo_inurba_marseille","lat":43.31534,"lon":5.38027,"is_reserved":false,"is_disabled":false,"rental_uris":{"android":"levelo://app?vid=43f49d82-631b-4935-835c-5bba04851cb5","ios":"levelo://app?vid=43f49d82-631b-4935-835c-5bba04851cb5"},"vehicle_type_id":"4","last_reported":1727903404,"current_range_meters":10000,"station_id":"ce4bhsp2rcd13ifvqi50","pricing_plan_id":"cebpf4jnsgd1na2vs0mg"},{"bike_id":"0f62f75e-c74e-4070-a0aa-b265ea497a5c","system_id":"levelo_inurba_marseille","lat":43.30282,"lon":5.37711,"is_reserved":false,"is_disabled":false,"rental_uris":{"android":"levelo://app?vid=0f62f75e-c74e-4070-a0aa-b265ea497a5c","ios":"levelo://app?vid=0f62f75e-c74e-4070-a0aa-b265ea497a5c"},"vehicle_type_id":"4","last_reported":1727903404,"current_range_meters":22400,"station_id":"ce4bguh2rcd13ifvqcj0","pricing_plan_id":"cebpf4jnsgd1na2vs0mg"},{"bike_id":"05ea7464-f5d1-462f-b9c6-e544cfc28818","system_id":"levelo_inurba_marseille","lat":43.29516,"lon":5.39038,"is_reserved":false,"is_disabled":false,"rental_uris":{"android":"levelo://app?vid=05ea7464-f5d1-462f-b9c6-e544cfc28818","ios":"levelo://app?vid=05ea7464-f5d1-462f-b9c6-e544cfc28818"},"vehicle_type_id":"4","last_reported":1727903404,"current_range_meters":28800,"station_id":"ce4bh3p2rcd13ifvqdp0","pricing_plan_id":"cebpf4jnsgd1na2vs0mg"},{"bike_id":"b482df99-7ee8-4eea-8d8b-1d22667db679","system_id":"levelo_inurba_marseille","lat":43.29346,"lon":5.42834,"is_reserved":false,"is_disabled":false,"rental_uris":{"android":"levelo://app?vid=b482df99-7ee8-4eea-8d8b-1d22667db679","ios":"levelo://app?vid=b482df99-7ee8-4eea-8d8b-1d22667db679"},"vehicle_type_id":"4","last_reported":1727903404,"current_range_meters":19600,"station_id":"","pricing_plan_id":"cebpf4jnsgd1na2vs0mg"},{"bike_id":"a55c725a-9129-4efc-8da2-729024ee5734","system_id":"levelo_inurba_marseille","lat":43.31899,"lon":5.40736,"is_reserved":false,"is_disabled":false,"rental_uris":{"android":"levelo://app?vid=a55c725a-9129-4efc-8da2-729024ee5734","ios":"levelo://app?vid=a55c725a-9129-4efc-8da2-729024ee5734"},"vehicle_type_id":"4","last_reported":1727903404,"current_range_meters":38800,"station_id":"ce4bhq12rcd13ifvqhig","pricing_plan_id":"cebpf4jnsgd1na2vs0mg"},{"bike_id":"06923303-6f5c-4517-9e3e-a22a202abf46","system_id":"levelo_inurba_marseille","lat":43.30885,"lon":5.39629,"is_reserved":false,"is_disabled":false,"rental_uris":{"android":"levelo://app?vid=06923303-6f5c-4517-9e3e-a22a202abf46","ios":"levelo://app?vid=06923303-6f5c-4517-9e3e-a22a202abf46"},"vehicle_type_id":"4","last_reported":1727903404,"current_range_meters":36400,"station_id":"ce4bh012rcd13ifvqcv0","pricing_plan_id":"cebpf4jnsgd1na2vs0mg"},{"bike_id":"2396aba7-c99b-4b8e-97f0-cc89734783f1","system_id":"levelo_inurba_marseille","lat":43.26208,"lon":5.37927,"is_reserved":false,"is_disabled":false,"rental_uris":{"android":"levelo://app?vid=2396aba7-c99b-4b8e-97f0-cc89734783f1","ios":"levelo://app?vid=2396aba7-c99b-4b8e-97f0-cc89734783f1"},"vehicle_type_id":"4","last_reported":1727903404,"current_range_meters":29600,"station_id":"ce4bhjp2rcd13ifvqg90","pricing_plan_id":"cebpf4jnsgd1na2vs0mg"},{"bike_id":"0ed9de7d-aa21-4211-ae93-47394a9486c4","system_id":"levelo_inurba_marseille","lat":43.28269,"lon":5.35077,"is_reserved":false,"is_disabled":false,"rental_uris":{"android":"levelo://app?vid=0ed9de7d-aa21-4211-ae93-47394a9486c4","ios":"levelo://app?vid=0ed9de7d-aa21-4211-ae93-47394a9486c4"},"vehicle_type_id":"4","last_reported":1727903404,"current_range_meters":39200,"station_id":"ce4bhbp2rcd13ifvqerg","pricing_plan_id":"cebpf4jnsgd1na2vs0mg"},{"bike_id":"53c6fe7a-c5f0-4c29-bdb6-08c6c7db5c71","system_id":"levelo_inurba_marseille","lat":43.32063,"lon":5.36752,"is_reserved":false,"is_disabled":false,"rental_uris":{"android":"levelo://app?vid=53c6fe7a-c5f0-4c29-bdb6-08c6c7db5c71","ios":"levelo://app?vid=53c6fe7a-c5f0-4c29-bdb6-08c6c7db5c71"},"vehicle_type_id":"4","last_reported":1727903404,"current_range_meters":14000,"station_id":"ce4bhrh2rcd13ifvqhug","pricing_plan_id":"cebpf4jnsgd1na2vs0mg"},{"bike_id":"e35a199c-c4c8-46cb-afce-efee42ad4498","system_id":"levelo_inurba_marseille","lat":43.29046,"lon":5.3592,"is_reserved":false,"is_disabled":false,"rental_uris":{"android":"levelo://app?vid=e35a199c-c4c8-46cb-afce-efee42ad4498","ios":"levelo://app?vid=e35a199c-c4c8-46cb-afce-efee42ad4498"},"vehicle_type_id":"4","last_reported":1727903404,"current_range_meters":40000,"station_id":"ce4bha92rcd13ifvqeg0","pricing_plan_id":"cebpf4jnsgd1na2vs0mg"},{"bike_id":"e95c44e3-8353-4e31-8a0a-4b78de08c376","system_id":"levelo_inurba_marseille","lat":43.31175,"lon":5.38709,"is_reserved":false,"is_disabled":false,"rental_uris":{"android":"levelo://app?vid=e95c44e3-8353-4e31-8a0a-4b78de08c376","ios":"levelo://app?vid=e95c44e3-8353-4e31-8a0a-4b78de08c376"},"vehicle_type_id":"4","last_reported":1727903404,"current_range_meters":25600,"station_id":"ce4bgv12rcd13ifvqcp0","pricing_plan_id":"cebpf4jnsgd1na2vs0mg"},{"bike_id":"6ce60676-3f86-4aaa-a5df-572436c32ad4","system_id":"levelo_inurba_marseille","lat":43.23196,"lon":5.35545,"is_reserved":false,"is_disabled":false,"rental_uris":{"android":"levelo://app?vid=6ce60676-3f86-4aaa-a5df-572436c32ad4","ios":"levelo://app?vid=6ce60676-3f86-4aaa-a5df-572436c32ad4"},"vehicle_type_id":"4","last_reported":1727903404,"current_range_meters":24400,"station_id":"ce4bhu92rcd13ifvqi70","pricing_plan_id":"cebpf4jnsgd1na2vs0mg"},{"bike_id":"92956c01-9282-4d6d-af22-88b69ff8ad02","system_id":"levelo_inurba_marseille","lat":43.295217,"lon":5.390398,"is_reserved":false,"is_disabled":false,"rental_uris":{"android":"levelo://app?vid=92956c01-9282-4d6d-af22-88b69ff8ad02","ios":"levelo://app?vid=92956c01-9282-4d6d-af22-88b69ff8ad02"},"vehicle_type_id":"4","last_reported":1727903404,"current_range_meters":34800,"station_id":"ce4bh3p2rcd13ifvqdp0","pricing_plan_id":"cebpf4jnsgd1na2vs0mg"},{"bike_id":"1def21d1-435f-4803-8b06-3978ff507c93","system_id":"levelo_inurba_marseille","lat":43.33739,"lon":5.39187,"is_reserved":false,"is_disabled":false,"rental_uris":{"android":"levelo://app?vid=1def21d1-435f-4803-8b06-3978ff507c93","ios":"levelo://app?vid=1def21d1-435f-4803-8b06-3978ff507c93"},"vehicle_type_id":"4","last_reported":1727903404,"current_range_meters":39200,"station_id":"ce4bhr92rcd13ifvqhsg","pricing_plan_id":"cebpf4jnsgd1na2vs0mg"},{"bike_id":"ec5748a6-9254-4618-8102-28e13fbd65eb","system_id":"levelo_inurba_marseille","lat":43.28457,"lon":5.35889,"is_reserved":false,"is_disabled":false,"rental_uris":{"android":"levelo://app?vid=ec5748a6-9254-4618-8102-28e13fbd65eb","ios":"levelo://app?vid=ec5748a6-9254-4618-8102-28e13fbd65eb"},"vehicle_type_id":"4","last_reported":1727903404,"current_range_meters":24400,"station_id":"ce4bhah2rcd13ifvqei0","pricing_plan_id":"cebpf4jnsgd1na2vs0mg"},{"bike_id":"15bc2474-416b-4ea7-ae8a-edd4eaaadae5","system_id":"levelo_inurba_marseille","lat":43.3154,"lon":5.38019,"is_reserved":false,"is_disabled":false,"rental_uris":{"android":"levelo://app?vid=15bc2474-416b-4ea7-ae8a-edd4eaaadae5","ios":"levelo://app?vid=15bc2474-416b-4ea7-ae8a-edd4eaaadae5"},"vehicle_type_id":"4","last_reported":1727903404,"current_range_meters":8800,"station_id":"ce4bhsp2rcd13ifvqi50","pricing_plan_id":"cebpf4jnsgd1na2vs0mg"},{"bike_id":"ac73cba3-67ac-49e6-9911-c708fff7cfd4","system_id":"levelo_inurba_marseille","lat":43.33025,"lon":5.39035,"is_reserved":false,"is_disabled":false,"rental_uris":{"android":"levelo://app?vid=ac73cba3-67ac-49e6-9911-c708fff7cfd4","ios":"levelo://app?vid=ac73cba3-67ac-49e6-9911-c708fff7cfd4"},"vehicle_type_id":"4","last_reported":1727903404,"current_range_meters":38800,"station_id":"ce4bhr92rcd13ifvqhrg","pricing_plan_id":"cebpf4jnsgd1na2vs0mg"},{"bike_id":"6a761229-3c92-441b-bc03-51a8f126d929","system_id":"levelo_inurba_marseille","lat":43.30246,"lon":5.39263,"is_reserved":false,"is_disabled":false,"rental_uris":{"android":"levelo://app?vid=6a761229-3c92-441b-bc03-51a8f126d929","ios":"levelo://app?vid=6a761229-3c92-441b-bc03-51a8f126d929"},"vehicle_type_id":"4","last_reported":1727903404,"current_range_meters":38000,"station_id":"ce4bh112rcd13ifvqda0","pricing_plan_id":"cebpf4jnsgd1na2vs0mg"},{"bike_id":"57a10729-bffb-4095-8761-40a923151202","system_id":"levelo_inurba_marseille","lat":43.2903,"lon":5.37557,"is_reserved":false,"is_disabled":false,"rental_uris":{"android":"levelo://app?vid=57a10729-bffb-4095-8761-40a923151202","ios":"levelo://app?vid=57a10729-bffb-4095-8761-40a923151202"},"vehicle_type_id":"4","last_reported":1727903404,"current_range_meters":22000,"station_id":"ce4bh692rcd13ifvqe90","pricing_plan_id":"cebpf4jnsgd1na2vs0mg"},{"bike_id":"3f52831f-d1ca-4522-99f2-ca762dcd1821","system_id":"levelo_inurba_marseille","lat":43.31766,"lon":5.39014,"is_reserved":false,"is_disabled":false,"rental_uris":{"android":"levelo://app?vid=3f52831f-d1ca-4522-99f2-ca762dcd1821","ios":"levelo://app?vid=3f52831f-d1ca-4522-99f2-ca762dcd1821"},"vehicle_type_id":"4","last_reported":1727903404,"current_range_meters":19600,"station_id":"ce4bhqp2rcd13ifvqhng","pricing_plan_id":"cebpf4jnsgd1na2vs0mg"},{"bike_id":"1edc7b98-f3bf-4931-bd48-3a6026d28bdc","system_id":"levelo_inurba_marseille","lat":43.28242,"lon":5.39498,"is_reserved":false,"is_disabled":false,"rental_uris":{"android":"levelo://app?vid=1edc7b98-f3bf-4931-bd48-3a6026d28bdc","ios":"levelo://app?vid=1edc7b98-f3bf-4931-bd48-3a6026d28bdc"},"vehicle_type_id":"4","last_reported":1727903404,"current_range_meters":20000,"station_id":"","pricing_plan_id":"cebpf4jnsgd1na2vs0mg"},{"bike_id":"c9bcc9ec-20e5-4c17-8296-b338afd0a143","system_id":"levelo_inurba_marseille","lat":43.28428,"lon":5.37521,"is_reserved":false,"is_disabled":false,"rental_uris":{"android":"levelo://app?vid=c9bcc9ec-20e5-4c17-8296-b338afd0a143","ios":"levelo://app?vid=c9bcc9ec-20e5-4c17-8296-b338afd0a143"},"vehicle_type_id":"4","last_reported":1727903404,"current_range_meters":16400,"station_id":"ce4bh412rcd13ifvqds0","pricing_plan_id":"cebpf4jnsgd1na2vs0mg"},{"bike_id":"88f6b72c-f048-4d55-8593-a5609d8eb13f","system_id":"levelo_inurba_marseille","lat":43.31696,"lon":5.40477,"is_reserved":false,"is_disabled":false,"rental_uris":{"android":"levelo://app?vid=88f6b72c-f048-4d55-8593-a5609d8eb13f","ios":"levelo://app?vid=88f6b72c-f048-4d55-8593-a5609d8eb13f"},"vehicle_type_id":"4","last_reported":1727903404,"current_range_meters":38800,"station_id":"ce4bh012rcd13ifvqd00","pricing_plan_id":"cebpf4jnsgd1na2vs0mg"},{"bike_id":"b85aca4a-710d-40d0-acbb-95d1ba26f856","system_id":"levelo_inurba_marseille","lat":43.33024,"lon":5.39037,"is_reserved":false,"is_disabled":false,"rental_uris":{"android":"levelo://app?vid=b85aca4a-710d-40d0-acbb-95d1ba26f856","ios":"levelo://app?vid=b85aca4a-710d-40d0-acbb-95d1ba26f856"},"vehicle_type_id":"4","last_reported":1727903404,"current_range_meters":30800,"station_id":"ce4bhr92rcd13ifvqhrg","pricing_plan_id":"cebpf4jnsgd1na2vs0mg"},{"bike_id":"8eba8700-4522-463d-bcb5-aa0653ad1026","system_id":"levelo_inurba_marseille","lat":43.3237,"lon":5.38894,"is_reserved":false,"is_disabled":false,"rental_uris":{"android":"levelo://app?vid=8eba8700-4522-463d-bcb5-aa0653ad1026","ios":"levelo://app?vid=8eba8700-4522-463d-bcb5-aa0653ad1026"},"vehicle_type_id":"4","last_reported":1727903404,"current_range_meters":28400,"station_id":"ce4bhqp2rcd13ifvqhog","pricing_plan_id":"cebpf4jnsgd1na2vs0mg"},{"bike_id":"9eaaa8ab-9680-499b-b6a8-ddaffe4a859d","system_id":"levelo_inurba_marseille","lat":43.31333,"lon":5.39696,"is_reserved":false,"is_disabled":false,"rental_uris":{"android":"levelo://app?vid=9eaaa8ab-9680-499b-b6a8-ddaffe4a859d","ios":"levelo://app?vid=9eaaa8ab-9680-499b-b6a8-ddaffe4a859d"},"vehicle_type_id":"4","last_reported":1727903404,"current_range_meters":32800,"station_id":"ce4bgvp2rcd13ifvqcu0","pricing_plan_id":"cebpf4jnsgd1na2vs0mg"},{"bike_id":"74925788-746e-4704-86a3-45ee3bc0ed44","system_id":"levelo_inurba_marseille","lat":43.27994,"lon":5.41658,"is_reserved":false,"is_disabled":false,"rental_uris":{"android":"levelo://app?vid=74925788-746e-4704-86a3-45ee3bc0ed44","ios":"levelo://app?vid=74925788-746e-4704-86a3-45ee3bc0ed44"},"vehicle_type_id":"4","last_reported":1727903404,"current_range_meters":6000,"station_id":"ce4bho12rcd13ifvqh1g","pricing_plan_id":"cebpf4jnsgd1na2vs0mg"},{"bike_id":"374b1c24-7938-4c8c-b9be-461f6edf7516","system_id":"levelo_inurba_marseille","lat":43.30209,"lon":5.39462,"is_reserved":false,"is_disabled":false,"rental_uris":{"android":"levelo://app?vid=374b1c24-7938-4c8c-b9be-461f6edf7516","ios":"levelo://app?vid=374b1c24-7938-4c8c-b9be-461f6edf7516"},"vehicle_type_id":"4","last_reported":1727903404,"current_range_meters":24800,"station_id":"ce4bh0p2rcd13ifvqd70","pricing_plan_id":"cebpf4jnsgd1na2vs0mg"},{"bike_id":"0679c212-7bea-4de2-83cb-36518d2c30db","system_id":"levelo_inurba_marseille","lat":43.27565,"lon":5.38428,"is_reserved":false,"is_disabled":false,"rental_uris":{"android":"levelo://app?vid=0679c212-7bea-4de2-83cb-36518d2c30db","ios":"levelo://app?vid=0679c212-7bea-4de2-83cb-36518d2c30db"},"vehicle_type_id":"4","last_reported":1727903404,"current_range_meters":24400,"station_id":"ce4bhh92rcd13ifvqfi0","pricing_plan_id":"cebpf4jnsgd1na2vs0mg"},{"bike_id":"44a0c29e-f923-49c6-ab58-518e409e8b20","system_id":"levelo_inurba_marseille","lat":43.2866,"lon":5.36346,"is_reserved":false,"is_disabled":false,"rental_uris":{"android":"levelo://app?vid=44a0c29e-f923-49c6-ab58-518e409e8b20","ios":"levelo://app?vid=44a0c29e-f923-49c6-ab58-518e409e8b20"},"vehicle_type_id":"4","last_reported":1727903404,"current_range_meters":19600,"station_id":"ce4bhah2rcd13ifvqej0","pricing_plan_id":"cebpf4jnsgd1na2vs0mg"},{"bike_id":"e1a289e3-9a3b-48ca-8adb-3428ce215cfc","system_id":"levelo_inurba_marseille","lat":43.26204,"lon":5.37927,"is_reserved":false,"is_disabled":false,"rental_uris":{"android":"levelo://app?vid=e1a289e3-9a3b-48ca-8adb-3428ce215cfc","ios":"levelo://app?vid=e1a289e3-9a3b-48ca-8adb-3428ce215cfc"},"vehicle_type_id":"4","last_reported":1727903404,"current_range_meters":38800,"station_id":"ce4bhjp2rcd13ifvqg90","pricing_plan_id":"cebpf4jnsgd1na2vs0mg"},{"bike_id":"4c9c9545-24de-4953-8a9a-6cedcc7bc446","system_id":"levelo_inurba_marseille","lat":43.29774,"lon":5.37104,"is_reserved":false,"is_disabled":false,"rental_uris":{"android":"levelo://app?vid=4c9c9545-24de-4953-8a9a-6cedcc7bc446","ios":"levelo://app?vid=4c9c9545-24de-4953-8a9a-6cedcc7bc446"},"vehicle_type_id":"4","last_reported":1727903404,"current_range_meters":28800,"station_id":"ce4bgop2rcd13ifvqc1g","pricing_plan_id":"cebpf4jnsgd1na2vs0mg"},{"bike_id":"59ce3d46-6f7e-40c1-85c7-c15eb33ed79b","system_id":"levelo_inurba_marseille","lat":43.28657,"lon":5.3853,"is_reserved":false,"is_disabled":false,"rental_uris":{"android":"levelo://app?vid=59ce3d46-6f7e-40c1-85c7-c15eb33ed79b","ios":"levelo://app?vid=59ce3d46-6f7e-40c1-85c7-c15eb33ed79b"},"vehicle_type_id":"4","last_reported":1727903404,"current_range_meters":35600,"station_id":"","pricing_plan_id":"cebpf4jnsgd1na2vs0mg"},{"bike_id":"48842a5b-c5bf-4751-8ac3-44c25278ff49","system_id":"levelo_inurba_marseille","lat":43.28108,"lon":5.37839,"is_reserved":false,"is_disabled":false,"rental_uris":{"android":"levelo://app?vid=48842a5b-c5bf-4751-8ac3-44c25278ff49","ios":"levelo://app?vid=48842a5b-c5bf-4751-8ac3-44c25278ff49"},"vehicle_type_id":"4","last_reported":1727903404,"current_range_meters":4400,"station_id":"ce4bha12rcd13ifvqee0","pricing_plan_id":"cebpf4jnsgd1na2vs0mg"},{"bike_id":"2b769238-5ec5-4162-b52b-987ddf715384","system_id":"levelo_inurba_marseille","lat":43.30801,"lon":5.4353,"is_reserved":false,"is_disabled":false,"rental_uris":{"android":"levelo://app?vid=2b769238-5ec5-4162-b52b-987ddf715384","ios":"levelo://app?vid=2b769238-5ec5-4162-b52b-987ddf715384"},"vehicle_type_id":"4","last_reported":1727903404,"current_range_meters":16800,"station_id":"ce4bhph2rcd13ifvqheg","pricing_plan_id":"cebpf4jnsgd1na2vs0mg"},{"bike_id":"5f0e7610-6654-4012-96dd-ebca13163504","system_id":"levelo_inurba_marseille","lat":43.30286,"lon":5.37707,"is_reserved":false,"is_disabled":false,"rental_uris":{"android":"levelo://app?vid=5f0e7610-6654-4012-96dd-ebca13163504","ios":"levelo://app?vid=5f0e7610-6654-4012-96dd-ebca13163504"},"vehicle_type_id":"4","last_reported":1727903404,"current_range_meters":38800,"station_id":"ce4bguh2rcd13ifvqcj0","pricing_plan_id":"cebpf4jnsgd1na2vs0mg"},{"bike_id":"c8e4ff73-620c-4248-92f7-758d5098242c","system_id":"levelo_inurba_marseille","lat":43.22924,"lon":5.35359,"is_reserved":false,"is_disabled":false,"rental_uris":{"android":"levelo://app?vid=c8e4ff73-620c-4248-92f7-758d5098242c","ios":"levelo://app?vid=c8e4ff73-620c-4248-92f7-758d5098242c"},"vehicle_type_id":"4","last_reported":1727903404,"current_range_meters":30400,"station_id":"cpo3532slgdg3j2ikp40","pricing_plan_id":"cebpf4jnsgd1na2vs0mg"},{"bike_id":"2c928f44-57a5-40da-8176-553aa4beaad9","system_id":"levelo_inurba_marseille","lat":43.25122,"lon":5.40327,"is_reserved":false,"is_disabled":false,"rental_uris":{"android":"levelo://app?vid=2c928f44-57a5-40da-8176-553aa4beaad9","ios":"levelo://app?vid=2c928f44-57a5-40da-8176-553aa4beaad9"},"vehicle_type_id":"4","last_reported":1727903404,"current_range_meters":32800,"station_id":"ce4bhlh2rcd13ifvqgig","pricing_plan_id":"cebpf4jnsgd1na2vs0mg"},{"bike_id":"6d4c92da-be83-4864-9593-20a1fbcbb8b0","system_id":"levelo_inurba_marseille","lat":43.28846,"lon":5.39321,"is_reserved":false,"is_disabled":false,"rental_uris":{"android":"levelo://app?vid=6d4c92da-be83-4864-9593-20a1fbcbb8b0","ios":"levelo://app?vid=6d4c92da-be83-4864-9593-20a1fbcbb8b0"},"vehicle_type_id":"4","last_reported":1727903404,"current_range_meters":6000,"station_id":"ce4bh2p2rcd13ifvqdi0","pricing_plan_id":"cebpf4jnsgd1na2vs0mg"},{"bike_id":"f05d9877-a5b6-4981-9c11-066c48dfc371","system_id":"levelo_inurba_marseille","lat":43.30427,"lon":5.38883,"is_reserved":false,"is_disabled":false,"rental_uris":{"android":"levelo://app?vid=f05d9877-a5b6-4981-9c11-066c48dfc371","ios":"levelo://app?vid=f05d9877-a5b6-4981-9c11-066c48dfc371"},"vehicle_type_id":"4","last_reported":1727903404,"current_range_meters":38000,"station_id":"ce4bgk12rcd13ifvqbi0","pricing_plan_id":"cebpf4jnsgd1na2vs0mg"},{"bike_id":"be403c0f-69ab-4946-a65f-45971c67894a","system_id":"levelo_inurba_marseille","lat":43.29879,"lon":5.39741,"is_reserved":false,"is_disabled":false,"rental_uris":{"android":"levelo://app?vid=be403c0f-69ab-4946-a65f-45971c67894a","ios":"levelo://app?vid=be403c0f-69ab-4946-a65f-45971c67894a"},"vehicle_type_id":"4","last_reported":1727903404,"current_range_meters":24800,"station_id":"ce4bh0h2rcd13ifvqd50","pricing_plan_id":"cebpf4jnsgd1na2vs0mg"},{"bike_id":"2594a4cc-f2ee-4bcf-bf05-a460950beb76","system_id":"levelo_inurba_marseille","lat":43.24997,"lon":5.38939,"is_reserved":false,"is_disabled":false,"rental_uris":{"android":"levelo://app?vid=2594a4cc-f2ee-4bcf-bf05-a460950beb76","ios":"levelo://app?vid=2594a4cc-f2ee-4bcf-bf05-a460950beb76"},"vehicle_type_id":"4","last_reported":1727903404,"current_range_meters":38800,"station_id":"ce4bhgp2rcd13ifvqfd0","pricing_plan_id":"cebpf4jnsgd1na2vs0mg"},{"bike_id":"b6f9f17a-45c4-49ac-872a-3e9ae06d1e3c","system_id":"levelo_inurba_marseille","lat":43.27832,"lon":5.392,"is_reserved":false,"is_disabled":false,"rental_uris":{"android":"levelo://app?vid=b6f9f17a-45c4-49ac-872a-3e9ae06d1e3c","ios":"levelo://app?vid=b6f9f17a-45c4-49ac-872a-3e9ae06d1e3c"},"vehicle_type_id":"4","last_reported":1727903404,"current_range_meters":13600,"station_id":"ce4bhjp2rcd13ifvqga0","pricing_plan_id":"cebpf4jnsgd1na2vs0mg"},{"bike_id":"ada97698-d425-48f5-978b-22bfa2249aae","system_id":"levelo_inurba_marseille","lat":43.3266,"lon":5.40996,"is_reserved":false,"is_disabled":false,"rental_uris":{"android":"levelo://app?vid=ada97698-d425-48f5-978b-22bfa2249aae","ios":"levelo://app?vid=ada97698-d425-48f5-978b-22bfa2249aae"},"vehicle_type_id":"4","last_reported":1727903404,"current_range_meters":11600,"station_id":"ce4bhpp2rcd13ifvqhgg","pricing_plan_id":"cebpf4jnsgd1na2vs0mg"},{"bike_id":"151fdf4d-fb88-40c5-95db-88049874738d","system_id":"levelo_inurba_marseille","lat":43.31276,"lon":5.40169,"is_reserved":false,"is_disabled":false,"rental_uris":{"android":"levelo://app?vid=151fdf4d-fb88-40c5-95db-88049874738d","ios":"levelo://app?vid=151fdf4d-fb88-40c5-95db-88049874738d"},"vehicle_type_id":"4","last_reported":1727903404,"current_range_meters":39200,"station_id":"ce4bh092rcd13ifvqd30","pricing_plan_id":"cebpf4jnsgd1na2vs0mg"},{"bike_id":"d3db97a8-628e-40cf-8a8d-91828292eef9","system_id":"levelo_inurba_marseille","lat":43.30812,"lon":5.38142,"is_reserved":false,"is_disabled":false,"rental_uris":{"android":"levelo://app?vid=d3db97a8-628e-40cf-8a8d-91828292eef9","ios":"levelo://app?vid=d3db97a8-628e-40cf-8a8d-91828292eef9"},"vehicle_type_id":"4","last_reported":1727903404,"current_range_meters":18000,"station_id":"ce4bgt12rcd13ifvqce0","pricing_plan_id":"cebpf4jnsgd1na2vs0mg"},{"bike_id":"aca3585a-5230-4eb3-a65e-727c519285cd","system_id":"levelo_inurba_marseille","lat":43.32658,"lon":5.4099,"is_reserved":false,"is_disabled":false,"rental_uris":{"android":"levelo://app?vid=aca3585a-5230-4eb3-a65e-727c519285cd","ios":"levelo://app?vid=aca3585a-5230-4eb3-a65e-727c519285cd"},"vehicle_type_id":"4","last_reported":1727903404,"current_range_meters":14400,"station_id":"ce4bhpp2rcd13ifvqhgg","pricing_plan_id":"cebpf4jnsgd1na2vs0mg"},{"bike_id":"7227bd52-06bc-465d-9599-4461ac5c98d5","system_id":"levelo_inurba_marseille","lat":43.30646,"lon":5.38314,"is_reserved":false,"is_disabled":false,"rental_uris":{"android":"levelo://app?vid=7227bd52-06bc-465d-9599-4461ac5c98d5","ios":"levelo://app?vid=7227bd52-06bc-465d-9599-4461ac5c98d5"},"vehicle_type_id":"4","last_reported":1727903404,"current_range_meters":27200,"station_id":"ce4bgg92rcd13ifvqb30","pricing_plan_id":"cebpf4jnsgd1na2vs0mg"},{"bike_id":"d1aecfc8-2724-45fb-a9ff-533e295c4ee5","system_id":"levelo_inurba_marseille","lat":43.289313,"lon":5.366355,"is_reserved":false,"is_disabled":false,"rental_uris":{"android":"levelo://app?vid=d1aecfc8-2724-45fb-a9ff-533e295c4ee5","ios":"levelo://app?vid=d1aecfc8-2724-45fb-a9ff-533e295c4ee5"},"vehicle_type_id":"4","last_reported":1727903404,"current_range_meters":38800,"station_id":"ce4bhap2rcd13ifvqek0","pricing_plan_id":"cebpf4jnsgd1na2vs0mg"},{"bike_id":"0e0c258e-284d-43a5-84d2-82fed5563899","system_id":"levelo_inurba_marseille","lat":43.2742,"lon":5.39413,"is_reserved":false,"is_disabled":false,"rental_uris":{"android":"levelo://app?vid=0e0c258e-284d-43a5-84d2-82fed5563899","ios":"levelo://app?vid=0e0c258e-284d-43a5-84d2-82fed5563899"},"vehicle_type_id":"4","last_reported":1727903404,"current_range_meters":36400,"station_id":"ce4bhdp2rcd13ifvqf20","pricing_plan_id":"cebpf4jnsgd1na2vs0mg"},{"bike_id":"8f290164-69d6-4233-b180-84e18c8add3f","system_id":"levelo_inurba_marseille","lat":43.31171,"lon":5.38717,"is_reserved":false,"is_disabled":false,"rental_uris":{"android":"levelo://app?vid=8f290164-69d6-4233-b180-84e18c8add3f","ios":"levelo://app?vid=8f290164-69d6-4233-b180-84e18c8add3f"},"vehicle_type_id":"4","last_reported":1727903404,"current_range_meters":24800,"station_id":"ce4bgv12rcd13ifvqcp0","pricing_plan_id":"cebpf4jnsgd1na2vs0mg"},{"bike_id":"0ad9f8f8-ca80-42a4-9f55-c0ac3f6ded09","system_id":"levelo_inurba_marseille","lat":43.28077,"lon":5.39646,"is_reserved":false,"is_disabled":false,"rental_uris":{"android":"levelo://app?vid=0ad9f8f8-ca80-42a4-9f55-c0ac3f6ded09","ios":"levelo://app?vid=0ad9f8f8-ca80-42a4-9f55-c0ac3f6ded09"},"vehicle_type_id":"4","last_reported":1727903404,"current_range_meters":36400,"station_id":"ce4bho12rcd13ifvqh2g","pricing_plan_id":"cebpf4jnsgd1na2vs0mg"},{"bike_id":"8e8d0cda-b8cb-4316-808e-271d28f47265","system_id":"levelo_inurba_marseille","lat":43.30265,"lon":5.38939,"is_reserved":false,"is_disabled":false,"rental_uris":{"android":"levelo://app?vid=8e8d0cda-b8cb-4316-808e-271d28f47265","ios":"levelo://app?vid=8e8d0cda-b8cb-4316-808e-271d28f47265"},"vehicle_type_id":"4","last_reported":1727903404,"current_range_meters":38800,"station_id":"","pricing_plan_id":"cebpf4jnsgd1na2vs0mg"},{"bike_id":"258da59f-73d3-4e22-bd50-5d9d808b4340","system_id":"levelo_inurba_marseille","lat":43.26066,"lon":5.39388,"is_reserved":false,"is_disabled":false,"rental_uris":{"android":"levelo://app?vid=258da59f-73d3-4e22-bd50-5d9d808b4340","ios":"levelo://app?vid=258da59f-73d3-4e22-bd50-5d9d808b4340"},"vehicle_type_id":"4","last_reported":1727903404,"current_range_meters":20400,"station_id":"ce4bhh92rcd13ifvqfj0","pricing_plan_id":"cebpf4jnsgd1na2vs0mg"},{"bike_id":"e823a2bb-1e6b-4dfe-a772-c82fdf522d93","system_id":"levelo_inurba_marseille","lat":43.28706,"lon":5.39993,"is_reserved":false,"is_disabled":false,"rental_uris":{"android":"levelo://app?vid=e823a2bb-1e6b-4dfe-a772-c82fdf522d93","ios":"levelo://app?vid=e823a2bb-1e6b-4dfe-a772-c82fdf522d93"},"vehicle_type_id":"4","last_reported":1727903404,"current_range_meters":6400,"station_id":"ce4bho92rcd13ifvqh3g","pricing_plan_id":"cebpf4jnsgd1na2vs0mg"},{"bike_id":"38677c3c-b9ff-436a-b386-d766bfba54a1","system_id":"levelo_inurba_marseille","lat":43.28001,"lon":5.40018,"is_reserved":false,"is_disabled":false,"rental_uris":{"android":"levelo://app?vid=38677c3c-b9ff-436a-b386-d766bfba54a1","ios":"levelo://app?vid=38677c3c-b9ff-436a-b386-d766bfba54a1"},"vehicle_type_id":"4","last_reported":1727903404,"current_range_meters":34000,"station_id":"ce4bho92rcd13ifvqh4g","pricing_plan_id":"cebpf4jnsgd1na2vs0mg"},{"bike_id":"58463ed2-13c3-48dc-9fd5-efc9d90336aa","system_id":"levelo_inurba_marseille","lat":43.31073,"lon":5.38354,"is_reserved":false,"is_disabled":false,"rental_uris":{"android":"levelo://app?vid=58463ed2-13c3-48dc-9fd5-efc9d90336aa","ios":"levelo://app?vid=58463ed2-13c3-48dc-9fd5-efc9d90336aa"},"vehicle_type_id":"4","last_reported":1727903404,"current_range_meters":14800,"station_id":"ce4bgv92rcd13ifvqcr0","pricing_plan_id":"cebpf4jnsgd1na2vs0mg"},{"bike_id":"54d16307-c546-486b-95c7-fa70e57efb41","system_id":"levelo_inurba_marseille","lat":43.29794,"lon":5.39351,"is_reserved":false,"is_disabled":false,"rental_uris":{"android":"levelo://app?vid=54d16307-c546-486b-95c7-fa70e57efb41","ios":"levelo://app?vid=54d16307-c546-486b-95c7-fa70e57efb41"},"vehicle_type_id":"4","last_reported":1727903404,"current_range_meters":17600,"station_id":"chh1huq6cuj3fo74tm60","pricing_plan_id":"cebpf4jnsgd1na2vs0mg"},{"bike_id":"37854c59-68e3-4e62-93a7-d522d0ada440","system_id":"levelo_inurba_marseille","lat":43.31224,"lon":5.36854,"is_reserved":false,"is_disabled":false,"rental_uris":{"android":"levelo://app?vid=37854c59-68e3-4e62-93a7-d522d0ada440","ios":"levelo://app?vid=37854c59-68e3-4e62-93a7-d522d0ada440"},"vehicle_type_id":"4","last_reported":1727903404,"current_range_meters":40000,"station_id":"ce4bgl92rcd13ifvqbq0","pricing_plan_id":"cebpf4jnsgd1na2vs0mg"},{"bike_id":"a5270d38-8392-4ac8-a27f-22a4b6ad7297","system_id":"levelo_inurba_marseille","lat":43.31334,"lon":5.39697,"is_reserved":false,"is_disabled":false,"rental_uris":{"android":"levelo://app?vid=a5270d38-8392-4ac8-a27f-22a4b6ad7297","ios":"levelo://app?vid=a5270d38-8392-4ac8-a27f-22a4b6ad7297"},"vehicle_type_id":"4","last_reported":1727903404,"current_range_meters":40000,"station_id":"ce4bgvp2rcd13ifvqcu0","pricing_plan_id":"cebpf4jnsgd1na2vs0mg"},{"bike_id":"23fcd5dc-52e3-40b6-b601-8da82c35b64a","system_id":"levelo_inurba_marseille","lat":43.23193,"lon":5.35543,"is_reserved":false,"is_disabled":false,"rental_uris":{"android":"levelo://app?vid=23fcd5dc-52e3-40b6-b601-8da82c35b64a","ios":"levelo://app?vid=23fcd5dc-52e3-40b6-b601-8da82c35b64a"},"vehicle_type_id":"4","last_reported":1727903404,"current_range_meters":4800,"station_id":"ce4bhu92rcd13ifvqi70","pricing_plan_id":"cebpf4jnsgd1na2vs0mg"},{"bike_id":"8bc8d4b7-f85b-46f3-a580-a5285ba07dab","system_id":"levelo_inurba_marseille","lat":43.2316,"lon":5.39977,"is_reserved":false,"is_disabled":false,"rental_uris":{"android":"levelo://app?vid=8bc8d4b7-f85b-46f3-a580-a5285ba07dab","ios":"levelo://app?vid=8bc8d4b7-f85b-46f3-a580-a5285ba07dab"},"vehicle_type_id":"4","last_reported":1727903404,"current_range_meters":39200,"station_id":"ce4bhn12rcd13ifvqgqg","pricing_plan_id":"cebpf4jnsgd1na2vs0mg"},{"bike_id":"c31b9c32-1716-4eec-aa79-f48f50ec5f06","system_id":"levelo_inurba_marseille","lat":43.23191,"lon":5.39989,"is_reserved":false,"is_disabled":false,"rental_uris":{"android":"levelo://app?vid=c31b9c32-1716-4eec-aa79-f48f50ec5f06","ios":"levelo://app?vid=c31b9c32-1716-4eec-aa79-f48f50ec5f06"},"vehicle_type_id":"4","last_reported":1727903404,"current_range_meters":38800,"station_id":"ce4bhn12rcd13ifvqgqg","pricing_plan_id":"cebpf4jnsgd1na2vs0mg"},{"bike_id":"85bd7558-6d85-4377-a41c-bf41443aa16b","system_id":"levelo_inurba_marseille","lat":43.31369,"lon":5.385,"is_reserved":false,"is_disabled":false,"rental_uris":{"android":"levelo://app?vid=85bd7558-6d85-4377-a41c-bf41443aa16b","ios":"levelo://app?vid=85bd7558-6d85-4377-a41c-bf41443aa16b"},"vehicle_type_id":"4","last_reported":1727903404,"current_range_meters":9600,"station_id":"ce4bgt92rcd13ifvqcf0","pricing_plan_id":"cebpf4jnsgd1na2vs0mg"},{"bike_id":"586a7815-25d6-4480-9170-1be830b0ee2a","system_id":"levelo_inurba_marseille","lat":43.30093,"lon":5.39084,"is_reserved":false,"is_disabled":false,"rental_uris":{"android":"levelo://app?vid=586a7815-25d6-4480-9170-1be830b0ee2a","ios":"levelo://app?vid=586a7815-25d6-4480-9170-1be830b0ee2a"},"vehicle_type_id":"4","last_reported":1727903404,"current_range_meters":26000,"station_id":"ce4bh192rcd13ifvqdb0","pricing_plan_id":"cebpf4jnsgd1na2vs0mg"},{"bike_id":"a9d0588a-c455-4f2e-9d71-f09eb6d52023","system_id":"levelo_inurba_marseille","lat":43.29578,"lon":5.39074,"is_reserved":false,"is_disabled":false,"rental_uris":{"android":"levelo://app?vid=a9d0588a-c455-4f2e-9d71-f09eb6d52023","ios":"levelo://app?vid=a9d0588a-c455-4f2e-9d71-f09eb6d52023"},"vehicle_type_id":"4","last_reported":1727903404,"current_range_meters":19600,"station_id":"","pricing_plan_id":"cebpf4jnsgd1na2vs0mg"},{"bike_id":"5d859c5d-dff8-4b20-81e1-72960281c79d","system_id":"levelo_inurba_marseille","lat":43.32482,"lon":5.36589,"is_reserved":false,"is_disabled":false,"rental_uris":{"android":"levelo://app?vid=5d859c5d-dff8-4b20-81e1-72960281c79d","ios":"levelo://app?vid=5d859c5d-dff8-4b20-81e1-72960281c79d"},"vehicle_type_id":"4","last_reported":1727903404,"current_range_meters":38400,"station_id":"ce4bhs12rcd13ifvqhvg","pricing_plan_id":"cebpf4jnsgd1na2vs0mg"},{"bike_id":"1ce39c1f-ffa6-47f0-a91a-48ff7de3a9e8","system_id":"levelo_inurba_marseille","lat":43.28462,"lon":5.35893,"is_reserved":false,"is_disabled":false,"rental_uris":{"android":"levelo://app?vid=1ce39c1f-ffa6-47f0-a91a-48ff7de3a9e8","ios":"levelo://app?vid=1ce39c1f-ffa6-47f0-a91a-48ff7de3a9e8"},"vehicle_type_id":"4","last_reported":1727903404,"current_range_meters":14000,"station_id":"ce4bhah2rcd13ifvqei0","pricing_plan_id":"cebpf4jnsgd1na2vs0mg"},{"bike_id":"1c7b42bf-32d8-4ce8-aa4b-48d5e754dce2","system_id":"levelo_inurba_marseille","lat":43.30334,"lon":5.40442,"is_reserved":false,"is_disabled":false,"rental_uris":{"android":"levelo://app?vid=1c7b42bf-32d8-4ce8-aa4b-48d5e754dce2","ios":"levelo://app?vid=1c7b42bf-32d8-4ce8-aa4b-48d5e754dce2"},"vehicle_type_id":"4","last_reported":1727903404,"current_range_meters":11600,"station_id":"ce4bh012rcd13ifvqd10","pricing_plan_id":"cebpf4jnsgd1na2vs0mg"},{"bike_id":"20cf269b-8f10-4396-9b59-76159a6c601f","system_id":"levelo_inurba_marseille","lat":43.29522,"lon":5.39043,"is_reserved":false,"is_disabled":false,"rental_uris":{"android":"levelo://app?vid=20cf269b-8f10-4396-9b59-76159a6c601f","ios":"levelo://app?vid=20cf269b-8f10-4396-9b59-76159a6c601f"},"vehicle_type_id":"4","last_reported":1727903404,"current_range_meters":16400,"station_id":"ce4bh3p2rcd13ifvqdp0","pricing_plan_id":"cebpf4jnsgd1na2vs0mg"},{"bike_id":"d9513a24-3235-43a7-b9a5-1c5cfe37603f","system_id":"levelo_inurba_marseille","lat":43.23055,"lon":5.35499,"is_reserved":false,"is_disabled":false,"rental_uris":{"android":"levelo://app?vid=d9513a24-3235-43a7-b9a5-1c5cfe37603f","ios":"levelo://app?vid=d9513a24-3235-43a7-b9a5-1c5cfe37603f"},"vehicle_type_id":"4","last_reported":1727903404,"current_range_meters":33200,"station_id":"cpo3342slgdg3j2ifvpg","pricing_plan_id":"cebpf4jnsgd1na2vs0mg"},{"bike_id":"772088a0-7828-4f69-ba5d-0f6cdb83dec2","system_id":"levelo_inurba_marseille","lat":43.337444,"lon":5.374475,"is_reserved":false,"is_disabled":false,"rental_uris":{"android":"levelo://app?vid=772088a0-7828-4f69-ba5d-0f6cdb83dec2","ios":"levelo://app?vid=772088a0-7828-4f69-ba5d-0f6cdb83dec2"},"vehicle_type_id":"4","last_reported":1727903404,"current_range_meters":4400,"station_id":"","pricing_plan_id":"cebpf4jnsgd1na2vs0mg"},{"bike_id":"17e441ff-b276-431a-b65f-f1412d828621","system_id":"levelo_inurba_marseille","lat":43.31172,"lon":5.3872,"is_reserved":false,"is_disabled":false,"rental_uris":{"android":"levelo://app?vid=17e441ff-b276-431a-b65f-f1412d828621","ios":"levelo://app?vid=17e441ff-b276-431a-b65f-f1412d828621"},"vehicle_type_id":"4","last_reported":1727903404,"current_range_meters":22800,"station_id":"ce4bgv12rcd13ifvqcp0","pricing_plan_id":"cebpf4jnsgd1na2vs0mg"},{"bike_id":"b48461c5-d144-4e53-807f-1f47ee839c5d","system_id":"levelo_inurba_marseille","lat":43.312686,"lon":5.401673,"is_reserved":false,"is_disabled":false,"rental_uris":{"android":"levelo://app?vid=b48461c5-d144-4e53-807f-1f47ee839c5d","ios":"levelo://app?vid=b48461c5-d144-4e53-807f-1f47ee839c5d"},"vehicle_type_id":"4","last_reported":1727903404,"current_range_meters":6400,"station_id":"ce4bh092rcd13ifvqd30","pricing_plan_id":"cebpf4jnsgd1na2vs0mg"},{"bike_id":"0d6cdb40-b04c-4ed3-abec-1bcfba714923","system_id":"levelo_inurba_marseille","lat":43.30889,"lon":5.39627,"is_reserved":false,"is_disabled":false,"rental_uris":{"android":"levelo://app?vid=0d6cdb40-b04c-4ed3-abec-1bcfba714923","ios":"levelo://app?vid=0d6cdb40-b04c-4ed3-abec-1bcfba714923"},"vehicle_type_id":"4","last_reported":1727903404,"current_range_meters":38000,"station_id":"ce4bh012rcd13ifvqcv0","pricing_plan_id":"cebpf4jnsgd1na2vs0mg"},{"bike_id":"89f79560-9417-4d80-afea-9f3796d9baaf","system_id":"levelo_inurba_marseille","lat":43.337444,"lon":5.374475,"is_reserved":false,"is_disabled":false,"rental_uris":{"android":"levelo://app?vid=89f79560-9417-4d80-afea-9f3796d9baaf","ios":"levelo://app?vid=89f79560-9417-4d80-afea-9f3796d9baaf"},"vehicle_type_id":"4","last_reported":1727903404,"current_range_meters":13600,"station_id":"","pricing_plan_id":"cebpf4jnsgd1na2vs0mg"},{"bike_id":"d5a656de-62d6-41e2-b7dd-9184d0cb619d","system_id":"levelo_inurba_marseille","lat":43.314198,"lon":5.393531,"is_reserved":false,"is_disabled":false,"rental_uris":{"android":"levelo://app?vid=d5a656de-62d6-41e2-b7dd-9184d0cb619d","ios":"levelo://app?vid=d5a656de-62d6-41e2-b7dd-9184d0cb619d"},"vehicle_type_id":"4","last_reported":1727903404,"current_range_meters":25600,"station_id":"ce4bh112rcd13ifvqd90","pricing_plan_id":"cebpf4jnsgd1na2vs0mg"},{"bike_id":"3f13e87b-2fc8-4c13-97ff-89bff5a566de","system_id":"levelo_inurba_marseille","lat":43.30652,"lon":5.40089,"is_reserved":false,"is_disabled":false,"rental_uris":{"android":"levelo://app?vid=3f13e87b-2fc8-4c13-97ff-89bff5a566de","ios":"levelo://app?vid=3f13e87b-2fc8-4c13-97ff-89bff5a566de"},"vehicle_type_id":"4","last_reported":1727903404,"current_range_meters":35600,"station_id":"ce4bh112rcd13ifvqda0","pricing_plan_id":"cebpf4jnsgd1na2vs0mg"},{"bike_id":"20261d7d-d2c8-40f2-b1c6-bc88e81dae24","system_id":"levelo_inurba_marseille","lat":43.32264,"lon":5.3866,"is_reserved":false,"is_disabled":false,"rental_uris":{"android":"levelo://app?vid=20261d7d-d2c8-40f2-b1c6-bc88e81dae24","ios":"levelo://app?vid=20261d7d-d2c8-40f2-b1c6-bc88e81dae24"},"vehicle_type_id":"4","last_reported":1727903404,"current_range_meters":38000,"station_id":"","pricing_plan_id":"cebpf4jnsgd1na2vs0mg"},{"bike_id":"1f8d985c-9121-4674-b626-194728e70cc7","system_id":"levelo_inurba_marseille","lat":43.29627,"lon":5.406,"is_reserved":false,"is_disabled":false,"rental_uris":{"android":"levelo://app?vid=1f8d985c-9121-4674-b626-194728e70cc7","ios":"levelo://app?vid=1f8d985c-9121-4674-b626-194728e70cc7"},"vehicle_type_id":"4","last_reported":1727903404,"current_range_meters":25200,"station_id":"ce4bh0h2rcd13ifvqd60","pricing_plan_id":"cebpf4jnsgd1na2vs0mg"},{"bike_id":"690de1ae-55a3-4612-a4d6-f4fc6a1327b7","system_id":"levelo_inurba_marseille","lat":43.31342,"lon":5.39698,"is_reserved":false,"is_disabled":false,"rental_uris":{"android":"levelo://app?vid=690de1ae-55a3-4612-a4d6-f4fc6a1327b7","ios":"levelo://app?vid=690de1ae-55a3-4612-a4d6-f4fc6a1327b7"},"vehicle_type_id":"4","last_reported":1727903404,"current_range_meters":38800,"station_id":"ce4bgvp2rcd13ifvqcu0","pricing_plan_id":"cebpf4jnsgd1na2vs0mg"},{"bike_id":"d16c4aea-47c5-4f92-9b60-c8b0af8a4c9f","system_id":"levelo_inurba_marseille","lat":43.28723,"lon":5.36099,"is_reserved":false,"is_disabled":false,"rental_uris":{"android":"levelo://app?vid=d16c4aea-47c5-4f92-9b60-c8b0af8a4c9f","ios":"levelo://app?vid=d16c4aea-47c5-4f92-9b60-c8b0af8a4c9f"},"vehicle_type_id":"4","last_reported":1727903404,"current_range_meters":38800,"station_id":"cki0cbj6b192h4jlfktg","pricing_plan_id":"cebpf4jnsgd1na2vs0mg"},{"bike_id":"1e236869-134d-4f80-81b5-7237cf219833","system_id":"levelo_inurba_marseille","lat":43.30254,"lon":5.40058,"is_reserved":false,"is_disabled":false,"rental_uris":{"android":"levelo://app?vid=1e236869-134d-4f80-81b5-7237cf219833","ios":"levelo://app?vid=1e236869-134d-4f80-81b5-7237cf219833"},"vehicle_type_id":"4","last_reported":1727903404,"current_range_meters":28800,"station_id":"ce4bgvh2rcd13ifvqcs0","pricing_plan_id":"cebpf4jnsgd1na2vs0mg"},{"bike_id":"fad5c320-49bb-4c9d-90ae-532ea8703090","system_id":"levelo_inurba_marseille","lat":43.28636,"lon":5.384386,"is_reserved":false,"is_disabled":false,"rental_uris":{"android":"levelo://app?vid=fad5c320-49bb-4c9d-90ae-532ea8703090","ios":"levelo://app?vid=fad5c320-49bb-4c9d-90ae-532ea8703090"},"vehicle_type_id":"4","last_reported":1727903404,"current_range_meters":3200,"station_id":"ce4bh492rcd13ifvqdug","pricing_plan_id":"cebpf4jnsgd1na2vs0mg"},{"bike_id":"2b0693c0-ad8d-424c-befa-3b85cb467101","system_id":"levelo_inurba_marseille","lat":43.27991,"lon":5.41666,"is_reserved":false,"is_disabled":false,"rental_uris":{"android":"levelo://app?vid=2b0693c0-ad8d-424c-befa-3b85cb467101","ios":"levelo://app?vid=2b0693c0-ad8d-424c-befa-3b85cb467101"},"vehicle_type_id":"4","last_reported":1727903404,"current_range_meters":30400,"station_id":"ce4bho12rcd13ifvqh1g","pricing_plan_id":"cebpf4jnsgd1na2vs0mg"},{"bike_id":"3a3d9aba-c55f-4a05-a5ef-a3c6f1a1597b","system_id":"levelo_inurba_marseille","lat":43.24662,"lon":5.38163,"is_reserved":false,"is_disabled":false,"rental_uris":{"android":"levelo://app?vid=3a3d9aba-c55f-4a05-a5ef-a3c6f1a1597b","ios":"levelo://app?vid=3a3d9aba-c55f-4a05-a5ef-a3c6f1a1597b"},"vehicle_type_id":"4","last_reported":1727903404,"current_range_meters":33200,"station_id":"ce4bhih2rcd13ifvqfr0","pricing_plan_id":"cebpf4jnsgd1na2vs0mg"},{"bike_id":"698d281f-c077-466c-ad7e-3ebe508cc17b","system_id":"levelo_inurba_marseille","lat":43.24171,"lon":5.36398,"is_reserved":false,"is_disabled":false,"rental_uris":{"android":"levelo://app?vid=698d281f-c077-466c-ad7e-3ebe508cc17b","ios":"levelo://app?vid=698d281f-c077-466c-ad7e-3ebe508cc17b"},"vehicle_type_id":"4","last_reported":1727903404,"current_range_meters":15200,"station_id":"cpo36qri1sfpv3e86is0","pricing_plan_id":"cebpf4jnsgd1na2vs0mg"},{"bike_id":"e08cdb15-92f9-49e2-b96d-d5acb2e263f2","system_id":"levelo_inurba_marseille","lat":43.33029,"lon":5.39048,"is_reserved":false,"is_disabled":false,"rental_uris":{"android":"levelo://app?vid=e08cdb15-92f9-49e2-b96d-d5acb2e263f2","ios":"levelo://app?vid=e08cdb15-92f9-49e2-b96d-d5acb2e263f2"},"vehicle_type_id":"4","last_reported":1727903404,"current_range_meters":30000,"station_id":"ce4bhr92rcd13ifvqhrg","pricing_plan_id":"cebpf4jnsgd1na2vs0mg"},{"bike_id":"a0eff93a-8c62-4d6d-9283-59c4a9b5f8e7","system_id":"levelo_inurba_marseille","lat":43.24392,"lon":5.37057,"is_reserved":false,"is_disabled":false,"rental_uris":{"android":"levelo://app?vid=a0eff93a-8c62-4d6d-9283-59c4a9b5f8e7","ios":"levelo://app?vid=a0eff93a-8c62-4d6d-9283-59c4a9b5f8e7"},"vehicle_type_id":"4","last_reported":1727903404,"current_range_meters":39200,"station_id":"ce4bhhh2rcd13ifvqfk0","pricing_plan_id":"cebpf4jnsgd1na2vs0mg"},{"bike_id":"1ace4912-de1a-4b3c-b414-fcf59a1a69c5","system_id":"levelo_inurba_marseille","lat":43.29802,"lon":5.39343,"is_reserved":false,"is_disabled":false,"rental_uris":{"android":"levelo://app?vid=1ace4912-de1a-4b3c-b414-fcf59a1a69c5","ios":"levelo://app?vid=1ace4912-de1a-4b3c-b414-fcf59a1a69c5"},"vehicle_type_id":"4","last_reported":1727903404,"current_range_meters":36400,"station_id":"chh1huq6cuj3fo74tm60","pricing_plan_id":"cebpf4jnsgd1na2vs0mg"},{"bike_id":"0927edc0-a2c0-428a-a1e9-31ec3c4f6f54","system_id":"levelo_inurba_marseille","lat":43.305576,"lon":5.39211,"is_reserved":false,"is_disabled":false,"rental_uris":{"android":"levelo://app?vid=0927edc0-a2c0-428a-a1e9-31ec3c4f6f54","ios":"levelo://app?vid=0927edc0-a2c0-428a-a1e9-31ec3c4f6f54"},"vehicle_type_id":"4","last_reported":1727903404,"current_range_meters":14400,"station_id":"","pricing_plan_id":"cebpf4jnsgd1na2vs0mg"},{"bike_id":"131aa0a7-4ccb-4b26-adec-65ee066db32a","system_id":"levelo_inurba_marseille","lat":43.27901,"lon":5.38008,"is_reserved":false,"is_disabled":false,"rental_uris":{"android":"levelo://app?vid=131aa0a7-4ccb-4b26-adec-65ee066db32a","ios":"levelo://app?vid=131aa0a7-4ccb-4b26-adec-65ee066db32a"},"vehicle_type_id":"4","last_reported":1727903404,"current_range_meters":22400,"station_id":"ce4bhf92rcd13ifvqf50","pricing_plan_id":"cebpf4jnsgd1na2vs0mg"},{"bike_id":"21d891b7-eaf0-4153-966e-db47aaa6bdf6","system_id":"levelo_inurba_marseille","lat":43.28933,"lon":5.36404,"is_reserved":false,"is_disabled":false,"rental_uris":{"android":"levelo://app?vid=21d891b7-eaf0-4153-966e-db47aaa6bdf6","ios":"levelo://app?vid=21d891b7-eaf0-4153-966e-db47aaa6bdf6"},"vehicle_type_id":"4","last_reported":1727903404,"current_range_meters":36000,"station_id":"ce4bhc92rcd13ifvqetg","pricing_plan_id":"cebpf4jnsgd1na2vs0mg"},{"bike_id":"c33f1dd7-4706-4981-a6e8-453f1d0522a7","system_id":"levelo_inurba_marseille","lat":43.28737,"lon":5.3608,"is_reserved":false,"is_disabled":false,"rental_uris":{"android":"levelo://app?vid=c33f1dd7-4706-4981-a6e8-453f1d0522a7","ios":"levelo://app?vid=c33f1dd7-4706-4981-a6e8-453f1d0522a7"},"vehicle_type_id":"4","last_reported":1727903404,"current_range_meters":40000,"station_id":"cki0cbj6b192h4jlfktg","pricing_plan_id":"cebpf4jnsgd1na2vs0mg"},{"bike_id":"d811c065-84b5-4478-9860-32ce0751cfee","system_id":"levelo_inurba_marseille","lat":43.30247,"lon":5.40073,"is_reserved":false,"is_disabled":false,"rental_uris":{"android":"levelo://app?vid=d811c065-84b5-4478-9860-32ce0751cfee","ios":"levelo://app?vid=d811c065-84b5-4478-9860-32ce0751cfee"},"vehicle_type_id":"4","last_reported":1727903404,"current_range_meters":24400,"station_id":"ce4bgvh2rcd13ifvqcs0","pricing_plan_id":"cebpf4jnsgd1na2vs0mg"},{"bike_id":"e30c168d-0c4f-413b-b06b-b0be757042f3","system_id":"levelo_inurba_marseille","lat":43.28939,"lon":5.39625,"is_reserved":false,"is_disabled":false,"rental_uris":{"android":"levelo://app?vid=e30c168d-0c4f-413b-b06b-b0be757042f3","ios":"levelo://app?vid=e30c168d-0c4f-413b-b06b-b0be757042f3"},"vehicle_type_id":"4","last_reported":1727903404,"current_range_meters":38800,"station_id":"ce4bh3h2rcd13ifvqdn0","pricing_plan_id":"cebpf4jnsgd1na2vs0mg"},{"bike_id":"c81792a0-2bc6-4839-8270-b9adaca08cae","system_id":"levelo_inurba_marseille","lat":43.33027,"lon":5.39043,"is_reserved":false,"is_disabled":false,"rental_uris":{"android":"levelo://app?vid=c81792a0-2bc6-4839-8270-b9adaca08cae","ios":"levelo://app?vid=c81792a0-2bc6-4839-8270-b9adaca08cae"},"vehicle_type_id":"4","last_reported":1727903404,"current_range_meters":38800,"station_id":"ce4bhr92rcd13ifvqhrg","pricing_plan_id":"cebpf4jnsgd1na2vs0mg"},{"bike_id":"c389ab88-8014-4e2f-b139-4bd8a30c7985","system_id":"levelo_inurba_marseille","lat":43.31367,"lon":5.384948,"is_reserved":false,"is_disabled":false,"rental_uris":{"android":"levelo://app?vid=c389ab88-8014-4e2f-b139-4bd8a30c7985","ios":"levelo://app?vid=c389ab88-8014-4e2f-b139-4bd8a30c7985"},"vehicle_type_id":"4","last_reported":1727903404,"current_range_meters":5600,"station_id":"ce4bgt92rcd13ifvqcf0","pricing_plan_id":"cebpf4jnsgd1na2vs0mg"},{"bike_id":"6637cce3-944a-473d-80a3-90b69ab6fd46","system_id":"levelo_inurba_marseille","lat":43.30909,"lon":5.39643,"is_reserved":false,"is_disabled":false,"rental_uris":{"android":"levelo://app?vid=6637cce3-944a-473d-80a3-90b69ab6fd46","ios":"levelo://app?vid=6637cce3-944a-473d-80a3-90b69ab6fd46"},"vehicle_type_id":"4","last_reported":1727903404,"current_range_meters":4800,"station_id":"ce4bh012rcd13ifvqcv0","pricing_plan_id":"cebpf4jnsgd1na2vs0mg"},{"bike_id":"5084d4e8-22d7-4248-aec8-4997331ff1e0","system_id":"levelo_inurba_marseille","lat":43.22933,"lon":5.35373,"is_reserved":false,"is_disabled":false,"rental_uris":{"android":"levelo://app?vid=5084d4e8-22d7-4248-aec8-4997331ff1e0","ios":"levelo://app?vid=5084d4e8-22d7-4248-aec8-4997331ff1e0"},"vehicle_type_id":"4","last_reported":1727903404,"current_range_meters":37600,"station_id":"cpo3532slgdg3j2ikp40","pricing_plan_id":"cebpf4jnsgd1na2vs0mg"},{"bike_id":"4dd3f881-6917-418f-86f4-3bf679149fca","system_id":"levelo_inurba_marseille","lat":43.31166,"lon":5.38724,"is_reserved":false,"is_disabled":false,"rental_uris":{"android":"levelo://app?vid=4dd3f881-6917-418f-86f4-3bf679149fca","ios":"levelo://app?vid=4dd3f881-6917-418f-86f4-3bf679149fca"},"vehicle_type_id":"4","last_reported":1727903404,"current_range_meters":30400,"station_id":"ce4bgv12rcd13ifvqcp0","pricing_plan_id":"cebpf4jnsgd1na2vs0mg"},{"bike_id":"06678ccb-d767-4ae2-b5eb-0d311ba10c0c","system_id":"levelo_inurba_marseille","lat":43.25494,"lon":5.37647,"is_reserved":false,"is_disabled":false,"rental_uris":{"android":"levelo://app?vid=06678ccb-d767-4ae2-b5eb-0d311ba10c0c","ios":"levelo://app?vid=06678ccb-d767-4ae2-b5eb-0d311ba10c0c"},"vehicle_type_id":"4","last_reported":1727903404,"current_range_meters":34800,"station_id":"ce4bhh12rcd13ifvqff0","pricing_plan_id":"cebpf4jnsgd1na2vs0mg"},{"bike_id":"003ee09e-7445-4d77-a232-f03412b0e64e","system_id":"levelo_inurba_marseille","lat":43.31997,"lon":5.38155,"is_reserved":false,"is_disabled":false,"rental_uris":{"android":"levelo://app?vid=003ee09e-7445-4d77-a232-f03412b0e64e","ios":"levelo://app?vid=003ee09e-7445-4d77-a232-f03412b0e64e"},"vehicle_type_id":"4","last_reported":1727903404,"current_range_meters":9600,"station_id":"ce4bhr12rcd13ifvqhpg","pricing_plan_id":"cebpf4jnsgd1na2vs0mg"},{"bike_id":"cc0e229b-7f07-4118-86b9-50f1f70b630e","system_id":"levelo_inurba_marseille","lat":43.28705,"lon":5.39976,"is_reserved":false,"is_disabled":false,"rental_uris":{"android":"levelo://app?vid=cc0e229b-7f07-4118-86b9-50f1f70b630e","ios":"levelo://app?vid=cc0e229b-7f07-4118-86b9-50f1f70b630e"},"vehicle_type_id":"4","last_reported":1727903404,"current_range_meters":25200,"station_id":"ce4bho92rcd13ifvqh3g","pricing_plan_id":"cebpf4jnsgd1na2vs0mg"},{"bike_id":"4039b68e-8065-4eba-ab7d-1595d9d7a832","system_id":"levelo_inurba_marseille","lat":43.32298,"lon":5.38271,"is_reserved":false,"is_disabled":false,"rental_uris":{"android":"levelo://app?vid=4039b68e-8065-4eba-ab7d-1595d9d7a832","ios":"levelo://app?vid=4039b68e-8065-4eba-ab7d-1595d9d7a832"},"vehicle_type_id":"4","last_reported":1727903404,"current_range_meters":40000,"station_id":"ce4bhr12rcd13ifvqhqg","pricing_plan_id":"cebpf4jnsgd1na2vs0mg"},{"bike_id":"34ec3181-5c78-4793-af82-8687285db530","system_id":"levelo_inurba_marseille","lat":43.31692,"lon":5.40485,"is_reserved":false,"is_disabled":false,"rental_uris":{"android":"levelo://app?vid=34ec3181-5c78-4793-af82-8687285db530","ios":"levelo://app?vid=34ec3181-5c78-4793-af82-8687285db530"},"vehicle_type_id":"4","last_reported":1727903404,"current_range_meters":38800,"station_id":"ce4bh012rcd13ifvqd00","pricing_plan_id":"cebpf4jnsgd1na2vs0mg"},{"bike_id":"d159a850-ac71-4235-bd46-064a751116b0","system_id":"levelo_inurba_marseille","lat":43.26688,"lon":5.38272,"is_reserved":false,"is_disabled":false,"rental_uris":{"android":"levelo://app?vid=d159a850-ac71-4235-bd46-064a751116b0","ios":"levelo://app?vid=d159a850-ac71-4235-bd46-064a751116b0"},"vehicle_type_id":"4","last_reported":1727903404,"current_range_meters":39200,"station_id":"ce4bhg92rcd13ifvqf90","pricing_plan_id":"cebpf4jnsgd1na2vs0mg"},{"bike_id":"1ee6fb02-e30e-46e9-82a1-66d08e3436f5","system_id":"levelo_inurba_marseille","lat":43.29167,"lon":5.39334,"is_reserved":false,"is_disabled":false,"rental_uris":{"android":"levelo://app?vid=1ee6fb02-e30e-46e9-82a1-66d08e3436f5","ios":"levelo://app?vid=1ee6fb02-e30e-46e9-82a1-66d08e3436f5"},"vehicle_type_id":"4","last_reported":1727903404,"current_range_meters":40000,"station_id":"ce4bh192rcd13ifvqdd0","pricing_plan_id":"cebpf4jnsgd1na2vs0mg"},{"bike_id":"bf2cbe07-4d23-45c9-85cc-f5938a66403a","system_id":"levelo_inurba_marseille","lat":43.28716,"lon":5.37384,"is_reserved":false,"is_disabled":false,"rental_uris":{"android":"levelo://app?vid=bf2cbe07-4d23-45c9-85cc-f5938a66403a","ios":"levelo://app?vid=bf2cbe07-4d23-45c9-85cc-f5938a66403a"},"vehicle_type_id":"4","last_reported":1727903404,"current_range_meters":38800,"station_id":"ce4bh3p2rcd13ifvqdq0","pricing_plan_id":"cebpf4jnsgd1na2vs0mg"},{"bike_id":"862aa516-8a23-4aae-b579-d6a3b93fe90d","system_id":"levelo_inurba_marseille","lat":43.31373,"lon":5.38498,"is_reserved":false,"is_disabled":false,"rental_uris":{"android":"levelo://app?vid=862aa516-8a23-4aae-b579-d6a3b93fe90d","ios":"levelo://app?vid=862aa516-8a23-4aae-b579-d6a3b93fe90d"},"vehicle_type_id":"4","last_reported":1727903404,"current_range_meters":24800,"station_id":"ce4bgt92rcd13ifvqcf0","pricing_plan_id":"cebpf4jnsgd1na2vs0mg"},{"bike_id":"314fabe9-89ff-4feb-8ced-b80050404c5a","system_id":"levelo_inurba_marseille","lat":43.291952,"lon":5.357958,"is_reserved":false,"is_disabled":false,"rental_uris":{"android":"levelo://app?vid=314fabe9-89ff-4feb-8ced-b80050404c5a","ios":"levelo://app?vid=314fabe9-89ff-4feb-8ced-b80050404c5a"},"vehicle_type_id":"4","last_reported":1727903404,"current_range_meters":38400,"station_id":"ce4bhb12rcd13ifvqel0","pricing_plan_id":"cebpf4jnsgd1na2vs0mg"},{"bike_id":"6c48be79-4a0a-4b10-830c-6fd83327388c","system_id":"levelo_inurba_marseille","lat":43.26933,"lon":5.40258,"is_reserved":false,"is_disabled":false,"rental_uris":{"android":"levelo://app?vid=6c48be79-4a0a-4b10-830c-6fd83327388c","ios":"levelo://app?vid=6c48be79-4a0a-4b10-830c-6fd83327388c"},"vehicle_type_id":"4","last_reported":1727903404,"current_range_meters":24400,"station_id":"cjm6bp8fraef2m0cb0m0","pricing_plan_id":"cebpf4jnsgd1na2vs0mg"},