{"last_updated":1778344810,"ttl":60,"version":"2.2","data":{"bikes":[{"bike_id":"1709f6c4-df38-4392-a22b-79877bea9f71","system_id":"levelo_inurba_marseille","lat":43.26253,"lon":5.39146,"is_reserved":false,"is_disabled":false,"rental_uris":{"android":"levelo://app?vid=1709f6c4-df38-4392-a22b-79877bea9f71","ios":"levelo://app?vid=1709f6c4-df38-4392-a22b-79877bea9f71"},"vehicle_type_id":"4","last_reported":1778344811,"current_range_meters":2800,"station_id":"","pricing_plan_id":"cebpf4jnsgd1na2vs0mg"},{"bike_id":"f9765471-797c-4251-b388-a11b5bbe30f0","system_id":"levelo_inurba_marseille","lat":43.33537,"lon":5.37481,"is_reserved":false,"is_disabled":false,"rental_uris":{"android":"levelo://app?vid=f9765471-797c-4251-b388-a11b5bbe30f0","ios":"levelo://app?vid=f9765471-797c-4251-b388-a11b5bbe30f0"},"vehicle_type_id":"4","last_reported":1778344811,"current_range_meters":2800,"station_id":"st_d46tts09ee8s73dlu43g","pricing_plan_id":"cebpf4jnsgd1na2vs0mg"},{"bike_id":"5ff29bd8-a80a-4004-a4e4-c318589017ac","system_id":"levelo_inurba_marseille","lat":43.28277,"lon":5.35084,"is_reserved":false,"is_disabled":false,"rental_uris":{"android":"levelo://app?vid=5ff29bd8-a80a-4004-a4e4-c318589017ac","ios":"levelo://app?vid=5ff29bd8-a80a-4004-a4e4-c318589017ac"},"vehicle_type_id":"4","last_reported":1778344811,"current_range_meters":2800,"station_id":"ce4bhbp2rcd13ifvqerg","pricing_plan_id":"cebpf4jnsgd1na2vs0mg"},{"bike_id":"7486ce74-b1a6-46d0-b158-e81b99638b7e","system_id":"levelo_inurba_marseille","lat":43.24506,"lon":5.39518,"is_reserved":false,"is_disabled":false,"rental_uris":{"android":"levelo://app?vid=7486ce74-b1a6-46d0-b158-e81b99638b7e","ios":"levelo://app?vid=7486ce74-b1a6-46d0-b158-e81b99638b7e"},"vehicle_type_id":"4","last_reported":1778344811,"current_range_meters":2800,"station_id":"","pricing_plan_id":"cebpf4jnsgd1na2vs0mg"},{"bike_id":"1d981626-3199-46a5-b8bc-3328517365c9","system_id":"levelo_inurba_marseille","lat":43.28484,"lon":5.48389,"is_reserved":false,"is_disabled":false,"rental_uris":{"android":"levelo://app?vid=1d981626-3199-46a5-b8bc-3328517365c9","ios":"levelo://app?vid=1d981626-3199-46a5-b8bc-3328517365c9"},"vehicle_type_id":"4","last_reported":1778344811,"current_range_meters":2800,"station_id":"","pricing_plan_id":"cebpf4jnsgd1na2vs0mg"},{"bike_id":"1cd5ff24-d5c0-4860-8e59-992df77365c7","system_id":"levelo_inurba_marseille","lat":43.28939,"lon":5.36638,"is_reserved":false,"is_disabled":false,"rental_uris":{"android":"levelo://app?vid=1cd5ff24-d5c0-4860-8e59-992df77365c7","ios":"levelo://app?vid=1cd5ff24-d5c0-4860-8e59-992df77365c7"},"vehicle_type_id":"4","last_reported":1778344811,"current_range_meters":2800,"station_id":"ce4bhap2rcd13ifvqek0","pricing_plan_id":"cebpf4jnsgd1na2vs0mg"},{"bike_id":"9c6f744c-0e72-49bc-9387-3a540d0fe052","system_id":"levelo_inurba_marseille","lat":43.24802,"lon":5.37453,"is_reserved":false,"is_disabled":false,"rental_uris":{"android":"levelo://app?vid=9c6f744c-0e72-49bc-9387-3a540d0fe052","ios":"levelo://app?vid=9c6f744c-0e72-49bc-9387-3a540d0fe052"},"vehicle_type_id":"4","last_reported":1778344811,"current_range_meters":2800,"station_id":"ce4bhgh2rcd13ifvqfb0","pricing_plan_id":"cebpf4jnsgd1na2vs0mg"},{"bike_id":"55908fcb-78e7-4678-9043-4d72035b8466","system_id":"levelo_inurba_marseille","lat":43.26204,"lon":5.37455,"is_reserved":false,"is_disabled":false,"rental_uris":{"android":"levelo://app?vid=55908fcb-78e7-4678-9043-4d72035b8466","ios":"levelo://app?vid=55908fcb-78e7-4678-9043-4d72035b8466"},"vehicle_type_id":"4","last_reported":1778344811,"current_range_meters":2800,"station_id":"ce4bhgp2rcd13ifvqfc0","pricing_plan_id":"cebpf4jnsgd1na2vs0mg"},{"bike_id":"cdd278be-6985-4e01-a1e8-4899861427d9","system_id":"levelo_inurba_marseille","lat":43.268723,"lon":5.401672,"is_reserved":false,"is_disabled":false,"rental_uris":{"android":"levelo://app?vid=cdd278be-6985-4e01-a1e8-4899861427d9","ios":"levelo://app?vid=cdd278be-6985-4e01-a1e8-4899861427d9"},"vehicle_type_id":"4","last_reported":1778344811,"current_range_meters":2800,"station_id":"ce4bhip2rcd13ifvqft0","pricing_plan_id":"cebpf4jnsgd1na2vs0mg"},{"bike_id":"fad03004-6e5c-4a4d-887a-bb4809c2541a","system_id":"levelo_inurba_marseille","lat":43.28607,"lon":5.39876,"is_reserved":false,"is_disabled":false,"rental_uris":{"android":"levelo://app?vid=fad03004-6e5c-4a4d-887a-bb4809c2541a","ios":"levelo://app?vid=fad03004-6e5c-4a4d-887a-bb4809c2541a"},"vehicle_type_id":"4","last_reported":1778344811,"current_range_meters":2800,"station_id":"st_d4a7ka997mjs738ck50g","pricing_plan_id":"cebpf4jnsgd1na2vs0mg"},{"bike_id":"06ab7e03-6cc1-4519-8625-3652421fe315","system_id":"levelo_inurba_marseille","lat":43.33162,"lon":5.37699,"is_reserved":false,"is_disabled":false,"rental_uris":{"android":"levelo://app?vid=06ab7e03-6cc1-4519-8625-3652421fe315","ios":"levelo://app?vid=06ab7e03-6cc1-4519-8625-3652421fe315"},"vehicle_type_id":"4","last_reported":1778344811,"current_range_meters":2800,"station_id":"st_d46cu089ee8s73dldbu0","pricing_plan_id":"cebpf4jnsgd1na2vs0mg"},{"bike_id":"e4fb821e-f28f-4a7f-b43c-77356d787a74","system_id":"levelo_inurba_marseille","lat":43.298725,"lon":5.389118,"is_reserved":false,"is_disabled":true,"rental_uris":{"android":"levelo://app?vid=e4fb821e-f28f-4a7f-b43c-77356d787a74","ios":"levelo://app?vid=e4fb821e-f28f-4a7f-b43c-77356d787a74"},"vehicle_type_id":"4","last_reported":1778344811,"current_range_meters":2800,"station_id":"ce4bh392rcd13ifvqdl0","pricing_plan_id":"cebpf4jnsgd1na2vs0mg"},{"bike_id":"19290f2a-a1ba-4496-ad95-cbcfe22cf65f","system_id":"levelo_inurba_marseille","lat":43.28844,"lon":5.39303,"is_reserved":false,"is_disabled":false,"rental_uris":{"android":"levelo://app?vid=19290f2a-a1ba-4496-ad95-cbcfe22cf65f","ios":"levelo://app?vid=19290f2a-a1ba-4496-ad95-cbcfe22cf65f"},"vehicle_type_id":"4","last_reported":1778344811,"current_range_meters":2800,"station_id":"ce4bh2p2rcd13ifvqdi0","pricing_plan_id":"cebpf4jnsgd1na2vs0mg"},{"bike_id":"6c704780-5e22-4795-bb05-f4d738cd7b88","system_id":"levelo_inurba_marseille","lat":43.28679,"lon":5.38653,"is_reserved":false,"is_disabled":false,"rental_uris":{"android":"levelo://app?vid=6c704780-5e22-4795-bb05-f4d738cd7b88","ios":"levelo://app?vid=6c704780-5e22-4795-bb05-f4d738cd7b88"},"vehicle_type_id":"4","last_reported":1778344811,"current_range_meters":2800,"station_id":"ce4bh492rcd13ifvqdug","pricing_plan_id":"cebpf4jnsgd1na2vs0mg"},{"bike_id":"a9e9bdd1-241a-4197-b28b-c545ea37f2b2","system_id":"levelo_inurba_marseille","lat":43.27809,"lon":5.40717,"is_reserved":false,"is_disabled":false,"rental_uris":{"android":"levelo://app?vid=a9e9bdd1-241a-4197-b28b-c545ea37f2b2","ios":"levelo://app?vid=a9e9bdd1-241a-4197-b28b-c545ea37f2b2"},"vehicle_type_id":"4","last_reported":1778344811,"current_range_meters":2800,"station_id":"ce4bhnh2rcd13ifvqgtg","pricing_plan_id":"cebpf4jnsgd1na2vs0mg"},{"bike_id":"6d8733d5-8fe5-436b-aa24-e7d99b4305b8","system_id":"levelo_inurba_marseille","lat":43.28664,"lon":5.36344,"is_reserved":false,"is_disabled":false,"rental_uris":{"android":"levelo://app?vid=6d8733d5-8fe5-436b-aa24-e7d99b4305b8","ios":"levelo://app?vid=6d8733d5-8fe5-436b-aa24-e7d99b4305b8"},"vehicle_type_id":"4","last_reported":1778344811,"current_range_meters":2800,"station_id":"ce4bhah2rcd13ifvqej0","pricing_plan_id":"cebpf4jnsgd1na2vs0mg"},{"bike_id":"5bcc5dc3-2fc1-45f4-aeed-7ac22faada60","system_id":"levelo_inurba_marseille","lat":43.28419,"lon":5.34988,"is_reserved":false,"is_disabled":false,"rental_uris":{"android":"levelo://app?vid=5bcc5dc3-2fc1-45f4-aeed-7ac22faada60","ios":"levelo://app?vid=5bcc5dc3-2fc1-45f4-aeed-7ac22faada60"},"vehicle_type_id":"4","last_reported":1778344811,"current_range_meters":2800,"station_id":"ce4bhbh2rcd13ifvqepg","pricing_plan_id":"cebpf4jnsgd1na2vs0mg"},{"bike_id":"44323924-798f-42ab-ab14-1aac3eea6f76","system_id":"levelo_inurba_marseille","lat":43.27311,"lon":5.39097,"is_reserved":false,"is_disabled":false,"rental_uris":{"android":"levelo://app?vid=44323924-798f-42ab-ab14-1aac3eea6f76","ios":"levelo://app?vid=44323924-798f-42ab-ab14-1aac3eea6f76"},"vehicle_type_id":"4","last_reported":1778344811,"current_range_meters":2800,"station_id":"ce4bhgp2rcd13ifvqfe0","pricing_plan_id":"cebpf4jnsgd1na2vs0mg"},{"bike_id":"adbdae24-1b6d-4e05-9f3d-b7d760c284d0","system_id":"levelo_inurba_marseille","lat":43.29028,"lon":5.38125,"is_reserved":false,"is_disabled":true,"rental_uris":{"android":"levelo://app?vid=adbdae24-1b6d-4e05-9f3d-b7d760c284d0","ios":"levelo://app?vid=adbdae24-1b6d-4e05-9f3d-b7d760c284d0"},"vehicle_type_id":"4","last_reported":1778344811,"current_range_meters":3200,"station_id":"ce4bh4p2rcd13ifvqe1g","pricing_plan_id":"cebpf4jnsgd1na2vs0mg"},{"bike_id":"e02e8212-35b4-4393-9b3b-08fc12dbcfad","system_id":"levelo_inurba_marseille","lat":43.2953,"lon":5.39026,"is_reserved":false,"is_disabled":false,"rental_uris":{"android":"levelo://app?vid=e02e8212-35b4-4393-9b3b-08fc12dbcfad","ios":"levelo://app?vid=e02e8212-35b4-4393-9b3b-08fc12dbcfad"},"vehicle_type_id":"4","last_reported":1778344811,"current_range_meters":3200,"station_id":"ce4bh3p2rcd13ifvqdp0","pricing_plan_id":"cebpf4jnsgd1na2vs0mg"},{"bike_id":"5eccd909-d090-4ba6-ba4d-49231cf27dec","system_id":"levelo_inurba_marseille","lat":43.269288,"lon":5.38925,"is_reserved":false,"is_disabled":false,"rental_uris":{"android":"levelo://app?vid=5eccd909-d090-4ba6-ba4d-49231cf27dec","ios":"levelo://app?vid=5eccd909-d090-4ba6-ba4d-49231cf27dec"},"vehicle_type_id":"4","last_reported":1778344811,"current_range_meters":3200,"station_id":"ce4bhhh2rcd13ifvqfl0","pricing_plan_id":"cebpf4jnsgd1na2vs0mg"},{"bike_id":"1e6ab8df-f8c1-4dee-889f-1d3359fcd5cb","system_id":"levelo_inurba_marseille","lat":43.3229,"lon":5.38274,"is_reserved":false,"is_disabled":false,"rental_uris":{"android":"levelo://app?vid=1e6ab8df-f8c1-4dee-889f-1d3359fcd5cb","ios":"levelo://app?vid=1e6ab8df-f8c1-4dee-889f-1d3359fcd5cb"},"vehicle_type_id":"4","last_reported":1778344811,"current_range_meters":3200,"station_id":"ce4bhr12rcd13ifvqhqg","pricing_plan_id":"cebpf4jnsgd1na2vs0mg"},{"bike_id":"f63b8cb5-27ae-41b3-a852-d923aaa6d4c5","system_id":"levelo_inurba_marseille","lat":43.23177,"lon":5.3998,"is_reserved":false,"is_disabled":false,"rental_uris":{"android":"levelo://app?vid=f63b8cb5-27ae-41b3-a852-d923aaa6d4c5","ios":"levelo://app?vid=f63b8cb5-27ae-41b3-a852-d923aaa6d4c5"},"vehicle_type_id":"4","last_reported":1778344811,"current_range_meters":3200,"station_id":"ce4bhn12rcd13ifvqgqg","pricing_plan_id":"cebpf4jnsgd1na2vs0mg"},{"bike_id":"278c11ff-ea41-4a72-94b8-47c99e635e8e","system_id":"levelo_inurba_marseille","lat":43.29881,"lon":5.39733,"is_reserved":false,"is_disabled":false,"rental_uris":{"android":"levelo://app?vid=278c11ff-ea41-4a72-94b8-47c99e635e8e","ios":"levelo://app?vid=278c11ff-ea41-4a72-94b8-47c99e635e8e"},"vehicle_type_id":"4","last_reported":1778344811,"current_range_meters":3200,"station_id":"ce4bh0h2rcd13ifvqd50","pricing_plan_id":"cebpf4jnsgd1na2vs0mg"},{"bike_id":"f1588250-03aa-4c40-8480-66b2e5bcc92c","system_id":"levelo_inurba_marseille","lat":43.2871,"lon":5.37947,"is_reserved":false,"is_disabled":false,"rental_uris":{"android":"levelo://app?vid=f1588250-03aa-4c40-8480-66b2e5bcc92c","ios":"levelo://app?vid=f1588250-03aa-4c40-8480-66b2e5bcc92c"},"vehicle_type_id":"4","last_reported":1778344811,"current_range_meters":3200,"station_id":"ce4bh9p2rcd13ifvqec0","pricing_plan_id":"cebpf4jnsgd1na2vs0mg"},{"bike_id":"6400099d-f713-4246-a4ce-1b44f22e3329","system_id":"levelo_inurba_marseille","lat":43.32108,"lon":5.36766,"is_reserved":false,"is_disabled":false,"rental_uris":{"android":"levelo://app?vid=6400099d-f713-4246-a4ce-1b44f22e3329","ios":"levelo://app?vid=6400099d-f713-4246-a4ce-1b44f22e3329"},"vehicle_type_id":"4","last_reported":1778344811,"current_range_meters":3200,"station_id":"ce4bhrh2rcd13ifvqhug","pricing_plan_id":"cebpf4jnsgd1na2vs0mg"},{"bike_id":"20e13723-1380-420b-b720-2e419fa844d1","system_id":"levelo_inurba_marseille","lat":43.28477,"lon":5.38436,"is_reserved":false,"is_disabled":false,"rental_uris":{"android":"levelo://app?vid=20e13723-1380-420b-b720-2e419fa844d1","ios":"levelo://app?vid=20e13723-1380-420b-b720-2e419fa844d1"},"vehicle_type_id":"4","last_reported":1778344811,"current_range_meters":3200,"station_id":"ce4bh512rcd13ifvqe3g","pricing_plan_id":"cebpf4jnsgd1na2vs0mg"},{"bike_id":"bd6b9f6e-32fb-4cff-b687-30f863b0cc7f","system_id":"levelo_inurba_marseille","lat":43.29811,"lon":5.44062,"is_reserved":false,"is_disabled":false,"rental_uris":{"android":"levelo://app?vid=bd6b9f6e-32fb-4cff-b687-30f863b0cc7f","ios":"levelo://app?vid=bd6b9f6e-32fb-4cff-b687-30f863b0cc7f"},"vehicle_type_id":"4","last_reported":1778344811,"current_range_meters":3200,"station_id":"st_d3jp68qikq2c7381ktn0","pricing_plan_id":"cebpf4jnsgd1na2vs0mg"},{"bike_id":"83fd855c-d6ce-423c-b742-d6a8f9533e8c","system_id":"levelo_inurba_marseille","lat":43.3096,"lon":5.39004,"is_reserved":false,"is_disabled":false,"rental_uris":{"android":"levelo://app?vid=83fd855c-d6ce-423c-b742-d6a8f9533e8c","ios":"levelo://app?vid=83fd855c-d6ce-423c-b742-d6a8f9533e8c"},"vehicle_type_id":"4","last_reported":1778344811,"current_range_meters":3200,"station_id":"ce4bgup2rcd13ifvqco0","pricing_plan_id":"cebpf4jnsgd1na2vs0mg"},{"bike_id":"f263bd01-2532-48d8-a097-09ccc518e887","system_id":"levelo_inurba_marseille","lat":43.28854,"lon":5.35849,"is_reserved":false,"is_disabled":false,"rental_uris":{"android":"levelo://app?vid=f263bd01-2532-48d8-a097-09ccc518e887","ios":"levelo://app?vid=f263bd01-2532-48d8-a097-09ccc518e887"},"vehicle_type_id":"4","last_reported":1778344811,"current_range_meters":3200,"station_id":"ce4bhb12rcd13ifvqem0","pricing_plan_id":"cebpf4jnsgd1na2vs0mg"},{"bike_id":"2a36d249-3747-4782-888e-23c6b8c13d74","system_id":"levelo_inurba_marseille","lat":43.29625,"lon":5.37709,"is_reserved":false,"is_disabled":false,"rental_uris":{"android":"levelo://app?vid=2a36d249-3747-4782-888e-23c6b8c13d74","ios":"levelo://app?vid=2a36d249-3747-4782-888e-23c6b8c13d74"},"vehicle_type_id":"4","last_reported":1778344811,"current_range_meters":3600,"station_id":"ce4bgi92rcd13ifvqb90","pricing_plan_id":"cebpf4jnsgd1na2vs0mg"},{"bike_id":"3d6b2526-cf5c-4ceb-bf00-947a2a2597f9","system_id":"levelo_inurba_marseille","lat":43.26552,"lon":5.37282,"is_reserved":false,"is_disabled":false,"rental_uris":{"android":"levelo://app?vid=3d6b2526-cf5c-4ceb-bf00-947a2a2597f9","ios":"levelo://app?vid=3d6b2526-cf5c-4ceb-bf00-947a2a2597f9"},"vehicle_type_id":"4","last_reported":1778344811,"current_range_meters":3600,"station_id":"ce4bhg12rcd13ifvqf70","pricing_plan_id":"cebpf4jnsgd1na2vs0mg"},{"bike_id":"83c53200-e80f-47bb-b870-a7652825089e","system_id":"levelo_inurba_marseille","lat":43.24692,"lon":5.38164,"is_reserved":false,"is_disabled":false,"rental_uris":{"android":"levelo://app?vid=83c53200-e80f-47bb-b870-a7652825089e","ios":"levelo://app?vid=83c53200-e80f-47bb-b870-a7652825089e"},"vehicle_type_id":"4","last_reported":1778344811,"current_range_meters":3600,"station_id":"ce4bhih2rcd13ifvqfr0","pricing_plan_id":"cebpf4jnsgd1na2vs0mg"},{"bike_id":"b44a9cd4-5b24-4ba8-878e-e9ddbed75cb6","system_id":"levelo_inurba_marseille","lat":43.27959,"lon":5.38731,"is_reserved":false,"is_disabled":true,"rental_uris":{"android":"levelo://app?vid=b44a9cd4-5b24-4ba8-878e-e9ddbed75cb6","ios":"levelo://app?vid=b44a9cd4-5b24-4ba8-878e-e9ddbed75cb6"},"vehicle_type_id":"4","last_reported":1778344811,"current_range_meters":3600,"station_id":"ce4bhg12rcd13ifvqf80","pricing_plan_id":"cebpf4jnsgd1na2vs0mg"},{"bike_id":"6452db2c-1182-4afc-94bd-93e76ac56d68","system_id":"levelo_inurba_marseille","lat":43.27071,"lon":5.4227,"is_reserved":false,"is_disabled":false,"rental_uris":{"android":"levelo://app?vid=6452db2c-1182-4afc-94bd-93e76ac56d68","ios":"levelo://app?vid=6452db2c-1182-4afc-94bd-93e76ac56d68"},"vehicle_type_id":"4","last_reported":1778344811,"current_range_meters":3600,"station_id":"ce4bhk92rcd13ifvqgb0","pricing_plan_id":"cebpf4jnsgd1na2vs0mg"},{"bike_id":"55e4f012-74a4-45ae-91be-a49a36d5811b","system_id":"levelo_inurba_marseille","lat":43.27928,"lon":5.38704,"is_reserved":false,"is_disabled":false,"rental_uris":{"android":"levelo://app?vid=55e4f012-74a4-45ae-91be-a49a36d5811b","ios":"levelo://app?vid=55e4f012-74a4-45ae-91be-a49a36d5811b"},"vehicle_type_id":"4","last_reported":1778344811,"current_range_meters":3600,"station_id":"","pricing_plan_id":"cebpf4jnsgd1na2vs0mg"},{"bike_id":"f03e9416-653d-45fd-aba7-c2ee459eb1bb","system_id":"levelo_inurba_marseille","lat":43.33528,"lon":5.37461,"is_reserved":false,"is_disabled":false,"rental_uris":{"android":"levelo://app?vid=f03e9416-653d-45fd-aba7-c2ee459eb1bb","ios":"levelo://app?vid=f03e9416-653d-45fd-aba7-c2ee459eb1bb"},"vehicle_type_id":"4","last_reported":1778344811,"current_range_meters":3600,"station_id":"st_d46tts09ee8s73dlu43g","pricing_plan_id":"cebpf4jnsgd1na2vs0mg"},{"bike_id":"f28f9ccd-d37a-4162-b3af-ee68b51db594","system_id":"levelo_inurba_marseille","lat":43.30298,"lon":5.39222,"is_reserved":false,"is_disabled":false,"rental_uris":{"android":"levelo://app?vid=f28f9ccd-d37a-4162-b3af-ee68b51db594","ios":"levelo://app?vid=f28f9ccd-d37a-4162-b3af-ee68b51db594"},"vehicle_type_id":"4","last_reported":1778344811,"current_range_meters":3600,"station_id":"ce4bgkh2rcd13ifvqbk0","pricing_plan_id":"cebpf4jnsgd1na2vs0mg"},{"bike_id":"763dc5b7-1fbf-46ea-8272-3c5bffb7cd0e","system_id":"levelo_inurba_marseille","lat":43.26791,"lon":5.39406,"is_reserved":false,"is_disabled":false,"rental_uris":{"android":"levelo://app?vid=763dc5b7-1fbf-46ea-8272-3c5bffb7cd0e","ios":"levelo://app?vid=763dc5b7-1fbf-46ea-8272-3c5bffb7cd0e"},"vehicle_type_id":"4","last_reported":1778344811,"current_range_meters":3600,"station_id":"ce4bhh12rcd13ifvqfg0","pricing_plan_id":"cebpf4jnsgd1na2vs0mg"},{"bike_id":"9a3140d6-e3fa-492e-8460-9c6f22636700","system_id":"levelo_inurba_marseille","lat":43.31364,"lon":5.39964,"is_reserved":false,"is_disabled":false,"rental_uris":{"android":"levelo://app?vid=9a3140d6-e3fa-492e-8460-9c6f22636700","ios":"levelo://app?vid=9a3140d6-e3fa-492e-8460-9c6f22636700"},"vehicle_type_id":"4","last_reported":1778344811,"current_range_meters":3600,"station_id":"","pricing_plan_id":"cebpf4jnsgd1na2vs0mg"},{"bike_id":"2f76229c-51f4-472a-ac3a-1376b2446c08","system_id":"levelo_inurba_marseille","lat":43.286098,"lon":5.351028,"is_reserved":false,"is_disabled":false,"rental_uris":{"android":"levelo://app?vid=2f76229c-51f4-472a-ac3a-1376b2446c08","ios":"levelo://app?vid=2f76229c-51f4-472a-ac3a-1376b2446c08"},"vehicle_type_id":"4","last_reported":1778344811,"current_range_meters":3600,"station_id":"ce4bhch2rcd13ifvqeug","pricing_plan_id":"cebpf4jnsgd1na2vs0mg"},{"bike_id":"db1ac9e8-2733-492b-8480-e00e6de58734","system_id":"levelo_inurba_marseille","lat":43.27302,"lon":5.39162,"is_reserved":false,"is_disabled":false,"rental_uris":{"android":"levelo://app?vid=db1ac9e8-2733-492b-8480-e00e6de58734","ios":"levelo://app?vid=db1ac9e8-2733-492b-8480-e00e6de58734"},"vehicle_type_id":"4","last_reported":1778344811,"current_range_meters":3600,"station_id":"","pricing_plan_id":"cebpf4jnsgd1na2vs0mg"},{"bike_id":"d887cdf3-66ee-4a37-985b-e7ed35671fff","system_id":"levelo_inurba_marseille","lat":43.27301,"lon":5.3914,"is_reserved":false,"is_disabled":false,"rental_uris":{"android":"levelo://app?vid=d887cdf3-66ee-4a37-985b-e7ed35671fff","ios":"levelo://app?vid=d887cdf3-66ee-4a37-985b-e7ed35671fff"},"vehicle_type_id":"4","last_reported":1778344811,"current_range_meters":3600,"station_id":"ce4bhgp2rcd13ifvqfe0","pricing_plan_id":"cebpf4jnsgd1na2vs0mg"},{"bike_id":"415142c7-f50e-411e-adf6-f39700e22f6d","system_id":"levelo_inurba_marseille","lat":43.32694,"lon":5.35593,"is_reserved":false,"is_disabled":false,"rental_uris":{"android":"levelo://app?vid=415142c7-f50e-411e-adf6-f39700e22f6d","ios":"levelo://app?vid=415142c7-f50e-411e-adf6-f39700e22f6d"},"vehicle_type_id":"4","last_reported":1778344811,"current_range_meters":3600,"station_id":"","pricing_plan_id":"cebpf4jnsgd1na2vs0mg"},{"bike_id":"31e3bdd3-26c2-4084-a93d-199a4e07cfe9","system_id":"levelo_inurba_marseille","lat":43.27302,"lon":5.39147,"is_reserved":false,"is_disabled":false,"rental_uris":{"android":"levelo://app?vid=31e3bdd3-26c2-4084-a93d-199a4e07cfe9","ios":"levelo://app?vid=31e3bdd3-26c2-4084-a93d-199a4e07cfe9"},"vehicle_type_id":"4","last_reported":1778344811,"current_range_meters":3600,"station_id":"","pricing_plan_id":"cebpf4jnsgd1na2vs0mg"},{"bike_id":"5fc85a70-cd51-491b-a363-a46b0850da15","system_id":"levelo_inurba_marseille","lat":43.32878,"lon":5.36688,"is_reserved":false,"is_disabled":false,"rental_uris":{"android":"levelo://app?vid=5fc85a70-cd51-491b-a363-a46b0850da15","ios":"levelo://app?vid=5fc85a70-cd51-491b-a363-a46b0850da15"},"vehicle_type_id":"4","last_reported":1778344811,"current_range_meters":3600,"station_id":"","pricing_plan_id":"cebpf4jnsgd1na2vs0mg"},{"bike_id":"7ca87edb-8a77-4fa7-b7dc-fb3200368f14","system_id":"levelo_inurba_marseille","lat":43.24631,"lon":5.43148,"is_reserved":false,"is_disabled":false,"rental_uris":{"android":"levelo://app?vid=7ca87edb-8a77-4fa7-b7dc-fb3200368f14","ios":"levelo://app?vid=7ca87edb-8a77-4fa7-b7dc-fb3200368f14"},"vehicle_type_id":"4","last_reported":1778344811,"current_range_meters":3600,"station_id":"st_d2m6c4gdas8pm72e190g","pricing_plan_id":"cebpf4jnsgd1na2vs0mg"},{"bike_id":"5126cff0-9309-4a87-b6fb-51ea49a3ffb6","system_id":"levelo_inurba_marseille","lat":43.28858,"lon":5.39301,"is_reserved":false,"is_disabled":false,"rental_uris":{"android":"levelo://app?vid=5126cff0-9309-4a87-b6fb-51ea49a3ffb6","ios":"levelo://app?vid=5126cff0-9309-4a87-b6fb-51ea49a3ffb6"},"vehicle_type_id":"4","last_reported":1778344811,"current_range_meters":3600,"station_id":"ce4bh2p2rcd13ifvqdi0","pricing_plan_id":"cebpf4jnsgd1na2vs0mg"},{"bike_id":"5804156a-56e7-46b7-80a2-9ff950078942","system_id":"levelo_inurba_marseille","lat":43.26554,"lon":5.37279,"is_reserved":false,"is_disabled":false,"rental_uris":{"android":"levelo://app?vid=5804156a-56e7-46b7-80a2-9ff950078942","ios":"levelo://app?vid=5804156a-56e7-46b7-80a2-9ff950078942"},"vehicle_type_id":"4","last_reported":1778344811,"current_range_meters":3600,"station_id":"ce4bhg12rcd13ifvqf70","pricing_plan_id":"cebpf4jnsgd1na2vs0mg"},{"bike_id":"f7bd58c6-cace-4462-88f2-6eb3add771eb","system_id":"levelo_inurba_marseille","lat":43.32065,"lon":5.41531,"is_reserved":false,"is_disabled":false,"rental_uris":{"android":"levelo://app?vid=f7bd58c6-cace-4462-88f2-6eb3add771eb","ios":"levelo://app?vid=f7bd58c6-cace-4462-88f2-6eb3add771eb"},"vehicle_type_id":"4","last_reported":1778344811,"current_range_meters":3600,"station_id":"ce4bhq92rcd13ifvqhkg","pricing_plan_id":"cebpf4jnsgd1na2vs0mg"},{"bike_id":"6eec760c-5e8b-4ec2-8818-5088580d0e9c","system_id":"levelo_inurba_marseille","lat":43.25174,"lon":5.37453,"is_reserved":false,"is_disabled":false,"rental_uris":{"android":"levelo://app?vid=6eec760c-5e8b-4ec2-8818-5088580d0e9c","ios":"levelo://app?vid=6eec760c-5e8b-4ec2-8818-5088580d0e9c"},"vehicle_type_id":"4","last_reported":1778344811,"current_range_meters":3600,"station_id":"","pricing_plan_id":"cebpf4jnsgd1na2vs0mg"},{"bike_id":"93a90982-d9a4-429c-b1a8-b9a21f9da95d","system_id":"levelo_inurba_marseille","lat":43.28565,"lon":5.39496,"is_reserved":false,"is_disabled":false,"rental_uris":{"android":"levelo://app?vid=93a90982-d9a4-429c-b1a8-b9a21f9da95d","ios":"levelo://app?vid=93a90982-d9a4-429c-b1a8-b9a21f9da95d"},"vehicle_type_id":"4","last_reported":1778344811,"current_range_meters":4000,"station_id":"ce4bh292rcd13ifvqdg0","pricing_plan_id":"cebpf4jnsgd1na2vs0mg"},{"bike_id":"91d78913-28b2-401d-850a-f1af99bf6768","system_id":"levelo_inurba_marseille","lat":43.28892,"lon":5.42517,"is_reserved":false,"is_disabled":false,"rental_uris":{"android":"levelo://app?vid=91d78913-28b2-401d-850a-f1af99bf6768","ios":"levelo://app?vid=91d78913-28b2-401d-850a-f1af99bf6768"},"vehicle_type_id":"4","last_reported":1778344811,"current_range_meters":4000,"station_id":"st_d3b462108ojc7389ooeg","pricing_plan_id":"cebpf4jnsgd1na2vs0mg"},{"bike_id":"80dd8dac-a6fe-4142-8adc-d544d9e45452","system_id":"levelo_inurba_marseille","lat":43.29214,"lon":5.36082,"is_reserved":false,"is_disabled":false,"rental_uris":{"android":"levelo://app?vid=80dd8dac-a6fe-4142-8adc-d544d9e45452","ios":"levelo://app?vid=80dd8dac-a6fe-4142-8adc-d544d9e45452"},"vehicle_type_id":"4","last_reported":1778344811,"current_range_meters":4000,"station_id":"ce4bhbh2rcd13ifvqeqg","pricing_plan_id":"cebpf4jnsgd1na2vs0mg"},{"bike_id":"d4a7a43d-e95a-48a6-bfe6-9957d3af99e1","system_id":"levelo_inurba_marseille","lat":43.30927,"lon":5.40146,"is_reserved":false,"is_disabled":false,"rental_uris":{"android":"levelo://app?vid=d4a7a43d-e95a-48a6-bfe6-9957d3af99e1","ios":"levelo://app?vid=d4a7a43d-e95a-48a6-bfe6-9957d3af99e1"},"vehicle_type_id":"4","last_reported":1778344811,"current_range_meters":4000,"station_id":"ce4bgvp2rcd13ifvqct0","pricing_plan_id":"cebpf4jnsgd1na2vs0mg"},{"bike_id":"e1483652-64f6-40f8-8a6b-7a3c8e213f5b","system_id":"levelo_inurba_marseille","lat":43.29191,"lon":5.35794,"is_reserved":false,"is_disabled":false,"rental_uris":{"android":"levelo://app?vid=e1483652-64f6-40f8-8a6b-7a3c8e213f5b","ios":"levelo://app?vid=e1483652-64f6-40f8-8a6b-7a3c8e213f5b"},"vehicle_type_id":"4","last_reported":1778344811,"current_range_meters":4000,"station_id":"ce4bhb12rcd13ifvqel0","pricing_plan_id":"cebpf4jnsgd1na2vs0mg"},{"bike_id":"4b65741e-5ed9-4da8-8620-3a00f88659d6","system_id":"levelo_inurba_marseille","lat":43.28472,"lon":5.48392,"is_reserved":false,"is_disabled":false,"rental_uris":{"android":"levelo://app?vid=4b65741e-5ed9-4da8-8620-3a00f88659d6","ios":"levelo://app?vid=4b65741e-5ed9-4da8-8620-3a00f88659d6"},"vehicle_type_id":"4","last_reported":1778344811,"current_range_meters":4000,"station_id":"","pricing_plan_id":"cebpf4jnsgd1na2vs0mg"},{"bike_id":"aea747f8-311b-4ded-9e0e-45c22d0f6c1f","system_id":"levelo_inurba_marseille","lat":43.27321,"lon":5.39067,"is_reserved":false,"is_disabled":false,"rental_uris":{"android":"levelo://app?vid=aea747f8-311b-4ded-9e0e-45c22d0f6c1f","ios":"levelo://app?vid=aea747f8-311b-4ded-9e0e-45c22d0f6c1f"},"vehicle_type_id":"4","last_reported":1778344811,"current_range_meters":4000,"station_id":"ce4bhgp2rcd13ifvqfe0","pricing_plan_id":"cebpf4jnsgd1na2vs0mg"},{"bike_id":"0ecddad9-091b-47fd-a45d-db67559668c1","system_id":"levelo_inurba_marseille","lat":43.27956,"lon":5.38748,"is_reserved":false,"is_disabled":true,"rental_uris":{"android":"levelo://app?vid=0ecddad9-091b-47fd-a45d-db67559668c1","ios":"levelo://app?vid=0ecddad9-091b-47fd-a45d-db67559668c1"},"vehicle_type_id":"4","last_reported":1778344811,"current_range_meters":4000,"station_id":"ce4bhg12rcd13ifvqf80","pricing_plan_id":"cebpf4jnsgd1na2vs0mg"},{"bike_id":"e8e0b3e9-49bd-47ec-a643-797f175042aa","system_id":"levelo_inurba_marseille","lat":43.28362,"lon":5.38635,"is_reserved":false,"is_disabled":false,"rental_uris":{"android":"levelo://app?vid=e8e0b3e9-49bd-47ec-a643-797f175042aa","ios":"levelo://app?vid=e8e0b3e9-49bd-47ec-a643-797f175042aa"},"vehicle_type_id":"4","last_reported":1778344811,"current_range_meters":4000,"station_id":"ce4bh492rcd13ifvqdvg","pricing_plan_id":"cebpf4jnsgd1na2vs0mg"},{"bike_id":"fa833790-fea7-4b87-ab01-22a9071ab066","system_id":"levelo_inurba_marseille","lat":43.28472,"lon":5.48434,"is_reserved":false,"is_disabled":false,"rental_uris":{"android":"levelo://app?vid=fa833790-fea7-4b87-ab01-22a9071ab066","ios":"levelo://app?vid=fa833790-fea7-4b87-ab01-22a9071ab066"},"vehicle_type_id":"4","last_reported":1778344811,"current_range_meters":4000,"station_id":"st_d3svhcjqgbts73a3dn0g","pricing_plan_id":"cebpf4jnsgd1na2vs0mg"},{"bike_id":"95489a07-b280-4aea-935b-70fc8cc33653","system_id":"levelo_inurba_marseille","lat":43.21734,"lon":5.34619,"is_reserved":false,"is_disabled":true,"rental_uris":{"android":"levelo://app?vid=95489a07-b280-4aea-935b-70fc8cc33653","ios":"levelo://app?vid=95489a07-b280-4aea-935b-70fc8cc33653"},"vehicle_type_id":"4","last_reported":1778344811,"current_range_meters":4000,"station_id":"st_cvj6r9ubvosntc0bgbag","pricing_plan_id":"cebpf4jnsgd1na2vs0mg"},{"bike_id":"c39eaae6-7960-4116-bfad-e8c983711581","system_id":"levelo_inurba_marseille","lat":43.273702,"lon":5.362657,"is_reserved":false,"is_disabled":false,"rental_uris":{"android":"levelo://app?vid=c39eaae6-7960-4116-bfad-e8c983711581","ios":"levelo://app?vid=c39eaae6-7960-4116-bfad-e8c983711581"},"vehicle_type_id":"4","last_reported":1778344811,"current_range_meters":4000,"station_id":"ce4bhbh2rcd13ifvqeo0","pricing_plan_id":"cebpf4jnsgd1na2vs0mg"},{"bike_id":"13b1bcc7-e9d8-48b8-a72f-6d1f9d17e51d","system_id":"levelo_inurba_marseille","lat":43.24925,"lon":5.3895,"is_reserved":false,"is_disabled":false,"rental_uris":{"android":"levelo://app?vid=13b1bcc7-e9d8-48b8-a72f-6d1f9d17e51d","ios":"levelo://app?vid=13b1bcc7-e9d8-48b8-a72f-6d1f9d17e51d"},"vehicle_type_id":"4","last_reported":1778344811,"current_range_meters":4000,"station_id":"","pricing_plan_id":"cebpf4jnsgd1na2vs0mg"},{"bike_id":"5b17b337-4e55-486b-b310-212b10614e57","system_id":"levelo_inurba_marseille","lat":43.3233,"lon":5.36744,"is_reserved":false,"is_disabled":false,"rental_uris":{"android":"levelo://app?vid=5b17b337-4e55-486b-b310-212b10614e57","ios":"levelo://app?vid=5b17b337-4e55-486b-b310-212b10614e57"},"vehicle_type_id":"4","last_reported":1778344811,"current_range_meters":4000,"station_id":"ce4bhsh2rcd13ifvqi2g","pricing_plan_id":"cebpf4jnsgd1na2vs0mg"},{"bike_id":"5d1b42b2-291f-4698-8f4a-bb3c0240c3ec","system_id":"levelo_inurba_marseille","lat":43.28948,"lon":5.39627,"is_reserved":false,"is_disabled":false,"rental_uris":{"android":"levelo://app?vid=5d1b42b2-291f-4698-8f4a-bb3c0240c3ec","ios":"levelo://app?vid=5d1b42b2-291f-4698-8f4a-bb3c0240c3ec"},"vehicle_type_id":"4","last_reported":1778344811,"current_range_meters":4000,"station_id":"ce4bh3h2rcd13ifvqdn0","pricing_plan_id":"cebpf4jnsgd1na2vs0mg"},{"bike_id":"dfcf76be-3767-4670-a3f8-013c0a3b3e88","system_id":"levelo_inurba_marseille","lat":43.27619,"lon":5.36097,"is_reserved":false,"is_disabled":false,"rental_uris":{"android":"levelo://app?vid=dfcf76be-3767-4670-a3f8-013c0a3b3e88","ios":"levelo://app?vid=dfcf76be-3767-4670-a3f8-013c0a3b3e88"},"vehicle_type_id":"4","last_reported":1778344811,"current_range_meters":4000,"station_id":"ce4bgj92rcd13ifvqbe0","pricing_plan_id":"cebpf4jnsgd1na2vs0mg"},{"bike_id":"fd3ab7d3-4cc2-4bf1-8a6e-aeb52b665a02","system_id":"levelo_inurba_marseille","lat":43.23965,"lon":5.36625,"is_reserved":false,"is_disabled":false,"rental_uris":{"android":"levelo://app?vid=fd3ab7d3-4cc2-4bf1-8a6e-aeb52b665a02","ios":"levelo://app?vid=fd3ab7d3-4cc2-4bf1-8a6e-aeb52b665a02"},"vehicle_type_id":"4","last_reported":1778344811,"current_range_meters":4000,"station_id":"ce4bhi12rcd13ifvqfp0","pricing_plan_id":"cebpf4jnsgd1na2vs0mg"},{"bike_id":"0d43c5c5-8c67-4a49-8a18-1489d4c72811","system_id":"levelo_inurba_marseille","lat":43.298847,"lon":5.390888,"is_reserved":false,"is_disabled":false,"rental_uris":{"android":"levelo://app?vid=0d43c5c5-8c67-4a49-8a18-1489d4c72811","ios":"levelo://app?vid=0d43c5c5-8c67-4a49-8a18-1489d4c72811"},"vehicle_type_id":"4","last_reported":1778344811,"current_range_meters":4000,"station_id":"ce4bgjh2rcd13ifvqbg0","pricing_plan_id":"cebpf4jnsgd1na2vs0mg"},{"bike_id":"ba1a84df-99bc-4f91-b102-9b8b01f50ffc","system_id":"levelo_inurba_marseille","lat":43.31896,"lon":5.36809,"is_reserved":false,"is_disabled":false,"rental_uris":{"android":"levelo://app?vid=ba1a84df-99bc-4f91-b102-9b8b01f50ffc","ios":"levelo://app?vid=ba1a84df-99bc-4f91-b102-9b8b01f50ffc"},"vehicle_type_id":"4","last_reported":1778344811,"current_range_meters":4400,"station_id":"st_d6o2h0d0559c73evc1b0","pricing_plan_id":"cebpf4jnsgd1na2vs0mg"},{"bike_id":"37197d8e-2b6b-4d53-94e8-c2856e1f3937","system_id":"levelo_inurba_marseille","lat":43.2847,"lon":5.38407,"is_reserved":false,"is_disabled":false,"rental_uris":{"android":"levelo://app?vid=37197d8e-2b6b-4d53-94e8-c2856e1f3937","ios":"levelo://app?vid=37197d8e-2b6b-4d53-94e8-c2856e1f3937"},"vehicle_type_id":"4","last_reported":1778344811,"current_range_meters":4400,"station_id":"ce4bh512rcd13ifvqe3g","pricing_plan_id":"cebpf4jnsgd1na2vs0mg"},{"bike_id":"4433c720-c05e-4419-9a19-b563c044039d","system_id":"levelo_inurba_marseille","lat":43.24672,"lon":5.38183,"is_reserved":false,"is_disabled":false,"rental_uris":{"android":"levelo://app?vid=4433c720-c05e-4419-9a19-b563c044039d","ios":"levelo://app?vid=4433c720-c05e-4419-9a19-b563c044039d"},"vehicle_type_id":"4","last_reported":1778344811,"current_range_meters":4400,"station_id":"ce4bhih2rcd13ifvqfr0","pricing_plan_id":"cebpf4jnsgd1na2vs0mg"},{"bike_id":"09f03c71-3135-488b-aa1b-16f1834011a9","system_id":"levelo_inurba_marseille","lat":43.29198,"lon":5.35677,"is_reserved":false,"is_disabled":false,"rental_uris":{"android":"levelo://app?vid=09f03c71-3135-488b-aa1b-16f1834011a9","ios":"levelo://app?vid=09f03c71-3135-488b-aa1b-16f1834011a9"},"vehicle_type_id":"4","last_reported":1778344811,"current_range_meters":4400,"station_id":"","pricing_plan_id":"cebpf4jnsgd1na2vs0mg"},{"bike_id":"d9ef7576-95cc-4eb4-afb7-35f5b4fefa6e","system_id":"levelo_inurba_marseille","lat":43.30587,"lon":5.39367,"is_reserved":false,"is_disabled":true,"rental_uris":{"android":"levelo://app?vid=d9ef7576-95cc-4eb4-afb7-35f5b4fefa6e","ios":"levelo://app?vid=d9ef7576-95cc-4eb4-afb7-35f5b4fefa6e"},"vehicle_type_id":"4","last_reported":1778344811,"current_range_meters":4400,"station_id":"ce4bh0p2rcd13ifvqd80","pricing_plan_id":"cebpf4jnsgd1na2vs0mg"},{"bike_id":"075e7a6c-4f4b-400a-a226-e30e8c6d4f53","system_id":"levelo_inurba_marseille","lat":43.2781,"lon":5.40712,"is_reserved":false,"is_disabled":false,"rental_uris":{"android":"levelo://app?vid=075e7a6c-4f4b-400a-a226-e30e8c6d4f53","ios":"levelo://app?vid=075e7a6c-4f4b-400a-a226-e30e8c6d4f53"},"vehicle_type_id":"4","last_reported":1778344811,"current_range_meters":4400,"station_id":"ce4bhnh2rcd13ifvqgtg","pricing_plan_id":"cebpf4jnsgd1na2vs0mg"},{"bike_id":"77bc5e6a-0456-4654-8c26-37a7f5866c18","system_id":"levelo_inurba_marseille","lat":43.31524,"lon":5.38037,"is_reserved":false,"is_disabled":false,"rental_uris":{"android":"levelo://app?vid=77bc5e6a-0456-4654-8c26-37a7f5866c18","ios":"levelo://app?vid=77bc5e6a-0456-4654-8c26-37a7f5866c18"},"vehicle_type_id":"4","last_reported":1778344811,"current_range_meters":4400,"station_id":"ce4bhsp2rcd13ifvqi50","pricing_plan_id":"cebpf4jnsgd1na2vs0mg"},{"bike_id":"8edec3a1-24a9-422b-bca1-09f4cbcfe01f","system_id":"levelo_inurba_marseille","lat":43.28969,"lon":5.37854,"is_reserved":false,"is_disabled":false,"rental_uris":{"android":"levelo://app?vid=8edec3a1-24a9-422b-bca1-09f4cbcfe01f","ios":"levelo://app?vid=8edec3a1-24a9-422b-bca1-09f4cbcfe01f"},"vehicle_type_id":"4","last_reported":1778344811,"current_range_meters":4400,"station_id":"ce4bh9p2rcd13ifvqed0","pricing_plan_id":"cebpf4jnsgd1na2vs0mg"},{"bike_id":"c1b768b5-78ad-4562-8b11-acf628f13106","system_id":"levelo_inurba_marseille","lat":43.28009,"lon":5.44214,"is_reserved":false,"is_disabled":false,"rental_uris":{"android":"levelo://app?vid=c1b768b5-78ad-4562-8b11-acf628f13106","ios":"levelo://app?vid=c1b768b5-78ad-4562-8b11-acf628f13106"},"vehicle_type_id":"4","last_reported":1778344811,"current_range_meters":4400,"station_id":"","pricing_plan_id":"cebpf4jnsgd1na2vs0mg"},{"bike_id":"68aed373-a77d-4600-9a6c-9538c5e4a927","system_id":"levelo_inurba_marseille","lat":43.28107,"lon":5.37839,"is_reserved":false,"is_disabled":false,"rental_uris":{"android":"levelo://app?vid=68aed373-a77d-4600-9a6c-9538c5e4a927","ios":"levelo://app?vid=68aed373-a77d-4600-9a6c-9538c5e4a927"},"vehicle_type_id":"4","last_reported":1778344811,"current_range_meters":4400,"station_id":"ce4bha12rcd13ifvqee0","pricing_plan_id":"cebpf4jnsgd1na2vs0mg"},{"bike_id":"e8461b56-9af7-4d44-a288-92e063783260","system_id":"levelo_inurba_marseille","lat":43.26247,"lon":5.40347,"is_reserved":false,"is_disabled":false,"rental_uris":{"android":"levelo://app?vid=e8461b56-9af7-4d44-a288-92e063783260","ios":"levelo://app?vid=e8461b56-9af7-4d44-a288-92e063783260"},"vehicle_type_id":"4","last_reported":1778344811,"current_range_meters":4400,"station_id":"","pricing_plan_id":"cebpf4jnsgd1na2vs0mg"},{"bike_id":"a6684ba9-09e7-4795-82de-b834b9da46df","system_id":"levelo_inurba_marseille","lat":43.27195,"lon":5.39194,"is_reserved":false,"is_disabled":false,"rental_uris":{"android":"levelo://app?vid=a6684ba9-09e7-4795-82de-b834b9da46df","ios":"levelo://app?vid=a6684ba9-09e7-4795-82de-b834b9da46df"},"vehicle_type_id":"4","last_reported":1778344811,"current_range_meters":4400,"station_id":"ce4bhhp2rcd13ifvqfm0","pricing_plan_id":"cebpf4jnsgd1na2vs0mg"},{"bike_id":"8eec88ae-b490-4ae9-b7f7-6aff7dc6b5a2","system_id":"levelo_inurba_marseille","lat":43.27619,"lon":5.36108,"is_reserved":false,"is_disabled":false,"rental_uris":{"android":"levelo://app?vid=8eec88ae-b490-4ae9-b7f7-6aff7dc6b5a2","ios":"levelo://app?vid=8eec88ae-b490-4ae9-b7f7-6aff7dc6b5a2"},"vehicle_type_id":"4","last_reported":1778344811,"current_range_meters":4400,"station_id":"ce4bgj92rcd13ifvqbe0","pricing_plan_id":"cebpf4jnsgd1na2vs0mg"},{"bike_id":"9a48063a-9dba-4fcd-9170-a461c9def9d7","system_id":"levelo_inurba_marseille","lat":43.29982,"lon":5.38501,"is_reserved":false,"is_disabled":false,"rental_uris":{"android":"levelo://app?vid=9a48063a-9dba-4fcd-9170-a461c9def9d7","ios":"levelo://app?vid=9a48063a-9dba-4fcd-9170-a461c9def9d7"},"vehicle_type_id":"4","last_reported":1778344811,"current_range_meters":4800,"station_id":"ce4bgj92rcd13ifvqbd0","pricing_plan_id":"cebpf4jnsgd1na2vs0mg"},{"bike_id":"c97a31e1-287d-4df6-aad2-1f5a2b628497","system_id":"levelo_inurba_marseille","lat":43.292263,"lon":5.360591,"is_reserved":false,"is_disabled":false,"rental_uris":{"android":"levelo://app?vid=c97a31e1-287d-4df6-aad2-1f5a2b628497","ios":"levelo://app?vid=c97a31e1-287d-4df6-aad2-1f5a2b628497"},"vehicle_type_id":"4","last_reported":1778344811,"current_range_meters":4800,"station_id":"ce4bhbh2rcd13ifvqeqg","pricing_plan_id":"cebpf4jnsgd1na2vs0mg"},{"bike_id":"eee51eae-5aaa-4a90-b6bb-0ee2250819e2","system_id":"levelo_inurba_marseille","lat":43.27862,"lon":5.38753,"is_reserved":false,"is_disabled":false,"rental_uris":{"android":"levelo://app?vid=eee51eae-5aaa-4a90-b6bb-0ee2250819e2","ios":"levelo://app?vid=eee51eae-5aaa-4a90-b6bb-0ee2250819e2"},"vehicle_type_id":"4","last_reported":1778344811,"current_range_meters":4800,"station_id":"","pricing_plan_id":"cebpf4jnsgd1na2vs0mg"},{"bike_id":"36bf5966-883a-4820-975e-e8801ce08727","system_id":"levelo_inurba_marseille","lat":43.29317,"lon":5.37143,"is_reserved":false,"is_disabled":false,"rental_uris":{"android":"levelo://app?vid=36bf5966-883a-4820-975e-e8801ce08727","ios":"levelo://app?vid=36bf5966-883a-4820-975e-e8801ce08727"},"vehicle_type_id":"4","last_reported":1778344811,"current_range_meters":4800,"station_id":"ce4bgh92rcd13ifvqb40","pricing_plan_id":"cebpf4jnsgd1na2vs0mg"},{"bike_id":"751cdc66-8641-4875-a1dd-40c6831f96d1","system_id":"levelo_inurba_marseille","lat":43.26774,"lon":5.3943,"is_reserved":false,"is_disabled":false,"rental_uris":{"android":"levelo://app?vid=751cdc66-8641-4875-a1dd-40c6831f96d1","ios":"levelo://app?vid=751cdc66-8641-4875-a1dd-40c6831f96d1"},"vehicle_type_id":"4","last_reported":1778344811,"current_range_meters":4800,"station_id":"ce4bhh12rcd13ifvqfg0","pricing_plan_id":"cebpf4jnsgd1na2vs0mg"},{"bike_id":"e9603e54-ff6b-4fae-9e9b-b17dd395cbe4","system_id":"levelo_inurba_marseille","lat":43.26361,"lon":5.39935,"is_reserved":false,"is_disabled":false,"rental_uris":{"android":"levelo://app?vid=e9603e54-ff6b-4fae-9e9b-b17dd395cbe4","ios":"levelo://app?vid=e9603e54-ff6b-4fae-9e9b-b17dd395cbe4"},"vehicle_type_id":"4","last_reported":1778344811,"current_range_meters":4800,"station_id":"","pricing_plan_id":"cebpf4jnsgd1na2vs0mg"},{"bike_id":"d6177cbc-df79-4783-b382-607985008f6d","system_id":"levelo_inurba_marseille","lat":43.29851,"lon":5.36294,"is_reserved":false,"is_disabled":false,"rental_uris":{"android":"levelo://app?vid=d6177cbc-df79-4783-b382-607985008f6d","ios":"levelo://app?vid=d6177cbc-df79-4783-b382-607985008f6d"},"vehicle_type_id":"4","last_reported":1778344811,"current_range_meters":4800,"station_id":"ce4bgpp2rcd13ifvqc3g","pricing_plan_id":"cebpf4jnsgd1na2vs0mg"},{"bike_id":"a230310a-6c62-4af5-959f-03337b9a6626","system_id":"levelo_inurba_marseille","lat":43.262056,"lon":5.379314,"is_reserved":false,"is_disabled":false,"rental_uris":{"android":"levelo://app?vid=a230310a-6c62-4af5-959f-03337b9a6626","ios":"levelo://app?vid=a230310a-6c62-4af5-959f-03337b9a6626"},"vehicle_type_id":"4","last_reported":1778344811,"current_range_meters":4800,"station_id":"ce4bhjp2rcd13ifvqg90","pricing_plan_id":"cebpf4jnsgd1na2vs0mg"},{"bike_id":"3eaa98fe-19f3-481a-ab88-1a1c39a88d31","system_id":"levelo_inurba_marseille","lat":43.30912,"lon":5.36847,"is_reserved":false,"is_disabled":false,"rental_uris":{"android":"levelo://app?vid=3eaa98fe-19f3-481a-ab88-1a1c39a88d31","ios":"levelo://app?vid=3eaa98fe-19f3-481a-ab88-1a1c39a88d31"},"vehicle_type_id":"4","last_reported":1778344811,"current_range_meters":4800,"station_id":"ce4bgn92rcd13ifvqbvg","pricing_plan_id":"cebpf4jnsgd1na2vs0mg"},{"bike_id":"567c6efa-3311-4682-a1bd-69e8d8607b2e","system_id":"levelo_inurba_marseille","lat":43.2607,"lon":5.39391,"is_reserved":false,"is_disabled":false,"rental_uris":{"android":"levelo://app?vid=567c6efa-3311-4682-a1bd-69e8d8607b2e","ios":"levelo://app?vid=567c6efa-3311-4682-a1bd-69e8d8607b2e"},"vehicle_type_id":"4","last_reported":1778344811,"current_range_meters":4800,"station_id":"ce4bhh92rcd13ifvqfj0","pricing_plan_id":"cebpf4jnsgd1na2vs0mg"},{"bike_id":"2604fbbc-e049-4cc7-8069-721d8cb88417","system_id":"levelo_inurba_marseille","lat":43.24469,"lon":5.42538,"is_reserved":false,"is_disabled":false,"rental_uris":{"android":"levelo://app?vid=2604fbbc-e049-4cc7-8069-721d8cb88417","ios":"levelo://app?vid=2604fbbc-e049-4cc7-8069-721d8cb88417"},"vehicle_type_id":"4","last_reported":1778344811,"current_range_meters":4800,"station_id":"st_d4a3vfp97mjs738cd8kg","pricing_plan_id":"cebpf4jnsgd1na2vs0mg"},{"bike_id":"348bfdba-9d6e-4aa7-8d67-36f0a3487da5","system_id":"levelo_inurba_marseille","lat":43.31363,"lon":5.38492,"is_reserved":false,"is_disabled":false,"rental_uris":{"android":"levelo://app?vid=348bfdba-9d6e-4aa7-8d67-36f0a3487da5","ios":"levelo://app?vid=348bfdba-9d6e-4aa7-8d67-36f0a3487da5"},"vehicle_type_id":"4","last_reported":1778344811,"current_range_meters":4800,"station_id":"ce4bgt92rcd13ifvqcf0","pricing_plan_id":"cebpf4jnsgd1na2vs0mg"},{"bike_id":"f5d38237-9671-458d-998e-13656be48db9","system_id":"levelo_inurba_marseille","lat":43.28714,"lon":5.37933,"is_reserved":false,"is_disabled":false,"rental_uris":{"android":"levelo://app?vid=f5d38237-9671-458d-998e-13656be48db9","ios":"levelo://app?vid=f5d38237-9671-458d-998e-13656be48db9"},"vehicle_type_id":"4","last_reported":1778344811,"current_range_meters":4800,"station_id":"ce4bh9p2rcd13ifvqec0","pricing_plan_id":"cebpf4jnsgd1na2vs0mg"},{"bike_id":"cad34172-e400-49e7-804c-04a869e760a9","system_id":"levelo_inurba_marseille","lat":43.2732,"lon":5.39104,"is_reserved":false,"is_disabled":false,"rental_uris":{"android":"levelo://app?vid=cad34172-e400-49e7-804c-04a869e760a9","ios":"levelo://app?vid=cad34172-e400-49e7-804c-04a869e760a9"},"vehicle_type_id":"4","last_reported":1778344811,"current_range_meters":4800,"station_id":"ce4bhgp2rcd13ifvqfe0","pricing_plan_id":"cebpf4jnsgd1na2vs0mg"},{"bike_id":"a1be75a7-7777-4f8c-b405-594ea4aaacd7","system_id":"levelo_inurba_marseille","lat":43.28404,"lon":5.37491,"is_reserved":false,"is_disabled":false,"rental_uris":{"android":"levelo://app?vid=a1be75a7-7777-4f8c-b405-594ea4aaacd7","ios":"levelo://app?vid=a1be75a7-7777-4f8c-b405-594ea4aaacd7"},"vehicle_type_id":"4","last_reported":1778344811,"current_range_meters":4800,"station_id":"ce4bh412rcd13ifvqds0","pricing_plan_id":"cebpf4jnsgd1na2vs0mg"},{"bike_id":"92c9d0a0-7699-4a8f-9822-768984018037","system_id":"levelo_inurba_marseille","lat":43.337444,"lon":5.374475,"is_reserved":false,"is_disabled":false,"rental_uris":{"android":"levelo://app?vid=92c9d0a0-7699-4a8f-9822-768984018037","ios":"levelo://app?vid=92c9d0a0-7699-4a8f-9822-768984018037"},"vehicle_type_id":"4","last_reported":1778344811,"current_range_meters":4800,"station_id":"ce4bhbh2rcd13ifvqeqg","pricing_plan_id":"cebpf4jnsgd1na2vs0mg"},{"bike_id":"8aa12a0c-38f7-47ed-b992-dc4b6b3ae92f","system_id":"levelo_inurba_marseille","lat":43.266825,"lon":5.382762,"is_reserved":false,"is_disabled":false,"rental_uris":{"android":"levelo://app?vid=8aa12a0c-38f7-47ed-b992-dc4b6b3ae92f","ios":"levelo://app?vid=8aa12a0c-38f7-47ed-b992-dc4b6b3ae92f"},"vehicle_type_id":"4","last_reported":1778344811,"current_range_meters":5600,"station_id":"ce4bhg92rcd13ifvqf90","pricing_plan_id":"cebpf4jnsgd1na2vs0mg"},{"bike_id":"8127a179-0b6c-4390-978d-34e331e55652","system_id":"levelo_inurba_marseille","lat":43.31705,"lon":5.40462,"is_reserved":false,"is_disabled":false,"rental_uris":{"android":"levelo://app?vid=8127a179-0b6c-4390-978d-34e331e55652","ios":"levelo://app?vid=8127a179-0b6c-4390-978d-34e331e55652"},"vehicle_type_id":"4","last_reported":1778344811,"current_range_meters":5600,"station_id":"ce4bh012rcd13ifvqd00","pricing_plan_id":"cebpf4jnsgd1na2vs0mg"},{"bike_id":"06eb2a3d-eff9-47db-b493-097bff667fda","system_id":"levelo_inurba_marseille","lat":43.31323,"lon":5.39718,"is_reserved":false,"is_disabled":false,"rental_uris":{"android":"levelo://app?vid=06eb2a3d-eff9-47db-b493-097bff667fda","ios":"levelo://app?vid=06eb2a3d-eff9-47db-b493-097bff667fda"},"vehicle_type_id":"4","last_reported":1778344811,"current_range_meters":5600,"station_id":"ce4bgvp2rcd13ifvqcu0","pricing_plan_id":"cebpf4jnsgd1na2vs0mg"},{"bike_id":"798dd442-ecce-41be-b4b9-436ee7f8a467","system_id":"levelo_inurba_marseille","lat":43.272094,"lon":5.390291,"is_reserved":false,"is_disabled":false,"rental_uris":{"android":"levelo://app?vid=798dd442-ecce-41be-b4b9-436ee7f8a467","ios":"levelo://app?vid=798dd442-ecce-41be-b4b9-436ee7f8a467"},"vehicle_type_id":"4","last_reported":1778344811,"current_range_meters":5600,"station_id":"ce4bhhp2rcd13ifvqfm0","pricing_plan_id":"cebpf4jnsgd1na2vs0mg"},{"bike_id":"012436db-213f-4ce3-a46b-2b318f2b65c1","system_id":"levelo_inurba_marseille","lat":43.29566,"lon":5.37487,"is_reserved":false,"is_disabled":true,"rental_uris":{"android":"levelo://app?vid=012436db-213f-4ce3-a46b-2b318f2b65c1","ios":"levelo://app?vid=012436db-213f-4ce3-a46b-2b318f2b65c1"},"vehicle_type_id":"4","last_reported":1778344811,"current_range_meters":5600,"station_id":"ce4bgh92rcd13ifvqb50","pricing_plan_id":"cebpf4jnsgd1na2vs0mg"},{"bike_id":"5361539f-a584-4329-8108-172e9f5f2d2f","system_id":"levelo_inurba_marseille","lat":43.26063,"lon":5.39398,"is_reserved":false,"is_disabled":false,"rental_uris":{"android":"levelo://app?vid=5361539f-a584-4329-8108-172e9f5f2d2f","ios":"levelo://app?vid=5361539f-a584-4329-8108-172e9f5f2d2f"},"vehicle_type_id":"4","last_reported":1778344811,"current_range_meters":5600,"station_id":"ce4bhh92rcd13ifvqfj0","pricing_plan_id":"cebpf4jnsgd1na2vs0mg"},{"bike_id":"85693367-36bf-4115-b122-8f5dc6bdd5ec","system_id":"levelo_inurba_marseille","lat":43.2962,"lon":5.37699,"is_reserved":false,"is_disabled":false,"rental_uris":{"android":"levelo://app?vid=85693367-36bf-4115-b122-8f5dc6bdd5ec","ios":"levelo://app?vid=85693367-36bf-4115-b122-8f5dc6bdd5ec"},"vehicle_type_id":"4","last_reported":1778344811,"current_range_meters":5600,"station_id":"ce4bgi92rcd13ifvqb90","pricing_plan_id":"cebpf4jnsgd1na2vs0mg"},{"bike_id":"cbae987d-4b84-417e-bd1f-38e21a9853b9","system_id":"levelo_inurba_marseille","lat":43.29261,"lon":5.38422,"is_reserved":false,"is_disabled":false,"rental_uris":{"android":"levelo://app?vid=cbae987d-4b84-417e-bd1f-38e21a9853b9","ios":"levelo://app?vid=cbae987d-4b84-417e-bd1f-38e21a9853b9"},"vehicle_type_id":"4","last_reported":1778344811,"current_range_meters":5600,"station_id":"ce4bh692rcd13ifvqea0","pricing_plan_id":"cebpf4jnsgd1na2vs0mg"},{"bike_id":"07829fdc-c599-44a2-8a5d-d38b8b9f7bb8","system_id":"levelo_inurba_marseille","lat":43.30381,"lon":5.42478,"is_reserved":false,"is_disabled":true,"rental_uris":{"android":"levelo://app?vid=07829fdc-c599-44a2-8a5d-d38b8b9f7bb8","ios":"levelo://app?vid=07829fdc-c599-44a2-8a5d-d38b8b9f7bb8"},"vehicle_type_id":"4","last_reported":1778344811,"current_range_meters":5600,"station_id":"ce4bhoh2rcd13ifvqh6g","pricing_plan_id":"cebpf4jnsgd1na2vs0mg"},{"bike_id":"b8425fa1-a298-4679-ba8a-777546e14eca","system_id":"levelo_inurba_marseille","lat":43.33759,"lon":5.3743,"is_reserved":false,"is_disabled":false,"rental_uris":{"android":"levelo://app?vid=b8425fa1-a298-4679-ba8a-777546e14eca","ios":"levelo://app?vid=b8425fa1-a298-4679-ba8a-777546e14eca"},"vehicle_type_id":"4","last_reported":1778344811,"current_range_meters":5600,"station_id":"","pricing_plan_id":"cebpf4jnsgd1na2vs0mg"},{"bike_id":"909ad14d-d611-4c06-b3a6-b8cceef84633","system_id":"levelo_inurba_marseille","lat":43.30212,"lon":5.39468,"is_reserved":false,"is_disabled":false,"rental_uris":{"android":"levelo://app?vid=909ad14d-d611-4c06-b3a6-b8cceef84633","ios":"levelo://app?vid=909ad14d-d611-4c06-b3a6-b8cceef84633"},"vehicle_type_id":"4","last_reported":1778344811,"current_range_meters":5600,"station_id":"ce4bh0p2rcd13ifvqd70","pricing_plan_id":"cebpf4jnsgd1na2vs0mg"},{"bike_id":"407c7a01-8f9a-4ad3-ae0e-5e9214b09a4e","system_id":"levelo_inurba_marseille","lat":43.3169,"lon":5.4046,"is_reserved":false,"is_disabled":false,"rental_uris":{"android":"levelo://app?vid=407c7a01-8f9a-4ad3-ae0e-5e9214b09a4e","ios":"levelo://app?vid=407c7a01-8f9a-4ad3-ae0e-5e9214b09a4e"},"vehicle_type_id":"4","last_reported":1778344811,"current_range_meters":5600,"station_id":"ce4bh012rcd13ifvqd00","pricing_plan_id":"cebpf4jnsgd1na2vs0mg"},{"bike_id":"d4d64fc9-6389-4add-a33b-fb1ecf8bd4c8","system_id":"levelo_inurba_marseille","lat":43.2926,"lon":5.38432,"is_reserved":false,"is_disabled":false,"rental_uris":{"android":"levelo://app?vid=d4d64fc9-6389-4add-a33b-fb1ecf8bd4c8","ios":"levelo://app?vid=d4d64fc9-6389-4add-a33b-fb1ecf8bd4c8"},"vehicle_type_id":"4","last_reported":1778344811,"current_range_meters":5600,"station_id":"ce4bh692rcd13ifvqea0","pricing_plan_id":"cebpf4jnsgd1na2vs0mg"},{"bike_id":"fea24be0-2c7b-4b26-beb5-c7b25bd91cb2","system_id":"levelo_inurba_marseille","lat":43.2801,"lon":5.36951,"is_reserved":false,"is_disabled":false,"rental_uris":{"android":"levelo://app?vid=fea24be0-2c7b-4b26-beb5-c7b25bd91cb2","ios":"levelo://app?vid=fea24be0-2c7b-4b26-beb5-c7b25bd91cb2"},"vehicle_type_id":"4","last_reported":1778344811,"current_range_meters":5600,"station_id":"ce4bha12rcd13ifvqef0","pricing_plan_id":"cebpf4jnsgd1na2vs0mg"},{"bike_id":"b0833ad8-5694-47b4-9b88-c656e2817da8","system_id":"levelo_inurba_marseille","lat":43.29791,"lon":5.3809,"is_reserved":false,"is_disabled":false,"rental_uris":{"android":"levelo://app?vid=b0833ad8-5694-47b4-9b88-c656e2817da8","ios":"levelo://app?vid=b0833ad8-5694-47b4-9b88-c656e2817da8"},"vehicle_type_id":"4","last_reported":1778344811,"current_range_meters":5600,"station_id":"ce4bgip2rcd13ifvqbb0","pricing_plan_id":"cebpf4jnsgd1na2vs0mg"},{"bike_id":"d8a60d2b-c911-4a35-9272-b24976059bcb","system_id":"levelo_inurba_marseille","lat":43.24462,"lon":5.42525,"is_reserved":false,"is_disabled":false,"rental_uris":{"android":"levelo://app?vid=d8a60d2b-c911-4a35-9272-b24976059bcb","ios":"levelo://app?vid=d8a60d2b-c911-4a35-9272-b24976059bcb"},"vehicle_type_id":"4","last_reported":1778344811,"current_range_meters":5600,"station_id":"st_d4a3vfp97mjs738cd8kg","pricing_plan_id":"cebpf4jnsgd1na2vs0mg"},{"bike_id":"be632139-2563-46c4-8958-c144d612880b","system_id":"levelo_inurba_marseille","lat":43.26222,"lon":5.38768,"is_reserved":false,"is_disabled":false,"rental_uris":{"android":"levelo://app?vid=be632139-2563-46c4-8958-c144d612880b","ios":"levelo://app?vid=be632139-2563-46c4-8958-c144d612880b"},"vehicle_type_id":"4","last_reported":1778344811,"current_range_meters":5600,"station_id":"","pricing_plan_id":"cebpf4jnsgd1na2vs0mg"},{"bike_id":"0cfc405b-8260-42ad-8a0d-859db2beedac","system_id":"levelo_inurba_marseille","lat":43.2602,"lon":5.39493,"is_reserved":false,"is_disabled":false,"rental_uris":{"android":"levelo://app?vid=0cfc405b-8260-42ad-8a0d-859db2beedac","ios":"levelo://app?vid=0cfc405b-8260-42ad-8a0d-859db2beedac"},"vehicle_type_id":"4","last_reported":1778344811,"current_range_meters":5600,"station_id":"","pricing_plan_id":"cebpf4jnsgd1na2vs0mg"},{"bike_id":"374b2057-15d6-47ba-a552-d6515abccbd9","system_id":"levelo_inurba_marseille","lat":43.25579,"lon":5.38221,"is_reserved":false,"is_disabled":false,"rental_uris":{"android":"levelo://app?vid=374b2057-15d6-47ba-a552-d6515abccbd9","ios":"levelo://app?vid=374b2057-15d6-47ba-a552-d6515abccbd9"},"vehicle_type_id":"4","last_reported":1778344811,"current_range_meters":6000,"station_id":"ce4bhih2rcd13ifvqfs0","pricing_plan_id":"cebpf4jnsgd1na2vs0mg"},{"bike_id":"335ef400-ddb2-4e6c-8686-6e4ff2ff02ec","system_id":"levelo_inurba_marseille","lat":43.29306,"lon":5.37183,"is_reserved":false,"is_disabled":false,"rental_uris":{"android":"levelo://app?vid=335ef400-ddb2-4e6c-8686-6e4ff2ff02ec","ios":"levelo://app?vid=335ef400-ddb2-4e6c-8686-6e4ff2ff02ec"},"vehicle_type_id":"4","last_reported":1778344811,"current_range_meters":6000,"station_id":"ce4bgh92rcd13ifvqb40","pricing_plan_id":"cebpf4jnsgd1na2vs0mg"},{"bike_id":"5d0b675a-025b-429b-a587-89adfbe45954","system_id":"levelo_inurba_marseille","lat":43.26547,"lon":5.37279,"is_reserved":false,"is_disabled":false,"rental_uris":{"android":"levelo://app?vid=5d0b675a-025b-429b-a587-89adfbe45954","ios":"levelo://app?vid=5d0b675a-025b-429b-a587-89adfbe45954"},"vehicle_type_id":"4","last_reported":1778344811,"current_range_meters":6000,"station_id":"ce4bhg12rcd13ifvqf70","pricing_plan_id":"cebpf4jnsgd1na2vs0mg"},{"bike_id":"8fdbe986-716a-4dce-a50d-3af695e9688c","system_id":"levelo_inurba_marseille","lat":43.33543,"lon":5.37467,"is_reserved":false,"is_disabled":false,"rental_uris":{"android":"levelo://app?vid=8fdbe986-716a-4dce-a50d-3af695e9688c","ios":"levelo://app?vid=8fdbe986-716a-4dce-a50d-3af695e9688c"},"vehicle_type_id":"4","last_reported":1778344811,"current_range_meters":6000,"station_id":"st_d46tts09ee8s73dlu43g","pricing_plan_id":"cebpf4jnsgd1na2vs0mg"},{"bike_id":"240f83cd-e330-45fb-9f58-4a13270cfff0","system_id":"levelo_inurba_marseille","lat":43.28153,"lon":5.4265,"is_reserved":false,"is_disabled":false,"rental_uris":{"android":"levelo://app?vid=240f83cd-e330-45fb-9f58-4a13270cfff0","ios":"levelo://app?vid=240f83cd-e330-45fb-9f58-4a13270cfff0"},"vehicle_type_id":"4","last_reported":1778344811,"current_range_meters":6000,"station_id":"ce4bhnh2rcd13ifvqgug","pricing_plan_id":"cebpf4jnsgd1na2vs0mg"},{"bike_id":"1f2e3678-2790-4134-b0b0-63d504b63bcc","system_id":"levelo_inurba_marseille","lat":43.29848,"lon":5.36287,"is_reserved":false,"is_disabled":false,"rental_uris":{"android":"levelo://app?vid=1f2e3678-2790-4134-b0b0-63d504b63bcc","ios":"levelo://app?vid=1f2e3678-2790-4134-b0b0-63d504b63bcc"},"vehicle_type_id":"4","last_reported":1778344811,"current_range_meters":6000,"station_id":"ce4bgpp2rcd13ifvqc3g","pricing_plan_id":"cebpf4jnsgd1na2vs0mg"},{"bike_id":"cb582544-9392-4db0-b8f8-88c030493237","system_id":"levelo_inurba_marseille","lat":43.26576,"lon":5.39022,"is_reserved":false,"is_disabled":false,"rental_uris":{"android":"levelo://app?vid=cb582544-9392-4db0-b8f8-88c030493237","ios":"levelo://app?vid=cb582544-9392-4db0-b8f8-88c030493237"},"vehicle_type_id":"4","last_reported":1778344811,"current_range_meters":6000,"station_id":"ce4bhe12rcd13ifvqf30","pricing_plan_id":"cebpf4jnsgd1na2vs0mg"},{"bike_id":"8d433cd8-ede2-498a-84f5-0980fac50dc8","system_id":"levelo_inurba_marseille","lat":43.3041,"lon":5.42353,"is_reserved":false,"is_disabled":false,"rental_uris":{"android":"levelo://app?vid=8d433cd8-ede2-498a-84f5-0980fac50dc8","ios":"levelo://app?vid=8d433cd8-ede2-498a-84f5-0980fac50dc8"},"vehicle_type_id":"4","last_reported":1778344811,"current_range_meters":6000,"station_id":"","pricing_plan_id":"cebpf4jnsgd1na2vs0mg"},{"bike_id":"9fb1d0a1-c27a-4548-beb8-26d7f2cfa8f0","system_id":"levelo_inurba_marseille","lat":43.29232,"lon":5.38463,"is_reserved":false,"is_disabled":false,"rental_uris":{"android":"levelo://app?vid=9fb1d0a1-c27a-4548-beb8-26d7f2cfa8f0","ios":"levelo://app?vid=9fb1d0a1-c27a-4548-beb8-26d7f2cfa8f0"},"vehicle_type_id":"4","last_reported":1778344811,"current_range_meters":6000,"station_id":"ce4bh692rcd13ifvqea0","pricing_plan_id":"cebpf4jnsgd1na2vs0mg"},{"bike_id":"7aabde2d-e4eb-45ad-84c5-ae757510a2db","system_id":"levelo_inurba_marseille","lat":43.28693,"lon":5.37389,"is_reserved":false,"is_disabled":false,"rental_uris":{"android":"levelo://app?vid=7aabde2d-e4eb-45ad-84c5-ae757510a2db","ios":"levelo://app?vid=7aabde2d-e4eb-45ad-84c5-ae757510a2db"},"vehicle_type_id":"4","last_reported":1778344811,"current_range_meters":6000,"station_id":"ce4bh3p2rcd13ifvqdq0","pricing_plan_id":"cebpf4jnsgd1na2vs0mg"},{"bike_id":"10c1c852-27c1-4a93-8a9e-687fcc741284","system_id":"levelo_inurba_marseille","lat":43.29852,"lon":5.36276,"is_reserved":false,"is_disabled":false,"rental_uris":{"android":"levelo://app?vid=10c1c852-27c1-4a93-8a9e-687fcc741284","ios":"levelo://app?vid=10c1c852-27c1-4a93-8a9e-687fcc741284"},"vehicle_type_id":"4","last_reported":1778344811,"current_range_meters":6000,"station_id":"ce4bgpp2rcd13ifvqc3g","pricing_plan_id":"cebpf4jnsgd1na2vs0mg"},{"bike_id":"74f37abc-986e-4c9a-84b3-118b9da5f7d7","system_id":"levelo_inurba_marseille","lat":43.29843,"lon":5.36268,"is_reserved":false,"is_disabled":false,"rental_uris":{"android":"levelo://app?vid=74f37abc-986e-4c9a-84b3-118b9da5f7d7","ios":"levelo://app?vid=74f37abc-986e-4c9a-84b3-118b9da5f7d7"},"vehicle_type_id":"4","last_reported":1778344811,"current_range_meters":6000,"station_id":"ce4bgpp2rcd13ifvqc3g","pricing_plan_id":"cebpf4jnsgd1na2vs0mg"},{"bike_id":"04bbb414-85c4-496b-9e21-7d690b7a16fc","system_id":"levelo_inurba_marseille","lat":43.28108,"lon":5.37795,"is_reserved":false,"is_disabled":false,"rental_uris":{"android":"levelo://app?vid=04bbb414-85c4-496b-9e21-7d690b7a16fc","ios":"levelo://app?vid=04bbb414-85c4-496b-9e21-7d690b7a16fc"},"vehicle_type_id":"4","last_reported":1778344811,"current_range_meters":6000,"station_id":"ce4bha12rcd13ifvqee0","pricing_plan_id":"cebpf4jnsgd1na2vs0mg"},{"bike_id":"b4bc587a-6ea5-4a51-be2b-84e77a62aed9","system_id":"levelo_inurba_marseille","lat":43.2897,"lon":5.37835,"is_reserved":false,"is_disabled":false,"rental_uris":{"android":"levelo://app?vid=b4bc587a-6ea5-4a51-be2b-84e77a62aed9","ios":"levelo://app?vid=b4bc587a-6ea5-4a51-be2b-84e77a62aed9"},"vehicle_type_id":"4","last_reported":1778344811,"current_range_meters":6000,"station_id":"ce4bh9p2rcd13ifvqed0","pricing_plan_id":"cebpf4jnsgd1na2vs0mg"},{"bike_id":"c440543a-fc70-44c0-b21f-aa93407f1be5","system_id":"levelo_inurba_marseille","lat":43.34149,"lon":5.409,"is_reserved":false,"is_disabled":true,"rental_uris":{"android":"levelo://app?vid=c440543a-fc70-44c0-b21f-aa93407f1be5","ios":"levelo://app?vid=c440543a-fc70-44c0-b21f-aa93407f1be5"},"vehicle_type_id":"4","last_reported":1778344811,"current_range_meters":6000,"station_id":"ce4bhqh2rcd13ifvqhlg","pricing_plan_id":"cebpf4jnsgd1na2vs0mg"},{"bike_id":"5a436f11-afe4-43ad-a9a1-056bd0578be1","system_id":"levelo_inurba_marseille","lat":43.2798,"lon":5.38701,"is_reserved":false,"is_disabled":true,"rental_uris":{"android":"levelo://app?vid=5a436f11-afe4-43ad-a9a1-056bd0578be1","ios":"levelo://app?vid=5a436f11-afe4-43ad-a9a1-056bd0578be1"},"vehicle_type_id":"4","last_reported":1778344811,"current_range_meters":6000,"station_id":"ce4bhg12rcd13ifvqf80","pricing_plan_id":"cebpf4jnsgd1na2vs0mg"},{"bike_id":"496d9d23-0758-4b07-831b-1c112b733a7b","system_id":"levelo_inurba_marseille","lat":43.27908,"lon":5.38001,"is_reserved":false,"is_disabled":false,"rental_uris":{"android":"levelo://app?vid=496d9d23-0758-4b07-831b-1c112b733a7b","ios":"levelo://app?vid=496d9d23-0758-4b07-831b-1c112b733a7b"},"vehicle_type_id":"4","last_reported":1778344811,"current_range_meters":6000,"station_id":"ce4bhf92rcd13ifvqf50","pricing_plan_id":"cebpf4jnsgd1na2vs0mg"},{"bike_id":"4acb43ed-3642-4736-9baa-453b9005f3a4","system_id":"levelo_inurba_marseille","lat":43.29562,"lon":5.38694,"is_reserved":false,"is_disabled":false,"rental_uris":{"android":"levelo://app?vid=4acb43ed-3642-4736-9baa-453b9005f3a4","ios":"levelo://app?vid=4acb43ed-3642-4736-9baa-453b9005f3a4"},"vehicle_type_id":"4","last_reported":1778344811,"current_range_meters":6000,"station_id":"","pricing_plan_id":"cebpf4jnsgd1na2vs0mg"},{"bike_id":"ef4c0d2f-d37c-409b-be4c-7cceaa4aabfa","system_id":"levelo_inurba_marseille","lat":43.2848,"lon":5.48395,"is_reserved":false,"is_disabled":false,"rental_uris":{"android":"levelo://app?vid=ef4c0d2f-d37c-409b-be4c-7cceaa4aabfa","ios":"levelo://app?vid=ef4c0d2f-d37c-409b-be4c-7cceaa4aabfa"},"vehicle_type_id":"4","last_reported":1778344811,"current_range_meters":6400,"station_id":"","pricing_plan_id":"cebpf4jnsgd1na2vs0mg"},{"bike_id":"3c2e9b1f-548a-470c-9669-f7ccba7bde0b","system_id":"levelo_inurba_marseille","lat":43.24172,"lon":5.39743,"is_reserved":false,"is_disabled":false,"rental_uris":{"android":"levelo://app?vid=3c2e9b1f-548a-470c-9669-f7ccba7bde0b","ios":"levelo://app?vid=3c2e9b1f-548a-470c-9669-f7ccba7bde0b"},"vehicle_type_id":"4","last_reported":1778344811,"current_range_meters":6400,"station_id":"ce4bhn12rcd13ifvqgpg","pricing_plan_id":"cebpf4jnsgd1na2vs0mg"},{"bike_id":"0905bf26-d1df-4967-bcf7-a2c7f347956a","system_id":"levelo_inurba_marseille","lat":43.28961,"lon":5.3961,"is_reserved":false,"is_disabled":true,"rental_uris":{"android":"levelo://app?vid=0905bf26-d1df-4967-bcf7-a2c7f347956a","ios":"levelo://app?vid=0905bf26-d1df-4967-bcf7-a2c7f347956a"},"vehicle_type_id":"4","last_reported":1778344811,"current_range_meters":6400,"station_id":"ce4bh3h2rcd13ifvqdn0","pricing_plan_id":"cebpf4jnsgd1na2vs0mg"},{"bike_id":"64ca439b-a2a6-4835-bc6b-b3a491984dcf","system_id":"levelo_inurba_marseille","lat":43.273,"lon":5.39075,"is_reserved":false,"is_disabled":false,"rental_uris":{"android":"levelo://app?vid=64ca439b-a2a6-4835-bc6b-b3a491984dcf","ios":"levelo://app?vid=64ca439b-a2a6-4835-bc6b-b3a491984dcf"},"vehicle_type_id":"4","last_reported":1778344811,"current_range_meters":6400,"station_id":"ce4bhgp2rcd13ifvqfe0","pricing_plan_id":"cebpf4jnsgd1na2vs0mg"},{"bike_id":"a38822ca-78f7-4117-b607-2ed8f9afbff5","system_id":"levelo_inurba_marseille","lat":43.23961,"lon":5.36633,"is_reserved":false,"is_disabled":false,"rental_uris":{"android":"levelo://app?vid=a38822ca-78f7-4117-b607-2ed8f9afbff5","ios":"levelo://app?vid=a38822ca-78f7-4117-b607-2ed8f9afbff5"},"vehicle_type_id":"4","last_reported":1778344811,"current_range_meters":6400,"station_id":"ce4bhi12rcd13ifvqfp0","pricing_plan_id":"cebpf4jnsgd1na2vs0mg"},{"bike_id":"aad10db8-b026-409c-9558-2748d08f6222","system_id":"levelo_inurba_marseille","lat":43.292723,"lon":5.384341,"is_reserved":false,"is_disabled":false,"rental_uris":{"android":"levelo://app?vid=aad10db8-b026-409c-9558-2748d08f6222","ios":"levelo://app?vid=aad10db8-b026-409c-9558-2748d08f6222"},"vehicle_type_id":"4","last_reported":1778344811,"current_range_meters":6400,"station_id":"ce4bh692rcd13ifvqea0","pricing_plan_id":"cebpf4jnsgd1na2vs0mg"},{"bike_id":"58dcd84f-f97b-43f7-90be-55ad2ae49e3c","system_id":"levelo_inurba_marseille","lat":43.30129,"lon":5.39266,"is_reserved":false,"is_disabled":false,"rental_uris":{"android":"levelo://app?vid=58dcd84f-f97b-43f7-90be-55ad2ae49e3c","ios":"levelo://app?vid=58dcd84f-f97b-43f7-90be-55ad2ae49e3c"},"vehicle_type_id":"4","last_reported":1778344811,"current_range_meters":6400,"station_id":"","pricing_plan_id":"cebpf4jnsgd1na2vs0mg"},{"bike_id":"448372d8-6979-47bd-9c7e-197190d5f5c6","system_id":"levelo_inurba_marseille","lat":43.29189,"lon":5.39321,"is_reserved":false,"is_disabled":false,"rental_uris":{"android":"levelo://app?vid=448372d8-6979-47bd-9c7e-197190d5f5c6","ios":"levelo://app?vid=448372d8-6979-47bd-9c7e-197190d5f5c6"},"vehicle_type_id":"4","last_reported":1778344811,"current_range_meters":6400,"station_id":"ce4bh192rcd13ifvqdd0","pricing_plan_id":"cebpf4jnsgd1na2vs0mg"},{"bike_id":"558ecc7a-7ed0-4d4d-8eaf-a0bf6d6ce907","system_id":"levelo_inurba_marseille","lat":43.28215,"lon":5.40584,"is_reserved":false,"is_disabled":false,"rental_uris":{"android":"levelo://app?vid=558ecc7a-7ed0-4d4d-8eaf-a0bf6d6ce907","ios":"levelo://app?vid=558ecc7a-7ed0-4d4d-8eaf-a0bf6d6ce907"},"vehicle_type_id":"4","last_reported":1778344811,"current_range_meters":6400,"station_id":"","pricing_plan_id":"cebpf4jnsgd1na2vs0mg"},{"bike_id":"e744fd51-d53a-4993-92a1-3a6752e7a33c","system_id":"levelo_inurba_marseille","lat":43.32089,"lon":5.36824,"is_reserved":false,"is_disabled":false,"rental_uris":{"android":"levelo://app?vid=e744fd51-d53a-4993-92a1-3a6752e7a33c","ios":"levelo://app?vid=e744fd51-d53a-4993-92a1-3a6752e7a33c"},"vehicle_type_id":"4","last_reported":1778344811,"current_range_meters":6400,"station_id":"ce4bhrh2rcd13ifvqhug","pricing_plan_id":"cebpf4jnsgd1na2vs0mg"},{"bike_id":"d289b47d-165f-4970-9f5a-e2c4d2bfd7c7","system_id":"levelo_inurba_marseille","lat":43.29524,"lon":5.39049,"is_reserved":false,"is_disabled":false,"rental_uris":{"android":"levelo://app?vid=d289b47d-165f-4970-9f5a-e2c4d2bfd7c7","ios":"levelo://app?vid=d289b47d-165f-4970-9f5a-e2c4d2bfd7c7"},"vehicle_type_id":"4","last_reported":1778344811,"current_range_meters":6400,"station_id":"ce4bh3p2rcd13ifvqdp0","pricing_plan_id":"cebpf4jnsgd1na2vs0mg"},{"bike_id":"5dda00a1-f787-488a-aa64-058079c40c64","system_id":"levelo_inurba_marseille","lat":43.26989,"lon":5.39321,"is_reserved":false,"is_disabled":false,"rental_uris":{"android":"levelo://app?vid=5dda00a1-f787-488a-aa64-058079c40c64","ios":"levelo://app?vid=5dda00a1-f787-488a-aa64-058079c40c64"},"vehicle_type_id":"4","last_reported":1778344811,"current_range_meters":6400,"station_id":"","pricing_plan_id":"cebpf4jnsgd1na2vs0mg"},{"bike_id":"024c6892-203c-4eeb-b7a9-cce2defb82a6","system_id":"levelo_inurba_marseille","lat":43.27054,"lon":5.38298,"is_reserved":false,"is_disabled":false,"rental_uris":{"android":"levelo://app?vid=024c6892-203c-4eeb-b7a9-cce2defb82a6","ios":"levelo://app?vid=024c6892-203c-4eeb-b7a9-cce2defb82a6"},"vehicle_type_id":"4","last_reported":1778344811,"current_range_meters":6400,"station_id":"st_d3n2fo6cfp8s73cte1j0","pricing_plan_id":"cebpf4jnsgd1na2vs0mg"},{"bike_id":"7eb0c155-0773-4bfd-a68f-9a7e1c633edc","system_id":"levelo_inurba_marseille","lat":43.291974,"lon":5.393248,"is_reserved":false,"is_disabled":false,"rental_uris":{"android":"levelo://app?vid=7eb0c155-0773-4bfd-a68f-9a7e1c633edc","ios":"levelo://app?vid=7eb0c155-0773-4bfd-a68f-9a7e1c633edc"},"vehicle_type_id":"4","last_reported":1778344811,"current_range_meters":6400,"station_id":"ce4bh192rcd13ifvqdd0","pricing_plan_id":"cebpf4jnsgd1na2vs0mg"},{"bike_id":"03d669c0-194d-433c-8e44-6dff34838cd2","system_id":"levelo_inurba_marseille","lat":43.29689,"lon":5.37662,"is_reserved":false,"is_disabled":false,"rental_uris":{"android":"levelo://app?vid=03d669c0-194d-433c-8e44-6dff34838cd2","ios":"levelo://app?vid=03d669c0-194d-433c-8e44-6dff34838cd2"},"vehicle_type_id":"4","last_reported":1778344811,"current_range_meters":6400,"station_id":"ce4bgkh2rcd13ifvqbl0","pricing_plan_id":"cebpf4jnsgd1na2vs0mg"},{"bike_id":"80ce62aa-95db-4134-a27f-af6f321881d8","system_id":"levelo_inurba_marseille","lat":43.3303,"lon":5.39033,"is_reserved":false,"is_disabled":false,"rental_uris":{"android":"levelo://app?vid=80ce62aa-95db-4134-a27f-af6f321881d8","ios":"levelo://app?vid=80ce62aa-95db-4134-a27f-af6f321881d8"},"vehicle_type_id":"4","last_reported":1778344811,"current_range_meters":6400,"station_id":"ce4bhr92rcd13ifvqhrg","pricing_plan_id":"cebpf4jnsgd1na2vs0mg"},{"bike_id":"14a278e5-2265-4abb-8d43-f12d55bfa642","system_id":"levelo_inurba_marseille","lat":43.29839,"lon":5.36277,"is_reserved":false,"is_disabled":false,"rental_uris":{"android":"levelo://app?vid=14a278e5-2265-4abb-8d43-f12d55bfa642","ios":"levelo://app?vid=14a278e5-2265-4abb-8d43-f12d55bfa642"},"vehicle_type_id":"4","last_reported":1778344811,"current_range_meters":6400,"station_id":"ce4bgpp2rcd13ifvqc3g","pricing_plan_id":"cebpf4jnsgd1na2vs0mg"},{"bike_id":"b04be0b9-e1f1-4b3a-a624-da85cca3a01a","system_id":"levelo_inurba_marseille","lat":43.24683,"lon":5.38172,"is_reserved":false,"is_disabled":false,"rental_uris":{"android":"levelo://app?vid=b04be0b9-e1f1-4b3a-a624-da85cca3a01a","ios":"levelo://app?vid=b04be0b9-e1f1-4b3a-a624-da85cca3a01a"},"vehicle_type_id":"4","last_reported":1778344811,"current_range_meters":6400,"station_id":"ce4bhih2rcd13ifvqfr0","pricing_plan_id":"cebpf4jnsgd1na2vs0mg"},{"bike_id":"365f5c28-6148-41e1-9064-4136e9124cb6","system_id":"levelo_inurba_marseille","lat":43.26213,"lon":5.37926,"is_reserved":false,"is_disabled":false,"rental_uris":{"android":"levelo://app?vid=365f5c28-6148-41e1-9064-4136e9124cb6","ios":"levelo://app?vid=365f5c28-6148-41e1-9064-4136e9124cb6"},"vehicle_type_id":"4","last_reported":1778344811,"current_range_meters":6800,"station_id":"ce4bhjp2rcd13ifvqg90","pricing_plan_id":"cebpf4jnsgd1na2vs0mg"},{"bike_id":"e6bd8138-3d56-4ae6-9878-8794caa087c5","system_id":"levelo_inurba_marseille","lat":43.24454,"lon":5.42553,"is_reserved":false,"is_disabled":true,"rental_uris":{"android":"levelo://app?vid=e6bd8138-3d56-4ae6-9878-8794caa087c5","ios":"levelo://app?vid=e6bd8138-3d56-4ae6-9878-8794caa087c5"},"vehicle_type_id":"4","last_reported":1778344811,"current_range_meters":6800,"station_id":"st_d4a3vfp97mjs738cd8kg","pricing_plan_id":"cebpf4jnsgd1na2vs0mg"},{"bike_id":"c0409539-5347-439d-9ba4-67870c3e8ac1","system_id":"levelo_inurba_marseille","lat":43.29254,"lon":5.38438,"is_reserved":false,"is_disabled":false,"rental_uris":{"android":"levelo://app?vid=c0409539-5347-439d-9ba4-67870c3e8ac1","ios":"levelo://app?vid=c0409539-5347-439d-9ba4-67870c3e8ac1"},"vehicle_type_id":"4","last_reported":1778344811,"current_range_meters":6800,"station_id":"ce4bh692rcd13ifvqea0","pricing_plan_id":"cebpf4jnsgd1na2vs0mg"},{"bike_id":"498c3c21-78b2-477b-bd66-aa3d4f6c249c","system_id":"levelo_inurba_marseille","lat":43.30911,"lon":5.3684,"is_reserved":false,"is_disabled":false,"rental_uris":{"android":"levelo://app?vid=498c3c21-78b2-477b-bd66-aa3d4f6c249c","ios":"levelo://app?vid=498c3c21-78b2-477b-bd66-aa3d4f6c249c"},"vehicle_type_id":"4","last_reported":1778344811,"current_range_meters":6800,"station_id":"ce4bgn92rcd13ifvqbvg","pricing_plan_id":"cebpf4jnsgd1na2vs0mg"},{"bike_id":"c747feeb-271d-4d74-9185-52bd943fb9ae","system_id":"levelo_inurba_marseille","lat":43.2952,"lon":5.39026,"is_reserved":false,"is_disabled":false,"rental_uris":{"android":"levelo://app?vid=c747feeb-271d-4d74-9185-52bd943fb9ae","ios":"levelo://app?vid=c747feeb-271d-4d74-9185-52bd943fb9ae"},"vehicle_type_id":"4","last_reported":1778344811,"current_range_meters":6800,"station_id":"ce4bh3p2rcd13ifvqdp0","pricing_plan_id":"cebpf4jnsgd1na2vs0mg"},{"bike_id":"0c1e5de2-2f01-4591-ab3b-3a5ae0e1c12e","system_id":"levelo_inurba_marseille","lat":43.26025,"lon":5.37549,"is_reserved":false,"is_disabled":false,"rental_uris":{"android":"levelo://app?vid=0c1e5de2-2f01-4591-ab3b-3a5ae0e1c12e","ios":"levelo://app?vid=0c1e5de2-2f01-4591-ab3b-3a5ae0e1c12e"},"vehicle_type_id":"4","last_reported":1778344811,"current_range_meters":6800,"station_id":"ce4bhgh2rcd13ifvqfa0","pricing_plan_id":"cebpf4jnsgd1na2vs0mg"},{"bike_id":"30db0d9d-3a78-41d7-b070-623fb764f8c5","system_id":"levelo_inurba_marseille","lat":43.28429,"lon":5.349791,"is_reserved":false,"is_disabled":false,"rental_uris":{"android":"levelo://app?vid=30db0d9d-3a78-41d7-b070-623fb764f8c5","ios":"levelo://app?vid=30db0d9d-3a78-41d7-b070-623fb764f8c5"},"vehicle_type_id":"4","last_reported":1778344811,"current_range_meters":6800,"station_id":"ce4bhbh2rcd13ifvqepg","pricing_plan_id":"cebpf4jnsgd1na2vs0mg"},{"bike_id":"407e9612-ad93-4d7c-a713-0ff1764d5034","system_id":"levelo_inurba_marseille","lat":43.31359,"lon":5.4152,"is_reserved":false,"is_disabled":false,"rental_uris":{"android":"levelo://app?vid=407e9612-ad93-4d7c-a713-0ff1764d5034","ios":"levelo://app?vid=407e9612-ad93-4d7c-a713-0ff1764d5034"},"vehicle_type_id":"4","last_reported":1778344811,"current_range_meters":6800,"station_id":"","pricing_plan_id":"cebpf4jnsgd1na2vs0mg"},{"bike_id":"a30008ae-a2df-4129-8ea6-0f377536b8ba","system_id":"levelo_inurba_marseille","lat":43.3212,"lon":5.36795,"is_reserved":false,"is_disabled":false,"rental_uris":{"android":"levelo://app?vid=a30008ae-a2df-4129-8ea6-0f377536b8ba","ios":"levelo://app?vid=a30008ae-a2df-4129-8ea6-0f377536b8ba"},"vehicle_type_id":"4","last_reported":1778344811,"current_range_meters":6800,"station_id":"ce4bhrh2rcd13ifvqhug","pricing_plan_id":"cebpf4jnsgd1na2vs0mg"},{"bike_id":"517d0b57-4f8d-4122-a499-f6626f8ab83c","system_id":"levelo_inurba_marseille","lat":43.26033,"lon":5.37544,"is_reserved":false,"is_disabled":false,"rental_uris":{"android":"levelo://app?vid=517d0b57-4f8d-4122-a499-f6626f8ab83c","ios":"levelo://app?vid=517d0b57-4f8d-4122-a499-f6626f8ab83c"},"vehicle_type_id":"4","last_reported":1778344811,"current_range_meters":6800,"station_id":"ce4bhgh2rcd13ifvqfa0","pricing_plan_id":"cebpf4jnsgd1na2vs0mg"},{"bike_id":"a5d7e7d0-32fe-450c-8f54-cac972db64e4","system_id":"levelo_inurba_marseille","lat":43.26034,"lon":5.37545,"is_reserved":false,"is_disabled":false,"rental_uris":{"android":"levelo://app?vid=a5d7e7d0-32fe-450c-8f54-cac972db64e4","ios":"levelo://app?vid=a5d7e7d0-32fe-450c-8f54-cac972db64e4"},"vehicle_type_id":"4","last_reported":1778344811,"current_range_meters":6800,"station_id":"ce4bhgh2rcd13ifvqfa0","pricing_plan_id":"cebpf4jnsgd1na2vs0mg"},{"bike_id":"f24963a4-bb1b-43b0-9566-4324f547c971","system_id":"levelo_inurba_marseille","lat":43.2903,"lon":5.37552,"is_reserved":false,"is_disabled":false,"rental_uris":{"android":"levelo://app?vid=f24963a4-bb1b-43b0-9566-4324f547c971","ios":"levelo://app?vid=f24963a4-bb1b-43b0-9566-4324f547c971"},"vehicle_type_id":"4","last_reported":1778344811,"current_range_meters":6800,"station_id":"ce4bh692rcd13ifvqe90","pricing_plan_id":"cebpf4jnsgd1na2vs0mg"},{"bike_id":"ac669cf6-3802-49e7-8567-a514ce79081d","system_id":"levelo_inurba_marseille","lat":43.29141,"lon":5.3853,"is_reserved":false,"is_disabled":true,"rental_uris":{"android":"levelo://app?vid=ac669cf6-3802-49e7-8567-a514ce79081d","ios":"levelo://app?vid=ac669cf6-3802-49e7-8567-a514ce79081d"},"vehicle_type_id":"4","last_reported":1778344811,"current_range_meters":6800,"station_id":"","pricing_plan_id":"cebpf4jnsgd1na2vs0mg"},{"bike_id":"b1eefa37-96ae-4f95-a344-438091e1d04d","system_id":"levelo_inurba_marseille","lat":43.31034,"lon":5.39395,"is_reserved":false,"is_disabled":false,"rental_uris":{"android":"levelo://app?vid=b1eefa37-96ae-4f95-a344-438091e1d04d","ios":"levelo://app?vid=b1eefa37-96ae-4f95-a344-438091e1d04d"},"vehicle_type_id":"4","last_reported":1778344811,"current_range_meters":6800,"station_id":"","pricing_plan_id":"cebpf4jnsgd1na2vs0mg"},{"bike_id":"296921d4-d837-47f5-8f08-d0f78154b13e","system_id":"levelo_inurba_marseille","lat":43.2978,"lon":5.38105,"is_reserved":false,"is_disabled":false,"rental_uris":{"android":"levelo://app?vid=296921d4-d837-47f5-8f08-d0f78154b13e","ios":"levelo://app?vid=296921d4-d837-47f5-8f08-d0f78154b13e"},"vehicle_type_id":"4","last_reported":1778344811,"current_range_meters":6800,"station_id":"ce4bgip2rcd13ifvqbb0","pricing_plan_id":"cebpf4jnsgd1na2vs0mg"},{"bike_id":"fd15faf6-f969-4bda-be30-e042b3108596","system_id":"levelo_inurba_marseille","lat":43.26373,"lon":5.4107,"is_reserved":false,"is_disabled":false,"rental_uris":{"android":"levelo://app?vid=fd15faf6-f969-4bda-be30-e042b3108596","ios":"levelo://app?vid=fd15faf6-f969-4bda-be30-e042b3108596"},"vehicle_type_id":"4","last_reported":1778344811,"current_range_meters":6800,"station_id":"st_d4e5ca6na9uc73bfl5fg","pricing_plan_id":"cebpf4jnsgd1na2vs0mg"},{"bike_id":"0259c7f9-4a67-468b-967d-555f1f780b18","system_id":"levelo_inurba_marseille","lat":43.24637,"lon":5.38289,"is_reserved":false,"is_disabled":false,"rental_uris":{"android":"levelo://app?vid=0259c7f9-4a67-468b-967d-555f1f780b18","ios":"levelo://app?vid=0259c7f9-4a67-468b-967d-555f1f780b18"},"vehicle_type_id":"4","last_reported":1778344811,"current_range_meters":6800,"station_id":"","pricing_plan_id":"cebpf4jnsgd1na2vs0mg"},{"bike_id":"6dfe43ac-6131-42a7-8c3d-86b7cfec6e79","system_id":"levelo_inurba_marseille","lat":43.29039,"lon":5.37219,"is_reserved":false,"is_disabled":false,"rental_uris":{"android":"levelo://app?vid=6dfe43ac-6131-42a7-8c3d-86b7cfec6e79","ios":"levelo://app?vid=6dfe43ac-6131-42a7-8c3d-86b7cfec6e79"},"vehicle_type_id":"4","last_reported":1778344811,"current_range_meters":6800,"station_id":"","pricing_plan_id":"cebpf4jnsgd1na2vs0mg"},{"bike_id":"3ed54b2c-4380-4ed1-abcc-ca53b99d153b","system_id":"levelo_inurba_marseille","lat":43.24663,"lon":5.38156,"is_reserved":false,"is_disabled":false,"rental_uris":{"android":"levelo://app?vid=3ed54b2c-4380-4ed1-abcc-ca53b99d153b","ios":"levelo://app?vid=3ed54b2c-4380-4ed1-abcc-ca53b99d153b"},"vehicle_type_id":"4","last_reported":1778344811,"current_range_meters":6800,"station_id":"ce4bhih2rcd13ifvqfr0","pricing_plan_id":"cebpf4jnsgd1na2vs0mg"},{"bike_id":"12c4587a-5b5a-4f05-928f-f12666178511","system_id":"levelo_inurba_marseille","lat":43.31755,"lon":5.39016,"is_reserved":false,"is_disabled":false,"rental_uris":{"android":"levelo://app?vid=12c4587a-5b5a-4f05-928f-f12666178511","ios":"levelo://app?vid=12c4587a-5b5a-4f05-928f-f12666178511"},"vehicle_type_id":"4","last_reported":1778344811,"current_range_meters":6800,"station_id":"ce4bhqp2rcd13ifvqhng","pricing_plan_id":"cebpf4jnsgd1na2vs0mg"},{"bike_id":"0152740e-06db-4ade-88eb-e3632fbb8a1f","system_id":"levelo_inurba_marseille","lat":43.28283,"lon":5.35061,"is_reserved":false,"is_disabled":true,"rental_uris":{"android":"levelo://app?vid=0152740e-06db-4ade-88eb-e3632fbb8a1f","ios":"levelo://app?vid=0152740e-06db-4ade-88eb-e3632fbb8a1f"},"vehicle_type_id":"4","last_reported":1778344811,"current_range_meters":6800,"station_id":"ce4bhbp2rcd13ifvqerg","pricing_plan_id":"cebpf4jnsgd1na2vs0mg"},{"bike_id":"627ea465-4e71-4046-a508-023e31352421","system_id":"levelo_inurba_marseille","lat":43.25058,"lon":5.40485,"is_reserved":false,"is_disabled":false,"rental_uris":{"android":"levelo://app?vid=627ea465-4e71-4046-a508-023e31352421","ios":"levelo://app?vid=627ea465-4e71-4046-a508-023e31352421"},"vehicle_type_id":"4","last_reported":1778344811,"current_range_meters":6800,"station_id":"","pricing_plan_id":"cebpf4jnsgd1na2vs0mg"},{"bike_id":"8c7ee5f0-ee7f-4483-ba01-a502010341cc","system_id":"levelo_inurba_marseille","lat":43.29962,"lon":5.38492,"is_reserved":false,"is_disabled":false,"rental_uris":{"android":"levelo://app?vid=8c7ee5f0-ee7f-4483-ba01-a502010341cc","ios":"levelo://app?vid=8c7ee5f0-ee7f-4483-ba01-a502010341cc"},"vehicle_type_id":"4","last_reported":1778344811,"current_range_meters":6800,"station_id":"ce4bgj92rcd13ifvqbd0","pricing_plan_id":"cebpf4jnsgd1na2vs0mg"},{"bike_id":"ccd23775-7406-4600-b041-4269297963b2","system_id":"levelo_inurba_marseille","lat":43.28716,"lon":5.3794,"is_reserved":false,"is_disabled":false,"rental_uris":{"android":"levelo://app?vid=ccd23775-7406-4600-b041-4269297963b2","ios":"levelo://app?vid=ccd23775-7406-4600-b041-4269297963b2"},"vehicle_type_id":"4","last_reported":1778344811,"current_range_meters":7200,"station_id":"ce4bh9p2rcd13ifvqec0","pricing_plan_id":"cebpf4jnsgd1na2vs0mg"},{"bike_id":"84ecb0ea-af06-4d3e-b377-8630ac848c1f","system_id":"levelo_inurba_marseille","lat":43.26025,"lon":5.37551,"is_reserved":false,"is_disabled":false,"rental_uris":{"android":"levelo://app?vid=84ecb0ea-af06-4d3e-b377-8630ac848c1f","ios":"levelo://app?vid=84ecb0ea-af06-4d3e-b377-8630ac848c1f"},"vehicle_type_id":"4","last_reported":1778344811,"current_range_meters":7200,"station_id":"ce4bhgh2rcd13ifvqfa0","pricing_plan_id":"cebpf4jnsgd1na2vs0mg"},{"bike_id":"9a45abed-8a50-4591-a381-dce67a2e04c0","system_id":"levelo_inurba_marseille","lat":43.29781,"lon":5.39357,"is_reserved":false,"is_disabled":true,"rental_uris":{"android":"levelo://app?vid=9a45abed-8a50-4591-a381-dce67a2e04c0","ios":"levelo://app?vid=9a45abed-8a50-4591-a381-dce67a2e04c0"},"vehicle_type_id":"4","last_reported":1778344811,"current_range_meters":7200,"station_id":"chh1huq6cuj3fo74tm60","pricing_plan_id":"cebpf4jnsgd1na2vs0mg"},{"bike_id":"b6d26de6-f794-4166-a88b-231810dea783","system_id":"levelo_inurba_marseille","lat":43.279178,"lon":5.39577,"is_reserved":false,"is_disabled":false,"rental_uris":{"android":"levelo://app?vid=b6d26de6-f794-4166-a88b-231810dea783","ios":"levelo://app?vid=b6d26de6-f794-4166-a88b-231810dea783"},"vehicle_type_id":"4","last_reported":1778344811,"current_range_meters":7200,"station_id":"ce4bhf92rcd13ifvqf40","pricing_plan_id":"cebpf4jnsgd1na2vs0mg"},{"bike_id":"f539bb17-16cf-4505-8a99-d64e79a69d9e","system_id":"levelo_inurba_marseille","lat":43.32176,"lon":5.36761,"is_reserved":false,"is_disabled":false,"rental_uris":{"android":"levelo://app?vid=f539bb17-16cf-4505-8a99-d64e79a69d9e","ios":"levelo://app?vid=f539bb17-16cf-4505-8a99-d64e79a69d9e"},"vehicle_type_id":"4","last_reported":1778344811,"current_range_meters":7200,"station_id":"","pricing_plan_id":"cebpf4jnsgd1na2vs0mg"},{"bike_id":"234d937c-0a51-4b7b-a5da-54c58b1cfe2d","system_id":"levelo_inurba_marseille","lat":43.30562,"lon":5.36679,"is_reserved":false,"is_disabled":true,"rental_uris":{"android":"levelo://app?vid=234d937c-0a51-4b7b-a5da-54c58b1cfe2d","ios":"levelo://app?vid=234d937c-0a51-4b7b-a5da-54c58b1cfe2d"},"vehicle_type_id":"4","last_reported":1778344811,"current_range_meters":7200,"station_id":"","pricing_plan_id":"cebpf4jnsgd1na2vs0mg"},{"bike_id":"35932c4a-06a1-4aa7-8bbd-eed74b91e0d2","system_id":"levelo_inurba_marseille","lat":43.31524,"lon":5.38035,"is_reserved":false,"is_disabled":false,"rental_uris":{"android":"levelo://app?vid=35932c4a-06a1-4aa7-8bbd-eed74b91e0d2","ios":"levelo://app?vid=35932c4a-06a1-4aa7-8bbd-eed74b91e0d2"},"vehicle_type_id":"4","last_reported":1778344811,"current_range_meters":7200,"station_id":"ce4bhsp2rcd13ifvqi50","pricing_plan_id":"cebpf4jnsgd1na2vs0mg"},{"bike_id":"f422b51e-1ef9-42a2-8365-1d33f807a8e0","system_id":"levelo_inurba_marseille","lat":43.23892,"lon":5.37459,"is_reserved":false,"is_disabled":true,"rental_uris":{"android":"levelo://app?vid=f422b51e-1ef9-42a2-8365-1d33f807a8e0","ios":"levelo://app?vid=f422b51e-1ef9-42a2-8365-1d33f807a8e0"},"vehicle_type_id":"4","last_reported":1778344811,"current_range_meters":7200,"station_id":"st_d6sm7csbq4hs73f8fpjg","pricing_plan_id":"cebpf4jnsgd1na2vs0mg"},{"bike_id":"264dd0a7-16d8-48c6-b8bf-1ef756773377","system_id":"levelo_inurba_marseille","lat":43.31875,"lon":5.36801,"is_reserved":false,"is_disabled":false,"rental_uris":{"android":"levelo://app?vid=264dd0a7-16d8-48c6-b8bf-1ef756773377","ios":"levelo://app?vid=264dd0a7-16d8-48c6-b8bf-1ef756773377"},"vehicle_type_id":"4","last_reported":1778344811,"current_range_meters":7200,"station_id":"st_d6o2h0d0559c73evc1b0","pricing_plan_id":"cebpf4jnsgd1na2vs0mg"},{"bike_id":"f0727bb7-b933-4d55-a165-2af7c22b34c1","system_id":"levelo_inurba_marseille","lat":43.22566,"lon":5.41622,"is_reserved":false,"is_disabled":false,"rental_uris":{"android":"levelo://app?vid=f0727bb7-b933-4d55-a165-2af7c22b34c1","ios":"levelo://app?vid=f0727bb7-b933-4d55-a165-2af7c22b34c1"},"vehicle_type_id":"4","last_reported":1778344811,"current_range_meters":7200,"station_id":"st_d2o4gvlbi1j2169b742g","pricing_plan_id":"cebpf4jnsgd1na2vs0mg"},{"bike_id":"b23376ef-aa88-4e69-9e7f-702d06e027c4","system_id":"levelo_inurba_marseille","lat":43.27199,"lon":5.39188,"is_reserved":false,"is_disabled":false,"rental_uris":{"android":"levelo://app?vid=b23376ef-aa88-4e69-9e7f-702d06e027c4","ios":"levelo://app?vid=b23376ef-aa88-4e69-9e7f-702d06e027c4"},"vehicle_type_id":"4","last_reported":1778344811,"current_range_meters":7200,"station_id":"ce4bhhp2rcd13ifvqfm0","pricing_plan_id":"cebpf4jnsgd1na2vs0mg"},{"bike_id":"e9511dd2-aff4-4578-bdc0-f1f9da71821d","system_id":"levelo_inurba_marseille","lat":43.267791,"lon":5.394143,"is_reserved":false,"is_disabled":false,"rental_uris":{"android":"levelo://app?vid=e9511dd2-aff4-4578-bdc0-f1f9da71821d","ios":"levelo://app?vid=e9511dd2-aff4-4578-bdc0-f1f9da71821d"},"vehicle_type_id":"4","last_reported":1778344811,"current_range_meters":7200,"station_id":"ce4bhh12rcd13ifvqfg0","pricing_plan_id":"cebpf4jnsgd1na2vs0mg"},{"bike_id":"74a938f2-f578-4294-9976-174677fe2f35","system_id":"levelo_inurba_marseille","lat":43.29491,"lon":5.43307,"is_reserved":false,"is_disabled":false,"rental_uris":{"android":"levelo://app?vid=74a938f2-f578-4294-9976-174677fe2f35","ios":"levelo://app?vid=74a938f2-f578-4294-9976-174677fe2f35"},"vehicle_type_id":"4","last_reported":1778344811,"current_range_meters":7200,"station_id":"st_d3j5ugp08ojc73fj9d10","pricing_plan_id":"cebpf4jnsgd1na2vs0mg"},{"bike_id":"bf199b2e-2f10-4962-a950-e1d2d8cd97cb","system_id":"levelo_inurba_marseille","lat":43.28037,"lon":5.3537,"is_reserved":false,"is_disabled":false,"rental_uris":{"android":"levelo://app?vid=bf199b2e-2f10-4962-a950-e1d2d8cd97cb","ios":"levelo://app?vid=bf199b2e-2f10-4962-a950-e1d2d8cd97cb"},"vehicle_type_id":"4","last_reported":1778344811,"current_range_meters":7200,"station_id":"","pricing_plan_id":"cebpf4jnsgd1na2vs0mg"},{"bike_id":"0cdbcb90-cdfd-41b2-b3ad-5d18561f62ca","system_id":"levelo_inurba_marseille","lat":43.29534,"lon":5.38535,"is_reserved":false,"is_disabled":false,"rental_uris":{"android":"levelo://app?vid=0cdbcb90-cdfd-41b2-b3ad-5d18561f62ca","ios":"levelo://app?vid=0cdbcb90-cdfd-41b2-b3ad-5d18561f62ca"},"vehicle_type_id":"4","last_reported":1778344811,"current_range_meters":7200,"station_id":"ce4bgih2rcd13ifvqba0","pricing_plan_id":"cebpf4jnsgd1na2vs0mg"},{"bike_id":"a99204e9-b490-4574-b992-df4d3ab0124f","system_id":"levelo_inurba_marseille","lat":43.29853,"lon":5.36272,"is_reserved":false,"is_disabled":false,"rental_uris":{"android":"levelo://app?vid=a99204e9-b490-4574-b992-df4d3ab0124f","ios":"levelo://app?vid=a99204e9-b490-4574-b992-df4d3ab0124f"},"vehicle_type_id":"4","last_reported":1778344811,"current_range_meters":7200,"station_id":"ce4bgpp2rcd13ifvqc3g","pricing_plan_id":"cebpf4jnsgd1na2vs0mg"},{"bike_id":"6a5081b6-93cb-4035-8946-d7af1b07116d","system_id":"levelo_inurba_marseille","lat":43.28699,"lon":5.37391,"is_reserved":false,"is_disabled":false,"rental_uris":{"android":"levelo://app?vid=6a5081b6-93cb-4035-8946-d7af1b07116d","ios":"levelo://app?vid=6a5081b6-93cb-4035-8946-d7af1b07116d"},"vehicle_type_id":"4","last_reported":1778344811,"current_range_meters":7200,"station_id":"ce4bh3p2rcd13ifvqdq0","pricing_plan_id":"cebpf4jnsgd1na2vs0mg"},{"bike_id":"1695a744-6994-4844-b6a8-50299d58f95b","system_id":"levelo_inurba_marseille","lat":43.27908,"lon":5.38019,"is_reserved":false,"is_disabled":false,"rental_uris":{"android":"levelo://app?vid=1695a744-6994-4844-b6a8-50299d58f95b","ios":"levelo://app?vid=1695a744-6994-4844-b6a8-50299d58f95b"},"vehicle_type_id":"4","last_reported":1778344811,"current_range_meters":7200,"station_id":"ce4bhf92rcd13ifvqf50","pricing_plan_id":"cebpf4jnsgd1na2vs0mg"},{"bike_id":"e7cc9926-a55a-4bc5-8821-32482aa87fde","system_id":"levelo_inurba_marseille","lat":43.29829,"lon":5.36289,"is_reserved":false,"is_disabled":false,"rental_uris":{"android":"levelo://app?vid=e7cc9926-a55a-4bc5-8821-32482aa87fde","ios":"levelo://app?vid=e7cc9926-a55a-4bc5-8821-32482aa87fde"},"vehicle_type_id":"4","last_reported":1778344811,"current_range_meters":7200,"station_id":"ce4bgpp2rcd13ifvqc3g","pricing_plan_id":"cebpf4jnsgd1na2vs0mg"},{"bike_id":"03f12be6-5eae-4c97-82ce-3edf1183136b","system_id":"levelo_inurba_marseille","lat":43.31494,"lon":5.37309,"is_reserved":false,"is_disabled":false,"rental_uris":{"android":"levelo://app?vid=03f12be6-5eae-4c97-82ce-3edf1183136b","ios":"levelo://app?vid=03f12be6-5eae-4c97-82ce-3edf1183136b"},"vehicle_type_id":"4","last_reported":1778344811,"current_range_meters":7200,"station_id":"ce4bgt12rcd13ifvqcd0","pricing_plan_id":"cebpf4jnsgd1na2vs0mg"},{"bike_id":"9ac205d8-51cf-4048-ba34-0d40a66c4034","system_id":"levelo_inurba_marseille","lat":43.28607,"lon":5.37064,"is_reserved":false,"is_disabled":false,"rental_uris":{"android":"levelo://app?vid=9ac205d8-51cf-4048-ba34-0d40a66c4034","ios":"levelo://app?vid=9ac205d8-51cf-4048-ba34-0d40a66c4034"},"vehicle_type_id":"4","last_reported":1778344811,"current_range_meters":7200,"station_id":"ce4bht12rcd13ifvqi60","pricing_plan_id":"cebpf4jnsgd1na2vs0mg"},{"bike_id":"f62f892b-35da-4575-91cd-6ff29b858255","system_id":"levelo_inurba_marseille","lat":43.29969,"lon":5.38474,"is_reserved":false,"is_disabled":true,"rental_uris":{"android":"levelo://app?vid=f62f892b-35da-4575-91cd-6ff29b858255","ios":"levelo://app?vid=f62f892b-35da-4575-91cd-6ff29b858255"},"vehicle_type_id":"4","last_reported":1778344811,"current_range_meters":7200,"station_id":"ce4bgj92rcd13ifvqbd0","pricing_plan_id":"cebpf4jnsgd1na2vs0mg"},{"bike_id":"bb7e9c7b-3674-4a26-9b5f-5dc04d16ce08","system_id":"levelo_inurba_marseille","lat":43.25552,"lon":5.38368,"is_reserved":false,"is_disabled":false,"rental_uris":{"android":"levelo://app?vid=bb7e9c7b-3674-4a26-9b5f-5dc04d16ce08","ios":"levelo://app?vid=bb7e9c7b-3674-4a26-9b5f-5dc04d16ce08"},"vehicle_type_id":"4","last_reported":1778344811,"current_range_meters":7200,"station_id":"","pricing_plan_id":"cebpf4jnsgd1na2vs0mg"},{"bike_id":"d0422a3d-e193-4cef-8d02-e1260b86002b","system_id":"levelo_inurba_marseille","lat":43.29251,"lon":5.37652,"is_reserved":false,"is_disabled":true,"rental_uris":{"android":"levelo://app?vid=d0422a3d-e193-4cef-8d02-e1260b86002b","ios":"levelo://app?vid=d0422a3d-e193-4cef-8d02-e1260b86002b"},"vehicle_type_id":"4","last_reported":1778344811,"current_range_meters":8000,"station_id":"ce4bgi12rcd13ifvqb80","pricing_plan_id":"cebpf4jnsgd1na2vs0mg"},{"bike_id":"261442be-df01-487c-b82d-848abe824608","system_id":"levelo_inurba_marseille","lat":43.26234,"lon":5.40492,"is_reserved":false,"is_disabled":false,"rental_uris":{"android":"levelo://app?vid=261442be-df01-487c-b82d-848abe824608","ios":"levelo://app?vid=261442be-df01-487c-b82d-848abe824608"},"vehicle_type_id":"4","last_reported":1778344811,"current_range_meters":8000,"station_id":"ce4bhmh2rcd13ifvqgmg","pricing_plan_id":"cebpf4jnsgd1na2vs0mg"},{"bike_id":"c1086d3a-7504-437a-a5d6-634785999dfa","system_id":"levelo_inurba_marseille","lat":43.22531,"lon":5.34823,"is_reserved":false,"is_disabled":false,"rental_uris":{"android":"levelo://app?vid=c1086d3a-7504-437a-a5d6-634785999dfa","ios":"levelo://app?vid=c1086d3a-7504-437a-a5d6-634785999dfa"},"vehicle_type_id":"4","last_reported":1778344811,"current_range_meters":8000,"station_id":"st_cvj5dfep6f1abm77gieg","pricing_plan_id":"cebpf4jnsgd1na2vs0mg"},{"bike_id":"4fd5b212-cba9-47fe-a389-1fe7b66457c2","system_id":"levelo_inurba_marseille","lat":43.30303,"lon":5.36881,"is_reserved":false,"is_disabled":false,"rental_uris":{"android":"levelo://app?vid=4fd5b212-cba9-47fe-a389-1fe7b66457c2","ios":"levelo://app?vid=4fd5b212-cba9-47fe-a389-1fe7b66457c2"},"vehicle_type_id":"4","last_reported":1778344811,"current_range_meters":8000,"station_id":"ce4bgqh2rcd13ifvqc5g","pricing_plan_id":"cebpf4jnsgd1na2vs0mg"},{"bike_id":"829d486f-671a-4d63-bf12-451a83677d06","system_id":"levelo_inurba_marseille","lat":43.30255,"lon":5.40083,"is_reserved":false,"is_disabled":false,"rental_uris":{"android":"levelo://app?vid=829d486f-671a-4d63-bf12-451a83677d06","ios":"levelo://app?vid=829d486f-671a-4d63-bf12-451a83677d06"},"vehicle_type_id":"4","last_reported":1778344811,"current_range_meters":8000,"station_id":"ce4bgvh2rcd13ifvqcs0","pricing_plan_id":"cebpf4jnsgd1na2vs0mg"},{"bike_id":"d6aa3b2f-3029-4676-9089-14b4fb6bf286","system_id":"levelo_inurba_marseille","lat":43.28698,"lon":5.46685,"is_reserved":false,"is_disabled":false,"rental_uris":{"android":"levelo://app?vid=d6aa3b2f-3029-4676-9089-14b4fb6bf286","ios":"levelo://app?vid=d6aa3b2f-3029-4676-9089-14b4fb6bf286"},"vehicle_type_id":"4","last_reported":1778344811,"current_range_meters":8000,"station_id":"st_d6tc3vkotcvc738tfjhg","pricing_plan_id":"cebpf4jnsgd1na2vs0mg"},{"bike_id":"3c5f0f52-deec-4478-b1b8-43df5890b0b6","system_id":"levelo_inurba_marseille","lat":43.23963,"lon":5.36631,"is_reserved":false,"is_disabled":false,"rental_uris":{"android":"levelo://app?vid=3c5f0f52-deec-4478-b1b8-43df5890b0b6","ios":"levelo://app?vid=3c5f0f52-deec-4478-b1b8-43df5890b0b6"},"vehicle_type_id":"4","last_reported":1778344811,"current_range_meters":8000,"station_id":"ce4bhi12rcd13ifvqfp0","pricing_plan_id":"cebpf4jnsgd1na2vs0mg"},{"bike_id":"dcb45371-ee9b-4683-9c40-296a225ad185","system_id":"levelo_inurba_marseille","lat":43.26364,"lon":5.41078,"is_reserved":false,"is_disabled":false,"rental_uris":{"android":"levelo://app?vid=dcb45371-ee9b-4683-9c40-296a225ad185","ios":"levelo://app?vid=dcb45371-ee9b-4683-9c40-296a225ad185"},"vehicle_type_id":"4","last_reported":1778344811,"current_range_meters":8000,"station_id":"st_d4e5ca6na9uc73bfl5fg","pricing_plan_id":"cebpf4jnsgd1na2vs0mg"},{"bike_id":"4a09775a-a802-431c-9a22-0b7f36fe45c8","system_id":"levelo_inurba_marseille","lat":43.24811,"lon":5.37459,"is_reserved":false,"is_disabled":false,"rental_uris":{"android":"levelo://app?vid=4a09775a-a802-431c-9a22-0b7f36fe45c8","ios":"levelo://app?vid=4a09775a-a802-431c-9a22-0b7f36fe45c8"},"vehicle_type_id":"4","last_reported":1778344811,"current_range_meters":8000,"station_id":"ce4bhgh2rcd13ifvqfb0","pricing_plan_id":"cebpf4jnsgd1na2vs0mg"},{"bike_id":"fcda3ba2-1105-4ec7-8553-1c32dd2d622d","system_id":"levelo_inurba_marseille","lat":43.26043,"lon":5.37551,"is_reserved":false,"is_disabled":false,"rental_uris":{"android":"levelo://app?vid=fcda3ba2-1105-4ec7-8553-1c32dd2d622d","ios":"levelo://app?vid=fcda3ba2-1105-4ec7-8553-1c32dd2d622d"},"vehicle_type_id":"4","last_reported":1778344811,"current_range_meters":8000,"station_id":"ce4bhgh2rcd13ifvqfa0","pricing_plan_id":"cebpf4jnsgd1na2vs0mg"},{"bike_id":"54ca2b2b-f4e7-4038-9b33-1bf50a4f0bdb","system_id":"levelo_inurba_marseille","lat":43.284565,"lon":5.358945,"is_reserved":false,"is_disabled":false,"rental_uris":{"android":"levelo://app?vid=54ca2b2b-f4e7-4038-9b33-1bf50a4f0bdb","ios":"levelo://app?vid=54ca2b2b-f4e7-4038-9b33-1bf50a4f0bdb"},"vehicle_type_id":"4","last_reported":1778344811,"current_range_meters":8000,"station_id":"ce4bhah2rcd13ifvqei0","pricing_plan_id":"cebpf4jnsgd1na2vs0mg"},{"bike_id":"1bbcc641-cce9-4936-a54f-ac8adebd8323","system_id":"levelo_inurba_marseille","lat":43.25499,"lon":5.37648,"is_reserved":false,"is_disabled":false,"rental_uris":{"android":"levelo://app?vid=1bbcc641-cce9-4936-a54f-ac8adebd8323","ios":"levelo://app?vid=1bbcc641-cce9-4936-a54f-ac8adebd8323"},"vehicle_type_id":"4","last_reported":1778344811,"current_range_meters":8000,"station_id":"ce4bhh12rcd13ifvqff0","pricing_plan_id":"cebpf4jnsgd1na2vs0mg"},{"bike_id":"9e723b84-5e87-446f-bfe0-76b558849b39","system_id":"levelo_inurba_marseille","lat":43.302114,"lon":5.394651,"is_reserved":false,"is_disabled":false,"rental_uris":{"android":"levelo://app?vid=9e723b84-5e87-446f-bfe0-76b558849b39","ios":"levelo://app?vid=9e723b84-5e87-446f-bfe0-76b558849b39"},"vehicle_type_id":"4","last_reported":1778344811,"current_range_meters":8000,"station_id":"ce4bh0p2rcd13ifvqd70","pricing_plan_id":"cebpf4jnsgd1na2vs0mg"},{"bike_id":"f43779d5-16c9-4f97-95b2-2f1f51b6ba6b","system_id":"levelo_inurba_marseille","lat":43.30889,"lon":5.37195,"is_reserved":false,"is_disabled":false,"rental_uris":{"android":"levelo://app?vid=f43779d5-16c9-4f97-95b2-2f1f51b6ba6b","ios":"levelo://app?vid=f43779d5-16c9-4f97-95b2-2f1f51b6ba6b"},"vehicle_type_id":"4","last_reported":1778344811,"current_range_meters":8000,"station_id":"ce4bguh2rcd13ifvqckg","pricing_plan_id":"cebpf4jnsgd1na2vs0mg"},{"bike_id":"4bc6302e-723c-444e-9c1c-2353d2969136","system_id":"levelo_inurba_marseille","lat":43.29459,"lon":5.39621,"is_reserved":false,"is_disabled":true,"rental_uris":{"android":"levelo://app?vid=4bc6302e-723c-444e-9c1c-2353d2969136","ios":"levelo://app?vid=4bc6302e-723c-444e-9c1c-2353d2969136"},"vehicle_type_id":"4","last_reported":1778344811,"current_range_meters":8000,"station_id":"","pricing_plan_id":"cebpf4jnsgd1na2vs0mg"},{"bike_id":"3e63ca9f-52b9-4901-a1d9-7f430e423bd0","system_id":"levelo_inurba_marseille","lat":43.3144,"lon":5.4413,"is_reserved":false,"is_disabled":false,"rental_uris":{"android":"levelo://app?vid=3e63ca9f-52b9-4901-a1d9-7f430e423bd0","ios":"levelo://app?vid=3e63ca9f-52b9-4901-a1d9-7f430e423bd0"},"vehicle_type_id":"4","last_reported":1778344811,"current_range_meters":8000,"station_id":"","pricing_plan_id":"cebpf4jnsgd1na2vs0mg"},{"bike_id":"8279a87b-3ef0-435e-adb6-98ef2b2b2f10","system_id":"levelo_inurba_marseille","lat":43.25489,"lon":5.37649,"is_reserved":false,"is_disabled":false,"rental_uris":{"android":"levelo://app?vid=8279a87b-3ef0-435e-adb6-98ef2b2b2f10","ios":"levelo://app?vid=8279a87b-3ef0-435e-adb6-98ef2b2b2f10"},"vehicle_type_id":"4","last_reported":1778344811,"current_range_meters":8000,"station_id":"ce4bhh12rcd13ifvqff0","pricing_plan_id":"cebpf4jnsgd1na2vs0mg"},{"bike_id":"f3e205b6-f9d7-4c36-8418-3767ff24d259","system_id":"levelo_inurba_marseille","lat":43.26926,"lon":5.38917,"is_reserved":false,"is_disabled":false,"rental_uris":{"android":"levelo://app?vid=f3e205b6-f9d7-4c36-8418-3767ff24d259","ios":"levelo://app?vid=f3e205b6-f9d7-4c36-8418-3767ff24d259"},"vehicle_type_id":"4","last_reported":1778344811,"current_range_meters":8000,"station_id":"ce4bhhh2rcd13ifvqfl0","pricing_plan_id":"cebpf4jnsgd1na2vs0mg"},{"bike_id":"8044a4a0-108f-4f52-ad02-22d5ad73238f","system_id":"levelo_inurba_marseille","lat":43.24649,"lon":5.38904,"is_reserved":false,"is_disabled":false,"rental_uris":{"android":"levelo://app?vid=8044a4a0-108f-4f52-ad02-22d5ad73238f","ios":"levelo://app?vid=8044a4a0-108f-4f52-ad02-22d5ad73238f"},"vehicle_type_id":"4","last_reported":1778344811,"current_range_meters":8400,"station_id":"ce4bhg12rcd13ifvqf60","pricing_plan_id":"cebpf4jnsgd1na2vs0mg"},{"bike_id":"97f964d8-1b4e-4439-a5e5-5bf9eca1819d","system_id":"levelo_inurba_marseille","lat":43.26369,"lon":5.41067,"is_reserved":false,"is_disabled":false,"rental_uris":{"android":"levelo://app?vid=97f964d8-1b4e-4439-a5e5-5bf9eca1819d","ios":"levelo://app?vid=97f964d8-1b4e-4439-a5e5-5bf9eca1819d"},"vehicle_type_id":"4","last_reported":1778344811,"current_range_meters":8400,"station_id":"st_d4e5ca6na9uc73bfl5fg","pricing_plan_id":"cebpf4jnsgd1na2vs0mg"},{"bike_id":"9d85f2a2-1ff6-4209-9b25-a1d1246b951d","system_id":"levelo_inurba_marseille","lat":43.29021,"lon":5.38131,"is_reserved":false,"is_disabled":false,"rental_uris":{"android":"levelo://app?vid=9d85f2a2-1ff6-4209-9b25-a1d1246b951d","ios":"levelo://app?vid=9d85f2a2-1ff6-4209-9b25-a1d1246b951d"},"vehicle_type_id":"4","last_reported":1778344811,"current_range_meters":8400,"station_id":"ce4bh4p2rcd13ifvqe1g","pricing_plan_id":"cebpf4jnsgd1na2vs0mg"},{"bike_id":"3d08b657-7a38-4507-9fe1-e6e231ca62cd","system_id":"levelo_inurba_marseille","lat":43.312177,"lon":5.36893,"is_reserved":false,"is_disabled":false,"rental_uris":{"android":"levelo://app?vid=3d08b657-7a38-4507-9fe1-e6e231ca62cd","ios":"levelo://app?vid=3d08b657-7a38-4507-9fe1-e6e231ca62cd"},"vehicle_type_id":"4","last_reported":1778344811,"current_range_meters":8400,"station_id":"ce4bgl92rcd13ifvqbq0","pricing_plan_id":"cebpf4jnsgd1na2vs0mg"},{"bike_id":"e310b290-266d-471c-84e2-65df7daa455f","system_id":"levelo_inurba_marseille","lat":43.28469,"lon":5.38565,"is_reserved":false,"is_disabled":false,"rental_uris":{"android":"levelo://app?vid=e310b290-266d-471c-84e2-65df7daa455f","ios":"levelo://app?vid=e310b290-266d-471c-84e2-65df7daa455f"},