{"last_updated":1746620434,"ttl":60,"version":"2.2","data":{"bikes":[{"bike_id":"458b8a8d-620a-4acd-bf06-2a4ea12c5176","system_id":"levelo_inurba_marseille","lat":43.30195,"lon":5.39447,"is_reserved":false,"is_disabled":false,"rental_uris":{"android":"levelo://app?vid=458b8a8d-620a-4acd-bf06-2a4ea12c5176","ios":"levelo://app?vid=458b8a8d-620a-4acd-bf06-2a4ea12c5176"},"vehicle_type_id":"4","last_reported":1746620434,"current_range_meters":2800,"station_id":"ce4bh0p2rcd13ifvqd70","pricing_plan_id":"cebpf4jnsgd1na2vs0mg"},{"bike_id":"61ae6519-ad74-44fe-a22a-f3c8df38a386","system_id":"levelo_inurba_marseille","lat":43.30779,"lon":5.37643,"is_reserved":false,"is_disabled":false,"rental_uris":{"android":"levelo://app?vid=61ae6519-ad74-44fe-a22a-f3c8df38a386","ios":"levelo://app?vid=61ae6519-ad74-44fe-a22a-f3c8df38a386"},"vehicle_type_id":"4","last_reported":1746620434,"current_range_meters":3200,"station_id":"ce4bgv92rcd13ifvqcq0","pricing_plan_id":"cebpf4jnsgd1na2vs0mg"},{"bike_id":"617e21f5-7b53-4ac5-b207-fb1966ec6b76","system_id":"levelo_inurba_marseille","lat":43.27322,"lon":5.3908,"is_reserved":false,"is_disabled":false,"rental_uris":{"android":"levelo://app?vid=617e21f5-7b53-4ac5-b207-fb1966ec6b76","ios":"levelo://app?vid=617e21f5-7b53-4ac5-b207-fb1966ec6b76"},"vehicle_type_id":"4","last_reported":1746620434,"current_range_meters":3200,"station_id":"ce4bhgp2rcd13ifvqfe0","pricing_plan_id":"cebpf4jnsgd1na2vs0mg"},{"bike_id":"af03098a-c73e-4d79-9319-17905db6f0c3","system_id":"levelo_inurba_marseille","lat":43.28707,"lon":5.39992,"is_reserved":false,"is_disabled":false,"rental_uris":{"android":"levelo://app?vid=af03098a-c73e-4d79-9319-17905db6f0c3","ios":"levelo://app?vid=af03098a-c73e-4d79-9319-17905db6f0c3"},"vehicle_type_id":"4","last_reported":1746620434,"current_range_meters":3200,"station_id":"ce4bho92rcd13ifvqh3g","pricing_plan_id":"cebpf4jnsgd1na2vs0mg"},{"bike_id":"3e6a9376-9c56-4e8b-9f40-4ae31878a530","system_id":"levelo_inurba_marseille","lat":43.29618,"lon":5.377115,"is_reserved":false,"is_disabled":false,"rental_uris":{"android":"levelo://app?vid=3e6a9376-9c56-4e8b-9f40-4ae31878a530","ios":"levelo://app?vid=3e6a9376-9c56-4e8b-9f40-4ae31878a530"},"vehicle_type_id":"4","last_reported":1746620434,"current_range_meters":3200,"station_id":"ce4bgi92rcd13ifvqb90","pricing_plan_id":"cebpf4jnsgd1na2vs0mg"},{"bike_id":"b576d3ab-2c55-402b-9010-2f9f49fc4a37","system_id":"levelo_inurba_marseille","lat":43.30538,"lon":5.3653,"is_reserved":false,"is_disabled":true,"rental_uris":{"android":"levelo://app?vid=b576d3ab-2c55-402b-9010-2f9f49fc4a37","ios":"levelo://app?vid=b576d3ab-2c55-402b-9010-2f9f49fc4a37"},"vehicle_type_id":"4","last_reported":1746620434,"current_range_meters":4000,"station_id":"ce4bgs12rcd13ifvqcag","pricing_plan_id":"cebpf4jnsgd1na2vs0mg"},{"bike_id":"b96f3c1d-879c-4392-9fe9-ff5624e6ab9f","system_id":"levelo_inurba_marseille","lat":43.32497,"lon":5.36592,"is_reserved":false,"is_disabled":false,"rental_uris":{"android":"levelo://app?vid=b96f3c1d-879c-4392-9fe9-ff5624e6ab9f","ios":"levelo://app?vid=b96f3c1d-879c-4392-9fe9-ff5624e6ab9f"},"vehicle_type_id":"4","last_reported":1746620434,"current_range_meters":4000,"station_id":"ce4bhs12rcd13ifvqhvg","pricing_plan_id":"cebpf4jnsgd1na2vs0mg"},{"bike_id":"43d0fd12-bc1a-4686-a82e-8652f9d101fc","system_id":"levelo_inurba_marseille","lat":43.2397,"lon":5.3663,"is_reserved":false,"is_disabled":false,"rental_uris":{"android":"levelo://app?vid=43d0fd12-bc1a-4686-a82e-8652f9d101fc","ios":"levelo://app?vid=43d0fd12-bc1a-4686-a82e-8652f9d101fc"},"vehicle_type_id":"4","last_reported":1746620434,"current_range_meters":4400,"station_id":"ce4bhi12rcd13ifvqfp0","pricing_plan_id":"cebpf4jnsgd1na2vs0mg"},{"bike_id":"f863364b-4a07-48e4-9632-44ede8fbe70b","system_id":"levelo_inurba_marseille","lat":43.27501,"lon":5.4247,"is_reserved":false,"is_disabled":false,"rental_uris":{"android":"levelo://app?vid=f863364b-4a07-48e4-9632-44ede8fbe70b","ios":"levelo://app?vid=f863364b-4a07-48e4-9632-44ede8fbe70b"},"vehicle_type_id":"4","last_reported":1746620434,"current_range_meters":4400,"station_id":"ce4bhn92rcd13ifvqgrg","pricing_plan_id":"cebpf4jnsgd1na2vs0mg"},{"bike_id":"9d8f73eb-df09-4699-86a7-d631e2319093","system_id":"levelo_inurba_marseille","lat":43.26255,"lon":5.37429,"is_reserved":false,"is_disabled":false,"rental_uris":{"android":"levelo://app?vid=9d8f73eb-df09-4699-86a7-d631e2319093","ios":"levelo://app?vid=9d8f73eb-df09-4699-86a7-d631e2319093"},"vehicle_type_id":"4","last_reported":1746620434,"current_range_meters":4400,"station_id":"","pricing_plan_id":"cebpf4jnsgd1na2vs0mg"},{"bike_id":"259bebfd-b966-4ba3-b48a-e7a291944593","system_id":"levelo_inurba_marseille","lat":43.26561,"lon":5.39015,"is_reserved":false,"is_disabled":false,"rental_uris":{"android":"levelo://app?vid=259bebfd-b966-4ba3-b48a-e7a291944593","ios":"levelo://app?vid=259bebfd-b966-4ba3-b48a-e7a291944593"},"vehicle_type_id":"4","last_reported":1746620434,"current_range_meters":4400,"station_id":"ce4bhe12rcd13ifvqf30","pricing_plan_id":"cebpf4jnsgd1na2vs0mg"},{"bike_id":"dd400a0b-4ee2-438a-924f-d36d3c883636","system_id":"levelo_inurba_marseille","lat":43.302551,"lon":5.40081,"is_reserved":false,"is_disabled":false,"rental_uris":{"android":"levelo://app?vid=dd400a0b-4ee2-438a-924f-d36d3c883636","ios":"levelo://app?vid=dd400a0b-4ee2-438a-924f-d36d3c883636"},"vehicle_type_id":"4","last_reported":1746620434,"current_range_meters":4400,"station_id":"ce4bgvh2rcd13ifvqcs0","pricing_plan_id":"cebpf4jnsgd1na2vs0mg"},{"bike_id":"29c97086-dd9e-4cc9-8dce-513636e9f675","system_id":"levelo_inurba_marseille","lat":43.29012,"lon":5.38137,"is_reserved":false,"is_disabled":false,"rental_uris":{"android":"levelo://app?vid=29c97086-dd9e-4cc9-8dce-513636e9f675","ios":"levelo://app?vid=29c97086-dd9e-4cc9-8dce-513636e9f675"},"vehicle_type_id":"4","last_reported":1746620434,"current_range_meters":4400,"station_id":"ce4bh4p2rcd13ifvqe1g","pricing_plan_id":"cebpf4jnsgd1na2vs0mg"},{"bike_id":"efb77c05-0ea7-4e3c-9793-fbbd27c52f91","system_id":"levelo_inurba_marseille","lat":43.30595,"lon":5.39357,"is_reserved":false,"is_disabled":false,"rental_uris":{"android":"levelo://app?vid=efb77c05-0ea7-4e3c-9793-fbbd27c52f91","ios":"levelo://app?vid=efb77c05-0ea7-4e3c-9793-fbbd27c52f91"},"vehicle_type_id":"4","last_reported":1746620434,"current_range_meters":4400,"station_id":"ce4bh0p2rcd13ifvqd80","pricing_plan_id":"cebpf4jnsgd1na2vs0mg"},{"bike_id":"cb3a7b80-1d86-475d-bbd1-278109ef9370","system_id":"levelo_inurba_marseille","lat":43.31488,"lon":5.37311,"is_reserved":false,"is_disabled":false,"rental_uris":{"android":"levelo://app?vid=cb3a7b80-1d86-475d-bbd1-278109ef9370","ios":"levelo://app?vid=cb3a7b80-1d86-475d-bbd1-278109ef9370"},"vehicle_type_id":"4","last_reported":1746620434,"current_range_meters":4800,"station_id":"ce4bgt12rcd13ifvqcd0","pricing_plan_id":"cebpf4jnsgd1na2vs0mg"},{"bike_id":"716be4e6-8897-47ed-9d82-c4587a36b7c1","system_id":"levelo_inurba_marseille","lat":43.29272,"lon":5.37615,"is_reserved":false,"is_disabled":false,"rental_uris":{"android":"levelo://app?vid=716be4e6-8897-47ed-9d82-c4587a36b7c1","ios":"levelo://app?vid=716be4e6-8897-47ed-9d82-c4587a36b7c1"},"vehicle_type_id":"4","last_reported":1746620434,"current_range_meters":4800,"station_id":"ce4bgi12rcd13ifvqb80","pricing_plan_id":"cebpf4jnsgd1na2vs0mg"},{"bike_id":"053e273d-d8f5-405b-9997-b470dc659f30","system_id":"levelo_inurba_marseille","lat":43.29714,"lon":5.36606,"is_reserved":false,"is_disabled":false,"rental_uris":{"android":"levelo://app?vid=053e273d-d8f5-405b-9997-b470dc659f30","ios":"levelo://app?vid=053e273d-d8f5-405b-9997-b470dc659f30"},"vehicle_type_id":"4","last_reported":1746620434,"current_range_meters":4800,"station_id":"ce4bgn12rcd13ifvqbt0","pricing_plan_id":"cebpf4jnsgd1na2vs0mg"},{"bike_id":"0d9818f7-c24d-4874-abc2-6b10c98a738b","system_id":"levelo_inurba_marseille","lat":43.31759,"lon":5.39019,"is_reserved":false,"is_disabled":false,"rental_uris":{"android":"levelo://app?vid=0d9818f7-c24d-4874-abc2-6b10c98a738b","ios":"levelo://app?vid=0d9818f7-c24d-4874-abc2-6b10c98a738b"},"vehicle_type_id":"4","last_reported":1746620434,"current_range_meters":5600,"station_id":"ce4bhqp2rcd13ifvqhng","pricing_plan_id":"cebpf4jnsgd1na2vs0mg"},{"bike_id":"7735f831-86a3-46b0-8e7b-1ab594c8e639","system_id":"levelo_inurba_marseille","lat":43.25925,"lon":5.40906,"is_reserved":false,"is_disabled":false,"rental_uris":{"android":"levelo://app?vid=7735f831-86a3-46b0-8e7b-1ab594c8e639","ios":"levelo://app?vid=7735f831-86a3-46b0-8e7b-1ab594c8e639"},"vehicle_type_id":"4","last_reported":1746620434,"current_range_meters":6000,"station_id":"ce4bhm92rcd13ifvqglg","pricing_plan_id":"cebpf4jnsgd1na2vs0mg"},{"bike_id":"c75b35e9-f179-4b61-8257-a8c8e2715a26","system_id":"levelo_inurba_marseille","lat":43.290328,"lon":5.399557,"is_reserved":false,"is_disabled":false,"rental_uris":{"android":"levelo://app?vid=c75b35e9-f179-4b61-8257-a8c8e2715a26","ios":"levelo://app?vid=c75b35e9-f179-4b61-8257-a8c8e2715a26"},"vehicle_type_id":"4","last_reported":1746620434,"current_range_meters":6000,"station_id":"ce4bh392rcd13ifvqdm0","pricing_plan_id":"cebpf4jnsgd1na2vs0mg"},{"bike_id":"d52f4348-d308-4efc-b2a5-d19b70884c5f","system_id":"levelo_inurba_marseille","lat":43.30116,"lon":5.3985,"is_reserved":false,"is_disabled":false,"rental_uris":{"android":"levelo://app?vid=d52f4348-d308-4efc-b2a5-d19b70884c5f","ios":"levelo://app?vid=d52f4348-d308-4efc-b2a5-d19b70884c5f"},"vehicle_type_id":"4","last_reported":1746620434,"current_range_meters":6000,"station_id":"ce4bh0h2rcd13ifvqd40","pricing_plan_id":"cebpf4jnsgd1na2vs0mg"},{"bike_id":"12eeec69-1e1c-4c07-96db-7ee9c3cb39aa","system_id":"levelo_inurba_marseille","lat":43.34141,"lon":5.40905,"is_reserved":false,"is_disabled":false,"rental_uris":{"android":"levelo://app?vid=12eeec69-1e1c-4c07-96db-7ee9c3cb39aa","ios":"levelo://app?vid=12eeec69-1e1c-4c07-96db-7ee9c3cb39aa"},"vehicle_type_id":"4","last_reported":1746620434,"current_range_meters":6000,"station_id":"ce4bhqh2rcd13ifvqhlg","pricing_plan_id":"cebpf4jnsgd1na2vs0mg"},{"bike_id":"76e34a88-c447-4144-a01f-f03597485330","system_id":"levelo_inurba_marseille","lat":43.302429,"lon":5.400836,"is_reserved":false,"is_disabled":false,"rental_uris":{"android":"levelo://app?vid=76e34a88-c447-4144-a01f-f03597485330","ios":"levelo://app?vid=76e34a88-c447-4144-a01f-f03597485330"},"vehicle_type_id":"4","last_reported":1746620434,"current_range_meters":6400,"station_id":"","pricing_plan_id":"cebpf4jnsgd1na2vs0mg"},{"bike_id":"be30413e-157e-4183-a401-e3fcdc44d188","system_id":"levelo_inurba_marseille","lat":43.22937,"lon":5.35377,"is_reserved":false,"is_disabled":false,"rental_uris":{"android":"levelo://app?vid=be30413e-157e-4183-a401-e3fcdc44d188","ios":"levelo://app?vid=be30413e-157e-4183-a401-e3fcdc44d188"},"vehicle_type_id":"4","last_reported":1746620434,"current_range_meters":6400,"station_id":"cpo3532slgdg3j2ikp40","pricing_plan_id":"cebpf4jnsgd1na2vs0mg"},{"bike_id":"dc14f7a4-5db2-4669-bcf2-e93e80b84632","system_id":"levelo_inurba_marseille","lat":43.2622,"lon":5.40454,"is_reserved":false,"is_disabled":false,"rental_uris":{"android":"levelo://app?vid=dc14f7a4-5db2-4669-bcf2-e93e80b84632","ios":"levelo://app?vid=dc14f7a4-5db2-4669-bcf2-e93e80b84632"},"vehicle_type_id":"4","last_reported":1746620434,"current_range_meters":6400,"station_id":"ce4bhmh2rcd13ifvqgmg","pricing_plan_id":"cebpf4jnsgd1na2vs0mg"},{"bike_id":"540802f8-ab47-423b-94bd-f550bf50beed","system_id":"levelo_inurba_marseille","lat":43.275574,"lon":5.384232,"is_reserved":false,"is_disabled":false,"rental_uris":{"android":"levelo://app?vid=540802f8-ab47-423b-94bd-f550bf50beed","ios":"levelo://app?vid=540802f8-ab47-423b-94bd-f550bf50beed"},"vehicle_type_id":"4","last_reported":1746620434,"current_range_meters":6400,"station_id":"ce4bhh92rcd13ifvqfi0","pricing_plan_id":"cebpf4jnsgd1na2vs0mg"},{"bike_id":"b3ae7e6b-cbd9-4ffa-b264-af419a00f515","system_id":"levelo_inurba_marseille","lat":43.32085,"lon":5.41532,"is_reserved":false,"is_disabled":false,"rental_uris":{"android":"levelo://app?vid=b3ae7e6b-cbd9-4ffa-b264-af419a00f515","ios":"levelo://app?vid=b3ae7e6b-cbd9-4ffa-b264-af419a00f515"},"vehicle_type_id":"4","last_reported":1746620434,"current_range_meters":6400,"station_id":"","pricing_plan_id":"cebpf4jnsgd1na2vs0mg"},{"bike_id":"63cb73aa-86fe-4599-9b76-3790ec130780","system_id":"levelo_inurba_marseille","lat":43.29592,"lon":5.37846,"is_reserved":false,"is_disabled":false,"rental_uris":{"android":"levelo://app?vid=63cb73aa-86fe-4599-9b76-3790ec130780","ios":"levelo://app?vid=63cb73aa-86fe-4599-9b76-3790ec130780"},"vehicle_type_id":"4","last_reported":1746620434,"current_range_meters":6400,"station_id":"","pricing_plan_id":"cebpf4jnsgd1na2vs0mg"},{"bike_id":"e8b9b464-11ea-4ba6-8c4a-510eeebfbc6c","system_id":"levelo_inurba_marseille","lat":43.30891,"lon":5.39651,"is_reserved":false,"is_disabled":false,"rental_uris":{"android":"levelo://app?vid=e8b9b464-11ea-4ba6-8c4a-510eeebfbc6c","ios":"levelo://app?vid=e8b9b464-11ea-4ba6-8c4a-510eeebfbc6c"},"vehicle_type_id":"4","last_reported":1746620434,"current_range_meters":6400,"station_id":"ce4bh012rcd13ifvqcv0","pricing_plan_id":"cebpf4jnsgd1na2vs0mg"},{"bike_id":"f46ae0d7-03f3-41e1-96db-970fe58465cc","system_id":"levelo_inurba_marseille","lat":43.32996,"lon":5.38268,"is_reserved":false,"is_disabled":false,"rental_uris":{"android":"levelo://app?vid=f46ae0d7-03f3-41e1-96db-970fe58465cc","ios":"levelo://app?vid=f46ae0d7-03f3-41e1-96db-970fe58465cc"},"vehicle_type_id":"4","last_reported":1746620434,"current_range_meters":6800,"station_id":"","pricing_plan_id":"cebpf4jnsgd1na2vs0mg"},{"bike_id":"149af097-398a-4a6f-b95f-841f6b87d36c","system_id":"levelo_inurba_marseille","lat":43.26115,"lon":5.41459,"is_reserved":false,"is_disabled":false,"rental_uris":{"android":"levelo://app?vid=149af097-398a-4a6f-b95f-841f6b87d36c","ios":"levelo://app?vid=149af097-398a-4a6f-b95f-841f6b87d36c"},"vehicle_type_id":"4","last_reported":1746620434,"current_range_meters":6800,"station_id":"","pricing_plan_id":"cebpf4jnsgd1na2vs0mg"},{"bike_id":"c9592205-9409-4f74-aed1-7c4141a58caa","system_id":"levelo_inurba_marseille","lat":43.27135,"lon":5.36366,"is_reserved":false,"is_disabled":false,"rental_uris":{"android":"levelo://app?vid=c9592205-9409-4f74-aed1-7c4141a58caa","ios":"levelo://app?vid=c9592205-9409-4f74-aed1-7c4141a58caa"},"vehicle_type_id":"4","last_reported":1746620434,"current_range_meters":6800,"station_id":"","pricing_plan_id":"cebpf4jnsgd1na2vs0mg"},{"bike_id":"c0faf23e-81a7-4ca3-895d-283152fd6265","system_id":"levelo_inurba_marseille","lat":43.29592,"lon":5.3958,"is_reserved":false,"is_disabled":false,"rental_uris":{"android":"levelo://app?vid=c0faf23e-81a7-4ca3-895d-283152fd6265","ios":"levelo://app?vid=c0faf23e-81a7-4ca3-895d-283152fd6265"},"vehicle_type_id":"4","last_reported":1746620434,"current_range_meters":6800,"station_id":"","pricing_plan_id":"cebpf4jnsgd1na2vs0mg"},{"bike_id":"bac1b54f-25fa-4fee-8980-4d31f705debb","system_id":"levelo_inurba_marseille","lat":43.30304,"lon":5.36862,"is_reserved":false,"is_disabled":false,"rental_uris":{"android":"levelo://app?vid=bac1b54f-25fa-4fee-8980-4d31f705debb","ios":"levelo://app?vid=bac1b54f-25fa-4fee-8980-4d31f705debb"},"vehicle_type_id":"4","last_reported":1746620434,"current_range_meters":6800,"station_id":"ce4bgqh2rcd13ifvqc5g","pricing_plan_id":"cebpf4jnsgd1na2vs0mg"},{"bike_id":"53c51910-3823-4284-a2f4-10fa3942bcdd","system_id":"levelo_inurba_marseille","lat":43.28733,"lon":5.37934,"is_reserved":false,"is_disabled":false,"rental_uris":{"android":"levelo://app?vid=53c51910-3823-4284-a2f4-10fa3942bcdd","ios":"levelo://app?vid=53c51910-3823-4284-a2f4-10fa3942bcdd"},"vehicle_type_id":"4","last_reported":1746620434,"current_range_meters":6800,"station_id":"ce4bh9p2rcd13ifvqec0","pricing_plan_id":"cebpf4jnsgd1na2vs0mg"},{"bike_id":"b9039d10-a5ef-4e5c-b573-6ab7930121c1","system_id":"levelo_inurba_marseille","lat":43.26805,"lon":5.40266,"is_reserved":false,"is_disabled":false,"rental_uris":{"android":"levelo://app?vid=b9039d10-a5ef-4e5c-b573-6ab7930121c1","ios":"levelo://app?vid=b9039d10-a5ef-4e5c-b573-6ab7930121c1"},"vehicle_type_id":"4","last_reported":1746620434,"current_range_meters":6800,"station_id":"ce501612rcd8frsf0b60","pricing_plan_id":"cebpf4jnsgd1na2vs0mg"},{"bike_id":"578927b8-4497-490a-89f1-479fd48c84a8","system_id":"levelo_inurba_marseille","lat":43.28106,"lon":5.37835,"is_reserved":false,"is_disabled":false,"rental_uris":{"android":"levelo://app?vid=578927b8-4497-490a-89f1-479fd48c84a8","ios":"levelo://app?vid=578927b8-4497-490a-89f1-479fd48c84a8"},"vehicle_type_id":"4","last_reported":1746620434,"current_range_meters":7200,"station_id":"ce4bha12rcd13ifvqee0","pricing_plan_id":"cebpf4jnsgd1na2vs0mg"},{"bike_id":"6f43b44c-ab30-4192-9260-46455d00194a","system_id":"levelo_inurba_marseille","lat":43.30888,"lon":5.39656,"is_reserved":false,"is_disabled":false,"rental_uris":{"android":"levelo://app?vid=6f43b44c-ab30-4192-9260-46455d00194a","ios":"levelo://app?vid=6f43b44c-ab30-4192-9260-46455d00194a"},"vehicle_type_id":"4","last_reported":1746620434,"current_range_meters":7200,"station_id":"ce4bh012rcd13ifvqcv0","pricing_plan_id":"cebpf4jnsgd1na2vs0mg"},{"bike_id":"9f46bac4-07ff-4e83-8603-8bf7684f4254","system_id":"levelo_inurba_marseille","lat":43.30139,"lon":5.37418,"is_reserved":false,"is_disabled":false,"rental_uris":{"android":"levelo://app?vid=9f46bac4-07ff-4e83-8603-8bf7684f4254","ios":"levelo://app?vid=9f46bac4-07ff-4e83-8603-8bf7684f4254"},"vehicle_type_id":"4","last_reported":1746620434,"current_range_meters":7200,"station_id":"ce4bgs92rcd13ifvqcc0","pricing_plan_id":"cebpf4jnsgd1na2vs0mg"},{"bike_id":"058c04c0-a83a-4af5-a5f8-af2e07c7895c","system_id":"levelo_inurba_marseille","lat":43.32983,"lon":5.39429,"is_reserved":false,"is_disabled":false,"rental_uris":{"android":"levelo://app?vid=058c04c0-a83a-4af5-a5f8-af2e07c7895c","ios":"levelo://app?vid=058c04c0-a83a-4af5-a5f8-af2e07c7895c"},"vehicle_type_id":"4","last_reported":1746620434,"current_range_meters":8000,"station_id":"","pricing_plan_id":"cebpf4jnsgd1na2vs0mg"},{"bike_id":"4ee8dd85-a161-4076-956a-2a316c76f32d","system_id":"levelo_inurba_marseille","lat":43.31205,"lon":5.36948,"is_reserved":false,"is_disabled":false,"rental_uris":{"android":"levelo://app?vid=4ee8dd85-a161-4076-956a-2a316c76f32d","ios":"levelo://app?vid=4ee8dd85-a161-4076-956a-2a316c76f32d"},"vehicle_type_id":"4","last_reported":1746620434,"current_range_meters":8000,"station_id":"","pricing_plan_id":"cebpf4jnsgd1na2vs0mg"},{"bike_id":"3185f3bd-afcb-40f2-94a4-747557095a72","system_id":"levelo_inurba_marseille","lat":43.30548,"lon":5.36707,"is_reserved":false,"is_disabled":false,"rental_uris":{"android":"levelo://app?vid=3185f3bd-afcb-40f2-94a4-747557095a72","ios":"levelo://app?vid=3185f3bd-afcb-40f2-94a4-747557095a72"},"vehicle_type_id":"4","last_reported":1746620434,"current_range_meters":8000,"station_id":"ce4bgrp2rcd13ifvqc9g","pricing_plan_id":"cebpf4jnsgd1na2vs0mg"},{"bike_id":"705f1f6f-d92c-4df1-a512-943b0bf79900","system_id":"levelo_inurba_marseille","lat":43.22523,"lon":5.34745,"is_reserved":false,"is_disabled":false,"rental_uris":{"android":"levelo://app?vid=705f1f6f-d92c-4df1-a512-943b0bf79900","ios":"levelo://app?vid=705f1f6f-d92c-4df1-a512-943b0bf79900"},"vehicle_type_id":"4","last_reported":1746620434,"current_range_meters":8000,"station_id":"st_cvj5dfep6f1abm77gieg","pricing_plan_id":"cebpf4jnsgd1na2vs0mg"},{"bike_id":"86a8be81-1099-4eb7-8c92-ebc1455e1128","system_id":"levelo_inurba_marseille","lat":43.32383,"lon":5.36758,"is_reserved":false,"is_disabled":false,"rental_uris":{"android":"levelo://app?vid=86a8be81-1099-4eb7-8c92-ebc1455e1128","ios":"levelo://app?vid=86a8be81-1099-4eb7-8c92-ebc1455e1128"},"vehicle_type_id":"4","last_reported":1746620434,"current_range_meters":8400,"station_id":"ce4bhsh2rcd13ifvqi2g","pricing_plan_id":"cebpf4jnsgd1na2vs0mg"},{"bike_id":"99117f2d-648c-4ac4-9017-935b3f5e3305","system_id":"levelo_inurba_marseille","lat":43.31686,"lon":5.40471,"is_reserved":false,"is_disabled":false,"rental_uris":{"android":"levelo://app?vid=99117f2d-648c-4ac4-9017-935b3f5e3305","ios":"levelo://app?vid=99117f2d-648c-4ac4-9017-935b3f5e3305"},"vehicle_type_id":"4","last_reported":1746620434,"current_range_meters":8400,"station_id":"ce4bh012rcd13ifvqd00","pricing_plan_id":"cebpf4jnsgd1na2vs0mg"},{"bike_id":"b8473e14-df10-4bf9-abe3-37cfdad6200a","system_id":"levelo_inurba_marseille","lat":43.31405,"lon":5.36682,"is_reserved":false,"is_disabled":false,"rental_uris":{"android":"levelo://app?vid=b8473e14-df10-4bf9-abe3-37cfdad6200a","ios":"levelo://app?vid=b8473e14-df10-4bf9-abe3-37cfdad6200a"},"vehicle_type_id":"4","last_reported":1746620434,"current_range_meters":8400,"station_id":"ce4bgr92rcd13ifvqc6g","pricing_plan_id":"cebpf4jnsgd1na2vs0mg"},{"bike_id":"baa55d14-561c-4412-8558-e2f492a21cbf","system_id":"levelo_inurba_marseille","lat":43.265198,"lon":5.390252,"is_reserved":false,"is_disabled":false,"rental_uris":{"android":"levelo://app?vid=baa55d14-561c-4412-8558-e2f492a21cbf","ios":"levelo://app?vid=baa55d14-561c-4412-8558-e2f492a21cbf"},"vehicle_type_id":"4","last_reported":1746620434,"current_range_meters":8400,"station_id":"ce4bhh92rcd13ifvqfi0","pricing_plan_id":"cebpf4jnsgd1na2vs0mg"},{"bike_id":"ca29b916-aaea-42aa-8794-d9786047ebca","system_id":"levelo_inurba_marseille","lat":43.32298,"lon":5.38266,"is_reserved":false,"is_disabled":false,"rental_uris":{"android":"levelo://app?vid=ca29b916-aaea-42aa-8794-d9786047ebca","ios":"levelo://app?vid=ca29b916-aaea-42aa-8794-d9786047ebca"},"vehicle_type_id":"4","last_reported":1746620434,"current_range_meters":8400,"station_id":"ce4bhr12rcd13ifvqhqg","pricing_plan_id":"cebpf4jnsgd1na2vs0mg"},{"bike_id":"be9d234e-f17f-4e52-9fac-0090af227682","system_id":"levelo_inurba_marseille","lat":43.30162,"lon":5.38076,"is_reserved":false,"is_disabled":false,"rental_uris":{"android":"levelo://app?vid=be9d234e-f17f-4e52-9fac-0090af227682","ios":"levelo://app?vid=be9d234e-f17f-4e52-9fac-0090af227682"},"vehicle_type_id":"4","last_reported":1746620434,"current_range_meters":8400,"station_id":"ce4bgjp2rcd13ifvqbh0","pricing_plan_id":"cebpf4jnsgd1na2vs0mg"},{"bike_id":"e58c13e8-ddba-4d23-b245-91bead219835","system_id":"levelo_inurba_marseille","lat":43.30141,"lon":5.37406,"is_reserved":false,"is_disabled":false,"rental_uris":{"android":"levelo://app?vid=e58c13e8-ddba-4d23-b245-91bead219835","ios":"levelo://app?vid=e58c13e8-ddba-4d23-b245-91bead219835"},"vehicle_type_id":"4","last_reported":1746620434,"current_range_meters":8400,"station_id":"ce4bgs92rcd13ifvqcc0","pricing_plan_id":"cebpf4jnsgd1na2vs0mg"},{"bike_id":"f909d878-88c2-447a-bc4f-82f1db2e243c","system_id":"levelo_inurba_marseille","lat":43.312305,"lon":5.368718,"is_reserved":false,"is_disabled":false,"rental_uris":{"android":"levelo://app?vid=f909d878-88c2-447a-bc4f-82f1db2e243c","ios":"levelo://app?vid=f909d878-88c2-447a-bc4f-82f1db2e243c"},"vehicle_type_id":"4","last_reported":1746620434,"current_range_meters":8800,"station_id":"ce4bgl92rcd13ifvqbq0","pricing_plan_id":"cebpf4jnsgd1na2vs0mg"},{"bike_id":"942eaeb6-3b5f-4d65-a601-6ff77e96f06a","system_id":"levelo_inurba_marseille","lat":43.28936,"lon":5.39624,"is_reserved":false,"is_disabled":false,"rental_uris":{"android":"levelo://app?vid=942eaeb6-3b5f-4d65-a601-6ff77e96f06a","ios":"levelo://app?vid=942eaeb6-3b5f-4d65-a601-6ff77e96f06a"},"vehicle_type_id":"4","last_reported":1746620434,"current_range_meters":8800,"station_id":"ce4bh3h2rcd13ifvqdn0","pricing_plan_id":"cebpf4jnsgd1na2vs0mg"},{"bike_id":"0d05ecb9-307a-41f7-8332-a84d22e1ae68","system_id":"levelo_inurba_marseille","lat":43.29421,"lon":5.38619,"is_reserved":false,"is_disabled":false,"rental_uris":{"android":"levelo://app?vid=0d05ecb9-307a-41f7-8332-a84d22e1ae68","ios":"levelo://app?vid=0d05ecb9-307a-41f7-8332-a84d22e1ae68"},"vehicle_type_id":"4","last_reported":1746620434,"current_range_meters":8800,"station_id":"ce4bh2h2rcd13ifvqdh0","pricing_plan_id":"cebpf4jnsgd1na2vs0mg"},{"bike_id":"bd3b2178-bd6a-4801-b79f-10fa8392d3d4","system_id":"levelo_inurba_marseille","lat":43.312258,"lon":5.368766,"is_reserved":false,"is_disabled":false,"rental_uris":{"android":"levelo://app?vid=bd3b2178-bd6a-4801-b79f-10fa8392d3d4","ios":"levelo://app?vid=bd3b2178-bd6a-4801-b79f-10fa8392d3d4"},"vehicle_type_id":"4","last_reported":1746620434,"current_range_meters":8800,"station_id":"ce4bgl92rcd13ifvqbq0","pricing_plan_id":"cebpf4jnsgd1na2vs0mg"},{"bike_id":"bdd1fb02-09dd-4d8b-8d64-db0a334bf381","system_id":"levelo_inurba_marseille","lat":43.25434,"lon":5.38255,"is_reserved":false,"is_disabled":false,"rental_uris":{"android":"levelo://app?vid=bdd1fb02-09dd-4d8b-8d64-db0a334bf381","ios":"levelo://app?vid=bdd1fb02-09dd-4d8b-8d64-db0a334bf381"},"vehicle_type_id":"4","last_reported":1746620434,"current_range_meters":9200,"station_id":"ce4bgjp2rcd13ifvqbh0","pricing_plan_id":"cebpf4jnsgd1na2vs0mg"},{"bike_id":"a39f8b79-a853-4e4e-a4b2-ec678ba024fb","system_id":"levelo_inurba_marseille","lat":43.28438,"lon":5.39202,"is_reserved":false,"is_disabled":false,"rental_uris":{"android":"levelo://app?vid=a39f8b79-a853-4e4e-a4b2-ec678ba024fb","ios":"levelo://app?vid=a39f8b79-a853-4e4e-a4b2-ec678ba024fb"},"vehicle_type_id":"4","last_reported":1746620434,"current_range_meters":9200,"station_id":"ce4bhoh2rcd13ifvqh5g","pricing_plan_id":"cebpf4jnsgd1na2vs0mg"},{"bike_id":"ca017a0f-7ca8-4a7d-86a9-105a3f74b242","system_id":"levelo_inurba_marseille","lat":43.32062,"lon":5.41537,"is_reserved":false,"is_disabled":false,"rental_uris":{"android":"levelo://app?vid=ca017a0f-7ca8-4a7d-86a9-105a3f74b242","ios":"levelo://app?vid=ca017a0f-7ca8-4a7d-86a9-105a3f74b242"},"vehicle_type_id":"4","last_reported":1746620434,"current_range_meters":9200,"station_id":"ce4bhq92rcd13ifvqhkg","pricing_plan_id":"cebpf4jnsgd1na2vs0mg"},{"bike_id":"c7741849-e541-44df-8dea-1d3f1b8cc5f0","system_id":"levelo_inurba_marseille","lat":43.33006,"lon":5.39034,"is_reserved":false,"is_disabled":false,"rental_uris":{"android":"levelo://app?vid=c7741849-e541-44df-8dea-1d3f1b8cc5f0","ios":"levelo://app?vid=c7741849-e541-44df-8dea-1d3f1b8cc5f0"},"vehicle_type_id":"4","last_reported":1746620434,"current_range_meters":9200,"station_id":"ce4bhr92rcd13ifvqhrg","pricing_plan_id":"cebpf4jnsgd1na2vs0mg"},{"bike_id":"83971ff8-e7d2-4043-9a76-f091f435d9e2","system_id":"levelo_inurba_marseille","lat":43.30106,"lon":5.37394,"is_reserved":false,"is_disabled":false,"rental_uris":{"android":"levelo://app?vid=83971ff8-e7d2-4043-9a76-f091f435d9e2","ios":"levelo://app?vid=83971ff8-e7d2-4043-9a76-f091f435d9e2"},"vehicle_type_id":"4","last_reported":1746620434,"current_range_meters":9200,"station_id":"ce4bgs92rcd13ifvqcc0","pricing_plan_id":"cebpf4jnsgd1na2vs0mg"},{"bike_id":"5df66504-fbf4-4e94-b024-6612c0e8a207","system_id":"levelo_inurba_marseille","lat":43.23949,"lon":5.36648,"is_reserved":false,"is_disabled":false,"rental_uris":{"android":"levelo://app?vid=5df66504-fbf4-4e94-b024-6612c0e8a207","ios":"levelo://app?vid=5df66504-fbf4-4e94-b024-6612c0e8a207"},"vehicle_type_id":"4","last_reported":1746620434,"current_range_meters":9600,"station_id":"ce4bhi12rcd13ifvqfp0","pricing_plan_id":"cebpf4jnsgd1na2vs0mg"},{"bike_id":"f608dca9-0c78-42c3-8346-432df24764f9","system_id":"levelo_inurba_marseille","lat":43.28969,"lon":5.3783,"is_reserved":false,"is_disabled":false,"rental_uris":{"android":"levelo://app?vid=f608dca9-0c78-42c3-8346-432df24764f9","ios":"levelo://app?vid=f608dca9-0c78-42c3-8346-432df24764f9"},"vehicle_type_id":"4","last_reported":1746620434,"current_range_meters":9600,"station_id":"ce4bh9p2rcd13ifvqed0","pricing_plan_id":"cebpf4jnsgd1na2vs0mg"},{"bike_id":"b8172fcb-4ecd-421f-8b15-0ee930110ea6","system_id":"levelo_inurba_marseille","lat":43.28159,"lon":5.426343,"is_reserved":false,"is_disabled":false,"rental_uris":{"android":"levelo://app?vid=b8172fcb-4ecd-421f-8b15-0ee930110ea6","ios":"levelo://app?vid=b8172fcb-4ecd-421f-8b15-0ee930110ea6"},"vehicle_type_id":"4","last_reported":1746620434,"current_range_meters":10000,"station_id":"ce4bhnh2rcd13ifvqgug","pricing_plan_id":"cebpf4jnsgd1na2vs0mg"},{"bike_id":"fa63a7e4-e781-4293-89ae-80fbf3b33863","system_id":"levelo_inurba_marseille","lat":43.25432,"lon":5.41869,"is_reserved":false,"is_disabled":false,"rental_uris":{"android":"levelo://app?vid=fa63a7e4-e781-4293-89ae-80fbf3b33863","ios":"levelo://app?vid=fa63a7e4-e781-4293-89ae-80fbf3b33863"},"vehicle_type_id":"4","last_reported":1746620434,"current_range_meters":10000,"station_id":"","pricing_plan_id":"cebpf4jnsgd1na2vs0mg"},{"bike_id":"58930499-4953-45b4-9f5a-f3afadbf4dce","system_id":"levelo_inurba_marseille","lat":43.23196,"lon":5.35546,"is_reserved":false,"is_disabled":false,"rental_uris":{"android":"levelo://app?vid=58930499-4953-45b4-9f5a-f3afadbf4dce","ios":"levelo://app?vid=58930499-4953-45b4-9f5a-f3afadbf4dce"},"vehicle_type_id":"4","last_reported":1746620434,"current_range_meters":10000,"station_id":"ce4bhu92rcd13ifvqi70","pricing_plan_id":"cebpf4jnsgd1na2vs0mg"},{"bike_id":"61be39cd-62ad-4ee8-a728-abfaa4e58570","system_id":"levelo_inurba_marseille","lat":43.27374,"lon":5.36255,"is_reserved":false,"is_disabled":false,"rental_uris":{"android":"levelo://app?vid=61be39cd-62ad-4ee8-a728-abfaa4e58570","ios":"levelo://app?vid=61be39cd-62ad-4ee8-a728-abfaa4e58570"},"vehicle_type_id":"4","last_reported":1746620434,"current_range_meters":10000,"station_id":"ce4bhbh2rcd13ifvqeo0","pricing_plan_id":"cebpf4jnsgd1na2vs0mg"},{"bike_id":"f222666a-f926-4214-8dce-d77fc865974c","system_id":"levelo_inurba_marseille","lat":43.30138,"lon":5.39884,"is_reserved":false,"is_disabled":false,"rental_uris":{"android":"levelo://app?vid=f222666a-f926-4214-8dce-d77fc865974c","ios":"levelo://app?vid=f222666a-f926-4214-8dce-d77fc865974c"},"vehicle_type_id":"4","last_reported":1746620434,"current_range_meters":10000,"station_id":"ce4bh0h2rcd13ifvqd40","pricing_plan_id":"cebpf4jnsgd1na2vs0mg"},{"bike_id":"d9dfe991-b197-44fe-b05f-dd63e0c08974","system_id":"levelo_inurba_marseille","lat":43.26229,"lon":5.4045,"is_reserved":false,"is_disabled":false,"rental_uris":{"android":"levelo://app?vid=d9dfe991-b197-44fe-b05f-dd63e0c08974","ios":"levelo://app?vid=d9dfe991-b197-44fe-b05f-dd63e0c08974"},"vehicle_type_id":"4","last_reported":1746620434,"current_range_meters":10000,"station_id":"ce4bhmh2rcd13ifvqgmg","pricing_plan_id":"cebpf4jnsgd1na2vs0mg"},{"bike_id":"99f3317a-992b-4a36-a1e8-364e51543f53","system_id":"levelo_inurba_marseille","lat":43.27499,"lon":5.42459,"is_reserved":false,"is_disabled":false,"rental_uris":{"android":"levelo://app?vid=99f3317a-992b-4a36-a1e8-364e51543f53","ios":"levelo://app?vid=99f3317a-992b-4a36-a1e8-364e51543f53"},"vehicle_type_id":"4","last_reported":1746620434,"current_range_meters":10800,"station_id":"ce4bhn92rcd13ifvqgrg","pricing_plan_id":"cebpf4jnsgd1na2vs0mg"},{"bike_id":"d02188af-adb7-44f7-b106-7f55c9bfb3f7","system_id":"levelo_inurba_marseille","lat":43.32336,"lon":5.4061,"is_reserved":false,"is_disabled":false,"rental_uris":{"android":"levelo://app?vid=d02188af-adb7-44f7-b106-7f55c9bfb3f7","ios":"levelo://app?vid=d02188af-adb7-44f7-b106-7f55c9bfb3f7"},"vehicle_type_id":"4","last_reported":1746620434,"current_range_meters":10800,"station_id":"ce4bhq92rcd13ifvqhjg","pricing_plan_id":"cebpf4jnsgd1na2vs0mg"},{"bike_id":"f2858d1c-4ac7-41ab-bb73-8e1bab442c4f","system_id":"levelo_inurba_marseille","lat":43.28718,"lon":5.3998,"is_reserved":false,"is_disabled":false,"rental_uris":{"android":"levelo://app?vid=f2858d1c-4ac7-41ab-bb73-8e1bab442c4f","ios":"levelo://app?vid=f2858d1c-4ac7-41ab-bb73-8e1bab442c4f"},"vehicle_type_id":"4","last_reported":1746620434,"current_range_meters":10800,"station_id":"ce4bho92rcd13ifvqh3g","pricing_plan_id":"cebpf4jnsgd1na2vs0mg"},{"bike_id":"741922f7-49ff-4751-a228-5a73f2c8c24d","system_id":"levelo_inurba_marseille","lat":43.241693,"lon":5.36399,"is_reserved":false,"is_disabled":false,"rental_uris":{"android":"levelo://app?vid=741922f7-49ff-4751-a228-5a73f2c8c24d","ios":"levelo://app?vid=741922f7-49ff-4751-a228-5a73f2c8c24d"},"vehicle_type_id":"4","last_reported":1746620434,"current_range_meters":10800,"station_id":"cpo36qri1sfpv3e86is0","pricing_plan_id":"cebpf4jnsgd1na2vs0mg"},{"bike_id":"c11a00bd-ae33-46ed-9153-4b2e3af19b78","system_id":"levelo_inurba_marseille","lat":43.3237,"lon":5.38884,"is_reserved":false,"is_disabled":false,"rental_uris":{"android":"levelo://app?vid=c11a00bd-ae33-46ed-9153-4b2e3af19b78","ios":"levelo://app?vid=c11a00bd-ae33-46ed-9153-4b2e3af19b78"},"vehicle_type_id":"4","last_reported":1746620434,"current_range_meters":10800,"station_id":"ce4bhqp2rcd13ifvqhog","pricing_plan_id":"cebpf4jnsgd1na2vs0mg"},{"bike_id":"782ecf00-7842-426f-8b1e-96b31050af82","system_id":"levelo_inurba_marseille","lat":43.24651,"lon":5.3889,"is_reserved":false,"is_disabled":false,"rental_uris":{"android":"levelo://app?vid=782ecf00-7842-426f-8b1e-96b31050af82","ios":"levelo://app?vid=782ecf00-7842-426f-8b1e-96b31050af82"},"vehicle_type_id":"4","last_reported":1746620434,"current_range_meters":10800,"station_id":"ce4bhg12rcd13ifvqf60","pricing_plan_id":"cebpf4jnsgd1na2vs0mg"},{"bike_id":"7e23d017-0f1d-40c7-bf0f-7d2e5882876e","system_id":"levelo_inurba_marseille","lat":43.30816,"lon":5.43511,"is_reserved":false,"is_disabled":false,"rental_uris":{"android":"levelo://app?vid=7e23d017-0f1d-40c7-bf0f-7d2e5882876e","ios":"levelo://app?vid=7e23d017-0f1d-40c7-bf0f-7d2e5882876e"},"vehicle_type_id":"4","last_reported":1746620434,"current_range_meters":10800,"station_id":"ce4bhph2rcd13ifvqheg","pricing_plan_id":"cebpf4jnsgd1na2vs0mg"},{"bike_id":"8e22e1da-9e2a-4df6-a8f3-68a6a251ddfa","system_id":"levelo_inurba_marseille","lat":43.28374,"lon":5.38623,"is_reserved":false,"is_disabled":false,"rental_uris":{"android":"levelo://app?vid=8e22e1da-9e2a-4df6-a8f3-68a6a251ddfa","ios":"levelo://app?vid=8e22e1da-9e2a-4df6-a8f3-68a6a251ddfa"},"vehicle_type_id":"4","last_reported":1746620434,"current_range_meters":11200,"station_id":"ce4bh492rcd13ifvqdvg","pricing_plan_id":"cebpf4jnsgd1na2vs0mg"},{"bike_id":"c0ea24dc-1c76-48d8-9379-0a1b56d22efa","system_id":"levelo_inurba_marseille","lat":43.27494,"lon":5.42453,"is_reserved":false,"is_disabled":false,"rental_uris":{"android":"levelo://app?vid=c0ea24dc-1c76-48d8-9379-0a1b56d22efa","ios":"levelo://app?vid=c0ea24dc-1c76-48d8-9379-0a1b56d22efa"},"vehicle_type_id":"4","last_reported":1746620434,"current_range_meters":11200,"station_id":"ce4bhn92rcd13ifvqgrg","pricing_plan_id":"cebpf4jnsgd1na2vs0mg"},{"bike_id":"0cefc7d7-450c-4243-8483-b9d12009d242","system_id":"levelo_inurba_marseille","lat":43.24172,"lon":5.364,"is_reserved":false,"is_disabled":false,"rental_uris":{"android":"levelo://app?vid=0cefc7d7-450c-4243-8483-b9d12009d242","ios":"levelo://app?vid=0cefc7d7-450c-4243-8483-b9d12009d242"},"vehicle_type_id":"4","last_reported":1746620434,"current_range_meters":11200,"station_id":"cpo36qri1sfpv3e86is0","pricing_plan_id":"cebpf4jnsgd1na2vs0mg"},{"bike_id":"b7a492e6-8d69-4964-801e-de9f1b5e04d3","system_id":"levelo_inurba_marseille","lat":43.26579,"lon":5.39012,"is_reserved":false,"is_disabled":false,"rental_uris":{"android":"levelo://app?vid=b7a492e6-8d69-4964-801e-de9f1b5e04d3","ios":"levelo://app?vid=b7a492e6-8d69-4964-801e-de9f1b5e04d3"},"vehicle_type_id":"4","last_reported":1746620434,"current_range_meters":11200,"station_id":"ce4bhe12rcd13ifvqf30","pricing_plan_id":"cebpf4jnsgd1na2vs0mg"},{"bike_id":"39c16c75-bc9c-49f6-af9a-bd6b3ef5af9d","system_id":"levelo_inurba_marseille","lat":43.29078,"lon":5.37153,"is_reserved":false,"is_disabled":false,"rental_uris":{"android":"levelo://app?vid=39c16c75-bc9c-49f6-af9a-bd6b3ef5af9d","ios":"levelo://app?vid=39c16c75-bc9c-49f6-af9a-bd6b3ef5af9d"},"vehicle_type_id":"4","last_reported":1746620434,"current_range_meters":11200,"station_id":"ce4bh5p2rcd13ifvqe4g","pricing_plan_id":"cebpf4jnsgd1na2vs0mg"},{"bike_id":"08ea6f8f-9116-4e31-9999-5d79b3869923","system_id":"levelo_inurba_marseille","lat":43.30917,"lon":5.36853,"is_reserved":false,"is_disabled":false,"rental_uris":{"android":"levelo://app?vid=08ea6f8f-9116-4e31-9999-5d79b3869923","ios":"levelo://app?vid=08ea6f8f-9116-4e31-9999-5d79b3869923"},"vehicle_type_id":"4","last_reported":1746620434,"current_range_meters":11600,"station_id":"ce4bgn92rcd13ifvqbvg","pricing_plan_id":"cebpf4jnsgd1na2vs0mg"},{"bike_id":"4aa23479-62fd-4db4-ae0c-59e0148a999a","system_id":"levelo_inurba_marseille","lat":43.2883,"lon":5.35269,"is_reserved":false,"is_disabled":false,"rental_uris":{"android":"levelo://app?vid=4aa23479-62fd-4db4-ae0c-59e0148a999a","ios":"levelo://app?vid=4aa23479-62fd-4db4-ae0c-59e0148a999a"},"vehicle_type_id":"4","last_reported":1746620434,"current_range_meters":11600,"station_id":"","pricing_plan_id":"cebpf4jnsgd1na2vs0mg"},{"bike_id":"83373aa7-dc09-4dc7-874e-994488f6173b","system_id":"levelo_inurba_marseille","lat":43.28939,"lon":5.39628,"is_reserved":false,"is_disabled":false,"rental_uris":{"android":"levelo://app?vid=83373aa7-dc09-4dc7-874e-994488f6173b","ios":"levelo://app?vid=83373aa7-dc09-4dc7-874e-994488f6173b"},"vehicle_type_id":"4","last_reported":1746620434,"current_range_meters":11600,"station_id":"ce4bh3h2rcd13ifvqdn0","pricing_plan_id":"cebpf4jnsgd1na2vs0mg"},{"bike_id":"4922fec1-5af6-4f3f-a416-ccf2b375c14e","system_id":"levelo_inurba_marseille","lat":43.26196,"lon":5.37929,"is_reserved":false,"is_disabled":false,"rental_uris":{"android":"levelo://app?vid=4922fec1-5af6-4f3f-a416-ccf2b375c14e","ios":"levelo://app?vid=4922fec1-5af6-4f3f-a416-ccf2b375c14e"},"vehicle_type_id":"4","last_reported":1746620434,"current_range_meters":11600,"station_id":"ce4bhjp2rcd13ifvqg90","pricing_plan_id":"cebpf4jnsgd1na2vs0mg"},{"bike_id":"c502a5df-084d-429f-9f81-4f0aab2cda33","system_id":"levelo_inurba_marseille","lat":43.24661,"lon":5.38164,"is_reserved":false,"is_disabled":false,"rental_uris":{"android":"levelo://app?vid=c502a5df-084d-429f-9f81-4f0aab2cda33","ios":"levelo://app?vid=c502a5df-084d-429f-9f81-4f0aab2cda33"},"vehicle_type_id":"4","last_reported":1746620434,"current_range_meters":11600,"station_id":"ce4bhih2rcd13ifvqfr0","pricing_plan_id":"cebpf4jnsgd1na2vs0mg"},{"bike_id":"c30d1da1-3585-4dab-874a-c8f3a6d05875","system_id":"levelo_inurba_marseille","lat":43.31892,"lon":5.40744,"is_reserved":false,"is_disabled":false,"rental_uris":{"android":"levelo://app?vid=c30d1da1-3585-4dab-874a-c8f3a6d05875","ios":"levelo://app?vid=c30d1da1-3585-4dab-874a-c8f3a6d05875"},"vehicle_type_id":"4","last_reported":1746620434,"current_range_meters":11600,"station_id":"ce4bhq12rcd13ifvqhig","pricing_plan_id":"cebpf4jnsgd1na2vs0mg"},{"bike_id":"438ec6ca-46d2-4acd-bb65-ab5fd6749423","system_id":"levelo_inurba_marseille","lat":43.2594,"lon":5.40903,"is_reserved":false,"is_disabled":false,"rental_uris":{"android":"levelo://app?vid=438ec6ca-46d2-4acd-bb65-ab5fd6749423","ios":"levelo://app?vid=438ec6ca-46d2-4acd-bb65-ab5fd6749423"},"vehicle_type_id":"4","last_reported":1746620434,"current_range_meters":12000,"station_id":"ce4bhm92rcd13ifvqglg","pricing_plan_id":"cebpf4jnsgd1na2vs0mg"},{"bike_id":"e77418f2-84aa-4f0a-b73d-c5526a71d363","system_id":"levelo_inurba_marseille","lat":43.31323,"lon":5.39709,"is_reserved":false,"is_disabled":false,"rental_uris":{"android":"levelo://app?vid=e77418f2-84aa-4f0a-b73d-c5526a71d363","ios":"levelo://app?vid=e77418f2-84aa-4f0a-b73d-c5526a71d363"},"vehicle_type_id":"4","last_reported":1746620434,"current_range_meters":12000,"station_id":"ce4bgvp2rcd13ifvqcu0","pricing_plan_id":"cebpf4jnsgd1na2vs0mg"},{"bike_id":"b7bdbe3a-b7ec-4256-908f-dfa71835a5d1","system_id":"levelo_inurba_marseille","lat":43.2861,"lon":5.3706,"is_reserved":false,"is_disabled":false,"rental_uris":{"android":"levelo://app?vid=b7bdbe3a-b7ec-4256-908f-dfa71835a5d1","ios":"levelo://app?vid=b7bdbe3a-b7ec-4256-908f-dfa71835a5d1"},"vehicle_type_id":"4","last_reported":1746620434,"current_range_meters":12000,"station_id":"ce4bht12rcd13ifvqi60","pricing_plan_id":"cebpf4jnsgd1na2vs0mg"},{"bike_id":"9afb3304-a918-47e2-90ed-efdcb3e0b947","system_id":"levelo_inurba_marseille","lat":43.26952,"lon":5.38651,"is_reserved":false,"is_disabled":false,"rental_uris":{"android":"levelo://app?vid=9afb3304-a918-47e2-90ed-efdcb3e0b947","ios":"levelo://app?vid=9afb3304-a918-47e2-90ed-efdcb3e0b947"},"vehicle_type_id":"4","last_reported":1746620434,"current_range_meters":12000,"station_id":"ce4bhh92rcd13ifvqfh0","pricing_plan_id":"cebpf4jnsgd1na2vs0mg"},{"bike_id":"214a003f-a856-4a2d-abd4-bf11831fc261","system_id":"levelo_inurba_marseille","lat":43.30598,"lon":5.37222,"is_reserved":false,"is_disabled":true,"rental_uris":{"android":"levelo://app?vid=214a003f-a856-4a2d-abd4-bf11831fc261","ios":"levelo://app?vid=214a003f-a856-4a2d-abd4-bf11831fc261"},"vehicle_type_id":"4","last_reported":1746620434,"current_range_meters":12400,"station_id":"ce4bgqh2rcd13ifvqc4g","pricing_plan_id":"cebpf4jnsgd1na2vs0mg"},{"bike_id":"0e91ed6b-3c8b-4a80-87e9-50c437191c98","system_id":"levelo_inurba_marseille","lat":43.30311,"lon":5.36899,"is_reserved":false,"is_disabled":false,"rental_uris":{"android":"levelo://app?vid=0e91ed6b-3c8b-4a80-87e9-50c437191c98","ios":"levelo://app?vid=0e91ed6b-3c8b-4a80-87e9-50c437191c98"},"vehicle_type_id":"4","last_reported":1746620434,"current_range_meters":12400,"station_id":"ce4bgqh2rcd13ifvqc5g","pricing_plan_id":"cebpf4jnsgd1na2vs0mg"},{"bike_id":"26346828-3bdc-4d5e-a933-008e010c6706","system_id":"levelo_inurba_marseille","lat":43.32108,"lon":5.36794,"is_reserved":false,"is_disabled":false,"rental_uris":{"android":"levelo://app?vid=26346828-3bdc-4d5e-a933-008e010c6706","ios":"levelo://app?vid=26346828-3bdc-4d5e-a933-008e010c6706"},"vehicle_type_id":"4","last_reported":1746620434,"current_range_meters":12400,"station_id":"ce4bhrh2rcd13ifvqhug","pricing_plan_id":"cebpf4jnsgd1na2vs0mg"},{"bike_id":"1cfdb3ab-c538-4f08-8d72-5d084099ca69","system_id":"levelo_inurba_marseille","lat":43.27068,"lon":5.40265,"is_reserved":false,"is_disabled":false,"rental_uris":{"android":"levelo://app?vid=1cfdb3ab-c538-4f08-8d72-5d084099ca69","ios":"levelo://app?vid=1cfdb3ab-c538-4f08-8d72-5d084099ca69"},"vehicle_type_id":"4","last_reported":1746620434,"current_range_meters":12400,"station_id":"ce4bhk92rcd13ifvqgc0","pricing_plan_id":"cebpf4jnsgd1na2vs0mg"},{"bike_id":"8bb026b6-b50d-4a82-b997-39d93ca89c00","system_id":"levelo_inurba_marseille","lat":43.28278,"lon":5.35074,"is_reserved":false,"is_disabled":false,"rental_uris":{"android":"levelo://app?vid=8bb026b6-b50d-4a82-b997-39d93ca89c00","ios":"levelo://app?vid=8bb026b6-b50d-4a82-b997-39d93ca89c00"},"vehicle_type_id":"4","last_reported":1746620434,"current_range_meters":12400,"station_id":"ce4bhbp2rcd13ifvqerg","pricing_plan_id":"cebpf4jnsgd1na2vs0mg"},{"bike_id":"f987e5a6-008a-472a-9f70-caa34ec49e22","system_id":"levelo_inurba_marseille","lat":43.26688,"lon":5.38278,"is_reserved":false,"is_disabled":false,"rental_uris":{"android":"levelo://app?vid=f987e5a6-008a-472a-9f70-caa34ec49e22","ios":"levelo://app?vid=f987e5a6-008a-472a-9f70-caa34ec49e22"},"vehicle_type_id":"4","last_reported":1746620434,"current_range_meters":12400,"station_id":"ce4bhg92rcd13ifvqf90","pricing_plan_id":"cebpf4jnsgd1na2vs0mg"},{"bike_id":"84f8bc33-dbf2-4e0d-8228-987001c1eddb","system_id":"levelo_inurba_marseille","lat":43.31063,"lon":5.38351,"is_reserved":false,"is_disabled":false,"rental_uris":{"android":"levelo://app?vid=84f8bc33-dbf2-4e0d-8228-987001c1eddb","ios":"levelo://app?vid=84f8bc33-dbf2-4e0d-8228-987001c1eddb"},"vehicle_type_id":"4","last_reported":1746620434,"current_range_meters":12800,"station_id":"ce4bgv92rcd13ifvqcr0","pricing_plan_id":"cebpf4jnsgd1na2vs0mg"},{"bike_id":"a6dd5c96-f49e-4070-b47d-b6150325f6a0","system_id":"levelo_inurba_marseille","lat":43.260538,"lon":5.39395,"is_reserved":false,"is_disabled":false,"rental_uris":{"android":"levelo://app?vid=a6dd5c96-f49e-4070-b47d-b6150325f6a0","ios":"levelo://app?vid=a6dd5c96-f49e-4070-b47d-b6150325f6a0"},"vehicle_type_id":"4","last_reported":1746620434,"current_range_meters":12800,"station_id":"ce4bhh92rcd13ifvqfj0","pricing_plan_id":"cebpf4jnsgd1na2vs0mg"},{"bike_id":"228f07c3-1d1f-4a1a-9e55-9927fa73c71b","system_id":"levelo_inurba_marseille","lat":43.23181,"lon":5.39983,"is_reserved":false,"is_disabled":false,"rental_uris":{"android":"levelo://app?vid=228f07c3-1d1f-4a1a-9e55-9927fa73c71b","ios":"levelo://app?vid=228f07c3-1d1f-4a1a-9e55-9927fa73c71b"},"vehicle_type_id":"4","last_reported":1746620434,"current_range_meters":12800,"station_id":"ce4bhn12rcd13ifvqgqg","pricing_plan_id":"cebpf4jnsgd1na2vs0mg"},{"bike_id":"9b4c8005-e108-4118-a8ab-e6ac54990161","system_id":"levelo_inurba_marseille","lat":43.29869,"lon":5.43712,"is_reserved":false,"is_disabled":false,"rental_uris":{"android":"levelo://app?vid=9b4c8005-e108-4118-a8ab-e6ac54990161","ios":"levelo://app?vid=9b4c8005-e108-4118-a8ab-e6ac54990161"},"vehicle_type_id":"4","last_reported":1746620434,"current_range_meters":14400,"station_id":"ce4bhpp2rcd13ifvqhfg","pricing_plan_id":"cebpf4jnsgd1na2vs0mg"},{"bike_id":"eb5b4198-dc81-4972-8ae4-e2aab07ddbef","system_id":"levelo_inurba_marseille","lat":43.30903,"lon":5.36846,"is_reserved":false,"is_disabled":false,"rental_uris":{"android":"levelo://app?vid=eb5b4198-dc81-4972-8ae4-e2aab07ddbef","ios":"levelo://app?vid=eb5b4198-dc81-4972-8ae4-e2aab07ddbef"},"vehicle_type_id":"4","last_reported":1746620434,"current_range_meters":14400,"station_id":"ce4bgn92rcd13ifvqbvg","pricing_plan_id":"cebpf4jnsgd1na2vs0mg"},{"bike_id":"47fdd7f8-e4df-4edc-bf26-a92cf466959a","system_id":"levelo_inurba_marseille","lat":43.25934,"lon":5.40915,"is_reserved":false,"is_disabled":false,"rental_uris":{"android":"levelo://app?vid=47fdd7f8-e4df-4edc-bf26-a92cf466959a","ios":"levelo://app?vid=47fdd7f8-e4df-4edc-bf26-a92cf466959a"},"vehicle_type_id":"4","last_reported":1746620434,"current_range_meters":14400,"station_id":"ce4bhm92rcd13ifvqglg","pricing_plan_id":"cebpf4jnsgd1na2vs0mg"},{"bike_id":"dfa08b29-dc9c-40d3-879a-c126de0e6392","system_id":"levelo_inurba_marseille","lat":43.32333,"lon":5.40609,"is_reserved":false,"is_disabled":false,"rental_uris":{"android":"levelo://app?vid=dfa08b29-dc9c-40d3-879a-c126de0e6392","ios":"levelo://app?vid=dfa08b29-dc9c-40d3-879a-c126de0e6392"},"vehicle_type_id":"4","last_reported":1746620434,"current_range_meters":14400,"station_id":"ce4bhq92rcd13ifvqhjg","pricing_plan_id":"cebpf4jnsgd1na2vs0mg"},{"bike_id":"dac35390-cfca-48f7-98a9-acea3b264e9e","system_id":"levelo_inurba_marseille","lat":43.28371,"lon":5.38632,"is_reserved":false,"is_disabled":false,"rental_uris":{"android":"levelo://app?vid=dac35390-cfca-48f7-98a9-acea3b264e9e","ios":"levelo://app?vid=dac35390-cfca-48f7-98a9-acea3b264e9e"},"vehicle_type_id":"4","last_reported":1746620434,"current_range_meters":14400,"station_id":"ce4bh492rcd13ifvqdvg","pricing_plan_id":"cebpf4jnsgd1na2vs0mg"},{"bike_id":"cad73dbd-538c-461e-8f5d-9f9cb63b32c3","system_id":"levelo_inurba_marseille","lat":43.23057,"lon":5.35498,"is_reserved":false,"is_disabled":true,"rental_uris":{"android":"levelo://app?vid=cad73dbd-538c-461e-8f5d-9f9cb63b32c3","ios":"levelo://app?vid=cad73dbd-538c-461e-8f5d-9f9cb63b32c3"},"vehicle_type_id":"4","last_reported":1746620434,"current_range_meters":14400,"station_id":"cpo3342slgdg3j2ifvpg","pricing_plan_id":"cebpf4jnsgd1na2vs0mg"},{"bike_id":"eca5119f-8d4d-49c0-8313-92144a1278c6","system_id":"levelo_inurba_marseille","lat":43.28269,"lon":5.35064,"is_reserved":false,"is_disabled":false,"rental_uris":{"android":"levelo://app?vid=eca5119f-8d4d-49c0-8313-92144a1278c6","ios":"levelo://app?vid=eca5119f-8d4d-49c0-8313-92144a1278c6"},"vehicle_type_id":"4","last_reported":1746620434,"current_range_meters":14800,"station_id":"ce4bhbp2rcd13ifvqerg","pricing_plan_id":"cebpf4jnsgd1na2vs0mg"},{"bike_id":"78b206c1-705c-47d8-b8ff-ea47cfef47b0","system_id":"levelo_inurba_marseille","lat":43.31819,"lon":5.37237,"is_reserved":false,"is_disabled":false,"rental_uris":{"android":"levelo://app?vid=78b206c1-705c-47d8-b8ff-ea47cfef47b0","ios":"levelo://app?vid=78b206c1-705c-47d8-b8ff-ea47cfef47b0"},"vehicle_type_id":"4","last_reported":1746620434,"current_range_meters":14800,"station_id":"","pricing_plan_id":"cebpf4jnsgd1na2vs0mg"},{"bike_id":"e1cae0bb-7f1a-4b0e-aa09-9488edfa1166","system_id":"levelo_inurba_marseille","lat":43.24387,"lon":5.37061,"is_reserved":false,"is_disabled":false,"rental_uris":{"android":"levelo://app?vid=e1cae0bb-7f1a-4b0e-aa09-9488edfa1166","ios":"levelo://app?vid=e1cae0bb-7f1a-4b0e-aa09-9488edfa1166"},"vehicle_type_id":"4","last_reported":1746620434,"current_range_meters":14800,"station_id":"ce4bhhh2rcd13ifvqfk0","pricing_plan_id":"cebpf4jnsgd1na2vs0mg"},{"bike_id":"d9326dc6-9fa4-482a-af42-37f87522ae73","system_id":"levelo_inurba_marseille","lat":43.28004,"lon":5.40012,"is_reserved":false,"is_disabled":false,"rental_uris":{"android":"levelo://app?vid=d9326dc6-9fa4-482a-af42-37f87522ae73","ios":"levelo://app?vid=d9326dc6-9fa4-482a-af42-37f87522ae73"},"vehicle_type_id":"4","last_reported":1746620434,"current_range_meters":14800,"station_id":"ce4bho92rcd13ifvqh4g","pricing_plan_id":"cebpf4jnsgd1na2vs0mg"},{"bike_id":"4d5bca3b-44c9-4fe6-8f95-582d3b378f80","system_id":"levelo_inurba_marseille","lat":43.30682,"lon":5.40077,"is_reserved":false,"is_disabled":false,"rental_uris":{"android":"levelo://app?vid=4d5bca3b-44c9-4fe6-8f95-582d3b378f80","ios":"levelo://app?vid=4d5bca3b-44c9-4fe6-8f95-582d3b378f80"},"vehicle_type_id":"4","last_reported":1746620434,"current_range_meters":14800,"station_id":"ce4bh112rcd13ifvqda0","pricing_plan_id":"cebpf4jnsgd1na2vs0mg"},{"bike_id":"e8578e6e-868a-4345-9e0a-62c78dffa548","system_id":"levelo_inurba_marseille","lat":43.29039,"lon":5.37152,"is_reserved":false,"is_disabled":false,"rental_uris":{"android":"levelo://app?vid=e8578e6e-868a-4345-9e0a-62c78dffa548","ios":"levelo://app?vid=e8578e6e-868a-4345-9e0a-62c78dffa548"},"vehicle_type_id":"4","last_reported":1746620434,"current_range_meters":15200,"station_id":"ce4bh5p2rcd13ifvqe4g","pricing_plan_id":"cebpf4jnsgd1na2vs0mg"},{"bike_id":"4cc6193c-0c21-4dd8-a36f-2d453822c47e","system_id":"levelo_inurba_marseille","lat":43.25113,"lon":5.403245,"is_reserved":false,"is_disabled":false,"rental_uris":{"android":"levelo://app?vid=4cc6193c-0c21-4dd8-a36f-2d453822c47e","ios":"levelo://app?vid=4cc6193c-0c21-4dd8-a36f-2d453822c47e"},"vehicle_type_id":"4","last_reported":1746620434,"current_range_meters":15200,"station_id":"ce4bhlh2rcd13ifvqgig","pricing_plan_id":"cebpf4jnsgd1na2vs0mg"},{"bike_id":"8d5dbba9-0928-4218-8a48-5c2aea1a4f12","system_id":"levelo_inurba_marseille","lat":43.22936,"lon":5.35381,"is_reserved":false,"is_disabled":false,"rental_uris":{"android":"levelo://app?vid=8d5dbba9-0928-4218-8a48-5c2aea1a4f12","ios":"levelo://app?vid=8d5dbba9-0928-4218-8a48-5c2aea1a4f12"},"vehicle_type_id":"4","last_reported":1746620434,"current_range_meters":15200,"station_id":"cpo3532slgdg3j2ikp40","pricing_plan_id":"cebpf4jnsgd1na2vs0mg"},{"bike_id":"25a5fe2d-c149-47ad-a876-809075f6c85f","system_id":"levelo_inurba_marseille","lat":43.31378,"lon":5.36738,"is_reserved":false,"is_disabled":false,"rental_uris":{"android":"levelo://app?vid=25a5fe2d-c149-47ad-a876-809075f6c85f","ios":"levelo://app?vid=25a5fe2d-c149-47ad-a876-809075f6c85f"},"vehicle_type_id":"4","last_reported":1746620434,"current_range_meters":15200,"station_id":"ce4bgr92rcd13ifvqc6g","pricing_plan_id":"cebpf4jnsgd1na2vs0mg"},{"bike_id":"47c36b03-4567-4e44-bd14-262b55ce62fc","system_id":"levelo_inurba_marseille","lat":43.25928,"lon":5.40904,"is_reserved":false,"is_disabled":false,"rental_uris":{"android":"levelo://app?vid=47c36b03-4567-4e44-bd14-262b55ce62fc","ios":"levelo://app?vid=47c36b03-4567-4e44-bd14-262b55ce62fc"},"vehicle_type_id":"4","last_reported":1746620434,"current_range_meters":16000,"station_id":"ce4bhm92rcd13ifvqglg","pricing_plan_id":"cebpf4jnsgd1na2vs0mg"},{"bike_id":"d6b3bb62-5218-4428-87d8-5745877e5aa4","system_id":"levelo_inurba_marseille","lat":43.29582,"lon":5.36746,"is_reserved":false,"is_disabled":false,"rental_uris":{"android":"levelo://app?vid=d6b3bb62-5218-4428-87d8-5745877e5aa4","ios":"levelo://app?vid=d6b3bb62-5218-4428-87d8-5745877e5aa4"},"vehicle_type_id":"4","last_reported":1746620434,"current_range_meters":16000,"station_id":"","pricing_plan_id":"cebpf4jnsgd1na2vs0mg"},{"bike_id":"557b7a73-f458-483f-9bbd-95cac042f74a","system_id":"levelo_inurba_marseille","lat":43.26199,"lon":5.37445,"is_reserved":false,"is_disabled":false,"rental_uris":{"android":"levelo://app?vid=557b7a73-f458-483f-9bbd-95cac042f74a","ios":"levelo://app?vid=557b7a73-f458-483f-9bbd-95cac042f74a"},"vehicle_type_id":"4","last_reported":1746620434,"current_range_meters":16400,"station_id":"ce4bhgp2rcd13ifvqfc0","pricing_plan_id":"cebpf4jnsgd1na2vs0mg"},{"bike_id":"fedd95a9-2db6-4e5b-bd01-d996b2945185","system_id":"levelo_inurba_marseille","lat":43.26786,"lon":5.39418,"is_reserved":false,"is_disabled":false,"rental_uris":{"android":"levelo://app?vid=fedd95a9-2db6-4e5b-bd01-d996b2945185","ios":"levelo://app?vid=fedd95a9-2db6-4e5b-bd01-d996b2945185"},"vehicle_type_id":"4","last_reported":1746620434,"current_range_meters":16400,"station_id":"ce4bhh12rcd13ifvqfg0","pricing_plan_id":"cebpf4jnsgd1na2vs0mg"},{"bike_id":"00f22954-95c0-46d1-b8c9-72cbbd1e1259","system_id":"levelo_inurba_marseille","lat":43.24548,"lon":5.39523,"is_reserved":false,"is_disabled":false,"rental_uris":{"android":"levelo://app?vid=00f22954-95c0-46d1-b8c9-72cbbd1e1259","ios":"levelo://app?vid=00f22954-95c0-46d1-b8c9-72cbbd1e1259"},"vehicle_type_id":"4","last_reported":1746620434,"current_range_meters":16400,"station_id":"ce4bhlp2rcd13ifvqgjg","pricing_plan_id":"cebpf4jnsgd1na2vs0mg"},{"bike_id":"928b5390-db3f-4eca-a9c9-f0feaec01b0f","system_id":"levelo_inurba_marseille","lat":43.30137,"lon":5.3743,"is_reserved":false,"is_disabled":false,"rental_uris":{"android":"levelo://app?vid=928b5390-db3f-4eca-a9c9-f0feaec01b0f","ios":"levelo://app?vid=928b5390-db3f-4eca-a9c9-f0feaec01b0f"},"vehicle_type_id":"4","last_reported":1746620434,"current_range_meters":16800,"station_id":"ce4bgs92rcd13ifvqcc0","pricing_plan_id":"cebpf4jnsgd1na2vs0mg"},{"bike_id":"2ce803ed-44f1-4254-a57d-8c9c8f63f526","system_id":"levelo_inurba_marseille","lat":43.2466,"lon":5.38163,"is_reserved":false,"is_disabled":false,"rental_uris":{"android":"levelo://app?vid=2ce803ed-44f1-4254-a57d-8c9c8f63f526","ios":"levelo://app?vid=2ce803ed-44f1-4254-a57d-8c9c8f63f526"},"vehicle_type_id":"4","last_reported":1746620434,"current_range_meters":16800,"station_id":"ce4bhih2rcd13ifvqfr0","pricing_plan_id":"cebpf4jnsgd1na2vs0mg"},{"bike_id":"ec50dcea-da27-490c-a2e9-5c9435604ea1","system_id":"levelo_inurba_marseille","lat":43.26696,"lon":5.38249,"is_reserved":false,"is_disabled":false,"rental_uris":{"android":"levelo://app?vid=ec50dcea-da27-490c-a2e9-5c9435604ea1","ios":"levelo://app?vid=ec50dcea-da27-490c-a2e9-5c9435604ea1"},"vehicle_type_id":"4","last_reported":1746620434,"current_range_meters":16800,"station_id":"ce4bhg92rcd13ifvqf90","pricing_plan_id":"cebpf4jnsgd1na2vs0mg"},{"bike_id":"23046318-4edd-48bf-a1f0-1eeda00d0782","system_id":"levelo_inurba_marseille","lat":43.27497,"lon":5.42456,"is_reserved":false,"is_disabled":false,"rental_uris":{"android":"levelo://app?vid=23046318-4edd-48bf-a1f0-1eeda00d0782","ios":"levelo://app?vid=23046318-4edd-48bf-a1f0-1eeda00d0782"},"vehicle_type_id":"4","last_reported":1746620434,"current_range_meters":16800,"station_id":"ce4bhn92rcd13ifvqgrg","pricing_plan_id":"cebpf4jnsgd1na2vs0mg"},{"bike_id":"14509e03-238c-4af6-ba26-feaf72ea8851","system_id":"levelo_inurba_marseille","lat":43.29624,"lon":5.37715,"is_reserved":false,"is_disabled":false,"rental_uris":{"android":"levelo://app?vid=14509e03-238c-4af6-ba26-feaf72ea8851","ios":"levelo://app?vid=14509e03-238c-4af6-ba26-feaf72ea8851"},"vehicle_type_id":"4","last_reported":1746620434,"current_range_meters":16800,"station_id":"ce4bgi92rcd13ifvqb90","pricing_plan_id":"cebpf4jnsgd1na2vs0mg"},{"bike_id":"ac437fa4-ad58-4abe-915e-14f6b9aec297","system_id":"levelo_inurba_marseille","lat":43.322784,"lon":5.389436,"is_reserved":false,"is_disabled":false,"rental_uris":{"android":"levelo://app?vid=ac437fa4-ad58-4abe-915e-14f6b9aec297","ios":"levelo://app?vid=ac437fa4-ad58-4abe-915e-14f6b9aec297"},"vehicle_type_id":"4","last_reported":1746620434,"current_range_meters":16800,"station_id":"","pricing_plan_id":"cebpf4jnsgd1na2vs0mg"},{"bike_id":"63cb6f4d-08b8-4386-b8e7-b57fe5e965e0","system_id":"levelo_inurba_marseille","lat":43.29708,"lon":5.36606,"is_reserved":false,"is_disabled":false,"rental_uris":{"android":"levelo://app?vid=63cb6f4d-08b8-4386-b8e7-b57fe5e965e0","ios":"levelo://app?vid=63cb6f4d-08b8-4386-b8e7-b57fe5e965e0"},"vehicle_type_id":"4","last_reported":1746620434,"current_range_meters":16800,"station_id":"ce4bgn12rcd13ifvqbt0","pricing_plan_id":"cebpf4jnsgd1na2vs0mg"},{"bike_id":"789a8ed1-1a29-484a-8709-99a24524d9f7","system_id":"levelo_inurba_marseille","lat":43.304172,"lon":5.412884,"is_reserved":false,"is_disabled":false,"rental_uris":{"android":"levelo://app?vid=789a8ed1-1a29-484a-8709-99a24524d9f7","ios":"levelo://app?vid=789a8ed1-1a29-484a-8709-99a24524d9f7"},"vehicle_type_id":"4","last_reported":1746620434,"current_range_meters":17200,"station_id":"ce4bhop2rcd13ifvqh8g","pricing_plan_id":"cebpf4jnsgd1na2vs0mg"},{"bike_id":"35f2bf3a-984e-4d02-a360-1673f47620a1","system_id":"levelo_inurba_marseille","lat":43.29591,"lon":5.36744,"is_reserved":false,"is_disabled":false,"rental_uris":{"android":"levelo://app?vid=35f2bf3a-984e-4d02-a360-1673f47620a1","ios":"levelo://app?vid=35f2bf3a-984e-4d02-a360-1673f47620a1"},"vehicle_type_id":"4","last_reported":1746620434,"current_range_meters":17200,"station_id":"ce4bgph2rcd13ifvqc2g","pricing_plan_id":"cebpf4jnsgd1na2vs0mg"},{"bike_id":"1bad2913-39ec-45c2-ba13-162384e2b89f","system_id":"levelo_inurba_marseille","lat":43.27069,"lon":5.42277,"is_reserved":false,"is_disabled":false,"rental_uris":{"android":"levelo://app?vid=1bad2913-39ec-45c2-ba13-162384e2b89f","ios":"levelo://app?vid=1bad2913-39ec-45c2-ba13-162384e2b89f"},"vehicle_type_id":"4","last_reported":1746620434,"current_range_meters":17200,"station_id":"ce4bhk92rcd13ifvqgb0","pricing_plan_id":"cebpf4jnsgd1na2vs0mg"},{"bike_id":"63af6f78-57d5-4f3d-9494-a6d72ff84dc1","system_id":"levelo_inurba_marseille","lat":43.21194,"lon":5.35063,"is_reserved":false,"is_disabled":false,"rental_uris":{"android":"levelo://app?vid=63af6f78-57d5-4f3d-9494-a6d72ff84dc1","ios":"levelo://app?vid=63af6f78-57d5-4f3d-9494-a6d72ff84dc1"},"vehicle_type_id":"4","last_reported":1746620434,"current_range_meters":17200,"station_id":"st_cvj6sg6p6f1abm77japg","pricing_plan_id":"cebpf4jnsgd1na2vs0mg"},{"bike_id":"b8bb0d6d-d682-4df7-80c5-da64e9c95891","system_id":"levelo_inurba_marseille","lat":43.25943,"lon":5.40903,"is_reserved":false,"is_disabled":false,"rental_uris":{"android":"levelo://app?vid=b8bb0d6d-d682-4df7-80c5-da64e9c95891","ios":"levelo://app?vid=b8bb0d6d-d682-4df7-80c5-da64e9c95891"},"vehicle_type_id":"4","last_reported":1746620434,"current_range_meters":17200,"station_id":"ce4bhm92rcd13ifvqglg","pricing_plan_id":"cebpf4jnsgd1na2vs0mg"},{"bike_id":"65e0f670-0f03-44fb-8e56-22260fb3caee","system_id":"levelo_inurba_marseille","lat":43.31074,"lon":5.42443,"is_reserved":false,"is_disabled":false,"rental_uris":{"android":"levelo://app?vid=65e0f670-0f03-44fb-8e56-22260fb3caee","ios":"levelo://app?vid=65e0f670-0f03-44fb-8e56-22260fb3caee"},"vehicle_type_id":"4","last_reported":1746620434,"current_range_meters":17600,"station_id":"ce4bhp92rcd13ifvqhag","pricing_plan_id":"cebpf4jnsgd1na2vs0mg"},{"bike_id":"bb57bad8-d8dc-4340-bfa3-97affe947932","system_id":"levelo_inurba_marseille","lat":43.32043,"lon":5.41568,"is_reserved":false,"is_disabled":false,"rental_uris":{"android":"levelo://app?vid=bb57bad8-d8dc-4340-bfa3-97affe947932","ios":"levelo://app?vid=bb57bad8-d8dc-4340-bfa3-97affe947932"},"vehicle_type_id":"4","last_reported":1746620434,"current_range_meters":17600,"station_id":"ce4bhq92rcd13ifvqhkg","pricing_plan_id":"cebpf4jnsgd1na2vs0mg"},{"bike_id":"7132fbf6-aba9-426c-b218-7491097af6eb","system_id":"levelo_inurba_marseille","lat":43.28079,"lon":5.39659,"is_reserved":false,"is_disabled":false,"rental_uris":{"android":"levelo://app?vid=7132fbf6-aba9-426c-b218-7491097af6eb","ios":"levelo://app?vid=7132fbf6-aba9-426c-b218-7491097af6eb"},"vehicle_type_id":"4","last_reported":1746620434,"current_range_meters":17600,"station_id":"ce4bho12rcd13ifvqh2g","pricing_plan_id":"cebpf4jnsgd1na2vs0mg"},{"bike_id":"bb745cee-af37-4b23-afc5-3d5aa5ce7aed","system_id":"levelo_inurba_marseille","lat":43.26186,"lon":5.40438,"is_reserved":false,"is_disabled":false,"rental_uris":{"android":"levelo://app?vid=bb745cee-af37-4b23-afc5-3d5aa5ce7aed","ios":"levelo://app?vid=bb745cee-af37-4b23-afc5-3d5aa5ce7aed"},"vehicle_type_id":"4","last_reported":1746620434,"current_range_meters":17600,"station_id":"ce4bhmh2rcd13ifvqgmg","pricing_plan_id":"cebpf4jnsgd1na2vs0mg"},{"bike_id":"a143a6d0-3439-4bd9-aa7d-b3f92785d1ce","system_id":"levelo_inurba_marseille","lat":43.29586,"lon":5.36744,"is_reserved":false,"is_disabled":false,"rental_uris":{"android":"levelo://app?vid=a143a6d0-3439-4bd9-aa7d-b3f92785d1ce","ios":"levelo://app?vid=a143a6d0-3439-4bd9-aa7d-b3f92785d1ce"},"vehicle_type_id":"4","last_reported":1746620434,"current_range_meters":17600,"station_id":"ce4bgph2rcd13ifvqc2g","pricing_plan_id":"cebpf4jnsgd1na2vs0mg"},{"bike_id":"27be8bad-3a7c-4e70-8653-d08debb45766","system_id":"levelo_inurba_marseille","lat":43.298349,"lon":5.362718,"is_reserved":false,"is_disabled":false,"rental_uris":{"android":"levelo://app?vid=27be8bad-3a7c-4e70-8653-d08debb45766","ios":"levelo://app?vid=27be8bad-3a7c-4e70-8653-d08debb45766"},"vehicle_type_id":"4","last_reported":1746620434,"current_range_meters":18000,"station_id":"ce4bgpp2rcd13ifvqc3g","pricing_plan_id":"cebpf4jnsgd1na2vs0mg"},{"bike_id":"023476cc-595f-45fc-b309-58891d16c077","system_id":"levelo_inurba_marseille","lat":43.2954,"lon":5.37496,"is_reserved":false,"is_disabled":false,"rental_uris":{"android":"levelo://app?vid=023476cc-595f-45fc-b309-58891d16c077","ios":"levelo://app?vid=023476cc-595f-45fc-b309-58891d16c077"},"vehicle_type_id":"4","last_reported":1746620434,"current_range_meters":18000,"station_id":"ce4bgkp2rcd13ifvqbmg","pricing_plan_id":"cebpf4jnsgd1na2vs0mg"},{"bike_id":"ebd53de2-eea6-4a61-989c-f32eed3a267b","system_id":"levelo_inurba_marseille","lat":43.31702,"lon":5.40436,"is_reserved":false,"is_disabled":false,"rental_uris":{"android":"levelo://app?vid=ebd53de2-eea6-4a61-989c-f32eed3a267b","ios":"levelo://app?vid=ebd53de2-eea6-4a61-989c-f32eed3a267b"},"vehicle_type_id":"4","last_reported":1746620434,"current_range_meters":18000,"station_id":"ce4bh012rcd13ifvqd00","pricing_plan_id":"cebpf4jnsgd1na2vs0mg"},{"bike_id":"b1f9df50-8c2d-4d85-bed4-ff9c8112d758","system_id":"levelo_inurba_marseille","lat":43.30888,"lon":5.39655,"is_reserved":false,"is_disabled":false,"rental_uris":{"android":"levelo://app?vid=b1f9df50-8c2d-4d85-bed4-ff9c8112d758","ios":"levelo://app?vid=b1f9df50-8c2d-4d85-bed4-ff9c8112d758"},"vehicle_type_id":"4","last_reported":1746620434,"current_range_meters":18000,"station_id":"ce4bh012rcd13ifvqcv0","pricing_plan_id":"cebpf4jnsgd1na2vs0mg"},{"bike_id":"ec2ab11a-7240-4166-adf4-a783055c9ecf","system_id":"levelo_inurba_marseille","lat":43.28581,"lon":5.39506,"is_reserved":false,"is_disabled":false,"rental_uris":{"android":"levelo://app?vid=ec2ab11a-7240-4166-adf4-a783055c9ecf","ios":"levelo://app?vid=ec2ab11a-7240-4166-adf4-a783055c9ecf"},"vehicle_type_id":"4","last_reported":1746620434,"current_range_meters":18000,"station_id":"ce4bh292rcd13ifvqdg0","pricing_plan_id":"cebpf4jnsgd1na2vs0mg"},{"bike_id":"dc1b2bfe-8bce-4100-a4e3-8bd858eca0af","system_id":"levelo_inurba_marseille","lat":43.26036,"lon":5.37548,"is_reserved":false,"is_disabled":false,"rental_uris":{"android":"levelo://app?vid=dc1b2bfe-8bce-4100-a4e3-8bd858eca0af","ios":"levelo://app?vid=dc1b2bfe-8bce-4100-a4e3-8bd858eca0af"},"vehicle_type_id":"4","last_reported":1746620434,"current_range_meters":17600,"station_id":"ce4bhgh2rcd13ifvqfa0","pricing_plan_id":"cebpf4jnsgd1na2vs0mg"},{"bike_id":"e8637d6c-8d4f-4bda-ad7a-d0eb2bf57254","system_id":"levelo_inurba_marseille","lat":43.21193,"lon":5.35068,"is_reserved":false,"is_disabled":false,"rental_uris":{"android":"levelo://app?vid=e8637d6c-8d4f-4bda-ad7a-d0eb2bf57254","ios":"levelo://app?vid=e8637d6c-8d4f-4bda-ad7a-d0eb2bf57254"},"vehicle_type_id":"4","last_reported":1746620434,"current_range_meters":18000,"station_id":"st_cvj6sg6p6f1abm77japg","pricing_plan_id":"cebpf4jnsgd1na2vs0mg"},{"bike_id":"6403fbc6-68c9-494a-b1d5-7649132e1bdb","system_id":"levelo_inurba_marseille","lat":43.28976,"lon":5.37833,"is_reserved":false,"is_disabled":false,"rental_uris":{"android":"levelo://app?vid=6403fbc6-68c9-494a-b1d5-7649132e1bdb","ios":"levelo://app?vid=6403fbc6-68c9-494a-b1d5-7649132e1bdb"},"vehicle_type_id":"4","last_reported":1746620434,"current_range_meters":18800,"station_id":"ce4bh9p2rcd13ifvqed0","pricing_plan_id":"cebpf4jnsgd1na2vs0mg"},{"bike_id":"0ad36f9e-63bf-4774-8855-e92ba10b63e0","system_id":"levelo_inurba_marseille","lat":43.29621,"lon":5.37715,"is_reserved":false,"is_disabled":false,"rental_uris":{"android":"levelo://app?vid=0ad36f9e-63bf-4774-8855-e92ba10b63e0","ios":"levelo://app?vid=0ad36f9e-63bf-4774-8855-e92ba10b63e0"},"vehicle_type_id":"4","last_reported":1746620434,"current_range_meters":18800,"station_id":"ce4bgi92rcd13ifvqb90","pricing_plan_id":"cebpf4jnsgd1na2vs0mg"},{"bike_id":"df17cda0-56af-40a6-8cc5-8157e92fe5d9","system_id":"levelo_inurba_marseille","lat":43.31171,"lon":5.38721,"is_reserved":false,"is_disabled":false,"rental_uris":{"android":"levelo://app?vid=df17cda0-56af-40a6-8cc5-8157e92fe5d9","ios":"levelo://app?vid=df17cda0-56af-40a6-8cc5-8157e92fe5d9"},"vehicle_type_id":"4","last_reported":1746620434,"current_range_meters":18800,"station_id":"ce4bgv12rcd13ifvqcp0","pricing_plan_id":"cebpf4jnsgd1na2vs0mg"},{"bike_id":"a693b4f9-6d27-443d-b971-78f94b5c5f36","system_id":"levelo_inurba_marseille","lat":43.29852,"lon":5.36279,"is_reserved":false,"is_disabled":false,"rental_uris":{"android":"levelo://app?vid=a693b4f9-6d27-443d-b971-78f94b5c5f36","ios":"levelo://app?vid=a693b4f9-6d27-443d-b971-78f94b5c5f36"},"vehicle_type_id":"4","last_reported":1746620434,"current_range_meters":18800,"station_id":"","pricing_plan_id":"cebpf4jnsgd1na2vs0mg"},{"bike_id":"0c966390-6984-4bc7-a793-18d9bcddc50c","system_id":"levelo_inurba_marseille","lat":43.27497,"lon":5.424469,"is_reserved":false,"is_disabled":false,"rental_uris":{"android":"levelo://app?vid=0c966390-6984-4bc7-a793-18d9bcddc50c","ios":"levelo://app?vid=0c966390-6984-4bc7-a793-18d9bcddc50c"},"vehicle_type_id":"4","last_reported":1746620434,"current_range_meters":18800,"station_id":"ce4bhn92rcd13ifvqgrg","pricing_plan_id":"cebpf4jnsgd1na2vs0mg"},{"bike_id":"586a57bd-51c8-4ac9-8d8b-5325338dba07","system_id":"levelo_inurba_marseille","lat":43.29263,"lon":5.3843,"is_reserved":false,"is_disabled":false,"rental_uris":{"android":"levelo://app?vid=586a57bd-51c8-4ac9-8d8b-5325338dba07","ios":"levelo://app?vid=586a57bd-51c8-4ac9-8d8b-5325338dba07"},"vehicle_type_id":"4","last_reported":1746620434,"current_range_meters":19200,"station_id":"ce4bh692rcd13ifvqea0","pricing_plan_id":"cebpf4jnsgd1na2vs0mg"},{"bike_id":"46f83161-f60c-4f7c-9541-c0bb26d0ae24","system_id":"levelo_inurba_marseille","lat":43.21754,"lon":5.34605,"is_reserved":false,"is_disabled":false,"rental_uris":{"android":"levelo://app?vid=46f83161-f60c-4f7c-9541-c0bb26d0ae24","ios":"levelo://app?vid=46f83161-f60c-4f7c-9541-c0bb26d0ae24"},"vehicle_type_id":"4","last_reported":1746620434,"current_range_meters":19200,"station_id":"st_cvj6r9ubvosntc0bgbag","pricing_plan_id":"cebpf4jnsgd1na2vs0mg"},{"bike_id":"89f953df-2061-408d-8f0d-6a2938e5443a","system_id":"levelo_inurba_marseille","lat":43.23591,"lon":5.40336,"is_reserved":false,"is_disabled":false,"rental_uris":{"android":"levelo://app?vid=89f953df-2061-408d-8f0d-6a2938e5443a","ios":"levelo://app?vid=89f953df-2061-408d-8f0d-6a2938e5443a"},"vehicle_type_id":"4","last_reported":1746620434,"current_range_meters":19200,"station_id":"","pricing_plan_id":"cebpf4jnsgd1na2vs0mg"},{"bike_id":"e65f9312-deec-4046-87f0-980bf1b77ad4","system_id":"levelo_inurba_marseille","lat":43.25118,"lon":5.40324,"is_reserved":false,"is_disabled":false,"rental_uris":{"android":"levelo://app?vid=e65f9312-deec-4046-87f0-980bf1b77ad4","ios":"levelo://app?vid=e65f9312-deec-4046-87f0-980bf1b77ad4"},"vehicle_type_id":"4","last_reported":1746620434,"current_range_meters":19200,"station_id":"ce4bhlh2rcd13ifvqgig","pricing_plan_id":"cebpf4jnsgd1na2vs0mg"},{"bike_id":"45b6c4a5-76d8-4923-8baf-8ae948fe918c","system_id":"levelo_inurba_marseille","lat":43.32031,"lon":5.41576,"is_reserved":false,"is_disabled":false,"rental_uris":{"android":"levelo://app?vid=45b6c4a5-76d8-4923-8baf-8ae948fe918c","ios":"levelo://app?vid=45b6c4a5-76d8-4923-8baf-8ae948fe918c"},"vehicle_type_id":"4","last_reported":1746620434,"current_range_meters":19200,"station_id":"ce4bhq92rcd13ifvqhkg","pricing_plan_id":"cebpf4jnsgd1na2vs0mg"},{"bike_id":"7cb84a55-eae0-4ff8-a8e8-801fd7179396","system_id":"levelo_inurba_marseille","lat":43.30628,"lon":5.37432,"is_reserved":false,"is_disabled":false,"rental_uris":{"android":"levelo://app?vid=7cb84a55-eae0-4ff8-a8e8-801fd7179396","ios":"levelo://app?vid=7cb84a55-eae0-4ff8-a8e8-801fd7179396"},"vehicle_type_id":"4","last_reported":1746620434,"current_range_meters":19600,"station_id":"","pricing_plan_id":"cebpf4jnsgd1na2vs0mg"},{"bike_id":"ac4fb2a0-f011-4d38-82c4-111f21cbb19d","system_id":"levelo_inurba_marseille","lat":43.31164,"lon":5.38723,"is_reserved":false,"is_disabled":false,"rental_uris":{"android":"levelo://app?vid=ac4fb2a0-f011-4d38-82c4-111f21cbb19d","ios":"levelo://app?vid=ac4fb2a0-f011-4d38-82c4-111f21cbb19d"},"vehicle_type_id":"4","last_reported":1746620434,"current_range_meters":19600,"station_id":"ce4bgv12rcd13ifvqcp0","pricing_plan_id":"cebpf4jnsgd1na2vs0mg"},{"bike_id":"2eb3fac9-37c4-478a-b1e2-ede98c5e3b28","system_id":"levelo_inurba_marseille","lat":43.31081,"lon":5.38346,"is_reserved":false,"is_disabled":false,"rental_uris":{"android":"levelo://app?vid=2eb3fac9-37c4-478a-b1e2-ede98c5e3b28","ios":"levelo://app?vid=2eb3fac9-37c4-478a-b1e2-ede98c5e3b28"},"vehicle_type_id":"4","last_reported":1746620434,"current_range_meters":20000,"station_id":"ce4bgv92rcd13ifvqcr0","pricing_plan_id":"cebpf4jnsgd1na2vs0mg"},{"bike_id":"385efc73-c8f2-4acf-91a3-ae63842dcfc6","system_id":"levelo_inurba_marseille","lat":43.2861,"lon":5.37058,"is_reserved":false,"is_disabled":false,"rental_uris":{"android":"levelo://app?vid=385efc73-c8f2-4acf-91a3-ae63842dcfc6","ios":"levelo://app?vid=385efc73-c8f2-4acf-91a3-ae63842dcfc6"},"vehicle_type_id":"4","last_reported":1746620434,"current_range_meters":20000,"station_id":"ce4bht12rcd13ifvqi60","pricing_plan_id":"cebpf4jnsgd1na2vs0mg"},{"bike_id":"33a17204-e446-41e3-9795-c1b492310014","system_id":"levelo_inurba_marseille","lat":43.23951,"lon":5.36645,"is_reserved":false,"is_disabled":false,"rental_uris":{"android":"levelo://app?vid=33a17204-e446-41e3-9795-c1b492310014","ios":"levelo://app?vid=33a17204-e446-41e3-9795-c1b492310014"},"vehicle_type_id":"4","last_reported":1746620434,"current_range_meters":20000,"station_id":"ce4bhi12rcd13ifvqfp0","pricing_plan_id":"cebpf4jnsgd1na2vs0mg"},{"bike_id":"5685c192-af0e-432e-a78b-7859fcd0e0d6","system_id":"levelo_inurba_marseille","lat":43.30949,"lon":5.3792,"is_reserved":false,"is_disabled":false,"rental_uris":{"android":"levelo://app?vid=5685c192-af0e-432e-a78b-7859fcd0e0d6","ios":"levelo://app?vid=5685c192-af0e-432e-a78b-7859fcd0e0d6"},"vehicle_type_id":"4","last_reported":1746620434,"current_range_meters":20000,"station_id":"","pricing_plan_id":"cebpf4jnsgd1na2vs0mg"},{"bike_id":"d94c20e4-06da-46e7-91de-34f9559e18ac","system_id":"levelo_inurba_marseille","lat":43.26557,"lon":5.37292,"is_reserved":false,"is_disabled":false,"rental_uris":{"android":"levelo://app?vid=d94c20e4-06da-46e7-91de-34f9559e18ac","ios":"levelo://app?vid=d94c20e4-06da-46e7-91de-34f9559e18ac"},"vehicle_type_id":"4","last_reported":1746620434,"current_range_meters":20000,"station_id":"ce4bhg12rcd13ifvqf70","pricing_plan_id":"cebpf4jnsgd1na2vs0mg"},{"bike_id":"7bdd298e-f6f3-417b-be2d-f2c1e12edcf0","system_id":"levelo_inurba_marseille","lat":43.30242,"lon":5.40045,"is_reserved":false,"is_disabled":false,"rental_uris":{"android":"levelo://app?vid=7bdd298e-f6f3-417b-be2d-f2c1e12edcf0","ios":"levelo://app?vid=7bdd298e-f6f3-417b-be2d-f2c1e12edcf0"},"vehicle_type_id":"4","last_reported":1746620434,"current_range_meters":20000,"station_id":"ce4bgvh2rcd13ifvqcs0","pricing_plan_id":"cebpf4jnsgd1na2vs0mg"},{"bike_id":"74b414d4-8058-47e3-9892-912fbd5964b0","system_id":"levelo_inurba_marseille","lat":43.26206,"lon":5.37445,"is_reserved":false,"is_disabled":false,"rental_uris":{"android":"levelo://app?vid=74b414d4-8058-47e3-9892-912fbd5964b0","ios":"levelo://app?vid=74b414d4-8058-47e3-9892-912fbd5964b0"},"vehicle_type_id":"4","last_reported":1746620434,"current_range_meters":20400,"station_id":"ce4bhgp2rcd13ifvqfc0","pricing_plan_id":"cebpf4jnsgd1na2vs0mg"},{"bike_id":"d6991697-c4db-4f56-bdcb-e0831d1ec35c","system_id":"levelo_inurba_marseille","lat":43.28412,"lon":5.34984,"is_reserved":false,"is_disabled":false,"rental_uris":{"android":"levelo://app?vid=d6991697-c4db-4f56-bdcb-e0831d1ec35c","ios":"levelo://app?vid=d6991697-c4db-4f56-bdcb-e0831d1ec35c"},"vehicle_type_id":"4","last_reported":1746620434,"current_range_meters":20400,"station_id":"ce4bhbh2rcd13ifvqepg","pricing_plan_id":"cebpf4jnsgd1na2vs0mg"},{"bike_id":"a8511ca8-0be0-4873-bcc1-7eac30993173","system_id":"levelo_inurba_marseille","lat":43.29627,"lon":5.37733,"is_reserved":false,"is_disabled":false,"rental_uris":{"android":"levelo://app?vid=a8511ca8-0be0-4873-bcc1-7eac30993173","ios":"levelo://app?vid=a8511ca8-0be0-4873-bcc1-7eac30993173"},"vehicle_type_id":"4","last_reported":1746620434,"current_range_meters":20400,"station_id":"ce4bgi92rcd13ifvqb90","pricing_plan_id":"cebpf4jnsgd1na2vs0mg"},{"bike_id":"b0c3e3ee-f1ea-47f7-93aa-eb82728af7a3","system_id":"levelo_inurba_marseille","lat":43.27057,"lon":5.40257,"is_reserved":false,"is_disabled":false,"rental_uris":{"android":"levelo://app?vid=b0c3e3ee-f1ea-47f7-93aa-eb82728af7a3","ios":"levelo://app?vid=b0c3e3ee-f1ea-47f7-93aa-eb82728af7a3"},"vehicle_type_id":"4","last_reported":1746620434,"current_range_meters":20400,"station_id":"ce4bhk92rcd13ifvqgc0","pricing_plan_id":"cebpf4jnsgd1na2vs0mg"},{"bike_id":"1c274b45-e04a-4425-af5a-31f79e3c1822","system_id":"levelo_inurba_marseille","lat":43.30538,"lon":5.36551,"is_reserved":false,"is_disabled":false,"rental_uris":{"android":"levelo://app?vid=1c274b45-e04a-4425-af5a-31f79e3c1822","ios":"levelo://app?vid=1c274b45-e04a-4425-af5a-31f79e3c1822"},"vehicle_type_id":"4","last_reported":1746620434,"current_range_meters":20400,"station_id":"","pricing_plan_id":"cebpf4jnsgd1na2vs0mg"},{"bike_id":"61389a0d-e7a3-4019-a889-87c1d017e9cd","system_id":"levelo_inurba_marseille","lat":43.29793,"lon":5.38106,"is_reserved":false,"is_disabled":true,"rental_uris":{"android":"levelo://app?vid=61389a0d-e7a3-4019-a889-87c1d017e9cd","ios":"levelo://app?vid=61389a0d-e7a3-4019-a889-87c1d017e9cd"},"vehicle_type_id":"4","last_reported":1746620434,"current_range_meters":20800,"station_id":"ce4bgip2rcd13ifvqbb0","pricing_plan_id":"cebpf4jnsgd1na2vs0mg"},{"bike_id":"99d0056b-0f3a-48c7-9129-57988e86d841","system_id":"levelo_inurba_marseille","lat":43.33224,"lon":5.40434,"is_reserved":false,"is_disabled":false,"rental_uris":{"android":"levelo://app?vid=99d0056b-0f3a-48c7-9129-57988e86d841","ios":"levelo://app?vid=99d0056b-0f3a-48c7-9129-57988e86d841"},"vehicle_type_id":"4","last_reported":1746620434,"current_range_meters":20800,"station_id":"","pricing_plan_id":"cebpf4jnsgd1na2vs0mg"},{"bike_id":"690eadfd-8254-41f8-9f17-2c5bed2a4581","system_id":"levelo_inurba_marseille","lat":43.24549,"lon":5.39527,"is_reserved":false,"is_disabled":false,"rental_uris":{"android":"levelo://app?vid=690eadfd-8254-41f8-9f17-2c5bed2a4581","ios":"levelo://app?vid=690eadfd-8254-41f8-9f17-2c5bed2a4581"},"vehicle_type_id":"4","last_reported":1746620434,"current_range_meters":20800,"station_id":"ce4bhlp2rcd13ifvqgjg","pricing_plan_id":"cebpf4jnsgd1na2vs0mg"},{"bike_id":"70a29a45-574c-4ff1-aca3-740aa0e705be","system_id":"levelo_inurba_marseille","lat":43.24161,"lon":5.36397,"is_reserved":false,"is_disabled":false,"rental_uris":{"android":"levelo://app?vid=70a29a45-574c-4ff1-aca3-740aa0e705be","ios":"levelo://app?vid=70a29a45-574c-4ff1-aca3-740aa0e705be"},"vehicle_type_id":"4","last_reported":1746620434,"current_range_meters":20800,"station_id":"cpo36qri1sfpv3e86is0","pricing_plan_id":"cebpf4jnsgd1na2vs0mg"},{"bike_id":"a4a0ff37-7f42-47d8-924e-4945edbc77c9","system_id":"levelo_inurba_marseille","lat":43.26685,"lon":5.38272,"is_reserved":false,"is_disabled":false,"rental_uris":{"android":"levelo://app?vid=a4a0ff37-7f42-47d8-924e-4945edbc77c9","ios":"levelo://app?vid=a4a0ff37-7f42-47d8-924e-4945edbc77c9"},"vehicle_type_id":"4","last_reported":1746620434,"current_range_meters":20800,"station_id":"ce4bhg92rcd13ifvqf90","pricing_plan_id":"cebpf4jnsgd1na2vs0mg"},{"bike_id":"b49e0842-3f76-4954-ba1d-b21797b1f1d3","system_id":"levelo_inurba_marseille","lat":43.2558,"lon":5.38233,"is_reserved":false,"is_disabled":false,"rental_uris":{"android":"levelo://app?vid=b49e0842-3f76-4954-ba1d-b21797b1f1d3","ios":"levelo://app?vid=b49e0842-3f76-4954-ba1d-b21797b1f1d3"},"vehicle_type_id":"4","last_reported":1746620434,"current_range_meters":20800,"station_id":"ce4bhih2rcd13ifvqfs0","pricing_plan_id":"cebpf4jnsgd1na2vs0mg"},{"bike_id":"a8c0a6b0-1834-4d2e-b48e-84db2738b63d","system_id":"levelo_inurba_marseille","lat":43.28264,"lon":5.35065,"is_reserved":false,"is_disabled":false,"rental_uris":{"android":"levelo://app?vid=a8c0a6b0-1834-4d2e-b48e-84db2738b63d","ios":"levelo://app?vid=a8c0a6b0-1834-4d2e-b48e-84db2738b63d"},"vehicle_type_id":"4","last_reported":1746620434,"current_range_meters":20800,"station_id":"ce4bhbp2rcd13ifvqerg","pricing_plan_id":"cebpf4jnsgd1na2vs0mg"},{"bike_id":"0e28c73c-ce7b-423e-aa20-14eb3b9d60cb","system_id":"levelo_inurba_marseille","lat":43.30307,"lon":5.36896,"is_reserved":false,"is_disabled":false,"rental_uris":{"android":"levelo://app?vid=0e28c73c-ce7b-423e-aa20-14eb3b9d60cb","ios":"levelo://app?vid=0e28c73c-ce7b-423e-aa20-14eb3b9d60cb"},"vehicle_type_id":"4","last_reported":1746620434,"current_range_meters":20800,"station_id":"ce4bgqh2rcd13ifvqc5g","pricing_plan_id":"cebpf4jnsgd1na2vs0mg"},{"bike_id":"f46dc929-7e07-4d28-9326-a2031223c9ef","system_id":"levelo_inurba_marseille","lat":43.25927,"lon":5.40901,"is_reserved":false,"is_disabled":false,"rental_uris":{"android":"levelo://app?vid=f46dc929-7e07-4d28-9326-a2031223c9ef","ios":"levelo://app?vid=f46dc929-7e07-4d28-9326-a2031223c9ef"},"vehicle_type_id":"4","last_reported":1746620434,"current_range_meters":21600,"station_id":"ce4bhm92rcd13ifvqglg","pricing_plan_id":"cebpf4jnsgd1na2vs0mg"},{"bike_id":"8d7b1f33-f881-4440-a37b-ee97db8071e3","system_id":"levelo_inurba_marseille","lat":43.320459,"lon":5.415757,"is_reserved":false,"is_disabled":false,"rental_uris":{"android":"levelo://app?vid=8d7b1f33-f881-4440-a37b-ee97db8071e3","ios":"levelo://app?vid=8d7b1f33-f881-4440-a37b-ee97db8071e3"},"vehicle_type_id":"4","last_reported":1746620434,"current_range_meters":21600,"station_id":"ce4bhq92rcd13ifvqhkg","pricing_plan_id":"cebpf4jnsgd1na2vs0mg"},{"bike_id":"5c8b1c2d-3f21-4b6c-833d-b3219c0b9c4f","system_id":"levelo_inurba_marseille","lat":43.27975,"lon":5.38748,"is_reserved":false,"is_disabled":false,"rental_uris":{"android":"levelo://app?vid=5c8b1c2d-3f21-4b6c-833d-b3219c0b9c4f","ios":"levelo://app?vid=5c8b1c2d-3f21-4b6c-833d-b3219c0b9c4f"},"vehicle_type_id":"4","last_reported":1746620434,"current_range_meters":21600,"station_id":"ce4bhg12rcd13ifvqf80","pricing_plan_id":"cebpf4jnsgd1na2vs0mg"},{"bike_id":"6d8face4-e1c6-497e-9a36-38b504765985","system_id":"levelo_inurba_marseille","lat":43.3255,"lon":5.4143,"is_reserved":false,"is_disabled":false,"rental_uris":{"android":"levelo://app?vid=6d8face4-e1c6-497e-9a36-38b504765985","ios":"levelo://app?vid=6d8face4-e1c6-497e-9a36-38b504765985"},"vehicle_type_id":"4","last_reported":1746620434,"current_range_meters":21600,"station_id":"ce4bhq12rcd13ifvqhhg","pricing_plan_id":"cebpf4jnsgd1na2vs0mg"},{"bike_id":"327cc39f-d91f-4b77-aab9-5dc3bf60ad82","system_id":"levelo_inurba_marseille","lat":43.25085,"lon":5.39506,"is_reserved":false,"is_disabled":true,"rental_uris":{"android":"levelo://app?vid=327cc39f-d91f-4b77-aab9-5dc3bf60ad82","ios":"levelo://app?vid=327cc39f-d91f-4b77-aab9-5dc3bf60ad82"},"vehicle_type_id":"4","last_reported":1746620434,"current_range_meters":21600,"station_id":"ce4bhm12rcd13ifvqgkg","pricing_plan_id":"cebpf4jnsgd1na2vs0mg"},{"bike_id":"5340ee3a-3715-406b-865c-69b21e34c993","system_id":"levelo_inurba_marseille","lat":43.23961,"lon":5.36632,"is_reserved":false,"is_disabled":false,"rental_uris":{"android":"levelo://app?vid=5340ee3a-3715-406b-865c-69b21e34c993","ios":"levelo://app?vid=5340ee3a-3715-406b-865c-69b21e34c993"},"vehicle_type_id":"4","last_reported":1746620434,"current_range_meters":22000,"station_id":"ce4bhi12rcd13ifvqfp0","pricing_plan_id":"cebpf4jnsgd1na2vs0mg"},{"bike_id":"cd6f6cd3-97ff-40eb-8925-f5c82ebec4a1","system_id":"levelo_inurba_marseille","lat":43.295547,"lon":5.385455,"is_reserved":false,"is_disabled":false,"rental_uris":{"android":"levelo://app?vid=cd6f6cd3-97ff-40eb-8925-f5c82ebec4a1","ios":"levelo://app?vid=cd6f6cd3-97ff-40eb-8925-f5c82ebec4a1"},"vehicle_type_id":"4","last_reported":1746620434,"current_range_meters":22000,"station_id":"ce4bgih2rcd13ifvqba0","pricing_plan_id":"cebpf4jnsgd1na2vs0mg"},{"bike_id":"61773464-18ea-4477-b785-2b5e8184d3c2","system_id":"levelo_inurba_marseille","lat":43.325478,"lon":5.414512,"is_reserved":false,"is_disabled":false,"rental_uris":{"android":"levelo://app?vid=61773464-18ea-4477-b785-2b5e8184d3c2","ios":"levelo://app?vid=61773464-18ea-4477-b785-2b5e8184d3c2"},"vehicle_type_id":"4","last_reported":1746620434,"current_range_meters":22000,"station_id":"ce4bhq12rcd13ifvqhhg","pricing_plan_id":"cebpf4jnsgd1na2vs0mg"},{"bike_id":"46495043-41e0-417d-acfb-714a31167246","system_id":"levelo_inurba_marseille","lat":43.297011,"lon":5.365916,"is_reserved":false,"is_disabled":false,"rental_uris":{"android":"levelo://app?vid=46495043-41e0-417d-acfb-714a31167246","ios":"levelo://app?vid=46495043-41e0-417d-acfb-714a31167246"},"vehicle_type_id":"4","last_reported":1746620434,"current_range_meters":22400,"station_id":"ce4bgn12rcd13ifvqbt0","pricing_plan_id":"cebpf4jnsgd1na2vs0mg"},{"bike_id":"769b5f81-b0f4-4ef5-9582-fec785a6410f","system_id":"levelo_inurba_marseille","lat":43.30191,"lon":5.36629,"is_reserved":false,"is_disabled":false,"rental_uris":{"android":"levelo://app?vid=769b5f81-b0f4-4ef5-9582-fec785a6410f","ios":"levelo://app?vid=769b5f81-b0f4-4ef5-9582-fec785a6410f"},"vehicle_type_id":"4","last_reported":1746620434,"current_range_meters":22400,"station_id":"ce4bgrh2rcd13ifvqc8g","pricing_plan_id":"cebpf4jnsgd1na2vs0mg"},{"bike_id":"d0a51127-7dcc-43f9-9671-0a08e74ee8a0","system_id":"levelo_inurba_marseille","lat":43.26786,"lon":5.39416,"is_reserved":false,"is_disabled":false,"rental_uris":{"android":"levelo://app?vid=d0a51127-7dcc-43f9-9671-0a08e74ee8a0","ios":"levelo://app?vid=d0a51127-7dcc-43f9-9671-0a08e74ee8a0"},"vehicle_type_id":"4","last_reported":1746620434,"current_range_meters":22400,"station_id":"ce4bhh12rcd13ifvqfg0","pricing_plan_id":"cebpf4jnsgd1na2vs0mg"},{"bike_id":"6246070e-1879-4f89-94f2-d724b085908c","system_id":"levelo_inurba_marseille","lat":43.27581,"lon":5.38409,"is_reserved":false,"is_disabled":false,"rental_uris":{"android":"levelo://app?vid=6246070e-1879-4f89-94f2-d724b085908c","ios":"levelo://app?vid=6246070e-1879-4f89-94f2-d724b085908c"},"vehicle_type_id":"4","last_reported":1746620434,"current_range_meters":22400,"station_id":"ce4bhh92rcd13ifvqfi0","pricing_plan_id":"cebpf4jnsgd1na2vs0mg"},{"bike_id":"373cd1ef-487a-4179-9918-080013cb76e8","system_id":"levelo_inurba_marseille","lat":43.21756,"lon":5.34603,"is_reserved":false,"is_disabled":false,"rental_uris":{"android":"levelo://app?vid=373cd1ef-487a-4179-9918-080013cb76e8","ios":"levelo://app?vid=373cd1ef-487a-4179-9918-080013cb76e8"},"vehicle_type_id":"4","last_reported":1746620434,"current_range_meters":22400,"station_id":"st_cvj6r9ubvosntc0bgbag","pricing_plan_id":"cebpf4jnsgd1na2vs0mg"},{"bike_id":"89b5c51b-cd9c-475c-ba7a-726b12d22f75","system_id":"levelo_inurba_marseille","lat":43.21191,"lon":5.35075,"is_reserved":false,"is_disabled":false,"rental_uris":{"android":"levelo://app?vid=89b5c51b-cd9c-475c-ba7a-726b12d22f75","ios":"levelo://app?vid=89b5c51b-cd9c-475c-ba7a-726b12d22f75"},"vehicle_type_id":"4","last_reported":1746620434,"current_range_meters":22400,"station_id":"st_cvj6sg6p6f1abm77japg","pricing_plan_id":"cebpf4jnsgd1na2vs0mg"},{"bike_id":"74dfcb2f-a38e-46fd-a9a4-88a9c0d71f4a","system_id":"levelo_inurba_marseille","lat":43.25935,"lon":5.4091,"is_reserved":false,"is_disabled":false,"rental_uris":{"android":"levelo://app?vid=74dfcb2f-a38e-46fd-a9a4-88a9c0d71f4a","ios":"levelo://app?vid=74dfcb2f-a38e-46fd-a9a4-88a9c0d71f4a"},"vehicle_type_id":"4","last_reported":1746620434,"current_range_meters":22400,"station_id":"ce4bhm92rcd13ifvqglg","pricing_plan_id":"cebpf4jnsgd1na2vs0mg"},{"bike_id":"16d82653-e2e5-4531-a384-7902e244f0cf","system_id":"levelo_inurba_marseille","lat":43.22508,"lon":5.34795,"is_reserved":false,"is_disabled":false,"rental_uris":{"android":"levelo://app?vid=16d82653-e2e5-4531-a384-7902e244f0cf","ios":"levelo://app?vid=16d82653-e2e5-4531-a384-7902e244f0cf"},"vehicle_type_id":"4","last_reported":1746620434,"current_range_meters":22800,"station_id":"st_cvj5dfep6f1abm77gieg","pricing_plan_id":"cebpf4jnsgd1na2vs0mg"},{"bike_id":"d0a954e9-8e5e-422b-a564-4d5ed27c9cd3","system_id":"levelo_inurba_marseille","lat":43.30922,"lon":5.36853,"is_reserved":false,"is_disabled":false,"rental_uris":{"android":"levelo://app?vid=d0a954e9-8e5e-422b-a564-4d5ed27c9cd3","ios":"levelo://app?vid=d0a954e9-8e5e-422b-a564-4d5ed27c9cd3"},"vehicle_type_id":"4","last_reported":1746620434,"current_range_meters":22800,"station_id":"ce4bgn92rcd13ifvqbvg","pricing_plan_id":"cebpf4jnsgd1na2vs0mg"},{"bike_id":"c2284edc-25e4-48c5-9715-6e71c3886a6f","system_id":"levelo_inurba_marseille","lat":43.30538,"lon":5.36528,"is_reserved":false,"is_disabled":false,"rental_uris":{"android":"levelo://app?vid=c2284edc-25e4-48c5-9715-6e71c3886a6f","ios":"levelo://app?vid=c2284edc-25e4-48c5-9715-6e71c3886a6f"},"vehicle_type_id":"4","last_reported":1746620434,"current_range_meters":22800,"station_id":"ce4bgs12rcd13ifvqcag","pricing_plan_id":"cebpf4jnsgd1na2vs0mg"},{"bike_id":"a38c5fcd-2a3e-4e2c-b5be-bfb908394086","system_id":"levelo_inurba_marseille","lat":43.32783,"lon":5.39136,"is_reserved":false,"is_disabled":false,"rental_uris":{"android":"levelo://app?vid=a38c5fcd-2a3e-4e2c-b5be-bfb908394086","ios":"levelo://app?vid=a38c5fcd-2a3e-4e2c-b5be-bfb908394086"},"vehicle_type_id":"4","last_reported":1746620434,"current_range_meters":22800,"station_id":"","pricing_plan_id":"cebpf4jnsgd1na2vs0mg"},{"bike_id":"65a3ed48-b841-4e5b-bed4-dcbfbe89e270","system_id":"levelo_inurba_marseille","lat":43.286091,"lon":5.351124,"is_reserved":false,"is_disabled":false,"rental_uris":{"android":"levelo://app?vid=65a3ed48-b841-4e5b-bed4-dcbfbe89e270","ios":"levelo://app?vid=65a3ed48-b841-4e5b-bed4-dcbfbe89e270"},"vehicle_type_id":"4","last_reported":1746620434,"current_range_meters":22800,"station_id":"ce4bhch2rcd13ifvqeug","pricing_plan_id":"cebpf4jnsgd1na2vs0mg"},{"bike_id":"5545e5f3-6379-4d16-8527-ea6f67b4fa46","system_id":"levelo_inurba_marseille","lat":43.25942,"lon":5.40924,"is_reserved":false,"is_disabled":false,"rental_uris":{"android":"levelo://app?vid=5545e5f3-6379-4d16-8527-ea6f67b4fa46","ios":"levelo://app?vid=5545e5f3-6379-4d16-8527-ea6f67b4fa46"},"vehicle_type_id":"4","last_reported":1746620434,"current_range_meters":22800,"station_id":"ce4bhm92rcd13ifvqglg","pricing_plan_id":"cebpf4jnsgd1na2vs0mg"},{"bike_id":"6c7a0ade-ecaa-446e-9258-30c3a975a605","system_id":"levelo_inurba_marseille","lat":43.27948,"lon":5.38737,"is_reserved":false,"is_disabled":false,"rental_uris":{"android":"levelo://app?vid=6c7a0ade-ecaa-446e-9258-30c3a975a605","ios":"levelo://app?vid=6c7a0ade-ecaa-446e-9258-30c3a975a605"},"vehicle_type_id":"4","last_reported":1746620434,"current_range_meters":22800,"station_id":"ce4bhg12rcd13ifvqf80","pricing_plan_id":"cebpf4jnsgd1na2vs0mg"},{"bike_id":"58239bf0-2c8f-4e97-8797-1c5c56c5f1e4","system_id":"levelo_inurba_marseille","lat":43.30608,"lon":5.37222,"is_reserved":false,"is_disabled":false,"rental_uris":{"android":"levelo://app?vid=58239bf0-2c8f-4e97-8797-1c5c56c5f1e4","ios":"levelo://app?vid=58239bf0-2c8f-4e97-8797-1c5c56c5f1e4"},"vehicle_type_id":"4","last_reported":1746620434,"current_range_meters":22800,"station_id":"","pricing_plan_id":"cebpf4jnsgd1na2vs0mg"},{"bike_id":"ff807334-3ad3-4e40-bbde-648eb2b1c45b","system_id":"levelo_inurba_marseille","lat":43.21198,"lon":5.35068,"is_reserved":false,"is_disabled":false,"rental_uris":{"android":"levelo://app?vid=ff807334-3ad3-4e40-bbde-648eb2b1c45b","ios":"levelo://app?vid=ff807334-3ad3-4e40-bbde-648eb2b1c45b"},"vehicle_type_id":"4","last_reported":1746620434,"current_range_meters":22800,"station_id":"st_cvj6sg6p6f1abm77japg","pricing_plan_id":"cebpf4jnsgd1na2vs0mg"},{"bike_id":"08de90c2-380a-4637-bef5-555b4b9bed4d","system_id":"levelo_inurba_marseille","lat":43.29034,"lon":5.37574,"is_reserved":false,"is_disabled":false,"rental_uris":{"android":"levelo://app?vid=08de90c2-380a-4637-bef5-555b4b9bed4d","ios":"levelo://app?vid=08de90c2-380a-4637-bef5-555b4b9bed4d"},"vehicle_type_id":"4","last_reported":1746620434,"current_range_meters":23200,"station_id":"ce4bh692rcd13ifvqe90","pricing_plan_id":"cebpf4jnsgd1na2vs0mg"},{"bike_id":"e95b9760-91aa-4b07-a3a7-43dcd07b45d8","system_id":"levelo_inurba_marseille","lat":43.26215,"lon":5.3791,"is_reserved":false,"is_disabled":false,"rental_uris":{"android":"levelo://app?vid=e95b9760-91aa-4b07-a3a7-43dcd07b45d8","ios":"levelo://app?vid=e95b9760-91aa-4b07-a3a7-43dcd07b45d8"},"vehicle_type_id":"4","last_reported":1746620434,"current_range_meters":23200,"station_id":"ce4bhjp2rcd13ifvqg90","pricing_plan_id":"cebpf4jnsgd1na2vs0mg"},{"bike_id":"870315d0-9ee5-4db0-aeaf-69c69d8aa823","system_id":"levelo_inurba_marseille","lat":43.31175,"lon":5.38724,"is_reserved":false,"is_disabled":false,"rental_uris":{"android":"levelo://app?vid=870315d0-9ee5-4db0-aeaf-69c69d8aa823","ios":"levelo://app?vid=870315d0-9ee5-4db0-aeaf-69c69d8aa823"},"vehicle_type_id":"4","last_reported":1746620434,"current_range_meters":23200,"station_id":"ce4bgv12rcd13ifvqcp0","pricing_plan_id":"cebpf4jnsgd1na2vs0mg"},{"bike_id":"eb6746b8-bc2a-42b7-b4cc-15d228f19235","system_id":"levelo_inurba_marseille","lat":43.24996,"lon":5.38931,"is_reserved":false,"is_disabled":false,"rental_uris":{"android":"levelo://app?vid=eb6746b8-bc2a-42b7-b4cc-15d228f19235","ios":"levelo://app?vid=eb6746b8-bc2a-42b7-b4cc-15d228f19235"},"vehicle_type_id":"4","last_reported":1746620434,"current_range_meters":23200,"station_id":"ce4bhgp2rcd13ifvqfd0","pricing_plan_id":"cebpf4jnsgd1na2vs0mg"},{"bike_id":"69e72f38-1565-401c-98da-24854e1020f1","system_id":"levelo_inurba_marseille","lat":43.29635,"lon":5.40594,"is_reserved":false,"is_disabled":false,"rental_uris":{"android":"levelo://app?vid=69e72f38-1565-401c-98da-24854e1020f1","ios":"levelo://app?vid=69e72f38-1565-401c-98da-24854e1020f1"},"vehicle_type_id":"4","last_reported":1746620434,"current_range_meters":23200,"station_id":"ce4bh0h2rcd13ifvqd60","pricing_plan_id":"cebpf4jnsgd1na2vs0mg"},{"bike_id":"af4ccb51-8887-4b53-961b-60b4d15dc22d","system_id":"levelo_inurba_marseille","lat":43.269464,"lon":5.398558,"is_reserved":false,"is_disabled":false,"rental_uris":{"android":"levelo://app?vid=af4ccb51-8887-4b53-961b-60b4d15dc22d","ios":"levelo://app?vid=af4ccb51-8887-4b53-961b-60b4d15dc22d"},"vehicle_type_id":"4","last_reported":1746620434,"current_range_meters":23200,"station_id":"ce4bhh12rcd13ifvqfg0","pricing_plan_id":"cebpf4jnsgd1na2vs0mg"},{"bike_id":"942ac89b-0f51-4fb6-830a-660268833ba0","system_id":"levelo_inurba_marseille","lat":43.30946,"lon":5.40141,"is_reserved":false,"is_disabled":false,"rental_uris":{"android":"levelo://app?vid=942ac89b-0f51-4fb6-830a-660268833ba0","ios":"levelo://app?vid=942ac89b-0f51-4fb6-830a-660268833ba0"},"vehicle_type_id":"4","last_reported":1746620434,"current_range_meters":23200,"station_id":"ce4bgvp2rcd13ifvqct0","pricing_plan_id":"cebpf4jnsgd1na2vs0mg"},{"bike_id":"8e16e5bb-555e-41fd-acaa-90a03e7cbfb4","system_id":"levelo_inurba_marseille","lat":43.28342,"lon":5.38099,"is_reserved":false,"is_disabled":false,"rental_uris":{"android":"levelo://app?vid=8e16e5bb-555e-41fd-acaa-90a03e7cbfb4","ios":"levelo://app?vid=8e16e5bb-555e-41fd-acaa-90a03e7cbfb4"},"vehicle_type_id":"4","last_reported":1746620434,"current_range_meters":24000,"station_id":"ce4bh412rcd13ifvqdr0","pricing_plan_id":"cebpf4jnsgd1na2vs0mg"},{"bike_id":"9a588351-e398-4779-91c2-6573c6beb23c","system_id":"levelo_inurba_marseille","lat":43.29037,"lon":5.38647,"is_reserved":false,"is_disabled":false,"rental_uris":{"android":"levelo://app?vid=9a588351-e398-4779-91c2-6573c6beb23c","ios":"levelo://app?vid=9a588351-e398-4779-91c2-6573c6beb23c"},"vehicle_type_id":"4","last_reported":1746620434,"current_range_meters":24000,"station_id":"ce4bh4p2rcd13ifvqe0g","pricing_plan_id":"cebpf4jnsgd1na2vs0mg"},{"bike_id":"fffd3d76-da5d-43ca-9730-1eea3ac64f2c","system_id":"levelo_inurba_marseille","lat":43.25939,"lon":5.40908,"is_reserved":false,"is_disabled":false,"rental_uris":{"android":"levelo://app?vid=fffd3d76-da5d-43ca-9730-1eea3ac64f2c","ios":"levelo://app?vid=fffd3d76-da5d-43ca-9730-1eea3ac64f2c"},"vehicle_type_id":"4","last_reported":1746620434,"current_range_meters":24000,"station_id":"ce4bhm92rcd13ifvqglg","pricing_plan_id":"cebpf4jnsgd1na2vs0mg"},{"bike_id":"f45db890-d139-4e85-a22a-a87cbd986380","system_id":"levelo_inurba_marseille","lat":43.32103,"lon":5.36768,"is_reserved":false,"is_disabled":false,"rental_uris":{"android":"levelo://app?vid=f45db890-d139-4e85-a22a-a87cbd986380","ios":"levelo://app?vid=f45db890-d139-4e85-a22a-a87cbd986380"},"vehicle_type_id":"4","last_reported":1746620434,"current_range_meters":24000,"station_id":"ce4bhrh2rcd13ifvqhug","pricing_plan_id":"cebpf4jnsgd1na2vs0mg"},{"bike_id":"f69b5de9-20ba-403e-863b-d949460bb4f2","system_id":"levelo_inurba_marseille","lat":43.28462,"lon":5.359,"is_reserved":false,"is_disabled":false,"rental_uris":{"android":"levelo://app?vid=f69b5de9-20ba-403e-863b-d949460bb4f2","ios":"levelo://app?vid=f69b5de9-20ba-403e-863b-d949460bb4f2"},"vehicle_type_id":"4","last_reported":1746620434,"current_range_meters":24000,"station_id":"ce4bhah2rcd13ifvqei0","pricing_plan_id":"cebpf4jnsgd1na2vs0mg"},{"bike_id":"470c7323-1a16-4274-9a3b-b925d45fdb2d","system_id":"levelo_inurba_marseille","lat":43.29623,"lon":5.37159,"is_reserved":false,"is_disabled":false,"rental_uris":{"android":"levelo://app?vid=470c7323-1a16-4274-9a3b-b925d45fdb2d","ios":"levelo://app?vid=470c7323-1a16-4274-9a3b-b925d45fdb2d"},"vehicle_type_id":"4","last_reported":1746620434,"current_range_meters":24000,"station_id":"ce4bgnh2rcd13ifvqc0g","pricing_plan_id":"cebpf4jnsgd1na2vs0mg"},{"bike_id":"a43d2705-b9c7-4103-9a9a-a643e517a07d","system_id":"levelo_inurba_marseille","lat":43.29707,"lon":5.36573,"is_reserved":false,"is_disabled":false,"rental_uris":{"android":"levelo://app?vid=a43d2705-b9c7-4103-9a9a-a643e517a07d","ios":"levelo://app?vid=a43d2705-b9c7-4103-9a9a-a643e517a07d"},"vehicle_type_id":"4","last_reported":1746620434,"current_range_meters":24400,"station_id":"ce4bgn12rcd13ifvqbt0","pricing_plan_id":"cebpf4jnsgd1na2vs0mg"},{"bike_id":"f73d450b-fde6-4898-99b1-916875a407c6","system_id":"levelo_inurba_marseille","lat":43.22505,"lon":5.34786,"is_reserved":false,"is_disabled":false,"rental_uris":{"android":"levelo://app?vid=f73d450b-fde6-4898-99b1-916875a407c6","ios":"levelo://app?vid=f73d450b-fde6-4898-99b1-916875a407c6"},"vehicle_type_id":"4","last_reported":1746620434,"current_range_meters":24400,"station_id":"st_cvj5dfep6f1abm77gieg","pricing_plan_id":"cebpf4jnsgd1na2vs0mg"},{"bike_id":"eaa0b772-9a53-44ff-bdb3-9d6edf0c834f","system_id":"levelo_inurba_marseille","lat":43.31489,"lon":5.37327,"is_reserved":false,"is_disabled":false,"rental_uris":{"android":"levelo://app?vid=eaa0b772-9a53-44ff-bdb3-9d6edf0c834f","ios":"levelo://app?vid=eaa0b772-9a53-44ff-bdb3-9d6edf0c834f"},"vehicle_type_id":"4","last_reported":1746620434,"current_range_meters":24400,"station_id":"ce4bgt12rcd13ifvqcd0","pricing_plan_id":"cebpf4jnsgd1na2vs0mg"},{"bike_id":"ee346650-7195-4885-b630-5dc883411946","system_id":"levelo_inurba_marseille","lat":43.303111,"lon":5.368913,"is_reserved":false,"is_disabled":false,"rental_uris":{"android":"levelo://app?vid=ee346650-7195-4885-b630-5dc883411946","ios":"levelo://app?vid=ee346650-7195-4885-b630-5dc883411946"},"vehicle_type_id":"4","last_reported":1746620434,"current_range_meters":24400,"station_id":"ce4bgqh2rcd13ifvqc5g","pricing_plan_id":"cebpf4jnsgd1na2vs0mg"},{"bike_id":"2ed327f6-8175-4783-a942-a15e7df3127f","system_id":"levelo_inurba_marseille","lat":43.337557,"lon":5.374521,"is_reserved":false,"is_disabled":false,"rental_uris":{"android":"levelo://app?vid=2ed327f6-8175-4783-a942-a15e7df3127f","ios":"levelo://app?vid=2ed327f6-8175-4783-a942-a15e7df3127f"},"vehicle_type_id":"4","last_reported":1746620434,"current_range_meters":24400,"station_id":"","pricing_plan_id":"cebpf4jnsgd1na2vs0mg"},{"bike_id":"9761a845-6216-4723-958b-06328324a2b8","system_id":"levelo_inurba_marseille","lat":43.31743,"lon":5.39008,"is_reserved":false,"is_disabled":false,"rental_uris":{"android":"levelo://app?vid=9761a845-6216-4723-958b-06328324a2b8","ios":"levelo://app?vid=9761a845-6216-4723-958b-06328324a2b8"},"vehicle_type_id":"4","last_reported":1746620434,"current_range_meters":24400,"station_id":"ce4bhqp2rcd13ifvqhng","pricing_plan_id":"cebpf4jnsgd1na2vs0mg"},{"bike_id":"f3e9ab38-3242-4aa5-83f9-529a16ccf936","system_id":"levelo_inurba_marseille","lat":43.22502,"lon":5.34806,"is_reserved":false,"is_disabled":false,"rental_uris":{"android":"levelo://app?vid=f3e9ab38-3242-4aa5-83f9-529a16ccf936","ios":"levelo://app?vid=f3e9ab38-3242-4aa5-83f9-529a16ccf936"},"vehicle_type_id":"4","last_reported":1746620434,"current_range_meters":24400,"station_id":"st_cvj5dfep6f1abm77gieg","pricing_plan_id":"cebpf4jnsgd1na2vs0mg"},{"bike_id":"92c24f92-729e-4061-8297-edcce354ddd2","system_id":"levelo_inurba_marseille","lat":43.29624,"lon":5.37167,"is_reserved":false,"is_disabled":false,"rental_uris":{"android":"levelo://app?vid=92c24f92-729e-4061-8297-edcce354ddd2","ios":"levelo://app?vid=92c24f92-729e-4061-8297-edcce354ddd2"},"vehicle_type_id":"4","last_reported":1746620434,"current_range_meters":24800,"station_id":"ce4bgnh2rcd13ifvqc0g","pricing_plan_id":"cebpf4jnsgd1na2vs0mg"},{"bike_id":"ea6bcd74-4c4d-4b6b-8ed1-b71b39f8869a","system_id":"levelo_inurba_marseille","lat":43.30854,"lon":5.39642,"is_reserved":false,"is_disabled":false,"rental_uris":{"android":"levelo://app?vid=ea6bcd74-4c4d-4b6b-8ed1-b71b39f8869a","ios":"levelo://app?vid=ea6bcd74-4c4d-4b6b-8ed1-b71b39f8869a"},"vehicle_type_id":"4","last_reported":1746620434,"current_range_meters":24800,"station_id":"ce4bh012rcd13ifvqcv0","pricing_plan_id":"cebpf4jnsgd1na2vs0mg"},{"bike_id":"cd27a6b4-6b1b-45fe-8608-fd639e13519e","system_id":"levelo_inurba_marseille","lat":43.24658,"lon":5.38161,"is_reserved":false,"is_disabled":false,"rental_uris":{"android":"levelo://app?vid=cd27a6b4-6b1b-45fe-8608-fd639e13519e","ios":"levelo://app?vid=cd27a6b4-6b1b-45fe-8608-fd639e13519e"},