{"last_updated":1778664856,"ttl":60,"version":"2.2","data":{"bikes":[{"bike_id":"7bd499dc-b675-41a9-89e6-a57f0f5b3219","system_id":"levelo_inurba_marseille","lat":43.26678,"lon":5.38259,"is_reserved":false,"is_disabled":false,"rental_uris":{"android":"levelo://app?vid=7bd499dc-b675-41a9-89e6-a57f0f5b3219","ios":"levelo://app?vid=7bd499dc-b675-41a9-89e6-a57f0f5b3219"},"vehicle_type_id":"4","last_reported":1778664857,"current_range_meters":2800,"station_id":"ce4bhg92rcd13ifvqf90","pricing_plan_id":"cebpf4jnsgd1na2vs0mg"},{"bike_id":"b4d118d9-08e1-4476-8c35-558b5a7925ac","system_id":"levelo_inurba_marseille","lat":43.31387,"lon":5.36686,"is_reserved":false,"is_disabled":false,"rental_uris":{"android":"levelo://app?vid=b4d118d9-08e1-4476-8c35-558b5a7925ac","ios":"levelo://app?vid=b4d118d9-08e1-4476-8c35-558b5a7925ac"},"vehicle_type_id":"4","last_reported":1778664857,"current_range_meters":2800,"station_id":"","pricing_plan_id":"cebpf4jnsgd1na2vs0mg"},{"bike_id":"23b6dc26-1392-4fa8-9cc5-0f40ceb1f1c5","system_id":"levelo_inurba_marseille","lat":43.28702,"lon":5.46685,"is_reserved":false,"is_disabled":false,"rental_uris":{"android":"levelo://app?vid=23b6dc26-1392-4fa8-9cc5-0f40ceb1f1c5","ios":"levelo://app?vid=23b6dc26-1392-4fa8-9cc5-0f40ceb1f1c5"},"vehicle_type_id":"4","last_reported":1778664857,"current_range_meters":2800,"station_id":"st_d6tc3vkotcvc738tfjhg","pricing_plan_id":"cebpf4jnsgd1na2vs0mg"},{"bike_id":"7242f6c4-4940-4a8e-909c-8954c2e29b3c","system_id":"levelo_inurba_marseille","lat":43.28866,"lon":5.4252,"is_reserved":false,"is_disabled":false,"rental_uris":{"android":"levelo://app?vid=7242f6c4-4940-4a8e-909c-8954c2e29b3c","ios":"levelo://app?vid=7242f6c4-4940-4a8e-909c-8954c2e29b3c"},"vehicle_type_id":"4","last_reported":1778664857,"current_range_meters":2800,"station_id":"st_d3b462108ojc7389ooeg","pricing_plan_id":"cebpf4jnsgd1na2vs0mg"},{"bike_id":"d6a84da5-fd7b-4dd2-a03e-28431ebf5105","system_id":"levelo_inurba_marseille","lat":43.29827,"lon":5.37095,"is_reserved":false,"is_disabled":false,"rental_uris":{"android":"levelo://app?vid=d6a84da5-fd7b-4dd2-a03e-28431ebf5105","ios":"levelo://app?vid=d6a84da5-fd7b-4dd2-a03e-28431ebf5105"},"vehicle_type_id":"4","last_reported":1778664857,"current_range_meters":2800,"station_id":"ce4bgop2rcd13ifvqc1g","pricing_plan_id":"cebpf4jnsgd1na2vs0mg"},{"bike_id":"3634727c-0a64-4006-b522-00514c24ae45","system_id":"levelo_inurba_marseille","lat":43.3132,"lon":5.36724,"is_reserved":false,"is_disabled":false,"rental_uris":{"android":"levelo://app?vid=3634727c-0a64-4006-b522-00514c24ae45","ios":"levelo://app?vid=3634727c-0a64-4006-b522-00514c24ae45"},"vehicle_type_id":"4","last_reported":1778664857,"current_range_meters":2800,"station_id":"ce4bgr92rcd13ifvqc6g","pricing_plan_id":"cebpf4jnsgd1na2vs0mg"},{"bike_id":"68d19389-399a-47f7-8159-597771ef4656","system_id":"levelo_inurba_marseille","lat":43.23183,"lon":5.39986,"is_reserved":false,"is_disabled":false,"rental_uris":{"android":"levelo://app?vid=68d19389-399a-47f7-8159-597771ef4656","ios":"levelo://app?vid=68d19389-399a-47f7-8159-597771ef4656"},"vehicle_type_id":"4","last_reported":1778664857,"current_range_meters":2800,"station_id":"ce4bhn12rcd13ifvqgqg","pricing_plan_id":"cebpf4jnsgd1na2vs0mg"},{"bike_id":"06ace5d7-3d4b-48bb-9ba8-5a2e1fabdaaf","system_id":"levelo_inurba_marseille","lat":43.337518,"lon":5.374433,"is_reserved":false,"is_disabled":false,"rental_uris":{"android":"levelo://app?vid=06ace5d7-3d4b-48bb-9ba8-5a2e1fabdaaf","ios":"levelo://app?vid=06ace5d7-3d4b-48bb-9ba8-5a2e1fabdaaf"},"vehicle_type_id":"4","last_reported":1778664857,"current_range_meters":2800,"station_id":"","pricing_plan_id":"cebpf4jnsgd1na2vs0mg"},{"bike_id":"8e43356a-6894-4729-8a36-e254d80b24c0","system_id":"levelo_inurba_marseille","lat":43.29134,"lon":5.43262,"is_reserved":false,"is_disabled":false,"rental_uris":{"android":"levelo://app?vid=8e43356a-6894-4729-8a36-e254d80b24c0","ios":"levelo://app?vid=8e43356a-6894-4729-8a36-e254d80b24c0"},"vehicle_type_id":"4","last_reported":1778664857,"current_range_meters":2800,"station_id":"","pricing_plan_id":"cebpf4jnsgd1na2vs0mg"},{"bike_id":"c4a39941-4b69-4697-a3ce-af3df8a6d218","system_id":"levelo_inurba_marseille","lat":43.27632,"lon":5.36233,"is_reserved":false,"is_disabled":false,"rental_uris":{"android":"levelo://app?vid=c4a39941-4b69-4697-a3ce-af3df8a6d218","ios":"levelo://app?vid=c4a39941-4b69-4697-a3ce-af3df8a6d218"},"vehicle_type_id":"4","last_reported":1778664857,"current_range_meters":2800,"station_id":"","pricing_plan_id":"cebpf4jnsgd1na2vs0mg"},{"bike_id":"08827472-16dc-4273-a2d5-bd19c6da1570","system_id":"levelo_inurba_marseille","lat":43.27506,"lon":5.42457,"is_reserved":false,"is_disabled":false,"rental_uris":{"android":"levelo://app?vid=08827472-16dc-4273-a2d5-bd19c6da1570","ios":"levelo://app?vid=08827472-16dc-4273-a2d5-bd19c6da1570"},"vehicle_type_id":"4","last_reported":1778664857,"current_range_meters":2800,"station_id":"ce4bhn92rcd13ifvqgrg","pricing_plan_id":"cebpf4jnsgd1na2vs0mg"},{"bike_id":"61195f8c-df5f-4867-8563-8cdbcf8d80ea","system_id":"levelo_inurba_marseille","lat":43.25856,"lon":5.3991,"is_reserved":false,"is_disabled":true,"rental_uris":{"android":"levelo://app?vid=61195f8c-df5f-4867-8563-8cdbcf8d80ea","ios":"levelo://app?vid=61195f8c-df5f-4867-8563-8cdbcf8d80ea"},"vehicle_type_id":"4","last_reported":1778664857,"current_range_meters":3200,"station_id":"ce4bhl92rcd13ifvqghg","pricing_plan_id":"cebpf4jnsgd1na2vs0mg"},{"bike_id":"98e33a06-8a19-47f2-b217-276386fece96","system_id":"levelo_inurba_marseille","lat":43.28624,"lon":5.351,"is_reserved":false,"is_disabled":false,"rental_uris":{"android":"levelo://app?vid=98e33a06-8a19-47f2-b217-276386fece96","ios":"levelo://app?vid=98e33a06-8a19-47f2-b217-276386fece96"},"vehicle_type_id":"4","last_reported":1778664857,"current_range_meters":3200,"station_id":"ce4bhch2rcd13ifvqeug","pricing_plan_id":"cebpf4jnsgd1na2vs0mg"},{"bike_id":"30788785-dbf6-47d2-b2b6-231b5c5d6c76","system_id":"levelo_inurba_marseille","lat":43.29047,"lon":5.39945,"is_reserved":false,"is_disabled":false,"rental_uris":{"android":"levelo://app?vid=30788785-dbf6-47d2-b2b6-231b5c5d6c76","ios":"levelo://app?vid=30788785-dbf6-47d2-b2b6-231b5c5d6c76"},"vehicle_type_id":"4","last_reported":1778664857,"current_range_meters":3200,"station_id":"ce4bh392rcd13ifvqdm0","pricing_plan_id":"cebpf4jnsgd1na2vs0mg"},{"bike_id":"fd04bdd1-20aa-46b1-80b1-9c901b7b3d14","system_id":"levelo_inurba_marseille","lat":43.26696,"lon":5.38264,"is_reserved":false,"is_disabled":false,"rental_uris":{"android":"levelo://app?vid=fd04bdd1-20aa-46b1-80b1-9c901b7b3d14","ios":"levelo://app?vid=fd04bdd1-20aa-46b1-80b1-9c901b7b3d14"},"vehicle_type_id":"4","last_reported":1778664857,"current_range_meters":3200,"station_id":"ce4bhg92rcd13ifvqf90","pricing_plan_id":"cebpf4jnsgd1na2vs0mg"},{"bike_id":"14059eb2-1b3f-4461-b0ee-158772daa7a1","system_id":"levelo_inurba_marseille","lat":43.31268,"lon":5.40146,"is_reserved":false,"is_disabled":false,"rental_uris":{"android":"levelo://app?vid=14059eb2-1b3f-4461-b0ee-158772daa7a1","ios":"levelo://app?vid=14059eb2-1b3f-4461-b0ee-158772daa7a1"},"vehicle_type_id":"4","last_reported":1778664857,"current_range_meters":3200,"station_id":"ce4bh092rcd13ifvqd30","pricing_plan_id":"cebpf4jnsgd1na2vs0mg"},{"bike_id":"f75200eb-c556-489f-9d74-42038266db2e","system_id":"levelo_inurba_marseille","lat":43.29202,"lon":5.39938,"is_reserved":false,"is_disabled":false,"rental_uris":{"android":"levelo://app?vid=f75200eb-c556-489f-9d74-42038266db2e","ios":"levelo://app?vid=f75200eb-c556-489f-9d74-42038266db2e"},"vehicle_type_id":"4","last_reported":1778664857,"current_range_meters":3200,"station_id":"ce4bh312rcd13ifvqdk0","pricing_plan_id":"cebpf4jnsgd1na2vs0mg"},{"bike_id":"cc08138b-40fc-4068-b5f2-bde9c76a7e40","system_id":"levelo_inurba_marseille","lat":43.3415,"lon":5.40921,"is_reserved":false,"is_disabled":true,"rental_uris":{"android":"levelo://app?vid=cc08138b-40fc-4068-b5f2-bde9c76a7e40","ios":"levelo://app?vid=cc08138b-40fc-4068-b5f2-bde9c76a7e40"},"vehicle_type_id":"4","last_reported":1778664857,"current_range_meters":3200,"station_id":"ce4bhqh2rcd13ifvqhlg","pricing_plan_id":"cebpf4jnsgd1na2vs0mg"},{"bike_id":"eb677eee-f281-4292-9c00-ae7e0734e296","system_id":"levelo_inurba_marseille","lat":43.30352,"lon":5.36477,"is_reserved":false,"is_disabled":false,"rental_uris":{"android":"levelo://app?vid=eb677eee-f281-4292-9c00-ae7e0734e296","ios":"levelo://app?vid=eb677eee-f281-4292-9c00-ae7e0734e296"},"vehicle_type_id":"4","last_reported":1778664857,"current_range_meters":3200,"station_id":"","pricing_plan_id":"cebpf4jnsgd1na2vs0mg"},{"bike_id":"07a9b671-4f11-4201-95b6-67d884bae6f1","system_id":"levelo_inurba_marseille","lat":43.25031,"lon":5.4038,"is_reserved":false,"is_disabled":false,"rental_uris":{"android":"levelo://app?vid=07a9b671-4f11-4201-95b6-67d884bae6f1","ios":"levelo://app?vid=07a9b671-4f11-4201-95b6-67d884bae6f1"},"vehicle_type_id":"4","last_reported":1778664857,"current_range_meters":3200,"station_id":"","pricing_plan_id":"cebpf4jnsgd1na2vs0mg"},{"bike_id":"7a983054-b4ad-48ec-914f-f73efd54bddf","system_id":"levelo_inurba_marseille","lat":43.25585,"lon":5.38226,"is_reserved":false,"is_disabled":false,"rental_uris":{"android":"levelo://app?vid=7a983054-b4ad-48ec-914f-f73efd54bddf","ios":"levelo://app?vid=7a983054-b4ad-48ec-914f-f73efd54bddf"},"vehicle_type_id":"4","last_reported":1778664857,"current_range_meters":3600,"station_id":"ce4bhih2rcd13ifvqfs0","pricing_plan_id":"cebpf4jnsgd1na2vs0mg"},{"bike_id":"1fb136bb-3cc6-48f7-af4f-974b5baf2852","system_id":"levelo_inurba_marseille","lat":43.23968,"lon":5.36634,"is_reserved":false,"is_disabled":true,"rental_uris":{"android":"levelo://app?vid=1fb136bb-3cc6-48f7-af4f-974b5baf2852","ios":"levelo://app?vid=1fb136bb-3cc6-48f7-af4f-974b5baf2852"},"vehicle_type_id":"4","last_reported":1778664857,"current_range_meters":3600,"station_id":"ce4bhi12rcd13ifvqfp0","pricing_plan_id":"cebpf4jnsgd1na2vs0mg"},{"bike_id":"7f1d5cfb-fbc0-4ce0-9c39-b9567a5f286a","system_id":"levelo_inurba_marseille","lat":43.30162,"lon":5.38093,"is_reserved":false,"is_disabled":false,"rental_uris":{"android":"levelo://app?vid=7f1d5cfb-fbc0-4ce0-9c39-b9567a5f286a","ios":"levelo://app?vid=7f1d5cfb-fbc0-4ce0-9c39-b9567a5f286a"},"vehicle_type_id":"4","last_reported":1778664857,"current_range_meters":3600,"station_id":"ce4bgjp2rcd13ifvqbh0","pricing_plan_id":"cebpf4jnsgd1na2vs0mg"},{"bike_id":"f1199c7e-7903-4188-bbb9-ee8e51dbcbaf","system_id":"levelo_inurba_marseille","lat":43.24691,"lon":5.38149,"is_reserved":false,"is_disabled":true,"rental_uris":{"android":"levelo://app?vid=f1199c7e-7903-4188-bbb9-ee8e51dbcbaf","ios":"levelo://app?vid=f1199c7e-7903-4188-bbb9-ee8e51dbcbaf"},"vehicle_type_id":"4","last_reported":1778664857,"current_range_meters":3600,"station_id":"ce4bhih2rcd13ifvqfr0","pricing_plan_id":"cebpf4jnsgd1na2vs0mg"},{"bike_id":"a3931dae-05f0-4e1d-8b68-01fdd7d05951","system_id":"levelo_inurba_marseille","lat":43.27456,"lon":5.41613,"is_reserved":false,"is_disabled":true,"rental_uris":{"android":"levelo://app?vid=a3931dae-05f0-4e1d-8b68-01fdd7d05951","ios":"levelo://app?vid=a3931dae-05f0-4e1d-8b68-01fdd7d05951"},"vehicle_type_id":"4","last_reported":1778664857,"current_range_meters":3600,"station_id":"","pricing_plan_id":"cebpf4jnsgd1na2vs0mg"},{"bike_id":"233cb816-c49f-4930-9b49-819604e87773","system_id":"levelo_inurba_marseille","lat":43.25872,"lon":5.39896,"is_reserved":false,"is_disabled":false,"rental_uris":{"android":"levelo://app?vid=233cb816-c49f-4930-9b49-819604e87773","ios":"levelo://app?vid=233cb816-c49f-4930-9b49-819604e87773"},"vehicle_type_id":"4","last_reported":1778664857,"current_range_meters":3600,"station_id":"ce4bhl92rcd13ifvqghg","pricing_plan_id":"cebpf4jnsgd1na2vs0mg"},{"bike_id":"bce85dfd-9b0c-484b-a2f9-c156d6620947","system_id":"levelo_inurba_marseille","lat":43.3052,"lon":5.36555,"is_reserved":false,"is_disabled":true,"rental_uris":{"android":"levelo://app?vid=bce85dfd-9b0c-484b-a2f9-c156d6620947","ios":"levelo://app?vid=bce85dfd-9b0c-484b-a2f9-c156d6620947"},"vehicle_type_id":"4","last_reported":1778664857,"current_range_meters":3600,"station_id":"ce4bgs12rcd13ifvqcag","pricing_plan_id":"cebpf4jnsgd1na2vs0mg"},{"bike_id":"62557ba2-fd37-41d9-b8ba-d0969ce56cc9","system_id":"levelo_inurba_marseille","lat":43.22555,"lon":5.4166,"is_reserved":false,"is_disabled":false,"rental_uris":{"android":"levelo://app?vid=62557ba2-fd37-41d9-b8ba-d0969ce56cc9","ios":"levelo://app?vid=62557ba2-fd37-41d9-b8ba-d0969ce56cc9"},"vehicle_type_id":"4","last_reported":1778664857,"current_range_meters":3600,"station_id":"st_d2o4gvlbi1j2169b742g","pricing_plan_id":"cebpf4jnsgd1na2vs0mg"},{"bike_id":"8f556e0e-50e3-415d-bc0b-bd20df8dcc3e","system_id":"levelo_inurba_marseille","lat":43.22572,"lon":5.41669,"is_reserved":false,"is_disabled":false,"rental_uris":{"android":"levelo://app?vid=8f556e0e-50e3-415d-bc0b-bd20df8dcc3e","ios":"levelo://app?vid=8f556e0e-50e3-415d-bc0b-bd20df8dcc3e"},"vehicle_type_id":"4","last_reported":1778664857,"current_range_meters":3600,"station_id":"st_d2o4gvlbi1j2169b742g","pricing_plan_id":"cebpf4jnsgd1na2vs0mg"},{"bike_id":"e3e6a269-338b-482e-8c7f-7dca167d167b","system_id":"levelo_inurba_marseille","lat":43.27496,"lon":5.41585,"is_reserved":false,"is_disabled":true,"rental_uris":{"android":"levelo://app?vid=e3e6a269-338b-482e-8c7f-7dca167d167b","ios":"levelo://app?vid=e3e6a269-338b-482e-8c7f-7dca167d167b"},"vehicle_type_id":"4","last_reported":1778664857,"current_range_meters":3600,"station_id":"st_d6im8g6chgec73a5pndg","pricing_plan_id":"cebpf4jnsgd1na2vs0mg"},{"bike_id":"86660d9c-47a1-454c-bf17-c1141faf0fe4","system_id":"levelo_inurba_marseille","lat":43.2508,"lon":5.39519,"is_reserved":false,"is_disabled":false,"rental_uris":{"android":"levelo://app?vid=86660d9c-47a1-454c-bf17-c1141faf0fe4","ios":"levelo://app?vid=86660d9c-47a1-454c-bf17-c1141faf0fe4"},"vehicle_type_id":"4","last_reported":1778664857,"current_range_meters":4000,"station_id":"","pricing_plan_id":"cebpf4jnsgd1na2vs0mg"},{"bike_id":"0d5a6d54-dad4-453d-9b1a-d94782ee22c6","system_id":"levelo_inurba_marseille","lat":43.32345,"lon":5.36544,"is_reserved":false,"is_disabled":false,"rental_uris":{"android":"levelo://app?vid=0d5a6d54-dad4-453d-9b1a-d94782ee22c6","ios":"levelo://app?vid=0d5a6d54-dad4-453d-9b1a-d94782ee22c6"},"vehicle_type_id":"4","last_reported":1778664857,"current_range_meters":4000,"station_id":"","pricing_plan_id":"cebpf4jnsgd1na2vs0mg"},{"bike_id":"3a158640-dfa3-4b8e-8387-6193d0551a8c","system_id":"levelo_inurba_marseille","lat":43.31272,"lon":5.40159,"is_reserved":false,"is_disabled":false,"rental_uris":{"android":"levelo://app?vid=3a158640-dfa3-4b8e-8387-6193d0551a8c","ios":"levelo://app?vid=3a158640-dfa3-4b8e-8387-6193d0551a8c"},"vehicle_type_id":"4","last_reported":1778664857,"current_range_meters":4000,"station_id":"ce4bh092rcd13ifvqd30","pricing_plan_id":"cebpf4jnsgd1na2vs0mg"},{"bike_id":"b0351153-fdea-4d61-9458-346bc5cdc270","system_id":"levelo_inurba_marseille","lat":43.24802,"lon":5.37455,"is_reserved":false,"is_disabled":false,"rental_uris":{"android":"levelo://app?vid=b0351153-fdea-4d61-9458-346bc5cdc270","ios":"levelo://app?vid=b0351153-fdea-4d61-9458-346bc5cdc270"},"vehicle_type_id":"4","last_reported":1778664857,"current_range_meters":4000,"station_id":"","pricing_plan_id":"cebpf4jnsgd1na2vs0mg"},{"bike_id":"f71a30cb-adc7-43c3-b0fc-e042674eef88","system_id":"levelo_inurba_marseille","lat":43.27336,"lon":5.39067,"is_reserved":false,"is_disabled":false,"rental_uris":{"android":"levelo://app?vid=f71a30cb-adc7-43c3-b0fc-e042674eef88","ios":"levelo://app?vid=f71a30cb-adc7-43c3-b0fc-e042674eef88"},"vehicle_type_id":"4","last_reported":1778664857,"current_range_meters":4000,"station_id":"ce4bhgp2rcd13ifvqfe0","pricing_plan_id":"cebpf4jnsgd1na2vs0mg"},{"bike_id":"95552473-a32b-49e5-a6c9-92815a2ac96e","system_id":"levelo_inurba_marseille","lat":43.32807,"lon":5.42594,"is_reserved":false,"is_disabled":false,"rental_uris":{"android":"levelo://app?vid=95552473-a32b-49e5-a6c9-92815a2ac96e","ios":"levelo://app?vid=95552473-a32b-49e5-a6c9-92815a2ac96e"},"vehicle_type_id":"4","last_reported":1778664857,"current_range_meters":4000,"station_id":"","pricing_plan_id":"cebpf4jnsgd1na2vs0mg"},{"bike_id":"c7700d10-cf1e-4f03-9c2a-73bf22b4f19c","system_id":"levelo_inurba_marseille","lat":43.29106,"lon":5.37174,"is_reserved":false,"is_disabled":false,"rental_uris":{"android":"levelo://app?vid=c7700d10-cf1e-4f03-9c2a-73bf22b4f19c","ios":"levelo://app?vid=c7700d10-cf1e-4f03-9c2a-73bf22b4f19c"},"vehicle_type_id":"4","last_reported":1778664857,"current_range_meters":4000,"station_id":"ce4bh5p2rcd13ifvqe4g","pricing_plan_id":"cebpf4jnsgd1na2vs0mg"},{"bike_id":"46010e51-ffcf-494e-8734-a0917c32a663","system_id":"levelo_inurba_marseille","lat":43.232,"lon":5.35543,"is_reserved":false,"is_disabled":false,"rental_uris":{"android":"levelo://app?vid=46010e51-ffcf-494e-8734-a0917c32a663","ios":"levelo://app?vid=46010e51-ffcf-494e-8734-a0917c32a663"},"vehicle_type_id":"4","last_reported":1778664857,"current_range_meters":4000,"station_id":"ce4bhu92rcd13ifvqi70","pricing_plan_id":"cebpf4jnsgd1na2vs0mg"},{"bike_id":"43180f35-5ecd-4dfc-a0a7-efefb4ab5065","system_id":"levelo_inurba_marseille","lat":43.29839,"lon":5.36267,"is_reserved":false,"is_disabled":false,"rental_uris":{"android":"levelo://app?vid=43180f35-5ecd-4dfc-a0a7-efefb4ab5065","ios":"levelo://app?vid=43180f35-5ecd-4dfc-a0a7-efefb4ab5065"},"vehicle_type_id":"4","last_reported":1778664857,"current_range_meters":4000,"station_id":"ce4bgpp2rcd13ifvqc3g","pricing_plan_id":"cebpf4jnsgd1na2vs0mg"},{"bike_id":"cfed0df2-be15-4135-9661-5cac57a11ae3","system_id":"levelo_inurba_marseille","lat":43.26992,"lon":5.40197,"is_reserved":false,"is_disabled":false,"rental_uris":{"android":"levelo://app?vid=cfed0df2-be15-4135-9661-5cac57a11ae3","ios":"levelo://app?vid=cfed0df2-be15-4135-9661-5cac57a11ae3"},"vehicle_type_id":"4","last_reported":1778664857,"current_range_meters":4400,"station_id":"cjm6bp8fraef2m0cb0m0","pricing_plan_id":"cebpf4jnsgd1na2vs0mg"},{"bike_id":"d1e625f4-f7a3-447e-9d9b-d52dfc59b3ee","system_id":"levelo_inurba_marseille","lat":43.29036,"lon":5.40092,"is_reserved":false,"is_disabled":false,"rental_uris":{"android":"levelo://app?vid=d1e625f4-f7a3-447e-9d9b-d52dfc59b3ee","ios":"levelo://app?vid=d1e625f4-f7a3-447e-9d9b-d52dfc59b3ee"},"vehicle_type_id":"4","last_reported":1778664857,"current_range_meters":4400,"station_id":"","pricing_plan_id":"cebpf4jnsgd1na2vs0mg"},{"bike_id":"639d75a3-764c-429d-8cb7-c5ba63c9f251","system_id":"levelo_inurba_marseille","lat":43.279486,"lon":5.387496,"is_reserved":false,"is_disabled":false,"rental_uris":{"android":"levelo://app?vid=639d75a3-764c-429d-8cb7-c5ba63c9f251","ios":"levelo://app?vid=639d75a3-764c-429d-8cb7-c5ba63c9f251"},"vehicle_type_id":"4","last_reported":1778664857,"current_range_meters":4400,"station_id":"ce4bhg12rcd13ifvqf80","pricing_plan_id":"cebpf4jnsgd1na2vs0mg"},{"bike_id":"a574ab55-d4b6-4739-bb71-86a8375e1e9c","system_id":"levelo_inurba_marseille","lat":43.27833,"lon":5.40718,"is_reserved":false,"is_disabled":false,"rental_uris":{"android":"levelo://app?vid=a574ab55-d4b6-4739-bb71-86a8375e1e9c","ios":"levelo://app?vid=a574ab55-d4b6-4739-bb71-86a8375e1e9c"},"vehicle_type_id":"4","last_reported":1778664857,"current_range_meters":4400,"station_id":"ce4bhnh2rcd13ifvqgtg","pricing_plan_id":"cebpf4jnsgd1na2vs0mg"},{"bike_id":"9ae1fd98-8217-4d60-87a1-7fc161ff2160","system_id":"levelo_inurba_marseille","lat":43.2921,"lon":5.39338,"is_reserved":false,"is_disabled":false,"rental_uris":{"android":"levelo://app?vid=9ae1fd98-8217-4d60-87a1-7fc161ff2160","ios":"levelo://app?vid=9ae1fd98-8217-4d60-87a1-7fc161ff2160"},"vehicle_type_id":"4","last_reported":1778664857,"current_range_meters":4400,"station_id":"ce4bh192rcd13ifvqdd0","pricing_plan_id":"cebpf4jnsgd1na2vs0mg"},{"bike_id":"388c7ba8-9cf7-4861-97b3-e1c98c427f30","system_id":"levelo_inurba_marseille","lat":43.250857,"lon":5.395276,"is_reserved":false,"is_disabled":false,"rental_uris":{"android":"levelo://app?vid=388c7ba8-9cf7-4861-97b3-e1c98c427f30","ios":"levelo://app?vid=388c7ba8-9cf7-4861-97b3-e1c98c427f30"},"vehicle_type_id":"4","last_reported":1778664857,"current_range_meters":4400,"station_id":"ce4bhm12rcd13ifvqgkg","pricing_plan_id":"cebpf4jnsgd1na2vs0mg"},{"bike_id":"95aeb85c-cda5-4c76-841d-5978f9d16c4b","system_id":"levelo_inurba_marseille","lat":43.25572,"lon":5.38257,"is_reserved":false,"is_disabled":false,"rental_uris":{"android":"levelo://app?vid=95aeb85c-cda5-4c76-841d-5978f9d16c4b","ios":"levelo://app?vid=95aeb85c-cda5-4c76-841d-5978f9d16c4b"},"vehicle_type_id":"4","last_reported":1778664857,"current_range_meters":4400,"station_id":"ce4bhih2rcd13ifvqfs0","pricing_plan_id":"cebpf4jnsgd1na2vs0mg"},{"bike_id":"c3021119-4b32-42df-bd95-0b2db4d6afc2","system_id":"levelo_inurba_marseille","lat":43.29574,"lon":5.37493,"is_reserved":false,"is_disabled":false,"rental_uris":{"android":"levelo://app?vid=c3021119-4b32-42df-bd95-0b2db4d6afc2","ios":"levelo://app?vid=c3021119-4b32-42df-bd95-0b2db4d6afc2"},"vehicle_type_id":"4","last_reported":1778664857,"current_range_meters":4400,"station_id":"ce4bgh92rcd13ifvqb50","pricing_plan_id":"cebpf4jnsgd1na2vs0mg"},{"bike_id":"58728e3e-a3ce-42c2-820f-3e8a4c54b161","system_id":"levelo_inurba_marseille","lat":43.31213,"lon":5.36832,"is_reserved":false,"is_disabled":false,"rental_uris":{"android":"levelo://app?vid=58728e3e-a3ce-42c2-820f-3e8a4c54b161","ios":"levelo://app?vid=58728e3e-a3ce-42c2-820f-3e8a4c54b161"},"vehicle_type_id":"4","last_reported":1778664857,"current_range_meters":4400,"station_id":"ce4bgl92rcd13ifvqbq0","pricing_plan_id":"cebpf4jnsgd1na2vs0mg"},{"bike_id":"0f1807cc-9d93-4021-8b9a-9457f4117b8b","system_id":"levelo_inurba_marseille","lat":43.32094,"lon":5.36736,"is_reserved":false,"is_disabled":false,"rental_uris":{"android":"levelo://app?vid=0f1807cc-9d93-4021-8b9a-9457f4117b8b","ios":"levelo://app?vid=0f1807cc-9d93-4021-8b9a-9457f4117b8b"},"vehicle_type_id":"4","last_reported":1778664857,"current_range_meters":4800,"station_id":"ce4bhrh2rcd13ifvqhug","pricing_plan_id":"cebpf4jnsgd1na2vs0mg"},{"bike_id":"38af37c3-677c-4bc7-98d5-73f73fdc11fc","system_id":"levelo_inurba_marseille","lat":43.28148,"lon":5.42644,"is_reserved":false,"is_disabled":false,"rental_uris":{"android":"levelo://app?vid=38af37c3-677c-4bc7-98d5-73f73fdc11fc","ios":"levelo://app?vid=38af37c3-677c-4bc7-98d5-73f73fdc11fc"},"vehicle_type_id":"4","last_reported":1778664857,"current_range_meters":4800,"station_id":"ce4bhnh2rcd13ifvqgug","pricing_plan_id":"cebpf4jnsgd1na2vs0mg"},{"bike_id":"55ee0100-d330-4bf8-9a6d-3de5f6c8c292","system_id":"levelo_inurba_marseille","lat":43.337444,"lon":5.374475,"is_reserved":false,"is_disabled":false,"rental_uris":{"android":"levelo://app?vid=55ee0100-d330-4bf8-9a6d-3de5f6c8c292","ios":"levelo://app?vid=55ee0100-d330-4bf8-9a6d-3de5f6c8c292"},"vehicle_type_id":"4","last_reported":1778664857,"current_range_meters":4800,"station_id":"ce4bhbp2rcd13ifvqesg","pricing_plan_id":"cebpf4jnsgd1na2vs0mg"},{"bike_id":"c8b7cde2-e1ca-4365-ba07-d7284a4263e0","system_id":"levelo_inurba_marseille","lat":43.29134,"lon":5.38079,"is_reserved":false,"is_disabled":false,"rental_uris":{"android":"levelo://app?vid=c8b7cde2-e1ca-4365-ba07-d7284a4263e0","ios":"levelo://app?vid=c8b7cde2-e1ca-4365-ba07-d7284a4263e0"},"vehicle_type_id":"4","last_reported":1778664857,"current_range_meters":4800,"station_id":"","pricing_plan_id":"cebpf4jnsgd1na2vs0mg"},{"bike_id":"211cea86-71fd-43ef-9b6e-844e35d10a69","system_id":"levelo_inurba_marseille","lat":43.26197,"lon":5.37476,"is_reserved":false,"is_disabled":true,"rental_uris":{"android":"levelo://app?vid=211cea86-71fd-43ef-9b6e-844e35d10a69","ios":"levelo://app?vid=211cea86-71fd-43ef-9b6e-844e35d10a69"},"vehicle_type_id":"4","last_reported":1778664857,"current_range_meters":4800,"station_id":"ce4bhgp2rcd13ifvqfc0","pricing_plan_id":"cebpf4jnsgd1na2vs0mg"},{"bike_id":"4886c252-2728-4a7b-8055-7bc754291d67","system_id":"levelo_inurba_marseille","lat":43.26182,"lon":5.4039,"is_reserved":false,"is_disabled":false,"rental_uris":{"android":"levelo://app?vid=4886c252-2728-4a7b-8055-7bc754291d67","ios":"levelo://app?vid=4886c252-2728-4a7b-8055-7bc754291d67"},"vehicle_type_id":"4","last_reported":1778664857,"current_range_meters":5600,"station_id":"","pricing_plan_id":"cebpf4jnsgd1na2vs0mg"},{"bike_id":"8f977c3b-162f-41ba-a59e-68f228fee342","system_id":"levelo_inurba_marseille","lat":43.28334,"lon":5.38622,"is_reserved":false,"is_disabled":false,"rental_uris":{"android":"levelo://app?vid=8f977c3b-162f-41ba-a59e-68f228fee342","ios":"levelo://app?vid=8f977c3b-162f-41ba-a59e-68f228fee342"},"vehicle_type_id":"4","last_reported":1778664857,"current_range_meters":5600,"station_id":"ce4bh492rcd13ifvqdvg","pricing_plan_id":"cebpf4jnsgd1na2vs0mg"},{"bike_id":"5dad8fcc-18e7-444c-8e85-4fee754bb0c0","system_id":"levelo_inurba_marseille","lat":43.244652,"lon":5.425349,"is_reserved":false,"is_disabled":false,"rental_uris":{"android":"levelo://app?vid=5dad8fcc-18e7-444c-8e85-4fee754bb0c0","ios":"levelo://app?vid=5dad8fcc-18e7-444c-8e85-4fee754bb0c0"},"vehicle_type_id":"4","last_reported":1778664857,"current_range_meters":5600,"station_id":"st_d4a3vfp97mjs738cd8kg","pricing_plan_id":"cebpf4jnsgd1na2vs0mg"},{"bike_id":"4aad697a-91b2-4fed-aee3-9939aca7631b","system_id":"levelo_inurba_marseille","lat":43.3134,"lon":5.37918,"is_reserved":false,"is_disabled":false,"rental_uris":{"android":"levelo://app?vid=4aad697a-91b2-4fed-aee3-9939aca7631b","ios":"levelo://app?vid=4aad697a-91b2-4fed-aee3-9939aca7631b"},"vehicle_type_id":"4","last_reported":1778664857,"current_range_meters":5600,"station_id":"","pricing_plan_id":"cebpf4jnsgd1na2vs0mg"},{"bike_id":"c57b9d8b-726c-424e-a5d4-cee105e1ed0e","system_id":"levelo_inurba_marseille","lat":43.26199,"lon":5.37914,"is_reserved":false,"is_disabled":false,"rental_uris":{"android":"levelo://app?vid=c57b9d8b-726c-424e-a5d4-cee105e1ed0e","ios":"levelo://app?vid=c57b9d8b-726c-424e-a5d4-cee105e1ed0e"},"vehicle_type_id":"4","last_reported":1778664857,"current_range_meters":5600,"station_id":"ce4bhjp2rcd13ifvqg90","pricing_plan_id":"cebpf4jnsgd1na2vs0mg"},{"bike_id":"c2a550eb-2fed-4bf8-b049-2c6eca7d91b8","system_id":"levelo_inurba_marseille","lat":43.25577,"lon":5.38233,"is_reserved":false,"is_disabled":false,"rental_uris":{"android":"levelo://app?vid=c2a550eb-2fed-4bf8-b049-2c6eca7d91b8","ios":"levelo://app?vid=c2a550eb-2fed-4bf8-b049-2c6eca7d91b8"},"vehicle_type_id":"4","last_reported":1778664857,"current_range_meters":5600,"station_id":"ce4bhih2rcd13ifvqfs0","pricing_plan_id":"cebpf4jnsgd1na2vs0mg"},{"bike_id":"f4a9f1cb-0b8b-40b5-9761-bed01b208aa9","system_id":"levelo_inurba_marseille","lat":43.27568,"lon":5.38416,"is_reserved":false,"is_disabled":true,"rental_uris":{"android":"levelo://app?vid=f4a9f1cb-0b8b-40b5-9761-bed01b208aa9","ios":"levelo://app?vid=f4a9f1cb-0b8b-40b5-9761-bed01b208aa9"},"vehicle_type_id":"4","last_reported":1778664857,"current_range_meters":5600,"station_id":"ce4bhh92rcd13ifvqfi0","pricing_plan_id":"cebpf4jnsgd1na2vs0mg"},{"bike_id":"909a3346-ee77-4d0b-a01a-ae6b3f12ca3a","system_id":"levelo_inurba_marseille","lat":43.31266,"lon":5.3684,"is_reserved":false,"is_disabled":false,"rental_uris":{"android":"levelo://app?vid=909a3346-ee77-4d0b-a01a-ae6b3f12ca3a","ios":"levelo://app?vid=909a3346-ee77-4d0b-a01a-ae6b3f12ca3a"},"vehicle_type_id":"4","last_reported":1778664857,"current_range_meters":5600,"station_id":"ce4bgl92rcd13ifvqbq0","pricing_plan_id":"cebpf4jnsgd1na2vs0mg"},{"bike_id":"cc593382-becd-4e35-8cc2-2843070565d5","system_id":"levelo_inurba_marseille","lat":43.272031,"lon":5.391905,"is_reserved":false,"is_disabled":true,"rental_uris":{"android":"levelo://app?vid=cc593382-becd-4e35-8cc2-2843070565d5","ios":"levelo://app?vid=cc593382-becd-4e35-8cc2-2843070565d5"},"vehicle_type_id":"4","last_reported":1778664857,"current_range_meters":5600,"station_id":"ce4bhhp2rcd13ifvqfm0","pricing_plan_id":"cebpf4jnsgd1na2vs0mg"},{"bike_id":"00f9e8e9-a796-4063-972a-6a13a52bcfd2","system_id":"levelo_inurba_marseille","lat":43.28661,"lon":5.36257,"is_reserved":false,"is_disabled":false,"rental_uris":{"android":"levelo://app?vid=00f9e8e9-a796-4063-972a-6a13a52bcfd2","ios":"levelo://app?vid=00f9e8e9-a796-4063-972a-6a13a52bcfd2"},"vehicle_type_id":"4","last_reported":1778664857,"current_range_meters":5600,"station_id":"","pricing_plan_id":"cebpf4jnsgd1na2vs0mg"},{"bike_id":"795e65b9-e1e4-44a5-9b1a-3e7ee52cf27a","system_id":"levelo_inurba_marseille","lat":43.31315,"lon":5.36739,"is_reserved":false,"is_disabled":false,"rental_uris":{"android":"levelo://app?vid=795e65b9-e1e4-44a5-9b1a-3e7ee52cf27a","ios":"levelo://app?vid=795e65b9-e1e4-44a5-9b1a-3e7ee52cf27a"},"vehicle_type_id":"4","last_reported":1778664857,"current_range_meters":5600,"station_id":"ce4bgr92rcd13ifvqc6g","pricing_plan_id":"cebpf4jnsgd1na2vs0mg"},{"bike_id":"acf64364-1e73-4424-ba3a-28bea65d0dc5","system_id":"levelo_inurba_marseille","lat":43.30582,"lon":5.36703,"is_reserved":false,"is_disabled":false,"rental_uris":{"android":"levelo://app?vid=acf64364-1e73-4424-ba3a-28bea65d0dc5","ios":"levelo://app?vid=acf64364-1e73-4424-ba3a-28bea65d0dc5"},"vehicle_type_id":"4","last_reported":1778664857,"current_range_meters":5600,"station_id":"ce4bgrp2rcd13ifvqc9g","pricing_plan_id":"cebpf4jnsgd1na2vs0mg"},{"bike_id":"d81f348a-5a0d-4a29-b6c6-358f9d732682","system_id":"levelo_inurba_marseille","lat":43.26057,"lon":5.37535,"is_reserved":false,"is_disabled":false,"rental_uris":{"android":"levelo://app?vid=d81f348a-5a0d-4a29-b6c6-358f9d732682","ios":"levelo://app?vid=d81f348a-5a0d-4a29-b6c6-358f9d732682"},"vehicle_type_id":"4","last_reported":1778664857,"current_range_meters":6000,"station_id":"ce4bhgh2rcd13ifvqfa0","pricing_plan_id":"cebpf4jnsgd1na2vs0mg"},{"bike_id":"633fbf69-4225-4a51-9b0b-1f076da2ce63","system_id":"levelo_inurba_marseille","lat":43.313585,"lon":5.384738,"is_reserved":false,"is_disabled":false,"rental_uris":{"android":"levelo://app?vid=633fbf69-4225-4a51-9b0b-1f076da2ce63","ios":"levelo://app?vid=633fbf69-4225-4a51-9b0b-1f076da2ce63"},"vehicle_type_id":"4","last_reported":1778664857,"current_range_meters":6000,"station_id":"ce4bgt92rcd13ifvqcf0","pricing_plan_id":"cebpf4jnsgd1na2vs0mg"},{"bike_id":"d257960a-edb4-4348-90b0-b5fd8baf1634","system_id":"levelo_inurba_marseille","lat":43.31722,"lon":5.37733,"is_reserved":false,"is_disabled":true,"rental_uris":{"android":"levelo://app?vid=d257960a-edb4-4348-90b0-b5fd8baf1634","ios":"levelo://app?vid=d257960a-edb4-4348-90b0-b5fd8baf1634"},"vehicle_type_id":"4","last_reported":1778664857,"current_range_meters":6000,"station_id":"ce4bgth2rcd13ifvqch0","pricing_plan_id":"cebpf4jnsgd1na2vs0mg"},{"bike_id":"fac0f716-e981-4885-b34b-03ae397335f5","system_id":"levelo_inurba_marseille","lat":43.29926,"lon":5.37451,"is_reserved":false,"is_disabled":false,"rental_uris":{"android":"levelo://app?vid=fac0f716-e981-4885-b34b-03ae397335f5","ios":"levelo://app?vid=fac0f716-e981-4885-b34b-03ae397335f5"},"vehicle_type_id":"4","last_reported":1778664857,"current_range_meters":6000,"station_id":"ce4bgjh2rcd13ifvqbg0","pricing_plan_id":"cebpf4jnsgd1na2vs0mg"},{"bike_id":"73f702fb-dd5a-471c-90cc-142501c193f7","system_id":"levelo_inurba_marseille","lat":43.28704,"lon":5.46682,"is_reserved":false,"is_disabled":false,"rental_uris":{"android":"levelo://app?vid=73f702fb-dd5a-471c-90cc-142501c193f7","ios":"levelo://app?vid=73f702fb-dd5a-471c-90cc-142501c193f7"},"vehicle_type_id":"4","last_reported":1778664857,"current_range_meters":6000,"station_id":"st_d6tc3vkotcvc738tfjhg","pricing_plan_id":"cebpf4jnsgd1na2vs0mg"},{"bike_id":"acdc7f9f-c208-4d71-8aab-07abf62efdc3","system_id":"levelo_inurba_marseille","lat":43.33761,"lon":5.37453,"is_reserved":false,"is_disabled":false,"rental_uris":{"android":"levelo://app?vid=acdc7f9f-c208-4d71-8aab-07abf62efdc3","ios":"levelo://app?vid=acdc7f9f-c208-4d71-8aab-07abf62efdc3"},"vehicle_type_id":"4","last_reported":1778664857,"current_range_meters":6400,"station_id":"","pricing_plan_id":"cebpf4jnsgd1na2vs0mg"},{"bike_id":"337e5d15-9f6d-40f1-b4d5-6db4068e7fee","system_id":"levelo_inurba_marseille","lat":43.3017,"lon":5.36824,"is_reserved":false,"is_disabled":false,"rental_uris":{"android":"levelo://app?vid=337e5d15-9f6d-40f1-b4d5-6db4068e7fee","ios":"levelo://app?vid=337e5d15-9f6d-40f1-b4d5-6db4068e7fee"},"vehicle_type_id":"4","last_reported":1778664857,"current_range_meters":6400,"station_id":"","pricing_plan_id":"cebpf4jnsgd1na2vs0mg"},{"bike_id":"be516926-fe12-4374-9b96-0a5d95fc4532","system_id":"levelo_inurba_marseille","lat":43.225323,"lon":5.348352,"is_reserved":false,"is_disabled":false,"rental_uris":{"android":"levelo://app?vid=be516926-fe12-4374-9b96-0a5d95fc4532","ios":"levelo://app?vid=be516926-fe12-4374-9b96-0a5d95fc4532"},"vehicle_type_id":"4","last_reported":1778664857,"current_range_meters":6400,"station_id":"st_cvj5dfep6f1abm77gieg","pricing_plan_id":"cebpf4jnsgd1na2vs0mg"},{"bike_id":"4128c085-91aa-48ea-963c-55c07880f562","system_id":"levelo_inurba_marseille","lat":43.23198,"lon":5.35549,"is_reserved":false,"is_disabled":false,"rental_uris":{"android":"levelo://app?vid=4128c085-91aa-48ea-963c-55c07880f562","ios":"levelo://app?vid=4128c085-91aa-48ea-963c-55c07880f562"},"vehicle_type_id":"4","last_reported":1778664857,"current_range_meters":6400,"station_id":"ce4bhu92rcd13ifvqi70","pricing_plan_id":"cebpf4jnsgd1na2vs0mg"},{"bike_id":"2aaf8d3d-dddc-4659-85e7-34b3b97fa5bc","system_id":"levelo_inurba_marseille","lat":43.21177,"lon":5.35088,"is_reserved":false,"is_disabled":false,"rental_uris":{"android":"levelo://app?vid=2aaf8d3d-dddc-4659-85e7-34b3b97fa5bc","ios":"levelo://app?vid=2aaf8d3d-dddc-4659-85e7-34b3b97fa5bc"},"vehicle_type_id":"4","last_reported":1778664857,"current_range_meters":6400,"station_id":"st_cvj6sg6p6f1abm77japg","pricing_plan_id":"cebpf4jnsgd1na2vs0mg"},{"bike_id":"643f36f9-849c-4eef-8fe4-94dc726974d3","system_id":"levelo_inurba_marseille","lat":43.279394,"lon":5.410475,"is_reserved":false,"is_disabled":false,"rental_uris":{"android":"levelo://app?vid=643f36f9-849c-4eef-8fe4-94dc726974d3","ios":"levelo://app?vid=643f36f9-849c-4eef-8fe4-94dc726974d3"},"vehicle_type_id":"4","last_reported":1778664857,"current_range_meters":6400,"station_id":"ce4bhnp2rcd13ifvqh0g","pricing_plan_id":"cebpf4jnsgd1na2vs0mg"},{"bike_id":"cc1e7d1d-8e08-4cb0-abe6-68871391d997","system_id":"levelo_inurba_marseille","lat":43.291,"lon":5.38041,"is_reserved":false,"is_disabled":false,"rental_uris":{"android":"levelo://app?vid=cc1e7d1d-8e08-4cb0-abe6-68871391d997","ios":"levelo://app?vid=cc1e7d1d-8e08-4cb0-abe6-68871391d997"},"vehicle_type_id":"4","last_reported":1778664857,"current_range_meters":6400,"station_id":"","pricing_plan_id":"cebpf4jnsgd1na2vs0mg"},{"bike_id":"f96c72da-1adc-427e-a4c0-30afefc40d90","system_id":"levelo_inurba_marseille","lat":43.28527,"lon":5.44096,"is_reserved":false,"is_disabled":true,"rental_uris":{"android":"levelo://app?vid=f96c72da-1adc-427e-a4c0-30afefc40d90","ios":"levelo://app?vid=f96c72da-1adc-427e-a4c0-30afefc40d90"},"vehicle_type_id":"4","last_reported":1778664857,"current_range_meters":6400,"station_id":"st_d3j3df2ikq2c7380ej80","pricing_plan_id":"cebpf4jnsgd1na2vs0mg"},{"bike_id":"4fcdd0b8-6876-4b21-aed4-31476d3bff53","system_id":"levelo_inurba_marseille","lat":43.33164,"lon":5.37683,"is_reserved":false,"is_disabled":false,"rental_uris":{"android":"levelo://app?vid=4fcdd0b8-6876-4b21-aed4-31476d3bff53","ios":"levelo://app?vid=4fcdd0b8-6876-4b21-aed4-31476d3bff53"},"vehicle_type_id":"4","last_reported":1778664857,"current_range_meters":6400,"station_id":"st_d46cu089ee8s73dldbu0","pricing_plan_id":"cebpf4jnsgd1na2vs0mg"},{"bike_id":"8ea1bf07-5e96-4c95-b20d-081d8a256532","system_id":"levelo_inurba_marseille","lat":43.29913,"lon":5.381497,"is_reserved":false,"is_disabled":false,"rental_uris":{"android":"levelo://app?vid=8ea1bf07-5e96-4c95-b20d-081d8a256532","ios":"levelo://app?vid=8ea1bf07-5e96-4c95-b20d-081d8a256532"},"vehicle_type_id":"4","last_reported":1778664857,"current_range_meters":6400,"station_id":"ce4bgj12rcd13ifvqbc0","pricing_plan_id":"cebpf4jnsgd1na2vs0mg"},{"bike_id":"7d495a91-4757-4bd7-b72f-ad237a9371f1","system_id":"levelo_inurba_marseille","lat":43.21169,"lon":5.35065,"is_reserved":false,"is_disabled":false,"rental_uris":{"android":"levelo://app?vid=7d495a91-4757-4bd7-b72f-ad237a9371f1","ios":"levelo://app?vid=7d495a91-4757-4bd7-b72f-ad237a9371f1"},"vehicle_type_id":"4","last_reported":1778664857,"current_range_meters":6400,"station_id":"st_cvj6sg6p6f1abm77japg","pricing_plan_id":"cebpf4jnsgd1na2vs0mg"},{"bike_id":"d9595856-f6af-4f93-8cc9-f464c6231b4d","system_id":"levelo_inurba_marseille","lat":43.30949,"lon":5.39025,"is_reserved":false,"is_disabled":false,"rental_uris":{"android":"levelo://app?vid=d9595856-f6af-4f93-8cc9-f464c6231b4d","ios":"levelo://app?vid=d9595856-f6af-4f93-8cc9-f464c6231b4d"},"vehicle_type_id":"4","last_reported":1778664857,"current_range_meters":6400,"station_id":"ce4bgup2rcd13ifvqco0","pricing_plan_id":"cebpf4jnsgd1na2vs0mg"},{"bike_id":"19e877fd-e015-4a86-8008-1a0d333eea65","system_id":"levelo_inurba_marseille","lat":43.33644,"lon":5.37181,"is_reserved":false,"is_disabled":false,"rental_uris":{"android":"levelo://app?vid=19e877fd-e015-4a86-8008-1a0d333eea65","ios":"levelo://app?vid=19e877fd-e015-4a86-8008-1a0d333eea65"},"vehicle_type_id":"4","last_reported":1778664857,"current_range_meters":6800,"station_id":"","pricing_plan_id":"cebpf4jnsgd1na2vs0mg"},{"bike_id":"2aad52d5-6a56-4a4d-b89e-2cdd466252cd","system_id":"levelo_inurba_marseille","lat":43.28812,"lon":5.40127,"is_reserved":false,"is_disabled":true,"rental_uris":{"android":"levelo://app?vid=2aad52d5-6a56-4a4d-b89e-2cdd466252cd","ios":"levelo://app?vid=2aad52d5-6a56-4a4d-b89e-2cdd466252cd"},"vehicle_type_id":"4","last_reported":1778664857,"current_range_meters":6800,"station_id":"","pricing_plan_id":"cebpf4jnsgd1na2vs0mg"},{"bike_id":"3e8f476a-2f44-402a-b9a8-f5eaa220c28f","system_id":"levelo_inurba_marseille","lat":43.27327,"lon":5.39099,"is_reserved":false,"is_disabled":false,"rental_uris":{"android":"levelo://app?vid=3e8f476a-2f44-402a-b9a8-f5eaa220c28f","ios":"levelo://app?vid=3e8f476a-2f44-402a-b9a8-f5eaa220c28f"},"vehicle_type_id":"4","last_reported":1778664857,"current_range_meters":6800,"station_id":"ce4bhgp2rcd13ifvqfe0","pricing_plan_id":"cebpf4jnsgd1na2vs0mg"},{"bike_id":"cc35d2bb-6d25-489d-94f5-d5160311de4c","system_id":"levelo_inurba_marseille","lat":43.288594,"lon":5.425146,"is_reserved":false,"is_disabled":true,"rental_uris":{"android":"levelo://app?vid=cc35d2bb-6d25-489d-94f5-d5160311de4c","ios":"levelo://app?vid=cc35d2bb-6d25-489d-94f5-d5160311de4c"},"vehicle_type_id":"4","last_reported":1778664857,"current_range_meters":6800,"station_id":"","pricing_plan_id":"cebpf4jnsgd1na2vs0mg"},{"bike_id":"1ae3456e-4feb-4e6e-b875-003634ca9869","system_id":"levelo_inurba_marseille","lat":43.30536,"lon":5.36525,"is_reserved":false,"is_disabled":false,"rental_uris":{"android":"levelo://app?vid=1ae3456e-4feb-4e6e-b875-003634ca9869","ios":"levelo://app?vid=1ae3456e-4feb-4e6e-b875-003634ca9869"},"vehicle_type_id":"4","last_reported":1778664857,"current_range_meters":6800,"station_id":"ce4bgs12rcd13ifvqcag","pricing_plan_id":"cebpf4jnsgd1na2vs0mg"},{"bike_id":"924c7b02-e21c-4947-adb6-7efece53a228","system_id":"levelo_inurba_marseille","lat":43.23139,"lon":5.43704,"is_reserved":false,"is_disabled":false,"rental_uris":{"android":"levelo://app?vid=924c7b02-e21c-4947-adb6-7efece53a228","ios":"levelo://app?vid=924c7b02-e21c-4947-adb6-7efece53a228"},"vehicle_type_id":"4","last_reported":1778664857,"current_range_meters":6800,"station_id":"ce4bhmp2rcd13ifvqgog","pricing_plan_id":"cebpf4jnsgd1na2vs0mg"},{"bike_id":"08682feb-2b30-4ad3-b020-3d0e4c628cf4","system_id":"levelo_inurba_marseille","lat":43.25571,"lon":5.3822,"is_reserved":false,"is_disabled":false,"rental_uris":{"android":"levelo://app?vid=08682feb-2b30-4ad3-b020-3d0e4c628cf4","ios":"levelo://app?vid=08682feb-2b30-4ad3-b020-3d0e4c628cf4"},"vehicle_type_id":"4","last_reported":1778664857,"current_range_meters":6800,"station_id":"ce4bhih2rcd13ifvqfs0","pricing_plan_id":"cebpf4jnsgd1na2vs0mg"},{"bike_id":"3fd47180-2cb2-4558-99f2-cf2753ea82b4","system_id":"levelo_inurba_marseille","lat":43.29533,"lon":5.39007,"is_reserved":false,"is_disabled":true,"rental_uris":{"android":"levelo://app?vid=3fd47180-2cb2-4558-99f2-cf2753ea82b4","ios":"levelo://app?vid=3fd47180-2cb2-4558-99f2-cf2753ea82b4"},"vehicle_type_id":"4","last_reported":1778664857,"current_range_meters":6800,"station_id":"ce4bh3p2rcd13ifvqdp0","pricing_plan_id":"cebpf4jnsgd1na2vs0mg"},{"bike_id":"66fe39ef-df8b-4abd-bcd5-aa24e0dc5efb","system_id":"levelo_inurba_marseille","lat":43.25725,"lon":5.41094,"is_reserved":false,"is_disabled":false,"rental_uris":{"android":"levelo://app?vid=66fe39ef-df8b-4abd-bcd5-aa24e0dc5efb","ios":"levelo://app?vid=66fe39ef-df8b-4abd-bcd5-aa24e0dc5efb"},"vehicle_type_id":"4","last_reported":1778664857,"current_range_meters":6800,"station_id":"ce4bhkp2rcd13ifvqgd0","pricing_plan_id":"cebpf4jnsgd1na2vs0mg"},{"bike_id":"49d57b93-fe91-41b4-8f58-0f73f14d080a","system_id":"levelo_inurba_marseille","lat":43.291975,"lon":5.393263,"is_reserved":false,"is_disabled":false,"rental_uris":{"android":"levelo://app?vid=49d57b93-fe91-41b4-8f58-0f73f14d080a","ios":"levelo://app?vid=49d57b93-fe91-41b4-8f58-0f73f14d080a"},"vehicle_type_id":"4","last_reported":1778664857,"current_range_meters":6800,"station_id":"ce4bh192rcd13ifvqdd0","pricing_plan_id":"cebpf4jnsgd1na2vs0mg"},{"bike_id":"1da6257b-f1af-4a48-8996-6c5a6ab19545","system_id":"levelo_inurba_marseille","lat":43.24669,"lon":5.38191,"is_reserved":false,"is_disabled":false,"rental_uris":{"android":"levelo://app?vid=1da6257b-f1af-4a48-8996-6c5a6ab19545","ios":"levelo://app?vid=1da6257b-f1af-4a48-8996-6c5a6ab19545"},"vehicle_type_id":"4","last_reported":1778664857,"current_range_meters":6800,"station_id":"ce4bhih2rcd13ifvqfr0","pricing_plan_id":"cebpf4jnsgd1na2vs0mg"},{"bike_id":"6ce9189e-3bcd-44c8-90a0-8435ca9bae4a","system_id":"levelo_inurba_marseille","lat":43.2801,"lon":5.39313,"is_reserved":false,"is_disabled":false,"rental_uris":{"android":"levelo://app?vid=6ce9189e-3bcd-44c8-90a0-8435ca9bae4a","ios":"levelo://app?vid=6ce9189e-3bcd-44c8-90a0-8435ca9bae4a"},"vehicle_type_id":"4","last_reported":1778664857,"current_range_meters":6800,"station_id":"","pricing_plan_id":"cebpf4jnsgd1na2vs0mg"},{"bike_id":"c630f362-2fe0-4ab4-9d27-aca1edd52239","system_id":"levelo_inurba_marseille","lat":43.2822,"lon":5.38992,"is_reserved":false,"is_disabled":false,"rental_uris":{"android":"levelo://app?vid=c630f362-2fe0-4ab4-9d27-aca1edd52239","ios":"levelo://app?vid=c630f362-2fe0-4ab4-9d27-aca1edd52239"},"vehicle_type_id":"4","last_reported":1778664857,"current_range_meters":7200,"station_id":"ce4bhn92rcd13ifvqgsg","pricing_plan_id":"cebpf4jnsgd1na2vs0mg"},{"bike_id":"f89dc7a0-fe47-41cb-ba00-70c80de88b25","system_id":"levelo_inurba_marseille","lat":43.24666,"lon":5.38239,"is_reserved":false,"is_disabled":false,"rental_uris":{"android":"levelo://app?vid=f89dc7a0-fe47-41cb-ba00-70c80de88b25","ios":"levelo://app?vid=f89dc7a0-fe47-41cb-ba00-70c80de88b25"},"vehicle_type_id":"4","last_reported":1778664857,"current_range_meters":7200,"station_id":"","pricing_plan_id":"cebpf4jnsgd1na2vs0mg"},{"bike_id":"4305922b-886a-4e10-98c5-9db56042926a","system_id":"levelo_inurba_marseille","lat":43.29758,"lon":5.37987,"is_reserved":false,"is_disabled":false,"rental_uris":{"android":"levelo://app?vid=4305922b-886a-4e10-98c5-9db56042926a","ios":"levelo://app?vid=4305922b-886a-4e10-98c5-9db56042926a"},"vehicle_type_id":"4","last_reported":1778664857,"current_range_meters":7200,"station_id":"","pricing_plan_id":"cebpf4jnsgd1na2vs0mg"},{"bike_id":"a073844e-70ad-469b-9486-00db4f8e69dc","system_id":"levelo_inurba_marseille","lat":43.3144,"lon":5.37392,"is_reserved":false,"is_disabled":false,"rental_uris":{"android":"levelo://app?vid=a073844e-70ad-469b-9486-00db4f8e69dc","ios":"levelo://app?vid=a073844e-70ad-469b-9486-00db4f8e69dc"},"vehicle_type_id":"4","last_reported":1778664857,"current_range_meters":7200,"station_id":"","pricing_plan_id":"cebpf4jnsgd1na2vs0mg"},{"bike_id":"68bbdbe7-9f72-4642-9f37-9ae265a9daa7","system_id":"levelo_inurba_marseille","lat":43.24469,"lon":5.42541,"is_reserved":false,"is_disabled":false,"rental_uris":{"android":"levelo://app?vid=68bbdbe7-9f72-4642-9f37-9ae265a9daa7","ios":"levelo://app?vid=68bbdbe7-9f72-4642-9f37-9ae265a9daa7"},"vehicle_type_id":"4","last_reported":1778664857,"current_range_meters":7200,"station_id":"st_d4a3vfp97mjs738cd8kg","pricing_plan_id":"cebpf4jnsgd1na2vs0mg"},{"bike_id":"4196c41d-8bac-4f59-809d-20c5bacf0921","system_id":"levelo_inurba_marseille","lat":43.28705,"lon":5.46677,"is_reserved":false,"is_disabled":false,"rental_uris":{"android":"levelo://app?vid=4196c41d-8bac-4f59-809d-20c5bacf0921","ios":"levelo://app?vid=4196c41d-8bac-4f59-809d-20c5bacf0921"},"vehicle_type_id":"4","last_reported":1778664857,"current_range_meters":7200,"station_id":"st_d6tc3vkotcvc738tfjhg","pricing_plan_id":"cebpf4jnsgd1na2vs0mg"},{"bike_id":"494e0f53-a137-4652-b071-f0f61a244817","system_id":"levelo_inurba_marseille","lat":43.32104,"lon":5.36752,"is_reserved":false,"is_disabled":false,"rental_uris":{"android":"levelo://app?vid=494e0f53-a137-4652-b071-f0f61a244817","ios":"levelo://app?vid=494e0f53-a137-4652-b071-f0f61a244817"},"vehicle_type_id":"4","last_reported":1778664857,"current_range_meters":7200,"station_id":"ce4bhrh2rcd13ifvqhug","pricing_plan_id":"cebpf4jnsgd1na2vs0mg"},{"bike_id":"2f0eb61d-9fef-48b1-934d-b32dd59cd710","system_id":"levelo_inurba_marseille","lat":43.25722,"lon":5.41117,"is_reserved":false,"is_disabled":false,"rental_uris":{"android":"levelo://app?vid=2f0eb61d-9fef-48b1-934d-b32dd59cd710","ios":"levelo://app?vid=2f0eb61d-9fef-48b1-934d-b32dd59cd710"},"vehicle_type_id":"4","last_reported":1778664857,"current_range_meters":7200,"station_id":"ce4bhkp2rcd13ifvqgd0","pricing_plan_id":"cebpf4jnsgd1na2vs0mg"},{"bike_id":"662fb01a-3abb-486a-8313-388eff162690","system_id":"levelo_inurba_marseille","lat":43.30493,"lon":5.37918,"is_reserved":false,"is_disabled":false,"rental_uris":{"android":"levelo://app?vid=662fb01a-3abb-486a-8313-388eff162690","ios":"levelo://app?vid=662fb01a-3abb-486a-8313-388eff162690"},"vehicle_type_id":"4","last_reported":1778664857,"current_range_meters":7200,"station_id":"ce4bgup2rcd13ifvqcn0","pricing_plan_id":"cebpf4jnsgd1na2vs0mg"},{"bike_id":"ce69bb38-881e-473b-96ff-8f2663e9429f","system_id":"levelo_inurba_marseille","lat":43.29039,"lon":5.39959,"is_reserved":false,"is_disabled":false,"rental_uris":{"android":"levelo://app?vid=ce69bb38-881e-473b-96ff-8f2663e9429f","ios":"levelo://app?vid=ce69bb38-881e-473b-96ff-8f2663e9429f"},"vehicle_type_id":"4","last_reported":1778664857,"current_range_meters":7200,"station_id":"ce4bh392rcd13ifvqdm0","pricing_plan_id":"cebpf4jnsgd1na2vs0mg"},{"bike_id":"e1b6af69-766f-48bb-9170-495af6b9740c","system_id":"levelo_inurba_marseille","lat":43.29059,"lon":5.39933,"is_reserved":false,"is_disabled":false,"rental_uris":{"android":"levelo://app?vid=e1b6af69-766f-48bb-9170-495af6b9740c","ios":"levelo://app?vid=e1b6af69-766f-48bb-9170-495af6b9740c"},"vehicle_type_id":"4","last_reported":1778664857,"current_range_meters":7200,"station_id":"ce4bh392rcd13ifvqdm0","pricing_plan_id":"cebpf4jnsgd1na2vs0mg"},{"bike_id":"33e726db-b04a-4466-9d0d-46fe67a4980a","system_id":"levelo_inurba_marseille","lat":43.292851,"lon":5.368446,"is_reserved":false,"is_disabled":false,"rental_uris":{"android":"levelo://app?vid=33e726db-b04a-4466-9d0d-46fe67a4980a","ios":"levelo://app?vid=33e726db-b04a-4466-9d0d-46fe67a4980a"},"vehicle_type_id":"4","last_reported":1778664857,"current_range_meters":7200,"station_id":"ce4bhbp2rcd13ifvqesg","pricing_plan_id":"cebpf4jnsgd1na2vs0mg"},{"bike_id":"e267adc5-5f11-46b6-a0f3-78f119b246da","system_id":"levelo_inurba_marseille","lat":43.23212,"lon":5.39967,"is_reserved":false,"is_disabled":false,"rental_uris":{"android":"levelo://app?vid=e267adc5-5f11-46b6-a0f3-78f119b246da","ios":"levelo://app?vid=e267adc5-5f11-46b6-a0f3-78f119b246da"},"vehicle_type_id":"4","last_reported":1778664857,"current_range_meters":7200,"station_id":"ce4bhn12rcd13ifvqgqg","pricing_plan_id":"cebpf4jnsgd1na2vs0mg"},{"bike_id":"893ddd34-2f29-4d65-beb1-392b7c50f408","system_id":"levelo_inurba_marseille","lat":43.24062,"lon":5.37721,"is_reserved":false,"is_disabled":false,"rental_uris":{"android":"levelo://app?vid=893ddd34-2f29-4d65-beb1-392b7c50f408","ios":"levelo://app?vid=893ddd34-2f29-4d65-beb1-392b7c50f408"},"vehicle_type_id":"4","last_reported":1778664857,"current_range_meters":7200,"station_id":"ce4bhnp2rcd13ifvqgvg","pricing_plan_id":"cebpf4jnsgd1na2vs0mg"},{"bike_id":"b85f66b8-d35f-4be1-80de-da401f973332","system_id":"levelo_inurba_marseille","lat":43.26662,"lon":5.38177,"is_reserved":false,"is_disabled":false,"rental_uris":{"android":"levelo://app?vid=b85f66b8-d35f-4be1-80de-da401f973332","ios":"levelo://app?vid=b85f66b8-d35f-4be1-80de-da401f973332"},"vehicle_type_id":"4","last_reported":1778664857,"current_range_meters":7200,"station_id":"","pricing_plan_id":"cebpf4jnsgd1na2vs0mg"},{"bike_id":"3c34a31a-746e-47f9-90b1-0abec1ccf99d","system_id":"levelo_inurba_marseille","lat":43.29557,"lon":5.37504,"is_reserved":false,"is_disabled":false,"rental_uris":{"android":"levelo://app?vid=3c34a31a-746e-47f9-90b1-0abec1ccf99d","ios":"levelo://app?vid=3c34a31a-746e-47f9-90b1-0abec1ccf99d"},"vehicle_type_id":"4","last_reported":1778664857,"current_range_meters":7200,"station_id":"ce4bgh92rcd13ifvqb50","pricing_plan_id":"cebpf4jnsgd1na2vs0mg"},{"bike_id":"b477be1e-64c7-4e90-bc42-6fe97cda14a2","system_id":"levelo_inurba_marseille","lat":43.29822,"lon":5.42118,"is_reserved":false,"is_disabled":false,"rental_uris":{"android":"levelo://app?vid=b477be1e-64c7-4e90-bc42-6fe97cda14a2","ios":"levelo://app?vid=b477be1e-64c7-4e90-bc42-6fe97cda14a2"},"vehicle_type_id":"4","last_reported":1778664857,"current_range_meters":8000,"station_id":"","pricing_plan_id":"cebpf4jnsgd1na2vs0mg"},{"bike_id":"0aa26d60-579b-4a0a-878e-0f9323c7c1cf","system_id":"levelo_inurba_marseille","lat":43.25722,"lon":5.41107,"is_reserved":false,"is_disabled":false,"rental_uris":{"android":"levelo://app?vid=0aa26d60-579b-4a0a-878e-0f9323c7c1cf","ios":"levelo://app?vid=0aa26d60-579b-4a0a-878e-0f9323c7c1cf"},"vehicle_type_id":"4","last_reported":1778664857,"current_range_meters":8000,"station_id":"ce4bhkp2rcd13ifvqgd0","pricing_plan_id":"cebpf4jnsgd1na2vs0mg"},{"bike_id":"535696db-4d60-4fa9-a3e6-ab8542691e16","system_id":"levelo_inurba_marseille","lat":43.32484,"lon":5.38255,"is_reserved":false,"is_disabled":false,"rental_uris":{"android":"levelo://app?vid=535696db-4d60-4fa9-a3e6-ab8542691e16","ios":"levelo://app?vid=535696db-4d60-4fa9-a3e6-ab8542691e16"},"vehicle_type_id":"4","last_reported":1778664857,"current_range_meters":8000,"station_id":"st_d4asgbiv49dc73anf9m0","pricing_plan_id":"cebpf4jnsgd1na2vs0mg"},{"bike_id":"638f0fd9-8092-4d8b-9b9b-e7a2a736b653","system_id":"levelo_inurba_marseille","lat":43.27494,"lon":5.41574,"is_reserved":false,"is_disabled":true,"rental_uris":{"android":"levelo://app?vid=638f0fd9-8092-4d8b-9b9b-e7a2a736b653","ios":"levelo://app?vid=638f0fd9-8092-4d8b-9b9b-e7a2a736b653"},"vehicle_type_id":"4","last_reported":1778664857,"current_range_meters":8000,"station_id":"st_d6im8g6chgec73a5pndg","pricing_plan_id":"cebpf4jnsgd1na2vs0mg"},{"bike_id":"0ca51679-944e-4c38-ad98-9b7b5affb644","system_id":"levelo_inurba_marseille","lat":43.30531,"lon":5.36536,"is_reserved":false,"is_disabled":false,"rental_uris":{"android":"levelo://app?vid=0ca51679-944e-4c38-ad98-9b7b5affb644","ios":"levelo://app?vid=0ca51679-944e-4c38-ad98-9b7b5affb644"},"vehicle_type_id":"4","last_reported":1778664857,"current_range_meters":8000,"station_id":"ce4bgs12rcd13ifvqcag","pricing_plan_id":"cebpf4jnsgd1na2vs0mg"},{"bike_id":"cd3bf1fa-127b-48f3-b4b1-cec37ebb83c9","system_id":"levelo_inurba_marseille","lat":43.23789,"lon":5.36652,"is_reserved":false,"is_disabled":false,"rental_uris":{"android":"levelo://app?vid=cd3bf1fa-127b-48f3-b4b1-cec37ebb83c9","ios":"levelo://app?vid=cd3bf1fa-127b-48f3-b4b1-cec37ebb83c9"},"vehicle_type_id":"4","last_reported":1778664857,"current_range_meters":8000,"station_id":"st_d3nk18o9ro0c73en2l3g","pricing_plan_id":"cebpf4jnsgd1na2vs0mg"},{"bike_id":"94ad0b25-5e51-427b-975e-dbf854287092","system_id":"levelo_inurba_marseille","lat":43.27276,"lon":5.3906,"is_reserved":false,"is_disabled":true,"rental_uris":{"android":"levelo://app?vid=94ad0b25-5e51-427b-975e-dbf854287092","ios":"levelo://app?vid=94ad0b25-5e51-427b-975e-dbf854287092"},"vehicle_type_id":"4","last_reported":1778664857,"current_range_meters":8000,"station_id":"ce4bhgp2rcd13ifvqfe0","pricing_plan_id":"cebpf4jnsgd1na2vs0mg"},{"bike_id":"08b5aadb-f681-45b2-b89b-6fc53ab125ee","system_id":"levelo_inurba_marseille","lat":43.27535,"lon":5.42489,"is_reserved":false,"is_disabled":false,"rental_uris":{"android":"levelo://app?vid=08b5aadb-f681-45b2-b89b-6fc53ab125ee","ios":"levelo://app?vid=08b5aadb-f681-45b2-b89b-6fc53ab125ee"},"vehicle_type_id":"4","last_reported":1778664857,"current_range_meters":8000,"station_id":"ce4bhn92rcd13ifvqgrg","pricing_plan_id":"cebpf4jnsgd1na2vs0mg"},{"bike_id":"596eee20-b7ed-4947-bbb8-6b3fe811842a","system_id":"levelo_inurba_marseille","lat":43.29922,"lon":5.38154,"is_reserved":false,"is_disabled":false,"rental_uris":{"android":"levelo://app?vid=596eee20-b7ed-4947-bbb8-6b3fe811842a","ios":"levelo://app?vid=596eee20-b7ed-4947-bbb8-6b3fe811842a"},"vehicle_type_id":"4","last_reported":1778664857,"current_range_meters":8000,"station_id":"ce4bgj12rcd13ifvqbc0","pricing_plan_id":"cebpf4jnsgd1na2vs0mg"},{"bike_id":"1fa6c2e5-6369-44b0-932a-52ae09b7a491","system_id":"levelo_inurba_marseille","lat":43.25579,"lon":5.38227,"is_reserved":false,"is_disabled":false,"rental_uris":{"android":"levelo://app?vid=1fa6c2e5-6369-44b0-932a-52ae09b7a491","ios":"levelo://app?vid=1fa6c2e5-6369-44b0-932a-52ae09b7a491"},"vehicle_type_id":"4","last_reported":1778664857,"current_range_meters":8000,"station_id":"ce4bhih2rcd13ifvqfs0","pricing_plan_id":"cebpf4jnsgd1na2vs0mg"},{"bike_id":"0ad9f56c-0cb1-4ddd-bfff-c7b211f4a077","system_id":"levelo_inurba_marseille","lat":43.23479,"lon":5.37204,"is_reserved":false,"is_disabled":false,"rental_uris":{"android":"levelo://app?vid=0ad9f56c-0cb1-4ddd-bfff-c7b211f4a077","ios":"levelo://app?vid=0ad9f56c-0cb1-4ddd-bfff-c7b211f4a077"},"vehicle_type_id":"4","last_reported":1778664857,"current_range_meters":8000,"station_id":"","pricing_plan_id":"cebpf4jnsgd1na2vs0mg"},{"bike_id":"30f8e6d4-83a6-4a92-a859-a35a296eed10","system_id":"levelo_inurba_marseille","lat":43.24091,"lon":5.37757,"is_reserved":false,"is_disabled":false,"rental_uris":{"android":"levelo://app?vid=30f8e6d4-83a6-4a92-a859-a35a296eed10","ios":"levelo://app?vid=30f8e6d4-83a6-4a92-a859-a35a296eed10"},"vehicle_type_id":"4","last_reported":1778664857,"current_range_meters":8000,"station_id":"ce4bhnp2rcd13ifvqgvg","pricing_plan_id":"cebpf4jnsgd1na2vs0mg"},{"bike_id":"190e1df1-9ae7-4b10-8f66-3bf16b4ae39c","system_id":"levelo_inurba_marseille","lat":43.24772,"lon":5.3751,"is_reserved":false,"is_disabled":false,"rental_uris":{"android":"levelo://app?vid=190e1df1-9ae7-4b10-8f66-3bf16b4ae39c","ios":"levelo://app?vid=190e1df1-9ae7-4b10-8f66-3bf16b4ae39c"},"vehicle_type_id":"4","last_reported":1778664857,"current_range_meters":8000,"station_id":"","pricing_plan_id":"cebpf4jnsgd1na2vs0mg"},{"bike_id":"6f9a9a97-64fd-4c09-9fd5-fce787af8bd3","system_id":"levelo_inurba_marseille","lat":43.31326,"lon":5.39681,"is_reserved":false,"is_disabled":false,"rental_uris":{"android":"levelo://app?vid=6f9a9a97-64fd-4c09-9fd5-fce787af8bd3","ios":"levelo://app?vid=6f9a9a97-64fd-4c09-9fd5-fce787af8bd3"},"vehicle_type_id":"4","last_reported":1778664857,"current_range_meters":8000,"station_id":"ce4bgvp2rcd13ifvqcu0","pricing_plan_id":"cebpf4jnsgd1na2vs0mg"},{"bike_id":"6f8b0d63-4a27-4c64-8991-130a8e2c7266","system_id":"levelo_inurba_marseille","lat":43.33145,"lon":5.37757,"is_reserved":false,"is_disabled":false,"rental_uris":{"android":"levelo://app?vid=6f8b0d63-4a27-4c64-8991-130a8e2c7266","ios":"levelo://app?vid=6f8b0d63-4a27-4c64-8991-130a8e2c7266"},"vehicle_type_id":"4","last_reported":1778664857,"current_range_meters":8000,"station_id":"","pricing_plan_id":"cebpf4jnsgd1na2vs0mg"},{"bike_id":"fd082e40-3a71-4a2c-9ecd-d370fe8e2ab2","system_id":"levelo_inurba_marseille","lat":43.29289,"lon":5.38461,"is_reserved":false,"is_disabled":false,"rental_uris":{"android":"levelo://app?vid=fd082e40-3a71-4a2c-9ecd-d370fe8e2ab2","ios":"levelo://app?vid=fd082e40-3a71-4a2c-9ecd-d370fe8e2ab2"},"vehicle_type_id":"4","last_reported":1778664857,"current_range_meters":8000,"station_id":"ce4bh692rcd13ifvqea0","pricing_plan_id":"cebpf4jnsgd1na2vs0mg"},{"bike_id":"90519d3a-b958-4854-b5e0-30bb7792e25f","system_id":"levelo_inurba_marseille","lat":43.3133,"lon":5.36723,"is_reserved":false,"is_disabled":false,"rental_uris":{"android":"levelo://app?vid=90519d3a-b958-4854-b5e0-30bb7792e25f","ios":"levelo://app?vid=90519d3a-b958-4854-b5e0-30bb7792e25f"},"vehicle_type_id":"4","last_reported":1778664857,"current_range_meters":8000,"station_id":"ce4bgr92rcd13ifvqc6g","pricing_plan_id":"cebpf4jnsgd1na2vs0mg"},{"bike_id":"64b62b18-b814-4dc3-8090-c8c0105a73f8","system_id":"levelo_inurba_marseille","lat":43.299713,"lon":5.37188,"is_reserved":false,"is_disabled":false,"rental_uris":{"android":"levelo://app?vid=64b62b18-b814-4dc3-8090-c8c0105a73f8","ios":"levelo://app?vid=64b62b18-b814-4dc3-8090-c8c0105a73f8"},"vehicle_type_id":"4","last_reported":1778664857,"current_range_meters":8400,"station_id":"ce4bgr92rcd13ifvqc7g","pricing_plan_id":"cebpf4jnsgd1na2vs0mg"},{"bike_id":"dd9124d2-eae5-4f60-ad7a-7ef70e61f6d7","system_id":"levelo_inurba_marseille","lat":43.33535,"lon":5.37465,"is_reserved":false,"is_disabled":false,"rental_uris":{"android":"levelo://app?vid=dd9124d2-eae5-4f60-ad7a-7ef70e61f6d7","ios":"levelo://app?vid=dd9124d2-eae5-4f60-ad7a-7ef70e61f6d7"},"vehicle_type_id":"4","last_reported":1778664857,"current_range_meters":8400,"station_id":"st_d46tts09ee8s73dlu43g","pricing_plan_id":"cebpf4jnsgd1na2vs0mg"},{"bike_id":"3a0a303a-4c01-46ad-ba0b-98f8b7c8e79f","system_id":"levelo_inurba_marseille","lat":43.31392,"lon":5.36688,"is_reserved":false,"is_disabled":false,"rental_uris":{"android":"levelo://app?vid=3a0a303a-4c01-46ad-ba0b-98f8b7c8e79f","ios":"levelo://app?vid=3a0a303a-4c01-46ad-ba0b-98f8b7c8e79f"},"vehicle_type_id":"4","last_reported":1778664857,"current_range_meters":8400,"station_id":"ce4bgr92rcd13ifvqc6g","pricing_plan_id":"cebpf4jnsgd1na2vs0mg"},{"bike_id":"0d4108f6-0c96-4efa-83bb-779a347167c3","system_id":"levelo_inurba_marseille","lat":43.28383,"lon":5.38605,"is_reserved":false,"is_disabled":false,"rental_uris":{"android":"levelo://app?vid=0d4108f6-0c96-4efa-83bb-779a347167c3","ios":"levelo://app?vid=0d4108f6-0c96-4efa-83bb-779a347167c3"},"vehicle_type_id":"4","last_reported":1778664857,"current_range_meters":8400,"station_id":"ce4bh492rcd13ifvqdvg","pricing_plan_id":"cebpf4jnsgd1na2vs0mg"},{"bike_id":"44769a63-2434-4160-917d-9d5801eaf9ed","system_id":"levelo_inurba_marseille","lat":43.23978,"lon":5.36609,"is_reserved":false,"is_disabled":false,"rental_uris":{"android":"levelo://app?vid=44769a63-2434-4160-917d-9d5801eaf9ed","ios":"levelo://app?vid=44769a63-2434-4160-917d-9d5801eaf9ed"},"vehicle_type_id":"4","last_reported":1778664857,"current_range_meters":8400,"station_id":"ce4bhi12rcd13ifvqfp0","pricing_plan_id":"cebpf4jnsgd1na2vs0mg"},{"bike_id":"445f6528-82e8-418a-8781-28fecbb007af","system_id":"levelo_inurba_marseille","lat":43.23778,"lon":5.3663,"is_reserved":false,"is_disabled":false,"rental_uris":{"android":"levelo://app?vid=445f6528-82e8-418a-8781-28fecbb007af","ios":"levelo://app?vid=445f6528-82e8-418a-8781-28fecbb007af"},"vehicle_type_id":"4","last_reported":1778664857,"current_range_meters":8400,"station_id":"st_d3nk18o9ro0c73en2l3g","pricing_plan_id":"cebpf4jnsgd1na2vs0mg"},{"bike_id":"01b224ee-4c63-40d9-b70d-9fb6c651d396","system_id":"levelo_inurba_marseille","lat":43.29282,"lon":5.40913,"is_reserved":false,"is_disabled":true,"rental_uris":{"android":"levelo://app?vid=01b224ee-4c63-40d9-b70d-9fb6c651d396","ios":"levelo://app?vid=01b224ee-4c63-40d9-b70d-9fb6c651d396"},"vehicle_type_id":"4","last_reported":1778664857,"current_range_meters":8400,"station_id":"ce4bh192rcd13ifvqdc0","pricing_plan_id":"cebpf4jnsgd1na2vs0mg"},{"bike_id":"2138a3f3-103f-4d3b-8182-d8f838630240","system_id":"levelo_inurba_marseille","lat":43.29584,"lon":5.37509,"is_reserved":false,"is_disabled":false,"rental_uris":{"android":"levelo://app?vid=2138a3f3-103f-4d3b-8182-d8f838630240","ios":"levelo://app?vid=2138a3f3-103f-4d3b-8182-d8f838630240"},"vehicle_type_id":"4","last_reported":1778664857,"current_range_meters":8400,"station_id":"ce4bgh92rcd13ifvqb50","pricing_plan_id":"cebpf4jnsgd1na2vs0mg"},{"bike_id":"3d10bf0f-0f6d-4a75-86ad-26901373ecca","system_id":"levelo_inurba_marseille","lat":43.3313,"lon":5.37726,"is_reserved":false,"is_disabled":false,"rental_uris":{"android":"levelo://app?vid=3d10bf0f-0f6d-4a75-86ad-26901373ecca","ios":"levelo://app?vid=3d10bf0f-0f6d-4a75-86ad-26901373ecca"},"vehicle_type_id":"4","last_reported":1778664857,"current_range_meters":8400,"station_id":"","pricing_plan_id":"cebpf4jnsgd1na2vs0mg"},{"bike_id":"dd9d2dfb-afdd-4bed-aa38-8b17dff351c8","system_id":"levelo_inurba_marseille","lat":43.26952,"lon":5.40274,"is_reserved":false,"is_disabled":true,"rental_uris":{"android":"levelo://app?vid=dd9d2dfb-afdd-4bed-aa38-8b17dff351c8","ios":"levelo://app?vid=dd9d2dfb-afdd-4bed-aa38-8b17dff351c8"},"vehicle_type_id":"4","last_reported":1778664857,"current_range_meters":8400,"station_id":"cjm6bp8fraef2m0cb0m0","pricing_plan_id":"cebpf4jnsgd1na2vs0mg"},{"bike_id":"b2d868ed-e4bf-41bd-bc78-bd8b7e52c079","system_id":"levelo_inurba_marseille","lat":43.29048,"lon":5.39955,"is_reserved":false,"is_disabled":false,"rental_uris":{"android":"levelo://app?vid=b2d868ed-e4bf-41bd-bc78-bd8b7e52c079","ios":"levelo://app?vid=b2d868ed-e4bf-41bd-bc78-bd8b7e52c079"},"vehicle_type_id":"4","last_reported":1778664857,"current_range_meters":8400,"station_id":"ce4bh392rcd13ifvqdm0","pricing_plan_id":"cebpf4jnsgd1na2vs0mg"},{"bike_id":"3506286c-7dd6-4125-bb3f-687c1b81cf5c","system_id":"levelo_inurba_marseille","lat":43.23193,"lon":5.40033,"is_reserved":false,"is_disabled":false,"rental_uris":{"android":"levelo://app?vid=3506286c-7dd6-4125-bb3f-687c1b81cf5c","ios":"levelo://app?vid=3506286c-7dd6-4125-bb3f-687c1b81cf5c"},"vehicle_type_id":"4","last_reported":1778664857,"current_range_meters":8400,"station_id":"ce4bhn12rcd13ifvqgqg","pricing_plan_id":"cebpf4jnsgd1na2vs0mg"},{"bike_id":"ce5f9002-d8cd-41c9-bf69-5e244b0abc58","system_id":"levelo_inurba_marseille","lat":43.29796,"lon":5.38034,"is_reserved":false,"is_disabled":false,"rental_uris":{"android":"levelo://app?vid=ce5f9002-d8cd-41c9-bf69-5e244b0abc58","ios":"levelo://app?vid=ce5f9002-d8cd-41c9-bf69-5e244b0abc58"},"vehicle_type_id":"4","last_reported":1778664857,"current_range_meters":8400,"station_id":"","pricing_plan_id":"cebpf4jnsgd1na2vs0mg"},{"bike_id":"f30840b1-3715-4306-9eae-771c17465670","system_id":"levelo_inurba_marseille","lat":43.29617,"lon":5.37749,"is_reserved":false,"is_disabled":false,"rental_uris":{"android":"levelo://app?vid=f30840b1-3715-4306-9eae-771c17465670","ios":"levelo://app?vid=f30840b1-3715-4306-9eae-771c17465670"},"vehicle_type_id":"4","last_reported":1778664857,"current_range_meters":8400,"station_id":"ce4bgi92rcd13ifvqb90","pricing_plan_id":"cebpf4jnsgd1na2vs0mg"},{"bike_id":"24d6c075-835e-4657-8894-8dbae96fb428","system_id":"levelo_inurba_marseille","lat":43.27207,"lon":5.39171,"is_reserved":false,"is_disabled":false,"rental_uris":{"android":"levelo://app?vid=24d6c075-835e-4657-8894-8dbae96fb428","ios":"levelo://app?vid=24d6c075-835e-4657-8894-8dbae96fb428"},"vehicle_type_id":"4","last_reported":1778664857,"current_range_meters":8400,"station_id":"ce4bhhp2rcd13ifvqfm0","pricing_plan_id":"cebpf4jnsgd1na2vs0mg"},{"bike_id":"4ed34391-f5d4-4f34-9e81-72d6a65ff383","system_id":"levelo_inurba_marseille","lat":43.27921,"lon":5.39583,"is_reserved":false,"is_disabled":true,"rental_uris":{"android":"levelo://app?vid=4ed34391-f5d4-4f34-9e81-72d6a65ff383","ios":"levelo://app?vid=4ed34391-f5d4-4f34-9e81-72d6a65ff383"},"vehicle_type_id":"4","last_reported":1778664857,"current_range_meters":8400,"station_id":"ce4bhf92rcd13ifvqf40","pricing_plan_id":"cebpf4jnsgd1na2vs0mg"},{"bike_id":"2db0ffab-6bdd-4726-8016-a3a2ddff536d","system_id":"levelo_inurba_marseille","lat":43.22565,"lon":5.41618,"is_reserved":false,"is_disabled":false,"rental_uris":{"android":"levelo://app?vid=2db0ffab-6bdd-4726-8016-a3a2ddff536d","ios":"levelo://app?vid=2db0ffab-6bdd-4726-8016-a3a2ddff536d"},"vehicle_type_id":"4","last_reported":1778664857,"current_range_meters":8400,"station_id":"st_d2o4gvlbi1j2169b742g","pricing_plan_id":"cebpf4jnsgd1na2vs0mg"},{"bike_id":"47eafea1-2f37-4389-a0ca-895e8bcf5c4a","system_id":"levelo_inurba_marseille","lat":43.27901,"lon":5.39565,"is_reserved":false,"is_disabled":false,"rental_uris":{"android":"levelo://app?vid=47eafea1-2f37-4389-a0ca-895e8bcf5c4a","ios":"levelo://app?vid=47eafea1-2f37-4389-a0ca-895e8bcf5c4a"},"vehicle_type_id":"4","last_reported":1778664857,"current_range_meters":8800,"station_id":"ce4bhf92rcd13ifvqf40","pricing_plan_id":"cebpf4jnsgd1na2vs0mg"},{"bike_id":"b97c7657-0dc4-41fa-abbf-8e78dbbec767","system_id":"levelo_inurba_marseille","lat":43.289788,"lon":5.378439,"is_reserved":false,"is_disabled":true,"rental_uris":{"android":"levelo://app?vid=b97c7657-0dc4-41fa-abbf-8e78dbbec767","ios":"levelo://app?vid=b97c7657-0dc4-41fa-abbf-8e78dbbec767"},"vehicle_type_id":"4","last_reported":1778664857,"current_range_meters":8800,"station_id":"ce4bh9p2rcd13ifvqed0","pricing_plan_id":"cebpf4jnsgd1na2vs0mg"},{"bike_id":"59a6e24a-9db4-402e-8b5e-049f3595c118","system_id":"levelo_inurba_marseille","lat":43.29588,"lon":5.39965,"is_reserved":false,"is_disabled":true,"rental_uris":{"android":"levelo://app?vid=59a6e24a-9db4-402e-8b5e-049f3595c118","ios":"levelo://app?vid=59a6e24a-9db4-402e-8b5e-049f3595c118"},"vehicle_type_id":"4","last_reported":1778664857,"current_range_meters":8800,"station_id":"ce4bh312rcd13ifvqdj0","pricing_plan_id":"cebpf4jnsgd1na2vs0mg"},{"bike_id":"e8e3f2af-0717-447b-8ab4-d81809fa4687","system_id":"levelo_inurba_marseille","lat":43.31409,"lon":5.36689,"is_reserved":false,"is_disabled":false,"rental_uris":{"android":"levelo://app?vid=e8e3f2af-0717-447b-8ab4-d81809fa4687","ios":"levelo://app?vid=e8e3f2af-0717-447b-8ab4-d81809fa4687"},"vehicle_type_id":"4","last_reported":1778664857,"current_range_meters":8800,"station_id":"","pricing_plan_id":"cebpf4jnsgd1na2vs0mg"},{"bike_id":"4e528f4c-3558-4ea0-8fad-771eb4a0d8d7","system_id":"levelo_inurba_marseille","lat":43.27231,"lon":5.39283,"is_reserved":false,"is_disabled":false,"rental_uris":{"android":"levelo://app?vid=4e528f4c-3558-4ea0-8fad-771eb4a0d8d7","ios":"levelo://app?vid=4e528f4c-3558-4ea0-8fad-771eb4a0d8d7"},"vehicle_type_id":"4","last_reported":1778664857,"current_range_meters":8800,"station_id":"","pricing_plan_id":"cebpf4jnsgd1na2vs0mg"},{"bike_id":"a91d18cd-3fa0-41e1-8bb0-98088f0875d8","system_id":"levelo_inurba_marseille","lat":43.30571,"lon":5.3842,"is_reserved":false,"is_disabled":false,"rental_uris":{"android":"levelo://app?vid=a91d18cd-3fa0-41e1-8bb0-98088f0875d8","ios":"levelo://app?vid=a91d18cd-3fa0-41e1-8bb0-98088f0875d8"},"vehicle_type_id":"4","last_reported":1778664857,"current_range_meters":8800,"station_id":"ce4bgg92rcd13ifvqb30","pricing_plan_id":"cebpf4jnsgd1na2vs0mg"},{"bike_id":"c09926ef-6243-44a8-8f84-163c78b8face","system_id":"levelo_inurba_marseille","lat":43.28536,"lon":5.44087,"is_reserved":false,"is_disabled":false,"rental_uris":{"android":"levelo://app?vid=c09926ef-6243-44a8-8f84-163c78b8face","ios":"levelo://app?vid=c09926ef-6243-44a8-8f84-163c78b8face"},"vehicle_type_id":"4","last_reported":1778664857,"current_range_meters":8800,"station_id":"st_d3j3df2ikq2c7380ej80","pricing_plan_id":"cebpf4jnsgd1na2vs0mg"},{"bike_id":"f5ef1d5d-a83a-4de6-a56d-3d414007232e","system_id":"levelo_inurba_marseille","lat":43.250898,"lon":5.395267,"is_reserved":false,"is_disabled":false,"rental_uris":{"android":"levelo://app?vid=f5ef1d5d-a83a-4de6-a56d-3d414007232e","ios":"levelo://app?vid=f5ef1d5d-a83a-4de6-a56d-3d414007232e"},"vehicle_type_id":"4","last_reported":1778664857,"current_range_meters":8800,"station_id":"ce4bhm12rcd13ifvqgkg","pricing_plan_id":"cebpf4jnsgd1na2vs0mg"},{"bike_id":"bfd7b937-fb5a-4816-9fcc-96ef855df686","system_id":"levelo_inurba_marseille","lat":43.29381,"lon":5.37855,"is_reserved":false,"is_disabled":false,"rental_uris":{"android":"levelo://app?vid=bfd7b937-fb5a-4816-9fcc-96ef855df686","ios":"levelo://app?vid=bfd7b937-fb5a-4816-9fcc-96ef855df686"},"vehicle_type_id":"4","last_reported":1778664857,"current_range_meters":8800,"station_id":"ce4bgjh2rcd13ifvqbf0","pricing_plan_id":"cebpf4jnsgd1na2vs0mg"},{"bike_id":"6e6118e0-d7b8-42ba-a2c6-79786f3c704d","system_id":"levelo_inurba_marseille","lat":43.25131,"lon":5.40323,"is_reserved":false,"is_disabled":false,"rental_uris":{"android":"levelo://app?vid=6e6118e0-d7b8-42ba-a2c6-79786f3c704d","ios":"levelo://app?vid=6e6118e0-d7b8-42ba-a2c6-79786f3c704d"},"vehicle_type_id":"4","last_reported":1778664857,"current_range_meters":8800,"station_id":"ce4bhlh2rcd13ifvqgig","pricing_plan_id":"cebpf4jnsgd1na2vs0mg"},{"bike_id":"52dda201-5d5f-4279-aa1d-2db6d8da8f3a","system_id":"levelo_inurba_marseille","lat":43.313212,"lon":5.396949,"is_reserved":false,"is_disabled":true,"rental_uris":{"android":"levelo://app?vid=52dda201-5d5f-4279-aa1d-2db6d8da8f3a","ios":"levelo://app?vid=52dda201-5d5f-4279-aa1d-2db6d8da8f3a"},"vehicle_type_id":"4","last_reported":1778664857,"current_range_meters":8800,"station_id":"ce4bgvp2rcd13ifvqcu0","pricing_plan_id":"cebpf4jnsgd1na2vs0mg"},{"bike_id":"3d95dae9-85ab-44e3-b010-0a474bda0f12","system_id":"levelo_inurba_marseille","lat":43.26226,"lon":5.38761,"is_reserved":false,"is_disabled":false,"rental_uris":{"android":"levelo://app?vid=3d95dae9-85ab-44e3-b010-0a474bda0f12","ios":"levelo://app?vid=3d95dae9-85ab-44e3-b010-0a474bda0f12"},"vehicle_type_id":"4","last_reported":1778664857,"current_range_meters":8800,"station_id":"","pricing_plan_id":"cebpf4jnsgd1na2vs0mg"},{"bike_id":"aaf707a2-1ff6-4b16-8bb7-6eb1e783ab36","system_id":"levelo_inurba_marseille","lat":43.28972,"lon":5.39721,"is_reserved":false,"is_disabled":false,"rental_uris":{"android":"levelo://app?vid=aaf707a2-1ff6-4b16-8bb7-6eb1e783ab36","ios":"levelo://app?vid=aaf707a2-1ff6-4b16-8bb7-6eb1e783ab36"},"vehicle_type_id":"4","last_reported":1778664857,"current_range_meters":8800,"station_id":"ce4bh3h2rcd13ifvqdn0","pricing_plan_id":"cebpf4jnsgd1na2vs0mg"},{"bike_id":"c0362586-16d8-4849-aae1-deb7e2bfb9f1","system_id":"levelo_inurba_marseille","lat":43.33557,"lon":5.37475,"is_reserved":false,"is_disabled":false,"rental_uris":{"android":"levelo://app?vid=c0362586-16d8-4849-aae1-deb7e2bfb9f1","ios":"levelo://app?vid=c0362586-16d8-4849-aae1-deb7e2bfb9f1"},"vehicle_type_id":"4","last_reported":1778664857,"current_range_meters":8800,"station_id":"st_d46tts09ee8s73dlu43g","pricing_plan_id":"cebpf4jnsgd1na2vs0mg"},{"bike_id":"91d5ec01-2658-4e1f-af1a-245fb7ea3595","system_id":"levelo_inurba_marseille","lat":43.28717,"lon":5.4667,"is_reserved":false,"is_disabled":false,"rental_uris":{"android":"levelo://app?vid=91d5ec01-2658-4e1f-af1a-245fb7ea3595","ios":"levelo://app?vid=91d5ec01-2658-4e1f-af1a-245fb7ea3595"},"vehicle_type_id":"4","last_reported":1778664857,"current_range_meters":8800,"station_id":"st_d6tc3vkotcvc738tfjhg","pricing_plan_id":"cebpf4jnsgd1na2vs0mg"},{"bike_id":"3fc67ff4-1be9-4da4-be8f-9ec5bd95e554","system_id":"levelo_inurba_marseille","lat":43.33538,"lon":5.37469,"is_reserved":false,"is_disabled":false,"rental_uris":{"android":"levelo://app?vid=3fc67ff4-1be9-4da4-be8f-9ec5bd95e554","ios":"levelo://app?vid=3fc67ff4-1be9-4da4-be8f-9ec5bd95e554"},"vehicle_type_id":"4","last_reported":1778664857,"current_range_meters":8800,"station_id":"st_d46tts09ee8s73dlu43g","pricing_plan_id":"cebpf4jnsgd1na2vs0mg"},{"bike_id":"a1751cce-a99f-4352-a478-1678f0a5c5e3","system_id":"levelo_inurba_marseille","lat":43.23193,"lon":5.39926,"is_reserved":false,"is_disabled":false,"rental_uris":{"android":"levelo://app?vid=a1751cce-a99f-4352-a478-1678f0a5c5e3","ios":"levelo://app?vid=a1751cce-a99f-4352-a478-1678f0a5c5e3"},"vehicle_type_id":"4","last_reported":1778664857,"current_range_meters":8800,"station_id":"","pricing_plan_id":"cebpf4jnsgd1na2vs0mg"},{"bike_id":"015bfd6b-736a-4e44-a42d-948980700872","system_id":"levelo_inurba_marseille","lat":43.24631,"lon":5.38987,"is_reserved":false,"is_disabled":false,"rental_uris":{"android":"levelo://app?vid=015bfd6b-736a-4e44-a42d-948980700872","ios":"levelo://app?vid=015bfd6b-736a-4e44-a42d-948980700872"},"vehicle_type_id":"4","last_reported":1778664857,"current_range_meters":8800,"station_id":"","pricing_plan_id":"cebpf4jnsgd1na2vs0mg"},{"bike_id":"4036d707-70c6-46e1-bb49-c96a8dbbe889","system_id":"levelo_inurba_marseille","lat":43.24184,"lon":5.39705,"is_reserved":false,"is_disabled":false,"rental_uris":{"android":"levelo://app?vid=4036d707-70c6-46e1-bb49-c96a8dbbe889","ios":"levelo://app?vid=4036d707-70c6-46e1-bb49-c96a8dbbe889"},"vehicle_type_id":"4","last_reported":1778664857,"current_range_meters":9200,"station_id":"ce4bhn12rcd13ifvqgpg","pricing_plan_id":"cebpf4jnsgd1na2vs0mg"},{"bike_id":"e0f2d823-a278-4400-9444-d44158f5dbc1","system_id":"levelo_inurba_marseille","lat":43.31064,"lon":5.37174,"is_reserved":false,"is_disabled":false,"rental_uris":{"android":"levelo://app?vid=e0f2d823-a278-4400-9444-d44158f5dbc1","ios":"levelo://app?vid=e0f2d823-a278-4400-9444-d44158f5dbc1"},"vehicle_type_id":"4","last_reported":1778664857,"current_range_meters":9200,"station_id":"st_d4kl2rp97mjs73e7tdfg","pricing_plan_id":"cebpf4jnsgd1na2vs0mg"},{"bike_id":"0788c449-f5a8-4538-b3de-2e9df8d5eb32","system_id":"levelo_inurba_marseille","lat":43.30901,"lon":5.36877,"is_reserved":false,"is_disabled":false,"rental_uris":{"android":"levelo://app?vid=0788c449-f5a8-4538-b3de-2e9df8d5eb32","ios":"levelo://app?vid=0788c449-f5a8-4538-b3de-2e9df8d5eb32"},"vehicle_type_id":"4","last_reported":1778664857,"current_range_meters":9200,"station_id":"ce4bgn92rcd13ifvqbvg","pricing_plan_id":"cebpf4jnsgd1na2vs0mg"},{"bike_id":"25ff91ab-8fac-48a4-aef5-873d6cc956e3","system_id":"levelo_inurba_marseille","lat":43.28708,"lon":5.38704,"is_reserved":false,"is_disabled":true,"rental_uris":{"android":"levelo://app?vid=25ff91ab-8fac-48a4-aef5-873d6cc956e3","ios":"levelo://app?vid=25ff91ab-8fac-48a4-aef5-873d6cc956e3"},"vehicle_type_id":"4","last_reported":1778664857,"current_range_meters":9200,"station_id":"","pricing_plan_id":"cebpf4jnsgd1na2vs0mg"},{"bike_id":"758cc6f3-9eda-430a-8622-880e9280d10f","system_id":"levelo_inurba_marseille","lat":43.29556,"lon":5.42283,"is_reserved":false,"is_disabled":false,"rental_uris":{"android":"levelo://app?vid=758cc6f3-9eda-430a-8622-880e9280d10f","ios":"levelo://app?vid=758cc6f3-9eda-430a-8622-880e9280d10f"},"vehicle_type_id":"4","last_reported":1778664857,"current_range_meters":9200,"station_id":"ce4bhph2rcd13ifvqhdg","pricing_plan_id":"cebpf4jnsgd1na2vs0mg"},{"bike_id":"268ffc73-3c01-42bd-b7a3-80819f8f4b07","system_id":"levelo_inurba_marseille","lat":43.29599,"lon":5.36695,"is_reserved":false,"is_disabled":false,"rental_uris":{"android":"levelo://app?vid=268ffc73-3c01-42bd-b7a3-80819f8f4b07","ios":"levelo://app?vid=268ffc73-3c01-42bd-b7a3-80819f8f4b07"},"vehicle_type_id":"4","last_reported":1778664857,"current_range_meters":9200,"station_id":"ce4bgph2rcd13ifvqc2g","pricing_plan_id":"cebpf4jnsgd1na2vs0mg"},{"bike_id":"4c4ead43-13a3-4149-95b3-e3a66f804ab5","system_id":"levelo_inurba_marseille","lat":43.32423,"lon":5.37415,"is_reserved":false,"is_disabled":false,"rental_uris":{"android":"levelo://app?vid=4c4ead43-13a3-4149-95b3-e3a66f804ab5","ios":"levelo://app?vid=4c4ead43-13a3-4149-95b3-e3a66f804ab5"},"vehicle_type_id":"4","last_reported":1778664857,"current_range_meters":9200,"station_id":"","pricing_plan_id":"cebpf4jnsgd1na2vs0mg"},{"bike_id":"694d350c-c454-4a03-8584-634ab661a5df","system_id":"levelo_inurba_marseille","lat":43.301525,"lon":5.380873,"is_reserved":false,"is_disabled":false,"rental_uris":{"android":"levelo://app?vid=694d350c-c454-4a03-8584-634ab661a5df","ios":"levelo://app?vid=694d350c-c454-4a03-8584-634ab661a5df"},"vehicle_type_id":"4","last_reported":1778664857,"current_range_meters":9200,"station_id":"ce4bgjp2rcd13ifvqbh0","pricing_plan_id":"cebpf4jnsgd1na2vs0mg"},{"bike_id":"f1683171-92ab-4983-9394-c48ccdba265a","system_id":"levelo_inurba_marseille","lat":43.29977,"lon":5.37139,"is_reserved":false,"is_disabled":false,"rental_uris":{"android":"levelo://app?vid=f1683171-92ab-4983-9394-c48ccdba265a","ios":"levelo://app?vid=f1683171-92ab-4983-9394-c48ccdba265a"},"vehicle_type_id":"4","last_reported":1778664857,"current_range_meters":9200,"station_id":"ce4bgr92rcd13ifvqc7g","pricing_plan_id":"cebpf4jnsgd1na2vs0mg"},{"bike_id":"d2da92e5-c04a-4084-9143-b92a982a1f04","system_id":"levelo_inurba_marseille","lat":43.24801,"lon":5.4002,"is_reserved":false,"is_disabled":false,"rental_uris":{"android":"levelo://app?vid=d2da92e5-c04a-4084-9143-b92a982a1f04","ios":"levelo://app?vid=d2da92e5-c04a-4084-9143-b92a982a1f04"},"vehicle_type_id":"4","last_reported":1778664857,"current_range_meters":9200,"station_id":"","pricing_plan_id":"cebpf4jnsgd1na2vs0mg"},{"bike_id":"f866b4ae-c870-49cf-9a8c-f7f6622d7dab","system_id":"levelo_inurba_marseille","lat":43.28485,"lon":5.48391,"is_reserved":false,"is_disabled":false,"rental_uris":{"android":"levelo://app?vid=f866b4ae-c870-49cf-9a8c-f7f6622d7dab","ios":"levelo://app?vid=f866b4ae-c870-49cf-9a8c-f7f6622d7dab"},"vehicle_type_id":"4","last_reported":1778664857,"current_range_meters":9200,"station_id":"","pricing_plan_id":"cebpf4jnsgd1na2vs0mg"},{"bike_id":"b6a4da7e-08e1-42c1-8252-9f519b4378c5","system_id":"levelo_inurba_marseille","lat":43.27666,"lon":5.38923,"is_reserved":false,"is_disabled":true,"rental_uris":{"android":"levelo://app?vid=b6a4da7e-08e1-42c1-8252-9f519b4378c5","ios":"levelo://app?vid=b6a4da7e-08e1-42c1-8252-9f519b4378c5"},"vehicle_type_id":"4","last_reported":1778664857,"current_range_meters":9200,"station_id":"ce4bhi12rcd13ifvqfo0","pricing_plan_id":"cebpf4jnsgd1na2vs0mg"},{"bike_id":"87093542-3dd5-4737-b7a9-5dbb1f7ad403","system_id":"levelo_inurba_marseille","lat":43.30533,"lon":5.3653,"is_reserved":false,"is_disabled":false,"rental_uris":{"android":"levelo://app?vid=87093542-3dd5-4737-b7a9-5dbb1f7ad403","ios":"levelo://app?vid=87093542-3dd5-4737-b7a9-5dbb1f7ad403"},"vehicle_type_id":"4","last_reported":1778664857,"current_range_meters":9200,"station_id":"ce4bgs12rcd13ifvqcag","pricing_plan_id":"cebpf4jnsgd1na2vs0mg"},{"bike_id":"8b47becf-a8f7-4ffb-a915-79c4ea31e23e","system_id":"levelo_inurba_marseille","lat":43.23188,"lon":5.40008,"is_reserved":false,"is_disabled":false,"rental_uris":{"android":"levelo://app?vid=8b47becf-a8f7-4ffb-a915-79c4ea31e23e","ios":"levelo://app?vid=8b47becf-a8f7-4ffb-a915-79c4ea31e23e"},"vehicle_type_id":"4","last_reported":1778664857,"current_range_meters":9200,"station_id":"ce4bhn12rcd13ifvqgqg","pricing_plan_id":"cebpf4jnsgd1na2vs0mg"},{"bike_id":"e67c1adc-e4c7-4c05-ae6c-17fc9517dd58","system_id":"levelo_inurba_marseille","lat":43.31336,"lon":5.36738,"is_reserved":false,"is_disabled":false,"rental_uris":{"android":"levelo://app?vid=e67c1adc-e4c7-4c05-ae6c-17fc9517dd58","ios":"levelo://app?vid=e67c1adc-e4c7-4c05-ae6c-17fc9517dd58"},"vehicle_type_id":"4","last_reported":1778664857,"current_range_meters":9600,"station_id":"ce4bgr92rcd13ifvqc6g","pricing_plan_id":"cebpf4jnsgd1na2vs0mg"},{"bike_id":"ce7affa4-e899-4670-ab01-77985006ca36","system_id":"levelo_inurba_marseille","lat":43.30144,"lon":5.38115,"is_reserved":false,"is_disabled":false,"rental_uris":{"android":"levelo://app?vid=ce7affa4-e899-4670-ab01-77985006ca36","ios":"levelo://app?vid=ce7affa4-e899-4670-ab01-77985006ca36"},"vehicle_type_id":"4","last_reported":1778664857,"current_range_meters":9600,"station_id":"ce4bgjp2rcd13ifvqbh0","pricing_plan_id":"cebpf4jnsgd1na2vs0mg"},{"bike_id":"01dcaf8c-8366-428f-b15e-0ff5cfcddbb2","system_id":"levelo_inurba_marseille","lat":43.25105,"lon":5.38235,"is_reserved":false,"is_disabled":false,"rental_uris":{"android":"levelo://app?vid=01dcaf8c-8366-428f-b15e-0ff5cfcddbb2","ios":"levelo://app?vid=01dcaf8c-8366-428f-b15e-0ff5cfcddbb2"},"vehicle_type_id":"4","last_reported":1778664857,"current_range_meters":9600,"station_id":"","pricing_plan_id":"cebpf4jnsgd1na2vs0mg"},{"bike_id":"8b6e8c07-fb10-4510-9029-68a422988c42","system_id":"levelo_inurba_marseille","lat":43.28486,"lon":5.38412,"is_reserved":false,"is_disabled":false,"rental_uris":{"android":"levelo://app?vid=8b6e8c07-fb10-4510-9029-68a422988c42","ios":"levelo://app?vid=8b6e8c07-fb10-4510-9029-68a422988c42"},"vehicle_type_id":"4","last_reported":1778664857,"current_range_meters":9600,"station_id":"ce4bh512rcd13ifvqe3g","pricing_plan_id":"cebpf4jnsgd1na2vs0mg"},{"bike_id":"0d6b863d-a739-425e-918b-3db12e00ce8e","system_id":"levelo_inurba_marseille","lat":43.25823,"lon":5.39415,"is_reserved":false,"is_disabled":false,"rental_uris":{"android":"levelo://app?vid=0d6b863d-a739-425e-918b-3db12e00ce8e","ios":"levelo://app?vid=0d6b863d-a739-425e-918b-3db12e00ce8e"},"vehicle_type_id":"4","last_reported":1778664857,"current_range_meters":9600,"station_id":"ce4bhip2rcd13ifvqft0","pricing_plan_id":"cebpf4jnsgd1na2vs0mg"},{"bike_id":"7170c5f3-b962-449b-acc3-c350995b0888","system_id":"levelo_inurba_marseille","lat":43.27322,"lon":5.39087,"is_reserved":false,"is_disabled":true,"rental_uris":{"android":"levelo://app?vid=7170c5f3-b962-449b-acc3-c350995b0888","ios":"levelo://app?vid=7170c5f3-b962-449b-acc3-c350995b0888"},"vehicle_type_id":"4","last_reported":1778664857,"current_range_meters":9600,"station_id":"ce4bhgp2rcd13ifvqfe0","pricing_plan_id":"cebpf4jnsgd1na2vs0mg"},{"bike_id":"831e1272-1f1e-4544-a3ac-a91fe73e894e","system_id":"levelo_inurba_marseille","lat":43.24805,"lon":5.37458,"is_reserved":false,"is_disabled":false,"rental_uris":{"android":"levelo://app?vid=831e1272-1f1e-4544-a3ac-a91fe73e894e","ios":"levelo://app?vid=831e1272-1f1e-4544-a3ac-a91fe73e894e"},"vehicle_type_id":"4","last_reported":1778664857,"current_range_meters":9600,"station_id":"ce4bhgh2rcd13ifvqfb0","pricing_plan_id":"cebpf4jnsgd1na2vs0mg"},{"bike_id":"573945d6-10da-4f22-8096-cda2709a2714","system_id":"levelo_inurba_marseille","lat":43.24186,"lon":5.39746,"is_reserved":false,"is_disabled":false,"rental_uris":{"android":"levelo://app?vid=573945d6-10da-4f22-8096-cda2709a2714","ios":"levelo://app?vid=573945d6-10da-4f22-8096-cda2709a2714"},"vehicle_type_id":"4","last_reported":1778664857,"current_range_meters":9600,"station_id":"ce4bhn12rcd13ifvqgpg","pricing_plan_id":"cebpf4jnsgd1na2vs0mg"},{"bike_id":"a57b1f95-9e31-4dff-8ba3-8d8532694490","system_id":"levelo_inurba_marseille","lat":43.28637,"lon":5.47498,"is_reserved":false,"is_disabled":false,"rental_uris":{"android":"levelo://app?vid=a57b1f95-9e31-4dff-8ba3-8d8532694490","ios":"levelo://app?vid=a57b1f95-9e31-4dff-8ba3-8d8532694490"},"vehicle_type_id":"4","last_reported":1778664857,"current_range_meters":9600,"station_id":"","pricing_plan_id":"cebpf4jnsgd1na2vs0mg"},{"bike_id":"079481d5-effa-4897-a86f-eb210954c598","system_id":"levelo_inurba_marseille","lat":43.33536,"lon":5.3745,"is_reserved":false,"is_disabled":false,"rental_uris":{"android":"levelo://app?vid=079481d5-effa-4897-a86f-eb210954c598","ios":"levelo://app?vid=079481d5-effa-4897-a86f-eb210954c598"},"vehicle_type_id":"4","last_reported":1778664857,"current_range_meters":9600,"station_id":"st_d46tts09ee8s73dlu43g","pricing_plan_id":"cebpf4jnsgd1na2vs0mg"},{"bike_id":"968a2c85-1263-41b4-8ee5-1862c3ef50d1","system_id":"levelo_inurba_marseille","lat":43.21761,"lon":5.34589,"is_reserved":false,"is_disabled":false,"rental_uris":{"android":"levelo://app?vid=968a2c85-1263-41b4-8ee5-1862c3ef50d1","ios":"levelo://app?vid=968a2c85-1263-41b4-8ee5-1862c3ef50d1"},"vehicle_type_id":"4","last_reported":1778664857,"current_range_meters":10000,"station_id":"st_cvj6r9ubvosntc0bgbag","pricing_plan_id":"cebpf4jnsgd1na2vs0mg"},{"bike_id":"0326f06c-55c4-452e-923e-f53ba4ecef5c","system_id":"levelo_inurba_marseille","lat":43.26198,"lon":5.37926,"is_reserved":false,"is_disabled":false,"rental_uris":{"android":"levelo://app?vid=0326f06c-55c4-452e-923e-f53ba4ecef5c","ios":"levelo://app?vid=0326f06c-55c4-452e-923e-f53ba4ecef5c"},"vehicle_type_id":"4","last_reported":1778664857,"current_range_meters":10000,"station_id":"ce4bhjp2rcd13ifvqg90","pricing_plan_id":"cebpf4jnsgd1na2vs0mg"},{"bike_id":"a3e5c805-901c-4625-95ba-e3051c9c6c64","system_id":"levelo_inurba_marseille","lat":43.28165,"lon":5.42686,"is_reserved":false,"is_disabled":true,"rental_uris":{"android":"levelo://app?vid=a3e5c805-901c-4625-95ba-e3051c9c6c64","ios":"levelo://app?vid=a3e5c805-901c-4625-95ba-e3051c9c6c64"},"vehicle_type_id":"4","last_reported":1778664857,"current_range_meters":10000,"station_id":"ce4bhnh2rcd13ifvqgug","pricing_plan_id":"cebpf4jnsgd1na2vs0mg"},{"bike_id":"b382c4a0-0a98-4989-8112-425ce6b5ebae","system_id":"levelo_inurba_marseille","lat":43.29089,"lon":5.37195,"is_reserved":false,"is_disabled":false,"rental_uris":{"android":"levelo://app?vid=b382c4a0-0a98-4989-8112-425ce6b5ebae","ios":"levelo://app?vid=b382c4a0-0a98-4989-8112-425ce6b5ebae"},"vehicle_type_id":"4","last_reported":1778664857,"current_range_meters":10000,"station_id":"ce4bh5p2rcd13ifvqe4g","pricing_plan_id":"cebpf4jnsgd1na2vs0mg"},{"bike_id":"83d42d4e-dcf9-412b-b017-1bfd0f79858e","system_id":"levelo_inurba_marseille","lat":43.26701,"lon":5.38304,"is_reserved":false,"is_disabled":true,"rental_uris":{"android":"levelo://app?vid=83d42d4e-dcf9-412b-b017-1bfd0f79858e","ios":"levelo://app?vid=83d42d4e-dcf9-412b-b017-1bfd0f79858e"},"vehicle_type_id":"4","last_reported":1778664857,"current_range_meters":10000,"station_id":"ce4bhg92rcd13ifvqf90","pricing_plan_id":"cebpf4jnsgd1na2vs0mg"},{"bike_id":"5f6e429d-ed0f-4b74-931b-cf2c877dc0d9","system_id":"levelo_inurba_marseille","lat":43.2416,"lon":5.36447,"is_reserved":false,"is_disabled":false,"rental_uris":{"android":"levelo://app?vid=5f6e429d-ed0f-4b74-931b-cf2c877dc0d9","ios":"levelo://app?vid=5f6e429d-ed0f-4b74-931b-cf2c877dc0d9"},"vehicle_type_id":"4","last_reported":1778664857,"current_range_meters":10000,"station_id":"cpo36qri1sfpv3e86is0","pricing_plan_id":"cebpf4jnsgd1na2vs0mg"},{"bike_id":"db78f8e3-b461-4af6-9f43-c62d3c0e8d9a","system_id":"levelo_inurba_marseille","lat":43.29878,"lon":5.38882,"is_reserved":false,"is_disabled":false,"rental_uris":{"android":"levelo://app?vid=db78f8e3-b461-4af6-9f43-c62d3c0e8d9a","ios":"levelo://app?vid=db78f8e3-b461-4af6-9f43-c62d3c0e8d9a"},"vehicle_type_id":"4","last_reported":1778664857,"current_range_meters":10000,"station_id":"ce4bh392rcd13ifvqdl0","pricing_plan_id":"cebpf4jnsgd1na2vs0mg"},{"bike_id":"aa0e622f-172f-4f6e-a6b3-165134cfbfca","system_id":"levelo_inurba_marseille","lat":43.30783,"lon":5.38542,"is_reserved":false,"is_disabled":false,"rental_uris":{"android":"levelo://app?vid=aa0e622f-172f-4f6e-a6b3-165134cfbfca","ios":"levelo://app?vid=aa0e622f-172f-4f6e-a6b3-165134cfbfca"},"vehicle_type_id":"4","last_reported":1778664857,"current_range_meters":10000,"station_id":"","pricing_plan_id":"cebpf4jnsgd1na2vs0mg"},{"bike_id":"f586a209-1121-4a26-8d01-f2c613b0594f","system_id":"levelo_inurba_marseille","lat":43.3359,"lon":5.4097,"is_reserved":false,"is_disabled":false,"rental_uris":{"android":"levelo://app?vid=f586a209-1121-4a26-8d01-f2c613b0594f","ios":"levelo://app?vid=f586a209-1121-4a26-8d01-f2c613b0594f"},"vehicle_type_id":"4","last_reported":1778664857,"current_range_meters":10000,"station_id":"","pricing_plan_id":"cebpf4jnsgd1na2vs0mg"},{"bike_id":"e03819e0-5bd7-4a43-9a0c-b4ff2ef59d83","system_id":"levelo_inurba_marseille","lat":43.28409,"lon":5.37521,"is_reserved":false,"is_disabled":false,"rental_uris":{"android":"levelo://app?vid=e03819e0-5bd7-4a43-9a0c-b4ff2ef59d83","ios":"levelo://app?vid=e03819e0-5bd7-4a43-9a0c-b4ff2ef59d83"},"vehicle_type_id":"4","last_reported":1778664857,"current_range_meters":10000,"station_id":"ce4bh412rcd13ifvqds0","pricing_plan_id":"cebpf4jnsgd1na2vs0mg"},{"bike_id":"f3277763-6453-4020-8d91-d6f291fade14","system_id":"levelo_inurba_marseille","lat":43.30377,"lon":5.42465,"is_reserved":false,"is_disabled":false,"rental_uris":{"android":"levelo://app?vid=f3277763-6453-4020-8d91-d6f291fade14","ios":"levelo://app?vid=f3277763-6453-4020-8d91-d6f291fade14"},"vehicle_type_id":"4","last_reported":1778664857,"current_range_meters":10800,"station_id":"ce4bhoh2rcd13ifvqh6g","pricing_plan_id":"cebpf4jnsgd1na2vs0mg"},{"bike_id":"c206aa84-7330-4ed3-965c-a76882628d82","system_id":"levelo_inurba_marseille","lat":43.32354,"lon":5.36728,"is_reserved":false,"is_disabled":false,"rental_uris":{"android":"levelo://app?vid=c206aa84-7330-4ed3-965c-a76882628d82","ios":"levelo://app?vid=c206aa84-7330-4ed3-965c-a76882628d82"},"vehicle_type_id":"4","last_reported":1778664857,"current_range_meters":10800,"station_id":"ce4bhsh2rcd13ifvqi2g","pricing_plan_id":"cebpf4jnsgd1na2vs0mg"},{"bike_id":"34ade284-ba04-4bdd-9325-b820a7b1a25c","system_id":"levelo_inurba_marseille","lat":43.23977,"lon":5.36631,"is_reserved":false,"is_disabled":false,"rental_uris":{"android":"levelo://app?vid=34ade284-ba04-4bdd-9325-b820a7b1a25c","ios":"levelo://app?vid=34ade284-ba04-4bdd-9325-b820a7b1a25c"},"vehicle_type_id":"4","last_reported":1778664857,"current_range_meters":10800,"station_id":"ce4bhi12rcd13ifvqfp0","pricing_plan_id":"cebpf4jnsgd1na2vs0mg"},{"bike_id":"86a0c67a-68b6-43ba-9ecf-ca03f554bf33","system_id":"levelo_inurba_marseille","lat":43.2509,"lon":5.3952,"is_reserved":false,"is_disabled":false,"rental_uris":{"android":"levelo://app?vid=86a0c67a-68b6-43ba-9ecf-ca03f554bf33","ios":"levelo://app?vid=86a0c67a-68b6-43ba-9ecf-ca03f554bf33"},"vehicle_type_id":"4","last_reported":1778664857,"current_range_meters":10800,"station_id":"","pricing_plan_id":"cebpf4jnsgd1na2vs0mg"},{"bike_id":"b291d52c-ad1f-43d0-9485-84239deb9fc6","system_id":"levelo_inurba_marseille","lat":43.25889,"lon":5.40513,"is_reserved":false,"is_disabled":false,"rental_uris":{"android":"levelo://app?vid=b291d52c-ad1f-43d0-9485-84239deb9fc6","ios":"levelo://app?vid=b291d52c-ad1f-43d0-9485-84239deb9fc6"},"vehicle_type_id":"4","last_reported":1778664857,"current_range_meters":10800,"station_id":"","pricing_plan_id":"cebpf4jnsgd1na2vs0mg"},{"bike_id":"930812e8-7364-47c0-a3e4-9a1113dfa476","system_id":"levelo_inurba_marseille","lat":43.2322,"lon":5.35558,"is_reserved":false,"is_disabled":false,"rental_uris":{"android":"levelo://app?vid=930812e8-7364-47c0-a3e4-9a1113dfa476","ios":"levelo://app?vid=930812e8-7364-47c0-a3e4-9a1113dfa476"},"vehicle_type_id":"4","last_reported":1778664857,"current_range_meters":10800,"station_id":"ce4bhu92rcd13ifvqi70","pricing_plan_id":"cebpf4jnsgd1na2vs0mg"},{"bike_id":"ec8cdcb1-f26b-4045-8978-df7f2d6e4a11","system_id":"levelo_inurba_marseille","lat":43.29032,"lon":5.39985,"is_reserved":false,"is_disabled":false,"rental_uris":{"android":"levelo://app?vid=ec8cdcb1-f26b-4045-8978-df7f2d6e4a11","ios":"levelo://app?vid=ec8cdcb1-f26b-4045-8978-df7f2d6e4a11"},"vehicle_type_id":"4","last_reported":1778664857,"current_range_meters":10800,"station_id":"ce4bh392rcd13ifvqdm0","pricing_plan_id":"cebpf4jnsgd1na2vs0mg"},{"bike_id":"2b5fe402-9738-47b4-b3c3-eccb3cd3275c","system_id":"levelo_inurba_marseille","lat":43.28535,"lon":5.44107,"is_reserved":false,"is_disabled":false,"rental_uris":{"android":"levelo://app?vid=2b5fe402-9738-47b4-b3c3-eccb3cd3275c","ios":"levelo://app?vid=2b5fe402-9738-47b4-b3c3-eccb3cd3275c"},"vehicle_type_id":"4","last_reported":1778664857,"current_range_meters":10800,"station_id":"st_d3j3df2ikq2c7380ej80","pricing_plan_id":"cebpf4jnsgd1na2vs0mg"},{"bike_id":"32087627-3dbe-4c36-9287-ea18ad3fbcb3","system_id":"levelo_inurba_marseille","lat":43.2582,"lon":5.39435,"is_reserved":false,"is_disabled":false,"rental_uris":{"android":"levelo://app?vid=32087627-3dbe-4c36-9287-ea18ad3fbcb3","ios":"levelo://app?vid=32087627-3dbe-4c36-9287-ea18ad3fbcb3"},"vehicle_type_id":"4","last_reported":1778664857,"current_range_meters":10800,"station_id":"ce4bhip2rcd13ifvqft0","pricing_plan_id":"cebpf4jnsgd1na2vs0mg"},{"bike_id":"1208bc98-41bc-4505-a96d-2e68e4cf8240","system_id":"levelo_inurba_marseille","lat":43.26498,"lon":5.39553,"is_reserved":false,"is_disabled":false,"rental_uris":{"android":"levelo://app?vid=1208bc98-41bc-4505-a96d-2e68e4cf8240","ios":"levelo://app?vid=1208bc98-41bc-4505-a96d-2e68e4cf8240"},"vehicle_type_id":"4","last_reported":1778664857,"current_range_meters":10800,"station_id":"ce4bhi12rcd13ifvqfq0","pricing_plan_id":"cebpf4jnsgd1na2vs0mg"},{"bike_id":"629a3d25-7b2b-4fac-bb8e-794555d27923","system_id":"levelo_inurba_marseille","lat":43.27208,"lon":5.39188,"is_reserved":false,"is_disabled":false,"rental_uris":{"android":"levelo://app?vid=629a3d25-7b2b-4fac-bb8e-794555d27923","ios":"levelo://app?vid=629a3d25-7b2b-4fac-bb8e-794555d27923"},"vehicle_type_id":"4","last_reported":1778664857,"current_range_meters":10800,"station_id":"ce4bhhp2rcd13ifvqfm0","pricing_plan_id":"cebpf4jnsgd1na2vs0mg"},{"bike_id":"deab3ae6-230e-4d9c-b77d-8890290a6790","system_id":"levelo_inurba_marseille","lat":43.28174,"lon":5.42597,"is_reserved":false,"is_disabled":false,"rental_uris":{"android":"levelo://app?vid=deab3ae6-230e-4d9c-b77d-8890290a6790","ios":"levelo://app?vid=deab3ae6-230e-4d9c-b77d-8890290a6790"},"vehicle_type_id":"4","last_reported":1778664857,"current_range_meters":10800,"station_id":"ce4bhnh2rcd13ifvqgug","pricing_plan_id":"cebpf4jnsgd1na2vs0mg"},{"bike_id":"d62165bc-add6-4fe8-a0bf-1c00f826400f","system_id":"levelo_inurba_marseille","lat":43.31181,"lon":5.36822,"is_reserved":false,"is_disabled":false,"rental_uris":{"android":"levelo://app?vid=d62165bc-add6-4fe8-a0bf-1c00f826400f","ios":"levelo://app?vid=d62165bc-add6-4fe8-a0bf-1c00f826400f"},"vehicle_type_id":"4","last_reported":1778664857,"current_range_meters":10800,"station_id":"","pricing_plan_id":"cebpf4jnsgd1na2vs0mg"},{"bike_id":"2737aeca-74db-40a1-ab02-4173d80f740e","system_id":"levelo_inurba_marseille","lat":43.27153,"lon":5.39994,"is_reserved":false,"is_disabled":false,"rental_uris":{"android":"levelo://app?vid=2737aeca-74db-40a1-ab02-4173d80f740e","ios":"levelo://app?vid=2737aeca-74db-40a1-ab02-4173d80f740e"},"vehicle_type_id":"4","last_reported":1778664857,"current_range_meters":10800,"station_id":"","pricing_plan_id":"cebpf4jnsgd1na2vs0mg"},{"bike_id":"378c5f18-b672-46fd-bab2-e1ebb44cc53e","system_id":"levelo_inurba_marseille","lat":43.31405,"lon":5.36665,"is_reserved":false,"is_disabled":false,"rental_uris":{"android":"levelo://app?vid=378c5f18-b672-46fd-bab2-e1ebb44cc53e","ios":"levelo://app?vid=378c5f18-b672-46fd-bab2-e1ebb44cc53e"},"vehicle_type_id":"4","last_reported":1778664857,"current_range_meters":10800,"station_id":"","pricing_plan_id":"cebpf4jnsgd1na2vs0mg"},{"bike_id":"4dbf614a-fde4-461d-8653-8a088d6c6669","system_id":"levelo_inurba_marseille","lat":43.29571,"lon":5.37516,"is_reserved":false,"is_disabled":false,"rental_uris":{"android":"levelo://app?vid=4dbf614a-fde4-461d-8653-8a088d6c6669","ios":"levelo://app?vid=4dbf614a-fde4-461d-8653-8a088d6c6669"},"vehicle_type_id":"4","last_reported":1778664857,"current_range_meters":10800,"station_id":"ce4bgh92rcd13ifvqb50","pricing_plan_id":"cebpf4jnsgd1na2vs0mg"},{"bike_id":"13a7feb0-4757-41a5-a20a-cd76632cf768","system_id":"levelo_inurba_marseille","lat":43.25289,"lon":5.42189,"is_reserved":false,"is_disabled":false,"rental_uris":{"android":"levelo://app?vid=13a7feb0-4757-41a5-a20a-cd76632cf768","ios":"levelo://app?vid=13a7feb0-4757-41a5-a20a-cd76632cf768"},"vehicle_type_id":"4","last_reported":1778664857,"current_range_meters":10800,"station_id":"","pricing_plan_id":"cebpf4jnsgd1na2vs0mg"},{"bike_id":"42ecb80d-03b8-4356-8379-e614ba508c2d","system_id":"levelo_inurba_marseille","lat":43.26561,"lon":5.39027,"is_reserved":false,"is_disabled":false,"rental_uris":{"android":"levelo://app?vid=42ecb80d-03b8-4356-8379-e614ba508c2d","ios":"levelo://app?vid=42ecb80d-03b8-4356-8379-e614ba508c2d"},"vehicle_type_id":"4","last_reported":1778664857,"current_range_meters":10800,"station_id":"ce4bhe12rcd13ifvqf30","pricing_plan_id":"cebpf4jnsgd1na2vs0mg"},{"bike_id":"0d34acb2-c514-430e-a9df-9a8ad6cca093","system_id":"levelo_inurba_marseille","lat":43.31506,"lon":5.3725,"is_reserved":false,"is_disabled":false,"rental_uris":{"android":"levelo://app?vid=0d34acb2-c514-430e-a9df-9a8ad6cca093","ios":"levelo://app?vid=0d34acb2-c514-430e-a9df-9a8ad6cca093"},"vehicle_type_id":"4","last_reported":1778664857,"current_range_meters":10800,"station_id":"","pricing_plan_id":"cebpf4jnsgd1na2vs0mg"},{"bike_id":"b7cfa761-d156-459a-a83d-a6dbbec5dce6","system_id":"levelo_inurba_marseille","lat":43.24657,"lon":5.38882,"is_reserved":false,"is_disabled":false,"rental_uris":{"android":"levelo://app?vid=b7cfa761-d156-459a-a83d-a6dbbec5dce6","ios":"levelo://app?vid=b7cfa761-d156-459a-a83d-a6dbbec5dce6"},"vehicle_type_id":"4","last_reported":1778664857,"current_range_meters":10800,"station_id":"ce4bhg12rcd13ifvqf60","pricing_plan_id":"cebpf4jnsgd1na2vs0mg"},{"bike_id":"47e0079f-cbd3-4783-adb5-9efa73ac6903","system_id":"levelo_inurba_marseille","lat":43.3096,"lon":5.39052,"is_reserved":false,"is_disabled":false,"rental_uris":{"android":"levelo://app?vid=47e0079f-cbd3-4783-adb5-9efa73ac6903","ios":"levelo://app?vid=47e0079f-cbd3-4783-adb5-9efa73ac6903"},"vehicle_type_id":"4","last_reported":1778664857,"current_range_meters":10800,"station_id":"ce4bgup2rcd13ifvqco0","pricing_plan_id":"cebpf4jnsgd1na2vs0mg"},{"bike_id":"a4a84311-491c-4b41-af4f-be6d38d23185","system_id":"levelo_inurba_marseille","lat":43.30959,"lon":5.39066,"is_reserved":false,"is_disabled":false,"rental_uris":{"android":"levelo://app?vid=a4a84311-491c-4b41-af4f-be6d38d23185","ios":"levelo://app?vid=a4a84311-491c-4b41-af4f-be6d38d23185"},"vehicle_type_id":"4","last_reported":1778664857,"current_range_meters":11200,"station_id":"ce4bgup2rcd13ifvqco0","pricing_plan_id":"cebpf4jnsgd1na2vs0mg"},{"bike_id":"12765e4e-c669-4cce-9aaa-e031e0ec47a8","system_id":"levelo_inurba_marseille","lat":43.31706,"lon":5.37719,"is_reserved":false,"is_disabled":false,"rental_uris":{"android":"levelo://app?vid=12765e4e-c669-4cce-9aaa-e031e0ec47a8","ios":"levelo://app?vid=12765e4e-c669-4cce-9aaa-e031e0ec47a8"},"vehicle_type_id":"4","last_reported":1778664857,"current_range_meters":11200,"station_id":"ce4bgth2rcd13ifvqch0","pricing_plan_id":"cebpf4jnsgd1na2vs0mg"},{"bike_id":"af5f0855-c141-4640-8f31-5c24a4ccd93d","system_id":"levelo_inurba_marseille","lat":43.31316,"lon":5.36726,"is_reserved":false,"is_disabled":false,"rental_uris":{"android":"levelo://app?vid=af5f0855-c141-4640-8f31-5c24a4ccd93d","ios":"levelo://app?vid=af5f0855-c141-4640-8f31-5c24a4ccd93d"},"vehicle_type_id":"4","last_reported":1778664857,"current_range_meters":11200,"station_id":"ce4bgr92rcd13ifvqc6g","pricing_plan_id":"cebpf4jnsgd1na2vs0mg"},{"bike_id":"900bd602-dab0-4a20-a947-3135117030e1","system_id":"levelo_inurba_marseille","lat":43.26711,"lon":5.38219,"is_reserved":false,"is_disabled":true,"rental_uris":{"android":"levelo://app?vid=900bd602-dab0-4a20-a947-3135117030e1","ios":"levelo://app?vid=900bd602-dab0-4a20-a947-3135117030e1"},"vehicle_type_id":"4","last_reported":1778664857,"current_range_meters":11200,"station_id":"","pricing_plan_id":"cebpf4jnsgd1na2vs0mg"},