{"last_updated":1747771923,"ttl":60,"version":"2.2","data":{"bikes":[{"bike_id":"c0b9fd4f-e181-46ce-b0bf-f5119973334f","system_id":"levelo_inurba_marseille","lat":43.33771,"lon":5.37424,"is_reserved":false,"is_disabled":true,"rental_uris":{"android":"levelo://app?vid=c0b9fd4f-e181-46ce-b0bf-f5119973334f","ios":"levelo://app?vid=c0b9fd4f-e181-46ce-b0bf-f5119973334f"},"vehicle_type_id":"4","last_reported":1747771923,"current_range_meters":0,"station_id":"","pricing_plan_id":"cebpf4jnsgd1na2vs0mg"},{"bike_id":"fc2577e7-1497-425b-9d4f-ab8d7dc843c6","system_id":"levelo_inurba_marseille","lat":43.33771,"lon":5.37485,"is_reserved":false,"is_disabled":true,"rental_uris":{"android":"levelo://app?vid=fc2577e7-1497-425b-9d4f-ab8d7dc843c6","ios":"levelo://app?vid=fc2577e7-1497-425b-9d4f-ab8d7dc843c6"},"vehicle_type_id":"4","last_reported":1747771923,"current_range_meters":0,"station_id":"","pricing_plan_id":"cebpf4jnsgd1na2vs0mg"},{"bike_id":"399c41cd-ce0f-41ec-852e-8ace5217f7e1","system_id":"levelo_inurba_marseille","lat":43.29959,"lon":5.45278,"is_reserved":false,"is_disabled":true,"rental_uris":{"android":"levelo://app?vid=399c41cd-ce0f-41ec-852e-8ace5217f7e1","ios":"levelo://app?vid=399c41cd-ce0f-41ec-852e-8ace5217f7e1"},"vehicle_type_id":"4","last_reported":1747771923,"current_range_meters":0,"station_id":"","pricing_plan_id":"cebpf4jnsgd1na2vs0mg"},{"bike_id":"51ae0958-406a-4431-94ad-9f5846678e4f","system_id":"levelo_inurba_marseille","lat":43.29421,"lon":5.40863,"is_reserved":false,"is_disabled":true,"rental_uris":{"android":"levelo://app?vid=51ae0958-406a-4431-94ad-9f5846678e4f","ios":"levelo://app?vid=51ae0958-406a-4431-94ad-9f5846678e4f"},"vehicle_type_id":"4","last_reported":1747771923,"current_range_meters":0,"station_id":"","pricing_plan_id":"cebpf4jnsgd1na2vs0mg"},{"bike_id":"e9dd3aa4-b5e7-4480-926d-d7f537719bfa","system_id":"levelo_inurba_marseille","lat":43.230331,"lon":5.401847,"is_reserved":false,"is_disabled":true,"rental_uris":{"android":"levelo://app?vid=e9dd3aa4-b5e7-4480-926d-d7f537719bfa","ios":"levelo://app?vid=e9dd3aa4-b5e7-4480-926d-d7f537719bfa"},"vehicle_type_id":"4","last_reported":1747771923,"current_range_meters":0,"station_id":"","pricing_plan_id":"cebpf4jnsgd1na2vs0mg"},{"bike_id":"e43cc7db-e17d-4b67-833e-a55d9f533603","system_id":"levelo_inurba_marseille","lat":43.30266,"lon":5.38685,"is_reserved":false,"is_disabled":true,"rental_uris":{"android":"levelo://app?vid=e43cc7db-e17d-4b67-833e-a55d9f533603","ios":"levelo://app?vid=e43cc7db-e17d-4b67-833e-a55d9f533603"},"vehicle_type_id":"4","last_reported":1747771923,"current_range_meters":0,"station_id":"","pricing_plan_id":"cebpf4jnsgd1na2vs0mg"},{"bike_id":"622b5b9b-aa79-4dc4-be5b-bf225c89f75a","system_id":"levelo_inurba_marseille","lat":43.309253,"lon":5.401513,"is_reserved":false,"is_disabled":false,"rental_uris":{"android":"levelo://app?vid=622b5b9b-aa79-4dc4-be5b-bf225c89f75a","ios":"levelo://app?vid=622b5b9b-aa79-4dc4-be5b-bf225c89f75a"},"vehicle_type_id":"4","last_reported":1747771923,"current_range_meters":0,"station_id":"ce4bgvp2rcd13ifvqct0","pricing_plan_id":"cebpf4jnsgd1na2vs0mg"},{"bike_id":"56a6054f-2ac5-4865-924d-6ca469db271e","system_id":"levelo_inurba_marseille","lat":43.29034,"lon":5.3814,"is_reserved":false,"is_disabled":true,"rental_uris":{"android":"levelo://app?vid=56a6054f-2ac5-4865-924d-6ca469db271e","ios":"levelo://app?vid=56a6054f-2ac5-4865-924d-6ca469db271e"},"vehicle_type_id":"4","last_reported":1747771923,"current_range_meters":0,"station_id":"ce4bh4p2rcd13ifvqe1g","pricing_plan_id":"cebpf4jnsgd1na2vs0mg"},{"bike_id":"6a42fecf-96e9-4a41-acfa-67174f5ba289","system_id":"levelo_inurba_marseille","lat":43.28468,"lon":5.35877,"is_reserved":false,"is_disabled":true,"rental_uris":{"android":"levelo://app?vid=6a42fecf-96e9-4a41-acfa-67174f5ba289","ios":"levelo://app?vid=6a42fecf-96e9-4a41-acfa-67174f5ba289"},"vehicle_type_id":"4","last_reported":1747771923,"current_range_meters":0,"station_id":"ce4bhah2rcd13ifvqei0","pricing_plan_id":"cebpf4jnsgd1na2vs0mg"},{"bike_id":"5636bff1-0a45-430b-bb01-70d0cea6c4fd","system_id":"levelo_inurba_marseille","lat":43.31915,"lon":5.38999,"is_reserved":false,"is_disabled":true,"rental_uris":{"android":"levelo://app?vid=5636bff1-0a45-430b-bb01-70d0cea6c4fd","ios":"levelo://app?vid=5636bff1-0a45-430b-bb01-70d0cea6c4fd"},"vehicle_type_id":"4","last_reported":1747771923,"current_range_meters":400,"station_id":"","pricing_plan_id":"cebpf4jnsgd1na2vs0mg"},{"bike_id":"912be152-ba23-45b1-a14b-d3513a13eac9","system_id":"levelo_inurba_marseille","lat":43.31851,"lon":5.37301,"is_reserved":false,"is_disabled":true,"rental_uris":{"android":"levelo://app?vid=912be152-ba23-45b1-a14b-d3513a13eac9","ios":"levelo://app?vid=912be152-ba23-45b1-a14b-d3513a13eac9"},"vehicle_type_id":"4","last_reported":1747771923,"current_range_meters":800,"station_id":"","pricing_plan_id":"cebpf4jnsgd1na2vs0mg"},{"bike_id":"9e2cbd5d-3a74-49a6-a697-47f4652758b9","system_id":"levelo_inurba_marseille","lat":43.29275,"lon":5.40868,"is_reserved":false,"is_disabled":true,"rental_uris":{"android":"levelo://app?vid=9e2cbd5d-3a74-49a6-a697-47f4652758b9","ios":"levelo://app?vid=9e2cbd5d-3a74-49a6-a697-47f4652758b9"},"vehicle_type_id":"4","last_reported":1747771923,"current_range_meters":800,"station_id":"ce4bh192rcd13ifvqdc0","pricing_plan_id":"cebpf4jnsgd1na2vs0mg"},{"bike_id":"63b735a1-0f26-490e-a9a9-799f4a659b69","system_id":"levelo_inurba_marseille","lat":43.2904,"lon":5.39953,"is_reserved":false,"is_disabled":true,"rental_uris":{"android":"levelo://app?vid=63b735a1-0f26-490e-a9a9-799f4a659b69","ios":"levelo://app?vid=63b735a1-0f26-490e-a9a9-799f4a659b69"},"vehicle_type_id":"4","last_reported":1747771923,"current_range_meters":1200,"station_id":"ce4bh392rcd13ifvqdm0","pricing_plan_id":"cebpf4jnsgd1na2vs0mg"},{"bike_id":"9cf8170e-88ff-47d6-8a14-8e6cbb11ec67","system_id":"levelo_inurba_marseille","lat":43.28853,"lon":5.35846,"is_reserved":false,"is_disabled":true,"rental_uris":{"android":"levelo://app?vid=9cf8170e-88ff-47d6-8a14-8e6cbb11ec67","ios":"levelo://app?vid=9cf8170e-88ff-47d6-8a14-8e6cbb11ec67"},"vehicle_type_id":"4","last_reported":1747771923,"current_range_meters":1200,"station_id":"ce4bhb12rcd13ifvqem0","pricing_plan_id":"cebpf4jnsgd1na2vs0mg"},{"bike_id":"55354908-40f1-4840-8e54-d933c745cc19","system_id":"levelo_inurba_marseille","lat":43.30926,"lon":5.36936,"is_reserved":false,"is_disabled":true,"rental_uris":{"android":"levelo://app?vid=55354908-40f1-4840-8e54-d933c745cc19","ios":"levelo://app?vid=55354908-40f1-4840-8e54-d933c745cc19"},"vehicle_type_id":"4","last_reported":1747771923,"current_range_meters":1600,"station_id":"","pricing_plan_id":"cebpf4jnsgd1na2vs0mg"},{"bike_id":"3c2e874b-823b-4069-8a4a-aca4fb4238f3","system_id":"levelo_inurba_marseille","lat":43.276301,"lon":5.397366,"is_reserved":false,"is_disabled":true,"rental_uris":{"android":"levelo://app?vid=3c2e874b-823b-4069-8a4a-aca4fb4238f3","ios":"levelo://app?vid=3c2e874b-823b-4069-8a4a-aca4fb4238f3"},"vehicle_type_id":"4","last_reported":1747771923,"current_range_meters":1600,"station_id":"","pricing_plan_id":"cebpf4jnsgd1na2vs0mg"},{"bike_id":"6d362400-aab0-4c9b-b57a-9f45b61b2a84","system_id":"levelo_inurba_marseille","lat":43.3002,"lon":5.40918,"is_reserved":false,"is_disabled":true,"rental_uris":{"android":"levelo://app?vid=6d362400-aab0-4c9b-b57a-9f45b61b2a84","ios":"levelo://app?vid=6d362400-aab0-4c9b-b57a-9f45b61b2a84"},"vehicle_type_id":"4","last_reported":1747771923,"current_range_meters":1600,"station_id":"","pricing_plan_id":"cebpf4jnsgd1na2vs0mg"},{"bike_id":"39329f30-ee68-4392-b9b4-31bbb616c54b","system_id":"levelo_inurba_marseille","lat":43.30594,"lon":5.39361,"is_reserved":false,"is_disabled":true,"rental_uris":{"android":"levelo://app?vid=39329f30-ee68-4392-b9b4-31bbb616c54b","ios":"levelo://app?vid=39329f30-ee68-4392-b9b4-31bbb616c54b"},"vehicle_type_id":"4","last_reported":1747771923,"current_range_meters":1600,"station_id":"ce4bh0p2rcd13ifvqd80","pricing_plan_id":"cebpf4jnsgd1na2vs0mg"},{"bike_id":"f3bb75e6-853b-4a66-8c57-f126f7b5551e","system_id":"levelo_inurba_marseille","lat":43.28937,"lon":5.36639,"is_reserved":false,"is_disabled":true,"rental_uris":{"android":"levelo://app?vid=f3bb75e6-853b-4a66-8c57-f126f7b5551e","ios":"levelo://app?vid=f3bb75e6-853b-4a66-8c57-f126f7b5551e"},"vehicle_type_id":"4","last_reported":1747771923,"current_range_meters":1600,"station_id":"ce4bhap2rcd13ifvqek0","pricing_plan_id":"cebpf4jnsgd1na2vs0mg"},{"bike_id":"89654c77-cc57-4ec4-b573-77bad85ed256","system_id":"levelo_inurba_marseille","lat":43.28626,"lon":5.35107,"is_reserved":false,"is_disabled":false,"rental_uris":{"android":"levelo://app?vid=89654c77-cc57-4ec4-b573-77bad85ed256","ios":"levelo://app?vid=89654c77-cc57-4ec4-b573-77bad85ed256"},"vehicle_type_id":"4","last_reported":1747771923,"current_range_meters":2800,"station_id":"ce4bhch2rcd13ifvqeug","pricing_plan_id":"cebpf4jnsgd1na2vs0mg"},{"bike_id":"d549c2b1-2d42-45d0-8d83-0d82178f176c","system_id":"levelo_inurba_marseille","lat":43.27815,"lon":5.40713,"is_reserved":false,"is_disabled":false,"rental_uris":{"android":"levelo://app?vid=d549c2b1-2d42-45d0-8d83-0d82178f176c","ios":"levelo://app?vid=d549c2b1-2d42-45d0-8d83-0d82178f176c"},"vehicle_type_id":"4","last_reported":1747771923,"current_range_meters":2800,"station_id":"ce4bhnh2rcd13ifvqgtg","pricing_plan_id":"cebpf4jnsgd1na2vs0mg"},{"bike_id":"e64e36d1-c3e7-4427-9260-70ac75fa0a1c","system_id":"levelo_inurba_marseille","lat":43.33792,"lon":5.37469,"is_reserved":false,"is_disabled":false,"rental_uris":{"android":"levelo://app?vid=e64e36d1-c3e7-4427-9260-70ac75fa0a1c","ios":"levelo://app?vid=e64e36d1-c3e7-4427-9260-70ac75fa0a1c"},"vehicle_type_id":"4","last_reported":1747771923,"current_range_meters":3600,"station_id":"","pricing_plan_id":"cebpf4jnsgd1na2vs0mg"},{"bike_id":"5ac48e11-f2d3-4191-b996-9ef606ab77e0","system_id":"levelo_inurba_marseille","lat":43.27972,"lon":5.38738,"is_reserved":false,"is_disabled":false,"rental_uris":{"android":"levelo://app?vid=5ac48e11-f2d3-4191-b996-9ef606ab77e0","ios":"levelo://app?vid=5ac48e11-f2d3-4191-b996-9ef606ab77e0"},"vehicle_type_id":"4","last_reported":1747771923,"current_range_meters":3600,"station_id":"ce4bhg12rcd13ifvqf80","pricing_plan_id":"cebpf4jnsgd1na2vs0mg"},{"bike_id":"e815538f-6f77-4cff-946e-c46f01f2b2ea","system_id":"levelo_inurba_marseille","lat":43.295951,"lon":5.368438,"is_reserved":false,"is_disabled":false,"rental_uris":{"android":"levelo://app?vid=e815538f-6f77-4cff-946e-c46f01f2b2ea","ios":"levelo://app?vid=e815538f-6f77-4cff-946e-c46f01f2b2ea"},"vehicle_type_id":"4","last_reported":1747771923,"current_range_meters":4000,"station_id":"ce4bgph2rcd13ifvqc2g","pricing_plan_id":"cebpf4jnsgd1na2vs0mg"},{"bike_id":"b6189090-9608-49c3-b498-3231a14cef5c","system_id":"levelo_inurba_marseille","lat":43.28718,"lon":5.3609,"is_reserved":false,"is_disabled":false,"rental_uris":{"android":"levelo://app?vid=b6189090-9608-49c3-b498-3231a14cef5c","ios":"levelo://app?vid=b6189090-9608-49c3-b498-3231a14cef5c"},"vehicle_type_id":"4","last_reported":1747771923,"current_range_meters":4000,"station_id":"cki0cbj6b192h4jlfktg","pricing_plan_id":"cebpf4jnsgd1na2vs0mg"},{"bike_id":"20bee342-4a3f-4f34-940d-bb6cf00d52ae","system_id":"levelo_inurba_marseille","lat":43.26678,"lon":5.38562,"is_reserved":false,"is_disabled":false,"rental_uris":{"android":"levelo://app?vid=20bee342-4a3f-4f34-940d-bb6cf00d52ae","ios":"levelo://app?vid=20bee342-4a3f-4f34-940d-bb6cf00d52ae"},"vehicle_type_id":"4","last_reported":1747771923,"current_range_meters":4400,"station_id":"","pricing_plan_id":"cebpf4jnsgd1na2vs0mg"},{"bike_id":"10f4c314-db76-4aae-a5c9-eac8c6fcb0ea","system_id":"levelo_inurba_marseille","lat":43.2979,"lon":5.39337,"is_reserved":false,"is_disabled":true,"rental_uris":{"android":"levelo://app?vid=10f4c314-db76-4aae-a5c9-eac8c6fcb0ea","ios":"levelo://app?vid=10f4c314-db76-4aae-a5c9-eac8c6fcb0ea"},"vehicle_type_id":"4","last_reported":1747771923,"current_range_meters":4400,"station_id":"chh1huq6cuj3fo74tm60","pricing_plan_id":"cebpf4jnsgd1na2vs0mg"},{"bike_id":"ba59102a-6c47-4600-bcb9-76e5920c2815","system_id":"levelo_inurba_marseille","lat":43.31363,"lon":5.3719,"is_reserved":false,"is_disabled":false,"rental_uris":{"android":"levelo://app?vid=ba59102a-6c47-4600-bcb9-76e5920c2815","ios":"levelo://app?vid=ba59102a-6c47-4600-bcb9-76e5920c2815"},"vehicle_type_id":"4","last_reported":1747771923,"current_range_meters":5600,"station_id":"","pricing_plan_id":"cebpf4jnsgd1na2vs0mg"},{"bike_id":"2c9af4f5-90ae-4de9-907d-a7db3c66d637","system_id":"levelo_inurba_marseille","lat":43.30438,"lon":5.38887,"is_reserved":false,"is_disabled":false,"rental_uris":{"android":"levelo://app?vid=2c9af4f5-90ae-4de9-907d-a7db3c66d637","ios":"levelo://app?vid=2c9af4f5-90ae-4de9-907d-a7db3c66d637"},"vehicle_type_id":"4","last_reported":1747771923,"current_range_meters":5600,"station_id":"ce4bgk12rcd13ifvqbi0","pricing_plan_id":"cebpf4jnsgd1na2vs0mg"},{"bike_id":"f846871c-c1cf-42ab-91a0-f1970a492a70","system_id":"levelo_inurba_marseille","lat":43.30948,"lon":5.39047,"is_reserved":false,"is_disabled":false,"rental_uris":{"android":"levelo://app?vid=f846871c-c1cf-42ab-91a0-f1970a492a70","ios":"levelo://app?vid=f846871c-c1cf-42ab-91a0-f1970a492a70"},"vehicle_type_id":"4","last_reported":1747771923,"current_range_meters":5600,"station_id":"ce4bgup2rcd13ifvqco0","pricing_plan_id":"cebpf4jnsgd1na2vs0mg"},{"bike_id":"823fcc98-1431-46cc-80db-eb17a9151132","system_id":"levelo_inurba_marseille","lat":43.28418,"lon":5.37524,"is_reserved":false,"is_disabled":false,"rental_uris":{"android":"levelo://app?vid=823fcc98-1431-46cc-80db-eb17a9151132","ios":"levelo://app?vid=823fcc98-1431-46cc-80db-eb17a9151132"},"vehicle_type_id":"4","last_reported":1747771923,"current_range_meters":5600,"station_id":"ce4bh412rcd13ifvqds0","pricing_plan_id":"cebpf4jnsgd1na2vs0mg"},{"bike_id":"9c3eadf3-209c-4ac8-b003-8fcd453ae05f","system_id":"levelo_inurba_marseille","lat":43.2804,"lon":5.36934,"is_reserved":false,"is_disabled":false,"rental_uris":{"android":"levelo://app?vid=9c3eadf3-209c-4ac8-b003-8fcd453ae05f","ios":"levelo://app?vid=9c3eadf3-209c-4ac8-b003-8fcd453ae05f"},"vehicle_type_id":"4","last_reported":1747771923,"current_range_meters":5600,"station_id":"ce4bha12rcd13ifvqef0","pricing_plan_id":"cebpf4jnsgd1na2vs0mg"},{"bike_id":"cf20a5f9-ed8c-4691-830f-418dcf259a2b","system_id":"levelo_inurba_marseille","lat":43.25513,"lon":5.37639,"is_reserved":false,"is_disabled":false,"rental_uris":{"android":"levelo://app?vid=cf20a5f9-ed8c-4691-830f-418dcf259a2b","ios":"levelo://app?vid=cf20a5f9-ed8c-4691-830f-418dcf259a2b"},"vehicle_type_id":"4","last_reported":1747771923,"current_range_meters":5600,"station_id":"ce4bhh12rcd13ifvqff0","pricing_plan_id":"cebpf4jnsgd1na2vs0mg"},{"bike_id":"bac4dd3b-4030-4d8f-b914-9bb5063ae35d","system_id":"levelo_inurba_marseille","lat":43.29032,"lon":5.38657,"is_reserved":false,"is_disabled":false,"rental_uris":{"android":"levelo://app?vid=bac4dd3b-4030-4d8f-b914-9bb5063ae35d","ios":"levelo://app?vid=bac4dd3b-4030-4d8f-b914-9bb5063ae35d"},"vehicle_type_id":"4","last_reported":1747771923,"current_range_meters":6000,"station_id":"ce4bh4p2rcd13ifvqe0g","pricing_plan_id":"cebpf4jnsgd1na2vs0mg"},{"bike_id":"43a669de-adcd-42c3-8105-1febeebaa55c","system_id":"levelo_inurba_marseille","lat":43.27927,"lon":5.39565,"is_reserved":false,"is_disabled":false,"rental_uris":{"android":"levelo://app?vid=43a669de-adcd-42c3-8105-1febeebaa55c","ios":"levelo://app?vid=43a669de-adcd-42c3-8105-1febeebaa55c"},"vehicle_type_id":"4","last_reported":1747771923,"current_range_meters":6000,"station_id":"ce4bhf92rcd13ifvqf40","pricing_plan_id":"cebpf4jnsgd1na2vs0mg"},{"bike_id":"3756623f-8650-41f1-921f-b5cabd8d6af7","system_id":"levelo_inurba_marseille","lat":43.31985,"lon":5.37464,"is_reserved":false,"is_disabled":false,"rental_uris":{"android":"levelo://app?vid=3756623f-8650-41f1-921f-b5cabd8d6af7","ios":"levelo://app?vid=3756623f-8650-41f1-921f-b5cabd8d6af7"},"vehicle_type_id":"4","last_reported":1747771923,"current_range_meters":6400,"station_id":"","pricing_plan_id":"cebpf4jnsgd1na2vs0mg"},{"bike_id":"bcbdbd69-7be8-42f8-a855-a4358565de8f","system_id":"levelo_inurba_marseille","lat":43.27722,"lon":5.41404,"is_reserved":false,"is_disabled":false,"rental_uris":{"android":"levelo://app?vid=bcbdbd69-7be8-42f8-a855-a4358565de8f","ios":"levelo://app?vid=bcbdbd69-7be8-42f8-a855-a4358565de8f"},"vehicle_type_id":"4","last_reported":1747771923,"current_range_meters":6400,"station_id":"","pricing_plan_id":"cebpf4jnsgd1na2vs0mg"},{"bike_id":"d9b61f2d-7aab-43de-bfc5-6558a2b367e3","system_id":"levelo_inurba_marseille","lat":43.2925,"lon":5.40904,"is_reserved":false,"is_disabled":false,"rental_uris":{"android":"levelo://app?vid=d9b61f2d-7aab-43de-bfc5-6558a2b367e3","ios":"levelo://app?vid=d9b61f2d-7aab-43de-bfc5-6558a2b367e3"},"vehicle_type_id":"4","last_reported":1747771923,"current_range_meters":6400,"station_id":"ce4bh192rcd13ifvqdc0","pricing_plan_id":"cebpf4jnsgd1na2vs0mg"},{"bike_id":"4b88fdea-9410-479b-abf3-7d2c52ae8721","system_id":"levelo_inurba_marseille","lat":43.25103,"lon":5.40327,"is_reserved":false,"is_disabled":false,"rental_uris":{"android":"levelo://app?vid=4b88fdea-9410-479b-abf3-7d2c52ae8721","ios":"levelo://app?vid=4b88fdea-9410-479b-abf3-7d2c52ae8721"},"vehicle_type_id":"4","last_reported":1747771923,"current_range_meters":6400,"station_id":"ce4bhlh2rcd13ifvqgig","pricing_plan_id":"cebpf4jnsgd1na2vs0mg"},{"bike_id":"43c03801-dc54-42f6-a1de-277ec4aa4a5b","system_id":"levelo_inurba_marseille","lat":43.23187,"lon":5.39998,"is_reserved":false,"is_disabled":false,"rental_uris":{"android":"levelo://app?vid=43c03801-dc54-42f6-a1de-277ec4aa4a5b","ios":"levelo://app?vid=43c03801-dc54-42f6-a1de-277ec4aa4a5b"},"vehicle_type_id":"4","last_reported":1747771923,"current_range_meters":6400,"station_id":"ce4bhn12rcd13ifvqgqg","pricing_plan_id":"cebpf4jnsgd1na2vs0mg"},{"bike_id":"852f9d52-273b-4954-8275-b006f734e3ee","system_id":"levelo_inurba_marseille","lat":43.331225,"lon":5.409827,"is_reserved":false,"is_disabled":false,"rental_uris":{"android":"levelo://app?vid=852f9d52-273b-4954-8275-b006f734e3ee","ios":"levelo://app?vid=852f9d52-273b-4954-8275-b006f734e3ee"},"vehicle_type_id":"4","last_reported":1747771923,"current_range_meters":6400,"station_id":"ce4bhqh2rcd13ifvqhmg","pricing_plan_id":"cebpf4jnsgd1na2vs0mg"},{"bike_id":"86cf97dc-ea2d-428a-8962-7cd0d9f1878a","system_id":"levelo_inurba_marseille","lat":43.28535,"lon":5.38282,"is_reserved":false,"is_disabled":false,"rental_uris":{"android":"levelo://app?vid=86cf97dc-ea2d-428a-8962-7cd0d9f1878a","ios":"levelo://app?vid=86cf97dc-ea2d-428a-8962-7cd0d9f1878a"},"vehicle_type_id":"4","last_reported":1747771923,"current_range_meters":6800,"station_id":"","pricing_plan_id":"cebpf4jnsgd1na2vs0mg"},{"bike_id":"8f0f531d-6a65-4647-8a6f-baa3d982f42f","system_id":"levelo_inurba_marseille","lat":43.28131,"lon":5.42573,"is_reserved":false,"is_disabled":false,"rental_uris":{"android":"levelo://app?vid=8f0f531d-6a65-4647-8a6f-baa3d982f42f","ios":"levelo://app?vid=8f0f531d-6a65-4647-8a6f-baa3d982f42f"},"vehicle_type_id":"4","last_reported":1747771923,"current_range_meters":6800,"station_id":"","pricing_plan_id":"cebpf4jnsgd1na2vs0mg"},{"bike_id":"b5d7af4e-7d5c-464a-99ca-a69ec054d19f","system_id":"levelo_inurba_marseille","lat":43.30835,"lon":5.37915,"is_reserved":false,"is_disabled":false,"rental_uris":{"android":"levelo://app?vid=b5d7af4e-7d5c-464a-99ca-a69ec054d19f","ios":"levelo://app?vid=b5d7af4e-7d5c-464a-99ca-a69ec054d19f"},"vehicle_type_id":"4","last_reported":1747771923,"current_range_meters":6800,"station_id":"","pricing_plan_id":"cebpf4jnsgd1na2vs0mg"},{"bike_id":"4ab9b3ed-a9ed-4877-9a5d-facdce5179e1","system_id":"levelo_inurba_marseille","lat":43.31329,"lon":5.39688,"is_reserved":false,"is_disabled":false,"rental_uris":{"android":"levelo://app?vid=4ab9b3ed-a9ed-4877-9a5d-facdce5179e1","ios":"levelo://app?vid=4ab9b3ed-a9ed-4877-9a5d-facdce5179e1"},"vehicle_type_id":"4","last_reported":1747771923,"current_range_meters":6800,"station_id":"ce4bgvp2rcd13ifvqcu0","pricing_plan_id":"cebpf4jnsgd1na2vs0mg"},{"bike_id":"01cb2e34-f8ae-4c99-bc04-8da7443e4644","system_id":"levelo_inurba_marseille","lat":43.30419,"lon":5.4128,"is_reserved":false,"is_disabled":false,"rental_uris":{"android":"levelo://app?vid=01cb2e34-f8ae-4c99-bc04-8da7443e4644","ios":"levelo://app?vid=01cb2e34-f8ae-4c99-bc04-8da7443e4644"},"vehicle_type_id":"4","last_reported":1747771923,"current_range_meters":6800,"station_id":"ce4bhop2rcd13ifvqh8g","pricing_plan_id":"cebpf4jnsgd1na2vs0mg"},{"bike_id":"a86d588e-15d7-4bbc-a49c-a091c128c973","system_id":"levelo_inurba_marseille","lat":43.23195,"lon":5.3556,"is_reserved":false,"is_disabled":false,"rental_uris":{"android":"levelo://app?vid=a86d588e-15d7-4bbc-a49c-a091c128c973","ios":"levelo://app?vid=a86d588e-15d7-4bbc-a49c-a091c128c973"},"vehicle_type_id":"4","last_reported":1747771923,"current_range_meters":6800,"station_id":"ce4bhu92rcd13ifvqi70","pricing_plan_id":"cebpf4jnsgd1na2vs0mg"},{"bike_id":"bb3b73d5-4293-413e-b35d-0b08156e2704","system_id":"levelo_inurba_marseille","lat":43.294189,"lon":5.386165,"is_reserved":false,"is_disabled":false,"rental_uris":{"android":"levelo://app?vid=bb3b73d5-4293-413e-b35d-0b08156e2704","ios":"levelo://app?vid=bb3b73d5-4293-413e-b35d-0b08156e2704"},"vehicle_type_id":"4","last_reported":1747771923,"current_range_meters":7200,"station_id":"ce4bh2h2rcd13ifvqdh0","pricing_plan_id":"cebpf4jnsgd1na2vs0mg"},{"bike_id":"1addcad7-d488-4e1c-b76c-777e91802e42","system_id":"levelo_inurba_marseille","lat":43.25085,"lon":5.39515,"is_reserved":false,"is_disabled":false,"rental_uris":{"android":"levelo://app?vid=1addcad7-d488-4e1c-b76c-777e91802e42","ios":"levelo://app?vid=1addcad7-d488-4e1c-b76c-777e91802e42"},"vehicle_type_id":"4","last_reported":1747771923,"current_range_meters":7200,"station_id":"ce4bhm12rcd13ifvqgkg","pricing_plan_id":"cebpf4jnsgd1na2vs0mg"},{"bike_id":"85eaca89-9437-48d0-9bca-a254337b88db","system_id":"levelo_inurba_marseille","lat":43.27436,"lon":5.40982,"is_reserved":false,"is_disabled":false,"rental_uris":{"android":"levelo://app?vid=85eaca89-9437-48d0-9bca-a254337b88db","ios":"levelo://app?vid=85eaca89-9437-48d0-9bca-a254337b88db"},"vehicle_type_id":"4","last_reported":1747771923,"current_range_meters":8000,"station_id":"","pricing_plan_id":"cebpf4jnsgd1na2vs0mg"},{"bike_id":"feadd485-e507-4070-a97d-b228f8e95bcb","system_id":"levelo_inurba_marseille","lat":43.29612,"lon":5.42298,"is_reserved":false,"is_disabled":false,"rental_uris":{"android":"levelo://app?vid=feadd485-e507-4070-a97d-b228f8e95bcb","ios":"levelo://app?vid=feadd485-e507-4070-a97d-b228f8e95bcb"},"vehicle_type_id":"4","last_reported":1747771923,"current_range_meters":8000,"station_id":"","pricing_plan_id":"cebpf4jnsgd1na2vs0mg"},{"bike_id":"62f8525b-7ba8-42d1-947a-f5519540bfd0","system_id":"levelo_inurba_marseille","lat":43.29709,"lon":5.36582,"is_reserved":false,"is_disabled":false,"rental_uris":{"android":"levelo://app?vid=62f8525b-7ba8-42d1-947a-f5519540bfd0","ios":"levelo://app?vid=62f8525b-7ba8-42d1-947a-f5519540bfd0"},"vehicle_type_id":"4","last_reported":1747771923,"current_range_meters":8000,"station_id":"ce4bgn12rcd13ifvqbt0","pricing_plan_id":"cebpf4jnsgd1na2vs0mg"},{"bike_id":"24f9553e-5c23-4acd-8c7b-25c6014c57e6","system_id":"levelo_inurba_marseille","lat":43.29036,"lon":5.37572,"is_reserved":false,"is_disabled":false,"rental_uris":{"android":"levelo://app?vid=24f9553e-5c23-4acd-8c7b-25c6014c57e6","ios":"levelo://app?vid=24f9553e-5c23-4acd-8c7b-25c6014c57e6"},"vehicle_type_id":"4","last_reported":1747771923,"current_range_meters":8000,"station_id":"ce4bh692rcd13ifvqe90","pricing_plan_id":"cebpf4jnsgd1na2vs0mg"},{"bike_id":"7067d045-a610-4e43-8de2-9bd34b9e41b7","system_id":"levelo_inurba_marseille","lat":43.2549,"lon":5.37644,"is_reserved":false,"is_disabled":false,"rental_uris":{"android":"levelo://app?vid=7067d045-a610-4e43-8de2-9bd34b9e41b7","ios":"levelo://app?vid=7067d045-a610-4e43-8de2-9bd34b9e41b7"},"vehicle_type_id":"4","last_reported":1747771923,"current_range_meters":8000,"station_id":"ce4bhh12rcd13ifvqff0","pricing_plan_id":"cebpf4jnsgd1na2vs0mg"},{"bike_id":"8a77c670-a7af-4ac0-9918-4e6c1c91e962","system_id":"levelo_inurba_marseille","lat":43.25081,"lon":5.39553,"is_reserved":false,"is_disabled":false,"rental_uris":{"android":"levelo://app?vid=8a77c670-a7af-4ac0-9918-4e6c1c91e962","ios":"levelo://app?vid=8a77c670-a7af-4ac0-9918-4e6c1c91e962"},"vehicle_type_id":"4","last_reported":1747771923,"current_range_meters":8000,"station_id":"ce4bhm12rcd13ifvqgkg","pricing_plan_id":"cebpf4jnsgd1na2vs0mg"},{"bike_id":"1538a712-9603-4f85-a42e-417b6ad04058","system_id":"levelo_inurba_marseille","lat":43.28153,"lon":5.42642,"is_reserved":false,"is_disabled":false,"rental_uris":{"android":"levelo://app?vid=1538a712-9603-4f85-a42e-417b6ad04058","ios":"levelo://app?vid=1538a712-9603-4f85-a42e-417b6ad04058"},"vehicle_type_id":"4","last_reported":1747771923,"current_range_meters":8000,"station_id":"ce4bhnh2rcd13ifvqgug","pricing_plan_id":"cebpf4jnsgd1na2vs0mg"},{"bike_id":"f0fd460d-d3e9-4c9d-802e-4b7388e2281a","system_id":"levelo_inurba_marseille","lat":43.28697,"lon":5.39985,"is_reserved":false,"is_disabled":false,"rental_uris":{"android":"levelo://app?vid=f0fd460d-d3e9-4c9d-802e-4b7388e2281a","ios":"levelo://app?vid=f0fd460d-d3e9-4c9d-802e-4b7388e2281a"},"vehicle_type_id":"4","last_reported":1747771923,"current_range_meters":8000,"station_id":"ce4bho92rcd13ifvqh3g","pricing_plan_id":"cebpf4jnsgd1na2vs0mg"},{"bike_id":"14218c4a-d898-4d7c-ae46-8c9282cc8885","system_id":"levelo_inurba_marseille","lat":43.310395,"lon":5.385421,"is_reserved":false,"is_disabled":false,"rental_uris":{"android":"levelo://app?vid=14218c4a-d898-4d7c-ae46-8c9282cc8885","ios":"levelo://app?vid=14218c4a-d898-4d7c-ae46-8c9282cc8885"},"vehicle_type_id":"4","last_reported":1747771923,"current_range_meters":8400,"station_id":"","pricing_plan_id":"cebpf4jnsgd1na2vs0mg"},{"bike_id":"b48eb5af-8c1b-42ca-913e-05b14ff0884e","system_id":"levelo_inurba_marseille","lat":43.3054,"lon":5.38438,"is_reserved":false,"is_disabled":false,"rental_uris":{"android":"levelo://app?vid=b48eb5af-8c1b-42ca-913e-05b14ff0884e","ios":"levelo://app?vid=b48eb5af-8c1b-42ca-913e-05b14ff0884e"},"vehicle_type_id":"4","last_reported":1747771923,"current_range_meters":8400,"station_id":"ce4bgg92rcd13ifvqb30","pricing_plan_id":"cebpf4jnsgd1na2vs0mg"},{"bike_id":"a110ade2-31f5-4fda-979f-872a63883b25","system_id":"levelo_inurba_marseille","lat":43.29872,"lon":5.38909,"is_reserved":false,"is_disabled":false,"rental_uris":{"android":"levelo://app?vid=a110ade2-31f5-4fda-979f-872a63883b25","ios":"levelo://app?vid=a110ade2-31f5-4fda-979f-872a63883b25"},"vehicle_type_id":"4","last_reported":1747771923,"current_range_meters":8400,"station_id":"ce4bh392rcd13ifvqdl0","pricing_plan_id":"cebpf4jnsgd1na2vs0mg"},{"bike_id":"ab1a4504-8ef4-479d-9f6f-c03977ae52cb","system_id":"levelo_inurba_marseille","lat":43.24815,"lon":5.374494,"is_reserved":false,"is_disabled":false,"rental_uris":{"android":"levelo://app?vid=ab1a4504-8ef4-479d-9f6f-c03977ae52cb","ios":"levelo://app?vid=ab1a4504-8ef4-479d-9f6f-c03977ae52cb"},"vehicle_type_id":"4","last_reported":1747771923,"current_range_meters":8400,"station_id":"ce4bhgh2rcd13ifvqfb0","pricing_plan_id":"cebpf4jnsgd1na2vs0mg"},{"bike_id":"f278de53-882b-43af-843c-830ed33246a2","system_id":"levelo_inurba_marseille","lat":43.2558,"lon":5.38226,"is_reserved":false,"is_disabled":false,"rental_uris":{"android":"levelo://app?vid=f278de53-882b-43af-843c-830ed33246a2","ios":"levelo://app?vid=f278de53-882b-43af-843c-830ed33246a2"},"vehicle_type_id":"4","last_reported":1747771923,"current_range_meters":8400,"station_id":"ce4bhih2rcd13ifvqfs0","pricing_plan_id":"cebpf4jnsgd1na2vs0mg"},{"bike_id":"56093d40-85f1-4757-b1be-963fe1670ef0","system_id":"levelo_inurba_marseille","lat":43.32811,"lon":5.38749,"is_reserved":false,"is_disabled":false,"rental_uris":{"android":"levelo://app?vid=56093d40-85f1-4757-b1be-963fe1670ef0","ios":"levelo://app?vid=56093d40-85f1-4757-b1be-963fe1670ef0"},"vehicle_type_id":"4","last_reported":1747771923,"current_range_meters":8800,"station_id":"","pricing_plan_id":"cebpf4jnsgd1na2vs0mg"},{"bike_id":"bffbaf88-357a-4e87-a68c-a9a27a6e01e6","system_id":"levelo_inurba_marseille","lat":43.26233,"lon":5.42125,"is_reserved":false,"is_disabled":false,"rental_uris":{"android":"levelo://app?vid=bffbaf88-357a-4e87-a68c-a9a27a6e01e6","ios":"levelo://app?vid=bffbaf88-357a-4e87-a68c-a9a27a6e01e6"},"vehicle_type_id":"4","last_reported":1747771923,"current_range_meters":8800,"station_id":"","pricing_plan_id":"cebpf4jnsgd1na2vs0mg"},{"bike_id":"7377c00b-df3e-45e9-89a0-5e4d1248d8d1","system_id":"levelo_inurba_marseille","lat":43.306012,"lon":5.372312,"is_reserved":false,"is_disabled":false,"rental_uris":{"android":"levelo://app?vid=7377c00b-df3e-45e9-89a0-5e4d1248d8d1","ios":"levelo://app?vid=7377c00b-df3e-45e9-89a0-5e4d1248d8d1"},"vehicle_type_id":"4","last_reported":1747771923,"current_range_meters":8800,"station_id":"ce4bgqh2rcd13ifvqc4g","pricing_plan_id":"cebpf4jnsgd1na2vs0mg"},{"bike_id":"7f825377-8337-456e-ad6d-576acbcc68af","system_id":"levelo_inurba_marseille","lat":43.309326,"lon":5.401476,"is_reserved":false,"is_disabled":false,"rental_uris":{"android":"levelo://app?vid=7f825377-8337-456e-ad6d-576acbcc68af","ios":"levelo://app?vid=7f825377-8337-456e-ad6d-576acbcc68af"},"vehicle_type_id":"4","last_reported":1747771923,"current_range_meters":8800,"station_id":"ce4bgvp2rcd13ifvqct0","pricing_plan_id":"cebpf4jnsgd1na2vs0mg"},{"bike_id":"e9ec8ece-ab11-4708-854b-9a08917986fa","system_id":"levelo_inurba_marseille","lat":43.2987,"lon":5.39734,"is_reserved":false,"is_disabled":false,"rental_uris":{"android":"levelo://app?vid=e9ec8ece-ab11-4708-854b-9a08917986fa","ios":"levelo://app?vid=e9ec8ece-ab11-4708-854b-9a08917986fa"},"vehicle_type_id":"4","last_reported":1747771923,"current_range_meters":8800,"station_id":"ce4bh0h2rcd13ifvqd50","pricing_plan_id":"cebpf4jnsgd1na2vs0mg"},{"bike_id":"cedb5090-53fc-4a1c-bcbc-bc6faf25b7a5","system_id":"levelo_inurba_marseille","lat":43.28571,"lon":5.395,"is_reserved":false,"is_disabled":false,"rental_uris":{"android":"levelo://app?vid=cedb5090-53fc-4a1c-bcbc-bc6faf25b7a5","ios":"levelo://app?vid=cedb5090-53fc-4a1c-bcbc-bc6faf25b7a5"},"vehicle_type_id":"4","last_reported":1747771923,"current_range_meters":8800,"station_id":"ce4bh292rcd13ifvqdg0","pricing_plan_id":"cebpf4jnsgd1na2vs0mg"},{"bike_id":"73fc1685-6e0f-4fb6-a708-712728eaaec3","system_id":"levelo_inurba_marseille","lat":43.27815,"lon":5.40715,"is_reserved":false,"is_disabled":false,"rental_uris":{"android":"levelo://app?vid=73fc1685-6e0f-4fb6-a708-712728eaaec3","ios":"levelo://app?vid=73fc1685-6e0f-4fb6-a708-712728eaaec3"},"vehicle_type_id":"4","last_reported":1747771923,"current_range_meters":8800,"station_id":"ce4bhnh2rcd13ifvqgtg","pricing_plan_id":"cebpf4jnsgd1na2vs0mg"},{"bike_id":"287d852c-af91-464e-844b-5477afe0337f","system_id":"levelo_inurba_marseille","lat":43.27811,"lon":5.40699,"is_reserved":false,"is_disabled":false,"rental_uris":{"android":"levelo://app?vid=287d852c-af91-464e-844b-5477afe0337f","ios":"levelo://app?vid=287d852c-af91-464e-844b-5477afe0337f"},"vehicle_type_id":"4","last_reported":1747771923,"current_range_meters":9200,"station_id":"ce4bhnh2rcd13ifvqgtg","pricing_plan_id":"cebpf4jnsgd1na2vs0mg"},{"bike_id":"5243ac5f-6f3e-4922-989a-ce670904088b","system_id":"levelo_inurba_marseille","lat":43.32363,"lon":5.3676,"is_reserved":false,"is_disabled":false,"rental_uris":{"android":"levelo://app?vid=5243ac5f-6f3e-4922-989a-ce670904088b","ios":"levelo://app?vid=5243ac5f-6f3e-4922-989a-ce670904088b"},"vehicle_type_id":"4","last_reported":1747771923,"current_range_meters":9200,"station_id":"ce4bhsh2rcd13ifvqi2g","pricing_plan_id":"cebpf4jnsgd1na2vs0mg"},{"bike_id":"a0aabdb9-5fa2-40e6-8b72-83f513b3ace8","system_id":"levelo_inurba_marseille","lat":43.23211,"lon":5.3556,"is_reserved":false,"is_disabled":false,"rental_uris":{"android":"levelo://app?vid=a0aabdb9-5fa2-40e6-8b72-83f513b3ace8","ios":"levelo://app?vid=a0aabdb9-5fa2-40e6-8b72-83f513b3ace8"},"vehicle_type_id":"4","last_reported":1747771923,"current_range_meters":9200,"station_id":"ce4bhu92rcd13ifvqi70","pricing_plan_id":"cebpf4jnsgd1na2vs0mg"},{"bike_id":"141017c9-db67-4742-b07d-828ca23799ff","system_id":"levelo_inurba_marseille","lat":43.23204,"lon":5.35552,"is_reserved":false,"is_disabled":false,"rental_uris":{"android":"levelo://app?vid=141017c9-db67-4742-b07d-828ca23799ff","ios":"levelo://app?vid=141017c9-db67-4742-b07d-828ca23799ff"},"vehicle_type_id":"4","last_reported":1747771923,"current_range_meters":9200,"station_id":"ce4bhu92rcd13ifvqi70","pricing_plan_id":"cebpf4jnsgd1na2vs0mg"},{"bike_id":"6ae2c74d-7166-424c-9407-5e02f4d57ce5","system_id":"levelo_inurba_marseille","lat":43.27204,"lon":5.391799,"is_reserved":false,"is_disabled":false,"rental_uris":{"android":"levelo://app?vid=6ae2c74d-7166-424c-9407-5e02f4d57ce5","ios":"levelo://app?vid=6ae2c74d-7166-424c-9407-5e02f4d57ce5"},"vehicle_type_id":"4","last_reported":1747771923,"current_range_meters":9200,"station_id":"cjm6bp8fraef2m0cb0m0","pricing_plan_id":"cebpf4jnsgd1na2vs0mg"},{"bike_id":"b1ab9ccf-d005-4e04-959f-d15b750df38b","system_id":"levelo_inurba_marseille","lat":43.31273,"lon":5.38233,"is_reserved":false,"is_disabled":false,"rental_uris":{"android":"levelo://app?vid=b1ab9ccf-d005-4e04-959f-d15b750df38b","ios":"levelo://app?vid=b1ab9ccf-d005-4e04-959f-d15b750df38b"},"vehicle_type_id":"4","last_reported":1747771923,"current_range_meters":9600,"station_id":"","pricing_plan_id":"cebpf4jnsgd1na2vs0mg"},{"bike_id":"e9727e39-b519-4508-9b82-c1a6359db80f","system_id":"levelo_inurba_marseille","lat":43.28909,"lon":5.373,"is_reserved":false,"is_disabled":false,"rental_uris":{"android":"levelo://app?vid=e9727e39-b519-4508-9b82-c1a6359db80f","ios":"levelo://app?vid=e9727e39-b519-4508-9b82-c1a6359db80f"},"vehicle_type_id":"4","last_reported":1747771923,"current_range_meters":9600,"station_id":"","pricing_plan_id":"cebpf4jnsgd1na2vs0mg"},{"bike_id":"e01db3fb-1957-4f9c-bac4-86c8153a7f45","system_id":"levelo_inurba_marseille","lat":43.29025,"lon":5.38125,"is_reserved":false,"is_disabled":false,"rental_uris":{"android":"levelo://app?vid=e01db3fb-1957-4f9c-bac4-86c8153a7f45","ios":"levelo://app?vid=e01db3fb-1957-4f9c-bac4-86c8153a7f45"},"vehicle_type_id":"4","last_reported":1747771923,"current_range_meters":9600,"station_id":"ce4bh4p2rcd13ifvqe1g","pricing_plan_id":"cebpf4jnsgd1na2vs0mg"},{"bike_id":"0a11884a-975d-413c-8e52-07cd7ff9db8f","system_id":"levelo_inurba_marseille","lat":43.28118,"lon":5.37827,"is_reserved":false,"is_disabled":false,"rental_uris":{"android":"levelo://app?vid=0a11884a-975d-413c-8e52-07cd7ff9db8f","ios":"levelo://app?vid=0a11884a-975d-413c-8e52-07cd7ff9db8f"},"vehicle_type_id":"4","last_reported":1747771923,"current_range_meters":9600,"station_id":"ce4bha12rcd13ifvqee0","pricing_plan_id":"cebpf4jnsgd1na2vs0mg"},{"bike_id":"4a2a03d9-786b-4ec4-82be-136644993df6","system_id":"levelo_inurba_marseille","lat":43.2871,"lon":5.39988,"is_reserved":false,"is_disabled":false,"rental_uris":{"android":"levelo://app?vid=4a2a03d9-786b-4ec4-82be-136644993df6","ios":"levelo://app?vid=4a2a03d9-786b-4ec4-82be-136644993df6"},"vehicle_type_id":"4","last_reported":1747771923,"current_range_meters":9600,"station_id":"ce4bho92rcd13ifvqh3g","pricing_plan_id":"cebpf4jnsgd1na2vs0mg"},{"bike_id":"e8162579-a5ad-485f-ad83-fec8a2ebe7e1","system_id":"levelo_inurba_marseille","lat":43.26826,"lon":5.39099,"is_reserved":false,"is_disabled":false,"rental_uris":{"android":"levelo://app?vid=e8162579-a5ad-485f-ad83-fec8a2ebe7e1","ios":"levelo://app?vid=e8162579-a5ad-485f-ad83-fec8a2ebe7e1"},"vehicle_type_id":"4","last_reported":1747771923,"current_range_meters":10000,"station_id":"","pricing_plan_id":"cebpf4jnsgd1na2vs0mg"},{"bike_id":"8c6e391d-6de7-4d45-b5f7-5ee9efc08a5a","system_id":"levelo_inurba_marseille","lat":43.31423,"lon":5.39659,"is_reserved":false,"is_disabled":false,"rental_uris":{"android":"levelo://app?vid=8c6e391d-6de7-4d45-b5f7-5ee9efc08a5a","ios":"levelo://app?vid=8c6e391d-6de7-4d45-b5f7-5ee9efc08a5a"},"vehicle_type_id":"4","last_reported":1747771923,"current_range_meters":10000,"station_id":"","pricing_plan_id":"cebpf4jnsgd1na2vs0mg"},{"bike_id":"8515e518-e6ae-4d30-823e-a81239625260","system_id":"levelo_inurba_marseille","lat":43.29689,"lon":5.36165,"is_reserved":false,"is_disabled":false,"rental_uris":{"android":"levelo://app?vid=8515e518-e6ae-4d30-823e-a81239625260","ios":"levelo://app?vid=8515e518-e6ae-4d30-823e-a81239625260"},"vehicle_type_id":"4","last_reported":1747771923,"current_range_meters":10000,"station_id":"","pricing_plan_id":"cebpf4jnsgd1na2vs0mg"},{"bike_id":"32f7b26a-70de-45cf-9991-ded7f227b32b","system_id":"levelo_inurba_marseille","lat":43.25494,"lon":5.37645,"is_reserved":false,"is_disabled":false,"rental_uris":{"android":"levelo://app?vid=32f7b26a-70de-45cf-9991-ded7f227b32b","ios":"levelo://app?vid=32f7b26a-70de-45cf-9991-ded7f227b32b"},"vehicle_type_id":"4","last_reported":1747771923,"current_range_meters":10000,"station_id":"ce4bhh12rcd13ifvqff0","pricing_plan_id":"cebpf4jnsgd1na2vs0mg"},{"bike_id":"65771ce9-45c8-43c4-9cef-b258cc3c0582","system_id":"levelo_inurba_marseille","lat":43.25117,"lon":5.40323,"is_reserved":false,"is_disabled":false,"rental_uris":{"android":"levelo://app?vid=65771ce9-45c8-43c4-9cef-b258cc3c0582","ios":"levelo://app?vid=65771ce9-45c8-43c4-9cef-b258cc3c0582"},"vehicle_type_id":"4","last_reported":1747771923,"current_range_meters":10000,"station_id":"ce4bhlh2rcd13ifvqgig","pricing_plan_id":"cebpf4jnsgd1na2vs0mg"},{"bike_id":"efa3d3ee-6ab6-4771-aa3d-1ec2742cd864","system_id":"levelo_inurba_marseille","lat":43.27814,"lon":5.40719,"is_reserved":false,"is_disabled":false,"rental_uris":{"android":"levelo://app?vid=efa3d3ee-6ab6-4771-aa3d-1ec2742cd864","ios":"levelo://app?vid=efa3d3ee-6ab6-4771-aa3d-1ec2742cd864"},"vehicle_type_id":"4","last_reported":1747771923,"current_range_meters":10000,"station_id":"ce4bhnh2rcd13ifvqgtg","pricing_plan_id":"cebpf4jnsgd1na2vs0mg"},{"bike_id":"3552fbf2-b43a-446f-93f5-d695fc251b73","system_id":"levelo_inurba_marseille","lat":43.25182,"lon":5.37526,"is_reserved":false,"is_disabled":false,"rental_uris":{"android":"levelo://app?vid=3552fbf2-b43a-446f-93f5-d695fc251b73","ios":"levelo://app?vid=3552fbf2-b43a-446f-93f5-d695fc251b73"},"vehicle_type_id":"4","last_reported":1747771923,"current_range_meters":10800,"station_id":"","pricing_plan_id":"cebpf4jnsgd1na2vs0mg"},{"bike_id":"6b13ec8e-24e2-4073-bd79-1b489cde4cf5","system_id":"levelo_inurba_marseille","lat":43.29526,"lon":5.38543,"is_reserved":false,"is_disabled":false,"rental_uris":{"android":"levelo://app?vid=6b13ec8e-24e2-4073-bd79-1b489cde4cf5","ios":"levelo://app?vid=6b13ec8e-24e2-4073-bd79-1b489cde4cf5"},"vehicle_type_id":"4","last_reported":1747771923,"current_range_meters":10800,"station_id":"ce4bgih2rcd13ifvqba0","pricing_plan_id":"cebpf4jnsgd1na2vs0mg"},{"bike_id":"e9f2af23-994e-408c-8f0b-89a8e61ea6d9","system_id":"levelo_inurba_marseille","lat":43.29008,"lon":5.3863,"is_reserved":false,"is_disabled":false,"rental_uris":{"android":"levelo://app?vid=e9f2af23-994e-408c-8f0b-89a8e61ea6d9","ios":"levelo://app?vid=e9f2af23-994e-408c-8f0b-89a8e61ea6d9"},"vehicle_type_id":"4","last_reported":1747771923,"current_range_meters":10800,"station_id":"ce4bh4p2rcd13ifvqe0g","pricing_plan_id":"cebpf4jnsgd1na2vs0mg"},{"bike_id":"99af6b54-f624-460f-b60d-c893dd375f78","system_id":"levelo_inurba_marseille","lat":43.24669,"lon":5.381533,"is_reserved":false,"is_disabled":false,"rental_uris":{"android":"levelo://app?vid=99af6b54-f624-460f-b60d-c893dd375f78","ios":"levelo://app?vid=99af6b54-f624-460f-b60d-c893dd375f78"},"vehicle_type_id":"4","last_reported":1747771923,"current_range_meters":10800,"station_id":"ce4bhih2rcd13ifvqfr0","pricing_plan_id":"cebpf4jnsgd1na2vs0mg"},{"bike_id":"71e146ad-5169-4dc5-a288-c7c746aad618","system_id":"levelo_inurba_marseille","lat":43.23183,"lon":5.39982,"is_reserved":false,"is_disabled":false,"rental_uris":{"android":"levelo://app?vid=71e146ad-5169-4dc5-a288-c7c746aad618","ios":"levelo://app?vid=71e146ad-5169-4dc5-a288-c7c746aad618"},"vehicle_type_id":"4","last_reported":1747771923,"current_range_meters":10800,"station_id":"ce4bhn12rcd13ifvqgqg","pricing_plan_id":"cebpf4jnsgd1na2vs0mg"},{"bike_id":"49f05bcc-fd58-450f-908f-51a1dca2ea65","system_id":"levelo_inurba_marseille","lat":43.25088,"lon":5.39507,"is_reserved":false,"is_disabled":false,"rental_uris":{"android":"levelo://app?vid=49f05bcc-fd58-450f-908f-51a1dca2ea65","ios":"levelo://app?vid=49f05bcc-fd58-450f-908f-51a1dca2ea65"},"vehicle_type_id":"4","last_reported":1747771923,"current_range_meters":11200,"station_id":"ce4bhm12rcd13ifvqgkg","pricing_plan_id":"cebpf4jnsgd1na2vs0mg"},{"bike_id":"c3c11b11-8507-45b4-bd48-1e3bdd46fbbe","system_id":"levelo_inurba_marseille","lat":43.23184,"lon":5.39975,"is_reserved":false,"is_disabled":false,"rental_uris":{"android":"levelo://app?vid=c3c11b11-8507-45b4-bd48-1e3bdd46fbbe","ios":"levelo://app?vid=c3c11b11-8507-45b4-bd48-1e3bdd46fbbe"},"vehicle_type_id":"4","last_reported":1747771923,"current_range_meters":11200,"station_id":"ce4bhn12rcd13ifvqgqg","pricing_plan_id":"cebpf4jnsgd1na2vs0mg"},{"bike_id":"48f27f29-5850-4f4f-b193-450032ac8cf8","system_id":"levelo_inurba_marseille","lat":43.26806,"lon":5.40258,"is_reserved":false,"is_disabled":false,"rental_uris":{"android":"levelo://app?vid=48f27f29-5850-4f4f-b193-450032ac8cf8","ios":"levelo://app?vid=48f27f29-5850-4f4f-b193-450032ac8cf8"},"vehicle_type_id":"4","last_reported":1747771923,"current_range_meters":11200,"station_id":"ce501612rcd8frsf0b60","pricing_plan_id":"cebpf4jnsgd1na2vs0mg"},{"bike_id":"804ca35f-ec21-41e1-90f6-de74bdb78656","system_id":"levelo_inurba_marseille","lat":43.28699,"lon":5.37398,"is_reserved":false,"is_disabled":false,"rental_uris":{"android":"levelo://app?vid=804ca35f-ec21-41e1-90f6-de74bdb78656","ios":"levelo://app?vid=804ca35f-ec21-41e1-90f6-de74bdb78656"},"vehicle_type_id":"4","last_reported":1747771923,"current_range_meters":11600,"station_id":"ce4bh3p2rcd13ifvqdq0","pricing_plan_id":"cebpf4jnsgd1na2vs0mg"},{"bike_id":"b1a1de40-c19b-4d16-9adf-905126aa00c3","system_id":"levelo_inurba_marseille","lat":43.29266,"lon":5.38454,"is_reserved":false,"is_disabled":false,"rental_uris":{"android":"levelo://app?vid=b1a1de40-c19b-4d16-9adf-905126aa00c3","ios":"levelo://app?vid=b1a1de40-c19b-4d16-9adf-905126aa00c3"},"vehicle_type_id":"4","last_reported":1747771923,"current_range_meters":11600,"station_id":"ce4bh692rcd13ifvqea0","pricing_plan_id":"cebpf4jnsgd1na2vs0mg"},{"bike_id":"59b8a132-4666-485c-b6ad-3e889f0d9322","system_id":"levelo_inurba_marseille","lat":43.25508,"lon":5.37644,"is_reserved":false,"is_disabled":false,"rental_uris":{"android":"levelo://app?vid=59b8a132-4666-485c-b6ad-3e889f0d9322","ios":"levelo://app?vid=59b8a132-4666-485c-b6ad-3e889f0d9322"},"vehicle_type_id":"4","last_reported":1747771923,"current_range_meters":11600,"station_id":"ce4bhh12rcd13ifvqff0","pricing_plan_id":"cebpf4jnsgd1na2vs0mg"},{"bike_id":"1ff4dd87-bf56-4ab1-8365-aad71fcb827c","system_id":"levelo_inurba_marseille","lat":43.316076,"lon":5.423906,"is_reserved":false,"is_disabled":false,"rental_uris":{"android":"levelo://app?vid=1ff4dd87-bf56-4ab1-8365-aad71fcb827c","ios":"levelo://app?vid=1ff4dd87-bf56-4ab1-8365-aad71fcb827c"},"vehicle_type_id":"4","last_reported":1747771923,"current_range_meters":11600,"station_id":"ce4bhp92rcd13ifvqhbg","pricing_plan_id":"cebpf4jnsgd1na2vs0mg"},{"bike_id":"d222c036-c02a-40db-bb80-83d7b7358871","system_id":"levelo_inurba_marseille","lat":43.33738,"lon":5.39206,"is_reserved":false,"is_disabled":false,"rental_uris":{"android":"levelo://app?vid=d222c036-c02a-40db-bb80-83d7b7358871","ios":"levelo://app?vid=d222c036-c02a-40db-bb80-83d7b7358871"},"vehicle_type_id":"4","last_reported":1747771923,"current_range_meters":11600,"station_id":"ce4bhr92rcd13ifvqhsg","pricing_plan_id":"cebpf4jnsgd1na2vs0mg"},{"bike_id":"fd7bb3c5-557d-4097-8e84-906c7f5cecbb","system_id":"levelo_inurba_marseille","lat":43.312507,"lon":5.376403,"is_reserved":false,"is_disabled":false,"rental_uris":{"android":"levelo://app?vid=fd7bb3c5-557d-4097-8e84-906c7f5cecbb","ios":"levelo://app?vid=fd7bb3c5-557d-4097-8e84-906c7f5cecbb"},"vehicle_type_id":"4","last_reported":1747771923,"current_range_meters":12000,"station_id":"ce4bh012rcd13ifvqcv0","pricing_plan_id":"cebpf4jnsgd1na2vs0mg"},{"bike_id":"8f56fceb-0b44-4390-a0bd-9e0ebb113e22","system_id":"levelo_inurba_marseille","lat":43.28943,"lon":5.38389,"is_reserved":false,"is_disabled":false,"rental_uris":{"android":"levelo://app?vid=8f56fceb-0b44-4390-a0bd-9e0ebb113e22","ios":"levelo://app?vid=8f56fceb-0b44-4390-a0bd-9e0ebb113e22"},"vehicle_type_id":"4","last_reported":1747771923,"current_range_meters":12000,"station_id":"ce4bh612rcd13ifvqe6g","pricing_plan_id":"cebpf4jnsgd1na2vs0mg"},{"bike_id":"5f879e2f-7fc4-4905-a800-c1a17e3b0eae","system_id":"levelo_inurba_marseille","lat":43.28728,"lon":5.37938,"is_reserved":false,"is_disabled":false,"rental_uris":{"android":"levelo://app?vid=5f879e2f-7fc4-4905-a800-c1a17e3b0eae","ios":"levelo://app?vid=5f879e2f-7fc4-4905-a800-c1a17e3b0eae"},"vehicle_type_id":"4","last_reported":1747771923,"current_range_meters":12000,"station_id":"ce4bh9p2rcd13ifvqec0","pricing_plan_id":"cebpf4jnsgd1na2vs0mg"},{"bike_id":"a108c6fe-fc59-467c-8bf3-782c2c64dc0a","system_id":"levelo_inurba_marseille","lat":43.28738,"lon":5.360727,"is_reserved":false,"is_disabled":false,"rental_uris":{"android":"levelo://app?vid=a108c6fe-fc59-467c-8bf3-782c2c64dc0a","ios":"levelo://app?vid=a108c6fe-fc59-467c-8bf3-782c2c64dc0a"},"vehicle_type_id":"4","last_reported":1747771923,"current_range_meters":12000,"station_id":"cki0cbj6b192h4jlfktg","pricing_plan_id":"cebpf4jnsgd1na2vs0mg"},{"bike_id":"811f2f0e-4eb2-4aa5-823f-6fa13bac68c5","system_id":"levelo_inurba_marseille","lat":43.28727,"lon":5.3608,"is_reserved":false,"is_disabled":false,"rental_uris":{"android":"levelo://app?vid=811f2f0e-4eb2-4aa5-823f-6fa13bac68c5","ios":"levelo://app?vid=811f2f0e-4eb2-4aa5-823f-6fa13bac68c5"},"vehicle_type_id":"4","last_reported":1747771923,"current_range_meters":12000,"station_id":"cki0cbj6b192h4jlfktg","pricing_plan_id":"cebpf4jnsgd1na2vs0mg"},{"bike_id":"f949f244-1a32-4658-bdf8-ec80c6814ad9","system_id":"levelo_inurba_marseille","lat":43.30886,"lon":5.37184,"is_reserved":false,"is_disabled":false,"rental_uris":{"android":"levelo://app?vid=f949f244-1a32-4658-bdf8-ec80c6814ad9","ios":"levelo://app?vid=f949f244-1a32-4658-bdf8-ec80c6814ad9"},"vehicle_type_id":"4","last_reported":1747771923,"current_range_meters":12400,"station_id":"ce4bguh2rcd13ifvqckg","pricing_plan_id":"cebpf4jnsgd1na2vs0mg"},{"bike_id":"5dce21b6-8081-46f7-acb7-3464c5a4f5de","system_id":"levelo_inurba_marseille","lat":43.29872,"lon":5.39732,"is_reserved":false,"is_disabled":false,"rental_uris":{"android":"levelo://app?vid=5dce21b6-8081-46f7-acb7-3464c5a4f5de","ios":"levelo://app?vid=5dce21b6-8081-46f7-acb7-3464c5a4f5de"},"vehicle_type_id":"4","last_reported":1747771923,"current_range_meters":12400,"station_id":"ce4bh0h2rcd13ifvqd50","pricing_plan_id":"cebpf4jnsgd1na2vs0mg"},{"bike_id":"ae905db4-39fd-4d1a-b283-c006d7b7939e","system_id":"levelo_inurba_marseille","lat":43.28101,"lon":5.378461,"is_reserved":false,"is_disabled":false,"rental_uris":{"android":"levelo://app?vid=ae905db4-39fd-4d1a-b283-c006d7b7939e","ios":"levelo://app?vid=ae905db4-39fd-4d1a-b283-c006d7b7939e"},"vehicle_type_id":"4","last_reported":1747771923,"current_range_meters":12400,"station_id":"ce4bha12rcd13ifvqee0","pricing_plan_id":"cebpf4jnsgd1na2vs0mg"},{"bike_id":"25b93cff-d6a4-44e2-93bf-adadd73ecfd6","system_id":"levelo_inurba_marseille","lat":43.28031,"lon":5.36955,"is_reserved":false,"is_disabled":false,"rental_uris":{"android":"levelo://app?vid=25b93cff-d6a4-44e2-93bf-adadd73ecfd6","ios":"levelo://app?vid=25b93cff-d6a4-44e2-93bf-adadd73ecfd6"},"vehicle_type_id":"4","last_reported":1747771923,"current_range_meters":12400,"station_id":"ce4bha12rcd13ifvqef0","pricing_plan_id":"cebpf4jnsgd1na2vs0mg"},{"bike_id":"dc80936a-51b4-4ef9-b71e-e259b58f2ac3","system_id":"levelo_inurba_marseille","lat":43.23187,"lon":5.3999,"is_reserved":false,"is_disabled":false,"rental_uris":{"android":"levelo://app?vid=dc80936a-51b4-4ef9-b71e-e259b58f2ac3","ios":"levelo://app?vid=dc80936a-51b4-4ef9-b71e-e259b58f2ac3"},"vehicle_type_id":"4","last_reported":1747771923,"current_range_meters":12400,"station_id":"ce4bhn12rcd13ifvqgqg","pricing_plan_id":"cebpf4jnsgd1na2vs0mg"},{"bike_id":"bd6d7942-fe35-47f9-9314-0f83fb285e3d","system_id":"levelo_inurba_marseille","lat":43.28117,"lon":5.37849,"is_reserved":false,"is_disabled":false,"rental_uris":{"android":"levelo://app?vid=bd6d7942-fe35-47f9-9314-0f83fb285e3d","ios":"levelo://app?vid=bd6d7942-fe35-47f9-9314-0f83fb285e3d"},"vehicle_type_id":"4","last_reported":1747771923,"current_range_meters":12800,"station_id":"ce4bha12rcd13ifvqee0","pricing_plan_id":"cebpf4jnsgd1na2vs0mg"},{"bike_id":"99d1eda0-e5d7-4556-a75c-74bc564c99a0","system_id":"levelo_inurba_marseille","lat":43.28944,"lon":5.36619,"is_reserved":false,"is_disabled":false,"rental_uris":{"android":"levelo://app?vid=99d1eda0-e5d7-4556-a75c-74bc564c99a0","ios":"levelo://app?vid=99d1eda0-e5d7-4556-a75c-74bc564c99a0"},"vehicle_type_id":"4","last_reported":1747771923,"current_range_meters":12800,"station_id":"ce4bhap2rcd13ifvqek0","pricing_plan_id":"cebpf4jnsgd1na2vs0mg"},{"bike_id":"2a5811dd-c1d5-4125-b125-2bfc54b66f9b","system_id":"levelo_inurba_marseille","lat":43.26685,"lon":5.38275,"is_reserved":false,"is_disabled":false,"rental_uris":{"android":"levelo://app?vid=2a5811dd-c1d5-4125-b125-2bfc54b66f9b","ios":"levelo://app?vid=2a5811dd-c1d5-4125-b125-2bfc54b66f9b"},"vehicle_type_id":"4","last_reported":1747771923,"current_range_meters":12800,"station_id":"ce4bhg92rcd13ifvqf90","pricing_plan_id":"cebpf4jnsgd1na2vs0mg"},{"bike_id":"2794831b-626e-459e-a780-8aee57c99ab1","system_id":"levelo_inurba_marseille","lat":43.25117,"lon":5.40319,"is_reserved":false,"is_disabled":false,"rental_uris":{"android":"levelo://app?vid=2794831b-626e-459e-a780-8aee57c99ab1","ios":"levelo://app?vid=2794831b-626e-459e-a780-8aee57c99ab1"},"vehicle_type_id":"4","last_reported":1747771923,"current_range_meters":12800,"station_id":"ce4bhlh2rcd13ifvqgig","pricing_plan_id":"cebpf4jnsgd1na2vs0mg"},{"bike_id":"5eb68c04-da7f-4459-b57e-7fa15a1ceae4","system_id":"levelo_inurba_marseille","lat":43.30418,"lon":5.41283,"is_reserved":false,"is_disabled":false,"rental_uris":{"android":"levelo://app?vid=5eb68c04-da7f-4459-b57e-7fa15a1ceae4","ios":"levelo://app?vid=5eb68c04-da7f-4459-b57e-7fa15a1ceae4"},"vehicle_type_id":"4","last_reported":1747771923,"current_range_meters":12800,"station_id":"ce4bhop2rcd13ifvqh8g","pricing_plan_id":"cebpf4jnsgd1na2vs0mg"},{"bike_id":"f27cd884-9620-4910-82e7-d662c2057fa9","system_id":"levelo_inurba_marseille","lat":43.29269,"lon":5.37611,"is_reserved":false,"is_disabled":false,"rental_uris":{"android":"levelo://app?vid=f27cd884-9620-4910-82e7-d662c2057fa9","ios":"levelo://app?vid=f27cd884-9620-4910-82e7-d662c2057fa9"},"vehicle_type_id":"4","last_reported":1747771923,"current_range_meters":13600,"station_id":"ce4bgi12rcd13ifvqb80","pricing_plan_id":"cebpf4jnsgd1na2vs0mg"},{"bike_id":"e482e67a-f114-4415-8f9b-13c8d9fd526a","system_id":"levelo_inurba_marseille","lat":43.28706,"lon":5.37403,"is_reserved":false,"is_disabled":false,"rental_uris":{"android":"levelo://app?vid=e482e67a-f114-4415-8f9b-13c8d9fd526a","ios":"levelo://app?vid=e482e67a-f114-4415-8f9b-13c8d9fd526a"},"vehicle_type_id":"4","last_reported":1747771923,"current_range_meters":13600,"station_id":"ce4bh3p2rcd13ifvqdq0","pricing_plan_id":"cebpf4jnsgd1na2vs0mg"},{"bike_id":"503164eb-25ce-469e-b158-a76ec76bdf46","system_id":"levelo_inurba_marseille","lat":43.28034,"lon":5.3695,"is_reserved":false,"is_disabled":false,"rental_uris":{"android":"levelo://app?vid=503164eb-25ce-469e-b158-a76ec76bdf46","ios":"levelo://app?vid=503164eb-25ce-469e-b158-a76ec76bdf46"},"vehicle_type_id":"4","last_reported":1747771923,"current_range_meters":13600,"station_id":"ce4bha12rcd13ifvqef0","pricing_plan_id":"cebpf4jnsgd1na2vs0mg"},{"bike_id":"74b3a725-2a7e-4f92-8049-6310b65d042f","system_id":"levelo_inurba_marseille","lat":43.29224,"lon":5.36057,"is_reserved":false,"is_disabled":false,"rental_uris":{"android":"levelo://app?vid=74b3a725-2a7e-4f92-8049-6310b65d042f","ios":"levelo://app?vid=74b3a725-2a7e-4f92-8049-6310b65d042f"},"vehicle_type_id":"4","last_reported":1747771923,"current_range_meters":13600,"station_id":"ce4bhbh2rcd13ifvqeqg","pricing_plan_id":"cebpf4jnsgd1na2vs0mg"},{"bike_id":"a1e0ed50-2ee5-490d-ba24-eab65e00de08","system_id":"levelo_inurba_marseille","lat":43.33727,"lon":5.39186,"is_reserved":false,"is_disabled":false,"rental_uris":{"android":"levelo://app?vid=a1e0ed50-2ee5-490d-ba24-eab65e00de08","ios":"levelo://app?vid=a1e0ed50-2ee5-490d-ba24-eab65e00de08"},"vehicle_type_id":"4","last_reported":1747771923,"current_range_meters":13600,"station_id":"ce4bhr92rcd13ifvqhsg","pricing_plan_id":"cebpf4jnsgd1na2vs0mg"},{"bike_id":"af8ce7e3-579a-499d-9bb3-ff24b3a9dd9c","system_id":"levelo_inurba_marseille","lat":43.30592,"lon":5.39345,"is_reserved":false,"is_disabled":false,"rental_uris":{"android":"levelo://app?vid=af8ce7e3-579a-499d-9bb3-ff24b3a9dd9c","ios":"levelo://app?vid=af8ce7e3-579a-499d-9bb3-ff24b3a9dd9c"},"vehicle_type_id":"4","last_reported":1747771923,"current_range_meters":14000,"station_id":"ce4bh0p2rcd13ifvqd80","pricing_plan_id":"cebpf4jnsgd1na2vs0mg"},{"bike_id":"649893f4-d1f7-41d7-8f88-42f6b6e183d3","system_id":"levelo_inurba_marseille","lat":43.24088,"lon":5.37742,"is_reserved":false,"is_disabled":false,"rental_uris":{"android":"levelo://app?vid=649893f4-d1f7-41d7-8f88-42f6b6e183d3","ios":"levelo://app?vid=649893f4-d1f7-41d7-8f88-42f6b6e183d3"},"vehicle_type_id":"4","last_reported":1747771923,"current_range_meters":14000,"station_id":"ce4bhnp2rcd13ifvqgvg","pricing_plan_id":"cebpf4jnsgd1na2vs0mg"},{"bike_id":"921bc6c2-7515-424c-9670-ccc08135e895","system_id":"levelo_inurba_marseille","lat":43.28427,"lon":5.39172,"is_reserved":false,"is_disabled":false,"rental_uris":{"android":"levelo://app?vid=921bc6c2-7515-424c-9670-ccc08135e895","ios":"levelo://app?vid=921bc6c2-7515-424c-9670-ccc08135e895"},"vehicle_type_id":"4","last_reported":1747771923,"current_range_meters":14000,"station_id":"ce4bhoh2rcd13ifvqh5g","pricing_plan_id":"cebpf4jnsgd1na2vs0mg"},{"bike_id":"2ca9544b-0e92-4c5d-bb9d-d13b8e93e72e","system_id":"levelo_inurba_marseille","lat":43.33024,"lon":5.3904,"is_reserved":false,"is_disabled":false,"rental_uris":{"android":"levelo://app?vid=2ca9544b-0e92-4c5d-bb9d-d13b8e93e72e","ios":"levelo://app?vid=2ca9544b-0e92-4c5d-bb9d-d13b8e93e72e"},"vehicle_type_id":"4","last_reported":1747771923,"current_range_meters":14000,"station_id":"ce4bhr92rcd13ifvqhrg","pricing_plan_id":"cebpf4jnsgd1na2vs0mg"},{"bike_id":"774790b0-fd82-40fb-a7e2-c958965bc348","system_id":"levelo_inurba_marseille","lat":43.26817,"lon":5.4027,"is_reserved":false,"is_disabled":false,"rental_uris":{"android":"levelo://app?vid=774790b0-fd82-40fb-a7e2-c958965bc348","ios":"levelo://app?vid=774790b0-fd82-40fb-a7e2-c958965bc348"},"vehicle_type_id":"4","last_reported":1747771923,"current_range_meters":14000,"station_id":"ce501612rcd8frsf0b60","pricing_plan_id":"cebpf4jnsgd1na2vs0mg"},{"bike_id":"47264885-d112-470d-bb6a-36312a66a224","system_id":"levelo_inurba_marseille","lat":43.29418,"lon":5.38621,"is_reserved":false,"is_disabled":false,"rental_uris":{"android":"levelo://app?vid=47264885-d112-470d-bb6a-36312a66a224","ios":"levelo://app?vid=47264885-d112-470d-bb6a-36312a66a224"},"vehicle_type_id":"4","last_reported":1747771923,"current_range_meters":14400,"station_id":"ce4bh2h2rcd13ifvqdh0","pricing_plan_id":"cebpf4jnsgd1na2vs0mg"},{"bike_id":"dc7c54e0-5d1a-46ff-a838-62c4a62bfacc","system_id":"levelo_inurba_marseille","lat":43.28937,"lon":5.39623,"is_reserved":false,"is_disabled":false,"rental_uris":{"android":"levelo://app?vid=dc7c54e0-5d1a-46ff-a838-62c4a62bfacc","ios":"levelo://app?vid=dc7c54e0-5d1a-46ff-a838-62c4a62bfacc"},"vehicle_type_id":"4","last_reported":1747771923,"current_range_meters":14400,"station_id":"ce4bh3h2rcd13ifvqdn0","pricing_plan_id":"cebpf4jnsgd1na2vs0mg"},{"bike_id":"ec1d04fc-8f69-442b-bc7c-927f0524dbf7","system_id":"levelo_inurba_marseille","lat":43.29171,"lon":5.37157,"is_reserved":false,"is_disabled":false,"rental_uris":{"android":"levelo://app?vid=ec1d04fc-8f69-442b-bc7c-927f0524dbf7","ios":"levelo://app?vid=ec1d04fc-8f69-442b-bc7c-927f0524dbf7"},"vehicle_type_id":"4","last_reported":1747771923,"current_range_meters":14400,"station_id":"ce4bha92rcd13ifvqeh0","pricing_plan_id":"cebpf4jnsgd1na2vs0mg"},{"bike_id":"2dd295c8-b87d-4299-b96c-e55573da576c","system_id":"levelo_inurba_marseille","lat":43.28672,"lon":5.36356,"is_reserved":false,"is_disabled":false,"rental_uris":{"android":"levelo://app?vid=2dd295c8-b87d-4299-b96c-e55573da576c","ios":"levelo://app?vid=2dd295c8-b87d-4299-b96c-e55573da576c"},"vehicle_type_id":"4","last_reported":1747771923,"current_range_meters":14400,"station_id":"ce4bhah2rcd13ifvqej0","pricing_plan_id":"cebpf4jnsgd1na2vs0mg"},{"bike_id":"d14cb34f-c088-4fce-8177-7d93d185cb84","system_id":"levelo_inurba_marseille","lat":43.28081,"lon":5.39646,"is_reserved":false,"is_disabled":false,"rental_uris":{"android":"levelo://app?vid=d14cb34f-c088-4fce-8177-7d93d185cb84","ios":"levelo://app?vid=d14cb34f-c088-4fce-8177-7d93d185cb84"},"vehicle_type_id":"4","last_reported":1747771923,"current_range_meters":14400,"station_id":"ce4bho12rcd13ifvqh2g","pricing_plan_id":"cebpf4jnsgd1na2vs0mg"},{"bike_id":"edffe597-6f79-49f9-8df7-4789a9f67718","system_id":"levelo_inurba_marseille","lat":43.3209,"lon":5.36766,"is_reserved":false,"is_disabled":false,"rental_uris":{"android":"levelo://app?vid=edffe597-6f79-49f9-8df7-4789a9f67718","ios":"levelo://app?vid=edffe597-6f79-49f9-8df7-4789a9f67718"},"vehicle_type_id":"4","last_reported":1747771923,"current_range_meters":14400,"station_id":"ce4bhrh2rcd13ifvqhug","pricing_plan_id":"cebpf4jnsgd1na2vs0mg"},{"bike_id":"5765434c-77b5-41b5-8b14-b978e4d6dd10","system_id":"levelo_inurba_marseille","lat":43.21193,"lon":5.35074,"is_reserved":false,"is_disabled":false,"rental_uris":{"android":"levelo://app?vid=5765434c-77b5-41b5-8b14-b978e4d6dd10","ios":"levelo://app?vid=5765434c-77b5-41b5-8b14-b978e4d6dd10"},"vehicle_type_id":"4","last_reported":1747771923,"current_range_meters":14400,"station_id":"st_cvj6sg6p6f1abm77japg","pricing_plan_id":"cebpf4jnsgd1na2vs0mg"},{"bike_id":"d22b0fd0-78a6-46fc-aad8-ce2ca2a629e3","system_id":"levelo_inurba_marseille","lat":43.21193,"lon":5.35073,"is_reserved":false,"is_disabled":false,"rental_uris":{"android":"levelo://app?vid=d22b0fd0-78a6-46fc-aad8-ce2ca2a629e3","ios":"levelo://app?vid=d22b0fd0-78a6-46fc-aad8-ce2ca2a629e3"},"vehicle_type_id":"4","last_reported":1747771923,"current_range_meters":14400,"station_id":"st_cvj6sg6p6f1abm77japg","pricing_plan_id":"cebpf4jnsgd1na2vs0mg"},{"bike_id":"6ecf4230-0f1b-4d36-8c45-c1c939cbaa65","system_id":"levelo_inurba_marseille","lat":43.25866,"lon":5.39908,"is_reserved":false,"is_disabled":false,"rental_uris":{"android":"levelo://app?vid=6ecf4230-0f1b-4d36-8c45-c1c939cbaa65","ios":"levelo://app?vid=6ecf4230-0f1b-4d36-8c45-c1c939cbaa65"},"vehicle_type_id":"4","last_reported":1747771923,"current_range_meters":14800,"station_id":"ce4bhl92rcd13ifvqghg","pricing_plan_id":"cebpf4jnsgd1na2vs0mg"},{"bike_id":"ee222a69-22c8-443a-9094-3b7c8c2d365a","system_id":"levelo_inurba_marseille","lat":43.28079,"lon":5.39644,"is_reserved":false,"is_disabled":false,"rental_uris":{"android":"levelo://app?vid=ee222a69-22c8-443a-9094-3b7c8c2d365a","ios":"levelo://app?vid=ee222a69-22c8-443a-9094-3b7c8c2d365a"},"vehicle_type_id":"4","last_reported":1747771923,"current_range_meters":14800,"station_id":"ce4bho12rcd13ifvqh2g","pricing_plan_id":"cebpf4jnsgd1na2vs0mg"},{"bike_id":"56cf80a0-6e20-4517-b7ab-ff4ac3730a84","system_id":"levelo_inurba_marseille","lat":43.23193,"lon":5.39993,"is_reserved":false,"is_disabled":false,"rental_uris":{"android":"levelo://app?vid=56cf80a0-6e20-4517-b7ab-ff4ac3730a84","ios":"levelo://app?vid=56cf80a0-6e20-4517-b7ab-ff4ac3730a84"},"vehicle_type_id":"4","last_reported":1747771923,"current_range_meters":15200,"station_id":"ce4bhn12rcd13ifvqgqg","pricing_plan_id":"cebpf4jnsgd1na2vs0mg"},{"bike_id":"8660b6f6-b867-4559-bd28-88ff02eaa040","system_id":"levelo_inurba_marseille","lat":43.28729,"lon":5.3608,"is_reserved":false,"is_disabled":false,"rental_uris":{"android":"levelo://app?vid=8660b6f6-b867-4559-bd28-88ff02eaa040","ios":"levelo://app?vid=8660b6f6-b867-4559-bd28-88ff02eaa040"},"vehicle_type_id":"4","last_reported":1747771923,"current_range_meters":15200,"station_id":"cki0cbj6b192h4jlfktg","pricing_plan_id":"cebpf4jnsgd1na2vs0mg"},{"bike_id":"a420846c-1cf0-48f0-bdd5-c86b47a6bc90","system_id":"levelo_inurba_marseille","lat":43.24159,"lon":5.36395,"is_reserved":false,"is_disabled":false,"rental_uris":{"android":"levelo://app?vid=a420846c-1cf0-48f0-bdd5-c86b47a6bc90","ios":"levelo://app?vid=a420846c-1cf0-48f0-bdd5-c86b47a6bc90"},"vehicle_type_id":"4","last_reported":1747771923,"current_range_meters":15200,"station_id":"cpo36qri1sfpv3e86is0","pricing_plan_id":"cebpf4jnsgd1na2vs0mg"},{"bike_id":"9dfc1a89-2f81-4b82-9031-6e6e895e0cf0","system_id":"levelo_inurba_marseille","lat":43.26554,"lon":5.37285,"is_reserved":false,"is_disabled":false,"rental_uris":{"android":"levelo://app?vid=9dfc1a89-2f81-4b82-9031-6e6e895e0cf0","ios":"levelo://app?vid=9dfc1a89-2f81-4b82-9031-6e6e895e0cf0"},"vehicle_type_id":"4","last_reported":1747771923,"current_range_meters":16000,"station_id":"","pricing_plan_id":"cebpf4jnsgd1na2vs0mg"},{"bike_id":"f2f51edb-b1f6-4951-8c3c-ed04c4538462","system_id":"levelo_inurba_marseille","lat":43.29885,"lon":5.38894,"is_reserved":false,"is_disabled":false,"rental_uris":{"android":"levelo://app?vid=f2f51edb-b1f6-4951-8c3c-ed04c4538462","ios":"levelo://app?vid=f2f51edb-b1f6-4951-8c3c-ed04c4538462"},"vehicle_type_id":"4","last_reported":1747771923,"current_range_meters":16000,"station_id":"ce4bh392rcd13ifvqdl0","pricing_plan_id":"cebpf4jnsgd1na2vs0mg"},{"bike_id":"203e7e53-6bd9-48af-90d4-fd7680435492","system_id":"levelo_inurba_marseille","lat":43.29259,"lon":5.38446,"is_reserved":false,"is_disabled":false,"rental_uris":{"android":"levelo://app?vid=203e7e53-6bd9-48af-90d4-fd7680435492","ios":"levelo://app?vid=203e7e53-6bd9-48af-90d4-fd7680435492"},"vehicle_type_id":"4","last_reported":1747771923,"current_range_meters":16000,"station_id":"ce4bh692rcd13ifvqea0","pricing_plan_id":"cebpf4jnsgd1na2vs0mg"},{"bike_id":"8ce79410-c2c3-407e-8312-195c9861c386","system_id":"levelo_inurba_marseille","lat":43.28462,"lon":5.35886,"is_reserved":false,"is_disabled":false,"rental_uris":{"android":"levelo://app?vid=8ce79410-c2c3-407e-8312-195c9861c386","ios":"levelo://app?vid=8ce79410-c2c3-407e-8312-195c9861c386"},"vehicle_type_id":"4","last_reported":1747771923,"current_range_meters":16000,"station_id":"ce4bhah2rcd13ifvqei0","pricing_plan_id":"cebpf4jnsgd1na2vs0mg"},{"bike_id":"d3794132-a70f-416f-8f79-15d73a23ca4b","system_id":"levelo_inurba_marseille","lat":43.24646,"lon":5.38893,"is_reserved":false,"is_disabled":false,"rental_uris":{"android":"levelo://app?vid=d3794132-a70f-416f-8f79-15d73a23ca4b","ios":"levelo://app?vid=d3794132-a70f-416f-8f79-15d73a23ca4b"},"vehicle_type_id":"4","last_reported":1747771923,"current_range_meters":16000,"station_id":"ce4bhg12rcd13ifvqf60","pricing_plan_id":"cebpf4jnsgd1na2vs0mg"},{"bike_id":"d5a2bfc7-697e-434a-a8d5-0e762b6ca392","system_id":"levelo_inurba_marseille","lat":43.25819,"lon":5.39436,"is_reserved":false,"is_disabled":false,"rental_uris":{"android":"levelo://app?vid=d5a2bfc7-697e-434a-a8d5-0e762b6ca392","ios":"levelo://app?vid=d5a2bfc7-697e-434a-a8d5-0e762b6ca392"},"vehicle_type_id":"4","last_reported":1747771923,"current_range_meters":16000,"station_id":"ce4bhip2rcd13ifvqft0","pricing_plan_id":"cebpf4jnsgd1na2vs0mg"},{"bike_id":"e4cf2a23-0f18-43b2-83e5-ee73af656d7a","system_id":"levelo_inurba_marseille","lat":43.27972,"lon":5.40025,"is_reserved":false,"is_disabled":false,"rental_uris":{"android":"levelo://app?vid=e4cf2a23-0f18-43b2-83e5-ee73af656d7a","ios":"levelo://app?vid=e4cf2a23-0f18-43b2-83e5-ee73af656d7a"},"vehicle_type_id":"4","last_reported":1747771923,"current_range_meters":16000,"station_id":"ce4bho92rcd13ifvqh4g","pricing_plan_id":"cebpf4jnsgd1na2vs0mg"},{"bike_id":"a253706b-1cb9-4ca4-9560-173eeb92ac1f","system_id":"levelo_inurba_marseille","lat":43.308073,"lon":5.435296,"is_reserved":false,"is_disabled":false,"rental_uris":{"android":"levelo://app?vid=a253706b-1cb9-4ca4-9560-173eeb92ac1f","ios":"levelo://app?vid=a253706b-1cb9-4ca4-9560-173eeb92ac1f"},"vehicle_type_id":"4","last_reported":1747771923,"current_range_meters":16000,"station_id":"ce4bhph2rcd13ifvqheg","pricing_plan_id":"cebpf4jnsgd1na2vs0mg"},{"bike_id":"df3eec4c-d465-424f-bef0-50bca13008c2","system_id":"levelo_inurba_marseille","lat":43.2979,"lon":5.39343,"is_reserved":false,"is_disabled":false,"rental_uris":{"android":"levelo://app?vid=df3eec4c-d465-424f-bef0-50bca13008c2","ios":"levelo://app?vid=df3eec4c-d465-424f-bef0-50bca13008c2"},"vehicle_type_id":"4","last_reported":1747771923,"current_range_meters":16000,"station_id":"chh1huq6cuj3fo74tm60","pricing_plan_id":"cebpf4jnsgd1na2vs0mg"},{"bike_id":"1a340bac-8012-4c7c-b50a-247d19f083a9","system_id":"levelo_inurba_marseille","lat":43.211886,"lon":5.350787,"is_reserved":false,"is_disabled":false,"rental_uris":{"android":"levelo://app?vid=1a340bac-8012-4c7c-b50a-247d19f083a9","ios":"levelo://app?vid=1a340bac-8012-4c7c-b50a-247d19f083a9"},"vehicle_type_id":"4","last_reported":1747771923,"current_range_meters":16000,"station_id":"st_cvj6sg6p6f1abm77japg","pricing_plan_id":"cebpf4jnsgd1na2vs0mg"},{"bike_id":"564704af-88a9-4ead-ac4b-1fa97cb81cb8","system_id":"levelo_inurba_marseille","lat":43.303101,"lon":5.369026,"is_reserved":false,"is_disabled":false,"rental_uris":{"android":"levelo://app?vid=564704af-88a9-4ead-ac4b-1fa97cb81cb8","ios":"levelo://app?vid=564704af-88a9-4ead-ac4b-1fa97cb81cb8"},"vehicle_type_id":"4","last_reported":1747771923,"current_range_meters":16400,"station_id":"ce4bgqh2rcd13ifvqc5g","pricing_plan_id":"cebpf4jnsgd1na2vs0mg"},{"bike_id":"539b42ea-efd0-4315-96e9-310450586f71","system_id":"levelo_inurba_marseille","lat":43.28352,"lon":5.38112,"is_reserved":false,"is_disabled":false,"rental_uris":{"android":"levelo://app?vid=539b42ea-efd0-4315-96e9-310450586f71","ios":"levelo://app?vid=539b42ea-efd0-4315-96e9-310450586f71"},"vehicle_type_id":"4","last_reported":1747771923,"current_range_meters":16400,"station_id":"ce4bh412rcd13ifvqdr0","pricing_plan_id":"cebpf4jnsgd1na2vs0mg"},{"bike_id":"b2098f36-3a4b-4364-a6b7-9bce689a500e","system_id":"levelo_inurba_marseille","lat":43.278157,"lon":5.407094,"is_reserved":false,"is_disabled":false,"rental_uris":{"android":"levelo://app?vid=b2098f36-3a4b-4364-a6b7-9bce689a500e","ios":"levelo://app?vid=b2098f36-3a4b-4364-a6b7-9bce689a500e"},"vehicle_type_id":"4","last_reported":1747771923,"current_range_meters":16400,"station_id":"ce4bhnh2rcd13ifvqgtg","pricing_plan_id":"cebpf4jnsgd1na2vs0mg"},{"bike_id":"24dc12dd-e0a1-4ccc-b473-486d35ddca69","system_id":"levelo_inurba_marseille","lat":43.31724,"lon":5.436977,"is_reserved":false,"is_disabled":false,"rental_uris":{"android":"levelo://app?vid=24dc12dd-e0a1-4ccc-b473-486d35ddca69","ios":"levelo://app?vid=24dc12dd-e0a1-4ccc-b473-486d35ddca69"},"vehicle_type_id":"4","last_reported":1747771923,"current_range_meters":16400,"station_id":"ce4bhp92rcd13ifvqhcg","pricing_plan_id":"cebpf4jnsgd1na2vs0mg"},{"bike_id":"20341d8a-5a7b-49d2-9f9d-dafcc3b6b254","system_id":"levelo_inurba_marseille","lat":43.317604,"lon":5.390218,"is_reserved":false,"is_disabled":false,"rental_uris":{"android":"levelo://app?vid=20341d8a-5a7b-49d2-9f9d-dafcc3b6b254","ios":"levelo://app?vid=20341d8a-5a7b-49d2-9f9d-dafcc3b6b254"},"vehicle_type_id":"4","last_reported":1747771923,"current_range_meters":16400,"station_id":"ce4bhqp2rcd13ifvqhng","pricing_plan_id":"cebpf4jnsgd1na2vs0mg"},{"bike_id":"41a63ad7-5271-4c92-a07b-12a7b1d342de","system_id":"levelo_inurba_marseille","lat":43.21206,"lon":5.35079,"is_reserved":false,"is_disabled":false,"rental_uris":{"android":"levelo://app?vid=41a63ad7-5271-4c92-a07b-12a7b1d342de","ios":"levelo://app?vid=41a63ad7-5271-4c92-a07b-12a7b1d342de"},"vehicle_type_id":"4","last_reported":1747771923,"current_range_meters":16400,"station_id":"st_cvj6sg6p6f1abm77japg","pricing_plan_id":"cebpf4jnsgd1na2vs0mg"},{"bike_id":"bac4a84b-8594-4d89-bfe1-94e8cf74d9ec","system_id":"levelo_inurba_marseille","lat":43.31334,"lon":5.39687,"is_reserved":false,"is_disabled":false,"rental_uris":{"android":"levelo://app?vid=bac4a84b-8594-4d89-bfe1-94e8cf74d9ec","ios":"levelo://app?vid=bac4a84b-8594-4d89-bfe1-94e8cf74d9ec"},"vehicle_type_id":"4","last_reported":1747771923,"current_range_meters":16800,"station_id":"ce4bgvp2rcd13ifvqcu0","pricing_plan_id":"cebpf4jnsgd1na2vs0mg"},{"bike_id":"fa1c0d22-19fb-4312-aeb4-9df9d7fd51c8","system_id":"levelo_inurba_marseille","lat":43.27568,"lon":5.38422,"is_reserved":false,"is_disabled":false,"rental_uris":{"android":"levelo://app?vid=fa1c0d22-19fb-4312-aeb4-9df9d7fd51c8","ios":"levelo://app?vid=fa1c0d22-19fb-4312-aeb4-9df9d7fd51c8"},"vehicle_type_id":"4","last_reported":1747771923,"current_range_meters":16800,"station_id":"ce4bhh92rcd13ifvqfi0","pricing_plan_id":"cebpf4jnsgd1na2vs0mg"},{"bike_id":"d3787df1-b187-4674-a172-34b227ec7bf2","system_id":"levelo_inurba_marseille","lat":43.260641,"lon":5.393959,"is_reserved":false,"is_disabled":false,"rental_uris":{"android":"levelo://app?vid=d3787df1-b187-4674-a172-34b227ec7bf2","ios":"levelo://app?vid=d3787df1-b187-4674-a172-34b227ec7bf2"},"vehicle_type_id":"4","last_reported":1747771923,"current_range_meters":16800,"station_id":"ce4bhh92rcd13ifvqfj0","pricing_plan_id":"cebpf4jnsgd1na2vs0mg"},{"bike_id":"9ca87aa6-027d-4e28-bd9d-073189ce94c1","system_id":"levelo_inurba_marseille","lat":43.29143,"lon":5.38083,"is_reserved":false,"is_disabled":false,"rental_uris":{"android":"levelo://app?vid=9ca87aa6-027d-4e28-bd9d-073189ce94c1","ios":"levelo://app?vid=9ca87aa6-027d-4e28-bd9d-073189ce94c1"},"vehicle_type_id":"4","last_reported":1747771923,"current_range_meters":17200,"station_id":"","pricing_plan_id":"cebpf4jnsgd1na2vs0mg"},{"bike_id":"4b57e184-d849-4bed-a310-218978efd99b","system_id":"levelo_inurba_marseille","lat":43.29078,"lon":5.37168,"is_reserved":false,"is_disabled":false,"rental_uris":{"android":"levelo://app?vid=4b57e184-d849-4bed-a310-218978efd99b","ios":"levelo://app?vid=4b57e184-d849-4bed-a310-218978efd99b"},"vehicle_type_id":"4","last_reported":1747771923,"current_range_meters":17200,"station_id":"ce4bh5p2rcd13ifvqe4g","pricing_plan_id":"cebpf4jnsgd1na2vs0mg"},{"bike_id":"a88092e1-5309-41a8-9adf-828f1c510b40","system_id":"levelo_inurba_marseille","lat":43.27049,"lon":5.4026,"is_reserved":false,"is_disabled":false,"rental_uris":{"android":"levelo://app?vid=a88092e1-5309-41a8-9adf-828f1c510b40","ios":"levelo://app?vid=a88092e1-5309-41a8-9adf-828f1c510b40"},"vehicle_type_id":"4","last_reported":1747771923,"current_range_meters":17200,"station_id":"ce4bhk92rcd13ifvqgc0","pricing_plan_id":"cebpf4jnsgd1na2vs0mg"},{"bike_id":"d2243da5-46a4-4675-a166-c5959f727fa3","system_id":"levelo_inurba_marseille","lat":43.27928,"lon":5.41043,"is_reserved":false,"is_disabled":false,"rental_uris":{"android":"levelo://app?vid=d2243da5-46a4-4675-a166-c5959f727fa3","ios":"levelo://app?vid=d2243da5-46a4-4675-a166-c5959f727fa3"},"vehicle_type_id":"4","last_reported":1747771923,"current_range_meters":17200,"station_id":"ce4bhnp2rcd13ifvqh0g","pricing_plan_id":"cebpf4jnsgd1na2vs0mg"},{"bike_id":"0e6bb125-ff93-4853-97e0-da4a593482f4","system_id":"levelo_inurba_marseille","lat":43.280802,"lon":5.396596,"is_reserved":false,"is_disabled":false,"rental_uris":{"android":"levelo://app?vid=0e6bb125-ff93-4853-97e0-da4a593482f4","ios":"levelo://app?vid=0e6bb125-ff93-4853-97e0-da4a593482f4"},"vehicle_type_id":"4","last_reported":1747771923,"current_range_meters":17200,"station_id":"ce4bho12rcd13ifvqh2g","pricing_plan_id":"cebpf4jnsgd1na2vs0mg"},{"bike_id":"3aa335f5-2337-417e-9923-07d4840feb44","system_id":"levelo_inurba_marseille","lat":43.28074,"lon":5.39645,"is_reserved":false,"is_disabled":false,"rental_uris":{"android":"levelo://app?vid=3aa335f5-2337-417e-9923-07d4840feb44","ios":"levelo://app?vid=3aa335f5-2337-417e-9923-07d4840feb44"},"vehicle_type_id":"4","last_reported":1747771923,"current_range_meters":17200,"station_id":"ce4bho12rcd13ifvqh2g","pricing_plan_id":"cebpf4jnsgd1na2vs0mg"},{"bike_id":"e31833c9-3629-4b2f-810c-c09df0eb266c","system_id":"levelo_inurba_marseille","lat":43.33751,"lon":5.37509,"is_reserved":false,"is_disabled":false,"rental_uris":{"android":"levelo://app?vid=e31833c9-3629-4b2f-810c-c09df0eb266c","ios":"levelo://app?vid=e31833c9-3629-4b2f-810c-c09df0eb266c"},"vehicle_type_id":"4","last_reported":1747771923,"current_range_meters":17600,"station_id":"","pricing_plan_id":"cebpf4jnsgd1na2vs0mg"},{"bike_id":"9d194e47-6ad9-4635-9abb-38f1f3d5f2d3","system_id":"levelo_inurba_marseille","lat":43.29522,"lon":5.39403,"is_reserved":false,"is_disabled":false,"rental_uris":{"android":"levelo://app?vid=9d194e47-6ad9-4635-9abb-38f1f3d5f2d3","ios":"levelo://app?vid=9d194e47-6ad9-4635-9abb-38f1f3d5f2d3"},"vehicle_type_id":"4","last_reported":1747771923,"current_range_meters":17600,"station_id":"ce4bh292rcd13ifvqdf0","pricing_plan_id":"cebpf4jnsgd1na2vs0mg"},{"bike_id":"688a5c1d-6635-41af-9872-d7c90a044df1","system_id":"levelo_inurba_marseille","lat":43.27071,"lon":5.4228,"is_reserved":false,"is_disabled":false,"rental_uris":{"android":"levelo://app?vid=688a5c1d-6635-41af-9872-d7c90a044df1","ios":"levelo://app?vid=688a5c1d-6635-41af-9872-d7c90a044df1"},"vehicle_type_id":"4","last_reported":1747771923,"current_range_meters":17600,"station_id":"ce4bhk92rcd13ifvqgb0","pricing_plan_id":"cebpf4jnsgd1na2vs0mg"},{"bike_id":"a7dd5f98-1109-4c9c-b9c4-482f6fc45105","system_id":"levelo_inurba_marseille","lat":43.31764,"lon":5.39009,"is_reserved":false,"is_disabled":false,"rental_uris":{"android":"levelo://app?vid=a7dd5f98-1109-4c9c-b9c4-482f6fc45105","ios":"levelo://app?vid=a7dd5f98-1109-4c9c-b9c4-482f6fc45105"},"vehicle_type_id":"4","last_reported":1747771923,"current_range_meters":17600,"station_id":"ce4bhqp2rcd13ifvqhng","pricing_plan_id":"cebpf4jnsgd1na2vs0mg"},{"bike_id":"a42434ab-e2e6-4107-8b99-68963895cdb8","system_id":"levelo_inurba_marseille","lat":43.32489,"lon":5.36552,"is_reserved":false,"is_disabled":false,"rental_uris":{"android":"levelo://app?vid=a42434ab-e2e6-4107-8b99-68963895cdb8","ios":"levelo://app?vid=a42434ab-e2e6-4107-8b99-68963895cdb8"},"vehicle_type_id":"4","last_reported":1747771923,"current_range_meters":17600,"station_id":"ce4bhs12rcd13ifvqhvg","pricing_plan_id":"cebpf4jnsgd1na2vs0mg"},{"bike_id":"509a7bc5-3ed4-44a0-83b3-6bbf477b3a61","system_id":"levelo_inurba_marseille","lat":43.21185,"lon":5.35093,"is_reserved":false,"is_disabled":false,"rental_uris":{"android":"levelo://app?vid=509a7bc5-3ed4-44a0-83b3-6bbf477b3a61","ios":"levelo://app?vid=509a7bc5-3ed4-44a0-83b3-6bbf477b3a61"},"vehicle_type_id":"4","last_reported":1747771923,"current_range_meters":17600,"station_id":"st_cvj6sg6p6f1abm77japg","pricing_plan_id":"cebpf4jnsgd1na2vs0mg"},{"bike_id":"76bd8c1d-b0d4-41a2-a76d-e42fe4365be2","system_id":"levelo_inurba_marseille","lat":43.27867,"lon":5.40655,"is_reserved":false,"is_disabled":false,"rental_uris":{"android":"levelo://app?vid=76bd8c1d-b0d4-41a2-a76d-e42fe4365be2","ios":"levelo://app?vid=76bd8c1d-b0d4-41a2-a76d-e42fe4365be2"},"vehicle_type_id":"4","last_reported":1747771923,"current_range_meters":18000,"station_id":"","pricing_plan_id":"cebpf4jnsgd1na2vs0mg"},{"bike_id":"511fe0c5-c8fb-4f63-8a00-d8b23c695b71","system_id":"levelo_inurba_marseille","lat":43.324293,"lon":5.428517,"is_reserved":false,"is_disabled":false,"rental_uris":{"android":"levelo://app?vid=511fe0c5-c8fb-4f63-8a00-d8b23c695b71","ios":"levelo://app?vid=511fe0c5-c8fb-4f63-8a00-d8b23c695b71"},"vehicle_type_id":"4","last_reported":1747771923,"current_range_meters":18000,"station_id":"","pricing_plan_id":"cebpf4jnsgd1na2vs0mg"},{"bike_id":"4c089b95-2d11-4e2f-9116-90d4de4101ea","system_id":"levelo_inurba_marseille","lat":43.29996,"lon":5.37345,"is_reserved":false,"is_disabled":false,"rental_uris":{"android":"levelo://app?vid=4c089b95-2d11-4e2f-9116-90d4de4101ea","ios":"levelo://app?vid=4c089b95-2d11-4e2f-9116-90d4de4101ea"},"vehicle_type_id":"4","last_reported":1747771923,"current_range_meters":18000,"station_id":"","pricing_plan_id":"cebpf4jnsgd1na2vs0mg"},{"bike_id":"fdde9cd1-1082-419e-a097-61bd8c00b28e","system_id":"levelo_inurba_marseille","lat":43.29779,"lon":5.37106,"is_reserved":false,"is_disabled":false,"rental_uris":{"android":"levelo://app?vid=fdde9cd1-1082-419e-a097-61bd8c00b28e","ios":"levelo://app?vid=fdde9cd1-1082-419e-a097-61bd8c00b28e"},"vehicle_type_id":"4","last_reported":1747771923,"current_range_meters":18000,"station_id":"ce4bgop2rcd13ifvqc1g","pricing_plan_id":"cebpf4jnsgd1na2vs0mg"},{"bike_id":"a0657df0-29a6-410f-b1aa-0320deb059a9","system_id":"levelo_inurba_marseille","lat":43.29256,"lon":5.38434,"is_reserved":false,"is_disabled":false,"rental_uris":{"android":"levelo://app?vid=a0657df0-29a6-410f-b1aa-0320deb059a9","ios":"levelo://app?vid=a0657df0-29a6-410f-b1aa-0320deb059a9"},"vehicle_type_id":"4","last_reported":1747771923,"current_range_meters":18000,"station_id":"ce4bh692rcd13ifvqea0","pricing_plan_id":"cebpf4jnsgd1na2vs0mg"},{"bike_id":"da2c3468-57a3-4d9d-97a5-0176a9a0ea8f","system_id":"levelo_inurba_marseille","lat":43.286587,"lon":5.363623,"is_reserved":false,"is_disabled":false,"rental_uris":{"android":"levelo://app?vid=da2c3468-57a3-4d9d-97a5-0176a9a0ea8f","ios":"levelo://app?vid=da2c3468-57a3-4d9d-97a5-0176a9a0ea8f"},"vehicle_type_id":"4","last_reported":1747771923,"current_range_meters":18000,"station_id":"ce4bhah2rcd13ifvqej0","pricing_plan_id":"cebpf4jnsgd1na2vs0mg"},{"bike_id":"05ee309d-ea32-460a-abec-d7dc6500781d","system_id":"levelo_inurba_marseille","lat":43.28938,"lon":5.36632,"is_reserved":false,"is_disabled":false,"rental_uris":{"android":"levelo://app?vid=05ee309d-ea32-460a-abec-d7dc6500781d","ios":"levelo://app?vid=05ee309d-ea32-460a-abec-d7dc6500781d"},"vehicle_type_id":"4","last_reported":1747771923,"current_range_meters":18000,"station_id":"ce4bhap2rcd13ifvqek0","pricing_plan_id":"cebpf4jnsgd1na2vs0mg"},{"bike_id":"ac54cb9d-c717-4084-9363-e0498a0029df","system_id":"levelo_inurba_marseille","lat":43.27945,"lon":5.41039,"is_reserved":false,"is_disabled":false,"rental_uris":{"android":"levelo://app?vid=ac54cb9d-c717-4084-9363-e0498a0029df","ios":"levelo://app?vid=ac54cb9d-c717-4084-9363-e0498a0029df"},"vehicle_type_id":"4","last_reported":1747771923,"current_range_meters":18000,"station_id":"ce4bhnp2rcd13ifvqh0g","pricing_plan_id":"cebpf4jnsgd1na2vs0mg"},{"bike_id":"c4f0ddbf-912f-4dc6-81b8-da7688e7978e","system_id":"levelo_inurba_marseille","lat":43.30798,"lon":5.43524,"is_reserved":false,"is_disabled":false,"rental_uris":{"android":"levelo://app?vid=c4f0ddbf-912f-4dc6-81b8-da7688e7978e","ios":"levelo://app?vid=c4f0ddbf-912f-4dc6-81b8-da7688e7978e"},"vehicle_type_id":"4","last_reported":1747771923,"current_range_meters":18000,"station_id":"ce4bhph2rcd13ifvqheg","pricing_plan_id":"cebpf4jnsgd1na2vs0mg"},{"bike_id":"628c52ae-b897-4dca-953c-8475bb2941d3","system_id":"levelo_inurba_marseille","lat":43.2119,"lon":5.3503,"is_reserved":false,"is_disabled":false,"rental_uris":{"android":"levelo://app?vid=628c52ae-b897-4dca-953c-8475bb2941d3","ios":"levelo://app?vid=628c52ae-b897-4dca-953c-8475bb2941d3"},"vehicle_type_id":"4","last_reported":1747771923,"current_range_meters":18000,"station_id":"st_cvj6sg6p6f1abm77japg","pricing_plan_id":"cebpf4jnsgd1na2vs0mg"},{"bike_id":"c9a00e74-029a-454e-8e85-1b3d994b9d78","system_id":"levelo_inurba_marseille","lat":43.21195,"lon":5.35075,"is_reserved":false,"is_disabled":false,"rental_uris":{"android":"levelo://app?vid=c9a00e74-029a-454e-8e85-1b3d994b9d78","ios":"levelo://app?vid=c9a00e74-029a-454e-8e85-1b3d994b9d78"},"vehicle_type_id":"4","last_reported":1747771923,"current_range_meters":18000,"station_id":"st_cvj6sg6p6f1abm77japg","pricing_plan_id":"cebpf4jnsgd1na2vs0mg"},{"bike_id":"2b6551f6-2e81-4ec6-a7bc-4521e2f2ecdb","system_id":"levelo_inurba_marseille","lat":43.30131,"lon":5.38788,"is_reserved":false,"is_disabled":false,"rental_uris":{"android":"levelo://app?vid=2b6551f6-2e81-4ec6-a7bc-4521e2f2ecdb","ios":"levelo://app?vid=2b6551f6-2e81-4ec6-a7bc-4521e2f2ecdb"},"vehicle_type_id":"4","last_reported":1747771923,"current_range_meters":18800,"station_id":"ce4bghh2rcd13ifvqb60","pricing_plan_id":"cebpf4jnsgd1na2vs0mg"},{"bike_id":"8bb7d43c-e583-40c0-9a6a-a2f0c4f03243","system_id":"levelo_inurba_marseille","lat":43.29283,"lon":5.40919,"is_reserved":false,"is_disabled":false,"rental_uris":{"android":"levelo://app?vid=8bb7d43c-e583-40c0-9a6a-a2f0c4f03243","ios":"levelo://app?vid=8bb7d43c-e583-40c0-9a6a-a2f0c4f03243"},"vehicle_type_id":"4","last_reported":1747771923,"current_range_meters":18800,"station_id":"ce4bh192rcd13ifvqdc0","pricing_plan_id":"cebpf4jnsgd1na2vs0mg"},{"bike_id":"f3886d80-c405-49a1-9b39-518044506720","system_id":"levelo_inurba_marseille","lat":43.29443,"lon":5.39764,"is_reserved":false,"is_disabled":false,"rental_uris":{"android":"levelo://app?vid=f3886d80-c405-49a1-9b39-518044506720","ios":"levelo://app?vid=f3886d80-c405-49a1-9b39-518044506720"},"vehicle_type_id":"4","last_reported":1747771923,"current_range_meters":18800,"station_id":"ce4bh3h2rcd13ifvqdo0","pricing_plan_id":"cebpf4jnsgd1na2vs0mg"},{"bike_id":"62580a10-30b9-4021-88b6-1a43f6d980a4","system_id":"levelo_inurba_marseille","lat":43.29258,"lon":5.38432,"is_reserved":false,"is_disabled":false,"rental_uris":{"android":"levelo://app?vid=62580a10-30b9-4021-88b6-1a43f6d980a4","ios":"levelo://app?vid=62580a10-30b9-4021-88b6-1a43f6d980a4"},"vehicle_type_id":"4","last_reported":1747771923,"current_range_meters":18800,"station_id":"ce4bh692rcd13ifvqea0","pricing_plan_id":"cebpf4jnsgd1na2vs0mg"},{"bike_id":"ed11f8f9-2a2d-4592-809e-e655bba14632","system_id":"levelo_inurba_marseille","lat":43.21758,"lon":5.34599,"is_reserved":false,"is_disabled":false,"rental_uris":{"android":"levelo://app?vid=ed11f8f9-2a2d-4592-809e-e655bba14632","ios":"levelo://app?vid=ed11f8f9-2a2d-4592-809e-e655bba14632"},"vehicle_type_id":"4","last_reported":1747771923,"current_range_meters":19200,"station_id":"","pricing_plan_id":"cebpf4jnsgd1na2vs0mg"},{"bike_id":"9f837843-007d-4c85-a691-48e33f3dc0af","system_id":"levelo_inurba_marseille","lat":43.287162,"lon":5.379426,"is_reserved":false,"is_disabled":false,"rental_uris":{"android":"levelo://app?vid=9f837843-007d-4c85-a691-48e33f3dc0af","ios":"levelo://app?vid=9f837843-007d-4c85-a691-48e33f3dc0af"},"vehicle_type_id":"4","last_reported":1747771923,"current_range_meters":19200,"station_id":"ce4bh9p2rcd13ifvqec0","pricing_plan_id":"cebpf4jnsgd1na2vs0mg"},{"bike_id":"f77a6f3c-0b9c-4c42-bd55-bf7bc2d3d671","system_id":"levelo_inurba_marseille","lat":43.28939,"lon":5.36637,"is_reserved":false,"is_disabled":false,"rental_uris":{"android":"levelo://app?vid=f77a6f3c-0b9c-4c42-bd55-bf7bc2d3d671","ios":"levelo://app?vid=f77a6f3c-0b9c-4c42-bd55-bf7bc2d3d671"},"vehicle_type_id":"4","last_reported":1747771923,"current_range_meters":19200,"station_id":"ce4bhap2rcd13ifvqek0","pricing_plan_id":"cebpf4jnsgd1na2vs0mg"},{"bike_id":"134b18d6-3b31-464c-b653-e1b000c23415","system_id":"levelo_inurba_marseille","lat":43.2783,"lon":5.40713,"is_reserved":false,"is_disabled":false,"rental_uris":{"android":"levelo://app?vid=134b18d6-3b31-464c-b653-e1b000c23415","ios":"levelo://app?vid=134b18d6-3b31-464c-b653-e1b000c23415"},"vehicle_type_id":"4","last_reported":1747771923,"current_range_meters":19200,"station_id":"ce4bhnh2rcd13ifvqgtg","pricing_plan_id":"cebpf4jnsgd1na2vs0mg"},{"bike_id":"8530c6cc-eeca-4eea-a139-fbe293af0f0e","system_id":"levelo_inurba_marseille","lat":43.296686,"lon":5.378538,"is_reserved":false,"is_disabled":false,"rental_uris":{"android":"levelo://app?vid=8530c6cc-eeca-4eea-a139-fbe293af0f0e","ios":"levelo://app?vid=8530c6cc-eeca-4eea-a139-fbe293af0f0e"},"vehicle_type_id":"4","last_reported":1747771923,"current_range_meters":19600,"station_id":"ce4bgjh2rcd13ifvqbf0","pricing_plan_id":"cebpf4jnsgd1na2vs0mg"},{"bike_id":"3d9677b6-1198-4bb0-af4a-a506d3d9a92c","system_id":"levelo_inurba_marseille","lat":43.30934,"lon":5.40142,"is_reserved":false,"is_disabled":false,"rental_uris":{"android":"levelo://app?vid=3d9677b6-1198-4bb0-af4a-a506d3d9a92c","ios":"levelo://app?vid=3d9677b6-1198-4bb0-af4a-a506d3d9a92c"},"vehicle_type_id":"4","last_reported":1747771923,"current_range_meters":19600,"station_id":"ce4bgvp2rcd13ifvqct0","pricing_plan_id":"cebpf4jnsgd1na2vs0mg"},{"bike_id":"0748cfeb-b384-4768-bcbf-7dc1c57e318a","system_id":"levelo_inurba_marseille","lat":43.29255,"lon":5.38463,"is_reserved":false,"is_disabled":false,"rental_uris":{"android":"levelo://app?vid=0748cfeb-b384-4768-bcbf-7dc1c57e318a","ios":"levelo://app?vid=0748cfeb-b384-4768-bcbf-7dc1c57e318a"},"vehicle_type_id":"4","last_reported":1747771923,"current_range_meters":19600,"station_id":"ce4bh692rcd13ifvqea0","pricing_plan_id":"cebpf4jnsgd1na2vs0mg"},{"bike_id":"c0058ff1-f32e-49de-93ac-d32f597b979c","system_id":"levelo_inurba_marseille","lat":43.281055,"lon":5.37839,"is_reserved":false,"is_disabled":false,"rental_uris":{"android":"levelo://app?vid=c0058ff1-f32e-49de-93ac-d32f597b979c","ios":"levelo://app?vid=c0058ff1-f32e-49de-93ac-d32f597b979c"},"vehicle_type_id":"4","last_reported":1747771923,"current_range_meters":19600,"station_id":"ce4bha12rcd13ifvqee0","pricing_plan_id":"cebpf4jnsgd1na2vs0mg"},{"bike_id":"97b74aaf-f6dc-40e2-ac6c-9dd5fc5f7177","system_id":"levelo_inurba_marseille","lat":43.28026,"lon":5.3694,"is_reserved":false,"is_disabled":false,"rental_uris":{"android":"levelo://app?vid=97b74aaf-f6dc-40e2-ac6c-9dd5fc5f7177","ios":"levelo://app?vid=97b74aaf-f6dc-40e2-ac6c-9dd5fc5f7177"},"vehicle_type_id":"4","last_reported":1747771923,"current_range_meters":19600,"station_id":"ce4bha12rcd13ifvqef0","pricing_plan_id":"cebpf4jnsgd1na2vs0mg"},{"bike_id":"e2eed7ff-1f24-42d8-a573-4bf0df545736","system_id":"levelo_inurba_marseille","lat":43.28465,"lon":5.35891,"is_reserved":false,"is_disabled":false,"rental_uris":{"android":"levelo://app?vid=e2eed7ff-1f24-42d8-a573-4bf0df545736","ios":"levelo://app?vid=e2eed7ff-1f24-42d8-a573-4bf0df545736"},"vehicle_type_id":"4","last_reported":1747771923,"current_range_meters":19600,"station_id":"ce4bhah2rcd13ifvqei0","pricing_plan_id":"cebpf4jnsgd1na2vs0mg"},{"bike_id":"07fc587e-9b1b-430c-9736-fff9a624f203","system_id":"levelo_inurba_marseille","lat":43.255842,"lon":5.382288,"is_reserved":false,"is_disabled":false,"rental_uris":{"android":"levelo://app?vid=07fc587e-9b1b-430c-9736-fff9a624f203","ios":"levelo://app?vid=07fc587e-9b1b-430c-9736-fff9a624f203"},"vehicle_type_id":"4","last_reported":1747771923,"current_range_meters":19600,"station_id":"ce4bhg12rcd13ifvqf60","pricing_plan_id":"cebpf4jnsgd1na2vs0mg"},{"bike_id":"50edcb67-efd8-4684-a02b-66c4a2722199","system_id":"levelo_inurba_marseille","lat":43.24811,"lon":5.37459,"is_reserved":false,"is_disabled":false,"rental_uris":{"android":"levelo://app?vid=50edcb67-efd8-4684-a02b-66c4a2722199","ios":"levelo://app?vid=50edcb67-efd8-4684-a02b-66c4a2722199"},"vehicle_type_id":"4","last_reported":1747771923,"current_range_meters":19600,"station_id":"ce4bhgh2rcd13ifvqfb0","pricing_plan_id":"cebpf4jnsgd1na2vs0mg"},{"bike_id":"ea176aaa-543e-4cf6-89dd-d533ea39307f","system_id":"levelo_inurba_marseille","lat":43.32043,"lon":5.4155,"is_reserved":false,"is_disabled":false,"rental_uris":{"android":"levelo://app?vid=ea176aaa-543e-4cf6-89dd-d533ea39307f","ios":"levelo://app?vid=ea176aaa-543e-4cf6-89dd-d533ea39307f"},"vehicle_type_id":"4","last_reported":1747771923,"current_range_meters":19600,"station_id":"ce4bhq92rcd13ifvqhkg","pricing_plan_id":"cebpf4jnsgd1na2vs0mg"},{"bike_id":"e8e438ec-4b2c-4d75-935f-4647247179aa","system_id":"levelo_inurba_marseille","lat":43.3176,"lon":5.39007,"is_reserved":false,"is_disabled":false,"rental_uris":{"android":"levelo://app?vid=e8e438ec-4b2c-4d75-935f-4647247179aa","ios":"levelo://app?vid=e8e438ec-4b2c-4d75-935f-4647247179aa"},"vehicle_type_id":"4","last_reported":1747771923,"current_range_meters":20000,"station_id":"","pricing_plan_id":"cebpf4jnsgd1na2vs0mg"},{"bike_id":"843c55be-b7b2-4605-bbda-b5902b87b9cd","system_id":"levelo_inurba_marseille","lat":43.26444,"lon":5.39064,"is_reserved":false,"is_disabled":false,"rental_uris":{"android":"levelo://app?vid=843c55be-b7b2-4605-bbda-b5902b87b9cd","ios":"levelo://app?vid=843c55be-b7b2-4605-bbda-b5902b87b9cd"},"vehicle_type_id":"4","last_reported":1747771923,"current_range_meters":20000,"station_id":"","pricing_plan_id":"cebpf4jnsgd1na2vs0mg"},{"bike_id":"a1196188-2c7c-465c-999b-7edb1f0906f1","system_id":"levelo_inurba_marseille","lat":43.26964,"lon":5.42131,"is_reserved":false,"is_disabled":false,"rental_uris":{"android":"levelo://app?vid=a1196188-2c7c-465c-999b-7edb1f0906f1","ios":"levelo://app?vid=a1196188-2c7c-465c-999b-7edb1f0906f1"},"vehicle_type_id":"4","last_reported":1747771923,"current_range_meters":20000,"station_id":"","pricing_plan_id":"cebpf4jnsgd1na2vs0mg"},{"bike_id":"2952ade9-356c-4336-99a1-396e23965977","system_id":"levelo_inurba_marseille","lat":43.2843,"lon":5.3751,"is_reserved":false,"is_disabled":false,"rental_uris":{"android":"levelo://app?vid=2952ade9-356c-4336-99a1-396e23965977","ios":"levelo://app?vid=2952ade9-356c-4336-99a1-396e23965977"},"vehicle_type_id":"4","last_reported":1747771923,"current_range_meters":20000,"station_id":"ce4bh412rcd13ifvqds0","pricing_plan_id":"cebpf4jnsgd1na2vs0mg"},{"bike_id":"dc61c065-6ed1-487e-9ecf-5a93a8f61ca7","system_id":"levelo_inurba_marseille","lat":43.23194,"lon":5.39974,"is_reserved":false,"is_disabled":false,"rental_uris":{"android":"levelo://app?vid=dc61c065-6ed1-487e-9ecf-5a93a8f61ca7","ios":"levelo://app?vid=dc61c065-6ed1-487e-9ecf-5a93a8f61ca7"},"vehicle_type_id":"4","last_reported":1747771923,"current_range_meters":20000,"station_id":"ce4bhn12rcd13ifvqgqg","pricing_plan_id":"cebpf4jnsgd1na2vs0mg"},{"bike_id":"512cad48-a180-4060-b1f1-89c6ef5852f2","system_id":"levelo_inurba_marseille","lat":43.23189,"lon":5.39981,"is_reserved":false,"is_disabled":false,"rental_uris":{"android":"levelo://app?vid=512cad48-a180-4060-b1f1-89c6ef5852f2","ios":"levelo://app?vid=512cad48-a180-4060-b1f1-89c6ef5852f2"},"vehicle_type_id":"4","last_reported":1747771923,"current_range_meters":20000,"station_id":"ce4bhn12rcd13ifvqgqg","pricing_plan_id":"cebpf4jnsgd1na2vs0mg"},{"bike_id":"2cf51deb-62a1-4140-9316-c97bf07fbc5b","system_id":"levelo_inurba_marseille","lat":43.28079,"lon":5.39674,"is_reserved":false,"is_disabled":false,"rental_uris":{"android":"levelo://app?vid=2cf51deb-62a1-4140-9316-c97bf07fbc5b","ios":"levelo://app?vid=2cf51deb-62a1-4140-9316-c97bf07fbc5b"},"vehicle_type_id":"4","last_reported":1747771923,"current_range_meters":20000,"station_id":"ce4bho12rcd13ifvqh2g","pricing_plan_id":"cebpf4jnsgd1na2vs0mg"},{"bike_id":"337cd117-753f-4902-926a-74f688956ef1","system_id":"levelo_inurba_marseille","lat":43.30723,"lon":5.42448,"is_reserved":false,"is_disabled":false,"rental_uris":{"android":"levelo://app?vid=337cd117-753f-4902-926a-74f688956ef1","ios":"levelo://app?vid=337cd117-753f-4902-926a-74f688956ef1"},"vehicle_type_id":"4","last_reported":1747771923,"current_range_meters":20000,"station_id":"st_cvj6ca6bvosntc0bfgr0","pricing_plan_id":"cebpf4jnsgd1na2vs0mg"},{"bike_id":"24460d38-0e11-4f4a-a2eb-4f56bda4d062","system_id":"levelo_inurba_marseille","lat":43.30136,"lon":5.38787,"is_reserved":false,"is_disabled":false,"rental_uris":{"android":"levelo://app?vid=24460d38-0e11-4f4a-a2eb-4f56bda4d062","ios":"levelo://app?vid=24460d38-0e11-4f4a-a2eb-4f56bda4d062"},"vehicle_type_id":"4","last_reported":1747771923,"current_range_meters":20400,"station_id":"ce4bghh2rcd13ifvqb60","pricing_plan_id":"cebpf4jnsgd1na2vs0mg"},{"bike_id":"eba8b76a-d202-42a0-a7f2-ae72dc2236f7","system_id":"levelo_inurba_marseille","lat":43.30461,"lon":5.37905,"is_reserved":false,"is_disabled":false,"rental_uris":{"android":"levelo://app?vid=eba8b76a-d202-42a0-a7f2-ae72dc2236f7","ios":"levelo://app?vid=eba8b76a-d202-42a0-a7f2-ae72dc2236f7"},"vehicle_type_id":"4","last_reported":1747771923,"current_range_meters":20400,"station_id":"ce4bgup2rcd13ifvqcn0","pricing_plan_id":"cebpf4jnsgd1na2vs0mg"},{"bike_id":"d4acc3d6-22e6-44af-8a92-fc4a8985e714","system_id":"levelo_inurba_marseille","lat":43.25096,"lon":5.39504,"is_reserved":false,"is_disabled":false,"rental_uris":{"android":"levelo://app?vid=d4acc3d6-22e6-44af-8a92-fc4a8985e714","ios":"levelo://app?vid=d4acc3d6-22e6-44af-8a92-fc4a8985e714"},"vehicle_type_id":"4","last_reported":1747771923,"current_range_meters":20400,"station_id":"ce4bhm12rcd13ifvqgkg","pricing_plan_id":"cebpf4jnsgd1na2vs0mg"},{"bike_id":"74fc0046-3ce3-4004-b15c-33e62895b064","system_id":"levelo_inurba_marseille","lat":43.24076,"lon":5.37759,"is_reserved":false,"is_disabled":false,"rental_uris":{"android":"levelo://app?vid=74fc0046-3ce3-4004-b15c-33e62895b064","ios":"levelo://app?vid=74fc0046-3ce3-4004-b15c-33e62895b064"},"vehicle_type_id":"4","last_reported":1747771923,"current_range_meters":20400,"station_id":"ce4bhnp2rcd13ifvqgvg","pricing_plan_id":"cebpf4jnsgd1na2vs0mg"},{"bike_id":"961d52e8-6ee8-4ceb-a690-58c92b378268","system_id":"levelo_inurba_marseille","lat":43.2798,"lon":5.41636,"is_reserved":false,"is_disabled":false,"rental_uris":{"android":"levelo://app?vid=961d52e8-6ee8-4ceb-a690-58c92b378268","ios":"levelo://app?vid=961d52e8-6ee8-4ceb-a690-58c92b378268"},"vehicle_type_id":"4","last_reported":1747771923,"current_range_meters":20400,"station_id":"ce4bho12rcd13ifvqh1g","pricing_plan_id":"cebpf4jnsgd1na2vs0mg"},{"bike_id":"a0a60a04-55a9-4168-93e3-2c521ac2ef06","system_id":"levelo_inurba_marseille","lat":43.2873,"lon":5.36085,"is_reserved":false,"is_disabled":false,"rental_uris":{"android":"levelo://app?vid=a0a60a04-55a9-4168-93e3-2c521ac2ef06","ios":"levelo://app?vid=a0a60a04-55a9-4168-93e3-2c521ac2ef06"},"vehicle_type_id":"4","last_reported":1747771923,"current_range_meters":20400,"station_id":"cki0cbj6b192h4jlfktg","pricing_plan_id":"cebpf4jnsgd1na2vs0mg"},{"bike_id":"c1250797-2237-44cd-8720-c8dd424c5bd6","system_id":"levelo_inurba_marseille","lat":43.30883,"lon":5.39648,"is_reserved":false,"is_disabled":false,"rental_uris":{"android":"levelo://app?vid=c1250797-2237-44cd-8720-c8dd424c5bd6","ios":"levelo://app?vid=c1250797-2237-44cd-8720-c8dd424c5bd6"},"vehicle_type_id":"4","last_reported":1747771923,"current_range_meters":20800,"station_id":"ce4bh012rcd13ifvqcv0","pricing_plan_id":"cebpf4jnsgd1na2vs0mg"},{"bike_id":"db78ce94-3dc2-4bd6-9e74-fd94b0360770","system_id":"levelo_inurba_marseille","lat":43.29201,"lon":5.39313,"is_reserved":false,"is_disabled":false,"rental_uris":{"android":"levelo://app?vid=db78ce94-3dc2-4bd6-9e74-fd94b0360770","ios":"levelo://app?vid=db78ce94-3dc2-4bd6-9e74-fd94b0360770"},"vehicle_type_id":"4","last_reported":1747771923,"current_range_meters":20800,"station_id":"ce4bh192rcd13ifvqdd0","pricing_plan_id":"cebpf4jnsgd1na2vs0mg"},{"bike_id":"624cead2-ea23-497b-9f90-b7ccdf010f79","system_id":"levelo_inurba_marseille","lat":43.290208,"lon":5.386357,"is_reserved":false,"is_disabled":false,"rental_uris":{"android":"levelo://app?vid=624cead2-ea23-497b-9f90-b7ccdf010f79","ios":"levelo://app?vid=624cead2-ea23-497b-9f90-b7ccdf010f79"},"vehicle_type_id":"4","last_reported":1747771923,"current_range_meters":20800,"station_id":"ce4bh4p2rcd13ifvqe0g","pricing_plan_id":"cebpf4jnsgd1na2vs0mg"},{"bike_id":"bd4670fe-0c64-4ee3-aef4-7f7aaffbfa80","system_id":"levelo_inurba_marseille","lat":43.27956,"lon":5.410338,"is_reserved":false,"is_disabled":false,"rental_uris":{"android":"levelo://app?vid=bd4670fe-0c64-4ee3-aef4-7f7aaffbfa80","ios":"levelo://app?vid=bd4670fe-0c64-4ee3-aef4-7f7aaffbfa80"},"vehicle_type_id":"4","last_reported":1747771923,"current_range_meters":20800,"station_id":"ce4bhnp2rcd13ifvqh0g","pricing_plan_id":"cebpf4jnsgd1na2vs0mg"},{"bike_id":"c79b8ff0-5c6a-4846-9d3b-33cc0a0cc14b","system_id":"levelo_inurba_marseille","lat":43.32334,"lon":5.40617,"is_reserved":false,"is_disabled":false,"rental_uris":{"android":"levelo://app?vid=c79b8ff0-5c6a-4846-9d3b-33cc0a0cc14b","ios":"levelo://app?vid=c79b8ff0-5c6a-4846-9d3b-33cc0a0cc14b"},"vehicle_type_id":"4","last_reported":1747771923,"current_range_meters":20800,"station_id":"ce4bhq92rcd13ifvqhjg","pricing_plan_id":"cebpf4jnsgd1na2vs0mg"},{"bike_id":"b0799c00-07a1-4372-aab9-8e74e1a3ec7a","system_id":"levelo_inurba_marseille","lat":43.32482,"lon":5.43493,"is_reserved":false,"is_disabled":false,"rental_uris":{"android":"levelo://app?vid=b0799c00-07a1-4372-aab9-8e74e1a3ec7a","ios":"levelo://app?vid=b0799c00-07a1-4372-aab9-8e74e1a3ec7a"},"vehicle_type_id":"4","last_reported":1747771923,"current_range_meters":21600,"station_id":"","pricing_plan_id":"cebpf4jnsgd1na2vs0mg"},{"bike_id":"c3f81546-bcf1-4a57-a952-164e8b1b7dd2","system_id":"levelo_inurba_marseille","lat":43.291981,"lon":5.39324,"is_reserved":false,"is_disabled":false,"rental_uris":{"android":"levelo://app?vid=c3f81546-bcf1-4a57-a952-164e8b1b7dd2","ios":"levelo://app?vid=c3f81546-bcf1-4a57-a952-164e8b1b7dd2"},"vehicle_type_id":"4","last_reported":1747771923,"current_range_meters":21600,"station_id":"ce4bh192rcd13ifvqdd0","pricing_plan_id":"cebpf4jnsgd1na2vs0mg"},{"bike_id":"b065d136-5cb3-4835-bb6e-25ceb3a1f4d4","system_id":"levelo_inurba_marseille","lat":43.284,"lon":5.37519,"is_reserved":false,"is_disabled":false,"rental_uris":{"android":"levelo://app?vid=b065d136-5cb3-4835-bb6e-25ceb3a1f4d4","ios":"levelo://app?vid=b065d136-5cb3-4835-bb6e-25ceb3a1f4d4"},"vehicle_type_id":"4","last_reported":1747771923,"current_range_meters":21600,"station_id":"ce4bh412rcd13ifvqds0","pricing_plan_id":"cebpf4jnsgd1na2vs0mg"},{"bike_id":"0f167f63-1fba-4ce6-af87-77dbab8d07ad","system_id":"levelo_inurba_marseille","lat":43.27161,"lon":5.40992,"is_reserved":false,"is_disabled":false,"rental_uris":{"android":"levelo://app?vid=0f167f63-1fba-4ce6-af87-77dbab8d07ad","ios":"levelo://app?vid=0f167f63-1fba-4ce6-af87-77dbab8d07ad"},"vehicle_type_id":"4","last_reported":1747771923,"current_range_meters":21600,"station_id":"ce4bhl12rcd13ifvqgf0","pricing_plan_id":"cebpf4jnsgd1na2vs0mg"},{"bike_id":"3a48c182-8aa9-4817-97ec-3a2c2ae3fb96","system_id":"levelo_inurba_marseille","lat":43.29887,"lon":5.43658,"is_reserved":false,"is_disabled":false,"rental_uris":{"android":"levelo://app?vid=3a48c182-8aa9-4817-97ec-3a2c2ae3fb96","ios":"levelo://app?vid=3a48c182-8aa9-4817-97ec-3a2c2ae3fb96"},"vehicle_type_id":"4","last_reported":1747771923,"current_range_meters":21600,"station_id":"ce4bhpp2rcd13ifvqhfg","pricing_plan_id":"cebpf4jnsgd1na2vs0mg"},{"bike_id":"20abaeb5-59e2-4ef4-9a0b-31d6664bd12e","system_id":"levelo_inurba_marseille","lat":43.2743,"lon":5.39415,"is_reserved":false,"is_disabled":false,"rental_uris":{"android":"levelo://app?vid=20abaeb5-59e2-4ef4-9a0b-31d6664bd12e","ios":"levelo://app?vid=20abaeb5-59e2-4ef4-9a0b-31d6664bd12e"},"vehicle_type_id":"4","last_reported":1747771923,"current_range_meters":22000,"station_id":"","pricing_plan_id":"cebpf4jnsgd1na2vs0mg"},{"bike_id":"b78c8d39-013d-48d6-9452-a430f5aca729","system_id":"levelo_inurba_marseille","lat":43.27413,"lon":5.39387,"is_reserved":false,"is_disabled":false,"rental_uris":{"android":"levelo://app?vid=b78c8d39-013d-48d6-9452-a430f5aca729","ios":"levelo://app?vid=b78c8d39-013d-48d6-9452-a430f5aca729"},