{"last_updated":1711804097,"ttl":30,"version":"2.2","data":{"bikes":[{"bike_id":"4a029f17-9989-472e-953d-c74409ae896a","system_id":"levelo_inurba_marseille","lat":43.30537,"lon":5.367345,"is_reserved":false,"is_disabled":false,"rental_uris":{"android":"levelo://app?vid=4a029f17-9989-472e-953d-c74409ae896a","ios":"levelo://app?vid=4a029f17-9989-472e-953d-c74409ae896a"},"vehicle_type_id":"4","last_reported":1711804097,"current_range_meters":21200,"station_id":"ce4bgrp2rcd13ifvqc9g","pricing_plan_id":"cebpf4jnsgd1na2vs0mg"},{"bike_id":"cbb5fdc6-6f1b-4cbd-a00c-627e85c497a6","system_id":"levelo_inurba_marseille","lat":43.312239,"lon":5.368562,"is_reserved":false,"is_disabled":false,"rental_uris":{"android":"levelo://app?vid=cbb5fdc6-6f1b-4cbd-a00c-627e85c497a6","ios":"levelo://app?vid=cbb5fdc6-6f1b-4cbd-a00c-627e85c497a6"},"vehicle_type_id":"4","last_reported":1711804097,"current_range_meters":30000,"station_id":"ce4bgl92rcd13ifvqbq0","pricing_plan_id":"cebpf4jnsgd1na2vs0mg"},{"bike_id":"6944e138-2f53-4ac0-9f2d-86f20491b7c9","system_id":"levelo_inurba_marseille","lat":43.312239,"lon":5.368562,"is_reserved":false,"is_disabled":false,"rental_uris":{"android":"levelo://app?vid=6944e138-2f53-4ac0-9f2d-86f20491b7c9","ios":"levelo://app?vid=6944e138-2f53-4ac0-9f2d-86f20491b7c9"},"vehicle_type_id":"4","last_reported":1711804097,"current_range_meters":24400,"station_id":"ce4bgl92rcd13ifvqbq0","pricing_plan_id":"cebpf4jnsgd1na2vs0mg"},{"bike_id":"53734418-90e3-4e76-82d5-97fd20e24dfa","system_id":"levelo_inurba_marseille","lat":43.312239,"lon":5.368562,"is_reserved":false,"is_disabled":false,"rental_uris":{"android":"levelo://app?vid=53734418-90e3-4e76-82d5-97fd20e24dfa","ios":"levelo://app?vid=53734418-90e3-4e76-82d5-97fd20e24dfa"},"vehicle_type_id":"4","last_reported":1711804097,"current_range_meters":21200,"station_id":"ce4bgl92rcd13ifvqbq0","pricing_plan_id":"cebpf4jnsgd1na2vs0mg"},{"bike_id":"32b9863d-41ab-48b0-84f3-5e27d410c43f","system_id":"levelo_inurba_marseille","lat":43.312239,"lon":5.368562,"is_reserved":false,"is_disabled":false,"rental_uris":{"android":"levelo://app?vid=32b9863d-41ab-48b0-84f3-5e27d410c43f","ios":"levelo://app?vid=32b9863d-41ab-48b0-84f3-5e27d410c43f"},"vehicle_type_id":"4","last_reported":1711804097,"current_range_meters":22400,"station_id":"ce4bgl92rcd13ifvqbq0","pricing_plan_id":"cebpf4jnsgd1na2vs0mg"},{"bike_id":"c7df93a1-8122-4ab7-a696-5f1d8be8210a","system_id":"levelo_inurba_marseille","lat":43.309076,"lon":5.368465,"is_reserved":false,"is_disabled":false,"rental_uris":{"android":"levelo://app?vid=c7df93a1-8122-4ab7-a696-5f1d8be8210a","ios":"levelo://app?vid=c7df93a1-8122-4ab7-a696-5f1d8be8210a"},"vehicle_type_id":"4","last_reported":1711804097,"current_range_meters":27600,"station_id":"ce4bgn92rcd13ifvqbvg","pricing_plan_id":"cebpf4jnsgd1na2vs0mg"},{"bike_id":"faacbc7f-da9e-48b9-9fe8-dcdc950e51ad","system_id":"levelo_inurba_marseille","lat":43.309076,"lon":5.368465,"is_reserved":false,"is_disabled":false,"rental_uris":{"android":"levelo://app?vid=faacbc7f-da9e-48b9-9fe8-dcdc950e51ad","ios":"levelo://app?vid=faacbc7f-da9e-48b9-9fe8-dcdc950e51ad"},"vehicle_type_id":"4","last_reported":1711804097,"current_range_meters":25200,"station_id":"ce4bgn92rcd13ifvqbvg","pricing_plan_id":"cebpf4jnsgd1na2vs0mg"},{"bike_id":"5eb53a7c-5e14-45cc-b29d-a4577804da1c","system_id":"levelo_inurba_marseille","lat":43.30899,"lon":5.36851,"is_reserved":false,"is_disabled":false,"rental_uris":{"android":"levelo://app?vid=5eb53a7c-5e14-45cc-b29d-a4577804da1c","ios":"levelo://app?vid=5eb53a7c-5e14-45cc-b29d-a4577804da1c"},"vehicle_type_id":"4","last_reported":1711804097,"current_range_meters":12400,"station_id":"ce4bgn92rcd13ifvqbvg","pricing_plan_id":"cebpf4jnsgd1na2vs0mg"},{"bike_id":"edce2ee1-29d9-4948-9d48-7fe3f870004b","system_id":"levelo_inurba_marseille","lat":43.314811,"lon":5.373103,"is_reserved":false,"is_disabled":false,"rental_uris":{"android":"levelo://app?vid=edce2ee1-29d9-4948-9d48-7fe3f870004b","ios":"levelo://app?vid=edce2ee1-29d9-4948-9d48-7fe3f870004b"},"vehicle_type_id":"4","last_reported":1711804097,"current_range_meters":20000,"station_id":"ce4bgt12rcd13ifvqcd0","pricing_plan_id":"cebpf4jnsgd1na2vs0mg"},{"bike_id":"59cc2d37-ab84-42cd-8c97-64f3ddd01d85","system_id":"levelo_inurba_marseille","lat":43.309039,"lon":5.371797,"is_reserved":false,"is_disabled":false,"rental_uris":{"android":"levelo://app?vid=59cc2d37-ab84-42cd-8c97-64f3ddd01d85","ios":"levelo://app?vid=59cc2d37-ab84-42cd-8c97-64f3ddd01d85"},"vehicle_type_id":"4","last_reported":1711804097,"current_range_meters":17200,"station_id":"ce4bguh2rcd13ifvqckg","pricing_plan_id":"cebpf4jnsgd1na2vs0mg"},{"bike_id":"db8b105a-a2ea-40b8-bfa6-bbe8ac352999","system_id":"levelo_inurba_marseille","lat":43.305368,"lon":5.367343,"is_reserved":false,"is_disabled":false,"rental_uris":{"android":"levelo://app?vid=db8b105a-a2ea-40b8-bfa6-bbe8ac352999","ios":"levelo://app?vid=db8b105a-a2ea-40b8-bfa6-bbe8ac352999"},"vehicle_type_id":"4","last_reported":1711804097,"current_range_meters":0,"station_id":"ce4bgrp2rcd13ifvqc9g","pricing_plan_id":"cebpf4jnsgd1na2vs0mg"},{"bike_id":"11b029a0-56b0-425b-a90c-9e7436bcb0a3","system_id":"levelo_inurba_marseille","lat":43.305706,"lon":5.365654,"is_reserved":false,"is_disabled":false,"rental_uris":{"android":"levelo://app?vid=11b029a0-56b0-425b-a90c-9e7436bcb0a3","ios":"levelo://app?vid=11b029a0-56b0-425b-a90c-9e7436bcb0a3"},"vehicle_type_id":"4","last_reported":1711804097,"current_range_meters":25600,"station_id":"ce4bgs12rcd13ifvqcag","pricing_plan_id":"cebpf4jnsgd1na2vs0mg"},{"bike_id":"a9b403a1-4c7d-4586-98eb-b3337bc07b6b","system_id":"levelo_inurba_marseille","lat":43.305712,"lon":5.365641,"is_reserved":false,"is_disabled":false,"rental_uris":{"android":"levelo://app?vid=a9b403a1-4c7d-4586-98eb-b3337bc07b6b","ios":"levelo://app?vid=a9b403a1-4c7d-4586-98eb-b3337bc07b6b"},"vehicle_type_id":"4","last_reported":1711804097,"current_range_meters":20400,"station_id":"ce4bgs12rcd13ifvqcag","pricing_plan_id":"cebpf4jnsgd1na2vs0mg"},{"bike_id":"8cf66207-ae5e-401a-88de-a7f68e4b1efb","system_id":"levelo_inurba_marseille","lat":43.305712,"lon":5.365641,"is_reserved":false,"is_disabled":false,"rental_uris":{"android":"levelo://app?vid=8cf66207-ae5e-401a-88de-a7f68e4b1efb","ios":"levelo://app?vid=8cf66207-ae5e-401a-88de-a7f68e4b1efb"},"vehicle_type_id":"4","last_reported":1711804097,"current_range_meters":23200,"station_id":"ce4bgs12rcd13ifvqcag","pricing_plan_id":"cebpf4jnsgd1na2vs0mg"},{"bike_id":"6b48ef7b-463f-44dd-8c77-733c88a4dd55","system_id":"levelo_inurba_marseille","lat":43.305368,"lon":5.367343,"is_reserved":false,"is_disabled":false,"rental_uris":{"android":"levelo://app?vid=6b48ef7b-463f-44dd-8c77-733c88a4dd55","ios":"levelo://app?vid=6b48ef7b-463f-44dd-8c77-733c88a4dd55"},"vehicle_type_id":"4","last_reported":1711804097,"current_range_meters":21600,"station_id":"ce4bgrp2rcd13ifvqc9g","pricing_plan_id":"cebpf4jnsgd1na2vs0mg"},{"bike_id":"6b52857f-0d6b-4e04-ad81-bfc05f516b9e","system_id":"levelo_inurba_marseille","lat":43.30537,"lon":5.367345,"is_reserved":false,"is_disabled":false,"rental_uris":{"android":"levelo://app?vid=6b52857f-0d6b-4e04-ad81-bfc05f516b9e","ios":"levelo://app?vid=6b52857f-0d6b-4e04-ad81-bfc05f516b9e"},"vehicle_type_id":"4","last_reported":1711804097,"current_range_meters":7600,"station_id":"ce4bgrp2rcd13ifvqc9g","pricing_plan_id":"cebpf4jnsgd1na2vs0mg"},{"bike_id":"dd73af6d-4798-40ce-9f0a-f44c7404ad28","system_id":"levelo_inurba_marseille","lat":43.305714,"lon":5.365633,"is_reserved":false,"is_disabled":false,"rental_uris":{"android":"levelo://app?vid=dd73af6d-4798-40ce-9f0a-f44c7404ad28","ios":"levelo://app?vid=dd73af6d-4798-40ce-9f0a-f44c7404ad28"},"vehicle_type_id":"4","last_reported":1711804097,"current_range_meters":4800,"station_id":"ce4bgs12rcd13ifvqcag","pricing_plan_id":"cebpf4jnsgd1na2vs0mg"},{"bike_id":"07b40698-fd5d-414e-9c44-8579b70a1f9e","system_id":"levelo_inurba_marseille","lat":43.305714,"lon":5.365633,"is_reserved":false,"is_disabled":false,"rental_uris":{"android":"levelo://app?vid=07b40698-fd5d-414e-9c44-8579b70a1f9e","ios":"levelo://app?vid=07b40698-fd5d-414e-9c44-8579b70a1f9e"},"vehicle_type_id":"4","last_reported":1711804097,"current_range_meters":17600,"station_id":"ce4bgs12rcd13ifvqcag","pricing_plan_id":"cebpf4jnsgd1na2vs0mg"},{"bike_id":"62eb2ca6-05f2-4417-9fbd-a4cda7323997","system_id":"levelo_inurba_marseille","lat":43.30537,"lon":5.367345,"is_reserved":false,"is_disabled":false,"rental_uris":{"android":"levelo://app?vid=62eb2ca6-05f2-4417-9fbd-a4cda7323997","ios":"levelo://app?vid=62eb2ca6-05f2-4417-9fbd-a4cda7323997"},"vehicle_type_id":"4","last_reported":1711804097,"current_range_meters":24400,"station_id":"ce4bgrp2rcd13ifvqc9g","pricing_plan_id":"cebpf4jnsgd1na2vs0mg"},{"bike_id":"6a6c88e7-8f13-45f6-b7e1-b8735a86cd0d","system_id":"levelo_inurba_marseille","lat":43.283998,"lon":5.375062,"is_reserved":false,"is_disabled":false,"rental_uris":{"android":"levelo://app?vid=6a6c88e7-8f13-45f6-b7e1-b8735a86cd0d","ios":"levelo://app?vid=6a6c88e7-8f13-45f6-b7e1-b8735a86cd0d"},"vehicle_type_id":"4","last_reported":1711804097,"current_range_meters":8400,"station_id":"ce4bh412rcd13ifvqds0","pricing_plan_id":"cebpf4jnsgd1na2vs0mg"},{"bike_id":"3ee743d4-663c-44b4-a63d-47f8eecf9382","system_id":"levelo_inurba_marseille","lat":43.305368,"lon":5.367343,"is_reserved":false,"is_disabled":false,"rental_uris":{"android":"levelo://app?vid=3ee743d4-663c-44b4-a63d-47f8eecf9382","ios":"levelo://app?vid=3ee743d4-663c-44b4-a63d-47f8eecf9382"},"vehicle_type_id":"4","last_reported":1711804097,"current_range_meters":21200,"station_id":"ce4bgrp2rcd13ifvqc9g","pricing_plan_id":"cebpf4jnsgd1na2vs0mg"},{"bike_id":"6c0e618c-61a9-4970-916d-d8461846f16a","system_id":"levelo_inurba_marseille","lat":43.305714,"lon":5.365633,"is_reserved":false,"is_disabled":false,"rental_uris":{"android":"levelo://app?vid=6c0e618c-61a9-4970-916d-d8461846f16a","ios":"levelo://app?vid=6c0e618c-61a9-4970-916d-d8461846f16a"},"vehicle_type_id":"4","last_reported":1711804097,"current_range_meters":27200,"station_id":"ce4bgs12rcd13ifvqcag","pricing_plan_id":"cebpf4jnsgd1na2vs0mg"},{"bike_id":"8e92a42a-cd77-4838-84c2-6579e3d729d1","system_id":"levelo_inurba_marseille","lat":43.305706,"lon":5.365654,"is_reserved":false,"is_disabled":false,"rental_uris":{"android":"levelo://app?vid=8e92a42a-cd77-4838-84c2-6579e3d729d1","ios":"levelo://app?vid=8e92a42a-cd77-4838-84c2-6579e3d729d1"},"vehicle_type_id":"4","last_reported":1711804097,"current_range_meters":20800,"station_id":"ce4bgs12rcd13ifvqcag","pricing_plan_id":"cebpf4jnsgd1na2vs0mg"},{"bike_id":"0cd0b489-6d87-47a2-a4fc-a0a7c579d407","system_id":"levelo_inurba_marseille","lat":43.305706,"lon":5.365654,"is_reserved":false,"is_disabled":false,"rental_uris":{"android":"levelo://app?vid=0cd0b489-6d87-47a2-a4fc-a0a7c579d407","ios":"levelo://app?vid=0cd0b489-6d87-47a2-a4fc-a0a7c579d407"},"vehicle_type_id":"4","last_reported":1711804097,"current_range_meters":1200,"station_id":"ce4bgs12rcd13ifvqcag","pricing_plan_id":"cebpf4jnsgd1na2vs0mg"},{"bike_id":"93cf9784-ed2a-4620-9c08-b3a775a43968","system_id":"levelo_inurba_marseille","lat":43.305368,"lon":5.367343,"is_reserved":false,"is_disabled":false,"rental_uris":{"android":"levelo://app?vid=93cf9784-ed2a-4620-9c08-b3a775a43968","ios":"levelo://app?vid=93cf9784-ed2a-4620-9c08-b3a775a43968"},"vehicle_type_id":"4","last_reported":1711804097,"current_range_meters":21600,"station_id":"ce4bgrp2rcd13ifvqc9g","pricing_plan_id":"cebpf4jnsgd1na2vs0mg"},{"bike_id":"5c2c346b-d726-4e60-8fe2-ca54b5b75da6","system_id":"levelo_inurba_marseille","lat":43.305368,"lon":5.367343,"is_reserved":false,"is_disabled":false,"rental_uris":{"android":"levelo://app?vid=5c2c346b-d726-4e60-8fe2-ca54b5b75da6","ios":"levelo://app?vid=5c2c346b-d726-4e60-8fe2-ca54b5b75da6"},"vehicle_type_id":"4","last_reported":1711804097,"current_range_meters":11600,"station_id":"ce4bgrp2rcd13ifvqc9g","pricing_plan_id":"cebpf4jnsgd1na2vs0mg"},{"bike_id":"3b928b7d-164f-4edf-865f-7d6d7bd31946","system_id":"levelo_inurba_marseille","lat":43.30536,"lon":5.36527,"is_reserved":false,"is_disabled":false,"rental_uris":{"android":"levelo://app?vid=3b928b7d-164f-4edf-865f-7d6d7bd31946","ios":"levelo://app?vid=3b928b7d-164f-4edf-865f-7d6d7bd31946"},"vehicle_type_id":"4","last_reported":1711804097,"current_range_meters":15600,"station_id":"ce4bgs12rcd13ifvqcag","pricing_plan_id":"cebpf4jnsgd1na2vs0mg"},{"bike_id":"1f00de1c-9ef3-40de-b419-c5509166455a","system_id":"levelo_inurba_marseille","lat":43.305706,"lon":5.365654,"is_reserved":false,"is_disabled":false,"rental_uris":{"android":"levelo://app?vid=1f00de1c-9ef3-40de-b419-c5509166455a","ios":"levelo://app?vid=1f00de1c-9ef3-40de-b419-c5509166455a"},"vehicle_type_id":"4","last_reported":1711804097,"current_range_meters":24400,"station_id":"ce4bgs12rcd13ifvqcag","pricing_plan_id":"cebpf4jnsgd1na2vs0mg"},{"bike_id":"9ec74220-8747-4368-af33-c8781c36f048","system_id":"levelo_inurba_marseille","lat":43.30526,"lon":5.36702,"is_reserved":false,"is_disabled":false,"rental_uris":{"android":"levelo://app?vid=9ec74220-8747-4368-af33-c8781c36f048","ios":"levelo://app?vid=9ec74220-8747-4368-af33-c8781c36f048"},"vehicle_type_id":"4","last_reported":1711804097,"current_range_meters":13600,"station_id":"ce4bgrp2rcd13ifvqc9g","pricing_plan_id":"cebpf4jnsgd1na2vs0mg"},{"bike_id":"cde09b3f-048e-4046-8641-35ff74be873f","system_id":"levelo_inurba_marseille","lat":43.305706,"lon":5.365654,"is_reserved":false,"is_disabled":false,"rental_uris":{"android":"levelo://app?vid=cde09b3f-048e-4046-8641-35ff74be873f","ios":"levelo://app?vid=cde09b3f-048e-4046-8641-35ff74be873f"},"vehicle_type_id":"4","last_reported":1711804097,"current_range_meters":22400,"station_id":"ce4bgs12rcd13ifvqcag","pricing_plan_id":"cebpf4jnsgd1na2vs0mg"},{"bike_id":"e467b7fc-3c17-4282-8204-9e21800e2fc8","system_id":"levelo_inurba_marseille","lat":43.305706,"lon":5.365654,"is_reserved":false,"is_disabled":false,"rental_uris":{"android":"levelo://app?vid=e467b7fc-3c17-4282-8204-9e21800e2fc8","ios":"levelo://app?vid=e467b7fc-3c17-4282-8204-9e21800e2fc8"},"vehicle_type_id":"4","last_reported":1711804097,"current_range_meters":28400,"station_id":"ce4bgs12rcd13ifvqcag","pricing_plan_id":"cebpf4jnsgd1na2vs0mg"},{"bike_id":"415089d5-f0c6-4544-95b9-5a1ec01be9d7","system_id":"levelo_inurba_marseille","lat":43.305706,"lon":5.365654,"is_reserved":false,"is_disabled":false,"rental_uris":{"android":"levelo://app?vid=415089d5-f0c6-4544-95b9-5a1ec01be9d7","ios":"levelo://app?vid=415089d5-f0c6-4544-95b9-5a1ec01be9d7"},"vehicle_type_id":"4","last_reported":1711804097,"current_range_meters":18800,"station_id":"ce4bgs12rcd13ifvqcag","pricing_plan_id":"cebpf4jnsgd1na2vs0mg"},{"bike_id":"6781a2ce-a59e-4738-aa22-22b96e8afbb7","system_id":"levelo_inurba_marseille","lat":43.305706,"lon":5.365654,"is_reserved":false,"is_disabled":false,"rental_uris":{"android":"levelo://app?vid=6781a2ce-a59e-4738-aa22-22b96e8afbb7","ios":"levelo://app?vid=6781a2ce-a59e-4738-aa22-22b96e8afbb7"},"vehicle_type_id":"4","last_reported":1711804097,"current_range_meters":31200,"station_id":"ce4bgs12rcd13ifvqcag","pricing_plan_id":"cebpf4jnsgd1na2vs0mg"},{"bike_id":"9b05ca43-bc51-492e-b18b-1677480c0f10","system_id":"levelo_inurba_marseille","lat":43.305989,"lon":5.37225,"is_reserved":false,"is_disabled":false,"rental_uris":{"android":"levelo://app?vid=9b05ca43-bc51-492e-b18b-1677480c0f10","ios":"levelo://app?vid=9b05ca43-bc51-492e-b18b-1677480c0f10"},"vehicle_type_id":"4","last_reported":1711804097,"current_range_meters":20400,"station_id":"ce4bgqh2rcd13ifvqc4g","pricing_plan_id":"cebpf4jnsgd1na2vs0mg"},{"bike_id":"7be2e6c0-fa1b-4e04-be53-cd388f83a7ce","system_id":"levelo_inurba_marseille","lat":43.305989,"lon":5.37225,"is_reserved":false,"is_disabled":false,"rental_uris":{"android":"levelo://app?vid=7be2e6c0-fa1b-4e04-be53-cd388f83a7ce","ios":"levelo://app?vid=7be2e6c0-fa1b-4e04-be53-cd388f83a7ce"},"vehicle_type_id":"4","last_reported":1711804097,"current_range_meters":19200,"station_id":"ce4bgqh2rcd13ifvqc4g","pricing_plan_id":"cebpf4jnsgd1na2vs0mg"},{"bike_id":"464a80b7-fbea-42b5-a6cf-c28e9815b19d","system_id":"levelo_inurba_marseille","lat":43.305989,"lon":5.37225,"is_reserved":false,"is_disabled":false,"rental_uris":{"android":"levelo://app?vid=464a80b7-fbea-42b5-a6cf-c28e9815b19d","ios":"levelo://app?vid=464a80b7-fbea-42b5-a6cf-c28e9815b19d"},"vehicle_type_id":"4","last_reported":1711804097,"current_range_meters":18400,"station_id":"ce4bgqh2rcd13ifvqc4g","pricing_plan_id":"cebpf4jnsgd1na2vs0mg"},{"bike_id":"63f94a9f-7072-4490-a918-f03492e52543","system_id":"levelo_inurba_marseille","lat":43.305989,"lon":5.37225,"is_reserved":false,"is_disabled":false,"rental_uris":{"android":"levelo://app?vid=63f94a9f-7072-4490-a918-f03492e52543","ios":"levelo://app?vid=63f94a9f-7072-4490-a918-f03492e52543"},"vehicle_type_id":"4","last_reported":1711804097,"current_range_meters":25600,"station_id":"ce4bgqh2rcd13ifvqc4g","pricing_plan_id":"cebpf4jnsgd1na2vs0mg"},{"bike_id":"73e9e878-212e-4472-8a0b-6b6c2ef65605","system_id":"levelo_inurba_marseille","lat":43.311224,"lon":5.377719,"is_reserved":false,"is_disabled":false,"rental_uris":{"android":"levelo://app?vid=73e9e878-212e-4472-8a0b-6b6c2ef65605","ios":"levelo://app?vid=73e9e878-212e-4472-8a0b-6b6c2ef65605"},"vehicle_type_id":"4","last_reported":1711804097,"current_range_meters":22400,"station_id":"ce4bgt92rcd13ifvqcg0","pricing_plan_id":"cebpf4jnsgd1na2vs0mg"},{"bike_id":"0477362a-c36c-41e6-ace1-7d7cf2e9fdbe","system_id":"levelo_inurba_marseille","lat":43.307945,"lon":5.376487,"is_reserved":false,"is_disabled":false,"rental_uris":{"android":"levelo://app?vid=0477362a-c36c-41e6-ace1-7d7cf2e9fdbe","ios":"levelo://app?vid=0477362a-c36c-41e6-ace1-7d7cf2e9fdbe"},"vehicle_type_id":"4","last_reported":1711804097,"current_range_meters":24400,"station_id":"ce4bgv92rcd13ifvqcq0","pricing_plan_id":"cebpf4jnsgd1na2vs0mg"},{"bike_id":"36098bcc-b7a3-41b8-ac01-4006a9a0a51b","system_id":"levelo_inurba_marseille","lat":43.307945,"lon":5.376487,"is_reserved":false,"is_disabled":false,"rental_uris":{"android":"levelo://app?vid=36098bcc-b7a3-41b8-ac01-4006a9a0a51b","ios":"levelo://app?vid=36098bcc-b7a3-41b8-ac01-4006a9a0a51b"},"vehicle_type_id":"4","last_reported":1711804097,"current_range_meters":19200,"station_id":"ce4bgv92rcd13ifvqcq0","pricing_plan_id":"cebpf4jnsgd1na2vs0mg"},{"bike_id":"cd8ca811-691c-4bbb-96c1-5f5ac8d06c46","system_id":"levelo_inurba_marseille","lat":43.285856,"lon":5.350771,"is_reserved":false,"is_disabled":false,"rental_uris":{"android":"levelo://app?vid=cd8ca811-691c-4bbb-96c1-5f5ac8d06c46","ios":"levelo://app?vid=cd8ca811-691c-4bbb-96c1-5f5ac8d06c46"},"vehicle_type_id":"4","last_reported":1711804097,"current_range_meters":28800,"station_id":"ce4bhch2rcd13ifvqeug","pricing_plan_id":"cebpf4jnsgd1na2vs0mg"},{"bike_id":"bbfed310-f5ca-41c8-bf3a-f83cd6959697","system_id":"levelo_inurba_marseille","lat":43.313254,"lon":5.37881,"is_reserved":false,"is_disabled":false,"rental_uris":{"android":"levelo://app?vid=bbfed310-f5ca-41c8-bf3a-f83cd6959697","ios":"levelo://app?vid=bbfed310-f5ca-41c8-bf3a-f83cd6959697"},"vehicle_type_id":"4","last_reported":1711804097,"current_range_meters":28000,"station_id":"","pricing_plan_id":"cebpf4jnsgd1na2vs0mg"},{"bike_id":"ee24222a-07e6-4812-a041-8f453dbefbae","system_id":"levelo_inurba_marseille","lat":43.317075,"lon":5.377367,"is_reserved":false,"is_disabled":false,"rental_uris":{"android":"levelo://app?vid=ee24222a-07e6-4812-a041-8f453dbefbae","ios":"levelo://app?vid=ee24222a-07e6-4812-a041-8f453dbefbae"},"vehicle_type_id":"4","last_reported":1711804097,"current_range_meters":27200,"station_id":"ce4bgth2rcd13ifvqch0","pricing_plan_id":"cebpf4jnsgd1na2vs0mg"},{"bike_id":"41b5b72f-2d21-4a20-a1e3-52455d840b0b","system_id":"levelo_inurba_marseille","lat":43.317075,"lon":5.377367,"is_reserved":false,"is_disabled":false,"rental_uris":{"android":"levelo://app?vid=41b5b72f-2d21-4a20-a1e3-52455d840b0b","ios":"levelo://app?vid=41b5b72f-2d21-4a20-a1e3-52455d840b0b"},"vehicle_type_id":"4","last_reported":1711804097,"current_range_meters":21600,"station_id":"ce4bgth2rcd13ifvqch0","pricing_plan_id":"cebpf4jnsgd1na2vs0mg"},{"bike_id":"b2f8a7eb-72c9-4d5e-9b6d-6779b5ef32ac","system_id":"levelo_inurba_marseille","lat":43.30452,"lon":5.37343,"is_reserved":false,"is_disabled":false,"rental_uris":{"android":"levelo://app?vid=b2f8a7eb-72c9-4d5e-9b6d-6779b5ef32ac","ios":"levelo://app?vid=b2f8a7eb-72c9-4d5e-9b6d-6779b5ef32ac"},"vehicle_type_id":"4","last_reported":1711804097,"current_range_meters":0,"station_id":"ce4bhoh2rcd13ifvqh6g","pricing_plan_id":"cebpf4jnsgd1na2vs0mg"},{"bike_id":"463c2c74-1116-4372-9eb6-9075f6e754e8","system_id":"levelo_inurba_marseille","lat":43.303046,"lon":5.368981,"is_reserved":false,"is_disabled":false,"rental_uris":{"android":"levelo://app?vid=463c2c74-1116-4372-9eb6-9075f6e754e8","ios":"levelo://app?vid=463c2c74-1116-4372-9eb6-9075f6e754e8"},"vehicle_type_id":"4","last_reported":1711804097,"current_range_meters":17600,"station_id":"ce4bgqh2rcd13ifvqc5g","pricing_plan_id":"cebpf4jnsgd1na2vs0mg"},{"bike_id":"557cd642-b8d7-4934-b71e-92272ae9d50d","system_id":"levelo_inurba_marseille","lat":43.30312,"lon":5.368823,"is_reserved":false,"is_disabled":false,"rental_uris":{"android":"levelo://app?vid=557cd642-b8d7-4934-b71e-92272ae9d50d","ios":"levelo://app?vid=557cd642-b8d7-4934-b71e-92272ae9d50d"},"vehicle_type_id":"4","last_reported":1711804097,"current_range_meters":27600,"station_id":"ce4bgqh2rcd13ifvqc5g","pricing_plan_id":"cebpf4jnsgd1na2vs0mg"},{"bike_id":"25e78763-48ee-45b6-9840-e6b52f100a8e","system_id":"levelo_inurba_marseille","lat":43.30302,"lon":5.36855,"is_reserved":false,"is_disabled":false,"rental_uris":{"android":"levelo://app?vid=25e78763-48ee-45b6-9840-e6b52f100a8e","ios":"levelo://app?vid=25e78763-48ee-45b6-9840-e6b52f100a8e"},"vehicle_type_id":"4","last_reported":1711804097,"current_range_meters":800,"station_id":"ce4bgqh2rcd13ifvqc5g","pricing_plan_id":"cebpf4jnsgd1na2vs0mg"},{"bike_id":"27f17514-212e-431a-b500-3228420e509d","system_id":"levelo_inurba_marseille","lat":43.315289,"lon":5.380349,"is_reserved":false,"is_disabled":false,"rental_uris":{"android":"levelo://app?vid=27f17514-212e-431a-b500-3228420e509d","ios":"levelo://app?vid=27f17514-212e-431a-b500-3228420e509d"},"vehicle_type_id":"4","last_reported":1711804097,"current_range_meters":31200,"station_id":"ce4bhsp2rcd13ifvqi50","pricing_plan_id":"cebpf4jnsgd1na2vs0mg"},{"bike_id":"7b4db143-407b-420f-baa7-6494a5536f74","system_id":"levelo_inurba_marseille","lat":43.302957,"lon":5.372327,"is_reserved":false,"is_disabled":false,"rental_uris":{"android":"levelo://app?vid=7b4db143-407b-420f-baa7-6494a5536f74","ios":"levelo://app?vid=7b4db143-407b-420f-baa7-6494a5536f74"},"vehicle_type_id":"4","last_reported":1711804097,"current_range_meters":23200,"station_id":"","pricing_plan_id":"cebpf4jnsgd1na2vs0mg"},{"bike_id":"f06600f4-a3bf-466e-9fa4-6039871cefe1","system_id":"levelo_inurba_marseille","lat":43.285856,"lon":5.350771,"is_reserved":false,"is_disabled":false,"rental_uris":{"android":"levelo://app?vid=f06600f4-a3bf-466e-9fa4-6039871cefe1","ios":"levelo://app?vid=f06600f4-a3bf-466e-9fa4-6039871cefe1"},"vehicle_type_id":"4","last_reported":1711804097,"current_range_meters":26000,"station_id":"ce4bhch2rcd13ifvqeug","pricing_plan_id":"cebpf4jnsgd1na2vs0mg"},{"bike_id":"c77230f2-54a1-43bd-96c5-4a20016be226","system_id":"levelo_inurba_marseille","lat":43.301939,"lon":5.366286,"is_reserved":false,"is_disabled":false,"rental_uris":{"android":"levelo://app?vid=c77230f2-54a1-43bd-96c5-4a20016be226","ios":"levelo://app?vid=c77230f2-54a1-43bd-96c5-4a20016be226"},"vehicle_type_id":"4","last_reported":1711804097,"current_range_meters":20000,"station_id":"ce4bgrh2rcd13ifvqc8g","pricing_plan_id":"cebpf4jnsgd1na2vs0mg"},{"bike_id":"4fedd1d8-76f4-4705-a295-aba2ba8c2bc4","system_id":"levelo_inurba_marseille","lat":43.30186,"lon":5.36616,"is_reserved":false,"is_disabled":false,"rental_uris":{"android":"levelo://app?vid=4fedd1d8-76f4-4705-a295-aba2ba8c2bc4","ios":"levelo://app?vid=4fedd1d8-76f4-4705-a295-aba2ba8c2bc4"},"vehicle_type_id":"4","last_reported":1711804097,"current_range_meters":2000,"station_id":"ce4bgrh2rcd13ifvqc8g","pricing_plan_id":"cebpf4jnsgd1na2vs0mg"},{"bike_id":"906c5677-89e5-4fee-b612-6efcc1978cba","system_id":"levelo_inurba_marseille","lat":43.30182,"lon":5.3662,"is_reserved":false,"is_disabled":false,"rental_uris":{"android":"levelo://app?vid=906c5677-89e5-4fee-b612-6efcc1978cba","ios":"levelo://app?vid=906c5677-89e5-4fee-b612-6efcc1978cba"},"vehicle_type_id":"4","last_reported":1711804097,"current_range_meters":0,"station_id":"ce4bgrh2rcd13ifvqc8g","pricing_plan_id":"cebpf4jnsgd1na2vs0mg"},{"bike_id":"35368efc-a3a1-42dd-898f-27a0bc6e8d3d","system_id":"levelo_inurba_marseille","lat":43.308012,"lon":5.381511,"is_reserved":false,"is_disabled":false,"rental_uris":{"android":"levelo://app?vid=35368efc-a3a1-42dd-898f-27a0bc6e8d3d","ios":"levelo://app?vid=35368efc-a3a1-42dd-898f-27a0bc6e8d3d"},"vehicle_type_id":"4","last_reported":1711804097,"current_range_meters":6000,"station_id":"ce4bgt12rcd13ifvqce0","pricing_plan_id":"cebpf4jnsgd1na2vs0mg"},{"bike_id":"ddee1f0b-48c7-40d6-a215-6f8024be1f4a","system_id":"levelo_inurba_marseille","lat":43.298433,"lon":5.362774,"is_reserved":false,"is_disabled":false,"rental_uris":{"android":"levelo://app?vid=ddee1f0b-48c7-40d6-a215-6f8024be1f4a","ios":"levelo://app?vid=ddee1f0b-48c7-40d6-a215-6f8024be1f4a"},"vehicle_type_id":"4","last_reported":1711804097,"current_range_meters":10400,"station_id":"ce4bgpp2rcd13ifvqc3g","pricing_plan_id":"cebpf4jnsgd1na2vs0mg"},{"bike_id":"9d06c776-4b2d-4c2f-a500-020aef6cf302","system_id":"levelo_inurba_marseille","lat":43.304606,"lon":5.379026,"is_reserved":false,"is_disabled":false,"rental_uris":{"android":"levelo://app?vid=9d06c776-4b2d-4c2f-a500-020aef6cf302","ios":"levelo://app?vid=9d06c776-4b2d-4c2f-a500-020aef6cf302"},"vehicle_type_id":"4","last_reported":1711804097,"current_range_meters":29200,"station_id":"ce4bgup2rcd13ifvqcn0","pricing_plan_id":"cebpf4jnsgd1na2vs0mg"},{"bike_id":"0242e022-dc9b-4053-a13a-cf6398c41475","system_id":"levelo_inurba_marseille","lat":43.30471,"lon":5.379033,"is_reserved":false,"is_disabled":false,"rental_uris":{"android":"levelo://app?vid=0242e022-dc9b-4053-a13a-cf6398c41475","ios":"levelo://app?vid=0242e022-dc9b-4053-a13a-cf6398c41475"},"vehicle_type_id":"4","last_reported":1711804097,"current_range_meters":21600,"station_id":"ce4bgup2rcd13ifvqcn0","pricing_plan_id":"cebpf4jnsgd1na2vs0mg"},{"bike_id":"cab416e0-f39c-4b04-8eea-d473a2d7b0c1","system_id":"levelo_inurba_marseille","lat":43.304606,"lon":5.379026,"is_reserved":false,"is_disabled":false,"rental_uris":{"android":"levelo://app?vid=cab416e0-f39c-4b04-8eea-d473a2d7b0c1","ios":"levelo://app?vid=cab416e0-f39c-4b04-8eea-d473a2d7b0c1"},"vehicle_type_id":"4","last_reported":1711804097,"current_range_meters":18400,"station_id":"ce4bgup2rcd13ifvqcn0","pricing_plan_id":"cebpf4jnsgd1na2vs0mg"},{"bike_id":"5364248b-1229-470b-b163-a5fc95865eb0","system_id":"levelo_inurba_marseille","lat":43.304606,"lon":5.379026,"is_reserved":false,"is_disabled":false,"rental_uris":{"android":"levelo://app?vid=5364248b-1229-470b-b163-a5fc95865eb0","ios":"levelo://app?vid=5364248b-1229-470b-b163-a5fc95865eb0"},"vehicle_type_id":"4","last_reported":1711804097,"current_range_meters":16400,"station_id":"ce4bgup2rcd13ifvqcn0","pricing_plan_id":"cebpf4jnsgd1na2vs0mg"},{"bike_id":"4c939e83-a0e9-45cd-968b-baa408a73bac","system_id":"levelo_inurba_marseille","lat":43.304606,"lon":5.379026,"is_reserved":false,"is_disabled":false,"rental_uris":{"android":"levelo://app?vid=4c939e83-a0e9-45cd-968b-baa408a73bac","ios":"levelo://app?vid=4c939e83-a0e9-45cd-968b-baa408a73bac"},"vehicle_type_id":"4","last_reported":1711804097,"current_range_meters":0,"station_id":"ce4bgup2rcd13ifvqcn0","pricing_plan_id":"cebpf4jnsgd1na2vs0mg"},{"bike_id":"d21704ef-37f7-43b9-bda8-01e9664077ad","system_id":"levelo_inurba_marseille","lat":43.30467,"lon":5.379,"is_reserved":false,"is_disabled":false,"rental_uris":{"android":"levelo://app?vid=d21704ef-37f7-43b9-bda8-01e9664077ad","ios":"levelo://app?vid=d21704ef-37f7-43b9-bda8-01e9664077ad"},"vehicle_type_id":"4","last_reported":1711804097,"current_range_meters":24000,"station_id":"ce4bgup2rcd13ifvqcn0","pricing_plan_id":"cebpf4jnsgd1na2vs0mg"},{"bike_id":"72a6bb51-fe23-4a1f-8d5b-364e5147216c","system_id":"levelo_inurba_marseille","lat":43.304606,"lon":5.379026,"is_reserved":false,"is_disabled":false,"rental_uris":{"android":"levelo://app?vid=72a6bb51-fe23-4a1f-8d5b-364e5147216c","ios":"levelo://app?vid=72a6bb51-fe23-4a1f-8d5b-364e5147216c"},"vehicle_type_id":"4","last_reported":1711804097,"current_range_meters":31200,"station_id":"ce4bgup2rcd13ifvqcn0","pricing_plan_id":"cebpf4jnsgd1na2vs0mg"},{"bike_id":"79e8212a-4e8a-4609-a711-24469872564e","system_id":"levelo_inurba_marseille","lat":43.304606,"lon":5.379026,"is_reserved":false,"is_disabled":false,"rental_uris":{"android":"levelo://app?vid=79e8212a-4e8a-4609-a711-24469872564e","ios":"levelo://app?vid=79e8212a-4e8a-4609-a711-24469872564e"},"vehicle_type_id":"4","last_reported":1711804097,"current_range_meters":31200,"station_id":"ce4bgup2rcd13ifvqcn0","pricing_plan_id":"cebpf4jnsgd1na2vs0mg"},{"bike_id":"3956a73a-8081-4bee-9d3e-2e08ce977d4b","system_id":"levelo_inurba_marseille","lat":43.304606,"lon":5.379026,"is_reserved":false,"is_disabled":false,"rental_uris":{"android":"levelo://app?vid=3956a73a-8081-4bee-9d3e-2e08ce977d4b","ios":"levelo://app?vid=3956a73a-8081-4bee-9d3e-2e08ce977d4b"},"vehicle_type_id":"4","last_reported":1711804097,"current_range_meters":9600,"station_id":"ce4bgup2rcd13ifvqcn0","pricing_plan_id":"cebpf4jnsgd1na2vs0mg"},{"bike_id":"15e27233-cc39-4b48-861e-12123fd5f5e6","system_id":"levelo_inurba_marseille","lat":43.304606,"lon":5.379026,"is_reserved":false,"is_disabled":false,"rental_uris":{"android":"levelo://app?vid=15e27233-cc39-4b48-861e-12123fd5f5e6","ios":"levelo://app?vid=15e27233-cc39-4b48-861e-12123fd5f5e6"},"vehicle_type_id":"4","last_reported":1711804097,"current_range_meters":28400,"station_id":"ce4bgup2rcd13ifvqcn0","pricing_plan_id":"cebpf4jnsgd1na2vs0mg"},{"bike_id":"8e29f93e-63b8-44b4-9d89-4d982ae85e9a","system_id":"levelo_inurba_marseille","lat":43.304606,"lon":5.379026,"is_reserved":false,"is_disabled":false,"rental_uris":{"android":"levelo://app?vid=8e29f93e-63b8-44b4-9d89-4d982ae85e9a","ios":"levelo://app?vid=8e29f93e-63b8-44b4-9d89-4d982ae85e9a"},"vehicle_type_id":"4","last_reported":1711804097,"current_range_meters":8400,"station_id":"ce4bgup2rcd13ifvqcn0","pricing_plan_id":"cebpf4jnsgd1na2vs0mg"},{"bike_id":"fb811b98-7cc8-4bd3-a63a-0f4a3fb41506","system_id":"levelo_inurba_marseille","lat":43.304606,"lon":5.379026,"is_reserved":false,"is_disabled":false,"rental_uris":{"android":"levelo://app?vid=fb811b98-7cc8-4bd3-a63a-0f4a3fb41506","ios":"levelo://app?vid=fb811b98-7cc8-4bd3-a63a-0f4a3fb41506"},"vehicle_type_id":"4","last_reported":1711804097,"current_range_meters":0,"station_id":"ce4bgup2rcd13ifvqcn0","pricing_plan_id":"cebpf4jnsgd1na2vs0mg"},{"bike_id":"99c88b8c-aaef-453f-823c-37bfec4fd684","system_id":"levelo_inurba_marseille","lat":43.291994,"lon":5.392907,"is_reserved":false,"is_disabled":false,"rental_uris":{"android":"levelo://app?vid=99c88b8c-aaef-453f-823c-37bfec4fd684","ios":"levelo://app?vid=99c88b8c-aaef-453f-823c-37bfec4fd684"},"vehicle_type_id":"4","last_reported":1711804097,"current_range_meters":1600,"station_id":"ce4bh192rcd13ifvqdd0","pricing_plan_id":"cebpf4jnsgd1na2vs0mg"},{"bike_id":"aa77a654-1995-458b-b0c1-b212d2ba939a","system_id":"levelo_inurba_marseille","lat":43.30467,"lon":5.37907,"is_reserved":false,"is_disabled":false,"rental_uris":{"android":"levelo://app?vid=aa77a654-1995-458b-b0c1-b212d2ba939a","ios":"levelo://app?vid=aa77a654-1995-458b-b0c1-b212d2ba939a"},"vehicle_type_id":"4","last_reported":1711804097,"current_range_meters":400,"station_id":"ce4bgup2rcd13ifvqcn0","pricing_plan_id":"cebpf4jnsgd1na2vs0mg"},{"bike_id":"fc629695-0782-4501-a242-2e8a558ee49b","system_id":"levelo_inurba_marseille","lat":43.304606,"lon":5.379026,"is_reserved":false,"is_disabled":false,"rental_uris":{"android":"levelo://app?vid=fc629695-0782-4501-a242-2e8a558ee49b","ios":"levelo://app?vid=fc629695-0782-4501-a242-2e8a558ee49b"},"vehicle_type_id":"4","last_reported":1711804097,"current_range_meters":22000,"station_id":"ce4bgup2rcd13ifvqcn0","pricing_plan_id":"cebpf4jnsgd1na2vs0mg"},{"bike_id":"8061bd21-02b5-4815-89c8-3b831945482c","system_id":"levelo_inurba_marseille","lat":43.304606,"lon":5.379026,"is_reserved":false,"is_disabled":false,"rental_uris":{"android":"levelo://app?vid=8061bd21-02b5-4815-89c8-3b831945482c","ios":"levelo://app?vid=8061bd21-02b5-4815-89c8-3b831945482c"},"vehicle_type_id":"4","last_reported":1711804097,"current_range_meters":31200,"station_id":"ce4bgup2rcd13ifvqcn0","pricing_plan_id":"cebpf4jnsgd1na2vs0mg"},{"bike_id":"30a87b6b-afed-40a5-8c64-c7a39b5ccce6","system_id":"levelo_inurba_marseille","lat":43.304606,"lon":5.379026,"is_reserved":false,"is_disabled":false,"rental_uris":{"android":"levelo://app?vid=30a87b6b-afed-40a5-8c64-c7a39b5ccce6","ios":"levelo://app?vid=30a87b6b-afed-40a5-8c64-c7a39b5ccce6"},"vehicle_type_id":"4","last_reported":1711804097,"current_range_meters":27200,"station_id":"ce4bgup2rcd13ifvqcn0","pricing_plan_id":"cebpf4jnsgd1na2vs0mg"},{"bike_id":"f1991ce5-0d56-4b89-a6dc-e711f22f73bc","system_id":"levelo_inurba_marseille","lat":43.304606,"lon":5.379026,"is_reserved":false,"is_disabled":false,"rental_uris":{"android":"levelo://app?vid=f1991ce5-0d56-4b89-a6dc-e711f22f73bc","ios":"levelo://app?vid=f1991ce5-0d56-4b89-a6dc-e711f22f73bc"},"vehicle_type_id":"4","last_reported":1711804097,"current_range_meters":8800,"station_id":"ce4bgup2rcd13ifvqcn0","pricing_plan_id":"cebpf4jnsgd1na2vs0mg"},{"bike_id":"a13f6bf9-78ed-47f8-b808-287b9ac81837","system_id":"levelo_inurba_marseille","lat":43.304606,"lon":5.379026,"is_reserved":false,"is_disabled":false,"rental_uris":{"android":"levelo://app?vid=a13f6bf9-78ed-47f8-b808-287b9ac81837","ios":"levelo://app?vid=a13f6bf9-78ed-47f8-b808-287b9ac81837"},"vehicle_type_id":"4","last_reported":1711804097,"current_range_meters":14000,"station_id":"ce4bgup2rcd13ifvqcn0","pricing_plan_id":"cebpf4jnsgd1na2vs0mg"},{"bike_id":"a470c695-11b2-4d28-8c07-2b3d0903d56b","system_id":"levelo_inurba_marseille","lat":43.305989,"lon":5.37225,"is_reserved":false,"is_disabled":false,"rental_uris":{"android":"levelo://app?vid=a470c695-11b2-4d28-8c07-2b3d0903d56b","ios":"levelo://app?vid=a470c695-11b2-4d28-8c07-2b3d0903d56b"},"vehicle_type_id":"4","last_reported":1711804097,"current_range_meters":4800,"station_id":"ce4bgqh2rcd13ifvqc4g","pricing_plan_id":"cebpf4jnsgd1na2vs0mg"},{"bike_id":"ac29d862-82b9-4ae5-a471-3b99e2d57c87","system_id":"levelo_inurba_marseille","lat":43.304606,"lon":5.379026,"is_reserved":false,"is_disabled":false,"rental_uris":{"android":"levelo://app?vid=ac29d862-82b9-4ae5-a471-3b99e2d57c87","ios":"levelo://app?vid=ac29d862-82b9-4ae5-a471-3b99e2d57c87"},"vehicle_type_id":"4","last_reported":1711804097,"current_range_meters":1200,"station_id":"ce4bgup2rcd13ifvqcn0","pricing_plan_id":"cebpf4jnsgd1na2vs0mg"},{"bike_id":"59936621-7a7b-4909-8b29-61d07f5e1615","system_id":"levelo_inurba_marseille","lat":43.304606,"lon":5.379026,"is_reserved":false,"is_disabled":false,"rental_uris":{"android":"levelo://app?vid=59936621-7a7b-4909-8b29-61d07f5e1615","ios":"levelo://app?vid=59936621-7a7b-4909-8b29-61d07f5e1615"},"vehicle_type_id":"4","last_reported":1711804097,"current_range_meters":13600,"station_id":"ce4bgup2rcd13ifvqcn0","pricing_plan_id":"cebpf4jnsgd1na2vs0mg"},{"bike_id":"01e62389-bc08-419f-9d8e-8a237cbe9b4f","system_id":"levelo_inurba_marseille","lat":43.304606,"lon":5.379026,"is_reserved":false,"is_disabled":false,"rental_uris":{"android":"levelo://app?vid=01e62389-bc08-419f-9d8e-8a237cbe9b4f","ios":"levelo://app?vid=01e62389-bc08-419f-9d8e-8a237cbe9b4f"},"vehicle_type_id":"4","last_reported":1711804097,"current_range_meters":25600,"station_id":"ce4bgup2rcd13ifvqcn0","pricing_plan_id":"cebpf4jnsgd1na2vs0mg"},{"bike_id":"d5a69b20-2970-48c0-8600-269f136df1f4","system_id":"levelo_inurba_marseille","lat":43.304606,"lon":5.379026,"is_reserved":false,"is_disabled":false,"rental_uris":{"android":"levelo://app?vid=d5a69b20-2970-48c0-8600-269f136df1f4","ios":"levelo://app?vid=d5a69b20-2970-48c0-8600-269f136df1f4"},"vehicle_type_id":"4","last_reported":1711804097,"current_range_meters":28400,"station_id":"ce4bgup2rcd13ifvqcn0","pricing_plan_id":"cebpf4jnsgd1na2vs0mg"},{"bike_id":"7c337f45-2ef4-4535-85d1-fa56daab3c0f","system_id":"levelo_inurba_marseille","lat":43.30464,"lon":5.37909,"is_reserved":false,"is_disabled":false,"rental_uris":{"android":"levelo://app?vid=7c337f45-2ef4-4535-85d1-fa56daab3c0f","ios":"levelo://app?vid=7c337f45-2ef4-4535-85d1-fa56daab3c0f"},"vehicle_type_id":"4","last_reported":1711804097,"current_range_meters":20800,"station_id":"ce4bgup2rcd13ifvqcn0","pricing_plan_id":"cebpf4jnsgd1na2vs0mg"},{"bike_id":"e63939d2-b355-4917-8b11-a0bb53bddfab","system_id":"levelo_inurba_marseille","lat":43.304606,"lon":5.379026,"is_reserved":false,"is_disabled":false,"rental_uris":{"android":"levelo://app?vid=e63939d2-b355-4917-8b11-a0bb53bddfab","ios":"levelo://app?vid=e63939d2-b355-4917-8b11-a0bb53bddfab"},"vehicle_type_id":"4","last_reported":1711804097,"current_range_meters":24000,"station_id":"ce4bgup2rcd13ifvqcn0","pricing_plan_id":"cebpf4jnsgd1na2vs0mg"},{"bike_id":"81846aa7-ff08-4754-8a36-5d3c691b1fdf","system_id":"levelo_inurba_marseille","lat":43.304606,"lon":5.379026,"is_reserved":false,"is_disabled":false,"rental_uris":{"android":"levelo://app?vid=81846aa7-ff08-4754-8a36-5d3c691b1fdf","ios":"levelo://app?vid=81846aa7-ff08-4754-8a36-5d3c691b1fdf"},"vehicle_type_id":"4","last_reported":1711804097,"current_range_meters":24800,"station_id":"ce4bgup2rcd13ifvqcn0","pricing_plan_id":"cebpf4jnsgd1na2vs0mg"},{"bike_id":"a0e5fd4d-e777-4621-b786-78a71bf5ff23","system_id":"levelo_inurba_marseille","lat":43.304606,"lon":5.379026,"is_reserved":false,"is_disabled":false,"rental_uris":{"android":"levelo://app?vid=a0e5fd4d-e777-4621-b786-78a71bf5ff23","ios":"levelo://app?vid=a0e5fd4d-e777-4621-b786-78a71bf5ff23"},"vehicle_type_id":"4","last_reported":1711804097,"current_range_meters":14400,"station_id":"ce4bgup2rcd13ifvqcn0","pricing_plan_id":"cebpf4jnsgd1na2vs0mg"},{"bike_id":"5986fa3f-e80a-4648-af21-43cfae3d80da","system_id":"levelo_inurba_marseille","lat":43.304606,"lon":5.379026,"is_reserved":false,"is_disabled":false,"rental_uris":{"android":"levelo://app?vid=5986fa3f-e80a-4648-af21-43cfae3d80da","ios":"levelo://app?vid=5986fa3f-e80a-4648-af21-43cfae3d80da"},"vehicle_type_id":"4","last_reported":1711804097,"current_range_meters":8800,"station_id":"ce4bgup2rcd13ifvqcn0","pricing_plan_id":"cebpf4jnsgd1na2vs0mg"},{"bike_id":"5540ebe9-6aee-4006-86cc-1d85822a0a84","system_id":"levelo_inurba_marseille","lat":43.304606,"lon":5.379026,"is_reserved":false,"is_disabled":false,"rental_uris":{"android":"levelo://app?vid=5540ebe9-6aee-4006-86cc-1d85822a0a84","ios":"levelo://app?vid=5540ebe9-6aee-4006-86cc-1d85822a0a84"},"vehicle_type_id":"4","last_reported":1711804097,"current_range_meters":12800,"station_id":"ce4bgup2rcd13ifvqcn0","pricing_plan_id":"cebpf4jnsgd1na2vs0mg"},{"bike_id":"897ff2b8-b15e-4e7c-a2c9-accce86fb46b","system_id":"levelo_inurba_marseille","lat":43.304606,"lon":5.379026,"is_reserved":false,"is_disabled":false,"rental_uris":{"android":"levelo://app?vid=897ff2b8-b15e-4e7c-a2c9-accce86fb46b","ios":"levelo://app?vid=897ff2b8-b15e-4e7c-a2c9-accce86fb46b"},"vehicle_type_id":"4","last_reported":1711804097,"current_range_meters":1200,"station_id":"ce4bgup2rcd13ifvqcn0","pricing_plan_id":"cebpf4jnsgd1na2vs0mg"},{"bike_id":"acf8e29d-b4ef-4938-865d-b3dfbbdbaec7","system_id":"levelo_inurba_marseille","lat":43.304606,"lon":5.379026,"is_reserved":false,"is_disabled":false,"rental_uris":{"android":"levelo://app?vid=acf8e29d-b4ef-4938-865d-b3dfbbdbaec7","ios":"levelo://app?vid=acf8e29d-b4ef-4938-865d-b3dfbbdbaec7"},"vehicle_type_id":"4","last_reported":1711804097,"current_range_meters":26800,"station_id":"ce4bgup2rcd13ifvqcn0","pricing_plan_id":"cebpf4jnsgd1na2vs0mg"},{"bike_id":"06eee105-6409-4182-868b-60d0ce253928","system_id":"levelo_inurba_marseille","lat":43.304606,"lon":5.379026,"is_reserved":false,"is_disabled":false,"rental_uris":{"android":"levelo://app?vid=06eee105-6409-4182-868b-60d0ce253928","ios":"levelo://app?vid=06eee105-6409-4182-868b-60d0ce253928"},"vehicle_type_id":"4","last_reported":1711804097,"current_range_meters":17200,"station_id":"ce4bgup2rcd13ifvqcn0","pricing_plan_id":"cebpf4jnsgd1na2vs0mg"},{"bike_id":"a45a75b8-15dd-445f-b27d-460de7982910","system_id":"levelo_inurba_marseille","lat":43.324741,"lon":5.365755,"is_reserved":false,"is_disabled":false,"rental_uris":{"android":"levelo://app?vid=a45a75b8-15dd-445f-b27d-460de7982910","ios":"levelo://app?vid=a45a75b8-15dd-445f-b27d-460de7982910"},"vehicle_type_id":"4","last_reported":1711804097,"current_range_meters":22000,"station_id":"ce4bhs12rcd13ifvqhvg","pricing_plan_id":"cebpf4jnsgd1na2vs0mg"},{"bike_id":"48ed63f9-f817-4003-a334-dcf77105a022","system_id":"levelo_inurba_marseille","lat":43.304606,"lon":5.379026,"is_reserved":false,"is_disabled":false,"rental_uris":{"android":"levelo://app?vid=48ed63f9-f817-4003-a334-dcf77105a022","ios":"levelo://app?vid=48ed63f9-f817-4003-a334-dcf77105a022"},"vehicle_type_id":"4","last_reported":1711804097,"current_range_meters":4800,"station_id":"ce4bgup2rcd13ifvqcn0","pricing_plan_id":"cebpf4jnsgd1na2vs0mg"},{"bike_id":"b7df2112-1ac1-4fe2-9a8c-2e0dd8a1a220","system_id":"levelo_inurba_marseille","lat":43.304606,"lon":5.379026,"is_reserved":false,"is_disabled":false,"rental_uris":{"android":"levelo://app?vid=b7df2112-1ac1-4fe2-9a8c-2e0dd8a1a220","ios":"levelo://app?vid=b7df2112-1ac1-4fe2-9a8c-2e0dd8a1a220"},"vehicle_type_id":"4","last_reported":1711804097,"current_range_meters":15600,"station_id":"ce4bgup2rcd13ifvqcn0","pricing_plan_id":"cebpf4jnsgd1na2vs0mg"},{"bike_id":"9ed1b25f-6bae-4fb6-803d-a2205da3eb17","system_id":"levelo_inurba_marseille","lat":43.304606,"lon":5.379026,"is_reserved":false,"is_disabled":false,"rental_uris":{"android":"levelo://app?vid=9ed1b25f-6bae-4fb6-803d-a2205da3eb17","ios":"levelo://app?vid=9ed1b25f-6bae-4fb6-803d-a2205da3eb17"},"vehicle_type_id":"4","last_reported":1711804097,"current_range_meters":26400,"station_id":"ce4bgup2rcd13ifvqcn0","pricing_plan_id":"cebpf4jnsgd1na2vs0mg"},{"bike_id":"ebefea91-e11d-4a88-a148-f29a215f5db2","system_id":"levelo_inurba_marseille","lat":43.304606,"lon":5.379026,"is_reserved":false,"is_disabled":false,"rental_uris":{"android":"levelo://app?vid=ebefea91-e11d-4a88-a148-f29a215f5db2","ios":"levelo://app?vid=ebefea91-e11d-4a88-a148-f29a215f5db2"},"vehicle_type_id":"4","last_reported":1711804097,"current_range_meters":27600,"station_id":"ce4bgup2rcd13ifvqcn0","pricing_plan_id":"cebpf4jnsgd1na2vs0mg"},{"bike_id":"640f9d42-89e6-4c56-a222-b1620aa3e053","system_id":"levelo_inurba_marseille","lat":43.324771,"lon":5.36557,"is_reserved":false,"is_disabled":false,"rental_uris":{"android":"levelo://app?vid=640f9d42-89e6-4c56-a222-b1620aa3e053","ios":"levelo://app?vid=640f9d42-89e6-4c56-a222-b1620aa3e053"},"vehicle_type_id":"4","last_reported":1711804097,"current_range_meters":25600,"station_id":"ce4bhs12rcd13ifvqhvg","pricing_plan_id":"cebpf4jnsgd1na2vs0mg"},{"bike_id":"a2bde227-df6b-4242-8bb4-d7c2b776a084","system_id":"levelo_inurba_marseille","lat":43.304606,"lon":5.379026,"is_reserved":false,"is_disabled":false,"rental_uris":{"android":"levelo://app?vid=a2bde227-df6b-4242-8bb4-d7c2b776a084","ios":"levelo://app?vid=a2bde227-df6b-4242-8bb4-d7c2b776a084"},"vehicle_type_id":"4","last_reported":1711804097,"current_range_meters":16400,"station_id":"ce4bgup2rcd13ifvqcn0","pricing_plan_id":"cebpf4jnsgd1na2vs0mg"},{"bike_id":"726c561f-285b-4709-b5b5-7ade6e9b699a","system_id":"levelo_inurba_marseille","lat":43.30466,"lon":5.37922,"is_reserved":false,"is_disabled":false,"rental_uris":{"android":"levelo://app?vid=726c561f-285b-4709-b5b5-7ade6e9b699a","ios":"levelo://app?vid=726c561f-285b-4709-b5b5-7ade6e9b699a"},"vehicle_type_id":"4","last_reported":1711804097,"current_range_meters":28400,"station_id":"ce4bgup2rcd13ifvqcn0","pricing_plan_id":"cebpf4jnsgd1na2vs0mg"},{"bike_id":"e9f0dc36-def8-49f8-b1c8-927d9f09638a","system_id":"levelo_inurba_marseille","lat":43.32477,"lon":5.365661,"is_reserved":false,"is_disabled":false,"rental_uris":{"android":"levelo://app?vid=e9f0dc36-def8-49f8-b1c8-927d9f09638a","ios":"levelo://app?vid=e9f0dc36-def8-49f8-b1c8-927d9f09638a"},"vehicle_type_id":"4","last_reported":1711804097,"current_range_meters":4800,"station_id":"ce4bhs12rcd13ifvqhvg","pricing_plan_id":"cebpf4jnsgd1na2vs0mg"},{"bike_id":"60a3f65a-6f55-44a2-b4b9-157239c6c101","system_id":"levelo_inurba_marseille","lat":43.324771,"lon":5.36557,"is_reserved":false,"is_disabled":false,"rental_uris":{"android":"levelo://app?vid=60a3f65a-6f55-44a2-b4b9-157239c6c101","ios":"levelo://app?vid=60a3f65a-6f55-44a2-b4b9-157239c6c101"},"vehicle_type_id":"4","last_reported":1711804097,"current_range_meters":14000,"station_id":"ce4bhs12rcd13ifvqhvg","pricing_plan_id":"cebpf4jnsgd1na2vs0mg"},{"bike_id":"00843c3f-3e5b-42bd-94fc-ceac4fdf1dd1","system_id":"levelo_inurba_marseille","lat":43.304606,"lon":5.379026,"is_reserved":false,"is_disabled":false,"rental_uris":{"android":"levelo://app?vid=00843c3f-3e5b-42bd-94fc-ceac4fdf1dd1","ios":"levelo://app?vid=00843c3f-3e5b-42bd-94fc-ceac4fdf1dd1"},"vehicle_type_id":"4","last_reported":1711804097,"current_range_meters":17200,"station_id":"ce4bgup2rcd13ifvqcn0","pricing_plan_id":"cebpf4jnsgd1na2vs0mg"},{"bike_id":"c869395a-bd57-4a11-bc69-fe4102640f5e","system_id":"levelo_inurba_marseille","lat":43.304606,"lon":5.379026,"is_reserved":false,"is_disabled":false,"rental_uris":{"android":"levelo://app?vid=c869395a-bd57-4a11-bc69-fe4102640f5e","ios":"levelo://app?vid=c869395a-bd57-4a11-bc69-fe4102640f5e"},"vehicle_type_id":"4","last_reported":1711804097,"current_range_meters":21600,"station_id":"ce4bgup2rcd13ifvqcn0","pricing_plan_id":"cebpf4jnsgd1na2vs0mg"},{"bike_id":"f6f72ee2-3f0f-4fe4-910a-0ab1c3a2398f","system_id":"levelo_inurba_marseille","lat":43.324771,"lon":5.36557,"is_reserved":false,"is_disabled":false,"rental_uris":{"android":"levelo://app?vid=f6f72ee2-3f0f-4fe4-910a-0ab1c3a2398f","ios":"levelo://app?vid=f6f72ee2-3f0f-4fe4-910a-0ab1c3a2398f"},"vehicle_type_id":"4","last_reported":1711804097,"current_range_meters":2800,"station_id":"ce4bhs12rcd13ifvqhvg","pricing_plan_id":"cebpf4jnsgd1na2vs0mg"},{"bike_id":"4cce7423-2bd2-4e46-8abc-f17e3aabdda8","system_id":"levelo_inurba_marseille","lat":43.324771,"lon":5.36557,"is_reserved":false,"is_disabled":false,"rental_uris":{"android":"levelo://app?vid=4cce7423-2bd2-4e46-8abc-f17e3aabdda8","ios":"levelo://app?vid=4cce7423-2bd2-4e46-8abc-f17e3aabdda8"},"vehicle_type_id":"4","last_reported":1711804097,"current_range_meters":29600,"station_id":"ce4bhs12rcd13ifvqhvg","pricing_plan_id":"cebpf4jnsgd1na2vs0mg"},{"bike_id":"d7e593ae-0e04-4801-88d6-585d610f28a0","system_id":"levelo_inurba_marseille","lat":43.324771,"lon":5.36557,"is_reserved":false,"is_disabled":false,"rental_uris":{"android":"levelo://app?vid=d7e593ae-0e04-4801-88d6-585d610f28a0","ios":"levelo://app?vid=d7e593ae-0e04-4801-88d6-585d610f28a0"},"vehicle_type_id":"4","last_reported":1711804097,"current_range_meters":18800,"station_id":"ce4bhs12rcd13ifvqhvg","pricing_plan_id":"cebpf4jnsgd1na2vs0mg"},{"bike_id":"45664fe7-5f37-4d8d-9989-45aa0dcbca0e","system_id":"levelo_inurba_marseille","lat":43.324798,"lon":5.365668,"is_reserved":false,"is_disabled":false,"rental_uris":{"android":"levelo://app?vid=45664fe7-5f37-4d8d-9989-45aa0dcbca0e","ios":"levelo://app?vid=45664fe7-5f37-4d8d-9989-45aa0dcbca0e"},"vehicle_type_id":"4","last_reported":1711804097,"current_range_meters":17200,"station_id":"ce4bhs12rcd13ifvqhvg","pricing_plan_id":"cebpf4jnsgd1na2vs0mg"},{"bike_id":"6a4e94c0-7ffd-415b-99ab-c007b692d856","system_id":"levelo_inurba_marseille","lat":43.324833,"lon":5.365579,"is_reserved":false,"is_disabled":false,"rental_uris":{"android":"levelo://app?vid=6a4e94c0-7ffd-415b-99ab-c007b692d856","ios":"levelo://app?vid=6a4e94c0-7ffd-415b-99ab-c007b692d856"},"vehicle_type_id":"4","last_reported":1711804097,"current_range_meters":2000,"station_id":"ce4bhs12rcd13ifvqhvg","pricing_plan_id":"cebpf4jnsgd1na2vs0mg"},{"bike_id":"aa743647-c687-4c18-9573-cc4278716104","system_id":"levelo_inurba_marseille","lat":43.304606,"lon":5.379026,"is_reserved":false,"is_disabled":false,"rental_uris":{"android":"levelo://app?vid=aa743647-c687-4c18-9573-cc4278716104","ios":"levelo://app?vid=aa743647-c687-4c18-9573-cc4278716104"},"vehicle_type_id":"4","last_reported":1711804097,"current_range_meters":5600,"station_id":"ce4bgup2rcd13ifvqcn0","pricing_plan_id":"cebpf4jnsgd1na2vs0mg"},{"bike_id":"1c910cc3-4a27-4080-9e90-12d858b1b014","system_id":"levelo_inurba_marseille","lat":43.32486,"lon":5.36565,"is_reserved":false,"is_disabled":false,"rental_uris":{"android":"levelo://app?vid=1c910cc3-4a27-4080-9e90-12d858b1b014","ios":"levelo://app?vid=1c910cc3-4a27-4080-9e90-12d858b1b014"},"vehicle_type_id":"4","last_reported":1711804097,"current_range_meters":2800,"station_id":"ce4bhs12rcd13ifvqhvg","pricing_plan_id":"cebpf4jnsgd1na2vs0mg"},{"bike_id":"5172c493-fc03-4bf9-ba68-4edcc5a553c4","system_id":"levelo_inurba_marseille","lat":43.31546,"lon":5.38351,"is_reserved":false,"is_disabled":false,"rental_uris":{"android":"levelo://app?vid=5172c493-fc03-4bf9-ba68-4edcc5a553c4","ios":"levelo://app?vid=5172c493-fc03-4bf9-ba68-4edcc5a553c4"},"vehicle_type_id":"4","last_reported":1711804097,"current_range_meters":0,"station_id":"","pricing_plan_id":"cebpf4jnsgd1na2vs0mg"},{"bike_id":"97e73261-d40a-450d-b10c-462f2b830a03","system_id":"levelo_inurba_marseille","lat":43.302784,"lon":5.377158,"is_reserved":false,"is_disabled":false,"rental_uris":{"android":"levelo://app?vid=97e73261-d40a-450d-b10c-462f2b830a03","ios":"levelo://app?vid=97e73261-d40a-450d-b10c-462f2b830a03"},"vehicle_type_id":"4","last_reported":1711804097,"current_range_meters":23600,"station_id":"ce4bguh2rcd13ifvqcj0","pricing_plan_id":"cebpf4jnsgd1na2vs0mg"},{"bike_id":"04f64139-139f-49d1-bf4d-42d40fa6b1bb","system_id":"levelo_inurba_marseille","lat":43.302784,"lon":5.377158,"is_reserved":false,"is_disabled":false,"rental_uris":{"android":"levelo://app?vid=04f64139-139f-49d1-bf4d-42d40fa6b1bb","ios":"levelo://app?vid=04f64139-139f-49d1-bf4d-42d40fa6b1bb"},"vehicle_type_id":"4","last_reported":1711804097,"current_range_meters":31200,"station_id":"ce4bguh2rcd13ifvqcj0","pricing_plan_id":"cebpf4jnsgd1na2vs0mg"},{"bike_id":"21b34f6f-bb1b-42b6-9743-fc32b5a71996","system_id":"levelo_inurba_marseille","lat":43.302774,"lon":5.377044,"is_reserved":false,"is_disabled":false,"rental_uris":{"android":"levelo://app?vid=21b34f6f-bb1b-42b6-9743-fc32b5a71996","ios":"levelo://app?vid=21b34f6f-bb1b-42b6-9743-fc32b5a71996"},"vehicle_type_id":"4","last_reported":1711804097,"current_range_meters":0,"station_id":"ce4bguh2rcd13ifvqcj0","pricing_plan_id":"cebpf4jnsgd1na2vs0mg"},{"bike_id":"8376271f-5462-44be-8f4d-35389df59c1a","system_id":"levelo_inurba_marseille","lat":43.30143,"lon":5.37413,"is_reserved":false,"is_disabled":false,"rental_uris":{"android":"levelo://app?vid=8376271f-5462-44be-8f4d-35389df59c1a","ios":"levelo://app?vid=8376271f-5462-44be-8f4d-35389df59c1a"},"vehicle_type_id":"4","last_reported":1711804097,"current_range_meters":24000,"station_id":"ce4bgs92rcd13ifvqcc0","pricing_plan_id":"cebpf4jnsgd1na2vs0mg"},{"bike_id":"4944a12e-5c58-44f4-aa11-8eea87217e38","system_id":"levelo_inurba_marseille","lat":43.31983,"lon":5.38142,"is_reserved":false,"is_disabled":false,"rental_uris":{"android":"levelo://app?vid=4944a12e-5c58-44f4-aa11-8eea87217e38","ios":"levelo://app?vid=4944a12e-5c58-44f4-aa11-8eea87217e38"},"vehicle_type_id":"4","last_reported":1711804097,"current_range_meters":1600,"station_id":"ce4bhr12rcd13ifvqhpg","pricing_plan_id":"cebpf4jnsgd1na2vs0mg"},{"bike_id":"a8790c77-e016-421b-96f7-4bcac9f4c1e4","system_id":"levelo_inurba_marseille","lat":43.31987,"lon":5.381433,"is_reserved":false,"is_disabled":false,"rental_uris":{"android":"levelo://app?vid=a8790c77-e016-421b-96f7-4bcac9f4c1e4","ios":"levelo://app?vid=a8790c77-e016-421b-96f7-4bcac9f4c1e4"},"vehicle_type_id":"4","last_reported":1711804097,"current_range_meters":0,"station_id":"ce4bhr12rcd13ifvqhpg","pricing_plan_id":"cebpf4jnsgd1na2vs0mg"},{"bike_id":"c7e89ed8-8df6-481f-9405-1dc409090789","system_id":"levelo_inurba_marseille","lat":43.31998,"lon":5.38152,"is_reserved":false,"is_disabled":false,"rental_uris":{"android":"levelo://app?vid=c7e89ed8-8df6-481f-9405-1dc409090789","ios":"levelo://app?vid=c7e89ed8-8df6-481f-9405-1dc409090789"},"vehicle_type_id":"4","last_reported":1711804097,"current_range_meters":0,"station_id":"ce4bhr12rcd13ifvqhpg","pricing_plan_id":"cebpf4jnsgd1na2vs0mg"},{"bike_id":"1339490c-ce57-4029-bb8b-31343ee023f2","system_id":"levelo_inurba_marseille","lat":43.313571,"lon":5.384829,"is_reserved":false,"is_disabled":false,"rental_uris":{"android":"levelo://app?vid=1339490c-ce57-4029-bb8b-31343ee023f2","ios":"levelo://app?vid=1339490c-ce57-4029-bb8b-31343ee023f2"},"vehicle_type_id":"4","last_reported":1711804097,"current_range_meters":23600,"station_id":"ce4bgt92rcd13ifvqcf0","pricing_plan_id":"cebpf4jnsgd1na2vs0mg"},{"bike_id":"7f5ebfb4-abf9-42cd-b9fd-1475138c32ee","system_id":"levelo_inurba_marseille","lat":43.299222,"lon":5.365554,"is_reserved":false,"is_disabled":false,"rental_uris":{"android":"levelo://app?vid=7f5ebfb4-abf9-42cd-b9fd-1475138c32ee","ios":"levelo://app?vid=7f5ebfb4-abf9-42cd-b9fd-1475138c32ee"},"vehicle_type_id":"4","last_reported":1711804097,"current_range_meters":25200,"station_id":"ce4bgm92rcd13ifvqbr0","pricing_plan_id":"cebpf4jnsgd1na2vs0mg"},{"bike_id":"22a36852-f939-443f-a7f4-6aa331f67744","system_id":"levelo_inurba_marseille","lat":43.299222,"lon":5.365554,"is_reserved":false,"is_disabled":false,"rental_uris":{"android":"levelo://app?vid=22a36852-f939-443f-a7f4-6aa331f67744","ios":"levelo://app?vid=22a36852-f939-443f-a7f4-6aa331f67744"},"vehicle_type_id":"4","last_reported":1711804097,"current_range_meters":31200,"station_id":"ce4bgm92rcd13ifvqbr0","pricing_plan_id":"cebpf4jnsgd1na2vs0mg"},{"bike_id":"cb29c108-2e7e-4472-8476-55cc2be9bd63","system_id":"levelo_inurba_marseille","lat":43.313346,"lon":5.385554,"is_reserved":false,"is_disabled":false,"rental_uris":{"android":"levelo://app?vid=cb29c108-2e7e-4472-8476-55cc2be9bd63","ios":"levelo://app?vid=cb29c108-2e7e-4472-8476-55cc2be9bd63"},"vehicle_type_id":"4","last_reported":1711804097,"current_range_meters":10000,"station_id":"ce4bgup2rcd13ifvqco0","pricing_plan_id":"cebpf4jnsgd1na2vs0mg"},{"bike_id":"13bef4cb-e1d2-4aa6-b93e-0873e66d5161","system_id":"levelo_inurba_marseille","lat":43.311523,"lon":5.386716,"is_reserved":false,"is_disabled":false,"rental_uris":{"android":"levelo://app?vid=13bef4cb-e1d2-4aa6-b93e-0873e66d5161","ios":"levelo://app?vid=13bef4cb-e1d2-4aa6-b93e-0873e66d5161"},"vehicle_type_id":"4","last_reported":1711804097,"current_range_meters":10400,"station_id":"ce4bgv12rcd13ifvqcp0","pricing_plan_id":"cebpf4jnsgd1na2vs0mg"},{"bike_id":"d1547d4b-6972-4596-a5aa-f38aa868f4aa","system_id":"levelo_inurba_marseille","lat":43.298433,"lon":5.362774,"is_reserved":false,"is_disabled":false,"rental_uris":{"android":"levelo://app?vid=d1547d4b-6972-4596-a5aa-f38aa868f4aa","ios":"levelo://app?vid=d1547d4b-6972-4596-a5aa-f38aa868f4aa"},"vehicle_type_id":"4","last_reported":1711804097,"current_range_meters":18000,"station_id":"ce4bgpp2rcd13ifvqc3g","pricing_plan_id":"cebpf4jnsgd1na2vs0mg"},{"bike_id":"f6ab8a1f-be46-4903-b830-a64950050e61","system_id":"levelo_inurba_marseille","lat":43.298433,"lon":5.362774,"is_reserved":false,"is_disabled":false,"rental_uris":{"android":"levelo://app?vid=f6ab8a1f-be46-4903-b830-a64950050e61","ios":"levelo://app?vid=f6ab8a1f-be46-4903-b830-a64950050e61"},"vehicle_type_id":"4","last_reported":1711804097,"current_range_meters":25200,"station_id":"ce4bgpp2rcd13ifvqc3g","pricing_plan_id":"cebpf4jnsgd1na2vs0mg"},{"bike_id":"9201a4c7-4e63-4585-bb8e-6dcac218f2b1","system_id":"levelo_inurba_marseille","lat":43.298433,"lon":5.362774,"is_reserved":false,"is_disabled":false,"rental_uris":{"android":"levelo://app?vid=9201a4c7-4e63-4585-bb8e-6dcac218f2b1","ios":"levelo://app?vid=9201a4c7-4e63-4585-bb8e-6dcac218f2b1"},"vehicle_type_id":"4","last_reported":1711804097,"current_range_meters":31600,"station_id":"ce4bgpp2rcd13ifvqc3g","pricing_plan_id":"cebpf4jnsgd1na2vs0mg"},{"bike_id":"d11e283f-9c62-4714-a9fb-1e345f053c65","system_id":"levelo_inurba_marseille","lat":43.298433,"lon":5.362774,"is_reserved":false,"is_disabled":false,"rental_uris":{"android":"levelo://app?vid=d11e283f-9c62-4714-a9fb-1e345f053c65","ios":"levelo://app?vid=d11e283f-9c62-4714-a9fb-1e345f053c65"},"vehicle_type_id":"4","last_reported":1711804097,"current_range_meters":30400,"station_id":"ce4bgpp2rcd13ifvqc3g","pricing_plan_id":"cebpf4jnsgd1na2vs0mg"},{"bike_id":"146477a2-cdc9-47c8-9fda-70b446963692","system_id":"levelo_inurba_marseille","lat":43.298433,"lon":5.362774,"is_reserved":false,"is_disabled":false,"rental_uris":{"android":"levelo://app?vid=146477a2-cdc9-47c8-9fda-70b446963692","ios":"levelo://app?vid=146477a2-cdc9-47c8-9fda-70b446963692"},"vehicle_type_id":"4","last_reported":1711804097,"current_range_meters":16000,"station_id":"ce4bgpp2rcd13ifvqc3g","pricing_plan_id":"cebpf4jnsgd1na2vs0mg"},{"bike_id":"3adbe1a0-f399-41ba-9f46-c3e9008d4e3e","system_id":"levelo_inurba_marseille","lat":43.298433,"lon":5.362774,"is_reserved":false,"is_disabled":false,"rental_uris":{"android":"levelo://app?vid=3adbe1a0-f399-41ba-9f46-c3e9008d4e3e","ios":"levelo://app?vid=3adbe1a0-f399-41ba-9f46-c3e9008d4e3e"},"vehicle_type_id":"4","last_reported":1711804097,"current_range_meters":26800,"station_id":"ce4bgpp2rcd13ifvqc3g","pricing_plan_id":"cebpf4jnsgd1na2vs0mg"},{"bike_id":"8f780e09-80e5-4a5b-8141-54d96a0d7e20","system_id":"levelo_inurba_marseille","lat":43.298433,"lon":5.362774,"is_reserved":false,"is_disabled":false,"rental_uris":{"android":"levelo://app?vid=8f780e09-80e5-4a5b-8141-54d96a0d7e20","ios":"levelo://app?vid=8f780e09-80e5-4a5b-8141-54d96a0d7e20"},"vehicle_type_id":"4","last_reported":1711804097,"current_range_meters":12000,"station_id":"ce4bgpp2rcd13ifvqc3g","pricing_plan_id":"cebpf4jnsgd1na2vs0mg"},{"bike_id":"dd3871ba-2710-40cf-b79e-e415eb05f3af","system_id":"levelo_inurba_marseille","lat":43.299243,"lon":5.374807,"is_reserved":false,"is_disabled":false,"rental_uris":{"android":"levelo://app?vid=dd3871ba-2710-40cf-b79e-e415eb05f3af","ios":"levelo://app?vid=dd3871ba-2710-40cf-b79e-e415eb05f3af"},"vehicle_type_id":"4","last_reported":1711804097,"current_range_meters":31200,"station_id":"ce4bgjh2rcd13ifvqbg0","pricing_plan_id":"cebpf4jnsgd1na2vs0mg"},{"bike_id":"09db48c0-ba22-4f38-af83-1fd184355bbc","system_id":"levelo_inurba_marseille","lat":43.298433,"lon":5.362774,"is_reserved":false,"is_disabled":false,"rental_uris":{"android":"levelo://app?vid=09db48c0-ba22-4f38-af83-1fd184355bbc","ios":"levelo://app?vid=09db48c0-ba22-4f38-af83-1fd184355bbc"},"vehicle_type_id":"4","last_reported":1711804097,"current_range_meters":22000,"station_id":"ce4bgpp2rcd13ifvqc3g","pricing_plan_id":"cebpf4jnsgd1na2vs0mg"},{"bike_id":"f6a78244-9476-45bc-acbe-1b4a5604c5cc","system_id":"levelo_inurba_marseille","lat":43.296935,"lon":5.376544,"is_reserved":false,"is_disabled":false,"rental_uris":{"android":"levelo://app?vid=f6a78244-9476-45bc-acbe-1b4a5604c5cc","ios":"levelo://app?vid=f6a78244-9476-45bc-acbe-1b4a5604c5cc"},"vehicle_type_id":"4","last_reported":1711804097,"current_range_meters":28000,"station_id":"ce4bgkh2rcd13ifvqbl0","pricing_plan_id":"cebpf4jnsgd1na2vs0mg"},{"bike_id":"fd777beb-e18c-47bc-a0e9-c7fabe7946dd","system_id":"levelo_inurba_marseille","lat":43.298433,"lon":5.362774,"is_reserved":false,"is_disabled":false,"rental_uris":{"android":"levelo://app?vid=fd777beb-e18c-47bc-a0e9-c7fabe7946dd","ios":"levelo://app?vid=fd777beb-e18c-47bc-a0e9-c7fabe7946dd"},"vehicle_type_id":"4","last_reported":1711804097,"current_range_meters":24400,"station_id":"ce4bgpp2rcd13ifvqc3g","pricing_plan_id":"cebpf4jnsgd1na2vs0mg"},{"bike_id":"9d4341bb-6791-4845-94d5-3bb5be7bfbf5","system_id":"levelo_inurba_marseille","lat":43.29848,"lon":5.36273,"is_reserved":false,"is_disabled":false,"rental_uris":{"android":"levelo://app?vid=9d4341bb-6791-4845-94d5-3bb5be7bfbf5","ios":"levelo://app?vid=9d4341bb-6791-4845-94d5-3bb5be7bfbf5"},"vehicle_type_id":"4","last_reported":1711804097,"current_range_meters":24400,"station_id":"ce4bgpp2rcd13ifvqc3g","pricing_plan_id":"cebpf4jnsgd1na2vs0mg"},{"bike_id":"8d3d3fd1-2230-4afd-b992-40e3d5226c58","system_id":"levelo_inurba_marseille","lat":43.298433,"lon":5.362774,"is_reserved":false,"is_disabled":false,"rental_uris":{"android":"levelo://app?vid=8d3d3fd1-2230-4afd-b992-40e3d5226c58","ios":"levelo://app?vid=8d3d3fd1-2230-4afd-b992-40e3d5226c58"},"vehicle_type_id":"4","last_reported":1711804097,"current_range_meters":31600,"station_id":"ce4bgpp2rcd13ifvqc3g","pricing_plan_id":"cebpf4jnsgd1na2vs0mg"},{"bike_id":"d727e8e6-7e84-44d3-b7e7-c255ac8f0c0a","system_id":"levelo_inurba_marseille","lat":43.299369,"lon":5.374931,"is_reserved":false,"is_disabled":false,"rental_uris":{"android":"levelo://app?vid=d727e8e6-7e84-44d3-b7e7-c255ac8f0c0a","ios":"levelo://app?vid=d727e8e6-7e84-44d3-b7e7-c255ac8f0c0a"},"vehicle_type_id":"4","last_reported":1711804097,"current_range_meters":11600,"station_id":"ce4bgjh2rcd13ifvqbg0","pricing_plan_id":"cebpf4jnsgd1na2vs0mg"},{"bike_id":"0cb2baae-8a0d-40be-8147-1a596869a82a","system_id":"levelo_inurba_marseille","lat":43.29847,"lon":5.36277,"is_reserved":false,"is_disabled":false,"rental_uris":{"android":"levelo://app?vid=0cb2baae-8a0d-40be-8147-1a596869a82a","ios":"levelo://app?vid=0cb2baae-8a0d-40be-8147-1a596869a82a"},"vehicle_type_id":"4","last_reported":1711804097,"current_range_meters":22400,"station_id":"ce4bgpp2rcd13ifvqc3g","pricing_plan_id":"cebpf4jnsgd1na2vs0mg"},{"bike_id":"aa4e4826-3f90-4991-b985-8716d157789d","system_id":"levelo_inurba_marseille","lat":43.298433,"lon":5.362774,"is_reserved":false,"is_disabled":false,"rental_uris":{"android":"levelo://app?vid=aa4e4826-3f90-4991-b985-8716d157789d","ios":"levelo://app?vid=aa4e4826-3f90-4991-b985-8716d157789d"},"vehicle_type_id":"4","last_reported":1711804097,"current_range_meters":17200,"station_id":"ce4bgpp2rcd13ifvqc3g","pricing_plan_id":"cebpf4jnsgd1na2vs0mg"},{"bike_id":"e1d7753b-c753-425a-bba1-c6ecd34f2767","system_id":"levelo_inurba_marseille","lat":43.298459,"lon":5.362728,"is_reserved":false,"is_disabled":false,"rental_uris":{"android":"levelo://app?vid=e1d7753b-c753-425a-bba1-c6ecd34f2767","ios":"levelo://app?vid=e1d7753b-c753-425a-bba1-c6ecd34f2767"},"vehicle_type_id":"4","last_reported":1711804097,"current_range_meters":10800,"station_id":"ce4bgpp2rcd13ifvqc3g","pricing_plan_id":"cebpf4jnsgd1na2vs0mg"},{"bike_id":"ab8c824b-44cf-4603-9261-7f48c4a77ec0","system_id":"levelo_inurba_marseille","lat":43.298433,"lon":5.362774,"is_reserved":false,"is_disabled":false,"rental_uris":{"android":"levelo://app?vid=ab8c824b-44cf-4603-9261-7f48c4a77ec0","ios":"levelo://app?vid=ab8c824b-44cf-4603-9261-7f48c4a77ec0"},"vehicle_type_id":"4","last_reported":1711804097,"current_range_meters":26000,"station_id":"ce4bgpp2rcd13ifvqc3g","pricing_plan_id":"cebpf4jnsgd1na2vs0mg"},{"bike_id":"fdc78b4c-ee5d-40cb-a7b6-0929cd0b30b0","system_id":"levelo_inurba_marseille","lat":43.29845,"lon":5.36276,"is_reserved":false,"is_disabled":false,"rental_uris":{"android":"levelo://app?vid=fdc78b4c-ee5d-40cb-a7b6-0929cd0b30b0","ios":"levelo://app?vid=fdc78b4c-ee5d-40cb-a7b6-0929cd0b30b0"},"vehicle_type_id":"4","last_reported":1711804097,"current_range_meters":12800,"station_id":"ce4bgpp2rcd13ifvqc3g","pricing_plan_id":"cebpf4jnsgd1na2vs0mg"},{"bike_id":"657c0e99-e61d-47f1-9e4c-cb1c78943932","system_id":"levelo_inurba_marseille","lat":43.298433,"lon":5.362774,"is_reserved":false,"is_disabled":false,"rental_uris":{"android":"levelo://app?vid=657c0e99-e61d-47f1-9e4c-cb1c78943932","ios":"levelo://app?vid=657c0e99-e61d-47f1-9e4c-cb1c78943932"},"vehicle_type_id":"4","last_reported":1711804097,"current_range_meters":14000,"station_id":"ce4bgpp2rcd13ifvqc3g","pricing_plan_id":"cebpf4jnsgd1na2vs0mg"},{"bike_id":"55acaf70-9507-4daa-bead-2fec50a18423","system_id":"levelo_inurba_marseille","lat":43.29846,"lon":5.36269,"is_reserved":false,"is_disabled":false,"rental_uris":{"android":"levelo://app?vid=55acaf70-9507-4daa-bead-2fec50a18423","ios":"levelo://app?vid=55acaf70-9507-4daa-bead-2fec50a18423"},"vehicle_type_id":"4","last_reported":1711804097,"current_range_meters":26000,"station_id":"ce4bgpp2rcd13ifvqc3g","pricing_plan_id":"cebpf4jnsgd1na2vs0mg"},{"bike_id":"f74be892-1d3e-42cf-b4b6-a46ab94f57ae","system_id":"levelo_inurba_marseille","lat":43.305364,"lon":5.384119,"is_reserved":false,"is_disabled":false,"rental_uris":{"android":"levelo://app?vid=f74be892-1d3e-42cf-b4b6-a46ab94f57ae","ios":"levelo://app?vid=f74be892-1d3e-42cf-b4b6-a46ab94f57ae"},"vehicle_type_id":"4","last_reported":1711804097,"current_range_meters":26400,"station_id":"ce4bgg92rcd13ifvqb30","pricing_plan_id":"cebpf4jnsgd1na2vs0mg"},{"bike_id":"996f5ef0-afd8-4663-8db9-752dc2c8911a","system_id":"levelo_inurba_marseille","lat":43.29845,"lon":5.36268,"is_reserved":false,"is_disabled":false,"rental_uris":{"android":"levelo://app?vid=996f5ef0-afd8-4663-8db9-752dc2c8911a","ios":"levelo://app?vid=996f5ef0-afd8-4663-8db9-752dc2c8911a"},"vehicle_type_id":"4","last_reported":1711804097,"current_range_meters":26800,"station_id":"ce4bgpp2rcd13ifvqc3g","pricing_plan_id":"cebpf4jnsgd1na2vs0mg"},{"bike_id":"ee374cf8-0ee1-43f6-8ed8-bac812d8b334","system_id":"levelo_inurba_marseille","lat":43.29843,"lon":5.36273,"is_reserved":false,"is_disabled":false,"rental_uris":{"android":"levelo://app?vid=ee374cf8-0ee1-43f6-8ed8-bac812d8b334","ios":"levelo://app?vid=ee374cf8-0ee1-43f6-8ed8-bac812d8b334"},"vehicle_type_id":"4","last_reported":1711804097,"current_range_meters":3600,"station_id":"ce4bgpp2rcd13ifvqc3g","pricing_plan_id":"cebpf4jnsgd1na2vs0mg"},{"bike_id":"05d43898-6c9d-47cd-a3dc-adbb77c1201c","system_id":"levelo_inurba_marseille","lat":43.298422,"lon":5.362755,"is_reserved":false,"is_disabled":false,"rental_uris":{"android":"levelo://app?vid=05d43898-6c9d-47cd-a3dc-adbb77c1201c","ios":"levelo://app?vid=05d43898-6c9d-47cd-a3dc-adbb77c1201c"},"vehicle_type_id":"4","last_reported":1711804097,"current_range_meters":26800,"station_id":"ce4bgpp2rcd13ifvqc3g","pricing_plan_id":"cebpf4jnsgd1na2vs0mg"},{"bike_id":"ef7ff714-1b5d-4c51-82d4-8952344b9d70","system_id":"levelo_inurba_marseille","lat":43.299243,"lon":5.374807,"is_reserved":false,"is_disabled":false,"rental_uris":{"android":"levelo://app?vid=ef7ff714-1b5d-4c51-82d4-8952344b9d70","ios":"levelo://app?vid=ef7ff714-1b5d-4c51-82d4-8952344b9d70"},"vehicle_type_id":"4","last_reported":1711804097,"current_range_meters":17200,"station_id":"ce4bgjh2rcd13ifvqbg0","pricing_plan_id":"cebpf4jnsgd1na2vs0mg"},{"bike_id":"eace05df-8480-4732-a160-ea490a46e5e1","system_id":"levelo_inurba_marseille","lat":43.298433,"lon":5.362774,"is_reserved":false,"is_disabled":false,"rental_uris":{"android":"levelo://app?vid=eace05df-8480-4732-a160-ea490a46e5e1","ios":"levelo://app?vid=eace05df-8480-4732-a160-ea490a46e5e1"},"vehicle_type_id":"4","last_reported":1711804097,"current_range_meters":21600,"station_id":"ce4bgpp2rcd13ifvqc3g","pricing_plan_id":"cebpf4jnsgd1na2vs0mg"},{"bike_id":"798788bc-bc32-463f-a8bf-0e3ce28b4076","system_id":"levelo_inurba_marseille","lat":43.299243,"lon":5.374807,"is_reserved":false,"is_disabled":false,"rental_uris":{"android":"levelo://app?vid=798788bc-bc32-463f-a8bf-0e3ce28b4076","ios":"levelo://app?vid=798788bc-bc32-463f-a8bf-0e3ce28b4076"},"vehicle_type_id":"4","last_reported":1711804097,"current_range_meters":26800,"station_id":"ce4bgjh2rcd13ifvqbg0","pricing_plan_id":"cebpf4jnsgd1na2vs0mg"},{"bike_id":"b9c65e3a-91df-4632-9f7a-3a8578a86ea5","system_id":"levelo_inurba_marseille","lat":43.29922,"lon":5.37469,"is_reserved":false,"is_disabled":false,"rental_uris":{"android":"levelo://app?vid=b9c65e3a-91df-4632-9f7a-3a8578a86ea5","ios":"levelo://app?vid=b9c65e3a-91df-4632-9f7a-3a8578a86ea5"},"vehicle_type_id":"4","last_reported":1711804097,"current_range_meters":15200,"station_id":"ce4bgjh2rcd13ifvqbg0","pricing_plan_id":"cebpf4jnsgd1na2vs0mg"},{"bike_id":"e747311f-63ab-46e5-aed0-bd5f047854f9","system_id":"levelo_inurba_marseille","lat":43.299243,"lon":5.374807,"is_reserved":false,"is_disabled":false,"rental_uris":{"android":"levelo://app?vid=e747311f-63ab-46e5-aed0-bd5f047854f9","ios":"levelo://app?vid=e747311f-63ab-46e5-aed0-bd5f047854f9"},"vehicle_type_id":"4","last_reported":1711804097,"current_range_meters":14800,"station_id":"ce4bgjh2rcd13ifvqbg0","pricing_plan_id":"cebpf4jnsgd1na2vs0mg"},{"bike_id":"e1505b1b-f24d-48fe-9dcf-2b6099815030","system_id":"levelo_inurba_marseille","lat":43.29925,"lon":5.37481,"is_reserved":false,"is_disabled":false,"rental_uris":{"android":"levelo://app?vid=e1505b1b-f24d-48fe-9dcf-2b6099815030","ios":"levelo://app?vid=e1505b1b-f24d-48fe-9dcf-2b6099815030"},"vehicle_type_id":"4","last_reported":1711804097,"current_range_meters":21600,"station_id":"","pricing_plan_id":"cebpf4jnsgd1na2vs0mg"},{"bike_id":"83e82ff0-c3a8-4fdd-8b43-1e956bea8ff6","system_id":"levelo_inurba_marseille","lat":43.29917,"lon":5.37459,"is_reserved":false,"is_disabled":false,"rental_uris":{"android":"levelo://app?vid=83e82ff0-c3a8-4fdd-8b43-1e956bea8ff6","ios":"levelo://app?vid=83e82ff0-c3a8-4fdd-8b43-1e956bea8ff6"},"vehicle_type_id":"4","last_reported":1711804097,"current_range_meters":20400,"station_id":"ce4bgjh2rcd13ifvqbg0","pricing_plan_id":"cebpf4jnsgd1na2vs0mg"},{"bike_id":"12929473-8649-430d-b130-05420efa7a98","system_id":"levelo_inurba_marseille","lat":43.29918,"lon":5.3747,"is_reserved":false,"is_disabled":false,"rental_uris":{"android":"levelo://app?vid=12929473-8649-430d-b130-05420efa7a98","ios":"levelo://app?vid=12929473-8649-430d-b130-05420efa7a98"},"vehicle_type_id":"4","last_reported":1711804097,"current_range_meters":12400,"station_id":"ce4bgjh2rcd13ifvqbg0","pricing_plan_id":"cebpf4jnsgd1na2vs0mg"},{"bike_id":"3c1fc76a-10d6-4680-add0-e072a1bb1d05","system_id":"levelo_inurba_marseille","lat":43.29923,"lon":5.37488,"is_reserved":false,"is_disabled":false,"rental_uris":{"android":"levelo://app?vid=3c1fc76a-10d6-4680-add0-e072a1bb1d05","ios":"levelo://app?vid=3c1fc76a-10d6-4680-add0-e072a1bb1d05"},"vehicle_type_id":"4","last_reported":1711804097,"current_range_meters":16400,"station_id":"ce4bgjh2rcd13ifvqbg0","pricing_plan_id":"cebpf4jnsgd1na2vs0mg"},{"bike_id":"753e99c6-0aad-4be8-808c-4b26cab21d4c","system_id":"levelo_inurba_marseille","lat":43.29833,"lon":5.36292,"is_reserved":false,"is_disabled":false,"rental_uris":{"android":"levelo://app?vid=753e99c6-0aad-4be8-808c-4b26cab21d4c","ios":"levelo://app?vid=753e99c6-0aad-4be8-808c-4b26cab21d4c"},"vehicle_type_id":"4","last_reported":1711804097,"current_range_meters":23600,"station_id":"ce4bgpp2rcd13ifvqc3g","pricing_plan_id":"cebpf4jnsgd1na2vs0mg"},{"bike_id":"c8ee9356-d4b9-4ba8-86d2-d65b0a980b82","system_id":"levelo_inurba_marseille","lat":43.299243,"lon":5.374807,"is_reserved":false,"is_disabled":false,"rental_uris":{"android":"levelo://app?vid=c8ee9356-d4b9-4ba8-86d2-d65b0a980b82","ios":"levelo://app?vid=c8ee9356-d4b9-4ba8-86d2-d65b0a980b82"},"vehicle_type_id":"4","last_reported":1711804097,"current_range_meters":25200,"station_id":"ce4bgjh2rcd13ifvqbg0","pricing_plan_id":"cebpf4jnsgd1na2vs0mg"},{"bike_id":"1c6c9ca0-53bb-4594-8a51-bf4576709f46","system_id":"levelo_inurba_marseille","lat":43.299243,"lon":5.374807,"is_reserved":false,"is_disabled":false,"rental_uris":{"android":"levelo://app?vid=1c6c9ca0-53bb-4594-8a51-bf4576709f46","ios":"levelo://app?vid=1c6c9ca0-53bb-4594-8a51-bf4576709f46"},"vehicle_type_id":"4","last_reported":1711804097,"current_range_meters":18000,"station_id":"ce4bgjh2rcd13ifvqbg0","pricing_plan_id":"cebpf4jnsgd1na2vs0mg"},{"bike_id":"5b46d539-f029-4f30-81b0-b3b6a7083da6","system_id":"levelo_inurba_marseille","lat":43.311722,"lon":5.387247,"is_reserved":false,"is_disabled":false,"rental_uris":{"android":"levelo://app?vid=5b46d539-f029-4f30-81b0-b3b6a7083da6","ios":"levelo://app?vid=5b46d539-f029-4f30-81b0-b3b6a7083da6"},"vehicle_type_id":"4","last_reported":1711804097,"current_range_meters":1600,"station_id":"ce4bgv12rcd13ifvqcp0","pricing_plan_id":"cebpf4jnsgd1na2vs0mg"},{"bike_id":"1ba3525a-3c70-4913-96a4-673d454be774","system_id":"levelo_inurba_marseille","lat":43.297794,"lon":5.370888,"is_reserved":false,"is_disabled":false,"rental_uris":{"android":"levelo://app?vid=1ba3525a-3c70-4913-96a4-673d454be774","ios":"levelo://app?vid=1ba3525a-3c70-4913-96a4-673d454be774"},"vehicle_type_id":"4","last_reported":1711804097,"current_range_meters":23200,"station_id":"ce4bgop2rcd13ifvqc1g","pricing_plan_id":"cebpf4jnsgd1na2vs0mg"},{"bike_id":"fceadef6-1240-4b8a-a381-cb663252e480","system_id":"levelo_inurba_marseille","lat":43.297794,"lon":5.370888,"is_reserved":false,"is_disabled":false,"rental_uris":{"android":"levelo://app?vid=fceadef6-1240-4b8a-a381-cb663252e480","ios":"levelo://app?vid=fceadef6-1240-4b8a-a381-cb663252e480"},"vehicle_type_id":"4","last_reported":1711804097,"current_range_meters":13200,"station_id":"ce4bgop2rcd13ifvqc1g","pricing_plan_id":"cebpf4jnsgd1na2vs0mg"},{"bike_id":"af91ee66-ebec-4e5f-b566-646a8b5863b7","system_id":"levelo_inurba_marseille","lat":43.322872,"lon":5.382756,"is_reserved":false,"is_disabled":false,"rental_uris":{"android":"levelo://app?vid=af91ee66-ebec-4e5f-b566-646a8b5863b7","ios":"levelo://app?vid=af91ee66-ebec-4e5f-b566-646a8b5863b7"},"vehicle_type_id":"4","last_reported":1711804097,"current_range_meters":13200,"station_id":"ce4bhr12rcd13ifvqhqg","pricing_plan_id":"cebpf4jnsgd1na2vs0mg"},{"bike_id":"fd92d8de-9aca-4363-8201-1084f265ef76","system_id":"levelo_inurba_marseille","lat":43.322872,"lon":5.382756,"is_reserved":false,"is_disabled":false,"rental_uris":{"android":"levelo://app?vid=fd92d8de-9aca-4363-8201-1084f265ef76","ios":"levelo://app?vid=fd92d8de-9aca-4363-8201-1084f265ef76"},"vehicle_type_id":"4","last_reported":1711804097,"current_range_meters":23600,"station_id":"ce4bhr12rcd13ifvqhqg","pricing_plan_id":"cebpf4jnsgd1na2vs0mg"},{"bike_id":"c1803e3c-5844-4500-9148-3f73efb6092e","system_id":"levelo_inurba_marseille","lat":43.322872,"lon":5.382756,"is_reserved":false,"is_disabled":false,"rental_uris":{"android":"levelo://app?vid=c1803e3c-5844-4500-9148-3f73efb6092e","ios":"levelo://app?vid=c1803e3c-5844-4500-9148-3f73efb6092e"},"vehicle_type_id":"4","last_reported":1711804097,"current_range_meters":8000,"station_id":"ce4bhr12rcd13ifvqhqg","pricing_plan_id":"cebpf4jnsgd1na2vs0mg"},{"bike_id":"c498f0aa-dc5b-447d-b8b8-76f3fa7beed2","system_id":"levelo_inurba_marseille","lat":43.322872,"lon":5.382756,"is_reserved":false,"is_disabled":false,"rental_uris":{"android":"levelo://app?vid=c498f0aa-dc5b-447d-b8b8-76f3fa7beed2","ios":"levelo://app?vid=c498f0aa-dc5b-447d-b8b8-76f3fa7beed2"},"vehicle_type_id":"4","last_reported":1711804097,"current_range_meters":20400,"station_id":"ce4bhr12rcd13ifvqhqg","pricing_plan_id":"cebpf4jnsgd1na2vs0mg"},{"bike_id":"b1d3a55d-d224-44ee-b72d-6025267eda0c","system_id":"levelo_inurba_marseille","lat":43.322872,"lon":5.382756,"is_reserved":false,"is_disabled":false,"rental_uris":{"android":"levelo://app?vid=b1d3a55d-d224-44ee-b72d-6025267eda0c","ios":"levelo://app?vid=b1d3a55d-d224-44ee-b72d-6025267eda0c"},"vehicle_type_id":"4","last_reported":1711804097,"current_range_meters":8800,"station_id":"ce4bhr12rcd13ifvqhqg","pricing_plan_id":"cebpf4jnsgd1na2vs0mg"},{"bike_id":"6db4ba56-cdbd-44f6-826d-1abf96302385","system_id":"levelo_inurba_marseille","lat":43.322872,"lon":5.382756,"is_reserved":false,"is_disabled":false,"rental_uris":{"android":"levelo://app?vid=6db4ba56-cdbd-44f6-826d-1abf96302385","ios":"levelo://app?vid=6db4ba56-cdbd-44f6-826d-1abf96302385"},"vehicle_type_id":"4","last_reported":1711804097,"current_range_meters":31200,"station_id":"ce4bhr12rcd13ifvqhqg","pricing_plan_id":"cebpf4jnsgd1na2vs0mg"},{"bike_id":"f79864d3-4fb7-4457-8744-742c9fe436ed","system_id":"levelo_inurba_marseille","lat":43.2968,"lon":5.37291,"is_reserved":false,"is_disabled":false,"rental_uris":{"android":"levelo://app?vid=f79864d3-4fb7-4457-8744-742c9fe436ed","ios":"levelo://app?vid=f79864d3-4fb7-4457-8744-742c9fe436ed"},"vehicle_type_id":"4","last_reported":1711804097,"current_range_meters":27600,"station_id":"ce4bgk12rcd13ifvqbj0","pricing_plan_id":"cebpf4jnsgd1na2vs0mg"},{"bike_id":"b2e9e6fe-bfc2-49d8-8a7b-78dc564812ac","system_id":"levelo_inurba_marseille","lat":43.298802,"lon":5.379419,"is_reserved":false,"is_disabled":false,"rental_uris":{"android":"levelo://app?vid=b2e9e6fe-bfc2-49d8-8a7b-78dc564812ac","ios":"levelo://app?vid=b2e9e6fe-bfc2-49d8-8a7b-78dc564812ac"},"vehicle_type_id":"4","last_reported":1711804097,"current_range_meters":11600,"station_id":"","pricing_plan_id":"cebpf4jnsgd1na2vs0mg"},{"bike_id":"ac3faef7-9349-443a-9adf-0cf0a512727d","system_id":"levelo_inurba_marseille","lat":43.296066,"lon":5.367079,"is_reserved":false,"is_disabled":false,"rental_uris":{"android":"levelo://app?vid=ac3faef7-9349-443a-9adf-0cf0a512727d","ios":"levelo://app?vid=ac3faef7-9349-443a-9adf-0cf0a512727d"},"vehicle_type_id":"4","last_reported":1711804097,"current_range_meters":21200,"station_id":"ce4bgn12rcd13ifvqbt0","pricing_plan_id":"cebpf4jnsgd1na2vs0mg"},{"bike_id":"02af16a9-6dc3-43eb-8480-3f83d059cfc1","system_id":"levelo_inurba_marseille","lat":43.296129,"lon":5.370777,"is_reserved":false,"is_disabled":false,"rental_uris":{"android":"levelo://app?vid=02af16a9-6dc3-43eb-8480-3f83d059cfc1","ios":"levelo://app?vid=02af16a9-6dc3-43eb-8480-3f83d059cfc1"},"vehicle_type_id":"4","last_reported":1711804097,"current_range_meters":8400,"station_id":"ce4bgnh2rcd13ifvqc0g","pricing_plan_id":"cebpf4jnsgd1na2vs0mg"},{"bike_id":"57631066-f99b-483f-9f51-9f64c3ca28da","system_id":"levelo_inurba_marseille","lat":43.296129,"lon":5.370777,"is_reserved":false,"is_disabled":false,"rental_uris":{"android":"levelo://app?vid=57631066-f99b-483f-9f51-9f64c3ca28da","ios":"levelo://app?vid=57631066-f99b-483f-9f51-9f64c3ca28da"},"vehicle_type_id":"4","last_reported":1711804097,"current_range_meters":0,"station_id":"ce4bgnh2rcd13ifvqc0g","pricing_plan_id":"cebpf4jnsgd1na2vs0mg"},{"bike_id":"2f0af91a-6233-4600-a13a-100dd82a6a24","system_id":"levelo_inurba_marseille","lat":43.29624,"lon":5.37173,"is_reserved":false,"is_disabled":false,"rental_uris":{"android":"levelo://app?vid=2f0af91a-6233-4600-a13a-100dd82a6a24","ios":"levelo://app?vid=2f0af91a-6233-4600-a13a-100dd82a6a24"},"vehicle_type_id":"4","last_reported":1711804097,"current_range_meters":28400,"station_id":"ce4bgnh2rcd13ifvqc0g","pricing_plan_id":"cebpf4jnsgd1na2vs0mg"},{"bike_id":"dd247c1b-c6f5-40d2-91ab-a9af8bd0d198","system_id":"levelo_inurba_marseille","lat":43.296129,"lon":5.370777,"is_reserved":false,"is_disabled":false,"rental_uris":{"android":"levelo://app?vid=dd247c1b-c6f5-40d2-91ab-a9af8bd0d198","ios":"levelo://app?vid=dd247c1b-c6f5-40d2-91ab-a9af8bd0d198"},"vehicle_type_id":"4","last_reported":1711804097,"current_range_meters":20000,"station_id":"ce4bgnh2rcd13ifvqc0g","pricing_plan_id":"cebpf4jnsgd1na2vs0mg"},{"bike_id":"903f5a86-e186-434c-a11d-1d77f85a2086","system_id":"levelo_inurba_marseille","lat":43.29623,"lon":5.3717,"is_reserved":false,"is_disabled":false,"rental_uris":{"android":"levelo://app?vid=903f5a86-e186-434c-a11d-1d77f85a2086","ios":"levelo://app?vid=903f5a86-e186-434c-a11d-1d77f85a2086"},"vehicle_type_id":"4","last_reported":1711804097,"current_range_meters":16400,"station_id":"ce4bgnh2rcd13ifvqc0g","pricing_plan_id":"cebpf4jnsgd1na2vs0mg"},{"bike_id":"92730ca2-a564-4371-8a2a-8c3eb79ac17a","system_id":"levelo_inurba_marseille","lat":43.29573,"lon":5.367355,"is_reserved":false,"is_disabled":false,"rental_uris":{"android":"levelo://app?vid=92730ca2-a564-4371-8a2a-8c3eb79ac17a","ios":"levelo://app?vid=92730ca2-a564-4371-8a2a-8c3eb79ac17a"},"vehicle_type_id":"4","last_reported":1711804097,"current_range_meters":22800,"station_id":"ce4bgph2rcd13ifvqc2g","pricing_plan_id":"cebpf4jnsgd1na2vs0mg"},{"bike_id":"a0fffa0b-9aad-434e-a9d5-42cb02a105b9","system_id":"levelo_inurba_marseille","lat":43.29622,"lon":5.37174,"is_reserved":false,"is_disabled":false,"rental_uris":{"android":"levelo://app?vid=a0fffa0b-9aad-434e-a9d5-42cb02a105b9","ios":"levelo://app?vid=a0fffa0b-9aad-434e-a9d5-42cb02a105b9"},"vehicle_type_id":"4","last_reported":1711804097,"current_range_meters":14000,"station_id":"ce4bgnh2rcd13ifvqc0g","pricing_plan_id":"cebpf4jnsgd1na2vs0mg"},{"bike_id":"a1945f30-71cc-4228-9675-0f9181558682","system_id":"levelo_inurba_marseille","lat":43.2962,"lon":5.37169,"is_reserved":false,"is_disabled":false,"rental_uris":{"android":"levelo://app?vid=a1945f30-71cc-4228-9675-0f9181558682","ios":"levelo://app?vid=a1945f30-71cc-4228-9675-0f9181558682"},"vehicle_type_id":"4","last_reported":1711804097,"current_range_meters":11600,"station_id":"ce4bgnh2rcd13ifvqc0g","pricing_plan_id":"cebpf4jnsgd1na2vs0mg"},{"bike_id":"3adc41fa-2515-4997-a245-9bc0fcce8ffd","system_id":"levelo_inurba_marseille","lat":43.29618,"lon":5.3717,"is_reserved":false,"is_disabled":false,"rental_uris":{"android":"levelo://app?vid=3adc41fa-2515-4997-a245-9bc0fcce8ffd","ios":"levelo://app?vid=3adc41fa-2515-4997-a245-9bc0fcce8ffd"},"vehicle_type_id":"4","last_reported":1711804097,"current_range_meters":27600,"station_id":"ce4bgnh2rcd13ifvqc0g","pricing_plan_id":"cebpf4jnsgd1na2vs0mg"},{"bike_id":"0167ed8b-5755-499c-96d5-4ac9a3b13388","system_id":"levelo_inurba_marseille","lat":43.296935,"lon":5.376544,"is_reserved":false,"is_disabled":false,"rental_uris":{"android":"levelo://app?vid=0167ed8b-5755-499c-96d5-4ac9a3b13388","ios":"levelo://app?vid=0167ed8b-5755-499c-96d5-4ac9a3b13388"},"vehicle_type_id":"4","last_reported":1711804097,"current_range_meters":6800,"station_id":"ce4bgkh2rcd13ifvqbl0","pricing_plan_id":"cebpf4jnsgd1na2vs0mg"},{"bike_id":"f1e4e62b-094d-4a8d-8c8a-e9e3f79c46b6","system_id":"levelo_inurba_marseille","lat":43.296935,"lon":5.376544,"is_reserved":false,"is_disabled":false,"rental_uris":{"android":"levelo://app?vid=f1e4e62b-094d-4a8d-8c8a-e9e3f79c46b6","ios":"levelo://app?vid=f1e4e62b-094d-4a8d-8c8a-e9e3f79c46b6"},"vehicle_type_id":"4","last_reported":1711804097,"current_range_meters":6000,"station_id":"ce4bgkh2rcd13ifvqbl0","pricing_plan_id":"cebpf4jnsgd1na2vs0mg"},{"bike_id":"3557179b-5015-4a0c-8130-33dbf0dea7e9","system_id":"levelo_inurba_marseille","lat":43.296935,"lon":5.376544,"is_reserved":false,"is_disabled":false,"rental_uris":{"android":"levelo://app?vid=3557179b-5015-4a0c-8130-33dbf0dea7e9","ios":"levelo://app?vid=3557179b-5015-4a0c-8130-33dbf0dea7e9"},"vehicle_type_id":"4","last_reported":1711804097,"current_range_meters":18400,"station_id":"ce4bgkh2rcd13ifvqbl0","pricing_plan_id":"cebpf4jnsgd1na2vs0mg"},{"bike_id":"52f799e2-65e3-4f19-a8d5-ce40f77b77c3","system_id":"levelo_inurba_marseille","lat":43.296921,"lon":5.376579,"is_reserved":false,"is_disabled":false,"rental_uris":{"android":"levelo://app?vid=52f799e2-65e3-4f19-a8d5-ce40f77b77c3","ios":"levelo://app?vid=52f799e2-65e3-4f19-a8d5-ce40f77b77c3"},"vehicle_type_id":"4","last_reported":1711804097,"current_range_meters":31200,"station_id":"ce4bgkh2rcd13ifvqbl0","pricing_plan_id":"cebpf4jnsgd1na2vs0mg"},{"bike_id":"11ee061f-2a4b-4957-b636-e926edf5d726","system_id":"levelo_inurba_marseille","lat":43.296935,"lon":5.376544,"is_reserved":false,"is_disabled":false,"rental_uris":{"android":"levelo://app?vid=11ee061f-2a4b-4957-b636-e926edf5d726","ios":"levelo://app?vid=11ee061f-2a4b-4957-b636-e926edf5d726"},"vehicle_type_id":"4","last_reported":1711804097,"current_range_meters":10800,"station_id":"ce4bgkh2rcd13ifvqbl0","pricing_plan_id":"cebpf4jnsgd1na2vs0mg"},{"bike_id":"37432661-2d48-448e-a967-0bb4f3aafe0f","system_id":"levelo_inurba_marseille","lat":43.297246,"lon":5.376889,"is_reserved":false,"is_disabled":false,"rental_uris":{"android":"levelo://app?vid=37432661-2d48-448e-a967-0bb4f3aafe0f","ios":"levelo://app?vid=37432661-2d48-448e-a967-0bb4f3aafe0f"},"vehicle_type_id":"4","last_reported":1711804097,"current_range_meters":31200,"station_id":"ce4bgkh2rcd13ifvqbl0","pricing_plan_id":"cebpf4jnsgd1na2vs0mg"},{"bike_id":"ab7abf28-469d-4ec7-b535-064ae98d454b","system_id":"levelo_inurba_marseille","lat":43.296921,"lon":5.376579,"is_reserved":false,"is_disabled":false,"rental_uris":{"android":"levelo://app?vid=ab7abf28-469d-4ec7-b535-064ae98d454b","ios":"levelo://app?vid=ab7abf28-469d-4ec7-b535-064ae98d454b"},"vehicle_type_id":"4","last_reported":1711804097,"current_range_meters":29200,"station_id":"ce4bgkh2rcd13ifvqbl0","pricing_plan_id":"cebpf4jnsgd1na2vs0mg"},{"bike_id":"a5cf9f73-fbd2-40fc-9cfb-6180ca8a4ba5","system_id":"levelo_inurba_marseille","lat":43.296935,"lon":5.376544,"is_reserved":false,"is_disabled":false,"rental_uris":{"android":"levelo://app?vid=a5cf9f73-fbd2-40fc-9cfb-6180ca8a4ba5","ios":"levelo://app?vid=a5cf9f73-fbd2-40fc-9cfb-6180ca8a4ba5"},"vehicle_type_id":"4","last_reported":1711804097,"current_range_meters":27600,"station_id":"ce4bgkh2rcd13ifvqbl0","pricing_plan_id":"cebpf4jnsgd1na2vs0mg"},{"bike_id":"d8bc4076-623a-42f6-b605-62e1e91bed8f","system_id":"levelo_inurba_marseille","lat":43.296935,"lon":5.376544,"is_reserved":false,"is_disabled":false,"rental_uris":{"android":"levelo://app?vid=d8bc4076-623a-42f6-b605-62e1e91bed8f","ios":"levelo://app?vid=d8bc4076-623a-42f6-b605-62e1e91bed8f"},"vehicle_type_id":"4","last_reported":1711804097,"current_range_meters":8400,"station_id":"ce4bgkh2rcd13ifvqbl0","pricing_plan_id":"cebpf4jnsgd1na2vs0mg"},{"bike_id":"7df59371-3e15-4fff-84cf-474d78ace47e","system_id":"levelo_inurba_marseille","lat":43.296935,"lon":5.376544,"is_reserved":false,"is_disabled":false,"rental_uris":{"android":"levelo://app?vid=7df59371-3e15-4fff-84cf-474d78ace47e","ios":"levelo://app?vid=7df59371-3e15-4fff-84cf-474d78ace47e"},"vehicle_type_id":"4","last_reported":1711804097,"current_range_meters":12800,"station_id":"ce4bgkh2rcd13ifvqbl0","pricing_plan_id":"cebpf4jnsgd1na2vs0mg"},{"bike_id":"7af5941b-231c-4cc8-8905-0bc94b95eaf4","system_id":"levelo_inurba_marseille","lat":43.296935,"lon":5.376544,"is_reserved":false,"is_disabled":false,"rental_uris":{"android":"levelo://app?vid=7af5941b-231c-4cc8-8905-0bc94b95eaf4","ios":"levelo://app?vid=7af5941b-231c-4cc8-8905-0bc94b95eaf4"},"vehicle_type_id":"4","last_reported":1711804097,"current_range_meters":22400,"station_id":"ce4bgkh2rcd13ifvqbl0","pricing_plan_id":"cebpf4jnsgd1na2vs0mg"},{"bike_id":"7eb3962a-8d57-4548-a931-8ca2009da151","system_id":"levelo_inurba_marseille","lat":43.296935,"lon":5.376544,"is_reserved":false,"is_disabled":false,"rental_uris":{"android":"levelo://app?vid=7eb3962a-8d57-4548-a931-8ca2009da151","ios":"levelo://app?vid=7eb3962a-8d57-4548-a931-8ca2009da151"},"vehicle_type_id":"4","last_reported":1711804097,"current_range_meters":25200,"station_id":"ce4bgkh2rcd13ifvqbl0","pricing_plan_id":"cebpf4jnsgd1na2vs0mg"},{"bike_id":"1165f996-a28c-453a-925f-1328a2e5c29e","system_id":"levelo_inurba_marseille","lat":43.309483,"lon":5.390207,"is_reserved":false,"is_disabled":false,"rental_uris":{"android":"levelo://app?vid=1165f996-a28c-453a-925f-1328a2e5c29e","ios":"levelo://app?vid=1165f996-a28c-453a-925f-1328a2e5c29e"},"vehicle_type_id":"4","last_reported":1711804097,"current_range_meters":14400,"station_id":"ce4bgup2rcd13ifvqco0","pricing_plan_id":"cebpf4jnsgd1na2vs0mg"},{"bike_id":"5a37d1f3-75d1-4d04-a48b-0e986b09b4d2","system_id":"levelo_inurba_marseille","lat":43.299063,"lon":5.38141,"is_reserved":false,"is_disabled":false,"rental_uris":{"android":"levelo://app?vid=5a37d1f3-75d1-4d04-a48b-0e986b09b4d2","ios":"levelo://app?vid=5a37d1f3-75d1-4d04-a48b-0e986b09b4d2"},"vehicle_type_id":"4","last_reported":1711804097,"current_range_meters":0,"station_id":"ce4bgj12rcd13ifvqbc0","pricing_plan_id":"cebpf4jnsgd1na2vs0mg"},{"bike_id":"34fda28b-f609-4667-967b-de3870b0f90f","system_id":"levelo_inurba_marseille","lat":43.309589,"lon":5.390258,"is_reserved":false,"is_disabled":false,"rental_uris":{"android":"levelo://app?vid=34fda28b-f609-4667-967b-de3870b0f90f","ios":"levelo://app?vid=34fda28b-f609-4667-967b-de3870b0f90f"},"vehicle_type_id":"4","last_reported":1711804097,"current_range_meters":30000,"station_id":"ce4bgup2rcd13ifvqco0","pricing_plan_id":"cebpf4jnsgd1na2vs0mg"},{"bike_id":"369c7ff3-758a-4880-bdee-a89e4721282f","system_id":"levelo_inurba_marseille","lat":43.30952,"lon":5.39027,"is_reserved":false,"is_disabled":false,"rental_uris":{"android":"levelo://app?vid=369c7ff3-758a-4880-bdee-a89e4721282f","ios":"levelo://app?vid=369c7ff3-758a-4880-bdee-a89e4721282f"},"vehicle_type_id":"4","last_reported":1711804097,"current_range_meters":18000,"station_id":"ce4bgup2rcd13ifvqco0","pricing_plan_id":"cebpf4jnsgd1na2vs0mg"},{"bike_id":"1bd865bc-6e7e-4af2-a24f-733c9802842b","system_id":"levelo_inurba_marseille","lat":43.299028,"lon":5.381509,"is_reserved":false,"is_disabled":false,"rental_uris":{"android":"levelo://app?vid=1bd865bc-6e7e-4af2-a24f-733c9802842b","ios":"levelo://app?vid=1bd865bc-6e7e-4af2-a24f-733c9802842b"},"vehicle_type_id":"4","last_reported":1711804097,"current_range_meters":25200,"station_id":"ce4bgj12rcd13ifvqbc0","pricing_plan_id":"cebpf4jnsgd1na2vs0mg"},{"bike_id":"447dc815-be03-45e7-a2d0-5c75ea4ea556","system_id":"levelo_inurba_marseille","lat":43.299028,"lon":5.381509,"is_reserved":false,"is_disabled":false,"rental_uris":{"android":"levelo://app?vid=447dc815-be03-45e7-a2d0-5c75ea4ea556","ios":"levelo://app?vid=447dc815-be03-45e7-a2d0-5c75ea4ea556"},"vehicle_type_id":"4","last_reported":1711804097,"current_range_meters":31200,"station_id":"ce4bgj12rcd13ifvqbc0","pricing_plan_id":"cebpf4jnsgd1na2vs0mg"},{"bike_id":"ed769e5d-c755-4059-8a9f-305d18547bf4","system_id":"levelo_inurba_marseille","lat":43.29902,"lon":5.381397,"is_reserved":false,"is_disabled":false,"rental_uris":{"android":"levelo://app?vid=ed769e5d-c755-4059-8a9f-305d18547bf4","ios":"levelo://app?vid=ed769e5d-c755-4059-8a9f-305d18547bf4"},"vehicle_type_id":"4","last_reported":1711804097,"current_range_meters":15600,"station_id":"ce4bgj12rcd13ifvqbc0","pricing_plan_id":"cebpf4jnsgd1na2vs0mg"},{"bike_id":"5117c950-fd06-4234-8489-0b0705ca1059","system_id":"levelo_inurba_marseille","lat":43.309589,"lon":5.390258,"is_reserved":false,"is_disabled":false,"rental_uris":{"android":"levelo://app?vid=5117c950-fd06-4234-8489-0b0705ca1059","ios":"levelo://app?vid=5117c950-fd06-4234-8489-0b0705ca1059"},"vehicle_type_id":"4","last_reported":1711804097,"current_range_meters":18000,"station_id":"ce4bgup2rcd13ifvqco0","pricing_plan_id":"cebpf4jnsgd1na2vs0mg"},{"bike_id":"27878dfc-b4fb-46a8-87c0-56c73b12fa79","system_id":"levelo_inurba_marseille","lat":43.299028,"lon":5.381509,"is_reserved":false,"is_disabled":false,"rental_uris":{"android":"levelo://app?vid=27878dfc-b4fb-46a8-87c0-56c73b12fa79","ios":"levelo://app?vid=27878dfc-b4fb-46a8-87c0-56c73b12fa79"},"vehicle_type_id":"4","last_reported":1711804097,"current_range_meters":10800,"station_id":"ce4bgj12rcd13ifvqbc0","pricing_plan_id":"cebpf4jnsgd1na2vs0mg"},{"bike_id":"caf9dcc4-9e0b-49f3-ab93-a7867c6808ce","system_id":"levelo_inurba_marseille","lat":43.299028,"lon":5.381509,"is_reserved":false,"is_disabled":false,"rental_uris":{"android":"levelo://app?vid=caf9dcc4-9e0b-49f3-ab93-a7867c6808ce","ios":"levelo://app?vid=caf9dcc4-9e0b-49f3-ab93-a7867c6808ce"},"vehicle_type_id":"4","last_reported":1711804097,"current_range_meters":26400,"station_id":"ce4bgj12rcd13ifvqbc0","pricing_plan_id":"cebpf4jnsgd1na2vs0mg"},{"bike_id":"fc3a5b38-25dd-458a-bcec-9d9fd8151260","system_id":"levelo_inurba_marseille","lat":43.309589,"lon":5.390258,"is_reserved":false,"is_disabled":false,"rental_uris":{"android":"levelo://app?vid=fc3a5b38-25dd-458a-bcec-9d9fd8151260","ios":"levelo://app?vid=fc3a5b38-25dd-458a-bcec-9d9fd8151260"},"vehicle_type_id":"4","last_reported":1711804097,"current_range_meters":18000,"station_id":"ce4bgup2rcd13ifvqco0","pricing_plan_id":"cebpf4jnsgd1na2vs0mg"},{"bike_id":"654f21c7-3597-4a18-aa83-885ea7363c2b","system_id":"levelo_inurba_marseille","lat":43.309507,"lon":5.39031,"is_reserved":false,"is_disabled":false,"rental_uris":{"android":"levelo://app?vid=654f21c7-3597-4a18-aa83-885ea7363c2b","ios":"levelo://app?vid=654f21c7-3597-4a18-aa83-885ea7363c2b"},"vehicle_type_id":"4","last_reported":1711804097,"current_range_meters":6800,"station_id":"ce4bgup2rcd13ifvqco0","pricing_plan_id":"cebpf4jnsgd1na2vs0mg"},{"bike_id":"fd4a48aa-cd0c-4e09-8c0a-28feb8e0ccda","system_id":"levelo_inurba_marseille","lat":43.299028,"lon":5.381509,"is_reserved":false,"is_disabled":false,"rental_uris":{"android":"levelo://app?vid=fd4a48aa-cd0c-4e09-8c0a-28feb8e0ccda","ios":"levelo://app?vid=fd4a48aa-cd0c-4e09-8c0a-28feb8e0ccda"},"vehicle_type_id":"4","last_reported":1711804097,"current_range_meters":22000,"station_id":"ce4bgj12rcd13ifvqbc0","pricing_plan_id":"cebpf4jnsgd1na2vs0mg"},{"bike_id":"55f7a83c-b716-46c7-ab2f-c61a837a7451","system_id":"levelo_inurba_marseille","lat":43.299028,"lon":5.381509,"is_reserved":false,"is_disabled":false,"rental_uris":{"android":"levelo://app?vid=55f7a83c-b716-46c7-ab2f-c61a837a7451","ios":"levelo://app?vid=55f7a83c-b716-46c7-ab2f-c61a837a7451"},"vehicle_type_id":"4","last_reported":1711804097,"current_range_meters":11600,"station_id":"ce4bgj12rcd13ifvqbc0","pricing_plan_id":"cebpf4jnsgd1na2vs0mg"},{"bike_id":"6614ce31-9263-443a-94a9-affbc0e1f33b","system_id":"levelo_inurba_marseille","lat":43.309589,"lon":5.390258,"is_reserved":false,"is_disabled":false,"rental_uris":{"android":"levelo://app?vid=6614ce31-9263-443a-94a9-affbc0e1f33b","ios":"levelo://app?vid=6614ce31-9263-443a-94a9-affbc0e1f33b"},"vehicle_type_id":"4","last_reported":1711804097,"current_range_meters":17600,"station_id":"ce4bgup2rcd13ifvqco0","pricing_plan_id":"cebpf4jnsgd1na2vs0mg"},{"bike_id":"8d689d51-ae40-49c3-b407-1e5b4eada5e0","system_id":"levelo_inurba_marseille","lat":43.299028,"lon":5.381509,"is_reserved":false,"is_disabled":false,"rental_uris":{"android":"levelo://app?vid=8d689d51-ae40-49c3-b407-1e5b4eada5e0","ios":"levelo://app?vid=8d689d51-ae40-49c3-b407-1e5b4eada5e0"},"vehicle_type_id":"4","last_reported":1711804097,"current_range_meters":29600,"station_id":"ce4bgj12rcd13ifvqbc0","pricing_plan_id":"cebpf4jnsgd1na2vs0mg"},{"bike_id":"92108b35-b95a-4dc5-8c1d-b0fb6f548ba1","system_id":"levelo_inurba_marseille","lat":43.309589,"lon":5.390258,"is_reserved":false,"is_disabled":false,"rental_uris":{"android":"levelo://app?vid=92108b35-b95a-4dc5-8c1d-b0fb6f548ba1","ios":"levelo://app?vid=92108b35-b95a-4dc5-8c1d-b0fb6f548ba1"},"vehicle_type_id":"4","last_reported":1711804097,"current_range_meters":23200,"station_id":"ce4bgup2rcd13ifvqco0","pricing_plan_id":"cebpf4jnsgd1na2vs0mg"},{"bike_id":"e91151ce-d56e-4e4f-8bc5-f06edbfa2c1f","system_id":"levelo_inurba_marseille","lat":43.30956,"lon":5.39036,"is_reserved":false,"is_disabled":false,"rental_uris":{"android":"levelo://app?vid=e91151ce-d56e-4e4f-8bc5-f06edbfa2c1f","ios":"levelo://app?vid=e91151ce-d56e-4e4f-8bc5-f06edbfa2c1f"},"vehicle_type_id":"4","last_reported":1711804097,"current_range_meters":10400,"station_id":"ce4bgup2rcd13ifvqco0","pricing_plan_id":"cebpf4jnsgd1na2vs0mg"},{"bike_id":"88f2ec1f-77a8-4099-94a5-22c628c7fefa","system_id":"levelo_inurba_marseille","lat":43.309589,"lon":5.390258,"is_reserved":false,"is_disabled":false,"rental_uris":{"android":"levelo://app?vid=88f2ec1f-77a8-4099-94a5-22c628c7fefa","ios":"levelo://app?vid=88f2ec1f-77a8-4099-94a5-22c628c7fefa"},"vehicle_type_id":"4","last_reported":1711804097,"current_range_meters":31200,"station_id":"ce4bgup2rcd13ifvqco0","pricing_plan_id":"cebpf4jnsgd1na2vs0mg"},{"bike_id":"584221ee-3bc3-4ddc-9e1b-6d35f9ecdf60","system_id":"levelo_inurba_marseille","lat":43.309494,"lon":5.390345,"is_reserved":false,"is_disabled":false,"rental_uris":{"android":"levelo://app?vid=584221ee-3bc3-4ddc-9e1b-6d35f9ecdf60","ios":"levelo://app?vid=584221ee-3bc3-4ddc-9e1b-6d35f9ecdf60"},"vehicle_type_id":"4","last_reported":1711804097,"current_range_meters":21600,"station_id":"ce4bgup2rcd13ifvqco0","pricing_plan_id":"cebpf4jnsgd1na2vs0mg"},{"bike_id":"a9ed1080-9dad-48c6-b6ce-4341eb402764","system_id":"levelo_inurba_marseille","lat":43.309589,"lon":5.390258,"is_reserved":false,"is_disabled":false,"rental_uris":{"android":"levelo://app?vid=a9ed1080-9dad-48c6-b6ce-4341eb402764","ios":"levelo://app?vid=a9ed1080-9dad-48c6-b6ce-4341eb402764"},"vehicle_type_id":"4","last_reported":1711804097,"current_range_meters":19200,"station_id":"ce4bgup2rcd13ifvqco0","pricing_plan_id":"cebpf4jnsgd1na2vs0mg"},{"bike_id":"7f7934c2-886e-48c0-a5a1-8b25ae9c9909","system_id":"levelo_inurba_marseille","lat":43.299028,"lon":5.381509,"is_reserved":false,"is_disabled":false,"rental_uris":{"android":"levelo://app?vid=7f7934c2-886e-48c0-a5a1-8b25ae9c9909","ios":"levelo://app?vid=7f7934c2-886e-48c0-a5a1-8b25ae9c9909"},"vehicle_type_id":"4","last_reported":1711804097,"current_range_meters":31200,"station_id":"ce4bgj12rcd13ifvqbc0","pricing_plan_id":"cebpf4jnsgd1na2vs0mg"},{"bike_id":"cf82ee1a-b678-4827-bcf0-affd80c62a07","system_id":"levelo_inurba_marseille","lat":43.309589,"lon":5.390258,"is_reserved":false,"is_disabled":false,"rental_uris":{"android":"levelo://app?vid=cf82ee1a-b678-4827-bcf0-affd80c62a07","ios":"levelo://app?vid=cf82ee1a-b678-4827-bcf0-affd80c62a07"},"vehicle_type_id":"4","last_reported":1711804097,"current_range_meters":6800,"station_id":"ce4bgup2rcd13ifvqco0","pricing_plan_id":"cebpf4jnsgd1na2vs0mg"},{"bike_id":"6c814c04-6f13-49eb-8e72-3fdeb963638f","system_id":"levelo_inurba_marseille","lat":43.309589,"lon":5.390258,"is_reserved":false,"is_disabled":false,"rental_uris":{"android":"levelo://app?vid=6c814c04-6f13-49eb-8e72-3fdeb963638f","ios":"levelo://app?vid=6c814c04-6f13-49eb-8e72-3fdeb963638f"},"vehicle_type_id":"4","last_reported":1711804097,"current_range_meters":31200,"station_id":"ce4bgup2rcd13ifvqco0","pricing_plan_id":"cebpf4jnsgd1na2vs0mg"},{"bike_id":"e4785808-09b5-4a3d-9ced-cc3d58489382","system_id":"levelo_inurba_marseille","lat":43.309589,"lon":5.390258,"is_reserved":false,"is_disabled":false,"rental_uris":{"android":"levelo://app?vid=e4785808-09b5-4a3d-9ced-cc3d58489382","ios":"levelo://app?vid=e4785808-09b5-4a3d-9ced-cc3d58489382"},"vehicle_type_id":"4","last_reported":1711804097,"current_range_meters":30800,"station_id":"ce4bgup2rcd13ifvqco0","pricing_plan_id":"cebpf4jnsgd1na2vs0mg"},{"bike_id":"92142d26-328b-49d5-8baa-6b6c20f17faa","system_id":"levelo_inurba_marseille","lat":43.309589,"lon":5.390258,"is_reserved":false,"is_disabled":false,"rental_uris":{"android":"levelo://app?vid=92142d26-328b-49d5-8baa-6b6c20f17faa","ios":"levelo://app?vid=92142d26-328b-49d5-8baa-6b6c20f17faa"},"vehicle_type_id":"4","last_reported":1711804097,"current_range_meters":31200,"station_id":"ce4bgup2rcd13ifvqco0","pricing_plan_id":"cebpf4jnsgd1na2vs0mg"},{"bike_id":"3ac75a27-7d20-4b50-a2e8-5d2bdaf44d12","system_id":"levelo_inurba_marseille","lat":43.309589,"lon":5.390258,"is_reserved":false,"is_disabled":false,"rental_uris":{"android":"levelo://app?vid=3ac75a27-7d20-4b50-a2e8-5d2bdaf44d12","ios":"levelo://app?vid=3ac75a27-7d20-4b50-a2e8-5d2bdaf44d12"},"vehicle_type_id":"4","last_reported":1711804097,"current_range_meters":23200,"station_id":"ce4bgup2rcd13ifvqco0","pricing_plan_id":"cebpf4jnsgd1na2vs0mg"},