{"last_updated":1712333391,"ttl":30,"version":"2.2","data":{"bikes":[{"bike_id":"909f8515-760e-4c40-8754-1792eea0574a","system_id":"levelo_inurba_marseille","lat":43.313391,"lon":5.36706,"is_reserved":false,"is_disabled":false,"rental_uris":{"android":"levelo://app?vid=909f8515-760e-4c40-8754-1792eea0574a","ios":"levelo://app?vid=909f8515-760e-4c40-8754-1792eea0574a"},"vehicle_type_id":"4","last_reported":1712333391,"current_range_meters":0,"station_id":"ce4bgr92rcd13ifvqc6g","pricing_plan_id":"cebpf4jnsgd1na2vs0mg"},{"bike_id":"a63854fc-79cd-4deb-93ed-5608c47fb6bc","system_id":"levelo_inurba_marseille","lat":43.312214,"lon":5.368506,"is_reserved":false,"is_disabled":false,"rental_uris":{"android":"levelo://app?vid=a63854fc-79cd-4deb-93ed-5608c47fb6bc","ios":"levelo://app?vid=a63854fc-79cd-4deb-93ed-5608c47fb6bc"},"vehicle_type_id":"4","last_reported":1712333391,"current_range_meters":0,"station_id":"ce4bgt12rcd13ifvqcd0","pricing_plan_id":"cebpf4jnsgd1na2vs0mg"},{"bike_id":"b408dba6-9051-48d3-91e6-3dfa0af7661b","system_id":"levelo_inurba_marseille","lat":43.31235,"lon":5.3686,"is_reserved":false,"is_disabled":false,"rental_uris":{"android":"levelo://app?vid=b408dba6-9051-48d3-91e6-3dfa0af7661b","ios":"levelo://app?vid=b408dba6-9051-48d3-91e6-3dfa0af7661b"},"vehicle_type_id":"4","last_reported":1712333391,"current_range_meters":0,"station_id":"ce4bgl92rcd13ifvqbq0","pricing_plan_id":"cebpf4jnsgd1na2vs0mg"},{"bike_id":"b19e94d7-d2dc-4193-b8af-484f2932e164","system_id":"levelo_inurba_marseille","lat":43.293009,"lon":5.374584,"is_reserved":false,"is_disabled":false,"rental_uris":{"android":"levelo://app?vid=b19e94d7-d2dc-4193-b8af-484f2932e164","ios":"levelo://app?vid=b19e94d7-d2dc-4193-b8af-484f2932e164"},"vehicle_type_id":"4","last_reported":1712333391,"current_range_meters":0,"station_id":"ce4bgi12rcd13ifvqb70","pricing_plan_id":"cebpf4jnsgd1na2vs0mg"},{"bike_id":"39054c39-545e-40df-a8b0-e2a30f0f4edc","system_id":"levelo_inurba_marseille","lat":43.299707,"lon":5.384859,"is_reserved":false,"is_disabled":false,"rental_uris":{"android":"levelo://app?vid=39054c39-545e-40df-a8b0-e2a30f0f4edc","ios":"levelo://app?vid=39054c39-545e-40df-a8b0-e2a30f0f4edc"},"vehicle_type_id":"4","last_reported":1712333391,"current_range_meters":17600,"station_id":"ce4bgj92rcd13ifvqbd0","pricing_plan_id":"cebpf4jnsgd1na2vs0mg"},{"bike_id":"4a496ff7-26ba-4480-b5c3-c9bfacf251da","system_id":"levelo_inurba_marseille","lat":43.317075,"lon":5.377367,"is_reserved":false,"is_disabled":false,"rental_uris":{"android":"levelo://app?vid=4a496ff7-26ba-4480-b5c3-c9bfacf251da","ios":"levelo://app?vid=4a496ff7-26ba-4480-b5c3-c9bfacf251da"},"vehicle_type_id":"4","last_reported":1712333391,"current_range_meters":2400,"station_id":"ce4bgth2rcd13ifvqch0","pricing_plan_id":"cebpf4jnsgd1na2vs0mg"},{"bike_id":"d3ab922c-1ffd-4df7-a349-5f9e53a3bb84","system_id":"levelo_inurba_marseille","lat":43.2936,"lon":5.37835,"is_reserved":false,"is_disabled":false,"rental_uris":{"android":"levelo://app?vid=d3ab922c-1ffd-4df7-a349-5f9e53a3bb84","ios":"levelo://app?vid=d3ab922c-1ffd-4df7-a349-5f9e53a3bb84"},"vehicle_type_id":"4","last_reported":1712333391,"current_range_meters":2000,"station_id":"ce4bgjh2rcd13ifvqbf0","pricing_plan_id":"cebpf4jnsgd1na2vs0mg"},{"bike_id":"1940fc15-9569-43b1-8a12-26304b870631","system_id":"levelo_inurba_marseille","lat":43.305706,"lon":5.365654,"is_reserved":false,"is_disabled":false,"rental_uris":{"android":"levelo://app?vid=1940fc15-9569-43b1-8a12-26304b870631","ios":"levelo://app?vid=1940fc15-9569-43b1-8a12-26304b870631"},"vehicle_type_id":"4","last_reported":1712333391,"current_range_meters":16800,"station_id":"ce4bgs12rcd13ifvqcag","pricing_plan_id":"cebpf4jnsgd1na2vs0mg"},{"bike_id":"b3c4fca5-49e1-4207-93a6-1996075e1c43","system_id":"levelo_inurba_marseille","lat":43.305706,"lon":5.365654,"is_reserved":false,"is_disabled":false,"rental_uris":{"android":"levelo://app?vid=b3c4fca5-49e1-4207-93a6-1996075e1c43","ios":"levelo://app?vid=b3c4fca5-49e1-4207-93a6-1996075e1c43"},"vehicle_type_id":"4","last_reported":1712333391,"current_range_meters":4800,"station_id":"ce4bgs12rcd13ifvqcag","pricing_plan_id":"cebpf4jnsgd1na2vs0mg"},{"bike_id":"e3763a58-30d3-4022-b13c-7c026f6706fa","system_id":"levelo_inurba_marseille","lat":43.305706,"lon":5.365654,"is_reserved":false,"is_disabled":false,"rental_uris":{"android":"levelo://app?vid=e3763a58-30d3-4022-b13c-7c026f6706fa","ios":"levelo://app?vid=e3763a58-30d3-4022-b13c-7c026f6706fa"},"vehicle_type_id":"4","last_reported":1712333391,"current_range_meters":11200,"station_id":"ce4bgs12rcd13ifvqcag","pricing_plan_id":"cebpf4jnsgd1na2vs0mg"},{"bike_id":"e650fb39-af01-453d-b5bb-73ffcee7dd53","system_id":"levelo_inurba_marseille","lat":43.2936,"lon":5.37835,"is_reserved":false,"is_disabled":false,"rental_uris":{"android":"levelo://app?vid=e650fb39-af01-453d-b5bb-73ffcee7dd53","ios":"levelo://app?vid=e650fb39-af01-453d-b5bb-73ffcee7dd53"},"vehicle_type_id":"4","last_reported":1712333391,"current_range_meters":2800,"station_id":"ce4bgjh2rcd13ifvqbf0","pricing_plan_id":"cebpf4jnsgd1na2vs0mg"},{"bike_id":"d1cb991b-1765-455c-9cb4-c45d10810868","system_id":"levelo_inurba_marseille","lat":43.305989,"lon":5.37225,"is_reserved":false,"is_disabled":false,"rental_uris":{"android":"levelo://app?vid=d1cb991b-1765-455c-9cb4-c45d10810868","ios":"levelo://app?vid=d1cb991b-1765-455c-9cb4-c45d10810868"},"vehicle_type_id":"4","last_reported":1712333391,"current_range_meters":18400,"station_id":"ce4bgqh2rcd13ifvqc4g","pricing_plan_id":"cebpf4jnsgd1na2vs0mg"},{"bike_id":"596c36e3-0a3c-4721-98af-acabe0880806","system_id":"levelo_inurba_marseille","lat":43.305989,"lon":5.37225,"is_reserved":false,"is_disabled":false,"rental_uris":{"android":"levelo://app?vid=596c36e3-0a3c-4721-98af-acabe0880806","ios":"levelo://app?vid=596c36e3-0a3c-4721-98af-acabe0880806"},"vehicle_type_id":"4","last_reported":1712333391,"current_range_meters":12800,"station_id":"ce4bgqh2rcd13ifvqc4g","pricing_plan_id":"cebpf4jnsgd1na2vs0mg"},{"bike_id":"359b2655-cecb-4a0e-adbe-c99a906e3bee","system_id":"levelo_inurba_marseille","lat":43.30604,"lon":5.37224,"is_reserved":false,"is_disabled":false,"rental_uris":{"android":"levelo://app?vid=359b2655-cecb-4a0e-adbe-c99a906e3bee","ios":"levelo://app?vid=359b2655-cecb-4a0e-adbe-c99a906e3bee"},"vehicle_type_id":"4","last_reported":1712333391,"current_range_meters":20800,"station_id":"ce4bgqh2rcd13ifvqc4g","pricing_plan_id":"cebpf4jnsgd1na2vs0mg"},{"bike_id":"b8e1b6e8-2a19-4479-ab62-fc1dce7bcd51","system_id":"levelo_inurba_marseille","lat":43.305989,"lon":5.37225,"is_reserved":false,"is_disabled":false,"rental_uris":{"android":"levelo://app?vid=b8e1b6e8-2a19-4479-ab62-fc1dce7bcd51","ios":"levelo://app?vid=b8e1b6e8-2a19-4479-ab62-fc1dce7bcd51"},"vehicle_type_id":"4","last_reported":1712333391,"current_range_meters":1200,"station_id":"ce4bgqh2rcd13ifvqc4g","pricing_plan_id":"cebpf4jnsgd1na2vs0mg"},{"bike_id":"5eb7b2a2-34c5-40bc-8fd8-5858b77c3b14","system_id":"levelo_inurba_marseille","lat":43.30462,"lon":5.3671,"is_reserved":false,"is_disabled":false,"rental_uris":{"android":"levelo://app?vid=5eb7b2a2-34c5-40bc-8fd8-5858b77c3b14","ios":"levelo://app?vid=5eb7b2a2-34c5-40bc-8fd8-5858b77c3b14"},"vehicle_type_id":"4","last_reported":1712333391,"current_range_meters":22000,"station_id":"","pricing_plan_id":"cebpf4jnsgd1na2vs0mg"},{"bike_id":"444cc6e2-6738-4453-877c-dd75392c97e9","system_id":"levelo_inurba_marseille","lat":43.317009,"lon":5.376492,"is_reserved":false,"is_disabled":false,"rental_uris":{"android":"levelo://app?vid=444cc6e2-6738-4453-877c-dd75392c97e9","ios":"levelo://app?vid=444cc6e2-6738-4453-877c-dd75392c97e9"},"vehicle_type_id":"4","last_reported":1712333391,"current_range_meters":23200,"station_id":"ce4bgth2rcd13ifvqch0","pricing_plan_id":"cebpf4jnsgd1na2vs0mg"},{"bike_id":"bbfed310-f5ca-41c8-bf3a-f83cd6959697","system_id":"levelo_inurba_marseille","lat":43.313254,"lon":5.37881,"is_reserved":false,"is_disabled":false,"rental_uris":{"android":"levelo://app?vid=bbfed310-f5ca-41c8-bf3a-f83cd6959697","ios":"levelo://app?vid=bbfed310-f5ca-41c8-bf3a-f83cd6959697"},"vehicle_type_id":"4","last_reported":1712333391,"current_range_meters":4800,"station_id":"","pricing_plan_id":"cebpf4jnsgd1na2vs0mg"},{"bike_id":"538c02de-05b0-424e-8d40-87f24b26eb0e","system_id":"levelo_inurba_marseille","lat":43.317096,"lon":5.377322,"is_reserved":false,"is_disabled":false,"rental_uris":{"android":"levelo://app?vid=538c02de-05b0-424e-8d40-87f24b26eb0e","ios":"levelo://app?vid=538c02de-05b0-424e-8d40-87f24b26eb0e"},"vehicle_type_id":"4","last_reported":1712333391,"current_range_meters":9200,"station_id":"ce4bgth2rcd13ifvqch0","pricing_plan_id":"cebpf4jnsgd1na2vs0mg"},{"bike_id":"4bba5c31-0948-4a60-8881-1e5a3c4aa397","system_id":"levelo_inurba_marseille","lat":43.310037,"lon":5.380141,"is_reserved":false,"is_disabled":false,"rental_uris":{"android":"levelo://app?vid=4bba5c31-0948-4a60-8881-1e5a3c4aa397","ios":"levelo://app?vid=4bba5c31-0948-4a60-8881-1e5a3c4aa397"},"vehicle_type_id":"4","last_reported":1712333391,"current_range_meters":17600,"station_id":"","pricing_plan_id":"cebpf4jnsgd1na2vs0mg"},{"bike_id":"220a209e-43d4-47fe-9df2-112820e45d2c","system_id":"levelo_inurba_marseille","lat":43.315289,"lon":5.380349,"is_reserved":false,"is_disabled":false,"rental_uris":{"android":"levelo://app?vid=220a209e-43d4-47fe-9df2-112820e45d2c","ios":"levelo://app?vid=220a209e-43d4-47fe-9df2-112820e45d2c"},"vehicle_type_id":"4","last_reported":1712333391,"current_range_meters":10400,"station_id":"ce4bhsp2rcd13ifvqi50","pricing_plan_id":"cebpf4jnsgd1na2vs0mg"},{"bike_id":"1179b424-e642-4cc9-8eef-6573e93ba9dd","system_id":"levelo_inurba_marseille","lat":43.302957,"lon":5.372327,"is_reserved":false,"is_disabled":false,"rental_uris":{"android":"levelo://app?vid=1179b424-e642-4cc9-8eef-6573e93ba9dd","ios":"levelo://app?vid=1179b424-e642-4cc9-8eef-6573e93ba9dd"},"vehicle_type_id":"4","last_reported":1712333391,"current_range_meters":0,"station_id":"","pricing_plan_id":"cebpf4jnsgd1na2vs0mg"},{"bike_id":"50cdaca1-2593-443b-8c55-458804ae0e95","system_id":"levelo_inurba_marseille","lat":43.301939,"lon":5.366286,"is_reserved":false,"is_disabled":false,"rental_uris":{"android":"levelo://app?vid=50cdaca1-2593-443b-8c55-458804ae0e95","ios":"levelo://app?vid=50cdaca1-2593-443b-8c55-458804ae0e95"},"vehicle_type_id":"4","last_reported":1712333391,"current_range_meters":1200,"station_id":"ce4bgrh2rcd13ifvqc8g","pricing_plan_id":"cebpf4jnsgd1na2vs0mg"},{"bike_id":"fac22faa-0cd1-48a9-a308-b35f6a30b8a0","system_id":"levelo_inurba_marseille","lat":43.308097,"lon":5.38151,"is_reserved":false,"is_disabled":false,"rental_uris":{"android":"levelo://app?vid=fac22faa-0cd1-48a9-a308-b35f6a30b8a0","ios":"levelo://app?vid=fac22faa-0cd1-48a9-a308-b35f6a30b8a0"},"vehicle_type_id":"4","last_reported":1712333391,"current_range_meters":0,"station_id":"ce4bgt12rcd13ifvqce0","pricing_plan_id":"cebpf4jnsgd1na2vs0mg"},{"bike_id":"7bf5d164-4c07-45cf-8245-2474d8a99266","system_id":"levelo_inurba_marseille","lat":43.32323,"lon":5.37425,"is_reserved":false,"is_disabled":false,"rental_uris":{"android":"levelo://app?vid=7bf5d164-4c07-45cf-8245-2474d8a99266","ios":"levelo://app?vid=7bf5d164-4c07-45cf-8245-2474d8a99266"},"vehicle_type_id":"4","last_reported":1712333391,"current_range_meters":16800,"station_id":"","pricing_plan_id":"cebpf4jnsgd1na2vs0mg"},{"bike_id":"fe4d0403-dca5-458b-94ac-c14386efbeb6","system_id":"levelo_inurba_marseille","lat":43.289184,"lon":5.366408,"is_reserved":false,"is_disabled":false,"rental_uris":{"android":"levelo://app?vid=fe4d0403-dca5-458b-94ac-c14386efbeb6","ios":"levelo://app?vid=fe4d0403-dca5-458b-94ac-c14386efbeb6"},"vehicle_type_id":"4","last_reported":1712333391,"current_range_meters":2000,"station_id":"ce4bhap2rcd13ifvqek0","pricing_plan_id":"cebpf4jnsgd1na2vs0mg"},{"bike_id":"ead66f13-565d-4aee-b05c-8d78c04183ee","system_id":"levelo_inurba_marseille","lat":43.30464,"lon":5.37906,"is_reserved":false,"is_disabled":false,"rental_uris":{"android":"levelo://app?vid=ead66f13-565d-4aee-b05c-8d78c04183ee","ios":"levelo://app?vid=ead66f13-565d-4aee-b05c-8d78c04183ee"},"vehicle_type_id":"4","last_reported":1712333391,"current_range_meters":8800,"station_id":"ce4bhqp2rcd13ifvqhog","pricing_plan_id":"cebpf4jnsgd1na2vs0mg"},{"bike_id":"38252ee3-9a1e-45f5-a509-72528437c324","system_id":"levelo_inurba_marseille","lat":43.324771,"lon":5.36557,"is_reserved":false,"is_disabled":false,"rental_uris":{"android":"levelo://app?vid=38252ee3-9a1e-45f5-a509-72528437c324","ios":"levelo://app?vid=38252ee3-9a1e-45f5-a509-72528437c324"},"vehicle_type_id":"4","last_reported":1712333391,"current_range_meters":0,"station_id":"ce4bhs12rcd13ifvqhvg","pricing_plan_id":"cebpf4jnsgd1na2vs0mg"},{"bike_id":"bf994b08-9e12-459b-87d9-40eb153fee5e","system_id":"levelo_inurba_marseille","lat":43.31067,"lon":5.38341,"is_reserved":false,"is_disabled":false,"rental_uris":{"android":"levelo://app?vid=bf994b08-9e12-459b-87d9-40eb153fee5e","ios":"levelo://app?vid=bf994b08-9e12-459b-87d9-40eb153fee5e"},"vehicle_type_id":"4","last_reported":1712333391,"current_range_meters":0,"station_id":"ce4bgv92rcd13ifvqcr0","pricing_plan_id":"cebpf4jnsgd1na2vs0mg"},{"bike_id":"8654da5e-06ea-43e3-b8c0-e856d99acc20","system_id":"levelo_inurba_marseille","lat":43.30143,"lon":5.37413,"is_reserved":false,"is_disabled":false,"rental_uris":{"android":"levelo://app?vid=8654da5e-06ea-43e3-b8c0-e856d99acc20","ios":"levelo://app?vid=8654da5e-06ea-43e3-b8c0-e856d99acc20"},"vehicle_type_id":"4","last_reported":1712333391,"current_range_meters":15200,"station_id":"ce4bgs92rcd13ifvqcc0","pricing_plan_id":"cebpf4jnsgd1na2vs0mg"},{"bike_id":"b9be003b-949d-4bbb-b8e4-dfe0456b4574","system_id":"levelo_inurba_marseille","lat":43.302784,"lon":5.377158,"is_reserved":false,"is_disabled":false,"rental_uris":{"android":"levelo://app?vid=b9be003b-949d-4bbb-b8e4-dfe0456b4574","ios":"levelo://app?vid=b9be003b-949d-4bbb-b8e4-dfe0456b4574"},"vehicle_type_id":"4","last_reported":1712333391,"current_range_meters":10400,"station_id":"ce4bguh2rcd13ifvqcj0","pricing_plan_id":"cebpf4jnsgd1na2vs0mg"},{"bike_id":"6482488a-baa7-4b18-babc-ebcf4ca26a36","system_id":"levelo_inurba_marseille","lat":43.319935,"lon":5.381699,"is_reserved":false,"is_disabled":false,"rental_uris":{"android":"levelo://app?vid=6482488a-baa7-4b18-babc-ebcf4ca26a36","ios":"levelo://app?vid=6482488a-baa7-4b18-babc-ebcf4ca26a36"},"vehicle_type_id":"4","last_reported":1712333391,"current_range_meters":3200,"station_id":"ce4bhr12rcd13ifvqhpg","pricing_plan_id":"cebpf4jnsgd1na2vs0mg"},{"bike_id":"da4af5c6-73c2-4738-9a2d-cc0c250b8563","system_id":"levelo_inurba_marseille","lat":43.31993,"lon":5.3815,"is_reserved":false,"is_disabled":false,"rental_uris":{"android":"levelo://app?vid=da4af5c6-73c2-4738-9a2d-cc0c250b8563","ios":"levelo://app?vid=da4af5c6-73c2-4738-9a2d-cc0c250b8563"},"vehicle_type_id":"4","last_reported":1712333391,"current_range_meters":4000,"station_id":"ce4bhr12rcd13ifvqhpg","pricing_plan_id":"cebpf4jnsgd1na2vs0mg"},{"bike_id":"f6c92934-8666-40dd-a110-b530dd1f9470","system_id":"levelo_inurba_marseille","lat":43.319935,"lon":5.381699,"is_reserved":false,"is_disabled":false,"rental_uris":{"android":"levelo://app?vid=f6c92934-8666-40dd-a110-b530dd1f9470","ios":"levelo://app?vid=f6c92934-8666-40dd-a110-b530dd1f9470"},"vehicle_type_id":"4","last_reported":1712333391,"current_range_meters":2400,"station_id":"ce4bhr12rcd13ifvqhpg","pricing_plan_id":"cebpf4jnsgd1na2vs0mg"},{"bike_id":"d852ccd2-7bba-4d95-ae05-d0367a3985f9","system_id":"levelo_inurba_marseille","lat":43.32006,"lon":5.38161,"is_reserved":false,"is_disabled":false,"rental_uris":{"android":"levelo://app?vid=d852ccd2-7bba-4d95-ae05-d0367a3985f9","ios":"levelo://app?vid=d852ccd2-7bba-4d95-ae05-d0367a3985f9"},"vehicle_type_id":"4","last_reported":1712333391,"current_range_meters":10000,"station_id":"ce4bhr12rcd13ifvqhpg","pricing_plan_id":"cebpf4jnsgd1na2vs0mg"},{"bike_id":"d2d03f1d-564d-43fb-a48d-fec0e34f1cde","system_id":"levelo_inurba_marseille","lat":43.319935,"lon":5.381699,"is_reserved":false,"is_disabled":false,"rental_uris":{"android":"levelo://app?vid=d2d03f1d-564d-43fb-a48d-fec0e34f1cde","ios":"levelo://app?vid=d2d03f1d-564d-43fb-a48d-fec0e34f1cde"},"vehicle_type_id":"4","last_reported":1712333391,"current_range_meters":16400,"station_id":"ce4bhr12rcd13ifvqhpg","pricing_plan_id":"cebpf4jnsgd1na2vs0mg"},{"bike_id":"59c251ed-2657-4558-b121-7e0986268ba1","system_id":"levelo_inurba_marseille","lat":43.313571,"lon":5.384829,"is_reserved":false,"is_disabled":false,"rental_uris":{"android":"levelo://app?vid=59c251ed-2657-4558-b121-7e0986268ba1","ios":"levelo://app?vid=59c251ed-2657-4558-b121-7e0986268ba1"},"vehicle_type_id":"4","last_reported":1712333391,"current_range_meters":7200,"station_id":"ce4bgt92rcd13ifvqcf0","pricing_plan_id":"cebpf4jnsgd1na2vs0mg"},{"bike_id":"b02a6807-2df0-4f01-848e-02966ce6b67b","system_id":"levelo_inurba_marseille","lat":43.313571,"lon":5.384829,"is_reserved":false,"is_disabled":false,"rental_uris":{"android":"levelo://app?vid=b02a6807-2df0-4f01-848e-02966ce6b67b","ios":"levelo://app?vid=b02a6807-2df0-4f01-848e-02966ce6b67b"},"vehicle_type_id":"4","last_reported":1712333391,"current_range_meters":400,"station_id":"ce4bgt92rcd13ifvqcf0","pricing_plan_id":"cebpf4jnsgd1na2vs0mg"},{"bike_id":"5138659e-e73c-4ec2-b906-d2d353696a03","system_id":"levelo_inurba_marseille","lat":43.313571,"lon":5.384829,"is_reserved":false,"is_disabled":false,"rental_uris":{"android":"levelo://app?vid=5138659e-e73c-4ec2-b906-d2d353696a03","ios":"levelo://app?vid=5138659e-e73c-4ec2-b906-d2d353696a03"},"vehicle_type_id":"4","last_reported":1712333391,"current_range_meters":24800,"station_id":"ce4bgt92rcd13ifvqcf0","pricing_plan_id":"cebpf4jnsgd1na2vs0mg"},{"bike_id":"18d126b5-0003-43ff-b54c-f5b745515973","system_id":"levelo_inurba_marseille","lat":43.313571,"lon":5.384829,"is_reserved":false,"is_disabled":false,"rental_uris":{"android":"levelo://app?vid=18d126b5-0003-43ff-b54c-f5b745515973","ios":"levelo://app?vid=18d126b5-0003-43ff-b54c-f5b745515973"},"vehicle_type_id":"4","last_reported":1712333391,"current_range_meters":400,"station_id":"ce4bgt92rcd13ifvqcf0","pricing_plan_id":"cebpf4jnsgd1na2vs0mg"},{"bike_id":"b1511f18-d4a7-4bc0-944e-16f1226ef6b5","system_id":"levelo_inurba_marseille","lat":43.313571,"lon":5.384829,"is_reserved":false,"is_disabled":false,"rental_uris":{"android":"levelo://app?vid=b1511f18-d4a7-4bc0-944e-16f1226ef6b5","ios":"levelo://app?vid=b1511f18-d4a7-4bc0-944e-16f1226ef6b5"},"vehicle_type_id":"4","last_reported":1712333391,"current_range_meters":16400,"station_id":"ce4bgt92rcd13ifvqcf0","pricing_plan_id":"cebpf4jnsgd1na2vs0mg"},{"bike_id":"19f792a0-bf99-4946-b85a-d6682889ab26","system_id":"levelo_inurba_marseille","lat":43.299209,"lon":5.365547,"is_reserved":false,"is_disabled":false,"rental_uris":{"android":"levelo://app?vid=19f792a0-bf99-4946-b85a-d6682889ab26","ios":"levelo://app?vid=19f792a0-bf99-4946-b85a-d6682889ab26"},"vehicle_type_id":"4","last_reported":1712333391,"current_range_meters":30000,"station_id":"ce4bgm92rcd13ifvqbr0","pricing_plan_id":"cebpf4jnsgd1na2vs0mg"},{"bike_id":"3088c140-8f62-4478-8d8d-ce2c34ddc266","system_id":"levelo_inurba_marseille","lat":43.299724,"lon":5.371829,"is_reserved":false,"is_disabled":false,"rental_uris":{"android":"levelo://app?vid=3088c140-8f62-4478-8d8d-ce2c34ddc266","ios":"levelo://app?vid=3088c140-8f62-4478-8d8d-ce2c34ddc266"},"vehicle_type_id":"4","last_reported":1712333391,"current_range_meters":16400,"station_id":"ce4bgr92rcd13ifvqc7g","pricing_plan_id":"cebpf4jnsgd1na2vs0mg"},{"bike_id":"5c495131-5dd9-46c0-9751-bd8930eda307","system_id":"levelo_inurba_marseille","lat":43.313571,"lon":5.384829,"is_reserved":false,"is_disabled":false,"rental_uris":{"android":"levelo://app?vid=5c495131-5dd9-46c0-9751-bd8930eda307","ios":"levelo://app?vid=5c495131-5dd9-46c0-9751-bd8930eda307"},"vehicle_type_id":"4","last_reported":1712333391,"current_range_meters":8400,"station_id":"ce4bgt92rcd13ifvqcf0","pricing_plan_id":"cebpf4jnsgd1na2vs0mg"},{"bike_id":"e8e7761b-1ed9-48ba-bbac-2a664baaf33f","system_id":"levelo_inurba_marseille","lat":43.299209,"lon":5.365547,"is_reserved":false,"is_disabled":false,"rental_uris":{"android":"levelo://app?vid=e8e7761b-1ed9-48ba-bbac-2a664baaf33f","ios":"levelo://app?vid=e8e7761b-1ed9-48ba-bbac-2a664baaf33f"},"vehicle_type_id":"4","last_reported":1712333391,"current_range_meters":24400,"station_id":"ce4bgm92rcd13ifvqbr0","pricing_plan_id":"cebpf4jnsgd1na2vs0mg"},{"bike_id":"11a81cf0-1e4a-4134-8028-fa7becce2a26","system_id":"levelo_inurba_marseille","lat":43.298433,"lon":5.362774,"is_reserved":false,"is_disabled":false,"rental_uris":{"android":"levelo://app?vid=11a81cf0-1e4a-4134-8028-fa7becce2a26","ios":"levelo://app?vid=11a81cf0-1e4a-4134-8028-fa7becce2a26"},"vehicle_type_id":"4","last_reported":1712333391,"current_range_meters":10800,"station_id":"ce4bgpp2rcd13ifvqc3g","pricing_plan_id":"cebpf4jnsgd1na2vs0mg"},{"bike_id":"cc131519-5804-4a58-a482-7315e785e7a7","system_id":"levelo_inurba_marseille","lat":43.298433,"lon":5.362774,"is_reserved":false,"is_disabled":false,"rental_uris":{"android":"levelo://app?vid=cc131519-5804-4a58-a482-7315e785e7a7","ios":"levelo://app?vid=cc131519-5804-4a58-a482-7315e785e7a7"},"vehicle_type_id":"4","last_reported":1712333391,"current_range_meters":7200,"station_id":"ce4bgpp2rcd13ifvqc3g","pricing_plan_id":"cebpf4jnsgd1na2vs0mg"},{"bike_id":"9b4262f9-4190-4c3a-837c-556d3bce7e5d","system_id":"levelo_inurba_marseille","lat":43.298433,"lon":5.362774,"is_reserved":false,"is_disabled":false,"rental_uris":{"android":"levelo://app?vid=9b4262f9-4190-4c3a-837c-556d3bce7e5d","ios":"levelo://app?vid=9b4262f9-4190-4c3a-837c-556d3bce7e5d"},"vehicle_type_id":"4","last_reported":1712333391,"current_range_meters":5200,"station_id":"ce4bgpp2rcd13ifvqc3g","pricing_plan_id":"cebpf4jnsgd1na2vs0mg"},{"bike_id":"07acefe1-49f9-44ad-8127-bf47d98128c1","system_id":"levelo_inurba_marseille","lat":43.298369,"lon":5.362693,"is_reserved":false,"is_disabled":false,"rental_uris":{"android":"levelo://app?vid=07acefe1-49f9-44ad-8127-bf47d98128c1","ios":"levelo://app?vid=07acefe1-49f9-44ad-8127-bf47d98128c1"},"vehicle_type_id":"4","last_reported":1712333391,"current_range_meters":2000,"station_id":"","pricing_plan_id":"cebpf4jnsgd1na2vs0mg"},{"bike_id":"50374678-5102-4279-a5d2-78dba2b58791","system_id":"levelo_inurba_marseille","lat":43.299243,"lon":5.37481,"is_reserved":false,"is_disabled":false,"rental_uris":{"android":"levelo://app?vid=50374678-5102-4279-a5d2-78dba2b58791","ios":"levelo://app?vid=50374678-5102-4279-a5d2-78dba2b58791"},"vehicle_type_id":"4","last_reported":1712333391,"current_range_meters":0,"station_id":"ce4bgjh2rcd13ifvqbg0","pricing_plan_id":"cebpf4jnsgd1na2vs0mg"},{"bike_id":"3a30b7cf-a2a2-4e14-94ff-2ec60a32291d","system_id":"levelo_inurba_marseille","lat":43.261782,"lon":5.374515,"is_reserved":false,"is_disabled":false,"rental_uris":{"android":"levelo://app?vid=3a30b7cf-a2a2-4e14-94ff-2ec60a32291d","ios":"levelo://app?vid=3a30b7cf-a2a2-4e14-94ff-2ec60a32291d"},"vehicle_type_id":"4","last_reported":1712333391,"current_range_meters":0,"station_id":"ce4bhgp2rcd13ifvqfc0","pricing_plan_id":"cebpf4jnsgd1na2vs0mg"},{"bike_id":"12868420-cd43-4d41-9cd6-9b5eadd40bbb","system_id":"levelo_inurba_marseille","lat":43.322872,"lon":5.382756,"is_reserved":false,"is_disabled":false,"rental_uris":{"android":"levelo://app?vid=12868420-cd43-4d41-9cd6-9b5eadd40bbb","ios":"levelo://app?vid=12868420-cd43-4d41-9cd6-9b5eadd40bbb"},"vehicle_type_id":"4","last_reported":1712333391,"current_range_meters":31200,"station_id":"ce4bhr12rcd13ifvqhqg","pricing_plan_id":"cebpf4jnsgd1na2vs0mg"},{"bike_id":"c78e3508-ec59-44b9-b552-66f435a0864b","system_id":"levelo_inurba_marseille","lat":43.322872,"lon":5.382756,"is_reserved":false,"is_disabled":false,"rental_uris":{"android":"levelo://app?vid=c78e3508-ec59-44b9-b552-66f435a0864b","ios":"levelo://app?vid=c78e3508-ec59-44b9-b552-66f435a0864b"},"vehicle_type_id":"4","last_reported":1712333391,"current_range_meters":30400,"station_id":"ce4bhr12rcd13ifvqhqg","pricing_plan_id":"cebpf4jnsgd1na2vs0mg"},{"bike_id":"75694b1f-938c-4f63-b685-c05c4b3cffb7","system_id":"levelo_inurba_marseille","lat":43.322872,"lon":5.382756,"is_reserved":false,"is_disabled":false,"rental_uris":{"android":"levelo://app?vid=75694b1f-938c-4f63-b685-c05c4b3cffb7","ios":"levelo://app?vid=75694b1f-938c-4f63-b685-c05c4b3cffb7"},"vehicle_type_id":"4","last_reported":1712333391,"current_range_meters":9200,"station_id":"ce4bhr12rcd13ifvqhqg","pricing_plan_id":"cebpf4jnsgd1na2vs0mg"},{"bike_id":"d0090b0b-b7ce-4231-a436-3236929d8028","system_id":"levelo_inurba_marseille","lat":43.323248,"lon":5.382437,"is_reserved":false,"is_disabled":false,"rental_uris":{"android":"levelo://app?vid=d0090b0b-b7ce-4231-a436-3236929d8028","ios":"levelo://app?vid=d0090b0b-b7ce-4231-a436-3236929d8028"},"vehicle_type_id":"4","last_reported":1712333391,"current_range_meters":8400,"station_id":"ce4bhr12rcd13ifvqhqg","pricing_plan_id":"cebpf4jnsgd1na2vs0mg"},{"bike_id":"0f7bf975-4eb4-48eb-b6cf-c04fc010ca6f","system_id":"levelo_inurba_marseille","lat":43.297163,"lon":5.365866,"is_reserved":false,"is_disabled":false,"rental_uris":{"android":"levelo://app?vid=0f7bf975-4eb4-48eb-b6cf-c04fc010ca6f","ios":"levelo://app?vid=0f7bf975-4eb4-48eb-b6cf-c04fc010ca6f"},"vehicle_type_id":"4","last_reported":1712333391,"current_range_meters":7200,"station_id":"ce4bgn12rcd13ifvqbt0","pricing_plan_id":"cebpf4jnsgd1na2vs0mg"},{"bike_id":"a757b133-6f60-43a7-a26c-c01bedb278d7","system_id":"levelo_inurba_marseille","lat":43.29622,"lon":5.37151,"is_reserved":false,"is_disabled":false,"rental_uris":{"android":"levelo://app?vid=a757b133-6f60-43a7-a26c-c01bedb278d7","ios":"levelo://app?vid=a757b133-6f60-43a7-a26c-c01bedb278d7"},"vehicle_type_id":"4","last_reported":1712333391,"current_range_meters":14400,"station_id":"ce4bgnh2rcd13ifvqc0g","pricing_plan_id":"cebpf4jnsgd1na2vs0mg"},{"bike_id":"0fdc4169-9c69-4ebc-87f0-b69005db897e","system_id":"levelo_inurba_marseille","lat":43.29573,"lon":5.367355,"is_reserved":false,"is_disabled":false,"rental_uris":{"android":"levelo://app?vid=0fdc4169-9c69-4ebc-87f0-b69005db897e","ios":"levelo://app?vid=0fdc4169-9c69-4ebc-87f0-b69005db897e"},"vehicle_type_id":"4","last_reported":1712333391,"current_range_meters":9200,"station_id":"ce4bgph2rcd13ifvqc2g","pricing_plan_id":"cebpf4jnsgd1na2vs0mg"},{"bike_id":"f263faa0-f274-4fbf-8cdc-03c0706865bc","system_id":"levelo_inurba_marseille","lat":43.29573,"lon":5.367355,"is_reserved":false,"is_disabled":false,"rental_uris":{"android":"levelo://app?vid=f263faa0-f274-4fbf-8cdc-03c0706865bc","ios":"levelo://app?vid=f263faa0-f274-4fbf-8cdc-03c0706865bc"},"vehicle_type_id":"4","last_reported":1712333391,"current_range_meters":6800,"station_id":"ce4bgph2rcd13ifvqc2g","pricing_plan_id":"cebpf4jnsgd1na2vs0mg"},{"bike_id":"add79c11-1c7e-4022-b133-5837ae978393","system_id":"levelo_inurba_marseille","lat":43.29734,"lon":5.37671,"is_reserved":false,"is_disabled":false,"rental_uris":{"android":"levelo://app?vid=add79c11-1c7e-4022-b133-5837ae978393","ios":"levelo://app?vid=add79c11-1c7e-4022-b133-5837ae978393"},"vehicle_type_id":"4","last_reported":1712333391,"current_range_meters":0,"station_id":"ce4bgkh2rcd13ifvqbl0","pricing_plan_id":"cebpf4jnsgd1na2vs0mg"},{"bike_id":"6975f8fc-8676-4cfd-b4e8-2289992d977f","system_id":"levelo_inurba_marseille","lat":43.29573,"lon":5.367355,"is_reserved":false,"is_disabled":false,"rental_uris":{"android":"levelo://app?vid=6975f8fc-8676-4cfd-b4e8-2289992d977f","ios":"levelo://app?vid=6975f8fc-8676-4cfd-b4e8-2289992d977f"},"vehicle_type_id":"4","last_reported":1712333391,"current_range_meters":2800,"station_id":"ce4bgph2rcd13ifvqc2g","pricing_plan_id":"cebpf4jnsgd1na2vs0mg"},{"bike_id":"5beca9c5-1d56-4a4b-8b99-4e30a5c8ace5","system_id":"levelo_inurba_marseille","lat":43.29919,"lon":5.38132,"is_reserved":false,"is_disabled":false,"rental_uris":{"android":"levelo://app?vid=5beca9c5-1d56-4a4b-8b99-4e30a5c8ace5","ios":"levelo://app?vid=5beca9c5-1d56-4a4b-8b99-4e30a5c8ace5"},"vehicle_type_id":"4","last_reported":1712333391,"current_range_meters":5600,"station_id":"ce4bgj12rcd13ifvqbc0","pricing_plan_id":"cebpf4jnsgd1na2vs0mg"},{"bike_id":"79c7029c-e196-43c2-b823-73d006a8d338","system_id":"levelo_inurba_marseille","lat":43.29573,"lon":5.367355,"is_reserved":false,"is_disabled":false,"rental_uris":{"android":"levelo://app?vid=79c7029c-e196-43c2-b823-73d006a8d338","ios":"levelo://app?vid=79c7029c-e196-43c2-b823-73d006a8d338"},"vehicle_type_id":"4","last_reported":1712333391,"current_range_meters":12000,"station_id":"ce4bgph2rcd13ifvqc2g","pricing_plan_id":"cebpf4jnsgd1na2vs0mg"},{"bike_id":"232f19bc-c447-4548-ad04-74f829ed2e1e","system_id":"levelo_inurba_marseille","lat":43.299028,"lon":5.381509,"is_reserved":false,"is_disabled":false,"rental_uris":{"android":"levelo://app?vid=232f19bc-c447-4548-ad04-74f829ed2e1e","ios":"levelo://app?vid=232f19bc-c447-4548-ad04-74f829ed2e1e"},"vehicle_type_id":"4","last_reported":1712333391,"current_range_meters":7600,"station_id":"ce4bgj12rcd13ifvqbc0","pricing_plan_id":"cebpf4jnsgd1na2vs0mg"},{"bike_id":"af4fc5f2-c176-40f3-99e0-1ae6552e0b82","system_id":"levelo_inurba_marseille","lat":43.299028,"lon":5.381509,"is_reserved":false,"is_disabled":false,"rental_uris":{"android":"levelo://app?vid=af4fc5f2-c176-40f3-99e0-1ae6552e0b82","ios":"levelo://app?vid=af4fc5f2-c176-40f3-99e0-1ae6552e0b82"},"vehicle_type_id":"4","last_reported":1712333391,"current_range_meters":1200,"station_id":"ce4bgj12rcd13ifvqbc0","pricing_plan_id":"cebpf4jnsgd1na2vs0mg"},{"bike_id":"5645d23f-048f-438a-b6f4-89121bc2ad0d","system_id":"levelo_inurba_marseille","lat":43.299028,"lon":5.381509,"is_reserved":false,"is_disabled":false,"rental_uris":{"android":"levelo://app?vid=5645d23f-048f-438a-b6f4-89121bc2ad0d","ios":"levelo://app?vid=5645d23f-048f-438a-b6f4-89121bc2ad0d"},"vehicle_type_id":"4","last_reported":1712333391,"current_range_meters":6400,"station_id":"ce4bgj12rcd13ifvqbc0","pricing_plan_id":"cebpf4jnsgd1na2vs0mg"},{"bike_id":"80fcc4f9-3fc8-4010-879a-fa129fbcced2","system_id":"levelo_inurba_marseille","lat":43.317557,"lon":5.390173,"is_reserved":false,"is_disabled":false,"rental_uris":{"android":"levelo://app?vid=80fcc4f9-3fc8-4010-879a-fa129fbcced2","ios":"levelo://app?vid=80fcc4f9-3fc8-4010-879a-fa129fbcced2"},"vehicle_type_id":"4","last_reported":1712333391,"current_range_meters":23200,"station_id":"ce4bhqp2rcd13ifvqhng","pricing_plan_id":"cebpf4jnsgd1na2vs0mg"},{"bike_id":"3b95d255-179c-41cd-a1ab-d677628cc67e","system_id":"levelo_inurba_marseille","lat":43.31763,"lon":5.39011,"is_reserved":false,"is_disabled":false,"rental_uris":{"android":"levelo://app?vid=3b95d255-179c-41cd-a1ab-d677628cc67e","ios":"levelo://app?vid=3b95d255-179c-41cd-a1ab-d677628cc67e"},"vehicle_type_id":"4","last_reported":1712333391,"current_range_meters":24800,"station_id":"ce4bhqp2rcd13ifvqhng","pricing_plan_id":"cebpf4jnsgd1na2vs0mg"},{"bike_id":"8a10d55c-9650-4b06-9cdc-31a5b43830cb","system_id":"levelo_inurba_marseille","lat":43.31755,"lon":5.39015,"is_reserved":false,"is_disabled":false,"rental_uris":{"android":"levelo://app?vid=8a10d55c-9650-4b06-9cdc-31a5b43830cb","ios":"levelo://app?vid=8a10d55c-9650-4b06-9cdc-31a5b43830cb"},"vehicle_type_id":"4","last_reported":1712333391,"current_range_meters":2000,"station_id":"ce4bhqp2rcd13ifvqhng","pricing_plan_id":"cebpf4jnsgd1na2vs0mg"},{"bike_id":"4c51b4b5-b28f-4328-8fe1-d12db33f7faf","system_id":"levelo_inurba_marseille","lat":43.296921,"lon":5.376579,"is_reserved":false,"is_disabled":false,"rental_uris":{"android":"levelo://app?vid=4c51b4b5-b28f-4328-8fe1-d12db33f7faf","ios":"levelo://app?vid=4c51b4b5-b28f-4328-8fe1-d12db33f7faf"},"vehicle_type_id":"4","last_reported":1712333391,"current_range_meters":0,"station_id":"ce4bgkh2rcd13ifvqbl0","pricing_plan_id":"cebpf4jnsgd1na2vs0mg"},{"bike_id":"e701c539-6ca3-4f07-91b1-2e0b9e6c36cf","system_id":"levelo_inurba_marseille","lat":43.317642,"lon":5.390122,"is_reserved":false,"is_disabled":false,"rental_uris":{"android":"levelo://app?vid=e701c539-6ca3-4f07-91b1-2e0b9e6c36cf","ios":"levelo://app?vid=e701c539-6ca3-4f07-91b1-2e0b9e6c36cf"},"vehicle_type_id":"4","last_reported":1712333391,"current_range_meters":3200,"station_id":"ce4bhqp2rcd13ifvqhng","pricing_plan_id":"cebpf4jnsgd1na2vs0mg"},{"bike_id":"f8b18ce6-bc2b-4adb-8943-b35fb7bb0280","system_id":"levelo_inurba_marseille","lat":43.31759,"lon":5.39018,"is_reserved":false,"is_disabled":false,"rental_uris":{"android":"levelo://app?vid=f8b18ce6-bc2b-4adb-8943-b35fb7bb0280","ios":"levelo://app?vid=f8b18ce6-bc2b-4adb-8943-b35fb7bb0280"},"vehicle_type_id":"4","last_reported":1712333391,"current_range_meters":13600,"station_id":"ce4bhqp2rcd13ifvqhng","pricing_plan_id":"cebpf4jnsgd1na2vs0mg"},{"bike_id":"9fef4695-53a7-4416-87cd-4e604ab087c6","system_id":"levelo_inurba_marseille","lat":43.31757,"lon":5.39019,"is_reserved":false,"is_disabled":false,"rental_uris":{"android":"levelo://app?vid=9fef4695-53a7-4416-87cd-4e604ab087c6","ios":"levelo://app?vid=9fef4695-53a7-4416-87cd-4e604ab087c6"},"vehicle_type_id":"4","last_reported":1712333391,"current_range_meters":7600,"station_id":"ce4bhqp2rcd13ifvqhng","pricing_plan_id":"cebpf4jnsgd1na2vs0mg"},{"bike_id":"d738401d-6743-43f1-9972-dbd118202f9f","system_id":"levelo_inurba_marseille","lat":43.296921,"lon":5.376579,"is_reserved":false,"is_disabled":false,"rental_uris":{"android":"levelo://app?vid=d738401d-6743-43f1-9972-dbd118202f9f","ios":"levelo://app?vid=d738401d-6743-43f1-9972-dbd118202f9f"},"vehicle_type_id":"4","last_reported":1712333391,"current_range_meters":3200,"station_id":"ce4bgkh2rcd13ifvqbl0","pricing_plan_id":"cebpf4jnsgd1na2vs0mg"},{"bike_id":"67872c33-2c4c-469c-8267-b21947187eac","system_id":"levelo_inurba_marseille","lat":43.299028,"lon":5.381509,"is_reserved":false,"is_disabled":false,"rental_uris":{"android":"levelo://app?vid=67872c33-2c4c-469c-8267-b21947187eac","ios":"levelo://app?vid=67872c33-2c4c-469c-8267-b21947187eac"},"vehicle_type_id":"4","last_reported":1712333391,"current_range_meters":1600,"station_id":"ce4bgj12rcd13ifvqbc0","pricing_plan_id":"cebpf4jnsgd1na2vs0mg"},{"bike_id":"7113eebd-d9dc-449f-addf-3023186befc5","system_id":"levelo_inurba_marseille","lat":43.298037,"lon":5.381066,"is_reserved":false,"is_disabled":false,"rental_uris":{"android":"levelo://app?vid=7113eebd-d9dc-449f-addf-3023186befc5","ios":"levelo://app?vid=7113eebd-d9dc-449f-addf-3023186befc5"},"vehicle_type_id":"4","last_reported":1712333391,"current_range_meters":6800,"station_id":"ce4bgip2rcd13ifvqbb0","pricing_plan_id":"cebpf4jnsgd1na2vs0mg"},{"bike_id":"5e67b8a9-ee61-4672-b953-bdb5e1f32762","system_id":"levelo_inurba_marseille","lat":43.29797,"lon":5.38081,"is_reserved":false,"is_disabled":false,"rental_uris":{"android":"levelo://app?vid=5e67b8a9-ee61-4672-b953-bdb5e1f32762","ios":"levelo://app?vid=5e67b8a9-ee61-4672-b953-bdb5e1f32762"},"vehicle_type_id":"4","last_reported":1712333391,"current_range_meters":0,"station_id":"","pricing_plan_id":"cebpf4jnsgd1na2vs0mg"},{"bike_id":"b27c781f-4292-4ce8-a1af-3402326ee1f1","system_id":"levelo_inurba_marseille","lat":43.304274,"lon":5.388873,"is_reserved":false,"is_disabled":false,"rental_uris":{"android":"levelo://app?vid=b27c781f-4292-4ce8-a1af-3402326ee1f1","ios":"levelo://app?vid=b27c781f-4292-4ce8-a1af-3402326ee1f1"},"vehicle_type_id":"4","last_reported":1712333391,"current_range_meters":0,"station_id":"ce4bgk12rcd13ifvqbi0","pricing_plan_id":"cebpf4jnsgd1na2vs0mg"},{"bike_id":"deca4905-071b-4c95-8768-3bfdd2a93e98","system_id":"levelo_inurba_marseille","lat":43.304274,"lon":5.388873,"is_reserved":false,"is_disabled":false,"rental_uris":{"android":"levelo://app?vid=deca4905-071b-4c95-8768-3bfdd2a93e98","ios":"levelo://app?vid=deca4905-071b-4c95-8768-3bfdd2a93e98"},"vehicle_type_id":"4","last_reported":1712333391,"current_range_meters":12800,"station_id":"ce4bgk12rcd13ifvqbi0","pricing_plan_id":"cebpf4jnsgd1na2vs0mg"},{"bike_id":"d941d1db-d7b6-44ff-8203-7a283f872a5c","system_id":"levelo_inurba_marseille","lat":43.29572,"lon":5.37528,"is_reserved":false,"is_disabled":false,"rental_uris":{"android":"levelo://app?vid=d941d1db-d7b6-44ff-8203-7a283f872a5c","ios":"levelo://app?vid=d941d1db-d7b6-44ff-8203-7a283f872a5c"},"vehicle_type_id":"4","last_reported":1712333391,"current_range_meters":13200,"station_id":"ce4bgh92rcd13ifvqb50","pricing_plan_id":"cebpf4jnsgd1na2vs0mg"},{"bike_id":"a70072d9-e863-440f-bec4-b5446975814f","system_id":"levelo_inurba_marseille","lat":43.304274,"lon":5.388873,"is_reserved":false,"is_disabled":false,"rental_uris":{"android":"levelo://app?vid=a70072d9-e863-440f-bec4-b5446975814f","ios":"levelo://app?vid=a70072d9-e863-440f-bec4-b5446975814f"},"vehicle_type_id":"4","last_reported":1712333391,"current_range_meters":6800,"station_id":"ce4bgk12rcd13ifvqbi0","pricing_plan_id":"cebpf4jnsgd1na2vs0mg"},{"bike_id":"3f6f0a36-c9c7-4b10-b7fa-8bfddde50956","system_id":"levelo_inurba_marseille","lat":43.304278,"lon":5.388868,"is_reserved":false,"is_disabled":false,"rental_uris":{"android":"levelo://app?vid=3f6f0a36-c9c7-4b10-b7fa-8bfddde50956","ios":"levelo://app?vid=3f6f0a36-c9c7-4b10-b7fa-8bfddde50956"},"vehicle_type_id":"4","last_reported":1712333391,"current_range_meters":2000,"station_id":"ce4bgk12rcd13ifvqbi0","pricing_plan_id":"cebpf4jnsgd1na2vs0mg"},{"bike_id":"f73c75bd-d1a4-4ecc-8e1b-3635eb4a1f2c","system_id":"levelo_inurba_marseille","lat":43.29565,"lon":5.37513,"is_reserved":false,"is_disabled":false,"rental_uris":{"android":"levelo://app?vid=f73c75bd-d1a4-4ecc-8e1b-3635eb4a1f2c","ios":"levelo://app?vid=f73c75bd-d1a4-4ecc-8e1b-3635eb4a1f2c"},"vehicle_type_id":"4","last_reported":1712333391,"current_range_meters":800,"station_id":"","pricing_plan_id":"cebpf4jnsgd1na2vs0mg"},{"bike_id":"c9265393-73a8-42f6-8d54-3bde71d76fc1","system_id":"levelo_inurba_marseille","lat":43.296277,"lon":5.377108,"is_reserved":false,"is_disabled":false,"rental_uris":{"android":"levelo://app?vid=c9265393-73a8-42f6-8d54-3bde71d76fc1","ios":"levelo://app?vid=c9265393-73a8-42f6-8d54-3bde71d76fc1"},"vehicle_type_id":"4","last_reported":1712333391,"current_range_meters":21600,"station_id":"ce4bgi92rcd13ifvqb90","pricing_plan_id":"cebpf4jnsgd1na2vs0mg"},{"bike_id":"be055600-5605-45d8-bcb8-7c7aba215d61","system_id":"levelo_inurba_marseille","lat":43.298037,"lon":5.381066,"is_reserved":false,"is_disabled":false,"rental_uris":{"android":"levelo://app?vid=be055600-5605-45d8-bcb8-7c7aba215d61","ios":"levelo://app?vid=be055600-5605-45d8-bcb8-7c7aba215d61"},"vehicle_type_id":"4","last_reported":1712333391,"current_range_meters":17600,"station_id":"ce4bgip2rcd13ifvqbb0","pricing_plan_id":"cebpf4jnsgd1na2vs0mg"},{"bike_id":"f1d83dc6-e1d9-4679-8ec9-e1bfe42bd29a","system_id":"levelo_inurba_marseille","lat":43.280382,"lon":5.369291,"is_reserved":false,"is_disabled":false,"rental_uris":{"android":"levelo://app?vid=f1d83dc6-e1d9-4679-8ec9-e1bfe42bd29a","ios":"levelo://app?vid=f1d83dc6-e1d9-4679-8ec9-e1bfe42bd29a"},"vehicle_type_id":"4","last_reported":1712333391,"current_range_meters":3600,"station_id":"ce4bha12rcd13ifvqef0","pricing_plan_id":"cebpf4jnsgd1na2vs0mg"},{"bike_id":"4ae13d76-0a27-42fe-9358-5b284280186a","system_id":"levelo_inurba_marseille","lat":43.296277,"lon":5.377108,"is_reserved":false,"is_disabled":false,"rental_uris":{"android":"levelo://app?vid=4ae13d76-0a27-42fe-9358-5b284280186a","ios":"levelo://app?vid=4ae13d76-0a27-42fe-9358-5b284280186a"},"vehicle_type_id":"4","last_reported":1712333391,"current_range_meters":0,"station_id":"ce4bgi92rcd13ifvqb90","pricing_plan_id":"cebpf4jnsgd1na2vs0mg"},{"bike_id":"cc28463c-adbe-4904-a2d5-4cd403a320ec","system_id":"levelo_inurba_marseille","lat":43.295169,"lon":5.390426,"is_reserved":false,"is_disabled":false,"rental_uris":{"android":"levelo://app?vid=cc28463c-adbe-4904-a2d5-4cd403a320ec","ios":"levelo://app?vid=cc28463c-adbe-4904-a2d5-4cd403a320ec"},"vehicle_type_id":"4","last_reported":1712333391,"current_range_meters":0,"station_id":"ce4bh3p2rcd13ifvqdp0","pricing_plan_id":"cebpf4jnsgd1na2vs0mg"},{"bike_id":"7bed1da9-ef9e-475f-9057-59049f5f517e","system_id":"levelo_inurba_marseille","lat":43.2962,"lon":5.37723,"is_reserved":false,"is_disabled":false,"rental_uris":{"android":"levelo://app?vid=7bed1da9-ef9e-475f-9057-59049f5f517e","ios":"levelo://app?vid=7bed1da9-ef9e-475f-9057-59049f5f517e"},"vehicle_type_id":"4","last_reported":1712333391,"current_range_meters":0,"station_id":"ce4bgi92rcd13ifvqb90","pricing_plan_id":"cebpf4jnsgd1na2vs0mg"},{"bike_id":"995b7b39-81db-4aeb-b9e1-3fe708d6f93c","system_id":"levelo_inurba_marseille","lat":43.296263,"lon":5.377094,"is_reserved":false,"is_disabled":false,"rental_uris":{"android":"levelo://app?vid=995b7b39-81db-4aeb-b9e1-3fe708d6f93c","ios":"levelo://app?vid=995b7b39-81db-4aeb-b9e1-3fe708d6f93c"},"vehicle_type_id":"4","last_reported":1712333391,"current_range_meters":18000,"station_id":"ce4bgi92rcd13ifvqb90","pricing_plan_id":"cebpf4jnsgd1na2vs0mg"},{"bike_id":"630d4487-d587-4ca9-83cf-ba24f9d885db","system_id":"levelo_inurba_marseille","lat":43.29543,"lon":5.37508,"is_reserved":false,"is_disabled":false,"rental_uris":{"android":"levelo://app?vid=630d4487-d587-4ca9-83cf-ba24f9d885db","ios":"levelo://app?vid=630d4487-d587-4ca9-83cf-ba24f9d885db"},"vehicle_type_id":"4","last_reported":1712333391,"current_range_meters":0,"station_id":"ce4bgkp2rcd13ifvqbmg","pricing_plan_id":"cebpf4jnsgd1na2vs0mg"},{"bike_id":"859d1639-f6ed-46ea-8b1a-f9a189ec8a90","system_id":"levelo_inurba_marseille","lat":43.299717,"lon":5.384845,"is_reserved":false,"is_disabled":false,"rental_uris":{"android":"levelo://app?vid=859d1639-f6ed-46ea-8b1a-f9a189ec8a90","ios":"levelo://app?vid=859d1639-f6ed-46ea-8b1a-f9a189ec8a90"},"vehicle_type_id":"4","last_reported":1712333391,"current_range_meters":3600,"station_id":"ce4bgj92rcd13ifvqbd0","pricing_plan_id":"cebpf4jnsgd1na2vs0mg"},{"bike_id":"ddabefda-6b23-40fa-baea-5f53fa6099dd","system_id":"levelo_inurba_marseille","lat":43.292005,"lon":5.357875,"is_reserved":false,"is_disabled":false,"rental_uris":{"android":"levelo://app?vid=ddabefda-6b23-40fa-baea-5f53fa6099dd","ios":"levelo://app?vid=ddabefda-6b23-40fa-baea-5f53fa6099dd"},"vehicle_type_id":"4","last_reported":1712333391,"current_range_meters":20800,"station_id":"ce4bhb12rcd13ifvqel0","pricing_plan_id":"cebpf4jnsgd1na2vs0mg"},{"bike_id":"515739eb-d456-4420-b940-bfe37c2573e9","system_id":"levelo_inurba_marseille","lat":43.287184,"lon":5.37937,"is_reserved":false,"is_disabled":false,"rental_uris":{"android":"levelo://app?vid=515739eb-d456-4420-b940-bfe37c2573e9","ios":"levelo://app?vid=515739eb-d456-4420-b940-bfe37c2573e9"},"vehicle_type_id":"4","last_reported":1712333391,"current_range_meters":12000,"station_id":"ce4bh9p2rcd13ifvqec0","pricing_plan_id":"cebpf4jnsgd1na2vs0mg"},{"bike_id":"198f4686-ced4-4020-b287-fed995b54800","system_id":"levelo_inurba_marseille","lat":43.323574,"lon":5.38877,"is_reserved":false,"is_disabled":false,"rental_uris":{"android":"levelo://app?vid=198f4686-ced4-4020-b287-fed995b54800","ios":"levelo://app?vid=198f4686-ced4-4020-b287-fed995b54800"},"vehicle_type_id":"4","last_reported":1712333391,"current_range_meters":8800,"station_id":"ce4bhqp2rcd13ifvqhog","pricing_plan_id":"cebpf4jnsgd1na2vs0mg"},{"bike_id":"6764966f-cefe-4fca-bf3c-8aca491660ab","system_id":"levelo_inurba_marseille","lat":43.323592,"lon":5.388788,"is_reserved":false,"is_disabled":false,"rental_uris":{"android":"levelo://app?vid=6764966f-cefe-4fca-bf3c-8aca491660ab","ios":"levelo://app?vid=6764966f-cefe-4fca-bf3c-8aca491660ab"},"vehicle_type_id":"4","last_reported":1712333391,"current_range_meters":2800,"station_id":"ce4bhqp2rcd13ifvqhog","pricing_plan_id":"cebpf4jnsgd1na2vs0mg"},{"bike_id":"c5ed90dd-85d0-4191-b4fa-f5b81de4b1cc","system_id":"levelo_inurba_marseille","lat":43.32372,"lon":5.38878,"is_reserved":false,"is_disabled":false,"rental_uris":{"android":"levelo://app?vid=c5ed90dd-85d0-4191-b4fa-f5b81de4b1cc","ios":"levelo://app?vid=c5ed90dd-85d0-4191-b4fa-f5b81de4b1cc"},"vehicle_type_id":"4","last_reported":1712333391,"current_range_meters":6400,"station_id":"ce4bhqp2rcd13ifvqhog","pricing_plan_id":"cebpf4jnsgd1na2vs0mg"},{"bike_id":"bee4723c-8c5f-4aec-809e-2c4c31351fd7","system_id":"levelo_inurba_marseille","lat":43.32364,"lon":5.38887,"is_reserved":false,"is_disabled":false,"rental_uris":{"android":"levelo://app?vid=bee4723c-8c5f-4aec-809e-2c4c31351fd7","ios":"levelo://app?vid=bee4723c-8c5f-4aec-809e-2c4c31351fd7"},"vehicle_type_id":"4","last_reported":1712333391,"current_range_meters":3600,"station_id":"ce4bhqp2rcd13ifvqhog","pricing_plan_id":"cebpf4jnsgd1na2vs0mg"},{"bike_id":"b9f145ce-647f-4be7-9520-872e8c16a474","system_id":"levelo_inurba_marseille","lat":43.323679,"lon":5.388849,"is_reserved":false,"is_disabled":false,"rental_uris":{"android":"levelo://app?vid=b9f145ce-647f-4be7-9520-872e8c16a474","ios":"levelo://app?vid=b9f145ce-647f-4be7-9520-872e8c16a474"},"vehicle_type_id":"4","last_reported":1712333391,"current_range_meters":0,"station_id":"ce4bhqp2rcd13ifvqhog","pricing_plan_id":"cebpf4jnsgd1na2vs0mg"},{"bike_id":"efbc3f29-5f0d-4fdd-a699-a12f1a6ff0fa","system_id":"levelo_inurba_marseille","lat":43.32369,"lon":5.38884,"is_reserved":false,"is_disabled":false,"rental_uris":{"android":"levelo://app?vid=efbc3f29-5f0d-4fdd-a699-a12f1a6ff0fa","ios":"levelo://app?vid=efbc3f29-5f0d-4fdd-a699-a12f1a6ff0fa"},"vehicle_type_id":"4","last_reported":1712333391,"current_range_meters":800,"station_id":"ce4bhqp2rcd13ifvqhog","pricing_plan_id":"cebpf4jnsgd1na2vs0mg"},{"bike_id":"a06f7b38-fa9d-4ada-a6a5-ba169083b304","system_id":"levelo_inurba_marseille","lat":43.293851,"lon":5.374022,"is_reserved":false,"is_disabled":false,"rental_uris":{"android":"levelo://app?vid=a06f7b38-fa9d-4ada-a6a5-ba169083b304","ios":"levelo://app?vid=a06f7b38-fa9d-4ada-a6a5-ba169083b304"},"vehicle_type_id":"4","last_reported":1712333391,"current_range_meters":4800,"station_id":"ce4bgi12rcd13ifvqb70","pricing_plan_id":"cebpf4jnsgd1na2vs0mg"},{"bike_id":"84c9f918-9f43-4144-aa3c-cf0dbba747ba","system_id":"levelo_inurba_marseille","lat":43.29602,"lon":5.381084,"is_reserved":false,"is_disabled":false,"rental_uris":{"android":"levelo://app?vid=84c9f918-9f43-4144-aa3c-cf0dbba747ba","ios":"levelo://app?vid=84c9f918-9f43-4144-aa3c-cf0dbba747ba"},"vehicle_type_id":"4","last_reported":1712333391,"current_range_meters":12400,"station_id":"ce4bgl12rcd13ifvqbo0","pricing_plan_id":"cebpf4jnsgd1na2vs0mg"},{"bike_id":"f1bfb235-bfa6-4df2-a5fe-3964902beb98","system_id":"levelo_inurba_marseille","lat":43.29597,"lon":5.381,"is_reserved":false,"is_disabled":false,"rental_uris":{"android":"levelo://app?vid=f1bfb235-bfa6-4df2-a5fe-3964902beb98","ios":"levelo://app?vid=f1bfb235-bfa6-4df2-a5fe-3964902beb98"},"vehicle_type_id":"4","last_reported":1712333391,"current_range_meters":0,"station_id":"ce4bgl12rcd13ifvqbo0","pricing_plan_id":"cebpf4jnsgd1na2vs0mg"},{"bike_id":"acb2cd65-4d04-4427-b4d9-2c840657bc9b","system_id":"levelo_inurba_marseille","lat":43.29602,"lon":5.381084,"is_reserved":false,"is_disabled":false,"rental_uris":{"android":"levelo://app?vid=acb2cd65-4d04-4427-b4d9-2c840657bc9b","ios":"levelo://app?vid=acb2cd65-4d04-4427-b4d9-2c840657bc9b"},"vehicle_type_id":"4","last_reported":1712333391,"current_range_meters":4000,"station_id":"ce4bgl12rcd13ifvqbo0","pricing_plan_id":"cebpf4jnsgd1na2vs0mg"},{"bike_id":"38d761f8-9eaa-42f5-be76-b1d461b5dd62","system_id":"levelo_inurba_marseille","lat":43.292749,"lon":5.368402,"is_reserved":false,"is_disabled":false,"rental_uris":{"android":"levelo://app?vid=38d761f8-9eaa-42f5-be76-b1d461b5dd62","ios":"levelo://app?vid=38d761f8-9eaa-42f5-be76-b1d461b5dd62"},"vehicle_type_id":"4","last_reported":1712333391,"current_range_meters":10800,"station_id":"ce4bhbp2rcd13ifvqesg","pricing_plan_id":"cebpf4jnsgd1na2vs0mg"},{"bike_id":"014df9ef-a8e1-48cb-aeb4-271ed66a1b33","system_id":"levelo_inurba_marseille","lat":43.292749,"lon":5.368402,"is_reserved":false,"is_disabled":false,"rental_uris":{"android":"levelo://app?vid=014df9ef-a8e1-48cb-aeb4-271ed66a1b33","ios":"levelo://app?vid=014df9ef-a8e1-48cb-aeb4-271ed66a1b33"},"vehicle_type_id":"4","last_reported":1712333391,"current_range_meters":0,"station_id":"ce4bhbp2rcd13ifvqesg","pricing_plan_id":"cebpf4jnsgd1na2vs0mg"},{"bike_id":"c8839a4e-993d-46fd-b317-949fe44ce4ac","system_id":"levelo_inurba_marseille","lat":43.292749,"lon":5.368402,"is_reserved":false,"is_disabled":false,"rental_uris":{"android":"levelo://app?vid=c8839a4e-993d-46fd-b317-949fe44ce4ac","ios":"levelo://app?vid=c8839a4e-993d-46fd-b317-949fe44ce4ac"},"vehicle_type_id":"4","last_reported":1712333391,"current_range_meters":14400,"station_id":"ce4bhbp2rcd13ifvqesg","pricing_plan_id":"cebpf4jnsgd1na2vs0mg"},{"bike_id":"5aff3b02-d05d-41ff-bd8a-6f4d52714ee8","system_id":"levelo_inurba_marseille","lat":43.293259,"lon":5.371586,"is_reserved":false,"is_disabled":false,"rental_uris":{"android":"levelo://app?vid=5aff3b02-d05d-41ff-bd8a-6f4d52714ee8","ios":"levelo://app?vid=5aff3b02-d05d-41ff-bd8a-6f4d52714ee8"},"vehicle_type_id":"4","last_reported":1712333391,"current_range_meters":15200,"station_id":"ce4bgh92rcd13ifvqb40","pricing_plan_id":"cebpf4jnsgd1na2vs0mg"},{"bike_id":"b897fbec-bfff-433e-971e-56aa35861477","system_id":"levelo_inurba_marseille","lat":43.293,"lon":5.37181,"is_reserved":false,"is_disabled":false,"rental_uris":{"android":"levelo://app?vid=b897fbec-bfff-433e-971e-56aa35861477","ios":"levelo://app?vid=b897fbec-bfff-433e-971e-56aa35861477"},"vehicle_type_id":"4","last_reported":1712333391,"current_range_meters":13200,"station_id":"ce4bgh92rcd13ifvqb40","pricing_plan_id":"cebpf4jnsgd1na2vs0mg"},{"bike_id":"09efe571-b99d-4b53-85fd-b7bedff582fa","system_id":"levelo_inurba_marseille","lat":43.285856,"lon":5.350771,"is_reserved":false,"is_disabled":false,"rental_uris":{"android":"levelo://app?vid=09efe571-b99d-4b53-85fd-b7bedff582fa","ios":"levelo://app?vid=09efe571-b99d-4b53-85fd-b7bedff582fa"},"vehicle_type_id":"4","last_reported":1712333391,"current_range_meters":9200,"station_id":"ce4bhch2rcd13ifvqeug","pricing_plan_id":"cebpf4jnsgd1na2vs0mg"},{"bike_id":"b364bc11-1838-4825-be9a-96cc5ab2dd76","system_id":"levelo_inurba_marseille","lat":43.293009,"lon":5.374584,"is_reserved":false,"is_disabled":false,"rental_uris":{"android":"levelo://app?vid=b364bc11-1838-4825-be9a-96cc5ab2dd76","ios":"levelo://app?vid=b364bc11-1838-4825-be9a-96cc5ab2dd76"},"vehicle_type_id":"4","last_reported":1712333391,"current_range_meters":8800,"station_id":"ce4bgi12rcd13ifvqb70","pricing_plan_id":"cebpf4jnsgd1na2vs0mg"},{"bike_id":"d4c52ab7-fb5b-4c1f-82bf-8d227faba5bd","system_id":"levelo_inurba_marseille","lat":43.302992,"lon":5.392136,"is_reserved":false,"is_disabled":false,"rental_uris":{"android":"levelo://app?vid=d4c52ab7-fb5b-4c1f-82bf-8d227faba5bd","ios":"levelo://app?vid=d4c52ab7-fb5b-4c1f-82bf-8d227faba5bd"},"vehicle_type_id":"4","last_reported":1712333391,"current_range_meters":22000,"station_id":"ce4bgkh2rcd13ifvqbk0","pricing_plan_id":"cebpf4jnsgd1na2vs0mg"},{"bike_id":"19fad47d-5e9a-4c40-9bcf-ea5a13dc2e4e","system_id":"levelo_inurba_marseille","lat":43.292311,"lon":5.360731,"is_reserved":false,"is_disabled":false,"rental_uris":{"android":"levelo://app?vid=19fad47d-5e9a-4c40-9bcf-ea5a13dc2e4e","ios":"levelo://app?vid=19fad47d-5e9a-4c40-9bcf-ea5a13dc2e4e"},"vehicle_type_id":"4","last_reported":1712333391,"current_range_meters":22000,"station_id":"ce4bhbh2rcd13ifvqeqg","pricing_plan_id":"cebpf4jnsgd1na2vs0mg"},{"bike_id":"444ad92a-f39d-4a78-81c2-b2d53dcf642a","system_id":"levelo_inurba_marseille","lat":43.302992,"lon":5.392136,"is_reserved":false,"is_disabled":false,"rental_uris":{"android":"levelo://app?vid=444ad92a-f39d-4a78-81c2-b2d53dcf642a","ios":"levelo://app?vid=444ad92a-f39d-4a78-81c2-b2d53dcf642a"},"vehicle_type_id":"4","last_reported":1712333391,"current_range_meters":0,"station_id":"ce4bgkh2rcd13ifvqbk0","pricing_plan_id":"cebpf4jnsgd1na2vs0mg"},{"bike_id":"a657fd6f-84bf-4d83-a28f-19e87dd7e975","system_id":"levelo_inurba_marseille","lat":43.30085,"lon":5.390856,"is_reserved":false,"is_disabled":false,"rental_uris":{"android":"levelo://app?vid=a657fd6f-84bf-4d83-a28f-19e87dd7e975","ios":"levelo://app?vid=a657fd6f-84bf-4d83-a28f-19e87dd7e975"},"vehicle_type_id":"4","last_reported":1712333391,"current_range_meters":13600,"station_id":"ce4bh192rcd13ifvqdb0","pricing_plan_id":"cebpf4jnsgd1na2vs0mg"},{"bike_id":"64d60272-0482-4ec0-9c4a-79d9d7f1639c","system_id":"levelo_inurba_marseille","lat":43.261782,"lon":5.374515,"is_reserved":false,"is_disabled":false,"rental_uris":{"android":"levelo://app?vid=64d60272-0482-4ec0-9c4a-79d9d7f1639c","ios":"levelo://app?vid=64d60272-0482-4ec0-9c4a-79d9d7f1639c"},"vehicle_type_id":"4","last_reported":1712333391,"current_range_meters":11600,"station_id":"ce4bhgp2rcd13ifvqfc0","pricing_plan_id":"cebpf4jnsgd1na2vs0mg"},{"bike_id":"355e60a6-c74f-492b-a6dc-366551afc6ae","system_id":"levelo_inurba_marseille","lat":43.29233,"lon":5.36044,"is_reserved":false,"is_disabled":false,"rental_uris":{"android":"levelo://app?vid=355e60a6-c74f-492b-a6dc-366551afc6ae","ios":"levelo://app?vid=355e60a6-c74f-492b-a6dc-366551afc6ae"},"vehicle_type_id":"4","last_reported":1712333391,"current_range_meters":0,"station_id":"ce4bhbh2rcd13ifvqeqg","pricing_plan_id":"cebpf4jnsgd1na2vs0mg"},{"bike_id":"622e7eee-72f6-4599-80af-2a36d19f497b","system_id":"levelo_inurba_marseille","lat":43.292311,"lon":5.360731,"is_reserved":false,"is_disabled":false,"rental_uris":{"android":"levelo://app?vid=622e7eee-72f6-4599-80af-2a36d19f497b","ios":"levelo://app?vid=622e7eee-72f6-4599-80af-2a36d19f497b"},"vehicle_type_id":"4","last_reported":1712333391,"current_range_meters":2000,"station_id":"ce4bhbh2rcd13ifvqeqg","pricing_plan_id":"cebpf4jnsgd1na2vs0mg"},{"bike_id":"012ca846-5d31-4df9-8b98-1f5633f35a94","system_id":"levelo_inurba_marseille","lat":43.30087,"lon":5.39069,"is_reserved":false,"is_disabled":false,"rental_uris":{"android":"levelo://app?vid=012ca846-5d31-4df9-8b98-1f5633f35a94","ios":"levelo://app?vid=012ca846-5d31-4df9-8b98-1f5633f35a94"},"vehicle_type_id":"4","last_reported":1712333391,"current_range_meters":10800,"station_id":"ce4bh192rcd13ifvqdb0","pricing_plan_id":"cebpf4jnsgd1na2vs0mg"},{"bike_id":"fee91e7d-df89-4851-9deb-ba4e15331058","system_id":"levelo_inurba_marseille","lat":43.30085,"lon":5.390856,"is_reserved":false,"is_disabled":false,"rental_uris":{"android":"levelo://app?vid=fee91e7d-df89-4851-9deb-ba4e15331058","ios":"levelo://app?vid=fee91e7d-df89-4851-9deb-ba4e15331058"},"vehicle_type_id":"4","last_reported":1712333391,"current_range_meters":17600,"station_id":"ce4bh192rcd13ifvqdb0","pricing_plan_id":"cebpf4jnsgd1na2vs0mg"},{"bike_id":"03621adb-9d1d-40c3-ac62-7f0724eb0670","system_id":"levelo_inurba_marseille","lat":43.300852,"lon":5.390859,"is_reserved":false,"is_disabled":false,"rental_uris":{"android":"levelo://app?vid=03621adb-9d1d-40c3-ac62-7f0724eb0670","ios":"levelo://app?vid=03621adb-9d1d-40c3-ac62-7f0724eb0670"},"vehicle_type_id":"4","last_reported":1712333391,"current_range_meters":0,"station_id":"ce4bh192rcd13ifvqdb0","pricing_plan_id":"cebpf4jnsgd1na2vs0mg"},{"bike_id":"6ce4bb7d-37ff-48ee-a868-eef6e47b097c","system_id":"levelo_inurba_marseille","lat":43.300852,"lon":5.390859,"is_reserved":false,"is_disabled":false,"rental_uris":{"android":"levelo://app?vid=6ce4bb7d-37ff-48ee-a868-eef6e47b097c","ios":"levelo://app?vid=6ce4bb7d-37ff-48ee-a868-eef6e47b097c"},"vehicle_type_id":"4","last_reported":1712333391,"current_range_meters":6000,"station_id":"ce4bh192rcd13ifvqdb0","pricing_plan_id":"cebpf4jnsgd1na2vs0mg"},{"bike_id":"65336612-ddf0-4b13-8517-18293ee18cfb","system_id":"levelo_inurba_marseille","lat":43.296263,"lon":5.377094,"is_reserved":false,"is_disabled":false,"rental_uris":{"android":"levelo://app?vid=65336612-ddf0-4b13-8517-18293ee18cfb","ios":"levelo://app?vid=65336612-ddf0-4b13-8517-18293ee18cfb"},"vehicle_type_id":"4","last_reported":1712333391,"current_range_meters":0,"station_id":"ce4bgi92rcd13ifvqb90","pricing_plan_id":"cebpf4jnsgd1na2vs0mg"},{"bike_id":"53ddae83-0e2f-4728-b512-62d3644dd671","system_id":"levelo_inurba_marseille","lat":43.298764,"lon":5.388973,"is_reserved":false,"is_disabled":false,"rental_uris":{"android":"levelo://app?vid=53ddae83-0e2f-4728-b512-62d3644dd671","ios":"levelo://app?vid=53ddae83-0e2f-4728-b512-62d3644dd671"},"vehicle_type_id":"4","last_reported":1712333391,"current_range_meters":8000,"station_id":"ce4bh392rcd13ifvqdl0","pricing_plan_id":"cebpf4jnsgd1na2vs0mg"},{"bike_id":"fc79faf4-cf3f-4223-a4f8-0904b736aece","system_id":"levelo_inurba_marseille","lat":43.30085,"lon":5.390856,"is_reserved":false,"is_disabled":false,"rental_uris":{"android":"levelo://app?vid=fc79faf4-cf3f-4223-a4f8-0904b736aece","ios":"levelo://app?vid=fc79faf4-cf3f-4223-a4f8-0904b736aece"},"vehicle_type_id":"4","last_reported":1712333391,"current_range_meters":24800,"station_id":"ce4bh192rcd13ifvqdb0","pricing_plan_id":"cebpf4jnsgd1na2vs0mg"},{"bike_id":"71cc56c8-4fe0-47ea-ba00-c291189aae38","system_id":"levelo_inurba_marseille","lat":43.289307,"lon":5.38406,"is_reserved":false,"is_disabled":false,"rental_uris":{"android":"levelo://app?vid=71cc56c8-4fe0-47ea-ba00-c291189aae38","ios":"levelo://app?vid=71cc56c8-4fe0-47ea-ba00-c291189aae38"},"vehicle_type_id":"4","last_reported":1712333391,"current_range_meters":17200,"station_id":"ce4bh612rcd13ifvqe6g","pricing_plan_id":"cebpf4jnsgd1na2vs0mg"},{"bike_id":"96743874-0d43-46f7-a155-201723621ec3","system_id":"levelo_inurba_marseille","lat":43.291675,"lon":5.371583,"is_reserved":false,"is_disabled":false,"rental_uris":{"android":"levelo://app?vid=96743874-0d43-46f7-a155-201723621ec3","ios":"levelo://app?vid=96743874-0d43-46f7-a155-201723621ec3"},"vehicle_type_id":"4","last_reported":1712333391,"current_range_meters":10400,"station_id":"ce4bha92rcd13ifvqeh0","pricing_plan_id":"cebpf4jnsgd1na2vs0mg"},{"bike_id":"d6b382ec-634d-45d5-9e22-9cbb790b3e7e","system_id":"levelo_inurba_marseille","lat":43.292005,"lon":5.357875,"is_reserved":false,"is_disabled":false,"rental_uris":{"android":"levelo://app?vid=d6b382ec-634d-45d5-9e22-9cbb790b3e7e","ios":"levelo://app?vid=d6b382ec-634d-45d5-9e22-9cbb790b3e7e"},"vehicle_type_id":"4","last_reported":1712333391,"current_range_meters":31600,"station_id":"ce4bhb12rcd13ifvqel0","pricing_plan_id":"cebpf4jnsgd1na2vs0mg"},{"bike_id":"5a4878b9-510c-44b7-9f65-5d95249fdfca","system_id":"levelo_inurba_marseille","lat":43.2919,"lon":5.35798,"is_reserved":false,"is_disabled":false,"rental_uris":{"android":"levelo://app?vid=5a4878b9-510c-44b7-9f65-5d95249fdfca","ios":"levelo://app?vid=5a4878b9-510c-44b7-9f65-5d95249fdfca"},"vehicle_type_id":"4","last_reported":1712333391,"current_range_meters":0,"station_id":"ce4bhb12rcd13ifvqel0","pricing_plan_id":"cebpf4jnsgd1na2vs0mg"},{"bike_id":"c22a9cef-e469-44a7-8e83-69daa4694564","system_id":"levelo_inurba_marseille","lat":43.313291,"lon":5.396838,"is_reserved":false,"is_disabled":false,"rental_uris":{"android":"levelo://app?vid=c22a9cef-e469-44a7-8e83-69daa4694564","ios":"levelo://app?vid=c22a9cef-e469-44a7-8e83-69daa4694564"},"vehicle_type_id":"4","last_reported":1712333391,"current_range_meters":1600,"station_id":"ce4bgvp2rcd13ifvqcu0","pricing_plan_id":"cebpf4jnsgd1na2vs0mg"},{"bike_id":"b9aa60cd-0b8a-456c-ad7c-7a58ae6e7658","system_id":"levelo_inurba_marseille","lat":43.313291,"lon":5.396838,"is_reserved":false,"is_disabled":false,"rental_uris":{"android":"levelo://app?vid=b9aa60cd-0b8a-456c-ad7c-7a58ae6e7658","ios":"levelo://app?vid=b9aa60cd-0b8a-456c-ad7c-7a58ae6e7658"},"vehicle_type_id":"4","last_reported":1712333391,"current_range_meters":1600,"station_id":"ce4bgvp2rcd13ifvqcu0","pricing_plan_id":"cebpf4jnsgd1na2vs0mg"},{"bike_id":"da6e8120-c929-4080-9629-f1bd88e56e43","system_id":"levelo_inurba_marseille","lat":43.309038,"lon":5.396546,"is_reserved":false,"is_disabled":false,"rental_uris":{"android":"levelo://app?vid=da6e8120-c929-4080-9629-f1bd88e56e43","ios":"levelo://app?vid=da6e8120-c929-4080-9629-f1bd88e56e43"},"vehicle_type_id":"4","last_reported":1712333391,"current_range_meters":0,"station_id":"ce4bh012rcd13ifvqcv0","pricing_plan_id":"cebpf4jnsgd1na2vs0mg"},{"bike_id":"5efb1ceb-6872-495b-8d52-21f1dac9a5e8","system_id":"levelo_inurba_marseille","lat":43.313291,"lon":5.396838,"is_reserved":false,"is_disabled":false,"rental_uris":{"android":"levelo://app?vid=5efb1ceb-6872-495b-8d52-21f1dac9a5e8","ios":"levelo://app?vid=5efb1ceb-6872-495b-8d52-21f1dac9a5e8"},"vehicle_type_id":"4","last_reported":1712333391,"current_range_meters":9200,"station_id":"ce4bgvp2rcd13ifvqcu0","pricing_plan_id":"cebpf4jnsgd1na2vs0mg"},{"bike_id":"b30e6375-b376-4985-b020-e5fed90fc04c","system_id":"levelo_inurba_marseille","lat":43.309038,"lon":5.396546,"is_reserved":false,"is_disabled":false,"rental_uris":{"android":"levelo://app?vid=b30e6375-b376-4985-b020-e5fed90fc04c","ios":"levelo://app?vid=b30e6375-b376-4985-b020-e5fed90fc04c"},"vehicle_type_id":"4","last_reported":1712333391,"current_range_meters":14400,"station_id":"ce4bh012rcd13ifvqcv0","pricing_plan_id":"cebpf4jnsgd1na2vs0mg"},{"bike_id":"b206e8b3-624f-4e2e-b8fb-9e74e8fc32a4","system_id":"levelo_inurba_marseille","lat":43.309047,"lon":5.396551,"is_reserved":false,"is_disabled":false,"rental_uris":{"android":"levelo://app?vid=b206e8b3-624f-4e2e-b8fb-9e74e8fc32a4","ios":"levelo://app?vid=b206e8b3-624f-4e2e-b8fb-9e74e8fc32a4"},"vehicle_type_id":"4","last_reported":1712333391,"current_range_meters":0,"station_id":"ce4bh012rcd13ifvqcv0","pricing_plan_id":"cebpf4jnsgd1na2vs0mg"},{"bike_id":"46479f8c-8313-4c8a-91c1-ccb5a4aa6dc2","system_id":"levelo_inurba_marseille","lat":43.29533,"lon":5.38538,"is_reserved":false,"is_disabled":false,"rental_uris":{"android":"levelo://app?vid=46479f8c-8313-4c8a-91c1-ccb5a4aa6dc2","ios":"levelo://app?vid=46479f8c-8313-4c8a-91c1-ccb5a4aa6dc2"},"vehicle_type_id":"4","last_reported":1712333391,"current_range_meters":800,"station_id":"ce4bgih2rcd13ifvqba0","pricing_plan_id":"cebpf4jnsgd1na2vs0mg"},{"bike_id":"4b3ddf0b-75ec-4a44-8f5f-634d3c5342be","system_id":"levelo_inurba_marseille","lat":43.29529,"lon":5.385581,"is_reserved":false,"is_disabled":false,"rental_uris":{"android":"levelo://app?vid=4b3ddf0b-75ec-4a44-8f5f-634d3c5342be","ios":"levelo://app?vid=4b3ddf0b-75ec-4a44-8f5f-634d3c5342be"},"vehicle_type_id":"4","last_reported":1712333391,"current_range_meters":0,"station_id":"ce4bgih2rcd13ifvqba0","pricing_plan_id":"cebpf4jnsgd1na2vs0mg"},{"bike_id":"0a085772-b1e8-4f7e-bbe3-82dbeb4bd6de","system_id":"levelo_inurba_marseille","lat":43.29528,"lon":5.38544,"is_reserved":false,"is_disabled":false,"rental_uris":{"android":"levelo://app?vid=0a085772-b1e8-4f7e-bbe3-82dbeb4bd6de","ios":"levelo://app?vid=0a085772-b1e8-4f7e-bbe3-82dbeb4bd6de"},"vehicle_type_id":"4","last_reported":1712333391,"current_range_meters":0,"station_id":"ce4bgih2rcd13ifvqba0","pricing_plan_id":"cebpf4jnsgd1na2vs0mg"},{"bike_id":"96ca0287-503c-4f7a-a903-593b8b436c89","system_id":"levelo_inurba_marseille","lat":43.309038,"lon":5.396546,"is_reserved":false,"is_disabled":false,"rental_uris":{"android":"levelo://app?vid=96ca0287-503c-4f7a-a903-593b8b436c89","ios":"levelo://app?vid=96ca0287-503c-4f7a-a903-593b8b436c89"},"vehicle_type_id":"4","last_reported":1712333391,"current_range_meters":8400,"station_id":"ce4bh012rcd13ifvqcv0","pricing_plan_id":"cebpf4jnsgd1na2vs0mg"},{"bike_id":"ef0b28f2-6c27-4ce1-9632-f2059a40bd7b","system_id":"levelo_inurba_marseille","lat":43.290319,"lon":5.375732,"is_reserved":false,"is_disabled":false,"rental_uris":{"android":"levelo://app?vid=ef0b28f2-6c27-4ce1-9632-f2059a40bd7b","ios":"levelo://app?vid=ef0b28f2-6c27-4ce1-9632-f2059a40bd7b"},"vehicle_type_id":"4","last_reported":1712333391,"current_range_meters":13600,"station_id":"ce4bh692rcd13ifvqe90","pricing_plan_id":"cebpf4jnsgd1na2vs0mg"},{"bike_id":"82c076d8-0338-423e-be0a-69b5bbd23785","system_id":"levelo_inurba_marseille","lat":43.289184,"lon":5.366408,"is_reserved":false,"is_disabled":false,"rental_uris":{"android":"levelo://app?vid=82c076d8-0338-423e-be0a-69b5bbd23785","ios":"levelo://app?vid=82c076d8-0338-423e-be0a-69b5bbd23785"},"vehicle_type_id":"4","last_reported":1712333391,"current_range_meters":0,"station_id":"ce4bhap2rcd13ifvqek0","pricing_plan_id":"cebpf4jnsgd1na2vs0mg"},{"bike_id":"9807f00f-c672-4a99-bb68-6a96537ef238","system_id":"levelo_inurba_marseille","lat":43.295194,"lon":5.39397,"is_reserved":false,"is_disabled":false,"rental_uris":{"android":"levelo://app?vid=9807f00f-c672-4a99-bb68-6a96537ef238","ios":"levelo://app?vid=9807f00f-c672-4a99-bb68-6a96537ef238"},"vehicle_type_id":"4","last_reported":1712333391,"current_range_meters":400,"station_id":"ce4bh292rcd13ifvqdf0","pricing_plan_id":"cebpf4jnsgd1na2vs0mg"},{"bike_id":"4e7cdb8e-bdd5-447a-96fa-521d9457dd71","system_id":"levelo_inurba_marseille","lat":43.29426,"lon":5.38614,"is_reserved":false,"is_disabled":false,"rental_uris":{"android":"levelo://app?vid=4e7cdb8e-bdd5-447a-96fa-521d9457dd71","ios":"levelo://app?vid=4e7cdb8e-bdd5-447a-96fa-521d9457dd71"},"vehicle_type_id":"4","last_reported":1712333391,"current_range_meters":1200,"station_id":"ce4bh2h2rcd13ifvqdh0","pricing_plan_id":"cebpf4jnsgd1na2vs0mg"},{"bike_id":"a5c76b47-9244-4400-8cc6-ea5a549d56f3","system_id":"levelo_inurba_marseille","lat":43.294278,"lon":5.386189,"is_reserved":false,"is_disabled":false,"rental_uris":{"android":"levelo://app?vid=a5c76b47-9244-4400-8cc6-ea5a549d56f3","ios":"levelo://app?vid=a5c76b47-9244-4400-8cc6-ea5a549d56f3"},"vehicle_type_id":"4","last_reported":1712333391,"current_range_meters":2000,"station_id":"ce4bh2h2rcd13ifvqdh0","pricing_plan_id":"cebpf4jnsgd1na2vs0mg"},{"bike_id":"afb96922-d3f4-479c-bd76-fe212a360bdf","system_id":"levelo_inurba_marseille","lat":43.29043,"lon":5.37559,"is_reserved":false,"is_disabled":false,"rental_uris":{"android":"levelo://app?vid=afb96922-d3f4-479c-bd76-fe212a360bdf","ios":"levelo://app?vid=afb96922-d3f4-479c-bd76-fe212a360bdf"},"vehicle_type_id":"4","last_reported":1712333391,"current_range_meters":0,"station_id":"ce4bh692rcd13ifvqe90","pricing_plan_id":"cebpf4jnsgd1na2vs0mg"},{"bike_id":"bfc228c8-6e44-4145-a149-7d93cad1debd","system_id":"levelo_inurba_marseille","lat":43.29429,"lon":5.38628,"is_reserved":false,"is_disabled":false,"rental_uris":{"android":"levelo://app?vid=bfc228c8-6e44-4145-a149-7d93cad1debd","ios":"levelo://app?vid=bfc228c8-6e44-4145-a149-7d93cad1debd"},"vehicle_type_id":"4","last_reported":1712333391,"current_range_meters":0,"station_id":"ce4bh2h2rcd13ifvqdh0","pricing_plan_id":"cebpf4jnsgd1na2vs0mg"},{"bike_id":"dd1819ae-0b49-4754-9049-2dc2b878f789","system_id":"levelo_inurba_marseille","lat":43.29422,"lon":5.38616,"is_reserved":false,"is_disabled":false,"rental_uris":{"android":"levelo://app?vid=dd1819ae-0b49-4754-9049-2dc2b878f789","ios":"levelo://app?vid=dd1819ae-0b49-4754-9049-2dc2b878f789"},"vehicle_type_id":"4","last_reported":1712333391,"current_range_meters":16800,"station_id":"ce4bh2h2rcd13ifvqdh0","pricing_plan_id":"cebpf4jnsgd1na2vs0mg"},{"bike_id":"78905f8d-72ce-4acf-b134-8422ee8e41da","system_id":"levelo_inurba_marseille","lat":43.294153,"lon":5.386305,"is_reserved":false,"is_disabled":false,"rental_uris":{"android":"levelo://app?vid=78905f8d-72ce-4acf-b134-8422ee8e41da","ios":"levelo://app?vid=78905f8d-72ce-4acf-b134-8422ee8e41da"},"vehicle_type_id":"4","last_reported":1712333391,"current_range_meters":4000,"station_id":"ce4bh2h2rcd13ifvqdh0","pricing_plan_id":"cebpf4jnsgd1na2vs0mg"},{"bike_id":"d04388e3-6f02-4c75-949e-db38fab4030a","system_id":"levelo_inurba_marseille","lat":43.294162,"lon":5.386292,"is_reserved":false,"is_disabled":false,"rental_uris":{"android":"levelo://app?vid=d04388e3-6f02-4c75-949e-db38fab4030a","ios":"levelo://app?vid=d04388e3-6f02-4c75-949e-db38fab4030a"},"vehicle_type_id":"4","last_reported":1712333391,"current_range_meters":16400,"station_id":"ce4bh2h2rcd13ifvqdh0","pricing_plan_id":"cebpf4jnsgd1na2vs0mg"},{"bike_id":"dec34ee1-b3e2-430b-9e7c-ee4ff05ceb9b","system_id":"levelo_inurba_marseille","lat":43.294162,"lon":5.386292,"is_reserved":false,"is_disabled":false,"rental_uris":{"android":"levelo://app?vid=dec34ee1-b3e2-430b-9e7c-ee4ff05ceb9b","ios":"levelo://app?vid=dec34ee1-b3e2-430b-9e7c-ee4ff05ceb9b"},"vehicle_type_id":"4","last_reported":1712333391,"current_range_meters":6000,"station_id":"ce4bh2h2rcd13ifvqdh0","pricing_plan_id":"cebpf4jnsgd1na2vs0mg"},{"bike_id":"66605087-52c2-48ae-bfe7-a28b2434e26a","system_id":"levelo_inurba_marseille","lat":43.294153,"lon":5.386305,"is_reserved":false,"is_disabled":false,"rental_uris":{"android":"levelo://app?vid=66605087-52c2-48ae-bfe7-a28b2434e26a","ios":"levelo://app?vid=66605087-52c2-48ae-bfe7-a28b2434e26a"},"vehicle_type_id":"4","last_reported":1712333391,"current_range_meters":3600,"station_id":"ce4bh2h2rcd13ifvqdh0","pricing_plan_id":"cebpf4jnsgd1na2vs0mg"},{"bike_id":"e672d95f-ee35-4ee7-b5b1-2302db8db323","system_id":"levelo_inurba_marseille","lat":43.29419,"lon":5.38627,"is_reserved":false,"is_disabled":false,"rental_uris":{"android":"levelo://app?vid=e672d95f-ee35-4ee7-b5b1-2302db8db323","ios":"levelo://app?vid=e672d95f-ee35-4ee7-b5b1-2302db8db323"},"vehicle_type_id":"4","last_reported":1712333391,"current_range_meters":0,"station_id":"ce4bh2h2rcd13ifvqdh0","pricing_plan_id":"cebpf4jnsgd1na2vs0mg"},{"bike_id":"15a01ac3-30ac-40de-9ce3-8faa48570dff","system_id":"levelo_inurba_marseille","lat":43.290327,"lon":5.375711,"is_reserved":false,"is_disabled":false,"rental_uris":{"android":"levelo://app?vid=15a01ac3-30ac-40de-9ce3-8faa48570dff","ios":"levelo://app?vid=15a01ac3-30ac-40de-9ce3-8faa48570dff"},"vehicle_type_id":"4","last_reported":1712333391,"current_range_meters":0,"station_id":"ce4bh692rcd13ifvqe90","pricing_plan_id":"cebpf4jnsgd1na2vs0mg"},{"bike_id":"b081efb8-d046-494f-b94a-65616aa9f83e","system_id":"levelo_inurba_marseille","lat":43.294162,"lon":5.386292,"is_reserved":false,"is_disabled":false,"rental_uris":{"android":"levelo://app?vid=b081efb8-d046-494f-b94a-65616aa9f83e","ios":"levelo://app?vid=b081efb8-d046-494f-b94a-65616aa9f83e"},"vehicle_type_id":"4","last_reported":1712333391,"current_range_meters":23600,"station_id":"ce4bh2h2rcd13ifvqdh0","pricing_plan_id":"cebpf4jnsgd1na2vs0mg"},{"bike_id":"0828707c-c6f6-4b62-8045-9f7d63f705f0","system_id":"levelo_inurba_marseille","lat":43.294162,"lon":5.386292,"is_reserved":false,"is_disabled":false,"rental_uris":{"android":"levelo://app?vid=0828707c-c6f6-4b62-8045-9f7d63f705f0","ios":"levelo://app?vid=0828707c-c6f6-4b62-8045-9f7d63f705f0"},"vehicle_type_id":"4","last_reported":1712333391,"current_range_meters":0,"station_id":"ce4bh2h2rcd13ifvqdh0","pricing_plan_id":"cebpf4jnsgd1na2vs0mg"},{"bike_id":"65f656c0-a6d6-478b-a760-d4fab5146911","system_id":"levelo_inurba_marseille","lat":43.294162,"lon":5.386292,"is_reserved":false,"is_disabled":false,"rental_uris":{"android":"levelo://app?vid=65f656c0-a6d6-478b-a760-d4fab5146911","ios":"levelo://app?vid=65f656c0-a6d6-478b-a760-d4fab5146911"},"vehicle_type_id":"4","last_reported":1712333391,"current_range_meters":1600,"station_id":"ce4bh2h2rcd13ifvqdh0","pricing_plan_id":"cebpf4jnsgd1na2vs0mg"},{"bike_id":"072967f6-0d69-43f8-9fe6-f0dd862cf00e","system_id":"levelo_inurba_marseille","lat":43.29411,"lon":5.3862,"is_reserved":false,"is_disabled":false,"rental_uris":{"android":"levelo://app?vid=072967f6-0d69-43f8-9fe6-f0dd862cf00e","ios":"levelo://app?vid=072967f6-0d69-43f8-9fe6-f0dd862cf00e"},"vehicle_type_id":"4","last_reported":1712333391,"current_range_meters":4000,"station_id":"ce4bh2h2rcd13ifvqdh0","pricing_plan_id":"cebpf4jnsgd1na2vs0mg"},{"bike_id":"92346f40-3d5d-418c-b30f-f0f582f93428","system_id":"levelo_inurba_marseille","lat":43.289409,"lon":5.366405,"is_reserved":false,"is_disabled":false,"rental_uris":{"android":"levelo://app?vid=92346f40-3d5d-418c-b30f-f0f582f93428","ios":"levelo://app?vid=92346f40-3d5d-418c-b30f-f0f582f93428"},"vehicle_type_id":"4","last_reported":1712333391,"current_range_meters":26000,"station_id":"ce4bhap2rcd13ifvqek0","pricing_plan_id":"cebpf4jnsgd1na2vs0mg"},{"bike_id":"dc172f65-0dc5-4400-84f7-5c3082c16442","system_id":"levelo_inurba_marseille","lat":43.2894,"lon":5.36629,"is_reserved":false,"is_disabled":false,"rental_uris":{"android":"levelo://app?vid=dc172f65-0dc5-4400-84f7-5c3082c16442","ios":"levelo://app?vid=dc172f65-0dc5-4400-84f7-5c3082c16442"},"vehicle_type_id":"4","last_reported":1712333391,"current_range_meters":0,"station_id":"ce4bhap2rcd13ifvqek0","pricing_plan_id":"cebpf4jnsgd1na2vs0mg"},{"bike_id":"cba6363c-9b22-429d-aa21-7a6700f1eaa7","system_id":"levelo_inurba_marseille","lat":43.294133,"lon":5.386307,"is_reserved":false,"is_disabled":false,"rental_uris":{"android":"levelo://app?vid=cba6363c-9b22-429d-aa21-7a6700f1eaa7","ios":"levelo://app?vid=cba6363c-9b22-429d-aa21-7a6700f1eaa7"},"vehicle_type_id":"4","last_reported":1712333391,"current_range_meters":2800,"station_id":"ce4bh2h2rcd13ifvqdh0","pricing_plan_id":"cebpf4jnsgd1na2vs0mg"},{"bike_id":"49810d3e-6b42-46cb-be4d-63349364be59","system_id":"levelo_inurba_marseille","lat":43.289184,"lon":5.366408,"is_reserved":false,"is_disabled":false,"rental_uris":{"android":"levelo://app?vid=49810d3e-6b42-46cb-be4d-63349364be59","ios":"levelo://app?vid=49810d3e-6b42-46cb-be4d-63349364be59"},"vehicle_type_id":"4","last_reported":1712333391,"current_range_meters":0,"station_id":"ce4bhap2rcd13ifvqek0","pricing_plan_id":"cebpf4jnsgd1na2vs0mg"},{"bike_id":"20f97a4e-b8c6-470f-ad42-50ec8fc792a3","system_id":"levelo_inurba_marseille","lat":43.289184,"lon":5.366408,"is_reserved":false,"is_disabled":false,"rental_uris":{"android":"levelo://app?vid=20f97a4e-b8c6-470f-ad42-50ec8fc792a3","ios":"levelo://app?vid=20f97a4e-b8c6-470f-ad42-50ec8fc792a3"},"vehicle_type_id":"4","last_reported":1712333391,"current_range_meters":10400,"station_id":"ce4bhap2rcd13ifvqek0","pricing_plan_id":"cebpf4jnsgd1na2vs0mg"},{"bike_id":"d1171cd1-6cb0-4b95-915b-c57d41084e42","system_id":"levelo_inurba_marseille","lat":43.292644,"lon":5.384257,"is_reserved":false,"is_disabled":false,"rental_uris":{"android":"levelo://app?vid=d1171cd1-6cb0-4b95-915b-c57d41084e42","ios":"levelo://app?vid=d1171cd1-6cb0-4b95-915b-c57d41084e42"},"vehicle_type_id":"4","last_reported":1712333391,"current_range_meters":27200,"station_id":"ce4bh692rcd13ifvqea0","pricing_plan_id":"cebpf4jnsgd1na2vs0mg"},{"bike_id":"ada0ab39-bcba-4eb4-bd31-f29af9f86fd3","system_id":"levelo_inurba_marseille","lat":43.292644,"lon":5.384257,"is_reserved":false,"is_disabled":false,"rental_uris":{"android":"levelo://app?vid=ada0ab39-bcba-4eb4-bd31-f29af9f86fd3","ios":"levelo://app?vid=ada0ab39-bcba-4eb4-bd31-f29af9f86fd3"},"vehicle_type_id":"4","last_reported":1712333391,"current_range_meters":11200,"station_id":"ce4bh692rcd13ifvqea0","pricing_plan_id":"cebpf4jnsgd1na2vs0mg"},{"bike_id":"171f591b-12d7-4d66-a22e-bff7304a2e4a","system_id":"levelo_inurba_marseille","lat":43.298037,"lon":5.381066,"is_reserved":false,"is_disabled":false,"rental_uris":{"android":"levelo://app?vid=171f591b-12d7-4d66-a22e-bff7304a2e4a","ios":"levelo://app?vid=171f591b-12d7-4d66-a22e-bff7304a2e4a"},"vehicle_type_id":"4","last_reported":1712333391,"current_range_meters":5200,"station_id":"ce4bgip2rcd13ifvqbb0","pricing_plan_id":"cebpf4jnsgd1na2vs0mg"},{"bike_id":"ea1f6912-bdc5-4ed6-acc4-57b2c95d0222","system_id":"levelo_inurba_marseille","lat":43.298037,"lon":5.381066,"is_reserved":false,"is_disabled":false,"rental_uris":{"android":"levelo://app?vid=ea1f6912-bdc5-4ed6-acc4-57b2c95d0222","ios":"levelo://app?vid=ea1f6912-bdc5-4ed6-acc4-57b2c95d0222"},"vehicle_type_id":"4","last_reported":1712333391,"current_range_meters":5200,"station_id":"ce4bgip2rcd13ifvqbb0","pricing_plan_id":"cebpf4jnsgd1na2vs0mg"},{"bike_id":"740b5ebf-c28a-483e-a69d-b75be034d97f","system_id":"levelo_inurba_marseille","lat":43.290995,"lon":5.381361,"is_reserved":false,"is_disabled":false,"rental_uris":{"android":"levelo://app?vid=740b5ebf-c28a-483e-a69d-b75be034d97f","ios":"levelo://app?vid=740b5ebf-c28a-483e-a69d-b75be034d97f"},"vehicle_type_id":"4","last_reported":1712333391,"current_range_meters":29200,"station_id":"ce4bh512rcd13ifvqe2g","pricing_plan_id":"cebpf4jnsgd1na2vs0mg"},{"bike_id":"223e296a-c174-4699-ad7b-0fd443b8ec97","system_id":"levelo_inurba_marseille","lat":43.29106,"lon":5.38147,"is_reserved":false,"is_disabled":false,"rental_uris":{"android":"levelo://app?vid=223e296a-c174-4699-ad7b-0fd443b8ec97","ios":"levelo://app?vid=223e296a-c174-4699-ad7b-0fd443b8ec97"},"vehicle_type_id":"4","last_reported":1712333391,"current_range_meters":0,"station_id":"ce4bh512rcd13ifvqe2g","pricing_plan_id":"cebpf4jnsgd1na2vs0mg"},{"bike_id":"4d207ce7-99e9-43c4-9d9c-a2dd70e5abe8","system_id":"levelo_inurba_marseille","lat":43.290995,"lon":5.381361,"is_reserved":false,"is_disabled":false,"rental_uris":{"android":"levelo://app?vid=4d207ce7-99e9-43c4-9d9c-a2dd70e5abe8","ios":"levelo://app?vid=4d207ce7-99e9-43c4-9d9c-a2dd70e5abe8"},"vehicle_type_id":"4","last_reported":1712333391,"current_range_meters":14800,"station_id":"ce4bh512rcd13ifvqe2g","pricing_plan_id":"cebpf4jnsgd1na2vs0mg"},{"bike_id":"11016847-0738-439f-9732-5321270350ea","system_id":"levelo_inurba_marseille","lat":43.330175,"lon":5.389948,"is_reserved":false,"is_disabled":false,"rental_uris":{"android":"levelo://app?vid=11016847-0738-439f-9732-5321270350ea","ios":"levelo://app?vid=11016847-0738-439f-9732-5321270350ea"},"vehicle_type_id":"4","last_reported":1712333391,"current_range_meters":14800,"station_id":"ce4bhr92rcd13ifvqhrg","pricing_plan_id":"cebpf4jnsgd1na2vs0mg"},{"bike_id":"698a9f43-a7f3-48e2-b200-d1e64cb6e83c","system_id":"levelo_inurba_marseille","lat":43.292644,"lon":5.384257,"is_reserved":false,"is_disabled":false,"rental_uris":{"android":"levelo://app?vid=698a9f43-a7f3-48e2-b200-d1e64cb6e83c","ios":"levelo://app?vid=698a9f43-a7f3-48e2-b200-d1e64cb6e83c"},"vehicle_type_id":"4","last_reported":1712333391,"current_range_meters":0,"station_id":"ce4bh692rcd13ifvqea0","pricing_plan_id":"cebpf4jnsgd1na2vs0mg"},{"bike_id":"05aec92a-9d55-4c63-a360-4442aad6c3c5","system_id":"levelo_inurba_marseille","lat":43.330442,"lon":5.389148,"is_reserved":false,"is_disabled":false,"rental_uris":{"android":"levelo://app?vid=05aec92a-9d55-4c63-a360-4442aad6c3c5","ios":"levelo://app?vid=05aec92a-9d55-4c63-a360-4442aad6c3c5"},"vehicle_type_id":"4","last_reported":1712333391,"current_range_meters":11200,"station_id":"ce4bhr92rcd13ifvqhrg","pricing_plan_id":"cebpf4jnsgd1na2vs0mg"},{"bike_id":"f5efb968-c2c9-46b2-8c96-74076d3513fc","system_id":"levelo_inurba_marseille","lat":43.33023,"lon":5.39031,"is_reserved":false,"is_disabled":false,"rental_uris":{"android":"levelo://app?vid=f5efb968-c2c9-46b2-8c96-74076d3513fc","ios":"levelo://app?vid=f5efb968-c2c9-46b2-8c96-74076d3513fc"},"vehicle_type_id":"4","last_reported":1712333391,"current_range_meters":0,"station_id":"ce4bhr92rcd13ifvqhrg","pricing_plan_id":"cebpf4jnsgd1na2vs0mg"},{"bike_id":"dc0238b4-59e1-42bb-8958-a41849d79d26","system_id":"levelo_inurba_marseille","lat":43.33021,"lon":5.39034,"is_reserved":false,"is_disabled":false,"rental_uris":{"android":"levelo://app?vid=dc0238b4-59e1-42bb-8958-a41849d79d26","ios":"levelo://app?vid=dc0238b4-59e1-42bb-8958-a41849d79d26"},"vehicle_type_id":"4","last_reported":1712333391,"current_range_meters":25600,"station_id":"ce4bhr92rcd13ifvqhrg","pricing_plan_id":"cebpf4jnsgd1na2vs0mg"},{"bike_id":"53e0c1be-b6c9-4a98-a224-1656bdfd3bb0","system_id":"levelo_inurba_marseille","lat":43.330442,"lon":5.389148,"is_reserved":false,"is_disabled":false,"rental_uris":{"android":"levelo://app?vid=53e0c1be-b6c9-4a98-a224-1656bdfd3bb0","ios":"levelo://app?vid=53e0c1be-b6c9-4a98-a224-1656bdfd3bb0"},"vehicle_type_id":"4","last_reported":1712333391,"current_range_meters":31600,"station_id":"ce4bhr92rcd13ifvqhrg","pricing_plan_id":"cebpf4jnsgd1na2vs0mg"},{"bike_id":"c2e9d430-2537-43af-85e1-448ce2a265cf","system_id":"levelo_inurba_marseille","lat":43.33021,"lon":5.39035,"is_reserved":false,"is_disabled":false,"rental_uris":{"android":"levelo://app?vid=c2e9d430-2537-43af-85e1-448ce2a265cf","ios":"levelo://app?vid=c2e9d430-2537-43af-85e1-448ce2a265cf"},"vehicle_type_id":"4","last_reported":1712333391,"current_range_meters":16800,"station_id":"ce4bhr92rcd13ifvqhrg","pricing_plan_id":"cebpf4jnsgd1na2vs0mg"},{"bike_id":"906e2bab-d5e2-427b-974c-38d8f697754d","system_id":"levelo_inurba_marseille","lat":43.33026,"lon":5.39036,"is_reserved":false,"is_disabled":false,"rental_uris":{"android":"levelo://app?vid=906e2bab-d5e2-427b-974c-38d8f697754d","ios":"levelo://app?vid=906e2bab-d5e2-427b-974c-38d8f697754d"},"vehicle_type_id":"4","last_reported":1712333391,"current_range_meters":0,"station_id":"ce4bhr92rcd13ifvqhrg","pricing_plan_id":"cebpf4jnsgd1na2vs0mg"},{"bike_id":"98927498-5b70-4ca8-ac36-5fc235101b7b","system_id":"levelo_inurba_marseille","lat":43.330442,"lon":5.389148,"is_reserved":false,"is_disabled":false,"rental_uris":{"android":"levelo://app?vid=98927498-5b70-4ca8-ac36-5fc235101b7b","ios":"levelo://app?vid=98927498-5b70-4ca8-ac36-5fc235101b7b"},"vehicle_type_id":"4","last_reported":1712333391,"current_range_meters":12800,"station_id":"ce4bhr92rcd13ifvqhrg","pricing_plan_id":"cebpf4jnsgd1na2vs0mg"},{"bike_id":"9df3f58b-59d7-47a8-94f7-205d1a6d2571","system_id":"levelo_inurba_marseille","lat":43.33025,"lon":5.39039,"is_reserved":false,"is_disabled":false,"rental_uris":{"android":"levelo://app?vid=9df3f58b-59d7-47a8-94f7-205d1a6d2571","ios":"levelo://app?vid=9df3f58b-59d7-47a8-94f7-205d1a6d2571"},"vehicle_type_id":"4","last_reported":1712333391,"current_range_meters":15200,"station_id":"ce4bhr92rcd13ifvqhrg","pricing_plan_id":"cebpf4jnsgd1na2vs0mg"},{"bike_id":"02b25051-d88b-4db4-a883-ec800850511c","system_id":"levelo_inurba_marseille","lat":43.33025,"lon":5.39041,"is_reserved":false,"is_disabled":false,"rental_uris":{"android":"levelo://app?vid=02b25051-d88b-4db4-a883-ec800850511c","ios":"levelo://app?vid=02b25051-d88b-4db4-a883-ec800850511c"},"vehicle_type_id":"4","last_reported":1712333391,"current_range_meters":0,"station_id":"ce4bhr92rcd13ifvqhrg","pricing_plan_id":"cebpf4jnsgd1na2vs0mg"},{"bike_id":"347d1f46-f135-40c9-81a4-7e1a5cd0ff3f","system_id":"levelo_inurba_marseille","lat":43.33027,"lon":5.39039,"is_reserved":false,"is_disabled":false,"rental_uris":{"android":"levelo://app?vid=347d1f46-f135-40c9-81a4-7e1a5cd0ff3f","ios":"levelo://app?vid=347d1f46-f135-40c9-81a4-7e1a5cd0ff3f"},"vehicle_type_id":"4","last_reported":1712333391,"current_range_meters":8800,"station_id":"ce4bhr92rcd13ifvqhrg","pricing_plan_id":"cebpf4jnsgd1na2vs0mg"},{"bike_id":"3a91dd90-9171-4330-aac6-09ca7e2835fd","system_id":"levelo_inurba_marseille","lat":43.330442,"lon":5.389148,"is_reserved":false,"is_disabled":false,"rental_uris":{"android":"levelo://app?vid=3a91dd90-9171-4330-aac6-09ca7e2835fd","ios":"levelo://app?vid=3a91dd90-9171-4330-aac6-09ca7e2835fd"},"vehicle_type_id":"4","last_reported":1712333391,"current_range_meters":14800,"station_id":"ce4bhr92rcd13ifvqhrg","pricing_plan_id":"cebpf4jnsgd1na2vs0mg"},{"bike_id":"7fd64579-be49-45b9-83c9-ba5d1805f490","system_id":"levelo_inurba_marseille","lat":43.33027,"lon":5.39041,"is_reserved":false,"is_disabled":false,"rental_uris":{"android":"levelo://app?vid=7fd64579-be49-45b9-83c9-ba5d1805f490","ios":"levelo://app?vid=7fd64579-be49-45b9-83c9-ba5d1805f490"},"vehicle_type_id":"4","last_reported":1712333391,"current_range_meters":400,"station_id":"ce4bhr92rcd13ifvqhrg","pricing_plan_id":"cebpf4jnsgd1na2vs0mg"},{"bike_id":"f19fa646-5b9e-4335-9e02-2d9c288c77fa","system_id":"levelo_inurba_marseille","lat":43.330442,"lon":5.389148,"is_reserved":false,"is_disabled":false,"rental_uris":{"android":"levelo://app?vid=f19fa646-5b9e-4335-9e02-2d9c288c77fa","ios":"levelo://app?vid=f19fa646-5b9e-4335-9e02-2d9c288c77fa"},"vehicle_type_id":"4","last_reported":1712333391,"current_range_meters":3600,"station_id":"ce4bhr92rcd13ifvqhrg","pricing_plan_id":"cebpf4jnsgd1na2vs0mg"},{"bike_id":"1dce9aa1-5232-4b74-8ce2-5f74a5bbde23","system_id":"levelo_inurba_marseille","lat":43.33113,"lon":5.38923,"is_reserved":false,"is_disabled":false,"rental_uris":{"android":"levelo://app?vid=1dce9aa1-5232-4b74-8ce2-5f74a5bbde23","ios":"levelo://app?vid=1dce9aa1-5232-4b74-8ce2-5f74a5bbde23"},"vehicle_type_id":"4","last_reported":1712333391,"current_range_meters":20400,"station_id":"","pricing_plan_id":"cebpf4jnsgd1na2vs0mg"},{"bike_id":"3b87a693-8ce6-42e3-8ed8-1fbf50b15285","system_id":"levelo_inurba_marseille","lat":43.33659,"lon":5.37508,"is_reserved":false,"is_disabled":false,"rental_uris":{"android":"levelo://app?vid=3b87a693-8ce6-42e3-8ed8-1fbf50b15285","ios":"levelo://app?vid=3b87a693-8ce6-42e3-8ed8-1fbf50b15285"},"vehicle_type_id":"4","last_reported":1712333391,"current_range_meters":2000,"station_id":"","pricing_plan_id":"cebpf4jnsgd1na2vs0mg"},{"bike_id":"be1a48df-a1af-4b91-9246-4581de943159","system_id":"levelo_inurba_marseille","lat":43.295523,"lon":5.422926,"is_reserved":false,"is_disabled":false,"rental_uris":{"android":"levelo://app?vid=be1a48df-a1af-4b91-9246-4581de943159","ios":"levelo://app?vid=be1a48df-a1af-4b91-9246-4581de943159"},"vehicle_type_id":"4","last_reported":1712333391,"current_range_meters":26000,"station_id":"ce4bhph2rcd13ifvqhdg","pricing_plan_id":"cebpf4jnsgd1na2vs0mg"},{"bike_id":"372acdef-2d7a-476a-963f-0bfe68c1db69","system_id":"levelo_inurba_marseille","lat":43.290094,"lon":5.381264,"is_reserved":false,"is_disabled":false,"rental_uris":{"android":"levelo://app?vid=372acdef-2d7a-476a-963f-0bfe68c1db69","ios":"levelo://app?vid=372acdef-2d7a-476a-963f-0bfe68c1db69"},"vehicle_type_id":"4","last_reported":1712333391,"current_range_meters":30000,"station_id":"ce4bh4p2rcd13ifvqe1g","pricing_plan_id":"cebpf4jnsgd1na2vs0mg"},{"bike_id":"b06229f2-04df-4a86-bcf7-628d1de8df0e","system_id":"levelo_inurba_marseille","lat":43.29015,"lon":5.38132,"is_reserved":false,"is_disabled":false,"rental_uris":{"android":"levelo://app?vid=b06229f2-04df-4a86-bcf7-628d1de8df0e","ios":"levelo://app?vid=b06229f2-04df-4a86-bcf7-628d1de8df0e"},"vehicle_type_id":"4","last_reported":1712333391,"current_range_meters":0,"station_id":"ce4bh4p2rcd13ifvqe1g","pricing_plan_id":"cebpf4jnsgd1na2vs0mg"},{"bike_id":"ac9aba3d-6241-42c2-8390-48600b2405a6","system_id":"levelo_inurba_marseille","lat":43.28856,"lon":5.358371,"is_reserved":false,"is_disabled":false,"rental_uris":{"android":"levelo://app?vid=ac9aba3d-6241-42c2-8390-48600b2405a6","ios":"levelo://app?vid=ac9aba3d-6241-42c2-8390-48600b2405a6"},"vehicle_type_id":"4","last_reported":1712333391,"current_range_meters":0,"station_id":"ce4bhb12rcd13ifvqem0","pricing_plan_id":"cebpf4jnsgd1na2vs0mg"},{"bike_id":"70c1b727-7e87-4730-9e6c-ae9a9a8369b5","system_id":"levelo_inurba_marseille","lat":43.30642,"lon":5.401031,"is_reserved":false,"is_disabled":false,"rental_uris":{"android":"levelo://app?vid=70c1b727-7e87-4730-9e6c-ae9a9a8369b5","ios":"levelo://app?vid=70c1b727-7e87-4730-9e6c-ae9a9a8369b5"},"vehicle_type_id":"4","last_reported":1712333391,"current_range_meters":0,"station_id":"ce4bh112rcd13ifvqda0","pricing_plan_id":"cebpf4jnsgd1na2vs0mg"},{"bike_id":"c8bde3f7-a848-473d-9fb0-ce5efe01a86c","system_id":"levelo_inurba_marseille","lat":43.294314,"lon":5.397498,"is_reserved":false,"is_disabled":false,"rental_uris":{"android":"levelo://app?vid=c8bde3f7-a848-473d-9fb0-ce5efe01a86c","ios":"levelo://app?vid=c8bde3f7-a848-473d-9fb0-ce5efe01a86c"},"vehicle_type_id":"4","last_reported":1712333391,"current_range_meters":18000,"station_id":"ce4bh3h2rcd13ifvqdo0","pricing_plan_id":"cebpf4jnsgd1na2vs0mg"},{"bike_id":"895d65ed-3082-4990-b693-b07128fd5f0d","system_id":"levelo_inurba_marseille","lat":43.309371,"lon":5.401449,"is_reserved":false,"is_disabled":false,"rental_uris":{"android":"levelo://app?vid=895d65ed-3082-4990-b693-b07128fd5f0d","ios":"levelo://app?vid=895d65ed-3082-4990-b693-b07128fd5f0d"},"vehicle_type_id":"4","last_reported":1712333391,"current_range_meters":1600,"station_id":"ce4bgvp2rcd13ifvqct0","pricing_plan_id":"cebpf4jnsgd1na2vs0mg"},{"bike_id":"f92d4438-b127-48f2-bb29-432fc791aa74","system_id":"levelo_inurba_marseille","lat":43.312609,"lon":5.401662,"is_reserved":false,"is_disabled":false,"rental_uris":{"android":"levelo://app?vid=f92d4438-b127-48f2-bb29-432fc791aa74","ios":"levelo://app?vid=f92d4438-b127-48f2-bb29-432fc791aa74"},"vehicle_type_id":"4","last_reported":1712333391,"current_range_meters":23600,"station_id":"ce4bh092rcd13ifvqd30","pricing_plan_id":"cebpf4jnsgd1na2vs0mg"},{"bike_id":"4c8c6dbf-c12b-4c2a-b189-870172434022","system_id":"levelo_inurba_marseille","lat":43.312609,"lon":5.401662,"is_reserved":false,"is_disabled":false,"rental_uris":{"android":"levelo://app?vid=4c8c6dbf-c12b-4c2a-b189-870172434022","ios":"levelo://app?vid=4c8c6dbf-c12b-4c2a-b189-870172434022"},"vehicle_type_id":"4","last_reported":1712333391,"current_range_meters":4800,"station_id":"ce4bh092rcd13ifvqd30","pricing_plan_id":"cebpf4jnsgd1na2vs0mg"},{"bike_id":"8e98a42a-8615-4f48-8926-04bd98c23393","system_id":"levelo_inurba_marseille","lat":43.31268,"lon":5.40175,"is_reserved":false,"is_disabled":false,"rental_uris":{"android":"levelo://app?vid=8e98a42a-8615-4f48-8926-04bd98c23393","ios":"levelo://app?vid=8e98a42a-8615-4f48-8926-04bd98c23393"},"vehicle_type_id":"4","last_reported":1712333391,"current_range_meters":2400,"station_id":"ce4bh092rcd13ifvqd30","pricing_plan_id":"cebpf4jnsgd1na2vs0mg"},{"bike_id":"58594d86-bf71-4b52-9b40-9ca46d971c9a","system_id":"levelo_inurba_marseille","lat":43.309371,"lon":5.401449,"is_reserved":false,"is_disabled":false,"rental_uris":{"android":"levelo://app?vid=58594d86-bf71-4b52-9b40-9ca46d971c9a","ios":"levelo://app?vid=58594d86-bf71-4b52-9b40-9ca46d971c9a"},"vehicle_type_id":"4","last_reported":1712333391,"current_range_meters":7200,"station_id":"ce4bgvp2rcd13ifvqct0","pricing_plan_id":"cebpf4jnsgd1na2vs0mg"},{"bike_id":"5b751ee3-010e-4497-a766-185220039edf","system_id":"levelo_inurba_marseille","lat":43.306412,"lon":5.401035,"is_reserved":false,"is_disabled":false,"rental_uris":{"android":"levelo://app?vid=5b751ee3-010e-4497-a766-185220039edf","ios":"levelo://app?vid=5b751ee3-010e-4497-a766-185220039edf"},"vehicle_type_id":"4","last_reported":1712333391,"current_range_meters":0,"station_id":"ce4bh112rcd13ifvqda0","pricing_plan_id":"cebpf4jnsgd1na2vs0mg"},{"bike_id":"8ea11f59-87cf-4af9-84d7-31fd16f2e0c1","system_id":"levelo_inurba_marseille","lat":43.301117,"lon":5.398795,"is_reserved":false,"is_disabled":false,"rental_uris":{"android":"levelo://app?vid=8ea11f59-87cf-4af9-84d7-31fd16f2e0c1","ios":"levelo://app?vid=8ea11f59-87cf-4af9-84d7-31fd16f2e0c1"},"vehicle_type_id":"4","last_reported":1712333391,"current_range_meters":14400,"station_id":"ce4bh0h2rcd13ifvqd40","pricing_plan_id":"cebpf4jnsgd1na2vs0mg"},{"bike_id":"07ecf2d4-bc15-40b4-b10e-7c3a3f33ea40","system_id":"levelo_inurba_marseille","lat":43.301117,"lon":5.398795,"is_reserved":false,"is_disabled":false,"rental_uris":{"android":"levelo://app?vid=07ecf2d4-bc15-40b4-b10e-7c3a3f33ea40","ios":"levelo://app?vid=07ecf2d4-bc15-40b4-b10e-7c3a3f33ea40"},"vehicle_type_id":"4","last_reported":1712333391,"current_range_meters":18400,"station_id":"ce4bh0h2rcd13ifvqd40","pricing_plan_id":"cebpf4jnsgd1na2vs0mg"},{"bike_id":"6ea63296-d433-45ea-b00b-9b41822ed957","system_id":"levelo_inurba_marseille","lat":43.301117,"lon":5.398795,"is_reserved":false,"is_disabled":false,"rental_uris":{"android":"levelo://app?vid=6ea63296-d433-45ea-b00b-9b41822ed957","ios":"levelo://app?vid=6ea63296-d433-45ea-b00b-9b41822ed957"},"vehicle_type_id":"4","last_reported":1712333391,"current_range_meters":6800,"station_id":"ce4bh0h2rcd13ifvqd40","pricing_plan_id":"cebpf4jnsgd1na2vs0mg"},{"bike_id":"b0a8cda0-0eb1-42b1-b9c9-304428a9e27b","system_id":"levelo_inurba_marseille","lat":43.28727,"lon":5.36078,"is_reserved":false,"is_disabled":false,"rental_uris":{"android":"levelo://app?vid=b0a8cda0-0eb1-42b1-b9c9-304428a9e27b","ios":"levelo://app?vid=b0a8cda0-0eb1-42b1-b9c9-304428a9e27b"},"vehicle_type_id":"4","last_reported":1712333391,"current_range_meters":10800,"station_id":"cki0cbj6b192h4jlfktg","pricing_plan_id":"cebpf4jnsgd1na2vs0mg"},{"bike_id":"952f3370-e643-44a7-853a-e81189866306","system_id":"levelo_inurba_marseille","lat":43.286591,"lon":5.363346,"is_reserved":false,"is_disabled":false,"rental_uris":{"android":"levelo://app?vid=952f3370-e643-44a7-853a-e81189866306","ios":"levelo://app?vid=952f3370-e643-44a7-853a-e81189866306"},"vehicle_type_id":"4","last_reported":1712333391,"current_range_meters":10800,"station_id":"ce4bhah2rcd13ifvqej0","pricing_plan_id":"cebpf4jnsgd1na2vs0mg"},{"bike_id":"938b41e7-2c8d-4303-9070-081cf91adf41","system_id":"levelo_inurba_marseille","lat":43.286591,"lon":5.363346,"is_reserved":false,"is_disabled":false,"rental_uris":{"android":"levelo://app?vid=938b41e7-2c8d-4303-9070-081cf91adf41","ios":"levelo://app?vid=938b41e7-2c8d-4303-9070-081cf91adf41"},"vehicle_type_id":"4","last_reported":1712333391,"current_range_meters":11200,"station_id":"ce4bhah2rcd13ifvqej0","pricing_plan_id":"cebpf4jnsgd1na2vs0mg"},{"bike_id":"42c83ad6-5729-4879-a905-5ce3262857b3","system_id":"levelo_inurba_marseille","lat":43.298681,"lon":5.397225,"is_reserved":false,"is_disabled":false,"rental_uris":{"android":"levelo://app?vid=42c83ad6-5729-4879-a905-5ce3262857b3","ios":"levelo://app?vid=42c83ad6-5729-4879-a905-5ce3262857b3"},"vehicle_type_id":"4","last_reported":1712333391,"current_range_meters":0,"station_id":"ce4bh0h2rcd13ifvqd50","pricing_plan_id":"cebpf4jnsgd1na2vs0mg"},{"bike_id":"b2c66418-bb33-48ba-8e96-576ac474b564","system_id":"levelo_inurba_marseille","lat":43.295194,"lon":5.39397,"is_reserved":false,"is_disabled":false,"rental_uris":{"android":"levelo://app?vid=b2c66418-bb33-48ba-8e96-576ac474b564","ios":"levelo://app?vid=b2c66418-bb33-48ba-8e96-576ac474b564"},"vehicle_type_id":"4","last_reported":1712333391,"current_range_meters":0,"station_id":"ce4bh292rcd13ifvqdf0","pricing_plan_id":"cebpf4jnsgd1na2vs0mg"},{"bike_id":"22b543aa-72ff-4871-94b3-97cdc1381855","system_id":"levelo_inurba_marseille","lat":43.286593,"lon":5.363346,"is_reserved":false,"is_disabled":false,"rental_uris":{"android":"levelo://app?vid=22b543aa-72ff-4871-94b3-97cdc1381855","ios":"levelo://app?vid=22b543aa-72ff-4871-94b3-97cdc1381855"},"vehicle_type_id":"4","last_reported":1712333391,"current_range_meters":0,"station_id":"ce4bhah2rcd13ifvqej0","pricing_plan_id":"cebpf4jnsgd1na2vs0mg"},{"bike_id":"376d52c7-7146-4547-b864-66faddafad0f","system_id":"levelo_inurba_marseille","lat":43.286593,"lon":5.363346,"is_reserved":false,"is_disabled":false,"rental_uris":{"android":"levelo://app?vid=376d52c7-7146-4547-b864-66faddafad0f","ios":"levelo://app?vid=376d52c7-7146-4547-b864-66faddafad0f"},"vehicle_type_id":"4","last_reported":1712333391,"current_range_meters":7600,"station_id":"ce4bhah2rcd13ifvqej0","pricing_plan_id":"cebpf4jnsgd1na2vs0mg"},{"bike_id":"43ed3803-c8d8-446f-abfd-857dea59a400","system_id":"levelo_inurba_marseille","lat":43.286961,"lon":5.373785,"is_reserved":false,"is_disabled":false,"rental_uris":{"android":"levelo://app?vid=43ed3803-c8d8-446f-abfd-857dea59a400","ios":"levelo://app?vid=43ed3803-c8d8-446f-abfd-857dea59a400"},"vehicle_type_id":"4","last_reported":1712333391,"current_range_meters":18000,"station_id":"ce4bh3p2rcd13ifvqdq0","pricing_plan_id":"cebpf4jnsgd1na2vs0mg"},{"bike_id":"f7860e60-64ab-4651-8f55-64dfe11f90a6","system_id":"levelo_inurba_marseille","lat":43.286961,"lon":5.373785,"is_reserved":false,"is_disabled":false,"rental_uris":{"android":"levelo://app?vid=f7860e60-64ab-4651-8f55-64dfe11f90a6","ios":"levelo://app?vid=f7860e60-64ab-4651-8f55-64dfe11f90a6"},"vehicle_type_id":"4","last_reported":1712333391,"current_range_meters":0,"station_id":"ce4bh3p2rcd13ifvqdq0","pricing_plan_id":"cebpf4jnsgd1na2vs0mg"},{"bike_id":"d63337e6-33cc-4167-a681-1165ded36a91","system_id":"levelo_inurba_marseille","lat":43.286591,"lon":5.363346,"is_reserved":false,"is_disabled":false,"rental_uris":{"android":"levelo://app?vid=d63337e6-33cc-4167-a681-1165ded36a91","ios":"levelo://app?vid=d63337e6-33cc-4167-a681-1165ded36a91"},"vehicle_type_id":"4","last_reported":1712333391,"current_range_meters":21200,"station_id":"ce4bhah2rcd13ifvqej0","pricing_plan_id":"cebpf4jnsgd1na2vs0mg"},{"bike_id":"1b575ab6-d3d4-4e46-8968-5076d67044f2","system_id":"levelo_inurba_marseille","lat":43.286593,"lon":5.363346,"is_reserved":false,"is_disabled":false,"rental_uris":{"android":"levelo://app?vid=1b575ab6-d3d4-4e46-8968-5076d67044f2","ios":"levelo://app?vid=1b575ab6-d3d4-4e46-8968-5076d67044f2"},"vehicle_type_id":"4","last_reported":1712333391,"current_range_meters":6800,"station_id":"ce4bhah2rcd13ifvqej0","pricing_plan_id":"cebpf4jnsgd1na2vs0mg"},{"bike_id":"77ed370e-59cc-40c7-a792-8a91ac8019d2","system_id":"levelo_inurba_marseille","lat":43.286593,"lon":5.363346,"is_reserved":false,"is_disabled":false,"rental_uris":{"android":"levelo://app?vid=77ed370e-59cc-40c7-a792-8a91ac8019d2","ios":"levelo://app?vid=77ed370e-59cc-40c7-a792-8a91ac8019d2"},"vehicle_type_id":"4","last_reported":1712333391,"current_range_meters":3200,"station_id":"ce4bhah2rcd13ifvqej0","pricing_plan_id":"cebpf4jnsgd1na2vs0mg"},{"bike_id":"b440940f-2b5a-4487-9295-370fbc71b80b","system_id":"levelo_inurba_marseille","lat":43.295371,"lon":5.394029,"is_reserved":false,"is_disabled":false,"rental_uris":{"android":"levelo://app?vid=b440940f-2b5a-4487-9295-370fbc71b80b","ios":"levelo://app?vid=b440940f-2b5a-4487-9295-370fbc71b80b"},"vehicle_type_id":"4","last_reported":1712333391,"current_range_meters":0,"station_id":"ce4bh292rcd13ifvqdf0","pricing_plan_id":"cebpf4jnsgd1na2vs0mg"},{"bike_id":"85fae49a-4cdc-4a61-9c68-bab13de21663","system_id":"levelo_inurba_marseille","lat":43.286961,"lon":5.373785,"is_reserved":false,"is_disabled":false,"rental_uris":{"android":"levelo://app?vid=85fae49a-4cdc-4a61-9c68-bab13de21663","ios":"levelo://app?vid=85fae49a-4cdc-4a61-9c68-bab13de21663"},"vehicle_type_id":"4","last_reported":1712333391,"current_range_meters":7200,"station_id":"ce4bh3p2rcd13ifvqdq0","pricing_plan_id":"cebpf4jnsgd1na2vs0mg"},{"bike_id":"7e0225f7-9485-4b14-8476-b5178f143cc6","system_id":"levelo_inurba_marseille","lat":43.297946,"lon":5.404063,"is_reserved":false,"is_disabled":false,"rental_uris":{"android":"levelo://app?vid=7e0225f7-9485-4b14-8476-b5178f143cc6","ios":"levelo://app?vid=7e0225f7-9485-4b14-8476-b5178f143cc6"},"vehicle_type_id":"4","last_reported":1712333391,"current_range_meters":12400,"station_id":"ce4bh112rcd13ifvqd90","pricing_plan_id":"cebpf4jnsgd1na2vs0mg"},{"bike_id":"e7a68cd8-904d-451a-8a3e-f5ae1a9efa1b","system_id":"levelo_inurba_marseille","lat":43.313571,"lon":5.384829,"is_reserved":false,"is_disabled":false,"rental_uris":{"android":"levelo://app?vid=e7a68cd8-904d-451a-8a3e-f5ae1a9efa1b","ios":"levelo://app?vid=e7a68cd8-904d-451a-8a3e-f5ae1a9efa1b"},"vehicle_type_id":"4","last_reported":1712333391,"current_range_meters":8800,"station_id":"ce4bgt92rcd13ifvqcf0","pricing_plan_id":"cebpf4jnsgd1na2vs0mg"},{"bike_id":"1a774e7d-292e-4f6e-8ccf-32cf8cf65474","system_id":"levelo_inurba_marseille","lat":43.302161,"lon":5.400338,"is_reserved":false,"is_disabled":false,"rental_uris":{"android":"levelo://app?vid=1a774e7d-292e-4f6e-8ccf-32cf8cf65474","ios":"levelo://app?vid=1a774e7d-292e-4f6e-8ccf-32cf8cf65474"},"vehicle_type_id":"4","last_reported":1712333391,"current_range_meters":12800,"station_id":"","pricing_plan_id":"cebpf4jnsgd1na2vs0mg"},{"bike_id":"4d31f4a0-ddfb-4bec-967a-8c655f9e4188","system_id":"levelo_inurba_marseille","lat":43.289307,"lon":5.38406,"is_reserved":false,"is_disabled":false,"rental_uris":{"android":"levelo://app?vid=4d31f4a0-ddfb-4bec-967a-8c655f9e4188","ios":"levelo://app?vid=4d31f4a0-ddfb-4bec-967a-8c655f9e4188"},"vehicle_type_id":"4","last_reported":1712333391,"current_range_meters":0,"station_id":"ce4bh612rcd13ifvqe6g","pricing_plan_id":"cebpf4jnsgd1na2vs0mg"},