{"last_updated":1731190071,"ttl":60,"version":"2.2","data":{"bikes":[{"bike_id":"dcd8b508-2c18-4839-ab68-7b52cc2d3fb7","system_id":"levelo_inurba_marseille","lat":43.27067,"lon":5.42277,"is_reserved":false,"is_disabled":false,"rental_uris":{"android":"levelo://app?vid=dcd8b508-2c18-4839-ab68-7b52cc2d3fb7","ios":"levelo://app?vid=dcd8b508-2c18-4839-ab68-7b52cc2d3fb7"},"vehicle_type_id":"4","last_reported":1731190071,"current_range_meters":33600,"station_id":"ce4bhk92rcd13ifvqgb0","pricing_plan_id":"cebpf4jnsgd1na2vs0mg"},{"bike_id":"e94e2327-9eaf-4d26-bd7f-903afa708be6","system_id":"levelo_inurba_marseille","lat":43.3373,"lon":5.39194,"is_reserved":false,"is_disabled":false,"rental_uris":{"android":"levelo://app?vid=e94e2327-9eaf-4d26-bd7f-903afa708be6","ios":"levelo://app?vid=e94e2327-9eaf-4d26-bd7f-903afa708be6"},"vehicle_type_id":"4","last_reported":1731190071,"current_range_meters":17200,"station_id":"ce4bhr92rcd13ifvqhsg","pricing_plan_id":"cebpf4jnsgd1na2vs0mg"},{"bike_id":"b0f42332-bc18-4d94-9a5f-fb485178dd42","system_id":"levelo_inurba_marseille","lat":43.31757,"lon":5.39013,"is_reserved":false,"is_disabled":false,"rental_uris":{"android":"levelo://app?vid=b0f42332-bc18-4d94-9a5f-fb485178dd42","ios":"levelo://app?vid=b0f42332-bc18-4d94-9a5f-fb485178dd42"},"vehicle_type_id":"4","last_reported":1731190071,"current_range_meters":38000,"station_id":"ce4bhqp2rcd13ifvqhng","pricing_plan_id":"cebpf4jnsgd1na2vs0mg"},{"bike_id":"1044c177-1d80-40b2-bb54-9bfa5350a595","system_id":"levelo_inurba_marseille","lat":43.31234,"lon":5.36859,"is_reserved":false,"is_disabled":false,"rental_uris":{"android":"levelo://app?vid=1044c177-1d80-40b2-bb54-9bfa5350a595","ios":"levelo://app?vid=1044c177-1d80-40b2-bb54-9bfa5350a595"},"vehicle_type_id":"4","last_reported":1731190071,"current_range_meters":32800,"station_id":"ce4bgl92rcd13ifvqbq0","pricing_plan_id":"cebpf4jnsgd1na2vs0mg"},{"bike_id":"8d618ad3-e42f-4b7f-961b-1ad00e2aa17c","system_id":"levelo_inurba_marseille","lat":43.25019,"lon":5.38907,"is_reserved":false,"is_disabled":false,"rental_uris":{"android":"levelo://app?vid=8d618ad3-e42f-4b7f-961b-1ad00e2aa17c","ios":"levelo://app?vid=8d618ad3-e42f-4b7f-961b-1ad00e2aa17c"},"vehicle_type_id":"4","last_reported":1731190071,"current_range_meters":38400,"station_id":"ce4bhgp2rcd13ifvqfd0","pricing_plan_id":"cebpf4jnsgd1na2vs0mg"},{"bike_id":"68bb9078-c705-4e4c-81de-7ae7c7d86c43","system_id":"levelo_inurba_marseille","lat":43.31712,"lon":5.37781,"is_reserved":false,"is_disabled":false,"rental_uris":{"android":"levelo://app?vid=68bb9078-c705-4e4c-81de-7ae7c7d86c43","ios":"levelo://app?vid=68bb9078-c705-4e4c-81de-7ae7c7d86c43"},"vehicle_type_id":"4","last_reported":1731190071,"current_range_meters":26800,"station_id":"ce4bgth2rcd13ifvqch0","pricing_plan_id":"cebpf4jnsgd1na2vs0mg"},{"bike_id":"a86414b3-ca61-455f-ab29-866029f2ab36","system_id":"levelo_inurba_marseille","lat":43.29789,"lon":5.38103,"is_reserved":false,"is_disabled":false,"rental_uris":{"android":"levelo://app?vid=a86414b3-ca61-455f-ab29-866029f2ab36","ios":"levelo://app?vid=a86414b3-ca61-455f-ab29-866029f2ab36"},"vehicle_type_id":"4","last_reported":1731190071,"current_range_meters":34800,"station_id":"ce4bgip2rcd13ifvqbb0","pricing_plan_id":"cebpf4jnsgd1na2vs0mg"},{"bike_id":"db24e85c-0936-4611-aa24-e7280f607250","system_id":"levelo_inurba_marseille","lat":43.29422,"lon":5.38628,"is_reserved":false,"is_disabled":false,"rental_uris":{"android":"levelo://app?vid=db24e85c-0936-4611-aa24-e7280f607250","ios":"levelo://app?vid=db24e85c-0936-4611-aa24-e7280f607250"},"vehicle_type_id":"4","last_reported":1731190071,"current_range_meters":32400,"station_id":"ce4bh2h2rcd13ifvqdh0","pricing_plan_id":"cebpf4jnsgd1na2vs0mg"},{"bike_id":"5daf7e81-adca-4c69-ac49-7439dac41928","system_id":"levelo_inurba_marseille","lat":43.29561,"lon":5.42269,"is_reserved":false,"is_disabled":false,"rental_uris":{"android":"levelo://app?vid=5daf7e81-adca-4c69-ac49-7439dac41928","ios":"levelo://app?vid=5daf7e81-adca-4c69-ac49-7439dac41928"},"vehicle_type_id":"4","last_reported":1731190071,"current_range_meters":38800,"station_id":"ce4bhph2rcd13ifvqhdg","pricing_plan_id":"cebpf4jnsgd1na2vs0mg"},{"bike_id":"01b71f6d-f085-41cc-9ba8-f10f314851eb","system_id":"levelo_inurba_marseille","lat":43.29541,"lon":5.38544,"is_reserved":false,"is_disabled":false,"rental_uris":{"android":"levelo://app?vid=01b71f6d-f085-41cc-9ba8-f10f314851eb","ios":"levelo://app?vid=01b71f6d-f085-41cc-9ba8-f10f314851eb"},"vehicle_type_id":"4","last_reported":1731190071,"current_range_meters":8400,"station_id":"ce4bgih2rcd13ifvqba0","pricing_plan_id":"cebpf4jnsgd1na2vs0mg"},{"bike_id":"bab7e8bf-3dd9-4ba8-ae9e-1d78dcf614a2","system_id":"levelo_inurba_marseille","lat":43.25096,"lon":5.3949,"is_reserved":false,"is_disabled":false,"rental_uris":{"android":"levelo://app?vid=bab7e8bf-3dd9-4ba8-ae9e-1d78dcf614a2","ios":"levelo://app?vid=bab7e8bf-3dd9-4ba8-ae9e-1d78dcf614a2"},"vehicle_type_id":"4","last_reported":1731190071,"current_range_meters":38400,"station_id":"ce4bhm12rcd13ifvqgkg","pricing_plan_id":"cebpf4jnsgd1na2vs0mg"},{"bike_id":"e216a384-3e35-4268-818c-54b5ad9b419d","system_id":"levelo_inurba_marseille","lat":43.276211,"lon":5.361114,"is_reserved":false,"is_disabled":false,"rental_uris":{"android":"levelo://app?vid=e216a384-3e35-4268-818c-54b5ad9b419d","ios":"levelo://app?vid=e216a384-3e35-4268-818c-54b5ad9b419d"},"vehicle_type_id":"4","last_reported":1731190071,"current_range_meters":14000,"station_id":"ce4bgj92rcd13ifvqbe0","pricing_plan_id":"cebpf4jnsgd1na2vs0mg"},{"bike_id":"5ea278e9-e58b-4e73-bd5d-69aeffdf193a","system_id":"levelo_inurba_marseille","lat":43.29028,"lon":5.38643,"is_reserved":false,"is_disabled":false,"rental_uris":{"android":"levelo://app?vid=5ea278e9-e58b-4e73-bd5d-69aeffdf193a","ios":"levelo://app?vid=5ea278e9-e58b-4e73-bd5d-69aeffdf193a"},"vehicle_type_id":"4","last_reported":1731190071,"current_range_meters":8400,"station_id":"ce4bh4p2rcd13ifvqe0g","pricing_plan_id":"cebpf4jnsgd1na2vs0mg"},{"bike_id":"e07f73d2-5550-4a7c-b567-9792af3c3e2d","system_id":"levelo_inurba_marseille","lat":43.28676,"lon":5.38658,"is_reserved":false,"is_disabled":false,"rental_uris":{"android":"levelo://app?vid=e07f73d2-5550-4a7c-b567-9792af3c3e2d","ios":"levelo://app?vid=e07f73d2-5550-4a7c-b567-9792af3c3e2d"},"vehicle_type_id":"4","last_reported":1731190071,"current_range_meters":38800,"station_id":"ce4bh492rcd13ifvqdug","pricing_plan_id":"cebpf4jnsgd1na2vs0mg"},{"bike_id":"25a016db-5934-4bcc-b160-867ba2a800ae","system_id":"levelo_inurba_marseille","lat":43.29414,"lon":5.38627,"is_reserved":false,"is_disabled":false,"rental_uris":{"android":"levelo://app?vid=25a016db-5934-4bcc-b160-867ba2a800ae","ios":"levelo://app?vid=25a016db-5934-4bcc-b160-867ba2a800ae"},"vehicle_type_id":"4","last_reported":1731190071,"current_range_meters":25200,"station_id":"ce4bh2h2rcd13ifvqdh0","pricing_plan_id":"cebpf4jnsgd1na2vs0mg"},{"bike_id":"9c38ce58-02e0-458d-baf5-e45e12ce62d2","system_id":"levelo_inurba_marseille","lat":43.29538,"lon":5.38542,"is_reserved":false,"is_disabled":false,"rental_uris":{"android":"levelo://app?vid=9c38ce58-02e0-458d-baf5-e45e12ce62d2","ios":"levelo://app?vid=9c38ce58-02e0-458d-baf5-e45e12ce62d2"},"vehicle_type_id":"4","last_reported":1731190071,"current_range_meters":38000,"station_id":"ce4bgih2rcd13ifvqba0","pricing_plan_id":"cebpf4jnsgd1na2vs0mg"},{"bike_id":"b7fbb8f7-b35f-410b-920d-6e2a938ef519","system_id":"levelo_inurba_marseille","lat":43.28701,"lon":5.3999,"is_reserved":false,"is_disabled":false,"rental_uris":{"android":"levelo://app?vid=b7fbb8f7-b35f-410b-920d-6e2a938ef519","ios":"levelo://app?vid=b7fbb8f7-b35f-410b-920d-6e2a938ef519"},"vehicle_type_id":"4","last_reported":1731190071,"current_range_meters":21600,"station_id":"ce4bho92rcd13ifvqh3g","pricing_plan_id":"cebpf4jnsgd1na2vs0mg"},{"bike_id":"5302ff5a-57e8-4b08-8be0-6da06e470d43","system_id":"levelo_inurba_marseille","lat":43.26559,"lon":5.37281,"is_reserved":false,"is_disabled":false,"rental_uris":{"android":"levelo://app?vid=5302ff5a-57e8-4b08-8be0-6da06e470d43","ios":"levelo://app?vid=5302ff5a-57e8-4b08-8be0-6da06e470d43"},"vehicle_type_id":"4","last_reported":1731190071,"current_range_meters":16800,"station_id":"ce4bhg12rcd13ifvqf70","pricing_plan_id":"cebpf4jnsgd1na2vs0mg"},{"bike_id":"ac497fa7-10d3-4ff0-bcf4-f822c6042086","system_id":"levelo_inurba_marseille","lat":43.29965,"lon":5.37169,"is_reserved":false,"is_disabled":false,"rental_uris":{"android":"levelo://app?vid=ac497fa7-10d3-4ff0-bcf4-f822c6042086","ios":"levelo://app?vid=ac497fa7-10d3-4ff0-bcf4-f822c6042086"},"vehicle_type_id":"4","last_reported":1731190071,"current_range_meters":35600,"station_id":"ce4bgr92rcd13ifvqc7g","pricing_plan_id":"cebpf4jnsgd1na2vs0mg"},{"bike_id":"e4741e83-8d7f-4eba-a939-6b9a195f55bd","system_id":"levelo_inurba_marseille","lat":43.29546,"lon":5.38175,"is_reserved":false,"is_disabled":false,"rental_uris":{"android":"levelo://app?vid=e4741e83-8d7f-4eba-a939-6b9a195f55bd","ios":"levelo://app?vid=e4741e83-8d7f-4eba-a939-6b9a195f55bd"},"vehicle_type_id":"4","last_reported":1731190071,"current_range_meters":17600,"station_id":"","pricing_plan_id":"cebpf4jnsgd1na2vs0mg"},{"bike_id":"71fd5d27-3401-428c-812a-bf57ac47d615","system_id":"levelo_inurba_marseille","lat":43.26201,"lon":5.37936,"is_reserved":false,"is_disabled":false,"rental_uris":{"android":"levelo://app?vid=71fd5d27-3401-428c-812a-bf57ac47d615","ios":"levelo://app?vid=71fd5d27-3401-428c-812a-bf57ac47d615"},"vehicle_type_id":"4","last_reported":1731190071,"current_range_meters":2000,"station_id":"ce4bhjp2rcd13ifvqg90","pricing_plan_id":"cebpf4jnsgd1na2vs0mg"},{"bike_id":"b3e47c63-7f80-4237-b227-50e17af583df","system_id":"levelo_inurba_marseille","lat":43.303,"lon":5.39198,"is_reserved":false,"is_disabled":false,"rental_uris":{"android":"levelo://app?vid=b3e47c63-7f80-4237-b227-50e17af583df","ios":"levelo://app?vid=b3e47c63-7f80-4237-b227-50e17af583df"},"vehicle_type_id":"4","last_reported":1731190071,"current_range_meters":38800,"station_id":"ce4bgkh2rcd13ifvqbk0","pricing_plan_id":"cebpf4jnsgd1na2vs0mg"},{"bike_id":"c21bbdd4-e4f5-4997-95ba-d9b5aa294fac","system_id":"levelo_inurba_marseille","lat":43.27816,"lon":5.40713,"is_reserved":false,"is_disabled":false,"rental_uris":{"android":"levelo://app?vid=c21bbdd4-e4f5-4997-95ba-d9b5aa294fac","ios":"levelo://app?vid=c21bbdd4-e4f5-4997-95ba-d9b5aa294fac"},"vehicle_type_id":"4","last_reported":1731190071,"current_range_meters":7200,"station_id":"ce4bhnh2rcd13ifvqgtg","pricing_plan_id":"cebpf4jnsgd1na2vs0mg"},{"bike_id":"b9059161-bc2a-4853-8231-de961bd5f1e7","system_id":"levelo_inurba_marseille","lat":43.33721,"lon":5.39178,"is_reserved":false,"is_disabled":false,"rental_uris":{"android":"levelo://app?vid=b9059161-bc2a-4853-8231-de961bd5f1e7","ios":"levelo://app?vid=b9059161-bc2a-4853-8231-de961bd5f1e7"},"vehicle_type_id":"4","last_reported":1731190071,"current_range_meters":20400,"station_id":"ce4bhr92rcd13ifvqhsg","pricing_plan_id":"cebpf4jnsgd1na2vs0mg"},{"bike_id":"9e00ae8d-b3a9-4d4b-a691-62debbf0e14c","system_id":"levelo_inurba_marseille","lat":43.23187,"lon":5.39991,"is_reserved":false,"is_disabled":false,"rental_uris":{"android":"levelo://app?vid=9e00ae8d-b3a9-4d4b-a691-62debbf0e14c","ios":"levelo://app?vid=9e00ae8d-b3a9-4d4b-a691-62debbf0e14c"},"vehicle_type_id":"4","last_reported":1731190071,"current_range_meters":38800,"station_id":"ce4bhn12rcd13ifvqgqg","pricing_plan_id":"cebpf4jnsgd1na2vs0mg"},{"bike_id":"3e09356d-842a-4c31-9cc1-46c2d49b70cc","system_id":"levelo_inurba_marseille","lat":43.32365,"lon":5.38881,"is_reserved":false,"is_disabled":false,"rental_uris":{"android":"levelo://app?vid=3e09356d-842a-4c31-9cc1-46c2d49b70cc","ios":"levelo://app?vid=3e09356d-842a-4c31-9cc1-46c2d49b70cc"},"vehicle_type_id":"4","last_reported":1731190071,"current_range_meters":35600,"station_id":"ce4bhqp2rcd13ifvqhog","pricing_plan_id":"cebpf4jnsgd1na2vs0mg"},{"bike_id":"2c132dd2-0641-4cc1-a96a-1b2b0f708fe2","system_id":"levelo_inurba_marseille","lat":43.25488,"lon":5.37646,"is_reserved":false,"is_disabled":false,"rental_uris":{"android":"levelo://app?vid=2c132dd2-0641-4cc1-a96a-1b2b0f708fe2","ios":"levelo://app?vid=2c132dd2-0641-4cc1-a96a-1b2b0f708fe2"},"vehicle_type_id":"4","last_reported":1731190071,"current_range_meters":12800,"station_id":"ce4bhh12rcd13ifvqff0","pricing_plan_id":"cebpf4jnsgd1na2vs0mg"},{"bike_id":"0c840890-4ab7-41f8-8e64-cf28adac14a2","system_id":"levelo_inurba_marseille","lat":43.24996,"lon":5.38933,"is_reserved":false,"is_disabled":false,"rental_uris":{"android":"levelo://app?vid=0c840890-4ab7-41f8-8e64-cf28adac14a2","ios":"levelo://app?vid=0c840890-4ab7-41f8-8e64-cf28adac14a2"},"vehicle_type_id":"4","last_reported":1731190071,"current_range_meters":30800,"station_id":"ce4bhgp2rcd13ifvqfd0","pricing_plan_id":"cebpf4jnsgd1na2vs0mg"},{"bike_id":"7f6039b9-3968-4840-8062-3d5a572ce874","system_id":"levelo_inurba_marseille","lat":43.296228,"lon":5.387878,"is_reserved":false,"is_disabled":false,"rental_uris":{"android":"levelo://app?vid=7f6039b9-3968-4840-8062-3d5a572ce874","ios":"levelo://app?vid=7f6039b9-3968-4840-8062-3d5a572ce874"},"vehicle_type_id":"4","last_reported":1731190071,"current_range_meters":36400,"station_id":"","pricing_plan_id":"cebpf4jnsgd1na2vs0mg"},{"bike_id":"86d3ae6f-5e30-450e-95ac-e1dbbae93f75","system_id":"levelo_inurba_marseille","lat":43.30427,"lon":5.38891,"is_reserved":false,"is_disabled":false,"rental_uris":{"android":"levelo://app?vid=86d3ae6f-5e30-450e-95ac-e1dbbae93f75","ios":"levelo://app?vid=86d3ae6f-5e30-450e-95ac-e1dbbae93f75"},"vehicle_type_id":"4","last_reported":1731190071,"current_range_meters":3200,"station_id":"ce4bgk12rcd13ifvqbi0","pricing_plan_id":"cebpf4jnsgd1na2vs0mg"},{"bike_id":"eadc5544-d74f-4b08-ad57-ddeb63b596fa","system_id":"levelo_inurba_marseille","lat":43.29536,"lon":5.38546,"is_reserved":false,"is_disabled":false,"rental_uris":{"android":"levelo://app?vid=eadc5544-d74f-4b08-ad57-ddeb63b596fa","ios":"levelo://app?vid=eadc5544-d74f-4b08-ad57-ddeb63b596fa"},"vehicle_type_id":"4","last_reported":1731190071,"current_range_meters":24400,"station_id":"ce4bgih2rcd13ifvqba0","pricing_plan_id":"cebpf4jnsgd1na2vs0mg"},{"bike_id":"d2b69f2e-daf8-4233-be65-2d8ca4c447e9","system_id":"levelo_inurba_marseille","lat":43.25821,"lon":5.39434,"is_reserved":false,"is_disabled":false,"rental_uris":{"android":"levelo://app?vid=d2b69f2e-daf8-4233-be65-2d8ca4c447e9","ios":"levelo://app?vid=d2b69f2e-daf8-4233-be65-2d8ca4c447e9"},"vehicle_type_id":"4","last_reported":1731190071,"current_range_meters":33600,"station_id":"ce4bhip2rcd13ifvqft0","pricing_plan_id":"cebpf4jnsgd1na2vs0mg"},{"bike_id":"9edd8629-ae10-4d90-95bf-0a076dd01727","system_id":"levelo_inurba_marseille","lat":43.26803,"lon":5.40263,"is_reserved":false,"is_disabled":false,"rental_uris":{"android":"levelo://app?vid=9edd8629-ae10-4d90-95bf-0a076dd01727","ios":"levelo://app?vid=9edd8629-ae10-4d90-95bf-0a076dd01727"},"vehicle_type_id":"4","last_reported":1731190071,"current_range_meters":38400,"station_id":"ce501612rcd8frsf0b60","pricing_plan_id":"cebpf4jnsgd1na2vs0mg"},{"bike_id":"022a6c3f-2c40-4cbf-9753-f6fa44b0f843","system_id":"levelo_inurba_marseille","lat":43.3128,"lon":5.4016,"is_reserved":false,"is_disabled":false,"rental_uris":{"android":"levelo://app?vid=022a6c3f-2c40-4cbf-9753-f6fa44b0f843","ios":"levelo://app?vid=022a6c3f-2c40-4cbf-9753-f6fa44b0f843"},"vehicle_type_id":"4","last_reported":1731190071,"current_range_meters":38000,"station_id":"ce4bh092rcd13ifvqd30","pricing_plan_id":"cebpf4jnsgd1na2vs0mg"},{"bike_id":"f558ea4f-d047-481c-9fbf-d3b1e5bd4e51","system_id":"levelo_inurba_marseille","lat":43.29912,"lon":5.38134,"is_reserved":false,"is_disabled":false,"rental_uris":{"android":"levelo://app?vid=f558ea4f-d047-481c-9fbf-d3b1e5bd4e51","ios":"levelo://app?vid=f558ea4f-d047-481c-9fbf-d3b1e5bd4e51"},"vehicle_type_id":"4","last_reported":1731190071,"current_range_meters":38000,"station_id":"ce4bgj12rcd13ifvqbc0","pricing_plan_id":"cebpf4jnsgd1na2vs0mg"},{"bike_id":"b51d004f-3c4c-4fc0-9c38-6feab66e4360","system_id":"levelo_inurba_marseille","lat":43.31076,"lon":5.38353,"is_reserved":false,"is_disabled":false,"rental_uris":{"android":"levelo://app?vid=b51d004f-3c4c-4fc0-9c38-6feab66e4360","ios":"levelo://app?vid=b51d004f-3c4c-4fc0-9c38-6feab66e4360"},"vehicle_type_id":"4","last_reported":1731190071,"current_range_meters":22400,"station_id":"ce4bgv92rcd13ifvqcr0","pricing_plan_id":"cebpf4jnsgd1na2vs0mg"},{"bike_id":"048e4f6f-c66a-46c5-a506-69df7063878b","system_id":"levelo_inurba_marseille","lat":43.23968,"lon":5.36632,"is_reserved":false,"is_disabled":false,"rental_uris":{"android":"levelo://app?vid=048e4f6f-c66a-46c5-a506-69df7063878b","ios":"levelo://app?vid=048e4f6f-c66a-46c5-a506-69df7063878b"},"vehicle_type_id":"4","last_reported":1731190071,"current_range_meters":8400,"station_id":"ce4bhi12rcd13ifvqfp0","pricing_plan_id":"cebpf4jnsgd1na2vs0mg"},{"bike_id":"c598413b-4611-4061-9162-a6cc558d0b86","system_id":"levelo_inurba_marseille","lat":43.31169,"lon":5.38727,"is_reserved":false,"is_disabled":false,"rental_uris":{"android":"levelo://app?vid=c598413b-4611-4061-9162-a6cc558d0b86","ios":"levelo://app?vid=c598413b-4611-4061-9162-a6cc558d0b86"},"vehicle_type_id":"4","last_reported":1731190071,"current_range_meters":25600,"station_id":"ce4bgv12rcd13ifvqcp0","pricing_plan_id":"cebpf4jnsgd1na2vs0mg"},{"bike_id":"cbe52ca1-7ea1-4cfa-9099-43c9013d88ca","system_id":"levelo_inurba_marseille","lat":43.23969,"lon":5.36624,"is_reserved":false,"is_disabled":false,"rental_uris":{"android":"levelo://app?vid=cbe52ca1-7ea1-4cfa-9099-43c9013d88ca","ios":"levelo://app?vid=cbe52ca1-7ea1-4cfa-9099-43c9013d88ca"},"vehicle_type_id":"4","last_reported":1731190071,"current_range_meters":10800,"station_id":"ce4bhi12rcd13ifvqfp0","pricing_plan_id":"cebpf4jnsgd1na2vs0mg"},{"bike_id":"bdd6c1e4-4d64-4f78-b0c1-188ffa73cc53","system_id":"levelo_inurba_marseille","lat":43.2954,"lon":5.3854,"is_reserved":false,"is_disabled":false,"rental_uris":{"android":"levelo://app?vid=bdd6c1e4-4d64-4f78-b0c1-188ffa73cc53","ios":"levelo://app?vid=bdd6c1e4-4d64-4f78-b0c1-188ffa73cc53"},"vehicle_type_id":"4","last_reported":1731190071,"current_range_meters":12000,"station_id":"ce4bgih2rcd13ifvqba0","pricing_plan_id":"cebpf4jnsgd1na2vs0mg"},{"bike_id":"bfefd02c-ff94-4a5f-992b-3cfef5809d34","system_id":"levelo_inurba_marseille","lat":43.29968,"lon":5.38492,"is_reserved":false,"is_disabled":false,"rental_uris":{"android":"levelo://app?vid=bfefd02c-ff94-4a5f-992b-3cfef5809d34","ios":"levelo://app?vid=bfefd02c-ff94-4a5f-992b-3cfef5809d34"},"vehicle_type_id":"4","last_reported":1731190071,"current_range_meters":32800,"station_id":"ce4bgj92rcd13ifvqbd0","pricing_plan_id":"cebpf4jnsgd1na2vs0mg"},{"bike_id":"4e167b6a-95ea-4c5a-b48a-967acf7cdae4","system_id":"levelo_inurba_marseille","lat":43.29423,"lon":5.38624,"is_reserved":false,"is_disabled":false,"rental_uris":{"android":"levelo://app?vid=4e167b6a-95ea-4c5a-b48a-967acf7cdae4","ios":"levelo://app?vid=4e167b6a-95ea-4c5a-b48a-967acf7cdae4"},"vehicle_type_id":"4","last_reported":1731190071,"current_range_meters":38800,"station_id":"ce4bh2h2rcd13ifvqdh0","pricing_plan_id":"cebpf4jnsgd1na2vs0mg"},{"bike_id":"e931dbea-a637-4f2a-b715-63e0aded4802","system_id":"levelo_inurba_marseille","lat":43.31163,"lon":5.38706,"is_reserved":false,"is_disabled":false,"rental_uris":{"android":"levelo://app?vid=e931dbea-a637-4f2a-b715-63e0aded4802","ios":"levelo://app?vid=e931dbea-a637-4f2a-b715-63e0aded4802"},"vehicle_type_id":"4","last_reported":1731190071,"current_range_meters":39200,"station_id":"ce4bgv12rcd13ifvqcp0","pricing_plan_id":"cebpf4jnsgd1na2vs0mg"},{"bike_id":"c2e7ed3a-f62d-4fe5-9088-bf07ba717243","system_id":"levelo_inurba_marseille","lat":43.26679,"lon":5.38267,"is_reserved":false,"is_disabled":false,"rental_uris":{"android":"levelo://app?vid=c2e7ed3a-f62d-4fe5-9088-bf07ba717243","ios":"levelo://app?vid=c2e7ed3a-f62d-4fe5-9088-bf07ba717243"},"vehicle_type_id":"4","last_reported":1731190071,"current_range_meters":28400,"station_id":"ce4bhg92rcd13ifvqf90","pricing_plan_id":"cebpf4jnsgd1na2vs0mg"},{"bike_id":"b2bda100-55bb-4b95-840e-426b436ee1ac","system_id":"levelo_inurba_marseille","lat":43.31482,"lon":5.37297,"is_reserved":false,"is_disabled":false,"rental_uris":{"android":"levelo://app?vid=b2bda100-55bb-4b95-840e-426b436ee1ac","ios":"levelo://app?vid=b2bda100-55bb-4b95-840e-426b436ee1ac"},"vehicle_type_id":"4","last_reported":1731190071,"current_range_meters":25200,"station_id":"ce4bgt12rcd13ifvqcd0","pricing_plan_id":"cebpf4jnsgd1na2vs0mg"},{"bike_id":"c94909dd-e782-4a49-bf66-6d27f36ac2ee","system_id":"levelo_inurba_marseille","lat":43.2964,"lon":5.38089,"is_reserved":false,"is_disabled":false,"rental_uris":{"android":"levelo://app?vid=c94909dd-e782-4a49-bf66-6d27f36ac2ee","ios":"levelo://app?vid=c94909dd-e782-4a49-bf66-6d27f36ac2ee"},"vehicle_type_id":"4","last_reported":1731190071,"current_range_meters":32800,"station_id":"ce4bgl12rcd13ifvqbo0","pricing_plan_id":"cebpf4jnsgd1na2vs0mg"},{"bike_id":"c221efe7-efcb-49b8-a1b0-1dd8d171a453","system_id":"levelo_inurba_marseille","lat":43.33726,"lon":5.39179,"is_reserved":false,"is_disabled":false,"rental_uris":{"android":"levelo://app?vid=c221efe7-efcb-49b8-a1b0-1dd8d171a453","ios":"levelo://app?vid=c221efe7-efcb-49b8-a1b0-1dd8d171a453"},"vehicle_type_id":"4","last_reported":1731190071,"current_range_meters":38000,"station_id":"ce4bhr92rcd13ifvqhsg","pricing_plan_id":"cebpf4jnsgd1na2vs0mg"},{"bike_id":"b8fdd341-0697-41ca-82c9-e4253415f4e6","system_id":"levelo_inurba_marseille","lat":43.23062,"lon":5.35493,"is_reserved":false,"is_disabled":false,"rental_uris":{"android":"levelo://app?vid=b8fdd341-0697-41ca-82c9-e4253415f4e6","ios":"levelo://app?vid=b8fdd341-0697-41ca-82c9-e4253415f4e6"},"vehicle_type_id":"4","last_reported":1731190071,"current_range_meters":30400,"station_id":"cpo3342slgdg3j2ifvpg","pricing_plan_id":"cebpf4jnsgd1na2vs0mg"},{"bike_id":"cf9daf46-3bd1-47e7-80ac-0de06577c598","system_id":"levelo_inurba_marseille","lat":43.24386,"lon":5.37053,"is_reserved":false,"is_disabled":false,"rental_uris":{"android":"levelo://app?vid=cf9daf46-3bd1-47e7-80ac-0de06577c598","ios":"levelo://app?vid=cf9daf46-3bd1-47e7-80ac-0de06577c598"},"vehicle_type_id":"4","last_reported":1731190071,"current_range_meters":38800,"station_id":"ce4bhhh2rcd13ifvqfk0","pricing_plan_id":"cebpf4jnsgd1na2vs0mg"},{"bike_id":"e477c0d2-7532-4ab2-98f5-2675f4104977","system_id":"levelo_inurba_marseille","lat":43.23336,"lon":5.39947,"is_reserved":false,"is_disabled":false,"rental_uris":{"android":"levelo://app?vid=e477c0d2-7532-4ab2-98f5-2675f4104977","ios":"levelo://app?vid=e477c0d2-7532-4ab2-98f5-2675f4104977"},"vehicle_type_id":"4","last_reported":1731190071,"current_range_meters":9200,"station_id":"ce4bhn12rcd13ifvqgqg","pricing_plan_id":"cebpf4jnsgd1na2vs0mg"},{"bike_id":"9273fa3f-8051-4693-b481-186e59c04091","system_id":"levelo_inurba_marseille","lat":43.29422,"lon":5.38624,"is_reserved":false,"is_disabled":false,"rental_uris":{"android":"levelo://app?vid=9273fa3f-8051-4693-b481-186e59c04091","ios":"levelo://app?vid=9273fa3f-8051-4693-b481-186e59c04091"},"vehicle_type_id":"4","last_reported":1731190071,"current_range_meters":20800,"station_id":"ce4bh2h2rcd13ifvqdh0","pricing_plan_id":"cebpf4jnsgd1na2vs0mg"},{"bike_id":"c67a1795-3146-4b01-8240-7fe64c056eca","system_id":"levelo_inurba_marseille","lat":43.309316,"lon":5.401345,"is_reserved":false,"is_disabled":false,"rental_uris":{"android":"levelo://app?vid=c67a1795-3146-4b01-8240-7fe64c056eca","ios":"levelo://app?vid=c67a1795-3146-4b01-8240-7fe64c056eca"},"vehicle_type_id":"4","last_reported":1731190071,"current_range_meters":16400,"station_id":"ce4bgvp2rcd13ifvqct0","pricing_plan_id":"cebpf4jnsgd1na2vs0mg"},{"bike_id":"48ac5c04-4660-41a3-b787-f30e05fcc0f0","system_id":"levelo_inurba_marseille","lat":43.28464,"lon":5.35879,"is_reserved":false,"is_disabled":false,"rental_uris":{"android":"levelo://app?vid=48ac5c04-4660-41a3-b787-f30e05fcc0f0","ios":"levelo://app?vid=48ac5c04-4660-41a3-b787-f30e05fcc0f0"},"vehicle_type_id":"4","last_reported":1731190071,"current_range_meters":27200,"station_id":"ce4bhah2rcd13ifvqei0","pricing_plan_id":"cebpf4jnsgd1na2vs0mg"},{"bike_id":"79cfb2da-a585-4fce-98cf-dc3b63c5a31f","system_id":"levelo_inurba_marseille","lat":43.25086,"lon":5.39519,"is_reserved":false,"is_disabled":false,"rental_uris":{"android":"levelo://app?vid=79cfb2da-a585-4fce-98cf-dc3b63c5a31f","ios":"levelo://app?vid=79cfb2da-a585-4fce-98cf-dc3b63c5a31f"},"vehicle_type_id":"4","last_reported":1731190071,"current_range_meters":37600,"station_id":"ce4bhm12rcd13ifvqgkg","pricing_plan_id":"cebpf4jnsgd1na2vs0mg"},{"bike_id":"42fb419d-4a12-47ad-a0ca-8ce20270d860","system_id":"levelo_inurba_marseille","lat":43.27209,"lon":5.39184,"is_reserved":false,"is_disabled":false,"rental_uris":{"android":"levelo://app?vid=42fb419d-4a12-47ad-a0ca-8ce20270d860","ios":"levelo://app?vid=42fb419d-4a12-47ad-a0ca-8ce20270d860"},"vehicle_type_id":"4","last_reported":1731190071,"current_range_meters":26800,"station_id":"ce4bhhp2rcd13ifvqfm0","pricing_plan_id":"cebpf4jnsgd1na2vs0mg"},{"bike_id":"bc4759fa-afe0-409c-990b-9bc7a136ee1f","system_id":"levelo_inurba_marseille","lat":43.29261,"lon":5.40908,"is_reserved":false,"is_disabled":false,"rental_uris":{"android":"levelo://app?vid=bc4759fa-afe0-409c-990b-9bc7a136ee1f","ios":"levelo://app?vid=bc4759fa-afe0-409c-990b-9bc7a136ee1f"},"vehicle_type_id":"4","last_reported":1731190071,"current_range_meters":17200,"station_id":"ce4bh192rcd13ifvqdc0","pricing_plan_id":"cebpf4jnsgd1na2vs0mg"},{"bike_id":"45da62df-7f80-44a3-ba8e-1acd781a5f69","system_id":"levelo_inurba_marseille","lat":43.29555,"lon":5.42281,"is_reserved":false,"is_disabled":false,"rental_uris":{"android":"levelo://app?vid=45da62df-7f80-44a3-ba8e-1acd781a5f69","ios":"levelo://app?vid=45da62df-7f80-44a3-ba8e-1acd781a5f69"},"vehicle_type_id":"4","last_reported":1731190071,"current_range_meters":28000,"station_id":"ce4bhph2rcd13ifvqhdg","pricing_plan_id":"cebpf4jnsgd1na2vs0mg"},{"bike_id":"2972f759-c98e-4fe7-9758-85d215895273","system_id":"levelo_inurba_marseille","lat":43.23968,"lon":5.36616,"is_reserved":false,"is_disabled":false,"rental_uris":{"android":"levelo://app?vid=2972f759-c98e-4fe7-9758-85d215895273","ios":"levelo://app?vid=2972f759-c98e-4fe7-9758-85d215895273"},"vehicle_type_id":"4","last_reported":1731190071,"current_range_meters":38400,"station_id":"ce4bhi12rcd13ifvqfp0","pricing_plan_id":"cebpf4jnsgd1na2vs0mg"},{"bike_id":"010d3bc6-1da9-4e2e-9558-6436a5780c21","system_id":"levelo_inurba_marseille","lat":43.23194,"lon":5.3555,"is_reserved":false,"is_disabled":false,"rental_uris":{"android":"levelo://app?vid=010d3bc6-1da9-4e2e-9558-6436a5780c21","ios":"levelo://app?vid=010d3bc6-1da9-4e2e-9558-6436a5780c21"},"vehicle_type_id":"4","last_reported":1731190071,"current_range_meters":38800,"station_id":"ce4bhu92rcd13ifvqi70","pricing_plan_id":"cebpf4jnsgd1na2vs0mg"},{"bike_id":"197c105a-f7c0-4383-adea-686cdf323f28","system_id":"levelo_inurba_marseille","lat":43.31713,"lon":5.43712,"is_reserved":false,"is_disabled":false,"rental_uris":{"android":"levelo://app?vid=197c105a-f7c0-4383-adea-686cdf323f28","ios":"levelo://app?vid=197c105a-f7c0-4383-adea-686cdf323f28"},"vehicle_type_id":"4","last_reported":1731190071,"current_range_meters":38000,"station_id":"ce4bhp92rcd13ifvqhcg","pricing_plan_id":"cebpf4jnsgd1na2vs0mg"},{"bike_id":"720179be-536c-414c-b19d-c298d2a8d0ec","system_id":"levelo_inurba_marseille","lat":43.29563,"lon":5.42287,"is_reserved":false,"is_disabled":false,"rental_uris":{"android":"levelo://app?vid=720179be-536c-414c-b19d-c298d2a8d0ec","ios":"levelo://app?vid=720179be-536c-414c-b19d-c298d2a8d0ec"},"vehicle_type_id":"4","last_reported":1731190071,"current_range_meters":10800,"station_id":"ce4bhph2rcd13ifvqhdg","pricing_plan_id":"cebpf4jnsgd1na2vs0mg"},{"bike_id":"0d7cc5d6-c5dc-4ad1-8db4-fa3007430708","system_id":"levelo_inurba_marseille","lat":43.27969,"lon":5.38748,"is_reserved":false,"is_disabled":false,"rental_uris":{"android":"levelo://app?vid=0d7cc5d6-c5dc-4ad1-8db4-fa3007430708","ios":"levelo://app?vid=0d7cc5d6-c5dc-4ad1-8db4-fa3007430708"},"vehicle_type_id":"4","last_reported":1731190071,"current_range_meters":6400,"station_id":"ce4bhg12rcd13ifvqf80","pricing_plan_id":"cebpf4jnsgd1na2vs0mg"},{"bike_id":"b25de221-e9a7-4c18-8d50-062dbb86e768","system_id":"levelo_inurba_marseille","lat":43.32493,"lon":5.36568,"is_reserved":false,"is_disabled":false,"rental_uris":{"android":"levelo://app?vid=b25de221-e9a7-4c18-8d50-062dbb86e768","ios":"levelo://app?vid=b25de221-e9a7-4c18-8d50-062dbb86e768"},"vehicle_type_id":"4","last_reported":1731190071,"current_range_meters":38400,"station_id":"ce4bhs12rcd13ifvqhvg","pricing_plan_id":"cebpf4jnsgd1na2vs0mg"},{"bike_id":"b484e10f-5530-499a-9266-a7d441c35196","system_id":"levelo_inurba_marseille","lat":43.29272,"lon":5.38446,"is_reserved":false,"is_disabled":false,"rental_uris":{"android":"levelo://app?vid=b484e10f-5530-499a-9266-a7d441c35196","ios":"levelo://app?vid=b484e10f-5530-499a-9266-a7d441c35196"},"vehicle_type_id":"4","last_reported":1731190071,"current_range_meters":22800,"station_id":"ce4bh692rcd13ifvqea0","pricing_plan_id":"cebpf4jnsgd1na2vs0mg"},{"bike_id":"018a3589-77d8-4b19-83ac-f9642172d886","system_id":"levelo_inurba_marseille","lat":43.28116,"lon":5.37839,"is_reserved":false,"is_disabled":false,"rental_uris":{"android":"levelo://app?vid=018a3589-77d8-4b19-83ac-f9642172d886","ios":"levelo://app?vid=018a3589-77d8-4b19-83ac-f9642172d886"},"vehicle_type_id":"4","last_reported":1731190071,"current_range_meters":31200,"station_id":"ce4bha12rcd13ifvqee0","pricing_plan_id":"cebpf4jnsgd1na2vs0mg"},{"bike_id":"d1288870-7c66-420c-a79d-ed206752a9ad","system_id":"levelo_inurba_marseille","lat":43.27826,"lon":5.39214,"is_reserved":false,"is_disabled":false,"rental_uris":{"android":"levelo://app?vid=d1288870-7c66-420c-a79d-ed206752a9ad","ios":"levelo://app?vid=d1288870-7c66-420c-a79d-ed206752a9ad"},"vehicle_type_id":"4","last_reported":1731190071,"current_range_meters":8000,"station_id":"ce4bhjp2rcd13ifvqga0","pricing_plan_id":"cebpf4jnsgd1na2vs0mg"},{"bike_id":"1511e94f-1490-4ebd-bfc7-b9fb035707c0","system_id":"levelo_inurba_marseille","lat":43.26953,"lon":5.38624,"is_reserved":false,"is_disabled":false,"rental_uris":{"android":"levelo://app?vid=1511e94f-1490-4ebd-bfc7-b9fb035707c0","ios":"levelo://app?vid=1511e94f-1490-4ebd-bfc7-b9fb035707c0"},"vehicle_type_id":"4","last_reported":1731190071,"current_range_meters":38800,"station_id":"ce4bhh92rcd13ifvqfh0","pricing_plan_id":"cebpf4jnsgd1na2vs0mg"},{"bike_id":"b69ed352-f5e4-4470-9d1b-9ce134e97c50","system_id":"levelo_inurba_marseille","lat":43.27944,"lon":5.41037,"is_reserved":false,"is_disabled":false,"rental_uris":{"android":"levelo://app?vid=b69ed352-f5e4-4470-9d1b-9ce134e97c50","ios":"levelo://app?vid=b69ed352-f5e4-4470-9d1b-9ce134e97c50"},"vehicle_type_id":"4","last_reported":1731190071,"current_range_meters":30000,"station_id":"ce4bhnp2rcd13ifvqh0g","pricing_plan_id":"cebpf4jnsgd1na2vs0mg"},{"bike_id":"7412918f-e852-4734-ac8b-c4b5d62b6217","system_id":"levelo_inurba_marseille","lat":43.31362,"lon":5.38509,"is_reserved":false,"is_disabled":false,"rental_uris":{"android":"levelo://app?vid=7412918f-e852-4734-ac8b-c4b5d62b6217","ios":"levelo://app?vid=7412918f-e852-4734-ac8b-c4b5d62b6217"},"vehicle_type_id":"4","last_reported":1731190071,"current_range_meters":18800,"station_id":"ce4bgt92rcd13ifvqcf0","pricing_plan_id":"cebpf4jnsgd1na2vs0mg"},{"bike_id":"2ad361b6-540e-4873-9e5b-6b5de9b52523","system_id":"levelo_inurba_marseille","lat":43.23963,"lon":5.36622,"is_reserved":false,"is_disabled":false,"rental_uris":{"android":"levelo://app?vid=2ad361b6-540e-4873-9e5b-6b5de9b52523","ios":"levelo://app?vid=2ad361b6-540e-4873-9e5b-6b5de9b52523"},"vehicle_type_id":"4","last_reported":1731190071,"current_range_meters":6000,"station_id":"ce4bhi12rcd13ifvqfp0","pricing_plan_id":"cebpf4jnsgd1na2vs0mg"},{"bike_id":"fa290c10-0eac-401f-bd34-34c77d81c917","system_id":"levelo_inurba_marseille","lat":43.23966,"lon":5.36629,"is_reserved":false,"is_disabled":false,"rental_uris":{"android":"levelo://app?vid=fa290c10-0eac-401f-bd34-34c77d81c917","ios":"levelo://app?vid=fa290c10-0eac-401f-bd34-34c77d81c917"},"vehicle_type_id":"4","last_reported":1731190071,"current_range_meters":18800,"station_id":"ce4bhi12rcd13ifvqfp0","pricing_plan_id":"cebpf4jnsgd1na2vs0mg"},{"bike_id":"cb9b0141-af3c-4068-925c-38c2867ded80","system_id":"levelo_inurba_marseille","lat":43.27375,"lon":5.36249,"is_reserved":false,"is_disabled":false,"rental_uris":{"android":"levelo://app?vid=cb9b0141-af3c-4068-925c-38c2867ded80","ios":"levelo://app?vid=cb9b0141-af3c-4068-925c-38c2867ded80"},"vehicle_type_id":"4","last_reported":1731190071,"current_range_meters":10800,"station_id":"ce4bhbh2rcd13ifvqeo0","pricing_plan_id":"cebpf4jnsgd1na2vs0mg"},{"bike_id":"e2c2f3e0-4f75-4dab-b721-40ad3e42e2b2","system_id":"levelo_inurba_marseille","lat":43.28128,"lon":5.44278,"is_reserved":false,"is_disabled":false,"rental_uris":{"android":"levelo://app?vid=e2c2f3e0-4f75-4dab-b721-40ad3e42e2b2","ios":"levelo://app?vid=e2c2f3e0-4f75-4dab-b721-40ad3e42e2b2"},"vehicle_type_id":"4","last_reported":1731190071,"current_range_meters":27600,"station_id":"","pricing_plan_id":"cebpf4jnsgd1na2vs0mg"},{"bike_id":"5e9b58e1-3c83-4d6d-8e63-bd401c235d13","system_id":"levelo_inurba_marseille","lat":43.2417,"lon":5.36404,"is_reserved":false,"is_disabled":false,"rental_uris":{"android":"levelo://app?vid=5e9b58e1-3c83-4d6d-8e63-bd401c235d13","ios":"levelo://app?vid=5e9b58e1-3c83-4d6d-8e63-bd401c235d13"},"vehicle_type_id":"4","last_reported":1731190071,"current_range_meters":9600,"station_id":"cpo36qri1sfpv3e86is0","pricing_plan_id":"cebpf4jnsgd1na2vs0mg"},{"bike_id":"b9478b1d-79e3-44c9-ae60-496dd5151f62","system_id":"levelo_inurba_marseille","lat":43.29177,"lon":5.37154,"is_reserved":false,"is_disabled":false,"rental_uris":{"android":"levelo://app?vid=b9478b1d-79e3-44c9-ae60-496dd5151f62","ios":"levelo://app?vid=b9478b1d-79e3-44c9-ae60-496dd5151f62"},"vehicle_type_id":"4","last_reported":1731190071,"current_range_meters":35200,"station_id":"ce4bha92rcd13ifvqeh0","pricing_plan_id":"cebpf4jnsgd1na2vs0mg"},{"bike_id":"4204c697-9142-4d6f-a64b-20f319f8c9a7","system_id":"levelo_inurba_marseille","lat":43.2707,"lon":5.42277,"is_reserved":false,"is_disabled":false,"rental_uris":{"android":"levelo://app?vid=4204c697-9142-4d6f-a64b-20f319f8c9a7","ios":"levelo://app?vid=4204c697-9142-4d6f-a64b-20f319f8c9a7"},"vehicle_type_id":"4","last_reported":1731190071,"current_range_meters":11200,"station_id":"ce4bhk92rcd13ifvqgb0","pricing_plan_id":"cebpf4jnsgd1na2vs0mg"},{"bike_id":"784b2a2a-419a-460b-9e9b-be804f36db5c","system_id":"levelo_inurba_marseille","lat":43.24807,"lon":5.37453,"is_reserved":false,"is_disabled":false,"rental_uris":{"android":"levelo://app?vid=784b2a2a-419a-460b-9e9b-be804f36db5c","ios":"levelo://app?vid=784b2a2a-419a-460b-9e9b-be804f36db5c"},"vehicle_type_id":"4","last_reported":1731190071,"current_range_meters":6400,"station_id":"ce4bhgh2rcd13ifvqfb0","pricing_plan_id":"cebpf4jnsgd1na2vs0mg"},{"bike_id":"b4d541a0-93bc-439c-91a4-47479bc68375","system_id":"levelo_inurba_marseille","lat":43.29059,"lon":5.35911,"is_reserved":false,"is_disabled":false,"rental_uris":{"android":"levelo://app?vid=b4d541a0-93bc-439c-91a4-47479bc68375","ios":"levelo://app?vid=b4d541a0-93bc-439c-91a4-47479bc68375"},"vehicle_type_id":"4","last_reported":1731190071,"current_range_meters":26800,"station_id":"ce4bha92rcd13ifvqeg0","pricing_plan_id":"cebpf4jnsgd1na2vs0mg"},{"bike_id":"4f8f3d05-77a1-4608-a529-e5ae940296cc","system_id":"levelo_inurba_marseille","lat":43.28938,"lon":5.36628,"is_reserved":false,"is_disabled":false,"rental_uris":{"android":"levelo://app?vid=4f8f3d05-77a1-4608-a529-e5ae940296cc","ios":"levelo://app?vid=4f8f3d05-77a1-4608-a529-e5ae940296cc"},"vehicle_type_id":"4","last_reported":1731190071,"current_range_meters":38800,"station_id":"ce4bhap2rcd13ifvqek0","pricing_plan_id":"cebpf4jnsgd1na2vs0mg"},{"bike_id":"62e36f07-39ba-480c-a73a-58914fab6d81","system_id":"levelo_inurba_marseille","lat":43.29578,"lon":5.39976,"is_reserved":false,"is_disabled":false,"rental_uris":{"android":"levelo://app?vid=62e36f07-39ba-480c-a73a-58914fab6d81","ios":"levelo://app?vid=62e36f07-39ba-480c-a73a-58914fab6d81"},"vehicle_type_id":"4","last_reported":1731190071,"current_range_meters":28000,"station_id":"ce4bh312rcd13ifvqdj0","pricing_plan_id":"cebpf4jnsgd1na2vs0mg"},{"bike_id":"72209f68-d3ea-4a0c-9190-6a49cfe843ba","system_id":"levelo_inurba_marseille","lat":43.27944,"lon":5.41044,"is_reserved":false,"is_disabled":false,"rental_uris":{"android":"levelo://app?vid=72209f68-d3ea-4a0c-9190-6a49cfe843ba","ios":"levelo://app?vid=72209f68-d3ea-4a0c-9190-6a49cfe843ba"},"vehicle_type_id":"4","last_reported":1731190071,"current_range_meters":8400,"station_id":"ce4bhnp2rcd13ifvqh0g","pricing_plan_id":"cebpf4jnsgd1na2vs0mg"},{"bike_id":"f2e70b3e-a6ab-4cb7-b1c3-5b5425e40ab4","system_id":"levelo_inurba_marseille","lat":43.27972,"lon":5.38751,"is_reserved":false,"is_disabled":false,"rental_uris":{"android":"levelo://app?vid=f2e70b3e-a6ab-4cb7-b1c3-5b5425e40ab4","ios":"levelo://app?vid=f2e70b3e-a6ab-4cb7-b1c3-5b5425e40ab4"},"vehicle_type_id":"4","last_reported":1731190071,"current_range_meters":36800,"station_id":"ce4bhg12rcd13ifvqf80","pricing_plan_id":"cebpf4jnsgd1na2vs0mg"},{"bike_id":"8ebe8bc1-9d68-4a29-a6ac-71ab830fd04e","system_id":"levelo_inurba_marseille","lat":43.30427,"lon":5.39762,"is_reserved":false,"is_disabled":false,"rental_uris":{"android":"levelo://app?vid=8ebe8bc1-9d68-4a29-a6ac-71ab830fd04e","ios":"levelo://app?vid=8ebe8bc1-9d68-4a29-a6ac-71ab830fd04e"},"vehicle_type_id":"4","last_reported":1731190071,"current_range_meters":24800,"station_id":"ce4bh092rcd13ifvqd20","pricing_plan_id":"cebpf4jnsgd1na2vs0mg"},{"bike_id":"e6dc57cf-44da-4102-9d69-7c7b35161e11","system_id":"levelo_inurba_marseille","lat":43.24172,"lon":5.36385,"is_reserved":false,"is_disabled":false,"rental_uris":{"android":"levelo://app?vid=e6dc57cf-44da-4102-9d69-7c7b35161e11","ios":"levelo://app?vid=e6dc57cf-44da-4102-9d69-7c7b35161e11"},"vehicle_type_id":"4","last_reported":1731190071,"current_range_meters":38800,"station_id":"cpo36qri1sfpv3e86is0","pricing_plan_id":"cebpf4jnsgd1na2vs0mg"},{"bike_id":"ef288286-229d-4b9a-a189-8d61840dcffb","system_id":"levelo_inurba_marseille","lat":43.23194,"lon":5.3556,"is_reserved":false,"is_disabled":false,"rental_uris":{"android":"levelo://app?vid=ef288286-229d-4b9a-a189-8d61840dcffb","ios":"levelo://app?vid=ef288286-229d-4b9a-a189-8d61840dcffb"},"vehicle_type_id":"4","last_reported":1731190071,"current_range_meters":31200,"station_id":"ce4bhu92rcd13ifvqi70","pricing_plan_id":"cebpf4jnsgd1na2vs0mg"},{"bike_id":"a90f60de-af06-4929-aa1e-d28432ded2b3","system_id":"levelo_inurba_marseille","lat":43.24547,"lon":5.39524,"is_reserved":false,"is_disabled":false,"rental_uris":{"android":"levelo://app?vid=a90f60de-af06-4929-aa1e-d28432ded2b3","ios":"levelo://app?vid=a90f60de-af06-4929-aa1e-d28432ded2b3"},"vehicle_type_id":"4","last_reported":1731190071,"current_range_meters":22000,"station_id":"ce4bhlp2rcd13ifvqgjg","pricing_plan_id":"cebpf4jnsgd1na2vs0mg"},{"bike_id":"83a0b779-d4e7-475f-845c-8821ea658e41","system_id":"levelo_inurba_marseille","lat":43.29973,"lon":5.37178,"is_reserved":false,"is_disabled":false,"rental_uris":{"android":"levelo://app?vid=83a0b779-d4e7-475f-845c-8821ea658e41","ios":"levelo://app?vid=83a0b779-d4e7-475f-845c-8821ea658e41"},"vehicle_type_id":"4","last_reported":1731190071,"current_range_meters":30800,"station_id":"ce4bgr92rcd13ifvqc7g","pricing_plan_id":"cebpf4jnsgd1na2vs0mg"},{"bike_id":"7f0b151f-707d-4e17-92a8-e86a0b1a1933","system_id":"levelo_inurba_marseille","lat":43.29025,"lon":5.38652,"is_reserved":false,"is_disabled":false,"rental_uris":{"android":"levelo://app?vid=7f0b151f-707d-4e17-92a8-e86a0b1a1933","ios":"levelo://app?vid=7f0b151f-707d-4e17-92a8-e86a0b1a1933"},"vehicle_type_id":"4","last_reported":1731190071,"current_range_meters":36000,"station_id":"ce4bh4p2rcd13ifvqe0g","pricing_plan_id":"cebpf4jnsgd1na2vs0mg"},{"bike_id":"b209aea8-010f-4804-9829-2e3b3a19832b","system_id":"levelo_inurba_marseille","lat":43.29974,"lon":5.37167,"is_reserved":false,"is_disabled":false,"rental_uris":{"android":"levelo://app?vid=b209aea8-010f-4804-9829-2e3b3a19832b","ios":"levelo://app?vid=b209aea8-010f-4804-9829-2e3b3a19832b"},"vehicle_type_id":"4","last_reported":1731190071,"current_range_meters":28800,"station_id":"ce4bgr92rcd13ifvqc7g","pricing_plan_id":"cebpf4jnsgd1na2vs0mg"},{"bike_id":"2fb88faa-dec5-465f-b7f4-ee0b9a82574b","system_id":"levelo_inurba_marseille","lat":43.31727,"lon":5.42404,"is_reserved":false,"is_disabled":false,"rental_uris":{"android":"levelo://app?vid=2fb88faa-dec5-465f-b7f4-ee0b9a82574b","ios":"levelo://app?vid=2fb88faa-dec5-465f-b7f4-ee0b9a82574b"},"vehicle_type_id":"4","last_reported":1731190071,"current_range_meters":28000,"station_id":"ce4bhp92rcd13ifvqhbg","pricing_plan_id":"cebpf4jnsgd1na2vs0mg"},{"bike_id":"7528501a-f811-4206-9588-2e4cdeb499ce","system_id":"levelo_inurba_marseille","lat":43.295939,"lon":5.381018,"is_reserved":false,"is_disabled":false,"rental_uris":{"android":"levelo://app?vid=7528501a-f811-4206-9588-2e4cdeb499ce","ios":"levelo://app?vid=7528501a-f811-4206-9588-2e4cdeb499ce"},"vehicle_type_id":"4","last_reported":1731190071,"current_range_meters":36400,"station_id":"ce4bhbh2rcd13ifvqepg","pricing_plan_id":"cebpf4jnsgd1na2vs0mg"},{"bike_id":"50dbf5a8-127a-4b83-8559-ce30ebb77bae","system_id":"levelo_inurba_marseille","lat":43.25088,"lon":5.39526,"is_reserved":false,"is_disabled":false,"rental_uris":{"android":"levelo://app?vid=50dbf5a8-127a-4b83-8559-ce30ebb77bae","ios":"levelo://app?vid=50dbf5a8-127a-4b83-8559-ce30ebb77bae"},"vehicle_type_id":"4","last_reported":1731190071,"current_range_meters":38800,"station_id":"ce4bhm12rcd13ifvqgkg","pricing_plan_id":"cebpf4jnsgd1na2vs0mg"},{"bike_id":"81d75b94-235f-4d66-95b8-a1c86584fb9a","system_id":"levelo_inurba_marseille","lat":43.29911,"lon":5.38067,"is_reserved":false,"is_disabled":false,"rental_uris":{"android":"levelo://app?vid=81d75b94-235f-4d66-95b8-a1c86584fb9a","ios":"levelo://app?vid=81d75b94-235f-4d66-95b8-a1c86584fb9a"},"vehicle_type_id":"4","last_reported":1731190071,"current_range_meters":7200,"station_id":"","pricing_plan_id":"cebpf4jnsgd1na2vs0mg"},{"bike_id":"7ba51fb6-f0fd-4d3c-9fae-8c4a10c4979e","system_id":"levelo_inurba_marseille","lat":43.29533,"lon":5.3906,"is_reserved":false,"is_disabled":false,"rental_uris":{"android":"levelo://app?vid=7ba51fb6-f0fd-4d3c-9fae-8c4a10c4979e","ios":"levelo://app?vid=7ba51fb6-f0fd-4d3c-9fae-8c4a10c4979e"},"vehicle_type_id":"4","last_reported":1731190071,"current_range_meters":38000,"station_id":"ce4bh3p2rcd13ifvqdp0","pricing_plan_id":"cebpf4jnsgd1na2vs0mg"},{"bike_id":"c10a29d2-b6e7-4ad0-94b4-5c4537566cff","system_id":"levelo_inurba_marseille","lat":43.27208,"lon":5.39171,"is_reserved":false,"is_disabled":false,"rental_uris":{"android":"levelo://app?vid=c10a29d2-b6e7-4ad0-94b4-5c4537566cff","ios":"levelo://app?vid=c10a29d2-b6e7-4ad0-94b4-5c4537566cff"},"vehicle_type_id":"4","last_reported":1731190071,"current_range_meters":33600,"station_id":"ce4bhhp2rcd13ifvqfm0","pricing_plan_id":"cebpf4jnsgd1na2vs0mg"},{"bike_id":"4279a6e4-9f33-4724-822e-dfd129b72bdb","system_id":"levelo_inurba_marseille","lat":43.3088,"lon":5.37197,"is_reserved":false,"is_disabled":false,"rental_uris":{"android":"levelo://app?vid=4279a6e4-9f33-4724-822e-dfd129b72bdb","ios":"levelo://app?vid=4279a6e4-9f33-4724-822e-dfd129b72bdb"},"vehicle_type_id":"4","last_reported":1731190071,"current_range_meters":30000,"station_id":"ce4bguh2rcd13ifvqckg","pricing_plan_id":"cebpf4jnsgd1na2vs0mg"},{"bike_id":"f0730e13-11c4-4020-956a-ca204d2dd6c0","system_id":"levelo_inurba_marseille","lat":43.295589,"lon":5.422837,"is_reserved":false,"is_disabled":false,"rental_uris":{"android":"levelo://app?vid=f0730e13-11c4-4020-956a-ca204d2dd6c0","ios":"levelo://app?vid=f0730e13-11c4-4020-956a-ca204d2dd6c0"},"vehicle_type_id":"4","last_reported":1731190071,"current_range_meters":14800,"station_id":"ce4bhph2rcd13ifvqhdg","pricing_plan_id":"cebpf4jnsgd1na2vs0mg"},{"bike_id":"7dd58fa2-256b-4976-9ccd-79d00d13c0e3","system_id":"levelo_inurba_marseille","lat":43.28077,"lon":5.396615,"is_reserved":false,"is_disabled":false,"rental_uris":{"android":"levelo://app?vid=7dd58fa2-256b-4976-9ccd-79d00d13c0e3","ios":"levelo://app?vid=7dd58fa2-256b-4976-9ccd-79d00d13c0e3"},"vehicle_type_id":"4","last_reported":1731190071,"current_range_meters":38800,"station_id":"ce4bho12rcd13ifvqh2g","pricing_plan_id":"cebpf4jnsgd1na2vs0mg"},{"bike_id":"b66b1d6b-71a0-477f-a8e4-5c83ce8687f4","system_id":"levelo_inurba_marseille","lat":43.29534,"lon":5.38542,"is_reserved":false,"is_disabled":false,"rental_uris":{"android":"levelo://app?vid=b66b1d6b-71a0-477f-a8e4-5c83ce8687f4","ios":"levelo://app?vid=b66b1d6b-71a0-477f-a8e4-5c83ce8687f4"},"vehicle_type_id":"4","last_reported":1731190071,"current_range_meters":29600,"station_id":"ce4bgih2rcd13ifvqba0","pricing_plan_id":"cebpf4jnsgd1na2vs0mg"},{"bike_id":"acfc4c88-f0d5-497e-86c1-c566b23c1747","system_id":"levelo_inurba_marseille","lat":43.24817,"lon":5.37456,"is_reserved":false,"is_disabled":false,"rental_uris":{"android":"levelo://app?vid=acfc4c88-f0d5-497e-86c1-c566b23c1747","ios":"levelo://app?vid=acfc4c88-f0d5-497e-86c1-c566b23c1747"},"vehicle_type_id":"4","last_reported":1731190071,"current_range_meters":6400,"station_id":"ce4bhgh2rcd13ifvqfb0","pricing_plan_id":"cebpf4jnsgd1na2vs0mg"},{"bike_id":"d8b069df-29e1-4273-99b0-c9104446d9c3","system_id":"levelo_inurba_marseille","lat":43.232,"lon":5.35556,"is_reserved":false,"is_disabled":false,"rental_uris":{"android":"levelo://app?vid=d8b069df-29e1-4273-99b0-c9104446d9c3","ios":"levelo://app?vid=d8b069df-29e1-4273-99b0-c9104446d9c3"},"vehicle_type_id":"4","last_reported":1731190071,"current_range_meters":8400,"station_id":"ce4bhu92rcd13ifvqi70","pricing_plan_id":"cebpf4jnsgd1na2vs0mg"},{"bike_id":"7bb5871f-cc9d-417c-af00-3f2a72d466bc","system_id":"levelo_inurba_marseille","lat":43.3081,"lon":5.38165,"is_reserved":false,"is_disabled":false,"rental_uris":{"android":"levelo://app?vid=7bb5871f-cc9d-417c-af00-3f2a72d466bc","ios":"levelo://app?vid=7bb5871f-cc9d-417c-af00-3f2a72d466bc"},"vehicle_type_id":"4","last_reported":1731190071,"current_range_meters":38800,"station_id":"ce4bgt12rcd13ifvqce0","pricing_plan_id":"cebpf4jnsgd1na2vs0mg"},{"bike_id":"4b7a8334-ed96-4275-a012-3781d1b5ccc3","system_id":"levelo_inurba_marseille","lat":43.3095,"lon":5.39024,"is_reserved":false,"is_disabled":false,"rental_uris":{"android":"levelo://app?vid=4b7a8334-ed96-4275-a012-3781d1b5ccc3","ios":"levelo://app?vid=4b7a8334-ed96-4275-a012-3781d1b5ccc3"},"vehicle_type_id":"4","last_reported":1731190071,"current_range_meters":16400,"station_id":"ce4bgup2rcd13ifvqco0","pricing_plan_id":"cebpf4jnsgd1na2vs0mg"},{"bike_id":"fbbe362b-7b29-4c8f-b506-484f07761f02","system_id":"levelo_inurba_marseille","lat":43.29915,"lon":5.37461,"is_reserved":false,"is_disabled":false,"rental_uris":{"android":"levelo://app?vid=fbbe362b-7b29-4c8f-b506-484f07761f02","ios":"levelo://app?vid=fbbe362b-7b29-4c8f-b506-484f07761f02"},"vehicle_type_id":"4","last_reported":1731190071,"current_range_meters":36800,"station_id":"ce4bgjh2rcd13ifvqbg0","pricing_plan_id":"cebpf4jnsgd1na2vs0mg"},{"bike_id":"018a5969-48d6-493e-abbb-cd5d32841d3f","system_id":"levelo_inurba_marseille","lat":43.2828,"lon":5.35084,"is_reserved":false,"is_disabled":false,"rental_uris":{"android":"levelo://app?vid=018a5969-48d6-493e-abbb-cd5d32841d3f","ios":"levelo://app?vid=018a5969-48d6-493e-abbb-cd5d32841d3f"},"vehicle_type_id":"4","last_reported":1731190071,"current_range_meters":38800,"station_id":"ce4bhbp2rcd13ifvqerg","pricing_plan_id":"cebpf4jnsgd1na2vs0mg"},{"bike_id":"0c9d3cc2-b8d3-485f-ab15-93f13d2c52cc","system_id":"levelo_inurba_marseille","lat":43.30602,"lon":5.37212,"is_reserved":false,"is_disabled":false,"rental_uris":{"android":"levelo://app?vid=0c9d3cc2-b8d3-485f-ab15-93f13d2c52cc","ios":"levelo://app?vid=0c9d3cc2-b8d3-485f-ab15-93f13d2c52cc"},"vehicle_type_id":"4","last_reported":1731190071,"current_range_meters":38800,"station_id":"ce4bgqh2rcd13ifvqc4g","pricing_plan_id":"cebpf4jnsgd1na2vs0mg"},{"bike_id":"7a21a1d1-0647-4cbb-8f42-d32abe3269e9","system_id":"levelo_inurba_marseille","lat":43.29175,"lon":5.37157,"is_reserved":false,"is_disabled":false,"rental_uris":{"android":"levelo://app?vid=7a21a1d1-0647-4cbb-8f42-d32abe3269e9","ios":"levelo://app?vid=7a21a1d1-0647-4cbb-8f42-d32abe3269e9"},"vehicle_type_id":"4","last_reported":1731190071,"current_range_meters":23200,"station_id":"ce4bha92rcd13ifvqeh0","pricing_plan_id":"cebpf4jnsgd1na2vs0mg"},{"bike_id":"f9aeacdd-bf01-432f-bf4e-03e65cef4bbd","system_id":"levelo_inurba_marseille","lat":43.29555,"lon":5.42284,"is_reserved":false,"is_disabled":false,"rental_uris":{"android":"levelo://app?vid=f9aeacdd-bf01-432f-bf4e-03e65cef4bbd","ios":"levelo://app?vid=f9aeacdd-bf01-432f-bf4e-03e65cef4bbd"},"vehicle_type_id":"4","last_reported":1731190071,"current_range_meters":35600,"station_id":"ce4bhph2rcd13ifvqhdg","pricing_plan_id":"cebpf4jnsgd1na2vs0mg"},{"bike_id":"6fa90ed0-4acb-4c40-b44f-198da1da3b57","system_id":"levelo_inurba_marseille","lat":43.23182,"lon":5.39991,"is_reserved":false,"is_disabled":false,"rental_uris":{"android":"levelo://app?vid=6fa90ed0-4acb-4c40-b44f-198da1da3b57","ios":"levelo://app?vid=6fa90ed0-4acb-4c40-b44f-198da1da3b57"},"vehicle_type_id":"4","last_reported":1731190071,"current_range_meters":6800,"station_id":"ce4bhn12rcd13ifvqgqg","pricing_plan_id":"cebpf4jnsgd1na2vs0mg"},{"bike_id":"c57a525c-f071-4533-b30f-a7e0981a7452","system_id":"levelo_inurba_marseille","lat":43.31362,"lon":5.38487,"is_reserved":false,"is_disabled":false,"rental_uris":{"android":"levelo://app?vid=c57a525c-f071-4533-b30f-a7e0981a7452","ios":"levelo://app?vid=c57a525c-f071-4533-b30f-a7e0981a7452"},"vehicle_type_id":"4","last_reported":1731190071,"current_range_meters":37600,"station_id":"ce4bgt92rcd13ifvqcf0","pricing_plan_id":"cebpf4jnsgd1na2vs0mg"},{"bike_id":"487c9608-d907-4e64-8d35-a62273784929","system_id":"levelo_inurba_marseille","lat":43.30809,"lon":5.38169,"is_reserved":false,"is_disabled":false,"rental_uris":{"android":"levelo://app?vid=487c9608-d907-4e64-8d35-a62273784929","ios":"levelo://app?vid=487c9608-d907-4e64-8d35-a62273784929"},"vehicle_type_id":"4","last_reported":1731190071,"current_range_meters":33600,"station_id":"ce4bgt12rcd13ifvqce0","pricing_plan_id":"cebpf4jnsgd1na2vs0mg"},{"bike_id":"6821b9ad-509a-46f9-8ec3-77f8b60e207e","system_id":"levelo_inurba_marseille","lat":43.28144,"lon":5.44211,"is_reserved":false,"is_disabled":false,"rental_uris":{"android":"levelo://app?vid=6821b9ad-509a-46f9-8ec3-77f8b60e207e","ios":"levelo://app?vid=6821b9ad-509a-46f9-8ec3-77f8b60e207e"},"vehicle_type_id":"4","last_reported":1731190071,"current_range_meters":25200,"station_id":"","pricing_plan_id":"cebpf4jnsgd1na2vs0mg"},{"bike_id":"ef86cab5-f16b-4a24-b6d4-e587627d88fb","system_id":"levelo_inurba_marseille","lat":43.2972,"lon":5.36607,"is_reserved":false,"is_disabled":false,"rental_uris":{"android":"levelo://app?vid=ef86cab5-f16b-4a24-b6d4-e587627d88fb","ios":"levelo://app?vid=ef86cab5-f16b-4a24-b6d4-e587627d88fb"},"vehicle_type_id":"4","last_reported":1731190071,"current_range_meters":39200,"station_id":"ce4bgn12rcd13ifvqbt0","pricing_plan_id":"cebpf4jnsgd1na2vs0mg"},{"bike_id":"0e0927fd-6870-4f0d-95d2-a322362844a9","system_id":"levelo_inurba_marseille","lat":43.23155,"lon":5.43718,"is_reserved":false,"is_disabled":false,"rental_uris":{"android":"levelo://app?vid=0e0927fd-6870-4f0d-95d2-a322362844a9","ios":"levelo://app?vid=0e0927fd-6870-4f0d-95d2-a322362844a9"},"vehicle_type_id":"4","last_reported":1731190071,"current_range_meters":38800,"station_id":"ce4bhmp2rcd13ifvqgog","pricing_plan_id":"cebpf4jnsgd1na2vs0mg"},{"bike_id":"30a878ff-eb9d-436f-bfff-7d2ca1ce4c25","system_id":"levelo_inurba_marseille","lat":43.30913,"lon":5.36855,"is_reserved":false,"is_disabled":false,"rental_uris":{"android":"levelo://app?vid=30a878ff-eb9d-436f-bfff-7d2ca1ce4c25","ios":"levelo://app?vid=30a878ff-eb9d-436f-bfff-7d2ca1ce4c25"},"vehicle_type_id":"4","last_reported":1731190071,"current_range_meters":38800,"station_id":"ce4bgn92rcd13ifvqbvg","pricing_plan_id":"cebpf4jnsgd1na2vs0mg"},{"bike_id":"ae6ee6df-5779-49bd-a122-e5a8ebd03b7d","system_id":"levelo_inurba_marseille","lat":43.29312,"lon":5.371656,"is_reserved":false,"is_disabled":false,"rental_uris":{"android":"levelo://app?vid=ae6ee6df-5779-49bd-a122-e5a8ebd03b7d","ios":"levelo://app?vid=ae6ee6df-5779-49bd-a122-e5a8ebd03b7d"},"vehicle_type_id":"4","last_reported":1731190071,"current_range_meters":38800,"station_id":"ce4bgh92rcd13ifvqb40","pricing_plan_id":"cebpf4jnsgd1na2vs0mg"},{"bike_id":"93586a53-6b2f-473f-973d-b214bef1f466","system_id":"levelo_inurba_marseille","lat":43.24392,"lon":5.37058,"is_reserved":false,"is_disabled":false,"rental_uris":{"android":"levelo://app?vid=93586a53-6b2f-473f-973d-b214bef1f466","ios":"levelo://app?vid=93586a53-6b2f-473f-973d-b214bef1f466"},"vehicle_type_id":"4","last_reported":1731190071,"current_range_meters":11200,"station_id":"ce4bhhh2rcd13ifvqfk0","pricing_plan_id":"cebpf4jnsgd1na2vs0mg"},{"bike_id":"7488a949-ca59-425e-b103-23aff087c54a","system_id":"levelo_inurba_marseille","lat":43.30138,"lon":5.39867,"is_reserved":false,"is_disabled":false,"rental_uris":{"android":"levelo://app?vid=7488a949-ca59-425e-b103-23aff087c54a","ios":"levelo://app?vid=7488a949-ca59-425e-b103-23aff087c54a"},"vehicle_type_id":"4","last_reported":1731190071,"current_range_meters":28000,"station_id":"ce4bh0h2rcd13ifvqd40","pricing_plan_id":"cebpf4jnsgd1na2vs0mg"},{"bike_id":"163a770d-1f3c-4514-886c-a6e0474b685d","system_id":"levelo_inurba_marseille","lat":43.30186,"lon":5.3661,"is_reserved":false,"is_disabled":false,"rental_uris":{"android":"levelo://app?vid=163a770d-1f3c-4514-886c-a6e0474b685d","ios":"levelo://app?vid=163a770d-1f3c-4514-886c-a6e0474b685d"},"vehicle_type_id":"4","last_reported":1731190071,"current_range_meters":36000,"station_id":"ce4bgrh2rcd13ifvqc8g","pricing_plan_id":"cebpf4jnsgd1na2vs0mg"},{"bike_id":"bb681d08-5a9a-42c0-9b2d-77f9231b0a36","system_id":"levelo_inurba_marseille","lat":43.33607,"lon":5.41036,"is_reserved":false,"is_disabled":false,"rental_uris":{"android":"levelo://app?vid=bb681d08-5a9a-42c0-9b2d-77f9231b0a36","ios":"levelo://app?vid=bb681d08-5a9a-42c0-9b2d-77f9231b0a36"},"vehicle_type_id":"4","last_reported":1731190071,"current_range_meters":19200,"station_id":"ce4bhqh2rcd13ifvqhmg","pricing_plan_id":"cebpf4jnsgd1na2vs0mg"},{"bike_id":"cd1de95f-3202-4489-9b25-a1bcc257b07c","system_id":"levelo_inurba_marseille","lat":43.29263,"lon":5.40917,"is_reserved":false,"is_disabled":false,"rental_uris":{"android":"levelo://app?vid=cd1de95f-3202-4489-9b25-a1bcc257b07c","ios":"levelo://app?vid=cd1de95f-3202-4489-9b25-a1bcc257b07c"},"vehicle_type_id":"4","last_reported":1731190071,"current_range_meters":32000,"station_id":"ce4bh192rcd13ifvqdc0","pricing_plan_id":"cebpf4jnsgd1na2vs0mg"},{"bike_id":"6b278c15-a888-4210-b04b-cb08a3ea4db2","system_id":"levelo_inurba_marseille","lat":43.287,"lon":5.39989,"is_reserved":false,"is_disabled":false,"rental_uris":{"android":"levelo://app?vid=6b278c15-a888-4210-b04b-cb08a3ea4db2","ios":"levelo://app?vid=6b278c15-a888-4210-b04b-cb08a3ea4db2"},"vehicle_type_id":"4","last_reported":1731190071,"current_range_meters":11600,"station_id":"ce4bho92rcd13ifvqh3g","pricing_plan_id":"cebpf4jnsgd1na2vs0mg"},{"bike_id":"297f033e-87da-4632-8152-550bc3bd6546","system_id":"levelo_inurba_marseille","lat":43.24804,"lon":5.3745,"is_reserved":false,"is_disabled":false,"rental_uris":{"android":"levelo://app?vid=297f033e-87da-4632-8152-550bc3bd6546","ios":"levelo://app?vid=297f033e-87da-4632-8152-550bc3bd6546"},"vehicle_type_id":"4","last_reported":1731190071,"current_range_meters":38800,"station_id":"ce4bhgh2rcd13ifvqfb0","pricing_plan_id":"cebpf4jnsgd1na2vs0mg"},{"bike_id":"181119f1-e49b-47fa-b0ae-ebb5b6ad4b2a","system_id":"levelo_inurba_marseille","lat":43.29346,"lon":5.37385,"is_reserved":false,"is_disabled":false,"rental_uris":{"android":"levelo://app?vid=181119f1-e49b-47fa-b0ae-ebb5b6ad4b2a","ios":"levelo://app?vid=181119f1-e49b-47fa-b0ae-ebb5b6ad4b2a"},"vehicle_type_id":"4","last_reported":1731190071,"current_range_meters":36800,"station_id":"","pricing_plan_id":"cebpf4jnsgd1na2vs0mg"},{"bike_id":"7e714f10-032a-4c83-8fa5-f1210325f98c","system_id":"levelo_inurba_marseille","lat":43.25824,"lon":5.39442,"is_reserved":false,"is_disabled":false,"rental_uris":{"android":"levelo://app?vid=7e714f10-032a-4c83-8fa5-f1210325f98c","ios":"levelo://app?vid=7e714f10-032a-4c83-8fa5-f1210325f98c"},"vehicle_type_id":"4","last_reported":1731190071,"current_range_meters":3600,"station_id":"ce4bhip2rcd13ifvqft0","pricing_plan_id":"cebpf4jnsgd1na2vs0mg"},{"bike_id":"25e04aef-ee8c-4b3d-b899-189da175d494","system_id":"levelo_inurba_marseille","lat":43.28474,"lon":5.38555,"is_reserved":false,"is_disabled":false,"rental_uris":{"android":"levelo://app?vid=25e04aef-ee8c-4b3d-b899-189da175d494","ios":"levelo://app?vid=25e04aef-ee8c-4b3d-b899-189da175d494"},"vehicle_type_id":"4","last_reported":1731190071,"current_range_meters":6800,"station_id":"ce4bh8p2rcd13ifvqeb0","pricing_plan_id":"cebpf4jnsgd1na2vs0mg"},{"bike_id":"1c1b9064-bbd8-41cc-8218-e0ed3880971a","system_id":"levelo_inurba_marseille","lat":43.29903,"lon":5.38134,"is_reserved":false,"is_disabled":false,"rental_uris":{"android":"levelo://app?vid=1c1b9064-bbd8-41cc-8218-e0ed3880971a","ios":"levelo://app?vid=1c1b9064-bbd8-41cc-8218-e0ed3880971a"},"vehicle_type_id":"4","last_reported":1731190071,"current_range_meters":36800,"station_id":"ce4bgj12rcd13ifvqbc0","pricing_plan_id":"cebpf4jnsgd1na2vs0mg"},{"bike_id":"c8bb6d00-819d-4061-899b-3b08b06060c4","system_id":"levelo_inurba_marseille","lat":43.3043,"lon":5.38887,"is_reserved":false,"is_disabled":false,"rental_uris":{"android":"levelo://app?vid=c8bb6d00-819d-4061-899b-3b08b06060c4","ios":"levelo://app?vid=c8bb6d00-819d-4061-899b-3b08b06060c4"},"vehicle_type_id":"4","last_reported":1731190071,"current_range_meters":32400,"station_id":"ce4bgk12rcd13ifvqbi0","pricing_plan_id":"cebpf4jnsgd1na2vs0mg"},{"bike_id":"0381b43b-0c1c-4354-b7bf-78b8c38a1124","system_id":"levelo_inurba_marseille","lat":43.24389,"lon":5.37062,"is_reserved":false,"is_disabled":false,"rental_uris":{"android":"levelo://app?vid=0381b43b-0c1c-4354-b7bf-78b8c38a1124","ios":"levelo://app?vid=0381b43b-0c1c-4354-b7bf-78b8c38a1124"},"vehicle_type_id":"4","last_reported":1731190071,"current_range_meters":9600,"station_id":"ce4bhhh2rcd13ifvqfk0","pricing_plan_id":"cebpf4jnsgd1na2vs0mg"},{"bike_id":"32eda71f-1bc3-4d47-8ced-37a8154be3d8","system_id":"levelo_inurba_marseille","lat":43.29373,"lon":5.3784,"is_reserved":false,"is_disabled":false,"rental_uris":{"android":"levelo://app?vid=32eda71f-1bc3-4d47-8ced-37a8154be3d8","ios":"levelo://app?vid=32eda71f-1bc3-4d47-8ced-37a8154be3d8"},"vehicle_type_id":"4","last_reported":1731190071,"current_range_meters":38800,"station_id":"ce4bgjh2rcd13ifvqbf0","pricing_plan_id":"cebpf4jnsgd1na2vs0mg"},{"bike_id":"2a68a47a-1f1e-4f03-9455-8d96cfc18b07","system_id":"levelo_inurba_marseille","lat":43.30888,"lon":5.37199,"is_reserved":false,"is_disabled":false,"rental_uris":{"android":"levelo://app?vid=2a68a47a-1f1e-4f03-9455-8d96cfc18b07","ios":"levelo://app?vid=2a68a47a-1f1e-4f03-9455-8d96cfc18b07"},"vehicle_type_id":"4","last_reported":1731190071,"current_range_meters":38000,"station_id":"ce4bguh2rcd13ifvqckg","pricing_plan_id":"cebpf4jnsgd1na2vs0mg"},{"bike_id":"2b73c203-9b50-4ad0-b65f-19c75470baf0","system_id":"levelo_inurba_marseille","lat":43.3021,"lon":5.39461,"is_reserved":false,"is_disabled":false,"rental_uris":{"android":"levelo://app?vid=2b73c203-9b50-4ad0-b65f-19c75470baf0","ios":"levelo://app?vid=2b73c203-9b50-4ad0-b65f-19c75470baf0"},"vehicle_type_id":"4","last_reported":1731190071,"current_range_meters":35600,"station_id":"ce4bh0p2rcd13ifvqd70","pricing_plan_id":"cebpf4jnsgd1na2vs0mg"},{"bike_id":"96aef8c1-f007-442e-b872-036e6f6c58ad","system_id":"levelo_inurba_marseille","lat":43.31759,"lon":5.39021,"is_reserved":false,"is_disabled":false,"rental_uris":{"android":"levelo://app?vid=96aef8c1-f007-442e-b872-036e6f6c58ad","ios":"levelo://app?vid=96aef8c1-f007-442e-b872-036e6f6c58ad"},"vehicle_type_id":"4","last_reported":1731190071,"current_range_meters":38800,"station_id":"ce4bhqp2rcd13ifvqhng","pricing_plan_id":"cebpf4jnsgd1na2vs0mg"},{"bike_id":"48b5ac08-9e0c-42d5-b37f-57e0c8fe2cd4","system_id":"levelo_inurba_marseille","lat":43.29422,"lon":5.3864,"is_reserved":false,"is_disabled":false,"rental_uris":{"android":"levelo://app?vid=48b5ac08-9e0c-42d5-b37f-57e0c8fe2cd4","ios":"levelo://app?vid=48b5ac08-9e0c-42d5-b37f-57e0c8fe2cd4"},"vehicle_type_id":"4","last_reported":1731190071,"current_range_meters":24000,"station_id":"ce4bh2h2rcd13ifvqdh0","pricing_plan_id":"cebpf4jnsgd1na2vs0mg"},{"bike_id":"134ce1ce-579d-4d82-bde6-b146c0c11c11","system_id":"levelo_inurba_marseille","lat":43.29893,"lon":5.4367,"is_reserved":false,"is_disabled":false,"rental_uris":{"android":"levelo://app?vid=134ce1ce-579d-4d82-bde6-b146c0c11c11","ios":"levelo://app?vid=134ce1ce-579d-4d82-bde6-b146c0c11c11"},"vehicle_type_id":"4","last_reported":1731190071,"current_range_meters":6400,"station_id":"ce4bhpp2rcd13ifvqhfg","pricing_plan_id":"cebpf4jnsgd1na2vs0mg"},{"bike_id":"901d0e1b-e30d-4036-b73c-cb7c4fb9a461","system_id":"levelo_inurba_marseille","lat":43.27905,"lon":5.39584,"is_reserved":false,"is_disabled":false,"rental_uris":{"android":"levelo://app?vid=901d0e1b-e30d-4036-b73c-cb7c4fb9a461","ios":"levelo://app?vid=901d0e1b-e30d-4036-b73c-cb7c4fb9a461"},"vehicle_type_id":"4","last_reported":1731190071,"current_range_meters":8800,"station_id":"ce4bhf92rcd13ifvqf40","pricing_plan_id":"cebpf4jnsgd1na2vs0mg"},{"bike_id":"f536995d-9e9d-483d-919b-de11993b1fcb","system_id":"levelo_inurba_marseille","lat":43.29264,"lon":5.38442,"is_reserved":false,"is_disabled":false,"rental_uris":{"android":"levelo://app?vid=f536995d-9e9d-483d-919b-de11993b1fcb","ios":"levelo://app?vid=f536995d-9e9d-483d-919b-de11993b1fcb"},"vehicle_type_id":"4","last_reported":1731190071,"current_range_meters":28000,"station_id":"ce4bh692rcd13ifvqea0","pricing_plan_id":"cebpf4jnsgd1na2vs0mg"},{"bike_id":"6d7cbc58-75af-438e-a9ad-8eeb00b9ba8c","system_id":"levelo_inurba_marseille","lat":43.28457,"lon":5.35886,"is_reserved":false,"is_disabled":false,"rental_uris":{"android":"levelo://app?vid=6d7cbc58-75af-438e-a9ad-8eeb00b9ba8c","ios":"levelo://app?vid=6d7cbc58-75af-438e-a9ad-8eeb00b9ba8c"},"vehicle_type_id":"4","last_reported":1731190071,"current_range_meters":12800,"station_id":"ce4bhah2rcd13ifvqei0","pricing_plan_id":"cebpf4jnsgd1na2vs0mg"},{"bike_id":"181fa628-fd06-4339-88f4-5d411c857699","system_id":"levelo_inurba_marseille","lat":43.27073,"lon":5.42281,"is_reserved":false,"is_disabled":false,"rental_uris":{"android":"levelo://app?vid=181fa628-fd06-4339-88f4-5d411c857699","ios":"levelo://app?vid=181fa628-fd06-4339-88f4-5d411c857699"},"vehicle_type_id":"4","last_reported":1731190071,"current_range_meters":11600,"station_id":"ce4bhk92rcd13ifvqgb0","pricing_plan_id":"cebpf4jnsgd1na2vs0mg"},{"bike_id":"67748a92-b623-4371-abb4-882af26fbf62","system_id":"levelo_inurba_marseille","lat":43.30947,"lon":5.39031,"is_reserved":false,"is_disabled":false,"rental_uris":{"android":"levelo://app?vid=67748a92-b623-4371-abb4-882af26fbf62","ios":"levelo://app?vid=67748a92-b623-4371-abb4-882af26fbf62"},"vehicle_type_id":"4","last_reported":1731190071,"current_range_meters":35600,"station_id":"ce4bgup2rcd13ifvqco0","pricing_plan_id":"cebpf4jnsgd1na2vs0mg"},{"bike_id":"2e5e7fbb-7125-428f-9d16-75a5584fe9f5","system_id":"levelo_inurba_marseille","lat":43.28616,"lon":5.35104,"is_reserved":false,"is_disabled":false,"rental_uris":{"android":"levelo://app?vid=2e5e7fbb-7125-428f-9d16-75a5584fe9f5","ios":"levelo://app?vid=2e5e7fbb-7125-428f-9d16-75a5584fe9f5"},"vehicle_type_id":"4","last_reported":1731190071,"current_range_meters":32400,"station_id":"ce4bhch2rcd13ifvqeug","pricing_plan_id":"cebpf4jnsgd1na2vs0mg"},{"bike_id":"e662ba77-e6b8-4482-8937-6e11fab5b336","system_id":"levelo_inurba_marseille","lat":43.33026,"lon":5.39042,"is_reserved":false,"is_disabled":false,"rental_uris":{"android":"levelo://app?vid=e662ba77-e6b8-4482-8937-6e11fab5b336","ios":"levelo://app?vid=e662ba77-e6b8-4482-8937-6e11fab5b336"},"vehicle_type_id":"4","last_reported":1731190071,"current_range_meters":9200,"station_id":"ce4bhr92rcd13ifvqhrg","pricing_plan_id":"cebpf4jnsgd1na2vs0mg"},{"bike_id":"27e15419-d9b0-4647-890e-e21a7149b1cd","system_id":"levelo_inurba_marseille","lat":43.2707,"lon":5.42273,"is_reserved":false,"is_disabled":false,"rental_uris":{"android":"levelo://app?vid=27e15419-d9b0-4647-890e-e21a7149b1cd","ios":"levelo://app?vid=27e15419-d9b0-4647-890e-e21a7149b1cd"},"vehicle_type_id":"4","last_reported":1731190071,"current_range_meters":10800,"station_id":"ce4bhk92rcd13ifvqgb0","pricing_plan_id":"cebpf4jnsgd1na2vs0mg"},{"bike_id":"55f47cbb-4cd2-4214-9965-9e0698b16e2e","system_id":"levelo_inurba_marseille","lat":43.32392,"lon":5.37004,"is_reserved":false,"is_disabled":false,"rental_uris":{"android":"levelo://app?vid=55f47cbb-4cd2-4214-9965-9e0698b16e2e","ios":"levelo://app?vid=55f47cbb-4cd2-4214-9965-9e0698b16e2e"},"vehicle_type_id":"4","last_reported":1731190071,"current_range_meters":38800,"station_id":"","pricing_plan_id":"cebpf4jnsgd1na2vs0mg"},{"bike_id":"1e5ee150-b94d-4bed-ab85-f55b0e0803fe","system_id":"levelo_inurba_marseille","lat":43.29024,"lon":5.38642,"is_reserved":false,"is_disabled":false,"rental_uris":{"android":"levelo://app?vid=1e5ee150-b94d-4bed-ab85-f55b0e0803fe","ios":"levelo://app?vid=1e5ee150-b94d-4bed-ab85-f55b0e0803fe"},"vehicle_type_id":"4","last_reported":1731190071,"current_range_meters":36400,"station_id":"ce4bh4p2rcd13ifvqe0g","pricing_plan_id":"cebpf4jnsgd1na2vs0mg"},{"bike_id":"d4d2039d-7616-4c0c-910c-0f5355caf5da","system_id":"levelo_inurba_marseille","lat":43.30155,"lon":5.38091,"is_reserved":false,"is_disabled":false,"rental_uris":{"android":"levelo://app?vid=d4d2039d-7616-4c0c-910c-0f5355caf5da","ios":"levelo://app?vid=d4d2039d-7616-4c0c-910c-0f5355caf5da"},"vehicle_type_id":"4","last_reported":1731190071,"current_range_meters":38000,"station_id":"ce4bgjp2rcd13ifvqbh0","pricing_plan_id":"cebpf4jnsgd1na2vs0mg"},{"bike_id":"9005c685-cfb4-498c-8547-dcd7b0076889","system_id":"levelo_inurba_marseille","lat":43.29419,"lon":5.38606,"is_reserved":false,"is_disabled":false,"rental_uris":{"android":"levelo://app?vid=9005c685-cfb4-498c-8547-dcd7b0076889","ios":"levelo://app?vid=9005c685-cfb4-498c-8547-dcd7b0076889"},"vehicle_type_id":"4","last_reported":1731190071,"current_range_meters":37600,"station_id":"ce4bh2h2rcd13ifvqdh0","pricing_plan_id":"cebpf4jnsgd1na2vs0mg"},{"bike_id":"0d93b31b-854a-4c31-b287-70df5cbe7d07","system_id":"levelo_inurba_marseille","lat":43.24081,"lon":5.37741,"is_reserved":false,"is_disabled":false,"rental_uris":{"android":"levelo://app?vid=0d93b31b-854a-4c31-b287-70df5cbe7d07","ios":"levelo://app?vid=0d93b31b-854a-4c31-b287-70df5cbe7d07"},"vehicle_type_id":"4","last_reported":1731190071,"current_range_meters":14400,"station_id":"ce4bhnp2rcd13ifvqgvg","pricing_plan_id":"cebpf4jnsgd1na2vs0mg"},{"bike_id":"8d2b72fb-c6f8-44de-b9b8-8b5223930e89","system_id":"levelo_inurba_marseille","lat":43.24606,"lon":5.38969,"is_reserved":false,"is_disabled":false,"rental_uris":{"android":"levelo://app?vid=8d2b72fb-c6f8-44de-b9b8-8b5223930e89","ios":"levelo://app?vid=8d2b72fb-c6f8-44de-b9b8-8b5223930e89"},"vehicle_type_id":"4","last_reported":1731190071,"current_range_meters":27600,"station_id":"","pricing_plan_id":"cebpf4jnsgd1na2vs0mg"},{"bike_id":"25fe25a4-403f-4e6f-b9e1-cc790ad299ec","system_id":"levelo_inurba_marseille","lat":43.24389,"lon":5.37063,"is_reserved":false,"is_disabled":false,"rental_uris":{"android":"levelo://app?vid=25fe25a4-403f-4e6f-b9e1-cc790ad299ec","ios":"levelo://app?vid=25fe25a4-403f-4e6f-b9e1-cc790ad299ec"},"vehicle_type_id":"4","last_reported":1731190071,"current_range_meters":28800,"station_id":"ce4bhhh2rcd13ifvqfk0","pricing_plan_id":"cebpf4jnsgd1na2vs0mg"},{"bike_id":"6475963f-cb48-4961-a0dc-032cbbfafb0c","system_id":"levelo_inurba_marseille","lat":43.29418,"lon":5.3862,"is_reserved":false,"is_disabled":false,"rental_uris":{"android":"levelo://app?vid=6475963f-cb48-4961-a0dc-032cbbfafb0c","ios":"levelo://app?vid=6475963f-cb48-4961-a0dc-032cbbfafb0c"},"vehicle_type_id":"4","last_reported":1731190071,"current_range_meters":32400,"station_id":"ce4bh2h2rcd13ifvqdh0","pricing_plan_id":"cebpf4jnsgd1na2vs0mg"},{"bike_id":"e2abec00-3ef2-41a5-b9f5-46bbbaa02e60","system_id":"levelo_inurba_marseille","lat":43.25505,"lon":5.37649,"is_reserved":false,"is_disabled":false,"rental_uris":{"android":"levelo://app?vid=e2abec00-3ef2-41a5-b9f5-46bbbaa02e60","ios":"levelo://app?vid=e2abec00-3ef2-41a5-b9f5-46bbbaa02e60"},"vehicle_type_id":"4","last_reported":1731190071,"current_range_meters":4800,"station_id":"ce4bhh12rcd13ifvqff0","pricing_plan_id":"cebpf4jnsgd1na2vs0mg"},{"bike_id":"09fd6b48-5b17-42a1-a15e-dce7aa293b94","system_id":"levelo_inurba_marseille","lat":43.28351,"lon":5.38111,"is_reserved":false,"is_disabled":false,"rental_uris":{"android":"levelo://app?vid=09fd6b48-5b17-42a1-a15e-dce7aa293b94","ios":"levelo://app?vid=09fd6b48-5b17-42a1-a15e-dce7aa293b94"},"vehicle_type_id":"4","last_reported":1731190071,"current_range_meters":21600,"station_id":"ce4bh412rcd13ifvqdr0","pricing_plan_id":"cebpf4jnsgd1na2vs0mg"},{"bike_id":"c11ed1b5-1641-405a-bb90-09fb571f2cf0","system_id":"levelo_inurba_marseille","lat":43.29265,"lon":5.38442,"is_reserved":false,"is_disabled":false,"rental_uris":{"android":"levelo://app?vid=c11ed1b5-1641-405a-bb90-09fb571f2cf0","ios":"levelo://app?vid=c11ed1b5-1641-405a-bb90-09fb571f2cf0"},"vehicle_type_id":"4","last_reported":1731190071,"current_range_meters":32000,"station_id":"ce4bh692rcd13ifvqea0","pricing_plan_id":"cebpf4jnsgd1na2vs0mg"},{"bike_id":"28ca929a-76d3-4185-86ab-f3f5e6d28eda","system_id":"levelo_inurba_marseille","lat":43.2926,"lon":5.38451,"is_reserved":false,"is_disabled":false,"rental_uris":{"android":"levelo://app?vid=28ca929a-76d3-4185-86ab-f3f5e6d28eda","ios":"levelo://app?vid=28ca929a-76d3-4185-86ab-f3f5e6d28eda"},"vehicle_type_id":"4","last_reported":1731190071,"current_range_meters":38800,"station_id":"ce4bh692rcd13ifvqea0","pricing_plan_id":"cebpf4jnsgd1na2vs0mg"},{"bike_id":"283f0424-b9cf-457e-9c11-591999ac2da5","system_id":"levelo_inurba_marseille","lat":43.30813,"lon":5.38161,"is_reserved":false,"is_disabled":false,"rental_uris":{"android":"levelo://app?vid=283f0424-b9cf-457e-9c11-591999ac2da5","ios":"levelo://app?vid=283f0424-b9cf-457e-9c11-591999ac2da5"},"vehicle_type_id":"4","last_reported":1731190071,"current_range_meters":37600,"station_id":"ce4bgt12rcd13ifvqce0","pricing_plan_id":"cebpf4jnsgd1na2vs0mg"},{"bike_id":"c7057ba6-697b-4814-876e-11ed214bec97","system_id":"levelo_inurba_marseille","lat":43.30315,"lon":5.37701,"is_reserved":false,"is_disabled":false,"rental_uris":{"android":"levelo://app?vid=c7057ba6-697b-4814-876e-11ed214bec97","ios":"levelo://app?vid=c7057ba6-697b-4814-876e-11ed214bec97"},"vehicle_type_id":"4","last_reported":1731190071,"current_range_meters":38800,"station_id":"ce4bguh2rcd13ifvqcj0","pricing_plan_id":"cebpf4jnsgd1na2vs0mg"},{"bike_id":"c6ae65bf-8d5e-4ea9-a3a9-adc79d0ebafe","system_id":"levelo_inurba_marseille","lat":43.24387,"lon":5.37052,"is_reserved":false,"is_disabled":false,"rental_uris":{"android":"levelo://app?vid=c6ae65bf-8d5e-4ea9-a3a9-adc79d0ebafe","ios":"levelo://app?vid=c6ae65bf-8d5e-4ea9-a3a9-adc79d0ebafe"},"vehicle_type_id":"4","last_reported":1731190071,"current_range_meters":25600,"station_id":"ce4bhhh2rcd13ifvqfk0","pricing_plan_id":"cebpf4jnsgd1na2vs0mg"},{"bike_id":"99ee7c5d-6e65-4a9b-a86a-ad54643ebf7a","system_id":"levelo_inurba_marseille","lat":43.31373,"lon":5.38485,"is_reserved":false,"is_disabled":false,"rental_uris":{"android":"levelo://app?vid=99ee7c5d-6e65-4a9b-a86a-ad54643ebf7a","ios":"levelo://app?vid=99ee7c5d-6e65-4a9b-a86a-ad54643ebf7a"},"vehicle_type_id":"4","last_reported":1731190071,"current_range_meters":38800,"station_id":"ce4bgt92rcd13ifvqcf0","pricing_plan_id":"cebpf4jnsgd1na2vs0mg"},{"bike_id":"cb0207d1-a359-4257-9c1b-bdbf3d283b94","system_id":"levelo_inurba_marseille","lat":43.31281,"lon":5.40159,"is_reserved":false,"is_disabled":false,"rental_uris":{"android":"levelo://app?vid=cb0207d1-a359-4257-9c1b-bdbf3d283b94","ios":"levelo://app?vid=cb0207d1-a359-4257-9c1b-bdbf3d283b94"},"vehicle_type_id":"4","last_reported":1731190071,"current_range_meters":38800,"station_id":"ce4bh092rcd13ifvqd30","pricing_plan_id":"cebpf4jnsgd1na2vs0mg"},{"bike_id":"1b641421-2e55-46f2-aa52-a5bd61345632","system_id":"levelo_inurba_marseille","lat":43.24178,"lon":5.36385,"is_reserved":false,"is_disabled":false,"rental_uris":{"android":"levelo://app?vid=1b641421-2e55-46f2-aa52-a5bd61345632","ios":"levelo://app?vid=1b641421-2e55-46f2-aa52-a5bd61345632"},"vehicle_type_id":"4","last_reported":1731190071,"current_range_meters":15200,"station_id":"cpo36qri1sfpv3e86is0","pricing_plan_id":"cebpf4jnsgd1na2vs0mg"},{"bike_id":"0a795955-bd2b-41e0-bf39-774cbe66479e","system_id":"levelo_inurba_marseille","lat":43.30355,"lon":5.41874,"is_reserved":false,"is_disabled":false,"rental_uris":{"android":"levelo://app?vid=0a795955-bd2b-41e0-bf39-774cbe66479e","ios":"levelo://app?vid=0a795955-bd2b-41e0-bf39-774cbe66479e"},"vehicle_type_id":"4","last_reported":1731190071,"current_range_meters":37600,"station_id":"ce4bhop2rcd13ifvqh7g","pricing_plan_id":"cebpf4jnsgd1na2vs0mg"},{"bike_id":"ba4109b1-d99b-4b96-b8be-e7a7d80ac365","system_id":"levelo_inurba_marseille","lat":43.32371,"lon":5.38883,"is_reserved":false,"is_disabled":false,"rental_uris":{"android":"levelo://app?vid=ba4109b1-d99b-4b96-b8be-e7a7d80ac365","ios":"levelo://app?vid=ba4109b1-d99b-4b96-b8be-e7a7d80ac365"},"vehicle_type_id":"4","last_reported":1731190071,"current_range_meters":38800,"station_id":"ce4bhqp2rcd13ifvqhog","pricing_plan_id":"cebpf4jnsgd1na2vs0mg"},{"bike_id":"27b464f9-caaa-4ce7-9079-f637dd48276c","system_id":"levelo_inurba_marseille","lat":43.31364,"lon":5.38496,"is_reserved":false,"is_disabled":false,"rental_uris":{"android":"levelo://app?vid=27b464f9-caaa-4ce7-9079-f637dd48276c","ios":"levelo://app?vid=27b464f9-caaa-4ce7-9079-f637dd48276c"},"vehicle_type_id":"4","last_reported":1731190071,"current_range_meters":30000,"station_id":"ce4bgt92rcd13ifvqcf0","pricing_plan_id":"cebpf4jnsgd1na2vs0mg"},{"bike_id":"2cb2ec68-d9e0-4ce5-bae7-a2bc363c3bbb","system_id":"levelo_inurba_marseille","lat":43.32658,"lon":5.4099,"is_reserved":false,"is_disabled":false,"rental_uris":{"android":"levelo://app?vid=2cb2ec68-d9e0-4ce5-bae7-a2bc363c3bbb","ios":"levelo://app?vid=2cb2ec68-d9e0-4ce5-bae7-a2bc363c3bbb"},"vehicle_type_id":"4","last_reported":1731190071,"current_range_meters":38000,"station_id":"ce4bhpp2rcd13ifvqhgg","pricing_plan_id":"cebpf4jnsgd1na2vs0mg"},{"bike_id":"0d0ef880-2434-4d1b-be5b-12320ed92e83","system_id":"levelo_inurba_marseille","lat":43.25729,"lon":5.41109,"is_reserved":false,"is_disabled":false,"rental_uris":{"android":"levelo://app?vid=0d0ef880-2434-4d1b-be5b-12320ed92e83","ios":"levelo://app?vid=0d0ef880-2434-4d1b-be5b-12320ed92e83"},"vehicle_type_id":"4","last_reported":1731190071,"current_range_meters":28000,"station_id":"ce4bhkp2rcd13ifvqgd0","pricing_plan_id":"cebpf4jnsgd1na2vs0mg"},{"bike_id":"07704a86-dbed-425a-854d-11b1a4e3d84c","system_id":"levelo_inurba_marseille","lat":43.33756,"lon":5.37449,"is_reserved":false,"is_disabled":false,"rental_uris":{"android":"levelo://app?vid=07704a86-dbed-425a-854d-11b1a4e3d84c","ios":"levelo://app?vid=07704a86-dbed-425a-854d-11b1a4e3d84c"},"vehicle_type_id":"4","last_reported":1731190071,"current_range_meters":35200,"station_id":"","pricing_plan_id":"cebpf4jnsgd1na2vs0mg"},{"bike_id":"79b39923-b687-4420-a58b-1f85feafef16","system_id":"levelo_inurba_marseille","lat":43.29988,"lon":5.37431,"is_reserved":false,"is_disabled":false,"rental_uris":{"android":"levelo://app?vid=79b39923-b687-4420-a58b-1f85feafef16","ios":"levelo://app?vid=79b39923-b687-4420-a58b-1f85feafef16"},"vehicle_type_id":"4","last_reported":1731190071,"current_range_meters":38800,"station_id":"","pricing_plan_id":"cebpf4jnsgd1na2vs0mg"},{"bike_id":"6b8a57b8-c875-4bd5-88de-93a4f15c8739","system_id":"levelo_inurba_marseille","lat":43.29523,"lon":5.37515,"is_reserved":false,"is_disabled":false,"rental_uris":{"android":"levelo://app?vid=6b8a57b8-c875-4bd5-88de-93a4f15c8739","ios":"levelo://app?vid=6b8a57b8-c875-4bd5-88de-93a4f15c8739"},"vehicle_type_id":"4","last_reported":1731190071,"current_range_meters":36400,"station_id":"ce4bgkp2rcd13ifvqbmg","pricing_plan_id":"cebpf4jnsgd1na2vs0mg"},{"bike_id":"81abc5b8-f7c3-49f1-865e-3d42da567318","system_id":"levelo_inurba_marseille","lat":43.29531,"lon":5.38538,"is_reserved":false,"is_disabled":false,"rental_uris":{"android":"levelo://app?vid=81abc5b8-f7c3-49f1-865e-3d42da567318","ios":"levelo://app?vid=81abc5b8-f7c3-49f1-865e-3d42da567318"},"vehicle_type_id":"4","last_reported":1731190071,"current_range_meters":24400,"station_id":"ce4bgih2rcd13ifvqba0","pricing_plan_id":"cebpf4jnsgd1na2vs0mg"},{"bike_id":"39e0fb1d-6066-4204-83e9-c454b4b8332c","system_id":"levelo_inurba_marseille","lat":43.27838,"lon":5.39207,"is_reserved":false,"is_disabled":false,"rental_uris":{"android":"levelo://app?vid=39e0fb1d-6066-4204-83e9-c454b4b8332c","ios":"levelo://app?vid=39e0fb1d-6066-4204-83e9-c454b4b8332c"},"vehicle_type_id":"4","last_reported":1731190071,"current_range_meters":25600,"station_id":"ce4bhjp2rcd13ifvqga0","pricing_plan_id":"cebpf4jnsgd1na2vs0mg"},{"bike_id":"0b74ce83-e6b1-4485-8ca6-3897f29a426e","system_id":"levelo_inurba_marseille","lat":43.23957,"lon":5.36627,"is_reserved":false,"is_disabled":false,"rental_uris":{"android":"levelo://app?vid=0b74ce83-e6b1-4485-8ca6-3897f29a426e","ios":"levelo://app?vid=0b74ce83-e6b1-4485-8ca6-3897f29a426e"},"vehicle_type_id":"4","last_reported":1731190071,"current_range_meters":12800,"station_id":"ce4bhi12rcd13ifvqfp0","pricing_plan_id":"cebpf4jnsgd1na2vs0mg"},{"bike_id":"926ebe17-7a92-4ddf-8505-3efdfdbca073","system_id":"levelo_inurba_marseille","lat":43.25489,"lon":5.37647,"is_reserved":false,"is_disabled":false,"rental_uris":{"android":"levelo://app?vid=926ebe17-7a92-4ddf-8505-3efdfdbca073","ios":"levelo://app?vid=926ebe17-7a92-4ddf-8505-3efdfdbca073"},"vehicle_type_id":"4","last_reported":1731190071,"current_range_meters":30400,"station_id":"ce4bhh12rcd13ifvqff0","pricing_plan_id":"cebpf4jnsgd1na2vs0mg"},{"bike_id":"2c342691-4553-4cce-b007-e89e690aafbe","system_id":"levelo_inurba_marseille","lat":43.28276,"lon":5.35082,"is_reserved":false,"is_disabled":false,"rental_uris":{"android":"levelo://app?vid=2c342691-4553-4cce-b007-e89e690aafbe","ios":"levelo://app?vid=2c342691-4553-4cce-b007-e89e690aafbe"},"vehicle_type_id":"4","last_reported":1731190071,"current_range_meters":38800,"station_id":"ce4bhbp2rcd13ifvqerg","pricing_plan_id":"cebpf4jnsgd1na2vs0mg"},{"bike_id":"1e057bb9-d69f-4571-b923-fde8b58df654","system_id":"levelo_inurba_marseille","lat":43.28946,"lon":5.3664,"is_reserved":false,"is_disabled":false,"rental_uris":{"android":"levelo://app?vid=1e057bb9-d69f-4571-b923-fde8b58df654","ios":"levelo://app?vid=1e057bb9-d69f-4571-b923-fde8b58df654"},"vehicle_type_id":"4","last_reported":1731190071,"current_range_meters":33600,"station_id":"ce4bhap2rcd13ifvqek0","pricing_plan_id":"cebpf4jnsgd1na2vs0mg"},{"bike_id":"38634f08-7ba3-4030-8239-f8d873928eb8","system_id":"levelo_inurba_marseille","lat":43.26956,"lon":5.38631,"is_reserved":false,"is_disabled":false,"rental_uris":{"android":"levelo://app?vid=38634f08-7ba3-4030-8239-f8d873928eb8","ios":"levelo://app?vid=38634f08-7ba3-4030-8239-f8d873928eb8"},"vehicle_type_id":"4","last_reported":1731190071,"current_range_meters":32400,"station_id":"ce4bhh92rcd13ifvqfh0","pricing_plan_id":"cebpf4jnsgd1na2vs0mg"},{"bike_id":"a3e8a84d-676c-4826-bc09-ac4466c160b5","system_id":"levelo_inurba_marseille","lat":43.30938,"lon":5.40144,"is_reserved":false,"is_disabled":false,"rental_uris":{"android":"levelo://app?vid=a3e8a84d-676c-4826-bc09-ac4466c160b5","ios":"levelo://app?vid=a3e8a84d-676c-4826-bc09-ac4466c160b5"},"vehicle_type_id":"4","last_reported":1731190071,"current_range_meters":13600,"station_id":"ce4bgvp2rcd13ifvqct0","pricing_plan_id":"cebpf4jnsgd1na2vs0mg"},{"bike_id":"71e5e972-cef5-4a9d-9eed-f6c91977142d","system_id":"levelo_inurba_marseille","lat":43.32655,"lon":5.40991,"is_reserved":false,"is_disabled":false,"rental_uris":{"android":"levelo://app?vid=71e5e972-cef5-4a9d-9eed-f6c91977142d","ios":"levelo://app?vid=71e5e972-cef5-4a9d-9eed-f6c91977142d"},"vehicle_type_id":"4","last_reported":1731190071,"current_range_meters":11200,"station_id":"ce4bhpp2rcd13ifvqhgg","pricing_plan_id":"cebpf4jnsgd1na2vs0mg"},{"bike_id":"af9cd3eb-6786-4eb5-818d-938dc019f111","system_id":"levelo_inurba_marseille","lat":43.31167,"lon":5.3871,"is_reserved":false,"is_disabled":false,"rental_uris":{"android":"levelo://app?vid=af9cd3eb-6786-4eb5-818d-938dc019f111","ios":"levelo://app?vid=af9cd3eb-6786-4eb5-818d-938dc019f111"},"vehicle_type_id":"4","last_reported":1731190071,"current_range_meters":33600,"station_id":"ce4bgv12rcd13ifvqcp0","pricing_plan_id":"cebpf4jnsgd1na2vs0mg"},{"bike_id":"896a2ba9-5285-4686-975d-79ddd9cd99a3","system_id":"levelo_inurba_marseille","lat":43.25826,"lon":5.39429,"is_reserved":false,"is_disabled":false,"rental_uris":{"android":"levelo://app?vid=896a2ba9-5285-4686-975d-79ddd9cd99a3","ios":"levelo://app?vid=896a2ba9-5285-4686-975d-79ddd9cd99a3"},"vehicle_type_id":"4","last_reported":1731190071,"current_range_meters":36400,"station_id":"ce4bhip2rcd13ifvqft0","pricing_plan_id":"cebpf4jnsgd1na2vs0mg"},{"bike_id":"bc947982-4313-4264-aab0-ba10b887de87","system_id":"levelo_inurba_marseille","lat":43.31325,"lon":5.39693,"is_reserved":false,"is_disabled":false,"rental_uris":{"android":"levelo://app?vid=bc947982-4313-4264-aab0-ba10b887de87","ios":"levelo://app?vid=bc947982-4313-4264-aab0-ba10b887de87"},"vehicle_type_id":"4","last_reported":1731190071,"current_range_meters":14000,"station_id":"ce4bgvp2rcd13ifvqcu0","pricing_plan_id":"cebpf4jnsgd1na2vs0mg"},{"bike_id":"2c42f401-8588-45b2-801d-41b9137e6000","system_id":"levelo_inurba_marseille","lat":43.31696,"lon":5.40468,"is_reserved":false,"is_disabled":false,"rental_uris":{"android":"levelo://app?vid=2c42f401-8588-45b2-801d-41b9137e6000","ios":"levelo://app?vid=2c42f401-8588-45b2-801d-41b9137e6000"},"vehicle_type_id":"4","last_reported":1731190071,"current_range_meters":27600,"station_id":"ce4bh012rcd13ifvqd00","pricing_plan_id":"cebpf4jnsgd1na2vs0mg"},{"bike_id":"baac3be3-010c-4ab7-b814-2af962c842f8","system_id":"levelo_inurba_marseille","lat":43.28358,"lon":5.37518,"is_reserved":false,"is_disabled":false,"rental_uris":{"android":"levelo://app?vid=baac3be3-010c-4ab7-b814-2af962c842f8","ios":"levelo://app?vid=baac3be3-010c-4ab7-b814-2af962c842f8"},"vehicle_type_id":"4","last_reported":1731190071,"current_range_meters":28800,"station_id":"ce4bh412rcd13ifvqds0","pricing_plan_id":"cebpf4jnsgd1na2vs0mg"},{"bike_id":"2675606e-6f1c-4e69-9691-a289845cb3f2","system_id":"levelo_inurba_marseille","lat":43.31718,"lon":5.42394,"is_reserved":false,"is_disabled":false,"rental_uris":{"android":"levelo://app?vid=2675606e-6f1c-4e69-9691-a289845cb3f2","ios":"levelo://app?vid=2675606e-6f1c-4e69-9691-a289845cb3f2"},"vehicle_type_id":"4","last_reported":1731190071,"current_range_meters":24800,"station_id":"ce4bhp92rcd13ifvqhbg","pricing_plan_id":"cebpf4jnsgd1na2vs0mg"},{"bike_id":"ce2879f6-b67d-4289-ac71-73576ea9f6c4","system_id":"levelo_inurba_marseille","lat":43.33029,"lon":5.39039,"is_reserved":false,"is_disabled":false,"rental_uris":{"android":"levelo://app?vid=ce2879f6-b67d-4289-ac71-73576ea9f6c4","ios":"levelo://app?vid=ce2879f6-b67d-4289-ac71-73576ea9f6c4"},"vehicle_type_id":"4","last_reported":1731190071,"current_range_meters":15200,"station_id":"ce4bhr92rcd13ifvqhrg","pricing_plan_id":"cebpf4jnsgd1na2vs0mg"},{"bike_id":"fdbb3f58-421e-451f-bab3-b582ca428cc3","system_id":"levelo_inurba_marseille","lat":43.27946,"lon":5.41043,"is_reserved":false,"is_disabled":false,"rental_uris":{"android":"levelo://app?vid=fdbb3f58-421e-451f-bab3-b582ca428cc3","ios":"levelo://app?vid=fdbb3f58-421e-451f-bab3-b582ca428cc3"},"vehicle_type_id":"4","last_reported":1731190071,"current_range_meters":24800,"station_id":"ce4bhnp2rcd13ifvqh0g","pricing_plan_id":"cebpf4jnsgd1na2vs0mg"},{"bike_id":"ae55c0b6-3089-4c88-9348-f3fc23a17394","system_id":"levelo_inurba_marseille","lat":43.29416,"lon":5.38615,"is_reserved":false,"is_disabled":false,"rental_uris":{"android":"levelo://app?vid=ae55c0b6-3089-4c88-9348-f3fc23a17394","ios":"levelo://app?vid=ae55c0b6-3089-4c88-9348-f3fc23a17394"},"vehicle_type_id":"4","last_reported":1731190071,"current_range_meters":34000,"station_id":"ce4bh2h2rcd13ifvqdh0","pricing_plan_id":"cebpf4jnsgd1na2vs0mg"},{"bike_id":"80ac2486-5c40-4406-b348-114109944990","system_id":"levelo_inurba_marseille","lat":43.2994,"lon":5.37466,"is_reserved":false,"is_disabled":false,"rental_uris":{"android":"levelo://app?vid=80ac2486-5c40-4406-b348-114109944990","ios":"levelo://app?vid=80ac2486-5c40-4406-b348-114109944990"},"vehicle_type_id":"4","last_reported":1731190071,"current_range_meters":32400,"station_id":"ce4bgg92rcd13ifvqb30","pricing_plan_id":"cebpf4jnsgd1na2vs0mg"},{"bike_id":"c48eca37-84d8-445e-b66f-c452247de6b7","system_id":"levelo_inurba_marseille","lat":43.25501,"lon":5.37655,"is_reserved":false,"is_disabled":false,"rental_uris":{"android":"levelo://app?vid=c48eca37-84d8-445e-b66f-c452247de6b7","ios":"levelo://app?vid=c48eca37-84d8-445e-b66f-c452247de6b7"},"vehicle_type_id":"4","last_reported":1731190071,"current_range_meters":6800,"station_id":"ce4bhh12rcd13ifvqff0","pricing_plan_id":"cebpf4jnsgd1na2vs0mg"},{"bike_id":"40f593b1-c6b4-4056-9082-85c23863896b","system_id":"levelo_inurba_marseille","lat":43.25495,"lon":5.37647,"is_reserved":false,"is_disabled":false,"rental_uris":{"android":"levelo://app?vid=40f593b1-c6b4-4056-9082-85c23863896b","ios":"levelo://app?vid=40f593b1-c6b4-4056-9082-85c23863896b"},"vehicle_type_id":"4","last_reported":1731190071,"current_range_meters":38800,"station_id":"ce4bhh12rcd13ifvqff0","pricing_plan_id":"cebpf4jnsgd1na2vs0mg"},{"bike_id":"5e6225c0-2d39-469c-8147-59151b03250f","system_id":"levelo_inurba_marseille","lat":43.31695,"lon":5.4047,"is_reserved":false,"is_disabled":false,"rental_uris":{"android":"levelo://app?vid=5e6225c0-2d39-469c-8147-59151b03250f","ios":"levelo://app?vid=5e6225c0-2d39-469c-8147-59151b03250f"},"vehicle_type_id":"4","last_reported":1731190071,"current_range_meters":38800,"station_id":"ce4bh012rcd13ifvqd00","pricing_plan_id":"cebpf4jnsgd1na2vs0mg"},{"bike_id":"c570186d-f928-464d-b1f7-47e1fae4f5ab","system_id":"levelo_inurba_marseille","lat":43.28619,"lon":5.351,"is_reserved":false,"is_disabled":false,"rental_uris":{"android":"levelo://app?vid=c570186d-f928-464d-b1f7-47e1fae4f5ab","ios":"levelo://app?vid=c570186d-f928-464d-b1f7-47e1fae4f5ab"},"vehicle_type_id":"4","last_reported":1731190071,"current_range_meters":36400,"station_id":"ce4bhch2rcd13ifvqeug","pricing_plan_id":"cebpf4jnsgd1na2vs0mg"},{"bike_id":"11508394-60dd-4294-be15-43de4d3084f6","system_id":"levelo_inurba_marseille","lat":43.23967,"lon":5.36626,"is_reserved":false,"is_disabled":false,"rental_uris":{"android":"levelo://app?vid=11508394-60dd-4294-be15-43de4d3084f6","ios":"levelo://app?vid=11508394-60dd-4294-be15-43de4d3084f6"},"vehicle_type_id":"4","last_reported":1731190071,"current_range_meters":12000,"station_id":"ce4bhi12rcd13ifvqfp0","pricing_plan_id":"cebpf4jnsgd1na2vs0mg"},{"bike_id":"25845ab9-1181-480c-b25b-a96b7f2023da","system_id":"levelo_inurba_marseille","lat":43.29923,"lon":5.3746,"is_reserved":false,"is_disabled":false,"rental_uris":{"android":"levelo://app?vid=25845ab9-1181-480c-b25b-a96b7f2023da","ios":"levelo://app?vid=25845ab9-1181-480c-b25b-a96b7f2023da"},"vehicle_type_id":"4","last_reported":1731190071,"current_range_meters":32000,"station_id":"ce4bgjh2rcd13ifvqbg0","pricing_plan_id":"cebpf4jnsgd1na2vs0mg"},{"bike_id":"b4eb30bc-dd09-4cbf-8ece-3b8ada662aaf","system_id":"levelo_inurba_marseille","lat":43.25005,"lon":5.38916,"is_reserved":false,"is_disabled":false,"rental_uris":{"android":"levelo://app?vid=b4eb30bc-dd09-4cbf-8ece-3b8ada662aaf","ios":"levelo://app?vid=b4eb30bc-dd09-4cbf-8ece-3b8ada662aaf"},"vehicle_type_id":"4","last_reported":1731190071,"current_range_meters":17600,"station_id":"ce4bhgp2rcd13ifvqfd0","pricing_plan_id":"cebpf4jnsgd1na2vs0mg"},{"bike_id":"abcbe307-da5a-42ba-a7b7-da02979472f0","system_id":"levelo_inurba_marseille","lat":43.27205,"lon":5.39175,"is_reserved":false,"is_disabled":false,"rental_uris":{"android":"levelo://app?vid=abcbe307-da5a-42ba-a7b7-da02979472f0","ios":"levelo://app?vid=abcbe307-da5a-42ba-a7b7-da02979472f0"},"vehicle_type_id":"4","last_reported":1731190071,"current_range_meters":37600,"station_id":"ce4bhhp2rcd13ifvqfm0","pricing_plan_id":"cebpf4jnsgd1na2vs0mg"},{"bike_id":"4a85840f-92aa-4f4f-a9cd-0ae19184b8b1","system_id":"levelo_inurba_marseille","lat":43.30778,"lon":5.3766,"is_reserved":false,"is_disabled":false,"rental_uris":{"android":"levelo://app?vid=4a85840f-92aa-4f4f-a9cd-0ae19184b8b1","ios":"levelo://app?vid=4a85840f-92aa-4f4f-a9cd-0ae19184b8b1"},"vehicle_type_id":"4","last_reported":1731190071,"current_range_meters":16800,"station_id":"ce4bgv92rcd13ifvqcq0","pricing_plan_id":"cebpf4jnsgd1na2vs0mg"},{"bike_id":"d19d38e7-34df-44f8-bbe6-4862f8fbaa71","system_id":"levelo_inurba_marseille","lat":43.24075,"lon":5.37751,"is_reserved":false,"is_disabled":false,"rental_uris":{"android":"levelo://app?vid=d19d38e7-34df-44f8-bbe6-4862f8fbaa71","ios":"levelo://app?vid=d19d38e7-34df-44f8-bbe6-4862f8fbaa71"},"vehicle_type_id":"4","last_reported":1731190071,"current_range_meters":26000,"station_id":"ce4bhnp2rcd13ifvqgvg","pricing_plan_id":"cebpf4jnsgd1na2vs0mg"},{"bike_id":"be94c940-c56d-4132-af66-fedb762b3e0f","system_id":"levelo_inurba_marseille","lat":43.23196,"lon":5.35558,"is_reserved":false,"is_disabled":false,"rental_uris":{"android":"levelo://app?vid=be94c940-c56d-4132-af66-fedb762b3e0f","ios":"levelo://app?vid=be94c940-c56d-4132-af66-fedb762b3e0f"},"vehicle_type_id":"4","last_reported":1731190071,"current_range_meters":36000,"station_id":"ce4bhu92rcd13ifvqi70","pricing_plan_id":"cebpf4jnsgd1na2vs0mg"},{"bike_id":"9769b54a-608a-49dc-ab6a-d885f78ea978","system_id":"levelo_inurba_marseille","lat":43.31112,"lon":5.37775,"is_reserved":false,"is_disabled":false,"rental_uris":{"android":"levelo://app?vid=9769b54a-608a-49dc-ab6a-d885f78ea978","ios":"levelo://app?vid=9769b54a-608a-49dc-ab6a-d885f78ea978"},"vehicle_type_id":"4","last_reported":1731190071,"current_range_meters":19200,"station_id":"ce4bgt92rcd13ifvqcg0","pricing_plan_id":"cebpf4jnsgd1na2vs0mg"},{"bike_id":"6a8f90cf-dd6b-4336-809c-cc3deb3a9c75","system_id":"levelo_inurba_marseille","lat":43.27938,"lon":5.41042,"is_reserved":false,"is_disabled":false,"rental_uris":{"android":"levelo://app?vid=6a8f90cf-dd6b-4336-809c-cc3deb3a9c75","ios":"levelo://app?vid=6a8f90cf-dd6b-4336-809c-cc3deb3a9c75"},"vehicle_type_id":"4","last_reported":1731190071,"current_range_meters":32800,"station_id":"ce4bhnp2rcd13ifvqh0g","pricing_plan_id":"cebpf4jnsgd1na2vs0mg"},{"bike_id":"5ef9fd6f-4b20-4393-a8a6-914b9723a6a4","system_id":"levelo_inurba_marseille","lat":43.25487,"lon":5.37648,"is_reserved":false,"is_disabled":false,"rental_uris":{"android":"levelo://app?vid=5ef9fd6f-4b20-4393-a8a6-914b9723a6a4","ios":"levelo://app?vid=5ef9fd6f-4b20-4393-a8a6-914b9723a6a4"},"vehicle_type_id":"4","last_reported":1731190071,"current_range_meters":38800,"station_id":"ce4bhh12rcd13ifvqff0","pricing_plan_id":"cebpf4jnsgd1na2vs0mg"},{"bike_id":"799051fd-d983-438d-b1a6-f94aa3428752","system_id":"levelo_inurba_marseille","lat":43.29551,"lon":5.42282,"is_reserved":false,"is_disabled":false,"rental_uris":{"android":"levelo://app?vid=799051fd-d983-438d-b1a6-f94aa3428752","ios":"levelo://app?vid=799051fd-d983-438d-b1a6-f94aa3428752"},"vehicle_type_id":"4","last_reported":1731190071,"current_range_meters":38800,"station_id":"ce4bhph2rcd13ifvqhdg","pricing_plan_id":"cebpf4jnsgd1na2vs0mg"},{"bike_id":"26b37ce0-ca3a-4194-994a-47773616e440","system_id":"levelo_inurba_marseille","lat":43.30602,"lon":5.37221,"is_reserved":false,"is_disabled":false,"rental_uris":{"android":"levelo://app?vid=26b37ce0-ca3a-4194-994a-47773616e440","ios":"levelo://app?vid=26b37ce0-ca3a-4194-994a-47773616e440"},"vehicle_type_id":"4","last_reported":1731190071,"current_range_meters":23200,"station_id":"ce4bgqh2rcd13ifvqc4g","pricing_plan_id":"cebpf4jnsgd1na2vs0mg"},{"bike_id":"6da863f9-b1f5-4ce2-ba72-ca1bb82a1827","system_id":"levelo_inurba_marseille","lat":43.30936,"lon":5.40136,"is_reserved":false,"is_disabled":false,"rental_uris":{"android":"levelo://app?vid=6da863f9-b1f5-4ce2-ba72-ca1bb82a1827","ios":"levelo://app?vid=6da863f9-b1f5-4ce2-ba72-ca1bb82a1827"},"vehicle_type_id":"4","last_reported":1731190071,"current_range_meters":6800,"station_id":"ce4bgvp2rcd13ifvqct0","pricing_plan_id":"cebpf4jnsgd1na2vs0mg"},{"bike_id":"70d9933d-741e-4429-84fb-de4809e21853","system_id":"levelo_inurba_marseille","lat":43.29257,"lon":5.38438,"is_reserved":false,"is_disabled":false,"rental_uris":{"android":"levelo://app?vid=70d9933d-741e-4429-84fb-de4809e21853","ios":"levelo://app?vid=70d9933d-741e-4429-84fb-de4809e21853"},"vehicle_type_id":"4","last_reported":1731190071,"current_range_meters":17200,"station_id":"ce4bh692rcd13ifvqea0","pricing_plan_id":"cebpf4jnsgd1na2vs0mg"},{"bike_id":"d93e0dfa-2654-40a7-855d-07d4cdc6d608","system_id":"levelo_inurba_marseille","lat":43.30417,"lon":5.41279,"is_reserved":false,"is_disabled":false,"rental_uris":{"android":"levelo://app?vid=d93e0dfa-2654-40a7-855d-07d4cdc6d608","ios":"levelo://app?vid=d93e0dfa-2654-40a7-855d-07d4cdc6d608"},"vehicle_type_id":"4","last_reported":1731190071,"current_range_meters":36000,"station_id":"ce4bhop2rcd13ifvqh8g","pricing_plan_id":"cebpf4jnsgd1na2vs0mg"},{"bike_id":"ec9c7755-ff98-4680-93df-dd7f7d72f12b","system_id":"levelo_inurba_marseille","lat":43.31723,"lon":5.424,"is_reserved":false,"is_disabled":false,"rental_uris":{"android":"levelo://app?vid=ec9c7755-ff98-4680-93df-dd7f7d72f12b","ios":"levelo://app?vid=ec9c7755-ff98-4680-93df-dd7f7d72f12b"},"vehicle_type_id":"4","last_reported":1731190071,"current_range_meters":39200,"station_id":"ce4bhp92rcd13ifvqhbg","pricing_plan_id":"cebpf4jnsgd1na2vs0mg"},{"bike_id":"2a2b6bd4-7604-497d-9ca3-0e5e501b0d20","system_id":"levelo_inurba_marseille","lat":43.31179,"lon":5.38717,"is_reserved":false,"is_disabled":false,"rental_uris":{"android":"levelo://app?vid=2a2b6bd4-7604-497d-9ca3-0e5e501b0d20","ios":"levelo://app?vid=2a2b6bd4-7604-497d-9ca3-0e5e501b0d20"},"vehicle_type_id":"4","last_reported":1731190071,"current_range_meters":38800,"station_id":"ce4bgv12rcd13ifvqcp0","pricing_plan_id":"cebpf4jnsgd1na2vs0mg"},{"bike_id":"c3f3ba9b-52d5-4a86-8324-231ede433e97","system_id":"levelo_inurba_marseille","lat":43.31363,"lon":5.38495,"is_reserved":false,"is_disabled":false,"rental_uris":{"android":"levelo://app?vid=c3f3ba9b-52d5-4a86-8324-231ede433e97","ios":"levelo://app?vid=c3f3ba9b-52d5-4a86-8324-231ede433e97"},"vehicle_type_id":"4","last_reported":1731190071,"current_range_meters":38000,"station_id":"ce4bgt92rcd13ifvqcf0","pricing_plan_id":"cebpf4jnsgd1na2vs0mg"},{"bike_id":"e61e0940-c088-4879-95f6-2eeeebf20835","system_id":"levelo_inurba_marseille","lat":43.31703,"lon":5.3774,"is_reserved":false,"is_disabled":false,"rental_uris":{"android":"levelo://app?vid=e61e0940-c088-4879-95f6-2eeeebf20835","ios":"levelo://app?vid=e61e0940-c088-4879-95f6-2eeeebf20835"},"vehicle_type_id":"4","last_reported":1731190071,"current_range_meters":18000,"station_id":"ce4bgth2rcd13ifvqch0","pricing_plan_id":"cebpf4jnsgd1na2vs0mg"},{"bike_id":"b83739f5-92df-4c93-8e33-a044335de287","system_id":"levelo_inurba_marseille","lat":43.272128,"lon":5.391859,"is_reserved":false,"is_disabled":false,"rental_uris":{"android":"levelo://app?vid=b83739f5-92df-4c93-8e33-a044335de287","ios":"levelo://app?vid=b83739f5-92df-4c93-8e33-a044335de287"},"vehicle_type_id":"4","last_reported":1731190071,"current_range_meters":8400,"station_id":"ce4bhhp2rcd13ifvqfm0","pricing_plan_id":"cebpf4jnsgd1na2vs0mg"},{"bike_id":"b65f1707-693f-4ccf-8ee2-c52b7293f0e2","system_id":"levelo_inurba_marseille","lat":43.30056,"lon":5.36623,"is_reserved":false,"is_disabled":false,"rental_uris":{"android":"levelo://app?vid=b65f1707-693f-4ccf-8ee2-c52b7293f0e2","ios":"levelo://app?vid=b65f1707-693f-4ccf-8ee2-c52b7293f0e2"},"vehicle_type_id":"4","last_reported":1731190071,"current_range_meters":24000,"station_id":"","pricing_plan_id":"cebpf4jnsgd1na2vs0mg"},{"bike_id":"42e208b0-3443-4fe8-a46f-bf3efaa3f00b","system_id":"levelo_inurba_marseille","lat":43.27909,"lon":5.38298,"is_reserved":false,"is_disabled":false,"rental_uris":{"android":"levelo://app?vid=42e208b0-3443-4fe8-a46f-bf3efaa3f00b","ios":"levelo://app?vid=42e208b0-3443-4fe8-a46f-bf3efaa3f00b"},"vehicle_type_id":"4","last_reported":1731190071,"current_range_meters":15200,"station_id":"ce4bhh92rcd13ifvqfi0","pricing_plan_id":"cebpf4jnsgd1na2vs0mg"},{"bike_id":"ed640ff8-ddc7-484e-a80e-3b81d3c19f19","system_id":"levelo_inurba_marseille","lat":43.28607,"lon":5.37068,"is_reserved":false,"is_disabled":false,"rental_uris":{"android":"levelo://app?vid=ed640ff8-ddc7-484e-a80e-3b81d3c19f19","ios":"levelo://app?vid=ed640ff8-ddc7-484e-a80e-3b81d3c19f19"},"vehicle_type_id":"4","last_reported":1731190071,"current_range_meters":38800,"station_id":"ce4bht12rcd13ifvqi60","pricing_plan_id":"cebpf4jnsgd1na2vs0mg"},{"bike_id":"fbed3a2d-4a6e-4eeb-9c6f-075a910473d7","system_id":"levelo_inurba_marseille","lat":43.28438,"lon":5.3919,"is_reserved":false,"is_disabled":false,"rental_uris":{"android":"levelo://app?vid=fbed3a2d-4a6e-4eeb-9c6f-075a910473d7","ios":"levelo://app?vid=fbed3a2d-4a6e-4eeb-9c6f-075a910473d7"},"vehicle_type_id":"4","last_reported":1731190071,"current_range_meters":27200,"station_id":"ce4bhoh2rcd13ifvqh5g","pricing_plan_id":"cebpf4jnsgd1na2vs0mg"},{"bike_id":"0251684d-d6ef-43f6-a4a8-0cac79d1aa39","system_id":"levelo_inurba_marseille","lat":43.2558,"lon":5.38231,"is_reserved":false,"is_disabled":false,"rental_uris":{"android":"levelo://app?vid=0251684d-d6ef-43f6-a4a8-0cac79d1aa39","ios":"levelo://app?vid=0251684d-d6ef-43f6-a4a8-0cac79d1aa39"},"vehicle_type_id":"4","last_reported":1731190071,"current_range_meters":34000,"station_id":"ce4bhih2rcd13ifvqfs0","pricing_plan_id":"cebpf4jnsgd1na2vs0mg"},{"bike_id":"52113060-0a84-41f6-a070-2cea47c3e3e0","system_id":"levelo_inurba_marseille","lat":43.27998,"lon":5.41666,"is_reserved":false,"is_disabled":false,"rental_uris":{"android":"levelo://app?vid=52113060-0a84-41f6-a070-2cea47c3e3e0","ios":"levelo://app?vid=52113060-0a84-41f6-a070-2cea47c3e3e0"},"vehicle_type_id":"4","last_reported":1731190071,"current_range_meters":35600,"station_id":"ce4bho12rcd13ifvqh1g","pricing_plan_id":"cebpf4jnsgd1na2vs0mg"},{"bike_id":"3fc2ca6d-39ed-4447-8d5a-112a42406f24","system_id":"levelo_inurba_marseille","lat":43.295258,"lon":5.3854,"is_reserved":false,"is_disabled":false,"rental_uris":{"android":"levelo://app?vid=3fc2ca6d-39ed-4447-8d5a-112a42406f24","ios":"levelo://app?vid=3fc2ca6d-39ed-4447-8d5a-112a42406f24"},"vehicle_type_id":"4","last_reported":1731190071,"current_range_meters":37600,"station_id":"ce4bgih2rcd13ifvqba0","pricing_plan_id":"cebpf4jnsgd1na2vs0mg"},