{"last_updated":1744201181,"ttl":60,"version":"2.2","data":{"bikes":[{"bike_id":"8188c910-0ae9-445e-a67f-19d9afd04c4b","system_id":"levelo_inurba_marseille","lat":43.29016,"lon":5.35614,"is_reserved":false,"is_disabled":false,"rental_uris":{"android":"levelo://app?vid=8188c910-0ae9-445e-a67f-19d9afd04c4b","ios":"levelo://app?vid=8188c910-0ae9-445e-a67f-19d9afd04c4b"},"vehicle_type_id":"4","last_reported":1744201181,"current_range_meters":2800,"station_id":"ce4bhb92rcd13ifvqen0","pricing_plan_id":"cebpf4jnsgd1na2vs0mg"},{"bike_id":"0fbdf58d-4917-4d24-8b4b-9c66b7b96e08","system_id":"levelo_inurba_marseille","lat":43.31762,"lon":5.39876,"is_reserved":false,"is_disabled":false,"rental_uris":{"android":"levelo://app?vid=0fbdf58d-4917-4d24-8b4b-9c66b7b96e08","ios":"levelo://app?vid=0fbdf58d-4917-4d24-8b4b-9c66b7b96e08"},"vehicle_type_id":"4","last_reported":1744201181,"current_range_meters":2800,"station_id":"","pricing_plan_id":"cebpf4jnsgd1na2vs0mg"},{"bike_id":"6d173c53-2560-47bd-92e2-bc4935dbce3a","system_id":"levelo_inurba_marseille","lat":43.29376,"lon":5.37842,"is_reserved":false,"is_disabled":false,"rental_uris":{"android":"levelo://app?vid=6d173c53-2560-47bd-92e2-bc4935dbce3a","ios":"levelo://app?vid=6d173c53-2560-47bd-92e2-bc4935dbce3a"},"vehicle_type_id":"4","last_reported":1744201181,"current_range_meters":3200,"station_id":"ce4bgjh2rcd13ifvqbf0","pricing_plan_id":"cebpf4jnsgd1na2vs0mg"},{"bike_id":"c6c3a9ff-13ce-4b1a-9bd8-be5bee9d1669","system_id":"levelo_inurba_marseille","lat":43.284,"lon":5.37493,"is_reserved":false,"is_disabled":false,"rental_uris":{"android":"levelo://app?vid=c6c3a9ff-13ce-4b1a-9bd8-be5bee9d1669","ios":"levelo://app?vid=c6c3a9ff-13ce-4b1a-9bd8-be5bee9d1669"},"vehicle_type_id":"4","last_reported":1744201181,"current_range_meters":3600,"station_id":"ce4bh412rcd13ifvqds0","pricing_plan_id":"cebpf4jnsgd1na2vs0mg"},{"bike_id":"f39be6f5-2f69-4c37-b021-559d20b299a4","system_id":"levelo_inurba_marseille","lat":43.29994,"lon":5.37638,"is_reserved":false,"is_disabled":false,"rental_uris":{"android":"levelo://app?vid=f39be6f5-2f69-4c37-b021-559d20b299a4","ios":"levelo://app?vid=f39be6f5-2f69-4c37-b021-559d20b299a4"},"vehicle_type_id":"4","last_reported":1744201181,"current_range_meters":3600,"station_id":"","pricing_plan_id":"cebpf4jnsgd1na2vs0mg"},{"bike_id":"04ea21db-9998-4cdc-8b93-e4b23b0ed540","system_id":"levelo_inurba_marseille","lat":43.26129,"lon":5.39573,"is_reserved":false,"is_disabled":false,"rental_uris":{"android":"levelo://app?vid=04ea21db-9998-4cdc-8b93-e4b23b0ed540","ios":"levelo://app?vid=04ea21db-9998-4cdc-8b93-e4b23b0ed540"},"vehicle_type_id":"4","last_reported":1744201181,"current_range_meters":3600,"station_id":"","pricing_plan_id":"cebpf4jnsgd1na2vs0mg"},{"bike_id":"16afd4ac-e2a6-4649-8b1d-d75d264a953d","system_id":"levelo_inurba_marseille","lat":43.30292,"lon":5.36873,"is_reserved":false,"is_disabled":false,"rental_uris":{"android":"levelo://app?vid=16afd4ac-e2a6-4649-8b1d-d75d264a953d","ios":"levelo://app?vid=16afd4ac-e2a6-4649-8b1d-d75d264a953d"},"vehicle_type_id":"4","last_reported":1744201181,"current_range_meters":4000,"station_id":"ce4bgqh2rcd13ifvqc5g","pricing_plan_id":"cebpf4jnsgd1na2vs0mg"},{"bike_id":"851dd422-a2d9-41b9-9c1e-f44e7aae9209","system_id":"levelo_inurba_marseille","lat":43.28471,"lon":5.35896,"is_reserved":false,"is_disabled":false,"rental_uris":{"android":"levelo://app?vid=851dd422-a2d9-41b9-9c1e-f44e7aae9209","ios":"levelo://app?vid=851dd422-a2d9-41b9-9c1e-f44e7aae9209"},"vehicle_type_id":"4","last_reported":1744201181,"current_range_meters":4000,"station_id":"ce4bhah2rcd13ifvqei0","pricing_plan_id":"cebpf4jnsgd1na2vs0mg"},{"bike_id":"46bbd24c-7170-4f2e-b9f2-ca23700e255d","system_id":"levelo_inurba_marseille","lat":43.27838,"lon":5.39211,"is_reserved":false,"is_disabled":false,"rental_uris":{"android":"levelo://app?vid=46bbd24c-7170-4f2e-b9f2-ca23700e255d","ios":"levelo://app?vid=46bbd24c-7170-4f2e-b9f2-ca23700e255d"},"vehicle_type_id":"4","last_reported":1744201181,"current_range_meters":4400,"station_id":"ce4bhjp2rcd13ifvqga0","pricing_plan_id":"cebpf4jnsgd1na2vs0mg"},{"bike_id":"3576b946-70b3-456f-a60a-d98e227f015c","system_id":"levelo_inurba_marseille","lat":43.30148,"lon":5.38215,"is_reserved":false,"is_disabled":false,"rental_uris":{"android":"levelo://app?vid=3576b946-70b3-456f-a60a-d98e227f015c","ios":"levelo://app?vid=3576b946-70b3-456f-a60a-d98e227f015c"},"vehicle_type_id":"4","last_reported":1744201181,"current_range_meters":4400,"station_id":"","pricing_plan_id":"cebpf4jnsgd1na2vs0mg"},{"bike_id":"6d4391fe-f11c-4ffb-b40d-2e45e0dd896f","system_id":"levelo_inurba_marseille","lat":43.26789,"lon":5.39418,"is_reserved":false,"is_disabled":false,"rental_uris":{"android":"levelo://app?vid=6d4391fe-f11c-4ffb-b40d-2e45e0dd896f","ios":"levelo://app?vid=6d4391fe-f11c-4ffb-b40d-2e45e0dd896f"},"vehicle_type_id":"4","last_reported":1744201181,"current_range_meters":7200,"station_id":"ce4bhh12rcd13ifvqfg0","pricing_plan_id":"cebpf4jnsgd1na2vs0mg"},{"bike_id":"b0e70e48-f0ae-4e70-acf1-d92ac7d0b960","system_id":"levelo_inurba_marseille","lat":43.23156,"lon":5.43732,"is_reserved":false,"is_disabled":false,"rental_uris":{"android":"levelo://app?vid=b0e70e48-f0ae-4e70-acf1-d92ac7d0b960","ios":"levelo://app?vid=b0e70e48-f0ae-4e70-acf1-d92ac7d0b960"},"vehicle_type_id":"4","last_reported":1744201181,"current_range_meters":4800,"station_id":"ce4bhmp2rcd13ifvqgog","pricing_plan_id":"cebpf4jnsgd1na2vs0mg"},{"bike_id":"61faeab7-d3b1-42ea-8185-a6bb834269b2","system_id":"levelo_inurba_marseille","lat":43.27127,"lon":5.41458,"is_reserved":false,"is_disabled":false,"rental_uris":{"android":"levelo://app?vid=61faeab7-d3b1-42ea-8185-a6bb834269b2","ios":"levelo://app?vid=61faeab7-d3b1-42ea-8185-a6bb834269b2"},"vehicle_type_id":"4","last_reported":1744201181,"current_range_meters":4800,"station_id":"","pricing_plan_id":"cebpf4jnsgd1na2vs0mg"},{"bike_id":"3dacb78c-23e8-43c0-b367-cfdc8b13b4d5","system_id":"levelo_inurba_marseille","lat":43.25903,"lon":5.40906,"is_reserved":false,"is_disabled":false,"rental_uris":{"android":"levelo://app?vid=3dacb78c-23e8-43c0-b367-cfdc8b13b4d5","ios":"levelo://app?vid=3dacb78c-23e8-43c0-b367-cfdc8b13b4d5"},"vehicle_type_id":"4","last_reported":1744201181,"current_range_meters":4800,"station_id":"ce4bhm92rcd13ifvqglg","pricing_plan_id":"cebpf4jnsgd1na2vs0mg"},{"bike_id":"2e9000dc-6400-4918-a994-dd60039ca96d","system_id":"levelo_inurba_marseille","lat":43.32002,"lon":5.38154,"is_reserved":false,"is_disabled":false,"rental_uris":{"android":"levelo://app?vid=2e9000dc-6400-4918-a994-dd60039ca96d","ios":"levelo://app?vid=2e9000dc-6400-4918-a994-dd60039ca96d"},"vehicle_type_id":"4","last_reported":1744201181,"current_range_meters":4800,"station_id":"ce4bhr12rcd13ifvqhpg","pricing_plan_id":"cebpf4jnsgd1na2vs0mg"},{"bike_id":"0d841a75-222b-44c5-a412-39cc5e7562ac","system_id":"levelo_inurba_marseille","lat":43.2837,"lon":5.38636,"is_reserved":false,"is_disabled":false,"rental_uris":{"android":"levelo://app?vid=0d841a75-222b-44c5-a412-39cc5e7562ac","ios":"levelo://app?vid=0d841a75-222b-44c5-a412-39cc5e7562ac"},"vehicle_type_id":"4","last_reported":1744201181,"current_range_meters":5600,"station_id":"ce4bh492rcd13ifvqdvg","pricing_plan_id":"cebpf4jnsgd1na2vs0mg"},{"bike_id":"6ecdc4f5-938b-40df-82f5-9f7f64b406cb","system_id":"levelo_inurba_marseille","lat":43.26574,"lon":5.39027,"is_reserved":false,"is_disabled":false,"rental_uris":{"android":"levelo://app?vid=6ecdc4f5-938b-40df-82f5-9f7f64b406cb","ios":"levelo://app?vid=6ecdc4f5-938b-40df-82f5-9f7f64b406cb"},"vehicle_type_id":"4","last_reported":1744201181,"current_range_meters":5600,"station_id":"ce4bhe12rcd13ifvqf30","pricing_plan_id":"cebpf4jnsgd1na2vs0mg"},{"bike_id":"893d3512-99f5-48c8-9873-611808b6c3dd","system_id":"levelo_inurba_marseille","lat":43.29628,"lon":5.37723,"is_reserved":false,"is_disabled":false,"rental_uris":{"android":"levelo://app?vid=893d3512-99f5-48c8-9873-611808b6c3dd","ios":"levelo://app?vid=893d3512-99f5-48c8-9873-611808b6c3dd"},"vehicle_type_id":"4","last_reported":1744201181,"current_range_meters":6400,"station_id":"ce4bgi92rcd13ifvqb90","pricing_plan_id":"cebpf4jnsgd1na2vs0mg"},{"bike_id":"e0e6463e-1c7e-49ee-a778-e88d48fe4f6f","system_id":"levelo_inurba_marseille","lat":43.24178,"lon":5.39736,"is_reserved":false,"is_disabled":false,"rental_uris":{"android":"levelo://app?vid=e0e6463e-1c7e-49ee-a778-e88d48fe4f6f","ios":"levelo://app?vid=e0e6463e-1c7e-49ee-a778-e88d48fe4f6f"},"vehicle_type_id":"4","last_reported":1744201181,"current_range_meters":6400,"station_id":"ce4bhn12rcd13ifvqgpg","pricing_plan_id":"cebpf4jnsgd1na2vs0mg"},{"bike_id":"1d326d4a-ee95-4219-a628-aac6f72cd6ff","system_id":"levelo_inurba_marseille","lat":43.292051,"lon":5.35955,"is_reserved":false,"is_disabled":false,"rental_uris":{"android":"levelo://app?vid=1d326d4a-ee95-4219-a628-aac6f72cd6ff","ios":"levelo://app?vid=1d326d4a-ee95-4219-a628-aac6f72cd6ff"},"vehicle_type_id":"4","last_reported":1744201181,"current_range_meters":6800,"station_id":"ce4bhch2rcd13ifvqeug","pricing_plan_id":"cebpf4jnsgd1na2vs0mg"},{"bike_id":"70810d3e-9936-4863-b211-84f880613e88","system_id":"levelo_inurba_marseille","lat":43.31286,"lon":5.37325,"is_reserved":false,"is_disabled":false,"rental_uris":{"android":"levelo://app?vid=70810d3e-9936-4863-b211-84f880613e88","ios":"levelo://app?vid=70810d3e-9936-4863-b211-84f880613e88"},"vehicle_type_id":"4","last_reported":1744201181,"current_range_meters":6800,"station_id":"","pricing_plan_id":"cebpf4jnsgd1na2vs0mg"},{"bike_id":"ec41b842-c84f-4ab1-894c-fc6101e00efb","system_id":"levelo_inurba_marseille","lat":43.31745,"lon":5.40317,"is_reserved":false,"is_disabled":false,"rental_uris":{"android":"levelo://app?vid=ec41b842-c84f-4ab1-894c-fc6101e00efb","ios":"levelo://app?vid=ec41b842-c84f-4ab1-894c-fc6101e00efb"},"vehicle_type_id":"4","last_reported":1744201181,"current_range_meters":6800,"station_id":"","pricing_plan_id":"cebpf4jnsgd1na2vs0mg"},{"bike_id":"96ba2d0d-f508-4904-b9d2-5268717d4af9","system_id":"levelo_inurba_marseille","lat":43.2842,"lon":5.35004,"is_reserved":false,"is_disabled":false,"rental_uris":{"android":"levelo://app?vid=96ba2d0d-f508-4904-b9d2-5268717d4af9","ios":"levelo://app?vid=96ba2d0d-f508-4904-b9d2-5268717d4af9"},"vehicle_type_id":"4","last_reported":1744201181,"current_range_meters":6800,"station_id":"ce4bhbh2rcd13ifvqepg","pricing_plan_id":"cebpf4jnsgd1na2vs0mg"},{"bike_id":"fb5a35ce-d776-4002-a1d4-1007468fa764","system_id":"levelo_inurba_marseille","lat":43.29288,"lon":5.3685,"is_reserved":false,"is_disabled":false,"rental_uris":{"android":"levelo://app?vid=fb5a35ce-d776-4002-a1d4-1007468fa764","ios":"levelo://app?vid=fb5a35ce-d776-4002-a1d4-1007468fa764"},"vehicle_type_id":"4","last_reported":1744201181,"current_range_meters":6800,"station_id":"ce4bhbp2rcd13ifvqesg","pricing_plan_id":"cebpf4jnsgd1na2vs0mg"},{"bike_id":"5923429b-3f6b-40f2-843f-6bdedbccefad","system_id":"levelo_inurba_marseille","lat":43.30214,"lon":5.39474,"is_reserved":false,"is_disabled":false,"rental_uris":{"android":"levelo://app?vid=5923429b-3f6b-40f2-843f-6bdedbccefad","ios":"levelo://app?vid=5923429b-3f6b-40f2-843f-6bdedbccefad"},"vehicle_type_id":"4","last_reported":1744201181,"current_range_meters":7200,"station_id":"ce4bh0p2rcd13ifvqd70","pricing_plan_id":"cebpf4jnsgd1na2vs0mg"},{"bike_id":"3d0cae43-5b75-4aac-b7cb-471ce1151dd5","system_id":"levelo_inurba_marseille","lat":43.33045,"lon":5.39534,"is_reserved":false,"is_disabled":false,"rental_uris":{"android":"levelo://app?vid=3d0cae43-5b75-4aac-b7cb-471ce1151dd5","ios":"levelo://app?vid=3d0cae43-5b75-4aac-b7cb-471ce1151dd5"},"vehicle_type_id":"4","last_reported":1744201181,"current_range_meters":7200,"station_id":"","pricing_plan_id":"cebpf4jnsgd1na2vs0mg"},{"bike_id":"b20e9b96-9326-44a6-a232-b0c3da687017","system_id":"levelo_inurba_marseille","lat":43.30741,"lon":5.42442,"is_reserved":false,"is_disabled":false,"rental_uris":{"android":"levelo://app?vid=b20e9b96-9326-44a6-a232-b0c3da687017","ios":"levelo://app?vid=b20e9b96-9326-44a6-a232-b0c3da687017"},"vehicle_type_id":"4","last_reported":1744201181,"current_range_meters":8000,"station_id":"st_cvj6ca6bvosntc0bfgr0","pricing_plan_id":"cebpf4jnsgd1na2vs0mg"},{"bike_id":"5d75ff0b-60f8-46c7-acc5-9eaa63bf12a4","system_id":"levelo_inurba_marseille","lat":43.294199,"lon":5.386201,"is_reserved":false,"is_disabled":false,"rental_uris":{"android":"levelo://app?vid=5d75ff0b-60f8-46c7-acc5-9eaa63bf12a4","ios":"levelo://app?vid=5d75ff0b-60f8-46c7-acc5-9eaa63bf12a4"},"vehicle_type_id":"4","last_reported":1744201181,"current_range_meters":8400,"station_id":"ce4bgj92rcd13ifvqbd0","pricing_plan_id":"cebpf4jnsgd1na2vs0mg"},{"bike_id":"68d1cc33-0218-451e-8e10-d32225c21263","system_id":"levelo_inurba_marseille","lat":43.23168,"lon":5.43692,"is_reserved":false,"is_disabled":true,"rental_uris":{"android":"levelo://app?vid=68d1cc33-0218-451e-8e10-d32225c21263","ios":"levelo://app?vid=68d1cc33-0218-451e-8e10-d32225c21263"},"vehicle_type_id":"4","last_reported":1744201181,"current_range_meters":8000,"station_id":"ce4bhmp2rcd13ifvqgog","pricing_plan_id":"cebpf4jnsgd1na2vs0mg"},{"bike_id":"5e6ad826-38da-4531-b4ba-2eda8622ede3","system_id":"levelo_inurba_marseille","lat":43.31101,"lon":5.40461,"is_reserved":false,"is_disabled":false,"rental_uris":{"android":"levelo://app?vid=5e6ad826-38da-4531-b4ba-2eda8622ede3","ios":"levelo://app?vid=5e6ad826-38da-4531-b4ba-2eda8622ede3"},"vehicle_type_id":"4","last_reported":1744201181,"current_range_meters":8000,"station_id":"","pricing_plan_id":"cebpf4jnsgd1na2vs0mg"},{"bike_id":"23babc0c-2473-4b4c-ad96-508f8f2db285","system_id":"levelo_inurba_marseille","lat":43.28433,"lon":5.35003,"is_reserved":false,"is_disabled":false,"rental_uris":{"android":"levelo://app?vid=23babc0c-2473-4b4c-ad96-508f8f2db285","ios":"levelo://app?vid=23babc0c-2473-4b4c-ad96-508f8f2db285"},"vehicle_type_id":"4","last_reported":1744201181,"current_range_meters":8400,"station_id":"ce4bhbh2rcd13ifvqepg","pricing_plan_id":"cebpf4jnsgd1na2vs0mg"},{"bike_id":"2316a27d-e8bc-4c82-90fe-4120ccb0ef4b","system_id":"levelo_inurba_marseille","lat":43.23154,"lon":5.43719,"is_reserved":false,"is_disabled":false,"rental_uris":{"android":"levelo://app?vid=2316a27d-e8bc-4c82-90fe-4120ccb0ef4b","ios":"levelo://app?vid=2316a27d-e8bc-4c82-90fe-4120ccb0ef4b"},"vehicle_type_id":"4","last_reported":1744201181,"current_range_meters":8400,"station_id":"ce4bhmp2rcd13ifvqgog","pricing_plan_id":"cebpf4jnsgd1na2vs0mg"},{"bike_id":"553d441d-d329-473d-a494-c2090b13d5ed","system_id":"levelo_inurba_marseille","lat":43.29936,"lon":5.36542,"is_reserved":false,"is_disabled":false,"rental_uris":{"android":"levelo://app?vid=553d441d-d329-473d-a494-c2090b13d5ed","ios":"levelo://app?vid=553d441d-d329-473d-a494-c2090b13d5ed"},"vehicle_type_id":"4","last_reported":1744201181,"current_range_meters":8400,"station_id":"ce4bgm92rcd13ifvqbr0","pricing_plan_id":"cebpf4jnsgd1na2vs0mg"},{"bike_id":"1ca7d0c4-b7aa-4350-ad9f-4e24c2ba029a","system_id":"levelo_inurba_marseille","lat":43.30368,"lon":5.42504,"is_reserved":false,"is_disabled":false,"rental_uris":{"android":"levelo://app?vid=1ca7d0c4-b7aa-4350-ad9f-4e24c2ba029a","ios":"levelo://app?vid=1ca7d0c4-b7aa-4350-ad9f-4e24c2ba029a"},"vehicle_type_id":"4","last_reported":1744201181,"current_range_meters":8800,"station_id":"ce4bhoh2rcd13ifvqh6g","pricing_plan_id":"cebpf4jnsgd1na2vs0mg"},{"bike_id":"80663e12-6b64-446d-88c9-20255bde1a8a","system_id":"levelo_inurba_marseille","lat":43.30889,"lon":5.39646,"is_reserved":false,"is_disabled":true,"rental_uris":{"android":"levelo://app?vid=80663e12-6b64-446d-88c9-20255bde1a8a","ios":"levelo://app?vid=80663e12-6b64-446d-88c9-20255bde1a8a"},"vehicle_type_id":"4","last_reported":1744201181,"current_range_meters":8800,"station_id":"ce4bh012rcd13ifvqcv0","pricing_plan_id":"cebpf4jnsgd1na2vs0mg"},{"bike_id":"a566336b-6133-47a6-ad7f-74f32862e29a","system_id":"levelo_inurba_marseille","lat":43.303691,"lon":5.425043,"is_reserved":false,"is_disabled":false,"rental_uris":{"android":"levelo://app?vid=a566336b-6133-47a6-ad7f-74f32862e29a","ios":"levelo://app?vid=a566336b-6133-47a6-ad7f-74f32862e29a"},"vehicle_type_id":"4","last_reported":1744201181,"current_range_meters":8800,"station_id":"ce4bhoh2rcd13ifvqh6g","pricing_plan_id":"cebpf4jnsgd1na2vs0mg"},{"bike_id":"93dc05e7-18be-495e-81f8-226ded3af89f","system_id":"levelo_inurba_marseille","lat":43.29712,"lon":5.37714,"is_reserved":false,"is_disabled":false,"rental_uris":{"android":"levelo://app?vid=93dc05e7-18be-495e-81f8-226ded3af89f","ios":"levelo://app?vid=93dc05e7-18be-495e-81f8-226ded3af89f"},"vehicle_type_id":"4","last_reported":1744201181,"current_range_meters":8800,"station_id":"ce4bgkh2rcd13ifvqbl0","pricing_plan_id":"cebpf4jnsgd1na2vs0mg"},{"bike_id":"08f9c0c8-8b33-4578-8a03-20f44d582241","system_id":"levelo_inurba_marseille","lat":43.30613,"lon":5.3716,"is_reserved":false,"is_disabled":false,"rental_uris":{"android":"levelo://app?vid=08f9c0c8-8b33-4578-8a03-20f44d582241","ios":"levelo://app?vid=08f9c0c8-8b33-4578-8a03-20f44d582241"},"vehicle_type_id":"4","last_reported":1744201181,"current_range_meters":8800,"station_id":"","pricing_plan_id":"cebpf4jnsgd1na2vs0mg"},{"bike_id":"feca3d9e-12e9-4a3a-8f8a-211aa953b3fa","system_id":"levelo_inurba_marseille","lat":43.29343,"lon":5.41171,"is_reserved":false,"is_disabled":false,"rental_uris":{"android":"levelo://app?vid=feca3d9e-12e9-4a3a-8f8a-211aa953b3fa","ios":"levelo://app?vid=feca3d9e-12e9-4a3a-8f8a-211aa953b3fa"},"vehicle_type_id":"4","last_reported":1744201181,"current_range_meters":8800,"station_id":"","pricing_plan_id":"cebpf4jnsgd1na2vs0mg"},{"bike_id":"b397701f-0d3d-44bf-ab3e-3ccc7e74fb2e","system_id":"levelo_inurba_marseille","lat":43.26468,"lon":5.42272,"is_reserved":false,"is_disabled":false,"rental_uris":{"android":"levelo://app?vid=b397701f-0d3d-44bf-ab3e-3ccc7e74fb2e","ios":"levelo://app?vid=b397701f-0d3d-44bf-ab3e-3ccc7e74fb2e"},"vehicle_type_id":"4","last_reported":1744201181,"current_range_meters":8800,"station_id":"","pricing_plan_id":"cebpf4jnsgd1na2vs0mg"},{"bike_id":"ff63745d-f7ea-4f5b-ad1b-0edecd630948","system_id":"levelo_inurba_marseille","lat":43.29886,"lon":5.38907,"is_reserved":false,"is_disabled":false,"rental_uris":{"android":"levelo://app?vid=ff63745d-f7ea-4f5b-ad1b-0edecd630948","ios":"levelo://app?vid=ff63745d-f7ea-4f5b-ad1b-0edecd630948"},"vehicle_type_id":"4","last_reported":1744201181,"current_range_meters":8800,"station_id":"ce4bh392rcd13ifvqdl0","pricing_plan_id":"cebpf4jnsgd1na2vs0mg"},{"bike_id":"ad212075-aa88-4f52-8b77-40fff53ff563","system_id":"levelo_inurba_marseille","lat":43.30378,"lon":5.42494,"is_reserved":false,"is_disabled":false,"rental_uris":{"android":"levelo://app?vid=ad212075-aa88-4f52-8b77-40fff53ff563","ios":"levelo://app?vid=ad212075-aa88-4f52-8b77-40fff53ff563"},"vehicle_type_id":"4","last_reported":1744201181,"current_range_meters":8800,"station_id":"ce4bhoh2rcd13ifvqh6g","pricing_plan_id":"cebpf4jnsgd1na2vs0mg"},{"bike_id":"b86eab0d-277a-44aa-b0d6-f413fa90aac6","system_id":"levelo_inurba_marseille","lat":43.28396,"lon":5.37522,"is_reserved":false,"is_disabled":true,"rental_uris":{"android":"levelo://app?vid=b86eab0d-277a-44aa-b0d6-f413fa90aac6","ios":"levelo://app?vid=b86eab0d-277a-44aa-b0d6-f413fa90aac6"},"vehicle_type_id":"4","last_reported":1744201181,"current_range_meters":9200,"station_id":"ce4bh412rcd13ifvqds0","pricing_plan_id":"cebpf4jnsgd1na2vs0mg"},{"bike_id":"456b79bb-81b6-42d9-a52b-1ca6c839f098","system_id":"levelo_inurba_marseille","lat":43.30425,"lon":5.41293,"is_reserved":false,"is_disabled":false,"rental_uris":{"android":"levelo://app?vid=456b79bb-81b6-42d9-a52b-1ca6c839f098","ios":"levelo://app?vid=456b79bb-81b6-42d9-a52b-1ca6c839f098"},"vehicle_type_id":"4","last_reported":1744201181,"current_range_meters":9200,"station_id":"ce4bhop2rcd13ifvqh8g","pricing_plan_id":"cebpf4jnsgd1na2vs0mg"},{"bike_id":"d5f58dc4-b1b3-47ca-92bc-8452490c4ba1","system_id":"levelo_inurba_marseille","lat":43.29939,"lon":5.37474,"is_reserved":false,"is_disabled":false,"rental_uris":{"android":"levelo://app?vid=d5f58dc4-b1b3-47ca-92bc-8452490c4ba1","ios":"levelo://app?vid=d5f58dc4-b1b3-47ca-92bc-8452490c4ba1"},"vehicle_type_id":"4","last_reported":1744201181,"current_range_meters":9600,"station_id":"ce4bgjh2rcd13ifvqbg0","pricing_plan_id":"cebpf4jnsgd1na2vs0mg"},{"bike_id":"3ab8aba7-9e3b-48bd-aa96-5e60f2d4b435","system_id":"levelo_inurba_marseille","lat":43.28947,"lon":5.36649,"is_reserved":false,"is_disabled":false,"rental_uris":{"android":"levelo://app?vid=3ab8aba7-9e3b-48bd-aa96-5e60f2d4b435","ios":"levelo://app?vid=3ab8aba7-9e3b-48bd-aa96-5e60f2d4b435"},"vehicle_type_id":"4","last_reported":1744201181,"current_range_meters":9600,"station_id":"ce4bhap2rcd13ifvqek0","pricing_plan_id":"cebpf4jnsgd1na2vs0mg"},{"bike_id":"408b6bed-2e66-4a5b-94e3-fdfcca991e28","system_id":"levelo_inurba_marseille","lat":43.30804,"lon":5.38164,"is_reserved":false,"is_disabled":false,"rental_uris":{"android":"levelo://app?vid=408b6bed-2e66-4a5b-94e3-fdfcca991e28","ios":"levelo://app?vid=408b6bed-2e66-4a5b-94e3-fdfcca991e28"},"vehicle_type_id":"4","last_reported":1744201181,"current_range_meters":9600,"station_id":"ce4bgt12rcd13ifvqce0","pricing_plan_id":"cebpf4jnsgd1na2vs0mg"},{"bike_id":"aaf56281-3cc4-4cb1-9bdb-0add6b073dd9","system_id":"levelo_inurba_marseille","lat":43.30953,"lon":5.39037,"is_reserved":false,"is_disabled":false,"rental_uris":{"android":"levelo://app?vid=aaf56281-3cc4-4cb1-9bdb-0add6b073dd9","ios":"levelo://app?vid=aaf56281-3cc4-4cb1-9bdb-0add6b073dd9"},"vehicle_type_id":"4","last_reported":1744201181,"current_range_meters":10000,"station_id":"ce4bgup2rcd13ifvqco0","pricing_plan_id":"cebpf4jnsgd1na2vs0mg"},{"bike_id":"1180a7b1-52e4-45a6-a35d-3a6133d07906","system_id":"levelo_inurba_marseille","lat":43.30157,"lon":5.37442,"is_reserved":false,"is_disabled":false,"rental_uris":{"android":"levelo://app?vid=1180a7b1-52e4-45a6-a35d-3a6133d07906","ios":"levelo://app?vid=1180a7b1-52e4-45a6-a35d-3a6133d07906"},"vehicle_type_id":"4","last_reported":1744201181,"current_range_meters":10000,"station_id":"ce4bgs92rcd13ifvqcc0","pricing_plan_id":"cebpf4jnsgd1na2vs0mg"},{"bike_id":"894923f7-24a8-4f05-8d0c-1af4b4d3211a","system_id":"levelo_inurba_marseille","lat":43.30299,"lon":5.39231,"is_reserved":false,"is_disabled":true,"rental_uris":{"android":"levelo://app?vid=894923f7-24a8-4f05-8d0c-1af4b4d3211a","ios":"levelo://app?vid=894923f7-24a8-4f05-8d0c-1af4b4d3211a"},"vehicle_type_id":"4","last_reported":1744201181,"current_range_meters":10000,"station_id":"ce4bgkh2rcd13ifvqbk0","pricing_plan_id":"cebpf4jnsgd1na2vs0mg"},{"bike_id":"ce0fd5b8-478f-4f08-869c-935a7a4c659f","system_id":"levelo_inurba_marseille","lat":43.33292,"lon":5.37969,"is_reserved":false,"is_disabled":false,"rental_uris":{"android":"levelo://app?vid=ce0fd5b8-478f-4f08-869c-935a7a4c659f","ios":"levelo://app?vid=ce0fd5b8-478f-4f08-869c-935a7a4c659f"},"vehicle_type_id":"4","last_reported":1744201181,"current_range_meters":10000,"station_id":"","pricing_plan_id":"cebpf4jnsgd1na2vs0mg"},{"bike_id":"e24c6fd3-f9cb-40c7-9e57-dd2c20540e9b","system_id":"levelo_inurba_marseille","lat":43.31727,"lon":5.42413,"is_reserved":false,"is_disabled":false,"rental_uris":{"android":"levelo://app?vid=e24c6fd3-f9cb-40c7-9e57-dd2c20540e9b","ios":"levelo://app?vid=e24c6fd3-f9cb-40c7-9e57-dd2c20540e9b"},"vehicle_type_id":"4","last_reported":1744201181,"current_range_meters":10000,"station_id":"ce4bhp92rcd13ifvqhbg","pricing_plan_id":"cebpf4jnsgd1na2vs0mg"},{"bike_id":"38c43302-d0f3-42c8-89fb-a9374ff631e5","system_id":"levelo_inurba_marseille","lat":43.30537,"lon":5.36529,"is_reserved":false,"is_disabled":false,"rental_uris":{"android":"levelo://app?vid=38c43302-d0f3-42c8-89fb-a9374ff631e5","ios":"levelo://app?vid=38c43302-d0f3-42c8-89fb-a9374ff631e5"},"vehicle_type_id":"4","last_reported":1744201181,"current_range_meters":10000,"station_id":"ce4bgs12rcd13ifvqcag","pricing_plan_id":"cebpf4jnsgd1na2vs0mg"},{"bike_id":"58e8190f-cded-4bd0-8488-a02552cd7e3b","system_id":"levelo_inurba_marseille","lat":43.30529,"lon":5.36505,"is_reserved":false,"is_disabled":false,"rental_uris":{"android":"levelo://app?vid=58e8190f-cded-4bd0-8488-a02552cd7e3b","ios":"levelo://app?vid=58e8190f-cded-4bd0-8488-a02552cd7e3b"},"vehicle_type_id":"4","last_reported":1744201181,"current_range_meters":10000,"station_id":"","pricing_plan_id":"cebpf4jnsgd1na2vs0mg"},{"bike_id":"91d22cb1-8918-4a12-bb64-3171565c0263","system_id":"levelo_inurba_marseille","lat":43.28428,"lon":5.34978,"is_reserved":false,"is_disabled":false,"rental_uris":{"android":"levelo://app?vid=91d22cb1-8918-4a12-bb64-3171565c0263","ios":"levelo://app?vid=91d22cb1-8918-4a12-bb64-3171565c0263"},"vehicle_type_id":"4","last_reported":1744201181,"current_range_meters":10800,"station_id":"ce4bhbh2rcd13ifvqepg","pricing_plan_id":"cebpf4jnsgd1na2vs0mg"},{"bike_id":"b47960c6-0205-4b83-a76d-013331f6c916","system_id":"levelo_inurba_marseille","lat":43.244,"lon":5.37061,"is_reserved":false,"is_disabled":false,"rental_uris":{"android":"levelo://app?vid=b47960c6-0205-4b83-a76d-013331f6c916","ios":"levelo://app?vid=b47960c6-0205-4b83-a76d-013331f6c916"},"vehicle_type_id":"4","last_reported":1744201181,"current_range_meters":10800,"station_id":"ce4bhhh2rcd13ifvqfk0","pricing_plan_id":"cebpf4jnsgd1na2vs0mg"},{"bike_id":"69f26b49-6767-48b1-9410-a11ca17c94ff","system_id":"levelo_inurba_marseille","lat":43.29556,"lon":5.39972,"is_reserved":false,"is_disabled":false,"rental_uris":{"android":"levelo://app?vid=69f26b49-6767-48b1-9410-a11ca17c94ff","ios":"levelo://app?vid=69f26b49-6767-48b1-9410-a11ca17c94ff"},"vehicle_type_id":"4","last_reported":1744201181,"current_range_meters":10800,"station_id":"ce4bh312rcd13ifvqdj0","pricing_plan_id":"cebpf4jnsgd1na2vs0mg"},{"bike_id":"ad67f3f6-be67-45db-a355-01431daeebce","system_id":"levelo_inurba_marseille","lat":43.27209,"lon":5.39187,"is_reserved":false,"is_disabled":false,"rental_uris":{"android":"levelo://app?vid=ad67f3f6-be67-45db-a355-01431daeebce","ios":"levelo://app?vid=ad67f3f6-be67-45db-a355-01431daeebce"},"vehicle_type_id":"4","last_reported":1744201181,"current_range_meters":10800,"station_id":"ce4bhhp2rcd13ifvqfm0","pricing_plan_id":"cebpf4jnsgd1na2vs0mg"},{"bike_id":"dad855de-93e4-4284-9b13-db07d91df72a","system_id":"levelo_inurba_marseille","lat":43.21748,"lon":5.34611,"is_reserved":false,"is_disabled":false,"rental_uris":{"android":"levelo://app?vid=dad855de-93e4-4284-9b13-db07d91df72a","ios":"levelo://app?vid=dad855de-93e4-4284-9b13-db07d91df72a"},"vehicle_type_id":"4","last_reported":1744201181,"current_range_meters":10800,"station_id":"st_cvj6r9ubvosntc0bgbag","pricing_plan_id":"cebpf4jnsgd1na2vs0mg"},{"bike_id":"1efa05a8-ab6e-4e0e-95b0-e09b9b5a94d5","system_id":"levelo_inurba_marseille","lat":43.29203,"lon":5.35808,"is_reserved":false,"is_disabled":false,"rental_uris":{"android":"levelo://app?vid=1efa05a8-ab6e-4e0e-95b0-e09b9b5a94d5","ios":"levelo://app?vid=1efa05a8-ab6e-4e0e-95b0-e09b9b5a94d5"},"vehicle_type_id":"4","last_reported":1744201181,"current_range_meters":10800,"station_id":"ce4bhb12rcd13ifvqel0","pricing_plan_id":"cebpf4jnsgd1na2vs0mg"},{"bike_id":"d9d3a0c5-0356-4d81-9fc4-6e1474d97616","system_id":"levelo_inurba_marseille","lat":43.29631,"lon":5.37738,"is_reserved":false,"is_disabled":false,"rental_uris":{"android":"levelo://app?vid=d9d3a0c5-0356-4d81-9fc4-6e1474d97616","ios":"levelo://app?vid=d9d3a0c5-0356-4d81-9fc4-6e1474d97616"},"vehicle_type_id":"4","last_reported":1744201181,"current_range_meters":11200,"station_id":"ce4bgi92rcd13ifvqb90","pricing_plan_id":"cebpf4jnsgd1na2vs0mg"},{"bike_id":"964b5e36-f795-4e35-9048-c66f2209c800","system_id":"levelo_inurba_marseille","lat":43.29267,"lon":5.40908,"is_reserved":false,"is_disabled":false,"rental_uris":{"android":"levelo://app?vid=964b5e36-f795-4e35-9048-c66f2209c800","ios":"levelo://app?vid=964b5e36-f795-4e35-9048-c66f2209c800"},"vehicle_type_id":"4","last_reported":1744201181,"current_range_meters":11200,"station_id":"ce4bh192rcd13ifvqdc0","pricing_plan_id":"cebpf4jnsgd1na2vs0mg"},{"bike_id":"4bcdfea3-7608-4236-abd7-e1678faedfdb","system_id":"levelo_inurba_marseille","lat":43.273214,"lon":5.390798,"is_reserved":false,"is_disabled":false,"rental_uris":{"android":"levelo://app?vid=4bcdfea3-7608-4236-abd7-e1678faedfdb","ios":"levelo://app?vid=4bcdfea3-7608-4236-abd7-e1678faedfdb"},"vehicle_type_id":"4","last_reported":1744201181,"current_range_meters":14400,"station_id":"ce4bhjp2rcd13ifvqg90","pricing_plan_id":"cebpf4jnsgd1na2vs0mg"},{"bike_id":"c89bae1f-da09-46a3-94b1-e12c843e1455","system_id":"levelo_inurba_marseille","lat":43.28668,"lon":5.36356,"is_reserved":false,"is_disabled":false,"rental_uris":{"android":"levelo://app?vid=c89bae1f-da09-46a3-94b1-e12c843e1455","ios":"levelo://app?vid=c89bae1f-da09-46a3-94b1-e12c843e1455"},"vehicle_type_id":"4","last_reported":1744201181,"current_range_meters":11600,"station_id":"ce4bhah2rcd13ifvqej0","pricing_plan_id":"cebpf4jnsgd1na2vs0mg"},{"bike_id":"ef89cc75-716c-4250-bbb9-af36a78bc5ce","system_id":"levelo_inurba_marseille","lat":43.23182,"lon":5.39988,"is_reserved":false,"is_disabled":false,"rental_uris":{"android":"levelo://app?vid=ef89cc75-716c-4250-bbb9-af36a78bc5ce","ios":"levelo://app?vid=ef89cc75-716c-4250-bbb9-af36a78bc5ce"},"vehicle_type_id":"4","last_reported":1744201181,"current_range_meters":11600,"station_id":"ce4bhn12rcd13ifvqgqg","pricing_plan_id":"cebpf4jnsgd1na2vs0mg"},{"bike_id":"fc7d8702-4ac7-4356-9fee-5e937c3bafec","system_id":"levelo_inurba_marseille","lat":43.25503,"lon":5.37652,"is_reserved":false,"is_disabled":false,"rental_uris":{"android":"levelo://app?vid=fc7d8702-4ac7-4356-9fee-5e937c3bafec","ios":"levelo://app?vid=fc7d8702-4ac7-4356-9fee-5e937c3bafec"},"vehicle_type_id":"4","last_reported":1744201181,"current_range_meters":11600,"station_id":"ce4bhh12rcd13ifvqff0","pricing_plan_id":"cebpf4jnsgd1na2vs0mg"},{"bike_id":"9434e72e-41f4-488b-95a4-16208cce040f","system_id":"levelo_inurba_marseille","lat":43.28948,"lon":5.36633,"is_reserved":false,"is_disabled":true,"rental_uris":{"android":"levelo://app?vid=9434e72e-41f4-488b-95a4-16208cce040f","ios":"levelo://app?vid=9434e72e-41f4-488b-95a4-16208cce040f"},"vehicle_type_id":"4","last_reported":1744201181,"current_range_meters":12000,"station_id":"ce4bhap2rcd13ifvqek0","pricing_plan_id":"cebpf4jnsgd1na2vs0mg"},{"bike_id":"e82d3cbf-6990-4eca-9743-6a7db542c284","system_id":"levelo_inurba_marseille","lat":43.32336,"lon":5.40628,"is_reserved":false,"is_disabled":false,"rental_uris":{"android":"levelo://app?vid=e82d3cbf-6990-4eca-9743-6a7db542c284","ios":"levelo://app?vid=e82d3cbf-6990-4eca-9743-6a7db542c284"},"vehicle_type_id":"4","last_reported":1744201181,"current_range_meters":12000,"station_id":"ce4bhq92rcd13ifvqhjg","pricing_plan_id":"cebpf4jnsgd1na2vs0mg"},{"bike_id":"4175db0d-e987-4c89-a5ef-6b455ac07d4e","system_id":"levelo_inurba_marseille","lat":43.25006,"lon":5.38931,"is_reserved":false,"is_disabled":false,"rental_uris":{"android":"levelo://app?vid=4175db0d-e987-4c89-a5ef-6b455ac07d4e","ios":"levelo://app?vid=4175db0d-e987-4c89-a5ef-6b455ac07d4e"},"vehicle_type_id":"4","last_reported":1744201181,"current_range_meters":12000,"station_id":"ce4bhgp2rcd13ifvqfd0","pricing_plan_id":"cebpf4jnsgd1na2vs0mg"},{"bike_id":"5f30a5a4-de9f-499e-b151-b811ebb3b43a","system_id":"levelo_inurba_marseille","lat":43.31064,"lon":5.38345,"is_reserved":false,"is_disabled":true,"rental_uris":{"android":"levelo://app?vid=5f30a5a4-de9f-499e-b151-b811ebb3b43a","ios":"levelo://app?vid=5f30a5a4-de9f-499e-b151-b811ebb3b43a"},"vehicle_type_id":"4","last_reported":1744201181,"current_range_meters":12400,"station_id":"ce4bgv92rcd13ifvqcr0","pricing_plan_id":"cebpf4jnsgd1na2vs0mg"},{"bike_id":"d94e072a-937f-4ec8-90bd-536f97b73063","system_id":"levelo_inurba_marseille","lat":43.28345,"lon":5.38109,"is_reserved":false,"is_disabled":false,"rental_uris":{"android":"levelo://app?vid=d94e072a-937f-4ec8-90bd-536f97b73063","ios":"levelo://app?vid=d94e072a-937f-4ec8-90bd-536f97b73063"},"vehicle_type_id":"4","last_reported":1744201181,"current_range_meters":16000,"station_id":"ce4bh412rcd13ifvqdr0","pricing_plan_id":"cebpf4jnsgd1na2vs0mg"},{"bike_id":"739a9bd0-b90f-42ad-bc9f-adc460f320e8","system_id":"levelo_inurba_marseille","lat":43.3236,"lon":5.367663,"is_reserved":false,"is_disabled":false,"rental_uris":{"android":"levelo://app?vid=739a9bd0-b90f-42ad-bc9f-adc460f320e8","ios":"levelo://app?vid=739a9bd0-b90f-42ad-bc9f-adc460f320e8"},"vehicle_type_id":"4","last_reported":1744201181,"current_range_meters":12400,"station_id":"ce4bhsh2rcd13ifvqi2g","pricing_plan_id":"cebpf4jnsgd1na2vs0mg"},{"bike_id":"f5df75f6-92f5-43eb-98b4-9f391ea06028","system_id":"levelo_inurba_marseille","lat":43.29193,"lon":5.3581,"is_reserved":false,"is_disabled":false,"rental_uris":{"android":"levelo://app?vid=f5df75f6-92f5-43eb-98b4-9f391ea06028","ios":"levelo://app?vid=f5df75f6-92f5-43eb-98b4-9f391ea06028"},"vehicle_type_id":"4","last_reported":1744201181,"current_range_meters":12800,"station_id":"ce4bhb12rcd13ifvqel0","pricing_plan_id":"cebpf4jnsgd1na2vs0mg"},{"bike_id":"fa7032a6-af17-4b49-b301-3ae08c5baa65","system_id":"levelo_inurba_marseille","lat":43.229378,"lon":5.353763,"is_reserved":false,"is_disabled":false,"rental_uris":{"android":"levelo://app?vid=fa7032a6-af17-4b49-b301-3ae08c5baa65","ios":"levelo://app?vid=fa7032a6-af17-4b49-b301-3ae08c5baa65"},"vehicle_type_id":"4","last_reported":1744201181,"current_range_meters":12800,"station_id":"cpo3532slgdg3j2ikp40","pricing_plan_id":"cebpf4jnsgd1na2vs0mg"},{"bike_id":"70f136c8-3047-42ef-89fc-ec6349e68bb3","system_id":"levelo_inurba_marseille","lat":43.31378,"lon":5.36708,"is_reserved":false,"is_disabled":false,"rental_uris":{"android":"levelo://app?vid=70f136c8-3047-42ef-89fc-ec6349e68bb3","ios":"levelo://app?vid=70f136c8-3047-42ef-89fc-ec6349e68bb3"},"vehicle_type_id":"4","last_reported":1744201181,"current_range_meters":12800,"station_id":"ce4bgr92rcd13ifvqc6g","pricing_plan_id":"cebpf4jnsgd1na2vs0mg"},{"bike_id":"21ad85cb-fd01-4f4b-a5e7-06320eee0f8b","system_id":"levelo_inurba_marseille","lat":43.24653,"lon":5.38889,"is_reserved":false,"is_disabled":false,"rental_uris":{"android":"levelo://app?vid=21ad85cb-fd01-4f4b-a5e7-06320eee0f8b","ios":"levelo://app?vid=21ad85cb-fd01-4f4b-a5e7-06320eee0f8b"},"vehicle_type_id":"4","last_reported":1744201181,"current_range_meters":12800,"station_id":"ce4bhg12rcd13ifvqf60","pricing_plan_id":"cebpf4jnsgd1na2vs0mg"},{"bike_id":"8aca47b8-dcba-4e10-a490-7acd73bde0df","system_id":"levelo_inurba_marseille","lat":43.30549,"lon":5.3653,"is_reserved":false,"is_disabled":false,"rental_uris":{"android":"levelo://app?vid=8aca47b8-dcba-4e10-a490-7acd73bde0df","ios":"levelo://app?vid=8aca47b8-dcba-4e10-a490-7acd73bde0df"},"vehicle_type_id":"4","last_reported":1744201181,"current_range_meters":13600,"station_id":"ce4bgs12rcd13ifvqcag","pricing_plan_id":"cebpf4jnsgd1na2vs0mg"},{"bike_id":"49e647c7-1c54-438f-a925-a97068df4551","system_id":"levelo_inurba_marseille","lat":43.23194,"lon":5.39986,"is_reserved":false,"is_disabled":false,"rental_uris":{"android":"levelo://app?vid=49e647c7-1c54-438f-a925-a97068df4551","ios":"levelo://app?vid=49e647c7-1c54-438f-a925-a97068df4551"},"vehicle_type_id":"4","last_reported":1744201181,"current_range_meters":13600,"station_id":"ce4bhn12rcd13ifvqgqg","pricing_plan_id":"cebpf4jnsgd1na2vs0mg"},{"bike_id":"df9bd667-b38a-4b68-adec-fd6077bbc5b9","system_id":"levelo_inurba_marseille","lat":43.2175,"lon":5.34608,"is_reserved":false,"is_disabled":false,"rental_uris":{"android":"levelo://app?vid=df9bd667-b38a-4b68-adec-fd6077bbc5b9","ios":"levelo://app?vid=df9bd667-b38a-4b68-adec-fd6077bbc5b9"},"vehicle_type_id":"4","last_reported":1744201181,"current_range_meters":13600,"station_id":"st_cvj6r9ubvosntc0bgbag","pricing_plan_id":"cebpf4jnsgd1na2vs0mg"},{"bike_id":"b37944fb-f9c1-4c8e-ac3a-9da227afb433","system_id":"levelo_inurba_marseille","lat":43.30821,"lon":5.38151,"is_reserved":false,"is_disabled":true,"rental_uris":{"android":"levelo://app?vid=b37944fb-f9c1-4c8e-ac3a-9da227afb433","ios":"levelo://app?vid=b37944fb-f9c1-4c8e-ac3a-9da227afb433"},"vehicle_type_id":"4","last_reported":1744201181,"current_range_meters":13600,"station_id":"ce4bgt12rcd13ifvqce0","pricing_plan_id":"cebpf4jnsgd1na2vs0mg"},{"bike_id":"61ad2f19-d511-44f0-944e-9576e28f5f14","system_id":"levelo_inurba_marseille","lat":43.3061,"lon":5.39365,"is_reserved":false,"is_disabled":true,"rental_uris":{"android":"levelo://app?vid=61ad2f19-d511-44f0-944e-9576e28f5f14","ios":"levelo://app?vid=61ad2f19-d511-44f0-944e-9576e28f5f14"},"vehicle_type_id":"4","last_reported":1744201181,"current_range_meters":14000,"station_id":"ce4bh0p2rcd13ifvqd80","pricing_plan_id":"cebpf4jnsgd1na2vs0mg"},{"bike_id":"629445e4-03e5-4be8-82d1-0b8144aada2f","system_id":"levelo_inurba_marseille","lat":43.29684,"lon":5.37297,"is_reserved":false,"is_disabled":false,"rental_uris":{"android":"levelo://app?vid=629445e4-03e5-4be8-82d1-0b8144aada2f","ios":"levelo://app?vid=629445e4-03e5-4be8-82d1-0b8144aada2f"},"vehicle_type_id":"4","last_reported":1744201181,"current_range_meters":14000,"station_id":"ce4bgk12rcd13ifvqbj0","pricing_plan_id":"cebpf4jnsgd1na2vs0mg"},{"bike_id":"91c85598-0c0b-42bf-9388-e5e9b7c7702f","system_id":"levelo_inurba_marseille","lat":43.31366,"lon":5.36686,"is_reserved":false,"is_disabled":false,"rental_uris":{"android":"levelo://app?vid=91c85598-0c0b-42bf-9388-e5e9b7c7702f","ios":"levelo://app?vid=91c85598-0c0b-42bf-9388-e5e9b7c7702f"},"vehicle_type_id":"4","last_reported":1744201181,"current_range_meters":14000,"station_id":"ce4bgr92rcd13ifvqc6g","pricing_plan_id":"cebpf4jnsgd1na2vs0mg"},{"bike_id":"c49d26c4-541a-41d7-a0cb-ac68f37a7a96","system_id":"levelo_inurba_marseille","lat":43.30319,"lon":5.36903,"is_reserved":false,"is_disabled":false,"rental_uris":{"android":"levelo://app?vid=c49d26c4-541a-41d7-a0cb-ac68f37a7a96","ios":"levelo://app?vid=c49d26c4-541a-41d7-a0cb-ac68f37a7a96"},"vehicle_type_id":"4","last_reported":1744201181,"current_range_meters":14000,"station_id":"ce4bgqh2rcd13ifvqc5g","pricing_plan_id":"cebpf4jnsgd1na2vs0mg"},{"bike_id":"0b8f68c6-e7d2-4cdc-9307-05b2cdd9d9a7","system_id":"levelo_inurba_marseille","lat":43.2835,"lon":5.38111,"is_reserved":false,"is_disabled":false,"rental_uris":{"android":"levelo://app?vid=0b8f68c6-e7d2-4cdc-9307-05b2cdd9d9a7","ios":"levelo://app?vid=0b8f68c6-e7d2-4cdc-9307-05b2cdd9d9a7"},"vehicle_type_id":"4","last_reported":1744201181,"current_range_meters":14000,"station_id":"ce4bh412rcd13ifvqdr0","pricing_plan_id":"cebpf4jnsgd1na2vs0mg"},{"bike_id":"f147c6df-27ae-4e7a-90c0-6893ba89129c","system_id":"levelo_inurba_marseille","lat":43.30557,"lon":5.3653,"is_reserved":false,"is_disabled":false,"rental_uris":{"android":"levelo://app?vid=f147c6df-27ae-4e7a-90c0-6893ba89129c","ios":"levelo://app?vid=f147c6df-27ae-4e7a-90c0-6893ba89129c"},"vehicle_type_id":"4","last_reported":1744201181,"current_range_meters":14000,"station_id":"ce4bgs12rcd13ifvqcag","pricing_plan_id":"cebpf4jnsgd1na2vs0mg"},{"bike_id":"013c7073-5d74-4b0a-86b2-fa20ab000bcb","system_id":"levelo_inurba_marseille","lat":43.25504,"lon":5.37657,"is_reserved":false,"is_disabled":false,"rental_uris":{"android":"levelo://app?vid=013c7073-5d74-4b0a-86b2-fa20ab000bcb","ios":"levelo://app?vid=013c7073-5d74-4b0a-86b2-fa20ab000bcb"},"vehicle_type_id":"4","last_reported":1744201181,"current_range_meters":14000,"station_id":"ce4bhh12rcd13ifvqff0","pricing_plan_id":"cebpf4jnsgd1na2vs0mg"},{"bike_id":"e34a0a66-1b19-4be1-9394-24c3214f59b8","system_id":"levelo_inurba_marseille","lat":43.28271,"lon":5.35065,"is_reserved":false,"is_disabled":false,"rental_uris":{"android":"levelo://app?vid=e34a0a66-1b19-4be1-9394-24c3214f59b8","ios":"levelo://app?vid=e34a0a66-1b19-4be1-9394-24c3214f59b8"},"vehicle_type_id":"4","last_reported":1744201181,"current_range_meters":9600,"station_id":"ce4bhbp2rcd13ifvqerg","pricing_plan_id":"cebpf4jnsgd1na2vs0mg"},{"bike_id":"53fb0077-3a65-43ca-a501-d7c36dc0627d","system_id":"levelo_inurba_marseille","lat":43.31762,"lon":5.38832,"is_reserved":false,"is_disabled":false,"rental_uris":{"android":"levelo://app?vid=53fb0077-3a65-43ca-a501-d7c36dc0627d","ios":"levelo://app?vid=53fb0077-3a65-43ca-a501-d7c36dc0627d"},"vehicle_type_id":"4","last_reported":1744201181,"current_range_meters":14400,"station_id":"","pricing_plan_id":"cebpf4jnsgd1na2vs0mg"},{"bike_id":"9fce7fb9-26b6-4832-9f96-ea1b75c489f0","system_id":"levelo_inurba_marseille","lat":43.21203,"lon":5.35075,"is_reserved":false,"is_disabled":false,"rental_uris":{"android":"levelo://app?vid=9fce7fb9-26b6-4832-9f96-ea1b75c489f0","ios":"levelo://app?vid=9fce7fb9-26b6-4832-9f96-ea1b75c489f0"},"vehicle_type_id":"4","last_reported":1744201181,"current_range_meters":14400,"station_id":"st_cvj6sg6p6f1abm77japg","pricing_plan_id":"cebpf4jnsgd1na2vs0mg"},{"bike_id":"d44ff2b9-417e-4368-bebb-1fc974db3122","system_id":"levelo_inurba_marseille","lat":43.33646,"lon":5.39743,"is_reserved":false,"is_disabled":true,"rental_uris":{"android":"levelo://app?vid=d44ff2b9-417e-4368-bebb-1fc974db3122","ios":"levelo://app?vid=d44ff2b9-417e-4368-bebb-1fc974db3122"},"vehicle_type_id":"4","last_reported":1744201181,"current_range_meters":14400,"station_id":"","pricing_plan_id":"cebpf4jnsgd1na2vs0mg"},{"bike_id":"8854a7e0-75ab-4cbe-b3ed-671619ffe228","system_id":"levelo_inurba_marseille","lat":43.22503,"lon":5.34797,"is_reserved":false,"is_disabled":true,"rental_uris":{"android":"levelo://app?vid=8854a7e0-75ab-4cbe-b3ed-671619ffe228","ios":"levelo://app?vid=8854a7e0-75ab-4cbe-b3ed-671619ffe228"},"vehicle_type_id":"4","last_reported":1744201181,"current_range_meters":14400,"station_id":"st_cvj5dfep6f1abm77gieg","pricing_plan_id":"cebpf4jnsgd1na2vs0mg"},{"bike_id":"e6365c30-4493-477b-9c15-7e5042c16098","system_id":"levelo_inurba_marseille","lat":43.30945,"lon":5.40165,"is_reserved":false,"is_disabled":false,"rental_uris":{"android":"levelo://app?vid=e6365c30-4493-477b-9c15-7e5042c16098","ios":"levelo://app?vid=e6365c30-4493-477b-9c15-7e5042c16098"},"vehicle_type_id":"4","last_reported":1744201181,"current_range_meters":14800,"station_id":"ce4bgvp2rcd13ifvqct0","pricing_plan_id":"cebpf4jnsgd1na2vs0mg"},{"bike_id":"b4b93a64-d083-4ab2-bbd0-53609c602fb5","system_id":"levelo_inurba_marseille","lat":43.30918,"lon":5.40164,"is_reserved":false,"is_disabled":true,"rental_uris":{"android":"levelo://app?vid=b4b93a64-d083-4ab2-bbd0-53609c602fb5","ios":"levelo://app?vid=b4b93a64-d083-4ab2-bbd0-53609c602fb5"},"vehicle_type_id":"4","last_reported":1744201181,"current_range_meters":14800,"station_id":"ce4bgvp2rcd13ifvqct0","pricing_plan_id":"cebpf4jnsgd1na2vs0mg"},{"bike_id":"1d258ce2-2d7f-4514-9cf5-9b9790ac6e60","system_id":"levelo_inurba_marseille","lat":43.28619,"lon":5.35101,"is_reserved":false,"is_disabled":false,"rental_uris":{"android":"levelo://app?vid=1d258ce2-2d7f-4514-9cf5-9b9790ac6e60","ios":"levelo://app?vid=1d258ce2-2d7f-4514-9cf5-9b9790ac6e60"},"vehicle_type_id":"4","last_reported":1744201181,"current_range_meters":14800,"station_id":"ce4bhch2rcd13ifvqeug","pricing_plan_id":"cebpf4jnsgd1na2vs0mg"},{"bike_id":"ff2897d8-3b8e-4647-8dda-0fdffb1046cf","system_id":"levelo_inurba_marseille","lat":43.30642,"lon":5.40102,"is_reserved":false,"is_disabled":false,"rental_uris":{"android":"levelo://app?vid=ff2897d8-3b8e-4647-8dda-0fdffb1046cf","ios":"levelo://app?vid=ff2897d8-3b8e-4647-8dda-0fdffb1046cf"},"vehicle_type_id":"4","last_reported":1744201181,"current_range_meters":14800,"station_id":"ce4bh112rcd13ifvqda0","pricing_plan_id":"cebpf4jnsgd1na2vs0mg"},{"bike_id":"2ea94d8d-1b22-4a9a-b3ed-44a4b5fee104","system_id":"levelo_inurba_marseille","lat":43.2782,"lon":5.40725,"is_reserved":false,"is_disabled":false,"rental_uris":{"android":"levelo://app?vid=2ea94d8d-1b22-4a9a-b3ed-44a4b5fee104","ios":"levelo://app?vid=2ea94d8d-1b22-4a9a-b3ed-44a4b5fee104"},"vehicle_type_id":"4","last_reported":1744201181,"current_range_meters":15200,"station_id":"ce4bhnh2rcd13ifvqgtg","pricing_plan_id":"cebpf4jnsgd1na2vs0mg"},{"bike_id":"4f63159f-52b3-42c3-a649-a38f7b2fe23b","system_id":"levelo_inurba_marseille","lat":43.29191,"lon":5.35804,"is_reserved":false,"is_disabled":false,"rental_uris":{"android":"levelo://app?vid=4f63159f-52b3-42c3-a649-a38f7b2fe23b","ios":"levelo://app?vid=4f63159f-52b3-42c3-a649-a38f7b2fe23b"},"vehicle_type_id":"4","last_reported":1744201181,"current_range_meters":15200,"station_id":"ce4bhb12rcd13ifvqel0","pricing_plan_id":"cebpf4jnsgd1na2vs0mg"},{"bike_id":"7bd3f7de-3a74-4fff-b4c6-181d8b119e52","system_id":"levelo_inurba_marseille","lat":43.29817,"lon":5.40408,"is_reserved":false,"is_disabled":true,"rental_uris":{"android":"levelo://app?vid=7bd3f7de-3a74-4fff-b4c6-181d8b119e52","ios":"levelo://app?vid=7bd3f7de-3a74-4fff-b4c6-181d8b119e52"},"vehicle_type_id":"4","last_reported":1744201181,"current_range_meters":15200,"station_id":"","pricing_plan_id":"cebpf4jnsgd1na2vs0mg"},{"bike_id":"d2a9b194-900c-4955-a797-9693279a6cc2","system_id":"levelo_inurba_marseille","lat":43.24389,"lon":5.3704,"is_reserved":false,"is_disabled":false,"rental_uris":{"android":"levelo://app?vid=d2a9b194-900c-4955-a797-9693279a6cc2","ios":"levelo://app?vid=d2a9b194-900c-4955-a797-9693279a6cc2"},"vehicle_type_id":"4","last_reported":1744201181,"current_range_meters":15200,"station_id":"ce4bhhh2rcd13ifvqfk0","pricing_plan_id":"cebpf4jnsgd1na2vs0mg"},{"bike_id":"fd657266-66d1-4871-84fa-fd73eddd163d","system_id":"levelo_inurba_marseille","lat":43.29262,"lon":5.40904,"is_reserved":false,"is_disabled":false,"rental_uris":{"android":"levelo://app?vid=fd657266-66d1-4871-84fa-fd73eddd163d","ios":"levelo://app?vid=fd657266-66d1-4871-84fa-fd73eddd163d"},"vehicle_type_id":"4","last_reported":1744201181,"current_range_meters":14800,"station_id":"ce4bh192rcd13ifvqdc0","pricing_plan_id":"cebpf4jnsgd1na2vs0mg"},{"bike_id":"4d874243-c515-4502-8396-14b2285ecfe3","system_id":"levelo_inurba_marseille","lat":43.265567,"lon":5.390139,"is_reserved":false,"is_disabled":false,"rental_uris":{"android":"levelo://app?vid=4d874243-c515-4502-8396-14b2285ecfe3","ios":"levelo://app?vid=4d874243-c515-4502-8396-14b2285ecfe3"},"vehicle_type_id":"4","last_reported":1744201181,"current_range_meters":16000,"station_id":"ce4bhe12rcd13ifvqf30","pricing_plan_id":"cebpf4jnsgd1na2vs0mg"},{"bike_id":"82ca6ac7-f246-464b-9c90-1cb03563896c","system_id":"levelo_inurba_marseille","lat":43.26957,"lon":5.38642,"is_reserved":false,"is_disabled":false,"rental_uris":{"android":"levelo://app?vid=82ca6ac7-f246-464b-9c90-1cb03563896c","ios":"levelo://app?vid=82ca6ac7-f246-464b-9c90-1cb03563896c"},"vehicle_type_id":"4","last_reported":1744201181,"current_range_meters":16000,"station_id":"ce4bhh92rcd13ifvqfh0","pricing_plan_id":"cebpf4jnsgd1na2vs0mg"},{"bike_id":"2ca7cd1c-f960-4583-b254-93b856b39b74","system_id":"levelo_inurba_marseille","lat":43.29632,"lon":5.37727,"is_reserved":false,"is_disabled":false,"rental_uris":{"android":"levelo://app?vid=2ca7cd1c-f960-4583-b254-93b856b39b74","ios":"levelo://app?vid=2ca7cd1c-f960-4583-b254-93b856b39b74"},"vehicle_type_id":"4","last_reported":1744201181,"current_range_meters":16000,"station_id":"ce4bgi92rcd13ifvqb90","pricing_plan_id":"cebpf4jnsgd1na2vs0mg"},{"bike_id":"71a3919b-8525-4f47-a6df-5e0d6eec871b","system_id":"levelo_inurba_marseille","lat":43.32353,"lon":5.406385,"is_reserved":false,"is_disabled":false,"rental_uris":{"android":"levelo://app?vid=71a3919b-8525-4f47-a6df-5e0d6eec871b","ios":"levelo://app?vid=71a3919b-8525-4f47-a6df-5e0d6eec871b"},"vehicle_type_id":"4","last_reported":1744201181,"current_range_meters":16000,"station_id":"ce4bhq92rcd13ifvqhjg","pricing_plan_id":"cebpf4jnsgd1na2vs0mg"},{"bike_id":"cc23f386-e027-4abe-bbdd-5e252c76d169","system_id":"levelo_inurba_marseille","lat":43.23156,"lon":5.437267,"is_reserved":false,"is_disabled":false,"rental_uris":{"android":"levelo://app?vid=cc23f386-e027-4abe-bbdd-5e252c76d169","ios":"levelo://app?vid=cc23f386-e027-4abe-bbdd-5e252c76d169"},"vehicle_type_id":"4","last_reported":1744201181,"current_range_meters":16000,"station_id":"ce4bhmp2rcd13ifvqgog","pricing_plan_id":"cebpf4jnsgd1na2vs0mg"},{"bike_id":"609880db-589d-438d-a66a-2c14d88d4259","system_id":"levelo_inurba_marseille","lat":43.293677,"lon":5.378378,"is_reserved":false,"is_disabled":false,"rental_uris":{"android":"levelo://app?vid=609880db-589d-438d-a66a-2c14d88d4259","ios":"levelo://app?vid=609880db-589d-438d-a66a-2c14d88d4259"},"vehicle_type_id":"4","last_reported":1744201181,"current_range_meters":16000,"station_id":"ce4bhg12rcd13ifvqf80","pricing_plan_id":"cebpf4jnsgd1na2vs0mg"},{"bike_id":"b84b1d45-729e-47db-8c7e-e88abe2948fb","system_id":"levelo_inurba_marseille","lat":43.31717,"lon":5.42428,"is_reserved":false,"is_disabled":false,"rental_uris":{"android":"levelo://app?vid=b84b1d45-729e-47db-8c7e-e88abe2948fb","ios":"levelo://app?vid=b84b1d45-729e-47db-8c7e-e88abe2948fb"},"vehicle_type_id":"4","last_reported":1744201181,"current_range_meters":16400,"station_id":"ce4bhp92rcd13ifvqhbg","pricing_plan_id":"cebpf4jnsgd1na2vs0mg"},{"bike_id":"d3a30278-1fc8-438b-a6b9-b6523acb13c6","system_id":"levelo_inurba_marseille","lat":43.31268,"lon":5.36865,"is_reserved":false,"is_disabled":false,"rental_uris":{"android":"levelo://app?vid=d3a30278-1fc8-438b-a6b9-b6523acb13c6","ios":"levelo://app?vid=d3a30278-1fc8-438b-a6b9-b6523acb13c6"},"vehicle_type_id":"4","last_reported":1744201181,"current_range_meters":16400,"station_id":"ce4bgl92rcd13ifvqbq0","pricing_plan_id":"cebpf4jnsgd1na2vs0mg"},{"bike_id":"6d1b5940-ea24-4479-97b7-081e33bd0bf6","system_id":"levelo_inurba_marseille","lat":43.28624,"lon":5.35105,"is_reserved":false,"is_disabled":false,"rental_uris":{"android":"levelo://app?vid=6d1b5940-ea24-4479-97b7-081e33bd0bf6","ios":"levelo://app?vid=6d1b5940-ea24-4479-97b7-081e33bd0bf6"},"vehicle_type_id":"4","last_reported":1744201181,"current_range_meters":16800,"station_id":"ce4bhch2rcd13ifvqeug","pricing_plan_id":"cebpf4jnsgd1na2vs0mg"},{"bike_id":"2af5454e-d75a-4bc2-a30c-3d459787271d","system_id":"levelo_inurba_marseille","lat":43.291171,"lon":5.37253,"is_reserved":false,"is_disabled":false,"rental_uris":{"android":"levelo://app?vid=2af5454e-d75a-4bc2-a30c-3d459787271d","ios":"levelo://app?vid=2af5454e-d75a-4bc2-a30c-3d459787271d"},"vehicle_type_id":"4","last_reported":1744201181,"current_range_meters":16800,"station_id":"ce4bh5p2rcd13ifvqe4g","pricing_plan_id":"cebpf4jnsgd1na2vs0mg"},{"bike_id":"bb8cbb2d-aa35-4e18-9074-9eb1d80b1337","system_id":"levelo_inurba_marseille","lat":43.28083,"lon":5.39678,"is_reserved":false,"is_disabled":false,"rental_uris":{"android":"levelo://app?vid=bb8cbb2d-aa35-4e18-9074-9eb1d80b1337","ios":"levelo://app?vid=bb8cbb2d-aa35-4e18-9074-9eb1d80b1337"},"vehicle_type_id":"4","last_reported":1744201181,"current_range_meters":15200,"station_id":"ce4bho12rcd13ifvqh2g","pricing_plan_id":"cebpf4jnsgd1na2vs0mg"},{"bike_id":"42c1fdc6-38af-4ea1-a910-702e15d5a9b4","system_id":"levelo_inurba_marseille","lat":43.30942,"lon":5.40137,"is_reserved":false,"is_disabled":true,"rental_uris":{"android":"levelo://app?vid=42c1fdc6-38af-4ea1-a910-702e15d5a9b4","ios":"levelo://app?vid=42c1fdc6-38af-4ea1-a910-702e15d5a9b4"},"vehicle_type_id":"4","last_reported":1744201181,"current_range_meters":16800,"station_id":"ce4bgvp2rcd13ifvqct0","pricing_plan_id":"cebpf4jnsgd1na2vs0mg"},{"bike_id":"43f40e95-0918-46cd-8aab-35947e4f446e","system_id":"levelo_inurba_marseille","lat":43.26676,"lon":5.3826,"is_reserved":false,"is_disabled":false,"rental_uris":{"android":"levelo://app?vid=43f40e95-0918-46cd-8aab-35947e4f446e","ios":"levelo://app?vid=43f40e95-0918-46cd-8aab-35947e4f446e"},"vehicle_type_id":"4","last_reported":1744201181,"current_range_meters":16400,"station_id":"ce4bhg92rcd13ifvqf90","pricing_plan_id":"cebpf4jnsgd1na2vs0mg"},{"bike_id":"9b707f39-8a91-47a1-afe5-0c6d90ae57f5","system_id":"levelo_inurba_marseille","lat":43.30546,"lon":5.36539,"is_reserved":false,"is_disabled":false,"rental_uris":{"android":"levelo://app?vid=9b707f39-8a91-47a1-afe5-0c6d90ae57f5","ios":"levelo://app?vid=9b707f39-8a91-47a1-afe5-0c6d90ae57f5"},"vehicle_type_id":"4","last_reported":1744201181,"current_range_meters":16800,"station_id":"ce4bgs12rcd13ifvqcag","pricing_plan_id":"cebpf4jnsgd1na2vs0mg"},{"bike_id":"66e30961-2708-430e-b533-a04bf976ef8a","system_id":"levelo_inurba_marseille","lat":43.29981,"lon":5.37166,"is_reserved":false,"is_disabled":false,"rental_uris":{"android":"levelo://app?vid=66e30961-2708-430e-b533-a04bf976ef8a","ios":"levelo://app?vid=66e30961-2708-430e-b533-a04bf976ef8a"},"vehicle_type_id":"4","last_reported":1744201181,"current_range_meters":16800,"station_id":"ce4bgr92rcd13ifvqc7g","pricing_plan_id":"cebpf4jnsgd1na2vs0mg"},{"bike_id":"c55184d3-fbbd-4f0a-a6fc-c4d88e36e900","system_id":"levelo_inurba_marseille","lat":43.30528,"lon":5.36535,"is_reserved":false,"is_disabled":false,"rental_uris":{"android":"levelo://app?vid=c55184d3-fbbd-4f0a-a6fc-c4d88e36e900","ios":"levelo://app?vid=c55184d3-fbbd-4f0a-a6fc-c4d88e36e900"},"vehicle_type_id":"4","last_reported":1744201181,"current_range_meters":16800,"station_id":"ce4bgs12rcd13ifvqcag","pricing_plan_id":"cebpf4jnsgd1na2vs0mg"},{"bike_id":"738b81e1-beef-4832-9851-aad90bbe7fd0","system_id":"levelo_inurba_marseille","lat":43.29932,"lon":5.37463,"is_reserved":false,"is_disabled":false,"rental_uris":{"android":"levelo://app?vid=738b81e1-beef-4832-9851-aad90bbe7fd0","ios":"levelo://app?vid=738b81e1-beef-4832-9851-aad90bbe7fd0"},"vehicle_type_id":"4","last_reported":1744201181,"current_range_meters":16800,"station_id":"ce4bgjh2rcd13ifvqbg0","pricing_plan_id":"cebpf4jnsgd1na2vs0mg"},{"bike_id":"d1efadb9-f3e8-4a47-9049-9b68bdfbd4ca","system_id":"levelo_inurba_marseille","lat":43.28943,"lon":5.3665,"is_reserved":false,"is_disabled":false,"rental_uris":{"android":"levelo://app?vid=d1efadb9-f3e8-4a47-9049-9b68bdfbd4ca","ios":"levelo://app?vid=d1efadb9-f3e8-4a47-9049-9b68bdfbd4ca"},"vehicle_type_id":"4","last_reported":1744201181,"current_range_meters":16800,"station_id":"ce4bhap2rcd13ifvqek0","pricing_plan_id":"cebpf4jnsgd1na2vs0mg"},{"bike_id":"33c6f353-0166-4c8c-af82-a2e0d1d8c75d","system_id":"levelo_inurba_marseille","lat":43.3302,"lon":5.43862,"is_reserved":false,"is_disabled":false,"rental_uris":{"android":"levelo://app?vid=33c6f353-0166-4c8c-af82-a2e0d1d8c75d","ios":"levelo://app?vid=33c6f353-0166-4c8c-af82-a2e0d1d8c75d"},"vehicle_type_id":"4","last_reported":1744201181,"current_range_meters":16800,"station_id":"","pricing_plan_id":"cebpf4jnsgd1na2vs0mg"},{"bike_id":"09bddc24-4c9d-460f-8967-e90ee5c88b43","system_id":"levelo_inurba_marseille","lat":43.3133,"lon":5.39697,"is_reserved":false,"is_disabled":true,"rental_uris":{"android":"levelo://app?vid=09bddc24-4c9d-460f-8967-e90ee5c88b43","ios":"levelo://app?vid=09bddc24-4c9d-460f-8967-e90ee5c88b43"},"vehicle_type_id":"4","last_reported":1744201181,"current_range_meters":16800,"station_id":"ce4bgvp2rcd13ifvqcu0","pricing_plan_id":"cebpf4jnsgd1na2vs0mg"},{"bike_id":"875883da-a830-4c1a-8530-93fae3774448","system_id":"levelo_inurba_marseille","lat":43.30533,"lon":5.36535,"is_reserved":false,"is_disabled":false,"rental_uris":{"android":"levelo://app?vid=875883da-a830-4c1a-8530-93fae3774448","ios":"levelo://app?vid=875883da-a830-4c1a-8530-93fae3774448"},"vehicle_type_id":"4","last_reported":1744201181,"current_range_meters":17200,"station_id":"ce4bgs12rcd13ifvqcag","pricing_plan_id":"cebpf4jnsgd1na2vs0mg"},{"bike_id":"a9a1a4e2-6c28-47a4-b7bb-f9f3b3144184","system_id":"levelo_inurba_marseille","lat":43.31215,"lon":5.36868,"is_reserved":false,"is_disabled":false,"rental_uris":{"android":"levelo://app?vid=a9a1a4e2-6c28-47a4-b7bb-f9f3b3144184","ios":"levelo://app?vid=a9a1a4e2-6c28-47a4-b7bb-f9f3b3144184"},"vehicle_type_id":"4","last_reported":1744201181,"current_range_meters":17200,"station_id":"ce4bgl92rcd13ifvqbq0","pricing_plan_id":"cebpf4jnsgd1na2vs0mg"},{"bike_id":"b7e9f9b6-e426-41ee-acd1-240ca7b02467","system_id":"levelo_inurba_marseille","lat":43.29309,"lon":5.37464,"is_reserved":false,"is_disabled":false,"rental_uris":{"android":"levelo://app?vid=b7e9f9b6-e426-41ee-acd1-240ca7b02467","ios":"levelo://app?vid=b7e9f9b6-e426-41ee-acd1-240ca7b02467"},"vehicle_type_id":"4","last_reported":1744201181,"current_range_meters":17200,"station_id":"ce4bgi12rcd13ifvqb70","pricing_plan_id":"cebpf4jnsgd1na2vs0mg"},{"bike_id":"86e0b7af-47a2-483b-814e-abd603a1c99e","system_id":"levelo_inurba_marseille","lat":43.32497,"lon":5.36578,"is_reserved":false,"is_disabled":false,"rental_uris":{"android":"levelo://app?vid=86e0b7af-47a2-483b-814e-abd603a1c99e","ios":"levelo://app?vid=86e0b7af-47a2-483b-814e-abd603a1c99e"},"vehicle_type_id":"4","last_reported":1744201181,"current_range_meters":17600,"station_id":"ce4bhs12rcd13ifvqhvg","pricing_plan_id":"cebpf4jnsgd1na2vs0mg"},{"bike_id":"da08feb2-113b-4d23-9c61-3b0881a87c61","system_id":"levelo_inurba_marseille","lat":43.30803,"lon":5.38152,"is_reserved":false,"is_disabled":false,"rental_uris":{"android":"levelo://app?vid=da08feb2-113b-4d23-9c61-3b0881a87c61","ios":"levelo://app?vid=da08feb2-113b-4d23-9c61-3b0881a87c61"},"vehicle_type_id":"4","last_reported":1744201181,"current_range_meters":17600,"station_id":"ce4bgt12rcd13ifvqce0","pricing_plan_id":"cebpf4jnsgd1na2vs0mg"},{"bike_id":"b0e7c080-9b32-4fb1-ae6b-91b2f1cae096","system_id":"levelo_inurba_marseille","lat":43.305597,"lon":5.365569,"is_reserved":false,"is_disabled":false,"rental_uris":{"android":"levelo://app?vid=b0e7c080-9b32-4fb1-ae6b-91b2f1cae096","ios":"levelo://app?vid=b0e7c080-9b32-4fb1-ae6b-91b2f1cae096"},"vehicle_type_id":"4","last_reported":1744201181,"current_range_meters":17600,"station_id":"ce4bgs12rcd13ifvqcag","pricing_plan_id":"cebpf4jnsgd1na2vs0mg"},{"bike_id":"b50a5946-205e-4b40-9f40-1380f1d1c613","system_id":"levelo_inurba_marseille","lat":43.30544,"lon":5.36549,"is_reserved":false,"is_disabled":false,"rental_uris":{"android":"levelo://app?vid=b50a5946-205e-4b40-9f40-1380f1d1c613","ios":"levelo://app?vid=b50a5946-205e-4b40-9f40-1380f1d1c613"},"vehicle_type_id":"4","last_reported":1744201181,"current_range_meters":17600,"station_id":"ce4bgs12rcd13ifvqcag","pricing_plan_id":"cebpf4jnsgd1na2vs0mg"},{"bike_id":"b29ac927-eab6-4a14-9853-22707579ab07","system_id":"levelo_inurba_marseille","lat":43.28622,"lon":5.35108,"is_reserved":false,"is_disabled":false,"rental_uris":{"android":"levelo://app?vid=b29ac927-eab6-4a14-9853-22707579ab07","ios":"levelo://app?vid=b29ac927-eab6-4a14-9853-22707579ab07"},"vehicle_type_id":"4","last_reported":1744201181,"current_range_meters":17600,"station_id":"ce4bhch2rcd13ifvqeug","pricing_plan_id":"cebpf4jnsgd1na2vs0mg"},{"bike_id":"ceb42bda-17b0-473f-a990-ea6bbdd336ff","system_id":"levelo_inurba_marseille","lat":43.21755,"lon":5.34604,"is_reserved":false,"is_disabled":false,"rental_uris":{"android":"levelo://app?vid=ceb42bda-17b0-473f-a990-ea6bbdd336ff","ios":"levelo://app?vid=ceb42bda-17b0-473f-a990-ea6bbdd336ff"},"vehicle_type_id":"4","last_reported":1744201181,"current_range_meters":17600,"station_id":"","pricing_plan_id":"cebpf4jnsgd1na2vs0mg"},{"bike_id":"1a3cd0ab-ec77-41b3-982c-74e5093499a8","system_id":"levelo_inurba_marseille","lat":43.30452,"lon":5.38897,"is_reserved":false,"is_disabled":true,"rental_uris":{"android":"levelo://app?vid=1a3cd0ab-ec77-41b3-982c-74e5093499a8","ios":"levelo://app?vid=1a3cd0ab-ec77-41b3-982c-74e5093499a8"},"vehicle_type_id":"4","last_reported":1744201181,"current_range_meters":17600,"station_id":"ce4bgk12rcd13ifvqbi0","pricing_plan_id":"cebpf4jnsgd1na2vs0mg"},{"bike_id":"17e04d16-a197-48f6-828a-78c3e250db07","system_id":"levelo_inurba_marseille","lat":43.2937,"lon":5.37844,"is_reserved":false,"is_disabled":false,"rental_uris":{"android":"levelo://app?vid=17e04d16-a197-48f6-828a-78c3e250db07","ios":"levelo://app?vid=17e04d16-a197-48f6-828a-78c3e250db07"},"vehicle_type_id":"4","last_reported":1744201181,"current_range_meters":17200,"station_id":"ce4bgjh2rcd13ifvqbf0","pricing_plan_id":"cebpf4jnsgd1na2vs0mg"},{"bike_id":"0a698d41-ade8-4db1-9f07-c82da1b9f441","system_id":"levelo_inurba_marseille","lat":43.31215,"lon":5.36862,"is_reserved":false,"is_disabled":false,"rental_uris":{"android":"levelo://app?vid=0a698d41-ade8-4db1-9f07-c82da1b9f441","ios":"levelo://app?vid=0a698d41-ade8-4db1-9f07-c82da1b9f441"},"vehicle_type_id":"4","last_reported":1744201181,"current_range_meters":18000,"station_id":"ce4bgl92rcd13ifvqbq0","pricing_plan_id":"cebpf4jnsgd1na2vs0mg"},{"bike_id":"776a98b2-bad8-49da-9f25-e5924cc43c54","system_id":"levelo_inurba_marseille","lat":43.297858,"lon":5.371033,"is_reserved":false,"is_disabled":false,"rental_uris":{"android":"levelo://app?vid=776a98b2-bad8-49da-9f25-e5924cc43c54","ios":"levelo://app?vid=776a98b2-bad8-49da-9f25-e5924cc43c54"},"vehicle_type_id":"4","last_reported":1744201181,"current_range_meters":18000,"station_id":"ce4bgop2rcd13ifvqc1g","pricing_plan_id":"cebpf4jnsgd1na2vs0mg"},{"bike_id":"76d1540e-ca9b-492c-a768-c2f0d31c9d44","system_id":"levelo_inurba_marseille","lat":43.289396,"lon":5.378587,"is_reserved":false,"is_disabled":false,"rental_uris":{"android":"levelo://app?vid=76d1540e-ca9b-492c-a768-c2f0d31c9d44","ios":"levelo://app?vid=76d1540e-ca9b-492c-a768-c2f0d31c9d44"},"vehicle_type_id":"4","last_reported":1744201181,"current_range_meters":19200,"station_id":"ce4bh9p2rcd13ifvqed0","pricing_plan_id":"cebpf4jnsgd1na2vs0mg"},{"bike_id":"3b1069de-f7e6-4c50-b983-4e86475c3bfc","system_id":"levelo_inurba_marseille","lat":43.30601,"lon":5.39372,"is_reserved":false,"is_disabled":false,"rental_uris":{"android":"levelo://app?vid=3b1069de-f7e6-4c50-b983-4e86475c3bfc","ios":"levelo://app?vid=3b1069de-f7e6-4c50-b983-4e86475c3bfc"},"vehicle_type_id":"4","last_reported":1744201181,"current_range_meters":18000,"station_id":"ce4bh0p2rcd13ifvqd80","pricing_plan_id":"cebpf4jnsgd1na2vs0mg"},{"bike_id":"27e88f90-f317-41f9-8b86-f9b862fc8305","system_id":"levelo_inurba_marseille","lat":43.29282,"lon":5.36856,"is_reserved":false,"is_disabled":false,"rental_uris":{"android":"levelo://app?vid=27e88f90-f317-41f9-8b86-f9b862fc8305","ios":"levelo://app?vid=27e88f90-f317-41f9-8b86-f9b862fc8305"},"vehicle_type_id":"4","last_reported":1744201181,"current_range_meters":18000,"station_id":"ce4bhbp2rcd13ifvqesg","pricing_plan_id":"cebpf4jnsgd1na2vs0mg"},{"bike_id":"c08d1e58-c029-44f5-b305-fc6a2f6b5159","system_id":"levelo_inurba_marseille","lat":43.30469,"lon":5.37906,"is_reserved":false,"is_disabled":false,"rental_uris":{"android":"levelo://app?vid=c08d1e58-c029-44f5-b305-fc6a2f6b5159","ios":"levelo://app?vid=c08d1e58-c029-44f5-b305-fc6a2f6b5159"},"vehicle_type_id":"4","last_reported":1744201181,"current_range_meters":20000,"station_id":"ce4bgup2rcd13ifvqcn0","pricing_plan_id":"cebpf4jnsgd1na2vs0mg"},{"bike_id":"3569ccdd-37cd-4084-bb5b-e86b81c6f0f2","system_id":"levelo_inurba_marseille","lat":43.26061,"lon":5.39396,"is_reserved":false,"is_disabled":false,"rental_uris":{"android":"levelo://app?vid=3569ccdd-37cd-4084-bb5b-e86b81c6f0f2","ios":"levelo://app?vid=3569ccdd-37cd-4084-bb5b-e86b81c6f0f2"},"vehicle_type_id":"4","last_reported":1744201181,"current_range_meters":18800,"station_id":"ce4bhh92rcd13ifvqfj0","pricing_plan_id":"cebpf4jnsgd1na2vs0mg"},{"bike_id":"ccb9abed-28ac-48fc-8b55-19cd88ca04b7","system_id":"levelo_inurba_marseille","lat":43.2993,"lon":5.37466,"is_reserved":false,"is_disabled":false,"rental_uris":{"android":"levelo://app?vid=ccb9abed-28ac-48fc-8b55-19cd88ca04b7","ios":"levelo://app?vid=ccb9abed-28ac-48fc-8b55-19cd88ca04b7"},"vehicle_type_id":"4","last_reported":1744201181,"current_range_meters":18800,"station_id":"ce4bgjh2rcd13ifvqbg0","pricing_plan_id":"cebpf4jnsgd1na2vs0mg"},{"bike_id":"ee3c03b2-9a4c-4654-a28e-7388f571d9cb","system_id":"levelo_inurba_marseille","lat":43.32001,"lon":5.3814,"is_reserved":false,"is_disabled":false,"rental_uris":{"android":"levelo://app?vid=ee3c03b2-9a4c-4654-a28e-7388f571d9cb","ios":"levelo://app?vid=ee3c03b2-9a4c-4654-a28e-7388f571d9cb"},"vehicle_type_id":"4","last_reported":1744201181,"current_range_meters":18800,"station_id":"ce4bhr12rcd13ifvqhpg","pricing_plan_id":"cebpf4jnsgd1na2vs0mg"},{"bike_id":"e3c3a051-8134-4ed3-913b-374aa217874c","system_id":"levelo_inurba_marseille","lat":43.2559,"lon":5.40455,"is_reserved":false,"is_disabled":false,"rental_uris":{"android":"levelo://app?vid=e3c3a051-8134-4ed3-913b-374aa217874c","ios":"levelo://app?vid=e3c3a051-8134-4ed3-913b-374aa217874c"},"vehicle_type_id":"4","last_reported":1744201181,"current_range_meters":18800,"station_id":"","pricing_plan_id":"cebpf4jnsgd1na2vs0mg"},{"bike_id":"d326a848-ef26-4e2a-82a6-9c659263d0e2","system_id":"levelo_inurba_marseille","lat":43.283559,"lon":5.381152,"is_reserved":false,"is_disabled":false,"rental_uris":{"android":"levelo://app?vid=d326a848-ef26-4e2a-82a6-9c659263d0e2","ios":"levelo://app?vid=d326a848-ef26-4e2a-82a6-9c659263d0e2"},"vehicle_type_id":"4","last_reported":1744201181,"current_range_meters":18800,"station_id":"ce4bhdp2rcd13ifvqf20","pricing_plan_id":"cebpf4jnsgd1na2vs0mg"},{"bike_id":"2ab54020-df93-4f6b-8cd1-9b0e84795bda","system_id":"levelo_inurba_marseille","lat":43.30545,"lon":5.36532,"is_reserved":false,"is_disabled":false,"rental_uris":{"android":"levelo://app?vid=2ab54020-df93-4f6b-8cd1-9b0e84795bda","ios":"levelo://app?vid=2ab54020-df93-4f6b-8cd1-9b0e84795bda"},"vehicle_type_id":"4","last_reported":1744201181,"current_range_meters":18800,"station_id":"ce4bgs12rcd13ifvqcag","pricing_plan_id":"cebpf4jnsgd1na2vs0mg"},{"bike_id":"ad11da76-020f-4037-a307-f3f4facd19a4","system_id":"levelo_inurba_marseille","lat":43.28721,"lon":5.37932,"is_reserved":false,"is_disabled":false,"rental_uris":{"android":"levelo://app?vid=ad11da76-020f-4037-a307-f3f4facd19a4","ios":"levelo://app?vid=ad11da76-020f-4037-a307-f3f4facd19a4"},"vehicle_type_id":"4","last_reported":1744201181,"current_range_meters":19200,"station_id":"ce4bh9p2rcd13ifvqec0","pricing_plan_id":"cebpf4jnsgd1na2vs0mg"},{"bike_id":"fc2b5e19-2463-489a-90e8-c4a93b4643c4","system_id":"levelo_inurba_marseille","lat":43.29793,"lon":5.38094,"is_reserved":false,"is_disabled":false,"rental_uris":{"android":"levelo://app?vid=fc2b5e19-2463-489a-90e8-c4a93b4643c4","ios":"levelo://app?vid=fc2b5e19-2463-489a-90e8-c4a93b4643c4"},"vehicle_type_id":"4","last_reported":1744201181,"current_range_meters":18800,"station_id":"ce4bgip2rcd13ifvqbb0","pricing_plan_id":"cebpf4jnsgd1na2vs0mg"},{"bike_id":"5bb9bae0-7b0e-4965-b433-786ff374161f","system_id":"levelo_inurba_marseille","lat":43.29424,"lon":5.38637,"is_reserved":false,"is_disabled":false,"rental_uris":{"android":"levelo://app?vid=5bb9bae0-7b0e-4965-b433-786ff374161f","ios":"levelo://app?vid=5bb9bae0-7b0e-4965-b433-786ff374161f"},"vehicle_type_id":"4","last_reported":1744201181,"current_range_meters":21600,"station_id":"ce4bh2h2rcd13ifvqdh0","pricing_plan_id":"cebpf4jnsgd1na2vs0mg"},{"bike_id":"560b73b2-c27b-4cfe-a69d-c093c96650ce","system_id":"levelo_inurba_marseille","lat":43.30274,"lon":5.37707,"is_reserved":false,"is_disabled":false,"rental_uris":{"android":"levelo://app?vid=560b73b2-c27b-4cfe-a69d-c093c96650ce","ios":"levelo://app?vid=560b73b2-c27b-4cfe-a69d-c093c96650ce"},"vehicle_type_id":"4","last_reported":1744201181,"current_range_meters":18800,"station_id":"ce4bguh2rcd13ifvqcj0","pricing_plan_id":"cebpf4jnsgd1na2vs0mg"},{"bike_id":"a2eef96a-1bdc-43cf-942c-ad232f692740","system_id":"levelo_inurba_marseille","lat":43.2816,"lon":5.42643,"is_reserved":false,"is_disabled":false,"rental_uris":{"android":"levelo://app?vid=a2eef96a-1bdc-43cf-942c-ad232f692740","ios":"levelo://app?vid=a2eef96a-1bdc-43cf-942c-ad232f692740"},"vehicle_type_id":"4","last_reported":1744201181,"current_range_meters":18800,"station_id":"ce4bhnh2rcd13ifvqgug","pricing_plan_id":"cebpf4jnsgd1na2vs0mg"},{"bike_id":"b30af0ec-efcb-4f5d-925c-99de1f855a4c","system_id":"levelo_inurba_marseille","lat":43.30224,"lon":5.40022,"is_reserved":false,"is_disabled":false,"rental_uris":{"android":"levelo://app?vid=b30af0ec-efcb-4f5d-925c-99de1f855a4c","ios":"levelo://app?vid=b30af0ec-efcb-4f5d-925c-99de1f855a4c"},"vehicle_type_id":"4","last_reported":1744201181,"current_range_meters":18800,"station_id":"ce4bgvh2rcd13ifvqcs0","pricing_plan_id":"cebpf4jnsgd1na2vs0mg"},{"bike_id":"143c947a-fb73-4c8d-aba7-62c3b986fcd0","system_id":"levelo_inurba_marseille","lat":43.27322,"lon":5.39099,"is_reserved":false,"is_disabled":false,"rental_uris":{"android":"levelo://app?vid=143c947a-fb73-4c8d-aba7-62c3b986fcd0","ios":"levelo://app?vid=143c947a-fb73-4c8d-aba7-62c3b986fcd0"},"vehicle_type_id":"4","last_reported":1744201181,"current_range_meters":18800,"station_id":"ce4bhgp2rcd13ifvqfe0","pricing_plan_id":"cebpf4jnsgd1na2vs0mg"},{"bike_id":"3cffa47d-bce0-45c1-b5f3-fdeeaa58e732","system_id":"levelo_inurba_marseille","lat":43.30917,"lon":5.36851,"is_reserved":false,"is_disabled":false,"rental_uris":{"android":"levelo://app?vid=3cffa47d-bce0-45c1-b5f3-fdeeaa58e732","ios":"levelo://app?vid=3cffa47d-bce0-45c1-b5f3-fdeeaa58e732"},"vehicle_type_id":"4","last_reported":1744201181,"current_range_meters":18800,"station_id":"ce4bgn92rcd13ifvqbvg","pricing_plan_id":"cebpf4jnsgd1na2vs0mg"},{"bike_id":"09dc755c-ee5f-4286-a733-fb1e76261a8b","system_id":"levelo_inurba_marseille","lat":43.26564,"lon":5.37283,"is_reserved":false,"is_disabled":false,"rental_uris":{"android":"levelo://app?vid=09dc755c-ee5f-4286-a733-fb1e76261a8b","ios":"levelo://app?vid=09dc755c-ee5f-4286-a733-fb1e76261a8b"},"vehicle_type_id":"4","last_reported":1744201181,"current_range_meters":19200,"station_id":"ce4bhg12rcd13ifvqf70","pricing_plan_id":"cebpf4jnsgd1na2vs0mg"},{"bike_id":"ed32de37-66e8-4fe8-b613-74f9e5810cd6","system_id":"levelo_inurba_marseille","lat":43.31204,"lon":5.37345,"is_reserved":false,"is_disabled":false,"rental_uris":{"android":"levelo://app?vid=ed32de37-66e8-4fe8-b613-74f9e5810cd6","ios":"levelo://app?vid=ed32de37-66e8-4fe8-b613-74f9e5810cd6"},"vehicle_type_id":"4","last_reported":1744201181,"current_range_meters":19200,"station_id":"","pricing_plan_id":"cebpf4jnsgd1na2vs0mg"},{"bike_id":"5aa23b06-878b-4958-8ed6-355e1d3b9516","system_id":"levelo_inurba_marseille","lat":43.30767,"lon":5.37631,"is_reserved":false,"is_disabled":false,"rental_uris":{"android":"levelo://app?vid=5aa23b06-878b-4958-8ed6-355e1d3b9516","ios":"levelo://app?vid=5aa23b06-878b-4958-8ed6-355e1d3b9516"},"vehicle_type_id":"4","last_reported":1744201181,"current_range_meters":19200,"station_id":"ce4bgv92rcd13ifvqcq0","pricing_plan_id":"cebpf4jnsgd1na2vs0mg"},{"bike_id":"35648edf-5b72-4c83-a25a-28f9cda4c923","system_id":"levelo_inurba_marseille","lat":43.29419,"lon":5.38605,"is_reserved":false,"is_disabled":false,"rental_uris":{"android":"levelo://app?vid=35648edf-5b72-4c83-a25a-28f9cda4c923","ios":"levelo://app?vid=35648edf-5b72-4c83-a25a-28f9cda4c923"},"vehicle_type_id":"4","last_reported":1744201181,"current_range_meters":19200,"station_id":"ce4bh2h2rcd13ifvqdh0","pricing_plan_id":"cebpf4jnsgd1na2vs0mg"},{"bike_id":"5b0d5c8c-8809-437e-8d13-6c5444b83f2b","system_id":"levelo_inurba_marseille","lat":43.2904,"lon":5.39971,"is_reserved":false,"is_disabled":false,"rental_uris":{"android":"levelo://app?vid=5b0d5c8c-8809-437e-8d13-6c5444b83f2b","ios":"levelo://app?vid=5b0d5c8c-8809-437e-8d13-6c5444b83f2b"},"vehicle_type_id":"4","last_reported":1744201181,"current_range_meters":19200,"station_id":"ce4bh392rcd13ifvqdm0","pricing_plan_id":"cebpf4jnsgd1na2vs0mg"},{"bike_id":"d1f92f28-9609-4256-bd4a-880c7b09d4e8","system_id":"levelo_inurba_marseille","lat":43.29328,"lon":5.41148,"is_reserved":false,"is_disabled":false,"rental_uris":{"android":"levelo://app?vid=d1f92f28-9609-4256-bd4a-880c7b09d4e8","ios":"levelo://app?vid=d1f92f28-9609-4256-bd4a-880c7b09d4e8"},"vehicle_type_id":"4","last_reported":1744201181,"current_range_meters":19200,"station_id":"","pricing_plan_id":"cebpf4jnsgd1na2vs0mg"},{"bike_id":"ed0e1554-fc76-4f01-9a1d-602218aa16f3","system_id":"levelo_inurba_marseille","lat":43.29016,"lon":5.35613,"is_reserved":false,"is_disabled":false,"rental_uris":{"android":"levelo://app?vid=ed0e1554-fc76-4f01-9a1d-602218aa16f3","ios":"levelo://app?vid=ed0e1554-fc76-4f01-9a1d-602218aa16f3"},"vehicle_type_id":"4","last_reported":1744201181,"current_range_meters":19200,"station_id":"ce4bhb92rcd13ifvqen0","pricing_plan_id":"cebpf4jnsgd1na2vs0mg"},{"bike_id":"6b09f071-bde3-4d32-b43d-09f3aed750a7","system_id":"levelo_inurba_marseille","lat":43.29906,"lon":5.39752,"is_reserved":false,"is_disabled":false,"rental_uris":{"android":"levelo://app?vid=6b09f071-bde3-4d32-b43d-09f3aed750a7","ios":"levelo://app?vid=6b09f071-bde3-4d32-b43d-09f3aed750a7"},"vehicle_type_id":"4","last_reported":1744201181,"current_range_meters":18800,"station_id":"ce4bh0h2rcd13ifvqd50","pricing_plan_id":"cebpf4jnsgd1na2vs0mg"},{"bike_id":"828a4867-91f4-4842-9ae0-d69897c39a73","system_id":"levelo_inurba_marseille","lat":43.26811,"lon":5.4027,"is_reserved":false,"is_disabled":false,"rental_uris":{"android":"levelo://app?vid=828a4867-91f4-4842-9ae0-d69897c39a73","ios":"levelo://app?vid=828a4867-91f4-4842-9ae0-d69897c39a73"},"vehicle_type_id":"4","last_reported":1744201181,"current_range_meters":19600,"station_id":"ce501612rcd8frsf0b60","pricing_plan_id":"cebpf4jnsgd1na2vs0mg"},{"bike_id":"a71f2a5a-68cc-4ba4-ba37-497c0c906866","system_id":"levelo_inurba_marseille","lat":43.26235,"lon":5.40455,"is_reserved":false,"is_disabled":false,"rental_uris":{"android":"levelo://app?vid=a71f2a5a-68cc-4ba4-ba37-497c0c906866","ios":"levelo://app?vid=a71f2a5a-68cc-4ba4-ba37-497c0c906866"},"vehicle_type_id":"4","last_reported":1744201181,"current_range_meters":19600,"station_id":"ce4bhmh2rcd13ifvqgmg","pricing_plan_id":"cebpf4jnsgd1na2vs0mg"},{"bike_id":"ef291804-1477-432e-b153-82ea15725418","system_id":"levelo_inurba_marseille","lat":43.33783,"lon":5.37481,"is_reserved":false,"is_disabled":false,"rental_uris":{"android":"levelo://app?vid=ef291804-1477-432e-b153-82ea15725418","ios":"levelo://app?vid=ef291804-1477-432e-b153-82ea15725418"},"vehicle_type_id":"4","last_reported":1744201181,"current_range_meters":19600,"station_id":"","pricing_plan_id":"cebpf4jnsgd1na2vs0mg"},{"bike_id":"76fee95a-c9c2-4e76-955e-c94ff445a115","system_id":"levelo_inurba_marseille","lat":43.27674,"lon":5.38888,"is_reserved":false,"is_disabled":false,"rental_uris":{"android":"levelo://app?vid=76fee95a-c9c2-4e76-955e-c94ff445a115","ios":"levelo://app?vid=76fee95a-c9c2-4e76-955e-c94ff445a115"},"vehicle_type_id":"4","last_reported":1744201181,"current_range_meters":19200,"station_id":"ce4bhi12rcd13ifvqfo0","pricing_plan_id":"cebpf4jnsgd1na2vs0mg"},{"bike_id":"322304d1-7d02-4c63-ab56-b472942145f1","system_id":"levelo_inurba_marseille","lat":43.32643,"lon":5.41013,"is_reserved":false,"is_disabled":false,"rental_uris":{"android":"levelo://app?vid=322304d1-7d02-4c63-ab56-b472942145f1","ios":"levelo://app?vid=322304d1-7d02-4c63-ab56-b472942145f1"},"vehicle_type_id":"4","last_reported":1744201181,"current_range_meters":19600,"station_id":"ce4bhpp2rcd13ifvqhgg","pricing_plan_id":"cebpf4jnsgd1na2vs0mg"},{"bike_id":"078d77c7-d751-45bd-b072-b765ba7d567d","system_id":"levelo_inurba_marseille","lat":43.3176,"lon":5.39024,"is_reserved":false,"is_disabled":false,"rental_uris":{"android":"levelo://app?vid=078d77c7-d751-45bd-b072-b765ba7d567d","ios":"levelo://app?vid=078d77c7-d751-45bd-b072-b765ba7d567d"},"vehicle_type_id":"4","last_reported":1744201181,"current_range_meters":19600,"station_id":"ce4bhqp2rcd13ifvqhng","pricing_plan_id":"cebpf4jnsgd1na2vs0mg"},{"bike_id":"39d569f2-804d-4c1f-93cb-ffdd8bba0563","system_id":"levelo_inurba_marseille","lat":43.3053,"lon":5.38467,"is_reserved":false,"is_disabled":true,"rental_uris":{"android":"levelo://app?vid=39d569f2-804d-4c1f-93cb-ffdd8bba0563","ios":"levelo://app?vid=39d569f2-804d-4c1f-93cb-ffdd8bba0563"},"vehicle_type_id":"4","last_reported":1744201181,"current_range_meters":20000,"station_id":"ce4bgg92rcd13ifvqb30","pricing_plan_id":"cebpf4jnsgd1na2vs0mg"},{"bike_id":"231aaa88-1e79-4a74-a543-651d8fd5a027","system_id":"levelo_inurba_marseille","lat":43.33088,"lon":5.4051,"is_reserved":false,"is_disabled":false,"rental_uris":{"android":"levelo://app?vid=231aaa88-1e79-4a74-a543-651d8fd5a027","ios":"levelo://app?vid=231aaa88-1e79-4a74-a543-651d8fd5a027"},"vehicle_type_id":"4","last_reported":1744201181,"current_range_meters":20000,"station_id":"","pricing_plan_id":"cebpf4jnsgd1na2vs0mg"},{"bike_id":"f70b3269-becf-4a05-b7c6-a351e4429c5e","system_id":"levelo_inurba_marseille","lat":43.2899,"lon":5.4003,"is_reserved":false,"is_disabled":false,"rental_uris":{"android":"levelo://app?vid=f70b3269-becf-4a05-b7c6-a351e4429c5e","ios":"levelo://app?vid=f70b3269-becf-4a05-b7c6-a351e4429c5e"},"vehicle_type_id":"4","last_reported":1744201181,"current_range_meters":20000,"station_id":"","pricing_plan_id":"cebpf4jnsgd1na2vs0mg"},{"bike_id":"2b54a496-5bb2-42c4-bb01-6f1e5c2215a7","system_id":"levelo_inurba_marseille","lat":43.30803,"lon":5.37696,"is_reserved":false,"is_disabled":true,"rental_uris":{"android":"levelo://app?vid=2b54a496-5bb2-42c4-bb01-6f1e5c2215a7","ios":"levelo://app?vid=2b54a496-5bb2-42c4-bb01-6f1e5c2215a7"},"vehicle_type_id":"4","last_reported":1744201181,"current_range_meters":20000,"station_id":"ce4bgv92rcd13ifvqcq0","pricing_plan_id":"cebpf4jnsgd1na2vs0mg"},{"bike_id":"01e8afc9-b963-4a9d-8f00-0de96c1dfc93","system_id":"levelo_inurba_marseille","lat":43.24169,"lon":5.3641,"is_reserved":false,"is_disabled":false,"rental_uris":{"android":"levelo://app?vid=01e8afc9-b963-4a9d-8f00-0de96c1dfc93","ios":"levelo://app?vid=01e8afc9-b963-4a9d-8f00-0de96c1dfc93"},"vehicle_type_id":"4","last_reported":1744201181,"current_range_meters":20000,"station_id":"cpo36qri1sfpv3e86is0","pricing_plan_id":"cebpf4jnsgd1na2vs0mg"},{"bike_id":"34bde636-8fcb-4ae4-8099-f1cf43826639","system_id":"levelo_inurba_marseille","lat":43.29084,"lon":5.37186,"is_reserved":false,"is_disabled":false,"rental_uris":{"android":"levelo://app?vid=34bde636-8fcb-4ae4-8099-f1cf43826639","ios":"levelo://app?vid=34bde636-8fcb-4ae4-8099-f1cf43826639"},"vehicle_type_id":"4","last_reported":1744201181,"current_range_meters":20000,"station_id":"ce4bh5p2rcd13ifvqe4g","pricing_plan_id":"cebpf4jnsgd1na2vs0mg"},{"bike_id":"4d0a30bf-8de5-44c1-abc5-d94e558aa5d9","system_id":"levelo_inurba_marseille","lat":43.30164,"lon":5.38073,"is_reserved":false,"is_disabled":false,"rental_uris":{"android":"levelo://app?vid=4d0a30bf-8de5-44c1-abc5-d94e558aa5d9","ios":"levelo://app?vid=4d0a30bf-8de5-44c1-abc5-d94e558aa5d9"},"vehicle_type_id":"4","last_reported":1744201181,"current_range_meters":20400,"station_id":"ce4bgjp2rcd13ifvqbh0","pricing_plan_id":"cebpf4jnsgd1na2vs0mg"},{"bike_id":"9cf65c3b-f1a2-432c-b40f-26f465e6d52c","system_id":"levelo_inurba_marseille","lat":43.29601,"lon":5.38108,"is_reserved":false,"is_disabled":false,"rental_uris":{"android":"levelo://app?vid=9cf65c3b-f1a2-432c-b40f-26f465e6d52c","ios":"levelo://app?vid=9cf65c3b-f1a2-432c-b40f-26f465e6d52c"},"vehicle_type_id":"4","last_reported":1744201181,"current_range_meters":20400,"station_id":"ce4bgl12rcd13ifvqbo0","pricing_plan_id":"cebpf4jnsgd1na2vs0mg"},{"bike_id":"ff821d54-063f-4c52-a02a-d5d401d819f0","system_id":"levelo_inurba_marseille","lat":43.29035,"lon":5.3997,"is_reserved":false,"is_disabled":false,"rental_uris":{"android":"levelo://app?vid=ff821d54-063f-4c52-a02a-d5d401d819f0","ios":"levelo://app?vid=ff821d54-063f-4c52-a02a-d5d401d819f0"},"vehicle_type_id":"4","last_reported":1744201181,"current_range_meters":20400,"station_id":"ce4bh392rcd13ifvqdm0","pricing_plan_id":"cebpf4jnsgd1na2vs0mg"},{"bike_id":"b0118757-0ffa-4076-b11a-dd158ff44987","system_id":"levelo_inurba_marseille","lat":43.272091,"lon":5.391924,"is_reserved":false,"is_disabled":false,"rental_uris":{"android":"levelo://app?vid=b0118757-0ffa-4076-b11a-dd158ff44987","ios":"levelo://app?vid=b0118757-0ffa-4076-b11a-dd158ff44987"},"vehicle_type_id":"4","last_reported":1744201181,"current_range_meters":20400,"station_id":"ce4bhhp2rcd13ifvqfm0","pricing_plan_id":"cebpf4jnsgd1na2vs0mg"},{"bike_id":"b5e4438f-d942-444d-8724-ea5468be5782","system_id":"levelo_inurba_marseille","lat":43.28163,"lon":5.42666,"is_reserved":false,"is_disabled":false,"rental_uris":{"android":"levelo://app?vid=b5e4438f-d942-444d-8724-ea5468be5782","ios":"levelo://app?vid=b5e4438f-d942-444d-8724-ea5468be5782"},"vehicle_type_id":"4","last_reported":1744201181,"current_range_meters":20400,"station_id":"ce4bhnh2rcd13ifvqgug","pricing_plan_id":"cebpf4jnsgd1na2vs0mg"},{"bike_id":"9dd4623a-1856-4da1-b6f2-575f4b7a0640","system_id":"levelo_inurba_marseille","lat":43.23148,"lon":5.43714,"is_reserved":false,"is_disabled":false,"rental_uris":{"android":"levelo://app?vid=9dd4623a-1856-4da1-b6f2-575f4b7a0640","ios":"levelo://app?vid=9dd4623a-1856-4da1-b6f2-575f4b7a0640"},"vehicle_type_id":"4","last_reported":1744201181,"current_range_meters":20400,"station_id":"ce4bhmp2rcd13ifvqgog","pricing_plan_id":"cebpf4jnsgd1na2vs0mg"},{"bike_id":"a621521c-5bc5-4d47-9050-aee83913026a","system_id":"levelo_inurba_marseille","lat":43.27072,"lon":5.42287,"is_reserved":false,"is_disabled":false,"rental_uris":{"android":"levelo://app?vid=a621521c-5bc5-4d47-9050-aee83913026a","ios":"levelo://app?vid=a621521c-5bc5-4d47-9050-aee83913026a"},"vehicle_type_id":"4","last_reported":1744201181,"current_range_meters":20000,"station_id":"ce4bhk92rcd13ifvqgb0","pricing_plan_id":"cebpf4jnsgd1na2vs0mg"},{"bike_id":"07c9e7ed-78f1-4c9b-82d2-ad403b42dd03","system_id":"levelo_inurba_marseille","lat":43.30959,"lon":5.39034,"is_reserved":false,"is_disabled":false,"rental_uris":{"android":"levelo://app?vid=07c9e7ed-78f1-4c9b-82d2-ad403b42dd03","ios":"levelo://app?vid=07c9e7ed-78f1-4c9b-82d2-ad403b42dd03"},"vehicle_type_id":"4","last_reported":1744201181,"current_range_meters":20400,"station_id":"ce4bgup2rcd13ifvqco0","pricing_plan_id":"cebpf4jnsgd1na2vs0mg"},{"bike_id":"6c63e1cd-38d4-4380-9c7d-06de55597b25","system_id":"levelo_inurba_marseille","lat":43.231495,"lon":5.437193,"is_reserved":false,"is_disabled":false,"rental_uris":{"android":"levelo://app?vid=6c63e1cd-38d4-4380-9c7d-06de55597b25","ios":"levelo://app?vid=6c63e1cd-38d4-4380-9c7d-06de55597b25"},"vehicle_type_id":"4","last_reported":1744201181,"current_range_meters":20800,"station_id":"ce4bhmp2rcd13ifvqgog","pricing_plan_id":"cebpf4jnsgd1na2vs0mg"},{"bike_id":"b0935832-4dc1-4f9b-b9b1-58aeaae4bc50","system_id":"levelo_inurba_marseille","lat":43.25935,"lon":5.40899,"is_reserved":false,"is_disabled":false,"rental_uris":{"android":"levelo://app?vid=b0935832-4dc1-4f9b-b9b1-58aeaae4bc50","ios":"levelo://app?vid=b0935832-4dc1-4f9b-b9b1-58aeaae4bc50"},"vehicle_type_id":"4","last_reported":1744201181,"current_range_meters":20800,"station_id":"ce4bhm92rcd13ifvqglg","pricing_plan_id":"cebpf4jnsgd1na2vs0mg"},{"bike_id":"1ea613d2-9b93-4af1-a88e-613682cdc273","system_id":"levelo_inurba_marseille","lat":43.290076,"lon":5.356187,"is_reserved":false,"is_disabled":false,"rental_uris":{"android":"levelo://app?vid=1ea613d2-9b93-4af1-a88e-613682cdc273","ios":"levelo://app?vid=1ea613d2-9b93-4af1-a88e-613682cdc273"},"vehicle_type_id":"4","last_reported":1744201181,"current_range_meters":20400,"station_id":"ce4bhb92rcd13ifvqen0","pricing_plan_id":"cebpf4jnsgd1na2vs0mg"},{"bike_id":"8bd959e0-bb58-4ad5-b237-2e744fe39574","system_id":"levelo_inurba_marseille","lat":43.31271,"lon":5.401721,"is_reserved":false,"is_disabled":false,"rental_uris":{"android":"levelo://app?vid=8bd959e0-bb58-4ad5-b237-2e744fe39574","ios":"levelo://app?vid=8bd959e0-bb58-4ad5-b237-2e744fe39574"},"vehicle_type_id":"4","last_reported":1744201181,"current_range_meters":20800,"station_id":"ce4bh092rcd13ifvqd30","pricing_plan_id":"cebpf4jnsgd1na2vs0mg"},{"bike_id":"d64648ad-988e-4859-9e47-00782dbc6c22","system_id":"levelo_inurba_marseille","lat":43.23156,"lon":5.43725,"is_reserved":false,"is_disabled":false,"rental_uris":{"android":"levelo://app?vid=d64648ad-988e-4859-9e47-00782dbc6c22","ios":"levelo://app?vid=d64648ad-988e-4859-9e47-00782dbc6c22"},"vehicle_type_id":"4","last_reported":1744201181,"current_range_meters":20800,"station_id":"ce4bhmp2rcd13ifvqgog","pricing_plan_id":"cebpf4jnsgd1na2vs0mg"},{"bike_id":"77e20d6c-a38d-4e9d-9ad9-b1ee30d126e9","system_id":"levelo_inurba_marseille","lat":43.30548,"lon":5.36708,"is_reserved":false,"is_disabled":false,"rental_uris":{"android":"levelo://app?vid=77e20d6c-a38d-4e9d-9ad9-b1ee30d126e9","ios":"levelo://app?vid=77e20d6c-a38d-4e9d-9ad9-b1ee30d126e9"},"vehicle_type_id":"4","last_reported":1744201181,"current_range_meters":20800,"station_id":"","pricing_plan_id":"cebpf4jnsgd1na2vs0mg"},{"bike_id":"1e161376-c92e-4245-8350-8730bd41da0e","system_id":"levelo_inurba_marseille","lat":43.29875,"lon":5.39745,"is_reserved":false,"is_disabled":false,"rental_uris":{"android":"levelo://app?vid=1e161376-c92e-4245-8350-8730bd41da0e","ios":"levelo://app?vid=1e161376-c92e-4245-8350-8730bd41da0e"},"vehicle_type_id":"4","last_reported":1744201181,"current_range_meters":20800,"station_id":"ce4bh0h2rcd13ifvqd50","pricing_plan_id":"cebpf4jnsgd1na2vs0mg"},{"bike_id":"cf9c2b42-6dea-43c8-acaf-f34633053d53","system_id":"levelo_inurba_marseille","lat":43.29449,"lon":5.39742,"is_reserved":false,"is_disabled":false,"rental_uris":{"android":"levelo://app?vid=cf9c2b42-6dea-43c8-acaf-f34633053d53","ios":"levelo://app?vid=cf9c2b42-6dea-43c8-acaf-f34633053d53"},"vehicle_type_id":"4","last_reported":1744201181,"current_range_meters":20400,"station_id":"ce4bh3h2rcd13ifvqdo0","pricing_plan_id":"cebpf4jnsgd1na2vs0mg"},{"bike_id":"17afa5d6-bbb4-44c3-ab58-653427c8e78c","system_id":"levelo_inurba_marseille","lat":43.30234,"lon":5.40045,"is_reserved":false,"is_disabled":false,"rental_uris":{"android":"levelo://app?vid=17afa5d6-bbb4-44c3-ab58-653427c8e78c","ios":"levelo://app?vid=17afa5d6-bbb4-44c3-ab58-653427c8e78c"},"vehicle_type_id":"4","last_reported":1744201181,"current_range_meters":20800,"station_id":"ce4bgvh2rcd13ifvqcs0","pricing_plan_id":"cebpf4jnsgd1na2vs0mg"},{"bike_id":"aa67d4db-87c4-4bee-8769-8bda0e5d9b56","system_id":"levelo_inurba_marseille","lat":43.29229,"lon":5.36079,"is_reserved":false,"is_disabled":false,"rental_uris":{"android":"levelo://app?vid=aa67d4db-87c4-4bee-8769-8bda0e5d9b56","ios":"levelo://app?vid=aa67d4db-87c4-4bee-8769-8bda0e5d9b56"},"vehicle_type_id":"4","last_reported":1744201181,"current_range_meters":21600,"station_id":"ce4bhbh2rcd13ifvqeqg","pricing_plan_id":"cebpf4jnsgd1na2vs0mg"},{"bike_id":"f2cd3a24-fe72-4c93-aae1-02c0e1895503","system_id":"levelo_inurba_marseille","lat":43.25724,"lon":5.41107,"is_reserved":false,"is_disabled":false,"rental_uris":{"android":"levelo://app?vid=f2cd3a24-fe72-4c93-aae1-02c0e1895503","ios":"levelo://app?vid=f2cd3a24-fe72-4c93-aae1-02c0e1895503"},"vehicle_type_id":"4","last_reported":1744201181,"current_range_meters":20400,"station_id":"ce4bhkp2rcd13ifvqgd0","pricing_plan_id":"cebpf4jnsgd1na2vs0mg"},{"bike_id":"520e9b76-2d21-41aa-86a8-064a40c6dff8","system_id":"levelo_inurba_marseille","lat":43.28641,"lon":5.35096,"is_reserved":false,"is_disabled":false,"rental_uris":{"android":"levelo://app?vid=520e9b76-2d21-41aa-86a8-064a40c6dff8","ios":"levelo://app?vid=520e9b76-2d21-41aa-86a8-064a40c6dff8"},"vehicle_type_id":"4","last_reported":1744201181,"current_range_meters":21600,"station_id":"ce4bhch2rcd13ifvqeug","pricing_plan_id":"cebpf4jnsgd1na2vs0mg"},{"bike_id":"923b1f95-3e59-47d2-ac5b-6cf23ac2dcdc","system_id":"levelo_inurba_marseille","lat":43.22507,"lon":5.3479,"is_reserved":false,"is_disabled":false,"rental_uris":{"android":"levelo://app?vid=923b1f95-3e59-47d2-ac5b-6cf23ac2dcdc","ios":"levelo://app?vid=923b1f95-3e59-47d2-ac5b-6cf23ac2dcdc"},"vehicle_type_id":"4","last_reported":1744201181,"current_range_meters":21600,"station_id":"st_cvj5dfep6f1abm77gieg","pricing_plan_id":"cebpf4jnsgd1na2vs0mg"},{"bike_id":"94590b05-1f78-4e0c-a0ef-8831514a32e3","system_id":"levelo_inurba_marseille","lat":43.30569,"lon":5.36555,"is_reserved":false,"is_disabled":false,"rental_uris":{"android":"levelo://app?vid=94590b05-1f78-4e0c-a0ef-8831514a32e3","ios":"levelo://app?vid=94590b05-1f78-4e0c-a0ef-8831514a32e3"},"vehicle_type_id":"4","last_reported":1744201181,"current_range_meters":22000,"station_id":"ce4bgs12rcd13ifvqcag","pricing_plan_id":"cebpf4jnsgd1na2vs0mg"},{"bike_id":"010f156a-a502-440a-862d-2e9e9769487b","system_id":"levelo_inurba_marseille","lat":43.33028,"lon":5.39052,"is_reserved":false,"is_disabled":false,"rental_uris":{"android":"levelo://app?vid=010f156a-a502-440a-862d-2e9e9769487b","ios":"levelo://app?vid=010f156a-a502-440a-862d-2e9e9769487b"},"vehicle_type_id":"4","last_reported":1744201181,"current_range_meters":22000,"station_id":"ce4bhr92rcd13ifvqhrg","pricing_plan_id":"cebpf4jnsgd1na2vs0mg"},{"bike_id":"794cfea5-2a58-4c44-856b-f6df08449153","system_id":"levelo_inurba_marseille","lat":43.30539,"lon":5.36706,"is_reserved":false,"is_disabled":false,"rental_uris":{"android":"levelo://app?vid=794cfea5-2a58-4c44-856b-f6df08449153","ios":"levelo://app?vid=794cfea5-2a58-4c44-856b-f6df08449153"},"vehicle_type_id":"4","last_reported":1744201181,"current_range_meters":22000,"station_id":"ce4bgrp2rcd13ifvqc9g","pricing_plan_id":"cebpf4jnsgd1na2vs0mg"},{"bike_id":"f9fde33d-3e05-4f24-9670-2ad2d1cacdc1","system_id":"levelo_inurba_marseille","lat":43.288339,"lon":5.372914,"is_reserved":false,"is_disabled":false,"rental_uris":{"android":"levelo://app?vid=f9fde33d-3e05-4f24-9670-2ad2d1cacdc1","ios":"levelo://app?vid=f9fde33d-3e05-4f24-9670-2ad2d1cacdc1"},"vehicle_type_id":"4","last_reported":1744201181,"current_range_meters":22000,"station_id":"","pricing_plan_id":"cebpf4jnsgd1na2vs0mg"},{"bike_id":"b344cbaf-0301-4e88-ae00-871328120183","system_id":"levelo_inurba_marseille","lat":43.33721,"lon":5.39194,"is_reserved":false,"is_disabled":false,"rental_uris":{"android":"levelo://app?vid=b344cbaf-0301-4e88-ae00-871328120183","ios":"levelo://app?vid=b344cbaf-0301-4e88-ae00-871328120183"},"vehicle_type_id":"4","last_reported":1744201181,"current_range_meters":22400,"station_id":"ce4bhr92rcd13ifvqhsg","pricing_plan_id":"cebpf4jnsgd1na2vs0mg"},{"bike_id":"593cc697-220e-4df3-9f2b-b1793070fa32","system_id":"levelo_inurba_marseille","lat":43.30525,"lon":5.3651,"is_reserved":false,"is_disabled":true,"rental_uris":{"android":"levelo://app?vid=593cc697-220e-4df3-9f2b-b1793070fa32","ios":"levelo://app?vid=593cc697-220e-4df3-9f2b-b1793070fa32"},"vehicle_type_id":"4","last_reported":1744201181,"current_range_meters":22400,"station_id":"ce4bgs12rcd13ifvqcag","pricing_plan_id":"cebpf4jnsgd1na2vs0mg"},{"bike_id":"248e6f2f-2e1e-4e0a-bdb3-badd9dc01398","system_id":"levelo_inurba_marseille","lat":43.28036,"lon":5.40898,"is_reserved":false,"is_disabled":false,"rental_uris":{"android":"levelo://app?vid=248e6f2f-2e1e-4e0a-bdb3-badd9dc01398","ios":"levelo://app?vid=248e6f2f-2e1e-4e0a-bdb3-badd9dc01398"},"vehicle_type_id":"4","last_reported":1744201181,"current_range_meters":22400,"station_id":"","pricing_plan_id":"cebpf4jnsgd1na2vs0mg"},{"bike_id":"4a8aed5c-1249-47a7-98ee-d6a6e4329d40","system_id":"levelo_inurba_marseille","lat":43.31523,"lon":5.38043,"is_reserved":false,"is_disabled":false,"rental_uris":{"android":"levelo://app?vid=4a8aed5c-1249-47a7-98ee-d6a6e4329d40","ios":"levelo://app?vid=4a8aed5c-1249-47a7-98ee-d6a6e4329d40"},"vehicle_type_id":"4","last_reported":1744201181,"current_range_meters":22400,"station_id":"ce4bhsp2rcd13ifvqi50","pricing_plan_id":"cebpf4jnsgd1na2vs0mg"},{"bike_id":"ef9d3643-c0f3-4ac3-a8af-62d494ce2353","system_id":"levelo_inurba_marseille","lat":43.28407,"lon":5.37537,"is_reserved":false,"is_disabled":false,"rental_uris":{"android":"levelo://app?vid=ef9d3643-c0f3-4ac3-a8af-62d494ce2353","ios":"levelo://app?vid=ef9d3643-c0f3-4ac3-a8af-62d494ce2353"},"vehicle_type_id":"4","last_reported":1744201181,"current_range_meters":22400,"station_id":"ce4bh412rcd13ifvqds0","pricing_plan_id":"cebpf4jnsgd1na2vs0mg"},{"bike_id":"eab6cbfa-cb8e-47d7-b0d6-226ab7facec7","system_id":"levelo_inurba_marseille","lat":43.31715,"lon":5.4243,"is_reserved":false,"is_disabled":true,"rental_uris":{"android":"levelo://app?vid=eab6cbfa-cb8e-47d7-b0d6-226ab7facec7","ios":"levelo://app?vid=eab6cbfa-cb8e-47d7-b0d6-226ab7facec7"},"vehicle_type_id":"4","last_reported":1744201181,"current_range_meters":22400,"station_id":"ce4bhp92rcd13ifvqhbg","pricing_plan_id":"cebpf4jnsgd1na2vs0mg"},{"bike_id":"50deb72e-5960-4e77-b6ad-907fdfa7b57d","system_id":"levelo_inurba_marseille","lat":43.29591,"lon":5.37504,"is_reserved":false,"is_disabled":true,"rental_uris":{"android":"levelo://app?vid=50deb72e-5960-4e77-b6ad-907fdfa7b57d","ios":"levelo://app?vid=50deb72e-5960-4e77-b6ad-907fdfa7b57d"},"vehicle_type_id":"4","last_reported":1744201181,"current_range_meters":22400,"station_id":"ce4bgh92rcd13ifvqb50","pricing_plan_id":"cebpf4jnsgd1na2vs0mg"},{"bike_id":"32347e01-e11f-4a07-8ccd-ff406087a28f","system_id":"levelo_inurba_marseille","lat":43.31225,"lon":5.36874,"is_reserved":false,"is_disabled":false,"rental_uris":{"android":"levelo://app?vid=32347e01-e11f-4a07-8ccd-ff406087a28f","ios":"levelo://app?vid=32347e01-e11f-4a07-8ccd-ff406087a28f"},"vehicle_type_id":"4","last_reported":1744201181,"current_range_meters":22800,"station_id":"ce4bgl92rcd13ifvqbq0","pricing_plan_id":"cebpf4jnsgd1na2vs0mg"},{"bike_id":"73cd0a4b-d54a-4404-8b49-9df597ee7cf9","system_id":"levelo_inurba_marseille","lat":43.28106,"lon":5.37839,"is_reserved":false,"is_disabled":false,"rental_uris":{"android":"levelo://app?vid=73cd0a4b-d54a-4404-8b49-9df597ee7cf9","ios":"levelo://app?vid=73cd0a4b-d54a-4404-8b49-9df597ee7cf9"},"vehicle_type_id":"4","last_reported":1744201181,"current_range_meters":21600,"station_id":"ce4bha12rcd13ifvqee0","pricing_plan_id":"cebpf4jnsgd1na2vs0mg"},{"bike_id":"509b175b-3c7c-49aa-9e2c-ce922a8006af","system_id":"levelo_inurba_marseille","lat":43.23149,"lon":5.43721,"is_reserved":false,"is_disabled":false,"rental_uris":{"android":"levelo://app?vid=509b175b-3c7c-49aa-9e2c-ce922a8006af","ios":"levelo://app?vid=509b175b-3c7c-49aa-9e2c-ce922a8006af"},"vehicle_type_id":"4","last_reported":1744201181,"current_range_meters":22800,"station_id":"ce4bhmp2rcd13ifvqgog","pricing_plan_id":"cebpf4jnsgd1na2vs0mg"},{"bike_id":"c273339f-78d4-48e3-a67c-cacba19e6dc6","system_id":"levelo_inurba_marseille","lat":43.2902,"lon":5.3813,"is_reserved":false,"is_disabled":false,"rental_uris":{"android":"levelo://app?vid=c273339f-78d4-48e3-a67c-cacba19e6dc6","ios":"levelo://app?vid=c273339f-78d4-48e3-a67c-cacba19e6dc6"},"vehicle_type_id":"4","last_reported":1744201181,"current_range_meters":22800,"station_id":"ce4bh4p2rcd13ifvqe1g","pricing_plan_id":"cebpf4jnsgd1na2vs0mg"},{"bike_id":"afd1abd6-c2ec-4647-9eac-bd4a0262943c","system_id":"levelo_inurba_marseille","lat":43.30166,"lon":5.38081,"is_reserved":false,"is_disabled":false,"rental_uris":{"android":"levelo://app?vid=afd1abd6-c2ec-4647-9eac-bd4a0262943c","ios":"levelo://app?vid=afd1abd6-c2ec-4647-9eac-bd4a0262943c"},"vehicle_type_id":"4","last_reported":1744201181,"current_range_meters":22400,"station_id":"ce4bgjp2rcd13ifvqbh0","pricing_plan_id":"cebpf4jnsgd1na2vs0mg"},{"bike_id":"854a1a14-baa1-4eaa-af54-d17012f8184c","system_id":"levelo_inurba_marseille","lat":43.26198,"lon":5.37453,"is_reserved":false,"is_disabled":false,"rental_uris":{"android":"levelo://app?vid=854a1a14-baa1-4eaa-af54-d17012f8184c","ios":"levelo://app?vid=854a1a14-baa1-4eaa-af54-d17012f8184c"},"vehicle_type_id":"4","last_reported":1744201181,"current_range_meters":22800,"station_id":"ce4bhgp2rcd13ifvqfc0","pricing_plan_id":"cebpf4jnsgd1na2vs0mg"},{"bike_id":"7f2bb863-9cb5-4ee1-bb56-707d3def9649","system_id":"levelo_inurba_marseille","lat":43.30148,"lon":5.37415,"is_reserved":false,"is_disabled":false,"rental_uris":{"android":"levelo://app?vid=7f2bb863-9cb5-4ee1-bb56-707d3def9649","ios":"levelo://app?vid=7f2bb863-9cb5-4ee1-bb56-707d3def9649"},"vehicle_type_id":"4","last_reported":1744201181,"current_range_meters":22800,"station_id":"ce4bgs92rcd13ifvqcc0","pricing_plan_id":"cebpf4jnsgd1na2vs0mg"},{"bike_id":"86c09796-436c-4277-9510-d181add87a25","system_id":"levelo_inurba_marseille","lat":43.31237,"lon":5.36874,"is_reserved":false,"is_disabled":false,"rental_uris":{"android":"levelo://app?vid=86c09796-436c-4277-9510-d181add87a25","ios":"levelo://app?vid=86c09796-436c-4277-9510-d181add87a25"},"vehicle_type_id":"4","last_reported":1744201181,"current_range_meters":23200,"station_id":"ce4bgl92rcd13ifvqbq0","pricing_plan_id":"cebpf4jnsgd1na2vs0mg"},{"bike_id":"23718e9a-5ce7-4d28-99a5-8f754f56e13c","system_id":"levelo_inurba_marseille","lat":43.22501,"lon":5.34782,"is_reserved":false,"is_disabled":false,"rental_uris":{"android":"levelo://app?vid=23718e9a-5ce7-4d28-99a5-8f754f56e13c","ios":"levelo://app?vid=23718e9a-5ce7-4d28-99a5-8f754f56e13c"},"vehicle_type_id":"4","last_reported":1744201181,"current_range_meters":23200,"station_id":"","pricing_plan_id":"cebpf4jnsgd1na2vs0mg"},{"bike_id":"657c0688-0771-4836-a814-8fdc07b2541b","system_id":"levelo_inurba_marseille","lat":43.32479,"lon":5.36589,"is_reserved":false,"is_disabled":false,"rental_uris":{"android":"levelo://app?vid=657c0688-0771-4836-a814-8fdc07b2541b","ios":"levelo://app?vid=657c0688-0771-4836-a814-8fdc07b2541b"},"vehicle_type_id":"4","last_reported":1744201181,"current_range_meters":23200,"station_id":"ce4bhs12rcd13ifvqhvg","pricing_plan_id":"cebpf4jnsgd1na2vs0mg"},{"bike_id":"eaf68990-d336-4b74-a4f5-6fb02fbb8de9","system_id":"levelo_inurba_marseille","lat":43.301529,"lon":5.400693,"is_reserved":false,"is_disabled":false,"rental_uris":{"android":"levelo://app?vid=eaf68990-d336-4b74-a4f5-6fb02fbb8de9","ios":"levelo://app?vid=eaf68990-d336-4b74-a4f5-6fb02fbb8de9"},"vehicle_type_id":"4","last_reported":1744201181,"current_range_meters":23200,"station_id":"ce4bgvh2rcd13ifvqcs0","pricing_plan_id":"cebpf4jnsgd1na2vs0mg"},{"bike_id":"37317d55-ce0c-4d6d-aa90-5ae66d07dc02","system_id":"levelo_inurba_marseille","lat":43.27807,"lon":5.40716,"is_reserved":false,"is_disabled":false,"rental_uris":{"android":"levelo://app?vid=37317d55-ce0c-4d6d-aa90-5ae66d07dc02","ios":"levelo://app?vid=37317d55-ce0c-4d6d-aa90-5ae66d07dc02"},"vehicle_type_id":"4","last_reported":1744201181,"current_range_meters":23200,"station_id":"ce4bhnh2rcd13ifvqgtg","pricing_plan_id":"cebpf4jnsgd1na2vs0mg"},{"bike_id":"1d81f59d-e09e-4c72-8595-786f6966c8d0","system_id":"levelo_inurba_marseille","lat":43.29607,"lon":5.37747,"is_reserved":false,"is_disabled":true,"rental_uris":{"android":"levelo://app?vid=1d81f59d-e09e-4c72-8595-786f6966c8d0","ios":"levelo://app?vid=1d81f59d-e09e-4c72-8595-786f6966c8d0"},"vehicle_type_id":"4","last_reported":1744201181,"current_range_meters":23200,"station_id":"ce4bgi92rcd13ifvqb90","pricing_plan_id":"cebpf4jnsgd1na2vs0mg"},{"bike_id":"4ab35f81-366f-41f9-ba2c-11dd871573f7","system_id":"levelo_inurba_marseille","lat":43.27979,"lon":5.38752,"is_reserved":false,"is_disabled":false,"rental_uris":{"android":"levelo://app?vid=4ab35f81-366f-41f9-ba2c-11dd871573f7","ios":"levelo://app?vid=4ab35f81-366f-41f9-ba2c-11dd871573f7"},"vehicle_type_id":"4","last_reported":1744201181,"current_range_meters":23200,"station_id":"ce4bhg12rcd13ifvqf80","pricing_plan_id":"cebpf4jnsgd1na2vs0mg"},{"bike_id":"9bdc3a3a-86e7-4637-aab6-1a12056042ae","system_id":"levelo_inurba_marseille","lat":43.29609,"lon":5.38104,"is_reserved":false,"is_disabled":false,"rental_uris":{"android":"levelo://app?vid=9bdc3a3a-86e7-4637-aab6-1a12056042ae","ios":"levelo://app?vid=9bdc3a3a-86e7-4637-aab6-1a12056042ae"},"vehicle_type_id":"4","last_reported":1744201181,"current_range_meters":23200,"station_id":"ce4bgl12rcd13ifvqbo0","pricing_plan_id":"cebpf4jnsgd1na2vs0mg"},{"bike_id":"28e3645d-aabb-4335-907e-e39d07228180","system_id":"levelo_inurba_marseille","lat":43.31729,"lon":5.42435,"is_reserved":false,"is_disabled":false,"rental_uris":{"android":"levelo://app?vid=28e3645d-aabb-4335-907e-e39d07228180","ios":"levelo://app?vid=28e3645d-aabb-4335-907e-e39d07228180"},"vehicle_type_id":"4","last_reported":1744201181,"current_range_meters":23200,"station_id":"ce4bhp92rcd13ifvqhbg","pricing_plan_id":"cebpf4jnsgd1na2vs0mg"},