{"last_updated":1725203257,"ttl":30,"version":"2.2","data":{"bikes":[{"bike_id":"bf0eb825-9e5a-4925-900c-93094593d04a","system_id":"levelo_inurba_marseille","lat":43.312239,"lon":5.368562,"is_reserved":false,"is_disabled":false,"rental_uris":{"android":"levelo://app?vid=bf0eb825-9e5a-4925-900c-93094593d04a","ios":"levelo://app?vid=bf0eb825-9e5a-4925-900c-93094593d04a"},"vehicle_type_id":"4","last_reported":1725203257,"current_range_meters":0,"station_id":"ce4bgl92rcd13ifvqbq0","pricing_plan_id":"cebpf4jnsgd1na2vs0mg"},{"bike_id":"3c84a8e3-9707-476e-9dac-fd091bbdaf4d","system_id":"levelo_inurba_marseille","lat":43.31223,"lon":5.36851,"is_reserved":false,"is_disabled":false,"rental_uris":{"android":"levelo://app?vid=3c84a8e3-9707-476e-9dac-fd091bbdaf4d","ios":"levelo://app?vid=3c84a8e3-9707-476e-9dac-fd091bbdaf4d"},"vehicle_type_id":"4","last_reported":1725203257,"current_range_meters":0,"station_id":"ce4bgl92rcd13ifvqbq0","pricing_plan_id":"cebpf4jnsgd1na2vs0mg"},{"bike_id":"d9050b05-c852-4191-b626-fd3ea1a7c028","system_id":"levelo_inurba_marseille","lat":43.30818,"lon":5.373387,"is_reserved":false,"is_disabled":false,"rental_uris":{"android":"levelo://app?vid=d9050b05-c852-4191-b626-fd3ea1a7c028","ios":"levelo://app?vid=d9050b05-c852-4191-b626-fd3ea1a7c028"},"vehicle_type_id":"4","last_reported":1725203257,"current_range_meters":0,"station_id":"","pricing_plan_id":"cebpf4jnsgd1na2vs0mg"},{"bike_id":"76233af6-e182-44b3-b92a-2919a0d517da","system_id":"levelo_inurba_marseille","lat":43.31803,"lon":5.37337,"is_reserved":false,"is_disabled":false,"rental_uris":{"android":"levelo://app?vid=76233af6-e182-44b3-b92a-2919a0d517da","ios":"levelo://app?vid=76233af6-e182-44b3-b92a-2919a0d517da"},"vehicle_type_id":"4","last_reported":1725203257,"current_range_meters":8800,"station_id":"","pricing_plan_id":"cebpf4jnsgd1na2vs0mg"},{"bike_id":"78b00ef8-e292-4f16-996a-6960969f3336","system_id":"levelo_inurba_marseille","lat":43.30537,"lon":5.367345,"is_reserved":false,"is_disabled":false,"rental_uris":{"android":"levelo://app?vid=78b00ef8-e292-4f16-996a-6960969f3336","ios":"levelo://app?vid=78b00ef8-e292-4f16-996a-6960969f3336"},"vehicle_type_id":"4","last_reported":1725203257,"current_range_meters":0,"station_id":"ce4bgrp2rcd13ifvqc9g","pricing_plan_id":"cebpf4jnsgd1na2vs0mg"},{"bike_id":"aa038c47-f36e-4e1c-9dcb-cd3e2085bfe1","system_id":"levelo_inurba_marseille","lat":43.311818,"lon":5.377191,"is_reserved":false,"is_disabled":false,"rental_uris":{"android":"levelo://app?vid=aa038c47-f36e-4e1c-9dcb-cd3e2085bfe1","ios":"levelo://app?vid=aa038c47-f36e-4e1c-9dcb-cd3e2085bfe1"},"vehicle_type_id":"4","last_reported":1725203257,"current_range_meters":26800,"station_id":"","pricing_plan_id":"cebpf4jnsgd1na2vs0mg"},{"bike_id":"a7dee1c1-2434-4be9-becc-de32d849fb40","system_id":"levelo_inurba_marseille","lat":43.305989,"lon":5.37225,"is_reserved":false,"is_disabled":false,"rental_uris":{"android":"levelo://app?vid=a7dee1c1-2434-4be9-becc-de32d849fb40","ios":"levelo://app?vid=a7dee1c1-2434-4be9-becc-de32d849fb40"},"vehicle_type_id":"4","last_reported":1725203257,"current_range_meters":18400,"station_id":"ce4bgqh2rcd13ifvqc4g","pricing_plan_id":"cebpf4jnsgd1na2vs0mg"},{"bike_id":"6c06f2ba-c7a5-4429-95cc-ec3f562d4be4","system_id":"levelo_inurba_marseille","lat":43.311125,"lon":5.377624,"is_reserved":false,"is_disabled":false,"rental_uris":{"android":"levelo://app?vid=6c06f2ba-c7a5-4429-95cc-ec3f562d4be4","ios":"levelo://app?vid=6c06f2ba-c7a5-4429-95cc-ec3f562d4be4"},"vehicle_type_id":"4","last_reported":1725203257,"current_range_meters":25200,"station_id":"ce4bgt92rcd13ifvqcg0","pricing_plan_id":"cebpf4jnsgd1na2vs0mg"},{"bike_id":"989e61eb-f27d-4561-8def-178d16d4cfa1","system_id":"levelo_inurba_marseille","lat":43.307945,"lon":5.376487,"is_reserved":false,"is_disabled":false,"rental_uris":{"android":"levelo://app?vid=989e61eb-f27d-4561-8def-178d16d4cfa1","ios":"levelo://app?vid=989e61eb-f27d-4561-8def-178d16d4cfa1"},"vehicle_type_id":"4","last_reported":1725203257,"current_range_meters":28400,"station_id":"ce4bgv92rcd13ifvqcq0","pricing_plan_id":"cebpf4jnsgd1na2vs0mg"},{"bike_id":"7b8c7094-b75e-424e-8b70-629cf79aab09","system_id":"levelo_inurba_marseille","lat":43.317075,"lon":5.377367,"is_reserved":false,"is_disabled":false,"rental_uris":{"android":"levelo://app?vid=7b8c7094-b75e-424e-8b70-629cf79aab09","ios":"levelo://app?vid=7b8c7094-b75e-424e-8b70-629cf79aab09"},"vehicle_type_id":"4","last_reported":1725203257,"current_range_meters":5200,"station_id":"ce4bgth2rcd13ifvqch0","pricing_plan_id":"cebpf4jnsgd1na2vs0mg"},{"bike_id":"33b11c2b-a9cb-406a-9399-9649c3adf759","system_id":"levelo_inurba_marseille","lat":43.313001,"lon":5.379654,"is_reserved":false,"is_disabled":false,"rental_uris":{"android":"levelo://app?vid=33b11c2b-a9cb-406a-9399-9649c3adf759","ios":"levelo://app?vid=33b11c2b-a9cb-406a-9399-9649c3adf759"},"vehicle_type_id":"4","last_reported":1725203257,"current_range_meters":1200,"station_id":"","pricing_plan_id":"cebpf4jnsgd1na2vs0mg"},{"bike_id":"d7067e4c-db75-43a5-a823-b22ae18f0ea8","system_id":"levelo_inurba_marseille","lat":43.31399,"lon":5.38072,"is_reserved":false,"is_disabled":false,"rental_uris":{"android":"levelo://app?vid=d7067e4c-db75-43a5-a823-b22ae18f0ea8","ios":"levelo://app?vid=d7067e4c-db75-43a5-a823-b22ae18f0ea8"},"vehicle_type_id":"4","last_reported":1725203257,"current_range_meters":2400,"station_id":"","pricing_plan_id":"cebpf4jnsgd1na2vs0mg"},{"bike_id":"aaa4d625-1bbf-4b3c-9e16-f9b9d23dc7ad","system_id":"levelo_inurba_marseille","lat":43.3102,"lon":5.38068,"is_reserved":false,"is_disabled":false,"rental_uris":{"android":"levelo://app?vid=aaa4d625-1bbf-4b3c-9e16-f9b9d23dc7ad","ios":"levelo://app?vid=aaa4d625-1bbf-4b3c-9e16-f9b9d23dc7ad"},"vehicle_type_id":"4","last_reported":1725203257,"current_range_meters":5600,"station_id":"","pricing_plan_id":"cebpf4jnsgd1na2vs0mg"},{"bike_id":"c27ca5dc-427d-4d5b-9b60-948e14062a37","system_id":"levelo_inurba_marseille","lat":43.304606,"lon":5.379026,"is_reserved":false,"is_disabled":false,"rental_uris":{"android":"levelo://app?vid=c27ca5dc-427d-4d5b-9b60-948e14062a37","ios":"levelo://app?vid=c27ca5dc-427d-4d5b-9b60-948e14062a37"},"vehicle_type_id":"4","last_reported":1725203257,"current_range_meters":5200,"station_id":"ce4bgup2rcd13ifvqcn0","pricing_plan_id":"cebpf4jnsgd1na2vs0mg"},{"bike_id":"b2a5e681-d0a1-439d-acd2-52538d9d7746","system_id":"levelo_inurba_marseille","lat":43.324751,"lon":5.365741,"is_reserved":false,"is_disabled":false,"rental_uris":{"android":"levelo://app?vid=b2a5e681-d0a1-439d-acd2-52538d9d7746","ios":"levelo://app?vid=b2a5e681-d0a1-439d-acd2-52538d9d7746"},"vehicle_type_id":"4","last_reported":1725203257,"current_range_meters":31200,"station_id":"ce4bhs12rcd13ifvqhvg","pricing_plan_id":"cebpf4jnsgd1na2vs0mg"},{"bike_id":"7ba0aeb8-fb4c-4c4c-8e31-f158e2760e73","system_id":"levelo_inurba_marseille","lat":43.324758,"lon":5.365656,"is_reserved":false,"is_disabled":false,"rental_uris":{"android":"levelo://app?vid=7ba0aeb8-fb4c-4c4c-8e31-f158e2760e73","ios":"levelo://app?vid=7ba0aeb8-fb4c-4c4c-8e31-f158e2760e73"},"vehicle_type_id":"4","last_reported":1725203257,"current_range_meters":30800,"station_id":"ce4bhs12rcd13ifvqhvg","pricing_plan_id":"cebpf4jnsgd1na2vs0mg"},{"bike_id":"45951aa9-c80a-4f3f-a550-3f6874011a98","system_id":"levelo_inurba_marseille","lat":43.32476,"lon":5.3655,"is_reserved":false,"is_disabled":false,"rental_uris":{"android":"levelo://app?vid=45951aa9-c80a-4f3f-a550-3f6874011a98","ios":"levelo://app?vid=45951aa9-c80a-4f3f-a550-3f6874011a98"},"vehicle_type_id":"4","last_reported":1725203257,"current_range_meters":30800,"station_id":"ce4bhs12rcd13ifvqhvg","pricing_plan_id":"cebpf4jnsgd1na2vs0mg"},{"bike_id":"2b673554-7a0b-4079-a76f-341b000cbbf7","system_id":"levelo_inurba_marseille","lat":43.324771,"lon":5.36557,"is_reserved":false,"is_disabled":false,"rental_uris":{"android":"levelo://app?vid=2b673554-7a0b-4079-a76f-341b000cbbf7","ios":"levelo://app?vid=2b673554-7a0b-4079-a76f-341b000cbbf7"},"vehicle_type_id":"4","last_reported":1725203257,"current_range_meters":12000,"station_id":"ce4bhs12rcd13ifvqhvg","pricing_plan_id":"cebpf4jnsgd1na2vs0mg"},{"bike_id":"6af7f3ef-8723-4ee2-84e1-3701cb7da3d6","system_id":"levelo_inurba_marseille","lat":43.324771,"lon":5.36557,"is_reserved":false,"is_disabled":false,"rental_uris":{"android":"levelo://app?vid=6af7f3ef-8723-4ee2-84e1-3701cb7da3d6","ios":"levelo://app?vid=6af7f3ef-8723-4ee2-84e1-3701cb7da3d6"},"vehicle_type_id":"4","last_reported":1725203257,"current_range_meters":5200,"station_id":"ce4bhs12rcd13ifvqhvg","pricing_plan_id":"cebpf4jnsgd1na2vs0mg"},{"bike_id":"ef16df85-db64-4676-9e98-bd047fd7279b","system_id":"levelo_inurba_marseille","lat":43.324771,"lon":5.36557,"is_reserved":false,"is_disabled":false,"rental_uris":{"android":"levelo://app?vid=ef16df85-db64-4676-9e98-bd047fd7279b","ios":"levelo://app?vid=ef16df85-db64-4676-9e98-bd047fd7279b"},"vehicle_type_id":"4","last_reported":1725203257,"current_range_meters":28800,"station_id":"ce4bhs12rcd13ifvqhvg","pricing_plan_id":"cebpf4jnsgd1na2vs0mg"},{"bike_id":"47d14908-e6d0-47fa-9b88-2c5170cfbeef","system_id":"levelo_inurba_marseille","lat":43.324771,"lon":5.36557,"is_reserved":false,"is_disabled":false,"rental_uris":{"android":"levelo://app?vid=47d14908-e6d0-47fa-9b88-2c5170cfbeef","ios":"levelo://app?vid=47d14908-e6d0-47fa-9b88-2c5170cfbeef"},"vehicle_type_id":"4","last_reported":1725203257,"current_range_meters":0,"station_id":"ce4bhs12rcd13ifvqhvg","pricing_plan_id":"cebpf4jnsgd1na2vs0mg"},{"bike_id":"98c995be-fba5-4dd4-9221-a490caaa1bac","system_id":"levelo_inurba_marseille","lat":43.324771,"lon":5.36557,"is_reserved":false,"is_disabled":false,"rental_uris":{"android":"levelo://app?vid=98c995be-fba5-4dd4-9221-a490caaa1bac","ios":"levelo://app?vid=98c995be-fba5-4dd4-9221-a490caaa1bac"},"vehicle_type_id":"4","last_reported":1725203257,"current_range_meters":19600,"station_id":"ce4bhs12rcd13ifvqhvg","pricing_plan_id":"cebpf4jnsgd1na2vs0mg"},{"bike_id":"f475aa61-8110-4c1d-b6a7-55b758572a78","system_id":"levelo_inurba_marseille","lat":43.324771,"lon":5.36557,"is_reserved":false,"is_disabled":false,"rental_uris":{"android":"levelo://app?vid=f475aa61-8110-4c1d-b6a7-55b758572a78","ios":"levelo://app?vid=f475aa61-8110-4c1d-b6a7-55b758572a78"},"vehicle_type_id":"4","last_reported":1725203257,"current_range_meters":30800,"station_id":"ce4bhs12rcd13ifvqhvg","pricing_plan_id":"cebpf4jnsgd1na2vs0mg"},{"bike_id":"9edd8359-dcb5-4c5e-9185-30e2ea5eed40","system_id":"levelo_inurba_marseille","lat":43.324771,"lon":5.36557,"is_reserved":false,"is_disabled":false,"rental_uris":{"android":"levelo://app?vid=9edd8359-dcb5-4c5e-9185-30e2ea5eed40","ios":"levelo://app?vid=9edd8359-dcb5-4c5e-9185-30e2ea5eed40"},"vehicle_type_id":"4","last_reported":1725203257,"current_range_meters":31600,"station_id":"ce4bhs12rcd13ifvqhvg","pricing_plan_id":"cebpf4jnsgd1na2vs0mg"},{"bike_id":"04e0b720-19dd-475f-88f3-c8d0230f6faf","system_id":"levelo_inurba_marseille","lat":43.324771,"lon":5.36557,"is_reserved":false,"is_disabled":false,"rental_uris":{"android":"levelo://app?vid=04e0b720-19dd-475f-88f3-c8d0230f6faf","ios":"levelo://app?vid=04e0b720-19dd-475f-88f3-c8d0230f6faf"},"vehicle_type_id":"4","last_reported":1725203257,"current_range_meters":23600,"station_id":"ce4bhs12rcd13ifvqhvg","pricing_plan_id":"cebpf4jnsgd1na2vs0mg"},{"bike_id":"6143079b-afea-4d43-aafe-e1ab1f1f90b6","system_id":"levelo_inurba_marseille","lat":43.324771,"lon":5.36557,"is_reserved":false,"is_disabled":false,"rental_uris":{"android":"levelo://app?vid=6143079b-afea-4d43-aafe-e1ab1f1f90b6","ios":"levelo://app?vid=6143079b-afea-4d43-aafe-e1ab1f1f90b6"},"vehicle_type_id":"4","last_reported":1725203257,"current_range_meters":31600,"station_id":"ce4bhs12rcd13ifvqhvg","pricing_plan_id":"cebpf4jnsgd1na2vs0mg"},{"bike_id":"0480a5f6-bb5a-4956-9b5d-9f74f7fcf669","system_id":"levelo_inurba_marseille","lat":43.324771,"lon":5.36557,"is_reserved":false,"is_disabled":false,"rental_uris":{"android":"levelo://app?vid=0480a5f6-bb5a-4956-9b5d-9f74f7fcf669","ios":"levelo://app?vid=0480a5f6-bb5a-4956-9b5d-9f74f7fcf669"},"vehicle_type_id":"4","last_reported":1725203257,"current_range_meters":31600,"station_id":"ce4bhs12rcd13ifvqhvg","pricing_plan_id":"cebpf4jnsgd1na2vs0mg"},{"bike_id":"8cea9de4-bb78-4538-aa86-d4b05c33d747","system_id":"levelo_inurba_marseille","lat":43.324771,"lon":5.36557,"is_reserved":false,"is_disabled":false,"rental_uris":{"android":"levelo://app?vid=8cea9de4-bb78-4538-aa86-d4b05c33d747","ios":"levelo://app?vid=8cea9de4-bb78-4538-aa86-d4b05c33d747"},"vehicle_type_id":"4","last_reported":1725203257,"current_range_meters":31600,"station_id":"ce4bhs12rcd13ifvqhvg","pricing_plan_id":"cebpf4jnsgd1na2vs0mg"},{"bike_id":"765601ca-b225-4ac3-93dd-00c4f608c595","system_id":"levelo_inurba_marseille","lat":43.310804,"lon":5.38359,"is_reserved":false,"is_disabled":false,"rental_uris":{"android":"levelo://app?vid=765601ca-b225-4ac3-93dd-00c4f608c595","ios":"levelo://app?vid=765601ca-b225-4ac3-93dd-00c4f608c595"},"vehicle_type_id":"4","last_reported":1725203257,"current_range_meters":22800,"station_id":"ce4bgv92rcd13ifvqcr0","pricing_plan_id":"cebpf4jnsgd1na2vs0mg"},{"bike_id":"154225f2-31ad-469f-851e-2895fbca579f","system_id":"levelo_inurba_marseille","lat":43.324771,"lon":5.36557,"is_reserved":false,"is_disabled":false,"rental_uris":{"android":"levelo://app?vid=154225f2-31ad-469f-851e-2895fbca579f","ios":"levelo://app?vid=154225f2-31ad-469f-851e-2895fbca579f"},"vehicle_type_id":"4","last_reported":1725203257,"current_range_meters":6400,"station_id":"ce4bhs12rcd13ifvqhvg","pricing_plan_id":"cebpf4jnsgd1na2vs0mg"},{"bike_id":"b5084cdd-7276-4d0d-b6da-02f9e4026b6d","system_id":"levelo_inurba_marseille","lat":43.302784,"lon":5.377158,"is_reserved":false,"is_disabled":false,"rental_uris":{"android":"levelo://app?vid=b5084cdd-7276-4d0d-b6da-02f9e4026b6d","ios":"levelo://app?vid=b5084cdd-7276-4d0d-b6da-02f9e4026b6d"},"vehicle_type_id":"4","last_reported":1725203257,"current_range_meters":14000,"station_id":"ce4bguh2rcd13ifvqcj0","pricing_plan_id":"cebpf4jnsgd1na2vs0mg"},{"bike_id":"abb4f602-2fda-4582-ba75-c86497e58a8a","system_id":"levelo_inurba_marseille","lat":43.30149,"lon":5.37403,"is_reserved":false,"is_disabled":false,"rental_uris":{"android":"levelo://app?vid=abb4f602-2fda-4582-ba75-c86497e58a8a","ios":"levelo://app?vid=abb4f602-2fda-4582-ba75-c86497e58a8a"},"vehicle_type_id":"4","last_reported":1725203257,"current_range_meters":31600,"station_id":"ce4bgs92rcd13ifvqcc0","pricing_plan_id":"cebpf4jnsgd1na2vs0mg"},{"bike_id":"def3d31c-f3dd-4937-967c-90dd741ddf90","system_id":"levelo_inurba_marseille","lat":43.30143,"lon":5.37413,"is_reserved":false,"is_disabled":false,"rental_uris":{"android":"levelo://app?vid=def3d31c-f3dd-4937-967c-90dd741ddf90","ios":"levelo://app?vid=def3d31c-f3dd-4937-967c-90dd741ddf90"},"vehicle_type_id":"4","last_reported":1725203257,"current_range_meters":6800,"station_id":"ce4bgs92rcd13ifvqcc0","pricing_plan_id":"cebpf4jnsgd1na2vs0mg"},{"bike_id":"2b5c0767-43d3-4703-bf11-bd74f5d9958f","system_id":"levelo_inurba_marseille","lat":43.30143,"lon":5.37413,"is_reserved":false,"is_disabled":false,"rental_uris":{"android":"levelo://app?vid=2b5c0767-43d3-4703-bf11-bd74f5d9958f","ios":"levelo://app?vid=2b5c0767-43d3-4703-bf11-bd74f5d9958f"},"vehicle_type_id":"4","last_reported":1725203257,"current_range_meters":17200,"station_id":"ce4bgs92rcd13ifvqcc0","pricing_plan_id":"cebpf4jnsgd1na2vs0mg"},{"bike_id":"ff7c20da-fc8c-4d83-b10d-e60a779a22ff","system_id":"levelo_inurba_marseille","lat":43.301429,"lon":5.37413,"is_reserved":false,"is_disabled":false,"rental_uris":{"android":"levelo://app?vid=ff7c20da-fc8c-4d83-b10d-e60a779a22ff","ios":"levelo://app?vid=ff7c20da-fc8c-4d83-b10d-e60a779a22ff"},"vehicle_type_id":"4","last_reported":1725203257,"current_range_meters":31200,"station_id":"ce4bgs92rcd13ifvqcc0","pricing_plan_id":"cebpf4jnsgd1na2vs0mg"},{"bike_id":"04390a57-f891-4e5b-b9b2-d4c922e458ce","system_id":"levelo_inurba_marseille","lat":43.301429,"lon":5.37413,"is_reserved":false,"is_disabled":false,"rental_uris":{"android":"levelo://app?vid=04390a57-f891-4e5b-b9b2-d4c922e458ce","ios":"levelo://app?vid=04390a57-f891-4e5b-b9b2-d4c922e458ce"},"vehicle_type_id":"4","last_reported":1725203257,"current_range_meters":31200,"station_id":"ce4bgs92rcd13ifvqcc0","pricing_plan_id":"cebpf4jnsgd1na2vs0mg"},{"bike_id":"b1215516-0de0-47bc-bda3-e7bacbff6736","system_id":"levelo_inurba_marseille","lat":43.32043,"lon":5.38054,"is_reserved":false,"is_disabled":false,"rental_uris":{"android":"levelo://app?vid=b1215516-0de0-47bc-bda3-e7bacbff6736","ios":"levelo://app?vid=b1215516-0de0-47bc-bda3-e7bacbff6736"},"vehicle_type_id":"4","last_reported":1725203257,"current_range_meters":7200,"station_id":"","pricing_plan_id":"cebpf4jnsgd1na2vs0mg"},{"bike_id":"b6a24e06-b880-4e5a-a9f8-42cc168fff01","system_id":"levelo_inurba_marseille","lat":43.302784,"lon":5.377158,"is_reserved":false,"is_disabled":false,"rental_uris":{"android":"levelo://app?vid=b6a24e06-b880-4e5a-a9f8-42cc168fff01","ios":"levelo://app?vid=b6a24e06-b880-4e5a-a9f8-42cc168fff01"},"vehicle_type_id":"4","last_reported":1725203257,"current_range_meters":800,"station_id":"ce4bguh2rcd13ifvqcj0","pricing_plan_id":"cebpf4jnsgd1na2vs0mg"},{"bike_id":"6aab184f-46eb-486f-9c58-65373e7311db","system_id":"levelo_inurba_marseille","lat":43.31994,"lon":5.3815,"is_reserved":false,"is_disabled":false,"rental_uris":{"android":"levelo://app?vid=6aab184f-46eb-486f-9c58-65373e7311db","ios":"levelo://app?vid=6aab184f-46eb-486f-9c58-65373e7311db"},"vehicle_type_id":"4","last_reported":1725203257,"current_range_meters":8400,"station_id":"ce4bhr12rcd13ifvqhpg","pricing_plan_id":"cebpf4jnsgd1na2vs0mg"},{"bike_id":"4258d75b-f7e4-4456-acc4-541316166037","system_id":"levelo_inurba_marseille","lat":43.31992,"lon":5.38157,"is_reserved":false,"is_disabled":false,"rental_uris":{"android":"levelo://app?vid=4258d75b-f7e4-4456-acc4-541316166037","ios":"levelo://app?vid=4258d75b-f7e4-4456-acc4-541316166037"},"vehicle_type_id":"4","last_reported":1725203257,"current_range_meters":30000,"station_id":"ce4bhr12rcd13ifvqhpg","pricing_plan_id":"cebpf4jnsgd1na2vs0mg"},{"bike_id":"73a974ae-25f8-46e9-beb5-96da24b57175","system_id":"levelo_inurba_marseille","lat":43.31997,"lon":5.38153,"is_reserved":false,"is_disabled":false,"rental_uris":{"android":"levelo://app?vid=73a974ae-25f8-46e9-beb5-96da24b57175","ios":"levelo://app?vid=73a974ae-25f8-46e9-beb5-96da24b57175"},"vehicle_type_id":"4","last_reported":1725203257,"current_range_meters":14000,"station_id":"ce4bhr12rcd13ifvqhpg","pricing_plan_id":"cebpf4jnsgd1na2vs0mg"},{"bike_id":"80f56325-338d-4d14-b649-539b8cb47880","system_id":"levelo_inurba_marseille","lat":43.319935,"lon":5.381699,"is_reserved":false,"is_disabled":false,"rental_uris":{"android":"levelo://app?vid=80f56325-338d-4d14-b649-539b8cb47880","ios":"levelo://app?vid=80f56325-338d-4d14-b649-539b8cb47880"},"vehicle_type_id":"4","last_reported":1725203257,"current_range_meters":18800,"station_id":"ce4bhr12rcd13ifvqhpg","pricing_plan_id":"cebpf4jnsgd1na2vs0mg"},{"bike_id":"b26903cb-2e97-4306-870a-f6952ffe8e64","system_id":"levelo_inurba_marseille","lat":43.319935,"lon":5.381699,"is_reserved":false,"is_disabled":false,"rental_uris":{"android":"levelo://app?vid=b26903cb-2e97-4306-870a-f6952ffe8e64","ios":"levelo://app?vid=b26903cb-2e97-4306-870a-f6952ffe8e64"},"vehicle_type_id":"4","last_reported":1725203257,"current_range_meters":29200,"station_id":"ce4bhr12rcd13ifvqhpg","pricing_plan_id":"cebpf4jnsgd1na2vs0mg"},{"bike_id":"9356ce60-f63a-425b-9958-7336c0ee967f","system_id":"levelo_inurba_marseille","lat":43.319935,"lon":5.381699,"is_reserved":false,"is_disabled":false,"rental_uris":{"android":"levelo://app?vid=9356ce60-f63a-425b-9958-7336c0ee967f","ios":"levelo://app?vid=9356ce60-f63a-425b-9958-7336c0ee967f"},"vehicle_type_id":"4","last_reported":1725203257,"current_range_meters":6800,"station_id":"ce4bhr12rcd13ifvqhpg","pricing_plan_id":"cebpf4jnsgd1na2vs0mg"},{"bike_id":"7b0b10bb-b0cd-4320-b4c9-0ec2d1ca17b3","system_id":"levelo_inurba_marseille","lat":43.319935,"lon":5.381699,"is_reserved":false,"is_disabled":false,"rental_uris":{"android":"levelo://app?vid=7b0b10bb-b0cd-4320-b4c9-0ec2d1ca17b3","ios":"levelo://app?vid=7b0b10bb-b0cd-4320-b4c9-0ec2d1ca17b3"},"vehicle_type_id":"4","last_reported":1725203257,"current_range_meters":4400,"station_id":"ce4bhr12rcd13ifvqhpg","pricing_plan_id":"cebpf4jnsgd1na2vs0mg"},{"bike_id":"f127a65f-8fe9-4e60-bab9-646ebe94ae85","system_id":"levelo_inurba_marseille","lat":43.299724,"lon":5.371829,"is_reserved":false,"is_disabled":false,"rental_uris":{"android":"levelo://app?vid=f127a65f-8fe9-4e60-bab9-646ebe94ae85","ios":"levelo://app?vid=f127a65f-8fe9-4e60-bab9-646ebe94ae85"},"vehicle_type_id":"4","last_reported":1725203257,"current_range_meters":31200,"station_id":"ce4bgr92rcd13ifvqc7g","pricing_plan_id":"cebpf4jnsgd1na2vs0mg"},{"bike_id":"406d91bc-62be-49cc-8fa5-7a465dbb3cf2","system_id":"levelo_inurba_marseille","lat":43.298433,"lon":5.362774,"is_reserved":false,"is_disabled":false,"rental_uris":{"android":"levelo://app?vid=406d91bc-62be-49cc-8fa5-7a465dbb3cf2","ios":"levelo://app?vid=406d91bc-62be-49cc-8fa5-7a465dbb3cf2"},"vehicle_type_id":"4","last_reported":1725203257,"current_range_meters":17200,"station_id":"ce4bgpp2rcd13ifvqc3g","pricing_plan_id":"cebpf4jnsgd1na2vs0mg"},{"bike_id":"7227de42-f794-4f68-a81f-d5629dfc5839","system_id":"levelo_inurba_marseille","lat":43.305364,"lon":5.384119,"is_reserved":false,"is_disabled":false,"rental_uris":{"android":"levelo://app?vid=7227de42-f794-4f68-a81f-d5629dfc5839","ios":"levelo://app?vid=7227de42-f794-4f68-a81f-d5629dfc5839"},"vehicle_type_id":"4","last_reported":1725203257,"current_range_meters":0,"station_id":"ce4bgg92rcd13ifvqb30","pricing_plan_id":"cebpf4jnsgd1na2vs0mg"},{"bike_id":"1911dbb3-31e7-460b-b3e3-e2296791cd42","system_id":"levelo_inurba_marseille","lat":43.298433,"lon":5.362774,"is_reserved":false,"is_disabled":false,"rental_uris":{"android":"levelo://app?vid=1911dbb3-31e7-460b-b3e3-e2296791cd42","ios":"levelo://app?vid=1911dbb3-31e7-460b-b3e3-e2296791cd42"},"vehicle_type_id":"4","last_reported":1725203257,"current_range_meters":8400,"station_id":"ce4bgpp2rcd13ifvqc3g","pricing_plan_id":"cebpf4jnsgd1na2vs0mg"},{"bike_id":"3bd4e46e-b99d-4fdb-890b-04bde72b96f3","system_id":"levelo_inurba_marseille","lat":43.31179,"lon":5.387167,"is_reserved":false,"is_disabled":false,"rental_uris":{"android":"levelo://app?vid=3bd4e46e-b99d-4fdb-890b-04bde72b96f3","ios":"levelo://app?vid=3bd4e46e-b99d-4fdb-890b-04bde72b96f3"},"vehicle_type_id":"4","last_reported":1725203257,"current_range_meters":12800,"station_id":"ce4bgv12rcd13ifvqcp0","pricing_plan_id":"cebpf4jnsgd1na2vs0mg"},{"bike_id":"86e81182-a297-45da-b919-03dfeff9b75c","system_id":"levelo_inurba_marseille","lat":43.301417,"lon":5.3809,"is_reserved":false,"is_disabled":false,"rental_uris":{"android":"levelo://app?vid=86e81182-a297-45da-b919-03dfeff9b75c","ios":"levelo://app?vid=86e81182-a297-45da-b919-03dfeff9b75c"},"vehicle_type_id":"4","last_reported":1725203257,"current_range_meters":0,"station_id":"ce4bgjp2rcd13ifvqbh0","pricing_plan_id":"cebpf4jnsgd1na2vs0mg"},{"bike_id":"60d1d12f-47a5-4bcb-8aa0-d20f9a654294","system_id":"levelo_inurba_marseille","lat":43.29781,"lon":5.37102,"is_reserved":false,"is_disabled":false,"rental_uris":{"android":"levelo://app?vid=60d1d12f-47a5-4bcb-8aa0-d20f9a654294","ios":"levelo://app?vid=60d1d12f-47a5-4bcb-8aa0-d20f9a654294"},"vehicle_type_id":"4","last_reported":1725203257,"current_range_meters":15600,"station_id":"ce4bgop2rcd13ifvqc1g","pricing_plan_id":"cebpf4jnsgd1na2vs0mg"},{"bike_id":"32190657-d0f7-49e5-8191-b2db080b7008","system_id":"levelo_inurba_marseille","lat":43.32284,"lon":5.38263,"is_reserved":false,"is_disabled":false,"rental_uris":{"android":"levelo://app?vid=32190657-d0f7-49e5-8191-b2db080b7008","ios":"levelo://app?vid=32190657-d0f7-49e5-8191-b2db080b7008"},"vehicle_type_id":"4","last_reported":1725203257,"current_range_meters":30800,"station_id":"ce4bhr12rcd13ifvqhqg","pricing_plan_id":"cebpf4jnsgd1na2vs0mg"},{"bike_id":"c312ddc4-0cfd-47fa-8460-8260a3ea856a","system_id":"levelo_inurba_marseille","lat":43.322872,"lon":5.382756,"is_reserved":false,"is_disabled":false,"rental_uris":{"android":"levelo://app?vid=c312ddc4-0cfd-47fa-8460-8260a3ea856a","ios":"levelo://app?vid=c312ddc4-0cfd-47fa-8460-8260a3ea856a"},"vehicle_type_id":"4","last_reported":1725203257,"current_range_meters":27600,"station_id":"ce4bhr12rcd13ifvqhqg","pricing_plan_id":"cebpf4jnsgd1na2vs0mg"},{"bike_id":"82c01b15-b0a3-4c63-83ef-145aed4020a3","system_id":"levelo_inurba_marseille","lat":43.322872,"lon":5.382756,"is_reserved":false,"is_disabled":false,"rental_uris":{"android":"levelo://app?vid=82c01b15-b0a3-4c63-83ef-145aed4020a3","ios":"levelo://app?vid=82c01b15-b0a3-4c63-83ef-145aed4020a3"},"vehicle_type_id":"4","last_reported":1725203257,"current_range_meters":31600,"station_id":"ce4bhr12rcd13ifvqhqg","pricing_plan_id":"cebpf4jnsgd1na2vs0mg"},{"bike_id":"60ff3900-1cd1-4527-ae10-64555afa6b11","system_id":"levelo_inurba_marseille","lat":43.32294,"lon":5.38254,"is_reserved":false,"is_disabled":false,"rental_uris":{"android":"levelo://app?vid=60ff3900-1cd1-4527-ae10-64555afa6b11","ios":"levelo://app?vid=60ff3900-1cd1-4527-ae10-64555afa6b11"},"vehicle_type_id":"4","last_reported":1725203257,"current_range_meters":15200,"station_id":"ce4bhr12rcd13ifvqhqg","pricing_plan_id":"cebpf4jnsgd1na2vs0mg"},{"bike_id":"2463e7d4-72d6-4761-b747-38cd10164e72","system_id":"levelo_inurba_marseille","lat":43.322872,"lon":5.382756,"is_reserved":false,"is_disabled":false,"rental_uris":{"android":"levelo://app?vid=2463e7d4-72d6-4761-b747-38cd10164e72","ios":"levelo://app?vid=2463e7d4-72d6-4761-b747-38cd10164e72"},"vehicle_type_id":"4","last_reported":1725203257,"current_range_meters":31200,"station_id":"ce4bhr12rcd13ifvqhqg","pricing_plan_id":"cebpf4jnsgd1na2vs0mg"},{"bike_id":"792c177a-3b1d-44ab-ac67-21c25cf61192","system_id":"levelo_inurba_marseille","lat":43.322872,"lon":5.382756,"is_reserved":false,"is_disabled":false,"rental_uris":{"android":"levelo://app?vid=792c177a-3b1d-44ab-ac67-21c25cf61192","ios":"levelo://app?vid=792c177a-3b1d-44ab-ac67-21c25cf61192"},"vehicle_type_id":"4","last_reported":1725203257,"current_range_meters":17200,"station_id":"ce4bhr12rcd13ifvqhqg","pricing_plan_id":"cebpf4jnsgd1na2vs0mg"},{"bike_id":"3ff9b6aa-fbc6-41af-a736-fc98973eb296","system_id":"levelo_inurba_marseille","lat":43.322872,"lon":5.382756,"is_reserved":false,"is_disabled":false,"rental_uris":{"android":"levelo://app?vid=3ff9b6aa-fbc6-41af-a736-fc98973eb296","ios":"levelo://app?vid=3ff9b6aa-fbc6-41af-a736-fc98973eb296"},"vehicle_type_id":"4","last_reported":1725203257,"current_range_meters":30000,"station_id":"ce4bhr12rcd13ifvqhqg","pricing_plan_id":"cebpf4jnsgd1na2vs0mg"},{"bike_id":"8806060c-7e33-479b-ab24-207b24cc263b","system_id":"levelo_inurba_marseille","lat":43.297163,"lon":5.365866,"is_reserved":false,"is_disabled":false,"rental_uris":{"android":"levelo://app?vid=8806060c-7e33-479b-ab24-207b24cc263b","ios":"levelo://app?vid=8806060c-7e33-479b-ab24-207b24cc263b"},"vehicle_type_id":"4","last_reported":1725203257,"current_range_meters":23600,"station_id":"ce4bgn12rcd13ifvqbt0","pricing_plan_id":"cebpf4jnsgd1na2vs0mg"},{"bike_id":"a4c60d92-9857-4f19-9876-a30105ea9450","system_id":"levelo_inurba_marseille","lat":43.297163,"lon":5.365866,"is_reserved":false,"is_disabled":false,"rental_uris":{"android":"levelo://app?vid=a4c60d92-9857-4f19-9876-a30105ea9450","ios":"levelo://app?vid=a4c60d92-9857-4f19-9876-a30105ea9450"},"vehicle_type_id":"4","last_reported":1725203257,"current_range_meters":13200,"station_id":"ce4bgn12rcd13ifvqbt0","pricing_plan_id":"cebpf4jnsgd1na2vs0mg"},{"bike_id":"1061f36c-69d5-46ec-84f9-8a6e089dbff8","system_id":"levelo_inurba_marseille","lat":43.297163,"lon":5.365866,"is_reserved":false,"is_disabled":false,"rental_uris":{"android":"levelo://app?vid=1061f36c-69d5-46ec-84f9-8a6e089dbff8","ios":"levelo://app?vid=1061f36c-69d5-46ec-84f9-8a6e089dbff8"},"vehicle_type_id":"4","last_reported":1725203257,"current_range_meters":28400,"station_id":"ce4bgn12rcd13ifvqbt0","pricing_plan_id":"cebpf4jnsgd1na2vs0mg"},{"bike_id":"8e7b3c8d-f38a-4dd4-afee-ddee0992192c","system_id":"levelo_inurba_marseille","lat":43.29708,"lon":5.36614,"is_reserved":false,"is_disabled":false,"rental_uris":{"android":"levelo://app?vid=8e7b3c8d-f38a-4dd4-afee-ddee0992192c","ios":"levelo://app?vid=8e7b3c8d-f38a-4dd4-afee-ddee0992192c"},"vehicle_type_id":"4","last_reported":1725203257,"current_range_meters":4400,"station_id":"","pricing_plan_id":"cebpf4jnsgd1na2vs0mg"},{"bike_id":"1522edd8-76ad-4c1f-9f8c-bb421126755d","system_id":"levelo_inurba_marseille","lat":43.297163,"lon":5.365866,"is_reserved":false,"is_disabled":false,"rental_uris":{"android":"levelo://app?vid=1522edd8-76ad-4c1f-9f8c-bb421126755d","ios":"levelo://app?vid=1522edd8-76ad-4c1f-9f8c-bb421126755d"},"vehicle_type_id":"4","last_reported":1725203257,"current_range_meters":0,"station_id":"ce4bgn12rcd13ifvqbt0","pricing_plan_id":"cebpf4jnsgd1na2vs0mg"},{"bike_id":"cd0552da-0fcd-416d-956c-9ed0deb7618e","system_id":"levelo_inurba_marseille","lat":43.297163,"lon":5.365866,"is_reserved":false,"is_disabled":false,"rental_uris":{"android":"levelo://app?vid=cd0552da-0fcd-416d-956c-9ed0deb7618e","ios":"levelo://app?vid=cd0552da-0fcd-416d-956c-9ed0deb7618e"},"vehicle_type_id":"4","last_reported":1725203257,"current_range_meters":2400,"station_id":"ce4bgn12rcd13ifvqbt0","pricing_plan_id":"cebpf4jnsgd1na2vs0mg"},{"bike_id":"8c2ac34b-a8bc-4709-8492-f45f13a3bb58","system_id":"levelo_inurba_marseille","lat":43.297163,"lon":5.365866,"is_reserved":false,"is_disabled":false,"rental_uris":{"android":"levelo://app?vid=8c2ac34b-a8bc-4709-8492-f45f13a3bb58","ios":"levelo://app?vid=8c2ac34b-a8bc-4709-8492-f45f13a3bb58"},"vehicle_type_id":"4","last_reported":1725203257,"current_range_meters":8000,"station_id":"ce4bgn12rcd13ifvqbt0","pricing_plan_id":"cebpf4jnsgd1na2vs0mg"},{"bike_id":"53068abf-92b2-4464-a68b-c8fbfabbedc2","system_id":"levelo_inurba_marseille","lat":43.297163,"lon":5.365866,"is_reserved":false,"is_disabled":false,"rental_uris":{"android":"levelo://app?vid=53068abf-92b2-4464-a68b-c8fbfabbedc2","ios":"levelo://app?vid=53068abf-92b2-4464-a68b-c8fbfabbedc2"},"vehicle_type_id":"4","last_reported":1725203257,"current_range_meters":4800,"station_id":"ce4bgn12rcd13ifvqbt0","pricing_plan_id":"cebpf4jnsgd1na2vs0mg"},{"bike_id":"664309b0-836b-4925-9065-d678dac11778","system_id":"levelo_inurba_marseille","lat":43.29846,"lon":5.37664,"is_reserved":false,"is_disabled":false,"rental_uris":{"android":"levelo://app?vid=664309b0-836b-4925-9065-d678dac11778","ios":"levelo://app?vid=664309b0-836b-4925-9065-d678dac11778"},"vehicle_type_id":"4","last_reported":1725203257,"current_range_meters":20000,"station_id":"","pricing_plan_id":"cebpf4jnsgd1na2vs0mg"},{"bike_id":"8a8887de-5c7d-4b1c-91b2-78e9c920b48d","system_id":"levelo_inurba_marseille","lat":43.2968,"lon":5.37291,"is_reserved":false,"is_disabled":false,"rental_uris":{"android":"levelo://app?vid=8a8887de-5c7d-4b1c-91b2-78e9c920b48d","ios":"levelo://app?vid=8a8887de-5c7d-4b1c-91b2-78e9c920b48d"},"vehicle_type_id":"4","last_reported":1725203257,"current_range_meters":30800,"station_id":"ce4bgk12rcd13ifvqbj0","pricing_plan_id":"cebpf4jnsgd1na2vs0mg"},{"bike_id":"741c376e-8a26-4ca6-8178-e5891f58baa5","system_id":"levelo_inurba_marseille","lat":43.29589,"lon":5.36744,"is_reserved":false,"is_disabled":false,"rental_uris":{"android":"levelo://app?vid=741c376e-8a26-4ca6-8178-e5891f58baa5","ios":"levelo://app?vid=741c376e-8a26-4ca6-8178-e5891f58baa5"},"vehicle_type_id":"4","last_reported":1725203257,"current_range_meters":28000,"station_id":"ce4bgph2rcd13ifvqc2g","pricing_plan_id":"cebpf4jnsgd1na2vs0mg"},{"bike_id":"5c4f2da5-9311-47da-aeee-a97b2015b8bc","system_id":"levelo_inurba_marseille","lat":43.299028,"lon":5.381509,"is_reserved":false,"is_disabled":false,"rental_uris":{"android":"levelo://app?vid=5c4f2da5-9311-47da-aeee-a97b2015b8bc","ios":"levelo://app?vid=5c4f2da5-9311-47da-aeee-a97b2015b8bc"},"vehicle_type_id":"4","last_reported":1725203257,"current_range_meters":28000,"station_id":"ce4bgj12rcd13ifvqbc0","pricing_plan_id":"cebpf4jnsgd1na2vs0mg"},{"bike_id":"3575cc91-4449-4725-8cc1-20e8b3859ad2","system_id":"levelo_inurba_marseille","lat":43.299028,"lon":5.381509,"is_reserved":false,"is_disabled":false,"rental_uris":{"android":"levelo://app?vid=3575cc91-4449-4725-8cc1-20e8b3859ad2","ios":"levelo://app?vid=3575cc91-4449-4725-8cc1-20e8b3859ad2"},"vehicle_type_id":"4","last_reported":1725203257,"current_range_meters":19200,"station_id":"ce4bgj12rcd13ifvqbc0","pricing_plan_id":"cebpf4jnsgd1na2vs0mg"},{"bike_id":"e05f85fb-0b72-449e-b5b3-058a8e77c410","system_id":"levelo_inurba_marseille","lat":43.299028,"lon":5.381509,"is_reserved":false,"is_disabled":false,"rental_uris":{"android":"levelo://app?vid=e05f85fb-0b72-449e-b5b3-058a8e77c410","ios":"levelo://app?vid=e05f85fb-0b72-449e-b5b3-058a8e77c410"},"vehicle_type_id":"4","last_reported":1725203257,"current_range_meters":11600,"station_id":"ce4bgj12rcd13ifvqbc0","pricing_plan_id":"cebpf4jnsgd1na2vs0mg"},{"bike_id":"9c1a9a2f-947d-4bd6-8a20-b890ec5f7dca","system_id":"levelo_inurba_marseille","lat":43.309589,"lon":5.390258,"is_reserved":false,"is_disabled":false,"rental_uris":{"android":"levelo://app?vid=9c1a9a2f-947d-4bd6-8a20-b890ec5f7dca","ios":"levelo://app?vid=9c1a9a2f-947d-4bd6-8a20-b890ec5f7dca"},"vehicle_type_id":"4","last_reported":1725203257,"current_range_meters":0,"station_id":"ce4bgup2rcd13ifvqco0","pricing_plan_id":"cebpf4jnsgd1na2vs0mg"},{"bike_id":"21d0b93e-d2e7-44ad-ae1e-e59fde2fb868","system_id":"levelo_inurba_marseille","lat":43.317557,"lon":5.390173,"is_reserved":false,"is_disabled":false,"rental_uris":{"android":"levelo://app?vid=21d0b93e-d2e7-44ad-ae1e-e59fde2fb868","ios":"levelo://app?vid=21d0b93e-d2e7-44ad-ae1e-e59fde2fb868"},"vehicle_type_id":"4","last_reported":1725203257,"current_range_meters":32000,"station_id":"ce4bhqp2rcd13ifvqhng","pricing_plan_id":"cebpf4jnsgd1na2vs0mg"},{"bike_id":"eb8ff906-9191-4be8-97bd-2d1b738115ca","system_id":"levelo_inurba_marseille","lat":43.317557,"lon":5.390173,"is_reserved":false,"is_disabled":false,"rental_uris":{"android":"levelo://app?vid=eb8ff906-9191-4be8-97bd-2d1b738115ca","ios":"levelo://app?vid=eb8ff906-9191-4be8-97bd-2d1b738115ca"},"vehicle_type_id":"4","last_reported":1725203257,"current_range_meters":0,"station_id":"ce4bhqp2rcd13ifvqhng","pricing_plan_id":"cebpf4jnsgd1na2vs0mg"},{"bike_id":"6d9c223d-9917-4ac3-9f68-aa3da12aab98","system_id":"levelo_inurba_marseille","lat":43.295748,"lon":5.37522,"is_reserved":false,"is_disabled":false,"rental_uris":{"android":"levelo://app?vid=6d9c223d-9917-4ac3-9f68-aa3da12aab98","ios":"levelo://app?vid=6d9c223d-9917-4ac3-9f68-aa3da12aab98"},"vehicle_type_id":"4","last_reported":1725203257,"current_range_meters":29600,"station_id":"ce4bgh92rcd13ifvqb50","pricing_plan_id":"cebpf4jnsgd1na2vs0mg"},{"bike_id":"e69ad747-4c06-44b5-a298-d8484ba9969a","system_id":"levelo_inurba_marseille","lat":43.298037,"lon":5.381066,"is_reserved":false,"is_disabled":false,"rental_uris":{"android":"levelo://app?vid=e69ad747-4c06-44b5-a298-d8484ba9969a","ios":"levelo://app?vid=e69ad747-4c06-44b5-a298-d8484ba9969a"},"vehicle_type_id":"4","last_reported":1725203257,"current_range_meters":31200,"station_id":"ce4bgip2rcd13ifvqbb0","pricing_plan_id":"cebpf4jnsgd1na2vs0mg"},{"bike_id":"f031a8f4-e132-4155-9800-da071651a7d0","system_id":"levelo_inurba_marseille","lat":43.298037,"lon":5.381066,"is_reserved":false,"is_disabled":false,"rental_uris":{"android":"levelo://app?vid=f031a8f4-e132-4155-9800-da071651a7d0","ios":"levelo://app?vid=f031a8f4-e132-4155-9800-da071651a7d0"},"vehicle_type_id":"4","last_reported":1725203257,"current_range_meters":24800,"station_id":"ce4bgip2rcd13ifvqbb0","pricing_plan_id":"cebpf4jnsgd1na2vs0mg"},{"bike_id":"625ec07d-732b-4717-aeed-d6ac1d5ee6fd","system_id":"levelo_inurba_marseille","lat":43.298037,"lon":5.381066,"is_reserved":false,"is_disabled":false,"rental_uris":{"android":"levelo://app?vid=625ec07d-732b-4717-aeed-d6ac1d5ee6fd","ios":"levelo://app?vid=625ec07d-732b-4717-aeed-d6ac1d5ee6fd"},"vehicle_type_id":"4","last_reported":1725203257,"current_range_meters":29200,"station_id":"ce4bgip2rcd13ifvqbb0","pricing_plan_id":"cebpf4jnsgd1na2vs0mg"},{"bike_id":"e843ac73-fbcc-4109-a517-d487571d3c0e","system_id":"levelo_inurba_marseille","lat":43.295279,"lon":5.375048,"is_reserved":false,"is_disabled":false,"rental_uris":{"android":"levelo://app?vid=e843ac73-fbcc-4109-a517-d487571d3c0e","ios":"levelo://app?vid=e843ac73-fbcc-4109-a517-d487571d3c0e"},"vehicle_type_id":"4","last_reported":1725203257,"current_range_meters":24800,"station_id":"ce4bgkp2rcd13ifvqbmg","pricing_plan_id":"cebpf4jnsgd1na2vs0mg"},{"bike_id":"6f0a551d-a8f1-4404-94c9-0746f21c8078","system_id":"levelo_inurba_marseille","lat":43.301396,"lon":5.387812,"is_reserved":false,"is_disabled":false,"rental_uris":{"android":"levelo://app?vid=6f0a551d-a8f1-4404-94c9-0746f21c8078","ios":"levelo://app?vid=6f0a551d-a8f1-4404-94c9-0746f21c8078"},"vehicle_type_id":"4","last_reported":1725203257,"current_range_meters":6400,"station_id":"ce4bghh2rcd13ifvqb60","pricing_plan_id":"cebpf4jnsgd1na2vs0mg"},{"bike_id":"eb40480a-2e61-4db7-9317-2d17f72f63d3","system_id":"levelo_inurba_marseille","lat":43.31162,"lon":5.39333,"is_reserved":false,"is_disabled":false,"rental_uris":{"android":"levelo://app?vid=eb40480a-2e61-4db7-9317-2d17f72f63d3","ios":"levelo://app?vid=eb40480a-2e61-4db7-9317-2d17f72f63d3"},"vehicle_type_id":"4","last_reported":1725203257,"current_range_meters":14000,"station_id":"","pricing_plan_id":"cebpf4jnsgd1na2vs0mg"},{"bike_id":"91eaefb9-2db4-45e6-9c67-a6e478a75587","system_id":"levelo_inurba_marseille","lat":43.32367,"lon":5.388836,"is_reserved":false,"is_disabled":false,"rental_uris":{"android":"levelo://app?vid=91eaefb9-2db4-45e6-9c67-a6e478a75587","ios":"levelo://app?vid=91eaefb9-2db4-45e6-9c67-a6e478a75587"},"vehicle_type_id":"4","last_reported":1725203257,"current_range_meters":6400,"station_id":"ce4bhqp2rcd13ifvqhog","pricing_plan_id":"cebpf4jnsgd1na2vs0mg"},{"bike_id":"f84c5c5c-29c2-45e6-a674-24cdcd003577","system_id":"levelo_inurba_marseille","lat":43.29441,"lon":5.37542,"is_reserved":false,"is_disabled":false,"rental_uris":{"android":"levelo://app?vid=f84c5c5c-29c2-45e6-a674-24cdcd003577","ios":"levelo://app?vid=f84c5c5c-29c2-45e6-a674-24cdcd003577"},"vehicle_type_id":"4","last_reported":1725203257,"current_range_meters":0,"station_id":"","pricing_plan_id":"cebpf4jnsgd1na2vs0mg"},{"bike_id":"4f7bb782-b691-422b-9782-05b236f655d2","system_id":"levelo_inurba_marseille","lat":43.29498,"lon":5.377568,"is_reserved":false,"is_disabled":false,"rental_uris":{"android":"levelo://app?vid=4f7bb782-b691-422b-9782-05b236f655d2","ios":"levelo://app?vid=4f7bb782-b691-422b-9782-05b236f655d2"},"vehicle_type_id":"4","last_reported":1725203257,"current_range_meters":0,"station_id":"","pricing_plan_id":"cebpf4jnsgd1na2vs0mg"},{"bike_id":"905ecd54-50d6-4cd2-810a-094839d41e44","system_id":"levelo_inurba_marseille","lat":43.29601,"lon":5.381084,"is_reserved":false,"is_disabled":false,"rental_uris":{"android":"levelo://app?vid=905ecd54-50d6-4cd2-810a-094839d41e44","ios":"levelo://app?vid=905ecd54-50d6-4cd2-810a-094839d41e44"},"vehicle_type_id":"4","last_reported":1725203257,"current_range_meters":29600,"station_id":"ce4bgl12rcd13ifvqbo0","pricing_plan_id":"cebpf4jnsgd1na2vs0mg"},{"bike_id":"c6f0935b-430d-49df-92ca-d242d8ca5ba0","system_id":"levelo_inurba_marseille","lat":43.32378,"lon":5.38922,"is_reserved":false,"is_disabled":false,"rental_uris":{"android":"levelo://app?vid=c6f0935b-430d-49df-92ca-d242d8ca5ba0","ios":"levelo://app?vid=c6f0935b-430d-49df-92ca-d242d8ca5ba0"},"vehicle_type_id":"4","last_reported":1725203257,"current_range_meters":20000,"station_id":"ce4bhqp2rcd13ifvqhog","pricing_plan_id":"cebpf4jnsgd1na2vs0mg"},{"bike_id":"e760805b-f09a-4b9b-8078-60a502372f90","system_id":"levelo_inurba_marseille","lat":43.29602,"lon":5.381084,"is_reserved":false,"is_disabled":false,"rental_uris":{"android":"levelo://app?vid=e760805b-f09a-4b9b-8078-60a502372f90","ios":"levelo://app?vid=e760805b-f09a-4b9b-8078-60a502372f90"},"vehicle_type_id":"4","last_reported":1725203257,"current_range_meters":6400,"station_id":"ce4bgl12rcd13ifvqbo0","pricing_plan_id":"cebpf4jnsgd1na2vs0mg"},{"bike_id":"b9d51355-e515-483a-a60b-c8a5e8c28078","system_id":"levelo_inurba_marseille","lat":43.30196,"lon":5.38962,"is_reserved":false,"is_disabled":false,"rental_uris":{"android":"levelo://app?vid=b9d51355-e515-483a-a60b-c8a5e8c28078","ios":"levelo://app?vid=b9d51355-e515-483a-a60b-c8a5e8c28078"},"vehicle_type_id":"4","last_reported":1725203257,"current_range_meters":0,"station_id":"","pricing_plan_id":"cebpf4jnsgd1na2vs0mg"},{"bike_id":"1818fa5a-7066-4d95-8b8f-773b7fc62778","system_id":"levelo_inurba_marseille","lat":43.293259,"lon":5.371586,"is_reserved":false,"is_disabled":false,"rental_uris":{"android":"levelo://app?vid=1818fa5a-7066-4d95-8b8f-773b7fc62778","ios":"levelo://app?vid=1818fa5a-7066-4d95-8b8f-773b7fc62778"},"vehicle_type_id":"4","last_reported":1725203257,"current_range_meters":400,"station_id":"ce4bgh92rcd13ifvqb40","pricing_plan_id":"cebpf4jnsgd1na2vs0mg"},{"bike_id":"b5567588-0573-4786-815a-d32989e97400","system_id":"levelo_inurba_marseille","lat":43.293259,"lon":5.371586,"is_reserved":false,"is_disabled":false,"rental_uris":{"android":"levelo://app?vid=b5567588-0573-4786-815a-d32989e97400","ios":"levelo://app?vid=b5567588-0573-4786-815a-d32989e97400"},"vehicle_type_id":"4","last_reported":1725203257,"current_range_meters":16400,"station_id":"ce4bgh92rcd13ifvqb40","pricing_plan_id":"cebpf4jnsgd1na2vs0mg"},{"bike_id":"a77b1fba-34ec-4f5a-9382-7021b3f54439","system_id":"levelo_inurba_marseille","lat":43.293259,"lon":5.371586,"is_reserved":false,"is_disabled":false,"rental_uris":{"android":"levelo://app?vid=a77b1fba-34ec-4f5a-9382-7021b3f54439","ios":"levelo://app?vid=a77b1fba-34ec-4f5a-9382-7021b3f54439"},"vehicle_type_id":"4","last_reported":1725203257,"current_range_meters":25200,"station_id":"ce4bgh92rcd13ifvqb40","pricing_plan_id":"cebpf4jnsgd1na2vs0mg"},{"bike_id":"8961ca0f-e7b6-4095-acee-78db1140f981","system_id":"levelo_inurba_marseille","lat":43.292705,"lon":5.365515,"is_reserved":false,"is_disabled":false,"rental_uris":{"android":"levelo://app?vid=8961ca0f-e7b6-4095-acee-78db1140f981","ios":"levelo://app?vid=8961ca0f-e7b6-4095-acee-78db1140f981"},"vehicle_type_id":"4","last_reported":1725203257,"current_range_meters":12400,"station_id":"ce4bgkp2rcd13ifvqbmg","pricing_plan_id":"cebpf4jnsgd1na2vs0mg"},{"bike_id":"67ecefcf-35a2-4aa7-99e2-36406127953f","system_id":"levelo_inurba_marseille","lat":43.293009,"lon":5.374584,"is_reserved":false,"is_disabled":false,"rental_uris":{"android":"levelo://app?vid=67ecefcf-35a2-4aa7-99e2-36406127953f","ios":"levelo://app?vid=67ecefcf-35a2-4aa7-99e2-36406127953f"},"vehicle_type_id":"4","last_reported":1725203257,"current_range_meters":1200,"station_id":"ce4bgi12rcd13ifvqb70","pricing_plan_id":"cebpf4jnsgd1na2vs0mg"},{"bike_id":"c0511d1f-bf66-411f-b4ab-18aedd787cc1","system_id":"levelo_inurba_marseille","lat":43.293009,"lon":5.374584,"is_reserved":false,"is_disabled":false,"rental_uris":{"android":"levelo://app?vid=c0511d1f-bf66-411f-b4ab-18aedd787cc1","ios":"levelo://app?vid=c0511d1f-bf66-411f-b4ab-18aedd787cc1"},"vehicle_type_id":"4","last_reported":1725203257,"current_range_meters":3200,"station_id":"ce4bgi12rcd13ifvqb70","pricing_plan_id":"cebpf4jnsgd1na2vs0mg"},{"bike_id":"5a9f5e59-1ed8-47d8-8c56-d8d409f249e6","system_id":"levelo_inurba_marseille","lat":43.293009,"lon":5.374584,"is_reserved":false,"is_disabled":false,"rental_uris":{"android":"levelo://app?vid=5a9f5e59-1ed8-47d8-8c56-d8d409f249e6","ios":"levelo://app?vid=5a9f5e59-1ed8-47d8-8c56-d8d409f249e6"},"vehicle_type_id":"4","last_reported":1725203257,"current_range_meters":0,"station_id":"ce4bgi12rcd13ifvqb70","pricing_plan_id":"cebpf4jnsgd1na2vs0mg"},{"bike_id":"01384c52-3206-4198-907d-353c24cb5f25","system_id":"levelo_inurba_marseille","lat":43.30305,"lon":5.39203,"is_reserved":false,"is_disabled":false,"rental_uris":{"android":"levelo://app?vid=01384c52-3206-4198-907d-353c24cb5f25","ios":"levelo://app?vid=01384c52-3206-4198-907d-353c24cb5f25"},"vehicle_type_id":"4","last_reported":1725203257,"current_range_meters":0,"station_id":"ce4bgkh2rcd13ifvqbk0","pricing_plan_id":"cebpf4jnsgd1na2vs0mg"},{"bike_id":"b6e743b1-f5f8-41e5-8100-12c5be65fc62","system_id":"levelo_inurba_marseille","lat":43.2936,"lon":5.37835,"is_reserved":false,"is_disabled":false,"rental_uris":{"android":"levelo://app?vid=b6e743b1-f5f8-41e5-8100-12c5be65fc62","ios":"levelo://app?vid=b6e743b1-f5f8-41e5-8100-12c5be65fc62"},"vehicle_type_id":"4","last_reported":1725203257,"current_range_meters":15200,"station_id":"ce4bgjh2rcd13ifvqbf0","pricing_plan_id":"cebpf4jnsgd1na2vs0mg"},{"bike_id":"123d0623-2a69-4240-803e-c9b5096989f8","system_id":"levelo_inurba_marseille","lat":43.303002,"lon":5.392142,"is_reserved":false,"is_disabled":false,"rental_uris":{"android":"levelo://app?vid=123d0623-2a69-4240-803e-c9b5096989f8","ios":"levelo://app?vid=123d0623-2a69-4240-803e-c9b5096989f8"},"vehicle_type_id":"4","last_reported":1725203257,"current_range_meters":16800,"station_id":"ce4bgkh2rcd13ifvqbk0","pricing_plan_id":"cebpf4jnsgd1na2vs0mg"},{"bike_id":"423b91c5-7fa2-4602-a52f-99164404d80d","system_id":"levelo_inurba_marseille","lat":43.2936,"lon":5.37835,"is_reserved":false,"is_disabled":false,"rental_uris":{"android":"levelo://app?vid=423b91c5-7fa2-4602-a52f-99164404d80d","ios":"levelo://app?vid=423b91c5-7fa2-4602-a52f-99164404d80d"},"vehicle_type_id":"4","last_reported":1725203257,"current_range_meters":0,"station_id":"ce4bgjh2rcd13ifvqbf0","pricing_plan_id":"cebpf4jnsgd1na2vs0mg"},{"bike_id":"29f0289d-7eb7-4345-a27d-4d2716da7d3b","system_id":"levelo_inurba_marseille","lat":43.29228,"lon":5.36062,"is_reserved":false,"is_disabled":false,"rental_uris":{"android":"levelo://app?vid=29f0289d-7eb7-4345-a27d-4d2716da7d3b","ios":"levelo://app?vid=29f0289d-7eb7-4345-a27d-4d2716da7d3b"},"vehicle_type_id":"4","last_reported":1725203257,"current_range_meters":20800,"station_id":"ce4bhbh2rcd13ifvqeqg","pricing_plan_id":"cebpf4jnsgd1na2vs0mg"},{"bike_id":"5980de59-e27e-450d-bfef-288f64e9183d","system_id":"levelo_inurba_marseille","lat":43.292311,"lon":5.360731,"is_reserved":false,"is_disabled":false,"rental_uris":{"android":"levelo://app?vid=5980de59-e27e-450d-bfef-288f64e9183d","ios":"levelo://app?vid=5980de59-e27e-450d-bfef-288f64e9183d"},"vehicle_type_id":"4","last_reported":1725203257,"current_range_meters":24400,"station_id":"ce4bhbh2rcd13ifvqeqg","pricing_plan_id":"cebpf4jnsgd1na2vs0mg"},{"bike_id":"90eac651-2b93-4ec2-8fcd-d000b7647e24","system_id":"levelo_inurba_marseille","lat":43.292311,"lon":5.360731,"is_reserved":false,"is_disabled":false,"rental_uris":{"android":"levelo://app?vid=90eac651-2b93-4ec2-8fcd-d000b7647e24","ios":"levelo://app?vid=90eac651-2b93-4ec2-8fcd-d000b7647e24"},"vehicle_type_id":"4","last_reported":1725203257,"current_range_meters":28800,"station_id":"ce4bhbh2rcd13ifvqeqg","pricing_plan_id":"cebpf4jnsgd1na2vs0mg"},{"bike_id":"5b37ab03-01e2-48ab-8254-2c4fa2210e9c","system_id":"levelo_inurba_marseille","lat":43.29219,"lon":5.36047,"is_reserved":false,"is_disabled":false,"rental_uris":{"android":"levelo://app?vid=5b37ab03-01e2-48ab-8254-2c4fa2210e9c","ios":"levelo://app?vid=5b37ab03-01e2-48ab-8254-2c4fa2210e9c"},"vehicle_type_id":"4","last_reported":1725203257,"current_range_meters":31200,"station_id":"ce4bhbh2rcd13ifvqeqg","pricing_plan_id":"cebpf4jnsgd1na2vs0mg"},{"bike_id":"e233edd7-0228-4fb6-8ef3-ae3dac2a6b8d","system_id":"levelo_inurba_marseille","lat":43.292163,"lon":5.36053,"is_reserved":false,"is_disabled":false,"rental_uris":{"android":"levelo://app?vid=e233edd7-0228-4fb6-8ef3-ae3dac2a6b8d","ios":"levelo://app?vid=e233edd7-0228-4fb6-8ef3-ae3dac2a6b8d"},"vehicle_type_id":"4","last_reported":1725203257,"current_range_meters":1200,"station_id":"ce4bhbh2rcd13ifvqeqg","pricing_plan_id":"cebpf4jnsgd1na2vs0mg"},{"bike_id":"dc83767e-9c5d-4d6a-ba27-0432cd3f2fd7","system_id":"levelo_inurba_marseille","lat":43.298764,"lon":5.388973,"is_reserved":false,"is_disabled":false,"rental_uris":{"android":"levelo://app?vid=dc83767e-9c5d-4d6a-ba27-0432cd3f2fd7","ios":"levelo://app?vid=dc83767e-9c5d-4d6a-ba27-0432cd3f2fd7"},"vehicle_type_id":"4","last_reported":1725203257,"current_range_meters":9200,"station_id":"ce4bh392rcd13ifvqdl0","pricing_plan_id":"cebpf4jnsgd1na2vs0mg"},{"bike_id":"78294e93-3d3f-4c6f-9a40-100b45191949","system_id":"levelo_inurba_marseille","lat":43.291675,"lon":5.371583,"is_reserved":false,"is_disabled":false,"rental_uris":{"android":"levelo://app?vid=78294e93-3d3f-4c6f-9a40-100b45191949","ios":"levelo://app?vid=78294e93-3d3f-4c6f-9a40-100b45191949"},"vehicle_type_id":"4","last_reported":1725203257,"current_range_meters":21200,"station_id":"ce4bha92rcd13ifvqeh0","pricing_plan_id":"cebpf4jnsgd1na2vs0mg"},{"bike_id":"c31dd58b-6650-42be-84c1-e3b2c476ca93","system_id":"levelo_inurba_marseille","lat":43.313291,"lon":5.396838,"is_reserved":false,"is_disabled":false,"rental_uris":{"android":"levelo://app?vid=c31dd58b-6650-42be-84c1-e3b2c476ca93","ios":"levelo://app?vid=c31dd58b-6650-42be-84c1-e3b2c476ca93"},"vehicle_type_id":"4","last_reported":1725203257,"current_range_meters":15200,"station_id":"ce4bgvp2rcd13ifvqcu0","pricing_plan_id":"cebpf4jnsgd1na2vs0mg"},{"bike_id":"32aeadc7-fdb2-4a1f-90e5-246b40eef5e8","system_id":"levelo_inurba_marseille","lat":43.29194,"lon":5.35794,"is_reserved":false,"is_disabled":false,"rental_uris":{"android":"levelo://app?vid=32aeadc7-fdb2-4a1f-90e5-246b40eef5e8","ios":"levelo://app?vid=32aeadc7-fdb2-4a1f-90e5-246b40eef5e8"},"vehicle_type_id":"4","last_reported":1725203257,"current_range_meters":24000,"station_id":"ce4bhb12rcd13ifvqel0","pricing_plan_id":"cebpf4jnsgd1na2vs0mg"},{"bike_id":"9579c9f7-86ae-4629-a865-35f5fb23813a","system_id":"levelo_inurba_marseille","lat":43.313291,"lon":5.396838,"is_reserved":false,"is_disabled":false,"rental_uris":{"android":"levelo://app?vid=9579c9f7-86ae-4629-a865-35f5fb23813a","ios":"levelo://app?vid=9579c9f7-86ae-4629-a865-35f5fb23813a"},"vehicle_type_id":"4","last_reported":1725203257,"current_range_meters":2800,"station_id":"ce4bgvp2rcd13ifvqcu0","pricing_plan_id":"cebpf4jnsgd1na2vs0mg"},{"bike_id":"daf57a0b-5819-415c-b904-e2b5ab63a336","system_id":"levelo_inurba_marseille","lat":43.292005,"lon":5.357875,"is_reserved":false,"is_disabled":false,"rental_uris":{"android":"levelo://app?vid=daf57a0b-5819-415c-b904-e2b5ab63a336","ios":"levelo://app?vid=daf57a0b-5819-415c-b904-e2b5ab63a336"},"vehicle_type_id":"4","last_reported":1725203257,"current_range_meters":5600,"station_id":"ce4bhb12rcd13ifvqel0","pricing_plan_id":"cebpf4jnsgd1na2vs0mg"},{"bike_id":"a40416c9-fe16-4d7d-902d-38c279977561","system_id":"levelo_inurba_marseille","lat":43.29529,"lon":5.385581,"is_reserved":false,"is_disabled":false,"rental_uris":{"android":"levelo://app?vid=a40416c9-fe16-4d7d-902d-38c279977561","ios":"levelo://app?vid=a40416c9-fe16-4d7d-902d-38c279977561"},"vehicle_type_id":"4","last_reported":1725203257,"current_range_meters":400,"station_id":"ce4bgih2rcd13ifvqba0","pricing_plan_id":"cebpf4jnsgd1na2vs0mg"},{"bike_id":"b2bb2955-f156-4ea0-9328-d850768389b0","system_id":"levelo_inurba_marseille","lat":43.29529,"lon":5.385581,"is_reserved":false,"is_disabled":false,"rental_uris":{"android":"levelo://app?vid=b2bb2955-f156-4ea0-9328-d850768389b0","ios":"levelo://app?vid=b2bb2955-f156-4ea0-9328-d850768389b0"},"vehicle_type_id":"4","last_reported":1725203257,"current_range_meters":15200,"station_id":"ce4bgih2rcd13ifvqba0","pricing_plan_id":"cebpf4jnsgd1na2vs0mg"},{"bike_id":"88ba4f67-ed0f-42cf-9f5f-1344a52510a9","system_id":"levelo_inurba_marseille","lat":43.29529,"lon":5.385581,"is_reserved":false,"is_disabled":false,"rental_uris":{"android":"levelo://app?vid=88ba4f67-ed0f-42cf-9f5f-1344a52510a9","ios":"levelo://app?vid=88ba4f67-ed0f-42cf-9f5f-1344a52510a9"},"vehicle_type_id":"4","last_reported":1725203257,"current_range_meters":29600,"station_id":"ce4bgih2rcd13ifvqba0","pricing_plan_id":"cebpf4jnsgd1na2vs0mg"},{"bike_id":"f414cfa7-0a87-49b9-b88e-de03b6d0215f","system_id":"levelo_inurba_marseille","lat":43.29529,"lon":5.385581,"is_reserved":false,"is_disabled":false,"rental_uris":{"android":"levelo://app?vid=f414cfa7-0a87-49b9-b88e-de03b6d0215f","ios":"levelo://app?vid=f414cfa7-0a87-49b9-b88e-de03b6d0215f"},"vehicle_type_id":"4","last_reported":1725203257,"current_range_meters":16000,"station_id":"ce4bgih2rcd13ifvqba0","pricing_plan_id":"cebpf4jnsgd1na2vs0mg"},{"bike_id":"f78e3205-c379-4422-8bc3-cb40c46516a7","system_id":"levelo_inurba_marseille","lat":43.29529,"lon":5.385581,"is_reserved":false,"is_disabled":false,"rental_uris":{"android":"levelo://app?vid=f78e3205-c379-4422-8bc3-cb40c46516a7","ios":"levelo://app?vid=f78e3205-c379-4422-8bc3-cb40c46516a7"},"vehicle_type_id":"4","last_reported":1725203257,"current_range_meters":21200,"station_id":"ce4bgih2rcd13ifvqba0","pricing_plan_id":"cebpf4jnsgd1na2vs0mg"},{"bike_id":"83fc8f6b-e8de-43e7-a51c-f01e0962e9e4","system_id":"levelo_inurba_marseille","lat":43.29529,"lon":5.385581,"is_reserved":false,"is_disabled":false,"rental_uris":{"android":"levelo://app?vid=83fc8f6b-e8de-43e7-a51c-f01e0962e9e4","ios":"levelo://app?vid=83fc8f6b-e8de-43e7-a51c-f01e0962e9e4"},"vehicle_type_id":"4","last_reported":1725203257,"current_range_meters":20000,"station_id":"ce4bgih2rcd13ifvqba0","pricing_plan_id":"cebpf4jnsgd1na2vs0mg"},{"bike_id":"536a8fb2-b80b-47be-84d7-ea35d215ee6d","system_id":"levelo_inurba_marseille","lat":43.29534,"lon":5.38552,"is_reserved":false,"is_disabled":false,"rental_uris":{"android":"levelo://app?vid=536a8fb2-b80b-47be-84d7-ea35d215ee6d","ios":"levelo://app?vid=536a8fb2-b80b-47be-84d7-ea35d215ee6d"},"vehicle_type_id":"4","last_reported":1725203257,"current_range_meters":20000,"station_id":"","pricing_plan_id":"cebpf4jnsgd1na2vs0mg"},{"bike_id":"e3a23b72-20ae-4143-a3d7-d0107cae9757","system_id":"levelo_inurba_marseille","lat":43.29529,"lon":5.385581,"is_reserved":false,"is_disabled":false,"rental_uris":{"android":"levelo://app?vid=e3a23b72-20ae-4143-a3d7-d0107cae9757","ios":"levelo://app?vid=e3a23b72-20ae-4143-a3d7-d0107cae9757"},"vehicle_type_id":"4","last_reported":1725203257,"current_range_meters":3600,"station_id":"ce4bgih2rcd13ifvqba0","pricing_plan_id":"cebpf4jnsgd1na2vs0mg"},{"bike_id":"8208a9c7-4e23-43b9-b4e5-8e51af892f2f","system_id":"levelo_inurba_marseille","lat":43.302008,"lon":5.394694,"is_reserved":false,"is_disabled":false,"rental_uris":{"android":"levelo://app?vid=8208a9c7-4e23-43b9-b4e5-8e51af892f2f","ios":"levelo://app?vid=8208a9c7-4e23-43b9-b4e5-8e51af892f2f"},"vehicle_type_id":"4","last_reported":1725203257,"current_range_meters":0,"station_id":"ce4bh0p2rcd13ifvqd70","pricing_plan_id":"cebpf4jnsgd1na2vs0mg"},{"bike_id":"fe486a89-c23d-4351-bc16-dd2213ee2594","system_id":"levelo_inurba_marseille","lat":43.294162,"lon":5.386292,"is_reserved":false,"is_disabled":false,"rental_uris":{"android":"levelo://app?vid=fe486a89-c23d-4351-bc16-dd2213ee2594","ios":"levelo://app?vid=fe486a89-c23d-4351-bc16-dd2213ee2594"},"vehicle_type_id":"4","last_reported":1725203257,"current_range_meters":0,"station_id":"ce4bh2h2rcd13ifvqdh0","pricing_plan_id":"cebpf4jnsgd1na2vs0mg"},{"bike_id":"0d9d794b-25b8-4869-bcfa-3d37d5371f62","system_id":"levelo_inurba_marseille","lat":43.290327,"lon":5.375711,"is_reserved":false,"is_disabled":false,"rental_uris":{"android":"levelo://app?vid=0d9d794b-25b8-4869-bcfa-3d37d5371f62","ios":"levelo://app?vid=0d9d794b-25b8-4869-bcfa-3d37d5371f62"},"vehicle_type_id":"4","last_reported":1725203257,"current_range_meters":0,"station_id":"ce4bh692rcd13ifvqe90","pricing_plan_id":"cebpf4jnsgd1na2vs0mg"},{"bike_id":"5e1fb7e5-ed40-48c0-af39-bd19d9c020c5","system_id":"levelo_inurba_marseille","lat":43.294162,"lon":5.386292,"is_reserved":false,"is_disabled":false,"rental_uris":{"android":"levelo://app?vid=5e1fb7e5-ed40-48c0-af39-bd19d9c020c5","ios":"levelo://app?vid=5e1fb7e5-ed40-48c0-af39-bd19d9c020c5"},"vehicle_type_id":"4","last_reported":1725203257,"current_range_meters":22800,"station_id":"ce4bh2h2rcd13ifvqdh0","pricing_plan_id":"cebpf4jnsgd1na2vs0mg"},{"bike_id":"64ddb606-3971-46ad-818c-33ce66ec349f","system_id":"levelo_inurba_marseille","lat":43.294162,"lon":5.386292,"is_reserved":false,"is_disabled":false,"rental_uris":{"android":"levelo://app?vid=64ddb606-3971-46ad-818c-33ce66ec349f","ios":"levelo://app?vid=64ddb606-3971-46ad-818c-33ce66ec349f"},"vehicle_type_id":"4","last_reported":1725203257,"current_range_meters":1200,"station_id":"ce4bh2h2rcd13ifvqdh0","pricing_plan_id":"cebpf4jnsgd1na2vs0mg"},{"bike_id":"c445a8c8-e3d0-46da-90b1-2f6810994ba1","system_id":"levelo_inurba_marseille","lat":43.289184,"lon":5.366408,"is_reserved":false,"is_disabled":false,"rental_uris":{"android":"levelo://app?vid=c445a8c8-e3d0-46da-90b1-2f6810994ba1","ios":"levelo://app?vid=c445a8c8-e3d0-46da-90b1-2f6810994ba1"},"vehicle_type_id":"4","last_reported":1725203257,"current_range_meters":5200,"station_id":"ce4bhap2rcd13ifvqek0","pricing_plan_id":"cebpf4jnsgd1na2vs0mg"},{"bike_id":"6930496a-b117-44b6-ad86-edcbccf4ae10","system_id":"levelo_inurba_marseille","lat":43.292642,"lon":5.384254,"is_reserved":false,"is_disabled":false,"rental_uris":{"android":"levelo://app?vid=6930496a-b117-44b6-ad86-edcbccf4ae10","ios":"levelo://app?vid=6930496a-b117-44b6-ad86-edcbccf4ae10"},"vehicle_type_id":"4","last_reported":1725203257,"current_range_meters":28400,"station_id":"ce4bh692rcd13ifvqea0","pricing_plan_id":"cebpf4jnsgd1na2vs0mg"},{"bike_id":"c6411a64-56ac-4fdf-b217-43c5cc46c9fc","system_id":"levelo_inurba_marseille","lat":43.32582,"lon":5.39419,"is_reserved":false,"is_disabled":false,"rental_uris":{"android":"levelo://app?vid=c6411a64-56ac-4fdf-b217-43c5cc46c9fc","ios":"levelo://app?vid=c6411a64-56ac-4fdf-b217-43c5cc46c9fc"},"vehicle_type_id":"4","last_reported":1725203257,"current_range_meters":6000,"station_id":"","pricing_plan_id":"cebpf4jnsgd1na2vs0mg"},{"bike_id":"a7194d50-aba0-47bb-8a1e-47bab8310d1e","system_id":"levelo_inurba_marseille","lat":43.292642,"lon":5.384254,"is_reserved":false,"is_disabled":false,"rental_uris":{"android":"levelo://app?vid=a7194d50-aba0-47bb-8a1e-47bab8310d1e","ios":"levelo://app?vid=a7194d50-aba0-47bb-8a1e-47bab8310d1e"},"vehicle_type_id":"4","last_reported":1725203257,"current_range_meters":22800,"station_id":"ce4bh692rcd13ifvqea0","pricing_plan_id":"cebpf4jnsgd1na2vs0mg"},{"bike_id":"8fa6770a-4ba3-4dcf-b1b6-83cd978ade2f","system_id":"levelo_inurba_marseille","lat":43.292644,"lon":5.384257,"is_reserved":false,"is_disabled":false,"rental_uris":{"android":"levelo://app?vid=8fa6770a-4ba3-4dcf-b1b6-83cd978ade2f","ios":"levelo://app?vid=8fa6770a-4ba3-4dcf-b1b6-83cd978ade2f"},"vehicle_type_id":"4","last_reported":1725203257,"current_range_meters":0,"station_id":"ce4bh692rcd13ifvqea0","pricing_plan_id":"cebpf4jnsgd1na2vs0mg"},{"bike_id":"6f1eaf25-f7af-4a11-8b55-7f184d57b796","system_id":"levelo_inurba_marseille","lat":43.292642,"lon":5.384254,"is_reserved":false,"is_disabled":false,"rental_uris":{"android":"levelo://app?vid=6f1eaf25-f7af-4a11-8b55-7f184d57b796","ios":"levelo://app?vid=6f1eaf25-f7af-4a11-8b55-7f184d57b796"},"vehicle_type_id":"4","last_reported":1725203257,"current_range_meters":400,"station_id":"ce4bh692rcd13ifvqea0","pricing_plan_id":"cebpf4jnsgd1na2vs0mg"},{"bike_id":"fd1cbe64-bf69-4620-b015-5cde14b4d81b","system_id":"levelo_inurba_marseille","lat":43.290104,"lon":5.356111,"is_reserved":false,"is_disabled":false,"rental_uris":{"android":"levelo://app?vid=fd1cbe64-bf69-4620-b015-5cde14b4d81b","ios":"levelo://app?vid=fd1cbe64-bf69-4620-b015-5cde14b4d81b"},"vehicle_type_id":"4","last_reported":1725203257,"current_range_meters":10800,"station_id":"ce4bhb92rcd13ifvqen0","pricing_plan_id":"cebpf4jnsgd1na2vs0mg"},{"bike_id":"c4862f7e-96a7-40f1-b78a-ba15ca5de9fc","system_id":"levelo_inurba_marseille","lat":43.297815,"lon":5.393548,"is_reserved":false,"is_disabled":false,"rental_uris":{"android":"levelo://app?vid=c4862f7e-96a7-40f1-b78a-ba15ca5de9fc","ios":"levelo://app?vid=c4862f7e-96a7-40f1-b78a-ba15ca5de9fc"},"vehicle_type_id":"4","last_reported":1725203257,"current_range_meters":800,"station_id":"chh1huq6cuj3fo74tm60","pricing_plan_id":"cebpf4jnsgd1na2vs0mg"},{"bike_id":"b0f09e72-6f5d-4097-a98a-691223255649","system_id":"levelo_inurba_marseille","lat":43.330442,"lon":5.389148,"is_reserved":false,"is_disabled":false,"rental_uris":{"android":"levelo://app?vid=b0f09e72-6f5d-4097-a98a-691223255649","ios":"levelo://app?vid=b0f09e72-6f5d-4097-a98a-691223255649"},"vehicle_type_id":"4","last_reported":1725203257,"current_range_meters":6000,"station_id":"ce4bhr92rcd13ifvqhrg","pricing_plan_id":"cebpf4jnsgd1na2vs0mg"},{"bike_id":"a3441031-033a-419a-8695-f2f10fe38ba9","system_id":"levelo_inurba_marseille","lat":43.330442,"lon":5.389148,"is_reserved":false,"is_disabled":false,"rental_uris":{"android":"levelo://app?vid=a3441031-033a-419a-8695-f2f10fe38ba9","ios":"levelo://app?vid=a3441031-033a-419a-8695-f2f10fe38ba9"},"vehicle_type_id":"4","last_reported":1725203257,"current_range_meters":26800,"station_id":"ce4bhr92rcd13ifvqhrg","pricing_plan_id":"cebpf4jnsgd1na2vs0mg"},{"bike_id":"e197bba2-ca81-40d1-a4dd-00e1c6559062","system_id":"levelo_inurba_marseille","lat":43.330442,"lon":5.389148,"is_reserved":false,"is_disabled":false,"rental_uris":{"android":"levelo://app?vid=e197bba2-ca81-40d1-a4dd-00e1c6559062","ios":"levelo://app?vid=e197bba2-ca81-40d1-a4dd-00e1c6559062"},"vehicle_type_id":"4","last_reported":1725203257,"current_range_meters":30800,"station_id":"ce4bhr92rcd13ifvqhrg","pricing_plan_id":"cebpf4jnsgd1na2vs0mg"},{"bike_id":"d5661ed8-6df5-46a9-be5e-218460543fd7","system_id":"levelo_inurba_marseille","lat":43.330442,"lon":5.389148,"is_reserved":false,"is_disabled":false,"rental_uris":{"android":"levelo://app?vid=d5661ed8-6df5-46a9-be5e-218460543fd7","ios":"levelo://app?vid=d5661ed8-6df5-46a9-be5e-218460543fd7"},"vehicle_type_id":"4","last_reported":1725203257,"current_range_meters":0,"station_id":"ce4bhr92rcd13ifvqhrg","pricing_plan_id":"cebpf4jnsgd1na2vs0mg"},{"bike_id":"84d24b23-7680-4036-9944-8e944a55be0d","system_id":"levelo_inurba_marseille","lat":43.330442,"lon":5.389148,"is_reserved":false,"is_disabled":false,"rental_uris":{"android":"levelo://app?vid=84d24b23-7680-4036-9944-8e944a55be0d","ios":"levelo://app?vid=84d24b23-7680-4036-9944-8e944a55be0d"},"vehicle_type_id":"4","last_reported":1725203257,"current_range_meters":31600,"station_id":"ce4bhr92rcd13ifvqhrg","pricing_plan_id":"cebpf4jnsgd1na2vs0mg"},{"bike_id":"e74ecfe6-eb2e-4c31-b8da-544da791e5bd","system_id":"levelo_inurba_marseille","lat":43.330442,"lon":5.389148,"is_reserved":false,"is_disabled":false,"rental_uris":{"android":"levelo://app?vid=e74ecfe6-eb2e-4c31-b8da-544da791e5bd","ios":"levelo://app?vid=e74ecfe6-eb2e-4c31-b8da-544da791e5bd"},"vehicle_type_id":"4","last_reported":1725203257,"current_range_meters":28400,"station_id":"ce4bhr92rcd13ifvqhrg","pricing_plan_id":"cebpf4jnsgd1na2vs0mg"},{"bike_id":"4d0c7f7e-4a39-46d1-aa2f-2d5da49de3ad","system_id":"levelo_inurba_marseille","lat":43.330442,"lon":5.389148,"is_reserved":false,"is_disabled":false,"rental_uris":{"android":"levelo://app?vid=4d0c7f7e-4a39-46d1-aa2f-2d5da49de3ad","ios":"levelo://app?vid=4d0c7f7e-4a39-46d1-aa2f-2d5da49de3ad"},"vehicle_type_id":"4","last_reported":1725203257,"current_range_meters":31600,"station_id":"ce4bhr92rcd13ifvqhrg","pricing_plan_id":"cebpf4jnsgd1na2vs0mg"},{"bike_id":"5df796a7-002c-4142-8a85-14e157010bd9","system_id":"levelo_inurba_marseille","lat":43.330442,"lon":5.389148,"is_reserved":false,"is_disabled":false,"rental_uris":{"android":"levelo://app?vid=5df796a7-002c-4142-8a85-14e157010bd9","ios":"levelo://app?vid=5df796a7-002c-4142-8a85-14e157010bd9"},"vehicle_type_id":"4","last_reported":1725203257,"current_range_meters":2400,"station_id":"ce4bhr92rcd13ifvqhrg","pricing_plan_id":"cebpf4jnsgd1na2vs0mg"},{"bike_id":"0f8f4c1c-af91-4eef-8fd8-5bc67e76aba9","system_id":"levelo_inurba_marseille","lat":43.330442,"lon":5.389148,"is_reserved":false,"is_disabled":false,"rental_uris":{"android":"levelo://app?vid=0f8f4c1c-af91-4eef-8fd8-5bc67e76aba9","ios":"levelo://app?vid=0f8f4c1c-af91-4eef-8fd8-5bc67e76aba9"},"vehicle_type_id":"4","last_reported":1725203257,"current_range_meters":17200,"station_id":"ce4bhr92rcd13ifvqhrg","pricing_plan_id":"cebpf4jnsgd1na2vs0mg"},{"bike_id":"0f6a6480-8a83-400c-8d21-5145917d4faf","system_id":"levelo_inurba_marseille","lat":43.330442,"lon":5.389148,"is_reserved":false,"is_disabled":false,"rental_uris":{"android":"levelo://app?vid=0f6a6480-8a83-400c-8d21-5145917d4faf","ios":"levelo://app?vid=0f6a6480-8a83-400c-8d21-5145917d4faf"},"vehicle_type_id":"4","last_reported":1725203257,"current_range_meters":800,"station_id":"ce4bhr92rcd13ifvqhrg","pricing_plan_id":"cebpf4jnsgd1na2vs0mg"},{"bike_id":"860f2f85-6e7c-4bb8-9960-82b58fd0cde1","system_id":"levelo_inurba_marseille","lat":43.330442,"lon":5.389148,"is_reserved":false,"is_disabled":false,"rental_uris":{"android":"levelo://app?vid=860f2f85-6e7c-4bb8-9960-82b58fd0cde1","ios":"levelo://app?vid=860f2f85-6e7c-4bb8-9960-82b58fd0cde1"},"vehicle_type_id":"4","last_reported":1725203257,"current_range_meters":25200,"station_id":"ce4bhr92rcd13ifvqhrg","pricing_plan_id":"cebpf4jnsgd1na2vs0mg"},{"bike_id":"4a9a1e51-7219-4a31-a70b-e012f561a7f8","system_id":"levelo_inurba_marseille","lat":43.330442,"lon":5.389148,"is_reserved":false,"is_disabled":false,"rental_uris":{"android":"levelo://app?vid=4a9a1e51-7219-4a31-a70b-e012f561a7f8","ios":"levelo://app?vid=4a9a1e51-7219-4a31-a70b-e012f561a7f8"},"vehicle_type_id":"4","last_reported":1725203257,"current_range_meters":31600,"station_id":"ce4bhr92rcd13ifvqhrg","pricing_plan_id":"cebpf4jnsgd1na2vs0mg"},{"bike_id":"8309b535-efc8-47f5-8520-c061544de8a1","system_id":"levelo_inurba_marseille","lat":43.330442,"lon":5.389148,"is_reserved":false,"is_disabled":false,"rental_uris":{"android":"levelo://app?vid=8309b535-efc8-47f5-8520-c061544de8a1","ios":"levelo://app?vid=8309b535-efc8-47f5-8520-c061544de8a1"},"vehicle_type_id":"4","last_reported":1725203257,"current_range_meters":24000,"station_id":"ce4bhr92rcd13ifvqhrg","pricing_plan_id":"cebpf4jnsgd1na2vs0mg"},{"bike_id":"412f6830-ef0d-4421-a421-c52edee2f9ff","system_id":"levelo_inurba_marseille","lat":43.330442,"lon":5.389148,"is_reserved":false,"is_disabled":false,"rental_uris":{"android":"levelo://app?vid=412f6830-ef0d-4421-a421-c52edee2f9ff","ios":"levelo://app?vid=412f6830-ef0d-4421-a421-c52edee2f9ff"},"vehicle_type_id":"4","last_reported":1725203257,"current_range_meters":15200,"station_id":"ce4bhr92rcd13ifvqhrg","pricing_plan_id":"cebpf4jnsgd1na2vs0mg"},{"bike_id":"589453fd-025c-4398-a195-f24bcecb3f1c","system_id":"levelo_inurba_marseille","lat":43.330442,"lon":5.389148,"is_reserved":false,"is_disabled":false,"rental_uris":{"android":"levelo://app?vid=589453fd-025c-4398-a195-f24bcecb3f1c","ios":"levelo://app?vid=589453fd-025c-4398-a195-f24bcecb3f1c"},"vehicle_type_id":"4","last_reported":1725203257,"current_range_meters":21600,"station_id":"ce4bhr92rcd13ifvqhrg","pricing_plan_id":"cebpf4jnsgd1na2vs0mg"},{"bike_id":"29a83d89-182d-4b33-b7da-3c85251f6618","system_id":"levelo_inurba_marseille","lat":43.29518,"lon":5.39044,"is_reserved":false,"is_disabled":false,"rental_uris":{"android":"levelo://app?vid=29a83d89-182d-4b33-b7da-3c85251f6618","ios":"levelo://app?vid=29a83d89-182d-4b33-b7da-3c85251f6618"},"vehicle_type_id":"4","last_reported":1725203257,"current_range_meters":0,"station_id":"ce4bh3p2rcd13ifvqdp0","pricing_plan_id":"cebpf4jnsgd1na2vs0mg"},{"bike_id":"7321f687-cb9c-45a8-92d0-3d3eadbc340b","system_id":"levelo_inurba_marseille","lat":43.2901,"lon":5.381269,"is_reserved":false,"is_disabled":false,"rental_uris":{"android":"levelo://app?vid=7321f687-cb9c-45a8-92d0-3d3eadbc340b","ios":"levelo://app?vid=7321f687-cb9c-45a8-92d0-3d3eadbc340b"},"vehicle_type_id":"4","last_reported":1725203257,"current_range_meters":0,"station_id":"ce4bh4p2rcd13ifvqe1g","pricing_plan_id":"cebpf4jnsgd1na2vs0mg"},{"bike_id":"0082693f-2327-405d-9ef8-dd6bb2fc4ed9","system_id":"levelo_inurba_marseille","lat":43.2901,"lon":5.381269,"is_reserved":false,"is_disabled":false,"rental_uris":{"android":"levelo://app?vid=0082693f-2327-405d-9ef8-dd6bb2fc4ed9","ios":"levelo://app?vid=0082693f-2327-405d-9ef8-dd6bb2fc4ed9"},"vehicle_type_id":"4","last_reported":1725203257,"current_range_meters":6400,"station_id":"ce4bh4p2rcd13ifvqe1g","pricing_plan_id":"cebpf4jnsgd1na2vs0mg"},{"bike_id":"70ed3991-e84a-4248-9156-485f4607e086","system_id":"levelo_inurba_marseille","lat":43.29025,"lon":5.38134,"is_reserved":false,"is_disabled":false,"rental_uris":{"android":"levelo://app?vid=70ed3991-e84a-4248-9156-485f4607e086","ios":"levelo://app?vid=70ed3991-e84a-4248-9156-485f4607e086"},"vehicle_type_id":"4","last_reported":1725203257,"current_range_meters":0,"station_id":"ce4bh4p2rcd13ifvqe1g","pricing_plan_id":"cebpf4jnsgd1na2vs0mg"},{"bike_id":"f367cb58-c76b-47b3-9766-250706b9f23a","system_id":"levelo_inurba_marseille","lat":43.29019,"lon":5.38137,"is_reserved":false,"is_disabled":false,"rental_uris":{"android":"levelo://app?vid=f367cb58-c76b-47b3-9766-250706b9f23a","ios":"levelo://app?vid=f367cb58-c76b-47b3-9766-250706b9f23a"},"vehicle_type_id":"4","last_reported":1725203257,"current_range_meters":10000,"station_id":"ce4bh4p2rcd13ifvqe1g","pricing_plan_id":"cebpf4jnsgd1na2vs0mg"},{"bike_id":"05d8d472-cc20-4dc0-9a51-7d2829e5a017","system_id":"levelo_inurba_marseille","lat":43.28862,"lon":5.3584,"is_reserved":false,"is_disabled":false,"rental_uris":{"android":"levelo://app?vid=05d8d472-cc20-4dc0-9a51-7d2829e5a017","ios":"levelo://app?vid=05d8d472-cc20-4dc0-9a51-7d2829e5a017"},"vehicle_type_id":"4","last_reported":1725203257,"current_range_meters":31200,"station_id":"ce4bhb12rcd13ifvqem0","pricing_plan_id":"cebpf4jnsgd1na2vs0mg"},{"bike_id":"f66e142a-aa2d-4183-89aa-5881e2bc1119","system_id":"levelo_inurba_marseille","lat":43.28856,"lon":5.358371,"is_reserved":false,"is_disabled":false,"rental_uris":{"android":"levelo://app?vid=f66e142a-aa2d-4183-89aa-5881e2bc1119","ios":"levelo://app?vid=f66e142a-aa2d-4183-89aa-5881e2bc1119"},"vehicle_type_id":"4","last_reported":1725203257,"current_range_meters":31200,"station_id":"ce4bhb12rcd13ifvqem0","pricing_plan_id":"cebpf4jnsgd1na2vs0mg"},{"bike_id":"bd7036d5-eb05-46c1-8340-303da7340f4a","system_id":"levelo_inurba_marseille","lat":43.28848,"lon":5.3584,"is_reserved":false,"is_disabled":false,"rental_uris":{"android":"levelo://app?vid=bd7036d5-eb05-46c1-8340-303da7340f4a","ios":"levelo://app?vid=bd7036d5-eb05-46c1-8340-303da7340f4a"},"vehicle_type_id":"4","last_reported":1725203257,"current_range_meters":14400,"station_id":"ce4bhb12rcd13ifvqem0","pricing_plan_id":"cebpf4jnsgd1na2vs0mg"},{"bike_id":"33d79774-0d6c-49f8-b222-29d3842da320","system_id":"levelo_inurba_marseille","lat":43.312609,"lon":5.401662,"is_reserved":false,"is_disabled":false,"rental_uris":{"android":"levelo://app?vid=33d79774-0d6c-49f8-b222-29d3842da320","ios":"levelo://app?vid=33d79774-0d6c-49f8-b222-29d3842da320"},"vehicle_type_id":"4","last_reported":1725203257,"current_range_meters":18400,"station_id":"ce4bh092rcd13ifvqd30","pricing_plan_id":"cebpf4jnsgd1na2vs0mg"},{"bike_id":"2cf757ba-6687-4498-9085-10d09452f568","system_id":"levelo_inurba_marseille","lat":43.33745,"lon":5.37453,"is_reserved":false,"is_disabled":false,"rental_uris":{"android":"levelo://app?vid=2cf757ba-6687-4498-9085-10d09452f568","ios":"levelo://app?vid=2cf757ba-6687-4498-9085-10d09452f568"},"vehicle_type_id":"4","last_reported":1725203257,"current_range_meters":26400,"station_id":"","pricing_plan_id":"cebpf4jnsgd1na2vs0mg"},{"bike_id":"faea9383-f682-43d6-a902-248b7cc06d96","system_id":"levelo_inurba_marseille","lat":43.30933,"lon":5.40147,"is_reserved":false,"is_disabled":false,"rental_uris":{"android":"levelo://app?vid=faea9383-f682-43d6-a902-248b7cc06d96","ios":"levelo://app?vid=faea9383-f682-43d6-a902-248b7cc06d96"},"vehicle_type_id":"4","last_reported":1725203257,"current_range_meters":28400,"station_id":"ce4bgvp2rcd13ifvqct0","pricing_plan_id":"cebpf4jnsgd1na2vs0mg"},{"bike_id":"8cac9b46-db8b-4978-9ee4-b0375bb93662","system_id":"levelo_inurba_marseille","lat":43.33749,"lon":5.37468,"is_reserved":false,"is_disabled":false,"rental_uris":{"android":"levelo://app?vid=8cac9b46-db8b-4978-9ee4-b0375bb93662","ios":"levelo://app?vid=8cac9b46-db8b-4978-9ee4-b0375bb93662"},"vehicle_type_id":"4","last_reported":1725203257,"current_range_meters":22800,"station_id":"","pricing_plan_id":"cebpf4jnsgd1na2vs0mg"},{"bike_id":"a8227e9b-bd18-4fc0-b815-b7e484f2391f","system_id":"levelo_inurba_marseille","lat":43.33756,"lon":5.37449,"is_reserved":false,"is_disabled":false,"rental_uris":{"android":"levelo://app?vid=a8227e9b-bd18-4fc0-b815-b7e484f2391f","ios":"levelo://app?vid=a8227e9b-bd18-4fc0-b815-b7e484f2391f"},"vehicle_type_id":"4","last_reported":1725203257,"current_range_meters":25600,"station_id":"","pricing_plan_id":"cebpf4jnsgd1na2vs0mg"},{"bike_id":"0d66d1a0-301a-411d-9ede-63db2ac708b4","system_id":"levelo_inurba_marseille","lat":43.301117,"lon":5.398795,"is_reserved":false,"is_disabled":false,"rental_uris":{"android":"levelo://app?vid=0d66d1a0-301a-411d-9ede-63db2ac708b4","ios":"levelo://app?vid=0d66d1a0-301a-411d-9ede-63db2ac708b4"},"vehicle_type_id":"4","last_reported":1725203257,"current_range_meters":4400,"station_id":"ce4bh0h2rcd13ifvqd40","pricing_plan_id":"cebpf4jnsgd1na2vs0mg"},{"bike_id":"9a4ff721-2740-4516-b510-f44c2349ab13","system_id":"levelo_inurba_marseille","lat":43.30137,"lon":5.39871,"is_reserved":false,"is_disabled":false,"rental_uris":{"android":"levelo://app?vid=9a4ff721-2740-4516-b510-f44c2349ab13","ios":"levelo://app?vid=9a4ff721-2740-4516-b510-f44c2349ab13"},"vehicle_type_id":"4","last_reported":1725203257,"current_range_meters":0,"station_id":"ce4bh0h2rcd13ifvqd40","pricing_plan_id":"cebpf4jnsgd1na2vs0mg"},{"bike_id":"735e6a0f-6af1-457c-bf20-62336707680a","system_id":"levelo_inurba_marseille","lat":43.286961,"lon":5.373785,"is_reserved":false,"is_disabled":false,"rental_uris":{"android":"levelo://app?vid=735e6a0f-6af1-457c-bf20-62336707680a","ios":"levelo://app?vid=735e6a0f-6af1-457c-bf20-62336707680a"},"vehicle_type_id":"4","last_reported":1725203257,"current_range_meters":0,"station_id":"ce4bh3p2rcd13ifvqdq0","pricing_plan_id":"cebpf4jnsgd1na2vs0mg"},{"bike_id":"c3358308-7947-4415-bcd1-6168557a498a","system_id":"levelo_inurba_marseille","lat":43.302759,"lon":5.400793,"is_reserved":false,"is_disabled":false,"rental_uris":{"android":"levelo://app?vid=c3358308-7947-4415-bcd1-6168557a498a","ios":"levelo://app?vid=c3358308-7947-4415-bcd1-6168557a498a"},"vehicle_type_id":"4","last_reported":1725203257,"current_range_meters":400,"station_id":"ce4bgvh2rcd13ifvqcs0","pricing_plan_id":"cebpf4jnsgd1na2vs0mg"},{"bike_id":"9f0afedf-5d47-4c70-96af-fcc3fc486cdc","system_id":"levelo_inurba_marseille","lat":43.290345,"lon":5.38646,"is_reserved":false,"is_disabled":false,"rental_uris":{"android":"levelo://app?vid=9f0afedf-5d47-4c70-96af-fcc3fc486cdc","ios":"levelo://app?vid=9f0afedf-5d47-4c70-96af-fcc3fc486cdc"},"vehicle_type_id":"4","last_reported":1725203257,"current_range_meters":0,"station_id":"ce4bh4p2rcd13ifvqe0g","pricing_plan_id":"cebpf4jnsgd1na2vs0mg"},{"bike_id":"ef753e0e-7a55-419c-a4b3-178a5f2acb71","system_id":"levelo_inurba_marseille","lat":43.290336,"lon":5.386425,"is_reserved":false,"is_disabled":false,"rental_uris":{"android":"levelo://app?vid=ef753e0e-7a55-419c-a4b3-178a5f2acb71","ios":"levelo://app?vid=ef753e0e-7a55-419c-a4b3-178a5f2acb71"},"vehicle_type_id":"4","last_reported":1725203257,"current_range_meters":800,"station_id":"ce4bh4p2rcd13ifvqe0g","pricing_plan_id":"cebpf4jnsgd1na2vs0mg"},{"bike_id":"9e27197e-1a8e-4277-9b0c-bffe628c7c0a","system_id":"levelo_inurba_marseille","lat":43.302759,"lon":5.400793,"is_reserved":false,"is_disabled":false,"rental_uris":{"android":"levelo://app?vid=9e27197e-1a8e-4277-9b0c-bffe628c7c0a","ios":"levelo://app?vid=9e27197e-1a8e-4277-9b0c-bffe628c7c0a"},"vehicle_type_id":"4","last_reported":1725203257,"current_range_meters":23200,"station_id":"ce4bgvh2rcd13ifvqcs0","pricing_plan_id":"cebpf4jnsgd1na2vs0mg"},{"bike_id":"c20bf293-4477-4e8e-b974-f37b683678dc","system_id":"levelo_inurba_marseille","lat":43.286039,"lon":5.370679,"is_reserved":false,"is_disabled":false,"rental_uris":{"android":"levelo://app?vid=c20bf293-4477-4e8e-b974-f37b683678dc","ios":"levelo://app?vid=c20bf293-4477-4e8e-b974-f37b683678dc"},"vehicle_type_id":"4","last_reported":1725203257,"current_range_meters":12400,"station_id":"ce4bht12rcd13ifvqi60","pricing_plan_id":"cebpf4jnsgd1na2vs0mg"},{"bike_id":"523a2100-b504-4848-a7d8-45945e5e49b1","system_id":"levelo_inurba_marseille","lat":43.286084,"lon":5.370691,"is_reserved":false,"is_disabled":false,"rental_uris":{"android":"levelo://app?vid=523a2100-b504-4848-a7d8-45945e5e49b1","ios":"levelo://app?vid=523a2100-b504-4848-a7d8-45945e5e49b1"},"vehicle_type_id":"4","last_reported":1725203257,"current_range_meters":4000,"station_id":"","pricing_plan_id":"cebpf4jnsgd1na2vs0mg"},{"bike_id":"1d17a55d-3cce-4706-8e0a-900f5a6d8764","system_id":"levelo_inurba_marseille","lat":43.286039,"lon":5.370679,"is_reserved":false,"is_disabled":false,"rental_uris":{"android":"levelo://app?vid=1d17a55d-3cce-4706-8e0a-900f5a6d8764","ios":"levelo://app?vid=1d17a55d-3cce-4706-8e0a-900f5a6d8764"},"vehicle_type_id":"4","last_reported":1725203257,"current_range_meters":0,"station_id":"ce4bht12rcd13ifvqi60","pricing_plan_id":"cebpf4jnsgd1na2vs0mg"},{"bike_id":"90eaa0e3-f94c-4319-a356-53696cdd0269","system_id":"levelo_inurba_marseille","lat":43.28725,"lon":5.3793,"is_reserved":false,"is_disabled":false,"rental_uris":{"android":"levelo://app?vid=90eaa0e3-f94c-4319-a356-53696cdd0269","ios":"levelo://app?vid=90eaa0e3-f94c-4319-a356-53696cdd0269"},"vehicle_type_id":"4","last_reported":1725203257,"current_range_meters":7200,"station_id":"ce4bh9p2rcd13ifvqec0","pricing_plan_id":"cebpf4jnsgd1na2vs0mg"},{"bike_id":"2be6819c-c632-4162-9d01-083c5272666b","system_id":"levelo_inurba_marseille","lat":43.327418,"lon":5.398822,"is_reserved":false,"is_disabled":false,"rental_uris":{"android":"levelo://app?vid=2be6819c-c632-4162-9d01-083c5272666b","ios":"levelo://app?vid=2be6819c-c632-4162-9d01-083c5272666b"},"vehicle_type_id":"4","last_reported":1725203257,"current_range_meters":15600,"station_id":"","pricing_plan_id":"cebpf4jnsgd1na2vs0mg"},{"bike_id":"336d114b-f7f3-4baa-9f9f-c5aed4d80144","system_id":"levelo_inurba_marseille","lat":43.31689,"lon":5.40455,"is_reserved":false,"is_disabled":false,"rental_uris":{"android":"levelo://app?vid=336d114b-f7f3-4baa-9f9f-c5aed4d80144","ios":"levelo://app?vid=336d114b-f7f3-4baa-9f9f-c5aed4d80144"},"vehicle_type_id":"4","last_reported":1725203257,"current_range_meters":0,"station_id":"ce4bh012rcd13ifvqd00","pricing_plan_id":"cebpf4jnsgd1na2vs0mg"},{"bike_id":"406f9e27-f9ac-419c-84ca-baf67706a77d","system_id":"levelo_inurba_marseille","lat":43.316821,"lon":5.404737,"is_reserved":false,"is_disabled":false,"rental_uris":{"android":"levelo://app?vid=406f9e27-f9ac-419c-84ca-baf67706a77d","ios":"levelo://app?vid=406f9e27-f9ac-419c-84ca-baf67706a77d"},"vehicle_type_id":"4","last_reported":1725203257,"current_range_meters":1200,"station_id":"ce4bh012rcd13ifvqd00","pricing_plan_id":"cebpf4jnsgd1na2vs0mg"},{"bike_id":"017576dc-9140-492c-9231-6bb1bc117985","system_id":"levelo_inurba_marseille","lat":43.284538,"lon":5.358657,"is_reserved":false,"is_disabled":false,"rental_uris":{"android":"levelo://app?vid=017576dc-9140-492c-9231-6bb1bc117985","ios":"levelo://app?vid=017576dc-9140-492c-9231-6bb1bc117985"},"vehicle_type_id":"4","last_reported":1725203257,"current_range_meters":10400,"station_id":"ce4bhah2rcd13ifvqei0","pricing_plan_id":"cebpf4jnsgd1na2vs0mg"},{"bike_id":"86bb83d7-bf24-4761-8dd6-5803bb9a9dbd","system_id":"levelo_inurba_marseille","lat":43.303256,"lon":5.404389,"is_reserved":false,"is_disabled":false,"rental_uris":{"android":"levelo://app?vid=86bb83d7-bf24-4761-8dd6-5803bb9a9dbd","ios":"levelo://app?vid=86bb83d7-bf24-4761-8dd6-5803bb9a9dbd"},"vehicle_type_id":"4","last_reported":1725203257,"current_range_meters":0,"station_id":"ce4bh012rcd13ifvqd10","pricing_plan_id":"cebpf4jnsgd1na2vs0mg"},{"bike_id":"184b4ab4-4cb6-4e05-b440-062b8ac4b6a4","system_id":"levelo_inurba_marseille","lat":43.303256,"lon":5.404389,"is_reserved":false,"is_disabled":false,"rental_uris":{"android":"levelo://app?vid=184b4ab4-4cb6-4e05-b440-062b8ac4b6a4","ios":"levelo://app?vid=184b4ab4-4cb6-4e05-b440-062b8ac4b6a4"},"vehicle_type_id":"4","last_reported":1725203257,"current_range_meters":0,"station_id":"ce4bh012rcd13ifvqd10","pricing_plan_id":"cebpf4jnsgd1na2vs0mg"},{"bike_id":"2e181bbe-49d5-49a1-b892-1f22bad96a8c","system_id":"levelo_inurba_marseille","lat":43.303268,"lon":5.40439,"is_reserved":false,"is_disabled":false,"rental_uris":{"android":"levelo://app?vid=2e181bbe-49d5-49a1-b892-1f22bad96a8c","ios":"levelo://app?vid=2e181bbe-49d5-49a1-b892-1f22bad96a8c"},"vehicle_type_id":"4","last_reported":1725203257,"current_range_meters":0,"station_id":"ce4bh012rcd13ifvqd10","pricing_plan_id":"cebpf4jnsgd1na2vs0mg"},{"bike_id":"a0acca20-6525-4a16-bc14-7c97cf864b7e","system_id":"levelo_inurba_marseille","lat":43.28619,"lon":5.35108,"is_reserved":false,"is_disabled":false,"rental_uris":{"android":"levelo://app?vid=a0acca20-6525-4a16-bc14-7c97cf864b7e","ios":"levelo://app?vid=a0acca20-6525-4a16-bc14-7c97cf864b7e"},"vehicle_type_id":"4","last_reported":1725203257,"current_range_meters":11600,"station_id":"ce4bhch2rcd13ifvqeug","pricing_plan_id":"cebpf4jnsgd1na2vs0mg"},{"bike_id":"f0502b85-aaa9-48db-a1fe-4a5e09519f54","system_id":"levelo_inurba_marseille","lat":43.28619,"lon":5.35108,"is_reserved":false,"is_disabled":false,"rental_uris":{"android":"levelo://app?vid=f0502b85-aaa9-48db-a1fe-4a5e09519f54","ios":"levelo://app?vid=f0502b85-aaa9-48db-a1fe-4a5e09519f54"},"vehicle_type_id":"4","last_reported":1725203257,"current_range_meters":10800,"station_id":"ce4bhch2rcd13ifvqeug","pricing_plan_id":"cebpf4jnsgd1na2vs0mg"},{"bike_id":"82457d8c-0f9d-41b5-83fe-20386ee62b4c","system_id":"levelo_inurba_marseille","lat":43.285856,"lon":5.350771,"is_reserved":false,"is_disabled":false,"rental_uris":{"android":"levelo://app?vid=82457d8c-0f9d-41b5-83fe-20386ee62b4c","ios":"levelo://app?vid=82457d8c-0f9d-41b5-83fe-20386ee62b4c"},"vehicle_type_id":"4","last_reported":1725203257,"current_range_meters":31200,"station_id":"ce4bhch2rcd13ifvqeug","pricing_plan_id":"cebpf4jnsgd1na2vs0mg"},{"bike_id":"bc36774a-cade-4352-b11f-5d12fd3385f1","system_id":"levelo_inurba_marseille","lat":43.28617,"lon":5.35103,"is_reserved":false,"is_disabled":false,"rental_uris":{"android":"levelo://app?vid=bc36774a-cade-4352-b11f-5d12fd3385f1","ios":"levelo://app?vid=bc36774a-cade-4352-b11f-5d12fd3385f1"},"vehicle_type_id":"4","last_reported":1725203257,"current_range_meters":30400,"station_id":"ce4bhch2rcd13ifvqeug","pricing_plan_id":"cebpf4jnsgd1na2vs0mg"},{"bike_id":"b790960e-5572-486e-98a2-7a8d76cb2a25","system_id":"levelo_inurba_marseille","lat":43.28616,"lon":5.35104,"is_reserved":false,"is_disabled":false,"rental_uris":{"android":"levelo://app?vid=b790960e-5572-486e-98a2-7a8d76cb2a25","ios":"levelo://app?vid=b790960e-5572-486e-98a2-7a8d76cb2a25"},"vehicle_type_id":"4","last_reported":1725203257,"current_range_meters":21200,"station_id":"ce4bhch2rcd13ifvqeug","pricing_plan_id":"cebpf4jnsgd1na2vs0mg"},{"bike_id":"bb62cc1b-66e7-4f84-84bd-154614dcdcbc","system_id":"levelo_inurba_marseille","lat":43.285856,"lon":5.350771,"is_reserved":false,"is_disabled":false,"rental_uris":{"android":"levelo://app?vid=bb62cc1b-66e7-4f84-84bd-154614dcdcbc","ios":"levelo://app?vid=bb62cc1b-66e7-4f84-84bd-154614dcdcbc"},"vehicle_type_id":"4","last_reported":1725203257,"current_range_meters":0,"station_id":"ce4bhch2rcd13ifvqeug","pricing_plan_id":"cebpf4jnsgd1na2vs0mg"},{"bike_id":"5b7df8cc-c6f0-485e-9152-17dc06bff321","system_id":"levelo_inurba_marseille","lat":43.285856,"lon":5.350771,"is_reserved":false,"is_disabled":false,"rental_uris":{"android":"levelo://app?vid=5b7df8cc-c6f0-485e-9152-17dc06bff321","ios":"levelo://app?vid=5b7df8cc-c6f0-485e-9152-17dc06bff321"},"vehicle_type_id":"4","last_reported":1725203257,"current_range_meters":13200,"station_id":"ce4bhch2rcd13ifvqeug","pricing_plan_id":"cebpf4jnsgd1na2vs0mg"},{"bike_id":"1c2e2e19-63de-4228-a041-59bf845a7a6b","system_id":"levelo_inurba_marseille","lat":43.285856,"lon":5.350771,"is_reserved":false,"is_disabled":false,"rental_uris":{"android":"levelo://app?vid=1c2e2e19-63de-4228-a041-59bf845a7a6b","ios":"levelo://app?vid=1c2e2e19-63de-4228-a041-59bf845a7a6b"},"vehicle_type_id":"4","last_reported":1725203257,"current_range_meters":24400,"station_id":"ce4bhch2rcd13ifvqeug","pricing_plan_id":"cebpf4jnsgd1na2vs0mg"},{"bike_id":"c1189314-7f6e-4163-91f5-2c3a68bb1d79","system_id":"levelo_inurba_marseille","lat":43.285856,"lon":5.350771,"is_reserved":false,"is_disabled":false,"rental_uris":{"android":"levelo://app?vid=c1189314-7f6e-4163-91f5-2c3a68bb1d79","ios":"levelo://app?vid=c1189314-7f6e-4163-91f5-2c3a68bb1d79"},"vehicle_type_id":"4","last_reported":1725203257,"current_range_meters":24400,"station_id":"ce4bhch2rcd13ifvqeug","pricing_plan_id":"cebpf4jnsgd1na2vs0mg"},{"bike_id":"c889d1aa-e6b5-4a3e-9e71-d9baf46a65a5","system_id":"levelo_inurba_marseille","lat":43.285856,"lon":5.350771,"is_reserved":false,"is_disabled":false,"rental_uris":{"android":"levelo://app?vid=c889d1aa-e6b5-4a3e-9e71-d9baf46a65a5","ios":"levelo://app?vid=c889d1aa-e6b5-4a3e-9e71-d9baf46a65a5"},"vehicle_type_id":"4","last_reported":1725203257,"current_range_meters":31200,"station_id":"ce4bhch2rcd13ifvqeug","pricing_plan_id":"cebpf4jnsgd1na2vs0mg"},{"bike_id":"8aa3e6b7-a52b-4a92-84c4-24b4dc3c11e3","system_id":"levelo_inurba_marseille","lat":43.285856,"lon":5.350771,"is_reserved":false,"is_disabled":false,"rental_uris":{"android":"levelo://app?vid=8aa3e6b7-a52b-4a92-84c4-24b4dc3c11e3","ios":"levelo://app?vid=8aa3e6b7-a52b-4a92-84c4-24b4dc3c11e3"},"vehicle_type_id":"4","last_reported":1725203257,"current_range_meters":22800,"station_id":"ce4bhch2rcd13ifvqeug","pricing_plan_id":"cebpf4jnsgd1na2vs0mg"},{"bike_id":"a73001d3-a376-4536-b7aa-162b80043c58","system_id":"levelo_inurba_marseille","lat":43.285856,"lon":5.350771,"is_reserved":false,"is_disabled":false,"rental_uris":{"android":"levelo://app?vid=a73001d3-a376-4536-b7aa-162b80043c58","ios":"levelo://app?vid=a73001d3-a376-4536-b7aa-162b80043c58"},"vehicle_type_id":"4","last_reported":1725203257,"current_range_meters":11600,"station_id":"ce4bhch2rcd13ifvqeug","pricing_plan_id":"cebpf4jnsgd1na2vs0mg"},{"bike_id":"b6d0b6da-969a-4665-9be8-2b45fa13980b","system_id":"levelo_inurba_marseille","lat":43.28429,"lon":5.37514,"is_reserved":false,"is_disabled":false,"rental_uris":{"android":"levelo://app?vid=b6d0b6da-969a-4665-9be8-2b45fa13980b","ios":"levelo://app?vid=b6d0b6da-969a-4665-9be8-2b45fa13980b"},"vehicle_type_id":"4","last_reported":1725203257,"current_range_meters":0,"station_id":"ce4bh412rcd13ifvqds0","pricing_plan_id":"cebpf4jnsgd1na2vs0mg"},{"bike_id":"9ca2fc1d-2f8e-4b92-af9a-09312acd11a4","system_id":"levelo_inurba_marseille","lat":43.283998,"lon":5.375062,"is_reserved":false,"is_disabled":false,"rental_uris":{"android":"levelo://app?vid=9ca2fc1d-2f8e-4b92-af9a-09312acd11a4","ios":"levelo://app?vid=9ca2fc1d-2f8e-4b92-af9a-09312acd11a4"},"vehicle_type_id":"4","last_reported":1725203257,"current_range_meters":0,"station_id":"ce4bh412rcd13ifvqds0","pricing_plan_id":"cebpf4jnsgd1na2vs0mg"},{"bike_id":"ef433f60-bfd2-4a34-a26c-89ff96fe31c0","system_id":"levelo_inurba_marseille","lat":43.295713,"lon":5.399639,"is_reserved":false,"is_disabled":false,"rental_uris":{"android":"levelo://app?vid=ef433f60-bfd2-4a34-a26c-89ff96fe31c0","ios":"levelo://app?vid=ef433f60-bfd2-4a34-a26c-89ff96fe31c0"},"vehicle_type_id":"4","last_reported":1725203257,"current_range_meters":0,"station_id":"ce4bh312rcd13ifvqdj0","pricing_plan_id":"cebpf4jnsgd1na2vs0mg"},{"bike_id":"c56adfdb-7284-4e54-baee-a213afc6b9af","system_id":"levelo_inurba_marseille","lat":43.286595,"lon":5.386795,"is_reserved":false,"is_disabled":false,"rental_uris":{"android":"levelo://app?vid=c56adfdb-7284-4e54-baee-a213afc6b9af","ios":"levelo://app?vid=c56adfdb-7284-4e54-baee-a213afc6b9af"},"vehicle_type_id":"4","last_reported":1725203257,"current_range_meters":22400,"station_id":"ce4bh492rcd13ifvqdug","pricing_plan_id":"cebpf4jnsgd1na2vs0mg"},{"bike_id":"f6e93860-55ee-454f-a2a4-cf5124da8489","system_id":"levelo_inurba_marseille","lat":43.319179,"lon":5.407725,"is_reserved":false,"is_disabled":false,"rental_uris":{"android":"levelo://app?vid=f6e93860-55ee-454f-a2a4-cf5124da8489","ios":"levelo://app?vid=f6e93860-55ee-454f-a2a4-cf5124da8489"},"vehicle_type_id":"4","last_reported":1725203257,"current_range_meters":23200,"station_id":"ce4bhq12rcd13ifvqhig","pricing_plan_id":"cebpf4jnsgd1na2vs0mg"},{"bike_id":"f633d92d-5aa4-44df-9a3d-68df5c68c41a","system_id":"levelo_inurba_marseille","lat":43.31886,"lon":5.40736,"is_reserved":false,"is_disabled":false,"rental_uris":{"android":"levelo://app?vid=f633d92d-5aa4-44df-9a3d-68df5c68c41a","ios":"levelo://app?vid=f633d92d-5aa4-44df-9a3d-68df5c68c41a"},"vehicle_type_id":"4","last_reported":1725203257,"current_range_meters":4800,"station_id":"ce4bhq12rcd13ifvqhig","pricing_plan_id":"cebpf4jnsgd1na2vs0mg"},{"bike_id":"f0558cbf-cf9e-4460-8ecc-bd1174105de2","system_id":"levelo_inurba_marseille","lat":43.28834,"lon":5.39107,"is_reserved":false,"is_disabled":false,"rental_uris":{"android":"levelo://app?vid=f0558cbf-cf9e-4460-8ecc-bd1174105de2","ios":"levelo://app?vid=f0558cbf-cf9e-4460-8ecc-bd1174105de2"},"vehicle_type_id":"4","last_reported":1725203257,"current_range_meters":0,"station_id":"","pricing_plan_id":"cebpf4jnsgd1na2vs0mg"},{"bike_id":"f3823159-8820-42fc-a661-3fb83b6dfe50","system_id":"levelo_inurba_marseille","lat":43.33717,"lon":5.391857,"is_reserved":false,"is_disabled":false,"rental_uris":{"android":"levelo://app?vid=f3823159-8820-42fc-a661-3fb83b6dfe50","ios":"levelo://app?vid=f3823159-8820-42fc-a661-3fb83b6dfe50"},"vehicle_type_id":"4","last_reported":1725203257,"current_range_meters":31200,"station_id":"ce4bhr92rcd13ifvqhsg","pricing_plan_id":"cebpf4jnsgd1na2vs0mg"},{"bike_id":"69246e0c-ac8e-439f-91b0-3574266e4a5b","system_id":"levelo_inurba_marseille","lat":43.323464,"lon":5.406297,"is_reserved":false,"is_disabled":false,"rental_uris":{"android":"levelo://app?vid=69246e0c-ac8e-439f-91b0-3574266e4a5b","ios":"levelo://app?vid=69246e0c-ac8e-439f-91b0-3574266e4a5b"},"vehicle_type_id":"4","last_reported":1725203257,"current_range_meters":11600,"station_id":"ce4bhq92rcd13ifvqhjg","pricing_plan_id":"cebpf4jnsgd1na2vs0mg"},{"bike_id":"ab80b43c-4964-4579-bbca-26b86a4f6a26","system_id":"levelo_inurba_marseille","lat":43.323464,"lon":5.406297,"is_reserved":false,"is_disabled":false,"rental_uris":{"android":"levelo://app?vid=ab80b43c-4964-4579-bbca-26b86a4f6a26","ios":"levelo://app?vid=ab80b43c-4964-4579-bbca-26b86a4f6a26"},"vehicle_type_id":"4","last_reported":1725203257,"current_range_meters":8000,"station_id":"ce4bhq92rcd13ifvqhjg","pricing_plan_id":"cebpf4jnsgd1na2vs0mg"},{"bike_id":"bb0e7740-7861-4bd7-acd0-210fce8e654c","system_id":"levelo_inurba_marseille","lat":43.337168,"lon":5.391825,"is_reserved":false,"is_disabled":false,"rental_uris":{"android":"levelo://app?vid=bb0e7740-7861-4bd7-acd0-210fce8e654c","ios":"levelo://app?vid=bb0e7740-7861-4bd7-acd0-210fce8e654c"},"vehicle_type_id":"4","last_reported":1725203257,"current_range_meters":30000,"station_id":"ce4bhr92rcd13ifvqhsg","pricing_plan_id":"cebpf4jnsgd1na2vs0mg"},{"bike_id":"2b55b6d6-d82b-4fb6-941a-93e4a5f274cd","system_id":"levelo_inurba_marseille","lat":43.32346,"lon":5.40621,"is_reserved":false,"is_disabled":false,"rental_uris":{"android":"levelo://app?vid=2b55b6d6-d82b-4fb6-941a-93e4a5f274cd","ios":"levelo://app?vid=2b55b6d6-d82b-4fb6-941a-93e4a5f274cd"},"vehicle_type_id":"4","last_reported":1725203257,"current_range_meters":28400,"station_id":"ce4bhq92rcd13ifvqhjg","pricing_plan_id":"cebpf4jnsgd1na2vs0mg"},{"bike_id":"af2d91a5-2804-468d-936e-07379e770b84","system_id":"levelo_inurba_marseille","lat":43.337168,"lon":5.391825,"is_reserved":false,"is_disabled":false,"rental_uris":{"android":"levelo://app?vid=af2d91a5-2804-468d-936e-07379e770b84","ios":"levelo://app?vid=af2d91a5-2804-468d-936e-07379e770b84"},"vehicle_type_id":"4","last_reported":1725203257,"current_range_meters":10800,"station_id":"ce4bhr92rcd13ifvqhsg","pricing_plan_id":"cebpf4jnsgd1na2vs0mg"},{"bike_id":"34a3d46d-3604-489d-af0c-dedfd955c44d","system_id":"levelo_inurba_marseille","lat":43.32351,"lon":5.40622,"is_reserved":false,"is_disabled":false,"rental_uris":{"android":"levelo://app?vid=34a3d46d-3604-489d-af0c-dedfd955c44d","ios":"levelo://app?vid=34a3d46d-3604-489d-af0c-dedfd955c44d"},"vehicle_type_id":"4","last_reported":1725203257,"current_range_meters":27200,"station_id":"ce4bhq92rcd13ifvqhjg","pricing_plan_id":"cebpf4jnsgd1na2vs0mg"},{"bike_id":"cef1b052-0a7b-4a95-9915-bbbba6066aa2","system_id":"levelo_inurba_marseille","lat":43.284776,"lon":5.385603,"is_reserved":false,"is_disabled":false,"rental_uris":{"android":"levelo://app?vid=cef1b052-0a7b-4a95-9915-bbbba6066aa2","ios":"levelo://app?vid=cef1b052-0a7b-4a95-9915-bbbba6066aa2"},"vehicle_type_id":"4","last_reported":1725203257,"current_range_meters":1200,"station_id":"ce4bh8p2rcd13ifvqeb0","pricing_plan_id":"cebpf4jnsgd1na2vs0mg"},{"bike_id":"240965b9-3be6-472f-ac43-bbb9e2fbab92","system_id":"levelo_inurba_marseille","lat":43.284313,"lon":5.34981,"is_reserved":false,"is_disabled":false,"rental_uris":{"android":"levelo://app?vid=240965b9-3be6-472f-ac43-bbb9e2fbab92","ios":"levelo://app?vid=240965b9-3be6-472f-ac43-bbb9e2fbab92"},"vehicle_type_id":"4","last_reported":1725203257,"current_range_meters":16000,"station_id":"ce4bhbh2rcd13ifvqepg","pricing_plan_id":"cebpf4jnsgd1na2vs0mg"},{"bike_id":"98db0323-f897-446d-8934-719177f99461","system_id":"levelo_inurba_marseille","lat":43.28429,"lon":5.34982,"is_reserved":false,"is_disabled":false,"rental_uris":{"android":"levelo://app?vid=98db0323-f897-446d-8934-719177f99461","ios":"levelo://app?vid=98db0323-f897-446d-8934-719177f99461"},"vehicle_type_id":"4","last_reported":1725203257,"current_range_meters":22000,"station_id":"ce4bhbh2rcd13ifvqepg","pricing_plan_id":"cebpf4jnsgd1na2vs0mg"},{"bike_id":"6fba12ff-4239-4494-9254-05bfa00f2e1e","system_id":"levelo_inurba_marseille","lat":43.284275,"lon":5.349826,"is_reserved":false,"is_disabled":false,"rental_uris":{"android":"levelo://app?vid=6fba12ff-4239-4494-9254-05bfa00f2e1e","ios":"levelo://app?vid=6fba12ff-4239-4494-9254-05bfa00f2e1e"},"vehicle_type_id":"4","last_reported":1725203257,"current_range_meters":25200,"station_id":"ce4bhbh2rcd13ifvqepg","pricing_plan_id":"cebpf4jnsgd1na2vs0mg"},{"bike_id":"77ff9ab2-3540-46fa-a17b-78e3227e0efe","system_id":"levelo_inurba_marseille","lat":43.283494,"lon":5.380945,"is_reserved":false,"is_disabled":false,"rental_uris":{"android":"levelo://app?vid=77ff9ab2-3540-46fa-a17b-78e3227e0efe","ios":"levelo://app?vid=77ff9ab2-3540-46fa-a17b-78e3227e0efe"},"vehicle_type_id":"4","last_reported":1725203257,"current_range_meters":16400,"station_id":"ce4bh412rcd13ifvqdr0","pricing_plan_id":"cebpf4jnsgd1na2vs0mg"},{"bike_id":"f1e35834-1579-4292-9a6a-231b35749ce5","system_id":"levelo_inurba_marseille","lat":43.28425,"lon":5.349801,"is_reserved":false,"is_disabled":false,"rental_uris":{"android":"levelo://app?vid=f1e35834-1579-4292-9a6a-231b35749ce5","ios":"levelo://app?vid=f1e35834-1579-4292-9a6a-231b35749ce5"},"vehicle_type_id":"4","last_reported":1725203257,"current_range_meters":22400,"station_id":"ce4bhbh2rcd13ifvqepg","pricing_plan_id":"cebpf4jnsgd1na2vs0mg"},{"bike_id":"1033fa2b-39d7-4cc1-9f0c-37017523987f","system_id":"levelo_inurba_marseille","lat":43.288501,"lon":5.393087,"is_reserved":false,"is_disabled":false,"rental_uris":{"android":"levelo://app?vid=1033fa2b-39d7-4cc1-9f0c-37017523987f","ios":"levelo://app?vid=1033fa2b-39d7-4cc1-9f0c-37017523987f"},"vehicle_type_id":"4","last_reported":1725203257,"current_range_meters":16800,"station_id":"ce4bh2p2rcd13ifvqdi0","pricing_plan_id":"cebpf4jnsgd1na2vs0mg"},{"bike_id":"2e8acb3d-450a-478d-b08a-71ba271a7693","system_id":"levelo_inurba_marseille","lat":43.2842,"lon":5.34991,"is_reserved":false,"is_disabled":false,"rental_uris":{"android":"levelo://app?vid=2e8acb3d-450a-478d-b08a-71ba271a7693","ios":"levelo://app?vid=2e8acb3d-450a-478d-b08a-71ba271a7693"},"vehicle_type_id":"4","last_reported":1725203257,"current_range_meters":0,"station_id":"ce4bhbh2rcd13ifvqepg","pricing_plan_id":"cebpf4jnsgd1na2vs0mg"},{"bike_id":"723bc370-f82e-4e3e-b76d-2ff2c356f895","system_id":"levelo_inurba_marseille","lat":43.284219,"lon":5.3497,"is_reserved":false,"is_disabled":false,"rental_uris":{"android":"levelo://app?vid=723bc370-f82e-4e3e-b76d-2ff2c356f895","ios":"levelo://app?vid=723bc370-f82e-4e3e-b76d-2ff2c356f895"},"vehicle_type_id":"4","last_reported":1725203257,"current_range_meters":25600,"station_id":"ce4bhbh2rcd13ifvqepg","pricing_plan_id":"cebpf4jnsgd1na2vs0mg"},{"bike_id":"4c56e026-2bed-4a14-8e34-6d83cb4019b3","system_id":"levelo_inurba_marseille","lat":43.284217,"lon":5.349697,"is_reserved":false,"is_disabled":false,"rental_uris":{"android":"levelo://app?vid=4c56e026-2bed-4a14-8e34-6d83cb4019b3","ios":"levelo://app?vid=4c56e026-2bed-4a14-8e34-6d83cb4019b3"},"vehicle_type_id":"4","last_reported":1725203257,"current_range_meters":26400,"station_id":"ce4bhbh2rcd13ifvqepg","pricing_plan_id":"cebpf4jnsgd1na2vs0mg"},{"bike_id":"9f5bfec9-48c3-4047-9f2e-9ff242e52a97","system_id":"levelo_inurba_marseille","lat":43.2842,"lon":5.34988,"is_reserved":false,"is_disabled":false,"rental_uris":{"android":"levelo://app?vid=9f5bfec9-48c3-4047-9f2e-9ff242e52a97","ios":"levelo://app?vid=9f5bfec9-48c3-4047-9f2e-9ff242e52a97"},"vehicle_type_id":"4","last_reported":1725203257,"current_range_meters":7600,"station_id":"ce4bhbh2rcd13ifvqepg","pricing_plan_id":"cebpf4jnsgd1na2vs0mg"},{"bike_id":"5c8d67ca-9923-49e6-adca-f04982c4d382","system_id":"levelo_inurba_marseille","lat":43.284219,"lon":5.3497,"is_reserved":false,"is_disabled":false,"rental_uris":{"android":"levelo://app?vid=5c8d67ca-9923-49e6-adca-f04982c4d382","ios":"levelo://app?vid=5c8d67ca-9923-49e6-adca-f04982c4d382"},"vehicle_type_id":"4","last_reported":1725203257,"current_range_meters":31600,"station_id":"ce4bhbh2rcd13ifvqepg","pricing_plan_id":"cebpf4jnsgd1na2vs0mg"},{"bike_id":"dd60e325-f77d-47e6-9214-043b04727d06","system_id":"levelo_inurba_marseille","lat":43.28419,"lon":5.34989,"is_reserved":false,"is_disabled":false,"rental_uris":{"android":"levelo://app?vid=dd60e325-f77d-47e6-9214-043b04727d06","ios":"levelo://app?vid=dd60e325-f77d-47e6-9214-043b04727d06"},"vehicle_type_id":"4","last_reported":1725203257,"current_range_meters":22400,"station_id":"ce4bhbh2rcd13ifvqepg","pricing_plan_id":"cebpf4jnsgd1na2vs0mg"},{"bike_id":"6197a2fa-bb4b-4255-b476-6df76e564f8e","system_id":"levelo_inurba_marseille","lat":43.284229,"lon":5.34976,"is_reserved":false,"is_disabled":false,"rental_uris":{"android":"levelo://app?vid=6197a2fa-bb4b-4255-b476-6df76e564f8e","ios":"levelo://app?vid=6197a2fa-bb4b-4255-b476-6df76e564f8e"},"vehicle_type_id":"4","last_reported":1725203257,"current_range_meters":26000,"station_id":"ce4bhbh2rcd13ifvqepg","pricing_plan_id":"cebpf4jnsgd1na2vs0mg"},