{"last_updated":1706810908,"ttl":30,"version":"2.2","data":{"bikes":[{"bike_id":"4dbb2383-c630-4baa-b793-62462b3d8d9c","system_id":"levelo_inurba_marseille","lat":43.31341,"lon":5.367098,"is_reserved":false,"is_disabled":false,"rental_uris":{"android":"levelo://app?vid=4dbb2383-c630-4baa-b793-62462b3d8d9c","ios":"levelo://app?vid=4dbb2383-c630-4baa-b793-62462b3d8d9c"},"vehicle_type_id":"4","last_reported":1706810908,"current_range_meters":16800,"station_id":"ce4bgr92rcd13ifvqc6g","pricing_plan_id":"free"},{"bike_id":"9c422bd4-3d50-4008-9c5b-bcac9d0e22e9","system_id":"levelo_inurba_marseille","lat":43.31341,"lon":5.367098,"is_reserved":false,"is_disabled":false,"rental_uris":{"android":"levelo://app?vid=9c422bd4-3d50-4008-9c5b-bcac9d0e22e9","ios":"levelo://app?vid=9c422bd4-3d50-4008-9c5b-bcac9d0e22e9"},"vehicle_type_id":"4","last_reported":1706810908,"current_range_meters":6400,"station_id":"ce4bgr92rcd13ifvqc6g","pricing_plan_id":"free"},{"bike_id":"7a7fac29-7cc0-4c40-afd4-f064e61ae850","system_id":"levelo_inurba_marseille","lat":43.313391,"lon":5.36706,"is_reserved":false,"is_disabled":false,"rental_uris":{"android":"levelo://app?vid=7a7fac29-7cc0-4c40-afd4-f064e61ae850","ios":"levelo://app?vid=7a7fac29-7cc0-4c40-afd4-f064e61ae850"},"vehicle_type_id":"4","last_reported":1706810908,"current_range_meters":4000,"station_id":"ce4bgr92rcd13ifvqc6g","pricing_plan_id":"free"},{"bike_id":"892419e3-b695-4d7b-a3fd-66cd7c3e9d89","system_id":"levelo_inurba_marseille","lat":43.31227,"lon":5.3686,"is_reserved":false,"is_disabled":false,"rental_uris":{"android":"levelo://app?vid=892419e3-b695-4d7b-a3fd-66cd7c3e9d89","ios":"levelo://app?vid=892419e3-b695-4d7b-a3fd-66cd7c3e9d89"},"vehicle_type_id":"4","last_reported":1706810908,"current_range_meters":0,"station_id":"ce4bgl92rcd13ifvqbq0","pricing_plan_id":"free"},{"bike_id":"3a7f311c-a7ef-4019-b708-5ba935abfbfc","system_id":"levelo_inurba_marseille","lat":43.31306,"lon":5.37258,"is_reserved":false,"is_disabled":false,"rental_uris":{"android":"levelo://app?vid=3a7f311c-a7ef-4019-b708-5ba935abfbfc","ios":"levelo://app?vid=3a7f311c-a7ef-4019-b708-5ba935abfbfc"},"vehicle_type_id":"4","last_reported":1706810908,"current_range_meters":19200,"station_id":"","pricing_plan_id":"free"},{"bike_id":"1c16901d-858a-449e-ab72-37797c027f84","system_id":"levelo_inurba_marseille","lat":43.31489,"lon":5.37295,"is_reserved":false,"is_disabled":false,"rental_uris":{"android":"levelo://app?vid=1c16901d-858a-449e-ab72-37797c027f84","ios":"levelo://app?vid=1c16901d-858a-449e-ab72-37797c027f84"},"vehicle_type_id":"4","last_reported":1706810908,"current_range_meters":0,"station_id":"ce4bgt12rcd13ifvqcd0","pricing_plan_id":"free"},{"bike_id":"cf30eb29-2fa3-4c8b-bb6d-ab88b7493701","system_id":"levelo_inurba_marseille","lat":43.31494,"lon":5.37308,"is_reserved":false,"is_disabled":false,"rental_uris":{"android":"levelo://app?vid=cf30eb29-2fa3-4c8b-bb6d-ab88b7493701","ios":"levelo://app?vid=cf30eb29-2fa3-4c8b-bb6d-ab88b7493701"},"vehicle_type_id":"4","last_reported":1706810908,"current_range_meters":0,"station_id":"ce4bgt12rcd13ifvqcd0","pricing_plan_id":"free"},{"bike_id":"415525b4-76fe-4f47-a34d-731d474f8ff0","system_id":"levelo_inurba_marseille","lat":43.308884,"lon":5.372029,"is_reserved":false,"is_disabled":false,"rental_uris":{"android":"levelo://app?vid=415525b4-76fe-4f47-a34d-731d474f8ff0","ios":"levelo://app?vid=415525b4-76fe-4f47-a34d-731d474f8ff0"},"vehicle_type_id":"4","last_reported":1706810908,"current_range_meters":20000,"station_id":"","pricing_plan_id":"free"},{"bike_id":"1e2d9b78-459b-4af5-8b66-e03b0dde964a","system_id":"levelo_inurba_marseille","lat":43.30549,"lon":5.36547,"is_reserved":false,"is_disabled":false,"rental_uris":{"android":"levelo://app?vid=1e2d9b78-459b-4af5-8b66-e03b0dde964a","ios":"levelo://app?vid=1e2d9b78-459b-4af5-8b66-e03b0dde964a"},"vehicle_type_id":"4","last_reported":1706810908,"current_range_meters":0,"station_id":"ce4bgs12rcd13ifvqcag","pricing_plan_id":"free"},{"bike_id":"2f42489d-b33a-495e-b386-2daa147e2a0a","system_id":"levelo_inurba_marseille","lat":43.305712,"lon":5.365641,"is_reserved":false,"is_disabled":false,"rental_uris":{"android":"levelo://app?vid=2f42489d-b33a-495e-b386-2daa147e2a0a","ios":"levelo://app?vid=2f42489d-b33a-495e-b386-2daa147e2a0a"},"vehicle_type_id":"4","last_reported":1706810908,"current_range_meters":5200,"station_id":"ce4bgs12rcd13ifvqcag","pricing_plan_id":"free"},{"bike_id":"f2730393-3844-4c5e-9eef-5f73ff2983ce","system_id":"levelo_inurba_marseille","lat":43.305368,"lon":5.367343,"is_reserved":false,"is_disabled":false,"rental_uris":{"android":"levelo://app?vid=f2730393-3844-4c5e-9eef-5f73ff2983ce","ios":"levelo://app?vid=f2730393-3844-4c5e-9eef-5f73ff2983ce"},"vehicle_type_id":"4","last_reported":1706810908,"current_range_meters":1600,"station_id":"ce4bgrp2rcd13ifvqc9g","pricing_plan_id":"free"},{"bike_id":"46170fea-c8d3-444a-a2cb-06c8c673526e","system_id":"levelo_inurba_marseille","lat":43.305714,"lon":5.365633,"is_reserved":false,"is_disabled":false,"rental_uris":{"android":"levelo://app?vid=46170fea-c8d3-444a-a2cb-06c8c673526e","ios":"levelo://app?vid=46170fea-c8d3-444a-a2cb-06c8c673526e"},"vehicle_type_id":"4","last_reported":1706810908,"current_range_meters":8400,"station_id":"ce4bgs12rcd13ifvqcag","pricing_plan_id":"free"},{"bike_id":"bc605506-027c-4f79-a42b-da6ea6e336ff","system_id":"levelo_inurba_marseille","lat":43.305706,"lon":5.365654,"is_reserved":false,"is_disabled":false,"rental_uris":{"android":"levelo://app?vid=bc605506-027c-4f79-a42b-da6ea6e336ff","ios":"levelo://app?vid=bc605506-027c-4f79-a42b-da6ea6e336ff"},"vehicle_type_id":"4","last_reported":1706810908,"current_range_meters":20800,"station_id":"ce4bgs12rcd13ifvqcag","pricing_plan_id":"free"},{"bike_id":"531f92f6-1f7b-4255-bc7b-c4e134ff0207","system_id":"levelo_inurba_marseille","lat":43.305706,"lon":5.365654,"is_reserved":false,"is_disabled":false,"rental_uris":{"android":"levelo://app?vid=531f92f6-1f7b-4255-bc7b-c4e134ff0207","ios":"levelo://app?vid=531f92f6-1f7b-4255-bc7b-c4e134ff0207"},"vehicle_type_id":"4","last_reported":1706810908,"current_range_meters":26800,"station_id":"ce4bgs12rcd13ifvqcag","pricing_plan_id":"free"},{"bike_id":"e90c0cdf-e747-4d0d-bf9b-22e3971f51af","system_id":"levelo_inurba_marseille","lat":43.305368,"lon":5.367343,"is_reserved":false,"is_disabled":false,"rental_uris":{"android":"levelo://app?vid=e90c0cdf-e747-4d0d-bf9b-22e3971f51af","ios":"levelo://app?vid=e90c0cdf-e747-4d0d-bf9b-22e3971f51af"},"vehicle_type_id":"4","last_reported":1706810908,"current_range_meters":1200,"station_id":"ce4bgrp2rcd13ifvqc9g","pricing_plan_id":"free"},{"bike_id":"e8dea7fb-c763-4770-acaf-c8da4e13ef2d","system_id":"levelo_inurba_marseille","lat":43.305989,"lon":5.37225,"is_reserved":false,"is_disabled":false,"rental_uris":{"android":"levelo://app?vid=e8dea7fb-c763-4770-acaf-c8da4e13ef2d","ios":"levelo://app?vid=e8dea7fb-c763-4770-acaf-c8da4e13ef2d"},"vehicle_type_id":"4","last_reported":1706810908,"current_range_meters":22800,"station_id":"ce4bgqh2rcd13ifvqc4g","pricing_plan_id":"free"},{"bike_id":"d1c6d5e5-4c38-4f86-a4f4-dde84d0ec262","system_id":"levelo_inurba_marseille","lat":43.305989,"lon":5.37225,"is_reserved":false,"is_disabled":false,"rental_uris":{"android":"levelo://app?vid=d1c6d5e5-4c38-4f86-a4f4-dde84d0ec262","ios":"levelo://app?vid=d1c6d5e5-4c38-4f86-a4f4-dde84d0ec262"},"vehicle_type_id":"4","last_reported":1706810908,"current_range_meters":31200,"station_id":"ce4bgqh2rcd13ifvqc4g","pricing_plan_id":"free"},{"bike_id":"43a23162-a123-4490-a3ed-cc9ef6de60b3","system_id":"levelo_inurba_marseille","lat":43.305989,"lon":5.37225,"is_reserved":false,"is_disabled":false,"rental_uris":{"android":"levelo://app?vid=43a23162-a123-4490-a3ed-cc9ef6de60b3","ios":"levelo://app?vid=43a23162-a123-4490-a3ed-cc9ef6de60b3"},"vehicle_type_id":"4","last_reported":1706810908,"current_range_meters":1600,"station_id":"ce4bgqh2rcd13ifvqc4g","pricing_plan_id":"free"},{"bike_id":"8a6fccc3-e563-48ae-a67f-4d28be9b2014","system_id":"levelo_inurba_marseille","lat":43.31121,"lon":5.37766,"is_reserved":false,"is_disabled":false,"rental_uris":{"android":"levelo://app?vid=8a6fccc3-e563-48ae-a67f-4d28be9b2014","ios":"levelo://app?vid=8a6fccc3-e563-48ae-a67f-4d28be9b2014"},"vehicle_type_id":"4","last_reported":1706810908,"current_range_meters":800,"station_id":"ce4bgt92rcd13ifvqcg0","pricing_plan_id":"free"},{"bike_id":"45f57cc5-d94e-4f3d-9434-bb0755738500","system_id":"levelo_inurba_marseille","lat":43.311131,"lon":5.377651,"is_reserved":false,"is_disabled":false,"rental_uris":{"android":"levelo://app?vid=45f57cc5-d94e-4f3d-9434-bb0755738500","ios":"levelo://app?vid=45f57cc5-d94e-4f3d-9434-bb0755738500"},"vehicle_type_id":"4","last_reported":1706810908,"current_range_meters":0,"station_id":"ce4bgt92rcd13ifvqcg0","pricing_plan_id":"free"},{"bike_id":"226beb80-4277-4c1b-9116-4d291f8dd004","system_id":"levelo_inurba_marseille","lat":43.317075,"lon":5.377367,"is_reserved":false,"is_disabled":false,"rental_uris":{"android":"levelo://app?vid=226beb80-4277-4c1b-9116-4d291f8dd004","ios":"levelo://app?vid=226beb80-4277-4c1b-9116-4d291f8dd004"},"vehicle_type_id":"4","last_reported":1706810908,"current_range_meters":6000,"station_id":"ce4bgth2rcd13ifvqch0","pricing_plan_id":"free"},{"bike_id":"b21f5c34-98e9-40a4-9595-318511423343","system_id":"levelo_inurba_marseille","lat":43.317075,"lon":5.377367,"is_reserved":false,"is_disabled":false,"rental_uris":{"android":"levelo://app?vid=b21f5c34-98e9-40a4-9595-318511423343","ios":"levelo://app?vid=b21f5c34-98e9-40a4-9595-318511423343"},"vehicle_type_id":"4","last_reported":1706810908,"current_range_meters":16000,"station_id":"ce4bgth2rcd13ifvqch0","pricing_plan_id":"free"},{"bike_id":"d2db6131-df63-43e2-bea2-6290ab93ff89","system_id":"levelo_inurba_marseille","lat":43.317075,"lon":5.377367,"is_reserved":false,"is_disabled":false,"rental_uris":{"android":"levelo://app?vid=d2db6131-df63-43e2-bea2-6290ab93ff89","ios":"levelo://app?vid=d2db6131-df63-43e2-bea2-6290ab93ff89"},"vehicle_type_id":"4","last_reported":1706810908,"current_range_meters":9200,"station_id":"ce4bgth2rcd13ifvqch0","pricing_plan_id":"free"},{"bike_id":"e38cc0f5-4309-4814-9566-0c1d17fc36d4","system_id":"levelo_inurba_marseille","lat":43.303046,"lon":5.368981,"is_reserved":false,"is_disabled":false,"rental_uris":{"android":"levelo://app?vid=e38cc0f5-4309-4814-9566-0c1d17fc36d4","ios":"levelo://app?vid=e38cc0f5-4309-4814-9566-0c1d17fc36d4"},"vehicle_type_id":"4","last_reported":1706810908,"current_range_meters":17600,"station_id":"ce4bgqh2rcd13ifvqc5g","pricing_plan_id":"free"},{"bike_id":"fc3c1539-28c3-4dd0-b015-753980613546","system_id":"levelo_inurba_marseille","lat":43.301939,"lon":5.366286,"is_reserved":false,"is_disabled":false,"rental_uris":{"android":"levelo://app?vid=fc3c1539-28c3-4dd0-b015-753980613546","ios":"levelo://app?vid=fc3c1539-28c3-4dd0-b015-753980613546"},"vehicle_type_id":"4","last_reported":1706810908,"current_range_meters":800,"station_id":"ce4bgrh2rcd13ifvqc8g","pricing_plan_id":"free"},{"bike_id":"826cfada-c091-4e53-a5a7-1f28d96dd61a","system_id":"levelo_inurba_marseille","lat":43.301939,"lon":5.366286,"is_reserved":false,"is_disabled":false,"rental_uris":{"android":"levelo://app?vid=826cfada-c091-4e53-a5a7-1f28d96dd61a","ios":"levelo://app?vid=826cfada-c091-4e53-a5a7-1f28d96dd61a"},"vehicle_type_id":"4","last_reported":1706810908,"current_range_meters":6400,"station_id":"ce4bgrh2rcd13ifvqc8g","pricing_plan_id":"free"},{"bike_id":"a8df3d52-f2e0-4fdd-995f-9edfd3199993","system_id":"levelo_inurba_marseille","lat":43.308012,"lon":5.381511,"is_reserved":false,"is_disabled":false,"rental_uris":{"android":"levelo://app?vid=a8df3d52-f2e0-4fdd-995f-9edfd3199993","ios":"levelo://app?vid=a8df3d52-f2e0-4fdd-995f-9edfd3199993"},"vehicle_type_id":"4","last_reported":1706810908,"current_range_meters":4400,"station_id":"ce4bgt12rcd13ifvqce0","pricing_plan_id":"free"},{"bike_id":"fb199189-6ad1-4277-abc7-1a9c9f2c9794","system_id":"levelo_inurba_marseille","lat":43.308012,"lon":5.381511,"is_reserved":false,"is_disabled":false,"rental_uris":{"android":"levelo://app?vid=fb199189-6ad1-4277-abc7-1a9c9f2c9794","ios":"levelo://app?vid=fb199189-6ad1-4277-abc7-1a9c9f2c9794"},"vehicle_type_id":"4","last_reported":1706810908,"current_range_meters":13200,"station_id":"ce4bgt12rcd13ifvqce0","pricing_plan_id":"free"},{"bike_id":"26a2256d-b5f3-47f2-8f88-fd49bb301d72","system_id":"levelo_inurba_marseille","lat":43.30466,"lon":5.37901,"is_reserved":false,"is_disabled":false,"rental_uris":{"android":"levelo://app?vid=26a2256d-b5f3-47f2-8f88-fd49bb301d72","ios":"levelo://app?vid=26a2256d-b5f3-47f2-8f88-fd49bb301d72"},"vehicle_type_id":"4","last_reported":1706810908,"current_range_meters":0,"station_id":"ce4bgup2rcd13ifvqcn0","pricing_plan_id":"free"},{"bike_id":"57fe1d38-a84a-413c-a9ac-cd5474961a90","system_id":"levelo_inurba_marseille","lat":43.304606,"lon":5.379026,"is_reserved":false,"is_disabled":false,"rental_uris":{"android":"levelo://app?vid=57fe1d38-a84a-413c-a9ac-cd5474961a90","ios":"levelo://app?vid=57fe1d38-a84a-413c-a9ac-cd5474961a90"},"vehicle_type_id":"4","last_reported":1706810908,"current_range_meters":15200,"station_id":"ce4bgup2rcd13ifvqcn0","pricing_plan_id":"free"},{"bike_id":"ae3bbbdf-94ec-412b-ac7c-83c20afd0aff","system_id":"levelo_inurba_marseille","lat":43.304625,"lon":5.379045,"is_reserved":false,"is_disabled":false,"rental_uris":{"android":"levelo://app?vid=ae3bbbdf-94ec-412b-ac7c-83c20afd0aff","ios":"levelo://app?vid=ae3bbbdf-94ec-412b-ac7c-83c20afd0aff"},"vehicle_type_id":"4","last_reported":1706810908,"current_range_meters":0,"station_id":"ce4bgup2rcd13ifvqcn0","pricing_plan_id":"free"},{"bike_id":"913b59fd-c2f1-4722-8693-c3993314d595","system_id":"levelo_inurba_marseille","lat":43.31341,"lon":5.367098,"is_reserved":false,"is_disabled":false,"rental_uris":{"android":"levelo://app?vid=913b59fd-c2f1-4722-8693-c3993314d595","ios":"levelo://app?vid=913b59fd-c2f1-4722-8693-c3993314d595"},"vehicle_type_id":"4","last_reported":1706810908,"current_range_meters":24800,"station_id":"ce4bgr92rcd13ifvqc6g","pricing_plan_id":"free"},{"bike_id":"a44ca235-810c-4bcf-9fae-14dc45fe3456","system_id":"levelo_inurba_marseille","lat":43.310804,"lon":5.38359,"is_reserved":false,"is_disabled":false,"rental_uris":{"android":"levelo://app?vid=a44ca235-810c-4bcf-9fae-14dc45fe3456","ios":"levelo://app?vid=a44ca235-810c-4bcf-9fae-14dc45fe3456"},"vehicle_type_id":"4","last_reported":1706810908,"current_range_meters":2800,"station_id":"ce4bgv92rcd13ifvqcr0","pricing_plan_id":"free"},{"bike_id":"cd549698-9cd2-45ab-90de-bde9de3187e6","system_id":"levelo_inurba_marseille","lat":43.302784,"lon":5.377158,"is_reserved":false,"is_disabled":false,"rental_uris":{"android":"levelo://app?vid=cd549698-9cd2-45ab-90de-bde9de3187e6","ios":"levelo://app?vid=cd549698-9cd2-45ab-90de-bde9de3187e6"},"vehicle_type_id":"4","last_reported":1706810908,"current_range_meters":15600,"station_id":"ce4bguh2rcd13ifvqcj0","pricing_plan_id":"free"},{"bike_id":"9bb40eb2-17e4-4079-9033-3fc78aa9fb57","system_id":"levelo_inurba_marseille","lat":43.302784,"lon":5.377158,"is_reserved":false,"is_disabled":false,"rental_uris":{"android":"levelo://app?vid=9bb40eb2-17e4-4079-9033-3fc78aa9fb57","ios":"levelo://app?vid=9bb40eb2-17e4-4079-9033-3fc78aa9fb57"},"vehicle_type_id":"4","last_reported":1706810908,"current_range_meters":2800,"station_id":"ce4bguh2rcd13ifvqcj0","pricing_plan_id":"free"},{"bike_id":"74829431-ae9c-4178-b5ef-a38c5e0309c6","system_id":"levelo_inurba_marseille","lat":43.30143,"lon":5.37413,"is_reserved":false,"is_disabled":false,"rental_uris":{"android":"levelo://app?vid=74829431-ae9c-4178-b5ef-a38c5e0309c6","ios":"levelo://app?vid=74829431-ae9c-4178-b5ef-a38c5e0309c6"},"vehicle_type_id":"4","last_reported":1706810908,"current_range_meters":4000,"station_id":"ce4bgs92rcd13ifvqcc0","pricing_plan_id":"free"},{"bike_id":"18bf8d49-b7d3-44e7-a119-13b0f74304e5","system_id":"levelo_inurba_marseille","lat":43.301429,"lon":5.37413,"is_reserved":false,"is_disabled":false,"rental_uris":{"android":"levelo://app?vid=18bf8d49-b7d3-44e7-a119-13b0f74304e5","ios":"levelo://app?vid=18bf8d49-b7d3-44e7-a119-13b0f74304e5"},"vehicle_type_id":"4","last_reported":1706810908,"current_range_meters":0,"station_id":"ce4bgs92rcd13ifvqcc0","pricing_plan_id":"free"},{"bike_id":"64d78273-fffd-4887-a48e-68932349843e","system_id":"levelo_inurba_marseille","lat":43.319915,"lon":5.381388,"is_reserved":false,"is_disabled":false,"rental_uris":{"android":"levelo://app?vid=64d78273-fffd-4887-a48e-68932349843e","ios":"levelo://app?vid=64d78273-fffd-4887-a48e-68932349843e"},"vehicle_type_id":"4","last_reported":1706810908,"current_range_meters":26000,"station_id":"","pricing_plan_id":"free"},{"bike_id":"33aa6591-fee3-4190-8337-a93734a2451e","system_id":"levelo_inurba_marseille","lat":43.319935,"lon":5.381699,"is_reserved":false,"is_disabled":false,"rental_uris":{"android":"levelo://app?vid=33aa6591-fee3-4190-8337-a93734a2451e","ios":"levelo://app?vid=33aa6591-fee3-4190-8337-a93734a2451e"},"vehicle_type_id":"4","last_reported":1706810908,"current_range_meters":26800,"station_id":"ce4bhr12rcd13ifvqhpg","pricing_plan_id":"free"},{"bike_id":"750ede20-1a92-4656-b5f3-684b58e12ed0","system_id":"levelo_inurba_marseille","lat":43.319935,"lon":5.381699,"is_reserved":false,"is_disabled":false,"rental_uris":{"android":"levelo://app?vid=750ede20-1a92-4656-b5f3-684b58e12ed0","ios":"levelo://app?vid=750ede20-1a92-4656-b5f3-684b58e12ed0"},"vehicle_type_id":"4","last_reported":1706810908,"current_range_meters":2000,"station_id":"ce4bhr12rcd13ifvqhpg","pricing_plan_id":"free"},{"bike_id":"0a431524-38b9-4c1b-956e-85b95de4b027","system_id":"levelo_inurba_marseille","lat":43.319935,"lon":5.381699,"is_reserved":false,"is_disabled":false,"rental_uris":{"android":"levelo://app?vid=0a431524-38b9-4c1b-956e-85b95de4b027","ios":"levelo://app?vid=0a431524-38b9-4c1b-956e-85b95de4b027"},"vehicle_type_id":"4","last_reported":1706810908,"current_range_meters":0,"station_id":"ce4bhr12rcd13ifvqhpg","pricing_plan_id":"free"},{"bike_id":"5d1f62cd-175b-4219-aa13-aee81343a1e5","system_id":"levelo_inurba_marseille","lat":43.319935,"lon":5.381699,"is_reserved":false,"is_disabled":false,"rental_uris":{"android":"levelo://app?vid=5d1f62cd-175b-4219-aa13-aee81343a1e5","ios":"levelo://app?vid=5d1f62cd-175b-4219-aa13-aee81343a1e5"},"vehicle_type_id":"4","last_reported":1706810908,"current_range_meters":18000,"station_id":"ce4bhr12rcd13ifvqhpg","pricing_plan_id":"free"},{"bike_id":"49d155bc-d2be-4137-b0b5-0b3bfacf8bee","system_id":"levelo_inurba_marseille","lat":43.313571,"lon":5.384829,"is_reserved":false,"is_disabled":false,"rental_uris":{"android":"levelo://app?vid=49d155bc-d2be-4137-b0b5-0b3bfacf8bee","ios":"levelo://app?vid=49d155bc-d2be-4137-b0b5-0b3bfacf8bee"},"vehicle_type_id":"4","last_reported":1706810908,"current_range_meters":18800,"station_id":"ce4bgt92rcd13ifvqcf0","pricing_plan_id":"free"},{"bike_id":"d1b1c11b-4675-4f31-a75e-3f668701c09b","system_id":"levelo_inurba_marseille","lat":43.313571,"lon":5.384829,"is_reserved":false,"is_disabled":false,"rental_uris":{"android":"levelo://app?vid=d1b1c11b-4675-4f31-a75e-3f668701c09b","ios":"levelo://app?vid=d1b1c11b-4675-4f31-a75e-3f668701c09b"},"vehicle_type_id":"4","last_reported":1706810908,"current_range_meters":31200,"station_id":"ce4bgt92rcd13ifvqcf0","pricing_plan_id":"free"},{"bike_id":"46c5fcf0-2722-4bbe-a99d-0958e8038721","system_id":"levelo_inurba_marseille","lat":43.31365,"lon":5.384968,"is_reserved":false,"is_disabled":false,"rental_uris":{"android":"levelo://app?vid=46c5fcf0-2722-4bbe-a99d-0958e8038721","ios":"levelo://app?vid=46c5fcf0-2722-4bbe-a99d-0958e8038721"},"vehicle_type_id":"4","last_reported":1706810908,"current_range_meters":0,"station_id":"ce4bgt92rcd13ifvqcf0","pricing_plan_id":"free"},{"bike_id":"894b44a7-54f7-41b4-bb98-30de2e4f98db","system_id":"levelo_inurba_marseille","lat":43.31377,"lon":5.38498,"is_reserved":false,"is_disabled":false,"rental_uris":{"android":"levelo://app?vid=894b44a7-54f7-41b4-bb98-30de2e4f98db","ios":"levelo://app?vid=894b44a7-54f7-41b4-bb98-30de2e4f98db"},"vehicle_type_id":"4","last_reported":1706810908,"current_range_meters":18400,"station_id":"ce4bgt92rcd13ifvqcf0","pricing_plan_id":"free"},{"bike_id":"0305078a-3640-4434-bad2-8645436b9beb","system_id":"levelo_inurba_marseille","lat":43.298433,"lon":5.362774,"is_reserved":false,"is_disabled":false,"rental_uris":{"android":"levelo://app?vid=0305078a-3640-4434-bad2-8645436b9beb","ios":"levelo://app?vid=0305078a-3640-4434-bad2-8645436b9beb"},"vehicle_type_id":"4","last_reported":1706810908,"current_range_meters":22400,"station_id":"ce4bgpp2rcd13ifvqc3g","pricing_plan_id":"free"},{"bike_id":"57169314-ff87-4841-afd6-b61cb14eb6a0","system_id":"levelo_inurba_marseille","lat":43.298433,"lon":5.362774,"is_reserved":false,"is_disabled":false,"rental_uris":{"android":"levelo://app?vid=57169314-ff87-4841-afd6-b61cb14eb6a0","ios":"levelo://app?vid=57169314-ff87-4841-afd6-b61cb14eb6a0"},"vehicle_type_id":"4","last_reported":1706810908,"current_range_meters":24000,"station_id":"ce4bgpp2rcd13ifvqc3g","pricing_plan_id":"free"},{"bike_id":"f43eb57a-aaac-48d1-b1e0-0658c452068d","system_id":"levelo_inurba_marseille","lat":43.298433,"lon":5.362774,"is_reserved":false,"is_disabled":false,"rental_uris":{"android":"levelo://app?vid=f43eb57a-aaac-48d1-b1e0-0658c452068d","ios":"levelo://app?vid=f43eb57a-aaac-48d1-b1e0-0658c452068d"},"vehicle_type_id":"4","last_reported":1706810908,"current_range_meters":9600,"station_id":"ce4bgpp2rcd13ifvqc3g","pricing_plan_id":"free"},{"bike_id":"14f54945-0ca1-48cb-a8e1-27a16c1270b2","system_id":"levelo_inurba_marseille","lat":43.298433,"lon":5.362774,"is_reserved":false,"is_disabled":false,"rental_uris":{"android":"levelo://app?vid=14f54945-0ca1-48cb-a8e1-27a16c1270b2","ios":"levelo://app?vid=14f54945-0ca1-48cb-a8e1-27a16c1270b2"},"vehicle_type_id":"4","last_reported":1706810908,"current_range_meters":27600,"station_id":"ce4bgpp2rcd13ifvqc3g","pricing_plan_id":"free"},{"bike_id":"89cded1e-925b-4bdf-9d5e-064be6f9784f","system_id":"levelo_inurba_marseille","lat":43.298433,"lon":5.362774,"is_reserved":false,"is_disabled":false,"rental_uris":{"android":"levelo://app?vid=89cded1e-925b-4bdf-9d5e-064be6f9784f","ios":"levelo://app?vid=89cded1e-925b-4bdf-9d5e-064be6f9784f"},"vehicle_type_id":"4","last_reported":1706810908,"current_range_meters":13600,"station_id":"ce4bgpp2rcd13ifvqc3g","pricing_plan_id":"free"},{"bike_id":"5a70b866-48df-4587-83b4-50297425f303","system_id":"levelo_inurba_marseille","lat":43.298433,"lon":5.362774,"is_reserved":false,"is_disabled":false,"rental_uris":{"android":"levelo://app?vid=5a70b866-48df-4587-83b4-50297425f303","ios":"levelo://app?vid=5a70b866-48df-4587-83b4-50297425f303"},"vehicle_type_id":"4","last_reported":1706810908,"current_range_meters":24800,"station_id":"ce4bgpp2rcd13ifvqc3g","pricing_plan_id":"free"},{"bike_id":"832a7de1-d9c7-45bd-84cc-bd80eee1d905","system_id":"levelo_inurba_marseille","lat":43.311722,"lon":5.387247,"is_reserved":false,"is_disabled":false,"rental_uris":{"android":"levelo://app?vid=832a7de1-d9c7-45bd-84cc-bd80eee1d905","ios":"levelo://app?vid=832a7de1-d9c7-45bd-84cc-bd80eee1d905"},"vehicle_type_id":"4","last_reported":1706810908,"current_range_meters":22800,"station_id":"ce4bgv12rcd13ifvqcp0","pricing_plan_id":"free"},{"bike_id":"4d75bc94-6255-4d9c-b7ae-1392a7f98406","system_id":"levelo_inurba_marseille","lat":43.311724,"lon":5.387126,"is_reserved":false,"is_disabled":false,"rental_uris":{"android":"levelo://app?vid=4d75bc94-6255-4d9c-b7ae-1392a7f98406","ios":"levelo://app?vid=4d75bc94-6255-4d9c-b7ae-1392a7f98406"},"vehicle_type_id":"4","last_reported":1706810908,"current_range_meters":28800,"station_id":"ce4bgv12rcd13ifvqcp0","pricing_plan_id":"free"},{"bike_id":"8280a765-8d22-4e07-9ef0-8c7219f6676f","system_id":"levelo_inurba_marseille","lat":43.31162,"lon":5.38715,"is_reserved":false,"is_disabled":false,"rental_uris":{"android":"levelo://app?vid=8280a765-8d22-4e07-9ef0-8c7219f6676f","ios":"levelo://app?vid=8280a765-8d22-4e07-9ef0-8c7219f6676f"},"vehicle_type_id":"4","last_reported":1706810908,"current_range_meters":7200,"station_id":"ce4bgv12rcd13ifvqcp0","pricing_plan_id":"free"},{"bike_id":"253d5286-7d66-4628-9434-a392223eff39","system_id":"levelo_inurba_marseille","lat":43.31167,"lon":5.38722,"is_reserved":false,"is_disabled":false,"rental_uris":{"android":"levelo://app?vid=253d5286-7d66-4628-9434-a392223eff39","ios":"levelo://app?vid=253d5286-7d66-4628-9434-a392223eff39"},"vehicle_type_id":"4","last_reported":1706810908,"current_range_meters":22400,"station_id":"ce4bgv12rcd13ifvqcp0","pricing_plan_id":"free"},{"bike_id":"7862ea2f-e067-4f6a-9ddf-932b1b59f9fe","system_id":"levelo_inurba_marseille","lat":43.31167,"lon":5.38729,"is_reserved":false,"is_disabled":false,"rental_uris":{"android":"levelo://app?vid=7862ea2f-e067-4f6a-9ddf-932b1b59f9fe","ios":"levelo://app?vid=7862ea2f-e067-4f6a-9ddf-932b1b59f9fe"},"vehicle_type_id":"4","last_reported":1706810908,"current_range_meters":24800,"station_id":"ce4bgv12rcd13ifvqcp0","pricing_plan_id":"free"},{"bike_id":"c5d0d7d5-9b16-4eb0-a7f6-5fa1faf28471","system_id":"levelo_inurba_marseille","lat":43.322872,"lon":5.382756,"is_reserved":false,"is_disabled":false,"rental_uris":{"android":"levelo://app?vid=c5d0d7d5-9b16-4eb0-a7f6-5fa1faf28471","ios":"levelo://app?vid=c5d0d7d5-9b16-4eb0-a7f6-5fa1faf28471"},"vehicle_type_id":"4","last_reported":1706810908,"current_range_meters":6400,"station_id":"ce4bhr12rcd13ifvqhqg","pricing_plan_id":"free"},{"bike_id":"b667764d-fe48-4325-becc-a4e6eea43d1a","system_id":"levelo_inurba_marseille","lat":43.322872,"lon":5.382756,"is_reserved":false,"is_disabled":false,"rental_uris":{"android":"levelo://app?vid=b667764d-fe48-4325-becc-a4e6eea43d1a","ios":"levelo://app?vid=b667764d-fe48-4325-becc-a4e6eea43d1a"},"vehicle_type_id":"4","last_reported":1706810908,"current_range_meters":800,"station_id":"ce4bhr12rcd13ifvqhqg","pricing_plan_id":"free"},{"bike_id":"6268e9ea-d457-41cb-b090-f7f91ef35cfb","system_id":"levelo_inurba_marseille","lat":43.322872,"lon":5.382756,"is_reserved":false,"is_disabled":false,"rental_uris":{"android":"levelo://app?vid=6268e9ea-d457-41cb-b090-f7f91ef35cfb","ios":"levelo://app?vid=6268e9ea-d457-41cb-b090-f7f91ef35cfb"},"vehicle_type_id":"4","last_reported":1706810908,"current_range_meters":31600,"station_id":"ce4bhr12rcd13ifvqhqg","pricing_plan_id":"free"},{"bike_id":"b069e964-d710-4a2f-993a-1ab0b01ca06a","system_id":"levelo_inurba_marseille","lat":43.322872,"lon":5.382756,"is_reserved":false,"is_disabled":false,"rental_uris":{"android":"levelo://app?vid=b069e964-d710-4a2f-993a-1ab0b01ca06a","ios":"levelo://app?vid=b069e964-d710-4a2f-993a-1ab0b01ca06a"},"vehicle_type_id":"4","last_reported":1706810908,"current_range_meters":8400,"station_id":"ce4bhr12rcd13ifvqhqg","pricing_plan_id":"free"},{"bike_id":"04133053-7e22-49fe-9a8e-cfae27a54d05","system_id":"levelo_inurba_marseille","lat":43.322872,"lon":5.382756,"is_reserved":false,"is_disabled":false,"rental_uris":{"android":"levelo://app?vid=04133053-7e22-49fe-9a8e-cfae27a54d05","ios":"levelo://app?vid=04133053-7e22-49fe-9a8e-cfae27a54d05"},"vehicle_type_id":"4","last_reported":1706810908,"current_range_meters":11200,"station_id":"ce4bhr12rcd13ifvqhqg","pricing_plan_id":"free"},{"bike_id":"b43645aa-f2e5-486d-a2fa-bf46e0a03dc2","system_id":"levelo_inurba_marseille","lat":43.322872,"lon":5.382756,"is_reserved":false,"is_disabled":false,"rental_uris":{"android":"levelo://app?vid=b43645aa-f2e5-486d-a2fa-bf46e0a03dc2","ios":"levelo://app?vid=b43645aa-f2e5-486d-a2fa-bf46e0a03dc2"},"vehicle_type_id":"4","last_reported":1706810908,"current_range_meters":14400,"station_id":"ce4bhr12rcd13ifvqhqg","pricing_plan_id":"free"},{"bike_id":"9781ebb3-155f-4467-bcb9-a79d2aadab6e","system_id":"levelo_inurba_marseille","lat":43.322872,"lon":5.382756,"is_reserved":false,"is_disabled":false,"rental_uris":{"android":"levelo://app?vid=9781ebb3-155f-4467-bcb9-a79d2aadab6e","ios":"levelo://app?vid=9781ebb3-155f-4467-bcb9-a79d2aadab6e"},"vehicle_type_id":"4","last_reported":1706810908,"current_range_meters":4400,"station_id":"ce4bhr12rcd13ifvqhqg","pricing_plan_id":"free"},{"bike_id":"2f814de7-ab89-4e81-bd56-ab00af80498f","system_id":"levelo_inurba_marseille","lat":43.322872,"lon":5.382756,"is_reserved":false,"is_disabled":false,"rental_uris":{"android":"levelo://app?vid=2f814de7-ab89-4e81-bd56-ab00af80498f","ios":"levelo://app?vid=2f814de7-ab89-4e81-bd56-ab00af80498f"},"vehicle_type_id":"4","last_reported":1706810908,"current_range_meters":18400,"station_id":"ce4bhr12rcd13ifvqhqg","pricing_plan_id":"free"},{"bike_id":"df7ed42e-867b-4350-aaa4-7ed8af048e36","system_id":"levelo_inurba_marseille","lat":43.328371,"lon":5.366909,"is_reserved":false,"is_disabled":false,"rental_uris":{"android":"levelo://app?vid=df7ed42e-867b-4350-aaa4-7ed8af048e36","ios":"levelo://app?vid=df7ed42e-867b-4350-aaa4-7ed8af048e36"},"vehicle_type_id":"4","last_reported":1706810908,"current_range_meters":0,"station_id":"ce4bhs92rcd13ifvqi0g","pricing_plan_id":"free"},{"bike_id":"54d2e451-9cd4-400a-bfa8-eb46cefbc970","system_id":"levelo_inurba_marseille","lat":43.328371,"lon":5.366909,"is_reserved":false,"is_disabled":false,"rental_uris":{"android":"levelo://app?vid=54d2e451-9cd4-400a-bfa8-eb46cefbc970","ios":"levelo://app?vid=54d2e451-9cd4-400a-bfa8-eb46cefbc970"},"vehicle_type_id":"4","last_reported":1706810908,"current_range_meters":0,"station_id":"ce4bhs92rcd13ifvqi0g","pricing_plan_id":"free"},{"bike_id":"c9532b94-de17-472c-9517-0e7f44fcca60","system_id":"levelo_inurba_marseille","lat":43.297163,"lon":5.365866,"is_reserved":false,"is_disabled":false,"rental_uris":{"android":"levelo://app?vid=c9532b94-de17-472c-9517-0e7f44fcca60","ios":"levelo://app?vid=c9532b94-de17-472c-9517-0e7f44fcca60"},"vehicle_type_id":"4","last_reported":1706810908,"current_range_meters":25200,"station_id":"ce4bgn12rcd13ifvqbt0","pricing_plan_id":"free"},{"bike_id":"c75fe027-b1d7-4da2-9af8-5efbb89172c4","system_id":"levelo_inurba_marseille","lat":43.29712,"lon":5.36611,"is_reserved":false,"is_disabled":false,"rental_uris":{"android":"levelo://app?vid=c75fe027-b1d7-4da2-9af8-5efbb89172c4","ios":"levelo://app?vid=c75fe027-b1d7-4da2-9af8-5efbb89172c4"},"vehicle_type_id":"4","last_reported":1706810908,"current_range_meters":6800,"station_id":"ce4bgn12rcd13ifvqbt0","pricing_plan_id":"free"},{"bike_id":"9e622039-a567-48e7-9e86-b7eaedceeb06","system_id":"levelo_inurba_marseille","lat":43.297163,"lon":5.365866,"is_reserved":false,"is_disabled":false,"rental_uris":{"android":"levelo://app?vid=9e622039-a567-48e7-9e86-b7eaedceeb06","ios":"levelo://app?vid=9e622039-a567-48e7-9e86-b7eaedceeb06"},"vehicle_type_id":"4","last_reported":1706810908,"current_range_meters":25200,"station_id":"ce4bgn12rcd13ifvqbt0","pricing_plan_id":"free"},{"bike_id":"cad31dd1-c005-411a-ae84-8160061fa2cf","system_id":"levelo_inurba_marseille","lat":43.29708,"lon":5.36606,"is_reserved":false,"is_disabled":false,"rental_uris":{"android":"levelo://app?vid=cad31dd1-c005-411a-ae84-8160061fa2cf","ios":"levelo://app?vid=cad31dd1-c005-411a-ae84-8160061fa2cf"},"vehicle_type_id":"4","last_reported":1706810908,"current_range_meters":27200,"station_id":"ce4bgn12rcd13ifvqbt0","pricing_plan_id":"free"},{"bike_id":"65fc335e-45c8-4311-b5d8-53a51b4b3050","system_id":"levelo_inurba_marseille","lat":43.2968,"lon":5.37291,"is_reserved":false,"is_disabled":false,"rental_uris":{"android":"levelo://app?vid=65fc335e-45c8-4311-b5d8-53a51b4b3050","ios":"levelo://app?vid=65fc335e-45c8-4311-b5d8-53a51b4b3050"},"vehicle_type_id":"4","last_reported":1706810908,"current_range_meters":0,"station_id":"ce4bgk12rcd13ifvqbj0","pricing_plan_id":"free"},{"bike_id":"23b8ec40-26ad-4a37-bd72-8f6f3032fb2e","system_id":"levelo_inurba_marseille","lat":43.305364,"lon":5.384119,"is_reserved":false,"is_disabled":false,"rental_uris":{"android":"levelo://app?vid=23b8ec40-26ad-4a37-bd72-8f6f3032fb2e","ios":"levelo://app?vid=23b8ec40-26ad-4a37-bd72-8f6f3032fb2e"},"vehicle_type_id":"4","last_reported":1706810908,"current_range_meters":22000,"station_id":"ce4bgg92rcd13ifvqb30","pricing_plan_id":"free"},{"bike_id":"9f123490-797c-48bf-b0fe-6381975956a5","system_id":"levelo_inurba_marseille","lat":43.31751,"lon":5.38907,"is_reserved":false,"is_disabled":false,"rental_uris":{"android":"levelo://app?vid=9f123490-797c-48bf-b0fe-6381975956a5","ios":"levelo://app?vid=9f123490-797c-48bf-b0fe-6381975956a5"},"vehicle_type_id":"4","last_reported":1706810908,"current_range_meters":23200,"station_id":"","pricing_plan_id":"free"},{"bike_id":"62f24234-b45c-456f-a110-352edadb4879","system_id":"levelo_inurba_marseille","lat":43.2959,"lon":5.36739,"is_reserved":false,"is_disabled":false,"rental_uris":{"android":"levelo://app?vid=62f24234-b45c-456f-a110-352edadb4879","ios":"levelo://app?vid=62f24234-b45c-456f-a110-352edadb4879"},"vehicle_type_id":"4","last_reported":1706810908,"current_range_meters":24800,"station_id":"ce4bgph2rcd13ifvqc2g","pricing_plan_id":"free"},{"bike_id":"8e8d5e09-fbcd-42ba-971e-4812e2d543b1","system_id":"levelo_inurba_marseille","lat":43.29584,"lon":5.36742,"is_reserved":false,"is_disabled":false,"rental_uris":{"android":"levelo://app?vid=8e8d5e09-fbcd-42ba-971e-4812e2d543b1","ios":"levelo://app?vid=8e8d5e09-fbcd-42ba-971e-4812e2d543b1"},"vehicle_type_id":"4","last_reported":1706810908,"current_range_meters":20800,"station_id":"ce4bgph2rcd13ifvqc2g","pricing_plan_id":"free"},{"bike_id":"5b46968d-d1ed-4159-91fe-1f7e078c653f","system_id":"levelo_inurba_marseille","lat":43.29573,"lon":5.367355,"is_reserved":false,"is_disabled":false,"rental_uris":{"android":"levelo://app?vid=5b46968d-d1ed-4159-91fe-1f7e078c653f","ios":"levelo://app?vid=5b46968d-d1ed-4159-91fe-1f7e078c653f"},"vehicle_type_id":"4","last_reported":1706810908,"current_range_meters":29600,"station_id":"ce4bgph2rcd13ifvqc2g","pricing_plan_id":"free"},{"bike_id":"fec361ba-d276-439e-8e7c-b81606cf52a8","system_id":"levelo_inurba_marseille","lat":43.29729,"lon":5.37668,"is_reserved":false,"is_disabled":false,"rental_uris":{"android":"levelo://app?vid=fec361ba-d276-439e-8e7c-b81606cf52a8","ios":"levelo://app?vid=fec361ba-d276-439e-8e7c-b81606cf52a8"},"vehicle_type_id":"4","last_reported":1706810908,"current_range_meters":0,"station_id":"ce4bgkh2rcd13ifvqbl0","pricing_plan_id":"free"},{"bike_id":"05ebd974-138f-4123-bd17-ccb592b0c3c9","system_id":"levelo_inurba_marseille","lat":43.29573,"lon":5.367355,"is_reserved":false,"is_disabled":false,"rental_uris":{"android":"levelo://app?vid=05ebd974-138f-4123-bd17-ccb592b0c3c9","ios":"levelo://app?vid=05ebd974-138f-4123-bd17-ccb592b0c3c9"},"vehicle_type_id":"4","last_reported":1706810908,"current_range_meters":24800,"station_id":"ce4bgph2rcd13ifvqc2g","pricing_plan_id":"free"},{"bike_id":"d6b55bda-1a37-4c00-8341-c7604b25061c","system_id":"levelo_inurba_marseille","lat":43.296935,"lon":5.376544,"is_reserved":false,"is_disabled":false,"rental_uris":{"android":"levelo://app?vid=d6b55bda-1a37-4c00-8341-c7604b25061c","ios":"levelo://app?vid=d6b55bda-1a37-4c00-8341-c7604b25061c"},"vehicle_type_id":"4","last_reported":1706810908,"current_range_meters":26000,"station_id":"ce4bgkh2rcd13ifvqbl0","pricing_plan_id":"free"},{"bike_id":"10317051-8c61-47cf-bb2d-0d5717eacddb","system_id":"levelo_inurba_marseille","lat":43.299028,"lon":5.381509,"is_reserved":false,"is_disabled":false,"rental_uris":{"android":"levelo://app?vid=10317051-8c61-47cf-bb2d-0d5717eacddb","ios":"levelo://app?vid=10317051-8c61-47cf-bb2d-0d5717eacddb"},"vehicle_type_id":"4","last_reported":1706810908,"current_range_meters":10800,"station_id":"ce4bgj12rcd13ifvqbc0","pricing_plan_id":"free"},{"bike_id":"3f21047e-f87d-46a8-bf7f-11ea88b49752","system_id":"levelo_inurba_marseille","lat":43.299028,"lon":5.381509,"is_reserved":false,"is_disabled":false,"rental_uris":{"android":"levelo://app?vid=3f21047e-f87d-46a8-bf7f-11ea88b49752","ios":"levelo://app?vid=3f21047e-f87d-46a8-bf7f-11ea88b49752"},"vehicle_type_id":"4","last_reported":1706810908,"current_range_meters":9600,"station_id":"ce4bgj12rcd13ifvqbc0","pricing_plan_id":"free"},{"bike_id":"df49dca8-eff4-4fb6-b5ec-7abf9e25044f","system_id":"levelo_inurba_marseille","lat":43.32268,"lon":5.38657,"is_reserved":false,"is_disabled":false,"rental_uris":{"android":"levelo://app?vid=df49dca8-eff4-4fb6-b5ec-7abf9e25044f","ios":"levelo://app?vid=df49dca8-eff4-4fb6-b5ec-7abf9e25044f"},"vehicle_type_id":"4","last_reported":1706810908,"current_range_meters":17600,"station_id":"","pricing_plan_id":"free"},{"bike_id":"b4b16144-62c4-466d-a1bc-60ceadfcc9a6","system_id":"levelo_inurba_marseille","lat":43.31758,"lon":5.39012,"is_reserved":false,"is_disabled":false,"rental_uris":{"android":"levelo://app?vid=b4b16144-62c4-466d-a1bc-60ceadfcc9a6","ios":"levelo://app?vid=b4b16144-62c4-466d-a1bc-60ceadfcc9a6"},"vehicle_type_id":"4","last_reported":1706810908,"current_range_meters":11600,"station_id":"ce4bhqp2rcd13ifvqhng","pricing_plan_id":"free"},{"bike_id":"743c2914-24f2-41e9-8d3d-abdcea0cfb72","system_id":"levelo_inurba_marseille","lat":43.29794,"lon":5.38093,"is_reserved":false,"is_disabled":false,"rental_uris":{"android":"levelo://app?vid=743c2914-24f2-41e9-8d3d-abdcea0cfb72","ios":"levelo://app?vid=743c2914-24f2-41e9-8d3d-abdcea0cfb72"},"vehicle_type_id":"4","last_reported":1706810908,"current_range_meters":13600,"station_id":"ce4bgip2rcd13ifvqbb0","pricing_plan_id":"free"},{"bike_id":"6b6a04ca-8caa-4e4e-be90-1867eff05b31","system_id":"levelo_inurba_marseille","lat":43.304274,"lon":5.388873,"is_reserved":false,"is_disabled":false,"rental_uris":{"android":"levelo://app?vid=6b6a04ca-8caa-4e4e-be90-1867eff05b31","ios":"levelo://app?vid=6b6a04ca-8caa-4e4e-be90-1867eff05b31"},"vehicle_type_id":"4","last_reported":1706810908,"current_range_meters":1600,"station_id":"ce4bgk12rcd13ifvqbi0","pricing_plan_id":"free"},{"bike_id":"8c7d4c23-f0c2-4bd3-a713-cd1925757cb0","system_id":"levelo_inurba_marseille","lat":43.298037,"lon":5.381066,"is_reserved":false,"is_disabled":false,"rental_uris":{"android":"levelo://app?vid=8c7d4c23-f0c2-4bd3-a713-cd1925757cb0","ios":"levelo://app?vid=8c7d4c23-f0c2-4bd3-a713-cd1925757cb0"},"vehicle_type_id":"4","last_reported":1706810908,"current_range_meters":18400,"station_id":"ce4bgip2rcd13ifvqbb0","pricing_plan_id":"free"},{"bike_id":"7d095bd5-9664-4761-90e2-bc9f18e8f794","system_id":"levelo_inurba_marseille","lat":43.304274,"lon":5.388873,"is_reserved":false,"is_disabled":false,"rental_uris":{"android":"levelo://app?vid=7d095bd5-9664-4761-90e2-bc9f18e8f794","ios":"levelo://app?vid=7d095bd5-9664-4761-90e2-bc9f18e8f794"},"vehicle_type_id":"4","last_reported":1706810908,"current_range_meters":28800,"station_id":"ce4bgk12rcd13ifvqbi0","pricing_plan_id":"free"},{"bike_id":"066df202-d3b1-4aba-9e72-4e2342136f17","system_id":"levelo_inurba_marseille","lat":43.29791,"lon":5.38099,"is_reserved":false,"is_disabled":false,"rental_uris":{"android":"levelo://app?vid=066df202-d3b1-4aba-9e72-4e2342136f17","ios":"levelo://app?vid=066df202-d3b1-4aba-9e72-4e2342136f17"},"vehicle_type_id":"4","last_reported":1706810908,"current_range_meters":2400,"station_id":"ce4bgip2rcd13ifvqbb0","pricing_plan_id":"free"},{"bike_id":"018341e3-64fe-4fef-9818-b3e7b2b79cd5","system_id":"levelo_inurba_marseille","lat":43.295748,"lon":5.37522,"is_reserved":false,"is_disabled":false,"rental_uris":{"android":"levelo://app?vid=018341e3-64fe-4fef-9818-b3e7b2b79cd5","ios":"levelo://app?vid=018341e3-64fe-4fef-9818-b3e7b2b79cd5"},"vehicle_type_id":"4","last_reported":1706810908,"current_range_meters":0,"station_id":"ce4bgh92rcd13ifvqb50","pricing_plan_id":"free"},{"bike_id":"0151f541-a29c-4b7b-9e5a-88f0b9ba4c53","system_id":"levelo_inurba_marseille","lat":43.296263,"lon":5.377094,"is_reserved":false,"is_disabled":false,"rental_uris":{"android":"levelo://app?vid=0151f541-a29c-4b7b-9e5a-88f0b9ba4c53","ios":"levelo://app?vid=0151f541-a29c-4b7b-9e5a-88f0b9ba4c53"},"vehicle_type_id":"4","last_reported":1706810908,"current_range_meters":7200,"station_id":"ce4bgi92rcd13ifvqb90","pricing_plan_id":"free"},{"bike_id":"17492169-054e-4fb8-a918-0544253fe003","system_id":"levelo_inurba_marseille","lat":43.30439,"lon":5.38894,"is_reserved":false,"is_disabled":false,"rental_uris":{"android":"levelo://app?vid=17492169-054e-4fb8-a918-0544253fe003","ios":"levelo://app?vid=17492169-054e-4fb8-a918-0544253fe003"},"vehicle_type_id":"4","last_reported":1706810908,"current_range_meters":28800,"station_id":"ce4bgk12rcd13ifvqbi0","pricing_plan_id":"free"},{"bike_id":"a15c307b-8d53-42a2-971c-8da0187900c3","system_id":"levelo_inurba_marseille","lat":43.3044,"lon":5.38897,"is_reserved":false,"is_disabled":false,"rental_uris":{"android":"levelo://app?vid=a15c307b-8d53-42a2-971c-8da0187900c3","ios":"levelo://app?vid=a15c307b-8d53-42a2-971c-8da0187900c3"},"vehicle_type_id":"4","last_reported":1706810908,"current_range_meters":0,"station_id":"ce4bgk12rcd13ifvqbi0","pricing_plan_id":"free"},{"bike_id":"8057e144-ed75-42ca-bd27-fd0357601bcb","system_id":"levelo_inurba_marseille","lat":43.30432,"lon":5.38893,"is_reserved":false,"is_disabled":false,"rental_uris":{"android":"levelo://app?vid=8057e144-ed75-42ca-bd27-fd0357601bcb","ios":"levelo://app?vid=8057e144-ed75-42ca-bd27-fd0357601bcb"},"vehicle_type_id":"4","last_reported":1706810908,"current_range_meters":4000,"station_id":"ce4bgk12rcd13ifvqbi0","pricing_plan_id":"free"},{"bike_id":"711b7c56-3978-46ad-90a0-a5519d356a2b","system_id":"levelo_inurba_marseille","lat":43.296263,"lon":5.377094,"is_reserved":false,"is_disabled":false,"rental_uris":{"android":"levelo://app?vid=711b7c56-3978-46ad-90a0-a5519d356a2b","ios":"levelo://app?vid=711b7c56-3978-46ad-90a0-a5519d356a2b"},"vehicle_type_id":"4","last_reported":1706810908,"current_range_meters":8000,"station_id":"ce4bgi92rcd13ifvqb90","pricing_plan_id":"free"},{"bike_id":"7a74c030-cae7-46ce-9925-3c034fa51af1","system_id":"levelo_inurba_marseille","lat":43.304274,"lon":5.388873,"is_reserved":false,"is_disabled":false,"rental_uris":{"android":"levelo://app?vid=7a74c030-cae7-46ce-9925-3c034fa51af1","ios":"levelo://app?vid=7a74c030-cae7-46ce-9925-3c034fa51af1"},"vehicle_type_id":"4","last_reported":1706810908,"current_range_meters":19200,"station_id":"ce4bgk12rcd13ifvqbi0","pricing_plan_id":"free"},{"bike_id":"8be5bbb7-9440-4b49-9e33-d649b84faade","system_id":"levelo_inurba_marseille","lat":43.304274,"lon":5.388873,"is_reserved":false,"is_disabled":false,"rental_uris":{"android":"levelo://app?vid=8be5bbb7-9440-4b49-9e33-d649b84faade","ios":"levelo://app?vid=8be5bbb7-9440-4b49-9e33-d649b84faade"},"vehicle_type_id":"4","last_reported":1706810908,"current_range_meters":4800,"station_id":"ce4bgk12rcd13ifvqbi0","pricing_plan_id":"free"},{"bike_id":"90aed28c-936e-4e8d-aa09-c4a04b9cb4c2","system_id":"levelo_inurba_marseille","lat":43.29977,"lon":5.38494,"is_reserved":false,"is_disabled":false,"rental_uris":{"android":"levelo://app?vid=90aed28c-936e-4e8d-aa09-c4a04b9cb4c2","ios":"levelo://app?vid=90aed28c-936e-4e8d-aa09-c4a04b9cb4c2"},"vehicle_type_id":"4","last_reported":1706810908,"current_range_meters":0,"station_id":"ce4bgj92rcd13ifvqbd0","pricing_plan_id":"free"},{"bike_id":"452ed6a1-a6b6-4698-af91-c7370d4fa406","system_id":"levelo_inurba_marseille","lat":43.299717,"lon":5.384845,"is_reserved":false,"is_disabled":false,"rental_uris":{"android":"levelo://app?vid=452ed6a1-a6b6-4698-af91-c7370d4fa406","ios":"levelo://app?vid=452ed6a1-a6b6-4698-af91-c7370d4fa406"},"vehicle_type_id":"4","last_reported":1706810908,"current_range_meters":30400,"station_id":"ce4bgj92rcd13ifvqbd0","pricing_plan_id":"free"},{"bike_id":"ecdcdc3c-e2d2-4151-9c19-6a7ce4340e89","system_id":"levelo_inurba_marseille","lat":43.299717,"lon":5.384845,"is_reserved":false,"is_disabled":false,"rental_uris":{"android":"levelo://app?vid=ecdcdc3c-e2d2-4151-9c19-6a7ce4340e89","ios":"levelo://app?vid=ecdcdc3c-e2d2-4151-9c19-6a7ce4340e89"},"vehicle_type_id":"4","last_reported":1706810908,"current_range_meters":5600,"station_id":"ce4bgj92rcd13ifvqbd0","pricing_plan_id":"free"},{"bike_id":"202df9dd-3b20-4310-9dde-7a88eca4db2d","system_id":"levelo_inurba_marseille","lat":43.323655,"lon":5.388766,"is_reserved":false,"is_disabled":false,"rental_uris":{"android":"levelo://app?vid=202df9dd-3b20-4310-9dde-7a88eca4db2d","ios":"levelo://app?vid=202df9dd-3b20-4310-9dde-7a88eca4db2d"},"vehicle_type_id":"4","last_reported":1706810908,"current_range_meters":4000,"station_id":"ce4bhqp2rcd13ifvqhog","pricing_plan_id":"free"},{"bike_id":"5118de90-c727-4c12-bf98-99f5b63d7830","system_id":"levelo_inurba_marseille","lat":43.32367,"lon":5.388836,"is_reserved":false,"is_disabled":false,"rental_uris":{"android":"levelo://app?vid=5118de90-c727-4c12-bf98-99f5b63d7830","ios":"levelo://app?vid=5118de90-c727-4c12-bf98-99f5b63d7830"},"vehicle_type_id":"4","last_reported":1706810908,"current_range_meters":5200,"station_id":"ce4bhqp2rcd13ifvqhog","pricing_plan_id":"free"},{"bike_id":"d009c173-18e7-4c88-8314-cb6a2d390b71","system_id":"levelo_inurba_marseille","lat":43.32367,"lon":5.388836,"is_reserved":false,"is_disabled":false,"rental_uris":{"android":"levelo://app?vid=d009c173-18e7-4c88-8314-cb6a2d390b71","ios":"levelo://app?vid=d009c173-18e7-4c88-8314-cb6a2d390b71"},"vehicle_type_id":"4","last_reported":1706810908,"current_range_meters":20000,"station_id":"ce4bhqp2rcd13ifvqhog","pricing_plan_id":"free"},{"bike_id":"7ab581a0-3933-4376-b965-8072a9b2dd64","system_id":"levelo_inurba_marseille","lat":43.32367,"lon":5.38883,"is_reserved":false,"is_disabled":false,"rental_uris":{"android":"levelo://app?vid=7ab581a0-3933-4376-b965-8072a9b2dd64","ios":"levelo://app?vid=7ab581a0-3933-4376-b965-8072a9b2dd64"},"vehicle_type_id":"4","last_reported":1706810908,"current_range_meters":4400,"station_id":"ce4bhqp2rcd13ifvqhog","pricing_plan_id":"free"},{"bike_id":"ba6df169-e42e-41e1-9099-8133b958ca2c","system_id":"levelo_inurba_marseille","lat":43.323682,"lon":5.388826,"is_reserved":false,"is_disabled":false,"rental_uris":{"android":"levelo://app?vid=ba6df169-e42e-41e1-9099-8133b958ca2c","ios":"levelo://app?vid=ba6df169-e42e-41e1-9099-8133b958ca2c"},"vehicle_type_id":"4","last_reported":1706810908,"current_range_meters":5600,"station_id":"ce4bhqp2rcd13ifvqhog","pricing_plan_id":"free"},{"bike_id":"efa6bd51-c94f-4107-9e97-437d3697b8cb","system_id":"levelo_inurba_marseille","lat":43.32367,"lon":5.388836,"is_reserved":false,"is_disabled":false,"rental_uris":{"android":"levelo://app?vid=efa6bd51-c94f-4107-9e97-437d3697b8cb","ios":"levelo://app?vid=efa6bd51-c94f-4107-9e97-437d3697b8cb"},"vehicle_type_id":"4","last_reported":1706810908,"current_range_meters":5600,"station_id":"ce4bhqp2rcd13ifvqhog","pricing_plan_id":"free"},{"bike_id":"bd8cb07a-d1f1-414e-9339-f7859ccdda25","system_id":"levelo_inurba_marseille","lat":43.32367,"lon":5.388836,"is_reserved":false,"is_disabled":false,"rental_uris":{"android":"levelo://app?vid=bd8cb07a-d1f1-414e-9339-f7859ccdda25","ios":"levelo://app?vid=bd8cb07a-d1f1-414e-9339-f7859ccdda25"},"vehicle_type_id":"4","last_reported":1706810908,"current_range_meters":0,"station_id":"ce4bhqp2rcd13ifvqhog","pricing_plan_id":"free"},{"bike_id":"8a95fa2d-22e9-49e9-b83e-c425ecfb1916","system_id":"levelo_inurba_marseille","lat":43.32372,"lon":5.3889,"is_reserved":false,"is_disabled":false,"rental_uris":{"android":"levelo://app?vid=8a95fa2d-22e9-49e9-b83e-c425ecfb1916","ios":"levelo://app?vid=8a95fa2d-22e9-49e9-b83e-c425ecfb1916"},"vehicle_type_id":"4","last_reported":1706810908,"current_range_meters":26800,"station_id":"ce4bhqp2rcd13ifvqhog","pricing_plan_id":"free"},{"bike_id":"ce65d65d-0811-486a-a293-ea2aa489aaab","system_id":"levelo_inurba_marseille","lat":43.29601,"lon":5.381084,"is_reserved":false,"is_disabled":false,"rental_uris":{"android":"levelo://app?vid=ce65d65d-0811-486a-a293-ea2aa489aaab","ios":"levelo://app?vid=ce65d65d-0811-486a-a293-ea2aa489aaab"},"vehicle_type_id":"4","last_reported":1706810908,"current_range_meters":0,"station_id":"ce4bgl12rcd13ifvqbo0","pricing_plan_id":"free"},{"bike_id":"78e54708-26d6-4641-ba3a-56fab91b7e0e","system_id":"levelo_inurba_marseille","lat":43.295935,"lon":5.381005,"is_reserved":false,"is_disabled":false,"rental_uris":{"android":"levelo://app?vid=78e54708-26d6-4641-ba3a-56fab91b7e0e","ios":"levelo://app?vid=78e54708-26d6-4641-ba3a-56fab91b7e0e"},"vehicle_type_id":"4","last_reported":1706810908,"current_range_meters":0,"station_id":"ce4bgl12rcd13ifvqbo0","pricing_plan_id":"free"},{"bike_id":"9c3723f9-a95c-446f-b4f2-6095c4fc7d4d","system_id":"levelo_inurba_marseille","lat":43.292749,"lon":5.368402,"is_reserved":false,"is_disabled":false,"rental_uris":{"android":"levelo://app?vid=9c3723f9-a95c-446f-b4f2-6095c4fc7d4d","ios":"levelo://app?vid=9c3723f9-a95c-446f-b4f2-6095c4fc7d4d"},"vehicle_type_id":"4","last_reported":1706810908,"current_range_meters":10800,"station_id":"ce4bhbp2rcd13ifvqesg","pricing_plan_id":"free"},{"bike_id":"317012b3-a904-4233-b09e-6a2bff5d1b57","system_id":"levelo_inurba_marseille","lat":43.292749,"lon":5.368402,"is_reserved":false,"is_disabled":false,"rental_uris":{"android":"levelo://app?vid=317012b3-a904-4233-b09e-6a2bff5d1b57","ios":"levelo://app?vid=317012b3-a904-4233-b09e-6a2bff5d1b57"},"vehicle_type_id":"4","last_reported":1706810908,"current_range_meters":5200,"station_id":"ce4bhbp2rcd13ifvqesg","pricing_plan_id":"free"},{"bike_id":"3e523946-a610-4b17-9847-aaf10210e7db","system_id":"levelo_inurba_marseille","lat":43.292749,"lon":5.368402,"is_reserved":false,"is_disabled":false,"rental_uris":{"android":"levelo://app?vid=3e523946-a610-4b17-9847-aaf10210e7db","ios":"levelo://app?vid=3e523946-a610-4b17-9847-aaf10210e7db"},"vehicle_type_id":"4","last_reported":1706810908,"current_range_meters":24800,"station_id":"ce4bhbp2rcd13ifvqesg","pricing_plan_id":"free"},{"bike_id":"5a27ee9d-d168-43a1-8005-5b175a522e9d","system_id":"levelo_inurba_marseille","lat":43.292749,"lon":5.368402,"is_reserved":false,"is_disabled":false,"rental_uris":{"android":"levelo://app?vid=5a27ee9d-d168-43a1-8005-5b175a522e9d","ios":"levelo://app?vid=5a27ee9d-d168-43a1-8005-5b175a522e9d"},"vehicle_type_id":"4","last_reported":1706810908,"current_range_meters":26800,"station_id":"ce4bhbp2rcd13ifvqesg","pricing_plan_id":"free"},{"bike_id":"1cf7baf7-2ba9-4370-9fdf-38b0b26be618","system_id":"levelo_inurba_marseille","lat":43.293259,"lon":5.371586,"is_reserved":false,"is_disabled":false,"rental_uris":{"android":"levelo://app?vid=1cf7baf7-2ba9-4370-9fdf-38b0b26be618","ios":"levelo://app?vid=1cf7baf7-2ba9-4370-9fdf-38b0b26be618"},"vehicle_type_id":"4","last_reported":1706810908,"current_range_meters":9600,"station_id":"ce4bgh92rcd13ifvqb40","pricing_plan_id":"free"},{"bike_id":"48b7a46c-4b4e-4c3f-8d02-8ae9e3bf3a19","system_id":"levelo_inurba_marseille","lat":43.292749,"lon":5.368402,"is_reserved":false,"is_disabled":false,"rental_uris":{"android":"levelo://app?vid=48b7a46c-4b4e-4c3f-8d02-8ae9e3bf3a19","ios":"levelo://app?vid=48b7a46c-4b4e-4c3f-8d02-8ae9e3bf3a19"},"vehicle_type_id":"4","last_reported":1706810908,"current_range_meters":30000,"station_id":"ce4bhbp2rcd13ifvqesg","pricing_plan_id":"free"},{"bike_id":"0b967313-2d5e-47f1-847f-465186641be6","system_id":"levelo_inurba_marseille","lat":43.293259,"lon":5.371586,"is_reserved":false,"is_disabled":false,"rental_uris":{"android":"levelo://app?vid=0b967313-2d5e-47f1-847f-465186641be6","ios":"levelo://app?vid=0b967313-2d5e-47f1-847f-465186641be6"},"vehicle_type_id":"4","last_reported":1706810908,"current_range_meters":10800,"station_id":"ce4bgh92rcd13ifvqb40","pricing_plan_id":"free"},{"bike_id":"3d22a4e2-53d1-41fc-a54e-53acf5f7d7f9","system_id":"levelo_inurba_marseille","lat":43.292749,"lon":5.368402,"is_reserved":false,"is_disabled":false,"rental_uris":{"android":"levelo://app?vid=3d22a4e2-53d1-41fc-a54e-53acf5f7d7f9","ios":"levelo://app?vid=3d22a4e2-53d1-41fc-a54e-53acf5f7d7f9"},"vehicle_type_id":"4","last_reported":1706810908,"current_range_meters":22400,"station_id":"ce4bhbp2rcd13ifvqesg","pricing_plan_id":"free"},{"bike_id":"cd7a36d1-c459-4178-bc02-ef973040e2c4","system_id":"levelo_inurba_marseille","lat":43.293259,"lon":5.371586,"is_reserved":false,"is_disabled":false,"rental_uris":{"android":"levelo://app?vid=cd7a36d1-c459-4178-bc02-ef973040e2c4","ios":"levelo://app?vid=cd7a36d1-c459-4178-bc02-ef973040e2c4"},"vehicle_type_id":"4","last_reported":1706810908,"current_range_meters":28000,"station_id":"ce4bgh92rcd13ifvqb40","pricing_plan_id":"free"},{"bike_id":"78741979-9382-4c02-9ca5-c4458a1f65db","system_id":"levelo_inurba_marseille","lat":43.293259,"lon":5.371586,"is_reserved":false,"is_disabled":false,"rental_uris":{"android":"levelo://app?vid=78741979-9382-4c02-9ca5-c4458a1f65db","ios":"levelo://app?vid=78741979-9382-4c02-9ca5-c4458a1f65db"},"vehicle_type_id":"4","last_reported":1706810908,"current_range_meters":14800,"station_id":"ce4bgh92rcd13ifvqb40","pricing_plan_id":"free"},{"bike_id":"d3f3784a-b030-411b-b512-c52f09be0784","system_id":"levelo_inurba_marseille","lat":43.293259,"lon":5.371586,"is_reserved":false,"is_disabled":false,"rental_uris":{"android":"levelo://app?vid=d3f3784a-b030-411b-b512-c52f09be0784","ios":"levelo://app?vid=d3f3784a-b030-411b-b512-c52f09be0784"},"vehicle_type_id":"4","last_reported":1706810908,"current_range_meters":15600,"station_id":"ce4bgh92rcd13ifvqb40","pricing_plan_id":"free"},{"bike_id":"46ce8125-9a91-43e2-8ea4-9a1c7b4a6327","system_id":"levelo_inurba_marseille","lat":43.294162,"lon":5.386292,"is_reserved":false,"is_disabled":false,"rental_uris":{"android":"levelo://app?vid=46ce8125-9a91-43e2-8ea4-9a1c7b4a6327","ios":"levelo://app?vid=46ce8125-9a91-43e2-8ea4-9a1c7b4a6327"},"vehicle_type_id":"4","last_reported":1706810908,"current_range_meters":15600,"station_id":"ce4bh2h2rcd13ifvqdh0","pricing_plan_id":"free"},{"bike_id":"8cc4d711-1a18-42ec-ba4d-eebe823b7d00","system_id":"levelo_inurba_marseille","lat":43.293259,"lon":5.371586,"is_reserved":false,"is_disabled":false,"rental_uris":{"android":"levelo://app?vid=8cc4d711-1a18-42ec-ba4d-eebe823b7d00","ios":"levelo://app?vid=8cc4d711-1a18-42ec-ba4d-eebe823b7d00"},"vehicle_type_id":"4","last_reported":1706810908,"current_range_meters":4000,"station_id":"ce4bgh92rcd13ifvqb40","pricing_plan_id":"free"},{"bike_id":"4bffc5ec-0a32-4aef-96c1-90708db0328f","system_id":"levelo_inurba_marseille","lat":43.293009,"lon":5.374584,"is_reserved":false,"is_disabled":false,"rental_uris":{"android":"levelo://app?vid=4bffc5ec-0a32-4aef-96c1-90708db0328f","ios":"levelo://app?vid=4bffc5ec-0a32-4aef-96c1-90708db0328f"},"vehicle_type_id":"4","last_reported":1706810908,"current_range_meters":13200,"station_id":"ce4bgi12rcd13ifvqb70","pricing_plan_id":"free"},{"bike_id":"8b5ad47d-1ba3-4df2-9f57-9a979caf8719","system_id":"levelo_inurba_marseille","lat":43.305994,"lon":5.393687,"is_reserved":false,"is_disabled":false,"rental_uris":{"android":"levelo://app?vid=8b5ad47d-1ba3-4df2-9f57-9a979caf8719","ios":"levelo://app?vid=8b5ad47d-1ba3-4df2-9f57-9a979caf8719"},"vehicle_type_id":"4","last_reported":1706810908,"current_range_meters":10400,"station_id":"ce4bh0p2rcd13ifvqd80","pricing_plan_id":"free"},{"bike_id":"55a53d7e-5a53-4361-8a4f-a829958fdb93","system_id":"levelo_inurba_marseille","lat":43.302992,"lon":5.392136,"is_reserved":false,"is_disabled":false,"rental_uris":{"android":"levelo://app?vid=55a53d7e-5a53-4361-8a4f-a829958fdb93","ios":"levelo://app?vid=55a53d7e-5a53-4361-8a4f-a829958fdb93"},"vehicle_type_id":"4","last_reported":1706810908,"current_range_meters":5600,"station_id":"ce4bgkh2rcd13ifvqbk0","pricing_plan_id":"free"},{"bike_id":"514716b6-1f8d-4d32-997e-b9fb8c885a7c","system_id":"levelo_inurba_marseille","lat":43.30304,"lon":5.392,"is_reserved":false,"is_disabled":false,"rental_uris":{"android":"levelo://app?vid=514716b6-1f8d-4d32-997e-b9fb8c885a7c","ios":"levelo://app?vid=514716b6-1f8d-4d32-997e-b9fb8c885a7c"},"vehicle_type_id":"4","last_reported":1706810908,"current_range_meters":0,"station_id":"ce4bgkh2rcd13ifvqbk0","pricing_plan_id":"free"},{"bike_id":"6de15206-65dd-4d81-aa34-d7379af98435","system_id":"levelo_inurba_marseille","lat":43.2936,"lon":5.37835,"is_reserved":false,"is_disabled":false,"rental_uris":{"android":"levelo://app?vid=6de15206-65dd-4d81-aa34-d7379af98435","ios":"levelo://app?vid=6de15206-65dd-4d81-aa34-d7379af98435"},"vehicle_type_id":"4","last_reported":1706810908,"current_range_meters":6000,"station_id":"ce4bgjh2rcd13ifvqbf0","pricing_plan_id":"free"},{"bike_id":"12de613b-14df-4d5b-b145-215a42d0e77c","system_id":"levelo_inurba_marseille","lat":43.30305,"lon":5.39213,"is_reserved":false,"is_disabled":false,"rental_uris":{"android":"levelo://app?vid=12de613b-14df-4d5b-b145-215a42d0e77c","ios":"levelo://app?vid=12de613b-14df-4d5b-b145-215a42d0e77c"},"vehicle_type_id":"4","last_reported":1706810908,"current_range_meters":15600,"station_id":"ce4bgkh2rcd13ifvqbk0","pricing_plan_id":"free"},{"bike_id":"88d2267f-f3b3-4bd4-9bd8-bd0cbb5a63c2","system_id":"levelo_inurba_marseille","lat":43.2936,"lon":5.37835,"is_reserved":false,"is_disabled":false,"rental_uris":{"android":"levelo://app?vid=88d2267f-f3b3-4bd4-9bd8-bd0cbb5a63c2","ios":"levelo://app?vid=88d2267f-f3b3-4bd4-9bd8-bd0cbb5a63c2"},"vehicle_type_id":"4","last_reported":1706810908,"current_range_meters":13200,"station_id":"ce4bgjh2rcd13ifvqbf0","pricing_plan_id":"free"},{"bike_id":"20700e61-debd-43dd-baac-a9badf19ac90","system_id":"levelo_inurba_marseille","lat":43.30309,"lon":5.39224,"is_reserved":false,"is_disabled":false,"rental_uris":{"android":"levelo://app?vid=20700e61-debd-43dd-baac-a9badf19ac90","ios":"levelo://app?vid=20700e61-debd-43dd-baac-a9badf19ac90"},"vehicle_type_id":"4","last_reported":1706810908,"current_range_meters":0,"station_id":"ce4bgkh2rcd13ifvqbk0","pricing_plan_id":"free"},{"bike_id":"a8575942-db5e-4ea1-abef-1b546ab2c846","system_id":"levelo_inurba_marseille","lat":43.302992,"lon":5.392136,"is_reserved":false,"is_disabled":false,"rental_uris":{"android":"levelo://app?vid=a8575942-db5e-4ea1-abef-1b546ab2c846","ios":"levelo://app?vid=a8575942-db5e-4ea1-abef-1b546ab2c846"},"vehicle_type_id":"4","last_reported":1706810908,"current_range_meters":3200,"station_id":"ce4bgkh2rcd13ifvqbk0","pricing_plan_id":"free"},{"bike_id":"834fc8c1-262c-4d0d-b1ea-106c9f674b4e","system_id":"levelo_inurba_marseille","lat":43.302992,"lon":5.392136,"is_reserved":false,"is_disabled":false,"rental_uris":{"android":"levelo://app?vid=834fc8c1-262c-4d0d-b1ea-106c9f674b4e","ios":"levelo://app?vid=834fc8c1-262c-4d0d-b1ea-106c9f674b4e"},"vehicle_type_id":"4","last_reported":1706810908,"current_range_meters":0,"station_id":"ce4bgkh2rcd13ifvqbk0","pricing_plan_id":"free"},{"bike_id":"1ca521ea-5f86-4afc-913f-ec03194d94cc","system_id":"levelo_inurba_marseille","lat":43.300852,"lon":5.390859,"is_reserved":false,"is_disabled":false,"rental_uris":{"android":"levelo://app?vid=1ca521ea-5f86-4afc-913f-ec03194d94cc","ios":"levelo://app?vid=1ca521ea-5f86-4afc-913f-ec03194d94cc"},"vehicle_type_id":"4","last_reported":1706810908,"current_range_meters":15600,"station_id":"ce4bh192rcd13ifvqdb0","pricing_plan_id":"free"},{"bike_id":"95295859-ecd5-454c-87fe-eb2ff1c493c6","system_id":"levelo_inurba_marseille","lat":43.30085,"lon":5.390856,"is_reserved":false,"is_disabled":false,"rental_uris":{"android":"levelo://app?vid=95295859-ecd5-454c-87fe-eb2ff1c493c6","ios":"levelo://app?vid=95295859-ecd5-454c-87fe-eb2ff1c493c6"},"vehicle_type_id":"4","last_reported":1706810908,"current_range_meters":0,"station_id":"ce4bh192rcd13ifvqdb0","pricing_plan_id":"free"},{"bike_id":"44bec75d-ff1b-4be1-8e4b-9005d81b4c86","system_id":"levelo_inurba_marseille","lat":43.29227,"lon":5.36067,"is_reserved":false,"is_disabled":false,"rental_uris":{"android":"levelo://app?vid=44bec75d-ff1b-4be1-8e4b-9005d81b4c86","ios":"levelo://app?vid=44bec75d-ff1b-4be1-8e4b-9005d81b4c86"},"vehicle_type_id":"4","last_reported":1706810908,"current_range_meters":26000,"station_id":"ce4bhbh2rcd13ifvqeqg","pricing_plan_id":"free"},{"bike_id":"c7c99efe-7c91-42bd-8c4a-ce0ec6f0ccfb","system_id":"levelo_inurba_marseille","lat":43.300852,"lon":5.390859,"is_reserved":false,"is_disabled":false,"rental_uris":{"android":"levelo://app?vid=c7c99efe-7c91-42bd-8c4a-ce0ec6f0ccfb","ios":"levelo://app?vid=c7c99efe-7c91-42bd-8c4a-ce0ec6f0ccfb"},"vehicle_type_id":"4","last_reported":1706810908,"current_range_meters":4000,"station_id":"ce4bh192rcd13ifvqdb0","pricing_plan_id":"free"},{"bike_id":"0061640f-665f-4ed0-82d8-9de7f450062e","system_id":"levelo_inurba_marseille","lat":43.298764,"lon":5.388973,"is_reserved":false,"is_disabled":false,"rental_uris":{"android":"levelo://app?vid=0061640f-665f-4ed0-82d8-9de7f450062e","ios":"levelo://app?vid=0061640f-665f-4ed0-82d8-9de7f450062e"},"vehicle_type_id":"4","last_reported":1706810908,"current_range_meters":22800,"station_id":"ce4bh392rcd13ifvqdl0","pricing_plan_id":"free"},{"bike_id":"7a4cba06-e298-45ef-b413-1c12cf56a15b","system_id":"levelo_inurba_marseille","lat":43.291675,"lon":5.371583,"is_reserved":false,"is_disabled":false,"rental_uris":{"android":"levelo://app?vid=7a4cba06-e298-45ef-b413-1c12cf56a15b","ios":"levelo://app?vid=7a4cba06-e298-45ef-b413-1c12cf56a15b"},"vehicle_type_id":"4","last_reported":1706810908,"current_range_meters":7600,"station_id":"ce4bha92rcd13ifvqeh0","pricing_plan_id":"free"},{"bike_id":"65bfba4a-d253-4896-8bcb-b5b2c7231f72","system_id":"levelo_inurba_marseille","lat":43.291675,"lon":5.371583,"is_reserved":false,"is_disabled":false,"rental_uris":{"android":"levelo://app?vid=65bfba4a-d253-4896-8bcb-b5b2c7231f72","ios":"levelo://app?vid=65bfba4a-d253-4896-8bcb-b5b2c7231f72"},"vehicle_type_id":"4","last_reported":1706810908,"current_range_meters":0,"station_id":"ce4bha92rcd13ifvqeh0","pricing_plan_id":"free"},{"bike_id":"a9cadf29-7cce-467a-98ec-4bd67ab6098e","system_id":"levelo_inurba_marseille","lat":43.298764,"lon":5.388973,"is_reserved":false,"is_disabled":false,"rental_uris":{"android":"levelo://app?vid=a9cadf29-7cce-467a-98ec-4bd67ab6098e","ios":"levelo://app?vid=a9cadf29-7cce-467a-98ec-4bd67ab6098e"},"vehicle_type_id":"4","last_reported":1706810908,"current_range_meters":3600,"station_id":"ce4bh392rcd13ifvqdl0","pricing_plan_id":"free"},{"bike_id":"ab7108b2-b3d3-4aec-9609-10e843ef0aef","system_id":"levelo_inurba_marseille","lat":43.291994,"lon":5.357886,"is_reserved":false,"is_disabled":false,"rental_uris":{"android":"levelo://app?vid=ab7108b2-b3d3-4aec-9609-10e843ef0aef","ios":"levelo://app?vid=ab7108b2-b3d3-4aec-9609-10e843ef0aef"},"vehicle_type_id":"4","last_reported":1706810908,"current_range_meters":9600,"station_id":"ce4bhb12rcd13ifvqel0","pricing_plan_id":"free"},{"bike_id":"e4f4688c-a215-4b8f-8947-99912085cf80","system_id":"levelo_inurba_marseille","lat":43.291994,"lon":5.357886,"is_reserved":false,"is_disabled":false,"rental_uris":{"android":"levelo://app?vid=e4f4688c-a215-4b8f-8947-99912085cf80","ios":"levelo://app?vid=e4f4688c-a215-4b8f-8947-99912085cf80"},"vehicle_type_id":"4","last_reported":1706810908,"current_range_meters":2800,"station_id":"ce4bhb12rcd13ifvqel0","pricing_plan_id":"free"},{"bike_id":"34f9b118-51c9-4565-a5fd-502a141f777e","system_id":"levelo_inurba_marseille","lat":43.313291,"lon":5.396838,"is_reserved":false,"is_disabled":false,"rental_uris":{"android":"levelo://app?vid=34f9b118-51c9-4565-a5fd-502a141f777e","ios":"levelo://app?vid=34f9b118-51c9-4565-a5fd-502a141f777e"},"vehicle_type_id":"4","last_reported":1706810908,"current_range_meters":0,"station_id":"ce4bgvp2rcd13ifvqcu0","pricing_plan_id":"free"},{"bike_id":"67272d4c-5d0c-4edf-a12e-1790b8a03d98","system_id":"levelo_inurba_marseille","lat":43.31324,"lon":5.39693,"is_reserved":false,"is_disabled":false,"rental_uris":{"android":"levelo://app?vid=67272d4c-5d0c-4edf-a12e-1790b8a03d98","ios":"levelo://app?vid=67272d4c-5d0c-4edf-a12e-1790b8a03d98"},"vehicle_type_id":"4","last_reported":1706810908,"current_range_meters":16000,"station_id":"ce4bgvp2rcd13ifvqcu0","pricing_plan_id":"free"},{"bike_id":"b67d32b6-d53a-4bc3-ac8e-4086407151f4","system_id":"levelo_inurba_marseille","lat":43.313291,"lon":5.396838,"is_reserved":false,"is_disabled":false,"rental_uris":{"android":"levelo://app?vid=b67d32b6-d53a-4bc3-ac8e-4086407151f4","ios":"levelo://app?vid=b67d32b6-d53a-4bc3-ac8e-4086407151f4"},"vehicle_type_id":"4","last_reported":1706810908,"current_range_meters":0,"station_id":"ce4bgvp2rcd13ifvqcu0","pricing_plan_id":"free"},{"bike_id":"22c5a2f2-b735-4951-a7a7-add55c913cd9","system_id":"levelo_inurba_marseille","lat":43.309047,"lon":5.396551,"is_reserved":false,"is_disabled":false,"rental_uris":{"android":"levelo://app?vid=22c5a2f2-b735-4951-a7a7-add55c913cd9","ios":"levelo://app?vid=22c5a2f2-b735-4951-a7a7-add55c913cd9"},"vehicle_type_id":"4","last_reported":1706810908,"current_range_meters":28000,"station_id":"ce4bh012rcd13ifvqcv0","pricing_plan_id":"free"},{"bike_id":"a902d05f-2090-4c85-9f60-1c89a90a6567","system_id":"levelo_inurba_marseille","lat":43.29529,"lon":5.385581,"is_reserved":false,"is_disabled":false,"rental_uris":{"android":"levelo://app?vid=a902d05f-2090-4c85-9f60-1c89a90a6567","ios":"levelo://app?vid=a902d05f-2090-4c85-9f60-1c89a90a6567"},"vehicle_type_id":"4","last_reported":1706810908,"current_range_meters":15200,"station_id":"ce4bgih2rcd13ifvqba0","pricing_plan_id":"free"},{"bike_id":"44debb91-c68f-4ce9-b004-f283ad970781","system_id":"levelo_inurba_marseille","lat":43.29529,"lon":5.385581,"is_reserved":false,"is_disabled":false,"rental_uris":{"android":"levelo://app?vid=44debb91-c68f-4ce9-b004-f283ad970781","ios":"levelo://app?vid=44debb91-c68f-4ce9-b004-f283ad970781"},"vehicle_type_id":"4","last_reported":1706810908,"current_range_meters":11600,"station_id":"ce4bgih2rcd13ifvqba0","pricing_plan_id":"free"},{"bike_id":"f09da644-7e18-49b3-abd3-e25728ec4fbc","system_id":"levelo_inurba_marseille","lat":43.309038,"lon":5.396546,"is_reserved":false,"is_disabled":false,"rental_uris":{"android":"levelo://app?vid=f09da644-7e18-49b3-abd3-e25728ec4fbc","ios":"levelo://app?vid=f09da644-7e18-49b3-abd3-e25728ec4fbc"},"vehicle_type_id":"4","last_reported":1706810908,"current_range_meters":0,"station_id":"ce4bh012rcd13ifvqcv0","pricing_plan_id":"free"},{"bike_id":"87f346ed-bfc3-40a8-995b-0c1363fb1aaa","system_id":"levelo_inurba_marseille","lat":43.29529,"lon":5.38541,"is_reserved":false,"is_disabled":false,"rental_uris":{"android":"levelo://app?vid=87f346ed-bfc3-40a8-995b-0c1363fb1aaa","ios":"levelo://app?vid=87f346ed-bfc3-40a8-995b-0c1363fb1aaa"},"vehicle_type_id":"4","last_reported":1706810908,"current_range_meters":0,"station_id":"ce4bgih2rcd13ifvqba0","pricing_plan_id":"free"},{"bike_id":"58e1c311-d7c5-4d36-9893-0a2ed74b90b6","system_id":"levelo_inurba_marseille","lat":43.29529,"lon":5.385581,"is_reserved":false,"is_disabled":false,"rental_uris":{"android":"levelo://app?vid=58e1c311-d7c5-4d36-9893-0a2ed74b90b6","ios":"levelo://app?vid=58e1c311-d7c5-4d36-9893-0a2ed74b90b6"},"vehicle_type_id":"4","last_reported":1706810908,"current_range_meters":19200,"station_id":"ce4bgih2rcd13ifvqba0","pricing_plan_id":"free"},{"bike_id":"165ea131-935d-4233-8257-f3ed993a200c","system_id":"levelo_inurba_marseille","lat":43.29529,"lon":5.385581,"is_reserved":false,"is_disabled":false,"rental_uris":{"android":"levelo://app?vid=165ea131-935d-4233-8257-f3ed993a200c","ios":"levelo://app?vid=165ea131-935d-4233-8257-f3ed993a200c"},"vehicle_type_id":"4","last_reported":1706810908,"current_range_meters":21600,"station_id":"ce4bgih2rcd13ifvqba0","pricing_plan_id":"free"},{"bike_id":"2aa0c0ab-545b-44c1-8bbb-5d6ff0c109ca","system_id":"levelo_inurba_marseille","lat":43.293433,"lon":5.38201,"is_reserved":false,"is_disabled":false,"rental_uris":{"android":"levelo://app?vid=2aa0c0ab-545b-44c1-8bbb-5d6ff0c109ca","ios":"levelo://app?vid=2aa0c0ab-545b-44c1-8bbb-5d6ff0c109ca"},"vehicle_type_id":"4","last_reported":1706810908,"current_range_meters":18400,"station_id":"","pricing_plan_id":"free"},{"bike_id":"3661ebcf-674f-45f3-9ab6-f33b823a855d","system_id":"levelo_inurba_marseille","lat":43.302008,"lon":5.394694,"is_reserved":false,"is_disabled":false,"rental_uris":{"android":"levelo://app?vid=3661ebcf-674f-45f3-9ab6-f33b823a855d","ios":"levelo://app?vid=3661ebcf-674f-45f3-9ab6-f33b823a855d"},"vehicle_type_id":"4","last_reported":1706810908,"current_range_meters":18000,"station_id":"ce4bh0p2rcd13ifvqd70","pricing_plan_id":"free"},{"bike_id":"4bf645b4-1ba3-4e4d-9230-90908ac39a0c","system_id":"levelo_inurba_marseille","lat":43.290631,"lon":5.359244,"is_reserved":false,"is_disabled":false,"rental_uris":{"android":"levelo://app?vid=4bf645b4-1ba3-4e4d-9230-90908ac39a0c","ios":"levelo://app?vid=4bf645b4-1ba3-4e4d-9230-90908ac39a0c"},"vehicle_type_id":"4","last_reported":1706810908,"current_range_meters":23200,"station_id":"ce4bha92rcd13ifvqeg0","pricing_plan_id":"free"},{"bike_id":"2c1e47ad-3478-424c-8c66-23a600b1f0dc","system_id":"levelo_inurba_marseille","lat":43.290441,"lon":5.359123,"is_reserved":false,"is_disabled":false,"rental_uris":{"android":"levelo://app?vid=2c1e47ad-3478-424c-8c66-23a600b1f0dc","ios":"levelo://app?vid=2c1e47ad-3478-424c-8c66-23a600b1f0dc"},"vehicle_type_id":"4","last_reported":1706810908,"current_range_meters":9600,"station_id":"","pricing_plan_id":"free"},{"bike_id":"48794953-91a8-4c91-add0-d498f8acd1b4","system_id":"levelo_inurba_marseille","lat":43.290631,"lon":5.359244,"is_reserved":false,"is_disabled":false,"rental_uris":{"android":"levelo://app?vid=48794953-91a8-4c91-add0-d498f8acd1b4","ios":"levelo://app?vid=48794953-91a8-4c91-add0-d498f8acd1b4"},"vehicle_type_id":"4","last_reported":1706810908,"current_range_meters":6400,"station_id":"ce4bha92rcd13ifvqeg0","pricing_plan_id":"free"},{"bike_id":"ac80f986-70e1-4a44-8387-ac583fb7e759","system_id":"levelo_inurba_marseille","lat":43.294153,"lon":5.386305,"is_reserved":false,"is_disabled":false,"rental_uris":{"android":"levelo://app?vid=ac80f986-70e1-4a44-8387-ac583fb7e759","ios":"levelo://app?vid=ac80f986-70e1-4a44-8387-ac583fb7e759"},"vehicle_type_id":"4","last_reported":1706810908,"current_range_meters":14000,"station_id":"ce4bh2h2rcd13ifvqdh0","pricing_plan_id":"free"},{"bike_id":"e1581654-7736-4f8d-b928-e597cecdb4cf","system_id":"levelo_inurba_marseille","lat":43.294153,"lon":5.386305,"is_reserved":false,"is_disabled":false,"rental_uris":{"android":"levelo://app?vid=e1581654-7736-4f8d-b928-e597cecdb4cf","ios":"levelo://app?vid=e1581654-7736-4f8d-b928-e597cecdb4cf"},"vehicle_type_id":"4","last_reported":1706810908,"current_range_meters":2800,"station_id":"ce4bh2h2rcd13ifvqdh0","pricing_plan_id":"free"},{"bike_id":"a7cf1796-f6d4-4821-82ad-52e92a680fe4","system_id":"levelo_inurba_marseille","lat":43.289184,"lon":5.366408,"is_reserved":false,"is_disabled":false,"rental_uris":{"android":"levelo://app?vid=a7cf1796-f6d4-4821-82ad-52e92a680fe4","ios":"levelo://app?vid=a7cf1796-f6d4-4821-82ad-52e92a680fe4"},"vehicle_type_id":"4","last_reported":1706810908,"current_range_meters":4800,"station_id":"ce4bhap2rcd13ifvqek0","pricing_plan_id":"free"},{"bike_id":"22a38418-eb05-4c15-8055-f47c486101cd","system_id":"levelo_inurba_marseille","lat":43.290327,"lon":5.375711,"is_reserved":false,"is_disabled":false,"rental_uris":{"android":"levelo://app?vid=22a38418-eb05-4c15-8055-f47c486101cd","ios":"levelo://app?vid=22a38418-eb05-4c15-8055-f47c486101cd"},"vehicle_type_id":"4","last_reported":1706810908,"current_range_meters":28400,"station_id":"ce4bh692rcd13ifvqe90","pricing_plan_id":"free"},{"bike_id":"b00aa2ae-008f-4875-861b-bee8cc66019c","system_id":"levelo_inurba_marseille","lat":43.294162,"lon":5.386292,"is_reserved":false,"is_disabled":false,"rental_uris":{"android":"levelo://app?vid=b00aa2ae-008f-4875-861b-bee8cc66019c","ios":"levelo://app?vid=b00aa2ae-008f-4875-861b-bee8cc66019c"},"vehicle_type_id":"4","last_reported":1706810908,"current_range_meters":13600,"station_id":"ce4bh2h2rcd13ifvqdh0","pricing_plan_id":"free"},{"bike_id":"7cf0607b-5c06-4549-b9b2-e8693c830626","system_id":"levelo_inurba_marseille","lat":43.294162,"lon":5.386292,"is_reserved":false,"is_disabled":false,"rental_uris":{"android":"levelo://app?vid=7cf0607b-5c06-4549-b9b2-e8693c830626","ios":"levelo://app?vid=7cf0607b-5c06-4549-b9b2-e8693c830626"},"vehicle_type_id":"4","last_reported":1706810908,"current_range_meters":0,"station_id":"ce4bh2h2rcd13ifvqdh0","pricing_plan_id":"free"},{"bike_id":"6a9973a5-6f93-44d8-8066-ab005989f338","system_id":"levelo_inurba_marseille","lat":43.294153,"lon":5.386305,"is_reserved":false,"is_disabled":false,"rental_uris":{"android":"levelo://app?vid=6a9973a5-6f93-44d8-8066-ab005989f338","ios":"levelo://app?vid=6a9973a5-6f93-44d8-8066-ab005989f338"},"vehicle_type_id":"4","last_reported":1706810908,"current_range_meters":23600,"station_id":"ce4bh2h2rcd13ifvqdh0","pricing_plan_id":"free"},{"bike_id":"74102881-543f-40d7-8c5c-d3fce1e6d66f","system_id":"levelo_inurba_marseille","lat":43.289184,"lon":5.366408,"is_reserved":false,"is_disabled":false,"rental_uris":{"android":"levelo://app?vid=74102881-543f-40d7-8c5c-d3fce1e6d66f","ios":"levelo://app?vid=74102881-543f-40d7-8c5c-d3fce1e6d66f"},"vehicle_type_id":"4","last_reported":1706810908,"current_range_meters":9600,"station_id":"ce4bhap2rcd13ifvqek0","pricing_plan_id":"free"},{"bike_id":"b9985fc5-0a1a-4634-8085-f87f2a01b289","system_id":"levelo_inurba_marseille","lat":43.28951,"lon":5.36399,"is_reserved":false,"is_disabled":false,"rental_uris":{"android":"levelo://app?vid=b9985fc5-0a1a-4634-8085-f87f2a01b289","ios":"levelo://app?vid=b9985fc5-0a1a-4634-8085-f87f2a01b289"},"vehicle_type_id":"4","last_reported":1706810908,"current_range_meters":0,"station_id":"ce4bhc92rcd13ifvqetg","pricing_plan_id":"free"},{"bike_id":"d0b61783-3ed3-4e27-905c-351ee1c04d7d","system_id":"levelo_inurba_marseille","lat":43.289184,"lon":5.366408,"is_reserved":false,"is_disabled":false,"rental_uris":{"android":"levelo://app?vid=d0b61783-3ed3-4e27-905c-351ee1c04d7d","ios":"levelo://app?vid=d0b61783-3ed3-4e27-905c-351ee1c04d7d"},"vehicle_type_id":"4","last_reported":1706810908,"current_range_meters":30000,"station_id":"ce4bhap2rcd13ifvqek0","pricing_plan_id":"free"},{"bike_id":"e56f65f2-4acc-4704-8fbd-da58398c68a3","system_id":"levelo_inurba_marseille","lat":43.289184,"lon":5.366408,"is_reserved":false,"is_disabled":false,"rental_uris":{"android":"levelo://app?vid=e56f65f2-4acc-4704-8fbd-da58398c68a3","ios":"levelo://app?vid=e56f65f2-4acc-4704-8fbd-da58398c68a3"},"vehicle_type_id":"4","last_reported":1706810908,"current_range_meters":0,"station_id":"ce4bhap2rcd13ifvqek0","pricing_plan_id":"free"},{"bike_id":"6e655cfd-fb09-4d8d-a46e-fc6e8cf967e9","system_id":"levelo_inurba_marseille","lat":43.289468,"lon":5.363719,"is_reserved":false,"is_disabled":false,"rental_uris":{"android":"levelo://app?vid=6e655cfd-fb09-4d8d-a46e-fc6e8cf967e9","ios":"levelo://app?vid=6e655cfd-fb09-4d8d-a46e-fc6e8cf967e9"},"vehicle_type_id":"4","last_reported":1706810908,"current_range_meters":14000,"station_id":"ce4bhc92rcd13ifvqetg","pricing_plan_id":"free"},{"bike_id":"2bfde91a-d68f-4ae7-99ce-7e2414dfbf22","system_id":"levelo_inurba_marseille","lat":43.289184,"lon":5.366408,"is_reserved":false,"is_disabled":false,"rental_uris":{"android":"levelo://app?vid=2bfde91a-d68f-4ae7-99ce-7e2414dfbf22","ios":"levelo://app?vid=2bfde91a-d68f-4ae7-99ce-7e2414dfbf22"},"vehicle_type_id":"4","last_reported":1706810908,"current_range_meters":12800,"station_id":"ce4bhap2rcd13ifvqek0","pricing_plan_id":"free"},{"bike_id":"2a189486-898c-4e39-ab9a-b4113f99a8e3","system_id":"levelo_inurba_marseille","lat":43.294162,"lon":5.386292,"is_reserved":false,"is_disabled":false,"rental_uris":{"android":"levelo://app?vid=2a189486-898c-4e39-ab9a-b4113f99a8e3","ios":"levelo://app?vid=2a189486-898c-4e39-ab9a-b4113f99a8e3"},"vehicle_type_id":"4","last_reported":1706810908,"current_range_meters":24000,"station_id":"ce4bh2h2rcd13ifvqdh0","pricing_plan_id":"free"},{"bike_id":"39a5b2fc-1160-473c-a9ce-f66035edb8b9","system_id":"levelo_inurba_marseille","lat":43.289184,"lon":5.366408,"is_reserved":false,"is_disabled":false,"rental_uris":{"android":"levelo://app?vid=39a5b2fc-1160-473c-a9ce-f66035edb8b9","ios":"levelo://app?vid=39a5b2fc-1160-473c-a9ce-f66035edb8b9"},"vehicle_type_id":"4","last_reported":1706810908,"current_range_meters":28000,"station_id":"ce4bhap2rcd13ifvqek0","pricing_plan_id":"free"},{"bike_id":"a90d8c3b-b633-458c-b602-78acabbbee05","system_id":"levelo_inurba_marseille","lat":43.28931,"lon":5.36646,"is_reserved":false,"is_disabled":false,"rental_uris":{"android":"levelo://app?vid=a90d8c3b-b633-458c-b602-78acabbbee05","ios":"levelo://app?vid=a90d8c3b-b633-458c-b602-78acabbbee05"},"vehicle_type_id":"4","last_reported":1706810908,"current_range_meters":30800,"station_id":"ce4bhap2rcd13ifvqek0","pricing_plan_id":"free"},{"bike_id":"2f12ef4e-92f0-45c3-8d3f-38161ca29894","system_id":"levelo_inurba_marseille","lat":43.289377,"lon":5.36397,"is_reserved":false,"is_disabled":false,"rental_uris":{"android":"levelo://app?vid=2f12ef4e-92f0-45c3-8d3f-38161ca29894","ios":"levelo://app?vid=2f12ef4e-92f0-45c3-8d3f-38161ca29894"},"vehicle_type_id":"4","last_reported":1706810908,"current_range_meters":9600,"station_id":"ce4bhc92rcd13ifvqetg","pricing_plan_id":"free"},{"bike_id":"53502b3f-a20b-4409-8ba7-8c4ac4af46f4","system_id":"levelo_inurba_marseille","lat":43.289468,"lon":5.363719,"is_reserved":false,"is_disabled":false,"rental_uris":{"android":"levelo://app?vid=53502b3f-a20b-4409-8ba7-8c4ac4af46f4","ios":"levelo://app?vid=53502b3f-a20b-4409-8ba7-8c4ac4af46f4"},"vehicle_type_id":"4","last_reported":1706810908,"current_range_meters":10800,"station_id":"ce4bhc92rcd13ifvqetg","pricing_plan_id":"free"},{"bike_id":"d95da40a-6867-4f31-80b7-002c129f7628","system_id":"levelo_inurba_marseille","lat":43.292642,"lon":5.384254,"is_reserved":false,"is_disabled":false,"rental_uris":{"android":"levelo://app?vid=d95da40a-6867-4f31-80b7-002c129f7628","ios":"levelo://app?vid=d95da40a-6867-4f31-80b7-002c129f7628"},"vehicle_type_id":"4","last_reported":1706810908,"current_range_meters":6800,"station_id":"ce4bh692rcd13ifvqea0","pricing_plan_id":"free"},{"bike_id":"15d2fcd9-1172-4705-94e7-2f9e1856bb29","system_id":"levelo_inurba_marseille","lat":43.29274,"lon":5.38432,"is_reserved":false,"is_disabled":false,"rental_uris":{"android":"levelo://app?vid=15d2fcd9-1172-4705-94e7-2f9e1856bb29","ios":"levelo://app?vid=15d2fcd9-1172-4705-94e7-2f9e1856bb29"},"vehicle_type_id":"4","last_reported":1706810908,"current_range_meters":18000,"station_id":"ce4bh692rcd13ifvqea0","pricing_plan_id":"free"},{"bike_id":"3032a188-f6ff-4fce-ad6d-a802ba79c868","system_id":"levelo_inurba_marseille","lat":43.29269,"lon":5.38428,"is_reserved":false,"is_disabled":false,"rental_uris":{"android":"levelo://app?vid=3032a188-f6ff-4fce-ad6d-a802ba79c868","ios":"levelo://app?vid=3032a188-f6ff-4fce-ad6d-a802ba79c868"},"vehicle_type_id":"4","last_reported":1706810908,"current_range_meters":18000,"station_id":"ce4bh692rcd13ifvqea0","pricing_plan_id":"free"},{"bike_id":"38303279-c1d4-436b-a95d-9213f8508542","system_id":"levelo_inurba_marseille","lat":43.292642,"lon":5.384254,"is_reserved":false,"is_disabled":false,"rental_uris":{"android":"levelo://app?vid=38303279-c1d4-436b-a95d-9213f8508542","ios":"levelo://app?vid=38303279-c1d4-436b-a95d-9213f8508542"},"vehicle_type_id":"4","last_reported":1706810908,"current_range_meters":5600,"station_id":"ce4bh692rcd13ifvqea0","pricing_plan_id":"free"},{"bike_id":"acf2efea-cbfd-4d3d-b97c-86c1cc4198b3","system_id":"levelo_inurba_marseille","lat":43.292642,"lon":5.384254,"is_reserved":false,"is_disabled":false,"rental_uris":{"android":"levelo://app?vid=acf2efea-cbfd-4d3d-b97c-86c1cc4198b3","ios":"levelo://app?vid=acf2efea-cbfd-4d3d-b97c-86c1cc4198b3"},"vehicle_type_id":"4","last_reported":1706810908,"current_range_meters":1600,"station_id":"ce4bh692rcd13ifvqea0","pricing_plan_id":"free"},{"bike_id":"89c81621-d04d-4c2c-b2ac-5a375d74e7b8","system_id":"levelo_inurba_marseille","lat":43.292638,"lon":5.384273,"is_reserved":false,"is_disabled":false,"rental_uris":{"android":"levelo://app?vid=89c81621-d04d-4c2c-b2ac-5a375d74e7b8","ios":"levelo://app?vid=89c81621-d04d-4c2c-b2ac-5a375d74e7b8"},"vehicle_type_id":"4","last_reported":1706810908,"current_range_meters":22400,"station_id":"ce4bh692rcd13ifvqea0","pricing_plan_id":"free"},{"bike_id":"3d119ca2-c224-4cec-af07-db7b1790ea41","system_id":"levelo_inurba_marseille","lat":43.29265,"lon":5.38432,"is_reserved":false,"is_disabled":false,"rental_uris":{"android":"levelo://app?vid=3d119ca2-c224-4cec-af07-db7b1790ea41","ios":"levelo://app?vid=3d119ca2-c224-4cec-af07-db7b1790ea41"},"vehicle_type_id":"4","last_reported":1706810908,"current_range_meters":800,"station_id":"ce4bh692rcd13ifvqea0","pricing_plan_id":"free"},{"bike_id":"9210ad48-b6fe-4aba-bacf-ef4bf8a0dde4","system_id":"levelo_inurba_marseille","lat":43.292642,"lon":5.384254,"is_reserved":false,"is_disabled":false,"rental_uris":{"android":"levelo://app?vid=9210ad48-b6fe-4aba-bacf-ef4bf8a0dde4","ios":"levelo://app?vid=9210ad48-b6fe-4aba-bacf-ef4bf8a0dde4"},"vehicle_type_id":"4","last_reported":1706810908,"current_range_meters":16400,"station_id":"ce4bh692rcd13ifvqea0","pricing_plan_id":"free"},{"bike_id":"54385d5f-5a9e-4f88-834b-b39a27f24ce7","system_id":"levelo_inurba_marseille","lat":43.29267,"lon":5.38445,"is_reserved":false,"is_disabled":false,"rental_uris":{"android":"levelo://app?vid=54385d5f-5a9e-4f88-834b-b39a27f24ce7","ios":"levelo://app?vid=54385d5f-5a9e-4f88-834b-b39a27f24ce7"},"vehicle_type_id":"4","last_reported":1706810908,"current_range_meters":17600,"station_id":"ce4bh692rcd13ifvqea0","pricing_plan_id":"free"},{"bike_id":"3b7c2289-22af-47b7-b34d-c568f42ad1c5","system_id":"levelo_inurba_marseille","lat":43.29266,"lon":5.38456,"is_reserved":false,"is_disabled":false,"rental_uris":{"android":"levelo://app?vid=3b7c2289-22af-47b7-b34d-c568f42ad1c5","ios":"levelo://app?vid=3b7c2289-22af-47b7-b34d-c568f42ad1c5"},"vehicle_type_id":"4","last_reported":1706810908,"current_range_meters":23600,"station_id":"ce4bh692rcd13ifvqea0","pricing_plan_id":"free"},{"bike_id":"bf63e0d8-4ca9-4fae-94ae-0dbd6b5e65c6","system_id":"levelo_inurba_marseille","lat":43.292642,"lon":5.384254,"is_reserved":false,"is_disabled":false,"rental_uris":{"android":"levelo://app?vid=bf63e0d8-4ca9-4fae-94ae-0dbd6b5e65c6","ios":"levelo://app?vid=bf63e0d8-4ca9-4fae-94ae-0dbd6b5e65c6"},"vehicle_type_id":"4","last_reported":1706810908,"current_range_meters":1600,"station_id":"ce4bh692rcd13ifvqea0","pricing_plan_id":"free"},{"bike_id":"b3aa138d-e894-4b29-a745-be34e64185d5","system_id":"levelo_inurba_marseille","lat":43.292591,"lon":5.384589,"is_reserved":false,"is_disabled":false,"rental_uris":{"android":"levelo://app?vid=b3aa138d-e894-4b29-a745-be34e64185d5","ios":"levelo://app?vid=b3aa138d-e894-4b29-a745-be34e64185d5"},"vehicle_type_id":"4","last_reported":1706810908,"current_range_meters":19600,"station_id":"ce4bh692rcd13ifvqea0","pricing_plan_id":"free"},{"bike_id":"137703b0-3941-4ce0-93b8-8a06a81ed573","system_id":"levelo_inurba_marseille","lat":43.29008,"lon":5.356055,"is_reserved":false,"is_disabled":false,"rental_uris":{"android":"levelo://app?vid=137703b0-3941-4ce0-93b8-8a06a81ed573","ios":"levelo://app?vid=137703b0-3941-4ce0-93b8-8a06a81ed573"},"vehicle_type_id":"4","last_reported":1706810908,"current_range_meters":2800,"station_id":"ce4bhb92rcd13ifvqen0","pricing_plan_id":"free"},{"bike_id":"b336cafc-f3f4-4d05-9435-f081523f9abe","system_id":"levelo_inurba_marseille","lat":43.29006,"lon":5.35613,"is_reserved":false,"is_disabled":false,"rental_uris":{"android":"levelo://app?vid=b336cafc-f3f4-4d05-9435-f081523f9abe","ios":"levelo://app?vid=b336cafc-f3f4-4d05-9435-f081523f9abe"},"vehicle_type_id":"4","last_reported":1706810908,"current_range_meters":14400,"station_id":"ce4bhb92rcd13ifvqen0","pricing_plan_id":"free"},{"bike_id":"dc996dda-c04e-444b-8d51-db24eafb8b64","system_id":"levelo_inurba_marseille","lat":43.29007,"lon":5.35606,"is_reserved":false,"is_disabled":false,"rental_uris":{"android":"levelo://app?vid=dc996dda-c04e-444b-8d51-db24eafb8b64","ios":"levelo://app?vid=dc996dda-c04e-444b-8d51-db24eafb8b64"},"vehicle_type_id":"4","last_reported":1706810908,"current_range_meters":4800,"station_id":"ce4bhb92rcd13ifvqen0","pricing_plan_id":"free"},{"bike_id":"d6945950-455d-43fa-8e92-28059b11b975","system_id":"levelo_inurba_marseille","lat":43.29002,"lon":5.3561,"is_reserved":false,"is_disabled":false,"rental_uris":{"android":"levelo://app?vid=d6945950-455d-43fa-8e92-28059b11b975","ios":"levelo://app?vid=d6945950-455d-43fa-8e92-28059b11b975"},"vehicle_type_id":"4","last_reported":1706810908,"current_range_meters":8000,"station_id":"ce4bhb92rcd13ifvqen0","pricing_plan_id":"free"},{"bike_id":"68e5f764-f1cb-471a-ab23-0e465460f530","system_id":"levelo_inurba_marseille","lat":43.290995,"lon":5.381361,"is_reserved":false,"is_disabled":false,"rental_uris":{"android":"levelo://app?vid=68e5f764-f1cb-471a-ab23-0e465460f530","ios":"levelo://app?vid=68e5f764-f1cb-471a-ab23-0e465460f530"},"vehicle_type_id":"4","last_reported":1706810908,"current_range_meters":10000,"station_id":"ce4bh512rcd13ifvqe2g","pricing_plan_id":"free"},{"bike_id":"d018a00c-cee8-4bc6-815f-5141861b70af","system_id":"levelo_inurba_marseille","lat":43.29099,"lon":5.38122,"is_reserved":false,"is_disabled":false,"rental_uris":{"android":"levelo://app?vid=d018a00c-cee8-4bc6-815f-5141861b70af","ios":"levelo://app?vid=d018a00c-cee8-4bc6-815f-5141861b70af"},"vehicle_type_id":"4","last_reported":1706810908,"current_range_meters":14400,"station_id":"ce4bh512rcd13ifvqe2g","pricing_plan_id":"free"},{"bike_id":"7bdc1b5b-7f25-4cb2-9a89-815c7085ae35","system_id":"levelo_inurba_marseille","lat":43.29091,"lon":5.38109,"is_reserved":false,"is_disabled":false,"rental_uris":{"android":"levelo://app?vid=7bdc1b5b-7f25-4cb2-9a89-815c7085ae35","ios":"levelo://app?vid=7bdc1b5b-7f25-4cb2-9a89-815c7085ae35"},"vehicle_type_id":"4","last_reported":1706810908,"current_range_meters":9200,"station_id":"ce4bh512rcd13ifvqe2g","pricing_plan_id":"free"},{"bike_id":"6d059476-c9a6-434f-9960-f8e06d90d0dd","system_id":"levelo_inurba_marseille","lat":43.295169,"lon":5.390426,"is_reserved":false,"is_disabled":false,"rental_uris":{"android":"levelo://app?vid=6d059476-c9a6-434f-9960-f8e06d90d0dd","ios":"levelo://app?vid=6d059476-c9a6-434f-9960-f8e06d90d0dd"},"vehicle_type_id":"4","last_reported":1706810908,"current_range_meters":10800,"station_id":"ce4bh3p2rcd13ifvqdp0","pricing_plan_id":"free"},{"bike_id":"b5ba8692-ca62-40cd-8ed3-2e5245da3d50","system_id":"levelo_inurba_marseille","lat":43.2909,"lon":5.38154,"is_reserved":false,"is_disabled":false,"rental_uris":{"android":"levelo://app?vid=b5ba8692-ca62-40cd-8ed3-2e5245da3d50","ios":"levelo://app?vid=b5ba8692-ca62-40cd-8ed3-2e5245da3d50"},"vehicle_type_id":"4","last_reported":1706810908,"current_range_meters":28800,"station_id":"ce4bh512rcd13ifvqe2g","pricing_plan_id":"free"},{"bike_id":"2aeaaa19-8620-44ba-ba78-305a24cfd99c","system_id":"levelo_inurba_marseille","lat":43.2978,"lon":5.39333,"is_reserved":false,"is_disabled":false,"rental_uris":{"android":"levelo://app?vid=2aeaaa19-8620-44ba-ba78-305a24cfd99c","ios":"levelo://app?vid=2aeaaa19-8620-44ba-ba78-305a24cfd99c"},"vehicle_type_id":"4","last_reported":1706810908,"current_range_meters":16800,"station_id":"chh1huq6cuj3fo74tm60","pricing_plan_id":"free"},{"bike_id":"4f3e8428-a987-4219-8d81-7eaf62aa4307","system_id":"levelo_inurba_marseille","lat":43.289743,"lon":5.378304,"is_reserved":false,"is_disabled":false,"rental_uris":{"android":"levelo://app?vid=4f3e8428-a987-4219-8d81-7eaf62aa4307","ios":"levelo://app?vid=4f3e8428-a987-4219-8d81-7eaf62aa4307"},"vehicle_type_id":"4","last_reported":1706810908,"current_range_meters":0,"station_id":"ce4bh9p2rcd13ifvqed0","pricing_plan_id":"free"},{"bike_id":"ba6322e7-961f-4107-8209-b143750f8c97","system_id":"levelo_inurba_marseille","lat":43.295169,"lon":5.390426,"is_reserved":false,"is_disabled":false,"rental_uris":{"android":"levelo://app?vid=ba6322e7-961f-4107-8209-b143750f8c97","ios":"levelo://app?vid=ba6322e7-961f-4107-8209-b143750f8c97"},"vehicle_type_id":"4","last_reported":1706810908,"current_range_meters":0,"station_id":"ce4bh3p2rcd13ifvqdp0","pricing_plan_id":"free"},{"bike_id":"b593b2ae-0bd6-4fec-afc1-c19bfbfcb432","system_id":"levelo_inurba_marseille","lat":43.295169,"lon":5.390426,"is_reserved":false,"is_disabled":false,"rental_uris":{"android":"levelo://app?vid=b593b2ae-0bd6-4fec-afc1-c19bfbfcb432","ios":"levelo://app?vid=b593b2ae-0bd6-4fec-afc1-c19bfbfcb432"},"vehicle_type_id":"4","last_reported":1706810908,"current_range_meters":5600,"station_id":"ce4bh3p2rcd13ifvqdp0","pricing_plan_id":"free"},{"bike_id":"1b26e9c4-7fc6-49aa-9499-cf686af3f3aa","system_id":"levelo_inurba_marseille","lat":43.330442,"lon":5.389148,"is_reserved":false,"is_disabled":false,"rental_uris":{"android":"levelo://app?vid=1b26e9c4-7fc6-49aa-9499-cf686af3f3aa","ios":"levelo://app?vid=1b26e9c4-7fc6-49aa-9499-cf686af3f3aa"},"vehicle_type_id":"4","last_reported":1706810908,"current_range_meters":14000,"station_id":"ce4bhr92rcd13ifvqhrg","pricing_plan_id":"free"},{"bike_id":"a4de9524-30b1-4135-8e0d-00a51d816ea1","system_id":"levelo_inurba_marseille","lat":43.295169,"lon":5.390426,"is_reserved":false,"is_disabled":false,"rental_uris":{"android":"levelo://app?vid=a4de9524-30b1-4135-8e0d-00a51d816ea1","ios":"levelo://app?vid=a4de9524-30b1-4135-8e0d-00a51d816ea1"},"vehicle_type_id":"4","last_reported":1706810908,"current_range_meters":4000,"station_id":"ce4bh3p2rcd13ifvqdp0","pricing_plan_id":"free"},{"bike_id":"5ef6c031-a2da-411e-ac46-bc5c9a72bb40","system_id":"levelo_inurba_marseille","lat":43.295263,"lon":5.390453,"is_reserved":false,"is_disabled":false,"rental_uris":{"android":"levelo://app?vid=5ef6c031-a2da-411e-ac46-bc5c9a72bb40","ios":"levelo://app?vid=5ef6c031-a2da-411e-ac46-bc5c9a72bb40"},"vehicle_type_id":"4","last_reported":1706810908,"current_range_meters":0,"station_id":"ce4bh3p2rcd13ifvqdp0","pricing_plan_id":"free"},{"bike_id":"c353d1d1-1fbd-4b58-9c9a-ff1333e00c9d","system_id":"levelo_inurba_marseille","lat":43.289741,"lon":5.378306,"is_reserved":false,"is_disabled":false,"rental_uris":{"android":"levelo://app?vid=c353d1d1-1fbd-4b58-9c9a-ff1333e00c9d","ios":"levelo://app?vid=c353d1d1-1fbd-4b58-9c9a-ff1333e00c9d"},"vehicle_type_id":"4","last_reported":1706810908,"current_range_meters":8800,"station_id":"ce4bh9p2rcd13ifvqed0","pricing_plan_id":"free"},{"bike_id":"8952b9ff-c36d-4ae3-b5fe-b08a13a8dedd","system_id":"levelo_inurba_marseille","lat":43.330442,"lon":5.389148,"is_reserved":false,"is_disabled":false,"rental_uris":{"android":"levelo://app?vid=8952b9ff-c36d-4ae3-b5fe-b08a13a8dedd","ios":"levelo://app?vid=8952b9ff-c36d-4ae3-b5fe-b08a13a8dedd"},"vehicle_type_id":"4","last_reported":1706810908,"current_range_meters":22800,"station_id":"ce4bhr92rcd13ifvqhrg","pricing_plan_id":"free"},{"bike_id":"d40578c5-dd93-4f42-8fea-a6e0f67fb611","system_id":"levelo_inurba_marseille","lat":43.29526,"lon":5.39047,"is_reserved":false,"is_disabled":false,"rental_uris":{"android":"levelo://app?vid=d40578c5-dd93-4f42-8fea-a6e0f67fb611","ios":"levelo://app?vid=d40578c5-dd93-4f42-8fea-a6e0f67fb611"},"vehicle_type_id":"4","last_reported":1706810908,"current_range_meters":19600,"station_id":"ce4bh3p2rcd13ifvqdp0","pricing_plan_id":"free"},{"bike_id":"00f370bf-7c1c-476d-b36e-b20b4d38c1f2","system_id":"levelo_inurba_marseille","lat":43.295169,"lon":5.390426,"is_reserved":false,"is_disabled":false,"rental_uris":{"android":"levelo://app?vid=00f370bf-7c1c-476d-b36e-b20b4d38c1f2","ios":"levelo://app?vid=00f370bf-7c1c-476d-b36e-b20b4d38c1f2"},"vehicle_type_id":"4","last_reported":1706810908,"current_range_meters":26000,"station_id":"ce4bh3p2rcd13ifvqdp0","pricing_plan_id":"free"},{"bike_id":"88e420e3-8df4-4337-af50-32b32c19119e","system_id":"levelo_inurba_marseille","lat":43.295169,"lon":5.390426,"is_reserved":false,"is_disabled":false,"rental_uris":{"android":"levelo://app?vid=88e420e3-8df4-4337-af50-32b32c19119e","ios":"levelo://app?vid=88e420e3-8df4-4337-af50-32b32c19119e"},"vehicle_type_id":"4","last_reported":1706810908,"current_range_meters":14000,"station_id":"ce4bh3p2rcd13ifvqdp0","pricing_plan_id":"free"},{"bike_id":"590b888d-05fd-46ca-80a7-31701bf0cb8b","system_id":"levelo_inurba_marseille","lat":43.28856,"lon":5.358371,"is_reserved":false,"is_disabled":false,"rental_uris":{"android":"levelo://app?vid=590b888d-05fd-46ca-80a7-31701bf0cb8b","ios":"levelo://app?vid=590b888d-05fd-46ca-80a7-31701bf0cb8b"},"vehicle_type_id":"4","last_reported":1706810908,"current_range_meters":6400,"station_id":"ce4bhb12rcd13ifvqem0","pricing_plan_id":"free"},{"bike_id":"4dea2505-7482-4166-a6c1-d47027e35e33","system_id":"levelo_inurba_marseille","lat":43.28856,"lon":5.358371,"is_reserved":false,"is_disabled":false,"rental_uris":{"android":"levelo://app?vid=4dea2505-7482-4166-a6c1-d47027e35e33","ios":"levelo://app?vid=4dea2505-7482-4166-a6c1-d47027e35e33"},"vehicle_type_id":"4","last_reported":1706810908,"current_range_meters":8400,"station_id":"ce4bhb12rcd13ifvqem0","pricing_plan_id":"free"},{"bike_id":"722fda1d-1e67-4f7a-9f23-691f54699f10","system_id":"levelo_inurba_marseille","lat":43.28856,"lon":5.358371,"is_reserved":false,"is_disabled":false,"rental_uris":{"android":"levelo://app?vid=722fda1d-1e67-4f7a-9f23-691f54699f10","ios":"levelo://app?vid=722fda1d-1e67-4f7a-9f23-691f54699f10"},"vehicle_type_id":"4","last_reported":1706810908,"current_range_meters":19600,"station_id":"ce4bhb12rcd13ifvqem0","pricing_plan_id":"free"},{"bike_id":"5e529af9-c9b1-40aa-91f3-25d6c3ef02dc","system_id":"levelo_inurba_marseille","lat":43.28856,"lon":5.358371,"is_reserved":false,"is_disabled":false,"rental_uris":{"android":"levelo://app?vid=5e529af9-c9b1-40aa-91f3-25d6c3ef02dc","ios":"levelo://app?vid=5e529af9-c9b1-40aa-91f3-25d6c3ef02dc"},"vehicle_type_id":"4","last_reported":1706810908,"current_range_meters":0,"station_id":"ce4bhb12rcd13ifvqem0","pricing_plan_id":"free"},{"bike_id":"7a1b413f-69ad-42d8-b859-a87b3362e77e","system_id":"levelo_inurba_marseille","lat":43.28856,"lon":5.358371,"is_reserved":false,"is_disabled":false,"rental_uris":{"android":"levelo://app?vid=7a1b413f-69ad-42d8-b859-a87b3362e77e","ios":"levelo://app?vid=7a1b413f-69ad-42d8-b859-a87b3362e77e"},"vehicle_type_id":"4","last_reported":1706810908,"current_range_meters":23600,"station_id":"ce4bhb12rcd13ifvqem0","pricing_plan_id":"free"},{"bike_id":"e6dbaccb-ea91-4cd2-83ac-07d43e432453","system_id":"levelo_inurba_marseille","lat":43.312609,"lon":5.401662,"is_reserved":false,"is_disabled":false,"rental_uris":{"android":"levelo://app?vid=e6dbaccb-ea91-4cd2-83ac-07d43e432453","ios":"levelo://app?vid=e6dbaccb-ea91-4cd2-83ac-07d43e432453"},"vehicle_type_id":"4","last_reported":1706810908,"current_range_meters":23200,"station_id":"ce4bh092rcd13ifvqd30","pricing_plan_id":"free"},{"bike_id":"64d71460-55a6-43c6-86d7-6c24b0f1c598","system_id":"levelo_inurba_marseille","lat":43.312609,"lon":5.401662,"is_reserved":false,"is_disabled":false,"rental_uris":{"android":"levelo://app?vid=64d71460-55a6-43c6-86d7-6c24b0f1c598","ios":"levelo://app?vid=64d71460-55a6-43c6-86d7-6c24b0f1c598"},"vehicle_type_id":"4","last_reported":1706810908,"current_range_meters":28000,"station_id":"ce4bh092rcd13ifvqd30","pricing_plan_id":"free"},{"bike_id":"072282b4-24ce-4e42-a137-30f36649c339","system_id":"levelo_inurba_marseille","lat":43.301117,"lon":5.398795,"is_reserved":false,"is_disabled":false,"rental_uris":{"android":"levelo://app?vid=072282b4-24ce-4e42-a137-30f36649c339","ios":"levelo://app?vid=072282b4-24ce-4e42-a137-30f36649c339"},"vehicle_type_id":"4","last_reported":1706810908,"current_range_meters":21600,"station_id":"ce4bh0h2rcd13ifvqd40","pricing_plan_id":"free"},{"bike_id":"a92fecb2-cce1-45fa-a6c6-174b16ca62fa","system_id":"levelo_inurba_marseille","lat":43.337834,"lon":5.374506,"is_reserved":false,"is_disabled":false,"rental_uris":{"android":"levelo://app?vid=a92fecb2-cce1-45fa-a6c6-174b16ca62fa","ios":"levelo://app?vid=a92fecb2-cce1-45fa-a6c6-174b16ca62fa"},"vehicle_type_id":"4","last_reported":1706810908,"current_range_meters":29200,"station_id":"","pricing_plan_id":"free"},{"bike_id":"76fc80db-089e-472a-b9be-f6d402cfc264","system_id":"levelo_inurba_marseille","lat":43.301117,"lon":5.398795,"is_reserved":false,"is_disabled":false,"rental_uris":{"android":"levelo://app?vid=76fc80db-089e-472a-b9be-f6d402cfc264","ios":"levelo://app?vid=76fc80db-089e-472a-b9be-f6d402cfc264"},"vehicle_type_id":"4","last_reported":1706810908,"current_range_meters":2400,"station_id":"ce4bh0h2rcd13ifvqd40","pricing_plan_id":"free"},{"bike_id":"b664ef4d-4d0e-40d0-92a0-ecf760b3dc95","system_id":"levelo_inurba_marseille","lat":43.30456,"lon":5.40059,"is_reserved":false,"is_disabled":false,"rental_uris":{"android":"levelo://app?vid=b664ef4d-4d0e-40d0-92a0-ecf760b3dc95","ios":"levelo://app?vid=b664ef4d-4d0e-40d0-92a0-ecf760b3dc95"},"vehicle_type_id":"4","last_reported":1706810908,"current_range_meters":22400,"station_id":"","pricing_plan_id":"free"},{"bike_id":"63175c26-c156-466f-be5b-794cec8c153f","system_id":"levelo_inurba_marseille","lat":43.28727,"lon":5.36078,"is_reserved":false,"is_disabled":false,"rental_uris":{"android":"levelo://app?vid=63175c26-c156-466f-be5b-794cec8c153f","ios":"levelo://app?vid=63175c26-c156-466f-be5b-794cec8c153f"},"vehicle_type_id":"4","last_reported":1706810908,"current_range_meters":22800,"station_id":"cki0cbj6b192h4jlfktg","pricing_plan_id":"free"},{"bike_id":"ecf1b32c-a0f0-4809-9666-6adfbb3832cf","system_id":"levelo_inurba_marseille","lat":43.28727,"lon":5.36078,"is_reserved":false,"is_disabled":false,"rental_uris":{"android":"levelo://app?vid=ecf1b32c-a0f0-4809-9666-6adfbb3832cf","ios":"levelo://app?vid=ecf1b32c-a0f0-4809-9666-6adfbb3832cf"},"vehicle_type_id":"4","last_reported":1706810908,"current_range_meters":3600,"station_id":"cki0cbj6b192h4jlfktg","pricing_plan_id":"free"},{"bike_id":"61f14dcf-ce51-4487-862a-65788a92487a","system_id":"levelo_inurba_marseille","lat":43.28727,"lon":5.36078,"is_reserved":false,"is_disabled":false,"rental_uris":{"android":"levelo://app?vid=61f14dcf-ce51-4487-862a-65788a92487a","ios":"levelo://app?vid=61f14dcf-ce51-4487-862a-65788a92487a"},"vehicle_type_id":"4","last_reported":1706810908,"current_range_meters":2000,"station_id":"cki0cbj6b192h4jlfktg","pricing_plan_id":"free"},{"bike_id":"7b117be2-bb1d-44a7-8f5f-49b02c23723a","system_id":"levelo_inurba_marseille","lat":43.298681,"lon":5.397225,"is_reserved":false,"is_disabled":false,"rental_uris":{"android":"levelo://app?vid=7b117be2-bb1d-44a7-8f5f-49b02c23723a","ios":"levelo://app?vid=7b117be2-bb1d-44a7-8f5f-49b02c23723a"},"vehicle_type_id":"4","last_reported":1706810908,"current_range_meters":15600,"station_id":"ce4bh0h2rcd13ifvqd50","pricing_plan_id":"free"},{"bike_id":"7643e1be-20fa-4a0d-842d-6324b7c8ba1d","system_id":"levelo_inurba_marseille","lat":43.298681,"lon":5.397225,"is_reserved":false,"is_disabled":false,"rental_uris":{"android":"levelo://app?vid=7643e1be-20fa-4a0d-842d-6324b7c8ba1d","ios":"levelo://app?vid=7643e1be-20fa-4a0d-842d-6324b7c8ba1d"},"vehicle_type_id":"4","last_reported":1706810908,"current_range_meters":8400,"station_id":"ce4bh0h2rcd13ifvqd50","pricing_plan_id":"free"},{"bike_id":"1426b0cf-85a9-4c73-b579-585706541790","system_id":"levelo_inurba_marseille","lat":43.286961,"lon":5.373785,"is_reserved":false,"is_disabled":false,"rental_uris":{"android":"levelo://app?vid=1426b0cf-85a9-4c73-b579-585706541790","ios":"levelo://app?vid=1426b0cf-85a9-4c73-b579-585706541790"},"vehicle_type_id":"4","last_reported":1706810908,"current_range_meters":25200,"station_id":"ce4bh3p2rcd13ifvqdq0","pricing_plan_id":"free"},{"bike_id":"605a94c1-b507-4d25-b930-807dea1f56ee","system_id":"levelo_inurba_marseille","lat":43.286593,"lon":5.363346,"is_reserved":false,"is_disabled":false,"rental_uris":{"android":"levelo://app?vid=605a94c1-b507-4d25-b930-807dea1f56ee","ios":"levelo://app?vid=605a94c1-b507-4d25-b930-807dea1f56ee"},