{"last_updated":1770993282,"ttl":60,"version":"2.2","data":{"bikes":[{"bike_id":"d96f1086-8d9b-4b38-8774-136993319875","system_id":"levelo_inurba_marseille","lat":43.24645,"lon":5.38894,"is_reserved":false,"is_disabled":false,"rental_uris":{"android":"levelo://app?vid=d96f1086-8d9b-4b38-8774-136993319875","ios":"levelo://app?vid=d96f1086-8d9b-4b38-8774-136993319875"},"vehicle_type_id":"4","last_reported":1770993283,"current_range_meters":24800,"station_id":"ce4bhg12rcd13ifvqf60","pricing_plan_id":"cebpf4jnsgd1na2vs0mg"},{"bike_id":"c5571452-c3a9-4836-8b2a-9d93f59b5759","system_id":"levelo_inurba_marseille","lat":43.28503,"lon":5.48366,"is_reserved":false,"is_disabled":false,"rental_uris":{"android":"levelo://app?vid=c5571452-c3a9-4836-8b2a-9d93f59b5759","ios":"levelo://app?vid=c5571452-c3a9-4836-8b2a-9d93f59b5759"},"vehicle_type_id":"4","last_reported":1770993283,"current_range_meters":10800,"station_id":"st_d3svhcjqgbts73a3dn0g","pricing_plan_id":"cebpf4jnsgd1na2vs0mg"},{"bike_id":"597ba019-6a14-4724-bfeb-cc559411f270","system_id":"levelo_inurba_marseille","lat":43.27624,"lon":5.36112,"is_reserved":false,"is_disabled":false,"rental_uris":{"android":"levelo://app?vid=597ba019-6a14-4724-bfeb-cc559411f270","ios":"levelo://app?vid=597ba019-6a14-4724-bfeb-cc559411f270"},"vehicle_type_id":"4","last_reported":1770993283,"current_range_meters":39200,"station_id":"ce4bgj92rcd13ifvqbe0","pricing_plan_id":"cebpf4jnsgd1na2vs0mg"},{"bike_id":"b4f08c34-c407-45ce-b147-6ff13d9e71b8","system_id":"levelo_inurba_marseille","lat":43.3377,"lon":5.37443,"is_reserved":false,"is_disabled":false,"rental_uris":{"android":"levelo://app?vid=b4f08c34-c407-45ce-b147-6ff13d9e71b8","ios":"levelo://app?vid=b4f08c34-c407-45ce-b147-6ff13d9e71b8"},"vehicle_type_id":"4","last_reported":1770993283,"current_range_meters":35600,"station_id":"","pricing_plan_id":"cebpf4jnsgd1na2vs0mg"},{"bike_id":"650c7cb6-6c9b-4720-931e-390b2379f0f1","system_id":"levelo_inurba_marseille","lat":43.31048,"lon":5.37168,"is_reserved":false,"is_disabled":false,"rental_uris":{"android":"levelo://app?vid=650c7cb6-6c9b-4720-931e-390b2379f0f1","ios":"levelo://app?vid=650c7cb6-6c9b-4720-931e-390b2379f0f1"},"vehicle_type_id":"4","last_reported":1770993283,"current_range_meters":33200,"station_id":"st_d4kl2rp97mjs73e7tdfg","pricing_plan_id":"cebpf4jnsgd1na2vs0mg"},{"bike_id":"12404eb6-f68c-4277-8ced-4b17d713de9c","system_id":"levelo_inurba_marseille","lat":43.312735,"lon":5.40173,"is_reserved":false,"is_disabled":false,"rental_uris":{"android":"levelo://app?vid=12404eb6-f68c-4277-8ced-4b17d713de9c","ios":"levelo://app?vid=12404eb6-f68c-4277-8ced-4b17d713de9c"},"vehicle_type_id":"4","last_reported":1770993283,"current_range_meters":16000,"station_id":"ce4bh092rcd13ifvqd30","pricing_plan_id":"cebpf4jnsgd1na2vs0mg"},{"bike_id":"fc148e1b-2eeb-4bb0-8155-e98e097f71ae","system_id":"levelo_inurba_marseille","lat":43.2836,"lon":5.38967,"is_reserved":false,"is_disabled":false,"rental_uris":{"android":"levelo://app?vid=fc148e1b-2eeb-4bb0-8155-e98e097f71ae","ios":"levelo://app?vid=fc148e1b-2eeb-4bb0-8155-e98e097f71ae"},"vehicle_type_id":"4","last_reported":1770993283,"current_range_meters":28400,"station_id":"","pricing_plan_id":"cebpf4jnsgd1na2vs0mg"},{"bike_id":"06b3b20d-691c-4f18-a717-00285bd5f59c","system_id":"levelo_inurba_marseille","lat":43.295054,"lon":5.375051,"is_reserved":false,"is_disabled":false,"rental_uris":{"android":"levelo://app?vid=06b3b20d-691c-4f18-a717-00285bd5f59c","ios":"levelo://app?vid=06b3b20d-691c-4f18-a717-00285bd5f59c"},"vehicle_type_id":"4","last_reported":1770993283,"current_range_meters":26000,"station_id":"ce4bgkp2rcd13ifvqbmg","pricing_plan_id":"cebpf4jnsgd1na2vs0mg"},{"bike_id":"b4ed104e-788d-4b33-aad1-d33937fae292","system_id":"levelo_inurba_marseille","lat":43.28942,"lon":5.39669,"is_reserved":false,"is_disabled":false,"rental_uris":{"android":"levelo://app?vid=b4ed104e-788d-4b33-aad1-d33937fae292","ios":"levelo://app?vid=b4ed104e-788d-4b33-aad1-d33937fae292"},"vehicle_type_id":"4","last_reported":1770993283,"current_range_meters":28000,"station_id":"ce4bh3h2rcd13ifvqdn0","pricing_plan_id":"cebpf4jnsgd1na2vs0mg"},{"bike_id":"5467b6f6-d603-419a-b815-9f885602b720","system_id":"levelo_inurba_marseille","lat":43.31361,"lon":5.39728,"is_reserved":false,"is_disabled":false,"rental_uris":{"android":"levelo://app?vid=5467b6f6-d603-419a-b815-9f885602b720","ios":"levelo://app?vid=5467b6f6-d603-419a-b815-9f885602b720"},"vehicle_type_id":"4","last_reported":1770993283,"current_range_meters":16800,"station_id":"ce4bgvp2rcd13ifvqcu0","pricing_plan_id":"cebpf4jnsgd1na2vs0mg"},{"bike_id":"b6e7429c-cc3c-4004-b8fc-f3875d0aace7","system_id":"levelo_inurba_marseille","lat":43.30154,"lon":5.38028,"is_reserved":false,"is_disabled":false,"rental_uris":{"android":"levelo://app?vid=b6e7429c-cc3c-4004-b8fc-f3875d0aace7","ios":"levelo://app?vid=b6e7429c-cc3c-4004-b8fc-f3875d0aace7"},"vehicle_type_id":"4","last_reported":1770993283,"current_range_meters":30000,"station_id":"ce4bgjp2rcd13ifvqbh0","pricing_plan_id":"cebpf4jnsgd1na2vs0mg"},{"bike_id":"c4642fce-6679-473d-841d-309d722b18fd","system_id":"levelo_inurba_marseille","lat":43.29588,"lon":5.3673,"is_reserved":false,"is_disabled":false,"rental_uris":{"android":"levelo://app?vid=c4642fce-6679-473d-841d-309d722b18fd","ios":"levelo://app?vid=c4642fce-6679-473d-841d-309d722b18fd"},"vehicle_type_id":"4","last_reported":1770993283,"current_range_meters":39200,"station_id":"ce4bgph2rcd13ifvqc2g","pricing_plan_id":"cebpf4jnsgd1na2vs0mg"},{"bike_id":"6c51ef74-81d1-4a03-8bd7-5c77926a9513","system_id":"levelo_inurba_marseille","lat":43.23153,"lon":5.4371,"is_reserved":false,"is_disabled":true,"rental_uris":{"android":"levelo://app?vid=6c51ef74-81d1-4a03-8bd7-5c77926a9513","ios":"levelo://app?vid=6c51ef74-81d1-4a03-8bd7-5c77926a9513"},"vehicle_type_id":"4","last_reported":1770993283,"current_range_meters":0,"station_id":"ce4bhmp2rcd13ifvqgog","pricing_plan_id":"cebpf4jnsgd1na2vs0mg"},{"bike_id":"32c1c744-3c43-4305-8099-ca860c73e1f8","system_id":"levelo_inurba_marseille","lat":43.26214,"lon":5.37441,"is_reserved":false,"is_disabled":false,"rental_uris":{"android":"levelo://app?vid=32c1c744-3c43-4305-8099-ca860c73e1f8","ios":"levelo://app?vid=32c1c744-3c43-4305-8099-ca860c73e1f8"},"vehicle_type_id":"4","last_reported":1770993283,"current_range_meters":10800,"station_id":"ce4bhgp2rcd13ifvqfc0","pricing_plan_id":"cebpf4jnsgd1na2vs0mg"},{"bike_id":"9d1f4dd7-2e35-4db0-a418-66c9b7e73e53","system_id":"levelo_inurba_marseille","lat":43.32321,"lon":5.3756,"is_reserved":false,"is_disabled":false,"rental_uris":{"android":"levelo://app?vid=9d1f4dd7-2e35-4db0-a418-66c9b7e73e53","ios":"levelo://app?vid=9d1f4dd7-2e35-4db0-a418-66c9b7e73e53"},"vehicle_type_id":"4","last_reported":1770993283,"current_range_meters":12800,"station_id":"","pricing_plan_id":"cebpf4jnsgd1na2vs0mg"},{"bike_id":"9f2d3eeb-2928-434b-9ddf-c1d308eeb3e5","system_id":"levelo_inurba_marseille","lat":43.30213,"lon":5.3945,"is_reserved":false,"is_disabled":false,"rental_uris":{"android":"levelo://app?vid=9f2d3eeb-2928-434b-9ddf-c1d308eeb3e5","ios":"levelo://app?vid=9f2d3eeb-2928-434b-9ddf-c1d308eeb3e5"},"vehicle_type_id":"4","last_reported":1770993283,"current_range_meters":36400,"station_id":"ce4bh0p2rcd13ifvqd70","pricing_plan_id":"cebpf4jnsgd1na2vs0mg"},{"bike_id":"f9b7ecb3-1b5d-4df7-8ede-b80d1f79d210","system_id":"levelo_inurba_marseille","lat":43.30418,"lon":5.4128,"is_reserved":false,"is_disabled":false,"rental_uris":{"android":"levelo://app?vid=f9b7ecb3-1b5d-4df7-8ede-b80d1f79d210","ios":"levelo://app?vid=f9b7ecb3-1b5d-4df7-8ede-b80d1f79d210"},"vehicle_type_id":"4","last_reported":1770993283,"current_range_meters":20400,"station_id":"ce4bhop2rcd13ifvqh8g","pricing_plan_id":"cebpf4jnsgd1na2vs0mg"},{"bike_id":"e4cfc493-5d27-433b-ad10-26b253a7159a","system_id":"levelo_inurba_marseille","lat":43.30176,"lon":5.36612,"is_reserved":false,"is_disabled":false,"rental_uris":{"android":"levelo://app?vid=e4cfc493-5d27-433b-ad10-26b253a7159a","ios":"levelo://app?vid=e4cfc493-5d27-433b-ad10-26b253a7159a"},"vehicle_type_id":"4","last_reported":1770993283,"current_range_meters":38800,"station_id":"ce4bgrh2rcd13ifvqc8g","pricing_plan_id":"cebpf4jnsgd1na2vs0mg"},{"bike_id":"407602a1-4682-4f83-b9ff-228eb068094f","system_id":"levelo_inurba_marseille","lat":43.26038,"lon":5.37533,"is_reserved":false,"is_disabled":false,"rental_uris":{"android":"levelo://app?vid=407602a1-4682-4f83-b9ff-228eb068094f","ios":"levelo://app?vid=407602a1-4682-4f83-b9ff-228eb068094f"},"vehicle_type_id":"4","last_reported":1770993283,"current_range_meters":38400,"station_id":"ce4bhgh2rcd13ifvqfa0","pricing_plan_id":"cebpf4jnsgd1na2vs0mg"},{"bike_id":"375dea6e-9d0d-4201-bab5-e343be855177","system_id":"levelo_inurba_marseille","lat":43.29552,"lon":5.42273,"is_reserved":false,"is_disabled":false,"rental_uris":{"android":"levelo://app?vid=375dea6e-9d0d-4201-bab5-e343be855177","ios":"levelo://app?vid=375dea6e-9d0d-4201-bab5-e343be855177"},"vehicle_type_id":"4","last_reported":1770993283,"current_range_meters":18000,"station_id":"ce4bhph2rcd13ifvqhdg","pricing_plan_id":"cebpf4jnsgd1na2vs0mg"},{"bike_id":"3e3231f6-7f34-4e79-a208-8e160f324ca7","system_id":"levelo_inurba_marseille","lat":43.31128,"lon":5.3776,"is_reserved":false,"is_disabled":false,"rental_uris":{"android":"levelo://app?vid=3e3231f6-7f34-4e79-a208-8e160f324ca7","ios":"levelo://app?vid=3e3231f6-7f34-4e79-a208-8e160f324ca7"},"vehicle_type_id":"4","last_reported":1770993283,"current_range_meters":16000,"station_id":"ce4bgt92rcd13ifvqcg0","pricing_plan_id":"cebpf4jnsgd1na2vs0mg"},{"bike_id":"9e9bde6e-784b-42b8-a576-035499c1e654","system_id":"levelo_inurba_marseille","lat":43.31043,"lon":5.37175,"is_reserved":false,"is_disabled":false,"rental_uris":{"android":"levelo://app?vid=9e9bde6e-784b-42b8-a576-035499c1e654","ios":"levelo://app?vid=9e9bde6e-784b-42b8-a576-035499c1e654"},"vehicle_type_id":"4","last_reported":1770993283,"current_range_meters":39200,"station_id":"st_d4kl2rp97mjs73e7tdfg","pricing_plan_id":"cebpf4jnsgd1na2vs0mg"},{"bike_id":"a4be4eed-32c8-419a-8fa0-bd3decf6c558","system_id":"levelo_inurba_marseille","lat":43.300058,"lon":5.380886,"is_reserved":false,"is_disabled":false,"rental_uris":{"android":"levelo://app?vid=a4be4eed-32c8-419a-8fa0-bd3decf6c558","ios":"levelo://app?vid=a4be4eed-32c8-419a-8fa0-bd3decf6c558"},"vehicle_type_id":"4","last_reported":1770993283,"current_range_meters":22000,"station_id":"ce4bgjp2rcd13ifvqbh0","pricing_plan_id":"cebpf4jnsgd1na2vs0mg"},{"bike_id":"beedd067-3a6d-4109-bc1c-b5d37af11e39","system_id":"levelo_inurba_marseille","lat":43.27839,"lon":5.39203,"is_reserved":false,"is_disabled":true,"rental_uris":{"android":"levelo://app?vid=beedd067-3a6d-4109-bc1c-b5d37af11e39","ios":"levelo://app?vid=beedd067-3a6d-4109-bc1c-b5d37af11e39"},"vehicle_type_id":"4","last_reported":1770993283,"current_range_meters":38400,"station_id":"ce4bhjp2rcd13ifvqga0","pricing_plan_id":"cebpf4jnsgd1na2vs0mg"},{"bike_id":"6f2dde5b-10f0-435c-800c-289cb15f2120","system_id":"levelo_inurba_marseille","lat":43.24952,"lon":5.405,"is_reserved":false,"is_disabled":false,"rental_uris":{"android":"levelo://app?vid=6f2dde5b-10f0-435c-800c-289cb15f2120","ios":"levelo://app?vid=6f2dde5b-10f0-435c-800c-289cb15f2120"},"vehicle_type_id":"4","last_reported":1770993283,"current_range_meters":12800,"station_id":"st_d2ngiaodas8pm72gd1h0","pricing_plan_id":"cebpf4jnsgd1na2vs0mg"},{"bike_id":"77fc1e4c-0211-4eae-8d8f-73ac92ac2b8c","system_id":"levelo_inurba_marseille","lat":43.30164,"lon":5.38086,"is_reserved":false,"is_disabled":false,"rental_uris":{"android":"levelo://app?vid=77fc1e4c-0211-4eae-8d8f-73ac92ac2b8c","ios":"levelo://app?vid=77fc1e4c-0211-4eae-8d8f-73ac92ac2b8c"},"vehicle_type_id":"4","last_reported":1770993283,"current_range_meters":12000,"station_id":"ce4bgjp2rcd13ifvqbh0","pricing_plan_id":"cebpf4jnsgd1na2vs0mg"},{"bike_id":"6d22b095-ac89-44fb-a85d-e5f85c2365e2","system_id":"levelo_inurba_marseille","lat":43.32109,"lon":5.36803,"is_reserved":false,"is_disabled":false,"rental_uris":{"android":"levelo://app?vid=6d22b095-ac89-44fb-a85d-e5f85c2365e2","ios":"levelo://app?vid=6d22b095-ac89-44fb-a85d-e5f85c2365e2"},"vehicle_type_id":"4","last_reported":1770993283,"current_range_meters":32400,"station_id":"ce4bhrh2rcd13ifvqhug","pricing_plan_id":"cebpf4jnsgd1na2vs0mg"},{"bike_id":"b8d13bde-84b8-4c9b-90c6-25b53386d827","system_id":"levelo_inurba_marseille","lat":43.27624,"lon":5.36093,"is_reserved":false,"is_disabled":false,"rental_uris":{"android":"levelo://app?vid=b8d13bde-84b8-4c9b-90c6-25b53386d827","ios":"levelo://app?vid=b8d13bde-84b8-4c9b-90c6-25b53386d827"},"vehicle_type_id":"4","last_reported":1770993283,"current_range_meters":29600,"station_id":"ce4bgj92rcd13ifvqbe0","pricing_plan_id":"cebpf4jnsgd1na2vs0mg"},{"bike_id":"21e61e1d-c4ff-43df-b18f-7d6345caef5f","system_id":"levelo_inurba_marseille","lat":43.27387,"lon":5.39411,"is_reserved":false,"is_disabled":false,"rental_uris":{"android":"levelo://app?vid=21e61e1d-c4ff-43df-b18f-7d6345caef5f","ios":"levelo://app?vid=21e61e1d-c4ff-43df-b18f-7d6345caef5f"},"vehicle_type_id":"4","last_reported":1770993283,"current_range_meters":37600,"station_id":"ce4bhdp2rcd13ifvqf20","pricing_plan_id":"cebpf4jnsgd1na2vs0mg"},{"bike_id":"b4ac5ad7-d458-4c33-a69e-29f0b4b0e2e9","system_id":"levelo_inurba_marseille","lat":43.29843,"lon":5.36313,"is_reserved":false,"is_disabled":false,"rental_uris":{"android":"levelo://app?vid=b4ac5ad7-d458-4c33-a69e-29f0b4b0e2e9","ios":"levelo://app?vid=b4ac5ad7-d458-4c33-a69e-29f0b4b0e2e9"},"vehicle_type_id":"4","last_reported":1770993283,"current_range_meters":11200,"station_id":"ce4bgpp2rcd13ifvqc3g","pricing_plan_id":"cebpf4jnsgd1na2vs0mg"},{"bike_id":"7ea6dd75-50f8-437c-bc44-b12d73f18ad5","system_id":"levelo_inurba_marseille","lat":43.303298,"lon":5.404306,"is_reserved":false,"is_disabled":false,"rental_uris":{"android":"levelo://app?vid=7ea6dd75-50f8-437c-bc44-b12d73f18ad5","ios":"levelo://app?vid=7ea6dd75-50f8-437c-bc44-b12d73f18ad5"},"vehicle_type_id":"4","last_reported":1770993283,"current_range_meters":37600,"station_id":"ce4bh012rcd13ifvqd10","pricing_plan_id":"cebpf4jnsgd1na2vs0mg"},{"bike_id":"00069f0c-e5ca-48dd-858a-2f7f51f7765b","system_id":"levelo_inurba_marseille","lat":43.24969,"lon":5.40491,"is_reserved":false,"is_disabled":false,"rental_uris":{"android":"levelo://app?vid=00069f0c-e5ca-48dd-858a-2f7f51f7765b","ios":"levelo://app?vid=00069f0c-e5ca-48dd-858a-2f7f51f7765b"},"vehicle_type_id":"4","last_reported":1770993283,"current_range_meters":15200,"station_id":"st_d2ngiaodas8pm72gd1h0","pricing_plan_id":"cebpf4jnsgd1na2vs0mg"},{"bike_id":"c7c7dca0-0787-4707-902c-c5223b2b34cb","system_id":"levelo_inurba_marseille","lat":43.32354,"lon":5.3675,"is_reserved":false,"is_disabled":false,"rental_uris":{"android":"levelo://app?vid=c7c7dca0-0787-4707-902c-c5223b2b34cb","ios":"levelo://app?vid=c7c7dca0-0787-4707-902c-c5223b2b34cb"},"vehicle_type_id":"4","last_reported":1770993283,"current_range_meters":17200,"station_id":"ce4bhsh2rcd13ifvqi2g","pricing_plan_id":"cebpf4jnsgd1na2vs0mg"},{"bike_id":"a0cd045f-1ae4-48d5-afbf-da3c25f43abc","system_id":"levelo_inurba_marseille","lat":43.28992,"lon":5.35596,"is_reserved":false,"is_disabled":false,"rental_uris":{"android":"levelo://app?vid=a0cd045f-1ae4-48d5-afbf-da3c25f43abc","ios":"levelo://app?vid=a0cd045f-1ae4-48d5-afbf-da3c25f43abc"},"vehicle_type_id":"4","last_reported":1770993283,"current_range_meters":16800,"station_id":"ce4bhb92rcd13ifvqen0","pricing_plan_id":"cebpf4jnsgd1na2vs0mg"},{"bike_id":"d7e55b74-244d-40ff-92ca-08279a596dd1","system_id":"levelo_inurba_marseille","lat":43.29891,"lon":5.43661,"is_reserved":false,"is_disabled":false,"rental_uris":{"android":"levelo://app?vid=d7e55b74-244d-40ff-92ca-08279a596dd1","ios":"levelo://app?vid=d7e55b74-244d-40ff-92ca-08279a596dd1"},"vehicle_type_id":"4","last_reported":1770993283,"current_range_meters":36400,"station_id":"ce4bhpp2rcd13ifvqhfg","pricing_plan_id":"cebpf4jnsgd1na2vs0mg"},{"bike_id":"ed8b5fe8-1920-4dfd-97af-072031019259","system_id":"levelo_inurba_marseille","lat":43.263793,"lon":5.410462,"is_reserved":false,"is_disabled":true,"rental_uris":{"android":"levelo://app?vid=ed8b5fe8-1920-4dfd-97af-072031019259","ios":"levelo://app?vid=ed8b5fe8-1920-4dfd-97af-072031019259"},"vehicle_type_id":"4","last_reported":1770993283,"current_range_meters":0,"station_id":"st_d4e5ca6na9uc73bfl5fg","pricing_plan_id":"cebpf4jnsgd1na2vs0mg"},{"bike_id":"dbf3adce-f756-48be-8142-94bd2d254eea","system_id":"levelo_inurba_marseille","lat":43.2654,"lon":5.37305,"is_reserved":false,"is_disabled":false,"rental_uris":{"android":"levelo://app?vid=dbf3adce-f756-48be-8142-94bd2d254eea","ios":"levelo://app?vid=dbf3adce-f756-48be-8142-94bd2d254eea"},"vehicle_type_id":"4","last_reported":1770993283,"current_range_meters":22400,"station_id":"ce4bhg12rcd13ifvqf70","pricing_plan_id":"cebpf4jnsgd1na2vs0mg"},{"bike_id":"f300d22b-b3ab-42d6-ad72-e92af3306e75","system_id":"levelo_inurba_marseille","lat":43.31067,"lon":5.37167,"is_reserved":false,"is_disabled":false,"rental_uris":{"android":"levelo://app?vid=f300d22b-b3ab-42d6-ad72-e92af3306e75","ios":"levelo://app?vid=f300d22b-b3ab-42d6-ad72-e92af3306e75"},"vehicle_type_id":"4","last_reported":1770993283,"current_range_meters":20400,"station_id":"st_d4kl2rp97mjs73e7tdfg","pricing_plan_id":"cebpf4jnsgd1na2vs0mg"},{"bike_id":"e6cae87d-0fcf-415e-84d4-36379a95c368","system_id":"levelo_inurba_marseille","lat":43.30555,"lon":5.36704,"is_reserved":false,"is_disabled":false,"rental_uris":{"android":"levelo://app?vid=e6cae87d-0fcf-415e-84d4-36379a95c368","ios":"levelo://app?vid=e6cae87d-0fcf-415e-84d4-36379a95c368"},"vehicle_type_id":"4","last_reported":1770993283,"current_range_meters":39200,"station_id":"ce4bgrp2rcd13ifvqc9g","pricing_plan_id":"cebpf4jnsgd1na2vs0mg"},{"bike_id":"d97604ce-364c-459d-8875-8f54c335d253","system_id":"levelo_inurba_marseille","lat":43.24575,"lon":5.41677,"is_reserved":false,"is_disabled":false,"rental_uris":{"android":"levelo://app?vid=d97604ce-364c-459d-8875-8f54c335d253","ios":"levelo://app?vid=d97604ce-364c-459d-8875-8f54c335d253"},"vehicle_type_id":"4","last_reported":1770993283,"current_range_meters":12400,"station_id":"","pricing_plan_id":"cebpf4jnsgd1na2vs0mg"},{"bike_id":"241b3e74-a71f-4c45-8122-0768114fc5a0","system_id":"levelo_inurba_marseille","lat":43.29856,"lon":5.36291,"is_reserved":false,"is_disabled":false,"rental_uris":{"android":"levelo://app?vid=241b3e74-a71f-4c45-8122-0768114fc5a0","ios":"levelo://app?vid=241b3e74-a71f-4c45-8122-0768114fc5a0"},"vehicle_type_id":"4","last_reported":1770993283,"current_range_meters":38000,"station_id":"ce4bgpp2rcd13ifvqc3g","pricing_plan_id":"cebpf4jnsgd1na2vs0mg"},{"bike_id":"79a7e591-1b27-4aab-b9f7-840e2732a2bc","system_id":"levelo_inurba_marseille","lat":43.31731,"lon":5.4048,"is_reserved":false,"is_disabled":false,"rental_uris":{"android":"levelo://app?vid=79a7e591-1b27-4aab-b9f7-840e2732a2bc","ios":"levelo://app?vid=79a7e591-1b27-4aab-b9f7-840e2732a2bc"},"vehicle_type_id":"4","last_reported":1770993283,"current_range_meters":11200,"station_id":"ce4bh012rcd13ifvqd00","pricing_plan_id":"cebpf4jnsgd1na2vs0mg"},{"bike_id":"35c6604e-9905-47d2-97de-8e69c173bb07","system_id":"levelo_inurba_marseille","lat":43.28482,"lon":5.38402,"is_reserved":false,"is_disabled":false,"rental_uris":{"android":"levelo://app?vid=35c6604e-9905-47d2-97de-8e69c173bb07","ios":"levelo://app?vid=35c6604e-9905-47d2-97de-8e69c173bb07"},"vehicle_type_id":"4","last_reported":1770993283,"current_range_meters":31200,"station_id":"ce4bh512rcd13ifvqe3g","pricing_plan_id":"cebpf4jnsgd1na2vs0mg"},{"bike_id":"0f4326c3-c12c-4729-a32d-5622ad4b28a1","system_id":"levelo_inurba_marseille","lat":43.30128,"lon":5.38776,"is_reserved":false,"is_disabled":false,"rental_uris":{"android":"levelo://app?vid=0f4326c3-c12c-4729-a32d-5622ad4b28a1","ios":"levelo://app?vid=0f4326c3-c12c-4729-a32d-5622ad4b28a1"},"vehicle_type_id":"4","last_reported":1770993283,"current_range_meters":18000,"station_id":"ce4bghh2rcd13ifvqb60","pricing_plan_id":"cebpf4jnsgd1na2vs0mg"},{"bike_id":"d73117e0-ca01-4a20-b294-dd7898aa1bf6","system_id":"levelo_inurba_marseille","lat":43.31486,"lon":5.373,"is_reserved":false,"is_disabled":false,"rental_uris":{"android":"levelo://app?vid=d73117e0-ca01-4a20-b294-dd7898aa1bf6","ios":"levelo://app?vid=d73117e0-ca01-4a20-b294-dd7898aa1bf6"},"vehicle_type_id":"4","last_reported":1770993283,"current_range_meters":19600,"station_id":"ce4bgt12rcd13ifvqcd0","pricing_plan_id":"cebpf4jnsgd1na2vs0mg"},{"bike_id":"6888d293-0d81-4cf8-b7da-18b5fd60abad","system_id":"levelo_inurba_marseille","lat":43.2932,"lon":5.37231,"is_reserved":false,"is_disabled":true,"rental_uris":{"android":"levelo://app?vid=6888d293-0d81-4cf8-b7da-18b5fd60abad","ios":"levelo://app?vid=6888d293-0d81-4cf8-b7da-18b5fd60abad"},"vehicle_type_id":"4","last_reported":1770993283,"current_range_meters":22800,"station_id":"","pricing_plan_id":"cebpf4jnsgd1na2vs0mg"},{"bike_id":"2a3acf84-39a5-4578-b9d8-f09a40c393cc","system_id":"levelo_inurba_marseille","lat":43.26805,"lon":5.39455,"is_reserved":false,"is_disabled":false,"rental_uris":{"android":"levelo://app?vid=2a3acf84-39a5-4578-b9d8-f09a40c393cc","ios":"levelo://app?vid=2a3acf84-39a5-4578-b9d8-f09a40c393cc"},"vehicle_type_id":"4","last_reported":1770993283,"current_range_meters":28400,"station_id":"ce4bhh12rcd13ifvqfg0","pricing_plan_id":"cebpf4jnsgd1na2vs0mg"},{"bike_id":"32b27b47-6c8b-49c6-8b48-fbeace627871","system_id":"levelo_inurba_marseille","lat":43.31193,"lon":5.36796,"is_reserved":false,"is_disabled":false,"rental_uris":{"android":"levelo://app?vid=32b27b47-6c8b-49c6-8b48-fbeace627871","ios":"levelo://app?vid=32b27b47-6c8b-49c6-8b48-fbeace627871"},"vehicle_type_id":"4","last_reported":1770993283,"current_range_meters":6800,"station_id":"","pricing_plan_id":"cebpf4jnsgd1na2vs0mg"},{"bike_id":"b7fcb2da-5243-440b-926b-4edc89af4b76","system_id":"levelo_inurba_marseille","lat":43.27978,"lon":5.40023,"is_reserved":false,"is_disabled":false,"rental_uris":{"android":"levelo://app?vid=b7fcb2da-5243-440b-926b-4edc89af4b76","ios":"levelo://app?vid=b7fcb2da-5243-440b-926b-4edc89af4b76"},"vehicle_type_id":"4","last_reported":1770993283,"current_range_meters":28800,"station_id":"ce4bho92rcd13ifvqh4g","pricing_plan_id":"cebpf4jnsgd1na2vs0mg"},{"bike_id":"02d2542c-b1b3-41a7-a98e-013791455f26","system_id":"levelo_inurba_marseille","lat":43.29241,"lon":5.36068,"is_reserved":false,"is_disabled":false,"rental_uris":{"android":"levelo://app?vid=02d2542c-b1b3-41a7-a98e-013791455f26","ios":"levelo://app?vid=02d2542c-b1b3-41a7-a98e-013791455f26"},"vehicle_type_id":"4","last_reported":1770993283,"current_range_meters":25600,"station_id":"ce4bhbh2rcd13ifvqeqg","pricing_plan_id":"cebpf4jnsgd1na2vs0mg"},{"bike_id":"48d4a83c-c716-41c6-8fd3-cb0153dd2afb","system_id":"levelo_inurba_marseille","lat":43.312269,"lon":5.368451,"is_reserved":false,"is_disabled":false,"rental_uris":{"android":"levelo://app?vid=48d4a83c-c716-41c6-8fd3-cb0153dd2afb","ios":"levelo://app?vid=48d4a83c-c716-41c6-8fd3-cb0153dd2afb"},"vehicle_type_id":"4","last_reported":1770993283,"current_range_meters":38000,"station_id":"ce4bgl92rcd13ifvqbq0","pricing_plan_id":"cebpf4jnsgd1na2vs0mg"},{"bike_id":"e532d849-9da4-492c-974e-21e564fe6f6a","system_id":"levelo_inurba_marseille","lat":43.31028,"lon":5.37178,"is_reserved":false,"is_disabled":false,"rental_uris":{"android":"levelo://app?vid=e532d849-9da4-492c-974e-21e564fe6f6a","ios":"levelo://app?vid=e532d849-9da4-492c-974e-21e564fe6f6a"},"vehicle_type_id":"4","last_reported":1770993283,"current_range_meters":32400,"station_id":"st_d4kl2rp97mjs73e7tdfg","pricing_plan_id":"cebpf4jnsgd1na2vs0mg"},{"bike_id":"f3a92c2a-fa73-4507-90f5-59ce9db5671a","system_id":"levelo_inurba_marseille","lat":43.295277,"lon":5.3751,"is_reserved":false,"is_disabled":true,"rental_uris":{"android":"levelo://app?vid=f3a92c2a-fa73-4507-90f5-59ce9db5671a","ios":"levelo://app?vid=f3a92c2a-fa73-4507-90f5-59ce9db5671a"},"vehicle_type_id":"4","last_reported":1770993283,"current_range_meters":30800,"station_id":"ce4bgkp2rcd13ifvqbmg","pricing_plan_id":"cebpf4jnsgd1na2vs0mg"},{"bike_id":"23cd9c56-af23-4579-bf1b-0921da273a5d","system_id":"levelo_inurba_marseille","lat":43.23064,"lon":5.35484,"is_reserved":false,"is_disabled":false,"rental_uris":{"android":"levelo://app?vid=23cd9c56-af23-4579-bf1b-0921da273a5d","ios":"levelo://app?vid=23cd9c56-af23-4579-bf1b-0921da273a5d"},"vehicle_type_id":"4","last_reported":1770993283,"current_range_meters":35200,"station_id":"cpo3342slgdg3j2ifvpg","pricing_plan_id":"cebpf4jnsgd1na2vs0mg"},{"bike_id":"2d31264c-ba1f-4a23-8b03-dfc533cb84f0","system_id":"levelo_inurba_marseille","lat":43.26554,"lon":5.39032,"is_reserved":false,"is_disabled":false,"rental_uris":{"android":"levelo://app?vid=2d31264c-ba1f-4a23-8b03-dfc533cb84f0","ios":"levelo://app?vid=2d31264c-ba1f-4a23-8b03-dfc533cb84f0"},"vehicle_type_id":"4","last_reported":1770993283,"current_range_meters":39200,"station_id":"ce4bhe12rcd13ifvqf30","pricing_plan_id":"cebpf4jnsgd1na2vs0mg"},{"bike_id":"5d6b226c-0296-4bc0-9929-39689db3e4b1","system_id":"levelo_inurba_marseille","lat":43.32074,"lon":5.3679,"is_reserved":false,"is_disabled":false,"rental_uris":{"android":"levelo://app?vid=5d6b226c-0296-4bc0-9929-39689db3e4b1","ios":"levelo://app?vid=5d6b226c-0296-4bc0-9929-39689db3e4b1"},"vehicle_type_id":"4","last_reported":1770993283,"current_range_meters":21600,"station_id":"ce4bhrh2rcd13ifvqhug","pricing_plan_id":"cebpf4jnsgd1na2vs0mg"},{"bike_id":"9664a5c4-41bd-49a0-bca7-ccecab569b6a","system_id":"levelo_inurba_marseille","lat":43.32056,"lon":5.41499,"is_reserved":false,"is_disabled":false,"rental_uris":{"android":"levelo://app?vid=9664a5c4-41bd-49a0-bca7-ccecab569b6a","ios":"levelo://app?vid=9664a5c4-41bd-49a0-bca7-ccecab569b6a"},"vehicle_type_id":"4","last_reported":1770993283,"current_range_meters":39200,"station_id":"ce4bhq92rcd13ifvqhkg","pricing_plan_id":"cebpf4jnsgd1na2vs0mg"},{"bike_id":"5c8c3d05-5a98-4394-b47e-3e04535ddbbc","system_id":"levelo_inurba_marseille","lat":43.25508,"lon":5.37664,"is_reserved":false,"is_disabled":false,"rental_uris":{"android":"levelo://app?vid=5c8c3d05-5a98-4394-b47e-3e04535ddbbc","ios":"levelo://app?vid=5c8c3d05-5a98-4394-b47e-3e04535ddbbc"},"vehicle_type_id":"4","last_reported":1770993283,"current_range_meters":22800,"station_id":"ce4bhh12rcd13ifvqff0","pricing_plan_id":"cebpf4jnsgd1na2vs0mg"},{"bike_id":"21d50721-768b-4da3-91cc-52a047339b4f","system_id":"levelo_inurba_marseille","lat":43.30298,"lon":5.39203,"is_reserved":false,"is_disabled":false,"rental_uris":{"android":"levelo://app?vid=21d50721-768b-4da3-91cc-52a047339b4f","ios":"levelo://app?vid=21d50721-768b-4da3-91cc-52a047339b4f"},"vehicle_type_id":"4","last_reported":1770993283,"current_range_meters":34800,"station_id":"ce4bgkh2rcd13ifvqbk0","pricing_plan_id":"cebpf4jnsgd1na2vs0mg"},{"bike_id":"26061c89-3bb5-4adb-8b5c-b63efc57a781","system_id":"levelo_inurba_marseille","lat":43.28031,"lon":5.36963,"is_reserved":false,"is_disabled":false,"rental_uris":{"android":"levelo://app?vid=26061c89-3bb5-4adb-8b5c-b63efc57a781","ios":"levelo://app?vid=26061c89-3bb5-4adb-8b5c-b63efc57a781"},"vehicle_type_id":"4","last_reported":1770993283,"current_range_meters":32800,"station_id":"ce4bha12rcd13ifvqef0","pricing_plan_id":"cebpf4jnsgd1na2vs0mg"},{"bike_id":"1666b265-643d-41e7-bcc3-6167a6d49f91","system_id":"levelo_inurba_marseille","lat":43.22549,"lon":5.34819,"is_reserved":false,"is_disabled":false,"rental_uris":{"android":"levelo://app?vid=1666b265-643d-41e7-bcc3-6167a6d49f91","ios":"levelo://app?vid=1666b265-643d-41e7-bcc3-6167a6d49f91"},"vehicle_type_id":"4","last_reported":1770993283,"current_range_meters":4000,"station_id":"st_cvj5dfep6f1abm77gieg","pricing_plan_id":"cebpf4jnsgd1na2vs0mg"},{"bike_id":"cb83813a-9d6f-41e9-a57c-6a0591f5f823","system_id":"levelo_inurba_marseille","lat":43.24172,"lon":5.36381,"is_reserved":false,"is_disabled":false,"rental_uris":{"android":"levelo://app?vid=cb83813a-9d6f-41e9-a57c-6a0591f5f823","ios":"levelo://app?vid=cb83813a-9d6f-41e9-a57c-6a0591f5f823"},"vehicle_type_id":"4","last_reported":1770993283,"current_range_meters":9600,"station_id":"cpo36qri1sfpv3e86is0","pricing_plan_id":"cebpf4jnsgd1na2vs0mg"},{"bike_id":"c8ebc778-2bc2-4ad8-83a0-a9b0ef72e7f7","system_id":"levelo_inurba_marseille","lat":43.24985,"lon":5.40487,"is_reserved":false,"is_disabled":false,"rental_uris":{"android":"levelo://app?vid=c8ebc778-2bc2-4ad8-83a0-a9b0ef72e7f7","ios":"levelo://app?vid=c8ebc778-2bc2-4ad8-83a0-a9b0ef72e7f7"},"vehicle_type_id":"4","last_reported":1770993283,"current_range_meters":8400,"station_id":"st_d2ngiaodas8pm72gd1h0","pricing_plan_id":"cebpf4jnsgd1na2vs0mg"},{"bike_id":"5f12005e-04e5-44aa-9036-56a982f265e1","system_id":"levelo_inurba_marseille","lat":43.29228,"lon":5.36062,"is_reserved":false,"is_disabled":false,"rental_uris":{"android":"levelo://app?vid=5f12005e-04e5-44aa-9036-56a982f265e1","ios":"levelo://app?vid=5f12005e-04e5-44aa-9036-56a982f265e1"},"vehicle_type_id":"4","last_reported":1770993283,"current_range_meters":32800,"station_id":"ce4bhbh2rcd13ifvqeqg","pricing_plan_id":"cebpf4jnsgd1na2vs0mg"},{"bike_id":"e2f51133-f150-4357-98bf-af4a61c386ad","system_id":"levelo_inurba_marseille","lat":43.29057,"lon":5.3757,"is_reserved":false,"is_disabled":false,"rental_uris":{"android":"levelo://app?vid=e2f51133-f150-4357-98bf-af4a61c386ad","ios":"levelo://app?vid=e2f51133-f150-4357-98bf-af4a61c386ad"},"vehicle_type_id":"4","last_reported":1770993283,"current_range_meters":35200,"station_id":"ce4bh692rcd13ifvqe90","pricing_plan_id":"cebpf4jnsgd1na2vs0mg"},{"bike_id":"b79c6a04-8007-43b2-821d-952b0dc765e9","system_id":"levelo_inurba_marseille","lat":43.29323,"lon":5.37187,"is_reserved":false,"is_disabled":false,"rental_uris":{"android":"levelo://app?vid=b79c6a04-8007-43b2-821d-952b0dc765e9","ios":"levelo://app?vid=b79c6a04-8007-43b2-821d-952b0dc765e9"},"vehicle_type_id":"4","last_reported":1770993283,"current_range_meters":17200,"station_id":"ce4bgh92rcd13ifvqb40","pricing_plan_id":"cebpf4jnsgd1na2vs0mg"},{"bike_id":"0f008a05-e0d8-4053-a3cb-4e417a9c8cbb","system_id":"levelo_inurba_marseille","lat":43.28948,"lon":5.39635,"is_reserved":false,"is_disabled":false,"rental_uris":{"android":"levelo://app?vid=0f008a05-e0d8-4053-a3cb-4e417a9c8cbb","ios":"levelo://app?vid=0f008a05-e0d8-4053-a3cb-4e417a9c8cbb"},"vehicle_type_id":"4","last_reported":1770993283,"current_range_meters":39200,"station_id":"ce4bh3h2rcd13ifvqdn0","pricing_plan_id":"cebpf4jnsgd1na2vs0mg"},{"bike_id":"7553f1dd-6a77-4a54-8213-a0886f386bfc","system_id":"levelo_inurba_marseille","lat":43.27235,"lon":5.39157,"is_reserved":false,"is_disabled":false,"rental_uris":{"android":"levelo://app?vid=7553f1dd-6a77-4a54-8213-a0886f386bfc","ios":"levelo://app?vid=7553f1dd-6a77-4a54-8213-a0886f386bfc"},"vehicle_type_id":"4","last_reported":1770993283,"current_range_meters":19200,"station_id":"ce4bhhp2rcd13ifvqfm0","pricing_plan_id":"cebpf4jnsgd1na2vs0mg"},{"bike_id":"bcad26e7-801b-45a3-9a6f-b11851106eac","system_id":"levelo_inurba_marseille","lat":43.28552,"lon":5.38352,"is_reserved":false,"is_disabled":false,"rental_uris":{"android":"levelo://app?vid=bcad26e7-801b-45a3-9a6f-b11851106eac","ios":"levelo://app?vid=bcad26e7-801b-45a3-9a6f-b11851106eac"},"vehicle_type_id":"4","last_reported":1770993283,"current_range_meters":8400,"station_id":"","pricing_plan_id":"cebpf4jnsgd1na2vs0mg"},{"bike_id":"d27a55ac-9f5f-4850-9fa7-b73740635eb7","system_id":"levelo_inurba_marseille","lat":43.25328,"lon":5.4215,"is_reserved":false,"is_disabled":false,"rental_uris":{"android":"levelo://app?vid=d27a55ac-9f5f-4850-9fa7-b73740635eb7","ios":"levelo://app?vid=d27a55ac-9f5f-4850-9fa7-b73740635eb7"},"vehicle_type_id":"4","last_reported":1770993283,"current_range_meters":16000,"station_id":"st_d2m65c5bi1j21697t3ng","pricing_plan_id":"cebpf4jnsgd1na2vs0mg"},{"bike_id":"090a00f0-2b66-4e7a-84a8-3dddad6d6fd5","system_id":"levelo_inurba_marseille","lat":43.26681,"lon":5.38275,"is_reserved":false,"is_disabled":false,"rental_uris":{"android":"levelo://app?vid=090a00f0-2b66-4e7a-84a8-3dddad6d6fd5","ios":"levelo://app?vid=090a00f0-2b66-4e7a-84a8-3dddad6d6fd5"},"vehicle_type_id":"4","last_reported":1770993283,"current_range_meters":31200,"station_id":"ce4bhg92rcd13ifvqf90","pricing_plan_id":"cebpf4jnsgd1na2vs0mg"},{"bike_id":"9608066a-cdb2-49b3-a28b-2cea2519cf49","system_id":"levelo_inurba_marseille","lat":43.30537,"lon":5.36529,"is_reserved":false,"is_disabled":false,"rental_uris":{"android":"levelo://app?vid=9608066a-cdb2-49b3-a28b-2cea2519cf49","ios":"levelo://app?vid=9608066a-cdb2-49b3-a28b-2cea2519cf49"},"vehicle_type_id":"4","last_reported":1770993283,"current_range_meters":37600,"station_id":"ce4bgs12rcd13ifvqcag","pricing_plan_id":"cebpf4jnsgd1na2vs0mg"},{"bike_id":"145e6984-28ea-4666-b90f-7d63cfee56d4","system_id":"levelo_inurba_marseille","lat":43.27496,"lon":5.42451,"is_reserved":false,"is_disabled":false,"rental_uris":{"android":"levelo://app?vid=145e6984-28ea-4666-b90f-7d63cfee56d4","ios":"levelo://app?vid=145e6984-28ea-4666-b90f-7d63cfee56d4"},"vehicle_type_id":"4","last_reported":1770993283,"current_range_meters":16400,"station_id":"ce4bhn92rcd13ifvqgrg","pricing_plan_id":"cebpf4jnsgd1na2vs0mg"},{"bike_id":"361472a9-140d-4e92-9e16-c96fbc664522","system_id":"levelo_inurba_marseille","lat":43.241742,"lon":5.364001,"is_reserved":false,"is_disabled":false,"rental_uris":{"android":"levelo://app?vid=361472a9-140d-4e92-9e16-c96fbc664522","ios":"levelo://app?vid=361472a9-140d-4e92-9e16-c96fbc664522"},"vehicle_type_id":"4","last_reported":1770993283,"current_range_meters":17600,"station_id":"cpo36qri1sfpv3e86is0","pricing_plan_id":"cebpf4jnsgd1na2vs0mg"},{"bike_id":"f2fe717f-8429-434a-8f6a-e45ff27cd18b","system_id":"levelo_inurba_marseille","lat":43.29756,"lon":5.37659,"is_reserved":false,"is_disabled":false,"rental_uris":{"android":"levelo://app?vid=f2fe717f-8429-434a-8f6a-e45ff27cd18b","ios":"levelo://app?vid=f2fe717f-8429-434a-8f6a-e45ff27cd18b"},"vehicle_type_id":"4","last_reported":1770993283,"current_range_meters":37600,"station_id":"","pricing_plan_id":"cebpf4jnsgd1na2vs0mg"},{"bike_id":"35ba17df-5cfc-4771-9282-9edcb21d34e7","system_id":"levelo_inurba_marseille","lat":43.27203,"lon":5.39154,"is_reserved":false,"is_disabled":false,"rental_uris":{"android":"levelo://app?vid=35ba17df-5cfc-4771-9282-9edcb21d34e7","ios":"levelo://app?vid=35ba17df-5cfc-4771-9282-9edcb21d34e7"},"vehicle_type_id":"4","last_reported":1770993283,"current_range_meters":40000,"station_id":"ce4bhhp2rcd13ifvqfm0","pricing_plan_id":"cebpf4jnsgd1na2vs0mg"},{"bike_id":"54254b36-6e63-4600-8128-6261a593eb18","system_id":"levelo_inurba_marseille","lat":43.31242,"lon":5.36877,"is_reserved":false,"is_disabled":false,"rental_uris":{"android":"levelo://app?vid=54254b36-6e63-4600-8128-6261a593eb18","ios":"levelo://app?vid=54254b36-6e63-4600-8128-6261a593eb18"},"vehicle_type_id":"4","last_reported":1770993283,"current_range_meters":28400,"station_id":"ce4bgl92rcd13ifvqbq0","pricing_plan_id":"cebpf4jnsgd1na2vs0mg"},{"bike_id":"b737a12b-8948-4107-b30c-2539643abdf3","system_id":"levelo_inurba_marseille","lat":43.26554,"lon":5.37298,"is_reserved":false,"is_disabled":false,"rental_uris":{"android":"levelo://app?vid=b737a12b-8948-4107-b30c-2539643abdf3","ios":"levelo://app?vid=b737a12b-8948-4107-b30c-2539643abdf3"},"vehicle_type_id":"4","last_reported":1770993283,"current_range_meters":39200,"station_id":"ce4bhg12rcd13ifvqf70","pricing_plan_id":"cebpf4jnsgd1na2vs0mg"},{"bike_id":"3ab50b01-5f22-410c-8bff-83e9b4a3bcac","system_id":"levelo_inurba_marseille","lat":43.28684,"lon":5.38651,"is_reserved":false,"is_disabled":false,"rental_uris":{"android":"levelo://app?vid=3ab50b01-5f22-410c-8bff-83e9b4a3bcac","ios":"levelo://app?vid=3ab50b01-5f22-410c-8bff-83e9b4a3bcac"},"vehicle_type_id":"4","last_reported":1770993283,"current_range_meters":12800,"station_id":"ce4bh492rcd13ifvqdug","pricing_plan_id":"cebpf4jnsgd1na2vs0mg"},{"bike_id":"fcabaec3-1afd-4ea0-8ced-deb27afd642e","system_id":"levelo_inurba_marseille","lat":43.27952,"lon":5.41027,"is_reserved":false,"is_disabled":false,"rental_uris":{"android":"levelo://app?vid=fcabaec3-1afd-4ea0-8ced-deb27afd642e","ios":"levelo://app?vid=fcabaec3-1afd-4ea0-8ced-deb27afd642e"},"vehicle_type_id":"4","last_reported":1770993283,"current_range_meters":38400,"station_id":"ce4bhnp2rcd13ifvqh0g","pricing_plan_id":"cebpf4jnsgd1na2vs0mg"},{"bike_id":"3c428f3b-2b18-49f2-8b2f-7455d73a0136","system_id":"levelo_inurba_marseille","lat":43.29113,"lon":5.38123,"is_reserved":false,"is_disabled":false,"rental_uris":{"android":"levelo://app?vid=3c428f3b-2b18-49f2-8b2f-7455d73a0136","ios":"levelo://app?vid=3c428f3b-2b18-49f2-8b2f-7455d73a0136"},"vehicle_type_id":"4","last_reported":1770993283,"current_range_meters":36400,"station_id":"ce4bh512rcd13ifvqe2g","pricing_plan_id":"cebpf4jnsgd1na2vs0mg"},{"bike_id":"33b2ee93-c8d4-4de7-a95f-88a3b6b4b54d","system_id":"levelo_inurba_marseille","lat":43.30575,"lon":5.36667,"is_reserved":false,"is_disabled":false,"rental_uris":{"android":"levelo://app?vid=33b2ee93-c8d4-4de7-a95f-88a3b6b4b54d","ios":"levelo://app?vid=33b2ee93-c8d4-4de7-a95f-88a3b6b4b54d"},"vehicle_type_id":"4","last_reported":1770993283,"current_range_meters":9200,"station_id":"","pricing_plan_id":"cebpf4jnsgd1na2vs0mg"},{"bike_id":"6a77d0ea-d435-4de7-9919-85676c5866e3","system_id":"levelo_inurba_marseille","lat":43.29991,"lon":5.37155,"is_reserved":false,"is_disabled":false,"rental_uris":{"android":"levelo://app?vid=6a77d0ea-d435-4de7-9919-85676c5866e3","ios":"levelo://app?vid=6a77d0ea-d435-4de7-9919-85676c5866e3"},"vehicle_type_id":"4","last_reported":1770993283,"current_range_meters":36800,"station_id":"ce4bgr92rcd13ifvqc7g","pricing_plan_id":"cebpf4jnsgd1na2vs0mg"},{"bike_id":"937b8c58-8e6e-42ae-a3fd-bbd78f63999a","system_id":"levelo_inurba_marseille","lat":43.29037,"lon":5.35592,"is_reserved":false,"is_disabled":false,"rental_uris":{"android":"levelo://app?vid=937b8c58-8e6e-42ae-a3fd-bbd78f63999a","ios":"levelo://app?vid=937b8c58-8e6e-42ae-a3fd-bbd78f63999a"},"vehicle_type_id":"4","last_reported":1770993283,"current_range_meters":34800,"station_id":"ce4bhb92rcd13ifvqen0","pricing_plan_id":"cebpf4jnsgd1na2vs0mg"},{"bike_id":"8e2a6bdd-3868-4795-80f0-6045872e16c6","system_id":"levelo_inurba_marseille","lat":43.24655,"lon":5.3822,"is_reserved":false,"is_disabled":false,"rental_uris":{"android":"levelo://app?vid=8e2a6bdd-3868-4795-80f0-6045872e16c6","ios":"levelo://app?vid=8e2a6bdd-3868-4795-80f0-6045872e16c6"},"vehicle_type_id":"4","last_reported":1770993283,"current_range_meters":27200,"station_id":"ce4bhih2rcd13ifvqfr0","pricing_plan_id":"cebpf4jnsgd1na2vs0mg"},{"bike_id":"98306c6c-fef7-4415-8f47-ff2408b16d04","system_id":"levelo_inurba_marseille","lat":43.2798,"lon":5.38727,"is_reserved":false,"is_disabled":false,"rental_uris":{"android":"levelo://app?vid=98306c6c-fef7-4415-8f47-ff2408b16d04","ios":"levelo://app?vid=98306c6c-fef7-4415-8f47-ff2408b16d04"},"vehicle_type_id":"4","last_reported":1770993283,"current_range_meters":4400,"station_id":"ce4bhg12rcd13ifvqf80","pricing_plan_id":"cebpf4jnsgd1na2vs0mg"},{"bike_id":"8bd0a92f-17cd-4bc9-99eb-6b0f4346de24","system_id":"levelo_inurba_marseille","lat":43.23965,"lon":5.36615,"is_reserved":false,"is_disabled":false,"rental_uris":{"android":"levelo://app?vid=8bd0a92f-17cd-4bc9-99eb-6b0f4346de24","ios":"levelo://app?vid=8bd0a92f-17cd-4bc9-99eb-6b0f4346de24"},"vehicle_type_id":"4","last_reported":1770993283,"current_range_meters":30800,"station_id":"ce4bhi12rcd13ifvqfp0","pricing_plan_id":"cebpf4jnsgd1na2vs0mg"},{"bike_id":"60391187-d8a7-4a2a-a568-717f3b61a4ab","system_id":"levelo_inurba_marseille","lat":43.30468,"lon":5.37899,"is_reserved":false,"is_disabled":false,"rental_uris":{"android":"levelo://app?vid=60391187-d8a7-4a2a-a568-717f3b61a4ab","ios":"levelo://app?vid=60391187-d8a7-4a2a-a568-717f3b61a4ab"},"vehicle_type_id":"4","last_reported":1770993283,"current_range_meters":30800,"station_id":"ce4bgup2rcd13ifvqcn0","pricing_plan_id":"cebpf4jnsgd1na2vs0mg"},{"bike_id":"cc9be124-54a5-4927-a146-e3a08ef99a81","system_id":"levelo_inurba_marseille","lat":43.30466,"lon":5.379,"is_reserved":false,"is_disabled":false,"rental_uris":{"android":"levelo://app?vid=cc9be124-54a5-4927-a146-e3a08ef99a81","ios":"levelo://app?vid=cc9be124-54a5-4927-a146-e3a08ef99a81"},"vehicle_type_id":"4","last_reported":1770993283,"current_range_meters":14000,"station_id":"ce4bgup2rcd13ifvqcn0","pricing_plan_id":"cebpf4jnsgd1na2vs0mg"},{"bike_id":"d8b4d6f4-9651-44d7-9941-7fcf0674fa08","system_id":"levelo_inurba_marseille","lat":43.30157,"lon":5.38069,"is_reserved":false,"is_disabled":false,"rental_uris":{"android":"levelo://app?vid=d8b4d6f4-9651-44d7-9941-7fcf0674fa08","ios":"levelo://app?vid=d8b4d6f4-9651-44d7-9941-7fcf0674fa08"},"vehicle_type_id":"4","last_reported":1770993283,"current_range_meters":28800,"station_id":"ce4bgjp2rcd13ifvqbh0","pricing_plan_id":"cebpf4jnsgd1na2vs0mg"},{"bike_id":"1714710a-894c-4813-97ad-80fa37c7aee5","system_id":"levelo_inurba_marseille","lat":43.30951,"lon":5.3901,"is_reserved":false,"is_disabled":false,"rental_uris":{"android":"levelo://app?vid=1714710a-894c-4813-97ad-80fa37c7aee5","ios":"levelo://app?vid=1714710a-894c-4813-97ad-80fa37c7aee5"},"vehicle_type_id":"4","last_reported":1770993283,"current_range_meters":39200,"station_id":"ce4bgup2rcd13ifvqco0","pricing_plan_id":"cebpf4jnsgd1na2vs0mg"},{"bike_id":"9d75ab09-91be-47c0-8367-aca10fd566ab","system_id":"levelo_inurba_marseille","lat":43.30186,"lon":5.36597,"is_reserved":false,"is_disabled":false,"rental_uris":{"android":"levelo://app?vid=9d75ab09-91be-47c0-8367-aca10fd566ab","ios":"levelo://app?vid=9d75ab09-91be-47c0-8367-aca10fd566ab"},"vehicle_type_id":"4","last_reported":1770993283,"current_range_meters":17600,"station_id":"ce4bgrh2rcd13ifvqc8g","pricing_plan_id":"cebpf4jnsgd1na2vs0mg"},{"bike_id":"f53bc1a6-e68a-4fe7-806d-83615783feff","system_id":"levelo_inurba_marseille","lat":43.31486,"lon":5.37254,"is_reserved":false,"is_disabled":false,"rental_uris":{"android":"levelo://app?vid=f53bc1a6-e68a-4fe7-806d-83615783feff","ios":"levelo://app?vid=f53bc1a6-e68a-4fe7-806d-83615783feff"},"vehicle_type_id":"4","last_reported":1770993283,"current_range_meters":27200,"station_id":"ce4bgt12rcd13ifvqcd0","pricing_plan_id":"cebpf4jnsgd1na2vs0mg"},{"bike_id":"9b591b38-7cda-405c-b5af-c9939ca7d769","system_id":"levelo_inurba_marseille","lat":43.22933,"lon":5.35378,"is_reserved":false,"is_disabled":false,"rental_uris":{"android":"levelo://app?vid=9b591b38-7cda-405c-b5af-c9939ca7d769","ios":"levelo://app?vid=9b591b38-7cda-405c-b5af-c9939ca7d769"},"vehicle_type_id":"4","last_reported":1770993283,"current_range_meters":34000,"station_id":"cpo3532slgdg3j2ikp40","pricing_plan_id":"cebpf4jnsgd1na2vs0mg"},{"bike_id":"77d97ba8-97db-4bc9-8294-a1d06adce358","system_id":"levelo_inurba_marseille","lat":43.27487,"lon":5.42454,"is_reserved":false,"is_disabled":true,"rental_uris":{"android":"levelo://app?vid=77d97ba8-97db-4bc9-8294-a1d06adce358","ios":"levelo://app?vid=77d97ba8-97db-4bc9-8294-a1d06adce358"},"vehicle_type_id":"4","last_reported":1770993283,"current_range_meters":28800,"station_id":"ce4bhn92rcd13ifvqgrg","pricing_plan_id":"cebpf4jnsgd1na2vs0mg"},{"bike_id":"03aa505e-9e71-4de8-837d-40f9e3334240","system_id":"levelo_inurba_marseille","lat":43.30155,"lon":5.37407,"is_reserved":false,"is_disabled":false,"rental_uris":{"android":"levelo://app?vid=03aa505e-9e71-4de8-837d-40f9e3334240","ios":"levelo://app?vid=03aa505e-9e71-4de8-837d-40f9e3334240"},"vehicle_type_id":"4","last_reported":1770993283,"current_range_meters":39200,"station_id":"ce4bgs92rcd13ifvqcc0","pricing_plan_id":"cebpf4jnsgd1na2vs0mg"},{"bike_id":"a75398a4-d0b6-4900-9674-fe78395921f4","system_id":"levelo_inurba_marseille","lat":43.30552,"lon":5.36674,"is_reserved":false,"is_disabled":false,"rental_uris":{"android":"levelo://app?vid=a75398a4-d0b6-4900-9674-fe78395921f4","ios":"levelo://app?vid=a75398a4-d0b6-4900-9674-fe78395921f4"},"vehicle_type_id":"4","last_reported":1770993283,"current_range_meters":38000,"station_id":"","pricing_plan_id":"cebpf4jnsgd1na2vs0mg"},{"bike_id":"1c239cb1-79ff-4f85-b231-d26d5efcc943","system_id":"levelo_inurba_marseille","lat":43.30541,"lon":5.36523,"is_reserved":false,"is_disabled":false,"rental_uris":{"android":"levelo://app?vid=1c239cb1-79ff-4f85-b231-d26d5efcc943","ios":"levelo://app?vid=1c239cb1-79ff-4f85-b231-d26d5efcc943"},"vehicle_type_id":"4","last_reported":1770993283,"current_range_meters":27600,"station_id":"ce4bgs12rcd13ifvqcag","pricing_plan_id":"cebpf4jnsgd1na2vs0mg"},{"bike_id":"b32b0732-e4d0-4f51-ba0c-c2f5e5ffe7be","system_id":"levelo_inurba_marseille","lat":43.28318,"lon":5.38916,"is_reserved":false,"is_disabled":false,"rental_uris":{"android":"levelo://app?vid=b32b0732-e4d0-4f51-ba0c-c2f5e5ffe7be","ios":"levelo://app?vid=b32b0732-e4d0-4f51-ba0c-c2f5e5ffe7be"},"vehicle_type_id":"4","last_reported":1770993283,"current_range_meters":38000,"station_id":"","pricing_plan_id":"cebpf4jnsgd1na2vs0mg"},{"bike_id":"22bf8bbf-cd32-4f83-85ac-39fc511cc93c","system_id":"levelo_inurba_marseille","lat":43.27317,"lon":5.39054,"is_reserved":false,"is_disabled":false,"rental_uris":{"android":"levelo://app?vid=22bf8bbf-cd32-4f83-85ac-39fc511cc93c","ios":"levelo://app?vid=22bf8bbf-cd32-4f83-85ac-39fc511cc93c"},"vehicle_type_id":"4","last_reported":1770993283,"current_range_meters":39200,"station_id":"ce4bhgp2rcd13ifvqfe0","pricing_plan_id":"cebpf4jnsgd1na2vs0mg"},{"bike_id":"d70814e4-d968-4b8e-817b-88544a1bc9d1","system_id":"levelo_inurba_marseille","lat":43.25027,"lon":5.38911,"is_reserved":false,"is_disabled":false,"rental_uris":{"android":"levelo://app?vid=d70814e4-d968-4b8e-817b-88544a1bc9d1","ios":"levelo://app?vid=d70814e4-d968-4b8e-817b-88544a1bc9d1"},"vehicle_type_id":"4","last_reported":1770993283,"current_range_meters":38800,"station_id":"ce4bhgp2rcd13ifvqfd0","pricing_plan_id":"cebpf4jnsgd1na2vs0mg"},{"bike_id":"a0ad932a-640c-4743-9417-fe9eb2eb7246","system_id":"levelo_inurba_marseille","lat":43.30957,"lon":5.39026,"is_reserved":false,"is_disabled":false,"rental_uris":{"android":"levelo://app?vid=a0ad932a-640c-4743-9417-fe9eb2eb7246","ios":"levelo://app?vid=a0ad932a-640c-4743-9417-fe9eb2eb7246"},"vehicle_type_id":"4","last_reported":1770993283,"current_range_meters":24000,"station_id":"ce4bgup2rcd13ifvqco0","pricing_plan_id":"cebpf4jnsgd1na2vs0mg"},{"bike_id":"222021c3-ec22-4a36-ac4b-b04533af5c98","system_id":"levelo_inurba_marseille","lat":43.29631,"lon":5.37711,"is_reserved":false,"is_disabled":false,"rental_uris":{"android":"levelo://app?vid=222021c3-ec22-4a36-ac4b-b04533af5c98","ios":"levelo://app?vid=222021c3-ec22-4a36-ac4b-b04533af5c98"},"vehicle_type_id":"4","last_reported":1770993283,"current_range_meters":30400,"station_id":"ce4bgi92rcd13ifvqb90","pricing_plan_id":"cebpf4jnsgd1na2vs0mg"},{"bike_id":"45ef4cb1-1a7b-4aba-b84c-4d3de631715f","system_id":"levelo_inurba_marseille","lat":43.301517,"lon":5.385772,"is_reserved":false,"is_disabled":false,"rental_uris":{"android":"levelo://app?vid=45ef4cb1-1a7b-4aba-b84c-4d3de631715f","ios":"levelo://app?vid=45ef4cb1-1a7b-4aba-b84c-4d3de631715f"},"vehicle_type_id":"4","last_reported":1770993283,"current_range_meters":28400,"station_id":"","pricing_plan_id":"cebpf4jnsgd1na2vs0mg"},{"bike_id":"a7130ffe-4d61-43e7-a861-09cec3ea2729","system_id":"levelo_inurba_marseille","lat":43.26824,"lon":5.40252,"is_reserved":false,"is_disabled":false,"rental_uris":{"android":"levelo://app?vid=a7130ffe-4d61-43e7-a861-09cec3ea2729","ios":"levelo://app?vid=a7130ffe-4d61-43e7-a861-09cec3ea2729"},"vehicle_type_id":"4","last_reported":1770993283,"current_range_meters":25200,"station_id":"ce501612rcd8frsf0b60","pricing_plan_id":"cebpf4jnsgd1na2vs0mg"},{"bike_id":"0c80795d-6295-47a7-b146-ecef43f63ee2","system_id":"levelo_inurba_marseille","lat":43.30905,"lon":5.36852,"is_reserved":false,"is_disabled":false,"rental_uris":{"android":"levelo://app?vid=0c80795d-6295-47a7-b146-ecef43f63ee2","ios":"levelo://app?vid=0c80795d-6295-47a7-b146-ecef43f63ee2"},"vehicle_type_id":"4","last_reported":1770993283,"current_range_meters":39200,"station_id":"ce4bgn92rcd13ifvqbvg","pricing_plan_id":"cebpf4jnsgd1na2vs0mg"},{"bike_id":"04a4cc8e-3be4-4e18-a6c7-3f4bb67f977c","system_id":"levelo_inurba_marseille","lat":43.2737,"lon":5.36257,"is_reserved":false,"is_disabled":false,"rental_uris":{"android":"levelo://app?vid=04a4cc8e-3be4-4e18-a6c7-3f4bb67f977c","ios":"levelo://app?vid=04a4cc8e-3be4-4e18-a6c7-3f4bb67f977c"},"vehicle_type_id":"4","last_reported":1770993283,"current_range_meters":39200,"station_id":"ce4bhbh2rcd13ifvqeo0","pricing_plan_id":"cebpf4jnsgd1na2vs0mg"},{"bike_id":"b466bb38-af0b-4d21-9bca-68df11ef10d9","system_id":"levelo_inurba_marseille","lat":43.28225,"lon":5.39052,"is_reserved":false,"is_disabled":false,"rental_uris":{"android":"levelo://app?vid=b466bb38-af0b-4d21-9bca-68df11ef10d9","ios":"levelo://app?vid=b466bb38-af0b-4d21-9bca-68df11ef10d9"},"vehicle_type_id":"4","last_reported":1770993283,"current_range_meters":28400,"station_id":"ce4bhn92rcd13ifvqgsg","pricing_plan_id":"cebpf4jnsgd1na2vs0mg"},{"bike_id":"764aa7da-5673-45c3-ac71-cc49219448dc","system_id":"levelo_inurba_marseille","lat":43.2975,"lon":5.37674,"is_reserved":false,"is_disabled":false,"rental_uris":{"android":"levelo://app?vid=764aa7da-5673-45c3-ac71-cc49219448dc","ios":"levelo://app?vid=764aa7da-5673-45c3-ac71-cc49219448dc"},"vehicle_type_id":"4","last_reported":1770993283,"current_range_meters":38400,"station_id":"ce4bgkh2rcd13ifvqbl0","pricing_plan_id":"cebpf4jnsgd1na2vs0mg"},{"bike_id":"cb7eff77-6031-47c6-81f6-df7eb1ca8dee","system_id":"levelo_inurba_marseille","lat":43.272159,"lon":5.391895,"is_reserved":false,"is_disabled":false,"rental_uris":{"android":"levelo://app?vid=cb7eff77-6031-47c6-81f6-df7eb1ca8dee","ios":"levelo://app?vid=cb7eff77-6031-47c6-81f6-df7eb1ca8dee"},"vehicle_type_id":"4","last_reported":1770993283,"current_range_meters":19600,"station_id":"ce4bhhp2rcd13ifvqfm0","pricing_plan_id":"cebpf4jnsgd1na2vs0mg"},{"bike_id":"8d6a5e90-b09f-4cf7-a432-f2daefeda48b","system_id":"levelo_inurba_marseille","lat":43.29708,"lon":5.37269,"is_reserved":false,"is_disabled":false,"rental_uris":{"android":"levelo://app?vid=8d6a5e90-b09f-4cf7-a432-f2daefeda48b","ios":"levelo://app?vid=8d6a5e90-b09f-4cf7-a432-f2daefeda48b"},"vehicle_type_id":"4","last_reported":1770993283,"current_range_meters":39200,"station_id":"ce4bgk12rcd13ifvqbj0","pricing_plan_id":"cebpf4jnsgd1na2vs0mg"},{"bike_id":"4b2104f7-6c2a-4adc-9588-423b7dd498b3","system_id":"levelo_inurba_marseille","lat":43.32048,"lon":5.41586,"is_reserved":false,"is_disabled":false,"rental_uris":{"android":"levelo://app?vid=4b2104f7-6c2a-4adc-9588-423b7dd498b3","ios":"levelo://app?vid=4b2104f7-6c2a-4adc-9588-423b7dd498b3"},"vehicle_type_id":"4","last_reported":1770993283,"current_range_meters":30400,"station_id":"ce4bhq92rcd13ifvqhkg","pricing_plan_id":"cebpf4jnsgd1na2vs0mg"},{"bike_id":"4e8e0241-acb1-4e10-a2b7-feb0952472c9","system_id":"levelo_inurba_marseille","lat":43.316974,"lon":5.404749,"is_reserved":false,"is_disabled":false,"rental_uris":{"android":"levelo://app?vid=4e8e0241-acb1-4e10-a2b7-feb0952472c9","ios":"levelo://app?vid=4e8e0241-acb1-4e10-a2b7-feb0952472c9"},"vehicle_type_id":"4","last_reported":1770993283,"current_range_meters":33200,"station_id":"ce4bh012rcd13ifvqd00","pricing_plan_id":"cebpf4jnsgd1na2vs0mg"},{"bike_id":"53bb3863-680c-45ee-b078-75f6bac40aa9","system_id":"levelo_inurba_marseille","lat":43.32661,"lon":5.40987,"is_reserved":false,"is_disabled":false,"rental_uris":{"android":"levelo://app?vid=53bb3863-680c-45ee-b078-75f6bac40aa9","ios":"levelo://app?vid=53bb3863-680c-45ee-b078-75f6bac40aa9"},"vehicle_type_id":"4","last_reported":1770993283,"current_range_meters":37600,"station_id":"ce4bhpp2rcd13ifvqhgg","pricing_plan_id":"cebpf4jnsgd1na2vs0mg"},{"bike_id":"80098677-e509-453f-9fc6-0838a503fcfa","system_id":"levelo_inurba_marseille","lat":43.30548,"lon":5.36522,"is_reserved":false,"is_disabled":false,"rental_uris":{"android":"levelo://app?vid=80098677-e509-453f-9fc6-0838a503fcfa","ios":"levelo://app?vid=80098677-e509-453f-9fc6-0838a503fcfa"},"vehicle_type_id":"4","last_reported":1770993283,"current_range_meters":25600,"station_id":"ce4bgs12rcd13ifvqcag","pricing_plan_id":"cebpf4jnsgd1na2vs0mg"},{"bike_id":"014613de-69aa-4aca-9291-67750cce2e69","system_id":"levelo_inurba_marseille","lat":43.28486,"lon":5.48399,"is_reserved":false,"is_disabled":false,"rental_uris":{"android":"levelo://app?vid=014613de-69aa-4aca-9291-67750cce2e69","ios":"levelo://app?vid=014613de-69aa-4aca-9291-67750cce2e69"},"vehicle_type_id":"4","last_reported":1770993283,"current_range_meters":8000,"station_id":"","pricing_plan_id":"cebpf4jnsgd1na2vs0mg"},{"bike_id":"ceafdd97-9709-4666-acdc-c6b8a34aace5","system_id":"levelo_inurba_marseille","lat":43.27199,"lon":5.40988,"is_reserved":false,"is_disabled":true,"rental_uris":{"android":"levelo://app?vid=ceafdd97-9709-4666-acdc-c6b8a34aace5","ios":"levelo://app?vid=ceafdd97-9709-4666-acdc-c6b8a34aace5"},"vehicle_type_id":"4","last_reported":1770993283,"current_range_meters":8400,"station_id":"ce4bhl12rcd13ifvqgf0","pricing_plan_id":"cebpf4jnsgd1na2vs0mg"},{"bike_id":"529f552a-3664-4b9a-b303-d5f8d620f872","system_id":"levelo_inurba_marseille","lat":43.2929,"lon":5.37431,"is_reserved":false,"is_disabled":false,"rental_uris":{"android":"levelo://app?vid=529f552a-3664-4b9a-b303-d5f8d620f872","ios":"levelo://app?vid=529f552a-3664-4b9a-b303-d5f8d620f872"},"vehicle_type_id":"4","last_reported":1770993283,"current_range_meters":38800,"station_id":"ce4bgi12rcd13ifvqb70","pricing_plan_id":"cebpf4jnsgd1na2vs0mg"},{"bike_id":"9ed7300e-a4d4-493c-95a2-a0b857cf6348","system_id":"levelo_inurba_marseille","lat":43.22552,"lon":5.41633,"is_reserved":false,"is_disabled":false,"rental_uris":{"android":"levelo://app?vid=9ed7300e-a4d4-493c-95a2-a0b857cf6348","ios":"levelo://app?vid=9ed7300e-a4d4-493c-95a2-a0b857cf6348"},"vehicle_type_id":"4","last_reported":1770993283,"current_range_meters":24000,"station_id":"st_d2o4gvlbi1j2169b742g","pricing_plan_id":"cebpf4jnsgd1na2vs0mg"},{"bike_id":"4e38e378-c06d-4287-84d5-0d6c611567e2","system_id":"levelo_inurba_marseille","lat":43.30654,"lon":5.40099,"is_reserved":false,"is_disabled":false,"rental_uris":{"android":"levelo://app?vid=4e38e378-c06d-4287-84d5-0d6c611567e2","ios":"levelo://app?vid=4e38e378-c06d-4287-84d5-0d6c611567e2"},"vehicle_type_id":"4","last_reported":1770993283,"current_range_meters":34000,"station_id":"ce4bh112rcd13ifvqda0","pricing_plan_id":"cebpf4jnsgd1na2vs0mg"},{"bike_id":"6469f620-cf22-4ac3-9bbd-d1a9aa8e544a","system_id":"levelo_inurba_marseille","lat":43.29039,"lon":5.37566,"is_reserved":false,"is_disabled":false,"rental_uris":{"android":"levelo://app?vid=6469f620-cf22-4ac3-9bbd-d1a9aa8e544a","ios":"levelo://app?vid=6469f620-cf22-4ac3-9bbd-d1a9aa8e544a"},"vehicle_type_id":"4","last_reported":1770993283,"current_range_meters":39200,"station_id":"ce4bh692rcd13ifvqe90","pricing_plan_id":"cebpf4jnsgd1na2vs0mg"},{"bike_id":"0262805c-e226-45e4-93fc-b7074a6ae543","system_id":"levelo_inurba_marseille","lat":43.30477,"lon":5.37917,"is_reserved":false,"is_disabled":false,"rental_uris":{"android":"levelo://app?vid=0262805c-e226-45e4-93fc-b7074a6ae543","ios":"levelo://app?vid=0262805c-e226-45e4-93fc-b7074a6ae543"},"vehicle_type_id":"4","last_reported":1770993283,"current_range_meters":9600,"station_id":"ce4bgup2rcd13ifvqcn0","pricing_plan_id":"cebpf4jnsgd1na2vs0mg"},{"bike_id":"6fd60fd3-1a3c-4da3-b932-0c0a0e19b894","system_id":"levelo_inurba_marseille","lat":43.28619,"lon":5.35107,"is_reserved":false,"is_disabled":false,"rental_uris":{"android":"levelo://app?vid=6fd60fd3-1a3c-4da3-b932-0c0a0e19b894","ios":"levelo://app?vid=6fd60fd3-1a3c-4da3-b932-0c0a0e19b894"},"vehicle_type_id":"4","last_reported":1770993283,"current_range_meters":38000,"station_id":"ce4bhch2rcd13ifvqeug","pricing_plan_id":"cebpf4jnsgd1na2vs0mg"},{"bike_id":"c9509313-6232-40d4-9c17-6bed5ef38be1","system_id":"levelo_inurba_marseille","lat":43.30288,"lon":5.36896,"is_reserved":false,"is_disabled":false,"rental_uris":{"android":"levelo://app?vid=c9509313-6232-40d4-9c17-6bed5ef38be1","ios":"levelo://app?vid=c9509313-6232-40d4-9c17-6bed5ef38be1"},"vehicle_type_id":"4","last_reported":1770993283,"current_range_meters":39200,"station_id":"ce4bgqh2rcd13ifvqc5g","pricing_plan_id":"cebpf4jnsgd1na2vs0mg"},{"bike_id":"99f08690-585a-47f4-b2a1-76d9c33e9f98","system_id":"levelo_inurba_marseille","lat":43.31026,"lon":5.37173,"is_reserved":false,"is_disabled":false,"rental_uris":{"android":"levelo://app?vid=99f08690-585a-47f4-b2a1-76d9c33e9f98","ios":"levelo://app?vid=99f08690-585a-47f4-b2a1-76d9c33e9f98"},"vehicle_type_id":"4","last_reported":1770993283,"current_range_meters":26800,"station_id":"st_d4kl2rp97mjs73e7tdfg","pricing_plan_id":"cebpf4jnsgd1na2vs0mg"},{"bike_id":"2918605a-55aa-4912-9807-7fd7063d5a71","system_id":"levelo_inurba_marseille","lat":43.33761,"lon":5.37486,"is_reserved":false,"is_disabled":true,"rental_uris":{"android":"levelo://app?vid=2918605a-55aa-4912-9807-7fd7063d5a71","ios":"levelo://app?vid=2918605a-55aa-4912-9807-7fd7063d5a71"},"vehicle_type_id":"4","last_reported":1770993283,"current_range_meters":0,"station_id":"","pricing_plan_id":"cebpf4jnsgd1na2vs0mg"},{"bike_id":"034224b6-2279-4cbc-9caa-f9a79eebd08e","system_id":"levelo_inurba_marseille","lat":43.312363,"lon":5.368576,"is_reserved":false,"is_disabled":false,"rental_uris":{"android":"levelo://app?vid=034224b6-2279-4cbc-9caa-f9a79eebd08e","ios":"levelo://app?vid=034224b6-2279-4cbc-9caa-f9a79eebd08e"},"vehicle_type_id":"4","last_reported":1770993283,"current_range_meters":38800,"station_id":"ce4bgl92rcd13ifvqbq0","pricing_plan_id":"cebpf4jnsgd1na2vs0mg"},{"bike_id":"4da94a7d-8514-4c90-b558-c60e6c32d0d2","system_id":"levelo_inurba_marseille","lat":43.28571,"lon":5.3947,"is_reserved":false,"is_disabled":false,"rental_uris":{"android":"levelo://app?vid=4da94a7d-8514-4c90-b558-c60e6c32d0d2","ios":"levelo://app?vid=4da94a7d-8514-4c90-b558-c60e6c32d0d2"},"vehicle_type_id":"4","last_reported":1770993283,"current_range_meters":36000,"station_id":"ce4bh292rcd13ifvqdg0","pricing_plan_id":"cebpf4jnsgd1na2vs0mg"},{"bike_id":"d5f2f6d9-7b2c-496b-9731-a83780a8cfa4","system_id":"levelo_inurba_marseille","lat":43.29709,"lon":5.37703,"is_reserved":false,"is_disabled":false,"rental_uris":{"android":"levelo://app?vid=d5f2f6d9-7b2c-496b-9731-a83780a8cfa4","ios":"levelo://app?vid=d5f2f6d9-7b2c-496b-9731-a83780a8cfa4"},"vehicle_type_id":"4","last_reported":1770993283,"current_range_meters":38800,"station_id":"ce4bgkh2rcd13ifvqbl0","pricing_plan_id":"cebpf4jnsgd1na2vs0mg"},{"bike_id":"3b7ab46d-a5b2-42ad-aec6-a2dcef907956","system_id":"levelo_inurba_marseille","lat":43.27186,"lon":5.41,"is_reserved":false,"is_disabled":false,"rental_uris":{"android":"levelo://app?vid=3b7ab46d-a5b2-42ad-aec6-a2dcef907956","ios":"levelo://app?vid=3b7ab46d-a5b2-42ad-aec6-a2dcef907956"},"vehicle_type_id":"4","last_reported":1770993283,"current_range_meters":3200,"station_id":"ce4bhl12rcd13ifvqgf0","pricing_plan_id":"cebpf4jnsgd1na2vs0mg"},{"bike_id":"d7325a56-1b3d-4511-adc0-bb3c14fa6562","system_id":"levelo_inurba_marseille","lat":43.29031,"lon":5.39957,"is_reserved":false,"is_disabled":true,"rental_uris":{"android":"levelo://app?vid=d7325a56-1b3d-4511-adc0-bb3c14fa6562","ios":"levelo://app?vid=d7325a56-1b3d-4511-adc0-bb3c14fa6562"},"vehicle_type_id":"4","last_reported":1770993283,"current_range_meters":2800,"station_id":"ce4bh392rcd13ifvqdm0","pricing_plan_id":"cebpf4jnsgd1na2vs0mg"},{"bike_id":"ae49f3a3-179b-4a3c-b353-8e601751bc8f","system_id":"levelo_inurba_marseille","lat":43.31193,"lon":5.36925,"is_reserved":false,"is_disabled":false,"rental_uris":{"android":"levelo://app?vid=ae49f3a3-179b-4a3c-b353-8e601751bc8f","ios":"levelo://app?vid=ae49f3a3-179b-4a3c-b353-8e601751bc8f"},"vehicle_type_id":"4","last_reported":1770993283,"current_range_meters":16800,"station_id":"","pricing_plan_id":"cebpf4jnsgd1na2vs0mg"},{"bike_id":"9f60b080-6b72-427d-80ed-716942ee6067","system_id":"levelo_inurba_marseille","lat":43.32482,"lon":5.38284,"is_reserved":false,"is_disabled":false,"rental_uris":{"android":"levelo://app?vid=9f60b080-6b72-427d-80ed-716942ee6067","ios":"levelo://app?vid=9f60b080-6b72-427d-80ed-716942ee6067"},"vehicle_type_id":"4","last_reported":1770993283,"current_range_meters":20400,"station_id":"st_d4asgbiv49dc73anf9m0","pricing_plan_id":"cebpf4jnsgd1na2vs0mg"},{"bike_id":"ffe3fbd4-6746-48bb-b0b5-fa7f3d6ff56c","system_id":"levelo_inurba_marseille","lat":43.310573,"lon":5.371886,"is_reserved":false,"is_disabled":false,"rental_uris":{"android":"levelo://app?vid=ffe3fbd4-6746-48bb-b0b5-fa7f3d6ff56c","ios":"levelo://app?vid=ffe3fbd4-6746-48bb-b0b5-fa7f3d6ff56c"},"vehicle_type_id":"4","last_reported":1770993283,"current_range_meters":19600,"station_id":"st_d4kl2rp97mjs73e7tdfg","pricing_plan_id":"cebpf4jnsgd1na2vs0mg"},{"bike_id":"45fd988e-0d49-4769-99cc-f8c3cf37c3ff","system_id":"levelo_inurba_marseille","lat":43.2979,"lon":5.37101,"is_reserved":false,"is_disabled":false,"rental_uris":{"android":"levelo://app?vid=45fd988e-0d49-4769-99cc-f8c3cf37c3ff","ios":"levelo://app?vid=45fd988e-0d49-4769-99cc-f8c3cf37c3ff"},"vehicle_type_id":"4","last_reported":1770993283,"current_range_meters":32000,"station_id":"ce4bgop2rcd13ifvqc1g","pricing_plan_id":"cebpf4jnsgd1na2vs0mg"},{"bike_id":"f9044c91-68e6-45b5-a6cd-cb455fa420c6","system_id":"levelo_inurba_marseille","lat":43.2795,"lon":5.38715,"is_reserved":false,"is_disabled":false,"rental_uris":{"android":"levelo://app?vid=f9044c91-68e6-45b5-a6cd-cb455fa420c6","ios":"levelo://app?vid=f9044c91-68e6-45b5-a6cd-cb455fa420c6"},"vehicle_type_id":"4","last_reported":1770993283,"current_range_meters":30800,"station_id":"ce4bhg12rcd13ifvqf80","pricing_plan_id":"cebpf4jnsgd1na2vs0mg"},{"bike_id":"51ad0198-092e-4860-b994-3420575955f1","system_id":"levelo_inurba_marseille","lat":43.22527,"lon":5.34833,"is_reserved":false,"is_disabled":false,"rental_uris":{"android":"levelo://app?vid=51ad0198-092e-4860-b994-3420575955f1","ios":"levelo://app?vid=51ad0198-092e-4860-b994-3420575955f1"},"vehicle_type_id":"4","last_reported":1770993283,"current_range_meters":4400,"station_id":"st_cvj5dfep6f1abm77gieg","pricing_plan_id":"cebpf4jnsgd1na2vs0mg"},{"bike_id":"0d9aceb2-3b42-4cee-97f0-effbb9eb5a00","system_id":"levelo_inurba_marseille","lat":43.29611,"lon":5.40555,"is_reserved":false,"is_disabled":false,"rental_uris":{"android":"levelo://app?vid=0d9aceb2-3b42-4cee-97f0-effbb9eb5a00","ios":"levelo://app?vid=0d9aceb2-3b42-4cee-97f0-effbb9eb5a00"},"vehicle_type_id":"4","last_reported":1770993283,"current_range_meters":40000,"station_id":"ce4bh0h2rcd13ifvqd60","pricing_plan_id":"cebpf4jnsgd1na2vs0mg"},{"bike_id":"362bf92e-b2dc-420e-aae8-2c8ad88723f1","system_id":"levelo_inurba_marseille","lat":43.309258,"lon":5.368461,"is_reserved":false,"is_disabled":false,"rental_uris":{"android":"levelo://app?vid=362bf92e-b2dc-420e-aae8-2c8ad88723f1","ios":"levelo://app?vid=362bf92e-b2dc-420e-aae8-2c8ad88723f1"},"vehicle_type_id":"4","last_reported":1770993283,"current_range_meters":39200,"station_id":"ce4bgn92rcd13ifvqbvg","pricing_plan_id":"cebpf4jnsgd1na2vs0mg"},{"bike_id":"2aa05e06-5366-4cfd-80c1-a6e66487250b","system_id":"levelo_inurba_marseille","lat":43.2852,"lon":5.48389,"is_reserved":false,"is_disabled":false,"rental_uris":{"android":"levelo://app?vid=2aa05e06-5366-4cfd-80c1-a6e66487250b","ios":"levelo://app?vid=2aa05e06-5366-4cfd-80c1-a6e66487250b"},"vehicle_type_id":"4","last_reported":1770993283,"current_range_meters":30000,"station_id":"","pricing_plan_id":"cebpf4jnsgd1na2vs0mg"},{"bike_id":"b705df93-0769-447d-89f1-b8944b628c8a","system_id":"levelo_inurba_marseille","lat":43.30526,"lon":5.38432,"is_reserved":false,"is_disabled":false,"rental_uris":{"android":"levelo://app?vid=b705df93-0769-447d-89f1-b8944b628c8a","ios":"levelo://app?vid=b705df93-0769-447d-89f1-b8944b628c8a"},"vehicle_type_id":"4","last_reported":1770993283,"current_range_meters":40000,"station_id":"ce4bgg92rcd13ifvqb30","pricing_plan_id":"cebpf4jnsgd1na2vs0mg"},{"bike_id":"963b299c-f0ed-46b7-9014-29e17db68b1b","system_id":"levelo_inurba_marseille","lat":43.26706,"lon":5.38265,"is_reserved":false,"is_disabled":false,"rental_uris":{"android":"levelo://app?vid=963b299c-f0ed-46b7-9014-29e17db68b1b","ios":"levelo://app?vid=963b299c-f0ed-46b7-9014-29e17db68b1b"},"vehicle_type_id":"4","last_reported":1770993283,"current_range_meters":28800,"station_id":"ce4bhg92rcd13ifvqf90","pricing_plan_id":"cebpf4jnsgd1na2vs0mg"},{"bike_id":"9d0335d2-3051-4637-a59f-b5a4ffc47957","system_id":"levelo_inurba_marseille","lat":43.326586,"lon":5.409951,"is_reserved":false,"is_disabled":false,"rental_uris":{"android":"levelo://app?vid=9d0335d2-3051-4637-a59f-b5a4ffc47957","ios":"levelo://app?vid=9d0335d2-3051-4637-a59f-b5a4ffc47957"},"vehicle_type_id":"4","last_reported":1770993283,"current_range_meters":15200,"station_id":"ce4bhpp2rcd13ifvqhgg","pricing_plan_id":"cebpf4jnsgd1na2vs0mg"},{"bike_id":"5a83dd32-1bcb-4443-a95a-d8596e8d7a14","system_id":"levelo_inurba_marseille","lat":43.27321,"lon":5.39115,"is_reserved":false,"is_disabled":false,"rental_uris":{"android":"levelo://app?vid=5a83dd32-1bcb-4443-a95a-d8596e8d7a14","ios":"levelo://app?vid=5a83dd32-1bcb-4443-a95a-d8596e8d7a14"},"vehicle_type_id":"4","last_reported":1770993283,"current_range_meters":20800,"station_id":"ce4bhgp2rcd13ifvqfe0","pricing_plan_id":"cebpf4jnsgd1na2vs0mg"},{"bike_id":"6fb6e675-460f-4429-987e-5c8d5ca05444","system_id":"levelo_inurba_marseille","lat":43.3235,"lon":5.3675,"is_reserved":false,"is_disabled":false,"rental_uris":{"android":"levelo://app?vid=6fb6e675-460f-4429-987e-5c8d5ca05444","ios":"levelo://app?vid=6fb6e675-460f-4429-987e-5c8d5ca05444"},"vehicle_type_id":"4","last_reported":1770993283,"current_range_meters":18000,"station_id":"ce4bhsh2rcd13ifvqi2g","pricing_plan_id":"cebpf4jnsgd1na2vs0mg"},{"bike_id":"13d75d5f-6e2b-42dc-978e-af2177641671","system_id":"levelo_inurba_marseille","lat":43.30328,"lon":5.36901,"is_reserved":false,"is_disabled":false,"rental_uris":{"android":"levelo://app?vid=13d75d5f-6e2b-42dc-978e-af2177641671","ios":"levelo://app?vid=13d75d5f-6e2b-42dc-978e-af2177641671"},"vehicle_type_id":"4","last_reported":1770993283,"current_range_meters":34800,"station_id":"ce4bgqh2rcd13ifvqc5g","pricing_plan_id":"cebpf4jnsgd1na2vs0mg"},{"bike_id":"8864f6b7-1b6c-416e-9bf7-d904161c6757","system_id":"levelo_inurba_marseille","lat":43.25827,"lon":5.39422,"is_reserved":false,"is_disabled":false,"rental_uris":{"android":"levelo://app?vid=8864f6b7-1b6c-416e-9bf7-d904161c6757","ios":"levelo://app?vid=8864f6b7-1b6c-416e-9bf7-d904161c6757"},"vehicle_type_id":"4","last_reported":1770993283,"current_range_meters":24800,"station_id":"ce4bhip2rcd13ifvqft0","pricing_plan_id":"cebpf4jnsgd1na2vs0mg"},{"bike_id":"7ff8f1b8-aa67-4d09-9b1e-6734c846f83c","system_id":"levelo_inurba_marseille","lat":43.26585,"lon":5.39003,"is_reserved":false,"is_disabled":false,"rental_uris":{"android":"levelo://app?vid=7ff8f1b8-aa67-4d09-9b1e-6734c846f83c","ios":"levelo://app?vid=7ff8f1b8-aa67-4d09-9b1e-6734c846f83c"},"vehicle_type_id":"4","last_reported":1770993283,"current_range_meters":11200,"station_id":"ce4bhe12rcd13ifvqf30","pricing_plan_id":"cebpf4jnsgd1na2vs0mg"},{"bike_id":"b4d189b8-9f2a-4ed9-9d35-e8637ad6e2ba","system_id":"levelo_inurba_marseille","lat":43.31042,"lon":5.37179,"is_reserved":false,"is_disabled":false,"rental_uris":{"android":"levelo://app?vid=b4d189b8-9f2a-4ed9-9d35-e8637ad6e2ba","ios":"levelo://app?vid=b4d189b8-9f2a-4ed9-9d35-e8637ad6e2ba"},"vehicle_type_id":"4","last_reported":1770993283,"current_range_meters":25200,"station_id":"st_d4kl2rp97mjs73e7tdfg","pricing_plan_id":"cebpf4jnsgd1na2vs0mg"},{"bike_id":"c9d3ad45-6569-42b0-af42-b0de838f29a6","system_id":"levelo_inurba_marseille","lat":43.301374,"lon":5.374091,"is_reserved":false,"is_disabled":false,"rental_uris":{"android":"levelo://app?vid=c9d3ad45-6569-42b0-af42-b0de838f29a6","ios":"levelo://app?vid=c9d3ad45-6569-42b0-af42-b0de838f29a6"},"vehicle_type_id":"4","last_reported":1770993283,"current_range_meters":38000,"station_id":"ce4bgs92rcd13ifvqcc0","pricing_plan_id":"cebpf4jnsgd1na2vs0mg"},{"bike_id":"0b4aaea2-35f7-42c2-b087-ed81f1658c46","system_id":"levelo_inurba_marseille","lat":43.29594,"lon":5.36732,"is_reserved":false,"is_disabled":false,"rental_uris":{"android":"levelo://app?vid=0b4aaea2-35f7-42c2-b087-ed81f1658c46","ios":"levelo://app?vid=0b4aaea2-35f7-42c2-b087-ed81f1658c46"},"vehicle_type_id":"4","last_reported":1770993283,"current_range_meters":36800,"station_id":"ce4bgph2rcd13ifvqc2g","pricing_plan_id":"cebpf4jnsgd1na2vs0mg"},{"bike_id":"8962f9eb-cdb9-49f0-b636-3da76321cb58","system_id":"levelo_inurba_marseille","lat":43.29013,"lon":5.35592,"is_reserved":false,"is_disabled":false,"rental_uris":{"android":"levelo://app?vid=8962f9eb-cdb9-49f0-b636-3da76321cb58","ios":"levelo://app?vid=8962f9eb-cdb9-49f0-b636-3da76321cb58"},"vehicle_type_id":"4","last_reported":1770993283,"current_range_meters":10800,"station_id":"ce4bhb92rcd13ifvqen0","pricing_plan_id":"cebpf4jnsgd1na2vs0mg"},{"bike_id":"3e0d3244-7eed-4d9c-9106-268305521b5e","system_id":"levelo_inurba_marseille","lat":43.26955,"lon":5.40249,"is_reserved":false,"is_disabled":false,"rental_uris":{"android":"levelo://app?vid=3e0d3244-7eed-4d9c-9106-268305521b5e","ios":"levelo://app?vid=3e0d3244-7eed-4d9c-9106-268305521b5e"},"vehicle_type_id":"4","last_reported":1770993283,"current_range_meters":39200,"station_id":"cjm6bp8fraef2m0cb0m0","pricing_plan_id":"cebpf4jnsgd1na2vs0mg"},{"bike_id":"91a16e74-f75c-43e6-9998-5c1ca801894b","system_id":"levelo_inurba_marseille","lat":43.29058,"lon":5.3754,"is_reserved":false,"is_disabled":false,"rental_uris":{"android":"levelo://app?vid=91a16e74-f75c-43e6-9998-5c1ca801894b","ios":"levelo://app?vid=91a16e74-f75c-43e6-9998-5c1ca801894b"},"vehicle_type_id":"4","last_reported":1770993283,"current_range_meters":20000,"station_id":"ce4bh692rcd13ifvqe90","pricing_plan_id":"cebpf4jnsgd1na2vs0mg"},{"bike_id":"126a81e4-8e58-4dfa-88b9-84ffdb68fd7a","system_id":"levelo_inurba_marseille","lat":43.30149,"lon":5.374,"is_reserved":false,"is_disabled":false,"rental_uris":{"android":"levelo://app?vid=126a81e4-8e58-4dfa-88b9-84ffdb68fd7a","ios":"levelo://app?vid=126a81e4-8e58-4dfa-88b9-84ffdb68fd7a"},"vehicle_type_id":"4","last_reported":1770993283,"current_range_meters":19200,"station_id":"ce4bgs92rcd13ifvqcc0","pricing_plan_id":"cebpf4jnsgd1na2vs0mg"},{"bike_id":"e29024b3-288c-4d8b-ba32-8553041a7294","system_id":"levelo_inurba_marseille","lat":43.25921,"lon":5.40872,"is_reserved":false,"is_disabled":false,"rental_uris":{"android":"levelo://app?vid=e29024b3-288c-4d8b-ba32-8553041a7294","ios":"levelo://app?vid=e29024b3-288c-4d8b-ba32-8553041a7294"},"vehicle_type_id":"4","last_reported":1770993283,"current_range_meters":8400,"station_id":"ce4bhm92rcd13ifvqglg","pricing_plan_id":"cebpf4jnsgd1na2vs0mg"},{"bike_id":"b8220e2e-a896-4c7a-8d8b-ba094df5a98b","system_id":"levelo_inurba_marseille","lat":43.3054,"lon":5.36683,"is_reserved":false,"is_disabled":false,"rental_uris":{"android":"levelo://app?vid=b8220e2e-a896-4c7a-8d8b-ba094df5a98b","ios":"levelo://app?vid=b8220e2e-a896-4c7a-8d8b-ba094df5a98b"},"vehicle_type_id":"4","last_reported":1770993283,"current_range_meters":39200,"station_id":"ce4bgrp2rcd13ifvqc9g","pricing_plan_id":"cebpf4jnsgd1na2vs0mg"},{"bike_id":"3c189d89-9ba1-4956-b004-0844860e5628","system_id":"levelo_inurba_marseille","lat":43.28621,"lon":5.35093,"is_reserved":false,"is_disabled":false,"rental_uris":{"android":"levelo://app?vid=3c189d89-9ba1-4956-b004-0844860e5628","ios":"levelo://app?vid=3c189d89-9ba1-4956-b004-0844860e5628"},"vehicle_type_id":"4","last_reported":1770993283,"current_range_meters":38400,"station_id":"ce4bhch2rcd13ifvqeug","pricing_plan_id":"cebpf4jnsgd1na2vs0mg"},{"bike_id":"d4078c0d-0ab2-4898-ba9f-81aff7cd2cef","system_id":"levelo_inurba_marseille","lat":43.30526,"lon":5.3654,"is_reserved":false,"is_disabled":false,"rental_uris":{"android":"levelo://app?vid=d4078c0d-0ab2-4898-ba9f-81aff7cd2cef","ios":"levelo://app?vid=d4078c0d-0ab2-4898-ba9f-81aff7cd2cef"},"vehicle_type_id":"4","last_reported":1770993283,"current_range_meters":39200,"station_id":"ce4bgs12rcd13ifvqcag","pricing_plan_id":"cebpf4jnsgd1na2vs0mg"},{"bike_id":"3029fd03-fcab-4cd9-9277-025369248c19","system_id":"levelo_inurba_marseille","lat":43.26188,"lon":5.37446,"is_reserved":false,"is_disabled":false,"rental_uris":{"android":"levelo://app?vid=3029fd03-fcab-4cd9-9277-025369248c19","ios":"levelo://app?vid=3029fd03-fcab-4cd9-9277-025369248c19"},"vehicle_type_id":"4","last_reported":1770993283,"current_range_meters":23200,"station_id":"ce4bhgp2rcd13ifvqfc0","pricing_plan_id":"cebpf4jnsgd1na2vs0mg"},{"bike_id":"7295d5a0-48b8-4162-a542-c0d6b0b0a355","system_id":"levelo_inurba_marseille","lat":43.31702,"lon":5.40469,"is_reserved":false,"is_disabled":false,"rental_uris":{"android":"levelo://app?vid=7295d5a0-48b8-4162-a542-c0d6b0b0a355","ios":"levelo://app?vid=7295d5a0-48b8-4162-a542-c0d6b0b0a355"},"vehicle_type_id":"4","last_reported":1770993283,"current_range_meters":21600,"station_id":"ce4bh012rcd13ifvqd00","pricing_plan_id":"cebpf4jnsgd1na2vs0mg"},{"bike_id":"554699fc-9f66-4d5e-bfab-798964aef5e7","system_id":"levelo_inurba_marseille","lat":43.299733,"lon":5.384924,"is_reserved":false,"is_disabled":false,"rental_uris":{"android":"levelo://app?vid=554699fc-9f66-4d5e-bfab-798964aef5e7","ios":"levelo://app?vid=554699fc-9f66-4d5e-bfab-798964aef5e7"},"vehicle_type_id":"4","last_reported":1770993283,"current_range_meters":8400,"station_id":"ce4bgj92rcd13ifvqbd0","pricing_plan_id":"cebpf4jnsgd1na2vs0mg"},{"bike_id":"f06d538b-97fe-4530-9d3d-a633bac60e6e","system_id":"levelo_inurba_marseille","lat":43.269402,"lon":5.40254,"is_reserved":false,"is_disabled":false,"rental_uris":{"android":"levelo://app?vid=f06d538b-97fe-4530-9d3d-a633bac60e6e","ios":"levelo://app?vid=f06d538b-97fe-4530-9d3d-a633bac60e6e"},"vehicle_type_id":"4","last_reported":1770993283,"current_range_meters":8000,"station_id":"cjm6bp8fraef2m0cb0m0","pricing_plan_id":"cebpf4jnsgd1na2vs0mg"},{"bike_id":"93793153-cad8-4458-a12c-01dc37d29716","system_id":"levelo_inurba_marseille","lat":43.29925,"lon":5.38132,"is_reserved":false,"is_disabled":false,"rental_uris":{"android":"levelo://app?vid=93793153-cad8-4458-a12c-01dc37d29716","ios":"levelo://app?vid=93793153-cad8-4458-a12c-01dc37d29716"},"vehicle_type_id":"4","last_reported":1770993283,"current_range_meters":39200,"station_id":"ce4bgj12rcd13ifvqbc0","pricing_plan_id":"cebpf4jnsgd1na2vs0mg"},{"bike_id":"d68566f4-9a21-48da-9994-64ca50a7e3b3","system_id":"levelo_inurba_marseille","lat":43.32073,"lon":5.41535,"is_reserved":false,"is_disabled":false,"rental_uris":{"android":"levelo://app?vid=d68566f4-9a21-48da-9994-64ca50a7e3b3","ios":"levelo://app?vid=d68566f4-9a21-48da-9994-64ca50a7e3b3"},"vehicle_type_id":"4","last_reported":1770993283,"current_range_meters":24000,"station_id":"ce4bhq92rcd13ifvqhkg","pricing_plan_id":"cebpf4jnsgd1na2vs0mg"},{"bike_id":"0b6a3ee0-ac2b-4065-8e54-e1d5bc51fe61","system_id":"levelo_inurba_marseille","lat":43.28722,"lon":5.37939,"is_reserved":false,"is_disabled":false,"rental_uris":{"android":"levelo://app?vid=0b6a3ee0-ac2b-4065-8e54-e1d5bc51fe61","ios":"levelo://app?vid=0b6a3ee0-ac2b-4065-8e54-e1d5bc51fe61"},"vehicle_type_id":"4","last_reported":1770993283,"current_range_meters":28800,"station_id":"ce4bh9p2rcd13ifvqec0","pricing_plan_id":"cebpf4jnsgd1na2vs0mg"},{"bike_id":"11bbe498-cd8f-4b2e-8e45-54529a7a0a47","system_id":"levelo_inurba_marseille","lat":43.29755,"lon":5.42778,"is_reserved":false,"is_disabled":false,"rental_uris":{"android":"levelo://app?vid=11bbe498-cd8f-4b2e-8e45-54529a7a0a47","ios":"levelo://app?vid=11bbe498-cd8f-4b2e-8e45-54529a7a0a47"},"vehicle_type_id":"4","last_reported":1770993283,"current_range_meters":16800,"station_id":"st_d3md5207bmas73dh9klg","pricing_plan_id":"cebpf4jnsgd1na2vs0mg"},{"bike_id":"e3fb5a41-586e-4f8c-8c02-b942f88d994a","system_id":"levelo_inurba_marseille","lat":43.2848,"lon":5.38414,"is_reserved":false,"is_disabled":false,"rental_uris":{"android":"levelo://app?vid=e3fb5a41-586e-4f8c-8c02-b942f88d994a","ios":"levelo://app?vid=e3fb5a41-586e-4f8c-8c02-b942f88d994a"},"vehicle_type_id":"4","last_reported":1770993283,"current_range_meters":32800,"station_id":"ce4bh512rcd13ifvqe3g","pricing_plan_id":"cebpf4jnsgd1na2vs0mg"},{"bike_id":"90b2eb3d-b8cf-47c7-bcb8-5d5b5f49b9b7","system_id":"levelo_inurba_marseille","lat":43.2659,"lon":5.39025,"is_reserved":false,"is_disabled":true,"rental_uris":{"android":"levelo://app?vid=90b2eb3d-b8cf-47c7-bcb8-5d5b5f49b9b7","ios":"levelo://app?vid=90b2eb3d-b8cf-47c7-bcb8-5d5b5f49b9b7"},"vehicle_type_id":"4","last_reported":1770993283,"current_range_meters":35200,"station_id":"ce4bhe12rcd13ifvqf30","pricing_plan_id":"cebpf4jnsgd1na2vs0mg"},{"bike_id":"db85d612-2486-4180-a7a9-4b56d8d31f7d","system_id":"levelo_inurba_marseille","lat":43.29272,"lon":5.3684,"is_reserved":false,"is_disabled":false,"rental_uris":{"android":"levelo://app?vid=db85d612-2486-4180-a7a9-4b56d8d31f7d","ios":"levelo://app?vid=db85d612-2486-4180-a7a9-4b56d8d31f7d"},"vehicle_type_id":"4","last_reported":1770993283,"current_range_meters":39200,"station_id":"ce4bhbp2rcd13ifvqesg","pricing_plan_id":"cebpf4jnsgd1na2vs0mg"},{"bike_id":"11434cf1-d6f8-4e1a-8ad6-be51503532dc","system_id":"levelo_inurba_marseille","lat":43.30463,"lon":5.37904,"is_reserved":false,"is_disabled":false,"rental_uris":{"android":"levelo://app?vid=11434cf1-d6f8-4e1a-8ad6-be51503532dc","ios":"levelo://app?vid=11434cf1-d6f8-4e1a-8ad6-be51503532dc"},"vehicle_type_id":"4","last_reported":1770993283,"current_range_meters":38400,"station_id":"ce4bgup2rcd13ifvqcn0","pricing_plan_id":"cebpf4jnsgd1na2vs0mg"},{"bike_id":"6f6a04ad-dd00-4f4a-bdfd-a835cfa0cc11","system_id":"levelo_inurba_marseille","lat":43.27097,"lon":5.38288,"is_reserved":false,"is_disabled":false,"rental_uris":{"android":"levelo://app?vid=6f6a04ad-dd00-4f4a-bdfd-a835cfa0cc11","ios":"levelo://app?vid=6f6a04ad-dd00-4f4a-bdfd-a835cfa0cc11"},"vehicle_type_id":"4","last_reported":1770993283,"current_range_meters":38000,"station_id":"st_d3n2fo6cfp8s73cte1j0","pricing_plan_id":"cebpf4jnsgd1na2vs0mg"},{"bike_id":"4e358626-0c07-426b-aaad-f80053802c7b","system_id":"levelo_inurba_marseille","lat":43.29478,"lon":5.39103,"is_reserved":false,"is_disabled":false,"rental_uris":{"android":"levelo://app?vid=4e358626-0c07-426b-aaad-f80053802c7b","ios":"levelo://app?vid=4e358626-0c07-426b-aaad-f80053802c7b"},"vehicle_type_id":"4","last_reported":1770993283,"current_range_meters":35200,"station_id":"","pricing_plan_id":"cebpf4jnsgd1na2vs0mg"},{"bike_id":"4e4c79b4-286f-458a-a494-98664f2e8591","system_id":"levelo_inurba_marseille","lat":43.33125,"lon":5.39271,"is_reserved":false,"is_disabled":false,"rental_uris":{"android":"levelo://app?vid=4e4c79b4-286f-458a-a494-98664f2e8591","ios":"levelo://app?vid=4e4c79b4-286f-458a-a494-98664f2e8591"},"vehicle_type_id":"4","last_reported":1770993283,"current_range_meters":38400,"station_id":"","pricing_plan_id":"cebpf4jnsgd1na2vs0mg"},{"bike_id":"840f6b9f-bd92-41cb-b197-57aa49d32f21","system_id":"levelo_inurba_marseille","lat":43.29054,"lon":5.37549,"is_reserved":false,"is_disabled":false,"rental_uris":{"android":"levelo://app?vid=840f6b9f-bd92-41cb-b197-57aa49d32f21","ios":"levelo://app?vid=840f6b9f-bd92-41cb-b197-57aa49d32f21"},"vehicle_type_id":"4","last_reported":1770993283,"current_range_meters":36000,"station_id":"ce4bh692rcd13ifvqe90","pricing_plan_id":"cebpf4jnsgd1na2vs0mg"},{"bike_id":"96b90088-378f-4a6c-8b9c-7f13bf8886ff","system_id":"levelo_inurba_marseille","lat":43.30541,"lon":5.36525,"is_reserved":false,"is_disabled":false,"rental_uris":{"android":"levelo://app?vid=96b90088-378f-4a6c-8b9c-7f13bf8886ff","ios":"levelo://app?vid=96b90088-378f-4a6c-8b9c-7f13bf8886ff"},"vehicle_type_id":"4","last_reported":1770993283,"current_range_meters":32800,"station_id":"ce4bgs12rcd13ifvqcag","pricing_plan_id":"cebpf4jnsgd1na2vs0mg"},{"bike_id":"c8d3deb4-912b-417b-a80c-9490cc095215","system_id":"levelo_inurba_marseille","lat":43.2983,"lon":5.37602,"is_reserved":false,"is_disabled":false,"rental_uris":{"android":"levelo://app?vid=c8d3deb4-912b-417b-a80c-9490cc095215","ios":"levelo://app?vid=c8d3deb4-912b-417b-a80c-9490cc095215"},"vehicle_type_id":"4","last_reported":1770993283,"current_range_meters":34000,"station_id":"","pricing_plan_id":"cebpf4jnsgd1na2vs0mg"},{"bike_id":"888d9334-b523-4653-8f06-f29b5a0baabd","system_id":"levelo_inurba_marseille","lat":43.25751,"lon":5.41089,"is_reserved":false,"is_disabled":false,"rental_uris":{"android":"levelo://app?vid=888d9334-b523-4653-8f06-f29b5a0baabd","ios":"levelo://app?vid=888d9334-b523-4653-8f06-f29b5a0baabd"},"vehicle_type_id":"4","last_reported":1770993283,"current_range_meters":34800,"station_id":"ce4bhkp2rcd13ifvqgd0","pricing_plan_id":"cebpf4jnsgd1na2vs0mg"},{"bike_id":"f09d766a-963f-4eb3-adda-576d456052e7","system_id":"levelo_inurba_marseille","lat":43.23969,"lon":5.36628,"is_reserved":false,"is_disabled":false,"rental_uris":{"android":"levelo://app?vid=f09d766a-963f-4eb3-adda-576d456052e7","ios":"levelo://app?vid=f09d766a-963f-4eb3-adda-576d456052e7"},"vehicle_type_id":"4","last_reported":1770993283,"current_range_meters":33600,"station_id":"ce4bhi12rcd13ifvqfp0","pricing_plan_id":"cebpf4jnsgd1na2vs0mg"},{"bike_id":"d8a21cf0-3eda-42f6-b76b-99e4c0602b17","system_id":"levelo_inurba_marseille","lat":43.24488,"lon":5.37646,"is_reserved":false,"is_disabled":false,"rental_uris":{"android":"levelo://app?vid=d8a21cf0-3eda-42f6-b76b-99e4c0602b17","ios":"levelo://app?vid=d8a21cf0-3eda-42f6-b76b-99e4c0602b17"},"vehicle_type_id":"4","last_reported":1770993283,"current_range_meters":36800,"station_id":"","pricing_plan_id":"cebpf4jnsgd1na2vs0mg"},{"bike_id":"003ead77-8f64-427b-8227-c5967b272ee2","system_id":"levelo_inurba_marseille","lat":43.263723,"lon":5.410704,"is_reserved":false,"is_disabled":false,"rental_uris":{"android":"levelo://app?vid=003ead77-8f64-427b-8227-c5967b272ee2","ios":"levelo://app?vid=003ead77-8f64-427b-8227-c5967b272ee2"},"vehicle_type_id":"4","last_reported":1770993283,"current_range_meters":20000,"station_id":"st_d4e5ca6na9uc73bfl5fg","pricing_plan_id":"cebpf4jnsgd1na2vs0mg"},{"bike_id":"bb9d4fa8-a6c6-4b37-8296-006d271da3f9","system_id":"levelo_inurba_marseille","lat":43.24981,"lon":5.38931,"is_reserved":false,"is_disabled":false,"rental_uris":{"android":"levelo://app?vid=bb9d4fa8-a6c6-4b37-8296-006d271da3f9","ios":"levelo://app?vid=bb9d4fa8-a6c6-4b37-8296-006d271da3f9"},"vehicle_type_id":"4","last_reported":1770993283,"current_range_meters":28800,"station_id":"ce4bhgp2rcd13ifvqfd0","pricing_plan_id":"cebpf4jnsgd1na2vs0mg"},{"bike_id":"9326bb6a-10f4-4219-97c3-64d7c59774cf","system_id":"levelo_inurba_marseille","lat":43.31013,"lon":5.37162,"is_reserved":false,"is_disabled":false,"rental_uris":{"android":"levelo://app?vid=9326bb6a-10f4-4219-97c3-64d7c59774cf","ios":"levelo://app?vid=9326bb6a-10f4-4219-97c3-64d7c59774cf"},"vehicle_type_id":"4","last_reported":1770993283,"current_range_meters":3600,"station_id":"","pricing_plan_id":"cebpf4jnsgd1na2vs0mg"},{"bike_id":"2f0b85aa-c457-4958-914e-08f5ab13887b","system_id":"levelo_inurba_marseille","lat":43.24038,"lon":5.37739,"is_reserved":false,"is_disabled":false,"rental_uris":{"android":"levelo://app?vid=2f0b85aa-c457-4958-914e-08f5ab13887b","ios":"levelo://app?vid=2f0b85aa-c457-4958-914e-08f5ab13887b"},"vehicle_type_id":"4","last_reported":1770993283,"current_range_meters":32800,"station_id":"ce4bhnp2rcd13ifvqgvg","pricing_plan_id":"cebpf4jnsgd1na2vs0mg"},{"bike_id":"978d2f99-2f31-4c4e-be2a-4e68224c9eda","system_id":"levelo_inurba_marseille","lat":43.26812,"lon":5.40257,"is_reserved":false,"is_disabled":false,"rental_uris":{"android":"levelo://app?vid=978d2f99-2f31-4c4e-be2a-4e68224c9eda","ios":"levelo://app?vid=978d2f99-2f31-4c4e-be2a-4e68224c9eda"},"vehicle_type_id":"4","last_reported":1770993283,"current_range_meters":30400,"station_id":"ce501612rcd8frsf0b60","pricing_plan_id":"cebpf4jnsgd1na2vs0mg"},{"bike_id":"db4f636e-b232-46b1-867e-c76f4ae9dc3e","system_id":"levelo_inurba_marseille","lat":43.321,"lon":5.36774,"is_reserved":false,"is_disabled":false,"rental_uris":{"android":"levelo://app?vid=db4f636e-b232-46b1-867e-c76f4ae9dc3e","ios":"levelo://app?vid=db4f636e-b232-46b1-867e-c76f4ae9dc3e"},"vehicle_type_id":"4","last_reported":1770993283,"current_range_meters":21600,"station_id":"ce4bhrh2rcd13ifvqhug","pricing_plan_id":"cebpf4jnsgd1na2vs0mg"},{"bike_id":"71985d27-c35e-40ae-a1cc-525e0b1c182c","system_id":"levelo_inurba_marseille","lat":43.29972,"lon":5.37123,"is_reserved":false,"is_disabled":false,"rental_uris":{"android":"levelo://app?vid=71985d27-c35e-40ae-a1cc-525e0b1c182c","ios":"levelo://app?vid=71985d27-c35e-40ae-a1cc-525e0b1c182c"},"vehicle_type_id":"4","last_reported":1770993283,"current_range_meters":38400,"station_id":"ce4bgr92rcd13ifvqc7g","pricing_plan_id":"cebpf4jnsgd1na2vs0mg"},{"bike_id":"18b72aa7-e8b0-4c07-a721-356aabe5742d","system_id":"levelo_inurba_marseille","lat":43.30179,"lon":5.36607,"is_reserved":false,"is_disabled":false,"rental_uris":{"android":"levelo://app?vid=18b72aa7-e8b0-4c07-a721-356aabe5742d","ios":"levelo://app?vid=18b72aa7-e8b0-4c07-a721-356aabe5742d"},"vehicle_type_id":"4","last_reported":1770993283,"current_range_meters":39200,"station_id":"ce4bgrh2rcd13ifvqc8g","pricing_plan_id":"cebpf4jnsgd1na2vs0mg"},{"bike_id":"7a42b74f-0133-4163-bbdd-868aab48be2f","system_id":"levelo_inurba_marseille","lat":43.27066,"lon":5.4026,"is_reserved":false,"is_disabled":false,"rental_uris":{"android":"levelo://app?vid=7a42b74f-0133-4163-bbdd-868aab48be2f","ios":"levelo://app?vid=7a42b74f-0133-4163-bbdd-868aab48be2f"},"vehicle_type_id":"4","last_reported":1770993283,"current_range_meters":36800,"station_id":"ce4bhk92rcd13ifvqgc0","pricing_plan_id":"cebpf4jnsgd1na2vs0mg"},{"bike_id":"26b9490d-b8b6-4151-b110-b5d8464ecb96","system_id":"levelo_inurba_marseille","lat":43.29255,"lon":5.40903,"is_reserved":false,"is_disabled":false,"rental_uris":{"android":"levelo://app?vid=26b9490d-b8b6-4151-b110-b5d8464ecb96","ios":"levelo://app?vid=26b9490d-b8b6-4151-b110-b5d8464ecb96"},"vehicle_type_id":"4","last_reported":1770993283,"current_range_meters":38800,"station_id":"ce4bh192rcd13ifvqdc0","pricing_plan_id":"cebpf4jnsgd1na2vs0mg"},{"bike_id":"bf867d07-c991-4244-a908-0c5fb541f292","system_id":"levelo_inurba_marseille","lat":43.23972,"lon":5.36613,"is_reserved":false,"is_disabled":false,"rental_uris":{"android":"levelo://app?vid=bf867d07-c991-4244-a908-0c5fb541f292","ios":"levelo://app?vid=bf867d07-c991-4244-a908-0c5fb541f292"},"vehicle_type_id":"4","last_reported":1770993283,"current_range_meters":39200,"station_id":"ce4bhi12rcd13ifvqfp0","pricing_plan_id":"cebpf4jnsgd1na2vs0mg"},{"bike_id":"88ff9439-db02-4be2-a9f2-dbfd8e7a5968","system_id":"levelo_inurba_marseille","lat":43.25852,"lon":5.39902,"is_reserved":false,"is_disabled":false,"rental_uris":{"android":"levelo://app?vid=88ff9439-db02-4be2-a9f2-dbfd8e7a5968","ios":"levelo://app?vid=88ff9439-db02-4be2-a9f2-dbfd8e7a5968"},"vehicle_type_id":"4","last_reported":1770993283,"current_range_meters":38000,"station_id":"ce4bhl92rcd13ifvqghg","pricing_plan_id":"cebpf4jnsgd1na2vs0mg"},{"bike_id":"fa082a07-9b27-446f-993f-54c333e5bcd3","system_id":"levelo_inurba_marseille","lat":43.27833,"lon":5.40711,"is_reserved":false,"is_disabled":false,"rental_uris":{"android":"levelo://app?vid=fa082a07-9b27-446f-993f-54c333e5bcd3","ios":"levelo://app?vid=fa082a07-9b27-446f-993f-54c333e5bcd3"},"vehicle_type_id":"4","last_reported":1770993283,"current_range_meters":33600,"station_id":"ce4bhnh2rcd13ifvqgtg","pricing_plan_id":"cebpf4jnsgd1na2vs0mg"},{"bike_id":"d30d7d9e-611d-4920-9b2d-b4a912454982","system_id":"levelo_inurba_marseille","lat":43.313,"lon":5.37769,"is_reserved":false,"is_disabled":false,"rental_uris":{"android":"levelo://app?vid=d30d7d9e-611d-4920-9b2d-b4a912454982","ios":"levelo://app?vid=d30d7d9e-611d-4920-9b2d-b4a912454982"},"vehicle_type_id":"4","last_reported":1770993283,"current_range_meters":6000,"station_id":"","pricing_plan_id":"cebpf4jnsgd1na2vs0mg"},{"bike_id":"035000af-6037-428f-ba10-e775b418190c","system_id":"levelo_inurba_marseille","lat":43.25011,"lon":5.38945,"is_reserved":false,"is_disabled":false,"rental_uris":{"android":"levelo://app?vid=035000af-6037-428f-ba10-e775b418190c","ios":"levelo://app?vid=035000af-6037-428f-ba10-e775b418190c"},"vehicle_type_id":"4","last_reported":1770993283,"current_range_meters":25600,"station_id":"ce4bhgp2rcd13ifvqfd0","pricing_plan_id":"cebpf4jnsgd1na2vs0mg"},{"bike_id":"a08e432b-50d2-4ce1-b298-be02f429a7ad","system_id":"levelo_inurba_marseille","lat":43.25499,"lon":5.37639,"is_reserved":false,"is_disabled":false,"rental_uris":{"android":"levelo://app?vid=a08e432b-50d2-4ce1-b298-be02f429a7ad","ios":"levelo://app?vid=a08e432b-50d2-4ce1-b298-be02f429a7ad"},"vehicle_type_id":"4","last_reported":1770993283,"current_range_meters":28000,"station_id":"","pricing_plan_id":"cebpf4jnsgd1na2vs0mg"},{"bike_id":"6818d9fe-f041-4076-8020-df310c1bae40","system_id":"levelo_inurba_marseille","lat":43.30225,"lon":5.38093,"is_reserved":false,"is_disabled":false,"rental_uris":{"android":"levelo://app?vid=6818d9fe-f041-4076-8020-df310c1bae40","ios":"levelo://app?vid=6818d9fe-f041-4076-8020-df310c1bae40"},"vehicle_type_id":"4","last_reported":1770993283,"current_range_meters":32000,"station_id":"ce4bgjp2rcd13ifvqbh0","pricing_plan_id":"cebpf4jnsgd1na2vs0mg"},{"bike_id":"8fd4569f-4513-4bcf-9440-02144f737ba7","system_id":"levelo_inurba_marseille","lat":43.31043,"lon":5.37158,"is_reserved":false,"is_disabled":false,"rental_uris":{"android":"levelo://app?vid=8fd4569f-4513-4bcf-9440-02144f737ba7","ios":"levelo://app?vid=8fd4569f-4513-4bcf-9440-02144f737ba7"},"vehicle_type_id":"4","last_reported":1770993283,"current_range_meters":22000,"station_id":"st_d4kl2rp97mjs73e7tdfg","pricing_plan_id":"cebpf4jnsgd1na2vs0mg"},{"bike_id":"180f5099-4b3b-4705-969e-2ad7a80fa9ca","system_id":"levelo_inurba_marseille","lat":43.30187,"lon":5.36595,"is_reserved":false,"is_disabled":false,"rental_uris":{"android":"levelo://app?vid=180f5099-4b3b-4705-969e-2ad7a80fa9ca","ios":"levelo://app?vid=180f5099-4b3b-4705-969e-2ad7a80fa9ca"},"vehicle_type_id":"4","last_reported":1770993283,"current_range_meters":3200,"station_id":"ce4bgrh2rcd13ifvqc8g","pricing_plan_id":"cebpf4jnsgd1na2vs0mg"},{"bike_id":"8491b334-0ba7-4277-9797-3edac002b21f","system_id":"levelo_inurba_marseille","lat":43.26235,"lon":5.40448,"is_reserved":false,"is_disabled":false,"rental_uris":{"android":"levelo://app?vid=8491b334-0ba7-4277-9797-3edac002b21f","ios":"levelo://app?vid=8491b334-0ba7-4277-9797-3edac002b21f"},"vehicle_type_id":"4","last_reported":1770993283,"current_range_meters":17200,"station_id":"ce4bhmh2rcd13ifvqgmg","pricing_plan_id":"cebpf4jnsgd1na2vs0mg"},{"bike_id":"6c78efb4-21ea-48b6-a077-5447702c0f63","system_id":"levelo_inurba_marseille","lat":43.29889,"lon":5.43666,"is_reserved":false,"is_disabled":false,"rental_uris":{"android":"levelo://app?vid=6c78efb4-21ea-48b6-a077-5447702c0f63","ios":"levelo://app?vid=6c78efb4-21ea-48b6-a077-5447702c0f63"},"vehicle_type_id":"4","last_reported":1770993283,"current_range_meters":32400,"station_id":"ce4bhpp2rcd13ifvqhfg","pricing_plan_id":"cebpf4jnsgd1na2vs0mg"},{"bike_id":"87e52233-7157-484b-968d-b0beff0b44bb","system_id":"levelo_inurba_marseille","lat":43.26948,"lon":5.40253,"is_reserved":false,"is_disabled":false,"rental_uris":{"android":"levelo://app?vid=87e52233-7157-484b-968d-b0beff0b44bb","ios":"levelo://app?vid=87e52233-7157-484b-968d-b0beff0b44bb"},"vehicle_type_id":"4","last_reported":1770993283,"current_range_meters":26800,"station_id":"cjm6bp8fraef2m0cb0m0","pricing_plan_id":"cebpf4jnsgd1na2vs0mg"},{"bike_id":"b33bcc51-f264-4068-9c15-17ea450a49e6","system_id":"levelo_inurba_marseille","lat":43.30651,"lon":5.40097,"is_reserved":false,"is_disabled":true,"rental_uris":{"android":"levelo://app?vid=b33bcc51-f264-4068-9c15-17ea450a49e6","ios":"levelo://app?vid=b33bcc51-f264-4068-9c15-17ea450a49e6"},"vehicle_type_id":"4","last_reported":1770993283,"current_range_meters":1600,"station_id":"ce4bh112rcd13ifvqda0","pricing_plan_id":"cebpf4jnsgd1na2vs0mg"},{"bike_id":"874bbcbd-6319-4c66-be6e-e8d3d3498e9b","system_id":"levelo_inurba_marseille","lat":43.29895,"lon":5.38142,"is_reserved":false,"is_disabled":false,"rental_uris":{"android":"levelo://app?vid=874bbcbd-6319-4c66-be6e-e8d3d3498e9b","ios":"levelo://app?vid=874bbcbd-6319-4c66-be6e-e8d3d3498e9b"},"vehicle_type_id":"4","last_reported":1770993283,"current_range_meters":39200,"station_id":"ce4bgj12rcd13ifvqbc0","pricing_plan_id":"cebpf4jnsgd1na2vs0mg"},{"bike_id":"fb018fac-6eef-49af-bd5b-057049b63181","system_id":"levelo_inurba_marseille","lat":43.28638,"lon":5.35079,"is_reserved":false,"is_disabled":false,"rental_uris":{"android":"levelo://app?vid=fb018fac-6eef-49af-bd5b-057049b63181","ios":"levelo://app?vid=fb018fac-6eef-49af-bd5b-057049b63181"},"vehicle_type_id":"4","last_reported":1770993283,"current_range_meters":18000,"station_id":"ce4bhch2rcd13ifvqeug","pricing_plan_id":"cebpf4jnsgd1na2vs0mg"},{"bike_id":"3bb5bc67-1d0a-4908-8016-273223517602","system_id":"levelo_inurba_marseille","lat":43.26057,"lon":5.39382,"is_reserved":false,"is_disabled":false,"rental_uris":{"android":"levelo://app?vid=3bb5bc67-1d0a-4908-8016-273223517602","ios":"levelo://app?vid=3bb5bc67-1d0a-4908-8016-273223517602"},"vehicle_type_id":"4","last_reported":1770993283,"current_range_meters":10800,"station_id":"ce4bhh92rcd13ifvqfj0","pricing_plan_id":"cebpf4jnsgd1na2vs0mg"},{"bike_id":"c1b36981-2407-4376-85d9-fb3bd1a789c0","system_id":"levelo_inurba_marseille","lat":43.28032,"lon":5.36947,"is_reserved":false,"is_disabled":false,"rental_uris":{"android":"levelo://app?vid=c1b36981-2407-4376-85d9-fb3bd1a789c0","ios":"levelo://app?vid=c1b36981-2407-4376-85d9-fb3bd1a789c0"},"vehicle_type_id":"4","last_reported":1770993283,"current_range_meters":37600,"station_id":"ce4bha12rcd13ifvqef0","pricing_plan_id":"cebpf4jnsgd1na2vs0mg"},{"bike_id":"daf88a4a-38c1-4a48-9faf-8edd173ac368","system_id":"levelo_inurba_marseille","lat":43.31195,"lon":5.38716,"is_reserved":false,"is_disabled":true,"rental_uris":{"android":"levelo://app?vid=daf88a4a-38c1-4a48-9faf-8edd173ac368","ios":"levelo://app?vid=daf88a4a-38c1-4a48-9faf-8edd173ac368"},"vehicle_type_id":"4","last_reported":1770993283,"current_range_meters":33200,"station_id":"ce4bgv12rcd13ifvqcp0","pricing_plan_id":"cebpf4jnsgd1na2vs0mg"},{"bike_id":"4fe3c3bc-bc29-4b06-b52d-87ea2b85f647","system_id":"levelo_inurba_marseille","lat":43.25842,"lon":5.39427,"is_reserved":false,"is_disabled":false,"rental_uris":{"android":"levelo://app?vid=4fe3c3bc-bc29-4b06-b52d-87ea2b85f647","ios":"levelo://app?vid=4fe3c3bc-bc29-4b06-b52d-87ea2b85f647"},"vehicle_type_id":"4","last_reported":1770993283,"current_range_meters":40000,"station_id":"ce4bhip2rcd13ifvqft0","pricing_plan_id":"cebpf4jnsgd1na2vs0mg"},{"bike_id":"4d82227e-31ef-47ff-9f07-a4737a75f3bf","system_id":"levelo_inurba_marseille","lat":43.30655,"lon":5.40072,"is_reserved":false,"is_disabled":false,"rental_uris":{"android":"levelo://app?vid=4d82227e-31ef-47ff-9f07-a4737a75f3bf","ios":"levelo://app?vid=4d82227e-31ef-47ff-9f07-a4737a75f3bf"},"vehicle_type_id":"4","last_reported":1770993283,"current_range_meters":24400,"station_id":"ce4bh112rcd13ifvqda0","pricing_plan_id":"cebpf4jnsgd1na2vs0mg"},{"bike_id":"d71db69c-c1ed-4115-9a4f-32aa86e9209d","system_id":"levelo_inurba_marseille","lat":43.2499,"lon":5.3895,"is_reserved":false,"is_disabled":false,"rental_uris":{"android":"levelo://app?vid=d71db69c-c1ed-4115-9a4f-32aa86e9209d","ios":"levelo://app?vid=d71db69c-c1ed-4115-9a4f-32aa86e9209d"},"vehicle_type_id":"4","last_reported":1770993283,"current_range_meters":31200,"station_id":"ce4bhgp2rcd13ifvqfd0","pricing_plan_id":"cebpf4jnsgd1na2vs0mg"},{"bike_id":"d2229b13-3c01-426f-a1c3-3c9e5d3accfe","system_id":"levelo_inurba_marseille","lat":43.23393,"lon":5.41226,"is_reserved":false,"is_disabled":false,"rental_uris":{"android":"levelo://app?vid=d2229b13-3c01-426f-a1c3-3c9e5d3accfe","ios":"levelo://app?vid=d2229b13-3c01-426f-a1c3-3c9e5d3accfe"},"vehicle_type_id":"4","last_reported":1770993283,"current_range_meters":11200,"station_id":"","pricing_plan_id":"cebpf4jnsgd1na2vs0mg"},{"bike_id":"53fb271f-ff07-471d-b0e8-1be9de9d85af","system_id":"levelo_inurba_marseille","lat":43.27216,"lon":5.39188,"is_reserved":false,"is_disabled":false,"rental_uris":{"android":"levelo://app?vid=53fb271f-ff07-471d-b0e8-1be9de9d85af","ios":"levelo://app?vid=53fb271f-ff07-471d-b0e8-1be9de9d85af"},"vehicle_type_id":"4","last_reported":1770993283,"current_range_meters":2800,"station_id":"ce4bhhp2rcd13ifvqfm0","pricing_plan_id":"cebpf4jnsgd1na2vs0mg"},{"bike_id":"92bc5b14-31af-442a-ac52-995d209620e9","system_id":"levelo_inurba_marseille","lat":43.26495,"lon":5.39541,"is_reserved":false,"is_disabled":false,"rental_uris":{"android":"levelo://app?vid=92bc5b14-31af-442a-ac52-995d209620e9","ios":"levelo://app?vid=92bc5b14-31af-442a-ac52-995d209620e9"},"vehicle_type_id":"4","last_reported":1770993283,"current_range_meters":38800,"station_id":"ce4bhi12rcd13ifvqfq0","pricing_plan_id":"cebpf4jnsgd1na2vs0mg"},{"bike_id":"fc8059da-1d56-4002-800e-29988a285b45","system_id":"levelo_inurba_marseille","lat":43.26975,"lon":5.40258,"is_reserved":false,"is_disabled":false,"rental_uris":{"android":"levelo://app?vid=fc8059da-1d56-4002-800e-29988a285b45","ios":"levelo://app?vid=fc8059da-1d56-4002-800e-29988a285b45"},"vehicle_type_id":"4","last_reported":1770993283,"current_range_meters":38800,"station_id":"cjm6bp8fraef2m0cb0m0","pricing_plan_id":"cebpf4jnsgd1na2vs0mg"},{"bike_id":"22732b15-487c-47d5-9787-a2f6c0a9a3ba","system_id":"levelo_inurba_marseille","lat":43.24556,"lon":5.39496,"is_reserved":false,"is_disabled":false,"rental_uris":{"android":"levelo://app?vid=22732b15-487c-47d5-9787-a2f6c0a9a3ba","ios":"levelo://app?vid=22732b15-487c-47d5-9787-a2f6c0a9a3ba"},"vehicle_type_id":"4","last_reported":1770993283,"current_range_meters":8800,"station_id":"ce4bhlp2rcd13ifvqgjg","pricing_plan_id":"cebpf4jnsgd1na2vs0mg"},{"bike_id":"e2ae36e2-7f95-4984-96f8-6f34e5ef1346","system_id":"levelo_inurba_marseille","lat":43.29817,"lon":5.44077,"is_reserved":false,"is_disabled":false,"rental_uris":{"android":"levelo://app?vid=e2ae36e2-7f95-4984-96f8-6f34e5ef1346","ios":"levelo://app?vid=e2ae36e2-7f95-4984-96f8-6f34e5ef1346"},"vehicle_type_id":"4","last_reported":1770993283,"current_range_meters":26000,"station_id":"st_d3jp68qikq2c7381ktn0","pricing_plan_id":"cebpf4jnsgd1na2vs0mg"},{"bike_id":"4056625b-2400-4fff-b4fa-a9bf8cbf48ff","system_id":"levelo_inurba_marseille","lat":43.24963,"lon":5.40509,"is_reserved":false,"is_disabled":false,"rental_uris":{"android":"levelo://app?vid=4056625b-2400-4fff-b4fa-a9bf8cbf48ff","ios":"levelo://app?vid=4056625b-2400-4fff-b4fa-a9bf8cbf48ff"},"vehicle_type_id":"4","last_reported":1770993283,"current_range_meters":29600,"station_id":"st_d2ngiaodas8pm72gd1h0","pricing_plan_id":"cebpf4jnsgd1na2vs0mg"},{"bike_id":"a793871a-dc12-45c5-911d-9d1a5ab685fb","system_id":"levelo_inurba_marseille","lat":43.29556,"lon":5.39957,"is_reserved":false,"is_disabled":false,"rental_uris":{"android":"levelo://app?vid=a793871a-dc12-45c5-911d-9d1a5ab685fb","ios":"levelo://app?vid=a793871a-dc12-45c5-911d-9d1a5ab685fb"},"vehicle_type_id":"4","last_reported":1770993283,"current_range_meters":35600,"station_id":"ce4bh312rcd13ifvqdj0","pricing_plan_id":"cebpf4jnsgd1na2vs0mg"},{"bike_id":"93493205-597a-4b89-a416-2329047210d2","system_id":"levelo_inurba_marseille","lat":43.30317,"lon":5.3688,"is_reserved":false,"is_disabled":false,"rental_uris":{"android":"levelo://app?vid=93493205-597a-4b89-a416-2329047210d2","ios":"levelo://app?vid=93493205-597a-4b89-a416-2329047210d2"},