{"last_updated":1680365262,"ttl":30,"version":"2.2","data":{"bikes":[{"bike_id":"f35faa94-dbc1-4eba-a415-79c000561b17","system_id":"levelo_inurba_marseille","lat":43.309076,"lon":5.368465,"is_reserved":false,"is_disabled":false,"rental_uris":{"android":"levelo://app?vid=f35faa94-dbc1-4eba-a415-79c000561b17","ios":"levelo://app?vid=f35faa94-dbc1-4eba-a415-79c000561b17"},"vehicle_type_id":"4","last_reported":1680365262,"current_range_meters":0,"station_id":"ce4bgn92rcd13ifvqbvg","pricing_plan_id":"free"},{"bike_id":"fa3eff02-7964-436f-a6c8-8058ba1579da","system_id":"levelo_inurba_marseille","lat":43.31385,"lon":5.37471,"is_reserved":false,"is_disabled":false,"rental_uris":{"android":"levelo://app?vid=fa3eff02-7964-436f-a6c8-8058ba1579da","ios":"levelo://app?vid=fa3eff02-7964-436f-a6c8-8058ba1579da"},"vehicle_type_id":"4","last_reported":1680365262,"current_range_meters":9600,"station_id":"","pricing_plan_id":"free"},{"bike_id":"9103debf-0664-43bc-b31a-490dcfdeb191","system_id":"levelo_inurba_marseille","lat":43.30549,"lon":5.36704,"is_reserved":false,"is_disabled":false,"rental_uris":{"android":"levelo://app?vid=9103debf-0664-43bc-b31a-490dcfdeb191","ios":"levelo://app?vid=9103debf-0664-43bc-b31a-490dcfdeb191"},"vehicle_type_id":"4","last_reported":1680365262,"current_range_meters":400,"station_id":"ce4bgrp2rcd13ifvqc9g","pricing_plan_id":"free"},{"bike_id":"5abd042a-ac41-49a1-8170-edcd77777a61","system_id":"levelo_inurba_marseille","lat":43.30543,"lon":5.36721,"is_reserved":false,"is_disabled":false,"rental_uris":{"android":"levelo://app?vid=5abd042a-ac41-49a1-8170-edcd77777a61","ios":"levelo://app?vid=5abd042a-ac41-49a1-8170-edcd77777a61"},"vehicle_type_id":"4","last_reported":1680365262,"current_range_meters":0,"station_id":"ce4bgrp2rcd13ifvqc9g","pricing_plan_id":"free"},{"bike_id":"9547e109-da26-4573-bfc4-941447104602","system_id":"levelo_inurba_marseille","lat":43.3054,"lon":5.36718,"is_reserved":false,"is_disabled":false,"rental_uris":{"android":"levelo://app?vid=9547e109-da26-4573-bfc4-941447104602","ios":"levelo://app?vid=9547e109-da26-4573-bfc4-941447104602"},"vehicle_type_id":"4","last_reported":1680365262,"current_range_meters":6400,"station_id":"","pricing_plan_id":"free"},{"bike_id":"61193a49-9627-4626-9ae2-29e66b6c6d19","system_id":"levelo_inurba_marseille","lat":43.305989,"lon":5.37225,"is_reserved":false,"is_disabled":false,"rental_uris":{"android":"levelo://app?vid=61193a49-9627-4626-9ae2-29e66b6c6d19","ios":"levelo://app?vid=61193a49-9627-4626-9ae2-29e66b6c6d19"},"vehicle_type_id":"4","last_reported":1680365262,"current_range_meters":21600,"station_id":"ce4bgqh2rcd13ifvqc4g","pricing_plan_id":"free"},{"bike_id":"ad62936e-4ef7-4a1f-ad3f-92a4df5a1954","system_id":"levelo_inurba_marseille","lat":43.305989,"lon":5.37225,"is_reserved":false,"is_disabled":false,"rental_uris":{"android":"levelo://app?vid=ad62936e-4ef7-4a1f-ad3f-92a4df5a1954","ios":"levelo://app?vid=ad62936e-4ef7-4a1f-ad3f-92a4df5a1954"},"vehicle_type_id":"4","last_reported":1680365262,"current_range_meters":27200,"station_id":"ce4bgqh2rcd13ifvqc4g","pricing_plan_id":"free"},{"bike_id":"e7d05923-7576-45f3-a6ba-9d1b66dbb023","system_id":"levelo_inurba_marseille","lat":43.30434,"lon":5.36491,"is_reserved":false,"is_disabled":false,"rental_uris":{"android":"levelo://app?vid=e7d05923-7576-45f3-a6ba-9d1b66dbb023","ios":"levelo://app?vid=e7d05923-7576-45f3-a6ba-9d1b66dbb023"},"vehicle_type_id":"4","last_reported":1680365262,"current_range_meters":4400,"station_id":"","pricing_plan_id":"free"},{"bike_id":"25f34672-b621-4a29-b6ac-0234b7cd9019","system_id":"levelo_inurba_marseille","lat":43.3032,"lon":5.36456,"is_reserved":false,"is_disabled":false,"rental_uris":{"android":"levelo://app?vid=25f34672-b621-4a29-b6ac-0234b7cd9019","ios":"levelo://app?vid=25f34672-b621-4a29-b6ac-0234b7cd9019"},"vehicle_type_id":"4","last_reported":1680365262,"current_range_meters":7600,"station_id":"","pricing_plan_id":"free"},{"bike_id":"8b09b9e2-0216-41eb-a4f8-dad09a3ac464","system_id":"levelo_inurba_marseille","lat":43.31527,"lon":5.38044,"is_reserved":false,"is_disabled":false,"rental_uris":{"android":"levelo://app?vid=8b09b9e2-0216-41eb-a4f8-dad09a3ac464","ios":"levelo://app?vid=8b09b9e2-0216-41eb-a4f8-dad09a3ac464"},"vehicle_type_id":"4","last_reported":1680365262,"current_range_meters":4000,"station_id":"","pricing_plan_id":"free"},{"bike_id":"7df73d34-6bb3-4722-aabb-07c3e4d071f3","system_id":"levelo_inurba_marseille","lat":43.304606,"lon":5.379026,"is_reserved":false,"is_disabled":false,"rental_uris":{"android":"levelo://app?vid=7df73d34-6bb3-4722-aabb-07c3e4d071f3","ios":"levelo://app?vid=7df73d34-6bb3-4722-aabb-07c3e4d071f3"},"vehicle_type_id":"4","last_reported":1680365262,"current_range_meters":1200,"station_id":"ce4bgup2rcd13ifvqcn0","pricing_plan_id":"free"},{"bike_id":"04c8abbd-f433-443b-bfd3-5d4545799d01","system_id":"levelo_inurba_marseille","lat":43.3014,"lon":5.3742,"is_reserved":false,"is_disabled":false,"rental_uris":{"android":"levelo://app?vid=04c8abbd-f433-443b-bfd3-5d4545799d01","ios":"levelo://app?vid=04c8abbd-f433-443b-bfd3-5d4545799d01"},"vehicle_type_id":"4","last_reported":1680365262,"current_range_meters":0,"station_id":"ce4bgs92rcd13ifvqcc0","pricing_plan_id":"free"},{"bike_id":"218bb604-7a5b-44de-bf5c-a5f4136257e6","system_id":"levelo_inurba_marseille","lat":43.299094,"lon":5.365415,"is_reserved":false,"is_disabled":false,"rental_uris":{"android":"levelo://app?vid=218bb604-7a5b-44de-bf5c-a5f4136257e6","ios":"levelo://app?vid=218bb604-7a5b-44de-bf5c-a5f4136257e6"},"vehicle_type_id":"4","last_reported":1680365262,"current_range_meters":0,"station_id":"ce4bgm92rcd13ifvqbr0","pricing_plan_id":"free"},{"bike_id":"927e68ef-1f18-4e5c-a4aa-109aecad2a7a","system_id":"levelo_inurba_marseille","lat":43.29938,"lon":5.3655,"is_reserved":false,"is_disabled":false,"rental_uris":{"android":"levelo://app?vid=927e68ef-1f18-4e5c-a4aa-109aecad2a7a","ios":"levelo://app?vid=927e68ef-1f18-4e5c-a4aa-109aecad2a7a"},"vehicle_type_id":"4","last_reported":1680365262,"current_range_meters":0,"station_id":"","pricing_plan_id":"free"},{"bike_id":"a39e25cc-93bf-4087-b0bd-48ebd184cf8a","system_id":"levelo_inurba_marseille","lat":43.29933,"lon":5.36552,"is_reserved":false,"is_disabled":false,"rental_uris":{"android":"levelo://app?vid=a39e25cc-93bf-4087-b0bd-48ebd184cf8a","ios":"levelo://app?vid=a39e25cc-93bf-4087-b0bd-48ebd184cf8a"},"vehicle_type_id":"4","last_reported":1680365262,"current_range_meters":13200,"station_id":"","pricing_plan_id":"free"},{"bike_id":"9320bf50-9805-47dc-8eba-cd2fcec1e558","system_id":"levelo_inurba_marseille","lat":43.313,"lon":5.3857,"is_reserved":false,"is_disabled":false,"rental_uris":{"android":"levelo://app?vid=9320bf50-9805-47dc-8eba-cd2fcec1e558","ios":"levelo://app?vid=9320bf50-9805-47dc-8eba-cd2fcec1e558"},"vehicle_type_id":"4","last_reported":1680365262,"current_range_meters":13600,"station_id":"ce4bgv12rcd13ifvqcp0","pricing_plan_id":"free"},{"bike_id":"b5545280-e87a-4bcc-96d1-b6943c3ac0a8","system_id":"levelo_inurba_marseille","lat":43.31283,"lon":5.38586,"is_reserved":false,"is_disabled":false,"rental_uris":{"android":"levelo://app?vid=b5545280-e87a-4bcc-96d1-b6943c3ac0a8","ios":"levelo://app?vid=b5545280-e87a-4bcc-96d1-b6943c3ac0a8"},"vehicle_type_id":"4","last_reported":1680365262,"current_range_meters":8400,"station_id":"","pricing_plan_id":"free"},{"bike_id":"67293356-b381-48b8-ba66-2dd4d164892b","system_id":"levelo_inurba_marseille","lat":43.311722,"lon":5.387247,"is_reserved":false,"is_disabled":false,"rental_uris":{"android":"levelo://app?vid=67293356-b381-48b8-ba66-2dd4d164892b","ios":"levelo://app?vid=67293356-b381-48b8-ba66-2dd4d164892b"},"vehicle_type_id":"4","last_reported":1680365262,"current_range_meters":2000,"station_id":"ce4bgv12rcd13ifvqcp0","pricing_plan_id":"free"},{"bike_id":"979413a5-82c0-4bb7-80a5-f7eeeee14f70","system_id":"levelo_inurba_marseille","lat":43.311722,"lon":5.387247,"is_reserved":false,"is_disabled":false,"rental_uris":{"android":"levelo://app?vid=979413a5-82c0-4bb7-80a5-f7eeeee14f70","ios":"levelo://app?vid=979413a5-82c0-4bb7-80a5-f7eeeee14f70"},"vehicle_type_id":"4","last_reported":1680365262,"current_range_meters":0,"station_id":"ce4bgv12rcd13ifvqcp0","pricing_plan_id":"free"},{"bike_id":"2cb4b9f6-658f-4876-9d60-cbab8d7363f0","system_id":"levelo_inurba_marseille","lat":43.311722,"lon":5.387247,"is_reserved":false,"is_disabled":false,"rental_uris":{"android":"levelo://app?vid=2cb4b9f6-658f-4876-9d60-cbab8d7363f0","ios":"levelo://app?vid=2cb4b9f6-658f-4876-9d60-cbab8d7363f0"},"vehicle_type_id":"4","last_reported":1680365262,"current_range_meters":2000,"station_id":"ce4bgv12rcd13ifvqcp0","pricing_plan_id":"free"},{"bike_id":"fb4a199c-71d1-469e-919f-c7c1f0225ded","system_id":"levelo_inurba_marseille","lat":43.297774,"lon":5.370875,"is_reserved":false,"is_disabled":false,"rental_uris":{"android":"levelo://app?vid=fb4a199c-71d1-469e-919f-c7c1f0225ded","ios":"levelo://app?vid=fb4a199c-71d1-469e-919f-c7c1f0225ded"},"vehicle_type_id":"4","last_reported":1680365262,"current_range_meters":2400,"station_id":"ce4bgop2rcd13ifvqc1g","pricing_plan_id":"free"},{"bike_id":"ae0d5e8c-aaf2-487d-9c74-8d20f52c5842","system_id":"levelo_inurba_marseille","lat":43.299026,"lon":5.376381,"is_reserved":false,"is_disabled":false,"rental_uris":{"android":"levelo://app?vid=ae0d5e8c-aaf2-487d-9c74-8d20f52c5842","ios":"levelo://app?vid=ae0d5e8c-aaf2-487d-9c74-8d20f52c5842"},"vehicle_type_id":"4","last_reported":1680365262,"current_range_meters":4000,"station_id":"","pricing_plan_id":"free"},{"bike_id":"c3b05bed-cec6-462f-b3a5-b5bce5b51cb0","system_id":"levelo_inurba_marseille","lat":43.32828,"lon":5.36693,"is_reserved":false,"is_disabled":false,"rental_uris":{"android":"levelo://app?vid=c3b05bed-cec6-462f-b3a5-b5bce5b51cb0","ios":"levelo://app?vid=c3b05bed-cec6-462f-b3a5-b5bce5b51cb0"},"vehicle_type_id":"4","last_reported":1680365262,"current_range_meters":22800,"station_id":"ce4bhs92rcd13ifvqi0g","pricing_plan_id":"free"},{"bike_id":"3700da70-b23f-476d-af98-adc6b8ccb683","system_id":"levelo_inurba_marseille","lat":43.29573,"lon":5.367355,"is_reserved":false,"is_disabled":false,"rental_uris":{"android":"levelo://app?vid=3700da70-b23f-476d-af98-adc6b8ccb683","ios":"levelo://app?vid=3700da70-b23f-476d-af98-adc6b8ccb683"},"vehicle_type_id":"4","last_reported":1680365262,"current_range_meters":0,"station_id":"ce4bgph2rcd13ifvqc2g","pricing_plan_id":"free"},{"bike_id":"5e96ba44-c036-472e-a464-cfaeb50628a0","system_id":"levelo_inurba_marseille","lat":43.29573,"lon":5.367355,"is_reserved":false,"is_disabled":false,"rental_uris":{"android":"levelo://app?vid=5e96ba44-c036-472e-a464-cfaeb50628a0","ios":"levelo://app?vid=5e96ba44-c036-472e-a464-cfaeb50628a0"},"vehicle_type_id":"4","last_reported":1680365262,"current_range_meters":0,"station_id":"ce4bgph2rcd13ifvqc2g","pricing_plan_id":"free"},{"bike_id":"90f1b9bd-b1c3-4dd2-a5de-9a5d69ff3c17","system_id":"levelo_inurba_marseille","lat":43.297,"lon":5.37691,"is_reserved":false,"is_disabled":false,"rental_uris":{"android":"levelo://app?vid=90f1b9bd-b1c3-4dd2-a5de-9a5d69ff3c17","ios":"levelo://app?vid=90f1b9bd-b1c3-4dd2-a5de-9a5d69ff3c17"},"vehicle_type_id":"4","last_reported":1680365262,"current_range_meters":0,"station_id":"","pricing_plan_id":"free"},{"bike_id":"5aff4054-153c-48d5-8aac-a4f4330748da","system_id":"levelo_inurba_marseille","lat":43.295748,"lon":5.37522,"is_reserved":false,"is_disabled":false,"rental_uris":{"android":"levelo://app?vid=5aff4054-153c-48d5-8aac-a4f4330748da","ios":"levelo://app?vid=5aff4054-153c-48d5-8aac-a4f4330748da"},"vehicle_type_id":"4","last_reported":1680365262,"current_range_meters":0,"station_id":"ce4bgh92rcd13ifvqb50","pricing_plan_id":"free"},{"bike_id":"2e398b3c-3668-4c3c-8857-890d2dcf2d91","system_id":"levelo_inurba_marseille","lat":43.29794,"lon":5.38115,"is_reserved":false,"is_disabled":false,"rental_uris":{"android":"levelo://app?vid=2e398b3c-3668-4c3c-8857-890d2dcf2d91","ios":"levelo://app?vid=2e398b3c-3668-4c3c-8857-890d2dcf2d91"},"vehicle_type_id":"4","last_reported":1680365262,"current_range_meters":0,"station_id":"ce4bgi92rcd13ifvqb90","pricing_plan_id":"free"},{"bike_id":"a5bc9c51-3931-45d5-9e47-20564be3d19f","system_id":"levelo_inurba_marseille","lat":43.29625,"lon":5.3771,"is_reserved":false,"is_disabled":false,"rental_uris":{"android":"levelo://app?vid=a5bc9c51-3931-45d5-9e47-20564be3d19f","ios":"levelo://app?vid=a5bc9c51-3931-45d5-9e47-20564be3d19f"},"vehicle_type_id":"4","last_reported":1680365262,"current_range_meters":10400,"station_id":"ce4bgi92rcd13ifvqb90","pricing_plan_id":"free"},{"bike_id":"1f0ffb5e-2853-4347-942d-5ce9877030f1","system_id":"levelo_inurba_marseille","lat":43.304274,"lon":5.388873,"is_reserved":false,"is_disabled":false,"rental_uris":{"android":"levelo://app?vid=1f0ffb5e-2853-4347-942d-5ce9877030f1","ios":"levelo://app?vid=1f0ffb5e-2853-4347-942d-5ce9877030f1"},"vehicle_type_id":"4","last_reported":1680365262,"current_range_meters":24800,"station_id":"ce4bgk12rcd13ifvqbi0","pricing_plan_id":"free"},{"bike_id":"defd73e3-a621-435c-ad5e-778743ac7d4b","system_id":"levelo_inurba_marseille","lat":43.304274,"lon":5.388873,"is_reserved":false,"is_disabled":false,"rental_uris":{"android":"levelo://app?vid=defd73e3-a621-435c-ad5e-778743ac7d4b","ios":"levelo://app?vid=defd73e3-a621-435c-ad5e-778743ac7d4b"},"vehicle_type_id":"4","last_reported":1680365262,"current_range_meters":6000,"station_id":"ce4bgk12rcd13ifvqbi0","pricing_plan_id":"free"},{"bike_id":"293eef76-f952-4391-883e-4eb72b594a4c","system_id":"levelo_inurba_marseille","lat":43.296277,"lon":5.377108,"is_reserved":false,"is_disabled":false,"rental_uris":{"android":"levelo://app?vid=293eef76-f952-4391-883e-4eb72b594a4c","ios":"levelo://app?vid=293eef76-f952-4391-883e-4eb72b594a4c"},"vehicle_type_id":"4","last_reported":1680365262,"current_range_meters":29200,"station_id":"ce4bgi92rcd13ifvqb90","pricing_plan_id":"free"},{"bike_id":"2cb87f97-22d6-471d-a84c-9d0aab4c9ba4","system_id":"levelo_inurba_marseille","lat":43.295279,"lon":5.375048,"is_reserved":false,"is_disabled":false,"rental_uris":{"android":"levelo://app?vid=2cb87f97-22d6-471d-a84c-9d0aab4c9ba4","ios":"levelo://app?vid=2cb87f97-22d6-471d-a84c-9d0aab4c9ba4"},"vehicle_type_id":"4","last_reported":1680365262,"current_range_meters":22400,"station_id":"ce4bgkp2rcd13ifvqbmg","pricing_plan_id":"free"},{"bike_id":"3ff093e1-94fa-4298-bbdf-a99bc8e405b8","system_id":"levelo_inurba_marseille","lat":43.295279,"lon":5.375048,"is_reserved":false,"is_disabled":false,"rental_uris":{"android":"levelo://app?vid=3ff093e1-94fa-4298-bbdf-a99bc8e405b8","ios":"levelo://app?vid=3ff093e1-94fa-4298-bbdf-a99bc8e405b8"},"vehicle_type_id":"4","last_reported":1680365262,"current_range_meters":0,"station_id":"ce4bgkp2rcd13ifvqbmg","pricing_plan_id":"free"},{"bike_id":"f1c976d2-8d4e-4a74-93aa-248d72f49c29","system_id":"levelo_inurba_marseille","lat":43.32367,"lon":5.388836,"is_reserved":false,"is_disabled":false,"rental_uris":{"android":"levelo://app?vid=f1c976d2-8d4e-4a74-93aa-248d72f49c29","ios":"levelo://app?vid=f1c976d2-8d4e-4a74-93aa-248d72f49c29"},"vehicle_type_id":"4","last_reported":1680365262,"current_range_meters":7200,"station_id":"ce4bhqp2rcd13ifvqhog","pricing_plan_id":"free"},{"bike_id":"eccc3bb4-6b71-45ab-b0ec-9e1e5fb5fd24","system_id":"levelo_inurba_marseille","lat":43.32367,"lon":5.388836,"is_reserved":false,"is_disabled":false,"rental_uris":{"android":"levelo://app?vid=eccc3bb4-6b71-45ab-b0ec-9e1e5fb5fd24","ios":"levelo://app?vid=eccc3bb4-6b71-45ab-b0ec-9e1e5fb5fd24"},"vehicle_type_id":"4","last_reported":1680365262,"current_range_meters":14000,"station_id":"ce4bhqp2rcd13ifvqhog","pricing_plan_id":"free"},{"bike_id":"30a707d3-414d-402b-b656-02cce797c112","system_id":"levelo_inurba_marseille","lat":43.29438,"lon":5.37777,"is_reserved":false,"is_disabled":false,"rental_uris":{"android":"levelo://app?vid=30a707d3-414d-402b-b656-02cce797c112","ios":"levelo://app?vid=30a707d3-414d-402b-b656-02cce797c112"},"vehicle_type_id":"4","last_reported":1680365262,"current_range_meters":800,"station_id":"","pricing_plan_id":"free"},{"bike_id":"853a023d-dcde-493b-a0cb-b66b047d8f3c","system_id":"levelo_inurba_marseille","lat":43.293259,"lon":5.371586,"is_reserved":false,"is_disabled":false,"rental_uris":{"android":"levelo://app?vid=853a023d-dcde-493b-a0cb-b66b047d8f3c","ios":"levelo://app?vid=853a023d-dcde-493b-a0cb-b66b047d8f3c"},"vehicle_type_id":"4","last_reported":1680365262,"current_range_meters":8000,"station_id":"ce4bgh92rcd13ifvqb40","pricing_plan_id":"free"},{"bike_id":"64e7f4c4-7e8e-40c7-9cc8-b4b8a2af56fe","system_id":"levelo_inurba_marseille","lat":43.305994,"lon":5.393687,"is_reserved":false,"is_disabled":false,"rental_uris":{"android":"levelo://app?vid=64e7f4c4-7e8e-40c7-9cc8-b4b8a2af56fe","ios":"levelo://app?vid=64e7f4c4-7e8e-40c7-9cc8-b4b8a2af56fe"},"vehicle_type_id":"4","last_reported":1680365262,"current_range_meters":17200,"station_id":"ce4bh0p2rcd13ifvqd80","pricing_plan_id":"free"},{"bike_id":"58d66ff8-3ae5-41eb-a8a9-cefeebed49dc","system_id":"levelo_inurba_marseille","lat":43.29422,"lon":5.37922,"is_reserved":false,"is_disabled":false,"rental_uris":{"android":"levelo://app?vid=58d66ff8-3ae5-41eb-a8a9-cefeebed49dc","ios":"levelo://app?vid=58d66ff8-3ae5-41eb-a8a9-cefeebed49dc"},"vehicle_type_id":"4","last_reported":1680365262,"current_range_meters":0,"station_id":"","pricing_plan_id":"free"},{"bike_id":"ded257e8-24d1-445f-a85f-42ede6aaf742","system_id":"levelo_inurba_marseille","lat":43.31659,"lon":5.39477,"is_reserved":false,"is_disabled":false,"rental_uris":{"android":"levelo://app?vid=ded257e8-24d1-445f-a85f-42ede6aaf742","ios":"levelo://app?vid=ded257e8-24d1-445f-a85f-42ede6aaf742"},"vehicle_type_id":"4","last_reported":1680365262,"current_range_meters":0,"station_id":"","pricing_plan_id":"free"},{"bike_id":"38ad0b2b-7acb-4c97-ae27-aed742b7e674","system_id":"levelo_inurba_marseille","lat":43.292311,"lon":5.360731,"is_reserved":false,"is_disabled":false,"rental_uris":{"android":"levelo://app?vid=38ad0b2b-7acb-4c97-ae27-aed742b7e674","ios":"levelo://app?vid=38ad0b2b-7acb-4c97-ae27-aed742b7e674"},"vehicle_type_id":"4","last_reported":1680365262,"current_range_meters":400,"station_id":"ce4bhbh2rcd13ifvqeqg","pricing_plan_id":"free"},{"bike_id":"45a63ccf-7d78-480f-9153-bea521f29e69","system_id":"levelo_inurba_marseille","lat":43.30097,"lon":5.39088,"is_reserved":false,"is_disabled":false,"rental_uris":{"android":"levelo://app?vid=45a63ccf-7d78-480f-9153-bea521f29e69","ios":"levelo://app?vid=45a63ccf-7d78-480f-9153-bea521f29e69"},"vehicle_type_id":"4","last_reported":1680365262,"current_range_meters":13600,"station_id":"ce4bh192rcd13ifvqdb0","pricing_plan_id":"free"},{"bike_id":"3b98f1c7-7b8b-4a66-9538-a7f26cb5a8d9","system_id":"levelo_inurba_marseille","lat":43.32683,"lon":5.39123,"is_reserved":false,"is_disabled":false,"rental_uris":{"android":"levelo://app?vid=3b98f1c7-7b8b-4a66-9538-a7f26cb5a8d9","ios":"levelo://app?vid=3b98f1c7-7b8b-4a66-9538-a7f26cb5a8d9"},"vehicle_type_id":"4","last_reported":1680365262,"current_range_meters":7600,"station_id":"","pricing_plan_id":"free"},{"bike_id":"ffd4374f-1fd5-4941-b0ef-ab0b551bddd5","system_id":"levelo_inurba_marseille","lat":43.295196,"lon":5.39397,"is_reserved":false,"is_disabled":false,"rental_uris":{"android":"levelo://app?vid=ffd4374f-1fd5-4941-b0ef-ab0b551bddd5","ios":"levelo://app?vid=ffd4374f-1fd5-4941-b0ef-ab0b551bddd5"},"vehicle_type_id":"4","last_reported":1680365262,"current_range_meters":0,"station_id":"ce4bh292rcd13ifvqdf0","pricing_plan_id":"free"},{"bike_id":"a8833150-9a9f-479c-ae2f-10daead4cabc","system_id":"levelo_inurba_marseille","lat":43.3021,"lon":5.39463,"is_reserved":false,"is_disabled":false,"rental_uris":{"android":"levelo://app?vid=a8833150-9a9f-479c-ae2f-10daead4cabc","ios":"levelo://app?vid=a8833150-9a9f-479c-ae2f-10daead4cabc"},"vehicle_type_id":"4","last_reported":1680365262,"current_range_meters":0,"station_id":"ce4bh0p2rcd13ifvqd70","pricing_plan_id":"free"},{"bike_id":"e788b966-82c4-4c85-96d0-54428cbc3fe8","system_id":"levelo_inurba_marseille","lat":43.302008,"lon":5.394694,"is_reserved":false,"is_disabled":false,"rental_uris":{"android":"levelo://app?vid=e788b966-82c4-4c85-96d0-54428cbc3fe8","ios":"levelo://app?vid=e788b966-82c4-4c85-96d0-54428cbc3fe8"},"vehicle_type_id":"4","last_reported":1680365262,"current_range_meters":800,"station_id":"ce4bh0p2rcd13ifvqd70","pricing_plan_id":"free"},{"bike_id":"d7139a97-24ec-41b5-ae48-c1ddde70e0e2","system_id":"levelo_inurba_marseille","lat":43.290624,"lon":5.359245,"is_reserved":false,"is_disabled":false,"rental_uris":{"android":"levelo://app?vid=d7139a97-24ec-41b5-ae48-c1ddde70e0e2","ios":"levelo://app?vid=d7139a97-24ec-41b5-ae48-c1ddde70e0e2"},"vehicle_type_id":"4","last_reported":1680365262,"current_range_meters":0,"station_id":"ce4bha92rcd13ifvqeg0","pricing_plan_id":"free"},{"bike_id":"b7405ff8-b05e-48c5-bdef-667c9c8fbb40","system_id":"levelo_inurba_marseille","lat":43.289184,"lon":5.366408,"is_reserved":false,"is_disabled":false,"rental_uris":{"android":"levelo://app?vid=b7405ff8-b05e-48c5-bdef-667c9c8fbb40","ios":"levelo://app?vid=b7405ff8-b05e-48c5-bdef-667c9c8fbb40"},"vehicle_type_id":"4","last_reported":1680365262,"current_range_meters":1200,"station_id":"ce4bhap2rcd13ifvqek0","pricing_plan_id":"free"},{"bike_id":"7f9103f8-e947-40ac-9d7a-3c4531eb2415","system_id":"levelo_inurba_marseille","lat":43.290365,"lon":5.376125,"is_reserved":false,"is_disabled":false,"rental_uris":{"android":"levelo://app?vid=7f9103f8-e947-40ac-9d7a-3c4531eb2415","ios":"levelo://app?vid=7f9103f8-e947-40ac-9d7a-3c4531eb2415"},"vehicle_type_id":"4","last_reported":1680365262,"current_range_meters":0,"station_id":"ce4bh692rcd13ifvqe90","pricing_plan_id":"free"},{"bike_id":"5e6046f2-484b-4ccc-9c65-825b4a647f2b","system_id":"levelo_inurba_marseille","lat":43.32729,"lon":5.39271,"is_reserved":false,"is_disabled":false,"rental_uris":{"android":"levelo://app?vid=5e6046f2-484b-4ccc-9c65-825b4a647f2b","ios":"levelo://app?vid=5e6046f2-484b-4ccc-9c65-825b4a647f2b"},"vehicle_type_id":"4","last_reported":1680365262,"current_range_meters":3600,"station_id":"","pricing_plan_id":"free"},{"bike_id":"41fadeff-b082-4bf4-bb34-fc304d762eff","system_id":"levelo_inurba_marseille","lat":43.29346,"lon":5.3864,"is_reserved":false,"is_disabled":false,"rental_uris":{"android":"levelo://app?vid=41fadeff-b082-4bf4-bb34-fc304d762eff","ios":"levelo://app?vid=41fadeff-b082-4bf4-bb34-fc304d762eff"},"vehicle_type_id":"4","last_reported":1680365262,"current_range_meters":0,"station_id":"","pricing_plan_id":"free"},{"bike_id":"0959f67c-38d1-4a9a-b58f-e308426c77e2","system_id":"levelo_inurba_marseille","lat":43.33044,"lon":5.38918,"is_reserved":false,"is_disabled":false,"rental_uris":{"android":"levelo://app?vid=0959f67c-38d1-4a9a-b58f-e308426c77e2","ios":"levelo://app?vid=0959f67c-38d1-4a9a-b58f-e308426c77e2"},"vehicle_type_id":"4","last_reported":1680365262,"current_range_meters":5200,"station_id":"ce4bhr92rcd13ifvqhrg","pricing_plan_id":"free"},{"bike_id":"18224f97-905a-4084-817e-f4e6b1f18d7b","system_id":"levelo_inurba_marseille","lat":43.28877,"lon":5.3608,"is_reserved":false,"is_disabled":false,"rental_uris":{"android":"levelo://app?vid=18224f97-905a-4084-817e-f4e6b1f18d7b","ios":"levelo://app?vid=18224f97-905a-4084-817e-f4e6b1f18d7b"},"vehicle_type_id":"4","last_reported":1680365262,"current_range_meters":0,"station_id":"","pricing_plan_id":"free"},{"bike_id":"b5754730-05e5-4a93-ba8d-513f054bd8ab","system_id":"levelo_inurba_marseille","lat":43.33018,"lon":5.39088,"is_reserved":false,"is_disabled":false,"rental_uris":{"android":"levelo://app?vid=b5754730-05e5-4a93-ba8d-513f054bd8ab","ios":"levelo://app?vid=b5754730-05e5-4a93-ba8d-513f054bd8ab"},"vehicle_type_id":"4","last_reported":1680365262,"current_range_meters":0,"station_id":"ce4bhr92rcd13ifvqhrg","pricing_plan_id":"free"},{"bike_id":"ada0931f-1d10-414c-99cb-cc82d0cc0b73","system_id":"levelo_inurba_marseille","lat":43.306412,"lon":5.401035,"is_reserved":false,"is_disabled":false,"rental_uris":{"android":"levelo://app?vid=ada0931f-1d10-414c-99cb-cc82d0cc0b73","ios":"levelo://app?vid=ada0931f-1d10-414c-99cb-cc82d0cc0b73"},"vehicle_type_id":"4","last_reported":1680365262,"current_range_meters":14000,"station_id":"ce4bh112rcd13ifvqda0","pricing_plan_id":"free"},{"bike_id":"8da554b7-a47d-4580-b62d-82b554803b69","system_id":"levelo_inurba_marseille","lat":43.33754,"lon":5.37459,"is_reserved":false,"is_disabled":false,"rental_uris":{"android":"levelo://app?vid=8da554b7-a47d-4580-b62d-82b554803b69","ios":"levelo://app?vid=8da554b7-a47d-4580-b62d-82b554803b69"},"vehicle_type_id":"4","last_reported":1680365262,"current_range_meters":28000,"station_id":"","pricing_plan_id":"free"},{"bike_id":"ad80a0ff-a015-4d0e-b9ab-6de33e8cae6d","system_id":"levelo_inurba_marseille","lat":43.30642,"lon":5.401031,"is_reserved":false,"is_disabled":false,"rental_uris":{"android":"levelo://app?vid=ad80a0ff-a015-4d0e-b9ab-6de33e8cae6d","ios":"levelo://app?vid=ad80a0ff-a015-4d0e-b9ab-6de33e8cae6d"},"vehicle_type_id":"4","last_reported":1680365262,"current_range_meters":4800,"station_id":"ce4bh112rcd13ifvqda0","pricing_plan_id":"free"},{"bike_id":"be506edf-5a00-4f8e-bdc6-dbd51b6c88e2","system_id":"levelo_inurba_marseille","lat":43.298681,"lon":5.397225,"is_reserved":false,"is_disabled":false,"rental_uris":{"android":"levelo://app?vid=be506edf-5a00-4f8e-bdc6-dbd51b6c88e2","ios":"levelo://app?vid=be506edf-5a00-4f8e-bdc6-dbd51b6c88e2"},"vehicle_type_id":"4","last_reported":1680365262,"current_range_meters":0,"station_id":"ce4bh0h2rcd13ifvqd50","pricing_plan_id":"free"},{"bike_id":"3ac1b10d-1c12-428f-b35b-376c8aa49967","system_id":"levelo_inurba_marseille","lat":43.29521,"lon":5.3941,"is_reserved":false,"is_disabled":false,"rental_uris":{"android":"levelo://app?vid=3ac1b10d-1c12-428f-b35b-376c8aa49967","ios":"levelo://app?vid=3ac1b10d-1c12-428f-b35b-376c8aa49967"},"vehicle_type_id":"4","last_reported":1680365262,"current_range_meters":0,"station_id":"","pricing_plan_id":"free"},{"bike_id":"3d55129e-3acf-4377-a27e-423fc41ac3bd","system_id":"levelo_inurba_marseille","lat":43.302759,"lon":5.400793,"is_reserved":false,"is_disabled":false,"rental_uris":{"android":"levelo://app?vid=3d55129e-3acf-4377-a27e-423fc41ac3bd","ios":"levelo://app?vid=3d55129e-3acf-4377-a27e-423fc41ac3bd"},"vehicle_type_id":"4","last_reported":1680365262,"current_range_meters":0,"station_id":"ce4bgvh2rcd13ifvqcs0","pricing_plan_id":"free"},{"bike_id":"a2c39393-74c9-473c-afc5-1430da47168c","system_id":"levelo_inurba_marseille","lat":43.302759,"lon":5.400793,"is_reserved":false,"is_disabled":false,"rental_uris":{"android":"levelo://app?vid=a2c39393-74c9-473c-afc5-1430da47168c","ios":"levelo://app?vid=a2c39393-74c9-473c-afc5-1430da47168c"},"vehicle_type_id":"4","last_reported":1680365262,"current_range_meters":4000,"station_id":"ce4bgvh2rcd13ifvqcs0","pricing_plan_id":"free"},{"bike_id":"bea65cf6-c026-40c1-b2f0-001e1feca9b0","system_id":"levelo_inurba_marseille","lat":43.28717,"lon":5.3795,"is_reserved":false,"is_disabled":false,"rental_uris":{"android":"levelo://app?vid=bea65cf6-c026-40c1-b2f0-001e1feca9b0","ios":"levelo://app?vid=bea65cf6-c026-40c1-b2f0-001e1feca9b0"},"vehicle_type_id":"4","last_reported":1680365262,"current_range_meters":0,"station_id":"ce4bh9p2rcd13ifvqec0","pricing_plan_id":"free"},{"bike_id":"6f360348-82b9-4685-a541-08990ae61267","system_id":"levelo_inurba_marseille","lat":43.3165,"lon":5.40434,"is_reserved":false,"is_disabled":false,"rental_uris":{"android":"levelo://app?vid=6f360348-82b9-4685-a541-08990ae61267","ios":"levelo://app?vid=6f360348-82b9-4685-a541-08990ae61267"},"vehicle_type_id":"4","last_reported":1680365262,"current_range_meters":24400,"station_id":"","pricing_plan_id":"free"},{"bike_id":"6f055136-1b07-4ead-a2ea-f14059f7db3d","system_id":"levelo_inurba_marseille","lat":43.284534,"lon":5.358662,"is_reserved":false,"is_disabled":false,"rental_uris":{"android":"levelo://app?vid=6f055136-1b07-4ead-a2ea-f14059f7db3d","ios":"levelo://app?vid=6f055136-1b07-4ead-a2ea-f14059f7db3d"},"vehicle_type_id":"4","last_reported":1680365262,"current_range_meters":0,"station_id":"ce4bhah2rcd13ifvqei0","pricing_plan_id":"free"},{"bike_id":"30ed88d7-6d6e-41cb-8b1e-d142039ae61c","system_id":"levelo_inurba_marseille","lat":43.284534,"lon":5.358662,"is_reserved":false,"is_disabled":false,"rental_uris":{"android":"levelo://app?vid=30ed88d7-6d6e-41cb-8b1e-d142039ae61c","ios":"levelo://app?vid=30ed88d7-6d6e-41cb-8b1e-d142039ae61c"},"vehicle_type_id":"4","last_reported":1680365262,"current_range_meters":0,"station_id":"ce4bhah2rcd13ifvqei0","pricing_plan_id":"free"},{"bike_id":"ca2f948e-3268-4d6f-89ab-370359e21616","system_id":"levelo_inurba_marseille","lat":43.295713,"lon":5.399639,"is_reserved":false,"is_disabled":false,"rental_uris":{"android":"levelo://app?vid=ca2f948e-3268-4d6f-89ab-370359e21616","ios":"levelo://app?vid=ca2f948e-3268-4d6f-89ab-370359e21616"},"vehicle_type_id":"4","last_reported":1680365262,"current_range_meters":0,"station_id":"ce4bh312rcd13ifvqdj0","pricing_plan_id":"free"},{"bike_id":"2477f378-3e0b-4dd6-923f-de2e8208d757","system_id":"levelo_inurba_marseille","lat":43.231919,"lon":5.355532,"is_reserved":false,"is_disabled":false,"rental_uris":{"android":"levelo://app?vid=2477f378-3e0b-4dd6-923f-de2e8208d757","ios":"levelo://app?vid=2477f378-3e0b-4dd6-923f-de2e8208d757"},"vehicle_type_id":"4","last_reported":1680365262,"current_range_meters":9200,"station_id":"ce4bhu92rcd13ifvqi70","pricing_plan_id":"free"},{"bike_id":"318441ba-55ec-4bdd-849b-ffa12c06b07e","system_id":"levelo_inurba_marseille","lat":43.28457,"lon":5.38093,"is_reserved":false,"is_disabled":false,"rental_uris":{"android":"levelo://app?vid=318441ba-55ec-4bdd-849b-ffa12c06b07e","ios":"levelo://app?vid=318441ba-55ec-4bdd-849b-ffa12c06b07e"},"vehicle_type_id":"4","last_reported":1680365262,"current_range_meters":3600,"station_id":"","pricing_plan_id":"free"},{"bike_id":"22c691e7-b88e-4287-9575-7d29d63a368a","system_id":"levelo_inurba_marseille","lat":43.323464,"lon":5.406297,"is_reserved":false,"is_disabled":false,"rental_uris":{"android":"levelo://app?vid=22c691e7-b88e-4287-9575-7d29d63a368a","ios":"levelo://app?vid=22c691e7-b88e-4287-9575-7d29d63a368a"},"vehicle_type_id":"4","last_reported":1680365262,"current_range_meters":4800,"station_id":"ce4bhq92rcd13ifvqhjg","pricing_plan_id":"free"},{"bike_id":"dd9b8941-87c4-457c-bc86-80956db78d55","system_id":"levelo_inurba_marseille","lat":43.284787,"lon":5.384116,"is_reserved":false,"is_disabled":false,"rental_uris":{"android":"levelo://app?vid=dd9b8941-87c4-457c-bc86-80956db78d55","ios":"levelo://app?vid=dd9b8941-87c4-457c-bc86-80956db78d55"},"vehicle_type_id":"4","last_reported":1680365262,"current_range_meters":4000,"station_id":"ce4bh512rcd13ifvqe3g","pricing_plan_id":"free"},{"bike_id":"9e091a98-09d2-4d51-8750-2be86a358ba9","system_id":"levelo_inurba_marseille","lat":43.284787,"lon":5.384116,"is_reserved":false,"is_disabled":false,"rental_uris":{"android":"levelo://app?vid=9e091a98-09d2-4d51-8750-2be86a358ba9","ios":"levelo://app?vid=9e091a98-09d2-4d51-8750-2be86a358ba9"},"vehicle_type_id":"4","last_reported":1680365262,"current_range_meters":0,"station_id":"ce4bh512rcd13ifvqe3g","pricing_plan_id":"free"},{"bike_id":"77aed15c-4374-4919-bb46-cc9b448d9522","system_id":"levelo_inurba_marseille","lat":43.28425,"lon":5.34984,"is_reserved":false,"is_disabled":false,"rental_uris":{"android":"levelo://app?vid=77aed15c-4374-4919-bb46-cc9b448d9522","ios":"levelo://app?vid=77aed15c-4374-4919-bb46-cc9b448d9522"},"vehicle_type_id":"4","last_reported":1680365262,"current_range_meters":0,"station_id":"ce4bhbh2rcd13ifvqepg","pricing_plan_id":"free"},{"bike_id":"4c16c8b6-9fc1-4e8e-bd39-ac2e6fd2abbe","system_id":"levelo_inurba_marseille","lat":43.28273,"lon":5.35073,"is_reserved":false,"is_disabled":false,"rental_uris":{"android":"levelo://app?vid=4c16c8b6-9fc1-4e8e-bd39-ac2e6fd2abbe","ios":"levelo://app?vid=4c16c8b6-9fc1-4e8e-bd39-ac2e6fd2abbe"},"vehicle_type_id":"4","last_reported":1680365262,"current_range_meters":14400,"station_id":"ce4bhbp2rcd13ifvqerg","pricing_plan_id":"free"},{"bike_id":"6eb77d80-e590-4f76-a68a-9dcddf045e81","system_id":"levelo_inurba_marseille","lat":43.28274,"lon":5.35066,"is_reserved":false,"is_disabled":false,"rental_uris":{"android":"levelo://app?vid=6eb77d80-e590-4f76-a68a-9dcddf045e81","ios":"levelo://app?vid=6eb77d80-e590-4f76-a68a-9dcddf045e81"},"vehicle_type_id":"4","last_reported":1680365262,"current_range_meters":0,"station_id":"ce4bhbp2rcd13ifvqerg","pricing_plan_id":"free"},{"bike_id":"f3bf399f-24bf-410c-a962-b52e8b124764","system_id":"levelo_inurba_marseille","lat":43.282754,"lon":5.350519,"is_reserved":false,"is_disabled":false,"rental_uris":{"android":"levelo://app?vid=f3bf399f-24bf-410c-a962-b52e8b124764","ios":"levelo://app?vid=f3bf399f-24bf-410c-a962-b52e8b124764"},"vehicle_type_id":"4","last_reported":1680365262,"current_range_meters":0,"station_id":"ce4bhbp2rcd13ifvqerg","pricing_plan_id":"free"},{"bike_id":"1e0312dd-2453-41c9-aa86-7bdb60f59d06","system_id":"levelo_inurba_marseille","lat":43.284462,"lon":5.392121,"is_reserved":false,"is_disabled":false,"rental_uris":{"android":"levelo://app?vid=1e0312dd-2453-41c9-aa86-7bdb60f59d06","ios":"levelo://app?vid=1e0312dd-2453-41c9-aa86-7bdb60f59d06"},"vehicle_type_id":"4","last_reported":1680365262,"current_range_meters":14000,"station_id":"ce4bhoh2rcd13ifvqh5g","pricing_plan_id":"free"},{"bike_id":"95bc7efe-0eb9-4818-8f11-ee041af5f8e8","system_id":"levelo_inurba_marseille","lat":43.284462,"lon":5.392121,"is_reserved":false,"is_disabled":false,"rental_uris":{"android":"levelo://app?vid=95bc7efe-0eb9-4818-8f11-ee041af5f8e8","ios":"levelo://app?vid=95bc7efe-0eb9-4818-8f11-ee041af5f8e8"},"vehicle_type_id":"4","last_reported":1680365262,"current_range_meters":0,"station_id":"ce4bhoh2rcd13ifvqh5g","pricing_plan_id":"free"},{"bike_id":"282090b7-73f0-4e4e-8a48-7275de0d4af9","system_id":"levelo_inurba_marseille","lat":43.304188,"lon":5.412904,"is_reserved":false,"is_disabled":false,"rental_uris":{"android":"levelo://app?vid=282090b7-73f0-4e4e-8a48-7275de0d4af9","ios":"levelo://app?vid=282090b7-73f0-4e4e-8a48-7275de0d4af9"},"vehicle_type_id":"4","last_reported":1680365262,"current_range_meters":1600,"station_id":"ce4bhop2rcd13ifvqh8g","pricing_plan_id":"free"},{"bike_id":"caa7b2e2-cc69-46ef-9b6d-039c6b67820d","system_id":"levelo_inurba_marseille","lat":43.304188,"lon":5.412904,"is_reserved":false,"is_disabled":false,"rental_uris":{"android":"levelo://app?vid=caa7b2e2-cc69-46ef-9b6d-039c6b67820d","ios":"levelo://app?vid=caa7b2e2-cc69-46ef-9b6d-039c6b67820d"},"vehicle_type_id":"4","last_reported":1680365262,"current_range_meters":7600,"station_id":"ce4bhop2rcd13ifvqh8g","pricing_plan_id":"free"},{"bike_id":"2b3d0e85-d460-4382-968a-0ad359b62c6d","system_id":"levelo_inurba_marseille","lat":43.279742,"lon":5.38744,"is_reserved":false,"is_disabled":false,"rental_uris":{"android":"levelo://app?vid=2b3d0e85-d460-4382-968a-0ad359b62c6d","ios":"levelo://app?vid=2b3d0e85-d460-4382-968a-0ad359b62c6d"},"vehicle_type_id":"4","last_reported":1680365262,"current_range_meters":0,"station_id":"ce4bhg12rcd13ifvqf80","pricing_plan_id":"free"},{"bike_id":"7daf528c-2145-406e-ad50-8a7031f82d35","system_id":"levelo_inurba_marseille","lat":43.279742,"lon":5.38744,"is_reserved":false,"is_disabled":false,"rental_uris":{"android":"levelo://app?vid=7daf528c-2145-406e-ad50-8a7031f82d35","ios":"levelo://app?vid=7daf528c-2145-406e-ad50-8a7031f82d35"},"vehicle_type_id":"4","last_reported":1680365262,"current_range_meters":0,"station_id":"ce4bhg12rcd13ifvqf80","pricing_plan_id":"free"},{"bike_id":"d74096e9-dfb7-46e1-a704-3a6a4e8bfb35","system_id":"levelo_inurba_marseille","lat":43.320045,"lon":5.415048,"is_reserved":false,"is_disabled":false,"rental_uris":{"android":"levelo://app?vid=d74096e9-dfb7-46e1-a704-3a6a4e8bfb35","ios":"levelo://app?vid=d74096e9-dfb7-46e1-a704-3a6a4e8bfb35"},"vehicle_type_id":"4","last_reported":1680365262,"current_range_meters":14000,"station_id":"ce4bhq92rcd13ifvqhkg","pricing_plan_id":"free"},{"bike_id":"c8f1ff47-424a-47c8-9190-35e3915454cb","system_id":"levelo_inurba_marseille","lat":43.273609,"lon":5.362708,"is_reserved":false,"is_disabled":false,"rental_uris":{"android":"levelo://app?vid=c8f1ff47-424a-47c8-9190-35e3915454cb","ios":"levelo://app?vid=c8f1ff47-424a-47c8-9190-35e3915454cb"},"vehicle_type_id":"4","last_reported":1680365262,"current_range_meters":0,"station_id":"ce4bhbh2rcd13ifvqeo0","pricing_plan_id":"free"},{"bike_id":"ff0160b1-75b5-49a2-9fd1-902b9aa5830d","system_id":"levelo_inurba_marseille","lat":43.336134,"lon":5.410341,"is_reserved":false,"is_disabled":false,"rental_uris":{"android":"levelo://app?vid=ff0160b1-75b5-49a2-9fd1-902b9aa5830d","ios":"levelo://app?vid=ff0160b1-75b5-49a2-9fd1-902b9aa5830d"},"vehicle_type_id":"4","last_reported":1680365262,"current_range_meters":13200,"station_id":"ce4bhqh2rcd13ifvqhmg","pricing_plan_id":"free"},{"bike_id":"47a6ae04-890c-4259-9ad8-d21cec08cd3a","system_id":"levelo_inurba_marseille","lat":43.33612,"lon":5.410321,"is_reserved":false,"is_disabled":false,"rental_uris":{"android":"levelo://app?vid=47a6ae04-890c-4259-9ad8-d21cec08cd3a","ios":"levelo://app?vid=47a6ae04-890c-4259-9ad8-d21cec08cd3a"},"vehicle_type_id":"4","last_reported":1680365262,"current_range_meters":17600,"station_id":"ce4bhqh2rcd13ifvqhmg","pricing_plan_id":"free"},{"bike_id":"e0ae7820-4c11-4d36-b2b7-20f85048cd16","system_id":"levelo_inurba_marseille","lat":43.27321,"lon":5.39081,"is_reserved":false,"is_disabled":false,"rental_uris":{"android":"levelo://app?vid=e0ae7820-4c11-4d36-b2b7-20f85048cd16","ios":"levelo://app?vid=e0ae7820-4c11-4d36-b2b7-20f85048cd16"},"vehicle_type_id":"4","last_reported":1680365262,"current_range_meters":15600,"station_id":"ce4bhgp2rcd13ifvqfe0","pricing_plan_id":"free"},{"bike_id":"8a8e61ec-49bf-41aa-bed2-46f11542c39a","system_id":"levelo_inurba_marseille","lat":43.27315,"lon":5.39076,"is_reserved":false,"is_disabled":false,"rental_uris":{"android":"levelo://app?vid=8a8e61ec-49bf-41aa-bed2-46f11542c39a","ios":"levelo://app?vid=8a8e61ec-49bf-41aa-bed2-46f11542c39a"},"vehicle_type_id":"4","last_reported":1680365262,"current_range_meters":22000,"station_id":"ce4bhgp2rcd13ifvqfe0","pricing_plan_id":"free"},{"bike_id":"026ffbc0-baf7-4090-aad3-f23590341365","system_id":"levelo_inurba_marseille","lat":43.2731,"lon":5.3908,"is_reserved":false,"is_disabled":false,"rental_uris":{"android":"levelo://app?vid=026ffbc0-baf7-4090-aad3-f23590341365","ios":"levelo://app?vid=026ffbc0-baf7-4090-aad3-f23590341365"},"vehicle_type_id":"4","last_reported":1680365262,"current_range_meters":18000,"station_id":"ce4bhgp2rcd13ifvqfe0","pricing_plan_id":"free"},{"bike_id":"34d24858-1fd8-446d-ac68-bc58578f28ed","system_id":"levelo_inurba_marseille","lat":43.27309,"lon":5.39082,"is_reserved":false,"is_disabled":false,"rental_uris":{"android":"levelo://app?vid=34d24858-1fd8-446d-ac68-bc58578f28ed","ios":"levelo://app?vid=34d24858-1fd8-446d-ac68-bc58578f28ed"},"vehicle_type_id":"4","last_reported":1680365262,"current_range_meters":24000,"station_id":"ce4bhgp2rcd13ifvqfe0","pricing_plan_id":"free"},{"bike_id":"8d621e2b-2164-4422-9952-662873f07ea6","system_id":"levelo_inurba_marseille","lat":43.278128,"lon":5.407195,"is_reserved":false,"is_disabled":false,"rental_uris":{"android":"levelo://app?vid=8d621e2b-2164-4422-9952-662873f07ea6","ios":"levelo://app?vid=8d621e2b-2164-4422-9952-662873f07ea6"},"vehicle_type_id":"4","last_reported":1680365262,"current_range_meters":24800,"station_id":"ce4bhnh2rcd13ifvqgtg","pricing_plan_id":"free"},{"bike_id":"1b640fa4-b854-4f94-8502-0bc33b5c471f","system_id":"levelo_inurba_marseille","lat":43.278128,"lon":5.407195,"is_reserved":false,"is_disabled":false,"rental_uris":{"android":"levelo://app?vid=1b640fa4-b854-4f94-8502-0bc33b5c471f","ios":"levelo://app?vid=1b640fa4-b854-4f94-8502-0bc33b5c471f"},"vehicle_type_id":"4","last_reported":1680365262,"current_range_meters":6800,"station_id":"ce4bhnh2rcd13ifvqgtg","pricing_plan_id":"free"},{"bike_id":"af6e91a9-a831-44db-8748-76bbc426acdc","system_id":"levelo_inurba_marseille","lat":43.269467,"lon":5.386439,"is_reserved":false,"is_disabled":false,"rental_uris":{"android":"levelo://app?vid=af6e91a9-a831-44db-8748-76bbc426acdc","ios":"levelo://app?vid=af6e91a9-a831-44db-8748-76bbc426acdc"},"vehicle_type_id":"4","last_reported":1680365262,"current_range_meters":4800,"station_id":"ce4bhh92rcd13ifvqfh0","pricing_plan_id":"free"},{"bike_id":"f7e36bb8-192b-4808-9666-0a1f84e87924","system_id":"levelo_inurba_marseille","lat":43.26952,"lon":5.38631,"is_reserved":false,"is_disabled":false,"rental_uris":{"android":"levelo://app?vid=f7e36bb8-192b-4808-9666-0a1f84e87924","ios":"levelo://app?vid=f7e36bb8-192b-4808-9666-0a1f84e87924"},"vehicle_type_id":"4","last_reported":1680365262,"current_range_meters":10000,"station_id":"","pricing_plan_id":"free"},{"bike_id":"62eed606-4f57-4950-a30f-4f2d45466909","system_id":"levelo_inurba_marseille","lat":43.26951,"lon":5.38627,"is_reserved":false,"is_disabled":false,"rental_uris":{"android":"levelo://app?vid=62eed606-4f57-4950-a30f-4f2d45466909","ios":"levelo://app?vid=62eed606-4f57-4950-a30f-4f2d45466909"},"vehicle_type_id":"4","last_reported":1680365262,"current_range_meters":0,"station_id":"ce4bhh92rcd13ifvqfh0","pricing_plan_id":"free"},{"bike_id":"ed3c4970-1615-41d4-be9a-6a4e34081ec0","system_id":"levelo_inurba_marseille","lat":43.31177,"lon":5.42943,"is_reserved":false,"is_disabled":false,"rental_uris":{"android":"levelo://app?vid=ed3c4970-1615-41d4-be9a-6a4e34081ec0","ios":"levelo://app?vid=ed3c4970-1615-41d4-be9a-6a4e34081ec0"},"vehicle_type_id":"4","last_reported":1680365262,"current_range_meters":0,"station_id":"","pricing_plan_id":"free"},{"bike_id":"9eb32279-670a-43e9-b3e6-79c7c4b1d352","system_id":"levelo_inurba_marseille","lat":43.265714,"lon":5.372891,"is_reserved":false,"is_disabled":false,"rental_uris":{"android":"levelo://app?vid=9eb32279-670a-43e9-b3e6-79c7c4b1d352","ios":"levelo://app?vid=9eb32279-670a-43e9-b3e6-79c7c4b1d352"},"vehicle_type_id":"4","last_reported":1680365262,"current_range_meters":0,"station_id":"ce4bhg12rcd13ifvqf70","pricing_plan_id":"free"},{"bike_id":"a1300619-bf19-4ac6-9e0f-7e274b61a78c","system_id":"levelo_inurba_marseille","lat":43.27999,"lon":5.41666,"is_reserved":false,"is_disabled":false,"rental_uris":{"android":"levelo://app?vid=a1300619-bf19-4ac6-9e0f-7e274b61a78c","ios":"levelo://app?vid=a1300619-bf19-4ac6-9e0f-7e274b61a78c"},"vehicle_type_id":"4","last_reported":1680365262,"current_range_meters":14000,"station_id":"ce4bho12rcd13ifvqh1g","pricing_plan_id":"free"},{"bike_id":"241994eb-6d4a-4b1a-b10a-7ab068c2787e","system_id":"levelo_inurba_marseille","lat":43.27996,"lon":5.416624,"is_reserved":false,"is_disabled":false,"rental_uris":{"android":"levelo://app?vid=241994eb-6d4a-4b1a-b10a-7ab068c2787e","ios":"levelo://app?vid=241994eb-6d4a-4b1a-b10a-7ab068c2787e"},"vehicle_type_id":"4","last_reported":1680365262,"current_range_meters":31200,"station_id":"ce4bho12rcd13ifvqh1g","pricing_plan_id":"free"},{"bike_id":"5dc821e5-5bc4-49d5-962d-f9ee72a70156","system_id":"levelo_inurba_marseille","lat":43.27987,"lon":5.41658,"is_reserved":false,"is_disabled":false,"rental_uris":{"android":"levelo://app?vid=5dc821e5-5bc4-49d5-962d-f9ee72a70156","ios":"levelo://app?vid=5dc821e5-5bc4-49d5-962d-f9ee72a70156"},"vehicle_type_id":"4","last_reported":1680365262,"current_range_meters":31200,"station_id":"","pricing_plan_id":"free"},{"bike_id":"cfe36379-daf5-4583-b138-7c7e81c1e7b4","system_id":"levelo_inurba_marseille","lat":43.27996,"lon":5.416624,"is_reserved":false,"is_disabled":false,"rental_uris":{"android":"levelo://app?vid=cfe36379-daf5-4583-b138-7c7e81c1e7b4","ios":"levelo://app?vid=cfe36379-daf5-4583-b138-7c7e81c1e7b4"},"vehicle_type_id":"4","last_reported":1680365262,"current_range_meters":31200,"station_id":"ce4bho12rcd13ifvqh1g","pricing_plan_id":"free"},{"bike_id":"b5726782-6fec-4d66-b45e-f01d5964dee0","system_id":"levelo_inurba_marseille","lat":43.30799,"lon":5.4352,"is_reserved":false,"is_disabled":false,"rental_uris":{"android":"levelo://app?vid=b5726782-6fec-4d66-b45e-f01d5964dee0","ios":"levelo://app?vid=b5726782-6fec-4d66-b45e-f01d5964dee0"},"vehicle_type_id":"4","last_reported":1680365262,"current_range_meters":7600,"station_id":"ce4bhph2rcd13ifvqheg","pricing_plan_id":"free"},{"bike_id":"c2641f51-ed78-47e3-87b8-5792efda4288","system_id":"levelo_inurba_marseille","lat":43.308051,"lon":5.43527,"is_reserved":false,"is_disabled":false,"rental_uris":{"android":"levelo://app?vid=c2641f51-ed78-47e3-87b8-5792efda4288","ios":"levelo://app?vid=c2641f51-ed78-47e3-87b8-5792efda4288"},"vehicle_type_id":"4","last_reported":1680365262,"current_range_meters":0,"station_id":"ce4bhph2rcd13ifvqheg","pricing_plan_id":"free"},{"bike_id":"26d21730-de98-4bf6-b07a-28dfc334dc34","system_id":"levelo_inurba_marseille","lat":43.265569,"lon":5.390047,"is_reserved":false,"is_disabled":false,"rental_uris":{"android":"levelo://app?vid=26d21730-de98-4bf6-b07a-28dfc334dc34","ios":"levelo://app?vid=26d21730-de98-4bf6-b07a-28dfc334dc34"},"vehicle_type_id":"4","last_reported":1680365262,"current_range_meters":9600,"station_id":"ce4bhe12rcd13ifvqf30","pricing_plan_id":"free"},{"bike_id":"a544d55e-181f-487a-bbfd-562ee1ad26b8","system_id":"levelo_inurba_marseille","lat":43.261782,"lon":5.374515,"is_reserved":false,"is_disabled":false,"rental_uris":{"android":"levelo://app?vid=a544d55e-181f-487a-bbfd-562ee1ad26b8","ios":"levelo://app?vid=a544d55e-181f-487a-bbfd-562ee1ad26b8"},"vehicle_type_id":"4","last_reported":1680365262,"current_range_meters":1200,"station_id":"ce4bhgp2rcd13ifvqfc0","pricing_plan_id":"free"},{"bike_id":"2469cc9e-2ad0-419d-ae76-3a5a11c383e1","system_id":"levelo_inurba_marseille","lat":43.26483,"lon":5.3955,"is_reserved":false,"is_disabled":false,"rental_uris":{"android":"levelo://app?vid=2469cc9e-2ad0-419d-ae76-3a5a11c383e1","ios":"levelo://app?vid=2469cc9e-2ad0-419d-ae76-3a5a11c383e1"},"vehicle_type_id":"4","last_reported":1680365262,"current_range_meters":5600,"station_id":"","pricing_plan_id":"free"},{"bike_id":"cb072951-6296-4753-9fe4-cf8d66f14927","system_id":"levelo_inurba_marseille","lat":43.298768,"lon":5.43643,"is_reserved":false,"is_disabled":false,"rental_uris":{"android":"levelo://app?vid=cb072951-6296-4753-9fe4-cf8d66f14927","ios":"levelo://app?vid=cb072951-6296-4753-9fe4-cf8d66f14927"},"vehicle_type_id":"4","last_reported":1680365262,"current_range_meters":29600,"station_id":"ce4bhpp2rcd13ifvqhfg","pricing_plan_id":"free"},{"bike_id":"afe4de3e-d1c1-48b4-83a9-9da357c1e477","system_id":"levelo_inurba_marseille","lat":43.260219,"lon":5.37546,"is_reserved":false,"is_disabled":false,"rental_uris":{"android":"levelo://app?vid=afe4de3e-d1c1-48b4-83a9-9da357c1e477","ios":"levelo://app?vid=afe4de3e-d1c1-48b4-83a9-9da357c1e477"},"vehicle_type_id":"4","last_reported":1680365262,"current_range_meters":0,"station_id":"ce4bhgh2rcd13ifvqfa0","pricing_plan_id":"free"},{"bike_id":"aebdd381-94c4-48a7-95de-ea958cb3ac1c","system_id":"levelo_inurba_marseille","lat":43.26094,"lon":5.3976,"is_reserved":false,"is_disabled":false,"rental_uris":{"android":"levelo://app?vid=aebdd381-94c4-48a7-95de-ea958cb3ac1c","ios":"levelo://app?vid=aebdd381-94c4-48a7-95de-ea958cb3ac1c"},"vehicle_type_id":"4","last_reported":1680365262,"current_range_meters":0,"station_id":"","pricing_plan_id":"free"},{"bike_id":"916e7852-a559-4327-a502-1eb58fa9c9ec","system_id":"levelo_inurba_marseille","lat":43.260909,"lon":5.397591,"is_reserved":false,"is_disabled":false,"rental_uris":{"android":"levelo://app?vid=916e7852-a559-4327-a502-1eb58fa9c9ec","ios":"levelo://app?vid=916e7852-a559-4327-a502-1eb58fa9c9ec"},"vehicle_type_id":"4","last_reported":1680365262,"current_range_meters":22800,"station_id":"ce4bhi12rcd13ifvqfq0","pricing_plan_id":"free"},{"bike_id":"f77b1095-6cc1-4f3f-aa6e-32974a2625f3","system_id":"levelo_inurba_marseille","lat":43.25578,"lon":5.38236,"is_reserved":false,"is_disabled":false,"rental_uris":{"android":"levelo://app?vid=f77b1095-6cc1-4f3f-aa6e-32974a2625f3","ios":"levelo://app?vid=f77b1095-6cc1-4f3f-aa6e-32974a2625f3"},"vehicle_type_id":"4","last_reported":1680365262,"current_range_meters":21200,"station_id":"ce4bhih2rcd13ifvqfs0","pricing_plan_id":"free"},{"bike_id":"fad9aec2-77b8-4396-b7ce-72ead4db955d","system_id":"levelo_inurba_marseille","lat":43.270721,"lon":5.422764,"is_reserved":false,"is_disabled":false,"rental_uris":{"android":"levelo://app?vid=fad9aec2-77b8-4396-b7ce-72ead4db955d","ios":"levelo://app?vid=fad9aec2-77b8-4396-b7ce-72ead4db955d"},"vehicle_type_id":"4","last_reported":1680365262,"current_range_meters":20800,"station_id":"ce4bhk92rcd13ifvqgb0","pricing_plan_id":"free"},{"bike_id":"1fb988ef-a336-49e8-93ec-e46c9b48e424","system_id":"levelo_inurba_marseille","lat":43.25034,"lon":5.37391,"is_reserved":false,"is_disabled":false,"rental_uris":{"android":"levelo://app?vid=1fb988ef-a336-49e8-93ec-e46c9b48e424","ios":"levelo://app?vid=1fb988ef-a336-49e8-93ec-e46c9b48e424"},"vehicle_type_id":"4","last_reported":1680365262,"current_range_meters":14800,"station_id":"","pricing_plan_id":"free"},{"bike_id":"c3c53b7f-a67c-4c8d-8455-3b8ae3e131a7","system_id":"levelo_inurba_marseille","lat":43.2509,"lon":5.39526,"is_reserved":false,"is_disabled":false,"rental_uris":{"android":"levelo://app?vid=c3c53b7f-a67c-4c8d-8455-3b8ae3e131a7","ios":"levelo://app?vid=c3c53b7f-a67c-4c8d-8455-3b8ae3e131a7"},"vehicle_type_id":"4","last_reported":1680365262,"current_range_meters":7600,"station_id":"ce4bhm12rcd13ifvqgkg","pricing_plan_id":"free"},{"bike_id":"fc897768-633c-404d-aded-7d63c7373346","system_id":"levelo_inurba_marseille","lat":43.25087,"lon":5.39522,"is_reserved":false,"is_disabled":false,"rental_uris":{"android":"levelo://app?vid=fc897768-633c-404d-aded-7d63c7373346","ios":"levelo://app?vid=fc897768-633c-404d-aded-7d63c7373346"},"vehicle_type_id":"4","last_reported":1680365262,"current_range_meters":24400,"station_id":"ce4bhm12rcd13ifvqgkg","pricing_plan_id":"free"},{"bike_id":"a45933ec-130b-432d-ab37-94c93e331646","system_id":"levelo_inurba_marseille","lat":43.24666,"lon":5.38169,"is_reserved":false,"is_disabled":false,"rental_uris":{"android":"levelo://app?vid=a45933ec-130b-432d-ab37-94c93e331646","ios":"levelo://app?vid=a45933ec-130b-432d-ab37-94c93e331646"},"vehicle_type_id":"4","last_reported":1680365262,"current_range_meters":10800,"station_id":"ce4bhih2rcd13ifvqfr0","pricing_plan_id":"free"},{"bike_id":"61a84d7e-47ab-401a-8c06-9199ac9a5eef","system_id":"levelo_inurba_marseille","lat":43.24591,"lon":5.37376,"is_reserved":false,"is_disabled":false,"rental_uris":{"android":"levelo://app?vid=61a84d7e-47ab-401a-8c06-9199ac9a5eef","ios":"levelo://app?vid=61a84d7e-47ab-401a-8c06-9199ac9a5eef"},"vehicle_type_id":"4","last_reported":1680365262,"current_range_meters":31200,"station_id":"","pricing_plan_id":"free"},{"bike_id":"e2bc2b6e-be2c-4de7-b7e5-5f9888936ead","system_id":"levelo_inurba_marseille","lat":43.25102,"lon":5.403214,"is_reserved":false,"is_disabled":false,"rental_uris":{"android":"levelo://app?vid=e2bc2b6e-be2c-4de7-b7e5-5f9888936ead","ios":"levelo://app?vid=e2bc2b6e-be2c-4de7-b7e5-5f9888936ead"},"vehicle_type_id":"4","last_reported":1680365262,"current_range_meters":0,"station_id":"ce4bhlh2rcd13ifvqgig","pricing_plan_id":"free"},{"bike_id":"a6af1c8b-b1b1-470b-b0d2-865665154fd4","system_id":"levelo_inurba_marseille","lat":43.24549,"lon":5.39522,"is_reserved":false,"is_disabled":false,"rental_uris":{"android":"levelo://app?vid=a6af1c8b-b1b1-470b-b0d2-865665154fd4","ios":"levelo://app?vid=a6af1c8b-b1b1-470b-b0d2-865665154fd4"},"vehicle_type_id":"4","last_reported":1680365262,"current_range_meters":28800,"station_id":"ce4bhlp2rcd13ifvqgjg","pricing_plan_id":"free"},{"bike_id":"38993e16-8065-46bb-ba4b-ab67e0712f7f","system_id":"levelo_inurba_marseille","lat":43.24138,"lon":5.37136,"is_reserved":false,"is_disabled":false,"rental_uris":{"android":"levelo://app?vid=38993e16-8065-46bb-ba4b-ab67e0712f7f","ios":"levelo://app?vid=38993e16-8065-46bb-ba4b-ab67e0712f7f"},"vehicle_type_id":"4","last_reported":1680365262,"current_range_meters":1600,"station_id":"","pricing_plan_id":"free"},{"bike_id":"9452a32c-6067-4612-ac46-fcb5d6573f9c","system_id":"levelo_inurba_marseille","lat":43.241782,"lon":5.397264,"is_reserved":false,"is_disabled":false,"rental_uris":{"android":"levelo://app?vid=9452a32c-6067-4612-ac46-fcb5d6573f9c","ios":"levelo://app?vid=9452a32c-6067-4612-ac46-fcb5d6573f9c"},"vehicle_type_id":"4","last_reported":1680365262,"current_range_meters":19200,"station_id":"ce4bhn12rcd13ifvqgpg","pricing_plan_id":"free"},{"bike_id":"aebf33a8-34d1-4a1e-a437-1141c438f732","system_id":"levelo_inurba_marseille","lat":43.232,"lon":5.35553,"is_reserved":false,"is_disabled":false,"rental_uris":{"android":"levelo://app?vid=aebf33a8-34d1-4a1e-a437-1141c438f732","ios":"levelo://app?vid=aebf33a8-34d1-4a1e-a437-1141c438f732"},"vehicle_type_id":"4","last_reported":1680365262,"current_range_meters":400,"station_id":"ce4bhu92rcd13ifvqi70","pricing_plan_id":"free"}]}}