{"last_updated":1693674317,"ttl":30,"version":"2.2","data":{"bikes":[{"bike_id":"052d837d-4e87-4a53-9b4b-dcd62223e12f","system_id":"levelo_inurba_marseille","lat":43.31341,"lon":5.367098,"is_reserved":false,"is_disabled":false,"rental_uris":{"android":"levelo://app?vid=052d837d-4e87-4a53-9b4b-dcd62223e12f","ios":"levelo://app?vid=052d837d-4e87-4a53-9b4b-dcd62223e12f"},"vehicle_type_id":"4","last_reported":1693674319,"current_range_meters":30400,"station_id":"ce4bgr92rcd13ifvqc6g","pricing_plan_id":"free"},{"bike_id":"cd6b952f-5ed2-40a1-99c0-2e4834171455","system_id":"levelo_inurba_marseille","lat":43.31341,"lon":5.367098,"is_reserved":false,"is_disabled":false,"rental_uris":{"android":"levelo://app?vid=cd6b952f-5ed2-40a1-99c0-2e4834171455","ios":"levelo://app?vid=cd6b952f-5ed2-40a1-99c0-2e4834171455"},"vehicle_type_id":"4","last_reported":1693674319,"current_range_meters":18000,"station_id":"ce4bgr92rcd13ifvqc6g","pricing_plan_id":"free"},{"bike_id":"47c13954-68cb-4b60-9be9-c94367e157ac","system_id":"levelo_inurba_marseille","lat":43.31341,"lon":5.367098,"is_reserved":false,"is_disabled":false,"rental_uris":{"android":"levelo://app?vid=47c13954-68cb-4b60-9be9-c94367e157ac","ios":"levelo://app?vid=47c13954-68cb-4b60-9be9-c94367e157ac"},"vehicle_type_id":"4","last_reported":1693674319,"current_range_meters":31200,"station_id":"ce4bgr92rcd13ifvqc6g","pricing_plan_id":"free"},{"bike_id":"c0aee6a6-efa3-4381-91ad-14c080edacbc","system_id":"levelo_inurba_marseille","lat":43.31341,"lon":5.367098,"is_reserved":false,"is_disabled":false,"rental_uris":{"android":"levelo://app?vid=c0aee6a6-efa3-4381-91ad-14c080edacbc","ios":"levelo://app?vid=c0aee6a6-efa3-4381-91ad-14c080edacbc"},"vehicle_type_id":"4","last_reported":1693674319,"current_range_meters":25600,"station_id":"ce4bgr92rcd13ifvqc6g","pricing_plan_id":"free"},{"bike_id":"c260b7d5-516d-4cb8-ba93-d442199ba3bb","system_id":"levelo_inurba_marseille","lat":43.313391,"lon":5.36706,"is_reserved":false,"is_disabled":false,"rental_uris":{"android":"levelo://app?vid=c260b7d5-516d-4cb8-ba93-d442199ba3bb","ios":"levelo://app?vid=c260b7d5-516d-4cb8-ba93-d442199ba3bb"},"vehicle_type_id":"4","last_reported":1693674319,"current_range_meters":30000,"station_id":"ce4bgr92rcd13ifvqc6g","pricing_plan_id":"free"},{"bike_id":"61572846-8afa-403e-b16b-bb2a31206d43","system_id":"levelo_inurba_marseille","lat":43.312239,"lon":5.368562,"is_reserved":false,"is_disabled":false,"rental_uris":{"android":"levelo://app?vid=61572846-8afa-403e-b16b-bb2a31206d43","ios":"levelo://app?vid=61572846-8afa-403e-b16b-bb2a31206d43"},"vehicle_type_id":"4","last_reported":1693674319,"current_range_meters":26000,"station_id":"ce4bgl92rcd13ifvqbq0","pricing_plan_id":"free"},{"bike_id":"83e2b1c8-8cdc-4a28-86a6-627fc38d232d","system_id":"levelo_inurba_marseille","lat":43.312239,"lon":5.368562,"is_reserved":false,"is_disabled":false,"rental_uris":{"android":"levelo://app?vid=83e2b1c8-8cdc-4a28-86a6-627fc38d232d","ios":"levelo://app?vid=83e2b1c8-8cdc-4a28-86a6-627fc38d232d"},"vehicle_type_id":"4","last_reported":1693674319,"current_range_meters":26000,"station_id":"ce4bgl92rcd13ifvqbq0","pricing_plan_id":"free"},{"bike_id":"20125d92-d556-4986-9d40-21354bf533d4","system_id":"levelo_inurba_marseille","lat":43.312239,"lon":5.368562,"is_reserved":false,"is_disabled":false,"rental_uris":{"android":"levelo://app?vid=20125d92-d556-4986-9d40-21354bf533d4","ios":"levelo://app?vid=20125d92-d556-4986-9d40-21354bf533d4"},"vehicle_type_id":"4","last_reported":1693674319,"current_range_meters":3600,"station_id":"ce4bgl92rcd13ifvqbq0","pricing_plan_id":"free"},{"bike_id":"5e7dbf2b-e8cb-48fc-840c-a549fc360a87","system_id":"levelo_inurba_marseille","lat":43.314811,"lon":5.373103,"is_reserved":false,"is_disabled":false,"rental_uris":{"android":"levelo://app?vid=5e7dbf2b-e8cb-48fc-840c-a549fc360a87","ios":"levelo://app?vid=5e7dbf2b-e8cb-48fc-840c-a549fc360a87"},"vehicle_type_id":"4","last_reported":1693674319,"current_range_meters":6800,"station_id":"ce4bgt12rcd13ifvqcd0","pricing_plan_id":"free"},{"bike_id":"d2be997d-44d2-40a5-bb20-02aeaaf65fa5","system_id":"levelo_inurba_marseille","lat":43.314811,"lon":5.373104,"is_reserved":false,"is_disabled":false,"rental_uris":{"android":"levelo://app?vid=d2be997d-44d2-40a5-bb20-02aeaaf65fa5","ios":"levelo://app?vid=d2be997d-44d2-40a5-bb20-02aeaaf65fa5"},"vehicle_type_id":"4","last_reported":1693674319,"current_range_meters":30000,"station_id":"ce4bgt12rcd13ifvqcd0","pricing_plan_id":"free"},{"bike_id":"dbdfb9f1-27ea-41a9-8aaa-8528b50c591b","system_id":"levelo_inurba_marseille","lat":43.309034,"lon":5.371783,"is_reserved":false,"is_disabled":false,"rental_uris":{"android":"levelo://app?vid=dbdfb9f1-27ea-41a9-8aaa-8528b50c591b","ios":"levelo://app?vid=dbdfb9f1-27ea-41a9-8aaa-8528b50c591b"},"vehicle_type_id":"4","last_reported":1693674319,"current_range_meters":19600,"station_id":"ce4bguh2rcd13ifvqckg","pricing_plan_id":"free"},{"bike_id":"20a35cf1-860c-431c-ab24-8f268e0636e8","system_id":"levelo_inurba_marseille","lat":43.309039,"lon":5.371797,"is_reserved":false,"is_disabled":false,"rental_uris":{"android":"levelo://app?vid=20a35cf1-860c-431c-ab24-8f268e0636e8","ios":"levelo://app?vid=20a35cf1-860c-431c-ab24-8f268e0636e8"},"vehicle_type_id":"4","last_reported":1693674319,"current_range_meters":7200,"station_id":"ce4bguh2rcd13ifvqckg","pricing_plan_id":"free"},{"bike_id":"70f045aa-cf5c-43eb-b83a-7d6ae6086b56","system_id":"levelo_inurba_marseille","lat":43.305368,"lon":5.367343,"is_reserved":false,"is_disabled":false,"rental_uris":{"android":"levelo://app?vid=70f045aa-cf5c-43eb-b83a-7d6ae6086b56","ios":"levelo://app?vid=70f045aa-cf5c-43eb-b83a-7d6ae6086b56"},"vehicle_type_id":"4","last_reported":1693674319,"current_range_meters":27200,"station_id":"ce4bgrp2rcd13ifvqc9g","pricing_plan_id":"free"},{"bike_id":"f5ec4ec8-73e0-47b7-8e52-c65209d09569","system_id":"levelo_inurba_marseille","lat":43.305368,"lon":5.367343,"is_reserved":false,"is_disabled":false,"rental_uris":{"android":"levelo://app?vid=f5ec4ec8-73e0-47b7-8e52-c65209d09569","ios":"levelo://app?vid=f5ec4ec8-73e0-47b7-8e52-c65209d09569"},"vehicle_type_id":"4","last_reported":1693674319,"current_range_meters":9200,"station_id":"ce4bgrp2rcd13ifvqc9g","pricing_plan_id":"free"},{"bike_id":"3bf2c51c-5ec0-4e48-8741-c06c71a4921d","system_id":"levelo_inurba_marseille","lat":43.311131,"lon":5.377651,"is_reserved":false,"is_disabled":false,"rental_uris":{"android":"levelo://app?vid=3bf2c51c-5ec0-4e48-8741-c06c71a4921d","ios":"levelo://app?vid=3bf2c51c-5ec0-4e48-8741-c06c71a4921d"},"vehicle_type_id":"4","last_reported":1693674319,"current_range_meters":0,"station_id":"ce4bgt92rcd13ifvqcg0","pricing_plan_id":"free"},{"bike_id":"d8c4a3e0-87ff-4b51-951b-033e8d281acf","system_id":"levelo_inurba_marseille","lat":43.317075,"lon":5.377367,"is_reserved":false,"is_disabled":false,"rental_uris":{"android":"levelo://app?vid=d8c4a3e0-87ff-4b51-951b-033e8d281acf","ios":"levelo://app?vid=d8c4a3e0-87ff-4b51-951b-033e8d281acf"},"vehicle_type_id":"4","last_reported":1693674319,"current_range_meters":21600,"station_id":"ce4bgth2rcd13ifvqch0","pricing_plan_id":"free"},{"bike_id":"be6df8ec-367a-4fea-9b25-0d5589f80e60","system_id":"levelo_inurba_marseille","lat":43.317075,"lon":5.377367,"is_reserved":false,"is_disabled":false,"rental_uris":{"android":"levelo://app?vid=be6df8ec-367a-4fea-9b25-0d5589f80e60","ios":"levelo://app?vid=be6df8ec-367a-4fea-9b25-0d5589f80e60"},"vehicle_type_id":"4","last_reported":1693674319,"current_range_meters":15200,"station_id":"ce4bgth2rcd13ifvqch0","pricing_plan_id":"free"},{"bike_id":"8941e37b-b31a-42b0-8548-ff3f9ddcc073","system_id":"levelo_inurba_marseille","lat":43.317075,"lon":5.377367,"is_reserved":false,"is_disabled":false,"rental_uris":{"android":"levelo://app?vid=8941e37b-b31a-42b0-8548-ff3f9ddcc073","ios":"levelo://app?vid=8941e37b-b31a-42b0-8548-ff3f9ddcc073"},"vehicle_type_id":"4","last_reported":1693674319,"current_range_meters":24400,"station_id":"ce4bgth2rcd13ifvqch0","pricing_plan_id":"free"},{"bike_id":"56386c27-d7af-4c64-af42-5ec7e5f3699b","system_id":"levelo_inurba_marseille","lat":43.315289,"lon":5.380349,"is_reserved":false,"is_disabled":false,"rental_uris":{"android":"levelo://app?vid=56386c27-d7af-4c64-af42-5ec7e5f3699b","ios":"levelo://app?vid=56386c27-d7af-4c64-af42-5ec7e5f3699b"},"vehicle_type_id":"4","last_reported":1693674319,"current_range_meters":28800,"station_id":"ce4bhsp2rcd13ifvqi50","pricing_plan_id":"free"},{"bike_id":"0d5cca95-c27d-448d-823b-b578aa130290","system_id":"levelo_inurba_marseille","lat":43.30288,"lon":5.37423,"is_reserved":false,"is_disabled":false,"rental_uris":{"android":"levelo://app?vid=0d5cca95-c27d-448d-823b-b578aa130290","ios":"levelo://app?vid=0d5cca95-c27d-448d-823b-b578aa130290"},"vehicle_type_id":"4","last_reported":1693674319,"current_range_meters":24800,"station_id":"","pricing_plan_id":"free"},{"bike_id":"64ca2540-65ab-4f8a-be16-1f4ed0f6ac44","system_id":"levelo_inurba_marseille","lat":43.30196,"lon":5.374059,"is_reserved":false,"is_disabled":false,"rental_uris":{"android":"levelo://app?vid=64ca2540-65ab-4f8a-be16-1f4ed0f6ac44","ios":"levelo://app?vid=64ca2540-65ab-4f8a-be16-1f4ed0f6ac44"},"vehicle_type_id":"4","last_reported":1693674319,"current_range_meters":14000,"station_id":"","pricing_plan_id":"free"},{"bike_id":"33509a2c-8b26-46d4-a72c-fa7bc79089a8","system_id":"levelo_inurba_marseille","lat":43.302784,"lon":5.377158,"is_reserved":false,"is_disabled":false,"rental_uris":{"android":"levelo://app?vid=33509a2c-8b26-46d4-a72c-fa7bc79089a8","ios":"levelo://app?vid=33509a2c-8b26-46d4-a72c-fa7bc79089a8"},"vehicle_type_id":"4","last_reported":1693674319,"current_range_meters":24800,"station_id":"ce4bguh2rcd13ifvqcj0","pricing_plan_id":"free"},{"bike_id":"d13e2fc0-5196-41d3-8d49-bf9314309b08","system_id":"levelo_inurba_marseille","lat":43.31983,"lon":5.38134,"is_reserved":false,"is_disabled":false,"rental_uris":{"android":"levelo://app?vid=d13e2fc0-5196-41d3-8d49-bf9314309b08","ios":"levelo://app?vid=d13e2fc0-5196-41d3-8d49-bf9314309b08"},"vehicle_type_id":"4","last_reported":1693674319,"current_range_meters":28800,"station_id":"ce4bhr12rcd13ifvqhpg","pricing_plan_id":"free"},{"bike_id":"cc28612f-b913-4e07-81a1-e8a4df49747b","system_id":"levelo_inurba_marseille","lat":43.31996,"lon":5.38146,"is_reserved":false,"is_disabled":false,"rental_uris":{"android":"levelo://app?vid=cc28612f-b913-4e07-81a1-e8a4df49747b","ios":"levelo://app?vid=cc28612f-b913-4e07-81a1-e8a4df49747b"},"vehicle_type_id":"4","last_reported":1693674319,"current_range_meters":12000,"station_id":"ce4bhr12rcd13ifvqhpg","pricing_plan_id":"free"},{"bike_id":"3ce12e8d-2187-433e-90ea-725012bee47a","system_id":"levelo_inurba_marseille","lat":43.31999,"lon":5.38149,"is_reserved":false,"is_disabled":false,"rental_uris":{"android":"levelo://app?vid=3ce12e8d-2187-433e-90ea-725012bee47a","ios":"levelo://app?vid=3ce12e8d-2187-433e-90ea-725012bee47a"},"vehicle_type_id":"4","last_reported":1693674319,"current_range_meters":22000,"station_id":"ce4bhr12rcd13ifvqhpg","pricing_plan_id":"free"},{"bike_id":"5c3fb378-f93e-49cd-9655-88b958efa9e8","system_id":"levelo_inurba_marseille","lat":43.313571,"lon":5.384829,"is_reserved":false,"is_disabled":false,"rental_uris":{"android":"levelo://app?vid=5c3fb378-f93e-49cd-9655-88b958efa9e8","ios":"levelo://app?vid=5c3fb378-f93e-49cd-9655-88b958efa9e8"},"vehicle_type_id":"4","last_reported":1693674319,"current_range_meters":7600,"station_id":"ce4bgt92rcd13ifvqcf0","pricing_plan_id":"free"},{"bike_id":"23000983-4d38-4593-a967-68c83bf6d94b","system_id":"levelo_inurba_marseille","lat":43.313571,"lon":5.384829,"is_reserved":false,"is_disabled":false,"rental_uris":{"android":"levelo://app?vid=23000983-4d38-4593-a967-68c83bf6d94b","ios":"levelo://app?vid=23000983-4d38-4593-a967-68c83bf6d94b"},"vehicle_type_id":"4","last_reported":1693674319,"current_range_meters":10400,"station_id":"ce4bgt92rcd13ifvqcf0","pricing_plan_id":"free"},{"bike_id":"670b3a91-efa4-40df-9a95-929cff9ac5fa","system_id":"levelo_inurba_marseille","lat":43.313571,"lon":5.384829,"is_reserved":false,"is_disabled":false,"rental_uris":{"android":"levelo://app?vid=670b3a91-efa4-40df-9a95-929cff9ac5fa","ios":"levelo://app?vid=670b3a91-efa4-40df-9a95-929cff9ac5fa"},"vehicle_type_id":"4","last_reported":1693674319,"current_range_meters":17600,"station_id":"ce4bgt92rcd13ifvqcf0","pricing_plan_id":"free"},{"bike_id":"71c28ec9-b9f0-4f87-8251-861c96f638f4","system_id":"levelo_inurba_marseille","lat":43.313571,"lon":5.384829,"is_reserved":false,"is_disabled":false,"rental_uris":{"android":"levelo://app?vid=71c28ec9-b9f0-4f87-8251-861c96f638f4","ios":"levelo://app?vid=71c28ec9-b9f0-4f87-8251-861c96f638f4"},"vehicle_type_id":"4","last_reported":1693674319,"current_range_meters":27200,"station_id":"ce4bgt92rcd13ifvqcf0","pricing_plan_id":"free"},{"bike_id":"55ba5b50-ab2a-4bbb-a47e-9d6d1374dc14","system_id":"levelo_inurba_marseille","lat":43.313571,"lon":5.384829,"is_reserved":false,"is_disabled":false,"rental_uris":{"android":"levelo://app?vid=55ba5b50-ab2a-4bbb-a47e-9d6d1374dc14","ios":"levelo://app?vid=55ba5b50-ab2a-4bbb-a47e-9d6d1374dc14"},"vehicle_type_id":"4","last_reported":1693674319,"current_range_meters":0,"station_id":"ce4bgt92rcd13ifvqcf0","pricing_plan_id":"free"},{"bike_id":"2f6bec47-ebe5-41e7-96e0-71f1e636393b","system_id":"levelo_inurba_marseille","lat":43.313571,"lon":5.384829,"is_reserved":false,"is_disabled":false,"rental_uris":{"android":"levelo://app?vid=2f6bec47-ebe5-41e7-96e0-71f1e636393b","ios":"levelo://app?vid=2f6bec47-ebe5-41e7-96e0-71f1e636393b"},"vehicle_type_id":"4","last_reported":1693674319,"current_range_meters":10800,"station_id":"ce4bgt92rcd13ifvqcf0","pricing_plan_id":"free"},{"bike_id":"54162816-c7cf-4d15-80d8-1401c8b9dee6","system_id":"levelo_inurba_marseille","lat":43.30029,"lon":5.37417,"is_reserved":false,"is_disabled":false,"rental_uris":{"android":"levelo://app?vid=54162816-c7cf-4d15-80d8-1401c8b9dee6","ios":"levelo://app?vid=54162816-c7cf-4d15-80d8-1401c8b9dee6"},"vehicle_type_id":"4","last_reported":1693674319,"current_range_meters":25200,"station_id":"","pricing_plan_id":"free"},{"bike_id":"8ba91e64-5a99-41c9-b335-b1ec7a4e8241","system_id":"levelo_inurba_marseille","lat":43.299243,"lon":5.374807,"is_reserved":false,"is_disabled":false,"rental_uris":{"android":"levelo://app?vid=8ba91e64-5a99-41c9-b335-b1ec7a4e8241","ios":"levelo://app?vid=8ba91e64-5a99-41c9-b335-b1ec7a4e8241"},"vehicle_type_id":"4","last_reported":1693674319,"current_range_meters":20800,"station_id":"ce4bgjh2rcd13ifvqbg0","pricing_plan_id":"free"},{"bike_id":"839c3cef-b4cd-42c5-99c2-abbcdff2b9ed","system_id":"levelo_inurba_marseille","lat":43.29922,"lon":5.37458,"is_reserved":false,"is_disabled":false,"rental_uris":{"android":"levelo://app?vid=839c3cef-b4cd-42c5-99c2-abbcdff2b9ed","ios":"levelo://app?vid=839c3cef-b4cd-42c5-99c2-abbcdff2b9ed"},"vehicle_type_id":"4","last_reported":1693674319,"current_range_meters":19200,"station_id":"ce4bgjh2rcd13ifvqbg0","pricing_plan_id":"free"},{"bike_id":"2676a348-5fbb-4364-8c44-ac3761302055","system_id":"levelo_inurba_marseille","lat":43.305364,"lon":5.384119,"is_reserved":false,"is_disabled":false,"rental_uris":{"android":"levelo://app?vid=2676a348-5fbb-4364-8c44-ac3761302055","ios":"levelo://app?vid=2676a348-5fbb-4364-8c44-ac3761302055"},"vehicle_type_id":"4","last_reported":1693674319,"current_range_meters":21200,"station_id":"ce4bgg92rcd13ifvqb30","pricing_plan_id":"free"},{"bike_id":"8143ebd5-c5c5-467f-a353-1c0066f90341","system_id":"levelo_inurba_marseille","lat":43.297774,"lon":5.370875,"is_reserved":false,"is_disabled":false,"rental_uris":{"android":"levelo://app?vid=8143ebd5-c5c5-467f-a353-1c0066f90341","ios":"levelo://app?vid=8143ebd5-c5c5-467f-a353-1c0066f90341"},"vehicle_type_id":"4","last_reported":1693674319,"current_range_meters":31200,"station_id":"ce4bgop2rcd13ifvqc1g","pricing_plan_id":"free"},{"bike_id":"924d6452-f7f7-4baa-af9a-49926af70474","system_id":"levelo_inurba_marseille","lat":43.297794,"lon":5.370888,"is_reserved":false,"is_disabled":false,"rental_uris":{"android":"levelo://app?vid=924d6452-f7f7-4baa-af9a-49926af70474","ios":"levelo://app?vid=924d6452-f7f7-4baa-af9a-49926af70474"},"vehicle_type_id":"4","last_reported":1693674319,"current_range_meters":28400,"station_id":"ce4bgop2rcd13ifvqc1g","pricing_plan_id":"free"},{"bike_id":"0732df54-7bbd-4634-a475-4f6ee58d615a","system_id":"levelo_inurba_marseille","lat":43.32285,"lon":5.38267,"is_reserved":false,"is_disabled":false,"rental_uris":{"android":"levelo://app?vid=0732df54-7bbd-4634-a475-4f6ee58d615a","ios":"levelo://app?vid=0732df54-7bbd-4634-a475-4f6ee58d615a"},"vehicle_type_id":"4","last_reported":1693674319,"current_range_meters":10000,"station_id":"ce4bhr12rcd13ifvqhqg","pricing_plan_id":"free"},{"bike_id":"bd0bd295-6ecc-40c4-a4d0-89f645593756","system_id":"levelo_inurba_marseille","lat":43.297163,"lon":5.365866,"is_reserved":false,"is_disabled":false,"rental_uris":{"android":"levelo://app?vid=bd0bd295-6ecc-40c4-a4d0-89f645593756","ios":"levelo://app?vid=bd0bd295-6ecc-40c4-a4d0-89f645593756"},"vehicle_type_id":"4","last_reported":1693674319,"current_range_meters":20800,"station_id":"ce4bgn12rcd13ifvqbt0","pricing_plan_id":"free"},{"bike_id":"dd789220-e7b5-42c1-b9dc-dc4243148021","system_id":"levelo_inurba_marseille","lat":43.29701,"lon":5.36609,"is_reserved":false,"is_disabled":false,"rental_uris":{"android":"levelo://app?vid=dd789220-e7b5-42c1-b9dc-dc4243148021","ios":"levelo://app?vid=dd789220-e7b5-42c1-b9dc-dc4243148021"},"vehicle_type_id":"4","last_reported":1693674319,"current_range_meters":31200,"station_id":"ce4bgn12rcd13ifvqbt0","pricing_plan_id":"free"},{"bike_id":"65d934c8-ea94-404c-b991-a012f59c0b64","system_id":"levelo_inurba_marseille","lat":43.29618,"lon":5.37107,"is_reserved":false,"is_disabled":false,"rental_uris":{"android":"levelo://app?vid=65d934c8-ea94-404c-b991-a012f59c0b64","ios":"levelo://app?vid=65d934c8-ea94-404c-b991-a012f59c0b64"},"vehicle_type_id":"4","last_reported":1693674319,"current_range_meters":26400,"station_id":"ce4bgnh2rcd13ifvqc0g","pricing_plan_id":"free"},{"bike_id":"d3139180-8ba9-4c91-b6e4-8baae3c22113","system_id":"levelo_inurba_marseille","lat":43.296131,"lon":5.370773,"is_reserved":false,"is_disabled":false,"rental_uris":{"android":"levelo://app?vid=d3139180-8ba9-4c91-b6e4-8baae3c22113","ios":"levelo://app?vid=d3139180-8ba9-4c91-b6e4-8baae3c22113"},"vehicle_type_id":"4","last_reported":1693674319,"current_range_meters":31200,"station_id":"ce4bgnh2rcd13ifvqc0g","pricing_plan_id":"free"},{"bike_id":"0e17b6cc-56ee-4853-910f-aed36feb4b1e","system_id":"levelo_inurba_marseille","lat":43.309589,"lon":5.390258,"is_reserved":false,"is_disabled":false,"rental_uris":{"android":"levelo://app?vid=0e17b6cc-56ee-4853-910f-aed36feb4b1e","ios":"levelo://app?vid=0e17b6cc-56ee-4853-910f-aed36feb4b1e"},"vehicle_type_id":"4","last_reported":1693674319,"current_range_meters":0,"station_id":"ce4bgup2rcd13ifvqco0","pricing_plan_id":"free"},{"bike_id":"2c93ce6f-c5e1-4ec9-9941-ebb7469bb8f2","system_id":"levelo_inurba_marseille","lat":43.31763,"lon":5.39005,"is_reserved":false,"is_disabled":false,"rental_uris":{"android":"levelo://app?vid=2c93ce6f-c5e1-4ec9-9941-ebb7469bb8f2","ios":"levelo://app?vid=2c93ce6f-c5e1-4ec9-9941-ebb7469bb8f2"},"vehicle_type_id":"4","last_reported":1693674319,"current_range_meters":15600,"station_id":"ce4bhqp2rcd13ifvqhng","pricing_plan_id":"free"},{"bike_id":"86d37462-6f2c-4ee1-b5e1-16f3e9285866","system_id":"levelo_inurba_marseille","lat":43.31755,"lon":5.39023,"is_reserved":false,"is_disabled":false,"rental_uris":{"android":"levelo://app?vid=86d37462-6f2c-4ee1-b5e1-16f3e9285866","ios":"levelo://app?vid=86d37462-6f2c-4ee1-b5e1-16f3e9285866"},"vehicle_type_id":"4","last_reported":1693674319,"current_range_meters":16000,"station_id":"ce4bhqp2rcd13ifvqhng","pricing_plan_id":"free"},{"bike_id":"2d38d843-9501-4a8b-8d1e-e53e054245cc","system_id":"levelo_inurba_marseille","lat":43.29702,"lon":5.37811,"is_reserved":false,"is_disabled":false,"rental_uris":{"android":"levelo://app?vid=2d38d843-9501-4a8b-8d1e-e53e054245cc","ios":"levelo://app?vid=2d38d843-9501-4a8b-8d1e-e53e054245cc"},"vehicle_type_id":"4","last_reported":1693674319,"current_range_meters":29600,"station_id":"","pricing_plan_id":"free"},{"bike_id":"6c6ded89-a396-44f5-89a5-ffac171a81bc","system_id":"levelo_inurba_marseille","lat":43.298037,"lon":5.381066,"is_reserved":false,"is_disabled":false,"rental_uris":{"android":"levelo://app?vid=6c6ded89-a396-44f5-89a5-ffac171a81bc","ios":"levelo://app?vid=6c6ded89-a396-44f5-89a5-ffac171a81bc"},"vehicle_type_id":"4","last_reported":1693674319,"current_range_meters":24000,"station_id":"ce4bgip2rcd13ifvqbb0","pricing_plan_id":"free"},{"bike_id":"7dae2b57-ef9f-4639-b452-5b33a97de3ff","system_id":"levelo_inurba_marseille","lat":43.298037,"lon":5.381066,"is_reserved":false,"is_disabled":false,"rental_uris":{"android":"levelo://app?vid=7dae2b57-ef9f-4639-b452-5b33a97de3ff","ios":"levelo://app?vid=7dae2b57-ef9f-4639-b452-5b33a97de3ff"},"vehicle_type_id":"4","last_reported":1693674319,"current_range_meters":17600,"station_id":"ce4bgip2rcd13ifvqbb0","pricing_plan_id":"free"},{"bike_id":"3ed45a18-1d83-4d4e-9757-4b1aadf8dca7","system_id":"levelo_inurba_marseille","lat":43.295748,"lon":5.37522,"is_reserved":false,"is_disabled":false,"rental_uris":{"android":"levelo://app?vid=3ed45a18-1d83-4d4e-9757-4b1aadf8dca7","ios":"levelo://app?vid=3ed45a18-1d83-4d4e-9757-4b1aadf8dca7"},"vehicle_type_id":"4","last_reported":1693674319,"current_range_meters":400,"station_id":"ce4bgh92rcd13ifvqb50","pricing_plan_id":"free"},{"bike_id":"393aed55-64b0-4473-bb98-050696405078","system_id":"levelo_inurba_marseille","lat":43.29567,"lon":5.37518,"is_reserved":false,"is_disabled":false,"rental_uris":{"android":"levelo://app?vid=393aed55-64b0-4473-bb98-050696405078","ios":"levelo://app?vid=393aed55-64b0-4473-bb98-050696405078"},"vehicle_type_id":"4","last_reported":1693674319,"current_range_meters":7200,"station_id":"ce4bgh92rcd13ifvqb50","pricing_plan_id":"free"},{"bike_id":"51751368-a929-4bfc-bb64-766d6a5421c7","system_id":"levelo_inurba_marseille","lat":43.296277,"lon":5.377108,"is_reserved":false,"is_disabled":false,"rental_uris":{"android":"levelo://app?vid=51751368-a929-4bfc-bb64-766d6a5421c7","ios":"levelo://app?vid=51751368-a929-4bfc-bb64-766d6a5421c7"},"vehicle_type_id":"4","last_reported":1693674319,"current_range_meters":2000,"station_id":"ce4bgi92rcd13ifvqb90","pricing_plan_id":"free"},{"bike_id":"7656a925-b277-496c-8cba-5cba0cbc90a9","system_id":"levelo_inurba_marseille","lat":43.296277,"lon":5.377108,"is_reserved":false,"is_disabled":false,"rental_uris":{"android":"levelo://app?vid=7656a925-b277-496c-8cba-5cba0cbc90a9","ios":"levelo://app?vid=7656a925-b277-496c-8cba-5cba0cbc90a9"},"vehicle_type_id":"4","last_reported":1693674319,"current_range_meters":4800,"station_id":"ce4bgi92rcd13ifvqb90","pricing_plan_id":"free"},{"bike_id":"2f8383c1-2779-48f5-89a9-9bdb6691896a","system_id":"levelo_inurba_marseille","lat":43.299724,"lon":5.384848,"is_reserved":false,"is_disabled":false,"rental_uris":{"android":"levelo://app?vid=2f8383c1-2779-48f5-89a9-9bdb6691896a","ios":"levelo://app?vid=2f8383c1-2779-48f5-89a9-9bdb6691896a"},"vehicle_type_id":"4","last_reported":1693674319,"current_range_meters":1200,"station_id":"ce4bgj92rcd13ifvqbd0","pricing_plan_id":"free"},{"bike_id":"e6646336-4850-43ac-bac1-4539a07a5f88","system_id":"levelo_inurba_marseille","lat":43.298768,"lon":5.43643,"is_reserved":false,"is_disabled":false,"rental_uris":{"android":"levelo://app?vid=e6646336-4850-43ac-bac1-4539a07a5f88","ios":"levelo://app?vid=e6646336-4850-43ac-bac1-4539a07a5f88"},"vehicle_type_id":"4","last_reported":1693674319,"current_range_meters":16800,"station_id":"ce4bhpp2rcd13ifvqhfg","pricing_plan_id":"free"},{"bike_id":"16f73c68-eedf-4c86-8504-c4dcfb449b32","system_id":"levelo_inurba_marseille","lat":43.32367,"lon":5.38883,"is_reserved":false,"is_disabled":false,"rental_uris":{"android":"levelo://app?vid=16f73c68-eedf-4c86-8504-c4dcfb449b32","ios":"levelo://app?vid=16f73c68-eedf-4c86-8504-c4dcfb449b32"},"vehicle_type_id":"4","last_reported":1693674319,"current_range_meters":31200,"station_id":"ce4bhqp2rcd13ifvqhog","pricing_plan_id":"free"},{"bike_id":"7765e955-4e3e-4602-aebe-3f00c71fe745","system_id":"levelo_inurba_marseille","lat":43.32371,"lon":5.38882,"is_reserved":false,"is_disabled":false,"rental_uris":{"android":"levelo://app?vid=7765e955-4e3e-4602-aebe-3f00c71fe745","ios":"levelo://app?vid=7765e955-4e3e-4602-aebe-3f00c71fe745"},"vehicle_type_id":"4","last_reported":1693674319,"current_range_meters":17200,"station_id":"ce4bhqp2rcd13ifvqhog","pricing_plan_id":"free"},{"bike_id":"9180c84f-0f25-4355-8dec-d34711128242","system_id":"levelo_inurba_marseille","lat":43.32371,"lon":5.38889,"is_reserved":false,"is_disabled":false,"rental_uris":{"android":"levelo://app?vid=9180c84f-0f25-4355-8dec-d34711128242","ios":"levelo://app?vid=9180c84f-0f25-4355-8dec-d34711128242"},"vehicle_type_id":"4","last_reported":1693674319,"current_range_meters":20000,"station_id":"ce4bhqp2rcd13ifvqhog","pricing_plan_id":"free"},{"bike_id":"af378848-4ab5-4a0c-a75c-c290cd6c3483","system_id":"levelo_inurba_marseille","lat":43.32459,"lon":5.38946,"is_reserved":false,"is_disabled":false,"rental_uris":{"android":"levelo://app?vid=af378848-4ab5-4a0c-a75c-c290cd6c3483","ios":"levelo://app?vid=af378848-4ab5-4a0c-a75c-c290cd6c3483"},"vehicle_type_id":"4","last_reported":1693674319,"current_range_meters":0,"station_id":"","pricing_plan_id":"free"},{"bike_id":"ba448e48-5379-4ce7-bab3-0b6f946b5757","system_id":"levelo_inurba_marseille","lat":43.29309,"lon":5.37457,"is_reserved":false,"is_disabled":false,"rental_uris":{"android":"levelo://app?vid=ba448e48-5379-4ce7-bab3-0b6f946b5757","ios":"levelo://app?vid=ba448e48-5379-4ce7-bab3-0b6f946b5757"},"vehicle_type_id":"4","last_reported":1693674319,"current_range_meters":17600,"station_id":"","pricing_plan_id":"free"},{"bike_id":"cb663759-20f6-4464-a70a-63a52df3ee9c","system_id":"levelo_inurba_marseille","lat":43.293009,"lon":5.374584,"is_reserved":false,"is_disabled":false,"rental_uris":{"android":"levelo://app?vid=cb663759-20f6-4464-a70a-63a52df3ee9c","ios":"levelo://app?vid=cb663759-20f6-4464-a70a-63a52df3ee9c"},"vehicle_type_id":"4","last_reported":1693674319,"current_range_meters":26800,"station_id":"ce4bgi12rcd13ifvqb70","pricing_plan_id":"free"},{"bike_id":"f583b538-b77d-47fa-be0c-07597f7c189c","system_id":"levelo_inurba_marseille","lat":43.293009,"lon":5.374584,"is_reserved":false,"is_disabled":false,"rental_uris":{"android":"levelo://app?vid=f583b538-b77d-47fa-be0c-07597f7c189c","ios":"levelo://app?vid=f583b538-b77d-47fa-be0c-07597f7c189c"},"vehicle_type_id":"4","last_reported":1693674319,"current_range_meters":26400,"station_id":"ce4bgi12rcd13ifvqb70","pricing_plan_id":"free"},{"bike_id":"4ce53d34-f458-4c4a-9e34-eaec80e41654","system_id":"levelo_inurba_marseille","lat":43.293009,"lon":5.374584,"is_reserved":false,"is_disabled":false,"rental_uris":{"android":"levelo://app?vid=4ce53d34-f458-4c4a-9e34-eaec80e41654","ios":"levelo://app?vid=4ce53d34-f458-4c4a-9e34-eaec80e41654"},"vehicle_type_id":"4","last_reported":1693674319,"current_range_meters":2400,"station_id":"ce4bgi12rcd13ifvqb70","pricing_plan_id":"free"},{"bike_id":"9d605d9c-d9ce-4eeb-9f3e-7ee20ed0885d","system_id":"levelo_inurba_marseille","lat":43.293009,"lon":5.374584,"is_reserved":false,"is_disabled":false,"rental_uris":{"android":"levelo://app?vid=9d605d9c-d9ce-4eeb-9f3e-7ee20ed0885d","ios":"levelo://app?vid=9d605d9c-d9ce-4eeb-9f3e-7ee20ed0885d"},"vehicle_type_id":"4","last_reported":1693674319,"current_range_meters":25200,"station_id":"ce4bgi12rcd13ifvqb70","pricing_plan_id":"free"},{"bike_id":"96aa8eae-68a7-41cd-8f53-14c192bace2e","system_id":"levelo_inurba_marseille","lat":43.29961,"lon":5.38873,"is_reserved":false,"is_disabled":false,"rental_uris":{"android":"levelo://app?vid=96aa8eae-68a7-41cd-8f53-14c192bace2e","ios":"levelo://app?vid=96aa8eae-68a7-41cd-8f53-14c192bace2e"},"vehicle_type_id":"4","last_reported":1693674319,"current_range_meters":23600,"station_id":"","pricing_plan_id":"free"},{"bike_id":"a3b3aa9a-769e-4f3c-87ec-6e1b8fd50a23","system_id":"levelo_inurba_marseille","lat":43.2929,"lon":5.37458,"is_reserved":false,"is_disabled":false,"rental_uris":{"android":"levelo://app?vid=a3b3aa9a-769e-4f3c-87ec-6e1b8fd50a23","ios":"levelo://app?vid=a3b3aa9a-769e-4f3c-87ec-6e1b8fd50a23"},"vehicle_type_id":"4","last_reported":1693674319,"current_range_meters":4400,"station_id":"","pricing_plan_id":"free"},{"bike_id":"11773bf1-ae8d-48b0-b5df-639cf03394c1","system_id":"levelo_inurba_marseille","lat":43.293009,"lon":5.374584,"is_reserved":false,"is_disabled":false,"rental_uris":{"android":"levelo://app?vid=11773bf1-ae8d-48b0-b5df-639cf03394c1","ios":"levelo://app?vid=11773bf1-ae8d-48b0-b5df-639cf03394c1"},"vehicle_type_id":"4","last_reported":1693674319,"current_range_meters":22000,"station_id":"ce4bgi12rcd13ifvqb70","pricing_plan_id":"free"},{"bike_id":"bc0dff1b-a39d-4ed1-805f-bf1558dfef06","system_id":"levelo_inurba_marseille","lat":43.30313,"lon":5.39209,"is_reserved":false,"is_disabled":false,"rental_uris":{"android":"levelo://app?vid=bc0dff1b-a39d-4ed1-805f-bf1558dfef06","ios":"levelo://app?vid=bc0dff1b-a39d-4ed1-805f-bf1558dfef06"},"vehicle_type_id":"4","last_reported":1693674319,"current_range_meters":0,"station_id":"ce4bgkh2rcd13ifvqbk0","pricing_plan_id":"free"},{"bike_id":"9f90bcb0-143c-434e-b359-7550a118cded","system_id":"levelo_inurba_marseille","lat":43.32231,"lon":5.39214,"is_reserved":false,"is_disabled":false,"rental_uris":{"android":"levelo://app?vid=9f90bcb0-143c-434e-b359-7550a118cded","ios":"levelo://app?vid=9f90bcb0-143c-434e-b359-7550a118cded"},"vehicle_type_id":"4","last_reported":1693674319,"current_range_meters":30400,"station_id":"","pricing_plan_id":"free"},{"bike_id":"0724f352-a262-45b7-9b71-9a09ff17d945","system_id":"levelo_inurba_marseille","lat":43.302992,"lon":5.392136,"is_reserved":false,"is_disabled":false,"rental_uris":{"android":"levelo://app?vid=0724f352-a262-45b7-9b71-9a09ff17d945","ios":"levelo://app?vid=0724f352-a262-45b7-9b71-9a09ff17d945"},"vehicle_type_id":"4","last_reported":1693674319,"current_range_meters":21600,"station_id":"ce4bgkh2rcd13ifvqbk0","pricing_plan_id":"free"},{"bike_id":"e4c957cd-020e-4e84-b9bb-5fffc97029e3","system_id":"levelo_inurba_marseille","lat":43.32236,"lon":5.39215,"is_reserved":false,"is_disabled":false,"rental_uris":{"android":"levelo://app?vid=e4c957cd-020e-4e84-b9bb-5fffc97029e3","ios":"levelo://app?vid=e4c957cd-020e-4e84-b9bb-5fffc97029e3"},"vehicle_type_id":"4","last_reported":1693674319,"current_range_meters":16400,"station_id":"","pricing_plan_id":"free"},{"bike_id":"85c1373a-6dbc-4360-b69b-85dfe493c752","system_id":"levelo_inurba_marseille","lat":43.2936,"lon":5.37835,"is_reserved":false,"is_disabled":false,"rental_uris":{"android":"levelo://app?vid=85c1373a-6dbc-4360-b69b-85dfe493c752","ios":"levelo://app?vid=85c1373a-6dbc-4360-b69b-85dfe493c752"},"vehicle_type_id":"4","last_reported":1693674319,"current_range_meters":29200,"station_id":"ce4bgjh2rcd13ifvqbf0","pricing_plan_id":"free"},{"bike_id":"38fef587-7cc5-4800-b069-87b8f296a10a","system_id":"levelo_inurba_marseille","lat":43.30295,"lon":5.39208,"is_reserved":false,"is_disabled":false,"rental_uris":{"android":"levelo://app?vid=38fef587-7cc5-4800-b069-87b8f296a10a","ios":"levelo://app?vid=38fef587-7cc5-4800-b069-87b8f296a10a"},"vehicle_type_id":"4","last_reported":1693674319,"current_range_meters":19600,"station_id":"ce4bgkh2rcd13ifvqbk0","pricing_plan_id":"free"},{"bike_id":"59d4a7cc-c4d8-47e1-a63f-2e26b5d209c3","system_id":"levelo_inurba_marseille","lat":43.2936,"lon":5.37835,"is_reserved":false,"is_disabled":false,"rental_uris":{"android":"levelo://app?vid=59d4a7cc-c4d8-47e1-a63f-2e26b5d209c3","ios":"levelo://app?vid=59d4a7cc-c4d8-47e1-a63f-2e26b5d209c3"},"vehicle_type_id":"4","last_reported":1693674319,"current_range_meters":28800,"station_id":"ce4bgjh2rcd13ifvqbf0","pricing_plan_id":"free"},{"bike_id":"0ae7ac11-e9a7-45b1-bece-d3b75ea0c386","system_id":"levelo_inurba_marseille","lat":43.32229,"lon":5.39228,"is_reserved":false,"is_disabled":false,"rental_uris":{"android":"levelo://app?vid=0ae7ac11-e9a7-45b1-bece-d3b75ea0c386","ios":"levelo://app?vid=0ae7ac11-e9a7-45b1-bece-d3b75ea0c386"},"vehicle_type_id":"4","last_reported":1693674319,"current_range_meters":28400,"station_id":"","pricing_plan_id":"free"},{"bike_id":"04c44af8-961c-4894-9ffb-920bbf33f82f","system_id":"levelo_inurba_marseille","lat":43.2936,"lon":5.37835,"is_reserved":false,"is_disabled":false,"rental_uris":{"android":"levelo://app?vid=04c44af8-961c-4894-9ffb-920bbf33f82f","ios":"levelo://app?vid=04c44af8-961c-4894-9ffb-920bbf33f82f"},"vehicle_type_id":"4","last_reported":1693674319,"current_range_meters":21600,"station_id":"ce4bgjh2rcd13ifvqbf0","pricing_plan_id":"free"},{"bike_id":"651d021b-ac2c-4d14-b314-485ac3e2f5dd","system_id":"levelo_inurba_marseille","lat":43.29218,"lon":5.36058,"is_reserved":false,"is_disabled":false,"rental_uris":{"android":"levelo://app?vid=651d021b-ac2c-4d14-b314-485ac3e2f5dd","ios":"levelo://app?vid=651d021b-ac2c-4d14-b314-485ac3e2f5dd"},"vehicle_type_id":"4","last_reported":1693674319,"current_range_meters":31200,"station_id":"ce4bhbh2rcd13ifvqeqg","pricing_plan_id":"free"},{"bike_id":"7a62572b-1404-42a1-bbf5-8945d933272f","system_id":"levelo_inurba_marseille","lat":43.29217,"lon":5.36057,"is_reserved":false,"is_disabled":false,"rental_uris":{"android":"levelo://app?vid=7a62572b-1404-42a1-bbf5-8945d933272f","ios":"levelo://app?vid=7a62572b-1404-42a1-bbf5-8945d933272f"},"vehicle_type_id":"4","last_reported":1693674319,"current_range_meters":26400,"station_id":"ce4bhbh2rcd13ifvqeqg","pricing_plan_id":"free"},{"bike_id":"90b8cf54-131b-4f36-baba-1fc93a66d18c","system_id":"levelo_inurba_marseille","lat":43.291671,"lon":5.371575,"is_reserved":false,"is_disabled":false,"rental_uris":{"android":"levelo://app?vid=90b8cf54-131b-4f36-baba-1fc93a66d18c","ios":"levelo://app?vid=90b8cf54-131b-4f36-baba-1fc93a66d18c"},"vehicle_type_id":"4","last_reported":1693674319,"current_range_meters":9200,"station_id":"ce4bha92rcd13ifvqeh0","pricing_plan_id":"free"},{"bike_id":"cde50e22-6a32-4e74-8eab-965a7c882fe8","system_id":"levelo_inurba_marseille","lat":43.292663,"lon":5.376389,"is_reserved":false,"is_disabled":false,"rental_uris":{"android":"levelo://app?vid=cde50e22-6a32-4e74-8eab-965a7c882fe8","ios":"levelo://app?vid=cde50e22-6a32-4e74-8eab-965a7c882fe8"},"vehicle_type_id":"4","last_reported":1693674319,"current_range_meters":21600,"station_id":"ce4bgi12rcd13ifvqb80","pricing_plan_id":"free"},{"bike_id":"b127cb02-a67f-4944-955b-2653cb69db42","system_id":"levelo_inurba_marseille","lat":43.29142,"lon":5.36689,"is_reserved":false,"is_disabled":false,"rental_uris":{"android":"levelo://app?vid=b127cb02-a67f-4944-955b-2653cb69db42","ios":"levelo://app?vid=b127cb02-a67f-4944-955b-2653cb69db42"},"vehicle_type_id":"4","last_reported":1693674319,"current_range_meters":21200,"station_id":"ce4bhc92rcd13ifvqetg","pricing_plan_id":"free"},{"bike_id":"0d962e12-b732-4464-bc89-f40845207671","system_id":"levelo_inurba_marseille","lat":43.33254,"lon":5.37824,"is_reserved":false,"is_disabled":false,"rental_uris":{"android":"levelo://app?vid=0d962e12-b732-4464-bc89-f40845207671","ios":"levelo://app?vid=0d962e12-b732-4464-bc89-f40845207671"},"vehicle_type_id":"4","last_reported":1693674319,"current_range_meters":5600,"station_id":"","pricing_plan_id":"free"},{"bike_id":"73c2e0c0-a939-4bc3-943a-e52094180bff","system_id":"levelo_inurba_marseille","lat":43.29189,"lon":5.35791,"is_reserved":false,"is_disabled":false,"rental_uris":{"android":"levelo://app?vid=73c2e0c0-a939-4bc3-943a-e52094180bff","ios":"levelo://app?vid=73c2e0c0-a939-4bc3-943a-e52094180bff"},"vehicle_type_id":"4","last_reported":1693674319,"current_range_meters":17200,"station_id":"ce4bhb12rcd13ifvqel0","pricing_plan_id":"free"},{"bike_id":"063abf53-eb9f-45fd-9de3-05a717478b35","system_id":"levelo_inurba_marseille","lat":43.3089,"lon":5.3965,"is_reserved":false,"is_disabled":false,"rental_uris":{"android":"levelo://app?vid=063abf53-eb9f-45fd-9de3-05a717478b35","ios":"levelo://app?vid=063abf53-eb9f-45fd-9de3-05a717478b35"},"vehicle_type_id":"4","last_reported":1693674319,"current_range_meters":0,"station_id":"ce4bh012rcd13ifvqcv0","pricing_plan_id":"free"},{"bike_id":"37965752-170f-4cb0-b414-396287e8a861","system_id":"levelo_inurba_marseille","lat":43.29529,"lon":5.385581,"is_reserved":false,"is_disabled":false,"rental_uris":{"android":"levelo://app?vid=37965752-170f-4cb0-b414-396287e8a861","ios":"levelo://app?vid=37965752-170f-4cb0-b414-396287e8a861"},"vehicle_type_id":"4","last_reported":1693674319,"current_range_meters":3600,"station_id":"ce4bgih2rcd13ifvqba0","pricing_plan_id":"free"},{"bike_id":"16d4d528-e7df-41a1-937d-82b5ea0537c6","system_id":"levelo_inurba_marseille","lat":43.290779,"lon":5.371482,"is_reserved":false,"is_disabled":false,"rental_uris":{"android":"levelo://app?vid=16d4d528-e7df-41a1-937d-82b5ea0537c6","ios":"levelo://app?vid=16d4d528-e7df-41a1-937d-82b5ea0537c6"},"vehicle_type_id":"4","last_reported":1693674319,"current_range_meters":20800,"station_id":"ce4bh5p2rcd13ifvqe4g","pricing_plan_id":"free"},{"bike_id":"88393da4-6ed4-4d2f-b40f-d13cec5060dc","system_id":"levelo_inurba_marseille","lat":43.29417,"lon":5.38618,"is_reserved":false,"is_disabled":false,"rental_uris":{"android":"levelo://app?vid=88393da4-6ed4-4d2f-b40f-d13cec5060dc","ios":"levelo://app?vid=88393da4-6ed4-4d2f-b40f-d13cec5060dc"},"vehicle_type_id":"4","last_reported":1693674319,"current_range_meters":2800,"station_id":"ce4bh2h2rcd13ifvqdh0","pricing_plan_id":"free"},{"bike_id":"2f93318d-a393-4e93-88c9-60d3ec241b0e","system_id":"levelo_inurba_marseille","lat":43.28942,"lon":5.36632,"is_reserved":false,"is_disabled":false,"rental_uris":{"android":"levelo://app?vid=2f93318d-a393-4e93-88c9-60d3ec241b0e","ios":"levelo://app?vid=2f93318d-a393-4e93-88c9-60d3ec241b0e"},"vehicle_type_id":"4","last_reported":1693674319,"current_range_meters":29600,"station_id":"ce4bhap2rcd13ifvqek0","pricing_plan_id":"free"},{"bike_id":"c6d18183-d131-4bf7-b284-d16e724cceea","system_id":"levelo_inurba_marseille","lat":43.289468,"lon":5.363719,"is_reserved":false,"is_disabled":false,"rental_uris":{"android":"levelo://app?vid=c6d18183-d131-4bf7-b284-d16e724cceea","ios":"levelo://app?vid=c6d18183-d131-4bf7-b284-d16e724cceea"},"vehicle_type_id":"4","last_reported":1693674319,"current_range_meters":26800,"station_id":"ce4bhc92rcd13ifvqetg","pricing_plan_id":"free"},{"bike_id":"5d75764a-9526-4b04-8914-88726cee84b2","system_id":"levelo_inurba_marseille","lat":43.292644,"lon":5.384257,"is_reserved":false,"is_disabled":false,"rental_uris":{"android":"levelo://app?vid=5d75764a-9526-4b04-8914-88726cee84b2","ios":"levelo://app?vid=5d75764a-9526-4b04-8914-88726cee84b2"},"vehicle_type_id":"4","last_reported":1693674319,"current_range_meters":23200,"station_id":"ce4bh692rcd13ifvqea0","pricing_plan_id":"free"},{"bike_id":"1f43c17b-847b-4150-bc4b-2d6a59d80895","system_id":"levelo_inurba_marseille","lat":43.292644,"lon":5.384257,"is_reserved":false,"is_disabled":false,"rental_uris":{"android":"levelo://app?vid=1f43c17b-847b-4150-bc4b-2d6a59d80895","ios":"levelo://app?vid=1f43c17b-847b-4150-bc4b-2d6a59d80895"},"vehicle_type_id":"4","last_reported":1693674319,"current_range_meters":24400,"station_id":"ce4bh692rcd13ifvqea0","pricing_plan_id":"free"},{"bike_id":"034dd30f-b68d-4107-ba32-e849a3ed986e","system_id":"levelo_inurba_marseille","lat":43.304274,"lon":5.397513,"is_reserved":false,"is_disabled":false,"rental_uris":{"android":"levelo://app?vid=034dd30f-b68d-4107-ba32-e849a3ed986e","ios":"levelo://app?vid=034dd30f-b68d-4107-ba32-e849a3ed986e"},"vehicle_type_id":"4","last_reported":1693674319,"current_range_meters":0,"station_id":"ce4bh092rcd13ifvqd20","pricing_plan_id":"free"},{"bike_id":"46946f53-efc3-4c4a-955d-dabfa3c8bfb3","system_id":"levelo_inurba_marseille","lat":43.33034,"lon":5.38912,"is_reserved":false,"is_disabled":false,"rental_uris":{"android":"levelo://app?vid=46946f53-efc3-4c4a-955d-dabfa3c8bfb3","ios":"levelo://app?vid=46946f53-efc3-4c4a-955d-dabfa3c8bfb3"},"vehicle_type_id":"4","last_reported":1693674319,"current_range_meters":19600,"station_id":"ce4bhr92rcd13ifvqhrg","pricing_plan_id":"free"},{"bike_id":"8077604d-b9d4-4aae-b42f-6a79c8cc4721","system_id":"levelo_inurba_marseille","lat":43.33037,"lon":5.38914,"is_reserved":false,"is_disabled":false,"rental_uris":{"android":"levelo://app?vid=8077604d-b9d4-4aae-b42f-6a79c8cc4721","ios":"levelo://app?vid=8077604d-b9d4-4aae-b42f-6a79c8cc4721"},"vehicle_type_id":"4","last_reported":1693674319,"current_range_meters":23200,"station_id":"ce4bhr92rcd13ifvqhrg","pricing_plan_id":"free"},{"bike_id":"3e0449ec-e32f-417c-946f-951095c26cc1","system_id":"levelo_inurba_marseille","lat":43.3304,"lon":5.38913,"is_reserved":false,"is_disabled":false,"rental_uris":{"android":"levelo://app?vid=3e0449ec-e32f-417c-946f-951095c26cc1","ios":"levelo://app?vid=3e0449ec-e32f-417c-946f-951095c26cc1"},"vehicle_type_id":"4","last_reported":1693674319,"current_range_meters":26000,"station_id":"ce4bhr92rcd13ifvqhrg","pricing_plan_id":"free"},{"bike_id":"276df892-9a2a-40a9-929d-29c6fe2dac65","system_id":"levelo_inurba_marseille","lat":43.33041,"lon":5.38917,"is_reserved":false,"is_disabled":false,"rental_uris":{"android":"levelo://app?vid=276df892-9a2a-40a9-929d-29c6fe2dac65","ios":"levelo://app?vid=276df892-9a2a-40a9-929d-29c6fe2dac65"},"vehicle_type_id":"4","last_reported":1693674319,"current_range_meters":22000,"station_id":"ce4bhr92rcd13ifvqhrg","pricing_plan_id":"free"},{"bike_id":"978b0ff4-c9df-43ed-a4e7-ec9b1854c595","system_id":"levelo_inurba_marseille","lat":43.33041,"lon":5.38918,"is_reserved":false,"is_disabled":false,"rental_uris":{"android":"levelo://app?vid=978b0ff4-c9df-43ed-a4e7-ec9b1854c595","ios":"levelo://app?vid=978b0ff4-c9df-43ed-a4e7-ec9b1854c595"},"vehicle_type_id":"4","last_reported":1693674319,"current_range_meters":16000,"station_id":"ce4bhr92rcd13ifvqhrg","pricing_plan_id":"free"},{"bike_id":"d346ead7-ea15-4af0-898b-f25c067a214a","system_id":"levelo_inurba_marseille","lat":43.33042,"lon":5.3892,"is_reserved":false,"is_disabled":false,"rental_uris":{"android":"levelo://app?vid=d346ead7-ea15-4af0-898b-f25c067a214a","ios":"levelo://app?vid=d346ead7-ea15-4af0-898b-f25c067a214a"},"vehicle_type_id":"4","last_reported":1693674319,"current_range_meters":14400,"station_id":"ce4bhr92rcd13ifvqhrg","pricing_plan_id":"free"},{"bike_id":"1895038e-acdb-4d35-aa35-e1291f23a30a","system_id":"levelo_inurba_marseille","lat":43.290103,"lon":5.356114,"is_reserved":false,"is_disabled":false,"rental_uris":{"android":"levelo://app?vid=1895038e-acdb-4d35-aa35-e1291f23a30a","ios":"levelo://app?vid=1895038e-acdb-4d35-aa35-e1291f23a30a"},"vehicle_type_id":"4","last_reported":1693674319,"current_range_meters":31200,"station_id":"ce4bhb92rcd13ifvqen0","pricing_plan_id":"free"},{"bike_id":"90f1fc97-49d0-4df8-9f32-3dfcd4a32851","system_id":"levelo_inurba_marseille","lat":43.33041,"lon":5.38925,"is_reserved":false,"is_disabled":false,"rental_uris":{"android":"levelo://app?vid=90f1fc97-49d0-4df8-9f32-3dfcd4a32851","ios":"levelo://app?vid=90f1fc97-49d0-4df8-9f32-3dfcd4a32851"},"vehicle_type_id":"4","last_reported":1693674319,"current_range_meters":13600,"station_id":"ce4bhr92rcd13ifvqhrg","pricing_plan_id":"free"},{"bike_id":"e7c8cfe2-9bdf-4363-a136-3e02a3639875","system_id":"levelo_inurba_marseille","lat":43.33047,"lon":5.38916,"is_reserved":false,"is_disabled":false,"rental_uris":{"android":"levelo://app?vid=e7c8cfe2-9bdf-4363-a136-3e02a3639875","ios":"levelo://app?vid=e7c8cfe2-9bdf-4363-a136-3e02a3639875"},"vehicle_type_id":"4","last_reported":1693674319,"current_range_meters":8400,"station_id":"ce4bhr92rcd13ifvqhrg","pricing_plan_id":"free"},{"bike_id":"d7932d52-0b99-415c-88dc-561d5faa16a4","system_id":"levelo_inurba_marseille","lat":43.290104,"lon":5.356111,"is_reserved":false,"is_disabled":false,"rental_uris":{"android":"levelo://app?vid=d7932d52-0b99-415c-88dc-561d5faa16a4","ios":"levelo://app?vid=d7932d52-0b99-415c-88dc-561d5faa16a4"},"vehicle_type_id":"4","last_reported":1693674319,"current_range_meters":31200,"station_id":"ce4bhb92rcd13ifvqen0","pricing_plan_id":"free"},{"bike_id":"028b16b4-c861-455c-93e2-214442c48086","system_id":"levelo_inurba_marseille","lat":43.290104,"lon":5.356111,"is_reserved":false,"is_disabled":false,"rental_uris":{"android":"levelo://app?vid=028b16b4-c861-455c-93e2-214442c48086","ios":"levelo://app?vid=028b16b4-c861-455c-93e2-214442c48086"},"vehicle_type_id":"4","last_reported":1693674319,"current_range_meters":30400,"station_id":"ce4bhb92rcd13ifvqen0","pricing_plan_id":"free"},{"bike_id":"66eee553-c580-49b9-8997-a73df4f02135","system_id":"levelo_inurba_marseille","lat":43.295169,"lon":5.390426,"is_reserved":false,"is_disabled":false,"rental_uris":{"android":"levelo://app?vid=66eee553-c580-49b9-8997-a73df4f02135","ios":"levelo://app?vid=66eee553-c580-49b9-8997-a73df4f02135"},"vehicle_type_id":"4","last_reported":1693674319,"current_range_meters":12400,"station_id":"ce4bh3p2rcd13ifvqdp0","pricing_plan_id":"free"},{"bike_id":"682a96cd-ba37-424c-954c-b314af46eb41","system_id":"levelo_inurba_marseille","lat":43.28856,"lon":5.358371,"is_reserved":false,"is_disabled":false,"rental_uris":{"android":"levelo://app?vid=682a96cd-ba37-424c-954c-b314af46eb41","ios":"levelo://app?vid=682a96cd-ba37-424c-954c-b314af46eb41"},"vehicle_type_id":"4","last_reported":1693674319,"current_range_meters":0,"station_id":"ce4bhb12rcd13ifvqem0","pricing_plan_id":"free"},{"bike_id":"5e0b65a3-4830-4efe-8df2-f90e6871cc74","system_id":"levelo_inurba_marseille","lat":43.30646,"lon":5.40081,"is_reserved":false,"is_disabled":false,"rental_uris":{"android":"levelo://app?vid=5e0b65a3-4830-4efe-8df2-f90e6871cc74","ios":"levelo://app?vid=5e0b65a3-4830-4efe-8df2-f90e6871cc74"},"vehicle_type_id":"4","last_reported":1693674319,"current_range_meters":24400,"station_id":"ce4bh112rcd13ifvqda0","pricing_plan_id":"free"},{"bike_id":"7030d8a0-cb8e-4c8f-a11f-efd0e29ea09f","system_id":"levelo_inurba_marseille","lat":43.286961,"lon":5.373785,"is_reserved":false,"is_disabled":false,"rental_uris":{"android":"levelo://app?vid=7030d8a0-cb8e-4c8f-a11f-efd0e29ea09f","ios":"levelo://app?vid=7030d8a0-cb8e-4c8f-a11f-efd0e29ea09f"},"vehicle_type_id":"4","last_reported":1693674319,"current_range_meters":15200,"station_id":"ce4bh3p2rcd13ifvqdq0","pricing_plan_id":"free"},{"bike_id":"75199276-b705-4ad7-b6a9-49aeaa84628a","system_id":"levelo_inurba_marseille","lat":43.286591,"lon":5.363346,"is_reserved":false,"is_disabled":false,"rental_uris":{"android":"levelo://app?vid=75199276-b705-4ad7-b6a9-49aeaa84628a","ios":"levelo://app?vid=75199276-b705-4ad7-b6a9-49aeaa84628a"},"vehicle_type_id":"4","last_reported":1693674319,"current_range_meters":29200,"station_id":"ce4bhah2rcd13ifvqej0","pricing_plan_id":"free"},{"bike_id":"2365150f-73ab-4507-aea4-76016e6109c8","system_id":"levelo_inurba_marseille","lat":43.28668,"lon":5.36345,"is_reserved":false,"is_disabled":false,"rental_uris":{"android":"levelo://app?vid=2365150f-73ab-4507-aea4-76016e6109c8","ios":"levelo://app?vid=2365150f-73ab-4507-aea4-76016e6109c8"},"vehicle_type_id":"4","last_reported":1693674319,"current_range_meters":25200,"station_id":"ce4bhah2rcd13ifvqej0","pricing_plan_id":"free"},{"bike_id":"f7f94db0-8ae6-48a2-abb8-78b2b0ce46a9","system_id":"levelo_inurba_marseille","lat":43.286961,"lon":5.373785,"is_reserved":false,"is_disabled":false,"rental_uris":{"android":"levelo://app?vid=f7f94db0-8ae6-48a2-abb8-78b2b0ce46a9","ios":"levelo://app?vid=f7f94db0-8ae6-48a2-abb8-78b2b0ce46a9"},"vehicle_type_id":"4","last_reported":1693674319,"current_range_meters":30400,"station_id":"ce4bh3p2rcd13ifvqdq0","pricing_plan_id":"free"},{"bike_id":"a4aa7133-4338-4c20-93b4-92673c5044b5","system_id":"levelo_inurba_marseille","lat":43.298681,"lon":5.397225,"is_reserved":false,"is_disabled":false,"rental_uris":{"android":"levelo://app?vid=a4aa7133-4338-4c20-93b4-92673c5044b5","ios":"levelo://app?vid=a4aa7133-4338-4c20-93b4-92673c5044b5"},"vehicle_type_id":"4","last_reported":1693674319,"current_range_meters":12400,"station_id":"ce4bh0h2rcd13ifvqd50","pricing_plan_id":"free"},{"bike_id":"bc06ba88-e9c1-41f3-bb79-9dffd108165a","system_id":"levelo_inurba_marseille","lat":43.286961,"lon":5.373785,"is_reserved":false,"is_disabled":false,"rental_uris":{"android":"levelo://app?vid=bc06ba88-e9c1-41f3-bb79-9dffd108165a","ios":"levelo://app?vid=bc06ba88-e9c1-41f3-bb79-9dffd108165a"},"vehicle_type_id":"4","last_reported":1693674319,"current_range_meters":400,"station_id":"ce4bh3p2rcd13ifvqdq0","pricing_plan_id":"free"},{"bike_id":"fc43ceac-36dd-4d87-a86d-a1b5be87f67f","system_id":"levelo_inurba_marseille","lat":43.290345,"lon":5.38646,"is_reserved":false,"is_disabled":false,"rental_uris":{"android":"levelo://app?vid=fc43ceac-36dd-4d87-a86d-a1b5be87f67f","ios":"levelo://app?vid=fc43ceac-36dd-4d87-a86d-a1b5be87f67f"},"vehicle_type_id":"4","last_reported":1693674319,"current_range_meters":0,"station_id":"ce4bh4p2rcd13ifvqe0g","pricing_plan_id":"free"},{"bike_id":"f2c5287a-ae21-4eb2-8d7e-2fd5188f4f0e","system_id":"levelo_inurba_marseille","lat":43.28611,"lon":5.37059,"is_reserved":false,"is_disabled":false,"rental_uris":{"android":"levelo://app?vid=f2c5287a-ae21-4eb2-8d7e-2fd5188f4f0e","ios":"levelo://app?vid=f2c5287a-ae21-4eb2-8d7e-2fd5188f4f0e"},"vehicle_type_id":"4","last_reported":1693674319,"current_range_meters":16400,"station_id":"ce4bht12rcd13ifvqi60","pricing_plan_id":"free"},{"bike_id":"4ae03a71-793b-4bc7-8d43-1a14828b27fe","system_id":"levelo_inurba_marseille","lat":43.28611,"lon":5.37061,"is_reserved":false,"is_disabled":false,"rental_uris":{"android":"levelo://app?vid=4ae03a71-793b-4bc7-8d43-1a14828b27fe","ios":"levelo://app?vid=4ae03a71-793b-4bc7-8d43-1a14828b27fe"},"vehicle_type_id":"4","last_reported":1693674319,"current_range_meters":8000,"station_id":"ce4bht12rcd13ifvqi60","pricing_plan_id":"free"},{"bike_id":"5191ffa3-22ad-470e-947f-b38dc1b5e520","system_id":"levelo_inurba_marseille","lat":43.286039,"lon":5.370679,"is_reserved":false,"is_disabled":false,"rental_uris":{"android":"levelo://app?vid=5191ffa3-22ad-470e-947f-b38dc1b5e520","ios":"levelo://app?vid=5191ffa3-22ad-470e-947f-b38dc1b5e520"},"vehicle_type_id":"4","last_reported":1693674319,"current_range_meters":6800,"station_id":"ce4bht12rcd13ifvqi60","pricing_plan_id":"free"},{"bike_id":"32f369cf-4412-4320-af56-13b2a09138d2","system_id":"levelo_inurba_marseille","lat":43.286104,"lon":5.370713,"is_reserved":false,"is_disabled":false,"rental_uris":{"android":"levelo://app?vid=32f369cf-4412-4320-af56-13b2a09138d2","ios":"levelo://app?vid=32f369cf-4412-4320-af56-13b2a09138d2"},"vehicle_type_id":"4","last_reported":1693674319,"current_range_meters":3600,"station_id":"ce4bht12rcd13ifvqi60","pricing_plan_id":"free"},{"bike_id":"faa3b4b2-a367-43e1-8fcd-290a5df93663","system_id":"levelo_inurba_marseille","lat":43.31644,"lon":5.40431,"is_reserved":false,"is_disabled":false,"rental_uris":{"android":"levelo://app?vid=faa3b4b2-a367-43e1-8fcd-290a5df93663","ios":"levelo://app?vid=faa3b4b2-a367-43e1-8fcd-290a5df93663"},"vehicle_type_id":"4","last_reported":1693674319,"current_range_meters":0,"station_id":"ce4bh012rcd13ifvqd00","pricing_plan_id":"free"},{"bike_id":"de860595-f6a3-4ff2-b7ab-ff311e595297","system_id":"levelo_inurba_marseille","lat":43.31644,"lon":5.40431,"is_reserved":false,"is_disabled":false,"rental_uris":{"android":"levelo://app?vid=de860595-f6a3-4ff2-b7ab-ff311e595297","ios":"levelo://app?vid=de860595-f6a3-4ff2-b7ab-ff311e595297"},"vehicle_type_id":"4","last_reported":1693674319,"current_range_meters":0,"station_id":"ce4bh012rcd13ifvqd00","pricing_plan_id":"free"},{"bike_id":"58ef0513-a798-4db8-a83d-9182fd0eb0f9","system_id":"levelo_inurba_marseille","lat":43.284534,"lon":5.358662,"is_reserved":false,"is_disabled":false,"rental_uris":{"android":"levelo://app?vid=58ef0513-a798-4db8-a83d-9182fd0eb0f9","ios":"levelo://app?vid=58ef0513-a798-4db8-a83d-9182fd0eb0f9"},"vehicle_type_id":"4","last_reported":1693674319,"current_range_meters":7600,"station_id":"ce4bhah2rcd13ifvqei0","pricing_plan_id":"free"},{"bike_id":"2a71c9b8-d7aa-4c54-8ae3-8f40008c0d13","system_id":"levelo_inurba_marseille","lat":43.284538,"lon":5.358657,"is_reserved":false,"is_disabled":false,"rental_uris":{"android":"levelo://app?vid=2a71c9b8-d7aa-4c54-8ae3-8f40008c0d13","ios":"levelo://app?vid=2a71c9b8-d7aa-4c54-8ae3-8f40008c0d13"},"vehicle_type_id":"4","last_reported":1693674319,"current_range_meters":2800,"station_id":"ce4bhah2rcd13ifvqei0","pricing_plan_id":"free"},{"bike_id":"110bc85d-20f0-42f1-bae8-722af89a4605","system_id":"levelo_inurba_marseille","lat":43.284538,"lon":5.358657,"is_reserved":false,"is_disabled":false,"rental_uris":{"android":"levelo://app?vid=110bc85d-20f0-42f1-bae8-722af89a4605","ios":"levelo://app?vid=110bc85d-20f0-42f1-bae8-722af89a4605"},"vehicle_type_id":"4","last_reported":1693674319,"current_range_meters":19200,"station_id":"ce4bhah2rcd13ifvqei0","pricing_plan_id":"free"},{"bike_id":"58121cbb-57b1-4a8c-b8a9-fa8ad86e55d5","system_id":"levelo_inurba_marseille","lat":43.295713,"lon":5.399639,"is_reserved":false,"is_disabled":false,"rental_uris":{"android":"levelo://app?vid=58121cbb-57b1-4a8c-b8a9-fa8ad86e55d5","ios":"levelo://app?vid=58121cbb-57b1-4a8c-b8a9-fa8ad86e55d5"},"vehicle_type_id":"4","last_reported":1693674319,"current_range_meters":11200,"station_id":"ce4bh312rcd13ifvqdj0","pricing_plan_id":"free"},{"bike_id":"2cd27f5c-cf2f-4dff-85e2-b06db9f84908","system_id":"levelo_inurba_marseille","lat":43.295713,"lon":5.399639,"is_reserved":false,"is_disabled":false,"rental_uris":{"android":"levelo://app?vid=2cd27f5c-cf2f-4dff-85e2-b06db9f84908","ios":"levelo://app?vid=2cd27f5c-cf2f-4dff-85e2-b06db9f84908"},"vehicle_type_id":"4","last_reported":1693674319,"current_range_meters":25200,"station_id":"ce4bh312rcd13ifvqdj0","pricing_plan_id":"free"},{"bike_id":"ab982887-dc89-420e-b647-f8bf3eb8b1dd","system_id":"levelo_inurba_marseille","lat":43.295713,"lon":5.399639,"is_reserved":false,"is_disabled":false,"rental_uris":{"android":"levelo://app?vid=ab982887-dc89-420e-b647-f8bf3eb8b1dd","ios":"levelo://app?vid=ab982887-dc89-420e-b647-f8bf3eb8b1dd"},"vehicle_type_id":"4","last_reported":1693674319,"current_range_meters":10000,"station_id":"ce4bh312rcd13ifvqdj0","pricing_plan_id":"free"},{"bike_id":"d4d7b5f3-fbc3-4c44-be75-7142a6988f0a","system_id":"levelo_inurba_marseille","lat":43.286595,"lon":5.386795,"is_reserved":false,"is_disabled":false,"rental_uris":{"android":"levelo://app?vid=d4d7b5f3-fbc3-4c44-be75-7142a6988f0a","ios":"levelo://app?vid=d4d7b5f3-fbc3-4c44-be75-7142a6988f0a"},"vehicle_type_id":"4","last_reported":1693674319,"current_range_meters":19200,"station_id":"ce4bh492rcd13ifvqdug","pricing_plan_id":"free"},{"bike_id":"326b6a09-50a1-48be-8aa7-5bcb858da8c7","system_id":"levelo_inurba_marseille","lat":43.337168,"lon":5.391825,"is_reserved":false,"is_disabled":false,"rental_uris":{"android":"levelo://app?vid=326b6a09-50a1-48be-8aa7-5bcb858da8c7","ios":"levelo://app?vid=326b6a09-50a1-48be-8aa7-5bcb858da8c7"},"vehicle_type_id":"4","last_reported":1693674319,"current_range_meters":26000,"station_id":"ce4bhr92rcd13ifvqhsg","pricing_plan_id":"free"},{"bike_id":"2cac6c8c-a6ef-47c4-a9aa-c02f983fb281","system_id":"levelo_inurba_marseille","lat":43.33721,"lon":5.39179,"is_reserved":false,"is_disabled":false,"rental_uris":{"android":"levelo://app?vid=2cac6c8c-a6ef-47c4-a9aa-c02f983fb281","ios":"levelo://app?vid=2cac6c8c-a6ef-47c4-a9aa-c02f983fb281"},"vehicle_type_id":"4","last_reported":1693674319,"current_range_meters":30800,"station_id":"ce4bhr92rcd13ifvqhsg","pricing_plan_id":"free"},{"bike_id":"82dc821e-8ff8-4e9f-a8c6-f837817238bb","system_id":"levelo_inurba_marseille","lat":43.337168,"lon":5.391825,"is_reserved":false,"is_disabled":false,"rental_uris":{"android":"levelo://app?vid=82dc821e-8ff8-4e9f-a8c6-f837817238bb","ios":"levelo://app?vid=82dc821e-8ff8-4e9f-a8c6-f837817238bb"},"vehicle_type_id":"4","last_reported":1693674319,"current_range_meters":28400,"station_id":"ce4bhr92rcd13ifvqhsg","pricing_plan_id":"free"},{"bike_id":"3efe053d-0b92-41d8-8acd-c3a1490d76ae","system_id":"levelo_inurba_marseille","lat":43.33726,"lon":5.39178,"is_reserved":false,"is_disabled":false,"rental_uris":{"android":"levelo://app?vid=3efe053d-0b92-41d8-8acd-c3a1490d76ae","ios":"levelo://app?vid=3efe053d-0b92-41d8-8acd-c3a1490d76ae"},"vehicle_type_id":"4","last_reported":1693674319,"current_range_meters":21200,"station_id":"ce4bhr92rcd13ifvqhsg","pricing_plan_id":"free"},{"bike_id":"625d2051-4351-4010-bc78-8959de2ee300","system_id":"levelo_inurba_marseille","lat":43.33724,"lon":5.39182,"is_reserved":false,"is_disabled":false,"rental_uris":{"android":"levelo://app?vid=625d2051-4351-4010-bc78-8959de2ee300","ios":"levelo://app?vid=625d2051-4351-4010-bc78-8959de2ee300"},"vehicle_type_id":"4","last_reported":1693674319,"current_range_meters":30400,"station_id":"ce4bhr92rcd13ifvqhsg","pricing_plan_id":"free"},{"bike_id":"962967fe-5cee-43b2-b0cd-c482cdde2008","system_id":"levelo_inurba_marseille","lat":43.33724,"lon":5.39182,"is_reserved":false,"is_disabled":false,"rental_uris":{"android":"levelo://app?vid=962967fe-5cee-43b2-b0cd-c482cdde2008","ios":"levelo://app?vid=962967fe-5cee-43b2-b0cd-c482cdde2008"},"vehicle_type_id":"4","last_reported":1693674319,"current_range_meters":24400,"station_id":"ce4bhr92rcd13ifvqhsg","pricing_plan_id":"free"},{"bike_id":"03994755-8379-4630-aa7b-504e87579b11","system_id":"levelo_inurba_marseille","lat":43.337168,"lon":5.391825,"is_reserved":false,"is_disabled":false,"rental_uris":{"android":"levelo://app?vid=03994755-8379-4630-aa7b-504e87579b11","ios":"levelo://app?vid=03994755-8379-4630-aa7b-504e87579b11"},"vehicle_type_id":"4","last_reported":1693674319,"current_range_meters":20800,"station_id":"ce4bhr92rcd13ifvqhsg","pricing_plan_id":"free"},{"bike_id":"cc4fce76-98bd-4ead-9d50-a1511a378d9d","system_id":"levelo_inurba_marseille","lat":43.33726,"lon":5.39179,"is_reserved":false,"is_disabled":false,"rental_uris":{"android":"levelo://app?vid=cc4fce76-98bd-4ead-9d50-a1511a378d9d","ios":"levelo://app?vid=cc4fce76-98bd-4ead-9d50-a1511a378d9d"},"vehicle_type_id":"4","last_reported":1693674319,"current_range_meters":2000,"station_id":"ce4bhr92rcd13ifvqhsg","pricing_plan_id":"free"},{"bike_id":"d4f8fdc8-dd11-460b-848b-d6bb0dc31981","system_id":"levelo_inurba_marseille","lat":43.33725,"lon":5.39182,"is_reserved":false,"is_disabled":false,"rental_uris":{"android":"levelo://app?vid=d4f8fdc8-dd11-460b-848b-d6bb0dc31981","ios":"levelo://app?vid=d4f8fdc8-dd11-460b-848b-d6bb0dc31981"},"vehicle_type_id":"4","last_reported":1693674319,"current_range_meters":22400,"station_id":"ce4bhr92rcd13ifvqhsg","pricing_plan_id":"free"},{"bike_id":"a3265c5d-9193-4674-a355-7ea902063f90","system_id":"levelo_inurba_marseille","lat":43.337168,"lon":5.391825,"is_reserved":false,"is_disabled":false,"rental_uris":{"android":"levelo://app?vid=a3265c5d-9193-4674-a355-7ea902063f90","ios":"levelo://app?vid=a3265c5d-9193-4674-a355-7ea902063f90"},"vehicle_type_id":"4","last_reported":1693674319,"current_range_meters":21600,"station_id":"ce4bhr92rcd13ifvqhsg","pricing_plan_id":"free"},{"bike_id":"1d5f8301-80fc-4f72-9154-2f94c86e60d7","system_id":"levelo_inurba_marseille","lat":43.33727,"lon":5.39184,"is_reserved":false,"is_disabled":false,"rental_uris":{"android":"levelo://app?vid=1d5f8301-80fc-4f72-9154-2f94c86e60d7","ios":"levelo://app?vid=1d5f8301-80fc-4f72-9154-2f94c86e60d7"},"vehicle_type_id":"4","last_reported":1693674319,"current_range_meters":28800,"station_id":"ce4bhr92rcd13ifvqhsg","pricing_plan_id":"free"},{"bike_id":"1e62eeb3-dafc-4dce-8fe6-9b81aba5e7d0","system_id":"levelo_inurba_marseille","lat":43.323464,"lon":5.406297,"is_reserved":false,"is_disabled":false,"rental_uris":{"android":"levelo://app?vid=1e62eeb3-dafc-4dce-8fe6-9b81aba5e7d0","ios":"levelo://app?vid=1e62eeb3-dafc-4dce-8fe6-9b81aba5e7d0"},"vehicle_type_id":"4","last_reported":1693674319,"current_range_meters":21600,"station_id":"ce4bhq92rcd13ifvqhjg","pricing_plan_id":"free"},{"bike_id":"1dc0b252-8e49-4fb3-a9e2-81bb2f821949","system_id":"levelo_inurba_marseille","lat":43.33729,"lon":5.39184,"is_reserved":false,"is_disabled":false,"rental_uris":{"android":"levelo://app?vid=1dc0b252-8e49-4fb3-a9e2-81bb2f821949","ios":"levelo://app?vid=1dc0b252-8e49-4fb3-a9e2-81bb2f821949"},"vehicle_type_id":"4","last_reported":1693674319,"current_range_meters":24800,"station_id":"ce4bhr92rcd13ifvqhsg","pricing_plan_id":"free"},{"bike_id":"db938565-58f0-4345-ae80-fe4b442fc76d","system_id":"levelo_inurba_marseille","lat":43.33731,"lon":5.39183,"is_reserved":false,"is_disabled":false,"rental_uris":{"android":"levelo://app?vid=db938565-58f0-4345-ae80-fe4b442fc76d","ios":"levelo://app?vid=db938565-58f0-4345-ae80-fe4b442fc76d"},"vehicle_type_id":"4","last_reported":1693674319,"current_range_meters":27600,"station_id":"ce4bhr92rcd13ifvqhsg","pricing_plan_id":"free"},{"bike_id":"f54c5a62-88c4-4894-b7bc-7181d892d1fb","system_id":"levelo_inurba_marseille","lat":43.337168,"lon":5.391825,"is_reserved":false,"is_disabled":false,"rental_uris":{"android":"levelo://app?vid=f54c5a62-88c4-4894-b7bc-7181d892d1fb","ios":"levelo://app?vid=f54c5a62-88c4-4894-b7bc-7181d892d1fb"},"vehicle_type_id":"4","last_reported":1693674319,"current_range_meters":27200,"station_id":"ce4bhr92rcd13ifvqhsg","pricing_plan_id":"free"},{"bike_id":"9cb19bf1-9533-4964-adf8-1993a9a8cdcb","system_id":"levelo_inurba_marseille","lat":43.3373,"lon":5.39187,"is_reserved":false,"is_disabled":false,"rental_uris":{"android":"levelo://app?vid=9cb19bf1-9533-4964-adf8-1993a9a8cdcb","ios":"levelo://app?vid=9cb19bf1-9533-4964-adf8-1993a9a8cdcb"},"vehicle_type_id":"4","last_reported":1693674319,"current_range_meters":30000,"station_id":"ce4bhr92rcd13ifvqhsg","pricing_plan_id":"free"},{"bike_id":"414290bd-353b-41b2-bd9a-1d3c2c5739df","system_id":"levelo_inurba_marseille","lat":43.284793,"lon":5.384113,"is_reserved":false,"is_disabled":false,"rental_uris":{"android":"levelo://app?vid=414290bd-353b-41b2-bd9a-1d3c2c5739df","ios":"levelo://app?vid=414290bd-353b-41b2-bd9a-1d3c2c5739df"},"vehicle_type_id":"4","last_reported":1693674319,"current_range_meters":28400,"station_id":"ce4bh512rcd13ifvqe3g","pricing_plan_id":"free"},{"bike_id":"81207e02-e329-4cea-9b6c-33ba9c0267d2","system_id":"levelo_inurba_marseille","lat":43.284787,"lon":5.384116,"is_reserved":false,"is_disabled":false,"rental_uris":{"android":"levelo://app?vid=81207e02-e329-4cea-9b6c-33ba9c0267d2","ios":"levelo://app?vid=81207e02-e329-4cea-9b6c-33ba9c0267d2"},"vehicle_type_id":"4","last_reported":1693674319,"current_range_meters":30800,"station_id":"ce4bh512rcd13ifvqe3g","pricing_plan_id":"free"},{"bike_id":"de4237aa-4037-4ddf-9b95-c622a269767d","system_id":"levelo_inurba_marseille","lat":43.288497,"lon":5.393089,"is_reserved":false,"is_disabled":false,"rental_uris":{"android":"levelo://app?vid=de4237aa-4037-4ddf-9b95-c622a269767d","ios":"levelo://app?vid=de4237aa-4037-4ddf-9b95-c622a269767d"},"vehicle_type_id":"4","last_reported":1693674319,"current_range_meters":22000,"station_id":"ce4bh2p2rcd13ifvqdi0","pricing_plan_id":"free"},{"bike_id":"6fe04de3-cb02-4a46-87f3-7f6fe822fe74","system_id":"levelo_inurba_marseille","lat":43.28862,"lon":5.39322,"is_reserved":false,"is_disabled":false,"rental_uris":{"android":"levelo://app?vid=6fe04de3-cb02-4a46-87f3-7f6fe822fe74","ios":"levelo://app?vid=6fe04de3-cb02-4a46-87f3-7f6fe822fe74"},"vehicle_type_id":"4","last_reported":1693674319,"current_range_meters":0,"station_id":"ce4bh2p2rcd13ifvqdi0","pricing_plan_id":"free"},{"bike_id":"0d20797d-45ba-406a-ba4b-ed39aaaae6b5","system_id":"levelo_inurba_marseille","lat":43.284197,"lon":5.384912,"is_reserved":false,"is_disabled":false,"rental_uris":{"android":"levelo://app?vid=0d20797d-45ba-406a-ba4b-ed39aaaae6b5","ios":"levelo://app?vid=0d20797d-45ba-406a-ba4b-ed39aaaae6b5"},"vehicle_type_id":"4","last_reported":1693674319,"current_range_meters":400,"station_id":"ce4bhh12rcd13ifvqfg0","pricing_plan_id":"free"},{"bike_id":"f50aca5f-cf5b-4020-925f-826a2e34874f","system_id":"levelo_inurba_marseille","lat":43.289363,"lon":5.396322,"is_reserved":false,"is_disabled":false,"rental_uris":{"android":"levelo://app?vid=f50aca5f-cf5b-4020-925f-826a2e34874f","ios":"levelo://app?vid=f50aca5f-cf5b-4020-925f-826a2e34874f"},"vehicle_type_id":"4","last_reported":1693674319,"current_range_meters":30000,"station_id":"ce4bh3h2rcd13ifvqdn0","pricing_plan_id":"free"},{"bike_id":"f8b89518-76a2-45c5-9258-d2077b59d37e","system_id":"levelo_inurba_marseille","lat":43.289363,"lon":5.396322,"is_reserved":false,"is_disabled":false,"rental_uris":{"android":"levelo://app?vid=f8b89518-76a2-45c5-9258-d2077b59d37e","ios":"levelo://app?vid=f8b89518-76a2-45c5-9258-d2077b59d37e"},"vehicle_type_id":"4","last_reported":1693674319,"current_range_meters":22800,"station_id":"ce4bh3h2rcd13ifvqdn0","pricing_plan_id":"free"},{"bike_id":"0123496d-f5b8-4a14-b408-827ede7aafea","system_id":"levelo_inurba_marseille","lat":43.282769,"lon":5.350556,"is_reserved":false,"is_disabled":false,"rental_uris":{"android":"levelo://app?vid=0123496d-f5b8-4a14-b408-827ede7aafea","ios":"levelo://app?vid=0123496d-f5b8-4a14-b408-827ede7aafea"},"vehicle_type_id":"4","last_reported":1693674319,"current_range_meters":20000,"station_id":"ce4bhbp2rcd13ifvqerg","pricing_plan_id":"free"},{"bike_id":"6bc3e056-f34e-4742-b9b0-b64fcb2cc76f","system_id":"levelo_inurba_marseille","lat":43.283502,"lon":5.386471,"is_reserved":false,"is_disabled":false,"rental_uris":{"android":"levelo://app?vid=6bc3e056-f34e-4742-b9b0-b64fcb2cc76f","ios":"levelo://app?vid=6bc3e056-f34e-4742-b9b0-b64fcb2cc76f"},"vehicle_type_id":"4","last_reported":1693674319,"current_range_meters":28800,"station_id":"ce4bh492rcd13ifvqdvg","pricing_plan_id":"free"},{"bike_id":"9fa62488-6543-4231-8055-0c3fbbcedceb","system_id":"levelo_inurba_marseille","lat":43.282754,"lon":5.350519,"is_reserved":false,"is_disabled":false,"rental_uris":{"android":"levelo://app?vid=9fa62488-6543-4231-8055-0c3fbbcedceb","ios":"levelo://app?vid=9fa62488-6543-4231-8055-0c3fbbcedceb"},"vehicle_type_id":"4","last_reported":1693674319,"current_range_meters":13600,"station_id":"ce4bhbp2rcd13ifvqerg","pricing_plan_id":"free"},{"bike_id":"553631bd-b1d5-4292-a5a2-57f55c7a8123","system_id":"levelo_inurba_marseille","lat":43.283502,"lon":5.386471,"is_reserved":false,"is_disabled":false,"rental_uris":{"android":"levelo://app?vid=553631bd-b1d5-4292-a5a2-57f55c7a8123","ios":"levelo://app?vid=553631bd-b1d5-4292-a5a2-57f55c7a8123"},"vehicle_type_id":"4","last_reported":1693674319,"current_range_meters":5200,"station_id":"ce4bh492rcd13ifvqdvg","pricing_plan_id":"free"},{"bike_id":"f322b1e0-8188-4555-abb5-e2361bf2dafa","system_id":"levelo_inurba_marseille","lat":43.28264,"lon":5.35054,"is_reserved":false,"is_disabled":false,"rental_uris":{"android":"levelo://app?vid=f322b1e0-8188-4555-abb5-e2361bf2dafa","ios":"levelo://app?vid=f322b1e0-8188-4555-abb5-e2361bf2dafa"},"vehicle_type_id":"4","last_reported":1693674319,"current_range_meters":28800,"station_id":"ce4bhbp2rcd13ifvqerg","pricing_plan_id":"free"},{"bike_id":"9f46cfde-4f76-4076-bade-5765c2d3d473","system_id":"levelo_inurba_marseille","lat":43.280382,"lon":5.369291,"is_reserved":false,"is_disabled":false,"rental_uris":{"android":"levelo://app?vid=9f46cfde-4f76-4076-bade-5765c2d3d473","ios":"levelo://app?vid=9f46cfde-4f76-4076-bade-5765c2d3d473"},"vehicle_type_id":"4","last_reported":1693674319,"current_range_meters":31200,"station_id":"ce4bha12rcd13ifvqef0","pricing_plan_id":"free"},{"bike_id":"6d986fd6-a0ec-4d34-9d5e-72cd64b248fe","system_id":"levelo_inurba_marseille","lat":43.280382,"lon":5.369291,"is_reserved":false,"is_disabled":false,"rental_uris":{"android":"levelo://app?vid=6d986fd6-a0ec-4d34-9d5e-72cd64b248fe","ios":"levelo://app?vid=6d986fd6-a0ec-4d34-9d5e-72cd64b248fe"},"vehicle_type_id":"4","last_reported":1693674319,"current_range_meters":0,"station_id":"ce4bha12rcd13ifvqef0","pricing_plan_id":"free"},{"bike_id":"06a0c12d-e8bc-46a9-86cd-903efa05ffa3","system_id":"levelo_inurba_marseille","lat":43.296263,"lon":5.40601,"is_reserved":false,"is_disabled":false,"rental_uris":{"android":"levelo://app?vid=06a0c12d-e8bc-46a9-86cd-903efa05ffa3","ios":"levelo://app?vid=06a0c12d-e8bc-46a9-86cd-903efa05ffa3"},"vehicle_type_id":"4","last_reported":1693674319,"current_range_meters":7600,"station_id":"ce4bh0h2rcd13ifvqd60","pricing_plan_id":"free"},{"bike_id":"41f94912-1ec3-45d4-bdd5-76b27d0eaf49","system_id":"levelo_inurba_marseille","lat":43.284462,"lon":5.392121,"is_reserved":false,"is_disabled":false,"rental_uris":{"android":"levelo://app?vid=41f94912-1ec3-45d4-bdd5-76b27d0eaf49","ios":"levelo://app?vid=41f94912-1ec3-45d4-bdd5-76b27d0eaf49"},"vehicle_type_id":"4","last_reported":1693674319,"current_range_meters":21600,"station_id":"ce4bhoh2rcd13ifvqh5g","pricing_plan_id":"free"},{"bike_id":"10024aec-f9aa-4cdc-a87f-512fe154911b","system_id":"levelo_inurba_marseille","lat":43.32662,"lon":5.40983,"is_reserved":false,"is_disabled":false,"rental_uris":{"android":"levelo://app?vid=10024aec-f9aa-4cdc-a87f-512fe154911b","ios":"levelo://app?vid=10024aec-f9aa-4cdc-a87f-512fe154911b"},"vehicle_type_id":"4","last_reported":1693674319,"current_range_meters":20400,"station_id":"ce4bhpp2rcd13ifvqhgg","pricing_plan_id":"free"},{"bike_id":"94b4e3d4-67ab-482f-81f1-ea0451a18ce4","system_id":"levelo_inurba_marseille","lat":43.326605,"lon":5.409903,"is_reserved":false,"is_disabled":false,"rental_uris":{"android":"levelo://app?vid=94b4e3d4-67ab-482f-81f1-ea0451a18ce4","ios":"levelo://app?vid=94b4e3d4-67ab-482f-81f1-ea0451a18ce4"},"vehicle_type_id":"4","last_reported":1693674319,"current_range_meters":22800,"station_id":"ce4bhpp2rcd13ifvqhgg","pricing_plan_id":"free"},{"bike_id":"c08f4936-883e-40c4-9325-9aea066176aa","system_id":"levelo_inurba_marseille","lat":43.326605,"lon":5.409903,"is_reserved":false,"is_disabled":false,"rental_uris":{"android":"levelo://app?vid=c08f4936-883e-40c4-9325-9aea066176aa","ios":"levelo://app?vid=c08f4936-883e-40c4-9325-9aea066176aa"},"vehicle_type_id":"4","last_reported":1693674319,"current_range_meters":14000,"station_id":"ce4bhpp2rcd13ifvqhgg","pricing_plan_id":"free"},{"bike_id":"db4fa881-c725-4e21-9287-51981cb7cbe1","system_id":"levelo_inurba_marseille","lat":43.326605,"lon":5.409903,"is_reserved":false,"is_disabled":false,"rental_uris":{"android":"levelo://app?vid=db4fa881-c725-4e21-9287-51981cb7cbe1","ios":"levelo://app?vid=db4fa881-c725-4e21-9287-51981cb7cbe1"},"vehicle_type_id":"4","last_reported":1693674319,"current_range_meters":0,"station_id":"ce4bhpp2rcd13ifvqhgg","pricing_plan_id":"free"},{"bike_id":"890cff01-903d-485e-822e-8a0f0eecf45b","system_id":"levelo_inurba_marseille","lat":43.304188,"lon":5.412904,"is_reserved":false,"is_disabled":false,"rental_uris":{"android":"levelo://app?vid=890cff01-903d-485e-822e-8a0f0eecf45b","ios":"levelo://app?vid=890cff01-903d-485e-822e-8a0f0eecf45b"},"vehicle_type_id":"4","last_reported":1693674319,"current_range_meters":23600,"station_id":"ce4bhop2rcd13ifvqh8g","pricing_plan_id":"free"},{"bike_id":"48f77d0c-f0e2-49c8-ab8a-1fc7c8cd2353","system_id":"levelo_inurba_marseille","lat":43.287154,"lon":5.399979,"is_reserved":false,"is_disabled":false,"rental_uris":{"android":"levelo://app?vid=48f77d0c-f0e2-49c8-ab8a-1fc7c8cd2353","ios":"levelo://app?vid=48f77d0c-f0e2-49c8-ab8a-1fc7c8cd2353"},"vehicle_type_id":"4","last_reported":1693674319,"current_range_meters":31200,"station_id":"ce4bho92rcd13ifvqh3g","pricing_plan_id":"free"},{"bike_id":"3fb3c448-67e1-4431-93dc-d55438495f41","system_id":"levelo_inurba_marseille","lat":43.320045,"lon":5.415046,"is_reserved":false,"is_disabled":false,"rental_uris":{"android":"levelo://app?vid=3fb3c448-67e1-4431-93dc-d55438495f41","ios":"levelo://app?vid=3fb3c448-67e1-4431-93dc-d55438495f41"},"vehicle_type_id":"4","last_reported":1693674319,"current_range_meters":31200,"station_id":"ce4bhq92rcd13ifvqhkg","pricing_plan_id":"free"},{"bike_id":"c327718a-8fe6-4791-a349-aba0f8f94e82","system_id":"levelo_inurba_marseille","lat":43.279742,"lon":5.38744,"is_reserved":false,"is_disabled":false,"rental_uris":{"android":"levelo://app?vid=c327718a-8fe6-4791-a349-aba0f8f94e82","ios":"levelo://app?vid=c327718a-8fe6-4791-a349-aba0f8f94e82"},"vehicle_type_id":"4","last_reported":1693674319,"current_range_meters":22000,"station_id":"ce4bhg12rcd13ifvqf80","pricing_plan_id":"free"},{"bike_id":"9381883e-dc55-4498-9306-cbf3bda0bc10","system_id":"levelo_inurba_marseille","lat":43.325233,"lon":5.414318,"is_reserved":false,"is_disabled":false,"rental_uris":{"android":"levelo://app?vid=9381883e-dc55-4498-9306-cbf3bda0bc10","ios":"levelo://app?vid=9381883e-dc55-4498-9306-cbf3bda0bc10"},"vehicle_type_id":"4","last_reported":1693674319,"current_range_meters":7200,"station_id":"ce4bhq12rcd13ifvqhhg","pricing_plan_id":"free"},{"bike_id":"d43648e6-bb70-447e-b4a4-c74d1128cd12","system_id":"levelo_inurba_marseille","lat":43.325233,"lon":5.414318,"is_reserved":false,"is_disabled":false,"rental_uris":{"android":"levelo://app?vid=d43648e6-bb70-447e-b4a4-c74d1128cd12","ios":"levelo://app?vid=d43648e6-bb70-447e-b4a4-c74d1128cd12"},"vehicle_type_id":"4","last_reported":1693674319,"current_range_meters":30000,"station_id":"ce4bhq12rcd13ifvqhhg","pricing_plan_id":"free"},{"bike_id":"012a4c64-c5ce-4d86-829c-a5404eb71c9c","system_id":"levelo_inurba_marseille","lat":43.32539,"lon":5.41451,"is_reserved":false,"is_disabled":false,"rental_uris":{"android":"levelo://app?vid=012a4c64-c5ce-4d86-829c-a5404eb71c9c","ios":"levelo://app?vid=012a4c64-c5ce-4d86-829c-a5404eb71c9c"},"vehicle_type_id":"4","last_reported":1693674319,"current_range_meters":25200,"station_id":"ce4bhq12rcd13ifvqhhg","pricing_plan_id":"free"},{"bike_id":"56b0713f-aabf-491a-a8a0-da7923659b05","system_id":"levelo_inurba_marseille","lat":43.27613,"lon":5.36098,"is_reserved":false,"is_disabled":false,"rental_uris":{"android":"levelo://app?vid=56b0713f-aabf-491a-a8a0-da7923659b05","ios":"levelo://app?vid=56b0713f-aabf-491a-a8a0-da7923659b05"},"vehicle_type_id":"4","last_reported":1693674319,"current_range_meters":2000,"station_id":"ce4bgj92rcd13ifvqbe0","pricing_plan_id":"free"},{"bike_id":"42870bf7-537e-40bd-a342-63c55bb5ebe8","system_id":"levelo_inurba_marseille","lat":43.27609,"lon":5.36115,"is_reserved":false,"is_disabled":false,"rental_uris":{"android":"levelo://app?vid=42870bf7-537e-40bd-a342-63c55bb5ebe8","ios":"levelo://app?vid=42870bf7-537e-40bd-a342-63c55bb5ebe8"},"vehicle_type_id":"4","last_reported":1693674319,"current_range_meters":30000,"station_id":"ce4bgj92rcd13ifvqbe0","pricing_plan_id":"free"},{"bike_id":"619a2bd1-3c7e-4ff6-9334-5ce003088a98","system_id":"levelo_inurba_marseille","lat":43.325233,"lon":5.414318,"is_reserved":false,"is_disabled":false,"rental_uris":{"android":"levelo://app?vid=619a2bd1-3c7e-4ff6-9334-5ce003088a98","ios":"levelo://app?vid=619a2bd1-3c7e-4ff6-9334-5ce003088a98"},"vehicle_type_id":"4","last_reported":1693674319,"current_range_meters":25600,"station_id":"ce4bhq12rcd13ifvqhhg","pricing_plan_id":"free"},{"bike_id":"26451018-3799-4602-9b8e-662cefe1cc66","system_id":"levelo_inurba_marseille","lat":43.280784,"lon":5.396622,"is_reserved":false,"is_disabled":false,"rental_uris":{"android":"levelo://app?vid=26451018-3799-4602-9b8e-662cefe1cc66","ios":"levelo://app?vid=26451018-3799-4602-9b8e-662cefe1cc66"},"vehicle_type_id":"4","last_reported":1693674319,"current_range_meters":9600,"station_id":"ce4bho12rcd13ifvqh2g","pricing_plan_id":"free"},{"bike_id":"efa285f1-5f2b-4848-9597-ee57241e58f8","system_id":"levelo_inurba_marseille","lat":43.28079,"lon":5.39654,"is_reserved":false,"is_disabled":false,"rental_uris":{"android":"levelo://app?vid=efa285f1-5f2b-4848-9597-ee57241e58f8","ios":"levelo://app?vid=efa285f1-5f2b-4848-9597-ee57241e58f8"},"vehicle_type_id":"4","last_reported":1693674319,"current_range_meters":22000,"station_id":"ce4bho12rcd13ifvqh2g","pricing_plan_id":"free"},{"bike_id":"5b7794d7-384e-4f59-bcf1-c8d94da981be","system_id":"levelo_inurba_marseille","lat":43.303837,"lon":5.418724,"is_reserved":false,"is_disabled":false,"rental_uris":{"android":"levelo://app?vid=5b7794d7-384e-4f59-bcf1-c8d94da981be","ios":"levelo://app?vid=5b7794d7-384e-4f59-bcf1-c8d94da981be"},"vehicle_type_id":"4","last_reported":1693674319,"current_range_meters":29600,"station_id":"ce4bhop2rcd13ifvqh7g","pricing_plan_id":"free"},{"bike_id":"177b3628-ebbe-429f-ab41-65bfc80a4442","system_id":"levelo_inurba_marseille","lat":43.303837,"lon":5.418724,"is_reserved":false,"is_disabled":false,"rental_uris":{"android":"levelo://app?vid=177b3628-ebbe-429f-ab41-65bfc80a4442","ios":"levelo://app?vid=177b3628-ebbe-429f-ab41-65bfc80a4442"},"vehicle_type_id":"4","last_reported":1693674319,"current_range_meters":0,"station_id":"ce4bhop2rcd13ifvqh7g","pricing_plan_id":"free"},{"bike_id":"8c40ae12-b66b-4e61-b1ad-76eb782e7a9e","system_id":"levelo_inurba_marseille","lat":43.278399,"lon":5.392139,"is_reserved":false,"is_disabled":false,"rental_uris":{"android":"levelo://app?vid=8c40ae12-b66b-4e61-b1ad-76eb782e7a9e","ios":"levelo://app?vid=8c40ae12-b66b-4e61-b1ad-76eb782e7a9e"},"vehicle_type_id":"4","last_reported":1693674319,"current_range_meters":400,"station_id":"ce4bhjp2rcd13ifvqga0","pricing_plan_id":"free"},{"bike_id":"a0919c3c-6cea-4077-9480-329be6f4f6c9","system_id":"levelo_inurba_marseille","lat":43.275625,"lon":5.384392,"is_reserved":false,"is_disabled":false,"rental_uris":{"android":"levelo://app?vid=a0919c3c-6cea-4077-9480-329be6f4f6c9","ios":"levelo://app?vid=a0919c3c-6cea-4077-9480-329be6f4f6c9"},"vehicle_type_id":"4","last_reported":1693674319,"current_range_meters":17600,"station_id":"ce4bhh92rcd13ifvqfi0","pricing_plan_id":"free"},{"bike_id":"d5660958-1d01-4cb5-a19c-6e17e0893410","system_id":"levelo_inurba_marseille","lat":43.273613,"lon":5.362705,"is_reserved":false,"is_disabled":false,"rental_uris":{"android":"levelo://app?vid=d5660958-1d01-4cb5-a19c-6e17e0893410","ios":"levelo://app?vid=d5660958-1d01-4cb5-a19c-6e17e0893410"},"vehicle_type_id":"4","last_reported":1693674319,"current_range_meters":14800,"station_id":"ce4bhbh2rcd13ifvqeo0","pricing_plan_id":"free"},{"bike_id":"6ec765b1-5bec-4066-8d9d-8adfb039fb7a","system_id":"levelo_inurba_marseille","lat":43.273613,"lon":5.362705,"is_reserved":false,"is_disabled":false,"rental_uris":{"android":"levelo://app?vid=6ec765b1-5bec-4066-8d9d-8adfb039fb7a","ios":"levelo://app?vid=6ec765b1-5bec-4066-8d9d-8adfb039fb7a"},"vehicle_type_id":"4","last_reported":1693674319,"current_range_meters":22400,"station_id":"ce4bhbh2rcd13ifvqeo0","pricing_plan_id":"free"},{"bike_id":"e9c112b3-703d-44f9-9775-9526d04c9655","system_id":"levelo_inurba_marseille","lat":43.273613,"lon":5.362705,"is_reserved":false,"is_disabled":false,"rental_uris":{"android":"levelo://app?vid=e9c112b3-703d-44f9-9775-9526d04c9655","ios":"levelo://app?vid=e9c112b3-703d-44f9-9775-9526d04c9655"},"vehicle_type_id":"4","last_reported":1693674319,"current_range_meters":20400,"station_id":"ce4bhbh2rcd13ifvqeo0","pricing_plan_id":"free"},{"bike_id":"bd115f69-ae60-4e8e-bf0f-5af062289a14","system_id":"levelo_inurba_marseille","lat":43.33607,"lon":5.41015,"is_reserved":false,"is_disabled":false,"rental_uris":{"android":"levelo://app?vid=bd115f69-ae60-4e8e-bf0f-5af062289a14","ios":"levelo://app?vid=bd115f69-ae60-4e8e-bf0f-5af062289a14"},"vehicle_type_id":"4","last_reported":1693674319,"current_range_meters":22000,"station_id":"ce4bhqh2rcd13ifvqhmg","pricing_plan_id":"free"},{"bike_id":"39b5b5cf-86ef-48ea-a176-58e554756417","system_id":"levelo_inurba_marseille","lat":43.273609,"lon":5.362708,"is_reserved":false,"is_disabled":false,"rental_uris":{"android":"levelo://app?vid=39b5b5cf-86ef-48ea-a176-58e554756417","ios":"levelo://app?vid=39b5b5cf-86ef-48ea-a176-58e554756417"},"vehicle_type_id":"4","last_reported":1693674319,"current_range_meters":31200,"station_id":"ce4bhbh2rcd13ifvqeo0","pricing_plan_id":"free"},{"bike_id":"2c002134-e4d2-41d1-b436-28e8e2ea24ca","system_id":"levelo_inurba_marseille","lat":43.276769,"lon":5.388787,"is_reserved":false,"is_disabled":false,"rental_uris":{"android":"levelo://app?vid=2c002134-e4d2-41d1-b436-28e8e2ea24ca","ios":"levelo://app?vid=2c002134-e4d2-41d1-b436-28e8e2ea24ca"},"vehicle_type_id":"4","last_reported":1693674319,"current_range_meters":28000,"station_id":"ce4bhi12rcd13ifvqfo0","pricing_plan_id":"free"},{"bike_id":"0bdbe79c-eb31-4ab0-920f-2a51312f7d2c","system_id":"levelo_inurba_marseille","lat":43.274099,"lon":5.394019,"is_reserved":false,"is_disabled":false,"rental_uris":{"android":"levelo://app?vid=0bdbe79c-eb31-4ab0-920f-2a51312f7d2c","ios":"levelo://app?vid=0bdbe79c-eb31-4ab0-920f-2a51312f7d2c"},"vehicle_type_id":"4","last_reported":1693674319,"current_range_meters":4400,"station_id":"ce4bhdp2rcd13ifvqf20","pricing_plan_id":"free"},{"bike_id":"1add9953-a55f-4dbd-873c-a8179c6d5950","system_id":"levelo_inurba_marseille","lat":43.284538,"lon":5.358657,"is_reserved":false,"is_disabled":false,"rental_uris":{"android":"levelo://app?vid=1add9953-a55f-4dbd-873c-a8179c6d5950","ios":"levelo://app?vid=1add9953-a55f-4dbd-873c-a8179c6d5950"},"vehicle_type_id":"4","last_reported":1693674319,"current_range_meters":27600,"station_id":"ce4bhah2rcd13ifvqei0","pricing_plan_id":"free"},{"bike_id":"94c67c81-c985-47b2-976e-0ca3298c41d0","system_id":"levelo_inurba_marseille","lat":43.317121,"lon":5.423936,"is_reserved":false,"is_disabled":false,"rental_uris":{"android":"levelo://app?vid=94c67c81-c985-47b2-976e-0ca3298c41d0","ios":"levelo://app?vid=94c67c81-c985-47b2-976e-0ca3298c41d0"},"vehicle_type_id":"4","last_reported":1693674319,"current_range_meters":22800,"station_id":"ce4bhp92rcd13ifvqhbg","pricing_plan_id":"free"},{"bike_id":"be2a8eb9-79fa-4e35-847e-30c276a95af9","system_id":"levelo_inurba_marseille","lat":43.317121,"lon":5.423936,"is_reserved":false,"is_disabled":false,"rental_uris":{"android":"levelo://app?vid=be2a8eb9-79fa-4e35-847e-30c276a95af9","ios":"levelo://app?vid=be2a8eb9-79fa-4e35-847e-30c276a95af9"},"vehicle_type_id":"4","last_reported":1693674319,"current_range_meters":9600,"station_id":"ce4bhp92rcd13ifvqhbg","pricing_plan_id":"free"},{"bike_id":"9e1b75ef-9c6d-41fd-980d-cd3c637889ef","system_id":"levelo_inurba_marseille","lat":43.317121,"lon":5.423936,"is_reserved":false,"is_disabled":false,"rental_uris":{"android":"levelo://app?vid=9e1b75ef-9c6d-41fd-980d-cd3c637889ef","ios":"levelo://app?vid=9e1b75ef-9c6d-41fd-980d-cd3c637889ef"},"vehicle_type_id":"4","last_reported":1693674319,"current_range_meters":29200,"station_id":"ce4bhp92rcd13ifvqhbg","pricing_plan_id":"free"},{"bike_id":"56fae68c-5275-441a-9dc9-be69facb353e","system_id":"levelo_inurba_marseille","lat":43.34144,"lon":5.40908,"is_reserved":false,"is_disabled":false,"rental_uris":{"android":"levelo://app?vid=56fae68c-5275-441a-9dc9-be69facb353e","ios":"levelo://app?vid=56fae68c-5275-441a-9dc9-be69facb353e"},"vehicle_type_id":"4","last_reported":1693674319,"current_range_meters":10400,"station_id":"ce4bhqh2rcd13ifvqhlg","pricing_plan_id":"free"},{"bike_id":"eee261d5-2128-40b4-aec6-359c5c3bef5a","system_id":"levelo_inurba_marseille","lat":43.273125,"lon":5.390731,"is_reserved":false,"is_disabled":false,"rental_uris":{"android":"levelo://app?vid=eee261d5-2128-40b4-aec6-359c5c3bef5a","ios":"levelo://app?vid=eee261d5-2128-40b4-aec6-359c5c3bef5a"},"vehicle_type_id":"4","last_reported":1693674319,"current_range_meters":0,"station_id":"ce4bhgp2rcd13ifvqfe0","pricing_plan_id":"free"},{"bike_id":"2dbc05ab-8a73-4820-a61e-9a3d4be332ce","system_id":"levelo_inurba_marseille","lat":43.274225,"lon":5.394199,"is_reserved":false,"is_disabled":false,"rental_uris":{"android":"levelo://app?vid=2dbc05ab-8a73-4820-a61e-9a3d4be332ce","ios":"levelo://app?vid=2dbc05ab-8a73-4820-a61e-9a3d4be332ce"},"vehicle_type_id":"4","last_reported":1693674319,"current_range_meters":19600,"station_id":"","pricing_plan_id":"free"},{"bike_id":"ea4cdce5-41be-4e24-879c-9f28d3f3d671","system_id":"levelo_inurba_marseille","lat":43.274099,"lon":5.394019,"is_reserved":false,"is_disabled":false,"rental_uris":{"android":"levelo://app?vid=ea4cdce5-41be-4e24-879c-9f28d3f3d671","ios":"levelo://app?vid=ea4cdce5-41be-4e24-879c-9f28d3f3d671"},"vehicle_type_id":"4","last_reported":1693674319,"current_range_meters":4400,"station_id":"ce4bhdp2rcd13ifvqf20","pricing_plan_id":"free"},{"bike_id":"379ce880-0949-4843-9926-7a8985f00619","system_id":"levelo_inurba_marseille","lat":43.304096,"lon":5.425385,"is_reserved":false,"is_disabled":false,"rental_uris":{"android":"levelo://app?vid=379ce880-0949-4843-9926-7a8985f00619","ios":"levelo://app?vid=379ce880-0949-4843-9926-7a8985f00619"},"vehicle_type_id":"4","last_reported":1693674319,"current_range_meters":13600,"station_id":"ce4bhoh2rcd13ifvqh6g","pricing_plan_id":"free"},{"bike_id":"bd6e9b91-23fb-42aa-8ce9-1bc0e257e36a","system_id":"levelo_inurba_marseille","lat":43.295523,"lon":5.422926,"is_reserved":false,"is_disabled":false,"rental_uris":{"android":"levelo://app?vid=bd6e9b91-23fb-42aa-8ce9-1bc0e257e36a","ios":"levelo://app?vid=bd6e9b91-23fb-42aa-8ce9-1bc0e257e36a"},"vehicle_type_id":"4","last_reported":1693674319,"current_range_meters":30000,"station_id":"ce4bhph2rcd13ifvqhdg","pricing_plan_id":"free"},{"bike_id":"9e1965ab-ee5a-459a-8e10-a00b20f28ada","system_id":"levelo_inurba_marseille","lat":43.295523,"lon":5.422926,"is_reserved":false,"is_disabled":false,"rental_uris":{"android":"levelo://app?vid=9e1965ab-ee5a-459a-8e10-a00b20f28ada","ios":"levelo://app?vid=9e1965ab-ee5a-459a-8e10-a00b20f28ada"},"vehicle_type_id":"4","last_reported":1693674319,"current_range_meters":30000,"station_id":"ce4bhph2rcd13ifvqhdg","pricing_plan_id":"free"},{"bike_id":"fc4ff5fd-a624-4423-a91b-71b2e162ecea","system_id":"levelo_inurba_marseille","lat":43.295511,"lon":5.422926,"is_reserved":false,"is_disabled":false,"rental_uris":{"android":"levelo://app?vid=fc4ff5fd-a624-4423-a91b-71b2e162ecea","ios":"levelo://app?vid=fc4ff5fd-a624-4423-a91b-71b2e162ecea"},"vehicle_type_id":"4","last_reported":1693674319,"current_range_meters":24000,"station_id":"ce4bhph2rcd13ifvqhdg","pricing_plan_id":"free"},{"bike_id":"2059369e-4428-4279-b789-f9d28ebccbc3","system_id":"levelo_inurba_marseille","lat":43.29556,"lon":5.42296,"is_reserved":false,"is_disabled":false,"rental_uris":{"android":"levelo://app?vid=2059369e-4428-4279-b789-f9d28ebccbc3","ios":"levelo://app?vid=2059369e-4428-4279-b789-f9d28ebccbc3"},"vehicle_type_id":"4","last_reported":1693674319,"current_range_meters":18400,"station_id":"ce4bhph2rcd13ifvqhdg","pricing_plan_id":"free"},{"bike_id":"d9b99a35-95a3-4ea1-a950-6250cc91cb8a","system_id":"levelo_inurba_marseille","lat":43.272118,"lon":5.391758,"is_reserved":false,"is_disabled":false,"rental_uris":{"android":"levelo://app?vid=d9b99a35-95a3-4ea1-a950-6250cc91cb8a","ios":"levelo://app?vid=d9b99a35-95a3-4ea1-a950-6250cc91cb8a"},"vehicle_type_id":"4","last_reported":1693674319,"current_range_meters":0,"station_id":"ce4bhhp2rcd13ifvqfm0","pricing_plan_id":"free"},{"bike_id":"f61d4bb4-04ba-4d67-80a7-be7d080bcc95","system_id":"levelo_inurba_marseille","lat":43.272116,"lon":5.391763,"is_reserved":false,"is_disabled":false,"rental_uris":{"android":"levelo://app?vid=f61d4bb4-04ba-4d67-80a7-be7d080bcc95","ios":"levelo://app?vid=f61d4bb4-04ba-4d67-80a7-be7d080bcc95"},"vehicle_type_id":"4","last_reported":1693674319,"current_range_meters":4000,"station_id":"ce4bhhp2rcd13ifvqfm0","pricing_plan_id":"free"},{"bike_id":"96b70b0d-c579-4c10-8cf6-2e193a79ca22","system_id":"levelo_inurba_marseille","lat":43.272118,"lon":5.391758,"is_reserved":false,"is_disabled":false,"rental_uris":{"android":"levelo://app?vid=96b70b0d-c579-4c10-8cf6-2e193a79ca22","ios":"levelo://app?vid=96b70b0d-c579-4c10-8cf6-2e193a79ca22"},"vehicle_type_id":"4","last_reported":1693674319,"current_range_meters":0,"station_id":"ce4bhhp2rcd13ifvqfm0","pricing_plan_id":"free"},{"bike_id":"9f3874b3-909c-4fa8-b5d7-f76107f6c88e","system_id":"levelo_inurba_marseille","lat":43.278128,"lon":5.407195,"is_reserved":false,"is_disabled":false,"rental_uris":{"android":"levelo://app?vid=9f3874b3-909c-4fa8-b5d7-f76107f6c88e","ios":"levelo://app?vid=9f3874b3-909c-4fa8-b5d7-f76107f6c88e"},"vehicle_type_id":"4","last_reported":1693674319,"current_range_meters":19600,"station_id":"ce4bhnh2rcd13ifvqgtg","pricing_plan_id":"free"},{"bike_id":"63ad4da5-bbe2-4553-a7cb-0ab974b8cd76","system_id":"levelo_inurba_marseille","lat":43.26683,"lon":5.38273,"is_reserved":false,"is_disabled":false,"rental_uris":{"android":"levelo://app?vid=63ad4da5-bbe2-4553-a7cb-0ab974b8cd76","ios":"levelo://app?vid=63ad4da5-bbe2-4553-a7cb-0ab974b8cd76"},"vehicle_type_id":"4","last_reported":1693674319,"current_range_meters":18400,"station_id":"ce4bhg92rcd13ifvqf90","pricing_plan_id":"free"},{"bike_id":"7331e869-84b2-4343-a52b-0ca7d5c260a8","system_id":"levelo_inurba_marseille","lat":43.265714,"lon":5.372891,"is_reserved":false,"is_disabled":false,"rental_uris":{"android":"levelo://app?vid=7331e869-84b2-4343-a52b-0ca7d5c260a8","ios":"levelo://app?vid=7331e869-84b2-4343-a52b-0ca7d5c260a8"},"vehicle_type_id":"4","last_reported":1693674319,"current_range_meters":17600,"station_id":"ce4bhg12rcd13ifvqf70","pricing_plan_id":"free"},{"bike_id":"618d871f-fb93-4d23-bf8e-cfe4c1d869ab","system_id":"levelo_inurba_marseille","lat":43.26555,"lon":5.37284,"is_reserved":false,"is_disabled":false,"rental_uris":{"android":"levelo://app?vid=618d871f-fb93-4d23-bf8e-cfe4c1d869ab","ios":"levelo://app?vid=618d871f-fb93-4d23-bf8e-cfe4c1d869ab"},"vehicle_type_id":"4","last_reported":1693674319,"current_range_meters":0,"station_id":"ce4bhg12rcd13ifvqf70","pricing_plan_id":"free"},{"bike_id":"6b7e3d30-e609-49fb-8f39-3bf740e666f1","system_id":"levelo_inurba_marseille","lat":43.26552,"lon":5.3728,"is_reserved":false,"is_disabled":false,"rental_uris":{"android":"levelo://app?vid=6b7e3d30-e609-49fb-8f39-3bf740e666f1","ios":"levelo://app?vid=6b7e3d30-e609-49fb-8f39-3bf740e666f1"},"vehicle_type_id":"4","last_reported":1693674319,"current_range_meters":22800,"station_id":"ce4bhg12rcd13ifvqf70","pricing_plan_id":"free"},{"bike_id":"237db5b3-b8fb-4b9b-952e-2225a6c758a3","system_id":"levelo_inurba_marseille","lat":43.26552,"lon":5.3729,"is_reserved":false,"is_disabled":false,"rental_uris":{"android":"levelo://app?vid=237db5b3-b8fb-4b9b-952e-2225a6c758a3","ios":"levelo://app?vid=237db5b3-b8fb-4b9b-952e-2225a6c758a3"},"vehicle_type_id":"4","last_reported":1693674319,"current_range_meters":29200,"station_id":"ce4bhg12rcd13ifvqf70","pricing_plan_id":"free"},{"bike_id":"5f271ff1-82e5-4a20-8810-f3cc6a0ba1ca","system_id":"levelo_inurba_marseille","lat":43.2655,"lon":5.37287,"is_reserved":false,"is_disabled":false,"rental_uris":{"android":"levelo://app?vid=5f271ff1-82e5-4a20-8810-f3cc6a0ba1ca","ios":"levelo://app?vid=5f271ff1-82e5-4a20-8810-f3cc6a0ba1ca"},"vehicle_type_id":"4","last_reported":1693674319,"current_range_meters":31200,"station_id":"ce4bhg12rcd13ifvqf70","pricing_plan_id":"free"},{"bike_id":"b6477159-53ab-4694-acd9-bea8a12a4e89","system_id":"levelo_inurba_marseille","lat":43.265488,"lon":5.372848,"is_reserved":false,"is_disabled":false,"rental_uris":{"android":"levelo://app?vid=b6477159-53ab-4694-acd9-bea8a12a4e89","ios":"levelo://app?vid=b6477159-53ab-4694-acd9-bea8a12a4e89"},"vehicle_type_id":"4","last_reported":1693674319,"current_range_meters":21600,"station_id":"ce4bhg12rcd13ifvqf70","pricing_plan_id":"free"},{"bike_id":"5a8da3a5-3ab9-4dd1-81b4-7400cee31938","system_id":"levelo_inurba_marseille","lat":43.265475,"lon":5.373182,"is_reserved":false,"is_disabled":false,"rental_uris":{"android":"levelo://app?vid=5a8da3a5-3ab9-4dd1-81b4-7400cee31938","ios":"levelo://app?vid=5a8da3a5-3ab9-4dd1-81b4-7400cee31938"},"vehicle_type_id":"4","last_reported":1693674319,"current_range_meters":18000,"station_id":"ce4bhg12rcd13ifvqf70","pricing_plan_id":"free"},{"bike_id":"d90c17c3-7e39-4ca5-9f48-ef65a6225443","system_id":"levelo_inurba_marseille","lat":43.28001,"lon":5.41665,"is_reserved":false,"is_disabled":false,"rental_uris":{"android":"levelo://app?vid=d90c17c3-7e39-4ca5-9f48-ef65a6225443","ios":"levelo://app?vid=d90c17c3-7e39-4ca5-9f48-ef65a6225443"},"vehicle_type_id":"4","last_reported":1693674319,"current_range_meters":6000,"station_id":"ce4bho12rcd13ifvqh1g","pricing_plan_id":"free"},{"bike_id":"15f4e2d8-66c4-4e68-8533-e36b48dfee49","system_id":"levelo_inurba_marseille","lat":43.27995,"lon":5.41664,"is_reserved":false,"is_disabled":false,"rental_uris":{"android":"levelo://app?vid=15f4e2d8-66c4-4e68-8533-e36b48dfee49","ios":"levelo://app?vid=15f4e2d8-66c4-4e68-8533-e36b48dfee49"},"vehicle_type_id":"4","last_reported":1693674319,"current_range_meters":13600,"station_id":"ce4bho12rcd13ifvqh1g","pricing_plan_id":"free"},{"bike_id":"b2c120fe-61b5-4490-82c5-e2678f511072","system_id":"levelo_inurba_marseille","lat":43.269319,"lon":5.389397,"is_reserved":false,"is_disabled":false,"rental_uris":{"android":"levelo://app?vid=b2c120fe-61b5-4490-82c5-e2678f511072","ios":"levelo://app?vid=b2c120fe-61b5-4490-82c5-e2678f511072"},"vehicle_type_id":"4","last_reported":1693674319,"current_range_meters":6800,"station_id":"ce4bhhh2rcd13ifvqfl0","pricing_plan_id":"free"},{"bike_id":"0c7cea4e-3625-4e80-ab2b-0a24f86c12e7","system_id":"levelo_inurba_marseille","lat":43.26791,"lon":5.39405,"is_reserved":false,"is_disabled":false,"rental_uris":{"android":"levelo://app?vid=0c7cea4e-3625-4e80-ab2b-0a24f86c12e7","ios":"levelo://app?vid=0c7cea4e-3625-4e80-ab2b-0a24f86c12e7"},"vehicle_type_id":"4","last_reported":1693674319,"current_range_meters":6000,"station_id":"ce4bhh12rcd13ifvqfg0","pricing_plan_id":"free"},{"bike_id":"434a20f5-e301-41c5-ae69-f5945943dd87","system_id":"levelo_inurba_marseille","lat":43.267966,"lon":5.393976,"is_reserved":false,"is_disabled":false,"rental_uris":{"android":"levelo://app?vid=434a20f5-e301-41c5-ae69-f5945943dd87","ios":"levelo://app?vid=434a20f5-e301-41c5-ae69-f5945943dd87"},"vehicle_type_id":"4","last_reported":1693674319,"current_range_meters":27200,"station_id":"ce4bhh12rcd13ifvqfg0","pricing_plan_id":"free"},{"bike_id":"cb841f1f-394c-4a78-bfef-934f00ea2910","system_id":"levelo_inurba_marseille","lat":43.26561,"lon":5.39003,"is_reserved":false,"is_disabled":false,"rental_uris":{"android":"levelo://app?vid=cb841f1f-394c-4a78-bfef-934f00ea2910","ios":"levelo://app?vid=cb841f1f-394c-4a78-bfef-934f00ea2910"},"vehicle_type_id":"4","last_reported":1693674319,"current_range_meters":2800,"station_id":"ce4bhe12rcd13ifvqf30","pricing_plan_id":"free"},{"bike_id":"86cfc155-a152-432e-80f4-b69575b2e33a","system_id":"levelo_inurba_marseille","lat":43.26942,"lon":5.4024,"is_reserved":false,"is_disabled":false,"rental_uris":{"android":"levelo://app?vid=86cfc155-a152-432e-80f4-b69575b2e33a","ios":"levelo://app?vid=86cfc155-a152-432e-80f4-b69575b2e33a"},"vehicle_type_id":"4","last_reported":1693674319,"current_range_meters":23200,"station_id":"cjm6bp8fraef2m0cb0m0","pricing_plan_id":"free"},{"bike_id":"0d4d262e-c4f0-4813-b333-9ad626c90523","system_id":"levelo_inurba_marseille","lat":43.26946,"lon":5.40265,"is_reserved":false,"is_disabled":false,"rental_uris":{"android":"levelo://app?vid=0d4d262e-c4f0-4813-b333-9ad626c90523","ios":"levelo://app?vid=0d4d262e-c4f0-4813-b333-9ad626c90523"},"vehicle_type_id":"4","last_reported":1693674319,"current_range_meters":14400,"station_id":"cjm6bp8fraef2m0cb0m0","pricing_plan_id":"free"},{"bike_id":"4600d2d9-713d-421c-83f0-ccf069ac1832","system_id":"levelo_inurba_marseille","lat":43.26949,"lon":5.40262,"is_reserved":false,"is_disabled":false,"rental_uris":{"android":"levelo://app?vid=4600d2d9-713d-421c-83f0-ccf069ac1832","ios":"levelo://app?vid=4600d2d9-713d-421c-83f0-ccf069ac1832"},"vehicle_type_id":"4","last_reported":1693674319,"current_range_meters":3600,"station_id":"cjm6bp8fraef2m0cb0m0","pricing_plan_id":"free"},{"bike_id":"b11d9978-28ce-4af7-8b47-575eb20d4c11","system_id":"levelo_inurba_marseille","lat":43.26933,"lon":5.40255,"is_reserved":false,"is_disabled":false,"rental_uris":{"android":"levelo://app?vid=b11d9978-28ce-4af7-8b47-575eb20d4c11","ios":"levelo://app?vid=b11d9978-28ce-4af7-8b47-575eb20d4c11"},"vehicle_type_id":"4","last_reported":1693674319,"current_range_meters":15600,"station_id":"cjm6bp8fraef2m0cb0m0","pricing_plan_id":"free"},{"bike_id":"0d6238b9-10df-4329-9c7f-29c5f8c2350d","system_id":"levelo_inurba_marseille","lat":43.261782,"lon":5.374515,"is_reserved":false,"is_disabled":false,"rental_uris":{"android":"levelo://app?vid=0d6238b9-10df-4329-9c7f-29c5f8c2350d","ios":"levelo://app?vid=0d6238b9-10df-4329-9c7f-29c5f8c2350d"},"vehicle_type_id":"4","last_reported":1693674319,"current_range_meters":30400,"station_id":"ce4bhgp2rcd13ifvqfc0","pricing_plan_id":"free"},{"bike_id":"7d2048b7-f09f-4254-a0fc-60f4e0e571c1","system_id":"levelo_inurba_marseille","lat":43.261782,"lon":5.374515,"is_reserved":false,"is_disabled":false,"rental_uris":{"android":"levelo://app?vid=7d2048b7-f09f-4254-a0fc-60f4e0e571c1","ios":"levelo://app?vid=7d2048b7-f09f-4254-a0fc-60f4e0e571c1"},"vehicle_type_id":"4","last_reported":1693674319,"current_range_meters":13600,"station_id":"ce4bhgp2rcd13ifvqfc0","pricing_plan_id":"free"},{"bike_id":"c1d5a8ed-89bd-4cbf-80cf-3d369f08fb89","system_id":"levelo_inurba_marseille","lat":43.261782,"lon":5.374515,"is_reserved":false,"is_disabled":false,"rental_uris":{"android":"levelo://app?vid=c1d5a8ed-89bd-4cbf-80cf-3d369f08fb89","ios":"levelo://app?vid=c1d5a8ed-89bd-4cbf-80cf-3d369f08fb89"},"vehicle_type_id":"4","last_reported":1693674319,"current_range_meters":22000,"station_id":"ce4bhgp2rcd13ifvqfc0","pricing_plan_id":"free"},{"bike_id":"763f7851-8078-40ca-bf43-b2d78b656960","system_id":"levelo_inurba_marseille","lat":43.317104,"lon":5.436818,"is_reserved":false,"is_disabled":false,"rental_uris":{"android":"levelo://app?vid=763f7851-8078-40ca-bf43-b2d78b656960","ios":"levelo://app?vid=763f7851-8078-40ca-bf43-b2d78b656960"},"vehicle_type_id":"4","last_reported":1693674319,"current_range_meters":31200,"station_id":"ce4bhp92rcd13ifvqhcg","pricing_plan_id":"free"},{"bike_id":"82c9f1ab-f299-4727-a940-acf8d7e475fc","system_id":"levelo_inurba_marseille","lat":43.26186,"lon":5.37441,"is_reserved":false,"is_disabled":false,"rental_uris":{"android":"levelo://app?vid=82c9f1ab-f299-4727-a940-acf8d7e475fc","ios":"levelo://app?vid=82c9f1ab-f299-4727-a940-acf8d7e475fc"},"vehicle_type_id":"4","last_reported":1693674319,"current_range_meters":11600,"station_id":"ce4bhgp2rcd13ifvqfc0","pricing_plan_id":"free"},{"bike_id":"7617c3b8-5c45-4d56-8349-2139c2697676","system_id":"levelo_inurba_marseille","lat":43.317104,"lon":5.436818,"is_reserved":false,"is_disabled":false,"rental_uris":{"android":"levelo://app?vid=7617c3b8-5c45-4d56-8349-2139c2697676","ios":"levelo://app?vid=7617c3b8-5c45-4d56-8349-2139c2697676"},"vehicle_type_id":"4","last_reported":1693674319,"current_range_meters":16000,"station_id":"ce4bhp92rcd13ifvqhcg","pricing_plan_id":"free"},{"bike_id":"bcb6836f-05c7-4805-855d-1009efef8db6","system_id":"levelo_inurba_marseille","lat":43.317104,"lon":5.436818,"is_reserved":false,"is_disabled":false,"rental_uris":{"android":"levelo://app?vid=bcb6836f-05c7-4805-855d-1009efef8db6","ios":"levelo://app?vid=bcb6836f-05c7-4805-855d-1009efef8db6"},"vehicle_type_id":"4","last_reported":1693674319,"current_range_meters":29200,"station_id":"ce4bhp92rcd13ifvqhcg","pricing_plan_id":"free"},{"bike_id":"c4840ed9-a568-4074-89e8-78b57d29f844","system_id":"levelo_inurba_marseille","lat":43.317104,"lon":5.436818,"is_reserved":false,"is_disabled":false,"rental_uris":{"android":"levelo://app?vid=c4840ed9-a568-4074-89e8-78b57d29f844","ios":"levelo://app?vid=c4840ed9-a568-4074-89e8-78b57d29f844"},