{"last_updated":1762974492,"ttl":60,"version":"2.2","data":{"bikes":[{"bike_id":"d7db12ce-11cc-4c98-8751-ac59baa5d7aa","system_id":"levelo_inurba_marseille","lat":43.337444,"lon":5.374475,"is_reserved":false,"is_disabled":false,"rental_uris":{"android":"levelo://app?vid=d7db12ce-11cc-4c98-8751-ac59baa5d7aa","ios":"levelo://app?vid=d7db12ce-11cc-4c98-8751-ac59baa5d7aa"},"vehicle_type_id":"4","last_reported":1762974492,"current_range_meters":0,"station_id":"","pricing_plan_id":"cebpf4jnsgd1na2vs0mg"},{"bike_id":"f53d51d0-3beb-4a88-8826-a8c580e84c7c","system_id":"levelo_inurba_marseille","lat":43.27945,"lon":5.41055,"is_reserved":false,"is_disabled":false,"rental_uris":{"android":"levelo://app?vid=f53d51d0-3beb-4a88-8826-a8c580e84c7c","ios":"levelo://app?vid=f53d51d0-3beb-4a88-8826-a8c580e84c7c"},"vehicle_type_id":"4","last_reported":1762974492,"current_range_meters":2800,"station_id":"ce4bhnp2rcd13ifvqh0g","pricing_plan_id":"cebpf4jnsgd1na2vs0mg"},{"bike_id":"2d54cdc2-ca28-44f1-863b-6ee1eee27564","system_id":"levelo_inurba_marseille","lat":43.29856,"lon":5.3628,"is_reserved":false,"is_disabled":false,"rental_uris":{"android":"levelo://app?vid=2d54cdc2-ca28-44f1-863b-6ee1eee27564","ios":"levelo://app?vid=2d54cdc2-ca28-44f1-863b-6ee1eee27564"},"vehicle_type_id":"4","last_reported":1762974492,"current_range_meters":2800,"station_id":"ce4bgpp2rcd13ifvqc3g","pricing_plan_id":"cebpf4jnsgd1na2vs0mg"},{"bike_id":"617f8f6b-d22d-4b1a-b0a6-95d629d40214","system_id":"levelo_inurba_marseille","lat":43.2898,"lon":5.37838,"is_reserved":false,"is_disabled":false,"rental_uris":{"android":"levelo://app?vid=617f8f6b-d22d-4b1a-b0a6-95d629d40214","ios":"levelo://app?vid=617f8f6b-d22d-4b1a-b0a6-95d629d40214"},"vehicle_type_id":"4","last_reported":1762974492,"current_range_meters":2800,"station_id":"ce4bh9p2rcd13ifvqed0","pricing_plan_id":"cebpf4jnsgd1na2vs0mg"},{"bike_id":"349b2ad9-adea-4dd9-9ac9-fffb121b5424","system_id":"levelo_inurba_marseille","lat":43.29892,"lon":5.37537,"is_reserved":false,"is_disabled":false,"rental_uris":{"android":"levelo://app?vid=349b2ad9-adea-4dd9-9ac9-fffb121b5424","ios":"levelo://app?vid=349b2ad9-adea-4dd9-9ac9-fffb121b5424"},"vehicle_type_id":"4","last_reported":1762974492,"current_range_meters":3200,"station_id":"","pricing_plan_id":"cebpf4jnsgd1na2vs0mg"},{"bike_id":"6d71abbe-3c0f-4408-925d-b2633c441681","system_id":"levelo_inurba_marseille","lat":43.24092,"lon":5.37734,"is_reserved":false,"is_disabled":false,"rental_uris":{"android":"levelo://app?vid=6d71abbe-3c0f-4408-925d-b2633c441681","ios":"levelo://app?vid=6d71abbe-3c0f-4408-925d-b2633c441681"},"vehicle_type_id":"4","last_reported":1762974492,"current_range_meters":3200,"station_id":"ce4bhnp2rcd13ifvqgvg","pricing_plan_id":"cebpf4jnsgd1na2vs0mg"},{"bike_id":"b1dcbee6-2ea1-4fde-b238-a7a30562d8bd","system_id":"levelo_inurba_marseille","lat":43.265708,"lon":5.390056,"is_reserved":false,"is_disabled":false,"rental_uris":{"android":"levelo://app?vid=b1dcbee6-2ea1-4fde-b238-a7a30562d8bd","ios":"levelo://app?vid=b1dcbee6-2ea1-4fde-b238-a7a30562d8bd"},"vehicle_type_id":"4","last_reported":1762974492,"current_range_meters":3200,"station_id":"","pricing_plan_id":"cebpf4jnsgd1na2vs0mg"},{"bike_id":"e473e2c8-cf7d-451c-9fe2-9b51cc4183b4","system_id":"levelo_inurba_marseille","lat":43.29915,"lon":5.37472,"is_reserved":false,"is_disabled":false,"rental_uris":{"android":"levelo://app?vid=e473e2c8-cf7d-451c-9fe2-9b51cc4183b4","ios":"levelo://app?vid=e473e2c8-cf7d-451c-9fe2-9b51cc4183b4"},"vehicle_type_id":"4","last_reported":1762974492,"current_range_meters":3200,"station_id":"ce4bgjh2rcd13ifvqbg0","pricing_plan_id":"cebpf4jnsgd1na2vs0mg"},{"bike_id":"c7524101-9639-44d4-8d85-909f4894a107","system_id":"levelo_inurba_marseille","lat":43.32481,"lon":5.3656,"is_reserved":false,"is_disabled":false,"rental_uris":{"android":"levelo://app?vid=c7524101-9639-44d4-8d85-909f4894a107","ios":"levelo://app?vid=c7524101-9639-44d4-8d85-909f4894a107"},"vehicle_type_id":"4","last_reported":1762974492,"current_range_meters":3200,"station_id":"ce4bhs12rcd13ifvqhvg","pricing_plan_id":"cebpf4jnsgd1na2vs0mg"},{"bike_id":"a1c64497-73e6-4fe4-855a-833c63d38812","system_id":"levelo_inurba_marseille","lat":43.28071,"lon":5.39649,"is_reserved":false,"is_disabled":false,"rental_uris":{"android":"levelo://app?vid=a1c64497-73e6-4fe4-855a-833c63d38812","ios":"levelo://app?vid=a1c64497-73e6-4fe4-855a-833c63d38812"},"vehicle_type_id":"4","last_reported":1762974492,"current_range_meters":3200,"station_id":"ce4bho12rcd13ifvqh2g","pricing_plan_id":"cebpf4jnsgd1na2vs0mg"},{"bike_id":"4ccbf393-f877-4e78-8194-38d5445ee5a7","system_id":"levelo_inurba_marseille","lat":43.290304,"lon":5.386469,"is_reserved":false,"is_disabled":false,"rental_uris":{"android":"levelo://app?vid=4ccbf393-f877-4e78-8194-38d5445ee5a7","ios":"levelo://app?vid=4ccbf393-f877-4e78-8194-38d5445ee5a7"},"vehicle_type_id":"4","last_reported":1762974492,"current_range_meters":3200,"station_id":"ce4bh4p2rcd13ifvqe0g","pricing_plan_id":"cebpf4jnsgd1na2vs0mg"},{"bike_id":"934ec85e-17a7-4615-99c5-4079c71535ee","system_id":"levelo_inurba_marseille","lat":43.27984,"lon":5.4166,"is_reserved":false,"is_disabled":false,"rental_uris":{"android":"levelo://app?vid=934ec85e-17a7-4615-99c5-4079c71535ee","ios":"levelo://app?vid=934ec85e-17a7-4615-99c5-4079c71535ee"},"vehicle_type_id":"4","last_reported":1762974492,"current_range_meters":3200,"station_id":"ce4bho12rcd13ifvqh1g","pricing_plan_id":"cebpf4jnsgd1na2vs0mg"},{"bike_id":"5b186b8e-837e-4a6b-8bde-461afd924efa","system_id":"levelo_inurba_marseille","lat":43.28442,"lon":5.39188,"is_reserved":false,"is_disabled":false,"rental_uris":{"android":"levelo://app?vid=5b186b8e-837e-4a6b-8bde-461afd924efa","ios":"levelo://app?vid=5b186b8e-837e-4a6b-8bde-461afd924efa"},"vehicle_type_id":"4","last_reported":1762974492,"current_range_meters":3600,"station_id":"ce4bhoh2rcd13ifvqh5g","pricing_plan_id":"cebpf4jnsgd1na2vs0mg"},{"bike_id":"62da84d0-7b33-4437-9377-83a424aee13a","system_id":"levelo_inurba_marseille","lat":43.308021,"lon":5.43532,"is_reserved":false,"is_disabled":false,"rental_uris":{"android":"levelo://app?vid=62da84d0-7b33-4437-9377-83a424aee13a","ios":"levelo://app?vid=62da84d0-7b33-4437-9377-83a424aee13a"},"vehicle_type_id":"4","last_reported":1762974492,"current_range_meters":3600,"station_id":"","pricing_plan_id":"cebpf4jnsgd1na2vs0mg"},{"bike_id":"c5af1b30-944e-43ba-9e11-cd39fbb20692","system_id":"levelo_inurba_marseille","lat":43.29225,"lon":5.3606,"is_reserved":false,"is_disabled":false,"rental_uris":{"android":"levelo://app?vid=c5af1b30-944e-43ba-9e11-cd39fbb20692","ios":"levelo://app?vid=c5af1b30-944e-43ba-9e11-cd39fbb20692"},"vehicle_type_id":"4","last_reported":1762974492,"current_range_meters":3600,"station_id":"ce4bhbh2rcd13ifvqeqg","pricing_plan_id":"cebpf4jnsgd1na2vs0mg"},{"bike_id":"e7bea743-5cfb-42c1-af1f-58c71c60f824","system_id":"levelo_inurba_marseille","lat":43.29517,"lon":5.39403,"is_reserved":false,"is_disabled":false,"rental_uris":{"android":"levelo://app?vid=e7bea743-5cfb-42c1-af1f-58c71c60f824","ios":"levelo://app?vid=e7bea743-5cfb-42c1-af1f-58c71c60f824"},"vehicle_type_id":"4","last_reported":1762974492,"current_range_meters":3600,"station_id":"ce4bh292rcd13ifvqdf0","pricing_plan_id":"cebpf4jnsgd1na2vs0mg"},{"bike_id":"5b72697f-89b7-455f-9fae-9756f3a3bc8d","system_id":"levelo_inurba_marseille","lat":43.3021,"lon":5.38821,"is_reserved":false,"is_disabled":false,"rental_uris":{"android":"levelo://app?vid=5b72697f-89b7-455f-9fae-9756f3a3bc8d","ios":"levelo://app?vid=5b72697f-89b7-455f-9fae-9756f3a3bc8d"},"vehicle_type_id":"4","last_reported":1762974492,"current_range_meters":3600,"station_id":"","pricing_plan_id":"cebpf4jnsgd1na2vs0mg"},{"bike_id":"d0754fa9-6a52-4af1-8a37-b313ed651854","system_id":"levelo_inurba_marseille","lat":43.29537,"lon":5.39403,"is_reserved":false,"is_disabled":false,"rental_uris":{"android":"levelo://app?vid=d0754fa9-6a52-4af1-8a37-b313ed651854","ios":"levelo://app?vid=d0754fa9-6a52-4af1-8a37-b313ed651854"},"vehicle_type_id":"4","last_reported":1762974492,"current_range_meters":4000,"station_id":"ce4bh292rcd13ifvqdf0","pricing_plan_id":"cebpf4jnsgd1na2vs0mg"},{"bike_id":"8d42998b-b037-473c-b6b9-f4ba809e10a7","system_id":"levelo_inurba_marseille","lat":43.29898,"lon":5.436697,"is_reserved":false,"is_disabled":false,"rental_uris":{"android":"levelo://app?vid=8d42998b-b037-473c-b6b9-f4ba809e10a7","ios":"levelo://app?vid=8d42998b-b037-473c-b6b9-f4ba809e10a7"},"vehicle_type_id":"4","last_reported":1762974492,"current_range_meters":4000,"station_id":"ce4bhpp2rcd13ifvqhfg","pricing_plan_id":"cebpf4jnsgd1na2vs0mg"},{"bike_id":"e07712d7-8ea7-4535-a279-d6379e0c90e2","system_id":"levelo_inurba_marseille","lat":43.28409,"lon":5.37499,"is_reserved":false,"is_disabled":false,"rental_uris":{"android":"levelo://app?vid=e07712d7-8ea7-4535-a279-d6379e0c90e2","ios":"levelo://app?vid=e07712d7-8ea7-4535-a279-d6379e0c90e2"},"vehicle_type_id":"4","last_reported":1762974492,"current_range_meters":4000,"station_id":"ce4bh412rcd13ifvqds0","pricing_plan_id":"cebpf4jnsgd1na2vs0mg"},{"bike_id":"d8e7130f-fd48-4b02-b6f2-91f20d95dd0d","system_id":"levelo_inurba_marseille","lat":43.290619,"lon":5.373779,"is_reserved":false,"is_disabled":false,"rental_uris":{"android":"levelo://app?vid=d8e7130f-fd48-4b02-b6f2-91f20d95dd0d","ios":"levelo://app?vid=d8e7130f-fd48-4b02-b6f2-91f20d95dd0d"},"vehicle_type_id":"4","last_reported":1762974492,"current_range_meters":4000,"station_id":"ce4bh5p2rcd13ifvqe4g","pricing_plan_id":"cebpf4jnsgd1na2vs0mg"},{"bike_id":"78c02fc6-e82d-47d7-9878-3e48a9dafbc2","system_id":"levelo_inurba_marseille","lat":43.28535,"lon":5.44099,"is_reserved":false,"is_disabled":false,"rental_uris":{"android":"levelo://app?vid=78c02fc6-e82d-47d7-9878-3e48a9dafbc2","ios":"levelo://app?vid=78c02fc6-e82d-47d7-9878-3e48a9dafbc2"},"vehicle_type_id":"4","last_reported":1762974492,"current_range_meters":4000,"station_id":"st_d3j3df2ikq2c7380ej80","pricing_plan_id":"cebpf4jnsgd1na2vs0mg"},{"bike_id":"fc0934ce-d7ac-474e-a7bc-f100bbc4c590","system_id":"levelo_inurba_marseille","lat":43.28358,"lon":5.38096,"is_reserved":false,"is_disabled":false,"rental_uris":{"android":"levelo://app?vid=fc0934ce-d7ac-474e-a7bc-f100bbc4c590","ios":"levelo://app?vid=fc0934ce-d7ac-474e-a7bc-f100bbc4c590"},"vehicle_type_id":"4","last_reported":1762974492,"current_range_meters":4000,"station_id":"ce4bh412rcd13ifvqdr0","pricing_plan_id":"cebpf4jnsgd1na2vs0mg"},{"bike_id":"9797e9df-7f22-4fdd-b1b6-1a3789904c95","system_id":"levelo_inurba_marseille","lat":43.29829,"lon":5.36285,"is_reserved":false,"is_disabled":false,"rental_uris":{"android":"levelo://app?vid=9797e9df-7f22-4fdd-b1b6-1a3789904c95","ios":"levelo://app?vid=9797e9df-7f22-4fdd-b1b6-1a3789904c95"},"vehicle_type_id":"4","last_reported":1762974492,"current_range_meters":4000,"station_id":"ce4bgpp2rcd13ifvqc3g","pricing_plan_id":"cebpf4jnsgd1na2vs0mg"},{"bike_id":"97e9749b-6a9d-422d-80a3-bd5b91156ca5","system_id":"levelo_inurba_marseille","lat":43.318383,"lon":5.406623,"is_reserved":false,"is_disabled":false,"rental_uris":{"android":"levelo://app?vid=97e9749b-6a9d-422d-80a3-bd5b91156ca5","ios":"levelo://app?vid=97e9749b-6a9d-422d-80a3-bd5b91156ca5"},"vehicle_type_id":"4","last_reported":1762974492,"current_range_meters":4000,"station_id":"ce4bhq12rcd13ifvqhig","pricing_plan_id":"cebpf4jnsgd1na2vs0mg"},{"bike_id":"d7026fc3-a346-49bd-8209-179291ba2736","system_id":"levelo_inurba_marseille","lat":43.29859,"lon":5.3841,"is_reserved":false,"is_disabled":false,"rental_uris":{"android":"levelo://app?vid=d7026fc3-a346-49bd-8209-179291ba2736","ios":"levelo://app?vid=d7026fc3-a346-49bd-8209-179291ba2736"},"vehicle_type_id":"4","last_reported":1762974492,"current_range_meters":4000,"station_id":"","pricing_plan_id":"cebpf4jnsgd1na2vs0mg"},{"bike_id":"16352e7f-c034-4ef1-8a6e-b54abc767aa3","system_id":"levelo_inurba_marseille","lat":43.31381,"lon":5.37587,"is_reserved":false,"is_disabled":false,"rental_uris":{"android":"levelo://app?vid=16352e7f-c034-4ef1-8a6e-b54abc767aa3","ios":"levelo://app?vid=16352e7f-c034-4ef1-8a6e-b54abc767aa3"},"vehicle_type_id":"4","last_reported":1762974492,"current_range_meters":4400,"station_id":"","pricing_plan_id":"cebpf4jnsgd1na2vs0mg"},{"bike_id":"e27d9798-9073-422a-aa29-6343ecfd986a","system_id":"levelo_inurba_marseille","lat":43.299348,"lon":5.365492,"is_reserved":false,"is_disabled":false,"rental_uris":{"android":"levelo://app?vid=e27d9798-9073-422a-aa29-6343ecfd986a","ios":"levelo://app?vid=e27d9798-9073-422a-aa29-6343ecfd986a"},"vehicle_type_id":"4","last_reported":1762974492,"current_range_meters":4400,"station_id":"ce4bh0p2rcd13ifvqd70","pricing_plan_id":"cebpf4jnsgd1na2vs0mg"},{"bike_id":"f629895e-018c-45ba-9c34-01a759a3bdc4","system_id":"levelo_inurba_marseille","lat":43.29515,"lon":5.39398,"is_reserved":false,"is_disabled":false,"rental_uris":{"android":"levelo://app?vid=f629895e-018c-45ba-9c34-01a759a3bdc4","ios":"levelo://app?vid=f629895e-018c-45ba-9c34-01a759a3bdc4"},"vehicle_type_id":"4","last_reported":1762974492,"current_range_meters":4400,"station_id":"ce4bh292rcd13ifvqdf0","pricing_plan_id":"cebpf4jnsgd1na2vs0mg"},{"bike_id":"3da64901-646a-489a-a8d1-9971551ab270","system_id":"levelo_inurba_marseille","lat":43.290227,"lon":5.38125,"is_reserved":false,"is_disabled":false,"rental_uris":{"android":"levelo://app?vid=3da64901-646a-489a-a8d1-9971551ab270","ios":"levelo://app?vid=3da64901-646a-489a-a8d1-9971551ab270"},"vehicle_type_id":"4","last_reported":1762974492,"current_range_meters":4400,"station_id":"ce4bh4p2rcd13ifvqe1g","pricing_plan_id":"cebpf4jnsgd1na2vs0mg"},{"bike_id":"fb010b36-5885-4f21-9743-9de57d892a8c","system_id":"levelo_inurba_marseille","lat":43.290324,"lon":5.386523,"is_reserved":false,"is_disabled":false,"rental_uris":{"android":"levelo://app?vid=fb010b36-5885-4f21-9743-9de57d892a8c","ios":"levelo://app?vid=fb010b36-5885-4f21-9743-9de57d892a8c"},"vehicle_type_id":"4","last_reported":1762974492,"current_range_meters":4800,"station_id":"","pricing_plan_id":"cebpf4jnsgd1na2vs0mg"},{"bike_id":"08b7aef3-7de4-4d02-9be9-c758504aeb07","system_id":"levelo_inurba_marseille","lat":43.2757,"lon":5.38415,"is_reserved":false,"is_disabled":false,"rental_uris":{"android":"levelo://app?vid=08b7aef3-7de4-4d02-9be9-c758504aeb07","ios":"levelo://app?vid=08b7aef3-7de4-4d02-9be9-c758504aeb07"},"vehicle_type_id":"4","last_reported":1762974492,"current_range_meters":4800,"station_id":"ce4bhh92rcd13ifvqfi0","pricing_plan_id":"cebpf4jnsgd1na2vs0mg"},{"bike_id":"93be0262-5634-4a82-ab5e-0f7889f61b2a","system_id":"levelo_inurba_marseille","lat":43.2929,"lon":5.37464,"is_reserved":false,"is_disabled":false,"rental_uris":{"android":"levelo://app?vid=93be0262-5634-4a82-ab5e-0f7889f61b2a","ios":"levelo://app?vid=93be0262-5634-4a82-ab5e-0f7889f61b2a"},"vehicle_type_id":"4","last_reported":1762974492,"current_range_meters":4800,"station_id":"ce4bgi12rcd13ifvqb70","pricing_plan_id":"cebpf4jnsgd1na2vs0mg"},{"bike_id":"99c85f19-1672-4061-96cf-377437546eb8","system_id":"levelo_inurba_marseille","lat":43.29189,"lon":5.3933,"is_reserved":false,"is_disabled":false,"rental_uris":{"android":"levelo://app?vid=99c85f19-1672-4061-96cf-377437546eb8","ios":"levelo://app?vid=99c85f19-1672-4061-96cf-377437546eb8"},"vehicle_type_id":"4","last_reported":1762974492,"current_range_meters":4800,"station_id":"ce4bh192rcd13ifvqdd0","pricing_plan_id":"cebpf4jnsgd1na2vs0mg"},{"bike_id":"74116e2b-126f-4a79-a4a4-e39b445093b2","system_id":"levelo_inurba_marseille","lat":43.28416,"lon":5.37521,"is_reserved":false,"is_disabled":false,"rental_uris":{"android":"levelo://app?vid=74116e2b-126f-4a79-a4a4-e39b445093b2","ios":"levelo://app?vid=74116e2b-126f-4a79-a4a4-e39b445093b2"},"vehicle_type_id":"4","last_reported":1762974492,"current_range_meters":4800,"station_id":"ce4bh412rcd13ifvqds0","pricing_plan_id":"cebpf4jnsgd1na2vs0mg"},{"bike_id":"de2212c7-3537-441d-bc61-3c8af66fe836","system_id":"levelo_inurba_marseille","lat":43.2668,"lon":5.38264,"is_reserved":false,"is_disabled":false,"rental_uris":{"android":"levelo://app?vid=de2212c7-3537-441d-bc61-3c8af66fe836","ios":"levelo://app?vid=de2212c7-3537-441d-bc61-3c8af66fe836"},"vehicle_type_id":"4","last_reported":1762974492,"current_range_meters":4800,"station_id":"ce4bhg92rcd13ifvqf90","pricing_plan_id":"cebpf4jnsgd1na2vs0mg"},{"bike_id":"cf2ce45c-3757-48ab-9920-48eb3368bd50","system_id":"levelo_inurba_marseille","lat":43.281457,"lon":5.426219,"is_reserved":false,"is_disabled":false,"rental_uris":{"android":"levelo://app?vid=cf2ce45c-3757-48ab-9920-48eb3368bd50","ios":"levelo://app?vid=cf2ce45c-3757-48ab-9920-48eb3368bd50"},"vehicle_type_id":"4","last_reported":1762974492,"current_range_meters":5600,"station_id":"ce4bhnh2rcd13ifvqgug","pricing_plan_id":"cebpf4jnsgd1na2vs0mg"},{"bike_id":"697e7d71-ff79-4a10-935b-ee0502c3e06a","system_id":"levelo_inurba_marseille","lat":43.28415,"lon":5.37528,"is_reserved":false,"is_disabled":false,"rental_uris":{"android":"levelo://app?vid=697e7d71-ff79-4a10-935b-ee0502c3e06a","ios":"levelo://app?vid=697e7d71-ff79-4a10-935b-ee0502c3e06a"},"vehicle_type_id":"4","last_reported":1762974492,"current_range_meters":5600,"station_id":"ce4bh412rcd13ifvqds0","pricing_plan_id":"cebpf4jnsgd1na2vs0mg"},{"bike_id":"0b1a999e-fbc3-428c-8a0d-f367857529eb","system_id":"levelo_inurba_marseille","lat":43.27812,"lon":5.40719,"is_reserved":false,"is_disabled":false,"rental_uris":{"android":"levelo://app?vid=0b1a999e-fbc3-428c-8a0d-f367857529eb","ios":"levelo://app?vid=0b1a999e-fbc3-428c-8a0d-f367857529eb"},"vehicle_type_id":"4","last_reported":1762974492,"current_range_meters":5600,"station_id":"ce4bhnh2rcd13ifvqgtg","pricing_plan_id":"cebpf4jnsgd1na2vs0mg"},{"bike_id":"eded1b6d-ea5b-4081-a2c2-ccbf46fd363a","system_id":"levelo_inurba_marseille","lat":43.273139,"lon":5.390746,"is_reserved":false,"is_disabled":false,"rental_uris":{"android":"levelo://app?vid=eded1b6d-ea5b-4081-a2c2-ccbf46fd363a","ios":"levelo://app?vid=eded1b6d-ea5b-4081-a2c2-ccbf46fd363a"},"vehicle_type_id":"4","last_reported":1762974492,"current_range_meters":6000,"station_id":"ce4bhgp2rcd13ifvqfe0","pricing_plan_id":"cebpf4jnsgd1na2vs0mg"},{"bike_id":"1e26d6d7-b7a8-4b15-93e9-c86018cee81d","system_id":"levelo_inurba_marseille","lat":43.24386,"lon":5.37058,"is_reserved":false,"is_disabled":false,"rental_uris":{"android":"levelo://app?vid=1e26d6d7-b7a8-4b15-93e9-c86018cee81d","ios":"levelo://app?vid=1e26d6d7-b7a8-4b15-93e9-c86018cee81d"},"vehicle_type_id":"4","last_reported":1762974492,"current_range_meters":6000,"station_id":"ce4bhhh2rcd13ifvqfk0","pricing_plan_id":"cebpf4jnsgd1na2vs0mg"},{"bike_id":"f210c5d9-e6c9-4a47-a92c-7d32d99c058f","system_id":"levelo_inurba_marseille","lat":43.303512,"lon":5.39697,"is_reserved":false,"is_disabled":false,"rental_uris":{"android":"levelo://app?vid=f210c5d9-e6c9-4a47-a92c-7d32d99c058f","ios":"levelo://app?vid=f210c5d9-e6c9-4a47-a92c-7d32d99c058f"},"vehicle_type_id":"4","last_reported":1762974492,"current_range_meters":6000,"station_id":"","pricing_plan_id":"cebpf4jnsgd1na2vs0mg"},{"bike_id":"258cfa4a-e37c-4553-bf93-53421e2a9ec2","system_id":"levelo_inurba_marseille","lat":43.30184,"lon":5.36621,"is_reserved":false,"is_disabled":false,"rental_uris":{"android":"levelo://app?vid=258cfa4a-e37c-4553-bf93-53421e2a9ec2","ios":"levelo://app?vid=258cfa4a-e37c-4553-bf93-53421e2a9ec2"},"vehicle_type_id":"4","last_reported":1762974492,"current_range_meters":6000,"station_id":"ce4bgrh2rcd13ifvqc8g","pricing_plan_id":"cebpf4jnsgd1na2vs0mg"},{"bike_id":"9aab732d-99d8-458a-aff5-1ef833353481","system_id":"levelo_inurba_marseille","lat":43.298365,"lon":5.377671,"is_reserved":false,"is_disabled":false,"rental_uris":{"android":"levelo://app?vid=9aab732d-99d8-458a-aff5-1ef833353481","ios":"levelo://app?vid=9aab732d-99d8-458a-aff5-1ef833353481"},"vehicle_type_id":"4","last_reported":1762974492,"current_range_meters":6000,"station_id":"","pricing_plan_id":"cebpf4jnsgd1na2vs0mg"},{"bike_id":"861892f2-0af0-40fe-b698-191d9906341b","system_id":"levelo_inurba_marseille","lat":43.308713,"lon":5.372108,"is_reserved":false,"is_disabled":true,"rental_uris":{"android":"levelo://app?vid=861892f2-0af0-40fe-b698-191d9906341b","ios":"levelo://app?vid=861892f2-0af0-40fe-b698-191d9906341b"},"vehicle_type_id":"4","last_reported":1762974492,"current_range_meters":6000,"station_id":"ce4bguh2rcd13ifvqckg","pricing_plan_id":"cebpf4jnsgd1na2vs0mg"},{"bike_id":"e0ed7929-20a1-4d5c-ab67-3994c5a84870","system_id":"levelo_inurba_marseille","lat":43.25248,"lon":5.40638,"is_reserved":false,"is_disabled":false,"rental_uris":{"android":"levelo://app?vid=e0ed7929-20a1-4d5c-ab67-3994c5a84870","ios":"levelo://app?vid=e0ed7929-20a1-4d5c-ab67-3994c5a84870"},"vehicle_type_id":"4","last_reported":1762974492,"current_range_meters":6000,"station_id":"","pricing_plan_id":"cebpf4jnsgd1na2vs0mg"},{"bike_id":"a4dc9e21-c38c-4f19-a202-755d92d58c07","system_id":"levelo_inurba_marseille","lat":43.28702,"lon":5.37381,"is_reserved":false,"is_disabled":false,"rental_uris":{"android":"levelo://app?vid=a4dc9e21-c38c-4f19-a202-755d92d58c07","ios":"levelo://app?vid=a4dc9e21-c38c-4f19-a202-755d92d58c07"},"vehicle_type_id":"4","last_reported":1762974492,"current_range_meters":6000,"station_id":"ce4bh3p2rcd13ifvqdq0","pricing_plan_id":"cebpf4jnsgd1na2vs0mg"},{"bike_id":"798c85ea-8668-4f79-b180-2746aad6d958","system_id":"levelo_inurba_marseille","lat":43.30433,"lon":5.38895,"is_reserved":false,"is_disabled":false,"rental_uris":{"android":"levelo://app?vid=798c85ea-8668-4f79-b180-2746aad6d958","ios":"levelo://app?vid=798c85ea-8668-4f79-b180-2746aad6d958"},"vehicle_type_id":"4","last_reported":1762974492,"current_range_meters":6000,"station_id":"ce4bgk12rcd13ifvqbi0","pricing_plan_id":"cebpf4jnsgd1na2vs0mg"},{"bike_id":"32ceb4a6-ae7f-4676-86cd-cf60718bcacb","system_id":"levelo_inurba_marseille","lat":43.314859,"lon":5.372368,"is_reserved":false,"is_disabled":false,"rental_uris":{"android":"levelo://app?vid=32ceb4a6-ae7f-4676-86cd-cf60718bcacb","ios":"levelo://app?vid=32ceb4a6-ae7f-4676-86cd-cf60718bcacb"},"vehicle_type_id":"4","last_reported":1762974492,"current_range_meters":6000,"station_id":"ce4bgt12rcd13ifvqcd0","pricing_plan_id":"cebpf4jnsgd1na2vs0mg"},{"bike_id":"b90b6c9a-9336-4f9a-8f8b-c69515acaa93","system_id":"levelo_inurba_marseille","lat":43.24162,"lon":5.39754,"is_reserved":false,"is_disabled":false,"rental_uris":{"android":"levelo://app?vid=b90b6c9a-9336-4f9a-8f8b-c69515acaa93","ios":"levelo://app?vid=b90b6c9a-9336-4f9a-8f8b-c69515acaa93"},"vehicle_type_id":"4","last_reported":1762974492,"current_range_meters":6000,"station_id":"ce4bhn12rcd13ifvqgpg","pricing_plan_id":"cebpf4jnsgd1na2vs0mg"},{"bike_id":"e0467342-2ee8-4c36-aeb9-27d25d94ead5","system_id":"levelo_inurba_marseille","lat":43.28171,"lon":5.42621,"is_reserved":false,"is_disabled":true,"rental_uris":{"android":"levelo://app?vid=e0467342-2ee8-4c36-aeb9-27d25d94ead5","ios":"levelo://app?vid=e0467342-2ee8-4c36-aeb9-27d25d94ead5"},"vehicle_type_id":"4","last_reported":1762974492,"current_range_meters":6000,"station_id":"ce4bhnh2rcd13ifvqgug","pricing_plan_id":"cebpf4jnsgd1na2vs0mg"},{"bike_id":"804982ad-9801-4fde-805f-8007b255021d","system_id":"levelo_inurba_marseille","lat":43.30419,"lon":5.41278,"is_reserved":false,"is_disabled":false,"rental_uris":{"android":"levelo://app?vid=804982ad-9801-4fde-805f-8007b255021d","ios":"levelo://app?vid=804982ad-9801-4fde-805f-8007b255021d"},"vehicle_type_id":"4","last_reported":1762974492,"current_range_meters":6000,"station_id":"ce4bhop2rcd13ifvqh8g","pricing_plan_id":"cebpf4jnsgd1na2vs0mg"},{"bike_id":"2db32da5-d8f5-4112-93e5-4586402df034","system_id":"levelo_inurba_marseille","lat":43.29527,"lon":5.39401,"is_reserved":false,"is_disabled":false,"rental_uris":{"android":"levelo://app?vid=2db32da5-d8f5-4112-93e5-4586402df034","ios":"levelo://app?vid=2db32da5-d8f5-4112-93e5-4586402df034"},"vehicle_type_id":"4","last_reported":1762974492,"current_range_meters":6400,"station_id":"ce4bh292rcd13ifvqdf0","pricing_plan_id":"cebpf4jnsgd1na2vs0mg"},{"bike_id":"62a14efb-5f7a-4e0d-bbfa-d4a60d07f475","system_id":"levelo_inurba_marseille","lat":43.29775,"lon":5.3731,"is_reserved":false,"is_disabled":false,"rental_uris":{"android":"levelo://app?vid=62a14efb-5f7a-4e0d-bbfa-d4a60d07f475","ios":"levelo://app?vid=62a14efb-5f7a-4e0d-bbfa-d4a60d07f475"},"vehicle_type_id":"4","last_reported":1762974492,"current_range_meters":6400,"station_id":"","pricing_plan_id":"cebpf4jnsgd1na2vs0mg"},{"bike_id":"07c9153c-51df-4bd3-a58f-a07af6016c33","system_id":"levelo_inurba_marseille","lat":43.28105,"lon":5.37829,"is_reserved":false,"is_disabled":false,"rental_uris":{"android":"levelo://app?vid=07c9153c-51df-4bd3-a58f-a07af6016c33","ios":"levelo://app?vid=07c9153c-51df-4bd3-a58f-a07af6016c33"},"vehicle_type_id":"4","last_reported":1762974492,"current_range_meters":6400,"station_id":"ce4bha12rcd13ifvqee0","pricing_plan_id":"cebpf4jnsgd1na2vs0mg"},{"bike_id":"503d7cfc-3706-4c9f-bb5c-844b5658387d","system_id":"levelo_inurba_marseille","lat":43.27427,"lon":5.39424,"is_reserved":false,"is_disabled":false,"rental_uris":{"android":"levelo://app?vid=503d7cfc-3706-4c9f-bb5c-844b5658387d","ios":"levelo://app?vid=503d7cfc-3706-4c9f-bb5c-844b5658387d"},"vehicle_type_id":"4","last_reported":1762974492,"current_range_meters":6400,"station_id":"ce4bhdp2rcd13ifvqf20","pricing_plan_id":"cebpf4jnsgd1na2vs0mg"},{"bike_id":"16272439-9e79-4c5d-91e9-9cc695261f4a","system_id":"levelo_inurba_marseille","lat":43.28702,"lon":5.39992,"is_reserved":false,"is_disabled":false,"rental_uris":{"android":"levelo://app?vid=16272439-9e79-4c5d-91e9-9cc695261f4a","ios":"levelo://app?vid=16272439-9e79-4c5d-91e9-9cc695261f4a"},"vehicle_type_id":"4","last_reported":1762974492,"current_range_meters":6400,"station_id":"ce4bho92rcd13ifvqh3g","pricing_plan_id":"cebpf4jnsgd1na2vs0mg"},{"bike_id":"df104e17-39d5-43f7-8144-cc3ce68a1080","system_id":"levelo_inurba_marseille","lat":43.30243,"lon":5.40057,"is_reserved":false,"is_disabled":true,"rental_uris":{"android":"levelo://app?vid=df104e17-39d5-43f7-8144-cc3ce68a1080","ios":"levelo://app?vid=df104e17-39d5-43f7-8144-cc3ce68a1080"},"vehicle_type_id":"4","last_reported":1762974492,"current_range_meters":6400,"station_id":"ce4bgvh2rcd13ifvqcs0","pricing_plan_id":"cebpf4jnsgd1na2vs0mg"},{"bike_id":"71a191e0-9db4-4ae0-8d9a-e14e6b8ee699","system_id":"levelo_inurba_marseille","lat":43.27972,"lon":5.38746,"is_reserved":false,"is_disabled":false,"rental_uris":{"android":"levelo://app?vid=71a191e0-9db4-4ae0-8d9a-e14e6b8ee699","ios":"levelo://app?vid=71a191e0-9db4-4ae0-8d9a-e14e6b8ee699"},"vehicle_type_id":"4","last_reported":1762974492,"current_range_meters":6400,"station_id":"ce4bhg12rcd13ifvqf80","pricing_plan_id":"cebpf4jnsgd1na2vs0mg"},{"bike_id":"706efd85-bc7b-4744-b145-160c39c3881a","system_id":"levelo_inurba_marseille","lat":43.28402,"lon":5.37509,"is_reserved":false,"is_disabled":false,"rental_uris":{"android":"levelo://app?vid=706efd85-bc7b-4744-b145-160c39c3881a","ios":"levelo://app?vid=706efd85-bc7b-4744-b145-160c39c3881a"},"vehicle_type_id":"4","last_reported":1762974492,"current_range_meters":6400,"station_id":"ce4bh412rcd13ifvqds0","pricing_plan_id":"cebpf4jnsgd1na2vs0mg"},{"bike_id":"48d5f346-64ec-4e03-944c-9ed3f48cbecc","system_id":"levelo_inurba_marseille","lat":43.2755,"lon":5.38413,"is_reserved":false,"is_disabled":true,"rental_uris":{"android":"levelo://app?vid=48d5f346-64ec-4e03-944c-9ed3f48cbecc","ios":"levelo://app?vid=48d5f346-64ec-4e03-944c-9ed3f48cbecc"},"vehicle_type_id":"4","last_reported":1762974492,"current_range_meters":6800,"station_id":"ce4bhh92rcd13ifvqfi0","pricing_plan_id":"cebpf4jnsgd1na2vs0mg"},{"bike_id":"1c6ebc8b-40e8-4177-b375-fd4d5ea3f82e","system_id":"levelo_inurba_marseille","lat":43.308799,"lon":5.396577,"is_reserved":false,"is_disabled":false,"rental_uris":{"android":"levelo://app?vid=1c6ebc8b-40e8-4177-b375-fd4d5ea3f82e","ios":"levelo://app?vid=1c6ebc8b-40e8-4177-b375-fd4d5ea3f82e"},"vehicle_type_id":"4","last_reported":1762974492,"current_range_meters":6800,"station_id":"ce4bh012rcd13ifvqcv0","pricing_plan_id":"cebpf4jnsgd1na2vs0mg"},{"bike_id":"68e2a5dd-4236-4db6-86ad-0d20f56d36d8","system_id":"levelo_inurba_marseille","lat":43.26207,"lon":5.40444,"is_reserved":false,"is_disabled":false,"rental_uris":{"android":"levelo://app?vid=68e2a5dd-4236-4db6-86ad-0d20f56d36d8","ios":"levelo://app?vid=68e2a5dd-4236-4db6-86ad-0d20f56d36d8"},"vehicle_type_id":"4","last_reported":1762974492,"current_range_meters":6800,"station_id":"ce4bhmh2rcd13ifvqgmg","pricing_plan_id":"cebpf4jnsgd1na2vs0mg"},{"bike_id":"f02ce823-cbf4-4b3f-b8b3-eec098cec5b4","system_id":"levelo_inurba_marseille","lat":43.29226,"lon":5.36051,"is_reserved":false,"is_disabled":false,"rental_uris":{"android":"levelo://app?vid=f02ce823-cbf4-4b3f-b8b3-eec098cec5b4","ios":"levelo://app?vid=f02ce823-cbf4-4b3f-b8b3-eec098cec5b4"},"vehicle_type_id":"4","last_reported":1762974492,"current_range_meters":6800,"station_id":"ce4bhbh2rcd13ifvqeqg","pricing_plan_id":"cebpf4jnsgd1na2vs0mg"},{"bike_id":"b1912dc6-562a-409a-b346-1626d61f3a69","system_id":"levelo_inurba_marseille","lat":43.25572,"lon":5.38255,"is_reserved":false,"is_disabled":true,"rental_uris":{"android":"levelo://app?vid=b1912dc6-562a-409a-b346-1626d61f3a69","ios":"levelo://app?vid=b1912dc6-562a-409a-b346-1626d61f3a69"},"vehicle_type_id":"4","last_reported":1762974492,"current_range_meters":6800,"station_id":"ce4bhih2rcd13ifvqfs0","pricing_plan_id":"cebpf4jnsgd1na2vs0mg"},{"bike_id":"8244f232-580c-4e5b-98e2-451c6b9dd3b8","system_id":"levelo_inurba_marseille","lat":43.29046,"lon":5.35912,"is_reserved":false,"is_disabled":false,"rental_uris":{"android":"levelo://app?vid=8244f232-580c-4e5b-98e2-451c6b9dd3b8","ios":"levelo://app?vid=8244f232-580c-4e5b-98e2-451c6b9dd3b8"},"vehicle_type_id":"4","last_reported":1762974492,"current_range_meters":6800,"station_id":"ce4bha92rcd13ifvqeg0","pricing_plan_id":"cebpf4jnsgd1na2vs0mg"},{"bike_id":"5a1a0488-169c-4229-99cb-d2ad1b73503d","system_id":"levelo_inurba_marseille","lat":43.29502,"lon":5.39163,"is_reserved":false,"is_disabled":false,"rental_uris":{"android":"levelo://app?vid=5a1a0488-169c-4229-99cb-d2ad1b73503d","ios":"levelo://app?vid=5a1a0488-169c-4229-99cb-d2ad1b73503d"},"vehicle_type_id":"4","last_reported":1762974492,"current_range_meters":7200,"station_id":"","pricing_plan_id":"cebpf4jnsgd1na2vs0mg"},{"bike_id":"e813e11b-6cc6-447f-a1e4-1707092d205f","system_id":"levelo_inurba_marseille","lat":43.29993,"lon":5.38486,"is_reserved":false,"is_disabled":false,"rental_uris":{"android":"levelo://app?vid=e813e11b-6cc6-447f-a1e4-1707092d205f","ios":"levelo://app?vid=e813e11b-6cc6-447f-a1e4-1707092d205f"},"vehicle_type_id":"4","last_reported":1762974492,"current_range_meters":7200,"station_id":"ce4bgj92rcd13ifvqbd0","pricing_plan_id":"cebpf4jnsgd1na2vs0mg"},{"bike_id":"d0bc74f0-19cd-4ffb-94cf-ca7717035b74","system_id":"levelo_inurba_marseille","lat":43.24386,"lon":5.37057,"is_reserved":false,"is_disabled":false,"rental_uris":{"android":"levelo://app?vid=d0bc74f0-19cd-4ffb-94cf-ca7717035b74","ios":"levelo://app?vid=d0bc74f0-19cd-4ffb-94cf-ca7717035b74"},"vehicle_type_id":"4","last_reported":1762974492,"current_range_meters":7200,"station_id":"ce4bhhh2rcd13ifvqfk0","pricing_plan_id":"cebpf4jnsgd1na2vs0mg"},{"bike_id":"aa6a09aa-a3f9-439c-b1ae-2b5af7b50141","system_id":"levelo_inurba_marseille","lat":43.26215,"lon":5.37437,"is_reserved":false,"is_disabled":false,"rental_uris":{"android":"levelo://app?vid=aa6a09aa-a3f9-439c-b1ae-2b5af7b50141","ios":"levelo://app?vid=aa6a09aa-a3f9-439c-b1ae-2b5af7b50141"},"vehicle_type_id":"4","last_reported":1762974492,"current_range_meters":7200,"station_id":"ce4bhgp2rcd13ifvqfc0","pricing_plan_id":"cebpf4jnsgd1na2vs0mg"},{"bike_id":"45699991-d84c-4ad0-ac4a-29fa817f49c4","system_id":"levelo_inurba_marseille","lat":43.301308,"lon":5.38764,"is_reserved":false,"is_disabled":false,"rental_uris":{"android":"levelo://app?vid=45699991-d84c-4ad0-ac4a-29fa817f49c4","ios":"levelo://app?vid=45699991-d84c-4ad0-ac4a-29fa817f49c4"},"vehicle_type_id":"4","last_reported":1762974492,"current_range_meters":7200,"station_id":"","pricing_plan_id":"cebpf4jnsgd1na2vs0mg"},{"bike_id":"056eb5ca-f8c8-4cc2-8da7-75553fc66ab1","system_id":"levelo_inurba_marseille","lat":43.29036,"lon":5.37568,"is_reserved":false,"is_disabled":false,"rental_uris":{"android":"levelo://app?vid=056eb5ca-f8c8-4cc2-8da7-75553fc66ab1","ios":"levelo://app?vid=056eb5ca-f8c8-4cc2-8da7-75553fc66ab1"},"vehicle_type_id":"4","last_reported":1762974492,"current_range_meters":8000,"station_id":"ce4bh692rcd13ifvqe90","pricing_plan_id":"cebpf4jnsgd1na2vs0mg"},{"bike_id":"314125e4-1746-4026-b3ce-4a1b4624985a","system_id":"levelo_inurba_marseille","lat":43.32363,"lon":5.38881,"is_reserved":false,"is_disabled":false,"rental_uris":{"android":"levelo://app?vid=314125e4-1746-4026-b3ce-4a1b4624985a","ios":"levelo://app?vid=314125e4-1746-4026-b3ce-4a1b4624985a"},"vehicle_type_id":"4","last_reported":1762974492,"current_range_meters":8000,"station_id":"ce4bhqp2rcd13ifvqhog","pricing_plan_id":"cebpf4jnsgd1na2vs0mg"},{"bike_id":"e5fffc92-24e4-43ed-8d17-f4af5b755660","system_id":"levelo_inurba_marseille","lat":43.27912,"lon":5.39577,"is_reserved":false,"is_disabled":false,"rental_uris":{"android":"levelo://app?vid=e5fffc92-24e4-43ed-8d17-f4af5b755660","ios":"levelo://app?vid=e5fffc92-24e4-43ed-8d17-f4af5b755660"},"vehicle_type_id":"4","last_reported":1762974492,"current_range_meters":8000,"station_id":"ce4bhf92rcd13ifvqf40","pricing_plan_id":"cebpf4jnsgd1na2vs0mg"},{"bike_id":"5ad62a9b-0251-433f-b808-e5dad8bd820d","system_id":"levelo_inurba_marseille","lat":43.29897,"lon":5.43674,"is_reserved":false,"is_disabled":false,"rental_uris":{"android":"levelo://app?vid=5ad62a9b-0251-433f-b808-e5dad8bd820d","ios":"levelo://app?vid=5ad62a9b-0251-433f-b808-e5dad8bd820d"},"vehicle_type_id":"4","last_reported":1762974492,"current_range_meters":8400,"station_id":"ce4bhpp2rcd13ifvqhfg","pricing_plan_id":"cebpf4jnsgd1na2vs0mg"},{"bike_id":"194e1e08-1fdc-4966-a31c-d9c02d4a8d42","system_id":"levelo_inurba_marseille","lat":43.3164,"lon":5.38339,"is_reserved":false,"is_disabled":false,"rental_uris":{"android":"levelo://app?vid=194e1e08-1fdc-4966-a31c-d9c02d4a8d42","ios":"levelo://app?vid=194e1e08-1fdc-4966-a31c-d9c02d4a8d42"},"vehicle_type_id":"4","last_reported":1762974492,"current_range_meters":8400,"station_id":"","pricing_plan_id":"cebpf4jnsgd1na2vs0mg"},{"bike_id":"0038fe66-ee81-4c9d-9a08-71d576d437f2","system_id":"levelo_inurba_marseille","lat":43.31223,"lon":5.36849,"is_reserved":false,"is_disabled":false,"rental_uris":{"android":"levelo://app?vid=0038fe66-ee81-4c9d-9a08-71d576d437f2","ios":"levelo://app?vid=0038fe66-ee81-4c9d-9a08-71d576d437f2"},"vehicle_type_id":"4","last_reported":1762974492,"current_range_meters":8400,"station_id":"ce4bgl92rcd13ifvqbq0","pricing_plan_id":"cebpf4jnsgd1na2vs0mg"},{"bike_id":"14689f15-5d74-449c-a5f2-e27750cc66eb","system_id":"levelo_inurba_marseille","lat":43.29523,"lon":5.39405,"is_reserved":false,"is_disabled":false,"rental_uris":{"android":"levelo://app?vid=14689f15-5d74-449c-a5f2-e27750cc66eb","ios":"levelo://app?vid=14689f15-5d74-449c-a5f2-e27750cc66eb"},"vehicle_type_id":"4","last_reported":1762974492,"current_range_meters":8400,"station_id":"ce4bh292rcd13ifvqdf0","pricing_plan_id":"cebpf4jnsgd1na2vs0mg"},{"bike_id":"0ec19940-789a-424c-b19d-3db02745e394","system_id":"levelo_inurba_marseille","lat":43.30323,"lon":5.40426,"is_reserved":false,"is_disabled":false,"rental_uris":{"android":"levelo://app?vid=0ec19940-789a-424c-b19d-3db02745e394","ios":"levelo://app?vid=0ec19940-789a-424c-b19d-3db02745e394"},"vehicle_type_id":"4","last_reported":1762974492,"current_range_meters":8400,"station_id":"ce4bh012rcd13ifvqd10","pricing_plan_id":"cebpf4jnsgd1na2vs0mg"},{"bike_id":"985bd4b1-2e11-42ff-b656-c65d63845b46","system_id":"levelo_inurba_marseille","lat":43.22567,"lon":5.41618,"is_reserved":false,"is_disabled":false,"rental_uris":{"android":"levelo://app?vid=985bd4b1-2e11-42ff-b656-c65d63845b46","ios":"levelo://app?vid=985bd4b1-2e11-42ff-b656-c65d63845b46"},"vehicle_type_id":"4","last_reported":1762974492,"current_range_meters":8400,"station_id":"st_d2o4gvlbi1j2169b742g","pricing_plan_id":"cebpf4jnsgd1na2vs0mg"},{"bike_id":"286b1393-8d28-412d-a289-cede002f5070","system_id":"levelo_inurba_marseille","lat":43.27569,"lon":5.38439,"is_reserved":false,"is_disabled":false,"rental_uris":{"android":"levelo://app?vid=286b1393-8d28-412d-a289-cede002f5070","ios":"levelo://app?vid=286b1393-8d28-412d-a289-cede002f5070"},"vehicle_type_id":"4","last_reported":1762974492,"current_range_meters":8400,"station_id":"ce4bhh92rcd13ifvqfi0","pricing_plan_id":"cebpf4jnsgd1na2vs0mg"},{"bike_id":"62333858-9101-4066-8daa-75732c126c46","system_id":"levelo_inurba_marseille","lat":43.29895,"lon":5.43668,"is_reserved":false,"is_disabled":false,"rental_uris":{"android":"levelo://app?vid=62333858-9101-4066-8daa-75732c126c46","ios":"levelo://app?vid=62333858-9101-4066-8daa-75732c126c46"},"vehicle_type_id":"4","last_reported":1762974492,"current_range_meters":8400,"station_id":"ce4bhpp2rcd13ifvqhfg","pricing_plan_id":"cebpf4jnsgd1na2vs0mg"},{"bike_id":"699cde5c-94eb-4688-9806-beab78ca5dc2","system_id":"levelo_inurba_marseille","lat":43.296831,"lon":5.365848,"is_reserved":false,"is_disabled":false,"rental_uris":{"android":"levelo://app?vid=699cde5c-94eb-4688-9806-beab78ca5dc2","ios":"levelo://app?vid=699cde5c-94eb-4688-9806-beab78ca5dc2"},"vehicle_type_id":"4","last_reported":1762974492,"current_range_meters":8800,"station_id":"ce4bgn12rcd13ifvqbt0","pricing_plan_id":"cebpf4jnsgd1na2vs0mg"},{"bike_id":"d92b248b-b2af-4c46-88f9-82a1ef3d68f5","system_id":"levelo_inurba_marseille","lat":43.29499,"lon":5.36305,"is_reserved":false,"is_disabled":false,"rental_uris":{"android":"levelo://app?vid=d92b248b-b2af-4c46-88f9-82a1ef3d68f5","ios":"levelo://app?vid=d92b248b-b2af-4c46-88f9-82a1ef3d68f5"},"vehicle_type_id":"4","last_reported":1762974492,"current_range_meters":8800,"station_id":"","pricing_plan_id":"cebpf4jnsgd1na2vs0mg"},{"bike_id":"84aade2c-4b39-4bce-814f-cfa3d6ed46f7","system_id":"levelo_inurba_marseille","lat":43.2848,"lon":5.48387,"is_reserved":false,"is_disabled":false,"rental_uris":{"android":"levelo://app?vid=84aade2c-4b39-4bce-814f-cfa3d6ed46f7","ios":"levelo://app?vid=84aade2c-4b39-4bce-814f-cfa3d6ed46f7"},"vehicle_type_id":"4","last_reported":1762974492,"current_range_meters":8800,"station_id":"st_d3svhcjqgbts73a3dn0g","pricing_plan_id":"cebpf4jnsgd1na2vs0mg"},{"bike_id":"c80c1c01-368c-46ce-95fa-baee6c258882","system_id":"levelo_inurba_marseille","lat":43.29893,"lon":5.43648,"is_reserved":false,"is_disabled":false,"rental_uris":{"android":"levelo://app?vid=c80c1c01-368c-46ce-95fa-baee6c258882","ios":"levelo://app?vid=c80c1c01-368c-46ce-95fa-baee6c258882"},"vehicle_type_id":"4","last_reported":1762974492,"current_range_meters":8800,"station_id":"ce4bhpp2rcd13ifvqhfg","pricing_plan_id":"cebpf4jnsgd1na2vs0mg"},{"bike_id":"3aea6227-3648-4be5-b28d-9118fce57243","system_id":"levelo_inurba_marseille","lat":43.27812,"lon":5.40725,"is_reserved":false,"is_disabled":false,"rental_uris":{"android":"levelo://app?vid=3aea6227-3648-4be5-b28d-9118fce57243","ios":"levelo://app?vid=3aea6227-3648-4be5-b28d-9118fce57243"},"vehicle_type_id":"4","last_reported":1762974492,"current_range_meters":8800,"station_id":"ce4bhnh2rcd13ifvqgtg","pricing_plan_id":"cebpf4jnsgd1na2vs0mg"},{"bike_id":"dc3de8db-80c3-491d-819f-a74fd2946698","system_id":"levelo_inurba_marseille","lat":43.27174,"lon":5.41002,"is_reserved":false,"is_disabled":true,"rental_uris":{"android":"levelo://app?vid=dc3de8db-80c3-491d-819f-a74fd2946698","ios":"levelo://app?vid=dc3de8db-80c3-491d-819f-a74fd2946698"},"vehicle_type_id":"4","last_reported":1762974492,"current_range_meters":8800,"station_id":"ce4bhl12rcd13ifvqgf0","pricing_plan_id":"cebpf4jnsgd1na2vs0mg"},{"bike_id":"37e8cff5-e20d-46a8-9694-64080cbed0e1","system_id":"levelo_inurba_marseille","lat":43.25576,"lon":5.38233,"is_reserved":false,"is_disabled":false,"rental_uris":{"android":"levelo://app?vid=37e8cff5-e20d-46a8-9694-64080cbed0e1","ios":"levelo://app?vid=37e8cff5-e20d-46a8-9694-64080cbed0e1"},"vehicle_type_id":"4","last_reported":1762974492,"current_range_meters":8800,"station_id":"ce4bhih2rcd13ifvqfs0","pricing_plan_id":"cebpf4jnsgd1na2vs0mg"},{"bike_id":"3d1c548d-58d1-4534-8007-73e34a8e93ff","system_id":"levelo_inurba_marseille","lat":43.286072,"lon":5.351171,"is_reserved":false,"is_disabled":false,"rental_uris":{"android":"levelo://app?vid=3d1c548d-58d1-4534-8007-73e34a8e93ff","ios":"levelo://app?vid=3d1c548d-58d1-4534-8007-73e34a8e93ff"},"vehicle_type_id":"4","last_reported":1762974492,"current_range_meters":8800,"station_id":"ce4bhch2rcd13ifvqeug","pricing_plan_id":"cebpf4jnsgd1na2vs0mg"},{"bike_id":"54fee260-6388-483d-8ff8-2829065ad573","system_id":"levelo_inurba_marseille","lat":43.30075,"lon":5.39077,"is_reserved":false,"is_disabled":false,"rental_uris":{"android":"levelo://app?vid=54fee260-6388-483d-8ff8-2829065ad573","ios":"levelo://app?vid=54fee260-6388-483d-8ff8-2829065ad573"},"vehicle_type_id":"4","last_reported":1762974492,"current_range_meters":9200,"station_id":"ce4bh192rcd13ifvqdb0","pricing_plan_id":"cebpf4jnsgd1na2vs0mg"},{"bike_id":"883f1861-53d5-48b1-8605-b9733601f1b1","system_id":"levelo_inurba_marseille","lat":43.31325,"lon":5.39702,"is_reserved":false,"is_disabled":false,"rental_uris":{"android":"levelo://app?vid=883f1861-53d5-48b1-8605-b9733601f1b1","ios":"levelo://app?vid=883f1861-53d5-48b1-8605-b9733601f1b1"},"vehicle_type_id":"4","last_reported":1762974492,"current_range_meters":9200,"station_id":"ce4bgvp2rcd13ifvqcu0","pricing_plan_id":"cebpf4jnsgd1na2vs0mg"},{"bike_id":"c47023ab-2905-4a00-af93-ffd0b768cdc9","system_id":"levelo_inurba_marseille","lat":43.28866,"lon":5.42515,"is_reserved":false,"is_disabled":false,"rental_uris":{"android":"levelo://app?vid=c47023ab-2905-4a00-af93-ffd0b768cdc9","ios":"levelo://app?vid=c47023ab-2905-4a00-af93-ffd0b768cdc9"},"vehicle_type_id":"4","last_reported":1762974492,"current_range_meters":9200,"station_id":"st_d3b462108ojc7389ooeg","pricing_plan_id":"cebpf4jnsgd1na2vs0mg"},{"bike_id":"d1ffb84b-e137-494e-aaf6-ee937b9a52ea","system_id":"levelo_inurba_marseille","lat":43.30298,"lon":5.39223,"is_reserved":false,"is_disabled":false,"rental_uris":{"android":"levelo://app?vid=d1ffb84b-e137-494e-aaf6-ee937b9a52ea","ios":"levelo://app?vid=d1ffb84b-e137-494e-aaf6-ee937b9a52ea"},"vehicle_type_id":"4","last_reported":1762974492,"current_range_meters":9200,"station_id":"ce4bgkh2rcd13ifvqbk0","pricing_plan_id":"cebpf4jnsgd1na2vs0mg"},{"bike_id":"e2b9d622-f034-41f9-b871-95329e8eef3a","system_id":"levelo_inurba_marseille","lat":43.30359,"lon":5.38591,"is_reserved":false,"is_disabled":false,"rental_uris":{"android":"levelo://app?vid=e2b9d622-f034-41f9-b871-95329e8eef3a","ios":"levelo://app?vid=e2b9d622-f034-41f9-b871-95329e8eef3a"},"vehicle_type_id":"4","last_reported":1762974492,"current_range_meters":9200,"station_id":"","pricing_plan_id":"cebpf4jnsgd1na2vs0mg"},{"bike_id":"35879002-14a8-49e2-b035-6faedfd1cfe6","system_id":"levelo_inurba_marseille","lat":43.2464,"lon":5.43152,"is_reserved":false,"is_disabled":false,"rental_uris":{"android":"levelo://app?vid=35879002-14a8-49e2-b035-6faedfd1cfe6","ios":"levelo://app?vid=35879002-14a8-49e2-b035-6faedfd1cfe6"},"vehicle_type_id":"4","last_reported":1762974492,"current_range_meters":9200,"station_id":"st_d2m6c4gdas8pm72e190g","pricing_plan_id":"cebpf4jnsgd1na2vs0mg"},{"bike_id":"bda953ea-d8c3-46c0-a210-b2111468558b","system_id":"levelo_inurba_marseille","lat":43.27567,"lon":5.38424,"is_reserved":false,"is_disabled":false,"rental_uris":{"android":"levelo://app?vid=bda953ea-d8c3-46c0-a210-b2111468558b","ios":"levelo://app?vid=bda953ea-d8c3-46c0-a210-b2111468558b"},"vehicle_type_id":"4","last_reported":1762974492,"current_range_meters":9200,"station_id":"ce4bhh92rcd13ifvqfi0","pricing_plan_id":"cebpf4jnsgd1na2vs0mg"},{"bike_id":"eea72cab-583d-4d51-9d23-22ddc388a40f","system_id":"levelo_inurba_marseille","lat":43.2887,"lon":5.42514,"is_reserved":false,"is_disabled":false,"rental_uris":{"android":"levelo://app?vid=eea72cab-583d-4d51-9d23-22ddc388a40f","ios":"levelo://app?vid=eea72cab-583d-4d51-9d23-22ddc388a40f"},"vehicle_type_id":"4","last_reported":1762974492,"current_range_meters":9200,"station_id":"st_d3b462108ojc7389ooeg","pricing_plan_id":"cebpf4jnsgd1na2vs0mg"},{"bike_id":"7aa3896c-abea-4ad0-a0d2-a24762f025c6","system_id":"levelo_inurba_marseille","lat":43.30974,"lon":5.39063,"is_reserved":false,"is_disabled":false,"rental_uris":{"android":"levelo://app?vid=7aa3896c-abea-4ad0-a0d2-a24762f025c6","ios":"levelo://app?vid=7aa3896c-abea-4ad0-a0d2-a24762f025c6"},"vehicle_type_id":"4","last_reported":1762974492,"current_range_meters":9600,"station_id":"ce4bgup2rcd13ifvqco0","pricing_plan_id":"cebpf4jnsgd1na2vs0mg"},{"bike_id":"37390e5e-5f11-496c-bf51-2ee8636d58c5","system_id":"levelo_inurba_marseille","lat":43.28697,"lon":5.39982,"is_reserved":false,"is_disabled":false,"rental_uris":{"android":"levelo://app?vid=37390e5e-5f11-496c-bf51-2ee8636d58c5","ios":"levelo://app?vid=37390e5e-5f11-496c-bf51-2ee8636d58c5"},"vehicle_type_id":"4","last_reported":1762974492,"current_range_meters":9600,"station_id":"ce4bho92rcd13ifvqh3g","pricing_plan_id":"cebpf4jnsgd1na2vs0mg"},{"bike_id":"585ac4c7-f7a0-4d90-9ba3-ad8e6a5949e8","system_id":"levelo_inurba_marseille","lat":43.31115,"lon":5.37763,"is_reserved":false,"is_disabled":false,"rental_uris":{"android":"levelo://app?vid=585ac4c7-f7a0-4d90-9ba3-ad8e6a5949e8","ios":"levelo://app?vid=585ac4c7-f7a0-4d90-9ba3-ad8e6a5949e8"},"vehicle_type_id":"4","last_reported":1762974492,"current_range_meters":9600,"station_id":"ce4bgt92rcd13ifvqcg0","pricing_plan_id":"cebpf4jnsgd1na2vs0mg"},{"bike_id":"f4194c01-709f-4ed4-9541-efba1729b23e","system_id":"levelo_inurba_marseille","lat":43.28155,"lon":5.4264,"is_reserved":false,"is_disabled":false,"rental_uris":{"android":"levelo://app?vid=f4194c01-709f-4ed4-9541-efba1729b23e","ios":"levelo://app?vid=f4194c01-709f-4ed4-9541-efba1729b23e"},"vehicle_type_id":"4","last_reported":1762974492,"current_range_meters":9600,"station_id":"ce4bhnh2rcd13ifvqgug","pricing_plan_id":"cebpf4jnsgd1na2vs0mg"},{"bike_id":"01e8cce2-ff84-43ff-914a-c0c695f60ca4","system_id":"levelo_inurba_marseille","lat":43.29441,"lon":5.38021,"is_reserved":false,"is_disabled":false,"rental_uris":{"android":"levelo://app?vid=01e8cce2-ff84-43ff-914a-c0c695f60ca4","ios":"levelo://app?vid=01e8cce2-ff84-43ff-914a-c0c695f60ca4"},"vehicle_type_id":"4","last_reported":1762974492,"current_range_meters":10000,"station_id":"","pricing_plan_id":"cebpf4jnsgd1na2vs0mg"},{"bike_id":"98971bc4-1a78-4b97-a651-08f8eedaa65c","system_id":"levelo_inurba_marseille","lat":43.25514,"lon":5.37653,"is_reserved":false,"is_disabled":false,"rental_uris":{"android":"levelo://app?vid=98971bc4-1a78-4b97-a651-08f8eedaa65c","ios":"levelo://app?vid=98971bc4-1a78-4b97-a651-08f8eedaa65c"},"vehicle_type_id":"4","last_reported":1762974492,"current_range_meters":10000,"station_id":"ce4bhh12rcd13ifvqff0","pricing_plan_id":"cebpf4jnsgd1na2vs0mg"},{"bike_id":"5b379ee6-aeb4-4666-b1ce-1304ecbf26e7","system_id":"levelo_inurba_marseille","lat":43.30302,"lon":5.39205,"is_reserved":false,"is_disabled":false,"rental_uris":{"android":"levelo://app?vid=5b379ee6-aeb4-4666-b1ce-1304ecbf26e7","ios":"levelo://app?vid=5b379ee6-aeb4-4666-b1ce-1304ecbf26e7"},"vehicle_type_id":"4","last_reported":1762974492,"current_range_meters":10000,"station_id":"ce4bgkh2rcd13ifvqbk0","pricing_plan_id":"cebpf4jnsgd1na2vs0mg"},{"bike_id":"b5250877-b871-42fd-be1a-b7ab4739081a","system_id":"levelo_inurba_marseille","lat":43.29634,"lon":5.40596,"is_reserved":false,"is_disabled":false,"rental_uris":{"android":"levelo://app?vid=b5250877-b871-42fd-be1a-b7ab4739081a","ios":"levelo://app?vid=b5250877-b871-42fd-be1a-b7ab4739081a"},"vehicle_type_id":"4","last_reported":1762974492,"current_range_meters":10000,"station_id":"ce4bh0h2rcd13ifvqd60","pricing_plan_id":"cebpf4jnsgd1na2vs0mg"},{"bike_id":"8268287a-a2bf-437a-b246-1707c0ebb496","system_id":"levelo_inurba_marseille","lat":43.28441,"lon":5.39202,"is_reserved":false,"is_disabled":false,"rental_uris":{"android":"levelo://app?vid=8268287a-a2bf-437a-b246-1707c0ebb496","ios":"levelo://app?vid=8268287a-a2bf-437a-b246-1707c0ebb496"},"vehicle_type_id":"4","last_reported":1762974492,"current_range_meters":10000,"station_id":"ce4bhoh2rcd13ifvqh5g","pricing_plan_id":"cebpf4jnsgd1na2vs0mg"},{"bike_id":"48c58308-f36b-474f-b6d5-5ef80785da0b","system_id":"levelo_inurba_marseille","lat":43.27615,"lon":5.361,"is_reserved":false,"is_disabled":false,"rental_uris":{"android":"levelo://app?vid=48c58308-f36b-474f-b6d5-5ef80785da0b","ios":"levelo://app?vid=48c58308-f36b-474f-b6d5-5ef80785da0b"},"vehicle_type_id":"4","last_reported":1762974492,"current_range_meters":10000,"station_id":"ce4bgj92rcd13ifvqbe0","pricing_plan_id":"cebpf4jnsgd1na2vs0mg"},{"bike_id":"442be215-9827-4775-8903-635082f0d466","system_id":"levelo_inurba_marseille","lat":43.30138,"lon":5.38778,"is_reserved":false,"is_disabled":false,"rental_uris":{"android":"levelo://app?vid=442be215-9827-4775-8903-635082f0d466","ios":"levelo://app?vid=442be215-9827-4775-8903-635082f0d466"},"vehicle_type_id":"4","last_reported":1762974492,"current_range_meters":10000,"station_id":"ce4bghh2rcd13ifvqb60","pricing_plan_id":"cebpf4jnsgd1na2vs0mg"},{"bike_id":"0a519a0c-2009-4da9-8c56-32b85503cc06","system_id":"levelo_inurba_marseille","lat":43.28528,"lon":5.44087,"is_reserved":false,"is_disabled":false,"rental_uris":{"android":"levelo://app?vid=0a519a0c-2009-4da9-8c56-32b85503cc06","ios":"levelo://app?vid=0a519a0c-2009-4da9-8c56-32b85503cc06"},"vehicle_type_id":"4","last_reported":1762974492,"current_range_meters":10000,"station_id":"st_d3j3df2ikq2c7380ej80","pricing_plan_id":"cebpf4jnsgd1na2vs0mg"},{"bike_id":"fdf24c56-f376-46ab-a9d7-6b1084c4de88","system_id":"levelo_inurba_marseille","lat":43.27993,"lon":5.41665,"is_reserved":false,"is_disabled":false,"rental_uris":{"android":"levelo://app?vid=fdf24c56-f376-46ab-a9d7-6b1084c4de88","ios":"levelo://app?vid=fdf24c56-f376-46ab-a9d7-6b1084c4de88"},"vehicle_type_id":"4","last_reported":1762974492,"current_range_meters":10000,"station_id":"ce4bho12rcd13ifvqh1g","pricing_plan_id":"cebpf4jnsgd1na2vs0mg"},{"bike_id":"d8995d1f-fa9a-404e-89cf-f6cf68b74328","system_id":"levelo_inurba_marseille","lat":43.29255,"lon":5.40911,"is_reserved":false,"is_disabled":false,"rental_uris":{"android":"levelo://app?vid=d8995d1f-fa9a-404e-89cf-f6cf68b74328","ios":"levelo://app?vid=d8995d1f-fa9a-404e-89cf-f6cf68b74328"},"vehicle_type_id":"4","last_reported":1762974492,"current_range_meters":10000,"station_id":"ce4bh192rcd13ifvqdc0","pricing_plan_id":"cebpf4jnsgd1na2vs0mg"},{"bike_id":"ac6ab44c-e825-4598-b735-1343c4378912","system_id":"levelo_inurba_marseille","lat":43.25332,"lon":5.42186,"is_reserved":false,"is_disabled":false,"rental_uris":{"android":"levelo://app?vid=ac6ab44c-e825-4598-b735-1343c4378912","ios":"levelo://app?vid=ac6ab44c-e825-4598-b735-1343c4378912"},"vehicle_type_id":"4","last_reported":1762974492,"current_range_meters":10000,"station_id":"st_d2m65c5bi1j21697t3ng","pricing_plan_id":"cebpf4jnsgd1na2vs0mg"},{"bike_id":"b57d2f19-6b53-42f4-bde1-9942ca94cfb0","system_id":"levelo_inurba_marseille","lat":43.30151,"lon":5.39866,"is_reserved":false,"is_disabled":false,"rental_uris":{"android":"levelo://app?vid=b57d2f19-6b53-42f4-bde1-9942ca94cfb0","ios":"levelo://app?vid=b57d2f19-6b53-42f4-bde1-9942ca94cfb0"},"vehicle_type_id":"4","last_reported":1762974492,"current_range_meters":10000,"station_id":"ce4bh0h2rcd13ifvqd40","pricing_plan_id":"cebpf4jnsgd1na2vs0mg"},{"bike_id":"2bf2c144-2188-4aa5-8f10-9a55e52319b5","system_id":"levelo_inurba_marseille","lat":43.31192,"lon":5.39132,"is_reserved":false,"is_disabled":false,"rental_uris":{"android":"levelo://app?vid=2bf2c144-2188-4aa5-8f10-9a55e52319b5","ios":"levelo://app?vid=2bf2c144-2188-4aa5-8f10-9a55e52319b5"},"vehicle_type_id":"4","last_reported":1762974492,"current_range_meters":10800,"station_id":"","pricing_plan_id":"cebpf4jnsgd1na2vs0mg"},{"bike_id":"f09b69fd-4220-4b51-8365-9a85828617f1","system_id":"levelo_inurba_marseille","lat":43.330268,"lon":5.390397,"is_reserved":false,"is_disabled":true,"rental_uris":{"android":"levelo://app?vid=f09b69fd-4220-4b51-8365-9a85828617f1","ios":"levelo://app?vid=f09b69fd-4220-4b51-8365-9a85828617f1"},"vehicle_type_id":"4","last_reported":1762974492,"current_range_meters":10800,"station_id":"ce4bhr92rcd13ifvqhrg","pricing_plan_id":"cebpf4jnsgd1na2vs0mg"},{"bike_id":"62dcc0f9-3d2c-49ba-bfbc-29d73ac49326","system_id":"levelo_inurba_marseille","lat":43.28611,"lon":5.35101,"is_reserved":false,"is_disabled":false,"rental_uris":{"android":"levelo://app?vid=62dcc0f9-3d2c-49ba-bfbc-29d73ac49326","ios":"levelo://app?vid=62dcc0f9-3d2c-49ba-bfbc-29d73ac49326"},"vehicle_type_id":"4","last_reported":1762974492,"current_range_meters":10800,"station_id":"ce4bhch2rcd13ifvqeug","pricing_plan_id":"cebpf4jnsgd1na2vs0mg"},{"bike_id":"7d24430c-b3e2-42ee-bc01-1f0563bc34e4","system_id":"levelo_inurba_marseille","lat":43.29365,"lon":5.37843,"is_reserved":false,"is_disabled":false,"rental_uris":{"android":"levelo://app?vid=7d24430c-b3e2-42ee-bc01-1f0563bc34e4","ios":"levelo://app?vid=7d24430c-b3e2-42ee-bc01-1f0563bc34e4"},"vehicle_type_id":"4","last_reported":1762974492,"current_range_meters":10800,"station_id":"ce4bgjh2rcd13ifvqbf0","pricing_plan_id":"cebpf4jnsgd1na2vs0mg"},{"bike_id":"138acbc8-a44a-45ec-9d4e-f41258a8778e","system_id":"levelo_inurba_marseille","lat":43.298187,"lon":5.440714,"is_reserved":false,"is_disabled":false,"rental_uris":{"android":"levelo://app?vid=138acbc8-a44a-45ec-9d4e-f41258a8778e","ios":"levelo://app?vid=138acbc8-a44a-45ec-9d4e-f41258a8778e"},"vehicle_type_id":"4","last_reported":1762974492,"current_range_meters":10800,"station_id":"st_d3jp68qikq2c7381ktn0","pricing_plan_id":"cebpf4jnsgd1na2vs0mg"},{"bike_id":"7815f929-b4f5-4fec-9a94-f75327b01ad2","system_id":"levelo_inurba_marseille","lat":43.286063,"lon":5.431292,"is_reserved":false,"is_disabled":false,"rental_uris":{"android":"levelo://app?vid=7815f929-b4f5-4fec-9a94-f75327b01ad2","ios":"levelo://app?vid=7815f929-b4f5-4fec-9a94-f75327b01ad2"},"vehicle_type_id":"4","last_reported":1762974492,"current_range_meters":11200,"station_id":"ce4bhnh2rcd13ifvqgug","pricing_plan_id":"cebpf4jnsgd1na2vs0mg"},{"bike_id":"deb22c28-c17d-4812-a479-8c21fcb2162c","system_id":"levelo_inurba_marseille","lat":43.29255,"lon":5.40911,"is_reserved":false,"is_disabled":true,"rental_uris":{"android":"levelo://app?vid=deb22c28-c17d-4812-a479-8c21fcb2162c","ios":"levelo://app?vid=deb22c28-c17d-4812-a479-8c21fcb2162c"},"vehicle_type_id":"4","last_reported":1762974492,"current_range_meters":11200,"station_id":"ce4bh192rcd13ifvqdc0","pricing_plan_id":"cebpf4jnsgd1na2vs0mg"},{"bike_id":"5804ac99-3bd4-4091-bff1-7487e9285e0c","system_id":"levelo_inurba_marseille","lat":43.29191,"lon":5.37579,"is_reserved":false,"is_disabled":false,"rental_uris":{"android":"levelo://app?vid=5804ac99-3bd4-4091-bff1-7487e9285e0c","ios":"levelo://app?vid=5804ac99-3bd4-4091-bff1-7487e9285e0c"},"vehicle_type_id":"4","last_reported":1762974492,"current_range_meters":11200,"station_id":"","pricing_plan_id":"cebpf4jnsgd1na2vs0mg"},{"bike_id":"8b027115-1a9e-4312-923f-dbf5aec10ee4","system_id":"levelo_inurba_marseille","lat":43.30235,"lon":5.3652,"is_reserved":false,"is_disabled":false,"rental_uris":{"android":"levelo://app?vid=8b027115-1a9e-4312-923f-dbf5aec10ee4","ios":"levelo://app?vid=8b027115-1a9e-4312-923f-dbf5aec10ee4"},"vehicle_type_id":"4","last_reported":1762974492,"current_range_meters":11200,"station_id":"","pricing_plan_id":"cebpf4jnsgd1na2vs0mg"},{"bike_id":"daf638df-73e9-4c56-88f8-aaa202a0b4f3","system_id":"levelo_inurba_marseille","lat":43.270947,"lon":5.422558,"is_reserved":false,"is_disabled":false,"rental_uris":{"android":"levelo://app?vid=daf638df-73e9-4c56-88f8-aaa202a0b4f3","ios":"levelo://app?vid=daf638df-73e9-4c56-88f8-aaa202a0b4f3"},"vehicle_type_id":"4","last_reported":1762974492,"current_range_meters":11200,"station_id":"ce4bhk92rcd13ifvqgb0","pricing_plan_id":"cebpf4jnsgd1na2vs0mg"},{"bike_id":"342124fc-27b1-4d60-b9b1-3f8755eb0d0c","system_id":"levelo_inurba_marseille","lat":43.28421,"lon":5.37512,"is_reserved":false,"is_disabled":false,"rental_uris":{"android":"levelo://app?vid=342124fc-27b1-4d60-b9b1-3f8755eb0d0c","ios":"levelo://app?vid=342124fc-27b1-4d60-b9b1-3f8755eb0d0c"},"vehicle_type_id":"4","last_reported":1762974492,"current_range_meters":11200,"station_id":"ce4bh412rcd13ifvqds0","pricing_plan_id":"cebpf4jnsgd1na2vs0mg"},{"bike_id":"8e3bec78-9776-427c-a0f2-300c2a1a9311","system_id":"levelo_inurba_marseille","lat":43.27613,"lon":5.36092,"is_reserved":false,"is_disabled":false,"rental_uris":{"android":"levelo://app?vid=8e3bec78-9776-427c-a0f2-300c2a1a9311","ios":"levelo://app?vid=8e3bec78-9776-427c-a0f2-300c2a1a9311"},"vehicle_type_id":"4","last_reported":1762974492,"current_range_meters":11600,"station_id":"ce4bgj92rcd13ifvqbe0","pricing_plan_id":"cebpf4jnsgd1na2vs0mg"},{"bike_id":"7f773d73-df4e-4125-80ac-d2c6a5edaef8","system_id":"levelo_inurba_marseille","lat":43.2796,"lon":5.38748,"is_reserved":false,"is_disabled":false,"rental_uris":{"android":"levelo://app?vid=7f773d73-df4e-4125-80ac-d2c6a5edaef8","ios":"levelo://app?vid=7f773d73-df4e-4125-80ac-d2c6a5edaef8"},"vehicle_type_id":"4","last_reported":1762974492,"current_range_meters":11600,"station_id":"ce4bhg12rcd13ifvqf80","pricing_plan_id":"cebpf4jnsgd1na2vs0mg"},{"bike_id":"1abe7de8-1f5d-4464-9c1e-74f7e6984228","system_id":"levelo_inurba_marseille","lat":43.28448,"lon":5.35805,"is_reserved":false,"is_disabled":false,"rental_uris":{"android":"levelo://app?vid=1abe7de8-1f5d-4464-9c1e-74f7e6984228","ios":"levelo://app?vid=1abe7de8-1f5d-4464-9c1e-74f7e6984228"},"vehicle_type_id":"4","last_reported":1762974492,"current_range_meters":11600,"station_id":"ce4bhah2rcd13ifvqei0","pricing_plan_id":"cebpf4jnsgd1na2vs0mg"},{"bike_id":"841cb1e3-d7ff-4e82-a83c-eaf5e87abdbe","system_id":"levelo_inurba_marseille","lat":43.25569,"lon":5.38227,"is_reserved":false,"is_disabled":false,"rental_uris":{"android":"levelo://app?vid=841cb1e3-d7ff-4e82-a83c-eaf5e87abdbe","ios":"levelo://app?vid=841cb1e3-d7ff-4e82-a83c-eaf5e87abdbe"},"vehicle_type_id":"4","last_reported":1762974492,"current_range_meters":11600,"station_id":"ce4bhih2rcd13ifvqfs0","pricing_plan_id":"cebpf4jnsgd1na2vs0mg"},{"bike_id":"f19a854d-96e9-4cf0-92aa-d357813dc143","system_id":"levelo_inurba_marseille","lat":43.284751,"lon":5.384287,"is_reserved":false,"is_disabled":true,"rental_uris":{"android":"levelo://app?vid=f19a854d-96e9-4cf0-92aa-d357813dc143","ios":"levelo://app?vid=f19a854d-96e9-4cf0-92aa-d357813dc143"},"vehicle_type_id":"4","last_reported":1762974492,"current_range_meters":12000,"station_id":"ce4bh512rcd13ifvqe3g","pricing_plan_id":"cebpf4jnsgd1na2vs0mg"},{"bike_id":"0528378f-1b50-41df-b328-6686306ee922","system_id":"levelo_inurba_marseille","lat":43.21619,"lon":5.34446,"is_reserved":false,"is_disabled":false,"rental_uris":{"android":"levelo://app?vid=0528378f-1b50-41df-b328-6686306ee922","ios":"levelo://app?vid=0528378f-1b50-41df-b328-6686306ee922"},"vehicle_type_id":"4","last_reported":1762974492,"current_range_meters":12000,"station_id":"","pricing_plan_id":"cebpf4jnsgd1na2vs0mg"},{"bike_id":"53ebdaf7-bfcb-4ef2-b2d3-a6031b770d27","system_id":"levelo_inurba_marseille","lat":43.28572,"lon":5.39493,"is_reserved":false,"is_disabled":false,"rental_uris":{"android":"levelo://app?vid=53ebdaf7-bfcb-4ef2-b2d3-a6031b770d27","ios":"levelo://app?vid=53ebdaf7-bfcb-4ef2-b2d3-a6031b770d27"},"vehicle_type_id":"4","last_reported":1762974492,"current_range_meters":12400,"station_id":"ce4bh292rcd13ifvqdg0","pricing_plan_id":"cebpf4jnsgd1na2vs0mg"},{"bike_id":"3400a873-c4a3-46e2-8c59-fbeb12c43093","system_id":"levelo_inurba_marseille","lat":43.27832,"lon":5.39203,"is_reserved":false,"is_disabled":true,"rental_uris":{"android":"levelo://app?vid=3400a873-c4a3-46e2-8c59-fbeb12c43093","ios":"levelo://app?vid=3400a873-c4a3-46e2-8c59-fbeb12c43093"},"vehicle_type_id":"4","last_reported":1762974492,"current_range_meters":12400,"station_id":"ce4bhjp2rcd13ifvqga0","pricing_plan_id":"cebpf4jnsgd1na2vs0mg"},{"bike_id":"56252ebb-3d3c-4996-ab17-f095250b50cd","system_id":"levelo_inurba_marseille","lat":43.21754,"lon":5.34604,"is_reserved":false,"is_disabled":true,"rental_uris":{"android":"levelo://app?vid=56252ebb-3d3c-4996-ab17-f095250b50cd","ios":"levelo://app?vid=56252ebb-3d3c-4996-ab17-f095250b50cd"},"vehicle_type_id":"4","last_reported":1762974492,"current_range_meters":12400,"station_id":"","pricing_plan_id":"cebpf4jnsgd1na2vs0mg"},{"bike_id":"c6385a55-c574-4930-9b17-a691d347714a","system_id":"levelo_inurba_marseille","lat":43.290344,"lon":5.359293,"is_reserved":false,"is_disabled":false,"rental_uris":{"android":"levelo://app?vid=c6385a55-c574-4930-9b17-a691d347714a","ios":"levelo://app?vid=c6385a55-c574-4930-9b17-a691d347714a"},"vehicle_type_id":"4","last_reported":1762974492,"current_range_meters":12400,"station_id":"ce4bha92rcd13ifvqeg0","pricing_plan_id":"cebpf4jnsgd1na2vs0mg"},{"bike_id":"7cd3fc91-8b4e-4cc9-a97a-8aec9cd4160c","system_id":"levelo_inurba_marseille","lat":43.29872,"lon":5.37184,"is_reserved":false,"is_disabled":true,"rental_uris":{"android":"levelo://app?vid=7cd3fc91-8b4e-4cc9-a97a-8aec9cd4160c","ios":"levelo://app?vid=7cd3fc91-8b4e-4cc9-a97a-8aec9cd4160c"},"vehicle_type_id":"4","last_reported":1762974492,"current_range_meters":12800,"station_id":"","pricing_plan_id":"cebpf4jnsgd1na2vs0mg"},{"bike_id":"9c1d5200-fbd4-4b99-86ec-25ca9d57af4f","system_id":"levelo_inurba_marseille","lat":43.28414,"lon":5.37519,"is_reserved":false,"is_disabled":false,"rental_uris":{"android":"levelo://app?vid=9c1d5200-fbd4-4b99-86ec-25ca9d57af4f","ios":"levelo://app?vid=9c1d5200-fbd4-4b99-86ec-25ca9d57af4f"},"vehicle_type_id":"4","last_reported":1762974492,"current_range_meters":12800,"station_id":"ce4bh412rcd13ifvqds0","pricing_plan_id":"cebpf4jnsgd1na2vs0mg"},{"bike_id":"d8594874-c8cb-4b02-8515-f8b4db330c84","system_id":"levelo_inurba_marseille","lat":43.28152,"lon":5.42644,"is_reserved":false,"is_disabled":false,"rental_uris":{"android":"levelo://app?vid=d8594874-c8cb-4b02-8515-f8b4db330c84","ios":"levelo://app?vid=d8594874-c8cb-4b02-8515-f8b4db330c84"},"vehicle_type_id":"4","last_reported":1762974492,"current_range_meters":12800,"station_id":"ce4bhnh2rcd13ifvqgug","pricing_plan_id":"cebpf4jnsgd1na2vs0mg"},{"bike_id":"e13b78db-2231-48a0-b9e0-a153f32a43f4","system_id":"levelo_inurba_marseille","lat":43.23059,"lon":5.35492,"is_reserved":false,"is_disabled":false,"rental_uris":{"android":"levelo://app?vid=e13b78db-2231-48a0-b9e0-a153f32a43f4","ios":"levelo://app?vid=e13b78db-2231-48a0-b9e0-a153f32a43f4"},"vehicle_type_id":"4","last_reported":1762974492,"current_range_meters":12800,"station_id":"cpo3342slgdg3j2ifvpg","pricing_plan_id":"cebpf4jnsgd1na2vs0mg"},{"bike_id":"a24d1ed3-7d2a-4935-9058-4a4ebef3dc61","system_id":"levelo_inurba_marseille","lat":43.26538,"lon":5.37285,"is_reserved":false,"is_disabled":false,"rental_uris":{"android":"levelo://app?vid=a24d1ed3-7d2a-4935-9058-4a4ebef3dc61","ios":"levelo://app?vid=a24d1ed3-7d2a-4935-9058-4a4ebef3dc61"},"vehicle_type_id":"4","last_reported":1762974492,"current_range_meters":12800,"station_id":"ce4bhg12rcd13ifvqf70","pricing_plan_id":"cebpf4jnsgd1na2vs0mg"},{"bike_id":"61259666-4479-46b9-860b-188b1964573a","system_id":"levelo_inurba_marseille","lat":43.27557,"lon":5.38418,"is_reserved":false,"is_disabled":false,"rental_uris":{"android":"levelo://app?vid=61259666-4479-46b9-860b-188b1964573a","ios":"levelo://app?vid=61259666-4479-46b9-860b-188b1964573a"},"vehicle_type_id":"4","last_reported":1762974492,"current_range_meters":12800,"station_id":"ce4bhh92rcd13ifvqfi0","pricing_plan_id":"cebpf4jnsgd1na2vs0mg"},{"bike_id":"0dcb6e2d-9881-44ac-966c-b39940981f4e","system_id":"levelo_inurba_marseille","lat":43.289452,"lon":5.363907,"is_reserved":false,"is_disabled":false,"rental_uris":{"android":"levelo://app?vid=0dcb6e2d-9881-44ac-966c-b39940981f4e","ios":"levelo://app?vid=0dcb6e2d-9881-44ac-966c-b39940981f4e"},"vehicle_type_id":"4","last_reported":1762974492,"current_range_meters":12800,"station_id":"ce4bhc92rcd13ifvqetg","pricing_plan_id":"cebpf4jnsgd1na2vs0mg"},{"bike_id":"37e0294d-4e36-4c97-a6fd-c6fc2535086a","system_id":"levelo_inurba_marseille","lat":43.29026,"lon":5.38632,"is_reserved":false,"is_disabled":false,"rental_uris":{"android":"levelo://app?vid=37e0294d-4e36-4c97-a6fd-c6fc2535086a","ios":"levelo://app?vid=37e0294d-4e36-4c97-a6fd-c6fc2535086a"},"vehicle_type_id":"4","last_reported":1762974492,"current_range_meters":12800,"station_id":"ce4bh4p2rcd13ifvqe0g","pricing_plan_id":"cebpf4jnsgd1na2vs0mg"},{"bike_id":"490cd940-43d6-4e2b-9945-b996cc49a450","system_id":"levelo_inurba_marseille","lat":43.26941,"lon":5.38651,"is_reserved":false,"is_disabled":false,"rental_uris":{"android":"levelo://app?vid=490cd940-43d6-4e2b-9945-b996cc49a450","ios":"levelo://app?vid=490cd940-43d6-4e2b-9945-b996cc49a450"},"vehicle_type_id":"4","last_reported":1762974492,"current_range_meters":12800,"station_id":"ce4bhh92rcd13ifvqfh0","pricing_plan_id":"cebpf4jnsgd1na2vs0mg"},{"bike_id":"4f7c137c-3dc9-4216-bcd8-0fa928a4d243","system_id":"levelo_inurba_marseille","lat":43.28407,"lon":5.3751,"is_reserved":false,"is_disabled":false,"rental_uris":{"android":"levelo://app?vid=4f7c137c-3dc9-4216-bcd8-0fa928a4d243","ios":"levelo://app?vid=4f7c137c-3dc9-4216-bcd8-0fa928a4d243"},"vehicle_type_id":"4","last_reported":1762974492,"current_range_meters":12800,"station_id":"ce4bh412rcd13ifvqds0","pricing_plan_id":"cebpf4jnsgd1na2vs0mg"},{"bike_id":"1826021c-78d5-4bf7-9950-ab922f7cd7e0","system_id":"levelo_inurba_marseille","lat":43.32366,"lon":5.36731,"is_reserved":false,"is_disabled":false,"rental_uris":{"android":"levelo://app?vid=1826021c-78d5-4bf7-9950-ab922f7cd7e0","ios":"levelo://app?vid=1826021c-78d5-4bf7-9950-ab922f7cd7e0"},"vehicle_type_id":"4","last_reported":1762974492,"current_range_meters":13600,"station_id":"ce4bhsh2rcd13ifvqi2g","pricing_plan_id":"cebpf4jnsgd1na2vs0mg"},{"bike_id":"69d9106d-5aad-4a8d-ba87-b002f022d837","system_id":"levelo_inurba_marseille","lat":43.30246,"lon":5.4006,"is_reserved":false,"is_disabled":false,"rental_uris":{"android":"levelo://app?vid=69d9106d-5aad-4a8d-ba87-b002f022d837","ios":"levelo://app?vid=69d9106d-5aad-4a8d-ba87-b002f022d837"},"vehicle_type_id":"4","last_reported":1762974492,"current_range_meters":13600,"station_id":"ce4bgvh2rcd13ifvqcs0","pricing_plan_id":"cebpf4jnsgd1na2vs0mg"},{"bike_id":"c1b53f3f-767b-40f0-840e-d478b0e76df8","system_id":"levelo_inurba_marseille","lat":43.29791,"lon":5.39346,"is_reserved":false,"is_disabled":false,"rental_uris":{"android":"levelo://app?vid=c1b53f3f-767b-40f0-840e-d478b0e76df8","ios":"levelo://app?vid=c1b53f3f-767b-40f0-840e-d478b0e76df8"},"vehicle_type_id":"4","last_reported":1762974492,"current_range_meters":13600,"station_id":"chh1huq6cuj3fo74tm60","pricing_plan_id":"cebpf4jnsgd1na2vs0mg"},{"bike_id":"e3df63a1-f3d2-4d82-8bf6-df212c4e8b69","system_id":"levelo_inurba_marseille","lat":43.284779,"lon":5.48398,"is_reserved":false,"is_disabled":false,"rental_uris":{"android":"levelo://app?vid=e3df63a1-f3d2-4d82-8bf6-df212c4e8b69","ios":"levelo://app?vid=e3df63a1-f3d2-4d82-8bf6-df212c4e8b69"},"vehicle_type_id":"4","last_reported":1762974492,"current_range_meters":13600,"station_id":"st_d3svhcjqgbts73a3dn0g","pricing_plan_id":"cebpf4jnsgd1na2vs0mg"},{"bike_id":"ee24cfcb-927e-4dc4-abbc-2385878debe3","system_id":"levelo_inurba_marseille","lat":43.29003,"lon":5.35596,"is_reserved":false,"is_disabled":false,"rental_uris":{"android":"levelo://app?vid=ee24cfcb-927e-4dc4-abbc-2385878debe3","ios":"levelo://app?vid=ee24cfcb-927e-4dc4-abbc-2385878debe3"},"vehicle_type_id":"4","last_reported":1762974492,"current_range_meters":13600,"station_id":"ce4bhb92rcd13ifvqen0","pricing_plan_id":"cebpf4jnsgd1na2vs0mg"},{"bike_id":"09fb4cb0-8e93-46e0-a031-081a58536ef2","system_id":"levelo_inurba_marseille","lat":43.30737,"lon":5.42448,"is_reserved":false,"is_disabled":false,"rental_uris":{"android":"levelo://app?vid=09fb4cb0-8e93-46e0-a031-081a58536ef2","ios":"levelo://app?vid=09fb4cb0-8e93-46e0-a031-081a58536ef2"},"vehicle_type_id":"4","last_reported":1762974492,"current_range_meters":13600,"station_id":"st_cvj6ca6bvosntc0bfgr0","pricing_plan_id":"cebpf4jnsgd1na2vs0mg"},{"bike_id":"cbe81620-5f37-49b3-956b-3b39a84486bb","system_id":"levelo_inurba_marseille","lat":43.31166,"lon":5.38718,"is_reserved":false,"is_disabled":false,"rental_uris":{"android":"levelo://app?vid=cbe81620-5f37-49b3-956b-3b39a84486bb","ios":"levelo://app?vid=cbe81620-5f37-49b3-956b-3b39a84486bb"},"vehicle_type_id":"4","last_reported":1762974492,"current_range_meters":13600,"station_id":"ce4bgv12rcd13ifvqcp0","pricing_plan_id":"cebpf4jnsgd1na2vs0mg"},{"bike_id":"c01ee74c-0907-4ca7-82d0-a92efd488ad9","system_id":"levelo_inurba_marseille","lat":43.22552,"lon":5.41623,"is_reserved":false,"is_disabled":false,"rental_uris":{"android":"levelo://app?vid=c01ee74c-0907-4ca7-82d0-a92efd488ad9","ios":"levelo://app?vid=c01ee74c-0907-4ca7-82d0-a92efd488ad9"},"vehicle_type_id":"4","last_reported":1762974492,"current_range_meters":13600,"station_id":"st_d2o4gvlbi1j2169b742g","pricing_plan_id":"cebpf4jnsgd1na2vs0mg"},{"bike_id":"60e7fa8d-04e1-4bde-9e50-96c18d1e42a2","system_id":"levelo_inurba_marseille","lat":43.3308,"lon":5.36507,"is_reserved":false,"is_disabled":false,"rental_uris":{"android":"levelo://app?vid=60e7fa8d-04e1-4bde-9e50-96c18d1e42a2","ios":"levelo://app?vid=60e7fa8d-04e1-4bde-9e50-96c18d1e42a2"},"vehicle_type_id":"4","last_reported":1762974492,"current_range_meters":13600,"station_id":"","pricing_plan_id":"cebpf4jnsgd1na2vs0mg"},{"bike_id":"07cdd6c0-c821-469a-9a6b-e067fa27bb41","system_id":"levelo_inurba_marseille","lat":43.211952,"lon":5.350808,"is_reserved":false,"is_disabled":true,"rental_uris":{"android":"levelo://app?vid=07cdd6c0-c821-469a-9a6b-e067fa27bb41","ios":"levelo://app?vid=07cdd6c0-c821-469a-9a6b-e067fa27bb41"},"vehicle_type_id":"4","last_reported":1762974492,"current_range_meters":13600,"station_id":"","pricing_plan_id":"cebpf4jnsgd1na2vs0mg"},{"bike_id":"55b69e3c-3a23-4d88-94ad-9a10c7ad4d8a","system_id":"levelo_inurba_marseille","lat":43.279623,"lon":5.387479,"is_reserved":false,"is_disabled":false,"rental_uris":{"android":"levelo://app?vid=55b69e3c-3a23-4d88-94ad-9a10c7ad4d8a","ios":"levelo://app?vid=55b69e3c-3a23-4d88-94ad-9a10c7ad4d8a"},"vehicle_type_id":"4","last_reported":1762974492,"current_range_meters":14000,"station_id":"ce4bhg12rcd13ifvqf80","pricing_plan_id":"cebpf4jnsgd1na2vs0mg"},{"bike_id":"4cd00cfe-7773-42e9-ace7-18bdb6b33df9","system_id":"levelo_inurba_marseille","lat":43.29965,"lon":5.38503,"is_reserved":false,"is_disabled":false,"rental_uris":{"android":"levelo://app?vid=4cd00cfe-7773-42e9-ace7-18bdb6b33df9","ios":"levelo://app?vid=4cd00cfe-7773-42e9-ace7-18bdb6b33df9"},"vehicle_type_id":"4","last_reported":1762974492,"current_range_meters":14000,"station_id":"ce4bgj92rcd13ifvqbd0","pricing_plan_id":"cebpf4jnsgd1na2vs0mg"},{"bike_id":"05888262-e578-430b-90fe-5ffaf0d27e91","system_id":"levelo_inurba_marseille","lat":43.2694,"lon":5.40266,"is_reserved":false,"is_disabled":false,"rental_uris":{"android":"levelo://app?vid=05888262-e578-430b-90fe-5ffaf0d27e91","ios":"levelo://app?vid=05888262-e578-430b-90fe-5ffaf0d27e91"},"vehicle_type_id":"4","last_reported":1762974492,"current_range_meters":14000,"station_id":"cjm6bp8fraef2m0cb0m0","pricing_plan_id":"cebpf4jnsgd1na2vs0mg"},{"bike_id":"7405fff1-54cb-4441-8d3b-98a0b2f0eb43","system_id":"levelo_inurba_marseille","lat":43.273281,"lon":5.390523,"is_reserved":false,"is_disabled":false,"rental_uris":{"android":"levelo://app?vid=7405fff1-54cb-4441-8d3b-98a0b2f0eb43","ios":"levelo://app?vid=7405fff1-54cb-4441-8d3b-98a0b2f0eb43"},"vehicle_type_id":"4","last_reported":1762974492,"current_range_meters":14000,"station_id":"","pricing_plan_id":"cebpf4jnsgd1na2vs0mg"},{"bike_id":"e1cc662b-aada-4d58-9b0e-ff786ecf75c9","system_id":"levelo_inurba_marseille","lat":43.30092,"lon":5.39076,"is_reserved":false,"is_disabled":false,"rental_uris":{"android":"levelo://app?vid=e1cc662b-aada-4d58-9b0e-ff786ecf75c9","ios":"levelo://app?vid=e1cc662b-aada-4d58-9b0e-ff786ecf75c9"},"vehicle_type_id":"4","last_reported":1762974492,"current_range_meters":14000,"station_id":"ce4bh192rcd13ifvqdb0","pricing_plan_id":"cebpf4jnsgd1na2vs0mg"},{"bike_id":"10ccdd7e-12dd-4fc4-b717-b088b808ab87","system_id":"levelo_inurba_marseille","lat":43.29442,"lon":5.39757,"is_reserved":false,"is_disabled":false,"rental_uris":{"android":"levelo://app?vid=10ccdd7e-12dd-4fc4-b717-b088b808ab87","ios":"levelo://app?vid=10ccdd7e-12dd-4fc4-b717-b088b808ab87"},"vehicle_type_id":"4","last_reported":1762974492,"current_range_meters":14000,"station_id":"ce4bh3h2rcd13ifvqdo0","pricing_plan_id":"cebpf4jnsgd1na2vs0mg"},{"bike_id":"773e1174-a6d8-4557-aecf-23ea0bb72d04","system_id":"levelo_inurba_marseille","lat":43.27961,"lon":5.41033,"is_reserved":false,"is_disabled":false,"rental_uris":{"android":"levelo://app?vid=773e1174-a6d8-4557-aecf-23ea0bb72d04","ios":"levelo://app?vid=773e1174-a6d8-4557-aecf-23ea0bb72d04"},"vehicle_type_id":"4","last_reported":1762974492,"current_range_meters":14000,"station_id":"ce4bhnp2rcd13ifvqh0g","pricing_plan_id":"cebpf4jnsgd1na2vs0mg"},{"bike_id":"b0115cb6-e8f1-46a5-a301-f475efdbfb17","system_id":"levelo_inurba_marseille","lat":43.30436,"lon":5.38887,"is_reserved":false,"is_disabled":false,"rental_uris":{"android":"levelo://app?vid=b0115cb6-e8f1-46a5-a301-f475efdbfb17","ios":"levelo://app?vid=b0115cb6-e8f1-46a5-a301-f475efdbfb17"},"vehicle_type_id":"4","last_reported":1762974492,"current_range_meters":14000,"station_id":"ce4bgk12rcd13ifvqbi0","pricing_plan_id":"cebpf4jnsgd1na2vs0mg"},{"bike_id":"2a2ec83a-2b84-4bf4-b19a-cd864bece9fd","system_id":"levelo_inurba_marseille","lat":43.246429,"lon":5.431409,"is_reserved":false,"is_disabled":false,"rental_uris":{"android":"levelo://app?vid=2a2ec83a-2b84-4bf4-b19a-cd864bece9fd","ios":"levelo://app?vid=2a2ec83a-2b84-4bf4-b19a-cd864bece9fd"},"vehicle_type_id":"4","last_reported":1762974492,"current_range_meters":14000,"station_id":"st_d2m6c4gdas8pm72e190g","pricing_plan_id":"cebpf4jnsgd1na2vs0mg"},{"bike_id":"3caafccc-1fa7-43b6-83ca-fc079471ab0f","system_id":"levelo_inurba_marseille","lat":43.29523,"lon":5.39042,"is_reserved":false,"is_disabled":false,"rental_uris":{"android":"levelo://app?vid=3caafccc-1fa7-43b6-83ca-fc079471ab0f","ios":"levelo://app?vid=3caafccc-1fa7-43b6-83ca-fc079471ab0f"},"vehicle_type_id":"4","last_reported":1762974492,"current_range_meters":14000,"station_id":"ce4bh3p2rcd13ifvqdp0","pricing_plan_id":"cebpf4jnsgd1na2vs0mg"},{"bike_id":"ee113e07-e7d8-4434-a36f-90e8cec25abb","system_id":"levelo_inurba_marseille","lat":43.24629,"lon":5.43147,"is_reserved":false,"is_disabled":false,"rental_uris":{"android":"levelo://app?vid=ee113e07-e7d8-4434-a36f-90e8cec25abb","ios":"levelo://app?vid=ee113e07-e7d8-4434-a36f-90e8cec25abb"},"vehicle_type_id":"4","last_reported":1762974492,"current_range_meters":14400,"station_id":"st_d2m6c4gdas8pm72e190g","pricing_plan_id":"cebpf4jnsgd1na2vs0mg"},{"bike_id":"a26712ac-c4dc-4d7c-9767-877ec57b4780","system_id":"levelo_inurba_marseille","lat":43.28498,"lon":5.48379,"is_reserved":false,"is_disabled":false,"rental_uris":{"android":"levelo://app?vid=a26712ac-c4dc-4d7c-9767-877ec57b4780","ios":"levelo://app?vid=a26712ac-c4dc-4d7c-9767-877ec57b4780"},"vehicle_type_id":"4","last_reported":1762974492,"current_range_meters":14400,"station_id":"st_d3svhcjqgbts73a3dn0g","pricing_plan_id":"cebpf4jnsgd1na2vs0mg"},{"bike_id":"59210900-245d-470e-a96c-0a9fcba64819","system_id":"levelo_inurba_marseille","lat":43.233528,"lon":5.399495,"is_reserved":false,"is_disabled":false,"rental_uris":{"android":"levelo://app?vid=59210900-245d-470e-a96c-0a9fcba64819","ios":"levelo://app?vid=59210900-245d-470e-a96c-0a9fcba64819"},"vehicle_type_id":"4","last_reported":1762974492,"current_range_meters":14400,"station_id":"ce4bhn12rcd13ifvqgqg","pricing_plan_id":"cebpf4jnsgd1na2vs0mg"},{"bike_id":"693a6ec1-63ab-4690-a63f-e402aa01b08e","system_id":"levelo_inurba_marseille","lat":43.2988,"lon":5.39735,"is_reserved":false,"is_disabled":false,"rental_uris":{"android":"levelo://app?vid=693a6ec1-63ab-4690-a63f-e402aa01b08e","ios":"levelo://app?vid=693a6ec1-63ab-4690-a63f-e402aa01b08e"},"vehicle_type_id":"4","last_reported":1762974492,"current_range_meters":14400,"station_id":"ce4bh0h2rcd13ifvqd50","pricing_plan_id":"cebpf4jnsgd1na2vs0mg"},{"bike_id":"502a8213-e2c5-4509-8429-9fded9cb3d0a","system_id":"levelo_inurba_marseille","lat":43.292729,"lon":5.368348,"is_reserved":false,"is_disabled":true,"rental_uris":{"android":"levelo://app?vid=502a8213-e2c5-4509-8429-9fded9cb3d0a","ios":"levelo://app?vid=502a8213-e2c5-4509-8429-9fded9cb3d0a"},"vehicle_type_id":"4","last_reported":1762974492,"current_range_meters":14400,"station_id":"ce4bhbp2rcd13ifvqesg","pricing_plan_id":"cebpf4jnsgd1na2vs0mg"},{"bike_id":"9f77fce6-b576-455d-a43d-b1e175676c28","system_id":"levelo_inurba_marseille","lat":43.33773,"lon":5.37473,"is_reserved":false,"is_disabled":false,"rental_uris":{"android":"levelo://app?vid=9f77fce6-b576-455d-a43d-b1e175676c28","ios":"levelo://app?vid=9f77fce6-b576-455d-a43d-b1e175676c28"},"vehicle_type_id":"4","last_reported":1762974492,"current_range_meters":14400,"station_id":"","pricing_plan_id":"cebpf4jnsgd1na2vs0mg"},{"bike_id":"12106200-475c-4781-8815-b4a16eff2a8b","system_id":"levelo_inurba_marseille","lat":43.29765,"lon":5.38904,"is_reserved":false,"is_disabled":false,"rental_uris":{"android":"levelo://app?vid=12106200-475c-4781-8815-b4a16eff2a8b","ios":"levelo://app?vid=12106200-475c-4781-8815-b4a16eff2a8b"},"vehicle_type_id":"4","last_reported":1762974492,"current_range_meters":14400,"station_id":"ce4bh392rcd13ifvqdl0","pricing_plan_id":"cebpf4jnsgd1na2vs0mg"},{"bike_id":"2380415b-651d-4cb4-9936-c30499ae6b46","system_id":"levelo_inurba_marseille","lat":43.217359,"lon":5.346021,"is_reserved":false,"is_disabled":true,"rental_uris":{"android":"levelo://app?vid=2380415b-651d-4cb4-9936-c30499ae6b46","ios":"levelo://app?vid=2380415b-651d-4cb4-9936-c30499ae6b46"},"vehicle_type_id":"4","last_reported":1762974492,"current_range_meters":14400,"station_id":"st_cvj6r9ubvosntc0bgbag","pricing_plan_id":"cebpf4jnsgd1na2vs0mg"},{"bike_id":"1df1486b-f29b-4e49-bad6-5d4959a02599","system_id":"levelo_inurba_marseille","lat":43.30252,"lon":5.40083,"is_reserved":false,"is_disabled":false,"rental_uris":{"android":"levelo://app?vid=1df1486b-f29b-4e49-bad6-5d4959a02599","ios":"levelo://app?vid=1df1486b-f29b-4e49-bad6-5d4959a02599"},"vehicle_type_id":"4","last_reported":1762974492,"current_range_meters":14800,"station_id":"ce4bgvh2rcd13ifvqcs0","pricing_plan_id":"cebpf4jnsgd1na2vs0mg"},{"bike_id":"04a6edf3-cc28-447f-a97c-4bedb0ba724e","system_id":"levelo_inurba_marseille","lat":43.2842,"lon":5.34984,"is_reserved":false,"is_disabled":false,"rental_uris":{"android":"levelo://app?vid=04a6edf3-cc28-447f-a97c-4bedb0ba724e","ios":"levelo://app?vid=04a6edf3-cc28-447f-a97c-4bedb0ba724e"},"vehicle_type_id":"4","last_reported":1762974492,"current_range_meters":14800,"station_id":"ce4bhbh2rcd13ifvqepg","pricing_plan_id":"cebpf4jnsgd1na2vs0mg"},{"bike_id":"c3f6daf9-12ec-4600-8d20-238d035db3fd","system_id":"levelo_inurba_marseille","lat":43.30311,"lon":5.36901,"is_reserved":false,"is_disabled":false,"rental_uris":{"android":"levelo://app?vid=c3f6daf9-12ec-4600-8d20-238d035db3fd","ios":"levelo://app?vid=c3f6daf9-12ec-4600-8d20-238d035db3fd"},"vehicle_type_id":"4","last_reported":1762974492,"current_range_meters":14800,"station_id":"ce4bgqh2rcd13ifvqc5g","pricing_plan_id":"cebpf4jnsgd1na2vs0mg"},{"bike_id":"84ece892-67f9-48cd-bcc7-43b3060417d1","system_id":"levelo_inurba_marseille","lat":43.30087,"lon":5.39077,"is_reserved":false,"is_disabled":false,"rental_uris":{"android":"levelo://app?vid=84ece892-67f9-48cd-bcc7-43b3060417d1","ios":"levelo://app?vid=84ece892-67f9-48cd-bcc7-43b3060417d1"},"vehicle_type_id":"4","last_reported":1762974492,"current_range_meters":14800,"station_id":"ce4bh192rcd13ifvqdb0","pricing_plan_id":"cebpf4jnsgd1na2vs0mg"},{"bike_id":"b3982dff-2057-4e1f-87aa-36005fbc6ecd","system_id":"levelo_inurba_marseille","lat":43.29761,"lon":5.42773,"is_reserved":false,"is_disabled":false,"rental_uris":{"android":"levelo://app?vid=b3982dff-2057-4e1f-87aa-36005fbc6ecd","ios":"levelo://app?vid=b3982dff-2057-4e1f-87aa-36005fbc6ecd"},"vehicle_type_id":"4","last_reported":1762974492,"current_range_meters":14800,"station_id":"st_d3md5207bmas73dh9klg","pricing_plan_id":"cebpf4jnsgd1na2vs0mg"},{"bike_id":"f49f6772-1ba0-407b-a120-6841be58bea6","system_id":"levelo_inurba_marseille","lat":43.28662,"lon":5.36348,"is_reserved":false,"is_disabled":false,"rental_uris":{"android":"levelo://app?vid=f49f6772-1ba0-407b-a120-6841be58bea6","ios":"levelo://app?vid=f49f6772-1ba0-407b-a120-6841be58bea6"},"vehicle_type_id":"4","last_reported":1762974492,"current_range_meters":14800,"station_id":"ce4bhah2rcd13ifvqej0","pricing_plan_id":"cebpf4jnsgd1na2vs0mg"},{"bike_id":"7fdb0343-e3f4-4268-bb2b-f58cb211fd6d","system_id":"levelo_inurba_marseille","lat":43.28167,"lon":5.42628,"is_reserved":false,"is_disabled":false,"rental_uris":{"android":"levelo://app?vid=7fdb0343-e3f4-4268-bb2b-f58cb211fd6d","ios":"levelo://app?vid=7fdb0343-e3f4-4268-bb2b-f58cb211fd6d"},"vehicle_type_id":"4","last_reported":1762974492,"current_range_meters":14800,"station_id":"ce4bhnh2rcd13ifvqgug","pricing_plan_id":"cebpf4jnsgd1na2vs0mg"},{"bike_id":"f30ac3ab-8b51-4483-86ce-b04687c63cd7","system_id":"levelo_inurba_marseille","lat":43.28134,"lon":5.4264,"is_reserved":false,"is_disabled":false,"rental_uris":{"android":"levelo://app?vid=f30ac3ab-8b51-4483-86ce-b04687c63cd7","ios":"levelo://app?vid=f30ac3ab-8b51-4483-86ce-b04687c63cd7"},"vehicle_type_id":"4","last_reported":1762974492,"current_range_meters":14800,"station_id":"ce4bhnh2rcd13ifvqgug","pricing_plan_id":"cebpf4jnsgd1na2vs0mg"},{"bike_id":"e0940536-8e97-445f-9fc3-1d0cc2c2fe80","system_id":"levelo_inurba_marseille","lat":43.28864,"lon":5.42508,"is_reserved":false,"is_disabled":false,"rental_uris":{"android":"levelo://app?vid=e0940536-8e97-445f-9fc3-1d0cc2c2fe80","ios":"levelo://app?vid=e0940536-8e97-445f-9fc3-1d0cc2c2fe80"},"vehicle_type_id":"4","last_reported":1762974492,"current_range_meters":14800,"station_id":"st_d3b462108ojc7389ooeg","pricing_plan_id":"cebpf4jnsgd1na2vs0mg"},{"bike_id":"fb2d799c-a882-490e-92fb-bc08b2901f56","system_id":"levelo_inurba_marseille","lat":43.28416,"lon":5.37509,"is_reserved":false,"is_disabled":false,"rental_uris":{"android":"levelo://app?vid=fb2d799c-a882-490e-92fb-bc08b2901f56","ios":"levelo://app?vid=fb2d799c-a882-490e-92fb-bc08b2901f56"},"vehicle_type_id":"4","last_reported":1762974492,"current_range_meters":14800,"station_id":"ce4bh412rcd13ifvqds0","pricing_plan_id":"cebpf4jnsgd1na2vs0mg"},{"bike_id":"79c9aeb2-4d34-4f71-8050-99d15efbe605","system_id":"levelo_inurba_marseille","lat":43.27914,"lon":5.39585,"is_reserved":false,"is_disabled":false,"rental_uris":{"android":"levelo://app?vid=79c9aeb2-4d34-4f71-8050-99d15efbe605","ios":"levelo://app?vid=79c9aeb2-4d34-4f71-8050-99d15efbe605"},"vehicle_type_id":"4","last_reported":1762974492,"current_range_meters":14800,"station_id":"ce4bhf92rcd13ifvqf40","pricing_plan_id":"cebpf4jnsgd1na2vs0mg"},{"bike_id":"53924a38-2ee5-4b38-a98b-6a40f502abb7","system_id":"levelo_inurba_marseille","lat":43.29979,"lon":5.37185,"is_reserved":false,"is_disabled":false,"rental_uris":{"android":"levelo://app?vid=53924a38-2ee5-4b38-a98b-6a40f502abb7","ios":"levelo://app?vid=53924a38-2ee5-4b38-a98b-6a40f502abb7"},"vehicle_type_id":"4","last_reported":1762974492,"current_range_meters":14800,"station_id":"ce4bgr92rcd13ifvqc7g","pricing_plan_id":"cebpf4jnsgd1na2vs0mg"},{"bike_id":"bcb43fd8-902f-4141-a44e-f6945af80f3e","system_id":"levelo_inurba_marseille","lat":43.291944,"lon":5.393277,"is_reserved":false,"is_disabled":false,"rental_uris":{"android":"levelo://app?vid=bcb43fd8-902f-4141-a44e-f6945af80f3e","ios":"levelo://app?vid=bcb43fd8-902f-4141-a44e-f6945af80f3e"},"vehicle_type_id":"4","last_reported":1762974492,"current_range_meters":15200,"station_id":"ce4bh192rcd13ifvqdd0","pricing_plan_id":"cebpf4jnsgd1na2vs0mg"},{"bike_id":"d0ec18fb-cdd0-481d-ad53-a02593e4ca67","system_id":"levelo_inurba_marseille","lat":43.29273,"lon":5.40117,"is_reserved":false,"is_disabled":false,"rental_uris":{"android":"levelo://app?vid=d0ec18fb-cdd0-481d-ad53-a02593e4ca67","ios":"levelo://app?vid=d0ec18fb-cdd0-481d-ad53-a02593e4ca67"},"vehicle_type_id":"4","last_reported":1762974492,"current_range_meters":15200,"station_id":"ce4bh312rcd13ifvqdk0","pricing_plan_id":"cebpf4jnsgd1na2vs0mg"},{"bike_id":"da570b79-ba57-42d1-8c83-8ebda484ddfc","system_id":"levelo_inurba_marseille","lat":43.24814,"lon":5.3745,"is_reserved":false,"is_disabled":false,"rental_uris":{"android":"levelo://app?vid=da570b79-ba57-42d1-8c83-8ebda484ddfc","ios":"levelo://app?vid=da570b79-ba57-42d1-8c83-8ebda484ddfc"},"vehicle_type_id":"4","last_reported":1762974492,"current_range_meters":16000,"station_id":"","pricing_plan_id":"cebpf4jnsgd1na2vs0mg"},{"bike_id":"ffed7597-e455-493e-bbe8-a3865146d108","system_id":"levelo_inurba_marseille","lat":43.2848,"lon":5.35892,"is_reserved":false,"is_disabled":false,"rental_uris":{"android":"levelo://app?vid=ffed7597-e455-493e-bbe8-a3865146d108","ios":"levelo://app?vid=ffed7597-e455-493e-bbe8-a3865146d108"},"vehicle_type_id":"4","last_reported":1762974492,"current_range_meters":16000,"station_id":"ce4bhah2rcd13ifvqei0","pricing_plan_id":"cebpf4jnsgd1na2vs0mg"},{"bike_id":"9f257429-210e-4187-b310-fa3b4c5c3978","system_id":"levelo_inurba_marseille","lat":43.2733,"lon":5.40155,"is_reserved":false,"is_disabled":false,"rental_uris":{"android":"levelo://app?vid=9f257429-210e-4187-b310-fa3b4c5c3978","ios":"levelo://app?vid=9f257429-210e-4187-b310-fa3b4c5c3978"},"vehicle_type_id":"4","last_reported":1762974492,"current_range_meters":16000,"station_id":"","pricing_plan_id":"cebpf4jnsgd1na2vs0mg"},{"bike_id":"b176c5bf-526a-4483-aef9-39ad0f000235","system_id":"levelo_inurba_marseille","lat":43.31983,"lon":5.38139,"is_reserved":false,"is_disabled":true,"rental_uris":{"android":"levelo://app?vid=b176c5bf-526a-4483-aef9-39ad0f000235","ios":"levelo://app?vid=b176c5bf-526a-4483-aef9-39ad0f000235"},"vehicle_type_id":"4","last_reported":1762974492,"current_range_meters":16000,"station_id":"ce4bhr12rcd13ifvqhpg","pricing_plan_id":"cebpf4jnsgd1na2vs0mg"},{"bike_id":"a76ed384-8adb-4855-8ea9-608b64e9d92b","system_id":"levelo_inurba_marseille","lat":43.32283,"lon":5.36993,"is_reserved":false,"is_disabled":false,"rental_uris":{"android":"levelo://app?vid=a76ed384-8adb-4855-8ea9-608b64e9d92b","ios":"levelo://app?vid=a76ed384-8adb-4855-8ea9-608b64e9d92b"},"vehicle_type_id":"4","last_reported":1762974492,"current_range_meters":16000,"station_id":"","pricing_plan_id":"cebpf4jnsgd1na2vs0mg"},{"bike_id":"82f1fc58-f641-4225-9017-bc43037f2560","system_id":"levelo_inurba_marseille","lat":43.269499,"lon":5.386394,"is_reserved":false,"is_disabled":false,"rental_uris":{"android":"levelo://app?vid=82f1fc58-f641-4225-9017-bc43037f2560","ios":"levelo://app?vid=82f1fc58-f641-4225-9017-bc43037f2560"},"vehicle_type_id":"4","last_reported":1762974492,"current_range_meters":16000,"station_id":"ce4bhh92rcd13ifvqfh0","pricing_plan_id":"cebpf4jnsgd1na2vs0mg"},{"bike_id":"1398122c-ad8e-45a1-8798-c922decbd217","system_id":"levelo_inurba_marseille","lat":43.30264,"lon":5.40055,"is_reserved":false,"is_disabled":false,"rental_uris":{"android":"levelo://app?vid=1398122c-ad8e-45a1-8798-c922decbd217","ios":"levelo://app?vid=1398122c-ad8e-45a1-8798-c922decbd217"},"vehicle_type_id":"4","last_reported":1762974492,"current_range_meters":16400,"station_id":"ce4bgvh2rcd13ifvqcs0","pricing_plan_id":"cebpf4jnsgd1na2vs0mg"},{"bike_id":"23f9c78c-ca0a-48be-8a9d-156c748920c2","system_id":"levelo_inurba_marseille","lat":43.279136,"lon":5.410385,"is_reserved":false,"is_disabled":false,"rental_uris":{"android":"levelo://app?vid=23f9c78c-ca0a-48be-8a9d-156c748920c2","ios":"levelo://app?vid=23f9c78c-ca0a-48be-8a9d-156c748920c2"},"vehicle_type_id":"4","last_reported":1762974492,"current_range_meters":16400,"station_id":"ce4bhnp2rcd13ifvqh0g","pricing_plan_id":"cebpf4jnsgd1na2vs0mg"},{"bike_id":"1b0b7981-696f-4ec5-932c-764cd2899c70","system_id":"levelo_inurba_marseille","lat":43.28491,"lon":5.48398,"is_reserved":false,"is_disabled":false,"rental_uris":{"android":"levelo://app?vid=1b0b7981-696f-4ec5-932c-764cd2899c70","ios":"levelo://app?vid=1b0b7981-696f-4ec5-932c-764cd2899c70"},"vehicle_type_id":"4","last_reported":1762974492,"current_range_meters":16400,"station_id":"","pricing_plan_id":"cebpf4jnsgd1na2vs0mg"},{"bike_id":"98d9ed27-1c51-4232-bb05-142a9e7f98db","system_id":"levelo_inurba_marseille","lat":43.31081,"lon":5.38349,"is_reserved":false,"is_disabled":true,"rental_uris":{"android":"levelo://app?vid=98d9ed27-1c51-4232-bb05-142a9e7f98db","ios":"levelo://app?vid=98d9ed27-1c51-4232-bb05-142a9e7f98db"},"vehicle_type_id":"4","last_reported":1762974492,"current_range_meters":16400,"station_id":"ce4bgv92rcd13ifvqcr0","pricing_plan_id":"cebpf4jnsgd1na2vs0mg"},{"bike_id":"9ad54198-2cb8-4db3-ae6d-738079fbcdba","system_id":"levelo_inurba_marseille","lat":43.295258,"lon":5.38541,"is_reserved":false,"is_disabled":false,"rental_uris":{"android":"levelo://app?vid=9ad54198-2cb8-4db3-ae6d-738079fbcdba","ios":"levelo://app?vid=9ad54198-2cb8-4db3-ae6d-738079fbcdba"},"vehicle_type_id":"4","last_reported":1762974492,"current_range_meters":16400,"station_id":"ce4bgih2rcd13ifvqba0","pricing_plan_id":"cebpf4jnsgd1na2vs0mg"},{"bike_id":"4f27c235-11df-4df2-bfdf-8938c3d9c6ba","system_id":"levelo_inurba_marseille","lat":43.33781,"lon":5.37431,"is_reserved":false,"is_disabled":false,"rental_uris":{"android":"levelo://app?vid=4f27c235-11df-4df2-bfdf-8938c3d9c6ba","ios":"levelo://app?vid=4f27c235-11df-4df2-bfdf-8938c3d9c6ba"},"vehicle_type_id":"4","last_reported":1762974492,"current_range_meters":16400,"station_id":"","pricing_plan_id":"cebpf4jnsgd1na2vs0mg"},{"bike_id":"b973542d-88ff-4253-9b4e-a75517007190","system_id":"levelo_inurba_marseille","lat":43.29653,"lon":5.37599,"is_reserved":false,"is_disabled":false,"rental_uris":{"android":"levelo://app?vid=b973542d-88ff-4253-9b4e-a75517007190","ios":"levelo://app?vid=b973542d-88ff-4253-9b4e-a75517007190"},"vehicle_type_id":"4","last_reported":1762974492,"current_range_meters":16400,"station_id":"","pricing_plan_id":"cebpf4jnsgd1na2vs0mg"},{"bike_id":"c9bdeea3-4a87-4c99-992d-4a69673dba62","system_id":"levelo_inurba_marseille","lat":43.23967,"lon":5.36626,"is_reserved":false,"is_disabled":false,"rental_uris":{"android":"levelo://app?vid=c9bdeea3-4a87-4c99-992d-4a69673dba62","ios":"levelo://app?vid=c9bdeea3-4a87-4c99-992d-4a69673dba62"},"vehicle_type_id":"4","last_reported":1762974492,"current_range_meters":16400,"station_id":"ce4bhi12rcd13ifvqfp0","pricing_plan_id":"cebpf4jnsgd1na2vs0mg"},{"bike_id":"79404e7b-1358-4ab5-be99-b587e088403f","system_id":"levelo_inurba_marseille","lat":43.29596,"lon":5.39594,"is_reserved":false,"is_disabled":false,"rental_uris":{"android":"levelo://app?vid=79404e7b-1358-4ab5-be99-b587e088403f","ios":"levelo://app?vid=79404e7b-1358-4ab5-be99-b587e088403f"},"vehicle_type_id":"4","last_reported":1762974492,"current_range_meters":16400,"station_id":"","pricing_plan_id":"cebpf4jnsgd1na2vs0mg"},{"bike_id":"c34d772a-59c8-4da7-a593-2b8a1cb201d8","system_id":"levelo_inurba_marseille","lat":43.317539,"lon":5.390138,"is_reserved":false,"is_disabled":false,"rental_uris":{"android":"levelo://app?vid=c34d772a-59c8-4da7-a593-2b8a1cb201d8","ios":"levelo://app?vid=c34d772a-59c8-4da7-a593-2b8a1cb201d8"},"vehicle_type_id":"4","last_reported":1762974492,"current_range_meters":16400,"station_id":"ce4bhqp2rcd13ifvqhng","pricing_plan_id":"cebpf4jnsgd1na2vs0mg"},{"bike_id":"c973fe0f-c71f-463c-a37c-688ed8f082c2","system_id":"levelo_inurba_marseille","lat":43.278988,"lon":5.395715,"is_reserved":false,"is_disabled":false,"rental_uris":{"android":"levelo://app?vid=c973fe0f-c71f-463c-a37c-688ed8f082c2","ios":"levelo://app?vid=c973fe0f-c71f-463c-a37c-688ed8f082c2"},"vehicle_type_id":"4","last_reported":1762974492,"current_range_meters":16400,"station_id":"ce4bh0p2rcd13ifvqd80","pricing_plan_id":"cebpf4jnsgd1na2vs0mg"},{"bike_id":"81a0428e-2a19-4ca5-bfe2-0e456ff02752","system_id":"levelo_inurba_marseille","lat":43.27961,"lon":5.38746,"is_reserved":false,"is_disabled":false,"rental_uris":{"android":"levelo://app?vid=81a0428e-2a19-4ca5-bfe2-0e456ff02752","ios":"levelo://app?vid=81a0428e-2a19-4ca5-bfe2-0e456ff02752"},"vehicle_type_id":"4","last_reported":1762974492,"current_range_meters":16800,"station_id":"ce4bhg12rcd13ifvqf80","pricing_plan_id":"cebpf4jnsgd1na2vs0mg"},{"bike_id":"3eca2ea7-2c41-4e92-859a-5ddc9884f501","system_id":"levelo_inurba_marseille","lat":43.30319,"lon":5.4045,"is_reserved":false,"is_disabled":false,"rental_uris":{"android":"levelo://app?vid=3eca2ea7-2c41-4e92-859a-5ddc9884f501","ios":"levelo://app?vid=3eca2ea7-2c41-4e92-859a-5ddc9884f501"},"vehicle_type_id":"4","last_reported":1762974492,"current_range_meters":16800,"station_id":"ce4bh012rcd13ifvqd10","pricing_plan_id":"cebpf4jnsgd1na2vs0mg"},{"bike_id":"4b926498-271a-4963-83a6-559ab4ed6bc8","system_id":"levelo_inurba_marseille","lat":43.299735,"lon":5.371787,"is_reserved":false,"is_disabled":false,"rental_uris":{"android":"levelo://app?vid=4b926498-271a-4963-83a6-559ab4ed6bc8","ios":"levelo://app?vid=4b926498-271a-4963-83a6-559ab4ed6bc8"},"vehicle_type_id":"4","last_reported":1762974492,"current_range_meters":16800,"station_id":"ce4bgr92rcd13ifvqc7g","pricing_plan_id":"cebpf4jnsgd1na2vs0mg"},{"bike_id":"45c695d0-ff81-4d77-8b2e-bb347450bfce","system_id":"levelo_inurba_marseille","lat":43.279,"lon":5.38012,"is_reserved":false,"is_disabled":false,"rental_uris":{"android":"levelo://app?vid=45c695d0-ff81-4d77-8b2e-bb347450bfce","ios":"levelo://app?vid=45c695d0-ff81-4d77-8b2e-bb347450bfce"},"vehicle_type_id":"4","last_reported":1762974492,"current_range_meters":16800,"station_id":"ce4bhf92rcd13ifvqf50","pricing_plan_id":"cebpf4jnsgd1na2vs0mg"},{"bike_id":"e690290b-b188-4bf4-9457-b92ed6970cb4","system_id":"levelo_inurba_marseille","lat":43.211941,"lon":5.350785,"is_reserved":false,"is_disabled":true,"rental_uris":{"android":"levelo://app?vid=e690290b-b188-4bf4-9457-b92ed6970cb4","ios":"levelo://app?vid=e690290b-b188-4bf4-9457-b92ed6970cb4"},"vehicle_type_id":"4","last_reported":1762974492,"current_range_meters":16800,"station_id":"st_cvj6sg6p6f1abm77japg","pricing_plan_id":"cebpf4jnsgd1na2vs0mg"},{"bike_id":"b80b8c27-b467-4050-91d7-19f47b806502","system_id":"levelo_inurba_marseille","lat":43.3302,"lon":5.39028,"is_reserved":false,"is_disabled":false,"rental_uris":{"android":"levelo://app?vid=b80b8c27-b467-4050-91d7-19f47b806502","ios":"levelo://app?vid=b80b8c27-b467-4050-91d7-19f47b806502"},"vehicle_type_id":"4","last_reported":1762974492,"current_range_meters":16800,"station_id":"ce4bhr92rcd13ifvqhrg","pricing_plan_id":"cebpf4jnsgd1na2vs0mg"},{"bike_id":"792c98df-8cc9-49dc-ba5b-436c45ad215e","system_id":"levelo_inurba_marseille","lat":43.24072,"lon":5.37762,"is_reserved":false,"is_disabled":false,"rental_uris":{"android":"levelo://app?vid=792c98df-8cc9-49dc-ba5b-436c45ad215e","ios":"levelo://app?vid=792c98df-8cc9-49dc-ba5b-436c45ad215e"},"vehicle_type_id":"4","last_reported":1762974492,"current_range_meters":16800,"station_id":"ce4bhnp2rcd13ifvqgvg","pricing_plan_id":"cebpf4jnsgd1na2vs0mg"},{"bike_id":"4c92772e-5e33-47e8-b0c0-17cc9a7fddc1","system_id":"levelo_inurba_marseille","lat":43.295282,"lon":5.390263,"is_reserved":false,"is_disabled":false,"rental_uris":{"android":"levelo://app?vid=4c92772e-5e33-47e8-b0c0-17cc9a7fddc1","ios":"levelo://app?vid=4c92772e-5e33-47e8-b0c0-17cc9a7fddc1"},"vehicle_type_id":"4","last_reported":1762974492,"current_range_meters":17200,"station_id":"ce4bh3p2rcd13ifvqdp0","pricing_plan_id":"cebpf4jnsgd1na2vs0mg"},{"bike_id":"caf4a479-7606-4ba3-be73-6ec4b3e22403","system_id":"levelo_inurba_marseille","lat":43.27618,"lon":5.36104,"is_reserved":false,"is_disabled":false,"rental_uris":{"android":"levelo://app?vid=caf4a479-7606-4ba3-be73-6ec4b3e22403","ios":"levelo://app?vid=caf4a479-7606-4ba3-be73-6ec4b3e22403"},"vehicle_type_id":"4","last_reported":1762974492,"current_range_meters":17200,"station_id":"ce4bgj92rcd13ifvqbe0","pricing_plan_id":"cebpf4jnsgd1na2vs0mg"},{"bike_id":"6456e69b-1a5e-4ad6-9ace-abe8f5c52db8","system_id":"levelo_inurba_marseille","lat":43.27948,"lon":5.41039,"is_reserved":false,"is_disabled":false,"rental_uris":{"android":"levelo://app?vid=6456e69b-1a5e-4ad6-9ace-abe8f5c52db8","ios":"levelo://app?vid=6456e69b-1a5e-4ad6-9ace-abe8f5c52db8"},"vehicle_type_id":"4","last_reported":1762974492,"current_range_meters":17200,"station_id":"ce4bhnp2rcd13ifvqh0g","pricing_plan_id":"cebpf4jnsgd1na2vs0mg"},{"bike_id":"4aa89285-b5d1-4f59-894c-ca51a9778df3","system_id":"levelo_inurba_marseille","lat":43.30186,"lon":5.36606,"is_reserved":false,"is_disabled":false,"rental_uris":{"android":"levelo://app?vid=4aa89285-b5d1-4f59-894c-ca51a9778df3","ios":"levelo://app?vid=4aa89285-b5d1-4f59-894c-ca51a9778df3"},"vehicle_type_id":"4","last_reported":1762974492,"current_range_meters":17200,"station_id":"ce4bgrh2rcd13ifvqc8g","pricing_plan_id":"cebpf4jnsgd1na2vs0mg"},{"bike_id":"3f3db3e0-8786-462c-9790-1156703a5fd2","system_id":"levelo_inurba_marseille","lat":43.22931,"lon":5.35377,"is_reserved":false,"is_disabled":false,"rental_uris":{"android":"levelo://app?vid=3f3db3e0-8786-462c-9790-1156703a5fd2","ios":"levelo://app?vid=3f3db3e0-8786-462c-9790-1156703a5fd2"},"vehicle_type_id":"4","last_reported":1762974492,"current_range_meters":17200,"station_id":"cpo3532slgdg3j2ikp40","pricing_plan_id":"cebpf4jnsgd1na2vs0mg"},{"bike_id":"7dcbfc40-b88e-4bd3-9f91-507698775297","system_id":"levelo_inurba_marseille","lat":43.30462,"lon":5.37911,"is_reserved":false,"is_disabled":false,"rental_uris":{"android":"levelo://app?vid=7dcbfc40-b88e-4bd3-9f91-507698775297","ios":"levelo://app?vid=7dcbfc40-b88e-4bd3-9f91-507698775297"},"vehicle_type_id":"4","last_reported":1762974492,"current_range_meters":17200,"station_id":"ce4bgup2rcd13ifvqcn0","pricing_plan_id":"cebpf4jnsgd1na2vs0mg"},{"bike_id":"4a758c08-28b2-4a1a-8416-9f1b5c31d6d7","system_id":"levelo_inurba_marseille","lat":43.26583,"lon":5.39005,"is_reserved":false,"is_disabled":false,"rental_uris":{"android":"levelo://app?vid=4a758c08-28b2-4a1a-8416-9f1b5c31d6d7","ios":"levelo://app?vid=4a758c08-28b2-4a1a-8416-9f1b5c31d6d7"},"vehicle_type_id":"4","last_reported":1762974492,"current_range_meters":17200,"station_id":"ce4bhe12rcd13ifvqf30","pricing_plan_id":"cebpf4jnsgd1na2vs0mg"},{"bike_id":"16f02f4c-1f84-4cbb-afc5-9dbc5b026330","system_id":"levelo_inurba_marseille","lat":43.2737,"lon":5.36256,"is_reserved":false,"is_disabled":false,"rental_uris":{"android":"levelo://app?vid=16f02f4c-1f84-4cbb-afc5-9dbc5b026330","ios":"levelo://app?vid=16f02f4c-1f84-4cbb-afc5-9dbc5b026330"},"vehicle_type_id":"4","last_reported":1762974492,"current_range_meters":17200,"station_id":"ce4bhbh2rcd13ifvqeo0","pricing_plan_id":"cebpf4jnsgd1na2vs0mg"},{"bike_id":"0368dfae-acbb-4621-a5c2-ad319d601870","system_id":"levelo_inurba_marseille","lat":43.280425,"lon":5.369605,"is_reserved":false,"is_disabled":false,"rental_uris":{"android":"levelo://app?vid=0368dfae-acbb-4621-a5c2-ad319d601870","ios":"levelo://app?vid=0368dfae-acbb-4621-a5c2-ad319d601870"},"vehicle_type_id":"4","last_reported":1762974492,"current_range_meters":17200,"station_id":"ce4bha12rcd13ifvqef0","pricing_plan_id":"cebpf4jnsgd1na2vs0mg"},