{"last_updated":1761289868,"ttl":60,"version":"2.2","data":{"bikes":[{"bike_id":"e6f4e10e-6d72-487a-8252-3250c4b27f98","system_id":"levelo_inurba_marseille","lat":43.21183,"lon":5.35082,"is_reserved":false,"is_disabled":false,"rental_uris":{"android":"levelo://app?vid=e6f4e10e-6d72-487a-8252-3250c4b27f98","ios":"levelo://app?vid=e6f4e10e-6d72-487a-8252-3250c4b27f98"},"vehicle_type_id":"4","last_reported":1761289868,"current_range_meters":2800,"station_id":"st_cvj6sg6p6f1abm77japg","pricing_plan_id":"cebpf4jnsgd1na2vs0mg"},{"bike_id":"0a0acbf0-9515-4caa-9a67-5b40fdf9dca1","system_id":"levelo_inurba_marseille","lat":43.27994,"lon":5.41667,"is_reserved":false,"is_disabled":false,"rental_uris":{"android":"levelo://app?vid=0a0acbf0-9515-4caa-9a67-5b40fdf9dca1","ios":"levelo://app?vid=0a0acbf0-9515-4caa-9a67-5b40fdf9dca1"},"vehicle_type_id":"4","last_reported":1761289868,"current_range_meters":2800,"station_id":"ce4bho12rcd13ifvqh1g","pricing_plan_id":"cebpf4jnsgd1na2vs0mg"},{"bike_id":"cd59a50e-5357-45af-a91f-d90ac2a742e9","system_id":"levelo_inurba_marseille","lat":43.30947,"lon":5.39029,"is_reserved":false,"is_disabled":false,"rental_uris":{"android":"levelo://app?vid=cd59a50e-5357-45af-a91f-d90ac2a742e9","ios":"levelo://app?vid=cd59a50e-5357-45af-a91f-d90ac2a742e9"},"vehicle_type_id":"4","last_reported":1761289868,"current_range_meters":3200,"station_id":"ce4bgup2rcd13ifvqco0","pricing_plan_id":"cebpf4jnsgd1na2vs0mg"},{"bike_id":"475147e1-2ba6-4090-bcdd-279fe6b1861b","system_id":"levelo_inurba_marseille","lat":43.279623,"lon":5.387652,"is_reserved":false,"is_disabled":false,"rental_uris":{"android":"levelo://app?vid=475147e1-2ba6-4090-bcdd-279fe6b1861b","ios":"levelo://app?vid=475147e1-2ba6-4090-bcdd-279fe6b1861b"},"vehicle_type_id":"4","last_reported":1761289868,"current_range_meters":3200,"station_id":"ce4bhg12rcd13ifvqf80","pricing_plan_id":"cebpf4jnsgd1na2vs0mg"},{"bike_id":"623fb2b7-6b36-4c66-8807-ac6dd38ad70d","system_id":"levelo_inurba_marseille","lat":43.2466,"lon":5.38161,"is_reserved":false,"is_disabled":false,"rental_uris":{"android":"levelo://app?vid=623fb2b7-6b36-4c66-8807-ac6dd38ad70d","ios":"levelo://app?vid=623fb2b7-6b36-4c66-8807-ac6dd38ad70d"},"vehicle_type_id":"4","last_reported":1761289868,"current_range_meters":3600,"station_id":"ce4bhih2rcd13ifvqfr0","pricing_plan_id":"cebpf4jnsgd1na2vs0mg"},{"bike_id":"2298ba01-fe44-41bc-9f97-096084081424","system_id":"levelo_inurba_marseille","lat":43.308867,"lon":5.389537,"is_reserved":false,"is_disabled":false,"rental_uris":{"android":"levelo://app?vid=2298ba01-fe44-41bc-9f97-096084081424","ios":"levelo://app?vid=2298ba01-fe44-41bc-9f97-096084081424"},"vehicle_type_id":"4","last_reported":1761289868,"current_range_meters":3600,"station_id":"","pricing_plan_id":"cebpf4jnsgd1na2vs0mg"},{"bike_id":"dc1111c9-f771-40f9-a12e-17c92306e799","system_id":"levelo_inurba_marseille","lat":43.31331,"lon":5.36718,"is_reserved":false,"is_disabled":false,"rental_uris":{"android":"levelo://app?vid=dc1111c9-f771-40f9-a12e-17c92306e799","ios":"levelo://app?vid=dc1111c9-f771-40f9-a12e-17c92306e799"},"vehicle_type_id":"4","last_reported":1761289868,"current_range_meters":3600,"station_id":"ce4bgr92rcd13ifvqc6g","pricing_plan_id":"cebpf4jnsgd1na2vs0mg"},{"bike_id":"82576c51-8b9b-43eb-aa43-fc4a18c9ea5b","system_id":"levelo_inurba_marseille","lat":43.21783,"lon":5.34561,"is_reserved":false,"is_disabled":false,"rental_uris":{"android":"levelo://app?vid=82576c51-8b9b-43eb-aa43-fc4a18c9ea5b","ios":"levelo://app?vid=82576c51-8b9b-43eb-aa43-fc4a18c9ea5b"},"vehicle_type_id":"4","last_reported":1761289868,"current_range_meters":4000,"station_id":"st_cvj6r9ubvosntc0bgbag","pricing_plan_id":"cebpf4jnsgd1na2vs0mg"},{"bike_id":"ff3ba630-dc04-489c-b422-8721b9ddc862","system_id":"levelo_inurba_marseille","lat":43.2983,"lon":5.37747,"is_reserved":false,"is_disabled":false,"rental_uris":{"android":"levelo://app?vid=ff3ba630-dc04-489c-b422-8721b9ddc862","ios":"levelo://app?vid=ff3ba630-dc04-489c-b422-8721b9ddc862"},"vehicle_type_id":"4","last_reported":1761289868,"current_range_meters":4000,"station_id":"","pricing_plan_id":"cebpf4jnsgd1na2vs0mg"},{"bike_id":"33e9f939-6fda-4004-85c7-17d0e3416aff","system_id":"levelo_inurba_marseille","lat":43.26328,"lon":5.39647,"is_reserved":false,"is_disabled":false,"rental_uris":{"android":"levelo://app?vid=33e9f939-6fda-4004-85c7-17d0e3416aff","ios":"levelo://app?vid=33e9f939-6fda-4004-85c7-17d0e3416aff"},"vehicle_type_id":"4","last_reported":1761289868,"current_range_meters":4400,"station_id":"","pricing_plan_id":"cebpf4jnsgd1na2vs0mg"},{"bike_id":"dec5519d-8ba3-4dba-9cce-d060e2af4031","system_id":"levelo_inurba_marseille","lat":43.31488,"lon":5.37305,"is_reserved":false,"is_disabled":false,"rental_uris":{"android":"levelo://app?vid=dec5519d-8ba3-4dba-9cce-d060e2af4031","ios":"levelo://app?vid=dec5519d-8ba3-4dba-9cce-d060e2af4031"},"vehicle_type_id":"4","last_reported":1761289868,"current_range_meters":4800,"station_id":"ce4bgt12rcd13ifvqcd0","pricing_plan_id":"cebpf4jnsgd1na2vs0mg"},{"bike_id":"d6ba2763-73ff-453d-b2e0-bb118ad107be","system_id":"levelo_inurba_marseille","lat":43.291968,"lon":5.358,"is_reserved":false,"is_disabled":false,"rental_uris":{"android":"levelo://app?vid=d6ba2763-73ff-453d-b2e0-bb118ad107be","ios":"levelo://app?vid=d6ba2763-73ff-453d-b2e0-bb118ad107be"},"vehicle_type_id":"4","last_reported":1761289868,"current_range_meters":4800,"station_id":"ce4bhb12rcd13ifvqel0","pricing_plan_id":"cebpf4jnsgd1na2vs0mg"},{"bike_id":"47b9e276-e64b-488c-af27-680fd181ea75","system_id":"levelo_inurba_marseille","lat":43.30479,"lon":5.37926,"is_reserved":false,"is_disabled":false,"rental_uris":{"android":"levelo://app?vid=47b9e276-e64b-488c-af27-680fd181ea75","ios":"levelo://app?vid=47b9e276-e64b-488c-af27-680fd181ea75"},"vehicle_type_id":"4","last_reported":1761289868,"current_range_meters":4800,"station_id":"ce4bgup2rcd13ifvqcn0","pricing_plan_id":"cebpf4jnsgd1na2vs0mg"},{"bike_id":"f3efb067-32db-4fd5-a6c7-ed1c6ebbf69d","system_id":"levelo_inurba_marseille","lat":43.21188,"lon":5.35082,"is_reserved":false,"is_disabled":false,"rental_uris":{"android":"levelo://app?vid=f3efb067-32db-4fd5-a6c7-ed1c6ebbf69d","ios":"levelo://app?vid=f3efb067-32db-4fd5-a6c7-ed1c6ebbf69d"},"vehicle_type_id":"4","last_reported":1761289868,"current_range_meters":4800,"station_id":"st_cvj6sg6p6f1abm77japg","pricing_plan_id":"cebpf4jnsgd1na2vs0mg"},{"bike_id":"d01b313a-a288-4140-bd5b-4b6c370a49ac","system_id":"levelo_inurba_marseille","lat":43.27053,"lon":5.40255,"is_reserved":false,"is_disabled":false,"rental_uris":{"android":"levelo://app?vid=d01b313a-a288-4140-bd5b-4b6c370a49ac","ios":"levelo://app?vid=d01b313a-a288-4140-bd5b-4b6c370a49ac"},"vehicle_type_id":"4","last_reported":1761289868,"current_range_meters":4800,"station_id":"ce4bhk92rcd13ifvqgc0","pricing_plan_id":"cebpf4jnsgd1na2vs0mg"},{"bike_id":"37d01fc8-4b4d-4652-a489-1254eb9d4c80","system_id":"levelo_inurba_marseille","lat":43.34076,"lon":5.40411,"is_reserved":false,"is_disabled":false,"rental_uris":{"android":"levelo://app?vid=37d01fc8-4b4d-4652-a489-1254eb9d4c80","ios":"levelo://app?vid=37d01fc8-4b4d-4652-a489-1254eb9d4c80"},"vehicle_type_id":"4","last_reported":1761289868,"current_range_meters":4800,"station_id":"","pricing_plan_id":"cebpf4jnsgd1na2vs0mg"},{"bike_id":"de88b060-a8d3-4631-9b2a-19bac33a1a68","system_id":"levelo_inurba_marseille","lat":43.307429,"lon":5.424302,"is_reserved":false,"is_disabled":false,"rental_uris":{"android":"levelo://app?vid=de88b060-a8d3-4631-9b2a-19bac33a1a68","ios":"levelo://app?vid=de88b060-a8d3-4631-9b2a-19bac33a1a68"},"vehicle_type_id":"4","last_reported":1761289868,"current_range_meters":4800,"station_id":"st_cvj6ca6bvosntc0bfgr0","pricing_plan_id":"cebpf4jnsgd1na2vs0mg"},{"bike_id":"6e8e056c-645a-480b-9f1a-8ef6eef57c70","system_id":"levelo_inurba_marseille","lat":43.25884,"lon":5.39886,"is_reserved":false,"is_disabled":false,"rental_uris":{"android":"levelo://app?vid=6e8e056c-645a-480b-9f1a-8ef6eef57c70","ios":"levelo://app?vid=6e8e056c-645a-480b-9f1a-8ef6eef57c70"},"vehicle_type_id":"4","last_reported":1761289868,"current_range_meters":5600,"station_id":"ce4bhl92rcd13ifvqghg","pricing_plan_id":"cebpf4jnsgd1na2vs0mg"},{"bike_id":"b6f289a5-f555-4b4b-88f3-ee9761cad467","system_id":"levelo_inurba_marseille","lat":43.254868,"lon":5.376429,"is_reserved":false,"is_disabled":false,"rental_uris":{"android":"levelo://app?vid=b6f289a5-f555-4b4b-88f3-ee9761cad467","ios":"levelo://app?vid=b6f289a5-f555-4b4b-88f3-ee9761cad467"},"vehicle_type_id":"4","last_reported":1761289868,"current_range_meters":5600,"station_id":"ce4bhh12rcd13ifvqff0","pricing_plan_id":"cebpf4jnsgd1na2vs0mg"},{"bike_id":"821cf78a-ac59-43e4-8dce-071dd0978a12","system_id":"levelo_inurba_marseille","lat":43.231469,"lon":5.437195,"is_reserved":false,"is_disabled":false,"rental_uris":{"android":"levelo://app?vid=821cf78a-ac59-43e4-8dce-071dd0978a12","ios":"levelo://app?vid=821cf78a-ac59-43e4-8dce-071dd0978a12"},"vehicle_type_id":"4","last_reported":1761289868,"current_range_meters":5600,"station_id":"ce4bhmp2rcd13ifvqgog","pricing_plan_id":"cebpf4jnsgd1na2vs0mg"},{"bike_id":"9353b877-953c-46fb-ad1e-2330fac3b65a","system_id":"levelo_inurba_marseille","lat":43.30149,"lon":5.38079,"is_reserved":false,"is_disabled":false,"rental_uris":{"android":"levelo://app?vid=9353b877-953c-46fb-ad1e-2330fac3b65a","ios":"levelo://app?vid=9353b877-953c-46fb-ad1e-2330fac3b65a"},"vehicle_type_id":"4","last_reported":1761289868,"current_range_meters":6000,"station_id":"ce4bgjp2rcd13ifvqbh0","pricing_plan_id":"cebpf4jnsgd1na2vs0mg"},{"bike_id":"0d91f90c-9225-4e62-81c7-6e7f63ef25f6","system_id":"levelo_inurba_marseille","lat":43.29968,"lon":5.37155,"is_reserved":false,"is_disabled":false,"rental_uris":{"android":"levelo://app?vid=0d91f90c-9225-4e62-81c7-6e7f63ef25f6","ios":"levelo://app?vid=0d91f90c-9225-4e62-81c7-6e7f63ef25f6"},"vehicle_type_id":"4","last_reported":1761289868,"current_range_meters":6000,"station_id":"ce4bgr92rcd13ifvqc7g","pricing_plan_id":"cebpf4jnsgd1na2vs0mg"},{"bike_id":"3aa8c3e6-230d-4538-ac39-2b944611f536","system_id":"levelo_inurba_marseille","lat":43.313767,"lon":5.366933,"is_reserved":false,"is_disabled":true,"rental_uris":{"android":"levelo://app?vid=3aa8c3e6-230d-4538-ac39-2b944611f536","ios":"levelo://app?vid=3aa8c3e6-230d-4538-ac39-2b944611f536"},"vehicle_type_id":"4","last_reported":1761289868,"current_range_meters":6000,"station_id":"ce4bgr92rcd13ifvqc6g","pricing_plan_id":"cebpf4jnsgd1na2vs0mg"},{"bike_id":"f3899769-4954-43ba-b963-424dd94bcd80","system_id":"levelo_inurba_marseille","lat":43.30417,"lon":5.41287,"is_reserved":false,"is_disabled":false,"rental_uris":{"android":"levelo://app?vid=f3899769-4954-43ba-b963-424dd94bcd80","ios":"levelo://app?vid=f3899769-4954-43ba-b963-424dd94bcd80"},"vehicle_type_id":"4","last_reported":1761289868,"current_range_meters":6000,"station_id":"ce4bhop2rcd13ifvqh8g","pricing_plan_id":"cebpf4jnsgd1na2vs0mg"},{"bike_id":"54e5aec4-373e-428b-9e9e-4e0888fafac5","system_id":"levelo_inurba_marseille","lat":43.259453,"lon":5.40901,"is_reserved":false,"is_disabled":false,"rental_uris":{"android":"levelo://app?vid=54e5aec4-373e-428b-9e9e-4e0888fafac5","ios":"levelo://app?vid=54e5aec4-373e-428b-9e9e-4e0888fafac5"},"vehicle_type_id":"4","last_reported":1761289868,"current_range_meters":6000,"station_id":"ce4bhm92rcd13ifvqglg","pricing_plan_id":"cebpf4jnsgd1na2vs0mg"},{"bike_id":"8b4a58c6-6477-4723-a312-89c50bb12463","system_id":"levelo_inurba_marseille","lat":43.29806,"lon":5.37105,"is_reserved":false,"is_disabled":false,"rental_uris":{"android":"levelo://app?vid=8b4a58c6-6477-4723-a312-89c50bb12463","ios":"levelo://app?vid=8b4a58c6-6477-4723-a312-89c50bb12463"},"vehicle_type_id":"4","last_reported":1761289868,"current_range_meters":6000,"station_id":"ce4bgop2rcd13ifvqc1g","pricing_plan_id":"cebpf4jnsgd1na2vs0mg"},{"bike_id":"7f2ce8f6-2b9c-401c-b822-fc12d9ef797f","system_id":"levelo_inurba_marseille","lat":43.34123,"lon":5.40916,"is_reserved":false,"is_disabled":false,"rental_uris":{"android":"levelo://app?vid=7f2ce8f6-2b9c-401c-b822-fc12d9ef797f","ios":"levelo://app?vid=7f2ce8f6-2b9c-401c-b822-fc12d9ef797f"},"vehicle_type_id":"4","last_reported":1761289868,"current_range_meters":6000,"station_id":"ce4bhqh2rcd13ifvqhlg","pricing_plan_id":"cebpf4jnsgd1na2vs0mg"},{"bike_id":"302d8ab1-8899-4e7f-8a7e-84efa895362d","system_id":"levelo_inurba_marseille","lat":43.29299,"lon":5.37462,"is_reserved":false,"is_disabled":false,"rental_uris":{"android":"levelo://app?vid=302d8ab1-8899-4e7f-8a7e-84efa895362d","ios":"levelo://app?vid=302d8ab1-8899-4e7f-8a7e-84efa895362d"},"vehicle_type_id":"4","last_reported":1761289868,"current_range_meters":6400,"station_id":"ce4bgi12rcd13ifvqb70","pricing_plan_id":"cebpf4jnsgd1na2vs0mg"},{"bike_id":"066d7904-f782-44f2-ad3a-1c9e5c07d120","system_id":"levelo_inurba_marseille","lat":43.31997,"lon":5.38151,"is_reserved":false,"is_disabled":false,"rental_uris":{"android":"levelo://app?vid=066d7904-f782-44f2-ad3a-1c9e5c07d120","ios":"levelo://app?vid=066d7904-f782-44f2-ad3a-1c9e5c07d120"},"vehicle_type_id":"4","last_reported":1761289868,"current_range_meters":6400,"station_id":"ce4bhr12rcd13ifvqhpg","pricing_plan_id":"cebpf4jnsgd1na2vs0mg"},{"bike_id":"cb97bcd1-59e2-4040-9326-c8f7967dcebd","system_id":"levelo_inurba_marseille","lat":43.28343,"lon":5.38109,"is_reserved":false,"is_disabled":false,"rental_uris":{"android":"levelo://app?vid=cb97bcd1-59e2-4040-9326-c8f7967dcebd","ios":"levelo://app?vid=cb97bcd1-59e2-4040-9326-c8f7967dcebd"},"vehicle_type_id":"4","last_reported":1761289868,"current_range_meters":6800,"station_id":"ce4bh412rcd13ifvqdr0","pricing_plan_id":"cebpf4jnsgd1na2vs0mg"},{"bike_id":"bd5192f9-d906-48a7-9c3f-89579c7c90c8","system_id":"levelo_inurba_marseille","lat":43.24671,"lon":5.38156,"is_reserved":false,"is_disabled":false,"rental_uris":{"android":"levelo://app?vid=bd5192f9-d906-48a7-9c3f-89579c7c90c8","ios":"levelo://app?vid=bd5192f9-d906-48a7-9c3f-89579c7c90c8"},"vehicle_type_id":"4","last_reported":1761289868,"current_range_meters":6800,"station_id":"ce4bhih2rcd13ifvqfr0","pricing_plan_id":"cebpf4jnsgd1na2vs0mg"},{"bike_id":"285dd874-bd16-44c1-9b43-116f4135f2c1","system_id":"levelo_inurba_marseille","lat":43.28845,"lon":5.42509,"is_reserved":false,"is_disabled":false,"rental_uris":{"android":"levelo://app?vid=285dd874-bd16-44c1-9b43-116f4135f2c1","ios":"levelo://app?vid=285dd874-bd16-44c1-9b43-116f4135f2c1"},"vehicle_type_id":"4","last_reported":1761289868,"current_range_meters":6800,"station_id":"st_d3b462108ojc7389ooeg","pricing_plan_id":"cebpf4jnsgd1na2vs0mg"},{"bike_id":"2ad68b17-40fa-4033-b965-58a39fc5db9c","system_id":"levelo_inurba_marseille","lat":43.30455,"lon":5.37913,"is_reserved":false,"is_disabled":false,"rental_uris":{"android":"levelo://app?vid=2ad68b17-40fa-4033-b965-58a39fc5db9c","ios":"levelo://app?vid=2ad68b17-40fa-4033-b965-58a39fc5db9c"},"vehicle_type_id":"4","last_reported":1761289868,"current_range_meters":7200,"station_id":"ce4bgup2rcd13ifvqcn0","pricing_plan_id":"cebpf4jnsgd1na2vs0mg"},{"bike_id":"1ba575a5-fe9f-49ba-a4be-d712301e67eb","system_id":"levelo_inurba_marseille","lat":43.313427,"lon":5.367147,"is_reserved":false,"is_disabled":false,"rental_uris":{"android":"levelo://app?vid=1ba575a5-fe9f-49ba-a4be-d712301e67eb","ios":"levelo://app?vid=1ba575a5-fe9f-49ba-a4be-d712301e67eb"},"vehicle_type_id":"4","last_reported":1761289868,"current_range_meters":7200,"station_id":"ce4bgr92rcd13ifvqc6g","pricing_plan_id":"cebpf4jnsgd1na2vs0mg"},{"bike_id":"e516c4e2-68e1-4e4c-a60c-633cbf5ac4f7","system_id":"levelo_inurba_marseille","lat":43.311107,"lon":5.377624,"is_reserved":false,"is_disabled":false,"rental_uris":{"android":"levelo://app?vid=e516c4e2-68e1-4e4c-a60c-633cbf5ac4f7","ios":"levelo://app?vid=e516c4e2-68e1-4e4c-a60c-633cbf5ac4f7"},"vehicle_type_id":"4","last_reported":1761289868,"current_range_meters":7200,"station_id":"","pricing_plan_id":"cebpf4jnsgd1na2vs0mg"},{"bike_id":"cd0cadb0-3b2e-465b-9d15-7d593ef08f95","system_id":"levelo_inurba_marseille","lat":43.263715,"lon":5.396326,"is_reserved":false,"is_disabled":false,"rental_uris":{"android":"levelo://app?vid=cd0cadb0-3b2e-465b-9d15-7d593ef08f95","ios":"levelo://app?vid=cd0cadb0-3b2e-465b-9d15-7d593ef08f95"},"vehicle_type_id":"4","last_reported":1761289868,"current_range_meters":7200,"station_id":"","pricing_plan_id":"cebpf4jnsgd1na2vs0mg"},{"bike_id":"a2890f71-3830-41db-bd58-345d017d3e4a","system_id":"levelo_inurba_marseille","lat":43.29195,"lon":5.39329,"is_reserved":false,"is_disabled":false,"rental_uris":{"android":"levelo://app?vid=a2890f71-3830-41db-bd58-345d017d3e4a","ios":"levelo://app?vid=a2890f71-3830-41db-bd58-345d017d3e4a"},"vehicle_type_id":"4","last_reported":1761289868,"current_range_meters":7200,"station_id":"ce4bh192rcd13ifvqdd0","pricing_plan_id":"cebpf4jnsgd1na2vs0mg"},{"bike_id":"4eae2ec4-8862-466e-a3d9-395cca4276d0","system_id":"levelo_inurba_marseille","lat":43.30379,"lon":5.37603,"is_reserved":false,"is_disabled":false,"rental_uris":{"android":"levelo://app?vid=4eae2ec4-8862-466e-a3d9-395cca4276d0","ios":"levelo://app?vid=4eae2ec4-8862-466e-a3d9-395cca4276d0"},"vehicle_type_id":"4","last_reported":1761289868,"current_range_meters":7200,"station_id":"","pricing_plan_id":"cebpf4jnsgd1na2vs0mg"},{"bike_id":"c8c0fa58-a519-4343-9887-b0c694f93aef","system_id":"levelo_inurba_marseille","lat":43.28883,"lon":5.42542,"is_reserved":false,"is_disabled":false,"rental_uris":{"android":"levelo://app?vid=c8c0fa58-a519-4343-9887-b0c694f93aef","ios":"levelo://app?vid=c8c0fa58-a519-4343-9887-b0c694f93aef"},"vehicle_type_id":"4","last_reported":1761289868,"current_range_meters":8000,"station_id":"st_d3b462108ojc7389ooeg","pricing_plan_id":"cebpf4jnsgd1na2vs0mg"},{"bike_id":"3167c122-43fa-497a-bf85-d0a6522abe7a","system_id":"levelo_inurba_marseille","lat":43.327624,"lon":5.375274,"is_reserved":false,"is_disabled":false,"rental_uris":{"android":"levelo://app?vid=3167c122-43fa-497a-bf85-d0a6522abe7a","ios":"levelo://app?vid=3167c122-43fa-497a-bf85-d0a6522abe7a"},"vehicle_type_id":"4","last_reported":1761289868,"current_range_meters":8000,"station_id":"","pricing_plan_id":"cebpf4jnsgd1na2vs0mg"},{"bike_id":"8ae1a895-256a-42ff-81e2-1ddef1dcb177","system_id":"levelo_inurba_marseille","lat":43.23153,"lon":5.43709,"is_reserved":false,"is_disabled":false,"rental_uris":{"android":"levelo://app?vid=8ae1a895-256a-42ff-81e2-1ddef1dcb177","ios":"levelo://app?vid=8ae1a895-256a-42ff-81e2-1ddef1dcb177"},"vehicle_type_id":"4","last_reported":1761289868,"current_range_meters":8000,"station_id":"ce4bhmp2rcd13ifvqgog","pricing_plan_id":"cebpf4jnsgd1na2vs0mg"},{"bike_id":"fd6860ae-94d6-4310-b1d3-683e4cf0ac82","system_id":"levelo_inurba_marseille","lat":43.28268,"lon":5.35055,"is_reserved":false,"is_disabled":false,"rental_uris":{"android":"levelo://app?vid=fd6860ae-94d6-4310-b1d3-683e4cf0ac82","ios":"levelo://app?vid=fd6860ae-94d6-4310-b1d3-683e4cf0ac82"},"vehicle_type_id":"4","last_reported":1761289868,"current_range_meters":8400,"station_id":"ce4bhbp2rcd13ifvqerg","pricing_plan_id":"cebpf4jnsgd1na2vs0mg"},{"bike_id":"c57a8297-8d48-4a24-9303-330b3090b279","system_id":"levelo_inurba_marseille","lat":43.30143,"lon":5.38076,"is_reserved":false,"is_disabled":false,"rental_uris":{"android":"levelo://app?vid=c57a8297-8d48-4a24-9303-330b3090b279","ios":"levelo://app?vid=c57a8297-8d48-4a24-9303-330b3090b279"},"vehicle_type_id":"4","last_reported":1761289868,"current_range_meters":8400,"station_id":"ce4bgjp2rcd13ifvqbh0","pricing_plan_id":"cebpf4jnsgd1na2vs0mg"},{"bike_id":"aa5c39ca-5467-4d85-a1f8-b790dbb0979e","system_id":"levelo_inurba_marseille","lat":43.307083,"lon":5.373614,"is_reserved":false,"is_disabled":false,"rental_uris":{"android":"levelo://app?vid=aa5c39ca-5467-4d85-a1f8-b790dbb0979e","ios":"levelo://app?vid=aa5c39ca-5467-4d85-a1f8-b790dbb0979e"},"vehicle_type_id":"4","last_reported":1761289868,"current_range_meters":8400,"station_id":"","pricing_plan_id":"cebpf4jnsgd1na2vs0mg"},{"bike_id":"a6c8451c-f3a9-441b-82eb-cc51be3d60d9","system_id":"levelo_inurba_marseille","lat":43.3167,"lon":5.40481,"is_reserved":false,"is_disabled":false,"rental_uris":{"android":"levelo://app?vid=a6c8451c-f3a9-441b-82eb-cc51be3d60d9","ios":"levelo://app?vid=a6c8451c-f3a9-441b-82eb-cc51be3d60d9"},"vehicle_type_id":"4","last_reported":1761289868,"current_range_meters":8400,"station_id":"ce4bh012rcd13ifvqd00","pricing_plan_id":"cebpf4jnsgd1na2vs0mg"},{"bike_id":"32e7919e-26d8-4f7d-b229-086147816fa4","system_id":"levelo_inurba_marseille","lat":43.301286,"lon":5.38775,"is_reserved":false,"is_disabled":false,"rental_uris":{"android":"levelo://app?vid=32e7919e-26d8-4f7d-b229-086147816fa4","ios":"levelo://app?vid=32e7919e-26d8-4f7d-b229-086147816fa4"},"vehicle_type_id":"4","last_reported":1761289868,"current_range_meters":8800,"station_id":"","pricing_plan_id":"cebpf4jnsgd1na2vs0mg"},{"bike_id":"278a6fc1-b526-486f-ac91-b3e1aa5e66c0","system_id":"levelo_inurba_marseille","lat":43.27967,"lon":5.38734,"is_reserved":false,"is_disabled":false,"rental_uris":{"android":"levelo://app?vid=278a6fc1-b526-486f-ac91-b3e1aa5e66c0","ios":"levelo://app?vid=278a6fc1-b526-486f-ac91-b3e1aa5e66c0"},"vehicle_type_id":"4","last_reported":1761289868,"current_range_meters":8800,"station_id":"ce4bhg12rcd13ifvqf80","pricing_plan_id":"cebpf4jnsgd1na2vs0mg"},{"bike_id":"4cdea850-21e7-440f-b9a5-0bf0ba38fd05","system_id":"levelo_inurba_marseille","lat":43.27055,"lon":5.40258,"is_reserved":false,"is_disabled":false,"rental_uris":{"android":"levelo://app?vid=4cdea850-21e7-440f-b9a5-0bf0ba38fd05","ios":"levelo://app?vid=4cdea850-21e7-440f-b9a5-0bf0ba38fd05"},"vehicle_type_id":"4","last_reported":1761289868,"current_range_meters":8800,"station_id":"ce4bhk92rcd13ifvqgc0","pricing_plan_id":"cebpf4jnsgd1na2vs0mg"},{"bike_id":"5dfa32fc-8bf1-462d-99dc-75881c5dfe71","system_id":"levelo_inurba_marseille","lat":43.25852,"lon":5.3992,"is_reserved":false,"is_disabled":false,"rental_uris":{"android":"levelo://app?vid=5dfa32fc-8bf1-462d-99dc-75881c5dfe71","ios":"levelo://app?vid=5dfa32fc-8bf1-462d-99dc-75881c5dfe71"},"vehicle_type_id":"4","last_reported":1761289868,"current_range_meters":9200,"station_id":"ce4bhl92rcd13ifvqghg","pricing_plan_id":"cebpf4jnsgd1na2vs0mg"},{"bike_id":"ec9665a2-32ab-42b2-9bdf-cf94d158a9c2","system_id":"levelo_inurba_marseille","lat":43.30113,"lon":5.3709,"is_reserved":false,"is_disabled":false,"rental_uris":{"android":"levelo://app?vid=ec9665a2-32ab-42b2-9bdf-cf94d158a9c2","ios":"levelo://app?vid=ec9665a2-32ab-42b2-9bdf-cf94d158a9c2"},"vehicle_type_id":"4","last_reported":1761289868,"current_range_meters":9200,"station_id":"","pricing_plan_id":"cebpf4jnsgd1na2vs0mg"},{"bike_id":"a84ac13f-c967-4dd3-8e0e-d6f64aff52a6","system_id":"levelo_inurba_marseille","lat":43.26928,"lon":5.38645,"is_reserved":false,"is_disabled":false,"rental_uris":{"android":"levelo://app?vid=a84ac13f-c967-4dd3-8e0e-d6f64aff52a6","ios":"levelo://app?vid=a84ac13f-c967-4dd3-8e0e-d6f64aff52a6"},"vehicle_type_id":"4","last_reported":1761289868,"current_range_meters":9200,"station_id":"ce4bhh92rcd13ifvqfh0","pricing_plan_id":"cebpf4jnsgd1na2vs0mg"},{"bike_id":"4de7f712-0258-4ad0-a796-da860a7f7c86","system_id":"levelo_inurba_marseille","lat":43.3054,"lon":5.36547,"is_reserved":false,"is_disabled":false,"rental_uris":{"android":"levelo://app?vid=4de7f712-0258-4ad0-a796-da860a7f7c86","ios":"levelo://app?vid=4de7f712-0258-4ad0-a796-da860a7f7c86"},"vehicle_type_id":"4","last_reported":1761289868,"current_range_meters":9200,"station_id":"ce4bgs12rcd13ifvqcag","pricing_plan_id":"cebpf4jnsgd1na2vs0mg"},{"bike_id":"76ee2b83-743b-46a3-b384-858d679258a7","system_id":"levelo_inurba_marseille","lat":43.27051,"lon":5.38305,"is_reserved":false,"is_disabled":false,"rental_uris":{"android":"levelo://app?vid=76ee2b83-743b-46a3-b384-858d679258a7","ios":"levelo://app?vid=76ee2b83-743b-46a3-b384-858d679258a7"},"vehicle_type_id":"4","last_reported":1761289868,"current_range_meters":9200,"station_id":"st_d3n2fo6cfp8s73cte1j0","pricing_plan_id":"cebpf4jnsgd1na2vs0mg"},{"bike_id":"e970d21e-df4c-4d8a-9dcc-b09959ead2d8","system_id":"levelo_inurba_marseille","lat":43.339262,"lon":5.397555,"is_reserved":false,"is_disabled":false,"rental_uris":{"android":"levelo://app?vid=e970d21e-df4c-4d8a-9dcc-b09959ead2d8","ios":"levelo://app?vid=e970d21e-df4c-4d8a-9dcc-b09959ead2d8"},"vehicle_type_id":"4","last_reported":1761289868,"current_range_meters":9200,"station_id":"","pricing_plan_id":"cebpf4jnsgd1na2vs0mg"},{"bike_id":"b65077fb-6753-43cc-8575-9553e6f3cd0c","system_id":"levelo_inurba_marseille","lat":43.32479,"lon":5.36561,"is_reserved":false,"is_disabled":false,"rental_uris":{"android":"levelo://app?vid=b65077fb-6753-43cc-8575-9553e6f3cd0c","ios":"levelo://app?vid=b65077fb-6753-43cc-8575-9553e6f3cd0c"},"vehicle_type_id":"4","last_reported":1761289868,"current_range_meters":9200,"station_id":"ce4bhs12rcd13ifvqhvg","pricing_plan_id":"cebpf4jnsgd1na2vs0mg"},{"bike_id":"585befc6-457a-413c-a025-871dad0ae69d","system_id":"levelo_inurba_marseille","lat":43.29077,"lon":5.37163,"is_reserved":false,"is_disabled":false,"rental_uris":{"android":"levelo://app?vid=585befc6-457a-413c-a025-871dad0ae69d","ios":"levelo://app?vid=585befc6-457a-413c-a025-871dad0ae69d"},"vehicle_type_id":"4","last_reported":1761289868,"current_range_meters":9600,"station_id":"ce4bh5p2rcd13ifvqe4g","pricing_plan_id":"cebpf4jnsgd1na2vs0mg"},{"bike_id":"00fd3c6a-780c-49dc-9993-d4de69c9b57a","system_id":"levelo_inurba_marseille","lat":43.31053,"lon":5.37457,"is_reserved":false,"is_disabled":false,"rental_uris":{"android":"levelo://app?vid=00fd3c6a-780c-49dc-9993-d4de69c9b57a","ios":"levelo://app?vid=00fd3c6a-780c-49dc-9993-d4de69c9b57a"},"vehicle_type_id":"4","last_reported":1761289868,"current_range_meters":9600,"station_id":"","pricing_plan_id":"cebpf4jnsgd1na2vs0mg"},{"bike_id":"f30d474c-592d-470d-816b-bf7526dcf767","system_id":"levelo_inurba_marseille","lat":43.308329,"lon":5.381131,"is_reserved":false,"is_disabled":false,"rental_uris":{"android":"levelo://app?vid=f30d474c-592d-470d-816b-bf7526dcf767","ios":"levelo://app?vid=f30d474c-592d-470d-816b-bf7526dcf767"},"vehicle_type_id":"4","last_reported":1761289868,"current_range_meters":9600,"station_id":"ce4bgt12rcd13ifvqce0","pricing_plan_id":"cebpf4jnsgd1na2vs0mg"},{"bike_id":"1aaa028d-93d8-4a20-8355-7a4b17d8620a","system_id":"levelo_inurba_marseille","lat":43.276249,"lon":5.392218,"is_reserved":false,"is_disabled":false,"rental_uris":{"android":"levelo://app?vid=1aaa028d-93d8-4a20-8355-7a4b17d8620a","ios":"levelo://app?vid=1aaa028d-93d8-4a20-8355-7a4b17d8620a"},"vehicle_type_id":"4","last_reported":1761289868,"current_range_meters":9600,"station_id":"","pricing_plan_id":"cebpf4jnsgd1na2vs0mg"},{"bike_id":"f8ad6170-6ca9-493f-b904-5a7d1eb49691","system_id":"levelo_inurba_marseille","lat":43.24183,"lon":5.364028,"is_reserved":false,"is_disabled":false,"rental_uris":{"android":"levelo://app?vid=f8ad6170-6ca9-493f-b904-5a7d1eb49691","ios":"levelo://app?vid=f8ad6170-6ca9-493f-b904-5a7d1eb49691"},"vehicle_type_id":"4","last_reported":1761289868,"current_range_meters":9600,"station_id":"cpo36qri1sfpv3e86is0","pricing_plan_id":"cebpf4jnsgd1na2vs0mg"},{"bike_id":"0773640e-24fb-492b-b167-d16d2b7c2899","system_id":"levelo_inurba_marseille","lat":43.281016,"lon":5.378203,"is_reserved":false,"is_disabled":false,"rental_uris":{"android":"levelo://app?vid=0773640e-24fb-492b-b167-d16d2b7c2899","ios":"levelo://app?vid=0773640e-24fb-492b-b167-d16d2b7c2899"},"vehicle_type_id":"4","last_reported":1761289868,"current_range_meters":9600,"station_id":"ce4bha12rcd13ifvqee0","pricing_plan_id":"cebpf4jnsgd1na2vs0mg"},{"bike_id":"e96035ce-3f75-42c7-bc07-32e4ba0bd41a","system_id":"levelo_inurba_marseille","lat":43.30464,"lon":5.3695,"is_reserved":false,"is_disabled":false,"rental_uris":{"android":"levelo://app?vid=e96035ce-3f75-42c7-bc07-32e4ba0bd41a","ios":"levelo://app?vid=e96035ce-3f75-42c7-bc07-32e4ba0bd41a"},"vehicle_type_id":"4","last_reported":1761289868,"current_range_meters":10000,"station_id":"","pricing_plan_id":"cebpf4jnsgd1na2vs0mg"},{"bike_id":"b19cd567-249b-46c7-9bc9-5bd1167b5570","system_id":"levelo_inurba_marseille","lat":43.30881,"lon":5.39654,"is_reserved":false,"is_disabled":false,"rental_uris":{"android":"levelo://app?vid=b19cd567-249b-46c7-9bc9-5bd1167b5570","ios":"levelo://app?vid=b19cd567-249b-46c7-9bc9-5bd1167b5570"},"vehicle_type_id":"4","last_reported":1761289868,"current_range_meters":10000,"station_id":"ce4bh012rcd13ifvqcv0","pricing_plan_id":"cebpf4jnsgd1na2vs0mg"},{"bike_id":"8025c634-7ae8-4617-bd8f-fb17ac9673f6","system_id":"levelo_inurba_marseille","lat":43.28857,"lon":5.35839,"is_reserved":false,"is_disabled":false,"rental_uris":{"android":"levelo://app?vid=8025c634-7ae8-4617-bd8f-fb17ac9673f6","ios":"levelo://app?vid=8025c634-7ae8-4617-bd8f-fb17ac9673f6"},"vehicle_type_id":"4","last_reported":1761289868,"current_range_meters":10000,"station_id":"ce4bhb12rcd13ifvqem0","pricing_plan_id":"cebpf4jnsgd1na2vs0mg"},{"bike_id":"bda3ed1a-3199-4eb8-8229-577855d09dbb","system_id":"levelo_inurba_marseille","lat":43.3163,"lon":5.37876,"is_reserved":false,"is_disabled":true,"rental_uris":{"android":"levelo://app?vid=bda3ed1a-3199-4eb8-8229-577855d09dbb","ios":"levelo://app?vid=bda3ed1a-3199-4eb8-8229-577855d09dbb"},"vehicle_type_id":"4","last_reported":1761289868,"current_range_meters":10000,"station_id":"","pricing_plan_id":"cebpf4jnsgd1na2vs0mg"},{"bike_id":"323bf2de-3bb4-4b4c-b330-b19ea807dbf5","system_id":"levelo_inurba_marseille","lat":43.32991,"lon":5.42964,"is_reserved":false,"is_disabled":false,"rental_uris":{"android":"levelo://app?vid=323bf2de-3bb4-4b4c-b330-b19ea807dbf5","ios":"levelo://app?vid=323bf2de-3bb4-4b4c-b330-b19ea807dbf5"},"vehicle_type_id":"4","last_reported":1761289868,"current_range_meters":10000,"station_id":"","pricing_plan_id":"cebpf4jnsgd1na2vs0mg"},{"bike_id":"b20a0e46-b401-4673-b2e5-b0b634512e08","system_id":"levelo_inurba_marseille","lat":43.26782,"lon":5.39412,"is_reserved":false,"is_disabled":false,"rental_uris":{"android":"levelo://app?vid=b20a0e46-b401-4673-b2e5-b0b634512e08","ios":"levelo://app?vid=b20a0e46-b401-4673-b2e5-b0b634512e08"},"vehicle_type_id":"4","last_reported":1761289868,"current_range_meters":10000,"station_id":"ce4bhh12rcd13ifvqfg0","pricing_plan_id":"cebpf4jnsgd1na2vs0mg"},{"bike_id":"c81f341c-d0ad-4648-8109-a18c310b8472","system_id":"levelo_inurba_marseille","lat":43.24163,"lon":5.36391,"is_reserved":false,"is_disabled":false,"rental_uris":{"android":"levelo://app?vid=c81f341c-d0ad-4648-8109-a18c310b8472","ios":"levelo://app?vid=c81f341c-d0ad-4648-8109-a18c310b8472"},"vehicle_type_id":"4","last_reported":1761289868,"current_range_meters":10000,"station_id":"cpo36qri1sfpv3e86is0","pricing_plan_id":"cebpf4jnsgd1na2vs0mg"},{"bike_id":"b284a5b8-145b-4b18-970a-f541b5c0ebef","system_id":"levelo_inurba_marseille","lat":43.28557,"lon":5.39456,"is_reserved":false,"is_disabled":false,"rental_uris":{"android":"levelo://app?vid=b284a5b8-145b-4b18-970a-f541b5c0ebef","ios":"levelo://app?vid=b284a5b8-145b-4b18-970a-f541b5c0ebef"},"vehicle_type_id":"4","last_reported":1761289868,"current_range_meters":10000,"station_id":"ce4bh292rcd13ifvqdg0","pricing_plan_id":"cebpf4jnsgd1na2vs0mg"},{"bike_id":"1c3ffb2e-65b0-4a02-ba50-c5860365df82","system_id":"levelo_inurba_marseille","lat":43.33021,"lon":5.39037,"is_reserved":false,"is_disabled":false,"rental_uris":{"android":"levelo://app?vid=1c3ffb2e-65b0-4a02-ba50-c5860365df82","ios":"levelo://app?vid=1c3ffb2e-65b0-4a02-ba50-c5860365df82"},"vehicle_type_id":"4","last_reported":1761289868,"current_range_meters":10000,"station_id":"ce4bhr92rcd13ifvqhrg","pricing_plan_id":"cebpf4jnsgd1na2vs0mg"},{"bike_id":"28665a8a-2587-4cd4-bd5d-37a08641bb2f","system_id":"levelo_inurba_marseille","lat":43.31482,"lon":5.37308,"is_reserved":false,"is_disabled":false,"rental_uris":{"android":"levelo://app?vid=28665a8a-2587-4cd4-bd5d-37a08641bb2f","ios":"levelo://app?vid=28665a8a-2587-4cd4-bd5d-37a08641bb2f"},"vehicle_type_id":"4","last_reported":1761289868,"current_range_meters":10000,"station_id":"ce4bgt12rcd13ifvqcd0","pricing_plan_id":"cebpf4jnsgd1na2vs0mg"},{"bike_id":"e8a3abe2-c655-4bb0-9ffd-183b83814299","system_id":"levelo_inurba_marseille","lat":43.2886,"lon":5.39317,"is_reserved":false,"is_disabled":true,"rental_uris":{"android":"levelo://app?vid=e8a3abe2-c655-4bb0-9ffd-183b83814299","ios":"levelo://app?vid=e8a3abe2-c655-4bb0-9ffd-183b83814299"},"vehicle_type_id":"4","last_reported":1761289868,"current_range_meters":10800,"station_id":"ce4bh2p2rcd13ifvqdi0","pricing_plan_id":"cebpf4jnsgd1na2vs0mg"},{"bike_id":"3e4783b6-28d8-4737-a4ef-6a1b0da02476","system_id":"levelo_inurba_marseille","lat":43.29446,"lon":5.407124,"is_reserved":false,"is_disabled":false,"rental_uris":{"android":"levelo://app?vid=3e4783b6-28d8-4737-a4ef-6a1b0da02476","ios":"levelo://app?vid=3e4783b6-28d8-4737-a4ef-6a1b0da02476"},"vehicle_type_id":"4","last_reported":1761289868,"current_range_meters":10800,"station_id":"","pricing_plan_id":"cebpf4jnsgd1na2vs0mg"},{"bike_id":"3db2a5d9-814a-4963-b579-0c2256c81bd5","system_id":"levelo_inurba_marseille","lat":43.24178,"lon":5.39726,"is_reserved":false,"is_disabled":false,"rental_uris":{"android":"levelo://app?vid=3db2a5d9-814a-4963-b579-0c2256c81bd5","ios":"levelo://app?vid=3db2a5d9-814a-4963-b579-0c2256c81bd5"},"vehicle_type_id":"4","last_reported":1761289868,"current_range_meters":10800,"station_id":"ce4bhn12rcd13ifvqgpg","pricing_plan_id":"cebpf4jnsgd1na2vs0mg"},{"bike_id":"d2b9dc00-f2bd-4779-bb2a-55b57cdd0b04","system_id":"levelo_inurba_marseille","lat":43.28618,"lon":5.37067,"is_reserved":false,"is_disabled":false,"rental_uris":{"android":"levelo://app?vid=d2b9dc00-f2bd-4779-bb2a-55b57cdd0b04","ios":"levelo://app?vid=d2b9dc00-f2bd-4779-bb2a-55b57cdd0b04"},"vehicle_type_id":"4","last_reported":1761289868,"current_range_meters":10800,"station_id":"ce4bht12rcd13ifvqi60","pricing_plan_id":"cebpf4jnsgd1na2vs0mg"},{"bike_id":"8f5c1f8d-f070-4a59-994a-c6c83324b837","system_id":"levelo_inurba_marseille","lat":43.30919,"lon":5.36848,"is_reserved":false,"is_disabled":false,"rental_uris":{"android":"levelo://app?vid=8f5c1f8d-f070-4a59-994a-c6c83324b837","ios":"levelo://app?vid=8f5c1f8d-f070-4a59-994a-c6c83324b837"},"vehicle_type_id":"4","last_reported":1761289868,"current_range_meters":10800,"station_id":"ce4bgn92rcd13ifvqbvg","pricing_plan_id":"cebpf4jnsgd1na2vs0mg"},{"bike_id":"f0764640-ec1d-486f-9e1c-59043e66eb76","system_id":"levelo_inurba_marseille","lat":43.21737,"lon":5.34614,"is_reserved":false,"is_disabled":false,"rental_uris":{"android":"levelo://app?vid=f0764640-ec1d-486f-9e1c-59043e66eb76","ios":"levelo://app?vid=f0764640-ec1d-486f-9e1c-59043e66eb76"},"vehicle_type_id":"4","last_reported":1761289868,"current_range_meters":11200,"station_id":"st_cvj6r9ubvosntc0bgbag","pricing_plan_id":"cebpf4jnsgd1na2vs0mg"},{"bike_id":"6b25e934-7e52-440b-9273-bd19d026e696","system_id":"levelo_inurba_marseille","lat":43.3046,"lon":5.37907,"is_reserved":false,"is_disabled":false,"rental_uris":{"android":"levelo://app?vid=6b25e934-7e52-440b-9273-bd19d026e696","ios":"levelo://app?vid=6b25e934-7e52-440b-9273-bd19d026e696"},"vehicle_type_id":"4","last_reported":1761289868,"current_range_meters":11200,"station_id":"ce4bgup2rcd13ifvqcn0","pricing_plan_id":"cebpf4jnsgd1na2vs0mg"},{"bike_id":"d528894e-4f7c-49bd-9989-faa85981fef9","system_id":"levelo_inurba_marseille","lat":43.31488,"lon":5.37313,"is_reserved":false,"is_disabled":false,"rental_uris":{"android":"levelo://app?vid=d528894e-4f7c-49bd-9989-faa85981fef9","ios":"levelo://app?vid=d528894e-4f7c-49bd-9989-faa85981fef9"},"vehicle_type_id":"4","last_reported":1761289868,"current_range_meters":11200,"station_id":"ce4bgt12rcd13ifvqcd0","pricing_plan_id":"cebpf4jnsgd1na2vs0mg"},{"bike_id":"8d968a7a-3957-46c5-9580-35e9f96be907","system_id":"levelo_inurba_marseille","lat":43.279198,"lon":5.395903,"is_reserved":false,"is_disabled":false,"rental_uris":{"android":"levelo://app?vid=8d968a7a-3957-46c5-9580-35e9f96be907","ios":"levelo://app?vid=8d968a7a-3957-46c5-9580-35e9f96be907"},"vehicle_type_id":"4","last_reported":1761289868,"current_range_meters":11200,"station_id":"ce4bhf92rcd13ifvqf40","pricing_plan_id":"cebpf4jnsgd1na2vs0mg"},{"bike_id":"d78eb837-b102-4db4-b967-7e27e7618a15","system_id":"levelo_inurba_marseille","lat":43.22917,"lon":5.35388,"is_reserved":false,"is_disabled":false,"rental_uris":{"android":"levelo://app?vid=d78eb837-b102-4db4-b967-7e27e7618a15","ios":"levelo://app?vid=d78eb837-b102-4db4-b967-7e27e7618a15"},"vehicle_type_id":"4","last_reported":1761289868,"current_range_meters":11200,"station_id":"cpo3532slgdg3j2ikp40","pricing_plan_id":"cebpf4jnsgd1na2vs0mg"},{"bike_id":"1dcc51cc-9847-4009-a18c-ace2c41b6ac2","system_id":"levelo_inurba_marseille","lat":43.24165,"lon":5.3639,"is_reserved":false,"is_disabled":false,"rental_uris":{"android":"levelo://app?vid=1dcc51cc-9847-4009-a18c-ace2c41b6ac2","ios":"levelo://app?vid=1dcc51cc-9847-4009-a18c-ace2c41b6ac2"},"vehicle_type_id":"4","last_reported":1761289868,"current_range_meters":11200,"station_id":"cpo36qri1sfpv3e86is0","pricing_plan_id":"cebpf4jnsgd1na2vs0mg"},{"bike_id":"316c843e-0abd-49e3-b3e9-3f61b02a5647","system_id":"levelo_inurba_marseille","lat":43.28884,"lon":5.42528,"is_reserved":false,"is_disabled":false,"rental_uris":{"android":"levelo://app?vid=316c843e-0abd-49e3-b3e9-3f61b02a5647","ios":"levelo://app?vid=316c843e-0abd-49e3-b3e9-3f61b02a5647"},"vehicle_type_id":"4","last_reported":1761289868,"current_range_meters":11600,"station_id":"st_d3b462108ojc7389ooeg","pricing_plan_id":"cebpf4jnsgd1na2vs0mg"},{"bike_id":"55aee02d-9c96-45d2-9d31-4545665d3ece","system_id":"levelo_inurba_marseille","lat":43.24672,"lon":5.3889,"is_reserved":false,"is_disabled":false,"rental_uris":{"android":"levelo://app?vid=55aee02d-9c96-45d2-9d31-4545665d3ece","ios":"levelo://app?vid=55aee02d-9c96-45d2-9d31-4545665d3ece"},"vehicle_type_id":"4","last_reported":1761289868,"current_range_meters":11600,"station_id":"ce4bhg12rcd13ifvqf60","pricing_plan_id":"cebpf4jnsgd1na2vs0mg"},{"bike_id":"0f8f891d-6b35-4726-ba06-6f32fedc649e","system_id":"levelo_inurba_marseille","lat":43.30945,"lon":5.3904,"is_reserved":false,"is_disabled":false,"rental_uris":{"android":"levelo://app?vid=0f8f891d-6b35-4726-ba06-6f32fedc649e","ios":"levelo://app?vid=0f8f891d-6b35-4726-ba06-6f32fedc649e"},"vehicle_type_id":"4","last_reported":1761289868,"current_range_meters":11600,"station_id":"ce4bgup2rcd13ifvqco0","pricing_plan_id":"cebpf4jnsgd1na2vs0mg"},{"bike_id":"ecaef746-8ab8-48b5-9c9d-540392e2d2cf","system_id":"levelo_inurba_marseille","lat":43.24171,"lon":5.39728,"is_reserved":false,"is_disabled":false,"rental_uris":{"android":"levelo://app?vid=ecaef746-8ab8-48b5-9c9d-540392e2d2cf","ios":"levelo://app?vid=ecaef746-8ab8-48b5-9c9d-540392e2d2cf"},"vehicle_type_id":"4","last_reported":1761289868,"current_range_meters":11600,"station_id":"ce4bhn12rcd13ifvqgpg","pricing_plan_id":"cebpf4jnsgd1na2vs0mg"},{"bike_id":"5403bbb7-b780-4116-8b9d-0a9bd553ad20","system_id":"levelo_inurba_marseille","lat":43.24157,"lon":5.39724,"is_reserved":false,"is_disabled":false,"rental_uris":{"android":"levelo://app?vid=5403bbb7-b780-4116-8b9d-0a9bd553ad20","ios":"levelo://app?vid=5403bbb7-b780-4116-8b9d-0a9bd553ad20"},"vehicle_type_id":"4","last_reported":1761289868,"current_range_meters":12000,"station_id":"ce4bhn12rcd13ifvqgpg","pricing_plan_id":"cebpf4jnsgd1na2vs0mg"},{"bike_id":"bd586638-ea6d-40ae-9b77-099deb3448f7","system_id":"levelo_inurba_marseille","lat":43.25595,"lon":5.38242,"is_reserved":false,"is_disabled":false,"rental_uris":{"android":"levelo://app?vid=bd586638-ea6d-40ae-9b77-099deb3448f7","ios":"levelo://app?vid=bd586638-ea6d-40ae-9b77-099deb3448f7"},"vehicle_type_id":"4","last_reported":1761289868,"current_range_meters":12000,"station_id":"ce4bhih2rcd13ifvqfs0","pricing_plan_id":"cebpf4jnsgd1na2vs0mg"},{"bike_id":"e23608a7-79c3-428d-8cba-f9c659a19500","system_id":"levelo_inurba_marseille","lat":43.24548,"lon":5.39521,"is_reserved":false,"is_disabled":false,"rental_uris":{"android":"levelo://app?vid=e23608a7-79c3-428d-8cba-f9c659a19500","ios":"levelo://app?vid=e23608a7-79c3-428d-8cba-f9c659a19500"},"vehicle_type_id":"4","last_reported":1761289868,"current_range_meters":12000,"station_id":"ce4bhlp2rcd13ifvqgjg","pricing_plan_id":"cebpf4jnsgd1na2vs0mg"},{"bike_id":"8bcacd78-80de-4026-af75-b37ebe3030fe","system_id":"levelo_inurba_marseille","lat":43.334756,"lon":5.404255,"is_reserved":false,"is_disabled":false,"rental_uris":{"android":"levelo://app?vid=8bcacd78-80de-4026-af75-b37ebe3030fe","ios":"levelo://app?vid=8bcacd78-80de-4026-af75-b37ebe3030fe"},"vehicle_type_id":"4","last_reported":1761289868,"current_range_meters":12000,"station_id":"","pricing_plan_id":"cebpf4jnsgd1na2vs0mg"},{"bike_id":"2842f5fd-7b05-4b47-909c-5ee54d7d3bc5","system_id":"levelo_inurba_marseille","lat":43.324541,"lon":5.428116,"is_reserved":false,"is_disabled":false,"rental_uris":{"android":"levelo://app?vid=2842f5fd-7b05-4b47-909c-5ee54d7d3bc5","ios":"levelo://app?vid=2842f5fd-7b05-4b47-909c-5ee54d7d3bc5"},"vehicle_type_id":"4","last_reported":1761289868,"current_range_meters":12000,"station_id":"","pricing_plan_id":"cebpf4jnsgd1na2vs0mg"},{"bike_id":"b96b3118-6692-4399-83aa-684fe968ab53","system_id":"levelo_inurba_marseille","lat":43.24174,"lon":5.36387,"is_reserved":false,"is_disabled":false,"rental_uris":{"android":"levelo://app?vid=b96b3118-6692-4399-83aa-684fe968ab53","ios":"levelo://app?vid=b96b3118-6692-4399-83aa-684fe968ab53"},"vehicle_type_id":"4","last_reported":1761289868,"current_range_meters":12000,"station_id":"cpo36qri1sfpv3e86is0","pricing_plan_id":"cebpf4jnsgd1na2vs0mg"},{"bike_id":"9881c788-42a8-46f5-8ccc-580a73583155","system_id":"levelo_inurba_marseille","lat":43.32088,"lon":5.40921,"is_reserved":false,"is_disabled":true,"rental_uris":{"android":"levelo://app?vid=9881c788-42a8-46f5-8ccc-580a73583155","ios":"levelo://app?vid=9881c788-42a8-46f5-8ccc-580a73583155"},"vehicle_type_id":"4","last_reported":1761289868,"current_range_meters":12000,"station_id":"","pricing_plan_id":"cebpf4jnsgd1na2vs0mg"},{"bike_id":"f3a35176-f878-4d8e-a9f3-06d2b18e39ad","system_id":"levelo_inurba_marseille","lat":43.31755,"lon":5.39013,"is_reserved":false,"is_disabled":false,"rental_uris":{"android":"levelo://app?vid=f3a35176-f878-4d8e-a9f3-06d2b18e39ad","ios":"levelo://app?vid=f3a35176-f878-4d8e-a9f3-06d2b18e39ad"},"vehicle_type_id":"4","last_reported":1761289868,"current_range_meters":12400,"station_id":"ce4bhqp2rcd13ifvqhng","pricing_plan_id":"cebpf4jnsgd1na2vs0mg"},{"bike_id":"d00c701f-f4e2-4d13-805a-1c3ab9355bc6","system_id":"levelo_inurba_marseille","lat":43.29633,"lon":5.37148,"is_reserved":false,"is_disabled":false,"rental_uris":{"android":"levelo://app?vid=d00c701f-f4e2-4d13-805a-1c3ab9355bc6","ios":"levelo://app?vid=d00c701f-f4e2-4d13-805a-1c3ab9355bc6"},"vehicle_type_id":"4","last_reported":1761289868,"current_range_meters":12400,"station_id":"ce4bgnh2rcd13ifvqc0g","pricing_plan_id":"cebpf4jnsgd1na2vs0mg"},{"bike_id":"b9764ed2-f91a-421e-b54e-d7527bd8af22","system_id":"levelo_inurba_marseille","lat":43.29811,"lon":5.36588,"is_reserved":false,"is_disabled":false,"rental_uris":{"android":"levelo://app?vid=b9764ed2-f91a-421e-b54e-d7527bd8af22","ios":"levelo://app?vid=b9764ed2-f91a-421e-b54e-d7527bd8af22"},"vehicle_type_id":"4","last_reported":1761289868,"current_range_meters":12400,"station_id":"","pricing_plan_id":"cebpf4jnsgd1na2vs0mg"},{"bike_id":"78f5a621-dfef-4dfa-87c5-4fbddc787672","system_id":"levelo_inurba_marseille","lat":43.24171,"lon":5.39724,"is_reserved":false,"is_disabled":false,"rental_uris":{"android":"levelo://app?vid=78f5a621-dfef-4dfa-87c5-4fbddc787672","ios":"levelo://app?vid=78f5a621-dfef-4dfa-87c5-4fbddc787672"},"vehicle_type_id":"4","last_reported":1761289868,"current_range_meters":12400,"station_id":"ce4bhn12rcd13ifvqgpg","pricing_plan_id":"cebpf4jnsgd1na2vs0mg"},{"bike_id":"c12a786b-d447-4373-876a-58fc20f19148","system_id":"levelo_inurba_marseille","lat":43.29915,"lon":5.4364,"is_reserved":false,"is_disabled":false,"rental_uris":{"android":"levelo://app?vid=c12a786b-d447-4373-876a-58fc20f19148","ios":"levelo://app?vid=c12a786b-d447-4373-876a-58fc20f19148"},"vehicle_type_id":"4","last_reported":1761289868,"current_range_meters":12400,"station_id":"ce4bhpp2rcd13ifvqhfg","pricing_plan_id":"cebpf4jnsgd1na2vs0mg"},{"bike_id":"c184ad00-f2e0-48f2-8b07-281ff8c3c1af","system_id":"levelo_inurba_marseille","lat":43.312362,"lon":5.369076,"is_reserved":false,"is_disabled":false,"rental_uris":{"android":"levelo://app?vid=c184ad00-f2e0-48f2-8b07-281ff8c3c1af","ios":"levelo://app?vid=c184ad00-f2e0-48f2-8b07-281ff8c3c1af"},"vehicle_type_id":"4","last_reported":1761289868,"current_range_meters":12800,"station_id":"ce4bgl92rcd13ifvqbq0","pricing_plan_id":"cebpf4jnsgd1na2vs0mg"},{"bike_id":"e986eb56-ca00-4dbf-ada0-578bc3d8f529","system_id":"levelo_inurba_marseille","lat":43.27344,"lon":5.41484,"is_reserved":false,"is_disabled":false,"rental_uris":{"android":"levelo://app?vid=e986eb56-ca00-4dbf-ada0-578bc3d8f529","ios":"levelo://app?vid=e986eb56-ca00-4dbf-ada0-578bc3d8f529"},"vehicle_type_id":"4","last_reported":1761289868,"current_range_meters":12800,"station_id":"","pricing_plan_id":"cebpf4jnsgd1na2vs0mg"},{"bike_id":"48f230e5-c3d0-495a-b9b7-0fd887fef56f","system_id":"levelo_inurba_marseille","lat":43.29011,"lon":5.38149,"is_reserved":false,"is_disabled":false,"rental_uris":{"android":"levelo://app?vid=48f230e5-c3d0-495a-b9b7-0fd887fef56f","ios":"levelo://app?vid=48f230e5-c3d0-495a-b9b7-0fd887fef56f"},"vehicle_type_id":"4","last_reported":1761289868,"current_range_meters":13600,"station_id":"ce4bh4p2rcd13ifvqe1g","pricing_plan_id":"cebpf4jnsgd1na2vs0mg"},{"bike_id":"8119312a-c29a-4735-8ca3-256b4b8dee80","system_id":"levelo_inurba_marseille","lat":43.26769,"lon":5.39421,"is_reserved":false,"is_disabled":false,"rental_uris":{"android":"levelo://app?vid=8119312a-c29a-4735-8ca3-256b4b8dee80","ios":"levelo://app?vid=8119312a-c29a-4735-8ca3-256b4b8dee80"},"vehicle_type_id":"4","last_reported":1761289868,"current_range_meters":13600,"station_id":"ce4bhh12rcd13ifvqfg0","pricing_plan_id":"cebpf4jnsgd1na2vs0mg"},{"bike_id":"e36159e3-ca08-4456-a35f-82a3a3f9bd60","system_id":"levelo_inurba_marseille","lat":43.30542,"lon":5.36701,"is_reserved":false,"is_disabled":false,"rental_uris":{"android":"levelo://app?vid=e36159e3-ca08-4456-a35f-82a3a3f9bd60","ios":"levelo://app?vid=e36159e3-ca08-4456-a35f-82a3a3f9bd60"},"vehicle_type_id":"4","last_reported":1761289868,"current_range_meters":14000,"station_id":"ce4bgrp2rcd13ifvqc9g","pricing_plan_id":"cebpf4jnsgd1na2vs0mg"},{"bike_id":"2e516aa3-da3f-4cd4-8d7a-1dc8bf5d8ddd","system_id":"levelo_inurba_marseille","lat":43.32104,"lon":5.36783,"is_reserved":false,"is_disabled":false,"rental_uris":{"android":"levelo://app?vid=2e516aa3-da3f-4cd4-8d7a-1dc8bf5d8ddd","ios":"levelo://app?vid=2e516aa3-da3f-4cd4-8d7a-1dc8bf5d8ddd"},"vehicle_type_id":"4","last_reported":1761289868,"current_range_meters":14000,"station_id":"ce4bhrh2rcd13ifvqhug","pricing_plan_id":"cebpf4jnsgd1na2vs0mg"},{"bike_id":"d10b22fa-7672-4128-97f0-5cbf4295b17c","system_id":"levelo_inurba_marseille","lat":43.29355,"lon":5.39336,"is_reserved":false,"is_disabled":false,"rental_uris":{"android":"levelo://app?vid=d10b22fa-7672-4128-97f0-5cbf4295b17c","ios":"levelo://app?vid=d10b22fa-7672-4128-97f0-5cbf4295b17c"},"vehicle_type_id":"4","last_reported":1761289868,"current_range_meters":14000,"station_id":"","pricing_plan_id":"cebpf4jnsgd1na2vs0mg"},{"bike_id":"49205a8f-4198-4c0b-b7d7-97a9473705ce","system_id":"levelo_inurba_marseille","lat":43.32101,"lon":5.36783,"is_reserved":false,"is_disabled":false,"rental_uris":{"android":"levelo://app?vid=49205a8f-4198-4c0b-b7d7-97a9473705ce","ios":"levelo://app?vid=49205a8f-4198-4c0b-b7d7-97a9473705ce"},"vehicle_type_id":"4","last_reported":1761289868,"current_range_meters":14000,"station_id":"ce4bhrh2rcd13ifvqhug","pricing_plan_id":"cebpf4jnsgd1na2vs0mg"},{"bike_id":"82a6ac02-8c08-4f93-844a-981cd0f715d0","system_id":"levelo_inurba_marseille","lat":43.255063,"lon":5.376587,"is_reserved":false,"is_disabled":false,"rental_uris":{"android":"levelo://app?vid=82a6ac02-8c08-4f93-844a-981cd0f715d0","ios":"levelo://app?vid=82a6ac02-8c08-4f93-844a-981cd0f715d0"},"vehicle_type_id":"4","last_reported":1761289868,"current_range_meters":14000,"station_id":"ce4bhh12rcd13ifvqff0","pricing_plan_id":"cebpf4jnsgd1na2vs0mg"},{"bike_id":"8e7186e9-e052-4030-a83b-1c1eb47fd46c","system_id":"levelo_inurba_marseille","lat":43.21742,"lon":5.34602,"is_reserved":false,"is_disabled":false,"rental_uris":{"android":"levelo://app?vid=8e7186e9-e052-4030-a83b-1c1eb47fd46c","ios":"levelo://app?vid=8e7186e9-e052-4030-a83b-1c1eb47fd46c"},"vehicle_type_id":"4","last_reported":1761289868,"current_range_meters":14000,"station_id":"st_cvj6r9ubvosntc0bgbag","pricing_plan_id":"cebpf4jnsgd1na2vs0mg"},{"bike_id":"41083e20-40ce-47c0-afcf-569bdd1626a2","system_id":"levelo_inurba_marseille","lat":43.24175,"lon":5.39731,"is_reserved":false,"is_disabled":false,"rental_uris":{"android":"levelo://app?vid=41083e20-40ce-47c0-afcf-569bdd1626a2","ios":"levelo://app?vid=41083e20-40ce-47c0-afcf-569bdd1626a2"},"vehicle_type_id":"4","last_reported":1761289868,"current_range_meters":14000,"station_id":"ce4bhn12rcd13ifvqgpg","pricing_plan_id":"cebpf4jnsgd1na2vs0mg"},{"bike_id":"0b9b57bc-7a8a-4239-9bf8-8db0d41132b5","system_id":"levelo_inurba_marseille","lat":43.30138,"lon":5.37418,"is_reserved":false,"is_disabled":false,"rental_uris":{"android":"levelo://app?vid=0b9b57bc-7a8a-4239-9bf8-8db0d41132b5","ios":"levelo://app?vid=0b9b57bc-7a8a-4239-9bf8-8db0d41132b5"},"vehicle_type_id":"4","last_reported":1761289868,"current_range_meters":14400,"station_id":"ce4bgs92rcd13ifvqcc0","pricing_plan_id":"cebpf4jnsgd1na2vs0mg"},{"bike_id":"d9ecb998-ceaa-4a39-8aba-9f0e44069447","system_id":"levelo_inurba_marseille","lat":43.32147,"lon":5.38731,"is_reserved":false,"is_disabled":false,"rental_uris":{"android":"levelo://app?vid=d9ecb998-ceaa-4a39-8aba-9f0e44069447","ios":"levelo://app?vid=d9ecb998-ceaa-4a39-8aba-9f0e44069447"},"vehicle_type_id":"4","last_reported":1761289868,"current_range_meters":14400,"station_id":"","pricing_plan_id":"cebpf4jnsgd1na2vs0mg"},{"bike_id":"de4b8ab5-285e-474a-b521-72ccb626a9fe","system_id":"levelo_inurba_marseille","lat":43.32246,"lon":5.38357,"is_reserved":false,"is_disabled":false,"rental_uris":{"android":"levelo://app?vid=de4b8ab5-285e-474a-b521-72ccb626a9fe","ios":"levelo://app?vid=de4b8ab5-285e-474a-b521-72ccb626a9fe"},"vehicle_type_id":"4","last_reported":1761289868,"current_range_meters":14800,"station_id":"ce4bhr12rcd13ifvqhqg","pricing_plan_id":"cebpf4jnsgd1na2vs0mg"},{"bike_id":"0c216ec5-2d75-4ee4-a223-b0d23bee74b5","system_id":"levelo_inurba_marseille","lat":43.246478,"lon":5.38897,"is_reserved":false,"is_disabled":false,"rental_uris":{"android":"levelo://app?vid=0c216ec5-2d75-4ee4-a223-b0d23bee74b5","ios":"levelo://app?vid=0c216ec5-2d75-4ee4-a223-b0d23bee74b5"},"vehicle_type_id":"4","last_reported":1761289868,"current_range_meters":14800,"station_id":"ce4bhg12rcd13ifvqf60","pricing_plan_id":"cebpf4jnsgd1na2vs0mg"},{"bike_id":"e1426846-25b6-4ff8-8b8f-dab5997f53d0","system_id":"levelo_inurba_marseille","lat":43.29028,"lon":5.38123,"is_reserved":false,"is_disabled":false,"rental_uris":{"android":"levelo://app?vid=e1426846-25b6-4ff8-8b8f-dab5997f53d0","ios":"levelo://app?vid=e1426846-25b6-4ff8-8b8f-dab5997f53d0"},"vehicle_type_id":"4","last_reported":1761289868,"current_range_meters":15200,"station_id":"ce4bh4p2rcd13ifvqe1g","pricing_plan_id":"cebpf4jnsgd1na2vs0mg"},{"bike_id":"30c20775-7e7c-4dd5-b544-8b63c9979e48","system_id":"levelo_inurba_marseille","lat":43.29219,"lon":5.36044,"is_reserved":false,"is_disabled":false,"rental_uris":{"android":"levelo://app?vid=30c20775-7e7c-4dd5-b544-8b63c9979e48","ios":"levelo://app?vid=30c20775-7e7c-4dd5-b544-8b63c9979e48"},"vehicle_type_id":"4","last_reported":1761289868,"current_range_meters":15200,"station_id":"ce4bhbh2rcd13ifvqeqg","pricing_plan_id":"cebpf4jnsgd1na2vs0mg"},{"bike_id":"bd739e16-d751-4a48-aae5-cefbc0cea2d2","system_id":"levelo_inurba_marseille","lat":43.33763,"lon":5.37436,"is_reserved":false,"is_disabled":false,"rental_uris":{"android":"levelo://app?vid=bd739e16-d751-4a48-aae5-cefbc0cea2d2","ios":"levelo://app?vid=bd739e16-d751-4a48-aae5-cefbc0cea2d2"},"vehicle_type_id":"4","last_reported":1761289868,"current_range_meters":15200,"station_id":"","pricing_plan_id":"cebpf4jnsgd1na2vs0mg"},{"bike_id":"e03a5a6f-7e12-4e31-b0cb-0ea8688866f9","system_id":"levelo_inurba_marseille","lat":43.2923,"lon":5.37152,"is_reserved":false,"is_disabled":false,"rental_uris":{"android":"levelo://app?vid=e03a5a6f-7e12-4e31-b0cb-0ea8688866f9","ios":"levelo://app?vid=e03a5a6f-7e12-4e31-b0cb-0ea8688866f9"},"vehicle_type_id":"4","last_reported":1761289868,"current_range_meters":15200,"station_id":"","pricing_plan_id":"cebpf4jnsgd1na2vs0mg"},{"bike_id":"ef096c7f-2d04-45e7-91e4-52578045f579","system_id":"levelo_inurba_marseille","lat":43.23191,"lon":5.39992,"is_reserved":false,"is_disabled":true,"rental_uris":{"android":"levelo://app?vid=ef096c7f-2d04-45e7-91e4-52578045f579","ios":"levelo://app?vid=ef096c7f-2d04-45e7-91e4-52578045f579"},"vehicle_type_id":"4","last_reported":1761289868,"current_range_meters":16000,"station_id":"ce4bhn12rcd13ifvqgqg","pricing_plan_id":"cebpf4jnsgd1na2vs0mg"},{"bike_id":"f8c755d7-1bb8-4fcd-bb3f-74aeb49951cc","system_id":"levelo_inurba_marseille","lat":43.31379,"lon":5.37898,"is_reserved":false,"is_disabled":false,"rental_uris":{"android":"levelo://app?vid=f8c755d7-1bb8-4fcd-bb3f-74aeb49951cc","ios":"levelo://app?vid=f8c755d7-1bb8-4fcd-bb3f-74aeb49951cc"},"vehicle_type_id":"4","last_reported":1761289868,"current_range_meters":16000,"station_id":"","pricing_plan_id":"cebpf4jnsgd1na2vs0mg"},{"bike_id":"75552eb5-38a2-43ca-9291-cacb859b6f73","system_id":"levelo_inurba_marseille","lat":43.284215,"lon":5.349847,"is_reserved":false,"is_disabled":false,"rental_uris":{"android":"levelo://app?vid=75552eb5-38a2-43ca-9291-cacb859b6f73","ios":"levelo://app?vid=75552eb5-38a2-43ca-9291-cacb859b6f73"},"vehicle_type_id":"4","last_reported":1761289868,"current_range_meters":16000,"station_id":"","pricing_plan_id":"cebpf4jnsgd1na2vs0mg"},{"bike_id":"2339f010-c3e5-44a5-a7bb-4ca220fd6cca","system_id":"levelo_inurba_marseille","lat":43.28229,"lon":5.38536,"is_reserved":false,"is_disabled":true,"rental_uris":{"android":"levelo://app?vid=2339f010-c3e5-44a5-a7bb-4ca220fd6cca","ios":"levelo://app?vid=2339f010-c3e5-44a5-a7bb-4ca220fd6cca"},"vehicle_type_id":"4","last_reported":1761289868,"current_range_meters":16000,"station_id":"","pricing_plan_id":"cebpf4jnsgd1na2vs0mg"},{"bike_id":"3cb7792b-43db-41f0-96a4-9a586e0436bb","system_id":"levelo_inurba_marseille","lat":43.286207,"lon":5.37058,"is_reserved":false,"is_disabled":false,"rental_uris":{"android":"levelo://app?vid=3cb7792b-43db-41f0-96a4-9a586e0436bb","ios":"levelo://app?vid=3cb7792b-43db-41f0-96a4-9a586e0436bb"},"vehicle_type_id":"4","last_reported":1761289868,"current_range_meters":16000,"station_id":"ce4bht12rcd13ifvqi60","pricing_plan_id":"cebpf4jnsgd1na2vs0mg"},{"bike_id":"c10f09a3-ac5c-4ca1-8b1b-c4927ee95c64","system_id":"levelo_inurba_marseille","lat":43.315049,"lon":5.373056,"is_reserved":false,"is_disabled":false,"rental_uris":{"android":"levelo://app?vid=c10f09a3-ac5c-4ca1-8b1b-c4927ee95c64","ios":"levelo://app?vid=c10f09a3-ac5c-4ca1-8b1b-c4927ee95c64"},"vehicle_type_id":"4","last_reported":1761289868,"current_range_meters":16000,"station_id":"ce4bgt12rcd13ifvqcd0","pricing_plan_id":"cebpf4jnsgd1na2vs0mg"},{"bike_id":"47f09c0c-92a9-44eb-a23c-69934b3ff134","system_id":"levelo_inurba_marseille","lat":43.30118,"lon":5.43114,"is_reserved":false,"is_disabled":false,"rental_uris":{"android":"levelo://app?vid=47f09c0c-92a9-44eb-a23c-69934b3ff134","ios":"levelo://app?vid=47f09c0c-92a9-44eb-a23c-69934b3ff134"},"vehicle_type_id":"4","last_reported":1761289868,"current_range_meters":16000,"station_id":"st_d3js3co5814s73ftftug","pricing_plan_id":"cebpf4jnsgd1na2vs0mg"},{"bike_id":"764563dd-e368-48f5-a186-3a29a8a5295d","system_id":"levelo_inurba_marseille","lat":43.25918,"lon":5.40887,"is_reserved":false,"is_disabled":false,"rental_uris":{"android":"levelo://app?vid=764563dd-e368-48f5-a186-3a29a8a5295d","ios":"levelo://app?vid=764563dd-e368-48f5-a186-3a29a8a5295d"},"vehicle_type_id":"4","last_reported":1761289868,"current_range_meters":16000,"station_id":"ce4bhm92rcd13ifvqglg","pricing_plan_id":"cebpf4jnsgd1na2vs0mg"},{"bike_id":"e4c4a89a-f1f0-48a4-a027-c716bb865d76","system_id":"levelo_inurba_marseille","lat":43.29868,"lon":5.39731,"is_reserved":false,"is_disabled":false,"rental_uris":{"android":"levelo://app?vid=e4c4a89a-f1f0-48a4-a027-c716bb865d76","ios":"levelo://app?vid=e4c4a89a-f1f0-48a4-a027-c716bb865d76"},"vehicle_type_id":"4","last_reported":1761289868,"current_range_meters":16400,"station_id":"ce4bh0h2rcd13ifvqd50","pricing_plan_id":"cebpf4jnsgd1na2vs0mg"},{"bike_id":"3b0777f2-e026-4ca7-ab56-9a01f324af7d","system_id":"levelo_inurba_marseille","lat":43.26772,"lon":5.3942,"is_reserved":false,"is_disabled":false,"rental_uris":{"android":"levelo://app?vid=3b0777f2-e026-4ca7-ab56-9a01f324af7d","ios":"levelo://app?vid=3b0777f2-e026-4ca7-ab56-9a01f324af7d"},"vehicle_type_id":"4","last_reported":1761289868,"current_range_meters":16400,"station_id":"ce4bhh12rcd13ifvqfg0","pricing_plan_id":"cebpf4jnsgd1na2vs0mg"},{"bike_id":"7b77f4c9-fc19-4724-b863-5df4684f69b7","system_id":"levelo_inurba_marseille","lat":43.29276,"lon":5.40117,"is_reserved":false,"is_disabled":false,"rental_uris":{"android":"levelo://app?vid=7b77f4c9-fc19-4724-b863-5df4684f69b7","ios":"levelo://app?vid=7b77f4c9-fc19-4724-b863-5df4684f69b7"},"vehicle_type_id":"4","last_reported":1761289868,"current_range_meters":16400,"station_id":"ce4bh312rcd13ifvqdk0","pricing_plan_id":"cebpf4jnsgd1na2vs0mg"},{"bike_id":"f2a88201-ec4d-40e7-856a-1b850d1e932e","system_id":"levelo_inurba_marseille","lat":43.278096,"lon":5.407177,"is_reserved":false,"is_disabled":false,"rental_uris":{"android":"levelo://app?vid=f2a88201-ec4d-40e7-856a-1b850d1e932e","ios":"levelo://app?vid=f2a88201-ec4d-40e7-856a-1b850d1e932e"},"vehicle_type_id":"4","last_reported":1761289868,"current_range_meters":16400,"station_id":"ce4bhnh2rcd13ifvqgtg","pricing_plan_id":"cebpf4jnsgd1na2vs0mg"},{"bike_id":"25f1e229-0697-4b40-b10e-f842a05171cf","system_id":"levelo_inurba_marseille","lat":43.24178,"lon":5.39721,"is_reserved":false,"is_disabled":false,"rental_uris":{"android":"levelo://app?vid=25f1e229-0697-4b40-b10e-f842a05171cf","ios":"levelo://app?vid=25f1e229-0697-4b40-b10e-f842a05171cf"},"vehicle_type_id":"4","last_reported":1761289868,"current_range_meters":16400,"station_id":"ce4bhn12rcd13ifvqgpg","pricing_plan_id":"cebpf4jnsgd1na2vs0mg"},{"bike_id":"f40cdf62-5421-495b-bbf5-3357f87bafd5","system_id":"levelo_inurba_marseille","lat":43.30454,"lon":5.37919,"is_reserved":false,"is_disabled":false,"rental_uris":{"android":"levelo://app?vid=f40cdf62-5421-495b-bbf5-3357f87bafd5","ios":"levelo://app?vid=f40cdf62-5421-495b-bbf5-3357f87bafd5"},"vehicle_type_id":"4","last_reported":1761289868,"current_range_meters":16800,"station_id":"ce4bgup2rcd13ifvqcn0","pricing_plan_id":"cebpf4jnsgd1na2vs0mg"},{"bike_id":"c6cdf754-7dbe-452a-a207-adb17e5767cd","system_id":"levelo_inurba_marseille","lat":43.27305,"lon":5.39086,"is_reserved":false,"is_disabled":false,"rental_uris":{"android":"levelo://app?vid=c6cdf754-7dbe-452a-a207-adb17e5767cd","ios":"levelo://app?vid=c6cdf754-7dbe-452a-a207-adb17e5767cd"},"vehicle_type_id":"4","last_reported":1761289868,"current_range_meters":16800,"station_id":"ce4bhgp2rcd13ifvqfe0","pricing_plan_id":"cebpf4jnsgd1na2vs0mg"},{"bike_id":"bc18986f-720e-4fb1-8991-ac16da488f75","system_id":"levelo_inurba_marseille","lat":43.27926,"lon":5.39592,"is_reserved":false,"is_disabled":false,"rental_uris":{"android":"levelo://app?vid=bc18986f-720e-4fb1-8991-ac16da488f75","ios":"levelo://app?vid=bc18986f-720e-4fb1-8991-ac16da488f75"},"vehicle_type_id":"4","last_reported":1761289868,"current_range_meters":16800,"station_id":"ce4bhf92rcd13ifvqf40","pricing_plan_id":"cebpf4jnsgd1na2vs0mg"},{"bike_id":"8d37e86e-0fcb-4934-9c24-f827e9ccc08f","system_id":"levelo_inurba_marseille","lat":43.23151,"lon":5.43721,"is_reserved":false,"is_disabled":false,"rental_uris":{"android":"levelo://app?vid=8d37e86e-0fcb-4934-9c24-f827e9ccc08f","ios":"levelo://app?vid=8d37e86e-0fcb-4934-9c24-f827e9ccc08f"},"vehicle_type_id":"4","last_reported":1761289868,"current_range_meters":16800,"station_id":"ce4bhmp2rcd13ifvqgog","pricing_plan_id":"cebpf4jnsgd1na2vs0mg"},{"bike_id":"0d330824-8a00-46f7-9607-41f414dd1d8c","system_id":"levelo_inurba_marseille","lat":43.301314,"lon":5.398542,"is_reserved":false,"is_disabled":false,"rental_uris":{"android":"levelo://app?vid=0d330824-8a00-46f7-9607-41f414dd1d8c","ios":"levelo://app?vid=0d330824-8a00-46f7-9607-41f414dd1d8c"},"vehicle_type_id":"4","last_reported":1761289868,"current_range_meters":16800,"station_id":"ce4bh0h2rcd13ifvqd40","pricing_plan_id":"cebpf4jnsgd1na2vs0mg"},{"bike_id":"e4d9d28d-de5d-4eba-b45f-0315c6967297","system_id":"levelo_inurba_marseille","lat":43.25088,"lon":5.3952,"is_reserved":false,"is_disabled":false,"rental_uris":{"android":"levelo://app?vid=e4d9d28d-de5d-4eba-b45f-0315c6967297","ios":"levelo://app?vid=e4d9d28d-de5d-4eba-b45f-0315c6967297"},"vehicle_type_id":"4","last_reported":1761289868,"current_range_meters":16800,"station_id":"ce4bhm12rcd13ifvqgkg","pricing_plan_id":"cebpf4jnsgd1na2vs0mg"},{"bike_id":"49846689-0e6c-4f5a-9811-e66a070d89eb","system_id":"levelo_inurba_marseille","lat":43.283513,"lon":5.381204,"is_reserved":false,"is_disabled":false,"rental_uris":{"android":"levelo://app?vid=49846689-0e6c-4f5a-9811-e66a070d89eb","ios":"levelo://app?vid=49846689-0e6c-4f5a-9811-e66a070d89eb"},"vehicle_type_id":"4","last_reported":1761289868,"current_range_meters":16800,"station_id":"ce4bh412rcd13ifvqdr0","pricing_plan_id":"cebpf4jnsgd1na2vs0mg"},{"bike_id":"51f5c8c2-4020-440f-b660-182f7627d50e","system_id":"levelo_inurba_marseille","lat":43.27062,"lon":5.42274,"is_reserved":false,"is_disabled":false,"rental_uris":{"android":"levelo://app?vid=51f5c8c2-4020-440f-b660-182f7627d50e","ios":"levelo://app?vid=51f5c8c2-4020-440f-b660-182f7627d50e"},"vehicle_type_id":"4","last_reported":1761289868,"current_range_meters":17200,"station_id":"ce4bhk92rcd13ifvqgb0","pricing_plan_id":"cebpf4jnsgd1na2vs0mg"},{"bike_id":"249615da-bae2-4bb3-9506-b338b9fb85b7","system_id":"levelo_inurba_marseille","lat":43.2974,"lon":5.37663,"is_reserved":false,"is_disabled":true,"rental_uris":{"android":"levelo://app?vid=249615da-bae2-4bb3-9506-b338b9fb85b7","ios":"levelo://app?vid=249615da-bae2-4bb3-9506-b338b9fb85b7"},"vehicle_type_id":"4","last_reported":1761289868,"current_range_meters":17200,"station_id":"ce4bgkh2rcd13ifvqbl0","pricing_plan_id":"cebpf4jnsgd1na2vs0mg"},{"bike_id":"4f5c5045-2f2c-4ab7-ad8b-eeba1d52fe66","system_id":"levelo_inurba_marseille","lat":43.31571,"lon":5.37181,"is_reserved":false,"is_disabled":false,"rental_uris":{"android":"levelo://app?vid=4f5c5045-2f2c-4ab7-ad8b-eeba1d52fe66","ios":"levelo://app?vid=4f5c5045-2f2c-4ab7-ad8b-eeba1d52fe66"},"vehicle_type_id":"4","last_reported":1761289868,"current_range_meters":17200,"station_id":"","pricing_plan_id":"cebpf4jnsgd1na2vs0mg"},{"bike_id":"ce6cd538-c766-4c96-b93f-5b786164e4be","system_id":"levelo_inurba_marseille","lat":43.30882,"lon":5.37208,"is_reserved":false,"is_disabled":false,"rental_uris":{"android":"levelo://app?vid=ce6cd538-c766-4c96-b93f-5b786164e4be","ios":"levelo://app?vid=ce6cd538-c766-4c96-b93f-5b786164e4be"},"vehicle_type_id":"4","last_reported":1761289868,"current_range_meters":17200,"station_id":"ce4bguh2rcd13ifvqckg","pricing_plan_id":"cebpf4jnsgd1na2vs0mg"},{"bike_id":"0a2d74eb-71ff-4321-8aec-de4e195a8764","system_id":"levelo_inurba_marseille","lat":43.27678,"lon":5.38869,"is_reserved":false,"is_disabled":false,"rental_uris":{"android":"levelo://app?vid=0a2d74eb-71ff-4321-8aec-de4e195a8764","ios":"levelo://app?vid=0a2d74eb-71ff-4321-8aec-de4e195a8764"},"vehicle_type_id":"4","last_reported":1761289868,"current_range_meters":17200,"station_id":"ce4bhi12rcd13ifvqfo0","pricing_plan_id":"cebpf4jnsgd1na2vs0mg"},{"bike_id":"dde114a4-8805-4784-b02d-0d744116457b","system_id":"levelo_inurba_marseille","lat":43.229361,"lon":5.353847,"is_reserved":false,"is_disabled":false,"rental_uris":{"android":"levelo://app?vid=dde114a4-8805-4784-b02d-0d744116457b","ios":"levelo://app?vid=dde114a4-8805-4784-b02d-0d744116457b"},"vehicle_type_id":"4","last_reported":1761289868,"current_range_meters":17200,"station_id":"cpo3532slgdg3j2ikp40","pricing_plan_id":"cebpf4jnsgd1na2vs0mg"},{"bike_id":"ae8db641-340a-4c4f-bea7-070913a99a74","system_id":"levelo_inurba_marseille","lat":43.28351,"lon":5.38107,"is_reserved":false,"is_disabled":false,"rental_uris":{"android":"levelo://app?vid=ae8db641-340a-4c4f-bea7-070913a99a74","ios":"levelo://app?vid=ae8db641-340a-4c4f-bea7-070913a99a74"},"vehicle_type_id":"4","last_reported":1761289868,"current_range_meters":17200,"station_id":"ce4bh412rcd13ifvqdr0","pricing_plan_id":"cebpf4jnsgd1na2vs0mg"},{"bike_id":"be88eaa4-e674-44f9-9199-3901304dd644","system_id":"levelo_inurba_marseille","lat":43.217603,"lon":5.346001,"is_reserved":false,"is_disabled":false,"rental_uris":{"android":"levelo://app?vid=be88eaa4-e674-44f9-9199-3901304dd644","ios":"levelo://app?vid=be88eaa4-e674-44f9-9199-3901304dd644"},"vehicle_type_id":"4","last_reported":1761289868,"current_range_meters":17600,"station_id":"st_cvj6r9ubvosntc0bgbag","pricing_plan_id":"cebpf4jnsgd1na2vs0mg"},{"bike_id":"d2e06080-1168-4488-9241-88cdcd2dc684","system_id":"levelo_inurba_marseille","lat":43.30358,"lon":5.40758,"is_reserved":false,"is_disabled":false,"rental_uris":{"android":"levelo://app?vid=d2e06080-1168-4488-9241-88cdcd2dc684","ios":"levelo://app?vid=d2e06080-1168-4488-9241-88cdcd2dc684"},"vehicle_type_id":"4","last_reported":1761289868,"current_range_meters":17600,"station_id":"","pricing_plan_id":"cebpf4jnsgd1na2vs0mg"},{"bike_id":"b8c97daa-9d25-46f3-82b1-f49b563fc2e4","system_id":"levelo_inurba_marseille","lat":43.2407,"lon":5.37756,"is_reserved":false,"is_disabled":false,"rental_uris":{"android":"levelo://app?vid=b8c97daa-9d25-46f3-82b1-f49b563fc2e4","ios":"levelo://app?vid=b8c97daa-9d25-46f3-82b1-f49b563fc2e4"},"vehicle_type_id":"4","last_reported":1761289868,"current_range_meters":17600,"station_id":"ce4bhnp2rcd13ifvqgvg","pricing_plan_id":"cebpf4jnsgd1na2vs0mg"},{"bike_id":"a5634054-e15f-4cf0-96e1-47cd1e25fbf4","system_id":"levelo_inurba_marseille","lat":43.32472,"lon":5.36551,"is_reserved":false,"is_disabled":false,"rental_uris":{"android":"levelo://app?vid=a5634054-e15f-4cf0-96e1-47cd1e25fbf4","ios":"levelo://app?vid=a5634054-e15f-4cf0-96e1-47cd1e25fbf4"},"vehicle_type_id":"4","last_reported":1761289868,"current_range_meters":17600,"station_id":"ce4bhs12rcd13ifvqhvg","pricing_plan_id":"cebpf4jnsgd1na2vs0mg"},{"bike_id":"cd6a4b44-42ca-437d-b88d-43457e9c3f32","system_id":"levelo_inurba_marseille","lat":43.27422,"lon":5.39418,"is_reserved":false,"is_disabled":false,"rental_uris":{"android":"levelo://app?vid=cd6a4b44-42ca-437d-b88d-43457e9c3f32","ios":"levelo://app?vid=cd6a4b44-42ca-437d-b88d-43457e9c3f32"},"vehicle_type_id":"4","last_reported":1761289868,"current_range_meters":18000,"station_id":"ce4bhdp2rcd13ifvqf20","pricing_plan_id":"cebpf4jnsgd1na2vs0mg"},{"bike_id":"6bb9dc57-5792-4922-bf25-15b0e5cda6e8","system_id":"levelo_inurba_marseille","lat":43.24068,"lon":5.37751,"is_reserved":false,"is_disabled":false,"rental_uris":{"android":"levelo://app?vid=6bb9dc57-5792-4922-bf25-15b0e5cda6e8","ios":"levelo://app?vid=6bb9dc57-5792-4922-bf25-15b0e5cda6e8"},"vehicle_type_id":"4","last_reported":1761289868,"current_range_meters":18000,"station_id":"ce4bhnp2rcd13ifvqgvg","pricing_plan_id":"cebpf4jnsgd1na2vs0mg"},{"bike_id":"417d2345-c4c6-4ccd-bc5c-2eafc961607b","system_id":"levelo_inurba_marseille","lat":43.2551,"lon":5.37659,"is_reserved":false,"is_disabled":false,"rental_uris":{"android":"levelo://app?vid=417d2345-c4c6-4ccd-bc5c-2eafc961607b","ios":"levelo://app?vid=417d2345-c4c6-4ccd-bc5c-2eafc961607b"},"vehicle_type_id":"4","last_reported":1761289868,"current_range_meters":18000,"station_id":"ce4bhh12rcd13ifvqff0","pricing_plan_id":"cebpf4jnsgd1na2vs0mg"},{"bike_id":"17585014-36d0-4d96-ab97-1812e8c7fbe7","system_id":"levelo_inurba_marseille","lat":43.31667,"lon":5.38241,"is_reserved":false,"is_disabled":false,"rental_uris":{"android":"levelo://app?vid=17585014-36d0-4d96-ab97-1812e8c7fbe7","ios":"levelo://app?vid=17585014-36d0-4d96-ab97-1812e8c7fbe7"},"vehicle_type_id":"4","last_reported":1761289868,"current_range_meters":18000,"station_id":"","pricing_plan_id":"cebpf4jnsgd1na2vs0mg"},{"bike_id":"57b679af-c7e3-4aef-aaf7-dad7584c2820","system_id":"levelo_inurba_marseille","lat":43.255088,"lon":5.376639,"is_reserved":false,"is_disabled":false,"rental_uris":{"android":"levelo://app?vid=57b679af-c7e3-4aef-aaf7-dad7584c2820","ios":"levelo://app?vid=57b679af-c7e3-4aef-aaf7-dad7584c2820"},"vehicle_type_id":"4","last_reported":1761289868,"current_range_meters":18000,"station_id":"ce4bhh12rcd13ifvqff0","pricing_plan_id":"cebpf4jnsgd1na2vs0mg"},{"bike_id":"75eebb0f-2447-4bf8-b846-45b5b359059b","system_id":"levelo_inurba_marseille","lat":43.33769,"lon":5.37496,"is_reserved":false,"is_disabled":false,"rental_uris":{"android":"levelo://app?vid=75eebb0f-2447-4bf8-b846-45b5b359059b","ios":"levelo://app?vid=75eebb0f-2447-4bf8-b846-45b5b359059b"},"vehicle_type_id":"4","last_reported":1761289868,"current_range_meters":18000,"station_id":"","pricing_plan_id":"cebpf4jnsgd1na2vs0mg"},{"bike_id":"a226f85a-9b8d-4151-b0e4-fc44f53407ee","system_id":"levelo_inurba_marseille","lat":43.27068,"lon":5.42276,"is_reserved":false,"is_disabled":false,"rental_uris":{"android":"levelo://app?vid=a226f85a-9b8d-4151-b0e4-fc44f53407ee","ios":"levelo://app?vid=a226f85a-9b8d-4151-b0e4-fc44f53407ee"},"vehicle_type_id":"4","last_reported":1761289868,"current_range_meters":18000,"station_id":"ce4bhk92rcd13ifvqgb0","pricing_plan_id":"cebpf4jnsgd1na2vs0mg"},{"bike_id":"9d964ec4-c537-4f1d-b21c-451d3f46b1bf","system_id":"levelo_inurba_marseille","lat":43.29906,"lon":5.378621,"is_reserved":false,"is_disabled":false,"rental_uris":{"android":"levelo://app?vid=9d964ec4-c537-4f1d-b21c-451d3f46b1bf","ios":"levelo://app?vid=9d964ec4-c537-4f1d-b21c-451d3f46b1bf"},"vehicle_type_id":"4","last_reported":1761289868,"current_range_meters":18000,"station_id":"","pricing_plan_id":"cebpf4jnsgd1na2vs0mg"},{"bike_id":"35288b67-9c46-4e3e-a5bf-942616f8a547","system_id":"levelo_inurba_marseille","lat":43.26788,"lon":5.39405,"is_reserved":false,"is_disabled":false,"rental_uris":{"android":"levelo://app?vid=35288b67-9c46-4e3e-a5bf-942616f8a547","ios":"levelo://app?vid=35288b67-9c46-4e3e-a5bf-942616f8a547"},"vehicle_type_id":"4","last_reported":1761289868,"current_range_meters":18000,"station_id":"ce4bhh12rcd13ifvqfg0","pricing_plan_id":"cebpf4jnsgd1na2vs0mg"},{"bike_id":"bbccd97a-b5b5-487d-8e36-8dd4e2f5d2e7","system_id":"levelo_inurba_marseille","lat":43.3013,"lon":5.37423,"is_reserved":false,"is_disabled":false,"rental_uris":{"android":"levelo://app?vid=bbccd97a-b5b5-487d-8e36-8dd4e2f5d2e7","ios":"levelo://app?vid=bbccd97a-b5b5-487d-8e36-8dd4e2f5d2e7"},"vehicle_type_id":"4","last_reported":1761289868,"current_range_meters":18800,"station_id":"ce4bgs92rcd13ifvqcc0","pricing_plan_id":"cebpf4jnsgd1na2vs0mg"},{"bike_id":"78707707-96f5-430b-b1c6-6c177f9b0d71","system_id":"levelo_inurba_marseille","lat":43.29904,"lon":5.38144,"is_reserved":false,"is_disabled":false,"rental_uris":{"android":"levelo://app?vid=78707707-96f5-430b-b1c6-6c177f9b0d71","ios":"levelo://app?vid=78707707-96f5-430b-b1c6-6c177f9b0d71"},"vehicle_type_id":"4","last_reported":1761289868,"current_range_meters":18800,"station_id":"ce4bgj12rcd13ifvqbc0","pricing_plan_id":"cebpf4jnsgd1na2vs0mg"},{"bike_id":"1cfdeb83-63d6-4830-9bba-ea6d7fafb1cc","system_id":"levelo_inurba_marseille","lat":43.290194,"lon":5.372406,"is_reserved":false,"is_disabled":false,"rental_uris":{"android":"levelo://app?vid=1cfdeb83-63d6-4830-9bba-ea6d7fafb1cc","ios":"levelo://app?vid=1cfdeb83-63d6-4830-9bba-ea6d7fafb1cc"},"vehicle_type_id":"4","last_reported":1761289868,"current_range_meters":18800,"station_id":"ce4bh5p2rcd13ifvqe4g","pricing_plan_id":"cebpf4jnsgd1na2vs0mg"},{"bike_id":"3c313c1b-fb8e-42af-ac57-4a639bfffb1d","system_id":"levelo_inurba_marseille","lat":43.281,"lon":5.37823,"is_reserved":false,"is_disabled":false,"rental_uris":{"android":"levelo://app?vid=3c313c1b-fb8e-42af-ac57-4a639bfffb1d","ios":"levelo://app?vid=3c313c1b-fb8e-42af-ac57-4a639bfffb1d"},"vehicle_type_id":"4","last_reported":1761289868,"current_range_meters":18800,"station_id":"ce4bha12rcd13ifvqee0","pricing_plan_id":"cebpf4jnsgd1na2vs0mg"},{"bike_id":"f403df9f-a552-493f-8a4f-1d5c0b3eb8c7","system_id":"levelo_inurba_marseille","lat":43.259291,"lon":5.408984,"is_reserved":false,"is_disabled":true,"rental_uris":{"android":"levelo://app?vid=f403df9f-a552-493f-8a4f-1d5c0b3eb8c7","ios":"levelo://app?vid=f403df9f-a552-493f-8a4f-1d5c0b3eb8c7"},"vehicle_type_id":"4","last_reported":1761289868,"current_range_meters":19200,"station_id":"ce4bhm92rcd13ifvqglg","pricing_plan_id":"cebpf4jnsgd1na2vs0mg"},{"bike_id":"8d881a98-71e9-421e-9e11-c692cd36b6d1","system_id":"levelo_inurba_marseille","lat":43.27817,"lon":5.40686,"is_reserved":false,"is_disabled":false,"rental_uris":{"android":"levelo://app?vid=8d881a98-71e9-421e-9e11-c692cd36b6d1","ios":"levelo://app?vid=8d881a98-71e9-421e-9e11-c692cd36b6d1"},"vehicle_type_id":"4","last_reported":1761289868,"current_range_meters":19200,"station_id":"ce4bhnh2rcd13ifvqgtg","pricing_plan_id":"cebpf4jnsgd1na2vs0mg"},{"bike_id":"4c94584e-497f-4b1c-b5af-56f3db4eef2d","system_id":"levelo_inurba_marseille","lat":43.29735,"lon":5.3716,"is_reserved":false,"is_disabled":false,"rental_uris":{"android":"levelo://app?vid=4c94584e-497f-4b1c-b5af-56f3db4eef2d","ios":"levelo://app?vid=4c94584e-497f-4b1c-b5af-56f3db4eef2d"},"vehicle_type_id":"4","last_reported":1761289868,"current_range_meters":19200,"station_id":"","pricing_plan_id":"cebpf4jnsgd1na2vs0mg"},{"bike_id":"131e7970-198f-4588-a8ac-346a6793a96e","system_id":"levelo_inurba_marseille","lat":43.317215,"lon":5.423955,"is_reserved":false,"is_disabled":false,"rental_uris":{"android":"levelo://app?vid=131e7970-198f-4588-a8ac-346a6793a96e","ios":"levelo://app?vid=131e7970-198f-4588-a8ac-346a6793a96e"},"vehicle_type_id":"4","last_reported":1761289868,"current_range_meters":19200,"station_id":"ce4bgup2rcd13ifvqcn0","pricing_plan_id":"cebpf4jnsgd1na2vs0mg"},{"bike_id":"1ff5ed0f-2a79-45a2-905f-643edf75a268","system_id":"levelo_inurba_marseille","lat":43.24063,"lon":5.37751,"is_reserved":false,"is_disabled":false,"rental_uris":{"android":"levelo://app?vid=1ff5ed0f-2a79-45a2-905f-643edf75a268","ios":"levelo://app?vid=1ff5ed0f-2a79-45a2-905f-643edf75a268"},"vehicle_type_id":"4","last_reported":1761289868,"current_range_meters":19200,"station_id":"ce4bhnp2rcd13ifvqgvg","pricing_plan_id":"cebpf4jnsgd1na2vs0mg"},{"bike_id":"25c41e3b-519a-40ac-8edd-4141b9ca9f82","system_id":"levelo_inurba_marseille","lat":43.240742,"lon":5.377527,"is_reserved":false,"is_disabled":false,"rental_uris":{"android":"levelo://app?vid=25c41e3b-519a-40ac-8edd-4141b9ca9f82","ios":"levelo://app?vid=25c41e3b-519a-40ac-8edd-4141b9ca9f82"},"vehicle_type_id":"4","last_reported":1761289868,"current_range_meters":19200,"station_id":"ce4bhnp2rcd13ifvqgvg","pricing_plan_id":"cebpf4jnsgd1na2vs0mg"},{"bike_id":"8822fb21-9da4-436c-bcf7-34aa611f618c","system_id":"levelo_inurba_marseille","lat":43.301364,"lon":5.398574,"is_reserved":false,"is_disabled":false,"rental_uris":{"android":"levelo://app?vid=8822fb21-9da4-436c-bcf7-34aa611f618c","ios":"levelo://app?vid=8822fb21-9da4-436c-bcf7-34aa611f618c"},"vehicle_type_id":"4","last_reported":1761289868,"current_range_meters":19600,"station_id":"ce4bh0h2rcd13ifvqd40","pricing_plan_id":"cebpf4jnsgd1na2vs0mg"},{"bike_id":"984fab6f-d464-4307-88c6-9cb9049be542","system_id":"levelo_inurba_marseille","lat":43.291931,"lon":5.357652,"is_reserved":false,"is_disabled":false,"rental_uris":{"android":"levelo://app?vid=984fab6f-d464-4307-88c6-9cb9049be542","ios":"levelo://app?vid=984fab6f-d464-4307-88c6-9cb9049be542"},"vehicle_type_id":"4","last_reported":1761289868,"current_range_meters":19600,"station_id":"ce4bhb12rcd13ifvqel0","pricing_plan_id":"cebpf4jnsgd1na2vs0mg"},{"bike_id":"1e04bd5e-dba9-4c39-b5e3-df33312b1ae1","system_id":"levelo_inurba_marseille","lat":43.270625,"lon":5.383014,"is_reserved":false,"is_disabled":false,"rental_uris":{"android":"levelo://app?vid=1e04bd5e-dba9-4c39-b5e3-df33312b1ae1","ios":"levelo://app?vid=1e04bd5e-dba9-4c39-b5e3-df33312b1ae1"},"vehicle_type_id":"4","last_reported":1761289868,"current_range_meters":19600,"station_id":"st_d3n2fo6cfp8s73cte1j0","pricing_plan_id":"cebpf4jnsgd1na2vs0mg"},{"bike_id":"8171a5ad-10d0-474d-84ea-0457d7a4574e","system_id":"levelo_inurba_marseille","lat":43.2418,"lon":5.3973,"is_reserved":false,"is_disabled":false,"rental_uris":{"android":"levelo://app?vid=8171a5ad-10d0-474d-84ea-0457d7a4574e","ios":"levelo://app?vid=8171a5ad-10d0-474d-84ea-0457d7a4574e"},"vehicle_type_id":"4","last_reported":1761289868,"current_range_meters":19600,"station_id":"ce4bhn12rcd13ifvqgpg","pricing_plan_id":"cebpf4jnsgd1na2vs0mg"},{"bike_id":"9489737c-7c2c-4f83-bc76-e520af4d2990","system_id":"levelo_inurba_marseille","lat":43.32329,"lon":5.38877,"is_reserved":false,"is_disabled":false,"rental_uris":{"android":"levelo://app?vid=9489737c-7c2c-4f83-bc76-e520af4d2990","ios":"levelo://app?vid=9489737c-7c2c-4f83-bc76-e520af4d2990"},"vehicle_type_id":"4","last_reported":1761289868,"current_range_meters":19600,"station_id":"ce4bhqp2rcd13ifvqhog","pricing_plan_id":"cebpf4jnsgd1na2vs0mg"},{"bike_id":"a793255c-7bfb-4ad3-821a-4d5ae433231c","system_id":"levelo_inurba_marseille","lat":43.2678,"lon":5.3941,"is_reserved":false,"is_disabled":false,"rental_uris":{"android":"levelo://app?vid=a793255c-7bfb-4ad3-821a-4d5ae433231c","ios":"levelo://app?vid=a793255c-7bfb-4ad3-821a-4d5ae433231c"},"vehicle_type_id":"4","last_reported":1761289868,"current_range_meters":19600,"station_id":"ce4bhh12rcd13ifvqfg0","pricing_plan_id":"cebpf4jnsgd1na2vs0mg"},{"bike_id":"92d55843-3f2f-4f67-b9fd-cb2d3a3f1823","system_id":"levelo_inurba_marseille","lat":43.240683,"lon":5.37797,"is_reserved":false,"is_disabled":true,"rental_uris":{"android":"levelo://app?vid=92d55843-3f2f-4f67-b9fd-cb2d3a3f1823","ios":"levelo://app?vid=92d55843-3f2f-4f67-b9fd-cb2d3a3f1823"},"vehicle_type_id":"4","last_reported":1761289868,"current_range_meters":19600,"station_id":"ce4bhnp2rcd13ifvqgvg","pricing_plan_id":"cebpf4jnsgd1na2vs0mg"},{"bike_id":"2df364e8-e6a4-4e0c-a3a8-ab9cafde70cd","system_id":"levelo_inurba_marseille","lat":43.27063,"lon":5.40263,"is_reserved":false,"is_disabled":false,"rental_uris":{"android":"levelo://app?vid=2df364e8-e6a4-4e0c-a3a8-ab9cafde70cd","ios":"levelo://app?vid=2df364e8-e6a4-4e0c-a3a8-ab9cafde70cd"},"vehicle_type_id":"4","last_reported":1761289868,"current_range_meters":19600,"station_id":"ce4bhk92rcd13ifvqgc0","pricing_plan_id":"cebpf4jnsgd1na2vs0mg"},{"bike_id":"8e92164c-deff-4fbd-9f4e-43ff81933572","system_id":"levelo_inurba_marseille","lat":43.29837,"lon":5.42022,"is_reserved":false,"is_disabled":false,"rental_uris":{"android":"levelo://app?vid=8e92164c-deff-4fbd-9f4e-43ff81933572","ios":"levelo://app?vid=8e92164c-deff-4fbd-9f4e-43ff81933572"},"vehicle_type_id":"4","last_reported":1761289868,"current_range_meters":19600,"station_id":"","pricing_plan_id":"cebpf4jnsgd1na2vs0mg"},{"bike_id":"f34b1382-6891-4e13-892b-cd84608321c6","system_id":"levelo_inurba_marseille","lat":43.31733,"lon":5.42388,"is_reserved":false,"is_disabled":false,"rental_uris":{"android":"levelo://app?vid=f34b1382-6891-4e13-892b-cd84608321c6","ios":"levelo://app?vid=f34b1382-6891-4e13-892b-cd84608321c6"},"vehicle_type_id":"4","last_reported":1761289868,"current_range_meters":19600,"station_id":"ce4bhp92rcd13ifvqhbg","pricing_plan_id":"cebpf4jnsgd1na2vs0mg"},{"bike_id":"bcae74e3-6b39-45d5-928a-2d2e21f4df91","system_id":"levelo_inurba_marseille","lat":43.24076,"lon":5.37733,"is_reserved":false,"is_disabled":false,"rental_uris":{"android":"levelo://app?vid=bcae74e3-6b39-45d5-928a-2d2e21f4df91","ios":"levelo://app?vid=bcae74e3-6b39-45d5-928a-2d2e21f4df91"},"vehicle_type_id":"4","last_reported":1761289868,"current_range_meters":19600,"station_id":"ce4bhnp2rcd13ifvqgvg","pricing_plan_id":"cebpf4jnsgd1na2vs0mg"},{"bike_id":"bfaea6f8-ccc6-44a7-83a6-9d7d9a7e60cc","system_id":"levelo_inurba_marseille","lat":43.263943,"lon":5.397505,"is_reserved":false,"is_disabled":false,"rental_uris":{"android":"levelo://app?vid=bfaea6f8-ccc6-44a7-83a6-9d7d9a7e60cc","ios":"levelo://app?vid=bfaea6f8-ccc6-44a7-83a6-9d7d9a7e60cc"},"vehicle_type_id":"4","last_reported":1761289868,"current_range_meters":20000,"station_id":"","pricing_plan_id":"cebpf4jnsgd1na2vs0mg"},{"bike_id":"abbf52bc-9bde-4a40-9d12-0ac531182ea6","system_id":"levelo_inurba_marseille","lat":43.240726,"lon":5.377634,"is_reserved":false,"is_disabled":false,"rental_uris":{"android":"levelo://app?vid=abbf52bc-9bde-4a40-9d12-0ac531182ea6","ios":"levelo://app?vid=abbf52bc-9bde-4a40-9d12-0ac531182ea6"},"vehicle_type_id":"4","last_reported":1761289868,"current_range_meters":20000,"station_id":"ce4bhnp2rcd13ifvqgvg","pricing_plan_id":"cebpf4jnsgd1na2vs0mg"},{"bike_id":"f4e0d705-d465-47a5-9a58-6cb32dc695a4","system_id":"levelo_inurba_marseille","lat":43.25891,"lon":5.40898,"is_reserved":false,"is_disabled":false,"rental_uris":{"android":"levelo://app?vid=f4e0d705-d465-47a5-9a58-6cb32dc695a4","ios":"levelo://app?vid=f4e0d705-d465-47a5-9a58-6cb32dc695a4"},"vehicle_type_id":"4","last_reported":1761289868,"current_range_meters":20000,"station_id":"ce4bhm92rcd13ifvqglg","pricing_plan_id":"cebpf4jnsgd1na2vs0mg"},{"bike_id":"b9c8c43d-1621-4310-ac8a-831f9d693fc1","system_id":"levelo_inurba_marseille","lat":43.211923,"lon":5.35083,"is_reserved":false,"is_disabled":true,"rental_uris":{"android":"levelo://app?vid=b9c8c43d-1621-4310-ac8a-831f9d693fc1","ios":"levelo://app?vid=b9c8c43d-1621-4310-ac8a-831f9d693fc1"},"vehicle_type_id":"4","last_reported":1761289868,"current_range_meters":20000,"station_id":"st_cvj6sg6p6f1abm77japg","pricing_plan_id":"cebpf4jnsgd1na2vs0mg"},{"bike_id":"1d91d2c9-29d3-4c7d-a6a8-29c5c39d1cce","system_id":"levelo_inurba_marseille","lat":43.21755,"lon":5.34586,"is_reserved":false,"is_disabled":false,"rental_uris":{"android":"levelo://app?vid=1d91d2c9-29d3-4c7d-a6a8-29c5c39d1cce","ios":"levelo://app?vid=1d91d2c9-29d3-4c7d-a6a8-29c5c39d1cce"},"vehicle_type_id":"4","last_reported":1761289868,"current_range_meters":20000,"station_id":"st_cvj6r9ubvosntc0bgbag","pricing_plan_id":"cebpf4jnsgd1na2vs0mg"},{"bike_id":"0bee0626-b9a8-413e-bed7-d82dc19927df","system_id":"levelo_inurba_marseille","lat":43.31479,"lon":5.37272,"is_reserved":false,"is_disabled":false,"rental_uris":{"android":"levelo://app?vid=0bee0626-b9a8-413e-bed7-d82dc19927df","ios":"levelo://app?vid=0bee0626-b9a8-413e-bed7-d82dc19927df"},"vehicle_type_id":"4","last_reported":1761289868,"current_range_meters":20000,"station_id":"ce4bgt12rcd13ifvqcd0","pricing_plan_id":"cebpf4jnsgd1na2vs0mg"},{"bike_id":"0504ffbe-d73e-4b6f-bd92-9894ef92e0e2","system_id":"levelo_inurba_marseille","lat":43.23782,"lon":5.36632,"is_reserved":false,"is_disabled":false,"rental_uris":{"android":"levelo://app?vid=0504ffbe-d73e-4b6f-bd92-9894ef92e0e2","ios":"levelo://app?vid=0504ffbe-d73e-4b6f-bd92-9894ef92e0e2"},"vehicle_type_id":"4","last_reported":1761289868,"current_range_meters":20000,"station_id":"st_d3nk18o9ro0c73en2l3g","pricing_plan_id":"cebpf4jnsgd1na2vs0mg"},{"bike_id":"4c4fe0a5-47de-4746-ab0e-a35df0320f25","system_id":"levelo_inurba_marseille","lat":43.30879,"lon":5.39639,"is_reserved":false,"is_disabled":false,"rental_uris":{"android":"levelo://app?vid=4c4fe0a5-47de-4746-ab0e-a35df0320f25","ios":"levelo://app?vid=4c4fe0a5-47de-4746-ab0e-a35df0320f25"},"vehicle_type_id":"4","last_reported":1761289868,"current_range_meters":20000,"station_id":"ce4bh012rcd13ifvqcv0","pricing_plan_id":"cebpf4jnsgd1na2vs0mg"},{"bike_id":"75514aab-2791-4756-9ebe-702fdafac63f","system_id":"levelo_inurba_marseille","lat":43.312233,"lon":5.368502,"is_reserved":false,"is_disabled":true,"rental_uris":{"android":"levelo://app?vid=75514aab-2791-4756-9ebe-702fdafac63f","ios":"levelo://app?vid=75514aab-2791-4756-9ebe-702fdafac63f"},"vehicle_type_id":"4","last_reported":1761289868,"current_range_meters":20400,"station_id":"ce4bgl92rcd13ifvqbq0","pricing_plan_id":"cebpf4jnsgd1na2vs0mg"},{"bike_id":"73a84e4b-1dc4-4293-ac07-8c8f95c6e770","system_id":"levelo_inurba_marseille","lat":43.31112,"lon":5.37773,"is_reserved":false,"is_disabled":true,"rental_uris":{"android":"levelo://app?vid=73a84e4b-1dc4-4293-ac07-8c8f95c6e770","ios":"levelo://app?vid=73a84e4b-1dc4-4293-ac07-8c8f95c6e770"},"vehicle_type_id":"4","last_reported":1761289868,"current_range_meters":20400,"station_id":"ce4bgt92rcd13ifvqcg0","pricing_plan_id":"cebpf4jnsgd1na2vs0mg"},{"bike_id":"85b42b4b-997e-4fbf-b50e-714fc05c6d7d","system_id":"levelo_inurba_marseille","lat":43.27763,"lon":5.37602,"is_reserved":false,"is_disabled":false,"rental_uris":{"android":"levelo://app?vid=85b42b4b-997e-4fbf-b50e-714fc05c6d7d","ios":"levelo://app?vid=85b42b4b-997e-4fbf-b50e-714fc05c6d7d"},"vehicle_type_id":"4","last_reported":1761289868,"current_range_meters":20400,"station_id":"","pricing_plan_id":"cebpf4jnsgd1na2vs0mg"},{"bike_id":"85831b0c-ac03-4a31-ad4b-6acd383c62ca","system_id":"levelo_inurba_marseille","lat":43.27733,"lon":5.38894,"is_reserved":false,"is_disabled":false,"rental_uris":{"android":"levelo://app?vid=85831b0c-ac03-4a31-ad4b-6acd383c62ca","ios":"levelo://app?vid=85831b0c-ac03-4a31-ad4b-6acd383c62ca"},"vehicle_type_id":"4","last_reported":1761289868,"current_range_meters":20400,"station_id":"","pricing_plan_id":"cebpf4jnsgd1na2vs0mg"},{"bike_id":"16596cdb-186e-47d8-a3ec-bb6571def4b7","system_id":"levelo_inurba_marseille","lat":43.25922,"lon":5.40882,"is_reserved":false,"is_disabled":false,"rental_uris":{"android":"levelo://app?vid=16596cdb-186e-47d8-a3ec-bb6571def4b7","ios":"levelo://app?vid=16596cdb-186e-47d8-a3ec-bb6571def4b7"},"vehicle_type_id":"4","last_reported":1761289868,"current_range_meters":20400,"station_id":"ce4bhm92rcd13ifvqglg","pricing_plan_id":"cebpf4jnsgd1na2vs0mg"},{"bike_id":"05a41d5b-5136-4a4d-ad6a-882394cf4af1","system_id":"levelo_inurba_marseille","lat":43.279437,"lon":5.4105,"is_reserved":false,"is_disabled":false,"rental_uris":{"android":"levelo://app?vid=05a41d5b-5136-4a4d-ad6a-882394cf4af1","ios":"levelo://app?vid=05a41d5b-5136-4a4d-ad6a-882394cf4af1"},"vehicle_type_id":"4","last_reported":1761289868,"current_range_meters":20400,"station_id":"ce4bhnp2rcd13ifvqh0g","pricing_plan_id":"cebpf4jnsgd1na2vs0mg"},{"bike_id":"dd37467e-bc57-4410-8097-ef79f298d925","system_id":"levelo_inurba_marseille","lat":43.28361,"lon":5.38628,"is_reserved":false,"is_disabled":false,"rental_uris":{"android":"levelo://app?vid=dd37467e-bc57-4410-8097-ef79f298d925","ios":"levelo://app?vid=dd37467e-bc57-4410-8097-ef79f298d925"},"vehicle_type_id":"4","last_reported":1761289868,"current_range_meters":20400,"station_id":"ce4bh492rcd13ifvqdvg","pricing_plan_id":"cebpf4jnsgd1na2vs0mg"},{"bike_id":"eec197c3-9146-4942-bfc2-b26b699ad249","system_id":"levelo_inurba_marseille","lat":43.27947,"lon":5.41054,"is_reserved":false,"is_disabled":false,"rental_uris":{"android":"levelo://app?vid=eec197c3-9146-4942-bfc2-b26b699ad249","ios":"levelo://app?vid=eec197c3-9146-4942-bfc2-b26b699ad249"},"vehicle_type_id":"4","last_reported":1761289868,"current_range_meters":20400,"station_id":"ce4bhnp2rcd13ifvqh0g","pricing_plan_id":"cebpf4jnsgd1na2vs0mg"},{"bike_id":"ba9a9429-bfde-4653-87f1-2b95b92f5e70","system_id":"levelo_inurba_marseille","lat":43.28547,"lon":5.44109,"is_reserved":false,"is_disabled":false,"rental_uris":{"android":"levelo://app?vid=ba9a9429-bfde-4653-87f1-2b95b92f5e70","ios":"levelo://app?vid=ba9a9429-bfde-4653-87f1-2b95b92f5e70"},"vehicle_type_id":"4","last_reported":1761289868,"current_range_meters":20800,"station_id":"st_d3j3df2ikq2c7380ej80","pricing_plan_id":"cebpf4jnsgd1na2vs0mg"},{"bike_id":"b2e20cd2-c54c-4e77-b03f-069ffaf8b17b","system_id":"levelo_inurba_marseille","lat":43.21736,"lon":5.34638,"is_reserved":false,"is_disabled":false,"rental_uris":{"android":"levelo://app?vid=b2e20cd2-c54c-4e77-b03f-069ffaf8b17b","ios":"levelo://app?vid=b2e20cd2-c54c-4e77-b03f-069ffaf8b17b"},"vehicle_type_id":"4","last_reported":1761289868,"current_range_meters":20800,"station_id":"st_cvj6r9ubvosntc0bgbag","pricing_plan_id":"cebpf4jnsgd1na2vs0mg"},{"bike_id":"c663a058-708f-4f1e-9e16-18273f072101","system_id":"levelo_inurba_marseille","lat":43.23146,"lon":5.43699,"is_reserved":false,"is_disabled":false,"rental_uris":{"android":"levelo://app?vid=c663a058-708f-4f1e-9e16-18273f072101","ios":"levelo://app?vid=c663a058-708f-4f1e-9e16-18273f072101"},"vehicle_type_id":"4","last_reported":1761289868,"current_range_meters":20800,"station_id":"ce4bhmp2rcd13ifvqgog","pricing_plan_id":"cebpf4jnsgd1na2vs0mg"},{"bike_id":"5456c15f-5cf3-459e-bbb4-4f377423dcc1","system_id":"levelo_inurba_marseille","lat":43.285027,"lon":5.401656,"is_reserved":false,"is_disabled":false,"rental_uris":{"android":"levelo://app?vid=5456c15f-5cf3-459e-bbb4-4f377423dcc1","ios":"levelo://app?vid=5456c15f-5cf3-459e-bbb4-4f377423dcc1"},"vehicle_type_id":"4","last_reported":1761289868,"current_range_meters":20800,"station_id":"ce4bhip2rcd13ifvqft0","pricing_plan_id":"cebpf4jnsgd1na2vs0mg"},{"bike_id":"ee033b22-31da-48a8-88d3-8b8e42a29a72","system_id":"levelo_inurba_marseille","lat":43.286255,"lon":5.351007,"is_reserved":false,"is_disabled":false,"rental_uris":{"android":"levelo://app?vid=ee033b22-31da-48a8-88d3-8b8e42a29a72","ios":"levelo://app?vid=ee033b22-31da-48a8-88d3-8b8e42a29a72"},"vehicle_type_id":"4","last_reported":1761289868,"current_range_meters":20800,"station_id":"ce4bhch2rcd13ifvqeug","pricing_plan_id":"cebpf4jnsgd1na2vs0mg"},{"bike_id":"33d7176a-a540-4a30-bacc-9edbb6fc1dce","system_id":"levelo_inurba_marseille","lat":43.24637,"lon":5.43133,"is_reserved":false,"is_disabled":false,"rental_uris":{"android":"levelo://app?vid=33d7176a-a540-4a30-bacc-9edbb6fc1dce","ios":"levelo://app?vid=33d7176a-a540-4a30-bacc-9edbb6fc1dce"},"vehicle_type_id":"4","last_reported":1761289868,"current_range_meters":20800,"station_id":"st_d2m6c4gdas8pm72e190g","pricing_plan_id":"cebpf4jnsgd1na2vs0mg"},{"bike_id":"582b6ec3-4b20-4cda-bd35-6938f2813cc8","system_id":"levelo_inurba_marseille","lat":43.25719,"lon":5.41105,"is_reserved":false,"is_disabled":false,"rental_uris":{"android":"levelo://app?vid=582b6ec3-4b20-4cda-bd35-6938f2813cc8","ios":"levelo://app?vid=582b6ec3-4b20-4cda-bd35-6938f2813cc8"},"vehicle_type_id":"4","last_reported":1761289868,"current_range_meters":21600,"station_id":"ce4bhkp2rcd13ifvqgd0","pricing_plan_id":"cebpf4jnsgd1na2vs0mg"},{"bike_id":"f998ead8-7f8c-4a25-804e-d22e24cc9cbb","system_id":"levelo_inurba_marseille","lat":43.29261,"lon":5.38433,"is_reserved":false,"is_disabled":true,"rental_uris":{"android":"levelo://app?vid=f998ead8-7f8c-4a25-804e-d22e24cc9cbb","ios":"levelo://app?vid=f998ead8-7f8c-4a25-804e-d22e24cc9cbb"},"vehicle_type_id":"4","last_reported":1761289868,"current_range_meters":21600,"station_id":"ce4bh692rcd13ifvqea0","pricing_plan_id":"cebpf4jnsgd1na2vs0mg"},{"bike_id":"f704407b-98b7-4b40-89ee-ccb08dd94226","system_id":"levelo_inurba_marseille","lat":43.3045,"lon":5.37913,"is_reserved":false,"is_disabled":false,"rental_uris":{"android":"levelo://app?vid=f704407b-98b7-4b40-89ee-ccb08dd94226","ios":"levelo://app?vid=f704407b-98b7-4b40-89ee-ccb08dd94226"},"vehicle_type_id":"4","last_reported":1761289868,"current_range_meters":21600,"station_id":"ce4bgup2rcd13ifvqcn0","pricing_plan_id":"cebpf4jnsgd1na2vs0mg"},{"bike_id":"4a662808-6cb4-4a78-b3cd-d25a748851a1","system_id":"levelo_inurba_marseille","lat":43.32482,"lon":5.36556,"is_reserved":false,"is_disabled":false,"rental_uris":{"android":"levelo://app?vid=4a662808-6cb4-4a78-b3cd-d25a748851a1","ios":"levelo://app?vid=4a662808-6cb4-4a78-b3cd-d25a748851a1"},"vehicle_type_id":"4","last_reported":1761289868,"current_range_meters":21600,"station_id":"ce4bhs12rcd13ifvqhvg","pricing_plan_id":"cebpf4jnsgd1na2vs0mg"},{"bike_id":"8c35a7e4-8378-4fdf-b42f-02e88b6199ca","system_id":"levelo_inurba_marseille","lat":43.32106,"lon":5.36764,"is_reserved":false,"is_disabled":false,"rental_uris":{"android":"levelo://app?vid=8c35a7e4-8378-4fdf-b42f-02e88b6199ca","ios":"levelo://app?vid=8c35a7e4-8378-4fdf-b42f-02e88b6199ca"},"vehicle_type_id":"4","last_reported":1761289868,"current_range_meters":21600,"station_id":"ce4bhrh2rcd13ifvqhug","pricing_plan_id":"cebpf4jnsgd1na2vs0mg"},{"bike_id":"d751fcc3-94e2-42e3-ac27-b72ef2a2fc91","system_id":"levelo_inurba_marseille","lat":43.259382,"lon":5.409021,"is_reserved":false,"is_disabled":false,"rental_uris":{"android":"levelo://app?vid=d751fcc3-94e2-42e3-ac27-b72ef2a2fc91","ios":"levelo://app?vid=d751fcc3-94e2-42e3-ac27-b72ef2a2fc91"},"vehicle_type_id":"4","last_reported":1761289868,"current_range_meters":22000,"station_id":"ce4bhm92rcd13ifvqglg","pricing_plan_id":"cebpf4jnsgd1na2vs0mg"},{"bike_id":"dab36927-4328-48fa-bffb-145a737de07e","system_id":"levelo_inurba_marseille","lat":43.30792,"lon":5.43535,"is_reserved":false,"is_disabled":true,"rental_uris":{"android":"levelo://app?vid=dab36927-4328-48fa-bffb-145a737de07e","ios":"levelo://app?vid=dab36927-4328-48fa-bffb-145a737de07e"},"vehicle_type_id":"4","last_reported":1761289868,"current_range_meters":22000,"station_id":"ce4bhph2rcd13ifvqheg","pricing_plan_id":"cebpf4jnsgd1na2vs0mg"},{"bike_id":"7b780362-b3ee-434c-9c61-9d1a307e3f56","system_id":"levelo_inurba_marseille","lat":43.287074,"lon":5.373785,"is_reserved":false,"is_disabled":false,"rental_uris":{"android":"levelo://app?vid=7b780362-b3ee-434c-9c61-9d1a307e3f56","ios":"levelo://app?vid=7b780362-b3ee-434c-9c61-9d1a307e3f56"},"vehicle_type_id":"4","last_reported":1761289868,"current_range_meters":22000,"station_id":"","pricing_plan_id":"cebpf4jnsgd1na2vs0mg"},{"bike_id":"36ef565d-595c-4fe5-832e-9069968fcd08","system_id":"levelo_inurba_marseille","lat":43.325347,"lon":5.414504,"is_reserved":false,"is_disabled":true,"rental_uris":{"android":"levelo://app?vid=36ef565d-595c-4fe5-832e-9069968fcd08","ios":"levelo://app?vid=36ef565d-595c-4fe5-832e-9069968fcd08"},"vehicle_type_id":"4","last_reported":1761289868,"current_range_meters":22000,"station_id":"ce4bhq12rcd13ifvqhhg","pricing_plan_id":"cebpf4jnsgd1na2vs0mg"},{"bike_id":"73069b31-82a2-4124-9498-419aeff86536","system_id":"levelo_inurba_marseille","lat":43.2572,"lon":5.41089,"is_reserved":false,"is_disabled":false,"rental_uris":{"android":"levelo://app?vid=73069b31-82a2-4124-9498-419aeff86536","ios":"levelo://app?vid=73069b31-82a2-4124-9498-419aeff86536"},"vehicle_type_id":"4","last_reported":1761289868,"current_range_meters":22000,"station_id":"ce4bhkp2rcd13ifvqgd0","pricing_plan_id":"cebpf4jnsgd1na2vs0mg"},{"bike_id":"6e1ebdbe-4b99-4321-ba2b-1ad13093fa44","system_id":"levelo_inurba_marseille","lat":43.27058,"lon":5.40254,"is_reserved":false,"is_disabled":false,"rental_uris":{"android":"levelo://app?vid=6e1ebdbe-4b99-4321-ba2b-1ad13093fa44","ios":"levelo://app?vid=6e1ebdbe-4b99-4321-ba2b-1ad13093fa44"},"vehicle_type_id":"4","last_reported":1761289868,"current_range_meters":22000,"station_id":"ce4bhk92rcd13ifvqgc0","pricing_plan_id":"cebpf4jnsgd1na2vs0mg"},{"bike_id":"4b336ac8-f146-4ba2-b0c6-7f5de28835f3","system_id":"levelo_inurba_marseille","lat":43.27936,"lon":5.41047,"is_reserved":false,"is_disabled":false,"rental_uris":{"android":"levelo://app?vid=4b336ac8-f146-4ba2-b0c6-7f5de28835f3","ios":"levelo://app?vid=4b336ac8-f146-4ba2-b0c6-7f5de28835f3"},"vehicle_type_id":"4","last_reported":1761289868,"current_range_meters":22000,"station_id":"ce4bhnp2rcd13ifvqh0g","pricing_plan_id":"cebpf4jnsgd1na2vs0mg"},{"bike_id":"2e88e133-3eb5-4e5b-b44a-7ba8d339eff6","system_id":"levelo_inurba_marseille","lat":43.31362,"lon":5.36694,"is_reserved":false,"is_disabled":false,"rental_uris":{"android":"levelo://app?vid=2e88e133-3eb5-4e5b-b44a-7ba8d339eff6","ios":"levelo://app?vid=2e88e133-3eb5-4e5b-b44a-7ba8d339eff6"},"vehicle_type_id":"4","last_reported":1761289868,"current_range_meters":22000,"station_id":"ce4bgr92rcd13ifvqc6g","pricing_plan_id":"cebpf4jnsgd1na2vs0mg"},{"bike_id":"b87254dc-3ddd-4ae4-83db-5dd207656098","system_id":"levelo_inurba_marseille","lat":43.2991,"lon":5.41025,"is_reserved":false,"is_disabled":true,"rental_uris":{"android":"levelo://app?vid=b87254dc-3ddd-4ae4-83db-5dd207656098","ios":"levelo://app?vid=b87254dc-3ddd-4ae4-83db-5dd207656098"},"vehicle_type_id":"4","last_reported":1761289868,"current_range_meters":22000,"station_id":"","pricing_plan_id":"cebpf4jnsgd1na2vs0mg"},{"bike_id":"9dde16d9-b76f-4bc7-8122-96de160903fa","system_id":"levelo_inurba_marseille","lat":43.285255,"lon":5.440993,"is_reserved":false,"is_disabled":false,"rental_uris":{"android":"levelo://app?vid=9dde16d9-b76f-4bc7-8122-96de160903fa","ios":"levelo://app?vid=9dde16d9-b76f-4bc7-8122-96de160903fa"},"vehicle_type_id":"4","last_reported":1761289868,"current_range_meters":22000,"station_id":"st_d3j3df2ikq2c7380ej80","pricing_plan_id":"cebpf4jnsgd1na2vs0mg"},{"bike_id":"4bf2aad4-ba18-40e9-8644-4c26e7f4069f","system_id":"levelo_inurba_marseille","lat":43.29214,"lon":5.36062,"is_reserved":false,"is_disabled":false,"rental_uris":{"android":"levelo://app?vid=4bf2aad4-ba18-40e9-8644-4c26e7f4069f","ios":"levelo://app?vid=4bf2aad4-ba18-40e9-8644-4c26e7f4069f"},"vehicle_type_id":"4","last_reported":1761289868,"current_range_meters":22400,"station_id":"ce4bhbh2rcd13ifvqeqg","pricing_plan_id":"cebpf4jnsgd1na2vs0mg"},{"bike_id":"8414ae98-3227-49d8-afd8-5cd478e67b11","system_id":"levelo_inurba_marseille","lat":43.240801,"lon":5.377191,"is_reserved":false,"is_disabled":false,"rental_uris":{"android":"levelo://app?vid=8414ae98-3227-49d8-afd8-5cd478e67b11","ios":"levelo://app?vid=8414ae98-3227-49d8-afd8-5cd478e67b11"},"vehicle_type_id":"4","last_reported":1761289868,"current_range_meters":22400,"station_id":"ce4bhnp2rcd13ifvqgvg","pricing_plan_id":"cebpf4jnsgd1na2vs0mg"},{"bike_id":"62f0a2f8-d352-4580-a096-e8ce56ffccdb","system_id":"levelo_inurba_marseille","lat":43.32111,"lon":5.36746,"is_reserved":false,"is_disabled":false,"rental_uris":{"android":"levelo://app?vid=62f0a2f8-d352-4580-a096-e8ce56ffccdb","ios":"levelo://app?vid=62f0a2f8-d352-4580-a096-e8ce56ffccdb"},"vehicle_type_id":"4","last_reported":1761289868,"current_range_meters":22400,"station_id":"ce4bhrh2rcd13ifvqhug","pricing_plan_id":"cebpf4jnsgd1na2vs0mg"},{"bike_id":"a48b489a-127e-4aab-97a2-25cf37e655c9","system_id":"levelo_inurba_marseille","lat":43.309476,"lon":5.402796,"is_reserved":false,"is_disabled":false,"rental_uris":{"android":"levelo://app?vid=a48b489a-127e-4aab-97a2-25cf37e655c9","ios":"levelo://app?vid=a48b489a-127e-4aab-97a2-25cf37e655c9"},"vehicle_type_id":"4","last_reported":1761289868,"current_range_meters":22400,"station_id":"","pricing_plan_id":"cebpf4jnsgd1na2vs0mg"},{"bike_id":"82fb7914-9947-47a9-b12a-9a618d48de9d","system_id":"levelo_inurba_marseille","lat":43.28974,"lon":5.37836,"is_reserved":false,"is_disabled":false,"rental_uris":{"android":"levelo://app?vid=82fb7914-9947-47a9-b12a-9a618d48de9d","ios":"levelo://app?vid=82fb7914-9947-47a9-b12a-9a618d48de9d"},"vehicle_type_id":"4","last_reported":1761289868,"current_range_meters":22400,"station_id":"ce4bh9p2rcd13ifvqed0","pricing_plan_id":"cebpf4jnsgd1na2vs0mg"},