{"last_updated":1744384230,"ttl":60,"version":"2.2","data":{"bikes":[{"bike_id":"751dcc67-e5d3-48be-89a5-21608cdc1d80","system_id":"levelo_inurba_marseille","lat":43.29618,"lon":5.37154,"is_reserved":false,"is_disabled":false,"rental_uris":{"android":"levelo://app?vid=751dcc67-e5d3-48be-89a5-21608cdc1d80","ios":"levelo://app?vid=751dcc67-e5d3-48be-89a5-21608cdc1d80"},"vehicle_type_id":"4","last_reported":1744384230,"current_range_meters":2800,"station_id":"ce4bgnh2rcd13ifvqc0g","pricing_plan_id":"cebpf4jnsgd1na2vs0mg"},{"bike_id":"6306d331-a1b1-4905-b1a3-6a68ad24795d","system_id":"levelo_inurba_marseille","lat":43.26589,"lon":5.39027,"is_reserved":false,"is_disabled":false,"rental_uris":{"android":"levelo://app?vid=6306d331-a1b1-4905-b1a3-6a68ad24795d","ios":"levelo://app?vid=6306d331-a1b1-4905-b1a3-6a68ad24795d"},"vehicle_type_id":"4","last_reported":1744384230,"current_range_meters":2800,"station_id":"ce4bhe12rcd13ifvqf30","pricing_plan_id":"cebpf4jnsgd1na2vs0mg"},{"bike_id":"a0ada95d-334f-42cd-bfdb-7a5b632c3f0f","system_id":"levelo_inurba_marseille","lat":43.24389,"lon":5.37051,"is_reserved":false,"is_disabled":false,"rental_uris":{"android":"levelo://app?vid=a0ada95d-334f-42cd-bfdb-7a5b632c3f0f","ios":"levelo://app?vid=a0ada95d-334f-42cd-bfdb-7a5b632c3f0f"},"vehicle_type_id":"4","last_reported":1744384230,"current_range_meters":2800,"station_id":"ce4bhhh2rcd13ifvqfk0","pricing_plan_id":"cebpf4jnsgd1na2vs0mg"},{"bike_id":"3cc81d4e-a94e-4aaa-a74b-4e92eab78f8e","system_id":"levelo_inurba_marseille","lat":43.28153,"lon":5.42635,"is_reserved":false,"is_disabled":false,"rental_uris":{"android":"levelo://app?vid=3cc81d4e-a94e-4aaa-a74b-4e92eab78f8e","ios":"levelo://app?vid=3cc81d4e-a94e-4aaa-a74b-4e92eab78f8e"},"vehicle_type_id":"4","last_reported":1744384230,"current_range_meters":2800,"station_id":"ce4bhnh2rcd13ifvqgug","pricing_plan_id":"cebpf4jnsgd1na2vs0mg"},{"bike_id":"6389dc8c-7f24-40d2-a09f-ac7a58c5a150","system_id":"levelo_inurba_marseille","lat":43.32053,"lon":5.41537,"is_reserved":false,"is_disabled":false,"rental_uris":{"android":"levelo://app?vid=6389dc8c-7f24-40d2-a09f-ac7a58c5a150","ios":"levelo://app?vid=6389dc8c-7f24-40d2-a09f-ac7a58c5a150"},"vehicle_type_id":"4","last_reported":1744384230,"current_range_meters":3200,"station_id":"ce4bhq92rcd13ifvqhkg","pricing_plan_id":"cebpf4jnsgd1na2vs0mg"},{"bike_id":"8ca69353-5729-42d4-92a6-12c8a3f6f9d6","system_id":"levelo_inurba_marseille","lat":43.289077,"lon":5.384303,"is_reserved":false,"is_disabled":false,"rental_uris":{"android":"levelo://app?vid=8ca69353-5729-42d4-92a6-12c8a3f6f9d6","ios":"levelo://app?vid=8ca69353-5729-42d4-92a6-12c8a3f6f9d6"},"vehicle_type_id":"4","last_reported":1744384230,"current_range_meters":3200,"station_id":"ce4bh612rcd13ifvqe6g","pricing_plan_id":"cebpf4jnsgd1na2vs0mg"},{"bike_id":"66a4d3ef-cf17-4ea4-b09f-6df2cb2ddfb5","system_id":"levelo_inurba_marseille","lat":43.25504,"lon":5.37649,"is_reserved":false,"is_disabled":false,"rental_uris":{"android":"levelo://app?vid=66a4d3ef-cf17-4ea4-b09f-6df2cb2ddfb5","ios":"levelo://app?vid=66a4d3ef-cf17-4ea4-b09f-6df2cb2ddfb5"},"vehicle_type_id":"4","last_reported":1744384230,"current_range_meters":3200,"station_id":"ce4bhh12rcd13ifvqff0","pricing_plan_id":"cebpf4jnsgd1na2vs0mg"},{"bike_id":"9f23231b-c75b-4ba2-b41f-d9e7d5c33bfb","system_id":"levelo_inurba_marseille","lat":43.31231,"lon":5.36876,"is_reserved":false,"is_disabled":false,"rental_uris":{"android":"levelo://app?vid=9f23231b-c75b-4ba2-b41f-d9e7d5c33bfb","ios":"levelo://app?vid=9f23231b-c75b-4ba2-b41f-d9e7d5c33bfb"},"vehicle_type_id":"4","last_reported":1744384230,"current_range_meters":3600,"station_id":"ce4bgl92rcd13ifvqbq0","pricing_plan_id":"cebpf4jnsgd1na2vs0mg"},{"bike_id":"07d7c308-d2be-44ca-9458-62a4604653a6","system_id":"levelo_inurba_marseille","lat":43.30609,"lon":5.37234,"is_reserved":false,"is_disabled":false,"rental_uris":{"android":"levelo://app?vid=07d7c308-d2be-44ca-9458-62a4604653a6","ios":"levelo://app?vid=07d7c308-d2be-44ca-9458-62a4604653a6"},"vehicle_type_id":"4","last_reported":1744384230,"current_range_meters":3600,"station_id":"ce4bgqh2rcd13ifvqc4g","pricing_plan_id":"cebpf4jnsgd1na2vs0mg"},{"bike_id":"57549d1c-8b8d-4e91-9c91-6be8ccc4deff","system_id":"levelo_inurba_marseille","lat":43.29184,"lon":5.35792,"is_reserved":false,"is_disabled":false,"rental_uris":{"android":"levelo://app?vid=57549d1c-8b8d-4e91-9c91-6be8ccc4deff","ios":"levelo://app?vid=57549d1c-8b8d-4e91-9c91-6be8ccc4deff"},"vehicle_type_id":"4","last_reported":1744384230,"current_range_meters":3600,"station_id":"ce4bhb12rcd13ifvqel0","pricing_plan_id":"cebpf4jnsgd1na2vs0mg"},{"bike_id":"6fa53e1a-613b-49e1-be67-632e2f65e6fb","system_id":"levelo_inurba_marseille","lat":43.28272,"lon":5.35074,"is_reserved":false,"is_disabled":true,"rental_uris":{"android":"levelo://app?vid=6fa53e1a-613b-49e1-be67-632e2f65e6fb","ios":"levelo://app?vid=6fa53e1a-613b-49e1-be67-632e2f65e6fb"},"vehicle_type_id":"4","last_reported":1744384230,"current_range_meters":3600,"station_id":"ce4bhbp2rcd13ifvqerg","pricing_plan_id":"cebpf4jnsgd1na2vs0mg"},{"bike_id":"83c132b1-a954-4d5a-a32d-9f99af4faa3c","system_id":"levelo_inurba_marseille","lat":43.30925,"lon":5.41522,"is_reserved":false,"is_disabled":false,"rental_uris":{"android":"levelo://app?vid=83c132b1-a954-4d5a-a32d-9f99af4faa3c","ios":"levelo://app?vid=83c132b1-a954-4d5a-a32d-9f99af4faa3c"},"vehicle_type_id":"4","last_reported":1744384230,"current_range_meters":4000,"station_id":"","pricing_plan_id":"cebpf4jnsgd1na2vs0mg"},{"bike_id":"68252946-e722-4d14-9c8e-f78cdd8a2f02","system_id":"levelo_inurba_marseille","lat":43.2836,"lon":5.38628,"is_reserved":false,"is_disabled":false,"rental_uris":{"android":"levelo://app?vid=68252946-e722-4d14-9c8e-f78cdd8a2f02","ios":"levelo://app?vid=68252946-e722-4d14-9c8e-f78cdd8a2f02"},"vehicle_type_id":"4","last_reported":1744384230,"current_range_meters":4000,"station_id":"ce4bh492rcd13ifvqdvg","pricing_plan_id":"cebpf4jnsgd1na2vs0mg"},{"bike_id":"d658abe9-f0f7-4ad0-8f9b-9a062264917a","system_id":"levelo_inurba_marseille","lat":43.26205,"lon":5.3793,"is_reserved":false,"is_disabled":false,"rental_uris":{"android":"levelo://app?vid=d658abe9-f0f7-4ad0-8f9b-9a062264917a","ios":"levelo://app?vid=d658abe9-f0f7-4ad0-8f9b-9a062264917a"},"vehicle_type_id":"4","last_reported":1744384230,"current_range_meters":3600,"station_id":"ce4bhjp2rcd13ifvqg90","pricing_plan_id":"cebpf4jnsgd1na2vs0mg"},{"bike_id":"5391631f-0854-42a6-994f-45c4f2426110","system_id":"levelo_inurba_marseille","lat":43.30143,"lon":5.37404,"is_reserved":false,"is_disabled":false,"rental_uris":{"android":"levelo://app?vid=5391631f-0854-42a6-994f-45c4f2426110","ios":"levelo://app?vid=5391631f-0854-42a6-994f-45c4f2426110"},"vehicle_type_id":"4","last_reported":1744384230,"current_range_meters":4000,"station_id":"ce4bgs92rcd13ifvqcc0","pricing_plan_id":"cebpf4jnsgd1na2vs0mg"},{"bike_id":"dd9e4b33-3724-4ca7-8c7b-0dde35ee4aee","system_id":"levelo_inurba_marseille","lat":43.2841,"lon":5.34988,"is_reserved":false,"is_disabled":false,"rental_uris":{"android":"levelo://app?vid=dd9e4b33-3724-4ca7-8c7b-0dde35ee4aee","ios":"levelo://app?vid=dd9e4b33-3724-4ca7-8c7b-0dde35ee4aee"},"vehicle_type_id":"4","last_reported":1744384230,"current_range_meters":4000,"station_id":"ce4bhbh2rcd13ifvqepg","pricing_plan_id":"cebpf4jnsgd1na2vs0mg"},{"bike_id":"0ef800cd-ad27-4f48-a800-e31d5aa972ef","system_id":"levelo_inurba_marseille","lat":43.24662,"lon":5.38164,"is_reserved":false,"is_disabled":false,"rental_uris":{"android":"levelo://app?vid=0ef800cd-ad27-4f48-a800-e31d5aa972ef","ios":"levelo://app?vid=0ef800cd-ad27-4f48-a800-e31d5aa972ef"},"vehicle_type_id":"4","last_reported":1744384230,"current_range_meters":3200,"station_id":"ce4bhih2rcd13ifvqfr0","pricing_plan_id":"cebpf4jnsgd1na2vs0mg"},{"bike_id":"8876bb6f-718b-4e2b-a641-425e19acc0fc","system_id":"levelo_inurba_marseille","lat":43.27366,"lon":5.42196,"is_reserved":false,"is_disabled":false,"rental_uris":{"android":"levelo://app?vid=8876bb6f-718b-4e2b-a641-425e19acc0fc","ios":"levelo://app?vid=8876bb6f-718b-4e2b-a641-425e19acc0fc"},"vehicle_type_id":"4","last_reported":1744384230,"current_range_meters":4000,"station_id":"","pricing_plan_id":"cebpf4jnsgd1na2vs0mg"},{"bike_id":"00328dcf-bfa7-4873-ac43-f6cff1319bf6","system_id":"levelo_inurba_marseille","lat":43.30653,"lon":5.40098,"is_reserved":false,"is_disabled":false,"rental_uris":{"android":"levelo://app?vid=00328dcf-bfa7-4873-ac43-f6cff1319bf6","ios":"levelo://app?vid=00328dcf-bfa7-4873-ac43-f6cff1319bf6"},"vehicle_type_id":"4","last_reported":1744384230,"current_range_meters":4400,"station_id":"ce4bh112rcd13ifvqda0","pricing_plan_id":"cebpf4jnsgd1na2vs0mg"},{"bike_id":"b9d44a70-f6c9-415b-b359-6117eaa848f9","system_id":"levelo_inurba_marseille","lat":43.28479,"lon":5.38426,"is_reserved":false,"is_disabled":false,"rental_uris":{"android":"levelo://app?vid=b9d44a70-f6c9-415b-b359-6117eaa848f9","ios":"levelo://app?vid=b9d44a70-f6c9-415b-b359-6117eaa848f9"},"vehicle_type_id":"4","last_reported":1744384230,"current_range_meters":4400,"station_id":"ce4bh512rcd13ifvqe3g","pricing_plan_id":"cebpf4jnsgd1na2vs0mg"},{"bike_id":"e4dd2cd5-ee4e-442a-ae66-ce9576e0565b","system_id":"levelo_inurba_marseille","lat":43.28343,"lon":5.38112,"is_reserved":false,"is_disabled":false,"rental_uris":{"android":"levelo://app?vid=e4dd2cd5-ee4e-442a-ae66-ce9576e0565b","ios":"levelo://app?vid=e4dd2cd5-ee4e-442a-ae66-ce9576e0565b"},"vehicle_type_id":"4","last_reported":1744384230,"current_range_meters":4400,"station_id":"ce4bh412rcd13ifvqdr0","pricing_plan_id":"cebpf4jnsgd1na2vs0mg"},{"bike_id":"df5f238a-cbd4-41ae-a1fd-2e5356c0e351","system_id":"levelo_inurba_marseille","lat":43.28945,"lon":5.36637,"is_reserved":false,"is_disabled":false,"rental_uris":{"android":"levelo://app?vid=df5f238a-cbd4-41ae-a1fd-2e5356c0e351","ios":"levelo://app?vid=df5f238a-cbd4-41ae-a1fd-2e5356c0e351"},"vehicle_type_id":"4","last_reported":1744384230,"current_range_meters":4400,"station_id":"ce4bhap2rcd13ifvqek0","pricing_plan_id":"cebpf4jnsgd1na2vs0mg"},{"bike_id":"a5af280e-39f3-480e-be67-f85ef9da5e55","system_id":"levelo_inurba_marseille","lat":43.27071,"lon":5.42284,"is_reserved":false,"is_disabled":false,"rental_uris":{"android":"levelo://app?vid=a5af280e-39f3-480e-be67-f85ef9da5e55","ios":"levelo://app?vid=a5af280e-39f3-480e-be67-f85ef9da5e55"},"vehicle_type_id":"4","last_reported":1744384230,"current_range_meters":4400,"station_id":"ce4bhk92rcd13ifvqgb0","pricing_plan_id":"cebpf4jnsgd1na2vs0mg"},{"bike_id":"a7f51c75-fa9e-425d-9c93-79aacddf0d09","system_id":"levelo_inurba_marseille","lat":43.29626,"lon":5.40588,"is_reserved":false,"is_disabled":false,"rental_uris":{"android":"levelo://app?vid=a7f51c75-fa9e-425d-9c93-79aacddf0d09","ios":"levelo://app?vid=a7f51c75-fa9e-425d-9c93-79aacddf0d09"},"vehicle_type_id":"4","last_reported":1744384230,"current_range_meters":4400,"station_id":"ce4bh0h2rcd13ifvqd60","pricing_plan_id":"cebpf4jnsgd1na2vs0mg"},{"bike_id":"92f7867b-e689-4ea1-9ee5-8604bfd27ea1","system_id":"levelo_inurba_marseille","lat":43.30789,"lon":5.38158,"is_reserved":false,"is_disabled":false,"rental_uris":{"android":"levelo://app?vid=92f7867b-e689-4ea1-9ee5-8604bfd27ea1","ios":"levelo://app?vid=92f7867b-e689-4ea1-9ee5-8604bfd27ea1"},"vehicle_type_id":"4","last_reported":1744384230,"current_range_meters":4400,"station_id":"ce4bgt12rcd13ifvqce0","pricing_plan_id":"cebpf4jnsgd1na2vs0mg"},{"bike_id":"97e8287f-b06f-4433-9af7-6df48161e74f","system_id":"levelo_inurba_marseille","lat":43.25882,"lon":5.37575,"is_reserved":false,"is_disabled":false,"rental_uris":{"android":"levelo://app?vid=97e8287f-b06f-4433-9af7-6df48161e74f","ios":"levelo://app?vid=97e8287f-b06f-4433-9af7-6df48161e74f"},"vehicle_type_id":"4","last_reported":1744384230,"current_range_meters":5600,"station_id":"","pricing_plan_id":"cebpf4jnsgd1na2vs0mg"},{"bike_id":"2c3d95f9-ed26-48d7-8de3-526450676b28","system_id":"levelo_inurba_marseille","lat":43.29685,"lon":5.37286,"is_reserved":false,"is_disabled":false,"rental_uris":{"android":"levelo://app?vid=2c3d95f9-ed26-48d7-8de3-526450676b28","ios":"levelo://app?vid=2c3d95f9-ed26-48d7-8de3-526450676b28"},"vehicle_type_id":"4","last_reported":1744384230,"current_range_meters":4800,"station_id":"ce4bgk12rcd13ifvqbj0","pricing_plan_id":"cebpf4jnsgd1na2vs0mg"},{"bike_id":"8152d0bc-e64e-4662-9b4d-aaa39561e3d4","system_id":"levelo_inurba_marseille","lat":43.29223,"lon":5.36058,"is_reserved":false,"is_disabled":false,"rental_uris":{"android":"levelo://app?vid=8152d0bc-e64e-4662-9b4d-aaa39561e3d4","ios":"levelo://app?vid=8152d0bc-e64e-4662-9b4d-aaa39561e3d4"},"vehicle_type_id":"4","last_reported":1744384230,"current_range_meters":4800,"station_id":"ce4bhbh2rcd13ifvqeqg","pricing_plan_id":"cebpf4jnsgd1na2vs0mg"},{"bike_id":"491f2651-b9a4-4c88-8f03-e735611d4f64","system_id":"levelo_inurba_marseille","lat":43.23158,"lon":5.43726,"is_reserved":false,"is_disabled":false,"rental_uris":{"android":"levelo://app?vid=491f2651-b9a4-4c88-8f03-e735611d4f64","ios":"levelo://app?vid=491f2651-b9a4-4c88-8f03-e735611d4f64"},"vehicle_type_id":"4","last_reported":1744384230,"current_range_meters":4800,"station_id":"ce4bhmp2rcd13ifvqgog","pricing_plan_id":"cebpf4jnsgd1na2vs0mg"},{"bike_id":"37967b91-0469-4ac9-84d1-a26cbc4e4e59","system_id":"levelo_inurba_marseille","lat":43.272076,"lon":5.391893,"is_reserved":false,"is_disabled":false,"rental_uris":{"android":"levelo://app?vid=37967b91-0469-4ac9-84d1-a26cbc4e4e59","ios":"levelo://app?vid=37967b91-0469-4ac9-84d1-a26cbc4e4e59"},"vehicle_type_id":"4","last_reported":1744384230,"current_range_meters":5600,"station_id":"ce4bhhp2rcd13ifvqfm0","pricing_plan_id":"cebpf4jnsgd1na2vs0mg"},{"bike_id":"8e10c6cd-18e2-4470-aa99-bad9e980445c","system_id":"levelo_inurba_marseille","lat":43.337444,"lon":5.374475,"is_reserved":false,"is_disabled":false,"rental_uris":{"android":"levelo://app?vid=8e10c6cd-18e2-4470-aa99-bad9e980445c","ios":"levelo://app?vid=8e10c6cd-18e2-4470-aa99-bad9e980445c"},"vehicle_type_id":"4","last_reported":1744384230,"current_range_meters":5600,"station_id":"","pricing_plan_id":"cebpf4jnsgd1na2vs0mg"},{"bike_id":"4a3e0919-27c2-445a-a961-2bd3243a227d","system_id":"levelo_inurba_marseille","lat":43.31635,"lon":5.37313,"is_reserved":false,"is_disabled":false,"rental_uris":{"android":"levelo://app?vid=4a3e0919-27c2-445a-a961-2bd3243a227d","ios":"levelo://app?vid=4a3e0919-27c2-445a-a961-2bd3243a227d"},"vehicle_type_id":"4","last_reported":1744384230,"current_range_meters":6000,"station_id":"","pricing_plan_id":"cebpf4jnsgd1na2vs0mg"},{"bike_id":"26249ac9-40cb-4113-9b7a-0bfac15532d1","system_id":"levelo_inurba_marseille","lat":43.23148,"lon":5.43716,"is_reserved":false,"is_disabled":false,"rental_uris":{"android":"levelo://app?vid=26249ac9-40cb-4113-9b7a-0bfac15532d1","ios":"levelo://app?vid=26249ac9-40cb-4113-9b7a-0bfac15532d1"},"vehicle_type_id":"4","last_reported":1744384230,"current_range_meters":6000,"station_id":"ce4bhmp2rcd13ifvqgog","pricing_plan_id":"cebpf4jnsgd1na2vs0mg"},{"bike_id":"eeed3c22-7a9b-4509-a89d-daae30e5c3e1","system_id":"levelo_inurba_marseille","lat":43.28626,"lon":5.3511,"is_reserved":false,"is_disabled":false,"rental_uris":{"android":"levelo://app?vid=eeed3c22-7a9b-4509-a89d-daae30e5c3e1","ios":"levelo://app?vid=eeed3c22-7a9b-4509-a89d-daae30e5c3e1"},"vehicle_type_id":"4","last_reported":1744384230,"current_range_meters":6000,"station_id":"ce4bhch2rcd13ifvqeug","pricing_plan_id":"cebpf4jnsgd1na2vs0mg"},{"bike_id":"84776894-48fd-449c-915a-9b8ce185c986","system_id":"levelo_inurba_marseille","lat":43.24169,"lon":5.36397,"is_reserved":false,"is_disabled":false,"rental_uris":{"android":"levelo://app?vid=84776894-48fd-449c-915a-9b8ce185c986","ios":"levelo://app?vid=84776894-48fd-449c-915a-9b8ce185c986"},"vehicle_type_id":"4","last_reported":1744384230,"current_range_meters":6000,"station_id":"cpo36qri1sfpv3e86is0","pricing_plan_id":"cebpf4jnsgd1na2vs0mg"},{"bike_id":"811fbdcb-3204-489b-b737-6d23ef63628e","system_id":"levelo_inurba_marseille","lat":43.30376,"lon":5.42486,"is_reserved":false,"is_disabled":false,"rental_uris":{"android":"levelo://app?vid=811fbdcb-3204-489b-b737-6d23ef63628e","ios":"levelo://app?vid=811fbdcb-3204-489b-b737-6d23ef63628e"},"vehicle_type_id":"4","last_reported":1744384230,"current_range_meters":6000,"station_id":"ce4bhoh2rcd13ifvqh6g","pricing_plan_id":"cebpf4jnsgd1na2vs0mg"},{"bike_id":"2a2d0b96-fccd-4fbd-a6d8-91b081b7d9a6","system_id":"levelo_inurba_marseille","lat":43.2862,"lon":5.35096,"is_reserved":false,"is_disabled":false,"rental_uris":{"android":"levelo://app?vid=2a2d0b96-fccd-4fbd-a6d8-91b081b7d9a6","ios":"levelo://app?vid=2a2d0b96-fccd-4fbd-a6d8-91b081b7d9a6"},"vehicle_type_id":"4","last_reported":1744384230,"current_range_meters":6000,"station_id":"ce4bhch2rcd13ifvqeug","pricing_plan_id":"cebpf4jnsgd1na2vs0mg"},{"bike_id":"a4bfef48-5d7a-41e0-bf12-25383ee785eb","system_id":"levelo_inurba_marseille","lat":43.28276,"lon":5.3508,"is_reserved":false,"is_disabled":false,"rental_uris":{"android":"levelo://app?vid=a4bfef48-5d7a-41e0-bf12-25383ee785eb","ios":"levelo://app?vid=a4bfef48-5d7a-41e0-bf12-25383ee785eb"},"vehicle_type_id":"4","last_reported":1744384230,"current_range_meters":6000,"station_id":"ce4bhbp2rcd13ifvqerg","pricing_plan_id":"cebpf4jnsgd1na2vs0mg"},{"bike_id":"c18b8b2b-de52-44ad-b81f-6382fbc432ff","system_id":"levelo_inurba_marseille","lat":43.25004,"lon":5.38922,"is_reserved":false,"is_disabled":false,"rental_uris":{"android":"levelo://app?vid=c18b8b2b-de52-44ad-b81f-6382fbc432ff","ios":"levelo://app?vid=c18b8b2b-de52-44ad-b81f-6382fbc432ff"},"vehicle_type_id":"4","last_reported":1744384230,"current_range_meters":6000,"station_id":"ce4bhgp2rcd13ifvqfd0","pricing_plan_id":"cebpf4jnsgd1na2vs0mg"},{"bike_id":"119d78be-d346-408e-838e-e069f2ba354e","system_id":"levelo_inurba_marseille","lat":43.30144,"lon":5.38095,"is_reserved":false,"is_disabled":false,"rental_uris":{"android":"levelo://app?vid=119d78be-d346-408e-838e-e069f2ba354e","ios":"levelo://app?vid=119d78be-d346-408e-838e-e069f2ba354e"},"vehicle_type_id":"4","last_reported":1744384230,"current_range_meters":6400,"station_id":"ce4bgjp2rcd13ifvqbh0","pricing_plan_id":"cebpf4jnsgd1na2vs0mg"},{"bike_id":"61238102-edcb-4401-8cf7-14ecab5251fe","system_id":"levelo_inurba_marseille","lat":43.28263,"lon":5.35077,"is_reserved":false,"is_disabled":false,"rental_uris":{"android":"levelo://app?vid=61238102-edcb-4401-8cf7-14ecab5251fe","ios":"levelo://app?vid=61238102-edcb-4401-8cf7-14ecab5251fe"},"vehicle_type_id":"4","last_reported":1744384230,"current_range_meters":6800,"station_id":"ce4bhbp2rcd13ifvqerg","pricing_plan_id":"cebpf4jnsgd1na2vs0mg"},{"bike_id":"6f312dd3-a857-4c86-bdc1-6d9e407cec5b","system_id":"levelo_inurba_marseille","lat":43.30137,"lon":5.38072,"is_reserved":false,"is_disabled":false,"rental_uris":{"android":"levelo://app?vid=6f312dd3-a857-4c86-bdc1-6d9e407cec5b","ios":"levelo://app?vid=6f312dd3-a857-4c86-bdc1-6d9e407cec5b"},"vehicle_type_id":"4","last_reported":1744384230,"current_range_meters":6800,"station_id":"ce4bgjp2rcd13ifvqbh0","pricing_plan_id":"cebpf4jnsgd1na2vs0mg"},{"bike_id":"f6b1003e-d2d6-4a5e-a409-7f6db76bb237","system_id":"levelo_inurba_marseille","lat":43.28682,"lon":5.37727,"is_reserved":false,"is_disabled":false,"rental_uris":{"android":"levelo://app?vid=f6b1003e-d2d6-4a5e-a409-7f6db76bb237","ios":"levelo://app?vid=f6b1003e-d2d6-4a5e-a409-7f6db76bb237"},"vehicle_type_id":"4","last_reported":1744384230,"current_range_meters":6800,"station_id":"","pricing_plan_id":"cebpf4jnsgd1na2vs0mg"},{"bike_id":"f3ac504e-a424-463a-81cb-66fe23a835f3","system_id":"levelo_inurba_marseille","lat":43.295722,"lon":5.399754,"is_reserved":false,"is_disabled":false,"rental_uris":{"android":"levelo://app?vid=f3ac504e-a424-463a-81cb-66fe23a835f3","ios":"levelo://app?vid=f3ac504e-a424-463a-81cb-66fe23a835f3"},"vehicle_type_id":"4","last_reported":1744384230,"current_range_meters":6400,"station_id":"ce4bh612rcd13ifvqe6g","pricing_plan_id":"cebpf4jnsgd1na2vs0mg"},{"bike_id":"81c84a0b-8c98-4176-a1d8-4ca7dd04e301","system_id":"levelo_inurba_marseille","lat":43.25503,"lon":5.37648,"is_reserved":false,"is_disabled":false,"rental_uris":{"android":"levelo://app?vid=81c84a0b-8c98-4176-a1d8-4ca7dd04e301","ios":"levelo://app?vid=81c84a0b-8c98-4176-a1d8-4ca7dd04e301"},"vehicle_type_id":"4","last_reported":1744384230,"current_range_meters":6400,"station_id":"ce4bhh12rcd13ifvqff0","pricing_plan_id":"cebpf4jnsgd1na2vs0mg"},{"bike_id":"9b3f5d20-0af5-4176-85a1-f570cd0faae3","system_id":"levelo_inurba_marseille","lat":43.28948,"lon":5.36643,"is_reserved":false,"is_disabled":false,"rental_uris":{"android":"levelo://app?vid=9b3f5d20-0af5-4176-85a1-f570cd0faae3","ios":"levelo://app?vid=9b3f5d20-0af5-4176-85a1-f570cd0faae3"},"vehicle_type_id":"4","last_reported":1744384230,"current_range_meters":6800,"station_id":"ce4bhap2rcd13ifvqek0","pricing_plan_id":"cebpf4jnsgd1na2vs0mg"},{"bike_id":"e9b0f503-a318-45ec-a563-1dde3be19d8e","system_id":"levelo_inurba_marseille","lat":43.29188,"lon":5.35786,"is_reserved":false,"is_disabled":false,"rental_uris":{"android":"levelo://app?vid=e9b0f503-a318-45ec-a563-1dde3be19d8e","ios":"levelo://app?vid=e9b0f503-a318-45ec-a563-1dde3be19d8e"},"vehicle_type_id":"4","last_reported":1744384230,"current_range_meters":6800,"station_id":"ce4bhb12rcd13ifvqel0","pricing_plan_id":"cebpf4jnsgd1na2vs0mg"},{"bike_id":"a69c2e3b-f9e1-4fd1-8e23-7410139a3a7b","system_id":"levelo_inurba_marseille","lat":43.262147,"lon":5.374383,"is_reserved":false,"is_disabled":false,"rental_uris":{"android":"levelo://app?vid=a69c2e3b-f9e1-4fd1-8e23-7410139a3a7b","ios":"levelo://app?vid=a69c2e3b-f9e1-4fd1-8e23-7410139a3a7b"},"vehicle_type_id":"4","last_reported":1744384230,"current_range_meters":7200,"station_id":"ce4bhgp2rcd13ifvqfc0","pricing_plan_id":"cebpf4jnsgd1na2vs0mg"},{"bike_id":"50d11793-87d8-46cb-aac7-fac14e7aafd8","system_id":"levelo_inurba_marseille","lat":43.25492,"lon":5.37653,"is_reserved":false,"is_disabled":false,"rental_uris":{"android":"levelo://app?vid=50d11793-87d8-46cb-aac7-fac14e7aafd8","ios":"levelo://app?vid=50d11793-87d8-46cb-aac7-fac14e7aafd8"},"vehicle_type_id":"4","last_reported":1744384230,"current_range_meters":7200,"station_id":"ce4bhh12rcd13ifvqff0","pricing_plan_id":"cebpf4jnsgd1na2vs0mg"},{"bike_id":"4ad6536e-02c7-4a1a-af25-97ae9f51f2f5","system_id":"levelo_inurba_marseille","lat":43.23964,"lon":5.36635,"is_reserved":false,"is_disabled":false,"rental_uris":{"android":"levelo://app?vid=4ad6536e-02c7-4a1a-af25-97ae9f51f2f5","ios":"levelo://app?vid=4ad6536e-02c7-4a1a-af25-97ae9f51f2f5"},"vehicle_type_id":"4","last_reported":1744384230,"current_range_meters":7200,"station_id":"ce4bhi12rcd13ifvqfp0","pricing_plan_id":"cebpf4jnsgd1na2vs0mg"},{"bike_id":"fc39cc3f-b581-4b3d-87a1-1393089273d5","system_id":"levelo_inurba_marseille","lat":43.23151,"lon":5.43725,"is_reserved":false,"is_disabled":false,"rental_uris":{"android":"levelo://app?vid=fc39cc3f-b581-4b3d-87a1-1393089273d5","ios":"levelo://app?vid=fc39cc3f-b581-4b3d-87a1-1393089273d5"},"vehicle_type_id":"4","last_reported":1744384230,"current_range_meters":8000,"station_id":"ce4bhmp2rcd13ifvqgog","pricing_plan_id":"cebpf4jnsgd1na2vs0mg"},{"bike_id":"a6767b7a-7b60-43a3-a9f9-89d7c8ecb41f","system_id":"levelo_inurba_marseille","lat":43.27377,"lon":5.36254,"is_reserved":false,"is_disabled":false,"rental_uris":{"android":"levelo://app?vid=a6767b7a-7b60-43a3-a9f9-89d7c8ecb41f","ios":"levelo://app?vid=a6767b7a-7b60-43a3-a9f9-89d7c8ecb41f"},"vehicle_type_id":"4","last_reported":1744384230,"current_range_meters":8000,"station_id":"ce4bhbh2rcd13ifvqeo0","pricing_plan_id":"cebpf4jnsgd1na2vs0mg"},{"bike_id":"b52d2df2-5fda-4a2b-926c-40ff9895d319","system_id":"levelo_inurba_marseille","lat":43.32044,"lon":5.41539,"is_reserved":false,"is_disabled":false,"rental_uris":{"android":"levelo://app?vid=b52d2df2-5fda-4a2b-926c-40ff9895d319","ios":"levelo://app?vid=b52d2df2-5fda-4a2b-926c-40ff9895d319"},"vehicle_type_id":"4","last_reported":1744384230,"current_range_meters":8000,"station_id":"ce4bhq92rcd13ifvqhkg","pricing_plan_id":"cebpf4jnsgd1na2vs0mg"},{"bike_id":"dc559cc4-ec44-4979-b802-b716ff602467","system_id":"levelo_inurba_marseille","lat":43.28277,"lon":5.35081,"is_reserved":false,"is_disabled":false,"rental_uris":{"android":"levelo://app?vid=dc559cc4-ec44-4979-b802-b716ff602467","ios":"levelo://app?vid=dc559cc4-ec44-4979-b802-b716ff602467"},"vehicle_type_id":"4","last_reported":1744384230,"current_range_meters":8000,"station_id":"ce4bhbp2rcd13ifvqerg","pricing_plan_id":"cebpf4jnsgd1na2vs0mg"},{"bike_id":"9362925f-abbc-48ba-9a4b-79c429fc9834","system_id":"levelo_inurba_marseille","lat":43.305621,"lon":5.365482,"is_reserved":false,"is_disabled":false,"rental_uris":{"android":"levelo://app?vid=9362925f-abbc-48ba-9a4b-79c429fc9834","ios":"levelo://app?vid=9362925f-abbc-48ba-9a4b-79c429fc9834"},"vehicle_type_id":"4","last_reported":1744384230,"current_range_meters":10800,"station_id":"ce4bgs12rcd13ifvqcag","pricing_plan_id":"cebpf4jnsgd1na2vs0mg"},{"bike_id":"de124940-1cf0-4f94-aaed-4198a9c79cff","system_id":"levelo_inurba_marseille","lat":43.29534,"lon":5.38552,"is_reserved":false,"is_disabled":false,"rental_uris":{"android":"levelo://app?vid=de124940-1cf0-4f94-aaed-4198a9c79cff","ios":"levelo://app?vid=de124940-1cf0-4f94-aaed-4198a9c79cff"},"vehicle_type_id":"4","last_reported":1744384230,"current_range_meters":8000,"station_id":"ce4bgih2rcd13ifvqba0","pricing_plan_id":"cebpf4jnsgd1na2vs0mg"},{"bike_id":"a8827283-5cb2-4c69-8f92-cabeabffb47c","system_id":"levelo_inurba_marseille","lat":43.24166,"lon":5.36398,"is_reserved":false,"is_disabled":false,"rental_uris":{"android":"levelo://app?vid=a8827283-5cb2-4c69-8f92-cabeabffb47c","ios":"levelo://app?vid=a8827283-5cb2-4c69-8f92-cabeabffb47c"},"vehicle_type_id":"4","last_reported":1744384230,"current_range_meters":8000,"station_id":"cpo36qri1sfpv3e86is0","pricing_plan_id":"cebpf4jnsgd1na2vs0mg"},{"bike_id":"d3691ee3-30d4-4800-90f9-a1a0a97307c8","system_id":"levelo_inurba_marseille","lat":43.26206,"lon":5.37452,"is_reserved":false,"is_disabled":false,"rental_uris":{"android":"levelo://app?vid=d3691ee3-30d4-4800-90f9-a1a0a97307c8","ios":"levelo://app?vid=d3691ee3-30d4-4800-90f9-a1a0a97307c8"},"vehicle_type_id":"4","last_reported":1744384230,"current_range_meters":8000,"station_id":"ce4bhgp2rcd13ifvqfc0","pricing_plan_id":"cebpf4jnsgd1na2vs0mg"},{"bike_id":"9b124832-5aac-48fc-ab26-489a32057271","system_id":"levelo_inurba_marseille","lat":43.2549,"lon":5.37646,"is_reserved":false,"is_disabled":true,"rental_uris":{"android":"levelo://app?vid=9b124832-5aac-48fc-ab26-489a32057271","ios":"levelo://app?vid=9b124832-5aac-48fc-ab26-489a32057271"},"vehicle_type_id":"4","last_reported":1744384230,"current_range_meters":8000,"station_id":"ce4bhh12rcd13ifvqff0","pricing_plan_id":"cebpf4jnsgd1na2vs0mg"},{"bike_id":"89e84a87-bb43-43da-9abd-f5846b53560b","system_id":"levelo_inurba_marseille","lat":43.29539,"lon":5.37488,"is_reserved":false,"is_disabled":false,"rental_uris":{"android":"levelo://app?vid=89e84a87-bb43-43da-9abd-f5846b53560b","ios":"levelo://app?vid=89e84a87-bb43-43da-9abd-f5846b53560b"},"vehicle_type_id":"4","last_reported":1744384230,"current_range_meters":8400,"station_id":"ce4bgkp2rcd13ifvqbmg","pricing_plan_id":"cebpf4jnsgd1na2vs0mg"},{"bike_id":"1ad4f7d9-4ba4-4604-ad8c-b46a3f6b3bfc","system_id":"levelo_inurba_marseille","lat":43.28266,"lon":5.35068,"is_reserved":false,"is_disabled":false,"rental_uris":{"android":"levelo://app?vid=1ad4f7d9-4ba4-4604-ad8c-b46a3f6b3bfc","ios":"levelo://app?vid=1ad4f7d9-4ba4-4604-ad8c-b46a3f6b3bfc"},"vehicle_type_id":"4","last_reported":1744384230,"current_range_meters":8400,"station_id":"ce4bhbp2rcd13ifvqerg","pricing_plan_id":"cebpf4jnsgd1na2vs0mg"},{"bike_id":"ec5ff0d3-58a9-4ea1-8bfc-bb3478350a03","system_id":"levelo_inurba_marseille","lat":43.28349,"lon":5.38103,"is_reserved":false,"is_disabled":false,"rental_uris":{"android":"levelo://app?vid=ec5ff0d3-58a9-4ea1-8bfc-bb3478350a03","ios":"levelo://app?vid=ec5ff0d3-58a9-4ea1-8bfc-bb3478350a03"},"vehicle_type_id":"4","last_reported":1744384230,"current_range_meters":8400,"station_id":"ce4bh412rcd13ifvqdr0","pricing_plan_id":"cebpf4jnsgd1na2vs0mg"},{"bike_id":"7b521754-de2d-4893-845b-69ac7841b48a","system_id":"levelo_inurba_marseille","lat":43.23149,"lon":5.43718,"is_reserved":false,"is_disabled":false,"rental_uris":{"android":"levelo://app?vid=7b521754-de2d-4893-845b-69ac7841b48a","ios":"levelo://app?vid=7b521754-de2d-4893-845b-69ac7841b48a"},"vehicle_type_id":"4","last_reported":1744384230,"current_range_meters":8400,"station_id":"ce4bhmp2rcd13ifvqgog","pricing_plan_id":"cebpf4jnsgd1na2vs0mg"},{"bike_id":"f94f664d-0ae1-48ef-ad09-db7166c14978","system_id":"levelo_inurba_marseille","lat":43.23959,"lon":5.36649,"is_reserved":false,"is_disabled":false,"rental_uris":{"android":"levelo://app?vid=f94f664d-0ae1-48ef-ad09-db7166c14978","ios":"levelo://app?vid=f94f664d-0ae1-48ef-ad09-db7166c14978"},"vehicle_type_id":"4","last_reported":1744384230,"current_range_meters":8400,"station_id":"ce4bhi12rcd13ifvqfp0","pricing_plan_id":"cebpf4jnsgd1na2vs0mg"},{"bike_id":"4931d550-7e6c-453d-8158-2d3efcfe84d6","system_id":"levelo_inurba_marseille","lat":43.22934,"lon":5.35377,"is_reserved":false,"is_disabled":false,"rental_uris":{"android":"levelo://app?vid=4931d550-7e6c-453d-8158-2d3efcfe84d6","ios":"levelo://app?vid=4931d550-7e6c-453d-8158-2d3efcfe84d6"},"vehicle_type_id":"4","last_reported":1744384230,"current_range_meters":8400,"station_id":"cpo3532slgdg3j2ikp40","pricing_plan_id":"cebpf4jnsgd1na2vs0mg"},{"bike_id":"c382b2d2-b530-477a-9e8d-7815d144ac64","system_id":"levelo_inurba_marseille","lat":43.26943,"lon":5.40273,"is_reserved":false,"is_disabled":false,"rental_uris":{"android":"levelo://app?vid=c382b2d2-b530-477a-9e8d-7815d144ac64","ios":"levelo://app?vid=c382b2d2-b530-477a-9e8d-7815d144ac64"},"vehicle_type_id":"4","last_reported":1744384230,"current_range_meters":8400,"station_id":"cjm6bp8fraef2m0cb0m0","pricing_plan_id":"cebpf4jnsgd1na2vs0mg"},{"bike_id":"10bf202e-ef32-4b02-a188-68feab22bb08","system_id":"levelo_inurba_marseille","lat":43.28082,"lon":5.39658,"is_reserved":false,"is_disabled":false,"rental_uris":{"android":"levelo://app?vid=10bf202e-ef32-4b02-a188-68feab22bb08","ios":"levelo://app?vid=10bf202e-ef32-4b02-a188-68feab22bb08"},"vehicle_type_id":"4","last_reported":1744384230,"current_range_meters":8800,"station_id":"ce4bho12rcd13ifvqh2g","pricing_plan_id":"cebpf4jnsgd1na2vs0mg"},{"bike_id":"d1de0d02-cad5-473e-84fe-71385aa8dc4b","system_id":"levelo_inurba_marseille","lat":43.27378,"lon":5.36245,"is_reserved":false,"is_disabled":false,"rental_uris":{"android":"levelo://app?vid=d1de0d02-cad5-473e-84fe-71385aa8dc4b","ios":"levelo://app?vid=d1de0d02-cad5-473e-84fe-71385aa8dc4b"},"vehicle_type_id":"4","last_reported":1744384230,"current_range_meters":8800,"station_id":"ce4bhbh2rcd13ifvqeo0","pricing_plan_id":"cebpf4jnsgd1na2vs0mg"},{"bike_id":"9c65397a-f863-4345-ae70-62986e85e0c6","system_id":"levelo_inurba_marseille","lat":43.31999,"lon":5.38144,"is_reserved":false,"is_disabled":false,"rental_uris":{"android":"levelo://app?vid=9c65397a-f863-4345-ae70-62986e85e0c6","ios":"levelo://app?vid=9c65397a-f863-4345-ae70-62986e85e0c6"},"vehicle_type_id":"4","last_reported":1744384230,"current_range_meters":8800,"station_id":"ce4bhr12rcd13ifvqhpg","pricing_plan_id":"cebpf4jnsgd1na2vs0mg"},{"bike_id":"bdae112c-94ab-4d0b-b0cc-691e4a37008d","system_id":"levelo_inurba_marseille","lat":43.24545,"lon":5.39527,"is_reserved":false,"is_disabled":false,"rental_uris":{"android":"levelo://app?vid=bdae112c-94ab-4d0b-b0cc-691e4a37008d","ios":"levelo://app?vid=bdae112c-94ab-4d0b-b0cc-691e4a37008d"},"vehicle_type_id":"4","last_reported":1744384230,"current_range_meters":8800,"station_id":"ce4bhlp2rcd13ifvqgjg","pricing_plan_id":"cebpf4jnsgd1na2vs0mg"},{"bike_id":"8571c44a-8761-4a0d-b78b-c51e2a29395f","system_id":"levelo_inurba_marseille","lat":43.26207,"lon":5.37445,"is_reserved":false,"is_disabled":false,"rental_uris":{"android":"levelo://app?vid=8571c44a-8761-4a0d-b78b-c51e2a29395f","ios":"levelo://app?vid=8571c44a-8761-4a0d-b78b-c51e2a29395f"},"vehicle_type_id":"4","last_reported":1744384230,"current_range_meters":8800,"station_id":"ce4bhgp2rcd13ifvqfc0","pricing_plan_id":"cebpf4jnsgd1na2vs0mg"},{"bike_id":"d2783d05-81ec-4658-bb21-27ff014c7834","system_id":"levelo_inurba_marseille","lat":43.2962,"lon":5.37716,"is_reserved":false,"is_disabled":false,"rental_uris":{"android":"levelo://app?vid=d2783d05-81ec-4658-bb21-27ff014c7834","ios":"levelo://app?vid=d2783d05-81ec-4658-bb21-27ff014c7834"},"vehicle_type_id":"4","last_reported":1744384230,"current_range_meters":8800,"station_id":"ce4bgi92rcd13ifvqb90","pricing_plan_id":"cebpf4jnsgd1na2vs0mg"},{"bike_id":"6585f910-1e98-43a6-babf-cbdde703d84a","system_id":"levelo_inurba_marseille","lat":43.28633,"lon":5.34975,"is_reserved":false,"is_disabled":false,"rental_uris":{"android":"levelo://app?vid=6585f910-1e98-43a6-babf-cbdde703d84a","ios":"levelo://app?vid=6585f910-1e98-43a6-babf-cbdde703d84a"},"vehicle_type_id":"4","last_reported":1744384230,"current_range_meters":8800,"station_id":"","pricing_plan_id":"cebpf4jnsgd1na2vs0mg"},{"bike_id":"eb4c813d-f8bd-41d6-abd8-b2b1dab6da62","system_id":"levelo_inurba_marseille","lat":43.284192,"lon":5.349808,"is_reserved":false,"is_disabled":false,"rental_uris":{"android":"levelo://app?vid=eb4c813d-f8bd-41d6-abd8-b2b1dab6da62","ios":"levelo://app?vid=eb4c813d-f8bd-41d6-abd8-b2b1dab6da62"},"vehicle_type_id":"4","last_reported":1744384230,"current_range_meters":8800,"station_id":"ce4bhbh2rcd13ifvqepg","pricing_plan_id":"cebpf4jnsgd1na2vs0mg"},{"bike_id":"1fc5c8e2-6753-40d1-9390-daea29af2422","system_id":"levelo_inurba_marseille","lat":43.24382,"lon":5.37048,"is_reserved":false,"is_disabled":false,"rental_uris":{"android":"levelo://app?vid=1fc5c8e2-6753-40d1-9390-daea29af2422","ios":"levelo://app?vid=1fc5c8e2-6753-40d1-9390-daea29af2422"},"vehicle_type_id":"4","last_reported":1744384230,"current_range_meters":8800,"station_id":"ce4bhhh2rcd13ifvqfk0","pricing_plan_id":"cebpf4jnsgd1na2vs0mg"},{"bike_id":"30e7be75-b0d9-4a9d-a98a-5c23f42adae2","system_id":"levelo_inurba_marseille","lat":43.23146,"lon":5.43702,"is_reserved":false,"is_disabled":false,"rental_uris":{"android":"levelo://app?vid=30e7be75-b0d9-4a9d-a98a-5c23f42adae2","ios":"levelo://app?vid=30e7be75-b0d9-4a9d-a98a-5c23f42adae2"},"vehicle_type_id":"4","last_reported":1744384230,"current_range_meters":8800,"station_id":"ce4bhmp2rcd13ifvqgog","pricing_plan_id":"cebpf4jnsgd1na2vs0mg"},{"bike_id":"00056412-f7d0-40d2-8c70-ddd96f23efc7","system_id":"levelo_inurba_marseille","lat":43.2842,"lon":5.34988,"is_reserved":false,"is_disabled":false,"rental_uris":{"android":"levelo://app?vid=00056412-f7d0-40d2-8c70-ddd96f23efc7","ios":"levelo://app?vid=00056412-f7d0-40d2-8c70-ddd96f23efc7"},"vehicle_type_id":"4","last_reported":1744384230,"current_range_meters":8800,"station_id":"ce4bhbh2rcd13ifvqepg","pricing_plan_id":"cebpf4jnsgd1na2vs0mg"},{"bike_id":"73731ccf-9649-486b-b631-32f6a66bba15","system_id":"levelo_inurba_marseille","lat":43.2841,"lon":5.34971,"is_reserved":false,"is_disabled":false,"rental_uris":{"android":"levelo://app?vid=73731ccf-9649-486b-b631-32f6a66bba15","ios":"levelo://app?vid=73731ccf-9649-486b-b631-32f6a66bba15"},"vehicle_type_id":"4","last_reported":1744384230,"current_range_meters":8800,"station_id":"ce4bhbh2rcd13ifvqepg","pricing_plan_id":"cebpf4jnsgd1na2vs0mg"},{"bike_id":"3fa938ff-b983-4fd0-928e-da749d7eb233","system_id":"levelo_inurba_marseille","lat":43.27377,"lon":5.36253,"is_reserved":false,"is_disabled":false,"rental_uris":{"android":"levelo://app?vid=3fa938ff-b983-4fd0-928e-da749d7eb233","ios":"levelo://app?vid=3fa938ff-b983-4fd0-928e-da749d7eb233"},"vehicle_type_id":"4","last_reported":1744384230,"current_range_meters":8800,"station_id":"ce4bhbh2rcd13ifvqeo0","pricing_plan_id":"cebpf4jnsgd1na2vs0mg"},{"bike_id":"15846d7d-4b0a-48de-b947-6ba5b7ac5f98","system_id":"levelo_inurba_marseille","lat":43.2828,"lon":5.35077,"is_reserved":false,"is_disabled":false,"rental_uris":{"android":"levelo://app?vid=15846d7d-4b0a-48de-b947-6ba5b7ac5f98","ios":"levelo://app?vid=15846d7d-4b0a-48de-b947-6ba5b7ac5f98"},"vehicle_type_id":"4","last_reported":1744384230,"current_range_meters":9200,"station_id":"ce4bhbp2rcd13ifvqerg","pricing_plan_id":"cebpf4jnsgd1na2vs0mg"},{"bike_id":"0dd30543-da89-4cf8-9d47-cc9ddeb417b7","system_id":"levelo_inurba_marseille","lat":43.27495,"lon":5.4245,"is_reserved":false,"is_disabled":false,"rental_uris":{"android":"levelo://app?vid=0dd30543-da89-4cf8-9d47-cc9ddeb417b7","ios":"levelo://app?vid=0dd30543-da89-4cf8-9d47-cc9ddeb417b7"},"vehicle_type_id":"4","last_reported":1744384230,"current_range_meters":9200,"station_id":"ce4bhn92rcd13ifvqgrg","pricing_plan_id":"cebpf4jnsgd1na2vs0mg"},{"bike_id":"5b497f3e-9a15-48dc-8a52-2ef94ad2d519","system_id":"levelo_inurba_marseille","lat":43.30285,"lon":5.37718,"is_reserved":false,"is_disabled":false,"rental_uris":{"android":"levelo://app?vid=5b497f3e-9a15-48dc-8a52-2ef94ad2d519","ios":"levelo://app?vid=5b497f3e-9a15-48dc-8a52-2ef94ad2d519"},"vehicle_type_id":"4","last_reported":1744384230,"current_range_meters":9200,"station_id":"ce4bguh2rcd13ifvqcj0","pricing_plan_id":"cebpf4jnsgd1na2vs0mg"},{"bike_id":"1b5726c3-259c-4107-812b-7f4278221e66","system_id":"levelo_inurba_marseille","lat":43.26569,"lon":5.39048,"is_reserved":false,"is_disabled":false,"rental_uris":{"android":"levelo://app?vid=1b5726c3-259c-4107-812b-7f4278221e66","ios":"levelo://app?vid=1b5726c3-259c-4107-812b-7f4278221e66"},"vehicle_type_id":"4","last_reported":1744384230,"current_range_meters":9200,"station_id":"ce4bhe12rcd13ifvqf30","pricing_plan_id":"cebpf4jnsgd1na2vs0mg"},{"bike_id":"53a95bb7-d9f6-4f38-a016-fdbf035328fb","system_id":"levelo_inurba_marseille","lat":43.30536,"lon":5.36533,"is_reserved":false,"is_disabled":false,"rental_uris":{"android":"levelo://app?vid=53a95bb7-d9f6-4f38-a016-fdbf035328fb","ios":"levelo://app?vid=53a95bb7-d9f6-4f38-a016-fdbf035328fb"},"vehicle_type_id":"4","last_reported":1744384230,"current_range_meters":9200,"station_id":"ce4bgs12rcd13ifvqcag","pricing_plan_id":"cebpf4jnsgd1na2vs0mg"},{"bike_id":"be144df3-65bc-4d68-911d-ea66a0e8f2cf","system_id":"levelo_inurba_marseille","lat":43.27376,"lon":5.36253,"is_reserved":false,"is_disabled":false,"rental_uris":{"android":"levelo://app?vid=be144df3-65bc-4d68-911d-ea66a0e8f2cf","ios":"levelo://app?vid=be144df3-65bc-4d68-911d-ea66a0e8f2cf"},"vehicle_type_id":"4","last_reported":1744384230,"current_range_meters":9200,"station_id":"ce4bhbh2rcd13ifvqeo0","pricing_plan_id":"cebpf4jnsgd1na2vs0mg"},{"bike_id":"eab6cbfa-cb8e-47d7-b0d6-226ab7facec7","system_id":"levelo_inurba_marseille","lat":43.31703,"lon":5.42423,"is_reserved":false,"is_disabled":true,"rental_uris":{"android":"levelo://app?vid=eab6cbfa-cb8e-47d7-b0d6-226ab7facec7","ios":"levelo://app?vid=eab6cbfa-cb8e-47d7-b0d6-226ab7facec7"},"vehicle_type_id":"4","last_reported":1744384230,"current_range_meters":9200,"station_id":"ce4bhp92rcd13ifvqhbg","pricing_plan_id":"cebpf4jnsgd1na2vs0mg"},{"bike_id":"9ac51c0e-403d-4a15-a322-0ba565e3bc51","system_id":"levelo_inurba_marseille","lat":43.246689,"lon":5.381543,"is_reserved":false,"is_disabled":false,"rental_uris":{"android":"levelo://app?vid=9ac51c0e-403d-4a15-a322-0ba565e3bc51","ios":"levelo://app?vid=9ac51c0e-403d-4a15-a322-0ba565e3bc51"},"vehicle_type_id":"4","last_reported":1744384230,"current_range_meters":9200,"station_id":"ce4bhgp2rcd13ifvqfd0","pricing_plan_id":"cebpf4jnsgd1na2vs0mg"},{"bike_id":"293f73d7-9d1a-419b-b507-a3e521dd5230","system_id":"levelo_inurba_marseille","lat":43.30152,"lon":5.38091,"is_reserved":false,"is_disabled":false,"rental_uris":{"android":"levelo://app?vid=293f73d7-9d1a-419b-b507-a3e521dd5230","ios":"levelo://app?vid=293f73d7-9d1a-419b-b507-a3e521dd5230"},"vehicle_type_id":"4","last_reported":1744384230,"current_range_meters":9600,"station_id":"ce4bgjp2rcd13ifvqbh0","pricing_plan_id":"cebpf4jnsgd1na2vs0mg"},{"bike_id":"e6a9ee71-9aa9-40e0-9afe-897c88fa9571","system_id":"levelo_inurba_marseille","lat":43.24165,"lon":5.3639,"is_reserved":false,"is_disabled":false,"rental_uris":{"android":"levelo://app?vid=e6a9ee71-9aa9-40e0-9afe-897c88fa9571","ios":"levelo://app?vid=e6a9ee71-9aa9-40e0-9afe-897c88fa9571"},"vehicle_type_id":"4","last_reported":1744384230,"current_range_meters":9600,"station_id":"cpo36qri1sfpv3e86is0","pricing_plan_id":"cebpf4jnsgd1na2vs0mg"},{"bike_id":"33d8ead1-25f3-4a38-a7bd-c93d0638990c","system_id":"levelo_inurba_marseille","lat":43.23149,"lon":5.43737,"is_reserved":false,"is_disabled":false,"rental_uris":{"android":"levelo://app?vid=33d8ead1-25f3-4a38-a7bd-c93d0638990c","ios":"levelo://app?vid=33d8ead1-25f3-4a38-a7bd-c93d0638990c"},"vehicle_type_id":"4","last_reported":1744384230,"current_range_meters":9600,"station_id":"ce4bhmp2rcd13ifvqgog","pricing_plan_id":"cebpf4jnsgd1na2vs0mg"},{"bike_id":"d9dab2fe-08ad-4a35-96cf-4142e47c907f","system_id":"levelo_inurba_marseille","lat":43.2836,"lon":5.386473,"is_reserved":false,"is_disabled":false,"rental_uris":{"android":"levelo://app?vid=d9dab2fe-08ad-4a35-96cf-4142e47c907f","ios":"levelo://app?vid=d9dab2fe-08ad-4a35-96cf-4142e47c907f"},"vehicle_type_id":"4","last_reported":1744384230,"current_range_meters":9600,"station_id":"ce4bhoh2rcd13ifvqh5g","pricing_plan_id":"cebpf4jnsgd1na2vs0mg"},{"bike_id":"6096d8e4-4720-4fb3-9e2d-c4f2bdfc9da1","system_id":"levelo_inurba_marseille","lat":43.29042,"lon":5.35908,"is_reserved":false,"is_disabled":false,"rental_uris":{"android":"levelo://app?vid=6096d8e4-4720-4fb3-9e2d-c4f2bdfc9da1","ios":"levelo://app?vid=6096d8e4-4720-4fb3-9e2d-c4f2bdfc9da1"},"vehicle_type_id":"4","last_reported":1744384230,"current_range_meters":9600,"station_id":"ce4bha92rcd13ifvqeg0","pricing_plan_id":"cebpf4jnsgd1na2vs0mg"},{"bike_id":"20eb53d5-dc7b-4fbe-a6da-7e0a348438c0","system_id":"levelo_inurba_marseille","lat":43.27914,"lon":5.3958,"is_reserved":false,"is_disabled":true,"rental_uris":{"android":"levelo://app?vid=20eb53d5-dc7b-4fbe-a6da-7e0a348438c0","ios":"levelo://app?vid=20eb53d5-dc7b-4fbe-a6da-7e0a348438c0"},"vehicle_type_id":"4","last_reported":1744384230,"current_range_meters":9600,"station_id":"ce4bhf92rcd13ifvqf40","pricing_plan_id":"cebpf4jnsgd1na2vs0mg"},{"bike_id":"13b46fb3-1fe5-4c22-ba84-a136f532a005","system_id":"levelo_inurba_marseille","lat":43.295105,"lon":5.390749,"is_reserved":false,"is_disabled":false,"rental_uris":{"android":"levelo://app?vid=13b46fb3-1fe5-4c22-ba84-a136f532a005","ios":"levelo://app?vid=13b46fb3-1fe5-4c22-ba84-a136f532a005"},"vehicle_type_id":"4","last_reported":1744384230,"current_range_meters":9600,"station_id":"ce4bh192rcd13ifvqdc0","pricing_plan_id":"cebpf4jnsgd1na2vs0mg"},{"bike_id":"b71c9b0d-fca1-4f64-8381-e00568a10027","system_id":"levelo_inurba_marseille","lat":43.28615,"lon":5.35108,"is_reserved":false,"is_disabled":false,"rental_uris":{"android":"levelo://app?vid=b71c9b0d-fca1-4f64-8381-e00568a10027","ios":"levelo://app?vid=b71c9b0d-fca1-4f64-8381-e00568a10027"},"vehicle_type_id":"4","last_reported":1744384230,"current_range_meters":10000,"station_id":"ce4bhch2rcd13ifvqeug","pricing_plan_id":"cebpf4jnsgd1na2vs0mg"},{"bike_id":"52e0f718-e938-4435-8cd2-02a925563a63","system_id":"levelo_inurba_marseille","lat":43.28612,"lon":5.35099,"is_reserved":false,"is_disabled":false,"rental_uris":{"android":"levelo://app?vid=52e0f718-e938-4435-8cd2-02a925563a63","ios":"levelo://app?vid=52e0f718-e938-4435-8cd2-02a925563a63"},"vehicle_type_id":"4","last_reported":1744384230,"current_range_meters":10000,"station_id":"ce4bhch2rcd13ifvqeug","pricing_plan_id":"cebpf4jnsgd1na2vs0mg"},{"bike_id":"0922821c-4e1d-4817-9469-860e55f8f0d1","system_id":"levelo_inurba_marseille","lat":43.337444,"lon":5.374475,"is_reserved":false,"is_disabled":false,"rental_uris":{"android":"levelo://app?vid=0922821c-4e1d-4817-9469-860e55f8f0d1","ios":"levelo://app?vid=0922821c-4e1d-4817-9469-860e55f8f0d1"},"vehicle_type_id":"4","last_reported":1744384230,"current_range_meters":10000,"station_id":"","pricing_plan_id":"cebpf4jnsgd1na2vs0mg"},{"bike_id":"5b93c3b9-c6e5-41dd-823b-19aee5bc1d4d","system_id":"levelo_inurba_marseille","lat":43.28412,"lon":5.34989,"is_reserved":false,"is_disabled":false,"rental_uris":{"android":"levelo://app?vid=5b93c3b9-c6e5-41dd-823b-19aee5bc1d4d","ios":"levelo://app?vid=5b93c3b9-c6e5-41dd-823b-19aee5bc1d4d"},"vehicle_type_id":"4","last_reported":1744384230,"current_range_meters":10000,"station_id":"ce4bhbh2rcd13ifvqepg","pricing_plan_id":"cebpf4jnsgd1na2vs0mg"},{"bike_id":"168f80ff-fdd3-4713-893e-9ecc4c0ffecf","system_id":"levelo_inurba_marseille","lat":43.22933,"lon":5.35374,"is_reserved":false,"is_disabled":false,"rental_uris":{"android":"levelo://app?vid=168f80ff-fdd3-4713-893e-9ecc4c0ffecf","ios":"levelo://app?vid=168f80ff-fdd3-4713-893e-9ecc4c0ffecf"},"vehicle_type_id":"4","last_reported":1744384230,"current_range_meters":10800,"station_id":"cpo3532slgdg3j2ikp40","pricing_plan_id":"cebpf4jnsgd1na2vs0mg"},{"bike_id":"63a02cba-8ca3-42f8-afc0-078accd36d0e","system_id":"levelo_inurba_marseille","lat":43.29258,"lon":5.38467,"is_reserved":false,"is_disabled":false,"rental_uris":{"android":"levelo://app?vid=63a02cba-8ca3-42f8-afc0-078accd36d0e","ios":"levelo://app?vid=63a02cba-8ca3-42f8-afc0-078accd36d0e"},"vehicle_type_id":"4","last_reported":1744384230,"current_range_meters":11200,"station_id":"ce4bh692rcd13ifvqea0","pricing_plan_id":"cebpf4jnsgd1na2vs0mg"},{"bike_id":"f9b378b3-178f-4aae-bc52-e7cda09a4cca","system_id":"levelo_inurba_marseille","lat":43.31532,"lon":5.38036,"is_reserved":false,"is_disabled":false,"rental_uris":{"android":"levelo://app?vid=f9b378b3-178f-4aae-bc52-e7cda09a4cca","ios":"levelo://app?vid=f9b378b3-178f-4aae-bc52-e7cda09a4cca"},"vehicle_type_id":"4","last_reported":1744384230,"current_range_meters":10800,"station_id":"ce4bhsp2rcd13ifvqi50","pricing_plan_id":"cebpf4jnsgd1na2vs0mg"},{"bike_id":"d995aa0c-8842-4f9a-bac9-e141422f9397","system_id":"levelo_inurba_marseille","lat":43.28421,"lon":5.34984,"is_reserved":false,"is_disabled":false,"rental_uris":{"android":"levelo://app?vid=d995aa0c-8842-4f9a-bac9-e141422f9397","ios":"levelo://app?vid=d995aa0c-8842-4f9a-bac9-e141422f9397"},"vehicle_type_id":"4","last_reported":1744384230,"current_range_meters":10800,"station_id":"ce4bhbh2rcd13ifvqepg","pricing_plan_id":"cebpf4jnsgd1na2vs0mg"},{"bike_id":"a1602530-e283-4ef9-bab3-26a90affb116","system_id":"levelo_inurba_marseille","lat":43.27366,"lon":5.36218,"is_reserved":false,"is_disabled":false,"rental_uris":{"android":"levelo://app?vid=a1602530-e283-4ef9-bab3-26a90affb116","ios":"levelo://app?vid=a1602530-e283-4ef9-bab3-26a90affb116"},"vehicle_type_id":"4","last_reported":1744384230,"current_range_meters":10800,"station_id":"ce4bhbh2rcd13ifvqeo0","pricing_plan_id":"cebpf4jnsgd1na2vs0mg"},{"bike_id":"d7f4e13d-a8cf-4faa-8dca-de26a4a316fb","system_id":"levelo_inurba_marseille","lat":43.25821,"lon":5.39434,"is_reserved":false,"is_disabled":false,"rental_uris":{"android":"levelo://app?vid=d7f4e13d-a8cf-4faa-8dca-de26a4a316fb","ios":"levelo://app?vid=d7f4e13d-a8cf-4faa-8dca-de26a4a316fb"},"vehicle_type_id":"4","last_reported":1744384230,"current_range_meters":11200,"station_id":"ce4bhip2rcd13ifvqft0","pricing_plan_id":"cebpf4jnsgd1na2vs0mg"},{"bike_id":"b7298ad5-9873-4e9f-8dc3-8546a67971a3","system_id":"levelo_inurba_marseille","lat":43.21756,"lon":5.346,"is_reserved":false,"is_disabled":false,"rental_uris":{"android":"levelo://app?vid=b7298ad5-9873-4e9f-8dc3-8546a67971a3","ios":"levelo://app?vid=b7298ad5-9873-4e9f-8dc3-8546a67971a3"},"vehicle_type_id":"4","last_reported":1744384230,"current_range_meters":11200,"station_id":"st_cvj6r9ubvosntc0bgbag","pricing_plan_id":"cebpf4jnsgd1na2vs0mg"},{"bike_id":"f92d173a-6e85-477b-993a-d5b8b1e2049f","system_id":"levelo_inurba_marseille","lat":43.23196,"lon":5.35546,"is_reserved":false,"is_disabled":false,"rental_uris":{"android":"levelo://app?vid=f92d173a-6e85-477b-993a-d5b8b1e2049f","ios":"levelo://app?vid=f92d173a-6e85-477b-993a-d5b8b1e2049f"},"vehicle_type_id":"4","last_reported":1744384230,"current_range_meters":11200,"station_id":"ce4bhu92rcd13ifvqi70","pricing_plan_id":"cebpf4jnsgd1na2vs0mg"},{"bike_id":"1f1d2b0c-786f-4836-a130-6e29cadc89e7","system_id":"levelo_inurba_marseille","lat":43.29535,"lon":5.39392,"is_reserved":false,"is_disabled":false,"rental_uris":{"android":"levelo://app?vid=1f1d2b0c-786f-4836-a130-6e29cadc89e7","ios":"levelo://app?vid=1f1d2b0c-786f-4836-a130-6e29cadc89e7"},"vehicle_type_id":"4","last_reported":1744384230,"current_range_meters":10800,"station_id":"ce4bh292rcd13ifvqdf0","pricing_plan_id":"cebpf4jnsgd1na2vs0mg"},{"bike_id":"94455896-0f19-4fae-bd72-9879f01fcd6e","system_id":"levelo_inurba_marseille","lat":43.29552,"lon":5.42279,"is_reserved":false,"is_disabled":true,"rental_uris":{"android":"levelo://app?vid=94455896-0f19-4fae-bd72-9879f01fcd6e","ios":"levelo://app?vid=94455896-0f19-4fae-bd72-9879f01fcd6e"},"vehicle_type_id":"4","last_reported":1744384230,"current_range_meters":11200,"station_id":"ce4bhph2rcd13ifvqhdg","pricing_plan_id":"cebpf4jnsgd1na2vs0mg"},{"bike_id":"331e49a6-bf71-4be9-8df7-96eeb548bef7","system_id":"levelo_inurba_marseille","lat":43.29516,"lon":5.39055,"is_reserved":false,"is_disabled":false,"rental_uris":{"android":"levelo://app?vid=331e49a6-bf71-4be9-8df7-96eeb548bef7","ios":"levelo://app?vid=331e49a6-bf71-4be9-8df7-96eeb548bef7"},"vehicle_type_id":"4","last_reported":1744384230,"current_range_meters":11200,"station_id":"ce4bh3p2rcd13ifvqdp0","pricing_plan_id":"cebpf4jnsgd1na2vs0mg"},{"bike_id":"1d6f15b3-6530-48e0-92c2-358c4e5a3ee6","system_id":"levelo_inurba_marseille","lat":43.28612,"lon":5.35099,"is_reserved":false,"is_disabled":false,"rental_uris":{"android":"levelo://app?vid=1d6f15b3-6530-48e0-92c2-358c4e5a3ee6","ios":"levelo://app?vid=1d6f15b3-6530-48e0-92c2-358c4e5a3ee6"},"vehicle_type_id":"4","last_reported":1744384230,"current_range_meters":11600,"station_id":"ce4bhch2rcd13ifvqeug","pricing_plan_id":"cebpf4jnsgd1na2vs0mg"},{"bike_id":"4e336c8d-8c04-4c24-80fb-0c5bb26dadfe","system_id":"levelo_inurba_marseille","lat":43.27496,"lon":5.42454,"is_reserved":false,"is_disabled":false,"rental_uris":{"android":"levelo://app?vid=4e336c8d-8c04-4c24-80fb-0c5bb26dadfe","ios":"levelo://app?vid=4e336c8d-8c04-4c24-80fb-0c5bb26dadfe"},"vehicle_type_id":"4","last_reported":1744384230,"current_range_meters":11600,"station_id":"ce4bhn92rcd13ifvqgrg","pricing_plan_id":"cebpf4jnsgd1na2vs0mg"},{"bike_id":"b76c65a7-e744-4139-8627-f1681e79dc45","system_id":"levelo_inurba_marseille","lat":43.30139,"lon":5.38084,"is_reserved":false,"is_disabled":false,"rental_uris":{"android":"levelo://app?vid=b76c65a7-e744-4139-8627-f1681e79dc45","ios":"levelo://app?vid=b76c65a7-e744-4139-8627-f1681e79dc45"},"vehicle_type_id":"4","last_reported":1744384230,"current_range_meters":11600,"station_id":"ce4bgjp2rcd13ifvqbh0","pricing_plan_id":"cebpf4jnsgd1na2vs0mg"},{"bike_id":"f6b71034-9e88-419d-83ed-da6581d59a90","system_id":"levelo_inurba_marseille","lat":43.27379,"lon":5.36256,"is_reserved":false,"is_disabled":false,"rental_uris":{"android":"levelo://app?vid=f6b71034-9e88-419d-83ed-da6581d59a90","ios":"levelo://app?vid=f6b71034-9e88-419d-83ed-da6581d59a90"},"vehicle_type_id":"4","last_reported":1744384230,"current_range_meters":11600,"station_id":"ce4bhbh2rcd13ifvqeo0","pricing_plan_id":"cebpf4jnsgd1na2vs0mg"},{"bike_id":"e3fc7a00-3866-49a8-b8c1-844519305719","system_id":"levelo_inurba_marseille","lat":43.2621,"lon":5.37439,"is_reserved":false,"is_disabled":false,"rental_uris":{"android":"levelo://app?vid=e3fc7a00-3866-49a8-b8c1-844519305719","ios":"levelo://app?vid=e3fc7a00-3866-49a8-b8c1-844519305719"},"vehicle_type_id":"4","last_reported":1744384230,"current_range_meters":11600,"station_id":"ce4bhgp2rcd13ifvqfc0","pricing_plan_id":"cebpf4jnsgd1na2vs0mg"},{"bike_id":"446ab9dc-399d-492a-b574-77cddcc2fe7b","system_id":"levelo_inurba_marseille","lat":43.2791,"lon":5.3801,"is_reserved":false,"is_disabled":false,"rental_uris":{"android":"levelo://app?vid=446ab9dc-399d-492a-b574-77cddcc2fe7b","ios":"levelo://app?vid=446ab9dc-399d-492a-b574-77cddcc2fe7b"},"vehicle_type_id":"4","last_reported":1744384230,"current_range_meters":11600,"station_id":"ce4bhf92rcd13ifvqf50","pricing_plan_id":"cebpf4jnsgd1na2vs0mg"},{"bike_id":"78a7a2f4-b28b-4caa-8ef3-5d3bd2acefce","system_id":"levelo_inurba_marseille","lat":43.28277,"lon":5.35074,"is_reserved":false,"is_disabled":false,"rental_uris":{"android":"levelo://app?vid=78a7a2f4-b28b-4caa-8ef3-5d3bd2acefce","ios":"levelo://app?vid=78a7a2f4-b28b-4caa-8ef3-5d3bd2acefce"},"vehicle_type_id":"4","last_reported":1744384230,"current_range_meters":11600,"station_id":"ce4bhbp2rcd13ifvqerg","pricing_plan_id":"cebpf4jnsgd1na2vs0mg"},{"bike_id":"0dbc06f2-657e-4a8d-8cf7-e47e2fbd4507","system_id":"levelo_inurba_marseille","lat":43.30618,"lon":5.4003,"is_reserved":false,"is_disabled":false,"rental_uris":{"android":"levelo://app?vid=0dbc06f2-657e-4a8d-8cf7-e47e2fbd4507","ios":"levelo://app?vid=0dbc06f2-657e-4a8d-8cf7-e47e2fbd4507"},"vehicle_type_id":"4","last_reported":1744384230,"current_range_meters":12000,"station_id":"ce4bh112rcd13ifvqda0","pricing_plan_id":"cebpf4jnsgd1na2vs0mg"},{"bike_id":"feb04d1c-c2bd-4d38-91ca-a0075a753750","system_id":"levelo_inurba_marseille","lat":43.284221,"lon":5.349854,"is_reserved":false,"is_disabled":false,"rental_uris":{"android":"levelo://app?vid=feb04d1c-c2bd-4d38-91ca-a0075a753750","ios":"levelo://app?vid=feb04d1c-c2bd-4d38-91ca-a0075a753750"},"vehicle_type_id":"4","last_reported":1744384230,"current_range_meters":12000,"station_id":"ce4bhbh2rcd13ifvqepg","pricing_plan_id":"cebpf4jnsgd1na2vs0mg"},{"bike_id":"1b2a2f65-3246-46da-a318-10a826df64f2","system_id":"levelo_inurba_marseille","lat":43.3303,"lon":5.3904,"is_reserved":false,"is_disabled":false,"rental_uris":{"android":"levelo://app?vid=1b2a2f65-3246-46da-a318-10a826df64f2","ios":"levelo://app?vid=1b2a2f65-3246-46da-a318-10a826df64f2"},"vehicle_type_id":"4","last_reported":1744384230,"current_range_meters":12000,"station_id":"ce4bhr92rcd13ifvqhrg","pricing_plan_id":"cebpf4jnsgd1na2vs0mg"},{"bike_id":"463b41fd-37bb-48c0-a6e4-12f737a3d7cf","system_id":"levelo_inurba_marseille","lat":43.26942,"lon":5.40281,"is_reserved":false,"is_disabled":true,"rental_uris":{"android":"levelo://app?vid=463b41fd-37bb-48c0-a6e4-12f737a3d7cf","ios":"levelo://app?vid=463b41fd-37bb-48c0-a6e4-12f737a3d7cf"},"vehicle_type_id":"4","last_reported":1744384230,"current_range_meters":12400,"station_id":"cjm6bp8fraef2m0cb0m0","pricing_plan_id":"cebpf4jnsgd1na2vs0mg"},{"bike_id":"2c15eeeb-3562-4455-8f77-bd64fc00b9c6","system_id":"levelo_inurba_marseille","lat":43.24147,"lon":5.36386,"is_reserved":false,"is_disabled":false,"rental_uris":{"android":"levelo://app?vid=2c15eeeb-3562-4455-8f77-bd64fc00b9c6","ios":"levelo://app?vid=2c15eeeb-3562-4455-8f77-bd64fc00b9c6"},"vehicle_type_id":"4","last_reported":1744384230,"current_range_meters":12400,"station_id":"cpo36qri1sfpv3e86is0","pricing_plan_id":"cebpf4jnsgd1na2vs0mg"},{"bike_id":"72adaa87-94dc-4774-aca0-5147bc57bd16","system_id":"levelo_inurba_marseille","lat":43.26024,"lon":5.41741,"is_reserved":false,"is_disabled":false,"rental_uris":{"android":"levelo://app?vid=72adaa87-94dc-4774-aca0-5147bc57bd16","ios":"levelo://app?vid=72adaa87-94dc-4774-aca0-5147bc57bd16"},"vehicle_type_id":"4","last_reported":1744384230,"current_range_meters":12400,"station_id":"","pricing_plan_id":"cebpf4jnsgd1na2vs0mg"},{"bike_id":"a4728ec4-375e-480e-8acd-955ffc6ac1cc","system_id":"levelo_inurba_marseille","lat":43.2846,"lon":5.358801,"is_reserved":false,"is_disabled":false,"rental_uris":{"android":"levelo://app?vid=a4728ec4-375e-480e-8acd-955ffc6ac1cc","ios":"levelo://app?vid=a4728ec4-375e-480e-8acd-955ffc6ac1cc"},"vehicle_type_id":"4","last_reported":1744384230,"current_range_meters":12400,"station_id":"ce4bhah2rcd13ifvqei0","pricing_plan_id":"cebpf4jnsgd1na2vs0mg"},{"bike_id":"2d2e31a1-75bd-4ef3-8efc-056c6e4199ac","system_id":"levelo_inurba_marseille","lat":43.286209,"lon":5.351045,"is_reserved":false,"is_disabled":false,"rental_uris":{"android":"levelo://app?vid=2d2e31a1-75bd-4ef3-8efc-056c6e4199ac","ios":"levelo://app?vid=2d2e31a1-75bd-4ef3-8efc-056c6e4199ac"},"vehicle_type_id":"4","last_reported":1744384230,"current_range_meters":12800,"station_id":"ce4bhch2rcd13ifvqeug","pricing_plan_id":"cebpf4jnsgd1na2vs0mg"},{"bike_id":"0bfbaf11-19a3-487e-a983-54c79fed9851","system_id":"levelo_inurba_marseille","lat":43.29711,"lon":5.36608,"is_reserved":false,"is_disabled":false,"rental_uris":{"android":"levelo://app?vid=0bfbaf11-19a3-487e-a983-54c79fed9851","ios":"levelo://app?vid=0bfbaf11-19a3-487e-a983-54c79fed9851"},"vehicle_type_id":"4","last_reported":1744384230,"current_range_meters":12800,"station_id":"ce4bgn12rcd13ifvqbt0","pricing_plan_id":"cebpf4jnsgd1na2vs0mg"},{"bike_id":"06f02d7c-c7e8-4c51-bc79-fcc31a3eb7c5","system_id":"levelo_inurba_marseille","lat":43.24546,"lon":5.39515,"is_reserved":false,"is_disabled":false,"rental_uris":{"android":"levelo://app?vid=06f02d7c-c7e8-4c51-bc79-fcc31a3eb7c5","ios":"levelo://app?vid=06f02d7c-c7e8-4c51-bc79-fcc31a3eb7c5"},"vehicle_type_id":"4","last_reported":1744384230,"current_range_meters":12800,"station_id":"ce4bhlp2rcd13ifvqgjg","pricing_plan_id":"cebpf4jnsgd1na2vs0mg"},{"bike_id":"403c7a5e-d4e0-48a3-90de-0b67e4f1dc22","system_id":"levelo_inurba_marseille","lat":43.27379,"lon":5.3626,"is_reserved":false,"is_disabled":false,"rental_uris":{"android":"levelo://app?vid=403c7a5e-d4e0-48a3-90de-0b67e4f1dc22","ios":"levelo://app?vid=403c7a5e-d4e0-48a3-90de-0b67e4f1dc22"},"vehicle_type_id":"4","last_reported":1744384230,"current_range_meters":12800,"station_id":"ce4bhbh2rcd13ifvqeo0","pricing_plan_id":"cebpf4jnsgd1na2vs0mg"},{"bike_id":"12f552fb-128b-4f39-a171-4a4db7cfeac8","system_id":"levelo_inurba_marseille","lat":43.28428,"lon":5.34986,"is_reserved":false,"is_disabled":false,"rental_uris":{"android":"levelo://app?vid=12f552fb-128b-4f39-a171-4a4db7cfeac8","ios":"levelo://app?vid=12f552fb-128b-4f39-a171-4a4db7cfeac8"},"vehicle_type_id":"4","last_reported":1744384230,"current_range_meters":13600,"station_id":"ce4bhbh2rcd13ifvqepg","pricing_plan_id":"cebpf4jnsgd1na2vs0mg"},{"bike_id":"827ffac2-79f7-4ac4-b826-f0f2eb5cbf15","system_id":"levelo_inurba_marseille","lat":43.25086,"lon":5.39523,"is_reserved":false,"is_disabled":false,"rental_uris":{"android":"levelo://app?vid=827ffac2-79f7-4ac4-b826-f0f2eb5cbf15","ios":"levelo://app?vid=827ffac2-79f7-4ac4-b826-f0f2eb5cbf15"},"vehicle_type_id":"4","last_reported":1744384230,"current_range_meters":13600,"station_id":"ce4bhm12rcd13ifvqgkg","pricing_plan_id":"cebpf4jnsgd1na2vs0mg"},{"bike_id":"d21733e5-1564-4c3d-8657-463d1eaf61b3","system_id":"levelo_inurba_marseille","lat":43.2844,"lon":5.34848,"is_reserved":false,"is_disabled":false,"rental_uris":{"android":"levelo://app?vid=d21733e5-1564-4c3d-8657-463d1eaf61b3","ios":"levelo://app?vid=d21733e5-1564-4c3d-8657-463d1eaf61b3"},"vehicle_type_id":"4","last_reported":1744384230,"current_range_meters":13600,"station_id":"","pricing_plan_id":"cebpf4jnsgd1na2vs0mg"},{"bike_id":"b5218994-4060-4575-b427-8237cbd0fb2e","system_id":"levelo_inurba_marseille","lat":43.30799,"lon":5.38152,"is_reserved":false,"is_disabled":false,"rental_uris":{"android":"levelo://app?vid=b5218994-4060-4575-b427-8237cbd0fb2e","ios":"levelo://app?vid=b5218994-4060-4575-b427-8237cbd0fb2e"},"vehicle_type_id":"4","last_reported":1744384230,"current_range_meters":13600,"station_id":"ce4bgt12rcd13ifvqce0","pricing_plan_id":"cebpf4jnsgd1na2vs0mg"},{"bike_id":"f4683a5e-1b34-42ce-a414-e1d485531863","system_id":"levelo_inurba_marseille","lat":43.23143,"lon":5.43712,"is_reserved":false,"is_disabled":false,"rental_uris":{"android":"levelo://app?vid=f4683a5e-1b34-42ce-a414-e1d485531863","ios":"levelo://app?vid=f4683a5e-1b34-42ce-a414-e1d485531863"},"vehicle_type_id":"4","last_reported":1744384230,"current_range_meters":13600,"station_id":"ce4bhmp2rcd13ifvqgog","pricing_plan_id":"cebpf4jnsgd1na2vs0mg"},{"bike_id":"f1849247-1a3b-4eef-b251-a7a4f51ab6d4","system_id":"levelo_inurba_marseille","lat":43.2292,"lon":5.35363,"is_reserved":false,"is_disabled":false,"rental_uris":{"android":"levelo://app?vid=f1849247-1a3b-4eef-b251-a7a4f51ab6d4","ios":"levelo://app?vid=f1849247-1a3b-4eef-b251-a7a4f51ab6d4"},"vehicle_type_id":"4","last_reported":1744384230,"current_range_meters":13600,"station_id":"cpo3532slgdg3j2ikp40","pricing_plan_id":"cebpf4jnsgd1na2vs0mg"},{"bike_id":"4bcdcc82-d58d-4172-b626-a8c82408681c","system_id":"levelo_inurba_marseille","lat":43.31203,"lon":5.36843,"is_reserved":false,"is_disabled":true,"rental_uris":{"android":"levelo://app?vid=4bcdcc82-d58d-4172-b626-a8c82408681c","ios":"levelo://app?vid=4bcdcc82-d58d-4172-b626-a8c82408681c"},"vehicle_type_id":"4","last_reported":1744384230,"current_range_meters":13600,"station_id":"ce4bgl92rcd13ifvqbq0","pricing_plan_id":"cebpf4jnsgd1na2vs0mg"},{"bike_id":"160be242-11e3-4d10-b42a-00148e418976","system_id":"levelo_inurba_marseille","lat":43.295387,"lon":5.386177,"is_reserved":false,"is_disabled":false,"rental_uris":{"android":"levelo://app?vid=160be242-11e3-4d10-b42a-00148e418976","ios":"levelo://app?vid=160be242-11e3-4d10-b42a-00148e418976"},"vehicle_type_id":"4","last_reported":1744384230,"current_range_meters":13600,"station_id":"ce4bgih2rcd13ifvqba0","pricing_plan_id":"cebpf4jnsgd1na2vs0mg"},{"bike_id":"7df72f80-22ec-4ee9-b217-830242d62dea","system_id":"levelo_inurba_marseille","lat":43.28364,"lon":5.38632,"is_reserved":false,"is_disabled":false,"rental_uris":{"android":"levelo://app?vid=7df72f80-22ec-4ee9-b217-830242d62dea","ios":"levelo://app?vid=7df72f80-22ec-4ee9-b217-830242d62dea"},"vehicle_type_id":"4","last_reported":1744384230,"current_range_meters":13600,"station_id":"ce4bh492rcd13ifvqdvg","pricing_plan_id":"cebpf4jnsgd1na2vs0mg"},{"bike_id":"c8ed32ac-9bfe-45a0-bf38-a0609c767087","system_id":"levelo_inurba_marseille","lat":43.28419,"lon":5.34979,"is_reserved":false,"is_disabled":false,"rental_uris":{"android":"levelo://app?vid=c8ed32ac-9bfe-45a0-bf38-a0609c767087","ios":"levelo://app?vid=c8ed32ac-9bfe-45a0-bf38-a0609c767087"},"vehicle_type_id":"4","last_reported":1744384230,"current_range_meters":14000,"station_id":"ce4bhbh2rcd13ifvqepg","pricing_plan_id":"cebpf4jnsgd1na2vs0mg"},{"bike_id":"74a69016-5a6f-4c80-812e-ccde9e1c71c1","system_id":"levelo_inurba_marseille","lat":43.25734,"lon":5.41104,"is_reserved":false,"is_disabled":false,"rental_uris":{"android":"levelo://app?vid=74a69016-5a6f-4c80-812e-ccde9e1c71c1","ios":"levelo://app?vid=74a69016-5a6f-4c80-812e-ccde9e1c71c1"},"vehicle_type_id":"4","last_reported":1744384230,"current_range_meters":14000,"station_id":"ce4bhkp2rcd13ifvqgd0","pricing_plan_id":"cebpf4jnsgd1na2vs0mg"},{"bike_id":"0a12228f-61f9-48c1-9f2f-bd8159dce7a6","system_id":"levelo_inurba_marseille","lat":43.26204,"lon":5.37374,"is_reserved":false,"is_disabled":true,"rental_uris":{"android":"levelo://app?vid=0a12228f-61f9-48c1-9f2f-bd8159dce7a6","ios":"levelo://app?vid=0a12228f-61f9-48c1-9f2f-bd8159dce7a6"},"vehicle_type_id":"4","last_reported":1744384230,"current_range_meters":14000,"station_id":"","pricing_plan_id":"cebpf4jnsgd1na2vs0mg"},{"bike_id":"c63a819d-221d-4106-8dce-718356f3d6dc","system_id":"levelo_inurba_marseille","lat":43.22933,"lon":5.35376,"is_reserved":false,"is_disabled":false,"rental_uris":{"android":"levelo://app?vid=c63a819d-221d-4106-8dce-718356f3d6dc","ios":"levelo://app?vid=c63a819d-221d-4106-8dce-718356f3d6dc"},"vehicle_type_id":"4","last_reported":1744384230,"current_range_meters":14000,"station_id":"cpo3532slgdg3j2ikp40","pricing_plan_id":"cebpf4jnsgd1na2vs0mg"},{"bike_id":"6ca02a60-f997-425e-9202-a61a3bd3e838","system_id":"levelo_inurba_marseille","lat":43.28101,"lon":5.37833,"is_reserved":false,"is_disabled":false,"rental_uris":{"android":"levelo://app?vid=6ca02a60-f997-425e-9202-a61a3bd3e838","ios":"levelo://app?vid=6ca02a60-f997-425e-9202-a61a3bd3e838"},"vehicle_type_id":"4","last_reported":1744384230,"current_range_meters":14000,"station_id":"ce4bha12rcd13ifvqee0","pricing_plan_id":"cebpf4jnsgd1na2vs0mg"},{"bike_id":"0ddf776c-d331-4742-a390-e261c54b7ae1","system_id":"levelo_inurba_marseille","lat":43.21192,"lon":5.35069,"is_reserved":false,"is_disabled":false,"rental_uris":{"android":"levelo://app?vid=0ddf776c-d331-4742-a390-e261c54b7ae1","ios":"levelo://app?vid=0ddf776c-d331-4742-a390-e261c54b7ae1"},"vehicle_type_id":"4","last_reported":1744384230,"current_range_meters":14000,"station_id":"st_cvj6sg6p6f1abm77japg","pricing_plan_id":"cebpf4jnsgd1na2vs0mg"},{"bike_id":"288dcbbe-a0c2-4b14-9f35-cfa910ab6a66","system_id":"levelo_inurba_marseille","lat":43.28404,"lon":5.37512,"is_reserved":false,"is_disabled":false,"rental_uris":{"android":"levelo://app?vid=288dcbbe-a0c2-4b14-9f35-cfa910ab6a66","ios":"levelo://app?vid=288dcbbe-a0c2-4b14-9f35-cfa910ab6a66"},"vehicle_type_id":"4","last_reported":1744384230,"current_range_meters":14000,"station_id":"ce4bh412rcd13ifvqds0","pricing_plan_id":"cebpf4jnsgd1na2vs0mg"},{"bike_id":"8b472f0a-6559-49dd-8c2b-b6489fd6da8d","system_id":"levelo_inurba_marseille","lat":43.23965,"lon":5.36638,"is_reserved":false,"is_disabled":false,"rental_uris":{"android":"levelo://app?vid=8b472f0a-6559-49dd-8c2b-b6489fd6da8d","ios":"levelo://app?vid=8b472f0a-6559-49dd-8c2b-b6489fd6da8d"},"vehicle_type_id":"4","last_reported":1744384230,"current_range_meters":14000,"station_id":"ce4bhi12rcd13ifvqfp0","pricing_plan_id":"cebpf4jnsgd1na2vs0mg"},{"bike_id":"d4ef6244-d8e3-444f-8db6-8d9b306432f3","system_id":"levelo_inurba_marseille","lat":43.28422,"lon":5.34996,"is_reserved":false,"is_disabled":false,"rental_uris":{"android":"levelo://app?vid=d4ef6244-d8e3-444f-8db6-8d9b306432f3","ios":"levelo://app?vid=d4ef6244-d8e3-444f-8db6-8d9b306432f3"},"vehicle_type_id":"4","last_reported":1744384230,"current_range_meters":14400,"station_id":"ce4bhbh2rcd13ifvqepg","pricing_plan_id":"cebpf4jnsgd1na2vs0mg"},{"bike_id":"a8f7eb66-f1cf-45d3-90e7-d7a6e2dcd548","system_id":"levelo_inurba_marseille","lat":43.28934,"lon":5.36639,"is_reserved":false,"is_disabled":false,"rental_uris":{"android":"levelo://app?vid=a8f7eb66-f1cf-45d3-90e7-d7a6e2dcd548","ios":"levelo://app?vid=a8f7eb66-f1cf-45d3-90e7-d7a6e2dcd548"},"vehicle_type_id":"4","last_reported":1744384230,"current_range_meters":14400,"station_id":"ce4bhap2rcd13ifvqek0","pricing_plan_id":"cebpf4jnsgd1na2vs0mg"},{"bike_id":"69dcc86f-8b49-4779-9735-2db6d31ecca6","system_id":"levelo_inurba_marseille","lat":43.29278,"lon":5.36843,"is_reserved":false,"is_disabled":false,"rental_uris":{"android":"levelo://app?vid=69dcc86f-8b49-4779-9735-2db6d31ecca6","ios":"levelo://app?vid=69dcc86f-8b49-4779-9735-2db6d31ecca6"},"vehicle_type_id":"4","last_reported":1744384230,"current_range_meters":14400,"station_id":"ce4bhbp2rcd13ifvqesg","pricing_plan_id":"cebpf4jnsgd1na2vs0mg"},{"bike_id":"956a55e4-22a9-4075-b177-cd9416ac343e","system_id":"levelo_inurba_marseille","lat":43.25938,"lon":5.40903,"is_reserved":false,"is_disabled":false,"rental_uris":{"android":"levelo://app?vid=956a55e4-22a9-4075-b177-cd9416ac343e","ios":"levelo://app?vid=956a55e4-22a9-4075-b177-cd9416ac343e"},"vehicle_type_id":"4","last_reported":1744384230,"current_range_meters":14400,"station_id":"ce4bhm92rcd13ifvqglg","pricing_plan_id":"cebpf4jnsgd1na2vs0mg"},{"bike_id":"2adc8bfd-7c25-406c-9fe9-df294974c36f","system_id":"levelo_inurba_marseille","lat":43.284149,"lon":5.349805,"is_reserved":false,"is_disabled":false,"rental_uris":{"android":"levelo://app?vid=2adc8bfd-7c25-406c-9fe9-df294974c36f","ios":"levelo://app?vid=2adc8bfd-7c25-406c-9fe9-df294974c36f"},"vehicle_type_id":"4","last_reported":1744384230,"current_range_meters":14400,"station_id":"ce4bgop2rcd13ifvqc1g","pricing_plan_id":"cebpf4jnsgd1na2vs0mg"},{"bike_id":"e5464791-9d58-45a1-9f3b-20769157934e","system_id":"levelo_inurba_marseille","lat":43.25727,"lon":5.41105,"is_reserved":false,"is_disabled":false,"rental_uris":{"android":"levelo://app?vid=e5464791-9d58-45a1-9f3b-20769157934e","ios":"levelo://app?vid=e5464791-9d58-45a1-9f3b-20769157934e"},"vehicle_type_id":"4","last_reported":1744384230,"current_range_meters":14400,"station_id":"ce4bhkp2rcd13ifvqgd0","pricing_plan_id":"cebpf4jnsgd1na2vs0mg"},{"bike_id":"4c893399-b4ed-40ed-a49f-713da320f269","system_id":"levelo_inurba_marseille","lat":43.29861,"lon":5.37841,"is_reserved":false,"is_disabled":false,"rental_uris":{"android":"levelo://app?vid=4c893399-b4ed-40ed-a49f-713da320f269","ios":"levelo://app?vid=4c893399-b4ed-40ed-a49f-713da320f269"},"vehicle_type_id":"4","last_reported":1744384230,"current_range_meters":14400,"station_id":"","pricing_plan_id":"cebpf4jnsgd1na2vs0mg"},{"bike_id":"8c58f2fa-99e1-41f8-bf90-9c1648b679b1","system_id":"levelo_inurba_marseille","lat":43.27308,"lon":5.41524,"is_reserved":false,"is_disabled":false,"rental_uris":{"android":"levelo://app?vid=8c58f2fa-99e1-41f8-bf90-9c1648b679b1","ios":"levelo://app?vid=8c58f2fa-99e1-41f8-bf90-9c1648b679b1"},"vehicle_type_id":"4","last_reported":1744384230,"current_range_meters":14400,"station_id":"","pricing_plan_id":"cebpf4jnsgd1na2vs0mg"},{"bike_id":"567c07a9-7437-4cc2-ae82-4411a10d7058","system_id":"levelo_inurba_marseille","lat":43.28414,"lon":5.34985,"is_reserved":false,"is_disabled":false,"rental_uris":{"android":"levelo://app?vid=567c07a9-7437-4cc2-ae82-4411a10d7058","ios":"levelo://app?vid=567c07a9-7437-4cc2-ae82-4411a10d7058"},"vehicle_type_id":"4","last_reported":1744384230,"current_range_meters":14800,"station_id":"ce4bhbh2rcd13ifvqepg","pricing_plan_id":"cebpf4jnsgd1na2vs0mg"},{"bike_id":"86e33131-e12e-4cbb-b0ce-4c18f7aa006e","system_id":"levelo_inurba_marseille","lat":43.2314,"lon":5.43708,"is_reserved":false,"is_disabled":false,"rental_uris":{"android":"levelo://app?vid=86e33131-e12e-4cbb-b0ce-4c18f7aa006e","ios":"levelo://app?vid=86e33131-e12e-4cbb-b0ce-4c18f7aa006e"},"vehicle_type_id":"4","last_reported":1744384230,"current_range_meters":14800,"station_id":"ce4bhmp2rcd13ifvqgog","pricing_plan_id":"cebpf4jnsgd1na2vs0mg"},{"bike_id":"d2f5cbfb-62fc-4079-9d3d-f32aee8477e7","system_id":"levelo_inurba_marseille","lat":43.2996,"lon":5.37169,"is_reserved":false,"is_disabled":false,"rental_uris":{"android":"levelo://app?vid=d2f5cbfb-62fc-4079-9d3d-f32aee8477e7","ios":"levelo://app?vid=d2f5cbfb-62fc-4079-9d3d-f32aee8477e7"},"vehicle_type_id":"4","last_reported":1744384230,"current_range_meters":14800,"station_id":"ce4bgr92rcd13ifvqc7g","pricing_plan_id":"cebpf4jnsgd1na2vs0mg"},{"bike_id":"feef053b-b0d9-496c-99dc-5b212b5ee216","system_id":"levelo_inurba_marseille","lat":43.28707,"lon":5.39989,"is_reserved":false,"is_disabled":false,"rental_uris":{"android":"levelo://app?vid=feef053b-b0d9-496c-99dc-5b212b5ee216","ios":"levelo://app?vid=feef053b-b0d9-496c-99dc-5b212b5ee216"},"vehicle_type_id":"4","last_reported":1744384230,"current_range_meters":14800,"station_id":"ce4bho92rcd13ifvqh3g","pricing_plan_id":"cebpf4jnsgd1na2vs0mg"},{"bike_id":"562417a3-35a6-4099-bc9a-5d57dbab2d36","system_id":"levelo_inurba_marseille","lat":43.28944,"lon":5.36633,"is_reserved":false,"is_disabled":false,"rental_uris":{"android":"levelo://app?vid=562417a3-35a6-4099-bc9a-5d57dbab2d36","ios":"levelo://app?vid=562417a3-35a6-4099-bc9a-5d57dbab2d36"},"vehicle_type_id":"4","last_reported":1744384230,"current_range_meters":14800,"station_id":"ce4bhap2rcd13ifvqek0","pricing_plan_id":"cebpf4jnsgd1na2vs0mg"},{"bike_id":"ef291804-1477-432e-b153-82ea15725418","system_id":"levelo_inurba_marseille","lat":43.33742,"lon":5.37454,"is_reserved":false,"is_disabled":false,"rental_uris":{"android":"levelo://app?vid=ef291804-1477-432e-b153-82ea15725418","ios":"levelo://app?vid=ef291804-1477-432e-b153-82ea15725418"},"vehicle_type_id":"4","last_reported":1744384230,"current_range_meters":15200,"station_id":"","pricing_plan_id":"cebpf4jnsgd1na2vs0mg"},{"bike_id":"232ecfd5-bc21-4dee-b747-8e9263de9c1e","system_id":"levelo_inurba_marseille","lat":43.31526,"lon":5.380293,"is_reserved":false,"is_disabled":false,"rental_uris":{"android":"levelo://app?vid=232ecfd5-bc21-4dee-b747-8e9263de9c1e","ios":"levelo://app?vid=232ecfd5-bc21-4dee-b747-8e9263de9c1e"},"vehicle_type_id":"4","last_reported":1744384230,"current_range_meters":15200,"station_id":"ce4bhsp2rcd13ifvqi50","pricing_plan_id":"cebpf4jnsgd1na2vs0mg"},{"bike_id":"4651fc10-fe57-460e-89c6-9ba891098581","system_id":"levelo_inurba_marseille","lat":43.24166,"lon":5.36401,"is_reserved":false,"is_disabled":false,"rental_uris":{"android":"levelo://app?vid=4651fc10-fe57-460e-89c6-9ba891098581","ios":"levelo://app?vid=4651fc10-fe57-460e-89c6-9ba891098581"},"vehicle_type_id":"4","last_reported":1744384230,"current_range_meters":15200,"station_id":"cpo36qri1sfpv3e86is0","pricing_plan_id":"cebpf4jnsgd1na2vs0mg"},{"bike_id":"f70a4ee2-4490-4e90-bfac-3166babcefeb","system_id":"levelo_inurba_marseille","lat":43.30794,"lon":5.38164,"is_reserved":false,"is_disabled":false,"rental_uris":{"android":"levelo://app?vid=f70a4ee2-4490-4e90-bfac-3166babcefeb","ios":"levelo://app?vid=f70a4ee2-4490-4e90-bfac-3166babcefeb"},"vehicle_type_id":"4","last_reported":1744384230,"current_range_meters":15200,"station_id":"ce4bgt12rcd13ifvqce0","pricing_plan_id":"cebpf4jnsgd1na2vs0mg"},{"bike_id":"0b02b091-d03e-4729-82ac-5760d2f04eb1","system_id":"levelo_inurba_marseille","lat":43.30147,"lon":5.380972,"is_reserved":false,"is_disabled":false,"rental_uris":{"android":"levelo://app?vid=0b02b091-d03e-4729-82ac-5760d2f04eb1","ios":"levelo://app?vid=0b02b091-d03e-4729-82ac-5760d2f04eb1"},"vehicle_type_id":"4","last_reported":1744384230,"current_range_meters":16000,"station_id":"ce4bgjp2rcd13ifvqbh0","pricing_plan_id":"cebpf4jnsgd1na2vs0mg"},{"bike_id":"5028c241-221f-4e48-955e-3400f9eb7961","system_id":"levelo_inurba_marseille","lat":43.282623,"lon":5.350625,"is_reserved":false,"is_disabled":false,"rental_uris":{"android":"levelo://app?vid=5028c241-221f-4e48-955e-3400f9eb7961","ios":"levelo://app?vid=5028c241-221f-4e48-955e-3400f9eb7961"},"vehicle_type_id":"4","last_reported":1744384230,"current_range_meters":16000,"station_id":"ce4bhbp2rcd13ifvqerg","pricing_plan_id":"cebpf4jnsgd1na2vs0mg"},{"bike_id":"1943355b-8cd5-4580-bbfd-55507adffd6f","system_id":"levelo_inurba_marseille","lat":43.28266,"lon":5.35064,"is_reserved":false,"is_disabled":false,"rental_uris":{"android":"levelo://app?vid=1943355b-8cd5-4580-bbfd-55507adffd6f","ios":"levelo://app?vid=1943355b-8cd5-4580-bbfd-55507adffd6f"},"vehicle_type_id":"4","last_reported":1744384230,"current_range_meters":16000,"station_id":"ce4bhbp2rcd13ifvqerg","pricing_plan_id":"cebpf4jnsgd1na2vs0mg"},{"bike_id":"13b27629-437b-4e11-a95f-f854106df393","system_id":"levelo_inurba_marseille","lat":43.30806,"lon":5.38169,"is_reserved":false,"is_disabled":false,"rental_uris":{"android":"levelo://app?vid=13b27629-437b-4e11-a95f-f854106df393","ios":"levelo://app?vid=13b27629-437b-4e11-a95f-f854106df393"},"vehicle_type_id":"4","last_reported":1744384230,"current_range_meters":16000,"station_id":"ce4bgt12rcd13ifvqce0","pricing_plan_id":"cebpf4jnsgd1na2vs0mg"},{"bike_id":"b20e9125-3e45-4b30-b69f-b35eb9cdbfd7","system_id":"levelo_inurba_marseille","lat":43.2738,"lon":5.36261,"is_reserved":false,"is_disabled":false,"rental_uris":{"android":"levelo://app?vid=b20e9125-3e45-4b30-b69f-b35eb9cdbfd7","ios":"levelo://app?vid=b20e9125-3e45-4b30-b69f-b35eb9cdbfd7"},"vehicle_type_id":"4","last_reported":1744384230,"current_range_meters":16400,"station_id":"ce4bhbh2rcd13ifvqeo0","pricing_plan_id":"cebpf4jnsgd1na2vs0mg"},{"bike_id":"54a7d26a-c5f8-4008-b945-bcc5a036c746","system_id":"levelo_inurba_marseille","lat":43.23317,"lon":5.36161,"is_reserved":false,"is_disabled":false,"rental_uris":{"android":"levelo://app?vid=54a7d26a-c5f8-4008-b945-bcc5a036c746","ios":"levelo://app?vid=54a7d26a-c5f8-4008-b945-bcc5a036c746"},"vehicle_type_id":"4","last_reported":1744384230,"current_range_meters":16400,"station_id":"","pricing_plan_id":"cebpf4jnsgd1na2vs0mg"},{"bike_id":"87b4fcee-8d0f-461a-bcbd-c8707f107826","system_id":"levelo_inurba_marseille","lat":43.24169,"lon":5.36407,"is_reserved":false,"is_disabled":false,"rental_uris":{"android":"levelo://app?vid=87b4fcee-8d0f-461a-bcbd-c8707f107826","ios":"levelo://app?vid=87b4fcee-8d0f-461a-bcbd-c8707f107826"},"vehicle_type_id":"4","last_reported":1744384230,"current_range_meters":16400,"station_id":"cpo36qri1sfpv3e86is0","pricing_plan_id":"cebpf4jnsgd1na2vs0mg"},{"bike_id":"cf45f74e-eb31-40f3-9bdf-8bd96fde4310","system_id":"levelo_inurba_marseille","lat":43.24806,"lon":5.37461,"is_reserved":false,"is_disabled":false,"rental_uris":{"android":"levelo://app?vid=cf45f74e-eb31-40f3-9bdf-8bd96fde4310","ios":"levelo://app?vid=cf45f74e-eb31-40f3-9bdf-8bd96fde4310"},"vehicle_type_id":"4","last_reported":1744384230,"current_range_meters":16000,"station_id":"ce4bhgh2rcd13ifvqfb0","pricing_plan_id":"cebpf4jnsgd1na2vs0mg"},{"bike_id":"7c873a50-0a5c-4ba6-bd01-c190f37d1a81","system_id":"levelo_inurba_marseille","lat":43.28418,"lon":5.34984,"is_reserved":false,"is_disabled":false,"rental_uris":{"android":"levelo://app?vid=7c873a50-0a5c-4ba6-bd01-c190f37d1a81","ios":"levelo://app?vid=7c873a50-0a5c-4ba6-bd01-c190f37d1a81"},"vehicle_type_id":"4","last_reported":1744384230,"current_range_meters":16400,"station_id":"ce4bhbh2rcd13ifvqepg","pricing_plan_id":"cebpf4jnsgd1na2vs0mg"},{"bike_id":"2473096a-dfc1-4573-87fc-a0162a53cb4c","system_id":"levelo_inurba_marseille","lat":43.2862,"lon":5.35103,"is_reserved":false,"is_disabled":false,"rental_uris":{"android":"levelo://app?vid=2473096a-dfc1-4573-87fc-a0162a53cb4c","ios":"levelo://app?vid=2473096a-dfc1-4573-87fc-a0162a53cb4c"},"vehicle_type_id":"4","last_reported":1744384230,"current_range_meters":16400,"station_id":"ce4bhch2rcd13ifvqeug","pricing_plan_id":"cebpf4jnsgd1na2vs0mg"},{"bike_id":"f2d51714-6acc-45b0-ad90-03def090f265","system_id":"levelo_inurba_marseille","lat":43.2842,"lon":5.34994,"is_reserved":false,"is_disabled":false,"rental_uris":{"android":"levelo://app?vid=f2d51714-6acc-45b0-ad90-03def090f265","ios":"levelo://app?vid=f2d51714-6acc-45b0-ad90-03def090f265"},"vehicle_type_id":"4","last_reported":1744384230,"current_range_meters":16400,"station_id":"ce4bhbh2rcd13ifvqepg","pricing_plan_id":"cebpf4jnsgd1na2vs0mg"},{"bike_id":"5b77a833-8185-45c2-9fe3-07eb40df54ca","system_id":"levelo_inurba_marseille","lat":43.33995,"lon":5.38057,"is_reserved":false,"is_disabled":false,"rental_uris":{"android":"levelo://app?vid=5b77a833-8185-45c2-9fe3-07eb40df54ca","ios":"levelo://app?vid=5b77a833-8185-45c2-9fe3-07eb40df54ca"},"vehicle_type_id":"4","last_reported":1744384230,"current_range_meters":16400,"station_id":"","pricing_plan_id":"cebpf4jnsgd1na2vs0mg"},{"bike_id":"cfa05593-02c0-4361-b7cb-d147d92b27a4","system_id":"levelo_inurba_marseille","lat":43.24188,"lon":5.36402,"is_reserved":false,"is_disabled":false,"rental_uris":{"android":"levelo://app?vid=cfa05593-02c0-4361-b7cb-d147d92b27a4","ios":"levelo://app?vid=cfa05593-02c0-4361-b7cb-d147d92b27a4"},"vehicle_type_id":"4","last_reported":1744384230,"current_range_meters":16800,"station_id":"cpo36qri1sfpv3e86is0","pricing_plan_id":"cebpf4jnsgd1na2vs0mg"},{"bike_id":"cde980a5-3ab2-4dbb-8c2c-528a4ebe234e","system_id":"levelo_inurba_marseille","lat":43.282593,"lon":5.350642,"is_reserved":false,"is_disabled":false,"rental_uris":{"android":"levelo://app?vid=cde980a5-3ab2-4dbb-8c2c-528a4ebe234e","ios":"levelo://app?vid=cde980a5-3ab2-4dbb-8c2c-528a4ebe234e"},"vehicle_type_id":"4","last_reported":1744384230,"current_range_meters":16800,"station_id":"ce4bgih2rcd13ifvqba0","pricing_plan_id":"cebpf4jnsgd1na2vs0mg"},{"bike_id":"75ebdc33-9755-4ce3-9077-566a0a025e0d","system_id":"levelo_inurba_marseille","lat":43.28409,"lon":5.34999,"is_reserved":false,"is_disabled":false,"rental_uris":{"android":"levelo://app?vid=75ebdc33-9755-4ce3-9077-566a0a025e0d","ios":"levelo://app?vid=75ebdc33-9755-4ce3-9077-566a0a025e0d"},"vehicle_type_id":"4","last_reported":1744384230,"current_range_meters":16800,"station_id":"ce4bhbh2rcd13ifvqepg","pricing_plan_id":"cebpf4jnsgd1na2vs0mg"},{"bike_id":"e636c94b-b7f2-4559-99dc-a7c94aa9167f","system_id":"levelo_inurba_marseille","lat":43.2894,"lon":5.36632,"is_reserved":false,"is_disabled":false,"rental_uris":{"android":"levelo://app?vid=e636c94b-b7f2-4559-99dc-a7c94aa9167f","ios":"levelo://app?vid=e636c94b-b7f2-4559-99dc-a7c94aa9167f"},"vehicle_type_id":"4","last_reported":1744384230,"current_range_meters":16800,"station_id":"ce4bhap2rcd13ifvqek0","pricing_plan_id":"cebpf4jnsgd1na2vs0mg"},{"bike_id":"bd3aa8bf-134d-4265-94e2-5029b0100d58","system_id":"levelo_inurba_marseille","lat":43.30931,"lon":5.40145,"is_reserved":false,"is_disabled":false,"rental_uris":{"android":"levelo://app?vid=bd3aa8bf-134d-4265-94e2-5029b0100d58","ios":"levelo://app?vid=bd3aa8bf-134d-4265-94e2-5029b0100d58"},"vehicle_type_id":"4","last_reported":1744384230,"current_range_meters":16800,"station_id":"ce4bgvp2rcd13ifvqct0","pricing_plan_id":"cebpf4jnsgd1na2vs0mg"},{"bike_id":"0e7bf4ae-5aed-4055-a1f8-96debbb9847e","system_id":"levelo_inurba_marseille","lat":43.24171,"lon":5.3639,"is_reserved":false,"is_disabled":false,"rental_uris":{"android":"levelo://app?vid=0e7bf4ae-5aed-4055-a1f8-96debbb9847e","ios":"levelo://app?vid=0e7bf4ae-5aed-4055-a1f8-96debbb9847e"},"vehicle_type_id":"4","last_reported":1744384230,"current_range_meters":16800,"station_id":"cpo36qri1sfpv3e86is0","pricing_plan_id":"cebpf4jnsgd1na2vs0mg"},{"bike_id":"d492682b-1aab-4dd5-89ea-bb6d8e2434fa","system_id":"levelo_inurba_marseille","lat":43.32018,"lon":5.41573,"is_reserved":false,"is_disabled":false,"rental_uris":{"android":"levelo://app?vid=d492682b-1aab-4dd5-89ea-bb6d8e2434fa","ios":"levelo://app?vid=d492682b-1aab-4dd5-89ea-bb6d8e2434fa"},"vehicle_type_id":"4","last_reported":1744384230,"current_range_meters":17200,"station_id":"ce4bhq92rcd13ifvqhkg","pricing_plan_id":"cebpf4jnsgd1na2vs0mg"},{"bike_id":"8736806d-b298-4402-9c86-4cfaa20f473e","system_id":"levelo_inurba_marseille","lat":43.30326,"lon":5.40446,"is_reserved":false,"is_disabled":false,"rental_uris":{"android":"levelo://app?vid=8736806d-b298-4402-9c86-4cfaa20f473e","ios":"levelo://app?vid=8736806d-b298-4402-9c86-4cfaa20f473e"},"vehicle_type_id":"4","last_reported":1744384230,"current_range_meters":17200,"station_id":"ce4bh012rcd13ifvqd10","pricing_plan_id":"cebpf4jnsgd1na2vs0mg"},{"bike_id":"5c7ee8f3-1480-449a-af08-4a7877477d99","system_id":"levelo_inurba_marseille","lat":43.28284,"lon":5.35081,"is_reserved":false,"is_disabled":false,"rental_uris":{"android":"levelo://app?vid=5c7ee8f3-1480-449a-af08-4a7877477d99","ios":"levelo://app?vid=5c7ee8f3-1480-449a-af08-4a7877477d99"},"vehicle_type_id":"4","last_reported":1744384230,"current_range_meters":17200,"station_id":"ce4bhbp2rcd13ifvqerg","pricing_plan_id":"cebpf4jnsgd1na2vs0mg"},{"bike_id":"5ba68d68-988d-4e0d-82b5-6e5c047bd70c","system_id":"levelo_inurba_marseille","lat":43.22933,"lon":5.3538,"is_reserved":false,"is_disabled":false,"rental_uris":{"android":"levelo://app?vid=5ba68d68-988d-4e0d-82b5-6e5c047bd70c","ios":"levelo://app?vid=5ba68d68-988d-4e0d-82b5-6e5c047bd70c"},"vehicle_type_id":"4","last_reported":1744384230,"current_range_meters":17600,"station_id":"cpo3532slgdg3j2ikp40","pricing_plan_id":"cebpf4jnsgd1na2vs0mg"},{"bike_id":"144703e0-d5f7-41d4-a879-323ec44ca4bc","system_id":"levelo_inurba_marseille","lat":43.21751,"lon":5.34601,"is_reserved":false,"is_disabled":false,"rental_uris":{"android":"levelo://app?vid=144703e0-d5f7-41d4-a879-323ec44ca4bc","ios":"levelo://app?vid=144703e0-d5f7-41d4-a879-323ec44ca4bc"},"vehicle_type_id":"4","last_reported":1744384230,"current_range_meters":17600,"station_id":"st_cvj6r9ubvosntc0bgbag","pricing_plan_id":"cebpf4jnsgd1na2vs0mg"},{"bike_id":"7a5c9c76-4e30-46ad-a0c8-64088d059970","system_id":"levelo_inurba_marseille","lat":43.24083,"lon":5.37741,"is_reserved":false,"is_disabled":false,"rental_uris":{"android":"levelo://app?vid=7a5c9c76-4e30-46ad-a0c8-64088d059970","ios":"levelo://app?vid=7a5c9c76-4e30-46ad-a0c8-64088d059970"},"vehicle_type_id":"4","last_reported":1744384230,"current_range_meters":17600,"station_id":"ce4bhnp2rcd13ifvqgvg","pricing_plan_id":"cebpf4jnsgd1na2vs0mg"},{"bike_id":"896d3b5f-ab31-48c8-92dc-50e5bd5335ac","system_id":"levelo_inurba_marseille","lat":43.31767,"lon":5.39026,"is_reserved":false,"is_disabled":false,"rental_uris":{"android":"levelo://app?vid=896d3b5f-ab31-48c8-92dc-50e5bd5335ac","ios":"levelo://app?vid=896d3b5f-ab31-48c8-92dc-50e5bd5335ac"},"vehicle_type_id":"4","last_reported":1744384230,"current_range_meters":17600,"station_id":"ce4bhqp2rcd13ifvqhng","pricing_plan_id":"cebpf4jnsgd1na2vs0mg"},{"bike_id":"adab0148-372e-4fab-980e-7006f1bac408","system_id":"levelo_inurba_marseille","lat":43.27378,"lon":5.36248,"is_reserved":false,"is_disabled":false,"rental_uris":{"android":"levelo://app?vid=adab0148-372e-4fab-980e-7006f1bac408","ios":"levelo://app?vid=adab0148-372e-4fab-980e-7006f1bac408"},"vehicle_type_id":"4","last_reported":1744384230,"current_range_meters":17600,"station_id":"ce4bhbh2rcd13ifvqeo0","pricing_plan_id":"cebpf4jnsgd1na2vs0mg"},{"bike_id":"ea747d2a-66d8-4c91-9ba9-e534c94b4922","system_id":"levelo_inurba_marseille","lat":43.22929,"lon":5.3539,"is_reserved":false,"is_disabled":false,"rental_uris":{"android":"levelo://app?vid=ea747d2a-66d8-4c91-9ba9-e534c94b4922","ios":"levelo://app?vid=ea747d2a-66d8-4c91-9ba9-e534c94b4922"},"vehicle_type_id":"4","last_reported":1744384230,"current_range_meters":17600,"station_id":"cpo3532slgdg3j2ikp40","pricing_plan_id":"cebpf4jnsgd1na2vs0mg"},{"bike_id":"90cddebc-2506-42ee-9df1-36a6154dff75","system_id":"levelo_inurba_marseille","lat":43.24162,"lon":5.36391,"is_reserved":false,"is_disabled":false,"rental_uris":{"android":"levelo://app?vid=90cddebc-2506-42ee-9df1-36a6154dff75","ios":"levelo://app?vid=90cddebc-2506-42ee-9df1-36a6154dff75"},"vehicle_type_id":"4","last_reported":1744384230,"current_range_meters":17600,"station_id":"cpo36qri1sfpv3e86is0","pricing_plan_id":"cebpf4jnsgd1na2vs0mg"},{"bike_id":"952bfe0c-042e-4f68-928d-92643c779364","system_id":"levelo_inurba_marseille","lat":43.29195,"lon":5.35799,"is_reserved":false,"is_disabled":false,"rental_uris":{"android":"levelo://app?vid=952bfe0c-042e-4f68-928d-92643c779364","ios":"levelo://app?vid=952bfe0c-042e-4f68-928d-92643c779364"},"vehicle_type_id":"4","last_reported":1744384230,"current_range_meters":18000,"station_id":"ce4bhb12rcd13ifvqel0","pricing_plan_id":"cebpf4jnsgd1na2vs0mg"},{"bike_id":"536e7ffb-010b-4651-9264-29045f681e84","system_id":"levelo_inurba_marseille","lat":43.30517,"lon":5.36526,"is_reserved":false,"is_disabled":false,"rental_uris":{"android":"levelo://app?vid=536e7ffb-010b-4651-9264-29045f681e84","ios":"levelo://app?vid=536e7ffb-010b-4651-9264-29045f681e84"},"vehicle_type_id":"4","last_reported":1744384230,"current_range_meters":18000,"station_id":"","pricing_plan_id":"cebpf4jnsgd1na2vs0mg"},{"bike_id":"f02aeb64-6231-4974-9e6f-f484f78fc20e","system_id":"levelo_inurba_marseille","lat":43.23147,"lon":5.4372,"is_reserved":false,"is_disabled":false,"rental_uris":{"android":"levelo://app?vid=f02aeb64-6231-4974-9e6f-f484f78fc20e","ios":"levelo://app?vid=f02aeb64-6231-4974-9e6f-f484f78fc20e"},"vehicle_type_id":"4","last_reported":1744384230,"current_range_meters":18000,"station_id":"ce4bhmp2rcd13ifvqgog","pricing_plan_id":"cebpf4jnsgd1na2vs0mg"},{"bike_id":"31e9989c-57fc-4216-901b-bb663a87c71c","system_id":"levelo_inurba_marseille","lat":43.28397,"lon":5.37521,"is_reserved":false,"is_disabled":false,"rental_uris":{"android":"levelo://app?vid=31e9989c-57fc-4216-901b-bb663a87c71c","ios":"levelo://app?vid=31e9989c-57fc-4216-901b-bb663a87c71c"},"vehicle_type_id":"4","last_reported":1744384230,"current_range_meters":18000,"station_id":"ce4bh412rcd13ifvqds0","pricing_plan_id":"cebpf4jnsgd1na2vs0mg"},{"bike_id":"b4a4e9e8-6ed9-4ce6-b3a1-cf3877a23037","system_id":"levelo_inurba_marseille","lat":43.298405,"lon":5.362628,"is_reserved":false,"is_disabled":false,"rental_uris":{"android":"levelo://app?vid=b4a4e9e8-6ed9-4ce6-b3a1-cf3877a23037","ios":"levelo://app?vid=b4a4e9e8-6ed9-4ce6-b3a1-cf3877a23037"},"vehicle_type_id":"4","last_reported":1744384230,"current_range_meters":18000,"station_id":"ce4bgpp2rcd13ifvqc3g","pricing_plan_id":"cebpf4jnsgd1na2vs0mg"},{"bike_id":"eb489c2e-1675-434f-bbfa-6a9ed74fea49","system_id":"levelo_inurba_marseille","lat":43.2118,"lon":5.35082,"is_reserved":false,"is_disabled":false,"rental_uris":{"android":"levelo://app?vid=eb489c2e-1675-434f-bbfa-6a9ed74fea49","ios":"levelo://app?vid=eb489c2e-1675-434f-bbfa-6a9ed74fea49"},"vehicle_type_id":"4","last_reported":1744384230,"current_range_meters":18000,"station_id":"st_cvj6sg6p6f1abm77japg","pricing_plan_id":"cebpf4jnsgd1na2vs0mg"},{"bike_id":"1518266c-bc0c-4dc5-92e2-32256cc663dd","system_id":"levelo_inurba_marseille","lat":43.2842,"lon":5.34989,"is_reserved":false,"is_disabled":false,"rental_uris":{"android":"levelo://app?vid=1518266c-bc0c-4dc5-92e2-32256cc663dd","ios":"levelo://app?vid=1518266c-bc0c-4dc5-92e2-32256cc663dd"},"vehicle_type_id":"4","last_reported":1744384230,"current_range_meters":18000,"station_id":"ce4bhbh2rcd13ifvqepg","pricing_plan_id":"cebpf4jnsgd1na2vs0mg"},{"bike_id":"277d550a-7aff-4ee4-9385-ca3871a32e3b","system_id":"levelo_inurba_marseille","lat":43.27383,"lon":5.36258,"is_reserved":false,"is_disabled":false,"rental_uris":{"android":"levelo://app?vid=277d550a-7aff-4ee4-9385-ca3871a32e3b","ios":"levelo://app?vid=277d550a-7aff-4ee4-9385-ca3871a32e3b"},"vehicle_type_id":"4","last_reported":1744384230,"current_range_meters":18000,"station_id":"ce4bhbh2rcd13ifvqeo0","pricing_plan_id":"cebpf4jnsgd1na2vs0mg"},{"bike_id":"3b7d2905-a0de-4953-8cfb-25c8d93cf2ee","system_id":"levelo_inurba_marseille","lat":43.29197,"lon":5.36031,"is_reserved":false,"is_disabled":false,"rental_uris":{"android":"levelo://app?vid=3b7d2905-a0de-4953-8cfb-25c8d93cf2ee","ios":"levelo://app?vid=3b7d2905-a0de-4953-8cfb-25c8d93cf2ee"},"vehicle_type_id":"4","last_reported":1744384230,"current_range_meters":18000,"station_id":"","pricing_plan_id":"cebpf4jnsgd1na2vs0mg"},{"bike_id":"58fb3a01-a730-4d36-8f98-ce37d45005c3","system_id":"levelo_inurba_marseille","lat":43.26218,"lon":5.3744,"is_reserved":false,"is_disabled":false,"rental_uris":{"android":"levelo://app?vid=58fb3a01-a730-4d36-8f98-ce37d45005c3","ios":"levelo://app?vid=58fb3a01-a730-4d36-8f98-ce37d45005c3"},"vehicle_type_id":"4","last_reported":1744384230,"current_range_meters":18000,"station_id":"ce4bhgp2rcd13ifvqfc0","pricing_plan_id":"cebpf4jnsgd1na2vs0mg"},{"bike_id":"7e0ad1af-fab7-4504-aaca-d17756042372","system_id":"levelo_inurba_marseille","lat":43.26213,"lon":5.37442,"is_reserved":false,"is_disabled":false,"rental_uris":{"android":"levelo://app?vid=7e0ad1af-fab7-4504-aaca-d17756042372","ios":"levelo://app?vid=7e0ad1af-fab7-4504-aaca-d17756042372"},"vehicle_type_id":"4","last_reported":1744384230,"current_range_meters":18800,"station_id":"ce4bhgp2rcd13ifvqfc0","pricing_plan_id":"cebpf4jnsgd1na2vs0mg"},{"bike_id":"04161492-be6a-48b0-8cd5-6292f041e628","system_id":"levelo_inurba_marseille","lat":43.29048,"lon":5.35582,"is_reserved":false,"is_disabled":false,"rental_uris":{"android":"levelo://app?vid=04161492-be6a-48b0-8cd5-6292f041e628","ios":"levelo://app?vid=04161492-be6a-48b0-8cd5-6292f041e628"},"vehicle_type_id":"4","last_reported":1744384230,"current_range_meters":18800,"station_id":"ce4bhb92rcd13ifvqen0","pricing_plan_id":"cebpf4jnsgd1na2vs0mg"},{"bike_id":"c3821a9c-7588-4931-a42d-ffb6971fd988","system_id":"levelo_inurba_marseille","lat":43.28617,"lon":5.37071,"is_reserved":false,"is_disabled":false,"rental_uris":{"android":"levelo://app?vid=c3821a9c-7588-4931-a42d-ffb6971fd988","ios":"levelo://app?vid=c3821a9c-7588-4931-a42d-ffb6971fd988"},"vehicle_type_id":"4","last_reported":1744384230,"current_range_meters":19200,"station_id":"ce4bht12rcd13ifvqi60","pricing_plan_id":"cebpf4jnsgd1na2vs0mg"},{"bike_id":"6987fce8-70e5-4338-b467-660591301472","system_id":"levelo_inurba_marseille","lat":43.31332,"lon":5.39704,"is_reserved":false,"is_disabled":false,"rental_uris":{"android":"levelo://app?vid=6987fce8-70e5-4338-b467-660591301472","ios":"levelo://app?vid=6987fce8-70e5-4338-b467-660591301472"},"vehicle_type_id":"4","last_reported":1744384230,"current_range_meters":19200,"station_id":"ce4bgvp2rcd13ifvqcu0","pricing_plan_id":"cebpf4jnsgd1na2vs0mg"},{"bike_id":"e7d64116-368f-421d-902b-041b68f32a12","system_id":"levelo_inurba_marseille","lat":43.30583,"lon":5.36571,"is_reserved":false,"is_disabled":false,"rental_uris":{"android":"levelo://app?vid=e7d64116-368f-421d-902b-041b68f32a12","ios":"levelo://app?vid=e7d64116-368f-421d-902b-041b68f32a12"},"vehicle_type_id":"4","last_reported":1744384230,"current_range_meters":19200,"station_id":"ce4bgs12rcd13ifvqcag","pricing_plan_id":"cebpf4jnsgd1na2vs0mg"},{"bike_id":"2a1d864e-ef70-43f7-b9a6-efe6ce1c1848","system_id":"levelo_inurba_marseille","lat":43.29004,"lon":5.35488,"is_reserved":false,"is_disabled":false,"rental_uris":{"android":"levelo://app?vid=2a1d864e-ef70-43f7-b9a6-efe6ce1c1848","ios":"levelo://app?vid=2a1d864e-ef70-43f7-b9a6-efe6ce1c1848"},"vehicle_type_id":"4","last_reported":1744384230,"current_range_meters":19200,"station_id":"","pricing_plan_id":"cebpf4jnsgd1na2vs0mg"},{"bike_id":"c39e318b-ae8a-4c56-a6ad-ea429bf99b98","system_id":"levelo_inurba_marseille","lat":43.29264,"lon":5.3843,"is_reserved":false,"is_disabled":false,"rental_uris":{"android":"levelo://app?vid=c39e318b-ae8a-4c56-a6ad-ea429bf99b98","ios":"levelo://app?vid=c39e318b-ae8a-4c56-a6ad-ea429bf99b98"},"vehicle_type_id":"4","last_reported":1744384230,"current_range_meters":19200,"station_id":"ce4bh692rcd13ifvqea0","pricing_plan_id":"cebpf4jnsgd1na2vs0mg"},{"bike_id":"9a5bd8af-68ae-489b-ab8e-d0731e2a8d0c","system_id":"levelo_inurba_marseille","lat":43.28413,"lon":5.34995,"is_reserved":false,"is_disabled":false,"rental_uris":{"android":"levelo://app?vid=9a5bd8af-68ae-489b-ab8e-d0731e2a8d0c","ios":"levelo://app?vid=9a5bd8af-68ae-489b-ab8e-d0731e2a8d0c"},"vehicle_type_id":"4","last_reported":1744384230,"current_range_meters":19200,"station_id":"ce4bhbh2rcd13ifvqepg","pricing_plan_id":"cebpf4jnsgd1na2vs0mg"},{"bike_id":"65e718b2-b32d-4079-8dd7-935ba401376d","system_id":"levelo_inurba_marseille","lat":43.28708,"lon":5.39988,"is_reserved":false,"is_disabled":false,"rental_uris":{"android":"levelo://app?vid=65e718b2-b32d-4079-8dd7-935ba401376d","ios":"levelo://app?vid=65e718b2-b32d-4079-8dd7-935ba401376d"},"vehicle_type_id":"4","last_reported":1744384230,"current_range_meters":19200,"station_id":"ce4bho92rcd13ifvqh3g","pricing_plan_id":"cebpf4jnsgd1na2vs0mg"},{"bike_id":"25499cb7-3f56-405c-ab76-e346b9bde66d","system_id":"levelo_inurba_marseille","lat":43.29164,"lon":5.37147,"is_reserved":false,"is_disabled":false,"rental_uris":{"android":"levelo://app?vid=25499cb7-3f56-405c-ab76-e346b9bde66d","ios":"levelo://app?vid=25499cb7-3f56-405c-ab76-e346b9bde66d"},"vehicle_type_id":"4","last_reported":1744384230,"current_range_meters":19200,"station_id":"ce4bha92rcd13ifvqeh0","pricing_plan_id":"cebpf4jnsgd1na2vs0mg"},{"bike_id":"663b2732-4e40-469c-b29d-1168df3c33a7","system_id":"levelo_inurba_marseille","lat":43.30905,"lon":5.36842,"is_reserved":false,"is_disabled":false,"rental_uris":{"android":"levelo://app?vid=663b2732-4e40-469c-b29d-1168df3c33a7","ios":"levelo://app?vid=663b2732-4e40-469c-b29d-1168df3c33a7"},"vehicle_type_id":"4","last_reported":1744384230,"current_range_meters":19600,"station_id":"ce4bgn92rcd13ifvqbvg","pricing_plan_id":"cebpf4jnsgd1na2vs0mg"},{"bike_id":"0787e09e-c74a-401c-8617-c954b809aa3d","system_id":"levelo_inurba_marseille","lat":43.2872,"lon":5.37942,"is_reserved":false,"is_disabled":false,"rental_uris":{"android":"levelo://app?vid=0787e09e-c74a-401c-8617-c954b809aa3d","ios":"levelo://app?vid=0787e09e-c74a-401c-8617-c954b809aa3d"},"vehicle_type_id":"4","last_reported":1744384230,"current_range_meters":19600,"station_id":"ce4bh9p2rcd13ifvqec0","pricing_plan_id":"cebpf4jnsgd1na2vs0mg"},{"bike_id":"aa07e667-a671-4254-b17a-3e8f9c01d4ad","system_id":"levelo_inurba_marseille","lat":43.21751,"lon":5.34598,"is_reserved":false,"is_disabled":false,"rental_uris":{"android":"levelo://app?vid=aa07e667-a671-4254-b17a-3e8f9c01d4ad","ios":"levelo://app?vid=aa07e667-a671-4254-b17a-3e8f9c01d4ad"},"vehicle_type_id":"4","last_reported":1744384230,"current_range_meters":19600,"station_id":"","pricing_plan_id":"cebpf4jnsgd1na2vs0mg"},{"bike_id":"a7c58a60-a5c5-4a4e-b362-dc7feaea63d7","system_id":"levelo_inurba_marseille","lat":43.32008,"lon":5.38128,"is_reserved":false,"is_disabled":true,"rental_uris":{"android":"levelo://app?vid=a7c58a60-a5c5-4a4e-b362-dc7feaea63d7","ios":"levelo://app?vid=a7c58a60-a5c5-4a4e-b362-dc7feaea63d7"},"vehicle_type_id":"4","last_reported":1744384230,"current_range_meters":19600,"station_id":"ce4bhr12rcd13ifvqhpg","pricing_plan_id":"cebpf4jnsgd1na2vs0mg"},{"bike_id":"22a06e16-8428-478e-8530-6cf36614d66e","system_id":"levelo_inurba_marseille","lat":43.28273,"lon":5.3508,"is_reserved":false,"is_disabled":false,"rental_uris":{"android":"levelo://app?vid=22a06e16-8428-478e-8530-6cf36614d66e","ios":"levelo://app?vid=22a06e16-8428-478e-8530-6cf36614d66e"},"vehicle_type_id":"4","last_reported":1744384230,"current_range_meters":20000,"station_id":"ce4bhbp2rcd13ifvqerg","pricing_plan_id":"cebpf4jnsgd1na2vs0mg"},{"bike_id":"a5fa36eb-8f94-4253-826b-31a3a0efc062","system_id":"levelo_inurba_marseille","lat":43.31074,"lon":5.38365,"is_reserved":false,"is_disabled":false,"rental_uris":{"android":"levelo://app?vid=a5fa36eb-8f94-4253-826b-31a3a0efc062","ios":"levelo://app?vid=a5fa36eb-8f94-4253-826b-31a3a0efc062"},"vehicle_type_id":"4","last_reported":1744384230,"current_range_meters":20000,"station_id":"ce4bgv92rcd13ifvqcr0","pricing_plan_id":"cebpf4jnsgd1na2vs0mg"},{"bike_id":"dc9de33f-a3da-488e-8d35-ff044cf6a4a8","system_id":"levelo_inurba_marseille","lat":43.23155,"lon":5.437199,"is_reserved":false,"is_disabled":false,"rental_uris":{"android":"levelo://app?vid=dc9de33f-a3da-488e-8d35-ff044cf6a4a8","ios":"levelo://app?vid=dc9de33f-a3da-488e-8d35-ff044cf6a4a8"},"vehicle_type_id":"4","last_reported":1744384230,"current_range_meters":20000,"station_id":"ce4bhmp2rcd13ifvqgog","pricing_plan_id":"cebpf4jnsgd1na2vs0mg"},{"bike_id":"020e9999-d552-48d0-ae5f-b725af0dbea2","system_id":"levelo_inurba_marseille","lat":43.29906,"lon":5.43758,"is_reserved":false,"is_disabled":false,"rental_uris":{"android":"levelo://app?vid=020e9999-d552-48d0-ae5f-b725af0dbea2","ios":"levelo://app?vid=020e9999-d552-48d0-ae5f-b725af0dbea2"},"vehicle_type_id":"4","last_reported":1744384230,"current_range_meters":20000,"station_id":"","pricing_plan_id":"cebpf4jnsgd1na2vs0mg"},{"bike_id":"c6ca059d-bf54-4fa8-aa8d-df7d2a2df419","system_id":"levelo_inurba_marseille","lat":43.28269,"lon":5.35073,"is_reserved":false,"is_disabled":false,"rental_uris":{"android":"levelo://app?vid=c6ca059d-bf54-4fa8-aa8d-df7d2a2df419","ios":"levelo://app?vid=c6ca059d-bf54-4fa8-aa8d-df7d2a2df419"},"vehicle_type_id":"4","last_reported":1744384230,"current_range_meters":20000,"station_id":"ce4bhbp2rcd13ifvqerg","pricing_plan_id":"cebpf4jnsgd1na2vs0mg"},{"bike_id":"24a483c5-4fcf-434b-8934-3be44a3b0449","system_id":"levelo_inurba_marseille","lat":43.278362,"lon":5.392229,"is_reserved":false,"is_disabled":false,"rental_uris":{"android":"levelo://app?vid=24a483c5-4fcf-434b-8934-3be44a3b0449","ios":"levelo://app?vid=24a483c5-4fcf-434b-8934-3be44a3b0449"},"vehicle_type_id":"4","last_reported":1744384230,"current_range_meters":20000,"station_id":"ce4bhjp2rcd13ifvqga0","pricing_plan_id":"cebpf4jnsgd1na2vs0mg"},{"bike_id":"a945cbf3-38e6-4aa3-9aa1-d414d6c834b5","system_id":"levelo_inurba_marseille","lat":43.31888,"lon":5.40731,"is_reserved":false,"is_disabled":true,"rental_uris":{"android":"levelo://app?vid=a945cbf3-38e6-4aa3-9aa1-d414d6c834b5","ios":"levelo://app?vid=a945cbf3-38e6-4aa3-9aa1-d414d6c834b5"},