{"last_updated":1710533273,"ttl":30,"version":"2.2","data":{"bikes":[{"bike_id":"d77b986b-64da-4967-94cb-f8569b2b3e97","system_id":"levelo_inurba_marseille","lat":43.313391,"lon":5.36706,"is_reserved":false,"is_disabled":false,"rental_uris":{"android":"levelo://app?vid=d77b986b-64da-4967-94cb-f8569b2b3e97","ios":"levelo://app?vid=d77b986b-64da-4967-94cb-f8569b2b3e97"},"vehicle_type_id":"4","last_reported":1710533273,"current_range_meters":14800,"station_id":"ce4bgr92rcd13ifvqc6g","pricing_plan_id":"cebpf4jnsgd1na2vs0mg"},{"bike_id":"99800f16-9d30-4e1c-8ad3-1ed1b3fe9ebc","system_id":"levelo_inurba_marseille","lat":43.31341,"lon":5.367098,"is_reserved":false,"is_disabled":false,"rental_uris":{"android":"levelo://app?vid=99800f16-9d30-4e1c-8ad3-1ed1b3fe9ebc","ios":"levelo://app?vid=99800f16-9d30-4e1c-8ad3-1ed1b3fe9ebc"},"vehicle_type_id":"4","last_reported":1710533273,"current_range_meters":7600,"station_id":"ce4bgr92rcd13ifvqc6g","pricing_plan_id":"cebpf4jnsgd1na2vs0mg"},{"bike_id":"e8572e33-98a2-480c-9551-d08c3b15677b","system_id":"levelo_inurba_marseille","lat":43.312239,"lon":5.368562,"is_reserved":false,"is_disabled":false,"rental_uris":{"android":"levelo://app?vid=e8572e33-98a2-480c-9551-d08c3b15677b","ios":"levelo://app?vid=e8572e33-98a2-480c-9551-d08c3b15677b"},"vehicle_type_id":"4","last_reported":1710533273,"current_range_meters":18800,"station_id":"ce4bgl92rcd13ifvqbq0","pricing_plan_id":"cebpf4jnsgd1na2vs0mg"},{"bike_id":"0734470c-c42a-4fca-99e9-9c13d83c6686","system_id":"levelo_inurba_marseille","lat":43.312239,"lon":5.368562,"is_reserved":false,"is_disabled":false,"rental_uris":{"android":"levelo://app?vid=0734470c-c42a-4fca-99e9-9c13d83c6686","ios":"levelo://app?vid=0734470c-c42a-4fca-99e9-9c13d83c6686"},"vehicle_type_id":"4","last_reported":1710533273,"current_range_meters":6000,"station_id":"ce4bgl92rcd13ifvqbq0","pricing_plan_id":"cebpf4jnsgd1na2vs0mg"},{"bike_id":"952e6479-6d9a-4de8-9297-13cc2e93348c","system_id":"levelo_inurba_marseille","lat":43.312239,"lon":5.368562,"is_reserved":false,"is_disabled":false,"rental_uris":{"android":"levelo://app?vid=952e6479-6d9a-4de8-9297-13cc2e93348c","ios":"levelo://app?vid=952e6479-6d9a-4de8-9297-13cc2e93348c"},"vehicle_type_id":"4","last_reported":1710533273,"current_range_meters":28400,"station_id":"ce4bgl92rcd13ifvqbq0","pricing_plan_id":"cebpf4jnsgd1na2vs0mg"},{"bike_id":"fabab512-1b32-4bb3-ada2-5c126cd02861","system_id":"levelo_inurba_marseille","lat":43.312239,"lon":5.368562,"is_reserved":false,"is_disabled":false,"rental_uris":{"android":"levelo://app?vid=fabab512-1b32-4bb3-ada2-5c126cd02861","ios":"levelo://app?vid=fabab512-1b32-4bb3-ada2-5c126cd02861"},"vehicle_type_id":"4","last_reported":1710533273,"current_range_meters":5600,"station_id":"ce4bgl92rcd13ifvqbq0","pricing_plan_id":"cebpf4jnsgd1na2vs0mg"},{"bike_id":"f7f6ae68-9fb6-4fa1-b35e-7ceae9ae58c6","system_id":"levelo_inurba_marseille","lat":43.309076,"lon":5.368465,"is_reserved":false,"is_disabled":false,"rental_uris":{"android":"levelo://app?vid=f7f6ae68-9fb6-4fa1-b35e-7ceae9ae58c6","ios":"levelo://app?vid=f7f6ae68-9fb6-4fa1-b35e-7ceae9ae58c6"},"vehicle_type_id":"4","last_reported":1710533273,"current_range_meters":10400,"station_id":"ce4bgn92rcd13ifvqbvg","pricing_plan_id":"cebpf4jnsgd1na2vs0mg"},{"bike_id":"60e35dbe-58d9-4cdc-bc47-0eb2e30d43d3","system_id":"levelo_inurba_marseille","lat":43.309076,"lon":5.368465,"is_reserved":false,"is_disabled":false,"rental_uris":{"android":"levelo://app?vid=60e35dbe-58d9-4cdc-bc47-0eb2e30d43d3","ios":"levelo://app?vid=60e35dbe-58d9-4cdc-bc47-0eb2e30d43d3"},"vehicle_type_id":"4","last_reported":1710533273,"current_range_meters":2400,"station_id":"ce4bgn92rcd13ifvqbvg","pricing_plan_id":"cebpf4jnsgd1na2vs0mg"},{"bike_id":"d74a7086-5065-4409-b145-0d8764f305ac","system_id":"levelo_inurba_marseille","lat":43.309076,"lon":5.368465,"is_reserved":false,"is_disabled":false,"rental_uris":{"android":"levelo://app?vid=d74a7086-5065-4409-b145-0d8764f305ac","ios":"levelo://app?vid=d74a7086-5065-4409-b145-0d8764f305ac"},"vehicle_type_id":"4","last_reported":1710533273,"current_range_meters":4800,"station_id":"ce4bgn92rcd13ifvqbvg","pricing_plan_id":"cebpf4jnsgd1na2vs0mg"},{"bike_id":"861f2941-3716-4891-8256-a799c6ad0285","system_id":"levelo_inurba_marseille","lat":43.314811,"lon":5.373103,"is_reserved":false,"is_disabled":false,"rental_uris":{"android":"levelo://app?vid=861f2941-3716-4891-8256-a799c6ad0285","ios":"levelo://app?vid=861f2941-3716-4891-8256-a799c6ad0285"},"vehicle_type_id":"4","last_reported":1710533273,"current_range_meters":16400,"station_id":"ce4bgt12rcd13ifvqcd0","pricing_plan_id":"cebpf4jnsgd1na2vs0mg"},{"bike_id":"f8537445-d0ca-4576-a13c-96d366752794","system_id":"levelo_inurba_marseille","lat":43.314811,"lon":5.373104,"is_reserved":false,"is_disabled":false,"rental_uris":{"android":"levelo://app?vid=f8537445-d0ca-4576-a13c-96d366752794","ios":"levelo://app?vid=f8537445-d0ca-4576-a13c-96d366752794"},"vehicle_type_id":"4","last_reported":1710533273,"current_range_meters":0,"station_id":"ce4bgt12rcd13ifvqcd0","pricing_plan_id":"cebpf4jnsgd1na2vs0mg"},{"bike_id":"71477fb7-807c-46cc-8b82-7c0300ee9adf","system_id":"levelo_inurba_marseille","lat":43.309039,"lon":5.371797,"is_reserved":false,"is_disabled":false,"rental_uris":{"android":"levelo://app?vid=71477fb7-807c-46cc-8b82-7c0300ee9adf","ios":"levelo://app?vid=71477fb7-807c-46cc-8b82-7c0300ee9adf"},"vehicle_type_id":"4","last_reported":1710533273,"current_range_meters":21200,"station_id":"ce4bguh2rcd13ifvqckg","pricing_plan_id":"cebpf4jnsgd1na2vs0mg"},{"bike_id":"f56a1422-18ce-4950-b29f-9f06e7a7ada5","system_id":"levelo_inurba_marseille","lat":43.309034,"lon":5.371783,"is_reserved":false,"is_disabled":false,"rental_uris":{"android":"levelo://app?vid=f56a1422-18ce-4950-b29f-9f06e7a7ada5","ios":"levelo://app?vid=f56a1422-18ce-4950-b29f-9f06e7a7ada5"},"vehicle_type_id":"4","last_reported":1710533273,"current_range_meters":26400,"station_id":"ce4bguh2rcd13ifvqckg","pricing_plan_id":"cebpf4jnsgd1na2vs0mg"},{"bike_id":"57a9a273-37d6-426c-ae9a-ce6e5859cd40","system_id":"levelo_inurba_marseille","lat":43.30684,"lon":5.36618,"is_reserved":false,"is_disabled":false,"rental_uris":{"android":"levelo://app?vid=57a9a273-37d6-426c-ae9a-ce6e5859cd40","ios":"levelo://app?vid=57a9a273-37d6-426c-ae9a-ce6e5859cd40"},"vehicle_type_id":"4","last_reported":1710533273,"current_range_meters":15600,"station_id":"","pricing_plan_id":"cebpf4jnsgd1na2vs0mg"},{"bike_id":"f0d71f4f-b242-48ce-ae6b-4e163cbc0aca","system_id":"levelo_inurba_marseille","lat":43.305368,"lon":5.367343,"is_reserved":false,"is_disabled":false,"rental_uris":{"android":"levelo://app?vid=f0d71f4f-b242-48ce-ae6b-4e163cbc0aca","ios":"levelo://app?vid=f0d71f4f-b242-48ce-ae6b-4e163cbc0aca"},"vehicle_type_id":"4","last_reported":1710533273,"current_range_meters":0,"station_id":"ce4bgrp2rcd13ifvqc9g","pricing_plan_id":"cebpf4jnsgd1na2vs0mg"},{"bike_id":"ff6df09e-6919-43dc-8061-31cdf0cfc435","system_id":"levelo_inurba_marseille","lat":43.305368,"lon":5.367343,"is_reserved":false,"is_disabled":false,"rental_uris":{"android":"levelo://app?vid=ff6df09e-6919-43dc-8061-31cdf0cfc435","ios":"levelo://app?vid=ff6df09e-6919-43dc-8061-31cdf0cfc435"},"vehicle_type_id":"4","last_reported":1710533273,"current_range_meters":8800,"station_id":"ce4bgrp2rcd13ifvqc9g","pricing_plan_id":"cebpf4jnsgd1na2vs0mg"},{"bike_id":"67f535cd-fd0e-4d02-99a3-39d99545fd8b","system_id":"levelo_inurba_marseille","lat":43.305706,"lon":5.365654,"is_reserved":false,"is_disabled":false,"rental_uris":{"android":"levelo://app?vid=67f535cd-fd0e-4d02-99a3-39d99545fd8b","ios":"levelo://app?vid=67f535cd-fd0e-4d02-99a3-39d99545fd8b"},"vehicle_type_id":"4","last_reported":1710533273,"current_range_meters":5600,"station_id":"ce4bgs12rcd13ifvqcag","pricing_plan_id":"cebpf4jnsgd1na2vs0mg"},{"bike_id":"5b427d75-89b2-4e23-8256-6d37928ff7ca","system_id":"levelo_inurba_marseille","lat":43.305989,"lon":5.37225,"is_reserved":false,"is_disabled":false,"rental_uris":{"android":"levelo://app?vid=5b427d75-89b2-4e23-8256-6d37928ff7ca","ios":"levelo://app?vid=5b427d75-89b2-4e23-8256-6d37928ff7ca"},"vehicle_type_id":"4","last_reported":1710533273,"current_range_meters":18000,"station_id":"ce4bgqh2rcd13ifvqc4g","pricing_plan_id":"cebpf4jnsgd1na2vs0mg"},{"bike_id":"c9edaf0c-6b93-4b27-8f99-d99d5ccb0210","system_id":"levelo_inurba_marseille","lat":43.30599,"lon":5.37219,"is_reserved":false,"is_disabled":false,"rental_uris":{"android":"levelo://app?vid=c9edaf0c-6b93-4b27-8f99-d99d5ccb0210","ios":"levelo://app?vid=c9edaf0c-6b93-4b27-8f99-d99d5ccb0210"},"vehicle_type_id":"4","last_reported":1710533273,"current_range_meters":0,"station_id":"ce4bgqh2rcd13ifvqc4g","pricing_plan_id":"cebpf4jnsgd1na2vs0mg"},{"bike_id":"75b85b9b-5dc3-4e2c-91e1-956311896884","system_id":"levelo_inurba_marseille","lat":43.305989,"lon":5.37225,"is_reserved":false,"is_disabled":false,"rental_uris":{"android":"levelo://app?vid=75b85b9b-5dc3-4e2c-91e1-956311896884","ios":"levelo://app?vid=75b85b9b-5dc3-4e2c-91e1-956311896884"},"vehicle_type_id":"4","last_reported":1710533273,"current_range_meters":15600,"station_id":"ce4bgqh2rcd13ifvqc4g","pricing_plan_id":"cebpf4jnsgd1na2vs0mg"},{"bike_id":"04af954b-2824-46d7-bec0-7bf424e793f2","system_id":"levelo_inurba_marseille","lat":43.305989,"lon":5.37225,"is_reserved":false,"is_disabled":false,"rental_uris":{"android":"levelo://app?vid=04af954b-2824-46d7-bec0-7bf424e793f2","ios":"levelo://app?vid=04af954b-2824-46d7-bec0-7bf424e793f2"},"vehicle_type_id":"4","last_reported":1710533273,"current_range_meters":4000,"station_id":"ce4bgqh2rcd13ifvqc4g","pricing_plan_id":"cebpf4jnsgd1na2vs0mg"},{"bike_id":"e84109e8-0ade-4b80-8b6e-7d06413fccf5","system_id":"levelo_inurba_marseille","lat":43.311125,"lon":5.377624,"is_reserved":false,"is_disabled":false,"rental_uris":{"android":"levelo://app?vid=e84109e8-0ade-4b80-8b6e-7d06413fccf5","ios":"levelo://app?vid=e84109e8-0ade-4b80-8b6e-7d06413fccf5"},"vehicle_type_id":"4","last_reported":1710533273,"current_range_meters":0,"station_id":"ce4bgt92rcd13ifvqcg0","pricing_plan_id":"cebpf4jnsgd1na2vs0mg"},{"bike_id":"d2fc1d8b-85e5-4faa-8473-7466d783f4a7","system_id":"levelo_inurba_marseille","lat":43.311131,"lon":5.377651,"is_reserved":false,"is_disabled":false,"rental_uris":{"android":"levelo://app?vid=d2fc1d8b-85e5-4faa-8473-7466d783f4a7","ios":"levelo://app?vid=d2fc1d8b-85e5-4faa-8473-7466d783f4a7"},"vehicle_type_id":"4","last_reported":1710533273,"current_range_meters":400,"station_id":"ce4bgt92rcd13ifvqcg0","pricing_plan_id":"cebpf4jnsgd1na2vs0mg"},{"bike_id":"feffa9af-c0bf-4ec0-8c45-9d98dc512b88","system_id":"levelo_inurba_marseille","lat":43.311131,"lon":5.377651,"is_reserved":false,"is_disabled":false,"rental_uris":{"android":"levelo://app?vid=feffa9af-c0bf-4ec0-8c45-9d98dc512b88","ios":"levelo://app?vid=feffa9af-c0bf-4ec0-8c45-9d98dc512b88"},"vehicle_type_id":"4","last_reported":1710533273,"current_range_meters":26000,"station_id":"ce4bgt92rcd13ifvqcg0","pricing_plan_id":"cebpf4jnsgd1na2vs0mg"},{"bike_id":"6df83f43-049d-4b08-9117-d4af4e600906","system_id":"levelo_inurba_marseille","lat":43.307945,"lon":5.376487,"is_reserved":false,"is_disabled":false,"rental_uris":{"android":"levelo://app?vid=6df83f43-049d-4b08-9117-d4af4e600906","ios":"levelo://app?vid=6df83f43-049d-4b08-9117-d4af4e600906"},"vehicle_type_id":"4","last_reported":1710533273,"current_range_meters":2400,"station_id":"ce4bgv92rcd13ifvqcq0","pricing_plan_id":"cebpf4jnsgd1na2vs0mg"},{"bike_id":"dc75d143-b120-4e36-bc93-cfcfb7308bee","system_id":"levelo_inurba_marseille","lat":43.3042,"lon":5.36543,"is_reserved":false,"is_disabled":false,"rental_uris":{"android":"levelo://app?vid=dc75d143-b120-4e36-bc93-cfcfb7308bee","ios":"levelo://app?vid=dc75d143-b120-4e36-bc93-cfcfb7308bee"},"vehicle_type_id":"4","last_reported":1710533273,"current_range_meters":5200,"station_id":"","pricing_plan_id":"cebpf4jnsgd1na2vs0mg"},{"bike_id":"882eb0c3-ed4d-4753-9ac6-06985e32a930","system_id":"levelo_inurba_marseille","lat":43.317075,"lon":5.377367,"is_reserved":false,"is_disabled":false,"rental_uris":{"android":"levelo://app?vid=882eb0c3-ed4d-4753-9ac6-06985e32a930","ios":"levelo://app?vid=882eb0c3-ed4d-4753-9ac6-06985e32a930"},"vehicle_type_id":"4","last_reported":1710533273,"current_range_meters":18000,"station_id":"ce4bgth2rcd13ifvqch0","pricing_plan_id":"cebpf4jnsgd1na2vs0mg"},{"bike_id":"daae827d-d388-4cc3-a86e-8969222094c5","system_id":"levelo_inurba_marseille","lat":43.317075,"lon":5.377367,"is_reserved":false,"is_disabled":false,"rental_uris":{"android":"levelo://app?vid=daae827d-d388-4cc3-a86e-8969222094c5","ios":"levelo://app?vid=daae827d-d388-4cc3-a86e-8969222094c5"},"vehicle_type_id":"4","last_reported":1710533273,"current_range_meters":25600,"station_id":"ce4bgth2rcd13ifvqch0","pricing_plan_id":"cebpf4jnsgd1na2vs0mg"},{"bike_id":"c995754d-86eb-487f-a9f6-72134df6df4e","system_id":"levelo_inurba_marseille","lat":43.303571,"lon":5.367473,"is_reserved":false,"is_disabled":false,"rental_uris":{"android":"levelo://app?vid=c995754d-86eb-487f-a9f6-72134df6df4e","ios":"levelo://app?vid=c995754d-86eb-487f-a9f6-72134df6df4e"},"vehicle_type_id":"4","last_reported":1710533273,"current_range_meters":0,"station_id":"ce4bgqh2rcd13ifvqc5g","pricing_plan_id":"cebpf4jnsgd1na2vs0mg"},{"bike_id":"6df8a519-a704-46e9-b3eb-42b1fb917e85","system_id":"levelo_inurba_marseille","lat":43.31771,"lon":5.37788,"is_reserved":false,"is_disabled":false,"rental_uris":{"android":"levelo://app?vid=6df8a519-a704-46e9-b3eb-42b1fb917e85","ios":"levelo://app?vid=6df8a519-a704-46e9-b3eb-42b1fb917e85"},"vehicle_type_id":"4","last_reported":1710533273,"current_range_meters":14000,"station_id":"","pricing_plan_id":"cebpf4jnsgd1na2vs0mg"},{"bike_id":"028ed338-b204-4dc8-a6ac-2f7b538157b9","system_id":"levelo_inurba_marseille","lat":43.315293,"lon":5.380349,"is_reserved":false,"is_disabled":false,"rental_uris":{"android":"levelo://app?vid=028ed338-b204-4dc8-a6ac-2f7b538157b9","ios":"levelo://app?vid=028ed338-b204-4dc8-a6ac-2f7b538157b9"},"vehicle_type_id":"4","last_reported":1710533273,"current_range_meters":0,"station_id":"ce4bhsp2rcd13ifvqi50","pricing_plan_id":"cebpf4jnsgd1na2vs0mg"},{"bike_id":"75acbb7a-844c-4262-98aa-3529cada0940","system_id":"levelo_inurba_marseille","lat":43.315289,"lon":5.380349,"is_reserved":false,"is_disabled":false,"rental_uris":{"android":"levelo://app?vid=75acbb7a-844c-4262-98aa-3529cada0940","ios":"levelo://app?vid=75acbb7a-844c-4262-98aa-3529cada0940"},"vehicle_type_id":"4","last_reported":1710533273,"current_range_meters":30000,"station_id":"ce4bhsp2rcd13ifvqi50","pricing_plan_id":"cebpf4jnsgd1na2vs0mg"},{"bike_id":"3608d763-66fd-497b-a690-4b174f8b5ff5","system_id":"levelo_inurba_marseille","lat":43.315293,"lon":5.380349,"is_reserved":false,"is_disabled":false,"rental_uris":{"android":"levelo://app?vid=3608d763-66fd-497b-a690-4b174f8b5ff5","ios":"levelo://app?vid=3608d763-66fd-497b-a690-4b174f8b5ff5"},"vehicle_type_id":"4","last_reported":1710533273,"current_range_meters":31600,"station_id":"ce4bhsp2rcd13ifvqi50","pricing_plan_id":"cebpf4jnsgd1na2vs0mg"},{"bike_id":"d937afa4-a740-4cda-9fb3-d53f85ca2579","system_id":"levelo_inurba_marseille","lat":43.315293,"lon":5.380349,"is_reserved":false,"is_disabled":false,"rental_uris":{"android":"levelo://app?vid=d937afa4-a740-4cda-9fb3-d53f85ca2579","ios":"levelo://app?vid=d937afa4-a740-4cda-9fb3-d53f85ca2579"},"vehicle_type_id":"4","last_reported":1710533273,"current_range_meters":31600,"station_id":"ce4bhsp2rcd13ifvqi50","pricing_plan_id":"cebpf4jnsgd1na2vs0mg"},{"bike_id":"d1044004-0494-4aef-a2f3-ceea81f1d7be","system_id":"levelo_inurba_marseille","lat":43.315293,"lon":5.380349,"is_reserved":false,"is_disabled":false,"rental_uris":{"android":"levelo://app?vid=d1044004-0494-4aef-a2f3-ceea81f1d7be","ios":"levelo://app?vid=d1044004-0494-4aef-a2f3-ceea81f1d7be"},"vehicle_type_id":"4","last_reported":1710533273,"current_range_meters":4400,"station_id":"ce4bhsp2rcd13ifvqi50","pricing_plan_id":"cebpf4jnsgd1na2vs0mg"},{"bike_id":"516f2353-9594-4c2e-980b-5ee0bfaee235","system_id":"levelo_inurba_marseille","lat":43.31073,"lon":5.38117,"is_reserved":false,"is_disabled":false,"rental_uris":{"android":"levelo://app?vid=516f2353-9594-4c2e-980b-5ee0bfaee235","ios":"levelo://app?vid=516f2353-9594-4c2e-980b-5ee0bfaee235"},"vehicle_type_id":"4","last_reported":1710533273,"current_range_meters":0,"station_id":"","pricing_plan_id":"cebpf4jnsgd1na2vs0mg"},{"bike_id":"420b9174-2fab-4927-b5a8-c5609190aae8","system_id":"levelo_inurba_marseille","lat":43.301939,"lon":5.366286,"is_reserved":false,"is_disabled":false,"rental_uris":{"android":"levelo://app?vid=420b9174-2fab-4927-b5a8-c5609190aae8","ios":"levelo://app?vid=420b9174-2fab-4927-b5a8-c5609190aae8"},"vehicle_type_id":"4","last_reported":1710533273,"current_range_meters":8000,"station_id":"ce4bgrh2rcd13ifvqc8g","pricing_plan_id":"cebpf4jnsgd1na2vs0mg"},{"bike_id":"6da48fd3-9486-4efb-961e-f29c817150c1","system_id":"levelo_inurba_marseille","lat":43.301939,"lon":5.366286,"is_reserved":false,"is_disabled":false,"rental_uris":{"android":"levelo://app?vid=6da48fd3-9486-4efb-961e-f29c817150c1","ios":"levelo://app?vid=6da48fd3-9486-4efb-961e-f29c817150c1"},"vehicle_type_id":"4","last_reported":1710533273,"current_range_meters":6800,"station_id":"ce4bgrh2rcd13ifvqc8g","pricing_plan_id":"cebpf4jnsgd1na2vs0mg"},{"bike_id":"57754374-bb07-4158-8ff0-f0e3d1fa7ee1","system_id":"levelo_inurba_marseille","lat":43.30806,"lon":5.38127,"is_reserved":false,"is_disabled":false,"rental_uris":{"android":"levelo://app?vid=57754374-bb07-4158-8ff0-f0e3d1fa7ee1","ios":"levelo://app?vid=57754374-bb07-4158-8ff0-f0e3d1fa7ee1"},"vehicle_type_id":"4","last_reported":1710533273,"current_range_meters":9600,"station_id":"ce4bgt12rcd13ifvqce0","pricing_plan_id":"cebpf4jnsgd1na2vs0mg"},{"bike_id":"47a9ca4c-c775-484e-a592-ef44adbf3952","system_id":"levelo_inurba_marseille","lat":43.320276,"lon":5.379568,"is_reserved":false,"is_disabled":false,"rental_uris":{"android":"levelo://app?vid=47a9ca4c-c775-484e-a592-ef44adbf3952","ios":"levelo://app?vid=47a9ca4c-c775-484e-a592-ef44adbf3952"},"vehicle_type_id":"4","last_reported":1710533273,"current_range_meters":3200,"station_id":"","pricing_plan_id":"cebpf4jnsgd1na2vs0mg"},{"bike_id":"4a9d0962-2891-42e3-8c9d-3207bf67bea9","system_id":"levelo_inurba_marseille","lat":43.304606,"lon":5.379026,"is_reserved":false,"is_disabled":false,"rental_uris":{"android":"levelo://app?vid=4a9d0962-2891-42e3-8c9d-3207bf67bea9","ios":"levelo://app?vid=4a9d0962-2891-42e3-8c9d-3207bf67bea9"},"vehicle_type_id":"4","last_reported":1710533273,"current_range_meters":2000,"station_id":"ce4bgup2rcd13ifvqcn0","pricing_plan_id":"cebpf4jnsgd1na2vs0mg"},{"bike_id":"45c182d4-c42c-4114-9e74-abc1eba34bef","system_id":"levelo_inurba_marseille","lat":43.32481,"lon":5.36581,"is_reserved":false,"is_disabled":false,"rental_uris":{"android":"levelo://app?vid=45c182d4-c42c-4114-9e74-abc1eba34bef","ios":"levelo://app?vid=45c182d4-c42c-4114-9e74-abc1eba34bef"},"vehicle_type_id":"4","last_reported":1710533273,"current_range_meters":24800,"station_id":"ce4bhs12rcd13ifvqhvg","pricing_plan_id":"cebpf4jnsgd1na2vs0mg"},{"bike_id":"1fad90b3-ff8e-4e6e-8c30-8e54eeb051a1","system_id":"levelo_inurba_marseille","lat":43.324771,"lon":5.36557,"is_reserved":false,"is_disabled":false,"rental_uris":{"android":"levelo://app?vid=1fad90b3-ff8e-4e6e-8c30-8e54eeb051a1","ios":"levelo://app?vid=1fad90b3-ff8e-4e6e-8c30-8e54eeb051a1"},"vehicle_type_id":"4","last_reported":1710533273,"current_range_meters":6400,"station_id":"ce4bhs12rcd13ifvqhvg","pricing_plan_id":"cebpf4jnsgd1na2vs0mg"},{"bike_id":"c0cc4b46-b357-4a80-98cc-afe13efe41f1","system_id":"levelo_inurba_marseille","lat":43.324771,"lon":5.36557,"is_reserved":false,"is_disabled":false,"rental_uris":{"android":"levelo://app?vid=c0cc4b46-b357-4a80-98cc-afe13efe41f1","ios":"levelo://app?vid=c0cc4b46-b357-4a80-98cc-afe13efe41f1"},"vehicle_type_id":"4","last_reported":1710533273,"current_range_meters":4800,"station_id":"ce4bhs12rcd13ifvqhvg","pricing_plan_id":"cebpf4jnsgd1na2vs0mg"},{"bike_id":"12c419ff-5d5f-445b-9471-a4225b24c594","system_id":"levelo_inurba_marseille","lat":43.324771,"lon":5.36557,"is_reserved":false,"is_disabled":false,"rental_uris":{"android":"levelo://app?vid=12c419ff-5d5f-445b-9471-a4225b24c594","ios":"levelo://app?vid=12c419ff-5d5f-445b-9471-a4225b24c594"},"vehicle_type_id":"4","last_reported":1710533273,"current_range_meters":6000,"station_id":"ce4bhs12rcd13ifvqhvg","pricing_plan_id":"cebpf4jnsgd1na2vs0mg"},{"bike_id":"5408e4c7-2fa4-4dab-a5a0-a5ab8acdc782","system_id":"levelo_inurba_marseille","lat":43.324771,"lon":5.36557,"is_reserved":false,"is_disabled":false,"rental_uris":{"android":"levelo://app?vid=5408e4c7-2fa4-4dab-a5a0-a5ab8acdc782","ios":"levelo://app?vid=5408e4c7-2fa4-4dab-a5a0-a5ab8acdc782"},"vehicle_type_id":"4","last_reported":1710533273,"current_range_meters":5600,"station_id":"ce4bhs12rcd13ifvqhvg","pricing_plan_id":"cebpf4jnsgd1na2vs0mg"},{"bike_id":"96ade1c6-b8f4-4248-a16c-9ca6451e8605","system_id":"levelo_inurba_marseille","lat":43.324771,"lon":5.36557,"is_reserved":false,"is_disabled":false,"rental_uris":{"android":"levelo://app?vid=96ade1c6-b8f4-4248-a16c-9ca6451e8605","ios":"levelo://app?vid=96ade1c6-b8f4-4248-a16c-9ca6451e8605"},"vehicle_type_id":"4","last_reported":1710533273,"current_range_meters":22000,"station_id":"ce4bhs12rcd13ifvqhvg","pricing_plan_id":"cebpf4jnsgd1na2vs0mg"},{"bike_id":"39592264-8806-4a31-a6a2-556b8abe3cbd","system_id":"levelo_inurba_marseille","lat":43.324771,"lon":5.36557,"is_reserved":false,"is_disabled":false,"rental_uris":{"android":"levelo://app?vid=39592264-8806-4a31-a6a2-556b8abe3cbd","ios":"levelo://app?vid=39592264-8806-4a31-a6a2-556b8abe3cbd"},"vehicle_type_id":"4","last_reported":1710533273,"current_range_meters":11200,"station_id":"ce4bhs12rcd13ifvqhvg","pricing_plan_id":"cebpf4jnsgd1na2vs0mg"},{"bike_id":"af0a83ad-4db4-465e-a460-b561e0502353","system_id":"levelo_inurba_marseille","lat":43.324771,"lon":5.36557,"is_reserved":false,"is_disabled":false,"rental_uris":{"android":"levelo://app?vid=af0a83ad-4db4-465e-a460-b561e0502353","ios":"levelo://app?vid=af0a83ad-4db4-465e-a460-b561e0502353"},"vehicle_type_id":"4","last_reported":1710533273,"current_range_meters":0,"station_id":"ce4bhs12rcd13ifvqhvg","pricing_plan_id":"cebpf4jnsgd1na2vs0mg"},{"bike_id":"18fc47d4-f43a-4eed-abb4-9d13f9e04f59","system_id":"levelo_inurba_marseille","lat":43.324771,"lon":5.36557,"is_reserved":false,"is_disabled":false,"rental_uris":{"android":"levelo://app?vid=18fc47d4-f43a-4eed-abb4-9d13f9e04f59","ios":"levelo://app?vid=18fc47d4-f43a-4eed-abb4-9d13f9e04f59"},"vehicle_type_id":"4","last_reported":1710533273,"current_range_meters":20800,"station_id":"ce4bhs12rcd13ifvqhvg","pricing_plan_id":"cebpf4jnsgd1na2vs0mg"},{"bike_id":"0beae27c-8e15-427f-98a8-4f6c1fff4039","system_id":"levelo_inurba_marseille","lat":43.324771,"lon":5.36557,"is_reserved":false,"is_disabled":false,"rental_uris":{"android":"levelo://app?vid=0beae27c-8e15-427f-98a8-4f6c1fff4039","ios":"levelo://app?vid=0beae27c-8e15-427f-98a8-4f6c1fff4039"},"vehicle_type_id":"4","last_reported":1710533273,"current_range_meters":8400,"station_id":"ce4bhs12rcd13ifvqhvg","pricing_plan_id":"cebpf4jnsgd1na2vs0mg"},{"bike_id":"3636e797-ae37-4ed8-ae31-11958c8b0dde","system_id":"levelo_inurba_marseille","lat":43.324771,"lon":5.36557,"is_reserved":false,"is_disabled":false,"rental_uris":{"android":"levelo://app?vid=3636e797-ae37-4ed8-ae31-11958c8b0dde","ios":"levelo://app?vid=3636e797-ae37-4ed8-ae31-11958c8b0dde"},"vehicle_type_id":"4","last_reported":1710533273,"current_range_meters":15200,"station_id":"ce4bhs12rcd13ifvqhvg","pricing_plan_id":"cebpf4jnsgd1na2vs0mg"},{"bike_id":"4fbddead-94a4-4d62-8b05-b6aa80f360ed","system_id":"levelo_inurba_marseille","lat":43.310707,"lon":5.38347,"is_reserved":false,"is_disabled":false,"rental_uris":{"android":"levelo://app?vid=4fbddead-94a4-4d62-8b05-b6aa80f360ed","ios":"levelo://app?vid=4fbddead-94a4-4d62-8b05-b6aa80f360ed"},"vehicle_type_id":"4","last_reported":1710533273,"current_range_meters":0,"station_id":"ce4bgv92rcd13ifvqcr0","pricing_plan_id":"cebpf4jnsgd1na2vs0mg"},{"bike_id":"d4cbf494-39c6-481f-b79a-f9a10e31976c","system_id":"levelo_inurba_marseille","lat":43.310804,"lon":5.38359,"is_reserved":false,"is_disabled":false,"rental_uris":{"android":"levelo://app?vid=d4cbf494-39c6-481f-b79a-f9a10e31976c","ios":"levelo://app?vid=d4cbf494-39c6-481f-b79a-f9a10e31976c"},"vehicle_type_id":"4","last_reported":1710533273,"current_range_meters":400,"station_id":"ce4bgv92rcd13ifvqcr0","pricing_plan_id":"cebpf4jnsgd1na2vs0mg"},{"bike_id":"f0abc305-840e-4239-a132-d852de4bd002","system_id":"levelo_inurba_marseille","lat":43.310804,"lon":5.38359,"is_reserved":false,"is_disabled":false,"rental_uris":{"android":"levelo://app?vid=f0abc305-840e-4239-a132-d852de4bd002","ios":"levelo://app?vid=f0abc305-840e-4239-a132-d852de4bd002"},"vehicle_type_id":"4","last_reported":1710533273,"current_range_meters":14800,"station_id":"ce4bgv92rcd13ifvqcr0","pricing_plan_id":"cebpf4jnsgd1na2vs0mg"},{"bike_id":"052b7fae-ad47-41dd-8614-a4e7a006c864","system_id":"levelo_inurba_marseille","lat":43.301429,"lon":5.37413,"is_reserved":false,"is_disabled":false,"rental_uris":{"android":"levelo://app?vid=052b7fae-ad47-41dd-8614-a4e7a006c864","ios":"levelo://app?vid=052b7fae-ad47-41dd-8614-a4e7a006c864"},"vehicle_type_id":"4","last_reported":1710533273,"current_range_meters":0,"station_id":"ce4bgs92rcd13ifvqcc0","pricing_plan_id":"cebpf4jnsgd1na2vs0mg"},{"bike_id":"77b786e2-aa2d-43e5-b14d-e896b2c93fea","system_id":"levelo_inurba_marseille","lat":43.30146,"lon":5.37418,"is_reserved":false,"is_disabled":false,"rental_uris":{"android":"levelo://app?vid=77b786e2-aa2d-43e5-b14d-e896b2c93fea","ios":"levelo://app?vid=77b786e2-aa2d-43e5-b14d-e896b2c93fea"},"vehicle_type_id":"4","last_reported":1710533273,"current_range_meters":0,"station_id":"ce4bgs92rcd13ifvqcc0","pricing_plan_id":"cebpf4jnsgd1na2vs0mg"},{"bike_id":"c948e4ea-3506-4bf5-b479-2c59d25c384c","system_id":"levelo_inurba_marseille","lat":43.301429,"lon":5.37413,"is_reserved":false,"is_disabled":false,"rental_uris":{"android":"levelo://app?vid=c948e4ea-3506-4bf5-b479-2c59d25c384c","ios":"levelo://app?vid=c948e4ea-3506-4bf5-b479-2c59d25c384c"},"vehicle_type_id":"4","last_reported":1710533273,"current_range_meters":21600,"station_id":"ce4bgs92rcd13ifvqcc0","pricing_plan_id":"cebpf4jnsgd1na2vs0mg"},{"bike_id":"9ae35748-0409-4322-b41a-ff7e66a8c34e","system_id":"levelo_inurba_marseille","lat":43.30143,"lon":5.37413,"is_reserved":false,"is_disabled":false,"rental_uris":{"android":"levelo://app?vid=9ae35748-0409-4322-b41a-ff7e66a8c34e","ios":"levelo://app?vid=9ae35748-0409-4322-b41a-ff7e66a8c34e"},"vehicle_type_id":"4","last_reported":1710533273,"current_range_meters":10400,"station_id":"ce4bgs92rcd13ifvqcc0","pricing_plan_id":"cebpf4jnsgd1na2vs0mg"},{"bike_id":"7615204a-5323-42e8-b6d7-a3ed7e31db63","system_id":"levelo_inurba_marseille","lat":43.301429,"lon":5.37413,"is_reserved":false,"is_disabled":false,"rental_uris":{"android":"levelo://app?vid=7615204a-5323-42e8-b6d7-a3ed7e31db63","ios":"levelo://app?vid=7615204a-5323-42e8-b6d7-a3ed7e31db63"},"vehicle_type_id":"4","last_reported":1710533273,"current_range_meters":0,"station_id":"ce4bgs92rcd13ifvqcc0","pricing_plan_id":"cebpf4jnsgd1na2vs0mg"},{"bike_id":"612c685b-48e5-479d-836b-a2405408229c","system_id":"levelo_inurba_marseille","lat":43.30143,"lon":5.37413,"is_reserved":false,"is_disabled":false,"rental_uris":{"android":"levelo://app?vid=612c685b-48e5-479d-836b-a2405408229c","ios":"levelo://app?vid=612c685b-48e5-479d-836b-a2405408229c"},"vehicle_type_id":"4","last_reported":1710533273,"current_range_meters":9600,"station_id":"ce4bgs92rcd13ifvqcc0","pricing_plan_id":"cebpf4jnsgd1na2vs0mg"},{"bike_id":"189b58ef-36de-4776-90f2-c07131feba58","system_id":"levelo_inurba_marseille","lat":43.302784,"lon":5.377158,"is_reserved":false,"is_disabled":false,"rental_uris":{"android":"levelo://app?vid=189b58ef-36de-4776-90f2-c07131feba58","ios":"levelo://app?vid=189b58ef-36de-4776-90f2-c07131feba58"},"vehicle_type_id":"4","last_reported":1710533273,"current_range_meters":22400,"station_id":"ce4bguh2rcd13ifvqcj0","pricing_plan_id":"cebpf4jnsgd1na2vs0mg"},{"bike_id":"747ec0e5-a700-4ed0-859f-8b01d77434a9","system_id":"levelo_inurba_marseille","lat":43.319935,"lon":5.381699,"is_reserved":false,"is_disabled":false,"rental_uris":{"android":"levelo://app?vid=747ec0e5-a700-4ed0-859f-8b01d77434a9","ios":"levelo://app?vid=747ec0e5-a700-4ed0-859f-8b01d77434a9"},"vehicle_type_id":"4","last_reported":1710533273,"current_range_meters":0,"station_id":"ce4bhr12rcd13ifvqhpg","pricing_plan_id":"cebpf4jnsgd1na2vs0mg"},{"bike_id":"047bfaaa-aa6b-49b2-8002-e870a4645c6c","system_id":"levelo_inurba_marseille","lat":43.319935,"lon":5.381699,"is_reserved":false,"is_disabled":false,"rental_uris":{"android":"levelo://app?vid=047bfaaa-aa6b-49b2-8002-e870a4645c6c","ios":"levelo://app?vid=047bfaaa-aa6b-49b2-8002-e870a4645c6c"},"vehicle_type_id":"4","last_reported":1710533273,"current_range_meters":18000,"station_id":"ce4bhr12rcd13ifvqhpg","pricing_plan_id":"cebpf4jnsgd1na2vs0mg"},{"bike_id":"b2273e34-f3b1-45d8-a7c1-e0a5296f08a5","system_id":"levelo_inurba_marseille","lat":43.319935,"lon":5.381699,"is_reserved":false,"is_disabled":false,"rental_uris":{"android":"levelo://app?vid=b2273e34-f3b1-45d8-a7c1-e0a5296f08a5","ios":"levelo://app?vid=b2273e34-f3b1-45d8-a7c1-e0a5296f08a5"},"vehicle_type_id":"4","last_reported":1710533273,"current_range_meters":20000,"station_id":"ce4bhr12rcd13ifvqhpg","pricing_plan_id":"cebpf4jnsgd1na2vs0mg"},{"bike_id":"5e3113e3-29f6-4f14-a9c5-2af5d9ac0333","system_id":"levelo_inurba_marseille","lat":43.319985,"lon":5.38149,"is_reserved":false,"is_disabled":false,"rental_uris":{"android":"levelo://app?vid=5e3113e3-29f6-4f14-a9c5-2af5d9ac0333","ios":"levelo://app?vid=5e3113e3-29f6-4f14-a9c5-2af5d9ac0333"},"vehicle_type_id":"4","last_reported":1710533273,"current_range_meters":9600,"station_id":"ce4bhr12rcd13ifvqhpg","pricing_plan_id":"cebpf4jnsgd1na2vs0mg"},{"bike_id":"c84e0966-1c7f-41d6-a8f6-7198b24b7e42","system_id":"levelo_inurba_marseille","lat":43.31998,"lon":5.3815,"is_reserved":false,"is_disabled":false,"rental_uris":{"android":"levelo://app?vid=c84e0966-1c7f-41d6-a8f6-7198b24b7e42","ios":"levelo://app?vid=c84e0966-1c7f-41d6-a8f6-7198b24b7e42"},"vehicle_type_id":"4","last_reported":1710533273,"current_range_meters":21600,"station_id":"ce4bhr12rcd13ifvqhpg","pricing_plan_id":"cebpf4jnsgd1na2vs0mg"},{"bike_id":"a46f3b86-7dc1-46bc-b469-645f5d47ddad","system_id":"levelo_inurba_marseille","lat":43.319935,"lon":5.381699,"is_reserved":false,"is_disabled":false,"rental_uris":{"android":"levelo://app?vid=a46f3b86-7dc1-46bc-b469-645f5d47ddad","ios":"levelo://app?vid=a46f3b86-7dc1-46bc-b469-645f5d47ddad"},"vehicle_type_id":"4","last_reported":1710533273,"current_range_meters":19600,"station_id":"ce4bhr12rcd13ifvqhpg","pricing_plan_id":"cebpf4jnsgd1na2vs0mg"},{"bike_id":"32f5d04a-4a49-412d-8179-8f69e2f51ddc","system_id":"levelo_inurba_marseille","lat":43.31995,"lon":5.38165,"is_reserved":false,"is_disabled":false,"rental_uris":{"android":"levelo://app?vid=32f5d04a-4a49-412d-8179-8f69e2f51ddc","ios":"levelo://app?vid=32f5d04a-4a49-412d-8179-8f69e2f51ddc"},"vehicle_type_id":"4","last_reported":1710533273,"current_range_meters":6800,"station_id":"ce4bhr12rcd13ifvqhpg","pricing_plan_id":"cebpf4jnsgd1na2vs0mg"},{"bike_id":"0c5344ff-b80e-45bc-90c8-bdf821e6c51d","system_id":"levelo_inurba_marseille","lat":43.31358,"lon":5.38486,"is_reserved":false,"is_disabled":false,"rental_uris":{"android":"levelo://app?vid=0c5344ff-b80e-45bc-90c8-bdf821e6c51d","ios":"levelo://app?vid=0c5344ff-b80e-45bc-90c8-bdf821e6c51d"},"vehicle_type_id":"4","last_reported":1710533273,"current_range_meters":20000,"station_id":"ce4bgt92rcd13ifvqcf0","pricing_plan_id":"cebpf4jnsgd1na2vs0mg"},{"bike_id":"27b7a1a9-4610-4560-8aba-94ecd7c8d1ea","system_id":"levelo_inurba_marseille","lat":43.313571,"lon":5.384829,"is_reserved":false,"is_disabled":false,"rental_uris":{"android":"levelo://app?vid=27b7a1a9-4610-4560-8aba-94ecd7c8d1ea","ios":"levelo://app?vid=27b7a1a9-4610-4560-8aba-94ecd7c8d1ea"},"vehicle_type_id":"4","last_reported":1710533273,"current_range_meters":15200,"station_id":"ce4bgt92rcd13ifvqcf0","pricing_plan_id":"cebpf4jnsgd1na2vs0mg"},{"bike_id":"47aca380-5b66-4eab-a954-e9c3271864a5","system_id":"levelo_inurba_marseille","lat":43.31355,"lon":5.38492,"is_reserved":false,"is_disabled":false,"rental_uris":{"android":"levelo://app?vid=47aca380-5b66-4eab-a954-e9c3271864a5","ios":"levelo://app?vid=47aca380-5b66-4eab-a954-e9c3271864a5"},"vehicle_type_id":"4","last_reported":1710533273,"current_range_meters":13200,"station_id":"ce4bgt92rcd13ifvqcf0","pricing_plan_id":"cebpf4jnsgd1na2vs0mg"},{"bike_id":"034e3908-9df5-4a00-bbe2-3063caa792f3","system_id":"levelo_inurba_marseille","lat":43.313571,"lon":5.384829,"is_reserved":false,"is_disabled":false,"rental_uris":{"android":"levelo://app?vid=034e3908-9df5-4a00-bbe2-3063caa792f3","ios":"levelo://app?vid=034e3908-9df5-4a00-bbe2-3063caa792f3"},"vehicle_type_id":"4","last_reported":1710533273,"current_range_meters":16000,"station_id":"ce4bgt92rcd13ifvqcf0","pricing_plan_id":"cebpf4jnsgd1na2vs0mg"},{"bike_id":"aec21a42-9f02-44d5-8ed0-239cd7069cb7","system_id":"levelo_inurba_marseille","lat":43.31358,"lon":5.38496,"is_reserved":false,"is_disabled":false,"rental_uris":{"android":"levelo://app?vid=aec21a42-9f02-44d5-8ed0-239cd7069cb7","ios":"levelo://app?vid=aec21a42-9f02-44d5-8ed0-239cd7069cb7"},"vehicle_type_id":"4","last_reported":1710533273,"current_range_meters":20000,"station_id":"ce4bgt92rcd13ifvqcf0","pricing_plan_id":"cebpf4jnsgd1na2vs0mg"},{"bike_id":"9618b9f0-4ad3-4246-bdc9-fda4d032edda","system_id":"levelo_inurba_marseille","lat":43.313571,"lon":5.384829,"is_reserved":false,"is_disabled":false,"rental_uris":{"android":"levelo://app?vid=9618b9f0-4ad3-4246-bdc9-fda4d032edda","ios":"levelo://app?vid=9618b9f0-4ad3-4246-bdc9-fda4d032edda"},"vehicle_type_id":"4","last_reported":1710533273,"current_range_meters":30000,"station_id":"ce4bgt92rcd13ifvqcf0","pricing_plan_id":"cebpf4jnsgd1na2vs0mg"},{"bike_id":"a77c38ef-d86a-47df-b0af-c747a21ae907","system_id":"levelo_inurba_marseille","lat":43.313571,"lon":5.384829,"is_reserved":false,"is_disabled":false,"rental_uris":{"android":"levelo://app?vid=a77c38ef-d86a-47df-b0af-c747a21ae907","ios":"levelo://app?vid=a77c38ef-d86a-47df-b0af-c747a21ae907"},"vehicle_type_id":"4","last_reported":1710533273,"current_range_meters":10800,"station_id":"ce4bgt92rcd13ifvqcf0","pricing_plan_id":"cebpf4jnsgd1na2vs0mg"},{"bike_id":"9a482fbf-983e-4130-ac96-696c89f5e04a","system_id":"levelo_inurba_marseille","lat":43.299724,"lon":5.371829,"is_reserved":false,"is_disabled":false,"rental_uris":{"android":"levelo://app?vid=9a482fbf-983e-4130-ac96-696c89f5e04a","ios":"levelo://app?vid=9a482fbf-983e-4130-ac96-696c89f5e04a"},"vehicle_type_id":"4","last_reported":1710533273,"current_range_meters":12800,"station_id":"ce4bgr92rcd13ifvqc7g","pricing_plan_id":"cebpf4jnsgd1na2vs0mg"},{"bike_id":"e3b49a30-2b32-4ca9-b5b7-1085e2b3a9a3","system_id":"levelo_inurba_marseille","lat":43.299222,"lon":5.365554,"is_reserved":false,"is_disabled":false,"rental_uris":{"android":"levelo://app?vid=e3b49a30-2b32-4ca9-b5b7-1085e2b3a9a3","ios":"levelo://app?vid=e3b49a30-2b32-4ca9-b5b7-1085e2b3a9a3"},"vehicle_type_id":"4","last_reported":1710533273,"current_range_meters":0,"station_id":"ce4bgm92rcd13ifvqbr0","pricing_plan_id":"cebpf4jnsgd1na2vs0mg"},{"bike_id":"6655247d-7c87-48e5-ae14-978fde2a1a5e","system_id":"levelo_inurba_marseille","lat":43.299222,"lon":5.365554,"is_reserved":false,"is_disabled":false,"rental_uris":{"android":"levelo://app?vid=6655247d-7c87-48e5-ae14-978fde2a1a5e","ios":"levelo://app?vid=6655247d-7c87-48e5-ae14-978fde2a1a5e"},"vehicle_type_id":"4","last_reported":1710533273,"current_range_meters":0,"station_id":"ce4bgm92rcd13ifvqbr0","pricing_plan_id":"cebpf4jnsgd1na2vs0mg"},{"bike_id":"43f3d50e-ec4a-48aa-b4fb-f6c57d64cf9c","system_id":"levelo_inurba_marseille","lat":43.299351,"lon":5.365512,"is_reserved":false,"is_disabled":false,"rental_uris":{"android":"levelo://app?vid=43f3d50e-ec4a-48aa-b4fb-f6c57d64cf9c","ios":"levelo://app?vid=43f3d50e-ec4a-48aa-b4fb-f6c57d64cf9c"},"vehicle_type_id":"4","last_reported":1710533273,"current_range_meters":0,"station_id":"ce4bgm92rcd13ifvqbr0","pricing_plan_id":"cebpf4jnsgd1na2vs0mg"},{"bike_id":"4e09562b-f25e-4347-ae34-0b4749023b20","system_id":"levelo_inurba_marseille","lat":43.299724,"lon":5.371829,"is_reserved":false,"is_disabled":false,"rental_uris":{"android":"levelo://app?vid=4e09562b-f25e-4347-ae34-0b4749023b20","ios":"levelo://app?vid=4e09562b-f25e-4347-ae34-0b4749023b20"},"vehicle_type_id":"4","last_reported":1710533273,"current_range_meters":0,"station_id":"ce4bgr92rcd13ifvqc7g","pricing_plan_id":"cebpf4jnsgd1na2vs0mg"},{"bike_id":"88a2eb66-9e77-407d-a369-2e9a10d88d04","system_id":"levelo_inurba_marseille","lat":43.299724,"lon":5.371829,"is_reserved":false,"is_disabled":false,"rental_uris":{"android":"levelo://app?vid=88a2eb66-9e77-407d-a369-2e9a10d88d04","ios":"levelo://app?vid=88a2eb66-9e77-407d-a369-2e9a10d88d04"},"vehicle_type_id":"4","last_reported":1710533273,"current_range_meters":26800,"station_id":"ce4bgr92rcd13ifvqc7g","pricing_plan_id":"cebpf4jnsgd1na2vs0mg"},{"bike_id":"0902ae32-488f-4d34-a290-a5247dff5378","system_id":"levelo_inurba_marseille","lat":43.298996,"lon":5.365462,"is_reserved":false,"is_disabled":false,"rental_uris":{"android":"levelo://app?vid=0902ae32-488f-4d34-a290-a5247dff5378","ios":"levelo://app?vid=0902ae32-488f-4d34-a290-a5247dff5378"},"vehicle_type_id":"4","last_reported":1710533273,"current_range_meters":4000,"station_id":"ce4bgm92rcd13ifvqbr0","pricing_plan_id":"cebpf4jnsgd1na2vs0mg"},{"bike_id":"44d7bdda-a59b-4ad5-83fe-ac51076f9bf7","system_id":"levelo_inurba_marseille","lat":43.29853,"lon":5.36277,"is_reserved":false,"is_disabled":false,"rental_uris":{"android":"levelo://app?vid=44d7bdda-a59b-4ad5-83fe-ac51076f9bf7","ios":"levelo://app?vid=44d7bdda-a59b-4ad5-83fe-ac51076f9bf7"},"vehicle_type_id":"4","last_reported":1710533273,"current_range_meters":15200,"station_id":"ce4bgpp2rcd13ifvqc3g","pricing_plan_id":"cebpf4jnsgd1na2vs0mg"},{"bike_id":"d9fb1fa1-da05-4ffb-aee3-aed6d5a5c8a7","system_id":"levelo_inurba_marseille","lat":43.298433,"lon":5.362774,"is_reserved":false,"is_disabled":false,"rental_uris":{"android":"levelo://app?vid=d9fb1fa1-da05-4ffb-aee3-aed6d5a5c8a7","ios":"levelo://app?vid=d9fb1fa1-da05-4ffb-aee3-aed6d5a5c8a7"},"vehicle_type_id":"4","last_reported":1710533273,"current_range_meters":12400,"station_id":"ce4bgpp2rcd13ifvqc3g","pricing_plan_id":"cebpf4jnsgd1na2vs0mg"},{"bike_id":"22598625-9362-4635-8b18-0d4453fd0ddd","system_id":"levelo_inurba_marseille","lat":43.298433,"lon":5.362774,"is_reserved":false,"is_disabled":false,"rental_uris":{"android":"levelo://app?vid=22598625-9362-4635-8b18-0d4453fd0ddd","ios":"levelo://app?vid=22598625-9362-4635-8b18-0d4453fd0ddd"},"vehicle_type_id":"4","last_reported":1710533273,"current_range_meters":17600,"station_id":"ce4bgpp2rcd13ifvqc3g","pricing_plan_id":"cebpf4jnsgd1na2vs0mg"},{"bike_id":"5719ffc6-7689-4e73-b341-005db0245466","system_id":"levelo_inurba_marseille","lat":43.298433,"lon":5.362774,"is_reserved":false,"is_disabled":false,"rental_uris":{"android":"levelo://app?vid=5719ffc6-7689-4e73-b341-005db0245466","ios":"levelo://app?vid=5719ffc6-7689-4e73-b341-005db0245466"},"vehicle_type_id":"4","last_reported":1710533273,"current_range_meters":21600,"station_id":"ce4bgpp2rcd13ifvqc3g","pricing_plan_id":"cebpf4jnsgd1na2vs0mg"},{"bike_id":"8060cd7e-58e0-4603-a6b4-1aa3f1f6f0e6","system_id":"levelo_inurba_marseille","lat":43.298433,"lon":5.362774,"is_reserved":false,"is_disabled":false,"rental_uris":{"android":"levelo://app?vid=8060cd7e-58e0-4603-a6b4-1aa3f1f6f0e6","ios":"levelo://app?vid=8060cd7e-58e0-4603-a6b4-1aa3f1f6f0e6"},"vehicle_type_id":"4","last_reported":1710533273,"current_range_meters":15200,"station_id":"ce4bgpp2rcd13ifvqc3g","pricing_plan_id":"cebpf4jnsgd1na2vs0mg"},{"bike_id":"c1af3d12-c4b8-42ed-b500-5a4b2bc1598e","system_id":"levelo_inurba_marseille","lat":43.29848,"lon":5.3628,"is_reserved":false,"is_disabled":false,"rental_uris":{"android":"levelo://app?vid=c1af3d12-c4b8-42ed-b500-5a4b2bc1598e","ios":"levelo://app?vid=c1af3d12-c4b8-42ed-b500-5a4b2bc1598e"},"vehicle_type_id":"4","last_reported":1710533273,"current_range_meters":18400,"station_id":"ce4bgpp2rcd13ifvqc3g","pricing_plan_id":"cebpf4jnsgd1na2vs0mg"},{"bike_id":"2ee63317-14d9-4f91-86a9-84e146ece31c","system_id":"levelo_inurba_marseille","lat":43.30554,"lon":5.38435,"is_reserved":false,"is_disabled":false,"rental_uris":{"android":"levelo://app?vid=2ee63317-14d9-4f91-86a9-84e146ece31c","ios":"levelo://app?vid=2ee63317-14d9-4f91-86a9-84e146ece31c"},"vehicle_type_id":"4","last_reported":1710533273,"current_range_meters":21600,"station_id":"ce4bgg92rcd13ifvqb30","pricing_plan_id":"cebpf4jnsgd1na2vs0mg"},{"bike_id":"bf0706c0-0a5a-4595-845e-dfb8f50a13cf","system_id":"levelo_inurba_marseille","lat":43.29847,"lon":5.36279,"is_reserved":false,"is_disabled":false,"rental_uris":{"android":"levelo://app?vid=bf0706c0-0a5a-4595-845e-dfb8f50a13cf","ios":"levelo://app?vid=bf0706c0-0a5a-4595-845e-dfb8f50a13cf"},"vehicle_type_id":"4","last_reported":1710533273,"current_range_meters":1600,"station_id":"ce4bgpp2rcd13ifvqc3g","pricing_plan_id":"cebpf4jnsgd1na2vs0mg"},{"bike_id":"853cc26e-cef4-401b-ac8a-9f1c805daa1c","system_id":"levelo_inurba_marseille","lat":43.305364,"lon":5.384119,"is_reserved":false,"is_disabled":false,"rental_uris":{"android":"levelo://app?vid=853cc26e-cef4-401b-ac8a-9f1c805daa1c","ios":"levelo://app?vid=853cc26e-cef4-401b-ac8a-9f1c805daa1c"},"vehicle_type_id":"4","last_reported":1710533273,"current_range_meters":14000,"station_id":"ce4bgg92rcd13ifvqb30","pricing_plan_id":"cebpf4jnsgd1na2vs0mg"},{"bike_id":"afd6ddd2-7f1b-498c-b9ab-04bb83225206","system_id":"levelo_inurba_marseille","lat":43.30539,"lon":5.384247,"is_reserved":false,"is_disabled":false,"rental_uris":{"android":"levelo://app?vid=afd6ddd2-7f1b-498c-b9ab-04bb83225206","ios":"levelo://app?vid=afd6ddd2-7f1b-498c-b9ab-04bb83225206"},"vehicle_type_id":"4","last_reported":1710533273,"current_range_meters":13600,"station_id":"ce4bgg92rcd13ifvqb30","pricing_plan_id":"cebpf4jnsgd1na2vs0mg"},{"bike_id":"2bacbe20-ac34-4a7e-83df-a58a3abecb84","system_id":"levelo_inurba_marseille","lat":43.305364,"lon":5.384119,"is_reserved":false,"is_disabled":false,"rental_uris":{"android":"levelo://app?vid=2bacbe20-ac34-4a7e-83df-a58a3abecb84","ios":"levelo://app?vid=2bacbe20-ac34-4a7e-83df-a58a3abecb84"},"vehicle_type_id":"4","last_reported":1710533273,"current_range_meters":0,"station_id":"ce4bgg92rcd13ifvqb30","pricing_plan_id":"cebpf4jnsgd1na2vs0mg"},{"bike_id":"d7aa78ce-d9b3-420c-bcd9-63284a640b24","system_id":"levelo_inurba_marseille","lat":43.298433,"lon":5.362774,"is_reserved":false,"is_disabled":false,"rental_uris":{"android":"levelo://app?vid=d7aa78ce-d9b3-420c-bcd9-63284a640b24","ios":"levelo://app?vid=d7aa78ce-d9b3-420c-bcd9-63284a640b24"},"vehicle_type_id":"4","last_reported":1710533273,"current_range_meters":8800,"station_id":"ce4bgpp2rcd13ifvqc3g","pricing_plan_id":"cebpf4jnsgd1na2vs0mg"},{"bike_id":"303506af-ddd3-4be9-85de-a1ae144de509","system_id":"levelo_inurba_marseille","lat":43.298433,"lon":5.362774,"is_reserved":false,"is_disabled":false,"rental_uris":{"android":"levelo://app?vid=303506af-ddd3-4be9-85de-a1ae144de509","ios":"levelo://app?vid=303506af-ddd3-4be9-85de-a1ae144de509"},"vehicle_type_id":"4","last_reported":1710533273,"current_range_meters":18800,"station_id":"ce4bgpp2rcd13ifvqc3g","pricing_plan_id":"cebpf4jnsgd1na2vs0mg"},{"bike_id":"a0dddae5-476c-487e-93ba-54bf1d55bfd3","system_id":"levelo_inurba_marseille","lat":43.298433,"lon":5.362774,"is_reserved":false,"is_disabled":false,"rental_uris":{"android":"levelo://app?vid=a0dddae5-476c-487e-93ba-54bf1d55bfd3","ios":"levelo://app?vid=a0dddae5-476c-487e-93ba-54bf1d55bfd3"},"vehicle_type_id":"4","last_reported":1710533273,"current_range_meters":29600,"station_id":"ce4bgpp2rcd13ifvqc3g","pricing_plan_id":"cebpf4jnsgd1na2vs0mg"},{"bike_id":"bc2cbc92-882e-4317-bf32-b757282e0626","system_id":"levelo_inurba_marseille","lat":43.299243,"lon":5.37481,"is_reserved":false,"is_disabled":false,"rental_uris":{"android":"levelo://app?vid=bc2cbc92-882e-4317-bf32-b757282e0626","ios":"levelo://app?vid=bc2cbc92-882e-4317-bf32-b757282e0626"},"vehicle_type_id":"4","last_reported":1710533273,"current_range_meters":1200,"station_id":"ce4bgjh2rcd13ifvqbg0","pricing_plan_id":"cebpf4jnsgd1na2vs0mg"},{"bike_id":"f5736afd-79f4-4808-a336-f85a2c8bb429","system_id":"levelo_inurba_marseille","lat":43.311722,"lon":5.387247,"is_reserved":false,"is_disabled":false,"rental_uris":{"android":"levelo://app?vid=f5736afd-79f4-4808-a336-f85a2c8bb429","ios":"levelo://app?vid=f5736afd-79f4-4808-a336-f85a2c8bb429"},"vehicle_type_id":"4","last_reported":1710533273,"current_range_meters":0,"station_id":"ce4bgv12rcd13ifvqcp0","pricing_plan_id":"cebpf4jnsgd1na2vs0mg"},{"bike_id":"7ca14005-3df0-4c9e-9c86-d5767df980e1","system_id":"levelo_inurba_marseille","lat":43.311722,"lon":5.387247,"is_reserved":false,"is_disabled":false,"rental_uris":{"android":"levelo://app?vid=7ca14005-3df0-4c9e-9c86-d5767df980e1","ios":"levelo://app?vid=7ca14005-3df0-4c9e-9c86-d5767df980e1"},"vehicle_type_id":"4","last_reported":1710533273,"current_range_meters":0,"station_id":"ce4bgv12rcd13ifvqcp0","pricing_plan_id":"cebpf4jnsgd1na2vs0mg"},{"bike_id":"0a131335-9bd8-47cd-b183-85f3b5aaa77a","system_id":"levelo_inurba_marseille","lat":43.311722,"lon":5.387247,"is_reserved":false,"is_disabled":false,"rental_uris":{"android":"levelo://app?vid=0a131335-9bd8-47cd-b183-85f3b5aaa77a","ios":"levelo://app?vid=0a131335-9bd8-47cd-b183-85f3b5aaa77a"},"vehicle_type_id":"4","last_reported":1710533273,"current_range_meters":3600,"station_id":"ce4bgv12rcd13ifvqcp0","pricing_plan_id":"cebpf4jnsgd1na2vs0mg"},{"bike_id":"64d974af-b901-4a74-9f67-76c189962e2f","system_id":"levelo_inurba_marseille","lat":43.31174,"lon":5.38725,"is_reserved":false,"is_disabled":false,"rental_uris":{"android":"levelo://app?vid=64d974af-b901-4a74-9f67-76c189962e2f","ios":"levelo://app?vid=64d974af-b901-4a74-9f67-76c189962e2f"},"vehicle_type_id":"4","last_reported":1710533273,"current_range_meters":22000,"station_id":"ce4bgv12rcd13ifvqcp0","pricing_plan_id":"cebpf4jnsgd1na2vs0mg"},{"bike_id":"ac278164-f322-41da-a734-b76a4f670494","system_id":"levelo_inurba_marseille","lat":43.311722,"lon":5.387247,"is_reserved":false,"is_disabled":false,"rental_uris":{"android":"levelo://app?vid=ac278164-f322-41da-a734-b76a4f670494","ios":"levelo://app?vid=ac278164-f322-41da-a734-b76a4f670494"},"vehicle_type_id":"4","last_reported":1710533273,"current_range_meters":3600,"station_id":"ce4bgv12rcd13ifvqcp0","pricing_plan_id":"cebpf4jnsgd1na2vs0mg"},{"bike_id":"33b24acf-298f-4a11-a2c4-edc87e891ea2","system_id":"levelo_inurba_marseille","lat":43.322872,"lon":5.382756,"is_reserved":false,"is_disabled":false,"rental_uris":{"android":"levelo://app?vid=33b24acf-298f-4a11-a2c4-edc87e891ea2","ios":"levelo://app?vid=33b24acf-298f-4a11-a2c4-edc87e891ea2"},"vehicle_type_id":"4","last_reported":1710533273,"current_range_meters":4400,"station_id":"ce4bhr12rcd13ifvqhqg","pricing_plan_id":"cebpf4jnsgd1na2vs0mg"},{"bike_id":"36727d06-0af4-4c64-88de-4193d3d2494b","system_id":"levelo_inurba_marseille","lat":43.322872,"lon":5.382756,"is_reserved":false,"is_disabled":false,"rental_uris":{"android":"levelo://app?vid=36727d06-0af4-4c64-88de-4193d3d2494b","ios":"levelo://app?vid=36727d06-0af4-4c64-88de-4193d3d2494b"},"vehicle_type_id":"4","last_reported":1710533273,"current_range_meters":22000,"station_id":"ce4bhr12rcd13ifvqhqg","pricing_plan_id":"cebpf4jnsgd1na2vs0mg"},{"bike_id":"3ff125a5-dff1-4591-b6cc-449dc2424878","system_id":"levelo_inurba_marseille","lat":43.322872,"lon":5.382756,"is_reserved":false,"is_disabled":false,"rental_uris":{"android":"levelo://app?vid=3ff125a5-dff1-4591-b6cc-449dc2424878","ios":"levelo://app?vid=3ff125a5-dff1-4591-b6cc-449dc2424878"},"vehicle_type_id":"4","last_reported":1710533273,"current_range_meters":24000,"station_id":"ce4bhr12rcd13ifvqhqg","pricing_plan_id":"cebpf4jnsgd1na2vs0mg"},{"bike_id":"a0646874-b928-4238-88ab-01778b2d284c","system_id":"levelo_inurba_marseille","lat":43.32287,"lon":5.38273,"is_reserved":false,"is_disabled":false,"rental_uris":{"android":"levelo://app?vid=a0646874-b928-4238-88ab-01778b2d284c","ios":"levelo://app?vid=a0646874-b928-4238-88ab-01778b2d284c"},"vehicle_type_id":"4","last_reported":1710533273,"current_range_meters":0,"station_id":"ce4bhr12rcd13ifvqhqg","pricing_plan_id":"cebpf4jnsgd1na2vs0mg"},{"bike_id":"41a964d5-3943-4f24-b8cf-62a929f835d5","system_id":"levelo_inurba_marseille","lat":43.322872,"lon":5.382756,"is_reserved":false,"is_disabled":false,"rental_uris":{"android":"levelo://app?vid=41a964d5-3943-4f24-b8cf-62a929f835d5","ios":"levelo://app?vid=41a964d5-3943-4f24-b8cf-62a929f835d5"},"vehicle_type_id":"4","last_reported":1710533273,"current_range_meters":22800,"station_id":"ce4bhr12rcd13ifvqhqg","pricing_plan_id":"cebpf4jnsgd1na2vs0mg"},{"bike_id":"7698d3ee-9070-4899-9c2c-ea0cac5b7815","system_id":"levelo_inurba_marseille","lat":43.322872,"lon":5.382756,"is_reserved":false,"is_disabled":false,"rental_uris":{"android":"levelo://app?vid=7698d3ee-9070-4899-9c2c-ea0cac5b7815","ios":"levelo://app?vid=7698d3ee-9070-4899-9c2c-ea0cac5b7815"},"vehicle_type_id":"4","last_reported":1710533273,"current_range_meters":22000,"station_id":"ce4bhr12rcd13ifvqhqg","pricing_plan_id":"cebpf4jnsgd1na2vs0mg"},{"bike_id":"7d711117-8f24-4ca5-af35-2d207110a750","system_id":"levelo_inurba_marseille","lat":43.322872,"lon":5.382756,"is_reserved":false,"is_disabled":false,"rental_uris":{"android":"levelo://app?vid=7d711117-8f24-4ca5-af35-2d207110a750","ios":"levelo://app?vid=7d711117-8f24-4ca5-af35-2d207110a750"},"vehicle_type_id":"4","last_reported":1710533273,"current_range_meters":31600,"station_id":"ce4bhr12rcd13ifvqhqg","pricing_plan_id":"cebpf4jnsgd1na2vs0mg"},{"bike_id":"9be1610f-c31d-4ce8-90f5-92648a7ce7bd","system_id":"levelo_inurba_marseille","lat":43.322872,"lon":5.382756,"is_reserved":false,"is_disabled":false,"rental_uris":{"android":"levelo://app?vid=9be1610f-c31d-4ce8-90f5-92648a7ce7bd","ios":"levelo://app?vid=9be1610f-c31d-4ce8-90f5-92648a7ce7bd"},"vehicle_type_id":"4","last_reported":1710533273,"current_range_meters":24400,"station_id":"ce4bhr12rcd13ifvqhqg","pricing_plan_id":"cebpf4jnsgd1na2vs0mg"},{"bike_id":"c7138234-dee1-496b-a4b5-ec50ce387339","system_id":"levelo_inurba_marseille","lat":43.322872,"lon":5.382756,"is_reserved":false,"is_disabled":false,"rental_uris":{"android":"levelo://app?vid=c7138234-dee1-496b-a4b5-ec50ce387339","ios":"levelo://app?vid=c7138234-dee1-496b-a4b5-ec50ce387339"},"vehicle_type_id":"4","last_reported":1710533273,"current_range_meters":19200,"station_id":"ce4bhr12rcd13ifvqhqg","pricing_plan_id":"cebpf4jnsgd1na2vs0mg"},{"bike_id":"2d6887a7-62ae-4d89-8c19-2ea133424140","system_id":"levelo_inurba_marseille","lat":43.322872,"lon":5.382756,"is_reserved":false,"is_disabled":false,"rental_uris":{"android":"levelo://app?vid=2d6887a7-62ae-4d89-8c19-2ea133424140","ios":"levelo://app?vid=2d6887a7-62ae-4d89-8c19-2ea133424140"},"vehicle_type_id":"4","last_reported":1710533273,"current_range_meters":7600,"station_id":"ce4bhr12rcd13ifvqhqg","pricing_plan_id":"cebpf4jnsgd1na2vs0mg"},{"bike_id":"a1ea46c0-4921-4767-a801-a177044432f3","system_id":"levelo_inurba_marseille","lat":43.322872,"lon":5.382756,"is_reserved":false,"is_disabled":false,"rental_uris":{"android":"levelo://app?vid=a1ea46c0-4921-4767-a801-a177044432f3","ios":"levelo://app?vid=a1ea46c0-4921-4767-a801-a177044432f3"},"vehicle_type_id":"4","last_reported":1710533273,"current_range_meters":32000,"station_id":"ce4bhr12rcd13ifvqhqg","pricing_plan_id":"cebpf4jnsgd1na2vs0mg"},{"bike_id":"26a6f107-4553-428a-b878-f3d63b74f859","system_id":"levelo_inurba_marseille","lat":43.322872,"lon":5.382756,"is_reserved":false,"is_disabled":false,"rental_uris":{"android":"levelo://app?vid=26a6f107-4553-428a-b878-f3d63b74f859","ios":"levelo://app?vid=26a6f107-4553-428a-b878-f3d63b74f859"},"vehicle_type_id":"4","last_reported":1710533273,"current_range_meters":13600,"station_id":"ce4bhr12rcd13ifvqhqg","pricing_plan_id":"cebpf4jnsgd1na2vs0mg"},{"bike_id":"b5641a98-31d5-4f25-bae3-7c273d6eaed1","system_id":"levelo_inurba_marseille","lat":43.297163,"lon":5.365866,"is_reserved":false,"is_disabled":false,"rental_uris":{"android":"levelo://app?vid=b5641a98-31d5-4f25-bae3-7c273d6eaed1","ios":"levelo://app?vid=b5641a98-31d5-4f25-bae3-7c273d6eaed1"},"vehicle_type_id":"4","last_reported":1710533273,"current_range_meters":4000,"station_id":"ce4bgn12rcd13ifvqbt0","pricing_plan_id":"cebpf4jnsgd1na2vs0mg"},{"bike_id":"39889b01-00c2-4277-b114-54d585307c59","system_id":"levelo_inurba_marseille","lat":43.297163,"lon":5.365866,"is_reserved":false,"is_disabled":false,"rental_uris":{"android":"levelo://app?vid=39889b01-00c2-4277-b114-54d585307c59","ios":"levelo://app?vid=39889b01-00c2-4277-b114-54d585307c59"},"vehicle_type_id":"4","last_reported":1710533273,"current_range_meters":1600,"station_id":"ce4bgn12rcd13ifvqbt0","pricing_plan_id":"cebpf4jnsgd1na2vs0mg"},{"bike_id":"6ddcb6b9-73e1-41dd-9b97-76963aff544f","system_id":"levelo_inurba_marseille","lat":43.297163,"lon":5.365866,"is_reserved":false,"is_disabled":false,"rental_uris":{"android":"levelo://app?vid=6ddcb6b9-73e1-41dd-9b97-76963aff544f","ios":"levelo://app?vid=6ddcb6b9-73e1-41dd-9b97-76963aff544f"},"vehicle_type_id":"4","last_reported":1710533273,"current_range_meters":13600,"station_id":"ce4bgn12rcd13ifvqbt0","pricing_plan_id":"cebpf4jnsgd1na2vs0mg"},{"bike_id":"dd5bc054-4306-4dc0-a397-6a26f6ca9927","system_id":"levelo_inurba_marseille","lat":43.29709,"lon":5.36602,"is_reserved":false,"is_disabled":false,"rental_uris":{"android":"levelo://app?vid=dd5bc054-4306-4dc0-a397-6a26f6ca9927","ios":"levelo://app?vid=dd5bc054-4306-4dc0-a397-6a26f6ca9927"},"vehicle_type_id":"4","last_reported":1710533273,"current_range_meters":10800,"station_id":"ce4bgn12rcd13ifvqbt0","pricing_plan_id":"cebpf4jnsgd1na2vs0mg"},{"bike_id":"87f43452-0a51-4620-b47e-f93caefca0b2","system_id":"levelo_inurba_marseille","lat":43.29707,"lon":5.36606,"is_reserved":false,"is_disabled":false,"rental_uris":{"android":"levelo://app?vid=87f43452-0a51-4620-b47e-f93caefca0b2","ios":"levelo://app?vid=87f43452-0a51-4620-b47e-f93caefca0b2"},"vehicle_type_id":"4","last_reported":1710533273,"current_range_meters":0,"station_id":"ce4bgn12rcd13ifvqbt0","pricing_plan_id":"cebpf4jnsgd1na2vs0mg"},{"bike_id":"f8527709-0478-4463-8709-86c81b29e673","system_id":"levelo_inurba_marseille","lat":43.29704,"lon":5.366063,"is_reserved":false,"is_disabled":false,"rental_uris":{"android":"levelo://app?vid=f8527709-0478-4463-8709-86c81b29e673","ios":"levelo://app?vid=f8527709-0478-4463-8709-86c81b29e673"},"vehicle_type_id":"4","last_reported":1710533273,"current_range_meters":0,"station_id":"ce4bgn12rcd13ifvqbt0","pricing_plan_id":"cebpf4jnsgd1na2vs0mg"},{"bike_id":"b459e0bb-9806-482e-9e75-c43d58faadf3","system_id":"levelo_inurba_marseille","lat":43.2968,"lon":5.37291,"is_reserved":false,"is_disabled":false,"rental_uris":{"android":"levelo://app?vid=b459e0bb-9806-482e-9e75-c43d58faadf3","ios":"levelo://app?vid=b459e0bb-9806-482e-9e75-c43d58faadf3"},"vehicle_type_id":"4","last_reported":1710533273,"current_range_meters":26800,"station_id":"ce4bgk12rcd13ifvqbj0","pricing_plan_id":"cebpf4jnsgd1na2vs0mg"},{"bike_id":"75d835cc-e16a-411c-b03f-f420b0bcd7ac","system_id":"levelo_inurba_marseille","lat":43.29607,"lon":5.36768,"is_reserved":false,"is_disabled":false,"rental_uris":{"android":"levelo://app?vid=75d835cc-e16a-411c-b03f-f420b0bcd7ac","ios":"levelo://app?vid=75d835cc-e16a-411c-b03f-f420b0bcd7ac"},"vehicle_type_id":"4","last_reported":1710533273,"current_range_meters":7600,"station_id":"","pricing_plan_id":"cebpf4jnsgd1na2vs0mg"},{"bike_id":"d85feab1-96c9-4cca-8f4f-5cd7dba1f869","system_id":"levelo_inurba_marseille","lat":43.296131,"lon":5.370773,"is_reserved":false,"is_disabled":false,"rental_uris":{"android":"levelo://app?vid=d85feab1-96c9-4cca-8f4f-5cd7dba1f869","ios":"levelo://app?vid=d85feab1-96c9-4cca-8f4f-5cd7dba1f869"},"vehicle_type_id":"4","last_reported":1710533273,"current_range_meters":11200,"station_id":"ce4bgnh2rcd13ifvqc0g","pricing_plan_id":"cebpf4jnsgd1na2vs0mg"},{"bike_id":"f746a9be-ea6c-4c29-85ef-9c908dc81ab7","system_id":"levelo_inurba_marseille","lat":43.296129,"lon":5.370777,"is_reserved":false,"is_disabled":false,"rental_uris":{"android":"levelo://app?vid=f746a9be-ea6c-4c29-85ef-9c908dc81ab7","ios":"levelo://app?vid=f746a9be-ea6c-4c29-85ef-9c908dc81ab7"},"vehicle_type_id":"4","last_reported":1710533273,"current_range_meters":22800,"station_id":"ce4bgnh2rcd13ifvqc0g","pricing_plan_id":"cebpf4jnsgd1na2vs0mg"},{"bike_id":"09facc08-72d8-4e9d-b90e-1bb4912eb841","system_id":"levelo_inurba_marseille","lat":43.296131,"lon":5.370773,"is_reserved":false,"is_disabled":false,"rental_uris":{"android":"levelo://app?vid=09facc08-72d8-4e9d-b90e-1bb4912eb841","ios":"levelo://app?vid=09facc08-72d8-4e9d-b90e-1bb4912eb841"},"vehicle_type_id":"4","last_reported":1710533273,"current_range_meters":10400,"station_id":"ce4bgnh2rcd13ifvqc0g","pricing_plan_id":"cebpf4jnsgd1na2vs0mg"},{"bike_id":"b1678c08-5541-4d70-a8e6-dc9a91838fd9","system_id":"levelo_inurba_marseille","lat":43.296131,"lon":5.370773,"is_reserved":false,"is_disabled":false,"rental_uris":{"android":"levelo://app?vid=b1678c08-5541-4d70-a8e6-dc9a91838fd9","ios":"levelo://app?vid=b1678c08-5541-4d70-a8e6-dc9a91838fd9"},"vehicle_type_id":"4","last_reported":1710533273,"current_range_meters":11600,"station_id":"ce4bgnh2rcd13ifvqc0g","pricing_plan_id":"cebpf4jnsgd1na2vs0mg"},{"bike_id":"1da13f1c-3829-4e66-9b56-2239f256fb0f","system_id":"levelo_inurba_marseille","lat":43.29573,"lon":5.367355,"is_reserved":false,"is_disabled":false,"rental_uris":{"android":"levelo://app?vid=1da13f1c-3829-4e66-9b56-2239f256fb0f","ios":"levelo://app?vid=1da13f1c-3829-4e66-9b56-2239f256fb0f"},"vehicle_type_id":"4","last_reported":1710533273,"current_range_meters":0,"station_id":"ce4bgph2rcd13ifvqc2g","pricing_plan_id":"cebpf4jnsgd1na2vs0mg"},{"bike_id":"276a87eb-a987-439e-aeb6-92f176b29861","system_id":"levelo_inurba_marseille","lat":43.296131,"lon":5.370773,"is_reserved":false,"is_disabled":false,"rental_uris":{"android":"levelo://app?vid=276a87eb-a987-439e-aeb6-92f176b29861","ios":"levelo://app?vid=276a87eb-a987-439e-aeb6-92f176b29861"},"vehicle_type_id":"4","last_reported":1710533273,"current_range_meters":2800,"station_id":"ce4bgnh2rcd13ifvqc0g","pricing_plan_id":"cebpf4jnsgd1na2vs0mg"},{"bike_id":"01204c74-8d65-415c-b732-5a01a5b33ff7","system_id":"levelo_inurba_marseille","lat":43.296129,"lon":5.370777,"is_reserved":false,"is_disabled":false,"rental_uris":{"android":"levelo://app?vid=01204c74-8d65-415c-b732-5a01a5b33ff7","ios":"levelo://app?vid=01204c74-8d65-415c-b732-5a01a5b33ff7"},"vehicle_type_id":"4","last_reported":1710533273,"current_range_meters":6800,"station_id":"ce4bgnh2rcd13ifvqc0g","pricing_plan_id":"cebpf4jnsgd1na2vs0mg"},{"bike_id":"13610149-ec70-45ff-87ac-e632a5f69f2e","system_id":"levelo_inurba_marseille","lat":43.296129,"lon":5.370777,"is_reserved":false,"is_disabled":false,"rental_uris":{"android":"levelo://app?vid=13610149-ec70-45ff-87ac-e632a5f69f2e","ios":"levelo://app?vid=13610149-ec70-45ff-87ac-e632a5f69f2e"},"vehicle_type_id":"4","last_reported":1710533273,"current_range_meters":8800,"station_id":"ce4bgnh2rcd13ifvqc0g","pricing_plan_id":"cebpf4jnsgd1na2vs0mg"},{"bike_id":"3957e336-a015-4981-9fdf-151675d7dfb6","system_id":"levelo_inurba_marseille","lat":43.29573,"lon":5.367355,"is_reserved":false,"is_disabled":false,"rental_uris":{"android":"levelo://app?vid=3957e336-a015-4981-9fdf-151675d7dfb6","ios":"levelo://app?vid=3957e336-a015-4981-9fdf-151675d7dfb6"},"vehicle_type_id":"4","last_reported":1710533273,"current_range_meters":8400,"station_id":"ce4bgph2rcd13ifvqc2g","pricing_plan_id":"cebpf4jnsgd1na2vs0mg"},{"bike_id":"3eafcfb4-f5ba-408f-be77-1831dbc685f8","system_id":"levelo_inurba_marseille","lat":43.29573,"lon":5.367355,"is_reserved":false,"is_disabled":false,"rental_uris":{"android":"levelo://app?vid=3eafcfb4-f5ba-408f-be77-1831dbc685f8","ios":"levelo://app?vid=3eafcfb4-f5ba-408f-be77-1831dbc685f8"},"vehicle_type_id":"4","last_reported":1710533273,"current_range_meters":8000,"station_id":"ce4bgph2rcd13ifvqc2g","pricing_plan_id":"cebpf4jnsgd1na2vs0mg"},{"bike_id":"15b08380-3040-4351-b9e9-6c0bbf4b6246","system_id":"levelo_inurba_marseille","lat":43.29573,"lon":5.367355,"is_reserved":false,"is_disabled":false,"rental_uris":{"android":"levelo://app?vid=15b08380-3040-4351-b9e9-6c0bbf4b6246","ios":"levelo://app?vid=15b08380-3040-4351-b9e9-6c0bbf4b6246"},"vehicle_type_id":"4","last_reported":1710533273,"current_range_meters":25600,"station_id":"ce4bgph2rcd13ifvqc2g","pricing_plan_id":"cebpf4jnsgd1na2vs0mg"},{"bike_id":"b75a2ce5-d62c-4538-bb06-2e7e99ef1924","system_id":"levelo_inurba_marseille","lat":43.296921,"lon":5.376579,"is_reserved":false,"is_disabled":false,"rental_uris":{"android":"levelo://app?vid=b75a2ce5-d62c-4538-bb06-2e7e99ef1924","ios":"levelo://app?vid=b75a2ce5-d62c-4538-bb06-2e7e99ef1924"},"vehicle_type_id":"4","last_reported":1710533273,"current_range_meters":1200,"station_id":"ce4bgkh2rcd13ifvqbl0","pricing_plan_id":"cebpf4jnsgd1na2vs0mg"},{"bike_id":"8e1e9767-73e3-47ca-a409-1fb5cad660ac","system_id":"levelo_inurba_marseille","lat":43.299028,"lon":5.381509,"is_reserved":false,"is_disabled":false,"rental_uris":{"android":"levelo://app?vid=8e1e9767-73e3-47ca-a409-1fb5cad660ac","ios":"levelo://app?vid=8e1e9767-73e3-47ca-a409-1fb5cad660ac"},"vehicle_type_id":"4","last_reported":1710533273,"current_range_meters":25200,"station_id":"ce4bgj12rcd13ifvqbc0","pricing_plan_id":"cebpf4jnsgd1na2vs0mg"},{"bike_id":"b71bcb0d-73c8-4522-84de-be03352a6431","system_id":"levelo_inurba_marseille","lat":43.299028,"lon":5.381509,"is_reserved":false,"is_disabled":false,"rental_uris":{"android":"levelo://app?vid=b71bcb0d-73c8-4522-84de-be03352a6431","ios":"levelo://app?vid=b71bcb0d-73c8-4522-84de-be03352a6431"},"vehicle_type_id":"4","last_reported":1710533273,"current_range_meters":1200,"station_id":"ce4bgj12rcd13ifvqbc0","pricing_plan_id":"cebpf4jnsgd1na2vs0mg"},{"bike_id":"a4171b95-44a8-4964-9d99-49400e91d048","system_id":"levelo_inurba_marseille","lat":43.296921,"lon":5.376579,"is_reserved":false,"is_disabled":false,"rental_uris":{"android":"levelo://app?vid=a4171b95-44a8-4964-9d99-49400e91d048","ios":"levelo://app?vid=a4171b95-44a8-4964-9d99-49400e91d048"},"vehicle_type_id":"4","last_reported":1710533273,"current_range_meters":12000,"station_id":"ce4bgkh2rcd13ifvqbl0","pricing_plan_id":"cebpf4jnsgd1na2vs0mg"},{"bike_id":"8b802732-1a68-4756-a085-532ded206541","system_id":"levelo_inurba_marseille","lat":43.299028,"lon":5.381509,"is_reserved":false,"is_disabled":false,"rental_uris":{"android":"levelo://app?vid=8b802732-1a68-4756-a085-532ded206541","ios":"levelo://app?vid=8b802732-1a68-4756-a085-532ded206541"},"vehicle_type_id":"4","last_reported":1710533273,"current_range_meters":14800,"station_id":"ce4bgj12rcd13ifvqbc0","pricing_plan_id":"cebpf4jnsgd1na2vs0mg"},{"bike_id":"bff98c8e-bc3a-4c87-af4c-3cd2546ecf9a","system_id":"levelo_inurba_marseille","lat":43.299028,"lon":5.381509,"is_reserved":false,"is_disabled":false,"rental_uris":{"android":"levelo://app?vid=bff98c8e-bc3a-4c87-af4c-3cd2546ecf9a","ios":"levelo://app?vid=bff98c8e-bc3a-4c87-af4c-3cd2546ecf9a"},"vehicle_type_id":"4","last_reported":1710533273,"current_range_meters":14800,"station_id":"ce4bgj12rcd13ifvqbc0","pricing_plan_id":"cebpf4jnsgd1na2vs0mg"},{"bike_id":"672dbd91-3e44-4d46-96e1-4574a2c450df","system_id":"levelo_inurba_marseille","lat":43.299028,"lon":5.381509,"is_reserved":false,"is_disabled":false,"rental_uris":{"android":"levelo://app?vid=672dbd91-3e44-4d46-96e1-4574a2c450df","ios":"levelo://app?vid=672dbd91-3e44-4d46-96e1-4574a2c450df"},"vehicle_type_id":"4","last_reported":1710533273,"current_range_meters":20000,"station_id":"ce4bgj12rcd13ifvqbc0","pricing_plan_id":"cebpf4jnsgd1na2vs0mg"},{"bike_id":"82d2ed77-ad92-4570-a4aa-0ca51d88fd43","system_id":"levelo_inurba_marseille","lat":43.299028,"lon":5.381509,"is_reserved":false,"is_disabled":false,"rental_uris":{"android":"levelo://app?vid=82d2ed77-ad92-4570-a4aa-0ca51d88fd43","ios":"levelo://app?vid=82d2ed77-ad92-4570-a4aa-0ca51d88fd43"},"vehicle_type_id":"4","last_reported":1710533273,"current_range_meters":1600,"station_id":"ce4bgj12rcd13ifvqbc0","pricing_plan_id":"cebpf4jnsgd1na2vs0mg"},{"bike_id":"efdb4eb3-9dbd-471f-b852-1349ee65e6bf","system_id":"levelo_inurba_marseille","lat":43.317441,"lon":5.390027,"is_reserved":false,"is_disabled":false,"rental_uris":{"android":"levelo://app?vid=efdb4eb3-9dbd-471f-b852-1349ee65e6bf","ios":"levelo://app?vid=efdb4eb3-9dbd-471f-b852-1349ee65e6bf"},"vehicle_type_id":"4","last_reported":1710533273,"current_range_meters":2000,"station_id":"ce4bhqp2rcd13ifvqhng","pricing_plan_id":"cebpf4jnsgd1na2vs0mg"},{"bike_id":"934dcfbb-851e-4f5b-8f06-0e4a0da081b2","system_id":"levelo_inurba_marseille","lat":43.29794,"lon":5.37964,"is_reserved":false,"is_disabled":false,"rental_uris":{"android":"levelo://app?vid=934dcfbb-851e-4f5b-8f06-0e4a0da081b2","ios":"levelo://app?vid=934dcfbb-851e-4f5b-8f06-0e4a0da081b2"},"vehicle_type_id":"4","last_reported":1710533273,"current_range_meters":400,"station_id":"","pricing_plan_id":"cebpf4jnsgd1na2vs0mg"},{"bike_id":"9abd7ab2-11a1-4b0c-86cd-498b22fe8f60","system_id":"levelo_inurba_marseille","lat":43.31759,"lon":5.39009,"is_reserved":false,"is_disabled":false,"rental_uris":{"android":"levelo://app?vid=9abd7ab2-11a1-4b0c-86cd-498b22fe8f60","ios":"levelo://app?vid=9abd7ab2-11a1-4b0c-86cd-498b22fe8f60"},"vehicle_type_id":"4","last_reported":1710533273,"current_range_meters":16000,"station_id":"ce4bhqp2rcd13ifvqhng","pricing_plan_id":"cebpf4jnsgd1na2vs0mg"},{"bike_id":"fd1852e9-d567-48c8-94d0-c242d922a974","system_id":"levelo_inurba_marseille","lat":43.31757,"lon":5.3902,"is_reserved":false,"is_disabled":false,"rental_uris":{"android":"levelo://app?vid=fd1852e9-d567-48c8-94d0-c242d922a974","ios":"levelo://app?vid=fd1852e9-d567-48c8-94d0-c242d922a974"},"vehicle_type_id":"4","last_reported":1710533273,"current_range_meters":18000,"station_id":"ce4bhqp2rcd13ifvqhng","pricing_plan_id":"cebpf4jnsgd1na2vs0mg"},{"bike_id":"9cc0de22-c994-4630-a056-91ad50f77187","system_id":"levelo_inurba_marseille","lat":43.3176,"lon":5.39019,"is_reserved":false,"is_disabled":false,"rental_uris":{"android":"levelo://app?vid=9cc0de22-c994-4630-a056-91ad50f77187","ios":"levelo://app?vid=9cc0de22-c994-4630-a056-91ad50f77187"},"vehicle_type_id":"4","last_reported":1710533273,"current_range_meters":22000,"station_id":"ce4bhqp2rcd13ifvqhng","pricing_plan_id":"cebpf4jnsgd1na2vs0mg"},{"bike_id":"5a55025e-8cac-499d-bd6d-2d13bfbeb25d","system_id":"levelo_inurba_marseille","lat":43.317557,"lon":5.390173,"is_reserved":false,"is_disabled":false,"rental_uris":{"android":"levelo://app?vid=5a55025e-8cac-499d-bd6d-2d13bfbeb25d","ios":"levelo://app?vid=5a55025e-8cac-499d-bd6d-2d13bfbeb25d"},"vehicle_type_id":"4","last_reported":1710533273,"current_range_meters":10400,"station_id":"ce4bhqp2rcd13ifvqhng","pricing_plan_id":"cebpf4jnsgd1na2vs0mg"},{"bike_id":"df85cac9-a11a-4322-91a1-76752c133c47","system_id":"levelo_inurba_marseille","lat":43.298037,"lon":5.381066,"is_reserved":false,"is_disabled":false,"rental_uris":{"android":"levelo://app?vid=df85cac9-a11a-4322-91a1-76752c133c47","ios":"levelo://app?vid=df85cac9-a11a-4322-91a1-76752c133c47"},"vehicle_type_id":"4","last_reported":1710533273,"current_range_meters":13600,"station_id":"ce4bgip2rcd13ifvqbb0","pricing_plan_id":"cebpf4jnsgd1na2vs0mg"},{"bike_id":"ed726f9a-4948-40b6-a927-45487800f1ed","system_id":"levelo_inurba_marseille","lat":43.298037,"lon":5.381066,"is_reserved":false,"is_disabled":false,"rental_uris":{"android":"levelo://app?vid=ed726f9a-4948-40b6-a927-45487800f1ed","ios":"levelo://app?vid=ed726f9a-4948-40b6-a927-45487800f1ed"},"vehicle_type_id":"4","last_reported":1710533273,"current_range_meters":27200,"station_id":"ce4bgip2rcd13ifvqbb0","pricing_plan_id":"cebpf4jnsgd1na2vs0mg"},{"bike_id":"5271b12f-a9c4-4080-85c9-c9811d554a17","system_id":"levelo_inurba_marseille","lat":43.304274,"lon":5.388873,"is_reserved":false,"is_disabled":false,"rental_uris":{"android":"levelo://app?vid=5271b12f-a9c4-4080-85c9-c9811d554a17","ios":"levelo://app?vid=5271b12f-a9c4-4080-85c9-c9811d554a17"},"vehicle_type_id":"4","last_reported":1710533273,"current_range_meters":8800,"station_id":"ce4bgk12rcd13ifvqbi0","pricing_plan_id":"cebpf4jnsgd1na2vs0mg"},{"bike_id":"e297eaf1-0904-4a78-8df5-33588ff57b08","system_id":"levelo_inurba_marseille","lat":43.297979,"lon":5.380896,"is_reserved":false,"is_disabled":false,"rental_uris":{"android":"levelo://app?vid=e297eaf1-0904-4a78-8df5-33588ff57b08","ios":"levelo://app?vid=e297eaf1-0904-4a78-8df5-33588ff57b08"},"vehicle_type_id":"4","last_reported":1710533273,"current_range_meters":31200,"station_id":"ce4bgip2rcd13ifvqbb0","pricing_plan_id":"cebpf4jnsgd1na2vs0mg"},{"bike_id":"acd9164c-7923-4a7e-81b8-e21efcc7dfdd","system_id":"levelo_inurba_marseille","lat":43.29799,"lon":5.38098,"is_reserved":false,"is_disabled":false,"rental_uris":{"android":"levelo://app?vid=acd9164c-7923-4a7e-81b8-e21efcc7dfdd","ios":"levelo://app?vid=acd9164c-7923-4a7e-81b8-e21efcc7dfdd"},"vehicle_type_id":"4","last_reported":1710533273,"current_range_meters":26800,"station_id":"ce4bgip2rcd13ifvqbb0","pricing_plan_id":"cebpf4jnsgd1na2vs0mg"},{"bike_id":"3007c404-4308-4dca-86bb-2d5a54eff830","system_id":"levelo_inurba_marseille","lat":43.29787,"lon":5.38075,"is_reserved":false,"is_disabled":false,"rental_uris":{"android":"levelo://app?vid=3007c404-4308-4dca-86bb-2d5a54eff830","ios":"levelo://app?vid=3007c404-4308-4dca-86bb-2d5a54eff830"},"vehicle_type_id":"4","last_reported":1710533273,"current_range_meters":26000,"station_id":"ce4bgip2rcd13ifvqbb0","pricing_plan_id":"cebpf4jnsgd1na2vs0mg"},{"bike_id":"db32c922-5804-4ff9-bff4-12634a0e5532","system_id":"levelo_inurba_marseille","lat":43.29793,"lon":5.38092,"is_reserved":false,"is_disabled":false,"rental_uris":{"android":"levelo://app?vid=db32c922-5804-4ff9-bff4-12634a0e5532","ios":"levelo://app?vid=db32c922-5804-4ff9-bff4-12634a0e5532"},"vehicle_type_id":"4","last_reported":1710533273,"current_range_meters":16800,"station_id":"ce4bgip2rcd13ifvqbb0","pricing_plan_id":"cebpf4jnsgd1na2vs0mg"},{"bike_id":"0b5431e8-527a-49b1-b86f-f2268c7e20ee","system_id":"levelo_inurba_marseille","lat":43.298037,"lon":5.381066,"is_reserved":false,"is_disabled":false,"rental_uris":{"android":"levelo://app?vid=0b5431e8-527a-49b1-b86f-f2268c7e20ee","ios":"levelo://app?vid=0b5431e8-527a-49b1-b86f-f2268c7e20ee"},"vehicle_type_id":"4","last_reported":1710533273,"current_range_meters":8000,"station_id":"ce4bgip2rcd13ifvqbb0","pricing_plan_id":"cebpf4jnsgd1na2vs0mg"},{"bike_id":"cee5b88a-3e1c-442f-87e9-55058759e93b","system_id":"levelo_inurba_marseille","lat":43.298037,"lon":5.381066,"is_reserved":false,"is_disabled":false,"rental_uris":{"android":"levelo://app?vid=cee5b88a-3e1c-442f-87e9-55058759e93b","ios":"levelo://app?vid=cee5b88a-3e1c-442f-87e9-55058759e93b"},"vehicle_type_id":"4","last_reported":1710533273,"current_range_meters":22400,"station_id":"ce4bgip2rcd13ifvqbb0","pricing_plan_id":"cebpf4jnsgd1na2vs0mg"},{"bike_id":"58ecc53b-a19e-42d9-b6cf-535d25a43cfb","system_id":"levelo_inurba_marseille","lat":43.30439,"lon":5.38881,"is_reserved":false,"is_disabled":false,"rental_uris":{"android":"levelo://app?vid=58ecc53b-a19e-42d9-b6cf-535d25a43cfb","ios":"levelo://app?vid=58ecc53b-a19e-42d9-b6cf-535d25a43cfb"},"vehicle_type_id":"4","last_reported":1710533273,"current_range_meters":18800,"station_id":"ce4bgk12rcd13ifvqbi0","pricing_plan_id":"cebpf4jnsgd1na2vs0mg"},{"bike_id":"b06414c0-36e8-4f1c-8b6c-2e8e3a99279b","system_id":"levelo_inurba_marseille","lat":43.30439,"lon":5.38883,"is_reserved":false,"is_disabled":false,"rental_uris":{"android":"levelo://app?vid=b06414c0-36e8-4f1c-8b6c-2e8e3a99279b","ios":"levelo://app?vid=b06414c0-36e8-4f1c-8b6c-2e8e3a99279b"},"vehicle_type_id":"4","last_reported":1710533273,"current_range_meters":18400,"station_id":"ce4bgk12rcd13ifvqbi0","pricing_plan_id":"cebpf4jnsgd1na2vs0mg"},{"bike_id":"81bfbf1a-881a-49ca-af60-1e974676cda2","system_id":"levelo_inurba_marseille","lat":43.298037,"lon":5.381066,"is_reserved":false,"is_disabled":false,"rental_uris":{"android":"levelo://app?vid=81bfbf1a-881a-49ca-af60-1e974676cda2","ios":"levelo://app?vid=81bfbf1a-881a-49ca-af60-1e974676cda2"},"vehicle_type_id":"4","last_reported":1710533273,"current_range_meters":12800,"station_id":"ce4bgip2rcd13ifvqbb0","pricing_plan_id":"cebpf4jnsgd1na2vs0mg"},{"bike_id":"bdd8c874-7cd8-410c-93bb-e17625141e47","system_id":"levelo_inurba_marseille","lat":43.297963,"lon":5.38112,"is_reserved":false,"is_disabled":false,"rental_uris":{"android":"levelo://app?vid=bdd8c874-7cd8-410c-93bb-e17625141e47","ios":"levelo://app?vid=bdd8c874-7cd8-410c-93bb-e17625141e47"},"vehicle_type_id":"4","last_reported":1710533273,"current_range_meters":20000,"station_id":"ce4bgip2rcd13ifvqbb0","pricing_plan_id":"cebpf4jnsgd1na2vs0mg"},{"bike_id":"d221ce96-9cf3-4687-bca7-69405056eded","system_id":"levelo_inurba_marseille","lat":43.298023,"lon":5.381283,"is_reserved":false,"is_disabled":false,"rental_uris":{"android":"levelo://app?vid=d221ce96-9cf3-4687-bca7-69405056eded","ios":"levelo://app?vid=d221ce96-9cf3-4687-bca7-69405056eded"},"vehicle_type_id":"4","last_reported":1710533273,"current_range_meters":31200,"station_id":"ce4bgip2rcd13ifvqbb0","pricing_plan_id":"cebpf4jnsgd1na2vs0mg"},{"bike_id":"9832252e-8df1-4311-a33d-2563532d3f5b","system_id":"levelo_inurba_marseille","lat":43.3043,"lon":5.38886,"is_reserved":false,"is_disabled":false,"rental_uris":{"android":"levelo://app?vid=9832252e-8df1-4311-a33d-2563532d3f5b","ios":"levelo://app?vid=9832252e-8df1-4311-a33d-2563532d3f5b"},"vehicle_type_id":"4","last_reported":1710533273,"current_range_meters":0,"station_id":"ce4bgk12rcd13ifvqbi0","pricing_plan_id":"cebpf4jnsgd1na2vs0mg"},{"bike_id":"7563f441-8209-4b32-a7fc-a7878895491e","system_id":"levelo_inurba_marseille","lat":43.3045,"lon":5.38903,"is_reserved":false,"is_disabled":false,"rental_uris":{"android":"levelo://app?vid=7563f441-8209-4b32-a7fc-a7878895491e","ios":"levelo://app?vid=7563f441-8209-4b32-a7fc-a7878895491e"},"vehicle_type_id":"4","last_reported":1710533273,"current_range_meters":4400,"station_id":"ce4bgk12rcd13ifvqbi0","pricing_plan_id":"cebpf4jnsgd1na2vs0mg"},{"bike_id":"69a4a838-c496-43b6-8e11-ad9bc2de0b59","system_id":"levelo_inurba_marseille","lat":43.304274,"lon":5.388873,"is_reserved":false,"is_disabled":false,"rental_uris":{"android":"levelo://app?vid=69a4a838-c496-43b6-8e11-ad9bc2de0b59","ios":"levelo://app?vid=69a4a838-c496-43b6-8e11-ad9bc2de0b59"},"vehicle_type_id":"4","last_reported":1710533273,"current_range_meters":2400,"station_id":"ce4bgk12rcd13ifvqbi0","pricing_plan_id":"cebpf4jnsgd1na2vs0mg"},{"bike_id":"1866a62f-fce7-45bb-a206-81d1ce325748","system_id":"levelo_inurba_marseille","lat":43.29626,"lon":5.37715,"is_reserved":false,"is_disabled":false,"rental_uris":{"android":"levelo://app?vid=1866a62f-fce7-45bb-a206-81d1ce325748","ios":"levelo://app?vid=1866a62f-fce7-45bb-a206-81d1ce325748"},"vehicle_type_id":"4","last_reported":1710533273,"current_range_meters":6000,"station_id":"ce4bgi92rcd13ifvqb90","pricing_plan_id":"cebpf4jnsgd1na2vs0mg"},{"bike_id":"8a2404d3-c33d-4e49-bbb2-66cce3f855ca","system_id":"levelo_inurba_marseille","lat":43.304278,"lon":5.388868,"is_reserved":false,"is_disabled":false,"rental_uris":{"android":"levelo://app?vid=8a2404d3-c33d-4e49-bbb2-66cce3f855ca","ios":"levelo://app?vid=8a2404d3-c33d-4e49-bbb2-66cce3f855ca"},"vehicle_type_id":"4","last_reported":1710533273,"current_range_meters":11200,"station_id":"ce4bgk12rcd13ifvqbi0","pricing_plan_id":"cebpf4jnsgd1na2vs0mg"},{"bike_id":"ae370393-6de5-4a24-a1d9-8730e3ed2a5e","system_id":"levelo_inurba_marseille","lat":43.29788,"lon":5.38109,"is_reserved":false,"is_disabled":false,"rental_uris":{"android":"levelo://app?vid=ae370393-6de5-4a24-a1d9-8730e3ed2a5e","ios":"levelo://app?vid=ae370393-6de5-4a24-a1d9-8730e3ed2a5e"},"vehicle_type_id":"4","last_reported":1710533273,"current_range_meters":0,"station_id":"ce4bgip2rcd13ifvqbb0","pricing_plan_id":"cebpf4jnsgd1na2vs0mg"},{"bike_id":"12b073fc-7589-443b-bc4b-715f9235424e","system_id":"levelo_inurba_marseille","lat":43.29789,"lon":5.38111,"is_reserved":false,"is_disabled":false,"rental_uris":{"android":"levelo://app?vid=12b073fc-7589-443b-bc4b-715f9235424e","ios":"levelo://app?vid=12b073fc-7589-443b-bc4b-715f9235424e"},"vehicle_type_id":"4","last_reported":1710533273,"current_range_meters":11200,"station_id":"ce4bgip2rcd13ifvqbb0","pricing_plan_id":"cebpf4jnsgd1na2vs0mg"},{"bike_id":"8b381278-08af-41fc-9faf-fec1a4b16310","system_id":"levelo_inurba_marseille","lat":43.304308,"lon":5.388915,"is_reserved":false,"is_disabled":false,"rental_uris":{"android":"levelo://app?vid=8b381278-08af-41fc-9faf-fec1a4b16310","ios":"levelo://app?vid=8b381278-08af-41fc-9faf-fec1a4b16310"},"vehicle_type_id":"4","last_reported":1710533273,"current_range_meters":7600,"station_id":"ce4bgl12rcd13ifvqbo0","pricing_plan_id":"cebpf4jnsgd1na2vs0mg"},{"bike_id":"dbd16492-0778-4404-bc84-eafa59b12f42","system_id":"levelo_inurba_marseille","lat":43.295567,"lon":5.374858,"is_reserved":false,"is_disabled":false,"rental_uris":{"android":"levelo://app?vid=dbd16492-0778-4404-bc84-eafa59b12f42","ios":"levelo://app?vid=dbd16492-0778-4404-bc84-eafa59b12f42"},"vehicle_type_id":"4","last_reported":1710533273,"current_range_meters":0,"station_id":"ce4bgkp2rcd13ifvqbmg","pricing_plan_id":"cebpf4jnsgd1na2vs0mg"},{"bike_id":"25d1f653-8204-4ce8-be11-b115a0aaa6fb","system_id":"levelo_inurba_marseille","lat":43.304278,"lon":5.388868,"is_reserved":false,"is_disabled":false,"rental_uris":{"android":"levelo://app?vid=25d1f653-8204-4ce8-be11-b115a0aaa6fb","ios":"levelo://app?vid=25d1f653-8204-4ce8-be11-b115a0aaa6fb"},"vehicle_type_id":"4","last_reported":1710533273,"current_range_meters":3600,"station_id":"ce4bgk12rcd13ifvqbi0","pricing_plan_id":"cebpf4jnsgd1na2vs0mg"},{"bike_id":"d2c7c459-f20b-4b77-939e-eaa5f8f65cc6","system_id":"levelo_inurba_marseille","lat":43.296228,"lon":5.377248,"is_reserved":false,"is_disabled":false,"rental_uris":{"android":"levelo://app?vid=d2c7c459-f20b-4b77-939e-eaa5f8f65cc6","ios":"levelo://app?vid=d2c7c459-f20b-4b77-939e-eaa5f8f65cc6"},"vehicle_type_id":"4","last_reported":1710533273,"current_range_meters":20400,"station_id":"ce4bgi92rcd13ifvqb90","pricing_plan_id":"cebpf4jnsgd1na2vs0mg"},{"bike_id":"65a17755-41e1-4cf4-8107-0ce450bc4a8e","system_id":"levelo_inurba_marseille","lat":43.296223,"lon":5.377263,"is_reserved":false,"is_disabled":false,"rental_uris":{"android":"levelo://app?vid=65a17755-41e1-4cf4-8107-0ce450bc4a8e","ios":"levelo://app?vid=65a17755-41e1-4cf4-8107-0ce450bc4a8e"},"vehicle_type_id":"4","last_reported":1710533273,"current_range_meters":0,"station_id":"ce4bgi92rcd13ifvqb90","pricing_plan_id":"cebpf4jnsgd1na2vs0mg"},{"bike_id":"2a63f293-b3cd-45d1-99d1-b96c0d6f631d","system_id":"levelo_inurba_marseille","lat":43.296263,"lon":5.377094,"is_reserved":false,"is_disabled":false,"rental_uris":{"android":"levelo://app?vid=2a63f293-b3cd-45d1-99d1-b96c0d6f631d","ios":"levelo://app?vid=2a63f293-b3cd-45d1-99d1-b96c0d6f631d"},"vehicle_type_id":"4","last_reported":1710533273,"current_range_meters":0,"station_id":"ce4bgi92rcd13ifvqb90","pricing_plan_id":"cebpf4jnsgd1na2vs0mg"},{"bike_id":"49e80c54-3ad0-4535-8bd3-51487aa5d540","system_id":"levelo_inurba_marseille","lat":43.29611,"lon":5.3772,"is_reserved":false,"is_disabled":false,"rental_uris":{"android":"levelo://app?vid=49e80c54-3ad0-4535-8bd3-51487aa5d540","ios":"levelo://app?vid=49e80c54-3ad0-4535-8bd3-51487aa5d540"},"vehicle_type_id":"4","last_reported":1710533273,"current_range_meters":6400,"station_id":"ce4bgi92rcd13ifvqb90","pricing_plan_id":"cebpf4jnsgd1na2vs0mg"},{"bike_id":"5b76e622-8896-44c5-9697-6d7bd07f6801","system_id":"levelo_inurba_marseille","lat":43.29606,"lon":5.37712,"is_reserved":false,"is_disabled":false,"rental_uris":{"android":"levelo://app?vid=5b76e622-8896-44c5-9697-6d7bd07f6801","ios":"levelo://app?vid=5b76e622-8896-44c5-9697-6d7bd07f6801"},"vehicle_type_id":"4","last_reported":1710533273,"current_range_meters":0,"station_id":"ce4bgi92rcd13ifvqb90","pricing_plan_id":"cebpf4jnsgd1na2vs0mg"},{"bike_id":"e2bff72c-1f54-44c5-8888-1240ac284587","system_id":"levelo_inurba_marseille","lat":43.295279,"lon":5.375048,"is_reserved":false,"is_disabled":false,"rental_uris":{"android":"levelo://app?vid=e2bff72c-1f54-44c5-8888-1240ac284587","ios":"levelo://app?vid=e2bff72c-1f54-44c5-8888-1240ac284587"},"vehicle_type_id":"4","last_reported":1710533273,"current_range_meters":19600,"station_id":"ce4bgkp2rcd13ifvqbmg","pricing_plan_id":"cebpf4jnsgd1na2vs0mg"},{"bike_id":"09f4686f-18a5-4ba1-9fb5-e1148d5b1b7c","system_id":"levelo_inurba_marseille","lat":43.29977,"lon":5.38481,"is_reserved":false,"is_disabled":false,"rental_uris":{"android":"levelo://app?vid=09f4686f-18a5-4ba1-9fb5-e1148d5b1b7c","ios":"levelo://app?vid=09f4686f-18a5-4ba1-9fb5-e1148d5b1b7c"},"vehicle_type_id":"4","last_reported":1710533273,"current_range_meters":400,"station_id":"ce4bgj92rcd13ifvqbd0","pricing_plan_id":"cebpf4jnsgd1na2vs0mg"},{"bike_id":"e94eb694-61ef-4e86-b077-6db2cc9cc612","system_id":"levelo_inurba_marseille","lat":43.299707,"lon":5.384859,"is_reserved":false,"is_disabled":false,"rental_uris":{"android":"levelo://app?vid=e94eb694-61ef-4e86-b077-6db2cc9cc612","ios":"levelo://app?vid=e94eb694-61ef-4e86-b077-6db2cc9cc612"},"vehicle_type_id":"4","last_reported":1710533273,"current_range_meters":6400,"station_id":"ce4bgj92rcd13ifvqbd0","pricing_plan_id":"cebpf4jnsgd1na2vs0mg"},{"bike_id":"56f492ba-5614-4f51-9387-4381dd876cf7","system_id":"levelo_inurba_marseille","lat":43.299707,"lon":5.384859,"is_reserved":false,"is_disabled":false,"rental_uris":{"android":"levelo://app?vid=56f492ba-5614-4f51-9387-4381dd876cf7","ios":"levelo://app?vid=56f492ba-5614-4f51-9387-4381dd876cf7"},"vehicle_type_id":"4","last_reported":1710533273,"current_range_meters":4400,"station_id":"ce4bgj92rcd13ifvqbd0","pricing_plan_id":"cebpf4jnsgd1na2vs0mg"},{"bike_id":"d29c60b4-89a5-4528-9fbd-174dabedf121","system_id":"levelo_inurba_marseille","lat":43.299707,"lon":5.384859,"is_reserved":false,"is_disabled":false,"rental_uris":{"android":"levelo://app?vid=d29c60b4-89a5-4528-9fbd-174dabedf121","ios":"levelo://app?vid=d29c60b4-89a5-4528-9fbd-174dabedf121"},"vehicle_type_id":"4","last_reported":1710533273,"current_range_meters":2800,"station_id":"ce4bgj92rcd13ifvqbd0","pricing_plan_id":"cebpf4jnsgd1na2vs0mg"},{"bike_id":"214cfde0-8667-4bac-9485-5afbaf9831ff","system_id":"levelo_inurba_marseille","lat":43.295279,"lon":5.375048,"is_reserved":false,"is_disabled":false,"rental_uris":{"android":"levelo://app?vid=214cfde0-8667-4bac-9485-5afbaf9831ff","ios":"levelo://app?vid=214cfde0-8667-4bac-9485-5afbaf9831ff"},"vehicle_type_id":"4","last_reported":1710533273,"current_range_meters":0,"station_id":"ce4bgkp2rcd13ifvqbmg","pricing_plan_id":"cebpf4jnsgd1na2vs0mg"},{"bike_id":"e793ce3c-e84a-459d-b597-79d9330cf5ea","system_id":"levelo_inurba_marseille","lat":43.29975,"lon":5.38502,"is_reserved":false,"is_disabled":false,"rental_uris":{"android":"levelo://app?vid=e793ce3c-e84a-459d-b597-79d9330cf5ea","ios":"levelo://app?vid=e793ce3c-e84a-459d-b597-79d9330cf5ea"},"vehicle_type_id":"4","last_reported":1710533273,"current_range_meters":26800,"station_id":"ce4bgj92rcd13ifvqbd0","pricing_plan_id":"cebpf4jnsgd1na2vs0mg"},{"bike_id":"1d329061-3833-41fc-946c-bd393544955c","system_id":"levelo_inurba_marseille","lat":43.299709,"lon":5.384964,"is_reserved":false,"is_disabled":false,"rental_uris":{"android":"levelo://app?vid=1d329061-3833-41fc-946c-bd393544955c","ios":"levelo://app?vid=1d329061-3833-41fc-946c-bd393544955c"},"vehicle_type_id":"4","last_reported":1710533273,"current_range_meters":2000,"station_id":"ce4bgj92rcd13ifvqbd0","pricing_plan_id":"cebpf4jnsgd1na2vs0mg"},{"bike_id":"2e4168ef-fcca-45f6-9457-8b26ec1f4861","system_id":"levelo_inurba_marseille","lat":43.29977,"lon":5.38505,"is_reserved":false,"is_disabled":false,"rental_uris":{"android":"levelo://app?vid=2e4168ef-fcca-45f6-9457-8b26ec1f4861","ios":"levelo://app?vid=2e4168ef-fcca-45f6-9457-8b26ec1f4861"},"vehicle_type_id":"4","last_reported":1710533273,"current_range_meters":2800,"station_id":"ce4bgj92rcd13ifvqbd0","pricing_plan_id":"cebpf4jnsgd1na2vs0mg"},{"bike_id":"c74ea684-7547-42a4-a63c-a318bdf34b24","system_id":"levelo_inurba_marseille","lat":43.29968,"lon":5.38498,"is_reserved":false,"is_disabled":false,"rental_uris":{"android":"levelo://app?vid=c74ea684-7547-42a4-a63c-a318bdf34b24","ios":"levelo://app?vid=c74ea684-7547-42a4-a63c-a318bdf34b24"},"vehicle_type_id":"4","last_reported":1710533273,"current_range_meters":0,"station_id":"ce4bgj92rcd13ifvqbd0","pricing_plan_id":"cebpf4jnsgd1na2vs0mg"},{"bike_id":"61a34173-c060-48b7-9899-f97a5d4bb10a","system_id":"levelo_inurba_marseille","lat":43.299475,"lon":5.385005,"is_reserved":false,"is_disabled":false,"rental_uris":{"android":"levelo://app?vid=61a34173-c060-48b7-9899-f97a5d4bb10a","ios":"levelo://app?vid=61a34173-c060-48b7-9899-f97a5d4bb10a"},"vehicle_type_id":"4","last_reported":1710533273,"current_range_meters":0,"station_id":"ce4bgj92rcd13ifvqbd0","pricing_plan_id":"cebpf4jnsgd1na2vs0mg"},{"bike_id":"8f172a52-b1d5-456f-9d15-6cb713a66d22","system_id":"levelo_inurba_marseille","lat":43.30479,"lon":5.39041,"is_reserved":false,"is_disabled":false,"rental_uris":{"android":"levelo://app?vid=8f172a52-b1d5-456f-9d15-6cb713a66d22","ios":"levelo://app?vid=8f172a52-b1d5-456f-9d15-6cb713a66d22"},"vehicle_type_id":"4","last_reported":1710533273,"current_range_meters":6000,"station_id":"ce4bgk12rcd13ifvqbi0","pricing_plan_id":"cebpf4jnsgd1na2vs0mg"},{"bike_id":"eacf3d4d-0113-4d04-8369-c44647ecbe85","system_id":"levelo_inurba_marseille","lat":43.299283,"lon":5.385293,"is_reserved":false,"is_disabled":false,"rental_uris":{"android":"levelo://app?vid=eacf3d4d-0113-4d04-8369-c44647ecbe85","ios":"levelo://app?vid=eacf3d4d-0113-4d04-8369-c44647ecbe85"},"vehicle_type_id":"4","last_reported":1710533273,"current_range_meters":0,"station_id":"ce4bgj92rcd13ifvqbd0","pricing_plan_id":"cebpf4jnsgd1na2vs0mg"},{"bike_id":"eaf421f3-46ac-4e30-949b-910710944134","system_id":"levelo_inurba_marseille","lat":43.323675,"lon":5.388765,"is_reserved":false,"is_disabled":false,"rental_uris":{"android":"levelo://app?vid=eaf421f3-46ac-4e30-949b-910710944134","ios":"levelo://app?vid=eaf421f3-46ac-4e30-949b-910710944134"},"vehicle_type_id":"4","last_reported":1710533273,"current_range_meters":9600,"station_id":"ce4bhqp2rcd13ifvqhog","pricing_plan_id":"cebpf4jnsgd1na2vs0mg"},{"bike_id":"32892f61-1f15-40bc-b639-76781b52ef74","system_id":"levelo_inurba_marseille","lat":43.32367,"lon":5.38877,"is_reserved":false,"is_disabled":false,"rental_uris":{"android":"levelo://app?vid=32892f61-1f15-40bc-b639-76781b52ef74","ios":"levelo://app?vid=32892f61-1f15-40bc-b639-76781b52ef74"},"vehicle_type_id":"4","last_reported":1710533273,"current_range_meters":23600,"station_id":"ce4bhqp2rcd13ifvqhog","pricing_plan_id":"cebpf4jnsgd1na2vs0mg"},{"bike_id":"598544ef-450f-4b1f-8a2f-55ac02e68072","system_id":"levelo_inurba_marseille","lat":43.32362,"lon":5.38884,"is_reserved":false,"is_disabled":false,"rental_uris":{"android":"levelo://app?vid=598544ef-450f-4b1f-8a2f-55ac02e68072","ios":"levelo://app?vid=598544ef-450f-4b1f-8a2f-55ac02e68072"},"vehicle_type_id":"4","last_reported":1710533273,"current_range_meters":0,"station_id":"ce4bhqp2rcd13ifvqhog","pricing_plan_id":"cebpf4jnsgd1na2vs0mg"},{"bike_id":"40e2eb8a-4357-46b9-90f8-84a1e303713d","system_id":"levelo_inurba_marseille","lat":43.32368,"lon":5.38879,"is_reserved":false,"is_disabled":false,"rental_uris":{"android":"levelo://app?vid=40e2eb8a-4357-46b9-90f8-84a1e303713d","ios":"levelo://app?vid=40e2eb8a-4357-46b9-90f8-84a1e303713d"},"vehicle_type_id":"4","last_reported":1710533273,"current_range_meters":6400,"station_id":"ce4bhqp2rcd13ifvqhog","pricing_plan_id":"cebpf4jnsgd1na2vs0mg"},{"bike_id":"73189312-5711-4f07-9ba2-a07b812fa614","system_id":"levelo_inurba_marseille","lat":43.32367,"lon":5.388836,"is_reserved":false,"is_disabled":false,"rental_uris":{"android":"levelo://app?vid=73189312-5711-4f07-9ba2-a07b812fa614","ios":"levelo://app?vid=73189312-5711-4f07-9ba2-a07b812fa614"},"vehicle_type_id":"4","last_reported":1710533273,"current_range_meters":26000,"station_id":"ce4bhqp2rcd13ifvqhog","pricing_plan_id":"cebpf4jnsgd1na2vs0mg"},{"bike_id":"601549c9-17b6-4663-bb1f-1fc3c0514675","system_id":"levelo_inurba_marseille","lat":43.32363,"lon":5.38885,"is_reserved":false,"is_disabled":false,"rental_uris":{"android":"levelo://app?vid=601549c9-17b6-4663-bb1f-1fc3c0514675","ios":"levelo://app?vid=601549c9-17b6-4663-bb1f-1fc3c0514675"},"vehicle_type_id":"4","last_reported":1710533273,"current_range_meters":15200,"station_id":"ce4bhqp2rcd13ifvqhog","pricing_plan_id":"cebpf4jnsgd1na2vs0mg"},{"bike_id":"fabfa73f-5084-4820-a827-515b7447769f","system_id":"levelo_inurba_marseille","lat":43.32367,"lon":5.388836,"is_reserved":false,"is_disabled":false,"rental_uris":{"android":"levelo://app?vid=fabfa73f-5084-4820-a827-515b7447769f","ios":"levelo://app?vid=fabfa73f-5084-4820-a827-515b7447769f"},"vehicle_type_id":"4","last_reported":1710533273,"current_range_meters":2400,"station_id":"ce4bhqp2rcd13ifvqhog","pricing_plan_id":"cebpf4jnsgd1na2vs0mg"},{"bike_id":"3987cddb-4ed7-405b-96ca-b1abeb478286","system_id":"levelo_inurba_marseille","lat":43.32367,"lon":5.388836,"is_reserved":false,"is_disabled":false,"rental_uris":{"android":"levelo://app?vid=3987cddb-4ed7-405b-96ca-b1abeb478286","ios":"levelo://app?vid=3987cddb-4ed7-405b-96ca-b1abeb478286"},"vehicle_type_id":"4","last_reported":1710533273,"current_range_meters":22400,"station_id":"ce4bhqp2rcd13ifvqhog","pricing_plan_id":"cebpf4jnsgd1na2vs0mg"},{"bike_id":"543d4186-714b-4866-a911-93293b5ebde7","system_id":"levelo_inurba_marseille","lat":43.32367,"lon":5.388836,"is_reserved":false,"is_disabled":false,"rental_uris":{"android":"levelo://app?vid=543d4186-714b-4866-a911-93293b5ebde7","ios":"levelo://app?vid=543d4186-714b-4866-a911-93293b5ebde7"},"vehicle_type_id":"4","last_reported":1710533273,"current_range_meters":11200,"station_id":"ce4bhqp2rcd13ifvqhog","pricing_plan_id":"cebpf4jnsgd1na2vs0mg"},{"bike_id":"775cf867-e75b-4fd5-b02f-97c73260f4b7","system_id":"levelo_inurba_marseille","lat":43.32371,"lon":5.38884,"is_reserved":false,"is_disabled":false,"rental_uris":{"android":"levelo://app?vid=775cf867-e75b-4fd5-b02f-97c73260f4b7","ios":"levelo://app?vid=775cf867-e75b-4fd5-b02f-97c73260f4b7"},"vehicle_type_id":"4","last_reported":1710533273,"current_range_meters":6400,"station_id":"ce4bhqp2rcd13ifvqhog","pricing_plan_id":"cebpf4jnsgd1na2vs0mg"},{"bike_id":"98c893c2-7601-480f-b687-9b8b6030928a","system_id":"levelo_inurba_marseille","lat":43.32367,"lon":5.388836,"is_reserved":false,"is_disabled":false,"rental_uris":{"android":"levelo://app?vid=98c893c2-7601-480f-b687-9b8b6030928a","ios":"levelo://app?vid=98c893c2-7601-480f-b687-9b8b6030928a"},"vehicle_type_id":"4","last_reported":1710533273,"current_range_meters":4400,"station_id":"ce4bhqp2rcd13ifvqhog","pricing_plan_id":"cebpf4jnsgd1na2vs0mg"},{"bike_id":"e7defb13-07db-447b-afd9-2164da423aef","system_id":"levelo_inurba_marseille","lat":43.32367,"lon":5.388836,"is_reserved":false,"is_disabled":false,"rental_uris":{"android":"levelo://app?vid=e7defb13-07db-447b-afd9-2164da423aef","ios":"levelo://app?vid=e7defb13-07db-447b-afd9-2164da423aef"},"vehicle_type_id":"4","last_reported":1710533273,"current_range_meters":22400,"station_id":"ce4bhqp2rcd13ifvqhog","pricing_plan_id":"cebpf4jnsgd1na2vs0mg"},{"bike_id":"cc81d865-bd9e-47ea-9dba-ee06420c17c4","system_id":"levelo_inurba_marseille","lat":43.32367,"lon":5.388836,"is_reserved":false,"is_disabled":false,"rental_uris":{"android":"levelo://app?vid=cc81d865-bd9e-47ea-9dba-ee06420c17c4","ios":"levelo://app?vid=cc81d865-bd9e-47ea-9dba-ee06420c17c4"},"vehicle_type_id":"4","last_reported":1710533273,"current_range_meters":0,"station_id":"ce4bhqp2rcd13ifvqhog","pricing_plan_id":"cebpf4jnsgd1na2vs0mg"},{"bike_id":"598fb1f3-a37f-4e7b-8fbd-0c96fece7550","system_id":"levelo_inurba_marseille","lat":43.32357,"lon":5.389,"is_reserved":false,"is_disabled":false,"rental_uris":{"android":"levelo://app?vid=598fb1f3-a37f-4e7b-8fbd-0c96fece7550","ios":"levelo://app?vid=598fb1f3-a37f-4e7b-8fbd-0c96fece7550"},"vehicle_type_id":"4","last_reported":1710533273,"current_range_meters":0,"station_id":"ce4bhqp2rcd13ifvqhog","pricing_plan_id":"cebpf4jnsgd1na2vs0mg"},{"bike_id":"bf5e95be-7e52-46c4-9c94-cc5c5ea87be2","system_id":"levelo_inurba_marseille","lat":43.32369,"lon":5.38889,"is_reserved":false,"is_disabled":false,"rental_uris":{"android":"levelo://app?vid=bf5e95be-7e52-46c4-9c94-cc5c5ea87be2","ios":"levelo://app?vid=bf5e95be-7e52-46c4-9c94-cc5c5ea87be2"},"vehicle_type_id":"4","last_reported":1710533273,"current_range_meters":0,"station_id":"ce4bhqp2rcd13ifvqhog","pricing_plan_id":"cebpf4jnsgd1na2vs0mg"},{"bike_id":"8bcf549d-f78b-4186-b5dd-281525c14912","system_id":"levelo_inurba_marseille","lat":43.296168,"lon":5.381138,"is_reserved":false,"is_disabled":false,"rental_uris":{"android":"levelo://app?vid=8bcf549d-f78b-4186-b5dd-281525c14912","ios":"levelo://app?vid=8bcf549d-f78b-4186-b5dd-281525c14912"},"vehicle_type_id":"4","last_reported":1710533273,"current_range_meters":21600,"station_id":"ce4bgl12rcd13ifvqbo0","pricing_plan_id":"cebpf4jnsgd1na2vs0mg"},{"bike_id":"bb43e9cf-65aa-4664-83d5-0765fa4ac744","system_id":"levelo_inurba_marseille","lat":43.296048,"lon":5.380953,"is_reserved":false,"is_disabled":false,"rental_uris":{"android":"levelo://app?vid=bb43e9cf-65aa-4664-83d5-0765fa4ac744","ios":"levelo://app?vid=bb43e9cf-65aa-4664-83d5-0765fa4ac744"},"vehicle_type_id":"4","last_reported":1710533273,"current_range_meters":800,"station_id":"ce4bgl12rcd13ifvqbo0","pricing_plan_id":"cebpf4jnsgd1na2vs0mg"},{"bike_id":"ddd1eca7-36cd-4b42-8235-433b350d7721","system_id":"levelo_inurba_marseille","lat":43.2961,"lon":5.38108,"is_reserved":false,"is_disabled":false,"rental_uris":{"android":"levelo://app?vid=ddd1eca7-36cd-4b42-8235-433b350d7721","ios":"levelo://app?vid=ddd1eca7-36cd-4b42-8235-433b350d7721"},"vehicle_type_id":"4","last_reported":1710533273,"current_range_meters":23600,"station_id":"ce4bgl12rcd13ifvqbo0","pricing_plan_id":"cebpf4jnsgd1na2vs0mg"},{"bike_id":"3039cbe7-af55-4ea5-a6ae-b7529f8d6016","system_id":"levelo_inurba_marseille","lat":43.296073,"lon":5.38108,"is_reserved":false,"is_disabled":false,"rental_uris":{"android":"levelo://app?vid=3039cbe7-af55-4ea5-a6ae-b7529f8d6016","ios":"levelo://app?vid=3039cbe7-af55-4ea5-a6ae-b7529f8d6016"},"vehicle_type_id":"4","last_reported":1710533273,"current_range_meters":0,"station_id":"ce4bgl12rcd13ifvqbo0","pricing_plan_id":"cebpf4jnsgd1na2vs0mg"},{"bike_id":"badf16ed-cb59-4bce-98a6-fef9a065894d","system_id":"levelo_inurba_marseille","lat":43.29602,"lon":5.381084,"is_reserved":false,"is_disabled":false,"rental_uris":{"android":"levelo://app?vid=badf16ed-cb59-4bce-98a6-fef9a065894d","ios":"levelo://app?vid=badf16ed-cb59-4bce-98a6-fef9a065894d"},"vehicle_type_id":"4","last_reported":1710533273,"current_range_meters":10400,"station_id":"ce4bgl12rcd13ifvqbo0","pricing_plan_id":"cebpf4jnsgd1na2vs0mg"},{"bike_id":"7a9da536-bc7a-4cad-ac26-8aa0b66fdd1c","system_id":"levelo_inurba_marseille","lat":43.295997,"lon":5.380996,"is_reserved":false,"is_disabled":false,"rental_uris":{"android":"levelo://app?vid=7a9da536-bc7a-4cad-ac26-8aa0b66fdd1c","ios":"levelo://app?vid=7a9da536-bc7a-4cad-ac26-8aa0b66fdd1c"},"vehicle_type_id":"4","last_reported":1710533273,"current_range_meters":24800,"station_id":"ce4bgl12rcd13ifvqbo0","pricing_plan_id":"cebpf4jnsgd1na2vs0mg"},{"bike_id":"7071c973-30f5-485b-9b43-b2df913faa41","system_id":"levelo_inurba_marseille","lat":43.296057,"lon":5.381136,"is_reserved":false,"is_disabled":false,"rental_uris":{"android":"levelo://app?vid=7071c973-30f5-485b-9b43-b2df913faa41","ios":"levelo://app?vid=7071c973-30f5-485b-9b43-b2df913faa41"},"vehicle_type_id":"4","last_reported":1710533273,"current_range_meters":0,"station_id":"ce4bgl12rcd13ifvqbo0","pricing_plan_id":"cebpf4jnsgd1na2vs0mg"},{"bike_id":"d59f3674-7ac0-4bf4-bb02-8f59b69ae1ef","system_id":"levelo_inurba_marseille","lat":43.29597,"lon":5.38098,"is_reserved":false,"is_disabled":false,"rental_uris":{"android":"levelo://app?vid=d59f3674-7ac0-4bf4-bb02-8f59b69ae1ef","ios":"levelo://app?vid=d59f3674-7ac0-4bf4-bb02-8f59b69ae1ef"},"vehicle_type_id":"4","last_reported":1710533273,"current_range_meters":7600,"station_id":"ce4bgl12rcd13ifvqbo0","pricing_plan_id":"cebpf4jnsgd1na2vs0mg"},{"bike_id":"320b9a34-88fc-4925-b129-0f21b941ea42","system_id":"levelo_inurba_marseille","lat":43.296025,"lon":5.381105,"is_reserved":false,"is_disabled":false,"rental_uris":{"android":"levelo://app?vid=320b9a34-88fc-4925-b129-0f21b941ea42","ios":"levelo://app?vid=320b9a34-88fc-4925-b129-0f21b941ea42"},"vehicle_type_id":"4","last_reported":1710533273,"current_range_meters":22000,"station_id":"ce4bgl12rcd13ifvqbo0","pricing_plan_id":"cebpf4jnsgd1na2vs0mg"},{"bike_id":"a4323557-bb9c-4ce3-a92f-bf2f692a61d4","system_id":"levelo_inurba_marseille","lat":43.296,"lon":5.38106,"is_reserved":false,"is_disabled":false,"rental_uris":{"android":"levelo://app?vid=a4323557-bb9c-4ce3-a92f-bf2f692a61d4","ios":"levelo://app?vid=a4323557-bb9c-4ce3-a92f-bf2f692a61d4"},"vehicle_type_id":"4","last_reported":1710533273,"current_range_meters":0,"station_id":"ce4bgl12rcd13ifvqbo0","pricing_plan_id":"cebpf4jnsgd1na2vs0mg"},{"bike_id":"6769dd56-684d-4316-8c2d-8fac613c812c","system_id":"levelo_inurba_marseille","lat":43.29602,"lon":5.381084,"is_reserved":false,"is_disabled":false,"rental_uris":{"android":"levelo://app?vid=6769dd56-684d-4316-8c2d-8fac613c812c","ios":"levelo://app?vid=6769dd56-684d-4316-8c2d-8fac613c812c"},"vehicle_type_id":"4","last_reported":1710533273,"current_range_meters":27200,"station_id":"ce4bgl12rcd13ifvqbo0","pricing_plan_id":"cebpf4jnsgd1na2vs0mg"},{"bike_id":"1a809280-2c60-4ca8-a1a8-a06c10280387","system_id":"levelo_inurba_marseille","lat":43.295958,"lon":5.380984,"is_reserved":false,"is_disabled":false,"rental_uris":{"android":"levelo://app?vid=1a809280-2c60-4ca8-a1a8-a06c10280387","ios":"levelo://app?vid=1a809280-2c60-4ca8-a1a8-a06c10280387"},"vehicle_type_id":"4","last_reported":1710533273,"current_range_meters":8800,"station_id":"ce4bgl12rcd13ifvqbo0","pricing_plan_id":"cebpf4jnsgd1na2vs0mg"},{"bike_id":"bbf3172b-708e-4a8e-a299-ba8aa1494269","system_id":"levelo_inurba_marseille","lat":43.295951,"lon":5.380997,"is_reserved":false,"is_disabled":false,"rental_uris":{"android":"levelo://app?vid=bbf3172b-708e-4a8e-a299-ba8aa1494269","ios":"levelo://app?vid=bbf3172b-708e-4a8e-a299-ba8aa1494269"},"vehicle_type_id":"4","last_reported":1710533273,"current_range_meters":4000,"station_id":"ce4bgl12rcd13ifvqbo0","pricing_plan_id":"cebpf4jnsgd1na2vs0mg"},{"bike_id":"a4dbb48a-579b-4a04-a368-ed0d9b0c7aa2","system_id":"levelo_inurba_marseille","lat":43.295947,"lon":5.3811,"is_reserved":false,"is_disabled":false,"rental_uris":{"android":"levelo://app?vid=a4dbb48a-579b-4a04-a368-ed0d9b0c7aa2","ios":"levelo://app?vid=a4dbb48a-579b-4a04-a368-ed0d9b0c7aa2"},