{"last_updated":1769801021,"ttl":60,"version":"2.2","data":{"bikes":[{"bike_id":"c7f5030a-2012-43f3-b9f8-0fff8ff1b27a","system_id":"levelo_inurba_marseille","lat":43.26557,"lon":5.39025,"is_reserved":false,"is_disabled":false,"rental_uris":{"android":"levelo://app?vid=c7f5030a-2012-43f3-b9f8-0fff8ff1b27a","ios":"levelo://app?vid=c7f5030a-2012-43f3-b9f8-0fff8ff1b27a"},"vehicle_type_id":"4","last_reported":1769801022,"current_range_meters":2800,"station_id":"ce4bhe12rcd13ifvqf30","pricing_plan_id":"cebpf4jnsgd1na2vs0mg"},{"bike_id":"ff76a47c-b9f5-4fbd-bc84-288da8094781","system_id":"levelo_inurba_marseille","lat":43.28619,"lon":5.39908,"is_reserved":false,"is_disabled":false,"rental_uris":{"android":"levelo://app?vid=ff76a47c-b9f5-4fbd-bc84-288da8094781","ios":"levelo://app?vid=ff76a47c-b9f5-4fbd-bc84-288da8094781"},"vehicle_type_id":"4","last_reported":1769801022,"current_range_meters":2800,"station_id":"st_d4a7ka997mjs738ck50g","pricing_plan_id":"cebpf4jnsgd1na2vs0mg"},{"bike_id":"5c1bebe8-43bf-476b-a01e-98bad8762f0c","system_id":"levelo_inurba_marseille","lat":43.24627,"lon":5.43145,"is_reserved":false,"is_disabled":false,"rental_uris":{"android":"levelo://app?vid=5c1bebe8-43bf-476b-a01e-98bad8762f0c","ios":"levelo://app?vid=5c1bebe8-43bf-476b-a01e-98bad8762f0c"},"vehicle_type_id":"4","last_reported":1769801022,"current_range_meters":2800,"station_id":"st_d2m6c4gdas8pm72e190g","pricing_plan_id":"cebpf4jnsgd1na2vs0mg"},{"bike_id":"582544a9-03b9-48ac-bcda-2242f477eeb1","system_id":"levelo_inurba_marseille","lat":43.31079,"lon":5.38359,"is_reserved":false,"is_disabled":false,"rental_uris":{"android":"levelo://app?vid=582544a9-03b9-48ac-bcda-2242f477eeb1","ios":"levelo://app?vid=582544a9-03b9-48ac-bcda-2242f477eeb1"},"vehicle_type_id":"4","last_reported":1769801022,"current_range_meters":2800,"station_id":"ce4bgv92rcd13ifvqcr0","pricing_plan_id":"cebpf4jnsgd1na2vs0mg"},{"bike_id":"e0bd6359-f7e9-41aa-9baa-b21a4571a987","system_id":"levelo_inurba_marseille","lat":43.30887,"lon":5.36844,"is_reserved":false,"is_disabled":false,"rental_uris":{"android":"levelo://app?vid=e0bd6359-f7e9-41aa-9baa-b21a4571a987","ios":"levelo://app?vid=e0bd6359-f7e9-41aa-9baa-b21a4571a987"},"vehicle_type_id":"4","last_reported":1769801022,"current_range_meters":2800,"station_id":"ce4bgn92rcd13ifvqbvg","pricing_plan_id":"cebpf4jnsgd1na2vs0mg"},{"bike_id":"71ea06b7-46c1-4fc9-a594-153d92364656","system_id":"levelo_inurba_marseille","lat":43.30718,"lon":5.40921,"is_reserved":false,"is_disabled":false,"rental_uris":{"android":"levelo://app?vid=71ea06b7-46c1-4fc9-a594-153d92364656","ios":"levelo://app?vid=71ea06b7-46c1-4fc9-a594-153d92364656"},"vehicle_type_id":"4","last_reported":1769801022,"current_range_meters":2800,"station_id":"","pricing_plan_id":"cebpf4jnsgd1na2vs0mg"},{"bike_id":"6e7bb1c2-c819-4ea5-bb2c-0f22ec6dca02","system_id":"levelo_inurba_marseille","lat":43.28272,"lon":5.35066,"is_reserved":false,"is_disabled":false,"rental_uris":{"android":"levelo://app?vid=6e7bb1c2-c819-4ea5-bb2c-0f22ec6dca02","ios":"levelo://app?vid=6e7bb1c2-c819-4ea5-bb2c-0f22ec6dca02"},"vehicle_type_id":"4","last_reported":1769801022,"current_range_meters":2800,"station_id":"ce4bhbp2rcd13ifvqerg","pricing_plan_id":"cebpf4jnsgd1na2vs0mg"},{"bike_id":"a9848f24-0ff9-4a7e-98e7-baef5d4cd4ec","system_id":"levelo_inurba_marseille","lat":43.2377,"lon":5.36617,"is_reserved":false,"is_disabled":false,"rental_uris":{"android":"levelo://app?vid=a9848f24-0ff9-4a7e-98e7-baef5d4cd4ec","ios":"levelo://app?vid=a9848f24-0ff9-4a7e-98e7-baef5d4cd4ec"},"vehicle_type_id":"4","last_reported":1769801022,"current_range_meters":3200,"station_id":"st_d3nk18o9ro0c73en2l3g","pricing_plan_id":"cebpf4jnsgd1na2vs0mg"},{"bike_id":"d6d817a7-3009-40a8-ad7e-a86d867e4d63","system_id":"levelo_inurba_marseille","lat":43.243946,"lon":5.370735,"is_reserved":false,"is_disabled":false,"rental_uris":{"android":"levelo://app?vid=d6d817a7-3009-40a8-ad7e-a86d867e4d63","ios":"levelo://app?vid=d6d817a7-3009-40a8-ad7e-a86d867e4d63"},"vehicle_type_id":"4","last_reported":1769801022,"current_range_meters":3200,"station_id":"","pricing_plan_id":"cebpf4jnsgd1na2vs0mg"},{"bike_id":"844a7d3b-10ba-494b-b7a8-394e7dff36b7","system_id":"levelo_inurba_marseille","lat":43.2319,"lon":5.39987,"is_reserved":false,"is_disabled":false,"rental_uris":{"android":"levelo://app?vid=844a7d3b-10ba-494b-b7a8-394e7dff36b7","ios":"levelo://app?vid=844a7d3b-10ba-494b-b7a8-394e7dff36b7"},"vehicle_type_id":"4","last_reported":1769801022,"current_range_meters":3200,"station_id":"ce4bhn12rcd13ifvqgqg","pricing_plan_id":"cebpf4jnsgd1na2vs0mg"},{"bike_id":"bf66e96b-63f3-4fe9-a91f-7a1b0392f166","system_id":"levelo_inurba_marseille","lat":43.25509,"lon":5.37664,"is_reserved":false,"is_disabled":false,"rental_uris":{"android":"levelo://app?vid=bf66e96b-63f3-4fe9-a91f-7a1b0392f166","ios":"levelo://app?vid=bf66e96b-63f3-4fe9-a91f-7a1b0392f166"},"vehicle_type_id":"4","last_reported":1769801022,"current_range_meters":3200,"station_id":"ce4bhh12rcd13ifvqff0","pricing_plan_id":"cebpf4jnsgd1na2vs0mg"},{"bike_id":"3cbe38d2-d6ac-4281-97db-584aa42a7728","system_id":"levelo_inurba_marseille","lat":43.2586,"lon":5.39893,"is_reserved":false,"is_disabled":false,"rental_uris":{"android":"levelo://app?vid=3cbe38d2-d6ac-4281-97db-584aa42a7728","ios":"levelo://app?vid=3cbe38d2-d6ac-4281-97db-584aa42a7728"},"vehicle_type_id":"4","last_reported":1769801022,"current_range_meters":3200,"station_id":"ce4bhl92rcd13ifvqghg","pricing_plan_id":"cebpf4jnsgd1na2vs0mg"},{"bike_id":"4bd6cb39-f26e-431f-9c48-bc9838a79167","system_id":"levelo_inurba_marseille","lat":43.298149,"lon":5.440621,"is_reserved":false,"is_disabled":false,"rental_uris":{"android":"levelo://app?vid=4bd6cb39-f26e-431f-9c48-bc9838a79167","ios":"levelo://app?vid=4bd6cb39-f26e-431f-9c48-bc9838a79167"},"vehicle_type_id":"4","last_reported":1769801022,"current_range_meters":3200,"station_id":"st_d3jp68qikq2c7381ktn0","pricing_plan_id":"cebpf4jnsgd1na2vs0mg"},{"bike_id":"e0529776-2176-417f-8dfc-c2549a882463","system_id":"levelo_inurba_marseille","lat":43.28111,"lon":5.37836,"is_reserved":false,"is_disabled":false,"rental_uris":{"android":"levelo://app?vid=e0529776-2176-417f-8dfc-c2549a882463","ios":"levelo://app?vid=e0529776-2176-417f-8dfc-c2549a882463"},"vehicle_type_id":"4","last_reported":1769801022,"current_range_meters":3600,"station_id":"ce4bha12rcd13ifvqee0","pricing_plan_id":"cebpf4jnsgd1na2vs0mg"},{"bike_id":"fc91d402-8c91-4153-8c51-7e7d2510211c","system_id":"levelo_inurba_marseille","lat":43.28449,"lon":5.3854,"is_reserved":false,"is_disabled":false,"rental_uris":{"android":"levelo://app?vid=fc91d402-8c91-4153-8c51-7e7d2510211c","ios":"levelo://app?vid=fc91d402-8c91-4153-8c51-7e7d2510211c"},"vehicle_type_id":"4","last_reported":1769801022,"current_range_meters":3600,"station_id":"ce4bh8p2rcd13ifvqeb0","pricing_plan_id":"cebpf4jnsgd1na2vs0mg"},{"bike_id":"01be27bb-04c1-4257-961f-4af3e782a655","system_id":"levelo_inurba_marseille","lat":43.25625,"lon":5.38272,"is_reserved":false,"is_disabled":false,"rental_uris":{"android":"levelo://app?vid=01be27bb-04c1-4257-961f-4af3e782a655","ios":"levelo://app?vid=01be27bb-04c1-4257-961f-4af3e782a655"},"vehicle_type_id":"4","last_reported":1769801022,"current_range_meters":3600,"station_id":"","pricing_plan_id":"cebpf4jnsgd1na2vs0mg"},{"bike_id":"42beae56-7cba-4a17-b769-d10eb05158e8","system_id":"levelo_inurba_marseille","lat":43.2796,"lon":5.38691,"is_reserved":false,"is_disabled":true,"rental_uris":{"android":"levelo://app?vid=42beae56-7cba-4a17-b769-d10eb05158e8","ios":"levelo://app?vid=42beae56-7cba-4a17-b769-d10eb05158e8"},"vehicle_type_id":"4","last_reported":1769801022,"current_range_meters":3600,"station_id":"ce4bhg12rcd13ifvqf80","pricing_plan_id":"cebpf4jnsgd1na2vs0mg"},{"bike_id":"86a29941-b088-43a0-8032-cfb1b006593e","system_id":"levelo_inurba_marseille","lat":43.2508,"lon":5.39503,"is_reserved":false,"is_disabled":false,"rental_uris":{"android":"levelo://app?vid=86a29941-b088-43a0-8032-cfb1b006593e","ios":"levelo://app?vid=86a29941-b088-43a0-8032-cfb1b006593e"},"vehicle_type_id":"4","last_reported":1769801022,"current_range_meters":3600,"station_id":"ce4bhm12rcd13ifvqgkg","pricing_plan_id":"cebpf4jnsgd1na2vs0mg"},{"bike_id":"dba1cd34-42d0-43e1-97a1-acdccc4fc1cd","system_id":"levelo_inurba_marseille","lat":43.24139,"lon":5.37702,"is_reserved":false,"is_disabled":false,"rental_uris":{"android":"levelo://app?vid=dba1cd34-42d0-43e1-97a1-acdccc4fc1cd","ios":"levelo://app?vid=dba1cd34-42d0-43e1-97a1-acdccc4fc1cd"},"vehicle_type_id":"4","last_reported":1769801022,"current_range_meters":3600,"station_id":"","pricing_plan_id":"cebpf4jnsgd1na2vs0mg"},{"bike_id":"cc1b2694-0982-4968-a2fa-ba7494302bcd","system_id":"levelo_inurba_marseille","lat":43.2814,"lon":5.38297,"is_reserved":false,"is_disabled":false,"rental_uris":{"android":"levelo://app?vid=cc1b2694-0982-4968-a2fa-ba7494302bcd","ios":"levelo://app?vid=cc1b2694-0982-4968-a2fa-ba7494302bcd"},"vehicle_type_id":"4","last_reported":1769801022,"current_range_meters":3600,"station_id":"","pricing_plan_id":"cebpf4jnsgd1na2vs0mg"},{"bike_id":"84464309-0ca3-4c2d-911c-85d8f1e41e7d","system_id":"levelo_inurba_marseille","lat":43.25861,"lon":5.39894,"is_reserved":false,"is_disabled":false,"rental_uris":{"android":"levelo://app?vid=84464309-0ca3-4c2d-911c-85d8f1e41e7d","ios":"levelo://app?vid=84464309-0ca3-4c2d-911c-85d8f1e41e7d"},"vehicle_type_id":"4","last_reported":1769801022,"current_range_meters":3600,"station_id":"ce4bhl92rcd13ifvqghg","pricing_plan_id":"cebpf4jnsgd1na2vs0mg"},{"bike_id":"66ad2891-d53f-4bd1-a831-9ff760d52e06","system_id":"levelo_inurba_marseille","lat":43.27837,"lon":5.42181,"is_reserved":false,"is_disabled":false,"rental_uris":{"android":"levelo://app?vid=66ad2891-d53f-4bd1-a831-9ff760d52e06","ios":"levelo://app?vid=66ad2891-d53f-4bd1-a831-9ff760d52e06"},"vehicle_type_id":"4","last_reported":1769801022,"current_range_meters":4000,"station_id":"","pricing_plan_id":"cebpf4jnsgd1na2vs0mg"},{"bike_id":"078b63c9-89a3-4623-a2e8-3fd53a065c68","system_id":"levelo_inurba_marseille","lat":43.24186,"lon":5.39382,"is_reserved":false,"is_disabled":false,"rental_uris":{"android":"levelo://app?vid=078b63c9-89a3-4623-a2e8-3fd53a065c68","ios":"levelo://app?vid=078b63c9-89a3-4623-a2e8-3fd53a065c68"},"vehicle_type_id":"4","last_reported":1769801022,"current_range_meters":4000,"station_id":"","pricing_plan_id":"cebpf4jnsgd1na2vs0mg"},{"bike_id":"83fc5387-9bd8-4dec-804d-abfa877a86a6","system_id":"levelo_inurba_marseille","lat":43.29845,"lon":5.44074,"is_reserved":false,"is_disabled":false,"rental_uris":{"android":"levelo://app?vid=83fc5387-9bd8-4dec-804d-abfa877a86a6","ios":"levelo://app?vid=83fc5387-9bd8-4dec-804d-abfa877a86a6"},"vehicle_type_id":"4","last_reported":1769801022,"current_range_meters":4000,"station_id":"","pricing_plan_id":"cebpf4jnsgd1na2vs0mg"},{"bike_id":"32f147b7-2b1a-4f4d-941f-a55b7b632c7a","system_id":"levelo_inurba_marseille","lat":43.27825,"lon":5.40719,"is_reserved":false,"is_disabled":false,"rental_uris":{"android":"levelo://app?vid=32f147b7-2b1a-4f4d-941f-a55b7b632c7a","ios":"levelo://app?vid=32f147b7-2b1a-4f4d-941f-a55b7b632c7a"},"vehicle_type_id":"4","last_reported":1769801022,"current_range_meters":4000,"station_id":"ce4bhnh2rcd13ifvqgtg","pricing_plan_id":"cebpf4jnsgd1na2vs0mg"},{"bike_id":"140656d8-ba4f-4b08-a682-46569a2c5ed5","system_id":"levelo_inurba_marseille","lat":43.27608,"lon":5.38437,"is_reserved":false,"is_disabled":false,"rental_uris":{"android":"levelo://app?vid=140656d8-ba4f-4b08-a682-46569a2c5ed5","ios":"levelo://app?vid=140656d8-ba4f-4b08-a682-46569a2c5ed5"},"vehicle_type_id":"4","last_reported":1769801022,"current_range_meters":4000,"station_id":"","pricing_plan_id":"cebpf4jnsgd1na2vs0mg"},{"bike_id":"83bbeac1-b4c2-4835-91cb-013728be84c8","system_id":"levelo_inurba_marseille","lat":43.29924,"lon":5.39081,"is_reserved":false,"is_disabled":true,"rental_uris":{"android":"levelo://app?vid=83bbeac1-b4c2-4835-91cb-013728be84c8","ios":"levelo://app?vid=83bbeac1-b4c2-4835-91cb-013728be84c8"},"vehicle_type_id":"4","last_reported":1769801022,"current_range_meters":4000,"station_id":"","pricing_plan_id":"cebpf4jnsgd1na2vs0mg"},{"bike_id":"e42e5e4b-2394-43b0-9b9f-0fd17bf2cb70","system_id":"levelo_inurba_marseille","lat":43.24171,"lon":5.36396,"is_reserved":false,"is_disabled":false,"rental_uris":{"android":"levelo://app?vid=e42e5e4b-2394-43b0-9b9f-0fd17bf2cb70","ios":"levelo://app?vid=e42e5e4b-2394-43b0-9b9f-0fd17bf2cb70"},"vehicle_type_id":"4","last_reported":1769801022,"current_range_meters":4000,"station_id":"cpo36qri1sfpv3e86is0","pricing_plan_id":"cebpf4jnsgd1na2vs0mg"},{"bike_id":"81528773-f5cf-4517-b304-cb8b6999b3e3","system_id":"levelo_inurba_marseille","lat":43.24813,"lon":5.37461,"is_reserved":false,"is_disabled":false,"rental_uris":{"android":"levelo://app?vid=81528773-f5cf-4517-b304-cb8b6999b3e3","ios":"levelo://app?vid=81528773-f5cf-4517-b304-cb8b6999b3e3"},"vehicle_type_id":"4","last_reported":1769801022,"current_range_meters":4000,"station_id":"ce4bhgh2rcd13ifvqfb0","pricing_plan_id":"cebpf4jnsgd1na2vs0mg"},{"bike_id":"7afa26f8-b048-4f0e-ab13-a62cf3766717","system_id":"levelo_inurba_marseille","lat":43.2408,"lon":5.37745,"is_reserved":false,"is_disabled":false,"rental_uris":{"android":"levelo://app?vid=7afa26f8-b048-4f0e-ab13-a62cf3766717","ios":"levelo://app?vid=7afa26f8-b048-4f0e-ab13-a62cf3766717"},"vehicle_type_id":"4","last_reported":1769801022,"current_range_meters":4000,"station_id":"ce4bhnp2rcd13ifvqgvg","pricing_plan_id":"cebpf4jnsgd1na2vs0mg"},{"bike_id":"6d7f0c24-6dba-40df-9dcf-a0c2646cf995","system_id":"levelo_inurba_marseille","lat":43.26206,"lon":5.37446,"is_reserved":false,"is_disabled":false,"rental_uris":{"android":"levelo://app?vid=6d7f0c24-6dba-40df-9dcf-a0c2646cf995","ios":"levelo://app?vid=6d7f0c24-6dba-40df-9dcf-a0c2646cf995"},"vehicle_type_id":"4","last_reported":1769801022,"current_range_meters":4000,"station_id":"ce4bhgp2rcd13ifvqfc0","pricing_plan_id":"cebpf4jnsgd1na2vs0mg"},{"bike_id":"4ae697cd-fb11-40c2-ab8f-53d4334f67ae","system_id":"levelo_inurba_marseille","lat":43.29862,"lon":5.3854,"is_reserved":false,"is_disabled":false,"rental_uris":{"android":"levelo://app?vid=4ae697cd-fb11-40c2-ab8f-53d4334f67ae","ios":"levelo://app?vid=4ae697cd-fb11-40c2-ab8f-53d4334f67ae"},"vehicle_type_id":"4","last_reported":1769801022,"current_range_meters":4000,"station_id":"","pricing_plan_id":"cebpf4jnsgd1na2vs0mg"},{"bike_id":"e04521ca-ce5b-4911-93eb-efa07b2cc503","system_id":"levelo_inurba_marseille","lat":43.29455,"lon":5.43267,"is_reserved":false,"is_disabled":false,"rental_uris":{"android":"levelo://app?vid=e04521ca-ce5b-4911-93eb-efa07b2cc503","ios":"levelo://app?vid=e04521ca-ce5b-4911-93eb-efa07b2cc503"},"vehicle_type_id":"4","last_reported":1769801022,"current_range_meters":4000,"station_id":"","pricing_plan_id":"cebpf4jnsgd1na2vs0mg"},{"bike_id":"3dc504de-340a-4960-9295-e93227b46b5e","system_id":"levelo_inurba_marseille","lat":43.3211,"lon":5.36789,"is_reserved":false,"is_disabled":false,"rental_uris":{"android":"levelo://app?vid=3dc504de-340a-4960-9295-e93227b46b5e","ios":"levelo://app?vid=3dc504de-340a-4960-9295-e93227b46b5e"},"vehicle_type_id":"4","last_reported":1769801022,"current_range_meters":4000,"station_id":"ce4bhrh2rcd13ifvqhug","pricing_plan_id":"cebpf4jnsgd1na2vs0mg"},{"bike_id":"a045c055-e151-480e-821b-9b38942825e9","system_id":"levelo_inurba_marseille","lat":43.28668,"lon":5.36353,"is_reserved":false,"is_disabled":false,"rental_uris":{"android":"levelo://app?vid=a045c055-e151-480e-821b-9b38942825e9","ios":"levelo://app?vid=a045c055-e151-480e-821b-9b38942825e9"},"vehicle_type_id":"4","last_reported":1769801022,"current_range_meters":4000,"station_id":"ce4bhah2rcd13ifvqej0","pricing_plan_id":"cebpf4jnsgd1na2vs0mg"},{"bike_id":"d9e3a38b-a48f-4ab9-b98d-872b2ea7692f","system_id":"levelo_inurba_marseille","lat":43.273773,"lon":5.362544,"is_reserved":false,"is_disabled":false,"rental_uris":{"android":"levelo://app?vid=d9e3a38b-a48f-4ab9-b98d-872b2ea7692f","ios":"levelo://app?vid=d9e3a38b-a48f-4ab9-b98d-872b2ea7692f"},"vehicle_type_id":"4","last_reported":1769801022,"current_range_meters":4000,"station_id":"ce4bhbh2rcd13ifvqeo0","pricing_plan_id":"cebpf4jnsgd1na2vs0mg"},{"bike_id":"4b0b8592-2f1a-49e7-bd50-98ea28e65a36","system_id":"levelo_inurba_marseille","lat":43.27981,"lon":5.41656,"is_reserved":false,"is_disabled":false,"rental_uris":{"android":"levelo://app?vid=4b0b8592-2f1a-49e7-bd50-98ea28e65a36","ios":"levelo://app?vid=4b0b8592-2f1a-49e7-bd50-98ea28e65a36"},"vehicle_type_id":"4","last_reported":1769801022,"current_range_meters":4000,"station_id":"ce4bho12rcd13ifvqh1g","pricing_plan_id":"cebpf4jnsgd1na2vs0mg"},{"bike_id":"f3d88390-51ff-4369-8a96-fce3337519db","system_id":"levelo_inurba_marseille","lat":43.30935,"lon":5.40149,"is_reserved":false,"is_disabled":false,"rental_uris":{"android":"levelo://app?vid=f3d88390-51ff-4369-8a96-fce3337519db","ios":"levelo://app?vid=f3d88390-51ff-4369-8a96-fce3337519db"},"vehicle_type_id":"4","last_reported":1769801022,"current_range_meters":4400,"station_id":"ce4bgvp2rcd13ifvqct0","pricing_plan_id":"cebpf4jnsgd1na2vs0mg"},{"bike_id":"7529c937-77dc-4715-8a89-50b7457f4baa","system_id":"levelo_inurba_marseille","lat":43.25944,"lon":5.40882,"is_reserved":false,"is_disabled":true,"rental_uris":{"android":"levelo://app?vid=7529c937-77dc-4715-8a89-50b7457f4baa","ios":"levelo://app?vid=7529c937-77dc-4715-8a89-50b7457f4baa"},"vehicle_type_id":"4","last_reported":1769801022,"current_range_meters":4400,"station_id":"ce4bhm92rcd13ifvqglg","pricing_plan_id":"cebpf4jnsgd1na2vs0mg"},{"bike_id":"6f2111dd-6b6a-402c-9729-62f7313dcc5e","system_id":"levelo_inurba_marseille","lat":43.323524,"lon":5.367517,"is_reserved":false,"is_disabled":false,"rental_uris":{"android":"levelo://app?vid=6f2111dd-6b6a-402c-9729-62f7313dcc5e","ios":"levelo://app?vid=6f2111dd-6b6a-402c-9729-62f7313dcc5e"},"vehicle_type_id":"4","last_reported":1769801022,"current_range_meters":4400,"station_id":"ce4bhsh2rcd13ifvqi2g","pricing_plan_id":"cebpf4jnsgd1na2vs0mg"},{"bike_id":"fe96793b-7f48-4d0c-8e7e-ada6a02e2210","system_id":"levelo_inurba_marseille","lat":43.27804,"lon":5.40721,"is_reserved":false,"is_disabled":false,"rental_uris":{"android":"levelo://app?vid=fe96793b-7f48-4d0c-8e7e-ada6a02e2210","ios":"levelo://app?vid=fe96793b-7f48-4d0c-8e7e-ada6a02e2210"},"vehicle_type_id":"4","last_reported":1769801022,"current_range_meters":4400,"station_id":"ce4bhnh2rcd13ifvqgtg","pricing_plan_id":"cebpf4jnsgd1na2vs0mg"},{"bike_id":"bd889336-68ff-4f09-8c88-588306cf9fc6","system_id":"levelo_inurba_marseille","lat":43.27067,"lon":5.40272,"is_reserved":false,"is_disabled":false,"rental_uris":{"android":"levelo://app?vid=bd889336-68ff-4f09-8c88-588306cf9fc6","ios":"levelo://app?vid=bd889336-68ff-4f09-8c88-588306cf9fc6"},"vehicle_type_id":"4","last_reported":1769801022,"current_range_meters":4400,"station_id":"ce4bhk92rcd13ifvqgc0","pricing_plan_id":"cebpf4jnsgd1na2vs0mg"},{"bike_id":"a87b00a6-9d61-4271-ab54-d4b14b80bdd3","system_id":"levelo_inurba_marseille","lat":43.28106,"lon":5.37833,"is_reserved":false,"is_disabled":false,"rental_uris":{"android":"levelo://app?vid=a87b00a6-9d61-4271-ab54-d4b14b80bdd3","ios":"levelo://app?vid=a87b00a6-9d61-4271-ab54-d4b14b80bdd3"},"vehicle_type_id":"4","last_reported":1769801022,"current_range_meters":4400,"station_id":"ce4bha12rcd13ifvqee0","pricing_plan_id":"cebpf4jnsgd1na2vs0mg"},{"bike_id":"7a4412cf-c498-4121-be46-049419c026d4","system_id":"levelo_inurba_marseille","lat":43.27936,"lon":5.41034,"is_reserved":false,"is_disabled":false,"rental_uris":{"android":"levelo://app?vid=7a4412cf-c498-4121-be46-049419c026d4","ios":"levelo://app?vid=7a4412cf-c498-4121-be46-049419c026d4"},"vehicle_type_id":"4","last_reported":1769801022,"current_range_meters":4400,"station_id":"ce4bhnp2rcd13ifvqh0g","pricing_plan_id":"cebpf4jnsgd1na2vs0mg"},{"bike_id":"17e9fca2-5c6f-4fcd-a1d6-0050e38c4c0d","system_id":"levelo_inurba_marseille","lat":43.25079,"lon":5.39508,"is_reserved":false,"is_disabled":false,"rental_uris":{"android":"levelo://app?vid=17e9fca2-5c6f-4fcd-a1d6-0050e38c4c0d","ios":"levelo://app?vid=17e9fca2-5c6f-4fcd-a1d6-0050e38c4c0d"},"vehicle_type_id":"4","last_reported":1769801022,"current_range_meters":4400,"station_id":"ce4bhm12rcd13ifvqgkg","pricing_plan_id":"cebpf4jnsgd1na2vs0mg"},{"bike_id":"b93f36af-6012-4250-a69f-3de373ca3510","system_id":"levelo_inurba_marseille","lat":43.282739,"lon":5.350797,"is_reserved":false,"is_disabled":false,"rental_uris":{"android":"levelo://app?vid=b93f36af-6012-4250-a69f-3de373ca3510","ios":"levelo://app?vid=b93f36af-6012-4250-a69f-3de373ca3510"},"vehicle_type_id":"4","last_reported":1769801022,"current_range_meters":4400,"station_id":"ce4bhbp2rcd13ifvqerg","pricing_plan_id":"cebpf4jnsgd1na2vs0mg"},{"bike_id":"d08ad747-e8dd-4a39-990c-56de807eb318","system_id":"levelo_inurba_marseille","lat":43.26561,"lon":5.4033,"is_reserved":false,"is_disabled":false,"rental_uris":{"android":"levelo://app?vid=d08ad747-e8dd-4a39-990c-56de807eb318","ios":"levelo://app?vid=d08ad747-e8dd-4a39-990c-56de807eb318"},"vehicle_type_id":"4","last_reported":1769801022,"current_range_meters":4400,"station_id":"ce4bhmp2rcd13ifvqgng","pricing_plan_id":"cebpf4jnsgd1na2vs0mg"},{"bike_id":"59ae0900-c855-4741-b5cf-c53827ed9733","system_id":"levelo_inurba_marseille","lat":43.24155,"lon":5.36393,"is_reserved":false,"is_disabled":false,"rental_uris":{"android":"levelo://app?vid=59ae0900-c855-4741-b5cf-c53827ed9733","ios":"levelo://app?vid=59ae0900-c855-4741-b5cf-c53827ed9733"},"vehicle_type_id":"4","last_reported":1769801022,"current_range_meters":4400,"station_id":"cpo36qri1sfpv3e86is0","pricing_plan_id":"cebpf4jnsgd1na2vs0mg"},{"bike_id":"22e25749-1d5a-421e-83d4-4ebda8c771bb","system_id":"levelo_inurba_marseille","lat":43.28419,"lon":5.37517,"is_reserved":false,"is_disabled":false,"rental_uris":{"android":"levelo://app?vid=22e25749-1d5a-421e-83d4-4ebda8c771bb","ios":"levelo://app?vid=22e25749-1d5a-421e-83d4-4ebda8c771bb"},"vehicle_type_id":"4","last_reported":1769801022,"current_range_meters":4400,"station_id":"ce4bh412rcd13ifvqds0","pricing_plan_id":"cebpf4jnsgd1na2vs0mg"},{"bike_id":"7f95ba60-e1f3-45b1-8d52-db7434645a84","system_id":"levelo_inurba_marseille","lat":43.27943,"lon":5.41044,"is_reserved":false,"is_disabled":false,"rental_uris":{"android":"levelo://app?vid=7f95ba60-e1f3-45b1-8d52-db7434645a84","ios":"levelo://app?vid=7f95ba60-e1f3-45b1-8d52-db7434645a84"},"vehicle_type_id":"4","last_reported":1769801022,"current_range_meters":4400,"station_id":"ce4bhnp2rcd13ifvqh0g","pricing_plan_id":"cebpf4jnsgd1na2vs0mg"},{"bike_id":"8bff4dcf-f756-41d5-a15a-61f69f653b41","system_id":"levelo_inurba_marseille","lat":43.314817,"lon":5.373094,"is_reserved":false,"is_disabled":false,"rental_uris":{"android":"levelo://app?vid=8bff4dcf-f756-41d5-a15a-61f69f653b41","ios":"levelo://app?vid=8bff4dcf-f756-41d5-a15a-61f69f653b41"},"vehicle_type_id":"4","last_reported":1769801022,"current_range_meters":4400,"station_id":"ce4bgt12rcd13ifvqcd0","pricing_plan_id":"cebpf4jnsgd1na2vs0mg"},{"bike_id":"ad34f5db-9405-4cd9-af0a-7553a50addc3","system_id":"levelo_inurba_marseille","lat":43.245707,"lon":5.380503,"is_reserved":false,"is_disabled":false,"rental_uris":{"android":"levelo://app?vid=ad34f5db-9405-4cd9-af0a-7553a50addc3","ios":"levelo://app?vid=ad34f5db-9405-4cd9-af0a-7553a50addc3"},"vehicle_type_id":"4","last_reported":1769801022,"current_range_meters":4400,"station_id":"","pricing_plan_id":"cebpf4jnsgd1na2vs0mg"},{"bike_id":"da7637eb-326a-4f67-b536-c1bed5b60c59","system_id":"levelo_inurba_marseille","lat":43.31165,"lon":5.38722,"is_reserved":false,"is_disabled":false,"rental_uris":{"android":"levelo://app?vid=da7637eb-326a-4f67-b536-c1bed5b60c59","ios":"levelo://app?vid=da7637eb-326a-4f67-b536-c1bed5b60c59"},"vehicle_type_id":"4","last_reported":1769801022,"current_range_meters":4400,"station_id":"ce4bgv12rcd13ifvqcp0","pricing_plan_id":"cebpf4jnsgd1na2vs0mg"},{"bike_id":"025c345e-2940-4dfb-ab03-a97496585f70","system_id":"levelo_inurba_marseille","lat":43.25109,"lon":5.40338,"is_reserved":false,"is_disabled":false,"rental_uris":{"android":"levelo://app?vid=025c345e-2940-4dfb-ab03-a97496585f70","ios":"levelo://app?vid=025c345e-2940-4dfb-ab03-a97496585f70"},"vehicle_type_id":"4","last_reported":1769801022,"current_range_meters":4800,"station_id":"ce4bhlh2rcd13ifvqgig","pricing_plan_id":"cebpf4jnsgd1na2vs0mg"},{"bike_id":"d10c4f1d-b788-42ad-8fc2-774831d32753","system_id":"levelo_inurba_marseille","lat":43.28042,"lon":5.36954,"is_reserved":false,"is_disabled":false,"rental_uris":{"android":"levelo://app?vid=d10c4f1d-b788-42ad-8fc2-774831d32753","ios":"levelo://app?vid=d10c4f1d-b788-42ad-8fc2-774831d32753"},"vehicle_type_id":"4","last_reported":1769801022,"current_range_meters":4800,"station_id":"ce4bha12rcd13ifvqef0","pricing_plan_id":"cebpf4jnsgd1na2vs0mg"},{"bike_id":"7efc84b0-633d-4c75-ad98-0f6cc12c3398","system_id":"levelo_inurba_marseille","lat":43.251095,"lon":5.40323,"is_reserved":false,"is_disabled":false,"rental_uris":{"android":"levelo://app?vid=7efc84b0-633d-4c75-ad98-0f6cc12c3398","ios":"levelo://app?vid=7efc84b0-633d-4c75-ad98-0f6cc12c3398"},"vehicle_type_id":"4","last_reported":1769801022,"current_range_meters":4800,"station_id":"ce4bhlh2rcd13ifvqgig","pricing_plan_id":"cebpf4jnsgd1na2vs0mg"},{"bike_id":"364c2112-450d-4b1d-b98b-d99fee31512c","system_id":"levelo_inurba_marseille","lat":43.24806,"lon":5.37453,"is_reserved":false,"is_disabled":false,"rental_uris":{"android":"levelo://app?vid=364c2112-450d-4b1d-b98b-d99fee31512c","ios":"levelo://app?vid=364c2112-450d-4b1d-b98b-d99fee31512c"},"vehicle_type_id":"4","last_reported":1769801022,"current_range_meters":4800,"station_id":"ce4bhgh2rcd13ifvqfb0","pricing_plan_id":"cebpf4jnsgd1na2vs0mg"},{"bike_id":"2985593a-0015-49dc-be38-d4223266a10b","system_id":"levelo_inurba_marseille","lat":43.29197,"lon":5.4,"is_reserved":false,"is_disabled":false,"rental_uris":{"android":"levelo://app?vid=2985593a-0015-49dc-be38-d4223266a10b","ios":"levelo://app?vid=2985593a-0015-49dc-be38-d4223266a10b"},"vehicle_type_id":"4","last_reported":1769801022,"current_range_meters":4800,"station_id":"","pricing_plan_id":"cebpf4jnsgd1na2vs0mg"},{"bike_id":"1b8a11ae-ff07-45ba-a44b-7af85c31226b","system_id":"levelo_inurba_marseille","lat":43.22931,"lon":5.35375,"is_reserved":false,"is_disabled":false,"rental_uris":{"android":"levelo://app?vid=1b8a11ae-ff07-45ba-a44b-7af85c31226b","ios":"levelo://app?vid=1b8a11ae-ff07-45ba-a44b-7af85c31226b"},"vehicle_type_id":"4","last_reported":1769801022,"current_range_meters":4800,"station_id":"cpo3532slgdg3j2ikp40","pricing_plan_id":"cebpf4jnsgd1na2vs0mg"},{"bike_id":"2626a307-09e6-4806-8747-64c64cf9b162","system_id":"levelo_inurba_marseille","lat":43.24467,"lon":5.42554,"is_reserved":false,"is_disabled":false,"rental_uris":{"android":"levelo://app?vid=2626a307-09e6-4806-8747-64c64cf9b162","ios":"levelo://app?vid=2626a307-09e6-4806-8747-64c64cf9b162"},"vehicle_type_id":"4","last_reported":1769801022,"current_range_meters":4800,"station_id":"st_d4a3vfp97mjs738cd8kg","pricing_plan_id":"cebpf4jnsgd1na2vs0mg"},{"bike_id":"21069bed-3a7b-404b-bd0a-0a5132c6d50c","system_id":"levelo_inurba_marseille","lat":43.28692,"lon":5.37395,"is_reserved":false,"is_disabled":false,"rental_uris":{"android":"levelo://app?vid=21069bed-3a7b-404b-bd0a-0a5132c6d50c","ios":"levelo://app?vid=21069bed-3a7b-404b-bd0a-0a5132c6d50c"},"vehicle_type_id":"4","last_reported":1769801022,"current_range_meters":4800,"station_id":"ce4bh3p2rcd13ifvqdq0","pricing_plan_id":"cebpf4jnsgd1na2vs0mg"},{"bike_id":"35d51d67-b7cf-46a9-a9d9-ab2e64ed5a00","system_id":"levelo_inurba_marseille","lat":43.28147,"lon":5.42642,"is_reserved":false,"is_disabled":false,"rental_uris":{"android":"levelo://app?vid=35d51d67-b7cf-46a9-a9d9-ab2e64ed5a00","ios":"levelo://app?vid=35d51d67-b7cf-46a9-a9d9-ab2e64ed5a00"},"vehicle_type_id":"4","last_reported":1769801022,"current_range_meters":4800,"station_id":"ce4bhnh2rcd13ifvqgug","pricing_plan_id":"cebpf4jnsgd1na2vs0mg"},{"bike_id":"44e1d8de-3be4-410a-913b-52c9b78dfe96","system_id":"levelo_inurba_marseille","lat":43.27906,"lon":5.39577,"is_reserved":false,"is_disabled":false,"rental_uris":{"android":"levelo://app?vid=44e1d8de-3be4-410a-913b-52c9b78dfe96","ios":"levelo://app?vid=44e1d8de-3be4-410a-913b-52c9b78dfe96"},"vehicle_type_id":"4","last_reported":1769801022,"current_range_meters":4800,"station_id":"ce4bhf92rcd13ifvqf40","pricing_plan_id":"cebpf4jnsgd1na2vs0mg"},{"bike_id":"4c3f27ee-6a70-4879-8caf-eaff08df22de","system_id":"levelo_inurba_marseille","lat":43.28569,"lon":5.41281,"is_reserved":false,"is_disabled":false,"rental_uris":{"android":"levelo://app?vid=4c3f27ee-6a70-4879-8caf-eaff08df22de","ios":"levelo://app?vid=4c3f27ee-6a70-4879-8caf-eaff08df22de"},"vehicle_type_id":"4","last_reported":1769801022,"current_range_meters":4800,"station_id":"","pricing_plan_id":"cebpf4jnsgd1na2vs0mg"},{"bike_id":"e9a1f47b-7ade-438a-830a-0cf40d8e372f","system_id":"levelo_inurba_marseille","lat":43.31125,"lon":5.3777,"is_reserved":false,"is_disabled":false,"rental_uris":{"android":"levelo://app?vid=e9a1f47b-7ade-438a-830a-0cf40d8e372f","ios":"levelo://app?vid=e9a1f47b-7ade-438a-830a-0cf40d8e372f"},"vehicle_type_id":"4","last_reported":1769801022,"current_range_meters":4800,"station_id":"ce4bgt92rcd13ifvqcg0","pricing_plan_id":"cebpf4jnsgd1na2vs0mg"},{"bike_id":"792b14cd-b653-438a-a004-cbfda377e94f","system_id":"levelo_inurba_marseille","lat":43.29783,"lon":5.38101,"is_reserved":false,"is_disabled":false,"rental_uris":{"android":"levelo://app?vid=792b14cd-b653-438a-a004-cbfda377e94f","ios":"levelo://app?vid=792b14cd-b653-438a-a004-cbfda377e94f"},"vehicle_type_id":"4","last_reported":1769801022,"current_range_meters":4800,"station_id":"ce4bgip2rcd13ifvqbb0","pricing_plan_id":"cebpf4jnsgd1na2vs0mg"},{"bike_id":"d103f2c1-7066-453c-bc7a-de1c9f1c94cc","system_id":"levelo_inurba_marseille","lat":43.31116,"lon":5.37717,"is_reserved":false,"is_disabled":false,"rental_uris":{"android":"levelo://app?vid=d103f2c1-7066-453c-bc7a-de1c9f1c94cc","ios":"levelo://app?vid=d103f2c1-7066-453c-bc7a-de1c9f1c94cc"},"vehicle_type_id":"4","last_reported":1769801022,"current_range_meters":4800,"station_id":"ce4bgt92rcd13ifvqcg0","pricing_plan_id":"cebpf4jnsgd1na2vs0mg"},{"bike_id":"bfd269d0-e9e8-485b-95e4-750e38c60e1d","system_id":"levelo_inurba_marseille","lat":43.29285,"lon":5.3844,"is_reserved":false,"is_disabled":false,"rental_uris":{"android":"levelo://app?vid=bfd269d0-e9e8-485b-95e4-750e38c60e1d","ios":"levelo://app?vid=bfd269d0-e9e8-485b-95e4-750e38c60e1d"},"vehicle_type_id":"4","last_reported":1769801022,"current_range_meters":4800,"station_id":"ce4bh692rcd13ifvqea0","pricing_plan_id":"cebpf4jnsgd1na2vs0mg"},{"bike_id":"d8c52549-b69a-4546-87c2-6c2e585ebd60","system_id":"levelo_inurba_marseille","lat":43.28693,"lon":5.37394,"is_reserved":false,"is_disabled":false,"rental_uris":{"android":"levelo://app?vid=d8c52549-b69a-4546-87c2-6c2e585ebd60","ios":"levelo://app?vid=d8c52549-b69a-4546-87c2-6c2e585ebd60"},"vehicle_type_id":"4","last_reported":1769801022,"current_range_meters":4800,"station_id":"ce4bh3p2rcd13ifvqdq0","pricing_plan_id":"cebpf4jnsgd1na2vs0mg"},{"bike_id":"1df32dff-5611-415d-8fae-817c467a81ff","system_id":"levelo_inurba_marseille","lat":43.23055,"lon":5.35497,"is_reserved":false,"is_disabled":false,"rental_uris":{"android":"levelo://app?vid=1df32dff-5611-415d-8fae-817c467a81ff","ios":"levelo://app?vid=1df32dff-5611-415d-8fae-817c467a81ff"},"vehicle_type_id":"4","last_reported":1769801022,"current_range_meters":4800,"station_id":"cpo3342slgdg3j2ifvpg","pricing_plan_id":"cebpf4jnsgd1na2vs0mg"},{"bike_id":"4b173938-eb46-4372-ae2a-dae712012a1f","system_id":"levelo_inurba_marseille","lat":43.28416,"lon":5.37506,"is_reserved":false,"is_disabled":false,"rental_uris":{"android":"levelo://app?vid=4b173938-eb46-4372-ae2a-dae712012a1f","ios":"levelo://app?vid=4b173938-eb46-4372-ae2a-dae712012a1f"},"vehicle_type_id":"4","last_reported":1769801022,"current_range_meters":5600,"station_id":"ce4bh412rcd13ifvqds0","pricing_plan_id":"cebpf4jnsgd1na2vs0mg"},{"bike_id":"ef68bdf9-fa71-483b-bc99-7f9581830aca","system_id":"levelo_inurba_marseille","lat":43.30592,"lon":5.36723,"is_reserved":false,"is_disabled":false,"rental_uris":{"android":"levelo://app?vid=ef68bdf9-fa71-483b-bc99-7f9581830aca","ios":"levelo://app?vid=ef68bdf9-fa71-483b-bc99-7f9581830aca"},"vehicle_type_id":"4","last_reported":1769801022,"current_range_meters":5600,"station_id":"","pricing_plan_id":"cebpf4jnsgd1na2vs0mg"},{"bike_id":"9ed6cdc7-6dec-4f12-9faf-920474ce0649","system_id":"levelo_inurba_marseille","lat":43.28049,"lon":5.3695,"is_reserved":false,"is_disabled":false,"rental_uris":{"android":"levelo://app?vid=9ed6cdc7-6dec-4f12-9faf-920474ce0649","ios":"levelo://app?vid=9ed6cdc7-6dec-4f12-9faf-920474ce0649"},"vehicle_type_id":"4","last_reported":1769801022,"current_range_meters":5600,"station_id":"ce4bha12rcd13ifvqef0","pricing_plan_id":"cebpf4jnsgd1na2vs0mg"},{"bike_id":"82a6b099-0577-4798-9a60-21fb38c2bbb7","system_id":"levelo_inurba_marseille","lat":43.29815,"lon":5.44067,"is_reserved":false,"is_disabled":false,"rental_uris":{"android":"levelo://app?vid=82a6b099-0577-4798-9a60-21fb38c2bbb7","ios":"levelo://app?vid=82a6b099-0577-4798-9a60-21fb38c2bbb7"},"vehicle_type_id":"4","last_reported":1769801022,"current_range_meters":5600,"station_id":"st_d3jp68qikq2c7381ktn0","pricing_plan_id":"cebpf4jnsgd1na2vs0mg"},{"bike_id":"ffdda927-e6da-4d6b-b63c-5f8f68ad9828","system_id":"levelo_inurba_marseille","lat":43.30901,"lon":5.41182,"is_reserved":false,"is_disabled":false,"rental_uris":{"android":"levelo://app?vid=ffdda927-e6da-4d6b-b63c-5f8f68ad9828","ios":"levelo://app?vid=ffdda927-e6da-4d6b-b63c-5f8f68ad9828"},"vehicle_type_id":"4","last_reported":1769801022,"current_range_meters":5600,"station_id":"","pricing_plan_id":"cebpf4jnsgd1na2vs0mg"},{"bike_id":"8c0babb1-b421-4a58-a09a-817ab6ed4c2f","system_id":"levelo_inurba_marseille","lat":43.31704,"lon":5.37758,"is_reserved":false,"is_disabled":false,"rental_uris":{"android":"levelo://app?vid=8c0babb1-b421-4a58-a09a-817ab6ed4c2f","ios":"levelo://app?vid=8c0babb1-b421-4a58-a09a-817ab6ed4c2f"},"vehicle_type_id":"4","last_reported":1769801022,"current_range_meters":5600,"station_id":"ce4bgth2rcd13ifvqch0","pricing_plan_id":"cebpf4jnsgd1na2vs0mg"},{"bike_id":"ff6220a2-0ba2-4f2b-99d8-48d7fb65a584","system_id":"levelo_inurba_marseille","lat":43.30551,"lon":5.36525,"is_reserved":false,"is_disabled":false,"rental_uris":{"android":"levelo://app?vid=ff6220a2-0ba2-4f2b-99d8-48d7fb65a584","ios":"levelo://app?vid=ff6220a2-0ba2-4f2b-99d8-48d7fb65a584"},"vehicle_type_id":"4","last_reported":1769801022,"current_range_meters":5600,"station_id":"ce4bgs12rcd13ifvqcag","pricing_plan_id":"cebpf4jnsgd1na2vs0mg"},{"bike_id":"ceed1653-0aff-4dc0-b159-f8529a6c28c1","system_id":"levelo_inurba_marseille","lat":43.23181,"lon":5.35543,"is_reserved":false,"is_disabled":false,"rental_uris":{"android":"levelo://app?vid=ceed1653-0aff-4dc0-b159-f8529a6c28c1","ios":"levelo://app?vid=ceed1653-0aff-4dc0-b159-f8529a6c28c1"},"vehicle_type_id":"4","last_reported":1769801022,"current_range_meters":5600,"station_id":"ce4bhu92rcd13ifvqi70","pricing_plan_id":"cebpf4jnsgd1na2vs0mg"},{"bike_id":"d08a44ce-1cc7-4103-86e5-535046b86ed6","system_id":"levelo_inurba_marseille","lat":43.27057,"lon":5.40263,"is_reserved":false,"is_disabled":false,"rental_uris":{"android":"levelo://app?vid=d08a44ce-1cc7-4103-86e5-535046b86ed6","ios":"levelo://app?vid=d08a44ce-1cc7-4103-86e5-535046b86ed6"},"vehicle_type_id":"4","last_reported":1769801022,"current_range_meters":5600,"station_id":"ce4bhk92rcd13ifvqgc0","pricing_plan_id":"cebpf4jnsgd1na2vs0mg"},{"bike_id":"93c8e38d-eab2-49b3-8aba-45b8dbdfd2a1","system_id":"levelo_inurba_marseille","lat":43.258646,"lon":5.398934,"is_reserved":false,"is_disabled":false,"rental_uris":{"android":"levelo://app?vid=93c8e38d-eab2-49b3-8aba-45b8dbdfd2a1","ios":"levelo://app?vid=93c8e38d-eab2-49b3-8aba-45b8dbdfd2a1"},"vehicle_type_id":"4","last_reported":1769801022,"current_range_meters":5600,"station_id":"ce4bhl92rcd13ifvqghg","pricing_plan_id":"cebpf4jnsgd1na2vs0mg"},{"bike_id":"49e8a614-ae9e-41ec-9b0c-fece93f9c6fd","system_id":"levelo_inurba_marseille","lat":43.25004,"lon":5.38926,"is_reserved":false,"is_disabled":false,"rental_uris":{"android":"levelo://app?vid=49e8a614-ae9e-41ec-9b0c-fece93f9c6fd","ios":"levelo://app?vid=49e8a614-ae9e-41ec-9b0c-fece93f9c6fd"},"vehicle_type_id":"4","last_reported":1769801022,"current_range_meters":5600,"station_id":"ce4bhgp2rcd13ifvqfd0","pricing_plan_id":"cebpf4jnsgd1na2vs0mg"},{"bike_id":"1ae2d96d-59b0-469c-b070-5c6aa648ad29","system_id":"levelo_inurba_marseille","lat":43.24168,"lon":5.36391,"is_reserved":false,"is_disabled":false,"rental_uris":{"android":"levelo://app?vid=1ae2d96d-59b0-469c-b070-5c6aa648ad29","ios":"levelo://app?vid=1ae2d96d-59b0-469c-b070-5c6aa648ad29"},"vehicle_type_id":"4","last_reported":1769801022,"current_range_meters":5600,"station_id":"cpo36qri1sfpv3e86is0","pricing_plan_id":"cebpf4jnsgd1na2vs0mg"},{"bike_id":"af654c71-a67d-46af-bf40-a020e2f3bf53","system_id":"levelo_inurba_marseille","lat":43.250221,"lon":5.389089,"is_reserved":false,"is_disabled":false,"rental_uris":{"android":"levelo://app?vid=af654c71-a67d-46af-bf40-a020e2f3bf53","ios":"levelo://app?vid=af654c71-a67d-46af-bf40-a020e2f3bf53"},"vehicle_type_id":"4","last_reported":1769801022,"current_range_meters":5600,"station_id":"ce4bhgp2rcd13ifvqfd0","pricing_plan_id":"cebpf4jnsgd1na2vs0mg"},{"bike_id":"07e1cd8b-d392-474e-a4f3-23671fe867c2","system_id":"levelo_inurba_marseille","lat":43.29602,"lon":5.37704,"is_reserved":false,"is_disabled":false,"rental_uris":{"android":"levelo://app?vid=07e1cd8b-d392-474e-a4f3-23671fe867c2","ios":"levelo://app?vid=07e1cd8b-d392-474e-a4f3-23671fe867c2"},"vehicle_type_id":"4","last_reported":1769801022,"current_range_meters":5600,"station_id":"ce4bgi92rcd13ifvqb90","pricing_plan_id":"cebpf4jnsgd1na2vs0mg"},{"bike_id":"fcb6a24a-52b1-488a-b1ff-28d7bd022f8d","system_id":"levelo_inurba_marseille","lat":43.282593,"lon":5.350554,"is_reserved":false,"is_disabled":false,"rental_uris":{"android":"levelo://app?vid=fcb6a24a-52b1-488a-b1ff-28d7bd022f8d","ios":"levelo://app?vid=fcb6a24a-52b1-488a-b1ff-28d7bd022f8d"},"vehicle_type_id":"4","last_reported":1769801022,"current_range_meters":5600,"station_id":"ce4bhch2rcd13ifvqeug","pricing_plan_id":"cebpf4jnsgd1na2vs0mg"},{"bike_id":"e4ff084c-f3c4-431f-a828-15b71c44f0df","system_id":"levelo_inurba_marseille","lat":43.25141,"lon":5.40314,"is_reserved":false,"is_disabled":true,"rental_uris":{"android":"levelo://app?vid=e4ff084c-f3c4-431f-a828-15b71c44f0df","ios":"levelo://app?vid=e4ff084c-f3c4-431f-a828-15b71c44f0df"},"vehicle_type_id":"4","last_reported":1769801022,"current_range_meters":5600,"station_id":"ce4bhlh2rcd13ifvqgig","pricing_plan_id":"cebpf4jnsgd1na2vs0mg"},{"bike_id":"283526fc-ecdc-47e8-9ed9-a3688db271d7","system_id":"levelo_inurba_marseille","lat":43.24395,"lon":5.37055,"is_reserved":false,"is_disabled":false,"rental_uris":{"android":"levelo://app?vid=283526fc-ecdc-47e8-9ed9-a3688db271d7","ios":"levelo://app?vid=283526fc-ecdc-47e8-9ed9-a3688db271d7"},"vehicle_type_id":"4","last_reported":1769801022,"current_range_meters":5600,"station_id":"ce4bhhh2rcd13ifvqfk0","pricing_plan_id":"cebpf4jnsgd1na2vs0mg"},{"bike_id":"90c042fe-e34f-4794-8670-787d47f267e6","system_id":"levelo_inurba_marseille","lat":43.28111,"lon":5.37873,"is_reserved":false,"is_disabled":false,"rental_uris":{"android":"levelo://app?vid=90c042fe-e34f-4794-8670-787d47f267e6","ios":"levelo://app?vid=90c042fe-e34f-4794-8670-787d47f267e6"},"vehicle_type_id":"4","last_reported":1769801022,"current_range_meters":5600,"station_id":"ce4bha12rcd13ifvqee0","pricing_plan_id":"cebpf4jnsgd1na2vs0mg"},{"bike_id":"456727bd-baa8-41bf-ae9f-158a99ff9411","system_id":"levelo_inurba_marseille","lat":43.22563,"lon":5.41635,"is_reserved":false,"is_disabled":false,"rental_uris":{"android":"levelo://app?vid=456727bd-baa8-41bf-ae9f-158a99ff9411","ios":"levelo://app?vid=456727bd-baa8-41bf-ae9f-158a99ff9411"},"vehicle_type_id":"4","last_reported":1769801022,"current_range_meters":6000,"station_id":"st_d2o4gvlbi1j2169b742g","pricing_plan_id":"cebpf4jnsgd1na2vs0mg"},{"bike_id":"d7b04403-7dfa-4d8a-bd81-cfc844f4e0b5","system_id":"levelo_inurba_marseille","lat":43.298219,"lon":5.4406,"is_reserved":false,"is_disabled":false,"rental_uris":{"android":"levelo://app?vid=d7b04403-7dfa-4d8a-bd81-cfc844f4e0b5","ios":"levelo://app?vid=d7b04403-7dfa-4d8a-bd81-cfc844f4e0b5"},"vehicle_type_id":"4","last_reported":1769801022,"current_range_meters":6000,"station_id":"st_d3jp68qikq2c7381ktn0","pricing_plan_id":"cebpf4jnsgd1na2vs0mg"},{"bike_id":"f77f11ea-c57f-4a1e-b998-1859acb2e91b","system_id":"levelo_inurba_marseille","lat":43.28625,"lon":5.35096,"is_reserved":false,"is_disabled":false,"rental_uris":{"android":"levelo://app?vid=f77f11ea-c57f-4a1e-b998-1859acb2e91b","ios":"levelo://app?vid=f77f11ea-c57f-4a1e-b998-1859acb2e91b"},"vehicle_type_id":"4","last_reported":1769801022,"current_range_meters":6000,"station_id":"ce4bhch2rcd13ifvqeug","pricing_plan_id":"cebpf4jnsgd1na2vs0mg"},{"bike_id":"3c07e8db-1d64-4b7a-879d-8b774c3d7e0c","system_id":"levelo_inurba_marseille","lat":43.27376,"lon":5.36251,"is_reserved":false,"is_disabled":false,"rental_uris":{"android":"levelo://app?vid=3c07e8db-1d64-4b7a-879d-8b774c3d7e0c","ios":"levelo://app?vid=3c07e8db-1d64-4b7a-879d-8b774c3d7e0c"},"vehicle_type_id":"4","last_reported":1769801022,"current_range_meters":6000,"station_id":"ce4bhbh2rcd13ifvqeo0","pricing_plan_id":"cebpf4jnsgd1na2vs0mg"},{"bike_id":"a924e65f-f7a5-4e7f-bfc8-aef9bd53424c","system_id":"levelo_inurba_marseille","lat":43.30109,"lon":5.39065,"is_reserved":false,"is_disabled":false,"rental_uris":{"android":"levelo://app?vid=a924e65f-f7a5-4e7f-bfc8-aef9bd53424c","ios":"levelo://app?vid=a924e65f-f7a5-4e7f-bfc8-aef9bd53424c"},"vehicle_type_id":"4","last_reported":1769801022,"current_range_meters":6000,"station_id":"ce4bh192rcd13ifvqdb0","pricing_plan_id":"cebpf4jnsgd1na2vs0mg"},{"bike_id":"222bd201-d5cc-4223-b6ec-6d982336aa03","system_id":"levelo_inurba_marseille","lat":43.29825,"lon":5.4406,"is_reserved":false,"is_disabled":false,"rental_uris":{"android":"levelo://app?vid=222bd201-d5cc-4223-b6ec-6d982336aa03","ios":"levelo://app?vid=222bd201-d5cc-4223-b6ec-6d982336aa03"},"vehicle_type_id":"4","last_reported":1769801022,"current_range_meters":6000,"station_id":"st_d3jp68qikq2c7381ktn0","pricing_plan_id":"cebpf4jnsgd1na2vs0mg"},{"bike_id":"7243427c-7e1e-4875-b4d3-b3a9df2c737a","system_id":"levelo_inurba_marseille","lat":43.30127,"lon":5.387724,"is_reserved":false,"is_disabled":true,"rental_uris":{"android":"levelo://app?vid=7243427c-7e1e-4875-b4d3-b3a9df2c737a","ios":"levelo://app?vid=7243427c-7e1e-4875-b4d3-b3a9df2c737a"},"vehicle_type_id":"4","last_reported":1769801022,"current_range_meters":6000,"station_id":"ce4bghh2rcd13ifvqb60","pricing_plan_id":"cebpf4jnsgd1na2vs0mg"},{"bike_id":"2f46d3ad-cf28-4642-96db-d406ad5984b5","system_id":"levelo_inurba_marseille","lat":43.31198,"lon":5.37001,"is_reserved":false,"is_disabled":false,"rental_uris":{"android":"levelo://app?vid=2f46d3ad-cf28-4642-96db-d406ad5984b5","ios":"levelo://app?vid=2f46d3ad-cf28-4642-96db-d406ad5984b5"},"vehicle_type_id":"4","last_reported":1769801022,"current_range_meters":6000,"station_id":"","pricing_plan_id":"cebpf4jnsgd1na2vs0mg"},{"bike_id":"23dad914-1de4-48fb-a770-cde7550d8b95","system_id":"levelo_inurba_marseille","lat":43.30355,"lon":5.41865,"is_reserved":false,"is_disabled":false,"rental_uris":{"android":"levelo://app?vid=23dad914-1de4-48fb-a770-cde7550d8b95","ios":"levelo://app?vid=23dad914-1de4-48fb-a770-cde7550d8b95"},"vehicle_type_id":"4","last_reported":1769801022,"current_range_meters":6000,"station_id":"ce4bhop2rcd13ifvqh7g","pricing_plan_id":"cebpf4jnsgd1na2vs0mg"},{"bike_id":"19252903-3e2f-4200-a00d-56f76e075097","system_id":"levelo_inurba_marseille","lat":43.29026,"lon":5.38634,"is_reserved":false,"is_disabled":false,"rental_uris":{"android":"levelo://app?vid=19252903-3e2f-4200-a00d-56f76e075097","ios":"levelo://app?vid=19252903-3e2f-4200-a00d-56f76e075097"},"vehicle_type_id":"4","last_reported":1769801022,"current_range_meters":6000,"station_id":"ce4bh4p2rcd13ifvqe0g","pricing_plan_id":"cebpf4jnsgd1na2vs0mg"},{"bike_id":"891291bf-2508-4614-98b9-c57a30a99b04","system_id":"levelo_inurba_marseille","lat":43.22932,"lon":5.35381,"is_reserved":false,"is_disabled":false,"rental_uris":{"android":"levelo://app?vid=891291bf-2508-4614-98b9-c57a30a99b04","ios":"levelo://app?vid=891291bf-2508-4614-98b9-c57a30a99b04"},"vehicle_type_id":"4","last_reported":1769801022,"current_range_meters":6000,"station_id":"cpo3532slgdg3j2ikp40","pricing_plan_id":"cebpf4jnsgd1na2vs0mg"},{"bike_id":"6e316437-9e53-4058-b852-370b67323663","system_id":"levelo_inurba_marseille","lat":43.24662,"lon":5.43165,"is_reserved":false,"is_disabled":false,"rental_uris":{"android":"levelo://app?vid=6e316437-9e53-4058-b852-370b67323663","ios":"levelo://app?vid=6e316437-9e53-4058-b852-370b67323663"},"vehicle_type_id":"4","last_reported":1769801022,"current_range_meters":6000,"station_id":"st_d2m6c4gdas8pm72e190g","pricing_plan_id":"cebpf4jnsgd1na2vs0mg"},{"bike_id":"2fecd604-fa5d-443f-b488-5b33f71cc492","system_id":"levelo_inurba_marseille","lat":43.29275,"lon":5.38436,"is_reserved":false,"is_disabled":false,"rental_uris":{"android":"levelo://app?vid=2fecd604-fa5d-443f-b488-5b33f71cc492","ios":"levelo://app?vid=2fecd604-fa5d-443f-b488-5b33f71cc492"},"vehicle_type_id":"4","last_reported":1769801022,"current_range_meters":6000,"station_id":"ce4bh692rcd13ifvqea0","pricing_plan_id":"cebpf4jnsgd1na2vs0mg"},{"bike_id":"b17cb260-4049-4abc-a308-15cf0b8ce0e6","system_id":"levelo_inurba_marseille","lat":43.249998,"lon":5.389238,"is_reserved":false,"is_disabled":false,"rental_uris":{"android":"levelo://app?vid=b17cb260-4049-4abc-a308-15cf0b8ce0e6","ios":"levelo://app?vid=b17cb260-4049-4abc-a308-15cf0b8ce0e6"},"vehicle_type_id":"4","last_reported":1769801022,"current_range_meters":6000,"station_id":"ce4bhgp2rcd13ifvqfd0","pricing_plan_id":"cebpf4jnsgd1na2vs0mg"},{"bike_id":"f24aaaa4-fbe6-4fcf-9f4b-bd64404925c7","system_id":"levelo_inurba_marseille","lat":43.25092,"lon":5.39522,"is_reserved":false,"is_disabled":false,"rental_uris":{"android":"levelo://app?vid=f24aaaa4-fbe6-4fcf-9f4b-bd64404925c7","ios":"levelo://app?vid=f24aaaa4-fbe6-4fcf-9f4b-bd64404925c7"},"vehicle_type_id":"4","last_reported":1769801022,"current_range_meters":6000,"station_id":"ce4bhm12rcd13ifvqgkg","pricing_plan_id":"cebpf4jnsgd1na2vs0mg"},{"bike_id":"4b9c2949-48d9-47bd-87a5-474334cf4c2c","system_id":"levelo_inurba_marseille","lat":43.24999,"lon":5.38936,"is_reserved":false,"is_disabled":false,"rental_uris":{"android":"levelo://app?vid=4b9c2949-48d9-47bd-87a5-474334cf4c2c","ios":"levelo://app?vid=4b9c2949-48d9-47bd-87a5-474334cf4c2c"},"vehicle_type_id":"4","last_reported":1769801022,"current_range_meters":6400,"station_id":"ce4bhgp2rcd13ifvqfd0","pricing_plan_id":"cebpf4jnsgd1na2vs0mg"},{"bike_id":"6b07e50c-03c8-4824-b0e1-e184b4975a06","system_id":"levelo_inurba_marseille","lat":43.25338,"lon":5.42177,"is_reserved":false,"is_disabled":true,"rental_uris":{"android":"levelo://app?vid=6b07e50c-03c8-4824-b0e1-e184b4975a06","ios":"levelo://app?vid=6b07e50c-03c8-4824-b0e1-e184b4975a06"},"vehicle_type_id":"4","last_reported":1769801022,"current_range_meters":6400,"station_id":"st_d2m65c5bi1j21697t3ng","pricing_plan_id":"cebpf4jnsgd1na2vs0mg"},{"bike_id":"32c2a5af-b5f9-416e-8e4c-96e2f8d06aad","system_id":"levelo_inurba_marseille","lat":43.28264,"lon":5.35063,"is_reserved":false,"is_disabled":false,"rental_uris":{"android":"levelo://app?vid=32c2a5af-b5f9-416e-8e4c-96e2f8d06aad","ios":"levelo://app?vid=32c2a5af-b5f9-416e-8e4c-96e2f8d06aad"},"vehicle_type_id":"4","last_reported":1769801022,"current_range_meters":6400,"station_id":"ce4bhbp2rcd13ifvqerg","pricing_plan_id":"cebpf4jnsgd1na2vs0mg"},{"bike_id":"1915d4ba-f4af-445d-a9d3-be106a370507","system_id":"levelo_inurba_marseille","lat":43.273822,"lon":5.362491,"is_reserved":false,"is_disabled":false,"rental_uris":{"android":"levelo://app?vid=1915d4ba-f4af-445d-a9d3-be106a370507","ios":"levelo://app?vid=1915d4ba-f4af-445d-a9d3-be106a370507"},"vehicle_type_id":"4","last_reported":1769801022,"current_range_meters":6400,"station_id":"ce4bhbh2rcd13ifvqeo0","pricing_plan_id":"cebpf4jnsgd1na2vs0mg"},{"bike_id":"c386e859-c47c-4176-b8dc-5d121dc2bc50","system_id":"levelo_inurba_marseille","lat":43.257134,"lon":5.410954,"is_reserved":false,"is_disabled":false,"rental_uris":{"android":"levelo://app?vid=c386e859-c47c-4176-b8dc-5d121dc2bc50","ios":"levelo://app?vid=c386e859-c47c-4176-b8dc-5d121dc2bc50"},"vehicle_type_id":"4","last_reported":1769801022,"current_range_meters":6400,"station_id":"ce4bhkp2rcd13ifvqgd0","pricing_plan_id":"cebpf4jnsgd1na2vs0mg"},{"bike_id":"382c481d-5cf2-4d38-9788-579a9f396d00","system_id":"levelo_inurba_marseille","lat":43.22933,"lon":5.35369,"is_reserved":false,"is_disabled":false,"rental_uris":{"android":"levelo://app?vid=382c481d-5cf2-4d38-9788-579a9f396d00","ios":"levelo://app?vid=382c481d-5cf2-4d38-9788-579a9f396d00"},"vehicle_type_id":"4","last_reported":1769801022,"current_range_meters":6400,"station_id":"cpo3532slgdg3j2ikp40","pricing_plan_id":"cebpf4jnsgd1na2vs0mg"},{"bike_id":"9eaf0306-21b2-4866-bdb2-ecedb542506d","system_id":"levelo_inurba_marseille","lat":43.295281,"lon":5.385425,"is_reserved":false,"is_disabled":false,"rental_uris":{"android":"levelo://app?vid=9eaf0306-21b2-4866-bdb2-ecedb542506d","ios":"levelo://app?vid=9eaf0306-21b2-4866-bdb2-ecedb542506d"},"vehicle_type_id":"4","last_reported":1769801022,"current_range_meters":6400,"station_id":"ce4bgih2rcd13ifvqba0","pricing_plan_id":"cebpf4jnsgd1na2vs0mg"},{"bike_id":"fc74d416-58fd-40e8-83da-909822985a20","system_id":"levelo_inurba_marseille","lat":43.30362,"lon":5.41899,"is_reserved":false,"is_disabled":false,"rental_uris":{"android":"levelo://app?vid=fc74d416-58fd-40e8-83da-909822985a20","ios":"levelo://app?vid=fc74d416-58fd-40e8-83da-909822985a20"},"vehicle_type_id":"4","last_reported":1769801022,"current_range_meters":6400,"station_id":"ce4bhop2rcd13ifvqh7g","pricing_plan_id":"cebpf4jnsgd1na2vs0mg"},{"bike_id":"39fd3543-1b83-4b56-b05d-b4a1d34a93cb","system_id":"levelo_inurba_marseille","lat":43.29271,"lon":5.4013,"is_reserved":false,"is_disabled":false,"rental_uris":{"android":"levelo://app?vid=39fd3543-1b83-4b56-b05d-b4a1d34a93cb","ios":"levelo://app?vid=39fd3543-1b83-4b56-b05d-b4a1d34a93cb"},"vehicle_type_id":"4","last_reported":1769801022,"current_range_meters":6400,"station_id":"ce4bh312rcd13ifvqdk0","pricing_plan_id":"cebpf4jnsgd1na2vs0mg"},{"bike_id":"4b5eb031-7397-4204-b8ec-553a81e6fa49","system_id":"levelo_inurba_marseille","lat":43.27585,"lon":5.38418,"is_reserved":false,"is_disabled":false,"rental_uris":{"android":"levelo://app?vid=4b5eb031-7397-4204-b8ec-553a81e6fa49","ios":"levelo://app?vid=4b5eb031-7397-4204-b8ec-553a81e6fa49"},"vehicle_type_id":"4","last_reported":1769801022,"current_range_meters":6400,"station_id":"ce4bhh92rcd13ifvqfi0","pricing_plan_id":"cebpf4jnsgd1na2vs0mg"},{"bike_id":"75e12ebc-bd2b-46ca-8731-fb764315b922","system_id":"levelo_inurba_marseille","lat":43.25095,"lon":5.39511,"is_reserved":false,"is_disabled":false,"rental_uris":{"android":"levelo://app?vid=75e12ebc-bd2b-46ca-8731-fb764315b922","ios":"levelo://app?vid=75e12ebc-bd2b-46ca-8731-fb764315b922"},"vehicle_type_id":"4","last_reported":1769801022,"current_range_meters":6400,"station_id":"ce4bhm12rcd13ifvqgkg","pricing_plan_id":"cebpf4jnsgd1na2vs0mg"},{"bike_id":"148dabb3-2178-4fb3-833c-3c47310727ca","system_id":"levelo_inurba_marseille","lat":43.29545,"lon":5.38548,"is_reserved":false,"is_disabled":false,"rental_uris":{"android":"levelo://app?vid=148dabb3-2178-4fb3-833c-3c47310727ca","ios":"levelo://app?vid=148dabb3-2178-4fb3-833c-3c47310727ca"},"vehicle_type_id":"4","last_reported":1769801022,"current_range_meters":6400,"station_id":"ce4bgih2rcd13ifvqba0","pricing_plan_id":"cebpf4jnsgd1na2vs0mg"},{"bike_id":"90d8f47d-92dd-4327-94ea-1f7e7a2152b8","system_id":"levelo_inurba_marseille","lat":43.27814,"lon":5.40707,"is_reserved":false,"is_disabled":false,"rental_uris":{"android":"levelo://app?vid=90d8f47d-92dd-4327-94ea-1f7e7a2152b8","ios":"levelo://app?vid=90d8f47d-92dd-4327-94ea-1f7e7a2152b8"},"vehicle_type_id":"4","last_reported":1769801022,"current_range_meters":6400,"station_id":"ce4bhnh2rcd13ifvqgtg","pricing_plan_id":"cebpf4jnsgd1na2vs0mg"},{"bike_id":"ad150f2a-29f5-456b-94c0-795879e342bd","system_id":"levelo_inurba_marseille","lat":43.32106,"lon":5.36785,"is_reserved":false,"is_disabled":false,"rental_uris":{"android":"levelo://app?vid=ad150f2a-29f5-456b-94c0-795879e342bd","ios":"levelo://app?vid=ad150f2a-29f5-456b-94c0-795879e342bd"},"vehicle_type_id":"4","last_reported":1769801022,"current_range_meters":6400,"station_id":"ce4bhrh2rcd13ifvqhug","pricing_plan_id":"cebpf4jnsgd1na2vs0mg"},{"bike_id":"842ae640-421f-4790-99f0-94bd0d50de25","system_id":"levelo_inurba_marseille","lat":43.30518,"lon":5.36542,"is_reserved":false,"is_disabled":false,"rental_uris":{"android":"levelo://app?vid=842ae640-421f-4790-99f0-94bd0d50de25","ios":"levelo://app?vid=842ae640-421f-4790-99f0-94bd0d50de25"},"vehicle_type_id":"4","last_reported":1769801022,"current_range_meters":6400,"station_id":"","pricing_plan_id":"cebpf4jnsgd1na2vs0mg"},{"bike_id":"4e0e09af-dc1f-4b4c-a5e0-62c35307cb3b","system_id":"levelo_inurba_marseille","lat":43.27923,"lon":5.39591,"is_reserved":false,"is_disabled":false,"rental_uris":{"android":"levelo://app?vid=4e0e09af-dc1f-4b4c-a5e0-62c35307cb3b","ios":"levelo://app?vid=4e0e09af-dc1f-4b4c-a5e0-62c35307cb3b"},"vehicle_type_id":"4","last_reported":1769801022,"current_range_meters":6400,"station_id":"ce4bhf92rcd13ifvqf40","pricing_plan_id":"cebpf4jnsgd1na2vs0mg"},{"bike_id":"4ed8b7c4-4959-4a76-8810-ca1bf04888b4","system_id":"levelo_inurba_marseille","lat":43.24465,"lon":5.4253,"is_reserved":false,"is_disabled":false,"rental_uris":{"android":"levelo://app?vid=4ed8b7c4-4959-4a76-8810-ca1bf04888b4","ios":"levelo://app?vid=4ed8b7c4-4959-4a76-8810-ca1bf04888b4"},"vehicle_type_id":"4","last_reported":1769801022,"current_range_meters":6400,"station_id":"st_d4a3vfp97mjs738cd8kg","pricing_plan_id":"cebpf4jnsgd1na2vs0mg"},{"bike_id":"f56ee39d-a6b7-4a7e-89de-b9d7f0478322","system_id":"levelo_inurba_marseille","lat":43.32343,"lon":5.36738,"is_reserved":false,"is_disabled":false,"rental_uris":{"android":"levelo://app?vid=f56ee39d-a6b7-4a7e-89de-b9d7f0478322","ios":"levelo://app?vid=f56ee39d-a6b7-4a7e-89de-b9d7f0478322"},"vehicle_type_id":"4","last_reported":1769801022,"current_range_meters":6400,"station_id":"ce4bhsh2rcd13ifvqi2g","pricing_plan_id":"cebpf4jnsgd1na2vs0mg"},{"bike_id":"d506f2a1-a00e-4c8b-bceb-1eb64a27bf3e","system_id":"levelo_inurba_marseille","lat":43.31706,"lon":5.37749,"is_reserved":false,"is_disabled":false,"rental_uris":{"android":"levelo://app?vid=d506f2a1-a00e-4c8b-bceb-1eb64a27bf3e","ios":"levelo://app?vid=d506f2a1-a00e-4c8b-bceb-1eb64a27bf3e"},"vehicle_type_id":"4","last_reported":1769801022,"current_range_meters":6400,"station_id":"ce4bgth2rcd13ifvqch0","pricing_plan_id":"cebpf4jnsgd1na2vs0mg"},{"bike_id":"06cdbc64-67ab-46f1-89a9-6d7d7f187751","system_id":"levelo_inurba_marseille","lat":43.246625,"lon":5.381638,"is_reserved":false,"is_disabled":false,"rental_uris":{"android":"levelo://app?vid=06cdbc64-67ab-46f1-89a9-6d7d7f187751","ios":"levelo://app?vid=06cdbc64-67ab-46f1-89a9-6d7d7f187751"},"vehicle_type_id":"4","last_reported":1769801022,"current_range_meters":6400,"station_id":"ce4bhih2rcd13ifvqfr0","pricing_plan_id":"cebpf4jnsgd1na2vs0mg"},{"bike_id":"7272b7e5-dc3f-4a67-bdd0-317168495648","system_id":"levelo_inurba_marseille","lat":43.26805,"lon":5.402621,"is_reserved":false,"is_disabled":false,"rental_uris":{"android":"levelo://app?vid=7272b7e5-dc3f-4a67-bdd0-317168495648","ios":"levelo://app?vid=7272b7e5-dc3f-4a67-bdd0-317168495648"},"vehicle_type_id":"4","last_reported":1769801022,"current_range_meters":6400,"station_id":"ce501612rcd8frsf0b60","pricing_plan_id":"cebpf4jnsgd1na2vs0mg"},{"bike_id":"c36501a5-b15d-4754-b855-eaf047fce34d","system_id":"levelo_inurba_marseille","lat":43.28607,"lon":5.37058,"is_reserved":false,"is_disabled":false,"rental_uris":{"android":"levelo://app?vid=c36501a5-b15d-4754-b855-eaf047fce34d","ios":"levelo://app?vid=c36501a5-b15d-4754-b855-eaf047fce34d"},"vehicle_type_id":"4","last_reported":1769801022,"current_range_meters":6400,"station_id":"ce4bht12rcd13ifvqi60","pricing_plan_id":"cebpf4jnsgd1na2vs0mg"},{"bike_id":"84074a89-65fb-46cd-bc5b-4dc462fe9144","system_id":"levelo_inurba_marseille","lat":43.29255,"lon":5.38453,"is_reserved":false,"is_disabled":false,"rental_uris":{"android":"levelo://app?vid=84074a89-65fb-46cd-bc5b-4dc462fe9144","ios":"levelo://app?vid=84074a89-65fb-46cd-bc5b-4dc462fe9144"},"vehicle_type_id":"4","last_reported":1769801022,"current_range_meters":6400,"station_id":"ce4bh692rcd13ifvqea0","pricing_plan_id":"cebpf4jnsgd1na2vs0mg"},{"bike_id":"c15bf6ee-369d-4dc7-89fc-91442ce5cab3","system_id":"levelo_inurba_marseille","lat":43.298986,"lon":5.436745,"is_reserved":false,"is_disabled":false,"rental_uris":{"android":"levelo://app?vid=c15bf6ee-369d-4dc7-89fc-91442ce5cab3","ios":"levelo://app?vid=c15bf6ee-369d-4dc7-89fc-91442ce5cab3"},"vehicle_type_id":"4","last_reported":1769801022,"current_range_meters":6400,"station_id":"ce4bhpp2rcd13ifvqhfg","pricing_plan_id":"cebpf4jnsgd1na2vs0mg"},{"bike_id":"3260d6da-2018-4dad-a5a2-1fcdb44b0cff","system_id":"levelo_inurba_marseille","lat":43.25093,"lon":5.39504,"is_reserved":false,"is_disabled":true,"rental_uris":{"android":"levelo://app?vid=3260d6da-2018-4dad-a5a2-1fcdb44b0cff","ios":"levelo://app?vid=3260d6da-2018-4dad-a5a2-1fcdb44b0cff"},"vehicle_type_id":"4","last_reported":1769801022,"current_range_meters":6800,"station_id":"ce4bhm12rcd13ifvqgkg","pricing_plan_id":"cebpf4jnsgd1na2vs0mg"},{"bike_id":"b589a911-c752-40e2-a671-addd4ec13243","system_id":"levelo_inurba_marseille","lat":43.29075,"lon":5.37169,"is_reserved":false,"is_disabled":false,"rental_uris":{"android":"levelo://app?vid=b589a911-c752-40e2-a671-addd4ec13243","ios":"levelo://app?vid=b589a911-c752-40e2-a671-addd4ec13243"},"vehicle_type_id":"4","last_reported":1769801022,"current_range_meters":6800,"station_id":"ce4bh5p2rcd13ifvqe4g","pricing_plan_id":"cebpf4jnsgd1na2vs0mg"},{"bike_id":"bd6079d6-64fd-498d-8c0b-9899c57d4dae","system_id":"levelo_inurba_marseille","lat":43.29272,"lon":5.38429,"is_reserved":false,"is_disabled":false,"rental_uris":{"android":"levelo://app?vid=bd6079d6-64fd-498d-8c0b-9899c57d4dae","ios":"levelo://app?vid=bd6079d6-64fd-498d-8c0b-9899c57d4dae"},"vehicle_type_id":"4","last_reported":1769801022,"current_range_meters":6800,"station_id":"ce4bh692rcd13ifvqea0","pricing_plan_id":"cebpf4jnsgd1na2vs0mg"},{"bike_id":"f837c673-8f99-41df-8e92-c39dc749cf7c","system_id":"levelo_inurba_marseille","lat":43.29573,"lon":5.37519,"is_reserved":false,"is_disabled":false,"rental_uris":{"android":"levelo://app?vid=f837c673-8f99-41df-8e92-c39dc749cf7c","ios":"levelo://app?vid=f837c673-8f99-41df-8e92-c39dc749cf7c"},"vehicle_type_id":"4","last_reported":1769801022,"current_range_meters":6800,"station_id":"ce4bgh92rcd13ifvqb50","pricing_plan_id":"cebpf4jnsgd1na2vs0mg"},{"bike_id":"8b03cb7d-1de6-4845-89c8-ef7b8942b746","system_id":"levelo_inurba_marseille","lat":43.280004,"lon":5.400031,"is_reserved":false,"is_disabled":false,"rental_uris":{"android":"levelo://app?vid=8b03cb7d-1de6-4845-89c8-ef7b8942b746","ios":"levelo://app?vid=8b03cb7d-1de6-4845-89c8-ef7b8942b746"},"vehicle_type_id":"4","last_reported":1769801022,"current_range_meters":6800,"station_id":"ce4bho92rcd13ifvqh4g","pricing_plan_id":"cebpf4jnsgd1na2vs0mg"},{"bike_id":"b9c95a5c-c71b-4932-836c-f2bc8a3cb9ef","system_id":"levelo_inurba_marseille","lat":43.29266,"lon":5.38435,"is_reserved":false,"is_disabled":false,"rental_uris":{"android":"levelo://app?vid=b9c95a5c-c71b-4932-836c-f2bc8a3cb9ef","ios":"levelo://app?vid=b9c95a5c-c71b-4932-836c-f2bc8a3cb9ef"},"vehicle_type_id":"4","last_reported":1769801022,"current_range_meters":6800,"station_id":"ce4bh692rcd13ifvqea0","pricing_plan_id":"cebpf4jnsgd1na2vs0mg"},{"bike_id":"21335747-3add-49bb-95b9-081d777d30db","system_id":"levelo_inurba_marseille","lat":43.23177,"lon":5.4,"is_reserved":false,"is_disabled":false,"rental_uris":{"android":"levelo://app?vid=21335747-3add-49bb-95b9-081d777d30db","ios":"levelo://app?vid=21335747-3add-49bb-95b9-081d777d30db"},"vehicle_type_id":"4","last_reported":1769801022,"current_range_meters":6800,"station_id":"ce4bhn12rcd13ifvqgqg","pricing_plan_id":"cebpf4jnsgd1na2vs0mg"},{"bike_id":"e902ef9f-7cd4-4fe6-a82c-948b6d2fcf15","system_id":"levelo_inurba_marseille","lat":43.29891,"lon":5.43654,"is_reserved":false,"is_disabled":false,"rental_uris":{"android":"levelo://app?vid=e902ef9f-7cd4-4fe6-a82c-948b6d2fcf15","ios":"levelo://app?vid=e902ef9f-7cd4-4fe6-a82c-948b6d2fcf15"},"vehicle_type_id":"4","last_reported":1769801022,"current_range_meters":6800,"station_id":"ce4bhpp2rcd13ifvqhfg","pricing_plan_id":"cebpf4jnsgd1na2vs0mg"},{"bike_id":"29e4ce79-df32-4a16-836e-cd957aa9a131","system_id":"levelo_inurba_marseille","lat":43.24639,"lon":5.43141,"is_reserved":false,"is_disabled":false,"rental_uris":{"android":"levelo://app?vid=29e4ce79-df32-4a16-836e-cd957aa9a131","ios":"levelo://app?vid=29e4ce79-df32-4a16-836e-cd957aa9a131"},"vehicle_type_id":"4","last_reported":1769801022,"current_range_meters":6800,"station_id":"st_d2m6c4gdas8pm72e190g","pricing_plan_id":"cebpf4jnsgd1na2vs0mg"},{"bike_id":"5f8af22f-9203-4ec9-816f-1618d1060df6","system_id":"levelo_inurba_marseille","lat":43.32486,"lon":5.38294,"is_reserved":false,"is_disabled":false,"rental_uris":{"android":"levelo://app?vid=5f8af22f-9203-4ec9-816f-1618d1060df6","ios":"levelo://app?vid=5f8af22f-9203-4ec9-816f-1618d1060df6"},"vehicle_type_id":"4","last_reported":1769801022,"current_range_meters":6800,"station_id":"st_d4asgbiv49dc73anf9m0","pricing_plan_id":"cebpf4jnsgd1na2vs0mg"},{"bike_id":"1c10ebf3-2572-4de9-b52e-34b6504a7a38","system_id":"levelo_inurba_marseille","lat":43.298915,"lon":5.375849,"is_reserved":false,"is_disabled":false,"rental_uris":{"android":"levelo://app?vid=1c10ebf3-2572-4de9-b52e-34b6504a7a38","ios":"levelo://app?vid=1c10ebf3-2572-4de9-b52e-34b6504a7a38"},"vehicle_type_id":"4","last_reported":1769801022,"current_range_meters":6800,"station_id":"ce4bhs12rcd13ifvqhvg","pricing_plan_id":"cebpf4jnsgd1na2vs0mg"},{"bike_id":"ed49719e-ebdf-4e11-bee6-46418a0b21a1","system_id":"levelo_inurba_marseille","lat":43.25879,"lon":5.3992,"is_reserved":false,"is_disabled":false,"rental_uris":{"android":"levelo://app?vid=ed49719e-ebdf-4e11-bee6-46418a0b21a1","ios":"levelo://app?vid=ed49719e-ebdf-4e11-bee6-46418a0b21a1"},"vehicle_type_id":"4","last_reported":1769801022,"current_range_meters":6800,"station_id":"ce4bhl92rcd13ifvqghg","pricing_plan_id":"cebpf4jnsgd1na2vs0mg"},{"bike_id":"1d321438-398a-4c27-a731-4b493b3f1405","system_id":"levelo_inurba_marseille","lat":43.2863,"lon":5.35012,"is_reserved":false,"is_disabled":false,"rental_uris":{"android":"levelo://app?vid=1d321438-398a-4c27-a731-4b493b3f1405","ios":"levelo://app?vid=1d321438-398a-4c27-a731-4b493b3f1405"},"vehicle_type_id":"4","last_reported":1769801022,"current_range_meters":6800,"station_id":"","pricing_plan_id":"cebpf4jnsgd1na2vs0mg"},{"bike_id":"f09aebcf-8bd3-4cff-b2e9-e09111d14fc2","system_id":"levelo_inurba_marseille","lat":43.278958,"lon":5.391847,"is_reserved":false,"is_disabled":false,"rental_uris":{"android":"levelo://app?vid=f09aebcf-8bd3-4cff-b2e9-e09111d14fc2","ios":"levelo://app?vid=f09aebcf-8bd3-4cff-b2e9-e09111d14fc2"},"vehicle_type_id":"4","last_reported":1769801022,"current_range_meters":6800,"station_id":"ce4bhjp2rcd13ifvqga0","pricing_plan_id":"cebpf4jnsgd1na2vs0mg"},{"bike_id":"339040ef-38c7-4f49-946c-88b541b3e175","system_id":"levelo_inurba_marseille","lat":43.28582,"lon":5.3511,"is_reserved":false,"is_disabled":false,"rental_uris":{"android":"levelo://app?vid=339040ef-38c7-4f49-946c-88b541b3e175","ios":"levelo://app?vid=339040ef-38c7-4f49-946c-88b541b3e175"},"vehicle_type_id":"4","last_reported":1769801022,"current_range_meters":6800,"station_id":"ce4bhch2rcd13ifvqeug","pricing_plan_id":"cebpf4jnsgd1na2vs0mg"},{"bike_id":"e2701745-5106-4d39-a3d2-5f47763fb929","system_id":"levelo_inurba_marseille","lat":43.24628,"lon":5.43161,"is_reserved":false,"is_disabled":false,"rental_uris":{"android":"levelo://app?vid=e2701745-5106-4d39-a3d2-5f47763fb929","ios":"levelo://app?vid=e2701745-5106-4d39-a3d2-5f47763fb929"},"vehicle_type_id":"4","last_reported":1769801022,"current_range_meters":6800,"station_id":"st_d2m6c4gdas8pm72e190g","pricing_plan_id":"cebpf4jnsgd1na2vs0mg"},{"bike_id":"ebf564fb-8d85-4bc0-929b-074b2760f8cf","system_id":"levelo_inurba_marseille","lat":43.31078,"lon":5.38361,"is_reserved":false,"is_disabled":false,"rental_uris":{"android":"levelo://app?vid=ebf564fb-8d85-4bc0-929b-074b2760f8cf","ios":"levelo://app?vid=ebf564fb-8d85-4bc0-929b-074b2760f8cf"},"vehicle_type_id":"4","last_reported":1769801022,"current_range_meters":6800,"station_id":"ce4bgv92rcd13ifvqcr0","pricing_plan_id":"cebpf4jnsgd1na2vs0mg"},{"bike_id":"7591ffbc-1d63-452b-86f5-112ce6d93e9a","system_id":"levelo_inurba_marseille","lat":43.25874,"lon":5.39862,"is_reserved":false,"is_disabled":false,"rental_uris":{"android":"levelo://app?vid=7591ffbc-1d63-452b-86f5-112ce6d93e9a","ios":"levelo://app?vid=7591ffbc-1d63-452b-86f5-112ce6d93e9a"},"vehicle_type_id":"4","last_reported":1769801022,"current_range_meters":6800,"station_id":"ce4bhl92rcd13ifvqghg","pricing_plan_id":"cebpf4jnsgd1na2vs0mg"},{"bike_id":"67742335-7708-4e4f-a177-305b9bde4565","system_id":"levelo_inurba_marseille","lat":43.29534,"lon":5.38546,"is_reserved":false,"is_disabled":false,"rental_uris":{"android":"levelo://app?vid=67742335-7708-4e4f-a177-305b9bde4565","ios":"levelo://app?vid=67742335-7708-4e4f-a177-305b9bde4565"},"vehicle_type_id":"4","last_reported":1769801022,"current_range_meters":6800,"station_id":"ce4bgih2rcd13ifvqba0","pricing_plan_id":"cebpf4jnsgd1na2vs0mg"},{"bike_id":"5d34a625-f6b8-4b60-af44-02f450c89c83","system_id":"levelo_inurba_marseille","lat":43.28489,"lon":5.38422,"is_reserved":false,"is_disabled":false,"rental_uris":{"android":"levelo://app?vid=5d34a625-f6b8-4b60-af44-02f450c89c83","ios":"levelo://app?vid=5d34a625-f6b8-4b60-af44-02f450c89c83"},"vehicle_type_id":"4","last_reported":1769801022,"current_range_meters":6800,"station_id":"ce4bh512rcd13ifvqe3g","pricing_plan_id":"cebpf4jnsgd1na2vs0mg"},{"bike_id":"70a13cc3-ad36-4953-ae52-4b4157055482","system_id":"levelo_inurba_marseille","lat":43.29541,"lon":5.38551,"is_reserved":false,"is_disabled":false,"rental_uris":{"android":"levelo://app?vid=70a13cc3-ad36-4953-ae52-4b4157055482","ios":"levelo://app?vid=70a13cc3-ad36-4953-ae52-4b4157055482"},"vehicle_type_id":"4","last_reported":1769801022,"current_range_meters":6800,"station_id":"ce4bgih2rcd13ifvqba0","pricing_plan_id":"cebpf4jnsgd1na2vs0mg"},{"bike_id":"38d20d03-4107-4283-99c4-82ac70088d90","system_id":"levelo_inurba_marseille","lat":43.29914,"lon":5.37478,"is_reserved":false,"is_disabled":false,"rental_uris":{"android":"levelo://app?vid=38d20d03-4107-4283-99c4-82ac70088d90","ios":"levelo://app?vid=38d20d03-4107-4283-99c4-82ac70088d90"},"vehicle_type_id":"4","last_reported":1769801022,"current_range_meters":7200,"station_id":"ce4bgjh2rcd13ifvqbg0","pricing_plan_id":"cebpf4jnsgd1na2vs0mg"},{"bike_id":"e858244c-580e-4a5e-a86b-9fc7e954317c","system_id":"levelo_inurba_marseille","lat":43.31292,"lon":5.37894,"is_reserved":false,"is_disabled":true,"rental_uris":{"android":"levelo://app?vid=e858244c-580e-4a5e-a86b-9fc7e954317c","ios":"levelo://app?vid=e858244c-580e-4a5e-a86b-9fc7e954317c"},"vehicle_type_id":"4","last_reported":1769801022,"current_range_meters":7200,"station_id":"","pricing_plan_id":"cebpf4jnsgd1na2vs0mg"},{"bike_id":"0e79c48d-cdc7-44eb-ad7d-d24757dd50e7","system_id":"levelo_inurba_marseille","lat":43.32338,"lon":5.36726,"is_reserved":false,"is_disabled":false,"rental_uris":{"android":"levelo://app?vid=0e79c48d-cdc7-44eb-ad7d-d24757dd50e7","ios":"levelo://app?vid=0e79c48d-cdc7-44eb-ad7d-d24757dd50e7"},"vehicle_type_id":"4","last_reported":1769801022,"current_range_meters":7200,"station_id":"ce4bhsh2rcd13ifvqi2g","pricing_plan_id":"cebpf4jnsgd1na2vs0mg"},{"bike_id":"b1e78ffd-83b0-42c8-9fec-477ac6fbc93c","system_id":"levelo_inurba_marseille","lat":43.29486,"lon":5.43315,"is_reserved":false,"is_disabled":false,"rental_uris":{"android":"levelo://app?vid=b1e78ffd-83b0-42c8-9fec-477ac6fbc93c","ios":"levelo://app?vid=b1e78ffd-83b0-42c8-9fec-477ac6fbc93c"},"vehicle_type_id":"4","last_reported":1769801022,"current_range_meters":7200,"station_id":"st_d3j5ugp08ojc73fj9d10","pricing_plan_id":"cebpf4jnsgd1na2vs0mg"},{"bike_id":"5f389a44-2a1c-4e21-94cd-35067fa54b78","system_id":"levelo_inurba_marseille","lat":43.33516,"lon":5.37461,"is_reserved":false,"is_disabled":false,"rental_uris":{"android":"levelo://app?vid=5f389a44-2a1c-4e21-94cd-35067fa54b78","ios":"levelo://app?vid=5f389a44-2a1c-4e21-94cd-35067fa54b78"},"vehicle_type_id":"4","last_reported":1769801022,"current_range_meters":7200,"station_id":"ce4bgt12rcd13ifvqcd0","pricing_plan_id":"cebpf4jnsgd1na2vs0mg"},{"bike_id":"ca2c8296-777f-4e50-b78a-4389e6df49a8","system_id":"levelo_inurba_marseille","lat":43.29299,"lon":5.37432,"is_reserved":false,"is_disabled":false,"rental_uris":{"android":"levelo://app?vid=ca2c8296-777f-4e50-b78a-4389e6df49a8","ios":"levelo://app?vid=ca2c8296-777f-4e50-b78a-4389e6df49a8"},"vehicle_type_id":"4","last_reported":1769801022,"current_range_meters":7200,"station_id":"ce4bgi12rcd13ifvqb70","pricing_plan_id":"cebpf4jnsgd1na2vs0mg"},{"bike_id":"be59a1fa-fcbd-4f35-ac1f-ae4c97b5126c","system_id":"levelo_inurba_marseille","lat":43.21772,"lon":5.34583,"is_reserved":false,"is_disabled":false,"rental_uris":{"android":"levelo://app?vid=be59a1fa-fcbd-4f35-ac1f-ae4c97b5126c","ios":"levelo://app?vid=be59a1fa-fcbd-4f35-ac1f-ae4c97b5126c"},"vehicle_type_id":"4","last_reported":1769801022,"current_range_meters":7200,"station_id":"st_cvj6r9ubvosntc0bgbag","pricing_plan_id":"cebpf4jnsgd1na2vs0mg"},{"bike_id":"673380cf-e281-4809-83da-58efb595c525","system_id":"levelo_inurba_marseille","lat":43.29271,"lon":5.38461,"is_reserved":false,"is_disabled":false,"rental_uris":{"android":"levelo://app?vid=673380cf-e281-4809-83da-58efb595c525","ios":"levelo://app?vid=673380cf-e281-4809-83da-58efb595c525"},"vehicle_type_id":"4","last_reported":1769801022,"current_range_meters":7200,"station_id":"ce4bh692rcd13ifvqea0","pricing_plan_id":"cebpf4jnsgd1na2vs0mg"},{"bike_id":"724540a8-2b51-4e35-aee1-3980ea59ab98","system_id":"levelo_inurba_marseille","lat":43.29216,"lon":5.36081,"is_reserved":false,"is_disabled":false,"rental_uris":{"android":"levelo://app?vid=724540a8-2b51-4e35-aee1-3980ea59ab98","ios":"levelo://app?vid=724540a8-2b51-4e35-aee1-3980ea59ab98"},"vehicle_type_id":"4","last_reported":1769801022,"current_range_meters":7200,"station_id":"ce4bhbh2rcd13ifvqeqg","pricing_plan_id":"cebpf4jnsgd1na2vs0mg"},{"bike_id":"94842764-1da0-47c3-981d-a8a494b1c082","system_id":"levelo_inurba_marseille","lat":43.24649,"lon":5.38892,"is_reserved":false,"is_disabled":false,"rental_uris":{"android":"levelo://app?vid=94842764-1da0-47c3-981d-a8a494b1c082","ios":"levelo://app?vid=94842764-1da0-47c3-981d-a8a494b1c082"},"vehicle_type_id":"4","last_reported":1769801022,"current_range_meters":7200,"station_id":"ce4bhg12rcd13ifvqf60","pricing_plan_id":"cebpf4jnsgd1na2vs0mg"},{"bike_id":"93b44eef-b245-49b5-9700-ec5e891cd774","system_id":"levelo_inurba_marseille","lat":43.24821,"lon":5.37465,"is_reserved":false,"is_disabled":false,"rental_uris":{"android":"levelo://app?vid=93b44eef-b245-49b5-9700-ec5e891cd774","ios":"levelo://app?vid=93b44eef-b245-49b5-9700-ec5e891cd774"},"vehicle_type_id":"4","last_reported":1769801022,"current_range_meters":7200,"station_id":"ce4bhgh2rcd13ifvqfb0","pricing_plan_id":"cebpf4jnsgd1na2vs0mg"},{"bike_id":"d278f49b-79cb-49d4-9147-2a87ca70efd2","system_id":"levelo_inurba_marseille","lat":43.2465,"lon":5.38885,"is_reserved":false,"is_disabled":false,"rental_uris":{"android":"levelo://app?vid=d278f49b-79cb-49d4-9147-2a87ca70efd2","ios":"levelo://app?vid=d278f49b-79cb-49d4-9147-2a87ca70efd2"},"vehicle_type_id":"4","last_reported":1769801022,"current_range_meters":7200,"station_id":"ce4bhg12rcd13ifvqf60","pricing_plan_id":"cebpf4jnsgd1na2vs0mg"},{"bike_id":"9593aa81-6e4a-4f55-a647-c50b268fadcb","system_id":"levelo_inurba_marseille","lat":43.31282,"lon":5.40164,"is_reserved":false,"is_disabled":false,"rental_uris":{"android":"levelo://app?vid=9593aa81-6e4a-4f55-a647-c50b268fadcb","ios":"levelo://app?vid=9593aa81-6e4a-4f55-a647-c50b268fadcb"},"vehicle_type_id":"4","last_reported":1769801022,"current_range_meters":7200,"station_id":"ce4bh092rcd13ifvqd30","pricing_plan_id":"cebpf4jnsgd1na2vs0mg"},{"bike_id":"65b759d9-e66a-4cc0-915d-2e8ad0441e0c","system_id":"levelo_inurba_marseille","lat":43.31175,"lon":5.38652,"is_reserved":false,"is_disabled":false,"rental_uris":{"android":"levelo://app?vid=65b759d9-e66a-4cc0-915d-2e8ad0441e0c","ios":"levelo://app?vid=65b759d9-e66a-4cc0-915d-2e8ad0441e0c"},"vehicle_type_id":"4","last_reported":1769801022,"current_range_meters":7200,"station_id":"","pricing_plan_id":"cebpf4jnsgd1na2vs0mg"},{"bike_id":"65c2d018-5db4-4b71-9059-ee26b3f148d1","system_id":"levelo_inurba_marseille","lat":43.24209,"lon":5.39664,"is_reserved":false,"is_disabled":false,"rental_uris":{"android":"levelo://app?vid=65c2d018-5db4-4b71-9059-ee26b3f148d1","ios":"levelo://app?vid=65c2d018-5db4-4b71-9059-ee26b3f148d1"},"vehicle_type_id":"4","last_reported":1769801022,"current_range_meters":7200,"station_id":"","pricing_plan_id":"cebpf4jnsgd1na2vs0mg"},{"bike_id":"b3808154-86af-47d0-966c-f1cc0984587d","system_id":"levelo_inurba_marseille","lat":43.33765,"lon":5.37486,"is_reserved":false,"is_disabled":false,"rental_uris":{"android":"levelo://app?vid=b3808154-86af-47d0-966c-f1cc0984587d","ios":"levelo://app?vid=b3808154-86af-47d0-966c-f1cc0984587d"},"vehicle_type_id":"4","last_reported":1769801022,"current_range_meters":7200,"station_id":"","pricing_plan_id":"cebpf4jnsgd1na2vs0mg"},{"bike_id":"c2029e8e-62e9-40bd-90c8-2d85b607b409","system_id":"levelo_inurba_marseille","lat":43.29761,"lon":5.42775,"is_reserved":false,"is_disabled":false,"rental_uris":{"android":"levelo://app?vid=c2029e8e-62e9-40bd-90c8-2d85b607b409","ios":"levelo://app?vid=c2029e8e-62e9-40bd-90c8-2d85b607b409"},"vehicle_type_id":"4","last_reported":1769801022,"current_range_meters":8000,"station_id":"st_d3md5207bmas73dh9klg","pricing_plan_id":"cebpf4jnsgd1na2vs0mg"},{"bike_id":"7212c134-0bb1-4307-8053-dc66b6b70a1e","system_id":"levelo_inurba_marseille","lat":43.29733,"lon":5.42785,"is_reserved":false,"is_disabled":false,"rental_uris":{"android":"levelo://app?vid=7212c134-0bb1-4307-8053-dc66b6b70a1e","ios":"levelo://app?vid=7212c134-0bb1-4307-8053-dc66b6b70a1e"},"vehicle_type_id":"4","last_reported":1769801022,"current_range_meters":8000,"station_id":"st_d3md5207bmas73dh9klg","pricing_plan_id":"cebpf4jnsgd1na2vs0mg"},{"bike_id":"f803a475-4004-494f-ac7f-7d24e93ed62c","system_id":"levelo_inurba_marseille","lat":43.279381,"lon":5.387702,"is_reserved":false,"is_disabled":false,"rental_uris":{"android":"levelo://app?vid=f803a475-4004-494f-ac7f-7d24e93ed62c","ios":"levelo://app?vid=f803a475-4004-494f-ac7f-7d24e93ed62c"},"vehicle_type_id":"4","last_reported":1769801022,"current_range_meters":8000,"station_id":"ce4bhg12rcd13ifvqf80","pricing_plan_id":"cebpf4jnsgd1na2vs0mg"},{"bike_id":"6beb67bd-ccb8-458e-b1b8-0d493daceb85","system_id":"levelo_inurba_marseille","lat":43.29249,"lon":5.36866,"is_reserved":false,"is_disabled":false,"rental_uris":{"android":"levelo://app?vid=6beb67bd-ccb8-458e-b1b8-0d493daceb85","ios":"levelo://app?vid=6beb67bd-ccb8-458e-b1b8-0d493daceb85"},"vehicle_type_id":"4","last_reported":1769801022,"current_range_meters":8000,"station_id":"ce4bhbp2rcd13ifvqesg","pricing_plan_id":"cebpf4jnsgd1na2vs0mg"},{"bike_id":"07dc047d-6ced-4fe1-9ec7-393aa544e027","system_id":"levelo_inurba_marseille","lat":43.31332,"lon":5.39675,"is_reserved":false,"is_disabled":false,"rental_uris":{"android":"levelo://app?vid=07dc047d-6ced-4fe1-9ec7-393aa544e027","ios":"levelo://app?vid=07dc047d-6ced-4fe1-9ec7-393aa544e027"},"vehicle_type_id":"4","last_reported":1769801022,"current_range_meters":8000,"station_id":"ce4bgvp2rcd13ifvqcu0","pricing_plan_id":"cebpf4jnsgd1na2vs0mg"},{"bike_id":"1e768992-55e7-4d55-8893-f866fd6efb43","system_id":"levelo_inurba_marseille","lat":43.26557,"lon":5.40318,"is_reserved":false,"is_disabled":false,"rental_uris":{"android":"levelo://app?vid=1e768992-55e7-4d55-8893-f866fd6efb43","ios":"levelo://app?vid=1e768992-55e7-4d55-8893-f866fd6efb43"},"vehicle_type_id":"4","last_reported":1769801022,"current_range_meters":8000,"station_id":"ce4bhmp2rcd13ifvqgng","pricing_plan_id":"cebpf4jnsgd1na2vs0mg"},{"bike_id":"674d0755-bda6-44bd-8dd4-47ceec1f93de","system_id":"levelo_inurba_marseille","lat":43.2447,"lon":5.42529,"is_reserved":false,"is_disabled":false,"rental_uris":{"android":"levelo://app?vid=674d0755-bda6-44bd-8dd4-47ceec1f93de","ios":"levelo://app?vid=674d0755-bda6-44bd-8dd4-47ceec1f93de"},"vehicle_type_id":"4","last_reported":1769801022,"current_range_meters":8000,"station_id":"st_d4a3vfp97mjs738cd8kg","pricing_plan_id":"cebpf4jnsgd1na2vs0mg"},{"bike_id":"cfe73c76-3bff-481c-a5ea-9a7beba7d096","system_id":"levelo_inurba_marseille","lat":43.29759,"lon":5.42772,"is_reserved":false,"is_disabled":false,"rental_uris":{"android":"levelo://app?vid=cfe73c76-3bff-481c-a5ea-9a7beba7d096","ios":"levelo://app?vid=cfe73c76-3bff-481c-a5ea-9a7beba7d096"},"vehicle_type_id":"4","last_reported":1769801022,"current_range_meters":8000,"station_id":"st_d3md5207bmas73dh9klg","pricing_plan_id":"cebpf4jnsgd1na2vs0mg"},{"bike_id":"a348b41d-ce0f-4115-b2b3-f88fa8dc97dd","system_id":"levelo_inurba_marseille","lat":43.22565,"lon":5.4163,"is_reserved":false,"is_disabled":false,"rental_uris":{"android":"levelo://app?vid=a348b41d-ce0f-4115-b2b3-f88fa8dc97dd","ios":"levelo://app?vid=a348b41d-ce0f-4115-b2b3-f88fa8dc97dd"},"vehicle_type_id":"4","last_reported":1769801022,"current_range_meters":8000,"station_id":"st_d2o4gvlbi1j2169b742g","pricing_plan_id":"cebpf4jnsgd1na2vs0mg"},{"bike_id":"211e9f25-2d90-4b9b-a855-3b41a0e91060","system_id":"levelo_inurba_marseille","lat":43.279043,"lon":5.380152,"is_reserved":false,"is_disabled":false,"rental_uris":{"android":"levelo://app?vid=211e9f25-2d90-4b9b-a855-3b41a0e91060","ios":"levelo://app?vid=211e9f25-2d90-4b9b-a855-3b41a0e91060"},"vehicle_type_id":"4","last_reported":1769801022,"current_range_meters":8000,"station_id":"ce4bhf92rcd13ifvqf50","pricing_plan_id":"cebpf4jnsgd1na2vs0mg"},{"bike_id":"36a7df4c-1060-4aff-920b-c99569c178f3","system_id":"levelo_inurba_marseille","lat":43.25497,"lon":5.37649,"is_reserved":false,"is_disabled":false,"rental_uris":{"android":"levelo://app?vid=36a7df4c-1060-4aff-920b-c99569c178f3","ios":"levelo://app?vid=36a7df4c-1060-4aff-920b-c99569c178f3"},"vehicle_type_id":"4","last_reported":1769801022,"current_range_meters":8000,"station_id":"ce4bhh12rcd13ifvqff0","pricing_plan_id":"cebpf4jnsgd1na2vs0mg"},{"bike_id":"8a817f98-b304-4743-a3c3-fef726d1716b","system_id":"levelo_inurba_marseille","lat":43.29054,"lon":5.36027,"is_reserved":false,"is_disabled":false,"rental_uris":{"android":"levelo://app?vid=8a817f98-b304-4743-a3c3-fef726d1716b","ios":"levelo://app?vid=8a817f98-b304-4743-a3c3-fef726d1716b"},"vehicle_type_id":"4","last_reported":1769801022,"current_range_meters":8000,"station_id":"","pricing_plan_id":"cebpf4jnsgd1na2vs0mg"},{"bike_id":"6f80a0c7-e6da-4e3f-a33d-84508ae903bc","system_id":"levelo_inurba_marseille","lat":43.24616,"lon":5.4316,"is_reserved":false,"is_disabled":false,"rental_uris":{"android":"levelo://app?vid=6f80a0c7-e6da-4e3f-a33d-84508ae903bc","ios":"levelo://app?vid=6f80a0c7-e6da-4e3f-a33d-84508ae903bc"},"vehicle_type_id":"4","last_reported":1769801022,"current_range_meters":8000,"station_id":"st_d2m6c4gdas8pm72e190g","pricing_plan_id":"cebpf4jnsgd1na2vs0mg"},{"bike_id":"e3ed7fbf-7dec-414d-a072-e20b75eb90c9","system_id":"levelo_inurba_marseille","lat":43.29538,"lon":5.38545,"is_reserved":false,"is_disabled":false,"rental_uris":{"android":"levelo://app?vid=e3ed7fbf-7dec-414d-a072-e20b75eb90c9","ios":"levelo://app?vid=e3ed7fbf-7dec-414d-a072-e20b75eb90c9"},"vehicle_type_id":"4","last_reported":1769801022,"current_range_meters":8000,"station_id":"ce4bgih2rcd13ifvqba0","pricing_plan_id":"cebpf4jnsgd1na2vs0mg"},{"bike_id":"bdcf5e54-fe53-45d1-a929-86e1c2cc77a3","system_id":"levelo_inurba_marseille","lat":43.2871,"lon":5.37387,"is_reserved":false,"is_disabled":false,"rental_uris":{"android":"levelo://app?vid=bdcf5e54-fe53-45d1-a929-86e1c2cc77a3","ios":"levelo://app?vid=bdcf5e54-fe53-45d1-a929-86e1c2cc77a3"},"vehicle_type_id":"4","last_reported":1769801022,"current_range_meters":8000,"station_id":"ce4bh3p2rcd13ifvqdq0","pricing_plan_id":"cebpf4jnsgd1na2vs0mg"},{"bike_id":"06392508-b88c-461c-a90f-011b6b2c7971","system_id":"levelo_inurba_marseille","lat":43.3032,"lon":5.39233,"is_reserved":false,"is_disabled":false,"rental_uris":{"android":"levelo://app?vid=06392508-b88c-461c-a90f-011b6b2c7971","ios":"levelo://app?vid=06392508-b88c-461c-a90f-011b6b2c7971"},"vehicle_type_id":"4","last_reported":1769801022,"current_range_meters":8000,"station_id":"ce4bgkh2rcd13ifvqbk0","pricing_plan_id":"cebpf4jnsgd1na2vs0mg"},{"bike_id":"8e88c210-5bbf-490b-b691-d185cb6c0ac9","system_id":"levelo_inurba_marseille","lat":43.28073,"lon":5.39656,"is_reserved":false,"is_disabled":false,"rental_uris":{"android":"levelo://app?vid=8e88c210-5bbf-490b-b691-d185cb6c0ac9","ios":"levelo://app?vid=8e88c210-5bbf-490b-b691-d185cb6c0ac9"},"vehicle_type_id":"4","last_reported":1769801022,"current_range_meters":8000,"station_id":"ce4bho12rcd13ifvqh2g","pricing_plan_id":"cebpf4jnsgd1na2vs0mg"},{"bike_id":"ec278c36-dd14-4d4f-befd-c6de12062f98","system_id":"levelo_inurba_marseille","lat":43.2695,"lon":5.38643,"is_reserved":false,"is_disabled":false,"rental_uris":{"android":"levelo://app?vid=ec278c36-dd14-4d4f-befd-c6de12062f98","ios":"levelo://app?vid=ec278c36-dd14-4d4f-befd-c6de12062f98"},"vehicle_type_id":"4","last_reported":1769801022,"current_range_meters":8000,"station_id":"ce4bhh92rcd13ifvqfh0","pricing_plan_id":"cebpf4jnsgd1na2vs0mg"},{"bike_id":"66705a89-ee29-4726-ac4c-978d0bd82fe8","system_id":"levelo_inurba_marseille","lat":43.30339,"lon":5.39073,"is_reserved":false,"is_disabled":false,"rental_uris":{"android":"levelo://app?vid=66705a89-ee29-4726-ac4c-978d0bd82fe8","ios":"levelo://app?vid=66705a89-ee29-4726-ac4c-978d0bd82fe8"},"vehicle_type_id":"4","last_reported":1769801022,"current_range_meters":8000,"station_id":"","pricing_plan_id":"cebpf4jnsgd1na2vs0mg"},{"bike_id":"c185cf38-df1b-4bb4-86d7-b251a2422e4d","system_id":"levelo_inurba_marseille","lat":43.3211,"lon":5.36804,"is_reserved":false,"is_disabled":false,"rental_uris":{"android":"levelo://app?vid=c185cf38-df1b-4bb4-86d7-b251a2422e4d","ios":"levelo://app?vid=c185cf38-df1b-4bb4-86d7-b251a2422e4d"},"vehicle_type_id":"4","last_reported":1769801022,"current_range_meters":8000,"station_id":"ce4bhrh2rcd13ifvqhug","pricing_plan_id":"cebpf4jnsgd1na2vs0mg"},{"bike_id":"da1ac006-1b1f-4577-bc3c-f768b3515750","system_id":"levelo_inurba_marseille","lat":43.28437,"lon":5.34988,"is_reserved":false,"is_disabled":false,"rental_uris":{"android":"levelo://app?vid=da1ac006-1b1f-4577-bc3c-f768b3515750","ios":"levelo://app?vid=da1ac006-1b1f-4577-bc3c-f768b3515750"},"vehicle_type_id":"4","last_reported":1769801022,"current_range_meters":8000,"station_id":"ce4bhbh2rcd13ifvqepg","pricing_plan_id":"cebpf4jnsgd1na2vs0mg"},{"bike_id":"f50aaddb-c6f1-42f0-a8eb-52b7b275905b","system_id":"levelo_inurba_marseille","lat":43.290325,"lon":5.386549,"is_reserved":false,"is_disabled":false,"rental_uris":{"android":"levelo://app?vid=f50aaddb-c6f1-42f0-a8eb-52b7b275905b","ios":"levelo://app?vid=f50aaddb-c6f1-42f0-a8eb-52b7b275905b"},"vehicle_type_id":"4","last_reported":1769801022,"current_range_meters":8000,"station_id":"","pricing_plan_id":"cebpf4jnsgd1na2vs0mg"},{"bike_id":"0b3202df-4d84-4329-af71-b14523edb6da","system_id":"levelo_inurba_marseille","lat":43.29071,"lon":5.37162,"is_reserved":false,"is_disabled":false,"rental_uris":{"android":"levelo://app?vid=0b3202df-4d84-4329-af71-b14523edb6da","ios":"levelo://app?vid=0b3202df-4d84-4329-af71-b14523edb6da"},"vehicle_type_id":"4","last_reported":1769801022,"current_range_meters":8000,"station_id":"ce4bh5p2rcd13ifvqe4g","pricing_plan_id":"cebpf4jnsgd1na2vs0mg"},{"bike_id":"afa087ba-2aaf-49d4-84ec-c61b91ffc4f3","system_id":"levelo_inurba_marseille","lat":43.25504,"lon":5.37678,"is_reserved":false,"is_disabled":false,"rental_uris":{"android":"levelo://app?vid=afa087ba-2aaf-49d4-84ec-c61b91ffc4f3","ios":"levelo://app?vid=afa087ba-2aaf-49d4-84ec-c61b91ffc4f3"},"vehicle_type_id":"4","last_reported":1769801022,"current_range_meters":8000,"station_id":"ce4bhh12rcd13ifvqff0","pricing_plan_id":"cebpf4jnsgd1na2vs0mg"},{"bike_id":"1e6e9fcd-377f-4a83-a467-d5b81de873c8","system_id":"levelo_inurba_marseille","lat":43.28227,"lon":5.39072,"is_reserved":false,"is_disabled":false,"rental_uris":{"android":"levelo://app?vid=1e6e9fcd-377f-4a83-a467-d5b81de873c8","ios":"levelo://app?vid=1e6e9fcd-377f-4a83-a467-d5b81de873c8"},"vehicle_type_id":"4","last_reported":1769801022,"current_range_meters":8400,"station_id":"ce4bhn92rcd13ifvqgsg","pricing_plan_id":"cebpf4jnsgd1na2vs0mg"},{"bike_id":"67dde3a5-6719-400f-9754-ba07b063d126","system_id":"levelo_inurba_marseille","lat":43.22558,"lon":5.41634,"is_reserved":false,"is_disabled":false,"rental_uris":{"android":"levelo://app?vid=67dde3a5-6719-400f-9754-ba07b063d126","ios":"levelo://app?vid=67dde3a5-6719-400f-9754-ba07b063d126"},"vehicle_type_id":"4","last_reported":1769801022,"current_range_meters":8400,"station_id":"st_d2o4gvlbi1j2169b742g","pricing_plan_id":"cebpf4jnsgd1na2vs0mg"},{"bike_id":"d6c0c260-1d77-47ce-9ca1-2efe8f514e43","system_id":"levelo_inurba_marseille","lat":43.28418,"lon":5.34987,"is_reserved":false,"is_disabled":false,"rental_uris":{"android":"levelo://app?vid=d6c0c260-1d77-47ce-9ca1-2efe8f514e43","ios":"levelo://app?vid=d6c0c260-1d77-47ce-9ca1-2efe8f514e43"},"vehicle_type_id":"4","last_reported":1769801022,"current_range_meters":8400,"station_id":"ce4bhbh2rcd13ifvqepg","pricing_plan_id":"cebpf4jnsgd1na2vs0mg"},{"bike_id":"da9f4472-0bb8-4458-affe-8b93192b64a6","system_id":"levelo_inurba_marseille","lat":43.23761,"lon":5.36648,"is_reserved":false,"is_disabled":false,"rental_uris":{"android":"levelo://app?vid=da9f4472-0bb8-4458-affe-8b93192b64a6","ios":"levelo://app?vid=da9f4472-0bb8-4458-affe-8b93192b64a6"},"vehicle_type_id":"4","last_reported":1769801022,"current_range_meters":8400,"station_id":"st_d3nk18o9ro0c73en2l3g","pricing_plan_id":"cebpf4jnsgd1na2vs0mg"},{"bike_id":"d24e91b0-a758-4a56-ab72-40a3672561b0","system_id":"levelo_inurba_marseille","lat":43.23782,"lon":5.36633,"is_reserved":false,"is_disabled":false,"rental_uris":{"android":"levelo://app?vid=d24e91b0-a758-4a56-ab72-40a3672561b0","ios":"levelo://app?vid=d24e91b0-a758-4a56-ab72-40a3672561b0"},"vehicle_type_id":"4","last_reported":1769801022,"current_range_meters":8400,"station_id":"st_d3nk18o9ro0c73en2l3g","pricing_plan_id":"cebpf4jnsgd1na2vs0mg"},{"bike_id":"a633dcb8-69cc-416a-ac75-271c195c29ed","system_id":"levelo_inurba_marseille","lat":43.2551,"lon":5.37645,"is_reserved":false,"is_disabled":false,"rental_uris":{"android":"levelo://app?vid=a633dcb8-69cc-416a-ac75-271c195c29ed","ios":"levelo://app?vid=a633dcb8-69cc-416a-ac75-271c195c29ed"},"vehicle_type_id":"4","last_reported":1769801022,"current_range_meters":8400,"station_id":"ce4bhh12rcd13ifvqff0","pricing_plan_id":"cebpf4jnsgd1na2vs0mg"},{"bike_id":"3a56b6bc-999e-4648-9fcc-832c38a9e3d7","system_id":"levelo_inurba_marseille","lat":43.298452,"lon":5.362767,"is_reserved":false,"is_disabled":false,"rental_uris":{"android":"levelo://app?vid=3a56b6bc-999e-4648-9fcc-832c38a9e3d7","ios":"levelo://app?vid=3a56b6bc-999e-4648-9fcc-832c38a9e3d7"},"vehicle_type_id":"4","last_reported":1769801022,"current_range_meters":8400,"station_id":"ce4bgpp2rcd13ifvqc3g","pricing_plan_id":"cebpf4jnsgd1na2vs0mg"},{"bike_id":"0bb81fd5-a597-41a1-8e61-93eab6748311","system_id":"levelo_inurba_marseille","lat":43.273081,"lon":5.407092,"is_reserved":false,"is_disabled":false,"rental_uris":{"android":"levelo://app?vid=0bb81fd5-a597-41a1-8e61-93eab6748311","ios":"levelo://app?vid=0bb81fd5-a597-41a1-8e61-93eab6748311"},"vehicle_type_id":"4","last_reported":1769801022,"current_range_meters":8400,"station_id":"","pricing_plan_id":"cebpf4jnsgd1na2vs0mg"},{"bike_id":"facf5c8d-7adf-4b26-81c3-f2dd54937001","system_id":"levelo_inurba_marseille","lat":43.22535,"lon":5.3483,"is_reserved":false,"is_disabled":false,"rental_uris":{"android":"levelo://app?vid=facf5c8d-7adf-4b26-81c3-f2dd54937001","ios":"levelo://app?vid=facf5c8d-7adf-4b26-81c3-f2dd54937001"},"vehicle_type_id":"4","last_reported":1769801022,"current_range_meters":8400,"station_id":"","pricing_plan_id":"cebpf4jnsgd1na2vs0mg"},{"bike_id":"06940532-c7d9-4d44-9701-06a6138d54d0","system_id":"levelo_inurba_marseille","lat":43.24079,"lon":5.37754,"is_reserved":false,"is_disabled":false,"rental_uris":{"android":"levelo://app?vid=06940532-c7d9-4d44-9701-06a6138d54d0","ios":"levelo://app?vid=06940532-c7d9-4d44-9701-06a6138d54d0"},"vehicle_type_id":"4","last_reported":1769801022,"current_range_meters":8400,"station_id":"ce4bhnp2rcd13ifvqgvg","pricing_plan_id":"cebpf4jnsgd1na2vs0mg"},{"bike_id":"4903d302-030b-4142-8e77-580f35145b44","system_id":"levelo_inurba_marseille","lat":43.293,"lon":5.37169,"is_reserved":false,"is_disabled":false,"rental_uris":{"android":"levelo://app?vid=4903d302-030b-4142-8e77-580f35145b44","ios":"levelo://app?vid=4903d302-030b-4142-8e77-580f35145b44"},"vehicle_type_id":"4","last_reported":1769801022,"current_range_meters":8400,"station_id":"ce4bgh92rcd13ifvqb40","pricing_plan_id":"cebpf4jnsgd1na2vs0mg"},{"bike_id":"8b15c161-1c06-41a5-bbb7-9fea6ecc1dc2","system_id":"levelo_inurba_marseille","lat":43.29005,"lon":5.35616,"is_reserved":false,"is_disabled":false,"rental_uris":{"android":"levelo://app?vid=8b15c161-1c06-41a5-bbb7-9fea6ecc1dc2","ios":"levelo://app?vid=8b15c161-1c06-41a5-bbb7-9fea6ecc1dc2"},"vehicle_type_id":"4","last_reported":1769801022,"current_range_meters":8400,"station_id":"ce4bhb92rcd13ifvqen0","pricing_plan_id":"cebpf4jnsgd1na2vs0mg"},{"bike_id":"d8659990-e2b2-4de6-8f52-a9e84135a26f","system_id":"levelo_inurba_marseille","lat":43.24074,"lon":5.37764,"is_reserved":false,"is_disabled":false,"rental_uris":{"android":"levelo://app?vid=d8659990-e2b2-4de6-8f52-a9e84135a26f","ios":"levelo://app?vid=d8659990-e2b2-4de6-8f52-a9e84135a26f"},"vehicle_type_id":"4","last_reported":1769801022,"current_range_meters":8400,"station_id":"ce4bhnp2rcd13ifvqgvg","pricing_plan_id":"cebpf4jnsgd1na2vs0mg"},{"bike_id":"bbdb1698-7af4-4fb4-825f-77efdc1a33a5","system_id":"levelo_inurba_marseille","lat":43.29295,"lon":5.37143,"is_reserved":false,"is_disabled":false,"rental_uris":{"android":"levelo://app?vid=bbdb1698-7af4-4fb4-825f-77efdc1a33a5","ios":"levelo://app?vid=bbdb1698-7af4-4fb4-825f-77efdc1a33a5"},"vehicle_type_id":"4","last_reported":1769801022,"current_range_meters":8400,"station_id":"ce4bgh92rcd13ifvqb40","pricing_plan_id":"cebpf4jnsgd1na2vs0mg"},{"bike_id":"f7ba70bd-983c-4ad6-a72c-36380a2ff19c","system_id":"levelo_inurba_marseille","lat":43.23186,"lon":5.35537,"is_reserved":false,"is_disabled":false,"rental_uris":{"android":"levelo://app?vid=f7ba70bd-983c-4ad6-a72c-36380a2ff19c","ios":"levelo://app?vid=f7ba70bd-983c-4ad6-a72c-36380a2ff19c"},"vehicle_type_id":"4","last_reported":1769801022,"current_range_meters":8400,"station_id":"ce4bhu92rcd13ifvqi70","pricing_plan_id":"cebpf4jnsgd1na2vs0mg"},{"bike_id":"5be20501-8e04-4673-9119-891aadf1acc1","system_id":"levelo_inurba_marseille","lat":43.285286,"lon":5.483188,"is_reserved":false,"is_disabled":false,"rental_uris":{"android":"levelo://app?vid=5be20501-8e04-4673-9119-891aadf1acc1","ios":"levelo://app?vid=5be20501-8e04-4673-9119-891aadf1acc1"},"vehicle_type_id":"4","last_reported":1769801022,"current_range_meters":8400,"station_id":"st_d3svhcjqgbts73a3dn0g","pricing_plan_id":"cebpf4jnsgd1na2vs0mg"},{"bike_id":"be27a615-8e50-452a-99f6-3a328f1e48bf","system_id":"levelo_inurba_marseille","lat":43.292614,"lon":5.384315,"is_reserved":false,"is_disabled":false,"rental_uris":{"android":"levelo://app?vid=be27a615-8e50-452a-99f6-3a328f1e48bf","ios":"levelo://app?vid=be27a615-8e50-452a-99f6-3a328f1e48bf"},"vehicle_type_id":"4","last_reported":1769801022,"current_range_meters":8400,"station_id":"","pricing_plan_id":"cebpf4jnsgd1na2vs0mg"},{"bike_id":"b3dc3d82-fa45-4a46-ba0b-9044caceee7e","system_id":"levelo_inurba_marseille","lat":43.28022,"lon":5.36935,"is_reserved":false,"is_disabled":false,"rental_uris":{"android":"levelo://app?vid=b3dc3d82-fa45-4a46-ba0b-9044caceee7e","ios":"levelo://app?vid=b3dc3d82-fa45-4a46-ba0b-9044caceee7e"},"vehicle_type_id":"4","last_reported":1769801022,"current_range_meters":8400,"station_id":"ce4bha12rcd13ifvqef0","pricing_plan_id":"cebpf4jnsgd1na2vs0mg"},{"bike_id":"169e268b-5fcc-439a-85a8-5d0f835d65db","system_id":"levelo_inurba_marseille","lat":43.254935,"lon":5.376458,"is_reserved":false,"is_disabled":false,"rental_uris":{"android":"levelo://app?vid=169e268b-5fcc-439a-85a8-5d0f835d65db","ios":"levelo://app?vid=169e268b-5fcc-439a-85a8-5d0f835d65db"},"vehicle_type_id":"4","last_reported":1769801022,"current_range_meters":8800,"station_id":"ce4bhh12rcd13ifvqff0","pricing_plan_id":"cebpf4jnsgd1na2vs0mg"},{"bike_id":"b8538ea1-5c66-4a72-881d-32abab5c79f9","system_id":"levelo_inurba_marseille","lat":43.24183,"lon":5.39722,"is_reserved":false,"is_disabled":false,"rental_uris":{"android":"levelo://app?vid=b8538ea1-5c66-4a72-881d-32abab5c79f9","ios":"levelo://app?vid=b8538ea1-5c66-4a72-881d-32abab5c79f9"},"vehicle_type_id":"4","last_reported":1769801022,"current_range_meters":8800,"station_id":"ce4bhn12rcd13ifvqgpg","pricing_plan_id":"cebpf4jnsgd1na2vs0mg"},{"bike_id":"b6bb507a-35ba-4aad-bf8d-d9ba28e136e6","system_id":"levelo_inurba_marseille","lat":43.28279,"lon":5.35054,"is_reserved":false,"is_disabled":false,"rental_uris":{"android":"levelo://app?vid=b6bb507a-35ba-4aad-bf8d-d9ba28e136e6","ios":"levelo://app?vid=b6bb507a-35ba-4aad-bf8d-d9ba28e136e6"},"vehicle_type_id":"4","last_reported":1769801022,"current_range_meters":8800,"station_id":"ce4bhbp2rcd13ifvqerg","pricing_plan_id":"cebpf4jnsgd1na2vs0mg"},{"bike_id":"229cd516-4771-4c0d-9ea8-2b95e2d4e103","system_id":"levelo_inurba_marseille","lat":43.28676,"lon":5.37324,"is_reserved":false,"is_disabled":false,"rental_uris":{"android":"levelo://app?vid=229cd516-4771-4c0d-9ea8-2b95e2d4e103","ios":"levelo://app?vid=229cd516-4771-4c0d-9ea8-2b95e2d4e103"},"vehicle_type_id":"4","last_reported":1769801022,"current_range_meters":8800,"station_id":"ce4bh3p2rcd13ifvqdq0","pricing_plan_id":"cebpf4jnsgd1na2vs0mg"},{"bike_id":"3bac28b0-eca9-44ed-83a2-57516e05c855","system_id":"levelo_inurba_marseille","lat":43.28463,"lon":5.35886,"is_reserved":false,"is_disabled":false,"rental_uris":{"android":"levelo://app?vid=3bac28b0-eca9-44ed-83a2-57516e05c855","ios":"levelo://app?vid=3bac28b0-eca9-44ed-83a2-57516e05c855"},"vehicle_type_id":"4","last_reported":1769801022,"current_range_meters":8800,"station_id":"ce4bhah2rcd13ifvqei0","pricing_plan_id":"cebpf4jnsgd1na2vs0mg"},{"bike_id":"3204c5b6-1dfb-4cc3-a887-23e54972fa05","system_id":"levelo_inurba_marseille","lat":43.29175,"lon":5.37224,"is_reserved":false,"is_disabled":false,"rental_uris":{"android":"levelo://app?vid=3204c5b6-1dfb-4cc3-a887-23e54972fa05","ios":"levelo://app?vid=3204c5b6-1dfb-4cc3-a887-23e54972fa05"},"vehicle_type_id":"4","last_reported":1769801022,"current_range_meters":8800,"station_id":"","pricing_plan_id":"cebpf4jnsgd1na2vs0mg"},{"bike_id":"406beb51-d0cc-4321-9650-d3c19164caa2","system_id":"levelo_inurba_marseille","lat":43.301398,"lon":5.387898,"is_reserved":false,"is_disabled":true,"rental_uris":{"android":"levelo://app?vid=406beb51-d0cc-4321-9650-d3c19164caa2","ios":"levelo://app?vid=406beb51-d0cc-4321-9650-d3c19164caa2"},"vehicle_type_id":"4","last_reported":1769801022,"current_range_meters":8800,"station_id":"ce4bghh2rcd13ifvqb60","pricing_plan_id":"cebpf4jnsgd1na2vs0mg"},{"bike_id":"ae885a91-9582-4ed2-b116-fe30671331bd","system_id":"levelo_inurba_marseille","lat":43.23788,"lon":5.36633,"is_reserved":false,"is_disabled":false,"rental_uris":{"android":"levelo://app?vid=ae885a91-9582-4ed2-b116-fe30671331bd","ios":"levelo://app?vid=ae885a91-9582-4ed2-b116-fe30671331bd"},"vehicle_type_id":"4","last_reported":1769801022,"current_range_meters":8800,"station_id":"st_d3nk18o9ro0c73en2l3g","pricing_plan_id":"cebpf4jnsgd1na2vs0mg"},{"bike_id":"131a3bf6-8abd-4b00-be87-65b4ec76680e","system_id":"levelo_inurba_marseille","lat":43.29525,"lon":5.39406,"is_reserved":false,"is_disabled":false,"rental_uris":{"android":"levelo://app?vid=131a3bf6-8abd-4b00-be87-65b4ec76680e","ios":"levelo://app?vid=131a3bf6-8abd-4b00-be87-65b4ec76680e"},"vehicle_type_id":"4","last_reported":1769801022,"current_range_meters":8800,"station_id":"ce4bh292rcd13ifvqdf0","pricing_plan_id":"cebpf4jnsgd1na2vs0mg"},{"bike_id":"eb04defa-9c2c-4a46-a4da-2174d6dcd3f8","system_id":"levelo_inurba_marseille","lat":43.28476,"lon":5.4839,"is_reserved":false,"is_disabled":false,"rental_uris":{"android":"levelo://app?vid=eb04defa-9c2c-4a46-a4da-2174d6dcd3f8","ios":"levelo://app?vid=eb04defa-9c2c-4a46-a4da-2174d6dcd3f8"},"vehicle_type_id":"4","last_reported":1769801022,"current_range_meters":8800,"station_id":"","pricing_plan_id":"cebpf4jnsgd1na2vs0mg"},{"bike_id":"74bebc7d-9331-45a4-ae4c-8e5bb0e765ab","system_id":"levelo_inurba_marseille","lat":43.30557,"lon":5.39934,"is_reserved":false,"is_disabled":false,"rental_uris":{"android":"levelo://app?vid=74bebc7d-9331-45a4-ae4c-8e5bb0e765ab","ios":"levelo://app?vid=74bebc7d-9331-45a4-ae4c-8e5bb0e765ab"},"vehicle_type_id":"4","last_reported":1769801022,"current_range_meters":8800,"station_id":"","pricing_plan_id":"cebpf4jnsgd1na2vs0mg"},{"bike_id":"8eeb4da1-5ffe-42ca-ae24-0fc13dd0c38e","system_id":"levelo_inurba_marseille","lat":43.29146,"lon":5.3744,"is_reserved":false,"is_disabled":false,"rental_uris":{"android":"levelo://app?vid=8eeb4da1-5ffe-42ca-ae24-0fc13dd0c38e","ios":"levelo://app?vid=8eeb4da1-5ffe-42ca-ae24-0fc13dd0c38e"},"vehicle_type_id":"4","last_reported":1769801022,"current_range_meters":8800,"station_id":"","pricing_plan_id":"cebpf4jnsgd1na2vs0mg"},{"bike_id":"da430813-1e4c-4d0a-b07d-976b86d0c6c6","system_id":"levelo_inurba_marseille","lat":43.25331,"lon":5.42167,"is_reserved":false,"is_disabled":false,"rental_uris":{"android":"levelo://app?vid=da430813-1e4c-4d0a-b07d-976b86d0c6c6","ios":"levelo://app?vid=da430813-1e4c-4d0a-b07d-976b86d0c6c6"},"vehicle_type_id":"4","last_reported":1769801022,"current_range_meters":8800,"station_id":"st_d2m65c5bi1j21697t3ng","pricing_plan_id":"cebpf4jnsgd1na2vs0mg"},{"bike_id":"ea32c3f6-a4db-44fe-907c-c45fd747ad9f","system_id":"levelo_inurba_marseille","lat":43.28848,"lon":5.42528,"is_reserved":false,"is_disabled":false,"rental_uris":{"android":"levelo://app?vid=ea32c3f6-a4db-44fe-907c-c45fd747ad9f","ios":"levelo://app?vid=ea32c3f6-a4db-44fe-907c-c45fd747ad9f"},"vehicle_type_id":"4","last_reported":1769801022,"current_range_meters":8800,"station_id":"st_d3b462108ojc7389ooeg","pricing_plan_id":"cebpf4jnsgd1na2vs0mg"},