{"last_updated":1751627380,"ttl":60,"version":"2.2","data":{"bikes":[{"bike_id":"3da29fb8-fc97-44c6-b9ac-31dd456b2fd4","system_id":"levelo_inurba_marseille","lat":43.33771,"lon":5.37424,"is_reserved":false,"is_disabled":true,"rental_uris":{"android":"levelo://app?vid=3da29fb8-fc97-44c6-b9ac-31dd456b2fd4","ios":"levelo://app?vid=3da29fb8-fc97-44c6-b9ac-31dd456b2fd4"},"vehicle_type_id":"4","last_reported":1751627380,"current_range_meters":0,"station_id":"","pricing_plan_id":"cebpf4jnsgd1na2vs0mg"},{"bike_id":"01861ad8-a8d7-4be6-816e-651927c87584","system_id":"levelo_inurba_marseille","lat":43.33751,"lon":5.37456,"is_reserved":false,"is_disabled":true,"rental_uris":{"android":"levelo://app?vid=01861ad8-a8d7-4be6-816e-651927c87584","ios":"levelo://app?vid=01861ad8-a8d7-4be6-816e-651927c87584"},"vehicle_type_id":"4","last_reported":1751627380,"current_range_meters":0,"station_id":"","pricing_plan_id":"cebpf4jnsgd1na2vs0mg"},{"bike_id":"cd2a3af2-854b-4519-92e5-1eaf70ba8a37","system_id":"levelo_inurba_marseille","lat":43.21212,"lon":5.35109,"is_reserved":false,"is_disabled":true,"rental_uris":{"android":"levelo://app?vid=cd2a3af2-854b-4519-92e5-1eaf70ba8a37","ios":"levelo://app?vid=cd2a3af2-854b-4519-92e5-1eaf70ba8a37"},"vehicle_type_id":"4","last_reported":1751627380,"current_range_meters":0,"station_id":"","pricing_plan_id":"cebpf4jnsgd1na2vs0mg"},{"bike_id":"2700b069-ae8c-4c07-bfa4-414cf16e9691","system_id":"levelo_inurba_marseille","lat":43.285404,"lon":5.385198,"is_reserved":false,"is_disabled":true,"rental_uris":{"android":"levelo://app?vid=2700b069-ae8c-4c07-bfa4-414cf16e9691","ios":"levelo://app?vid=2700b069-ae8c-4c07-bfa4-414cf16e9691"},"vehicle_type_id":"4","last_reported":1751627380,"current_range_meters":0,"station_id":"","pricing_plan_id":"cebpf4jnsgd1na2vs0mg"},{"bike_id":"4d64a4fd-d7a6-4b0f-b85d-5077edd949d7","system_id":"levelo_inurba_marseille","lat":43.23147,"lon":5.43748,"is_reserved":false,"is_disabled":true,"rental_uris":{"android":"levelo://app?vid=4d64a4fd-d7a6-4b0f-b85d-5077edd949d7","ios":"levelo://app?vid=4d64a4fd-d7a6-4b0f-b85d-5077edd949d7"},"vehicle_type_id":"4","last_reported":1751627380,"current_range_meters":0,"station_id":"ce4bhmp2rcd13ifvqgog","pricing_plan_id":"cebpf4jnsgd1na2vs0mg"},{"bike_id":"d4f6a73e-3ee7-4672-8723-81f33afd891f","system_id":"levelo_inurba_marseille","lat":43.2318,"lon":5.39988,"is_reserved":false,"is_disabled":true,"rental_uris":{"android":"levelo://app?vid=d4f6a73e-3ee7-4672-8723-81f33afd891f","ios":"levelo://app?vid=d4f6a73e-3ee7-4672-8723-81f33afd891f"},"vehicle_type_id":"4","last_reported":1751627380,"current_range_meters":0,"station_id":"ce4bhn12rcd13ifvqgqg","pricing_plan_id":"cebpf4jnsgd1na2vs0mg"},{"bike_id":"cc19413f-2915-4f26-ba84-bf3e0c8659bd","system_id":"levelo_inurba_marseille","lat":43.29549,"lon":5.42292,"is_reserved":false,"is_disabled":false,"rental_uris":{"android":"levelo://app?vid=cc19413f-2915-4f26-ba84-bf3e0c8659bd","ios":"levelo://app?vid=cc19413f-2915-4f26-ba84-bf3e0c8659bd"},"vehicle_type_id":"4","last_reported":1751627380,"current_range_meters":0,"station_id":"ce4bhph2rcd13ifvqhdg","pricing_plan_id":"cebpf4jnsgd1na2vs0mg"},{"bike_id":"891065b2-d2c4-420b-94bb-e620b7de28d3","system_id":"levelo_inurba_marseille","lat":43.23195,"lon":5.35554,"is_reserved":false,"is_disabled":true,"rental_uris":{"android":"levelo://app?vid=891065b2-d2c4-420b-94bb-e620b7de28d3","ios":"levelo://app?vid=891065b2-d2c4-420b-94bb-e620b7de28d3"},"vehicle_type_id":"4","last_reported":1751627380,"current_range_meters":0,"station_id":"ce4bhu92rcd13ifvqi70","pricing_plan_id":"cebpf4jnsgd1na2vs0mg"},{"bike_id":"c000af40-3745-474c-a982-7afc8cf1a526","system_id":"levelo_inurba_marseille","lat":43.21752,"lon":5.34619,"is_reserved":false,"is_disabled":true,"rental_uris":{"android":"levelo://app?vid=c000af40-3745-474c-a982-7afc8cf1a526","ios":"levelo://app?vid=c000af40-3745-474c-a982-7afc8cf1a526"},"vehicle_type_id":"4","last_reported":1751627380,"current_range_meters":0,"station_id":"st_cvj6r9ubvosntc0bgbag","pricing_plan_id":"cebpf4jnsgd1na2vs0mg"},{"bike_id":"2db7de25-6c57-447b-bff5-ea01c3753780","system_id":"levelo_inurba_marseille","lat":43.21761,"lon":5.34607,"is_reserved":false,"is_disabled":true,"rental_uris":{"android":"levelo://app?vid=2db7de25-6c57-447b-bff5-ea01c3753780","ios":"levelo://app?vid=2db7de25-6c57-447b-bff5-ea01c3753780"},"vehicle_type_id":"4","last_reported":1751627380,"current_range_meters":0,"station_id":"st_cvj6r9ubvosntc0bgbag","pricing_plan_id":"cebpf4jnsgd1na2vs0mg"},{"bike_id":"e2ac9c88-0fc4-4682-8f46-5de7203430ec","system_id":"levelo_inurba_marseille","lat":43.283478,"lon":5.381125,"is_reserved":false,"is_disabled":true,"rental_uris":{"android":"levelo://app?vid=e2ac9c88-0fc4-4682-8f46-5de7203430ec","ios":"levelo://app?vid=e2ac9c88-0fc4-4682-8f46-5de7203430ec"},"vehicle_type_id":"4","last_reported":1751627380,"current_range_meters":400,"station_id":"ce4bh412rcd13ifvqdr0","pricing_plan_id":"cebpf4jnsgd1na2vs0mg"},{"bike_id":"4d96d07b-6152-4656-af83-a3dfd0fa2ea5","system_id":"levelo_inurba_marseille","lat":43.27814,"lon":5.40696,"is_reserved":false,"is_disabled":true,"rental_uris":{"android":"levelo://app?vid=4d96d07b-6152-4656-af83-a3dfd0fa2ea5","ios":"levelo://app?vid=4d96d07b-6152-4656-af83-a3dfd0fa2ea5"},"vehicle_type_id":"4","last_reported":1751627380,"current_range_meters":400,"station_id":"ce4bhnh2rcd13ifvqgtg","pricing_plan_id":"cebpf4jnsgd1na2vs0mg"},{"bike_id":"222663d8-f5e7-400e-b3e9-0180f80e1a08","system_id":"levelo_inurba_marseille","lat":43.27809,"lon":5.40742,"is_reserved":false,"is_disabled":true,"rental_uris":{"android":"levelo://app?vid=222663d8-f5e7-400e-b3e9-0180f80e1a08","ios":"levelo://app?vid=222663d8-f5e7-400e-b3e9-0180f80e1a08"},"vehicle_type_id":"4","last_reported":1751627380,"current_range_meters":1600,"station_id":"ce4bhnh2rcd13ifvqgtg","pricing_plan_id":"cebpf4jnsgd1na2vs0mg"},{"bike_id":"761bdf2f-6881-430c-86f7-0cd1297cf6c7","system_id":"levelo_inurba_marseille","lat":43.31077,"lon":5.42428,"is_reserved":false,"is_disabled":true,"rental_uris":{"android":"levelo://app?vid=761bdf2f-6881-430c-86f7-0cd1297cf6c7","ios":"levelo://app?vid=761bdf2f-6881-430c-86f7-0cd1297cf6c7"},"vehicle_type_id":"4","last_reported":1751627380,"current_range_meters":2000,"station_id":"ce4bhp92rcd13ifvqhag","pricing_plan_id":"cebpf4jnsgd1na2vs0mg"},{"bike_id":"05c7b799-9781-4950-8cd4-d185fec2ae95","system_id":"levelo_inurba_marseille","lat":43.21193,"lon":5.35085,"is_reserved":false,"is_disabled":true,"rental_uris":{"android":"levelo://app?vid=05c7b799-9781-4950-8cd4-d185fec2ae95","ios":"levelo://app?vid=05c7b799-9781-4950-8cd4-d185fec2ae95"},"vehicle_type_id":"4","last_reported":1751627380,"current_range_meters":2000,"station_id":"st_cvj6sg6p6f1abm77japg","pricing_plan_id":"cebpf4jnsgd1na2vs0mg"},{"bike_id":"355c5f0a-bb4a-42f5-8c90-c35a2f309c87","system_id":"levelo_inurba_marseille","lat":43.30643,"lon":5.401,"is_reserved":false,"is_disabled":false,"rental_uris":{"android":"levelo://app?vid=355c5f0a-bb4a-42f5-8c90-c35a2f309c87","ios":"levelo://app?vid=355c5f0a-bb4a-42f5-8c90-c35a2f309c87"},"vehicle_type_id":"4","last_reported":1751627380,"current_range_meters":2800,"station_id":"ce4bh112rcd13ifvqda0","pricing_plan_id":"cebpf4jnsgd1na2vs0mg"},{"bike_id":"917fa6af-b77f-4b1d-ae38-a247a69d92a8","system_id":"levelo_inurba_marseille","lat":43.27807,"lon":5.40721,"is_reserved":false,"is_disabled":false,"rental_uris":{"android":"levelo://app?vid=917fa6af-b77f-4b1d-ae38-a247a69d92a8","ios":"levelo://app?vid=917fa6af-b77f-4b1d-ae38-a247a69d92a8"},"vehicle_type_id":"4","last_reported":1751627380,"current_range_meters":2800,"station_id":"ce4bhnh2rcd13ifvqgtg","pricing_plan_id":"cebpf4jnsgd1na2vs0mg"},{"bike_id":"cee0b5b6-9b90-457a-85f4-540287a23b84","system_id":"levelo_inurba_marseille","lat":43.21185,"lon":5.35064,"is_reserved":false,"is_disabled":false,"rental_uris":{"android":"levelo://app?vid=cee0b5b6-9b90-457a-85f4-540287a23b84","ios":"levelo://app?vid=cee0b5b6-9b90-457a-85f4-540287a23b84"},"vehicle_type_id":"4","last_reported":1751627380,"current_range_meters":2800,"station_id":"st_cvj6sg6p6f1abm77japg","pricing_plan_id":"cebpf4jnsgd1na2vs0mg"},{"bike_id":"34c6e3d0-b005-424f-a0a7-52f9f8bd654f","system_id":"levelo_inurba_marseille","lat":43.23622,"lon":5.36207,"is_reserved":false,"is_disabled":false,"rental_uris":{"android":"levelo://app?vid=34c6e3d0-b005-424f-a0a7-52f9f8bd654f","ios":"levelo://app?vid=34c6e3d0-b005-424f-a0a7-52f9f8bd654f"},"vehicle_type_id":"4","last_reported":1751627380,"current_range_meters":3200,"station_id":"","pricing_plan_id":"cebpf4jnsgd1na2vs0mg"},{"bike_id":"9e131bf0-f106-413d-9a4e-bc217c39f4a7","system_id":"levelo_inurba_marseille","lat":43.23154,"lon":5.43703,"is_reserved":false,"is_disabled":false,"rental_uris":{"android":"levelo://app?vid=9e131bf0-f106-413d-9a4e-bc217c39f4a7","ios":"levelo://app?vid=9e131bf0-f106-413d-9a4e-bc217c39f4a7"},"vehicle_type_id":"4","last_reported":1751627380,"current_range_meters":3200,"station_id":"ce4bhmp2rcd13ifvqgog","pricing_plan_id":"cebpf4jnsgd1na2vs0mg"},{"bike_id":"5fa4c350-5184-47cf-9215-58452ecdb557","system_id":"levelo_inurba_marseille","lat":43.3133,"lon":5.3969,"is_reserved":false,"is_disabled":false,"rental_uris":{"android":"levelo://app?vid=5fa4c350-5184-47cf-9215-58452ecdb557","ios":"levelo://app?vid=5fa4c350-5184-47cf-9215-58452ecdb557"},"vehicle_type_id":"4","last_reported":1751627380,"current_range_meters":3600,"station_id":"ce4bgvp2rcd13ifvqcu0","pricing_plan_id":"cebpf4jnsgd1na2vs0mg"},{"bike_id":"b6559b00-4af2-4bad-8e5a-12a49b3795cf","system_id":"levelo_inurba_marseille","lat":43.30537,"lon":5.36552,"is_reserved":false,"is_disabled":false,"rental_uris":{"android":"levelo://app?vid=b6559b00-4af2-4bad-8e5a-12a49b3795cf","ios":"levelo://app?vid=b6559b00-4af2-4bad-8e5a-12a49b3795cf"},"vehicle_type_id":"4","last_reported":1751627380,"current_range_meters":4000,"station_id":"ce4bgs12rcd13ifvqcag","pricing_plan_id":"cebpf4jnsgd1na2vs0mg"},{"bike_id":"dafc9946-787a-4a9d-a632-0d9312526120","system_id":"levelo_inurba_marseille","lat":43.27665,"lon":5.38886,"is_reserved":false,"is_disabled":false,"rental_uris":{"android":"levelo://app?vid=dafc9946-787a-4a9d-a632-0d9312526120","ios":"levelo://app?vid=dafc9946-787a-4a9d-a632-0d9312526120"},"vehicle_type_id":"4","last_reported":1751627380,"current_range_meters":4800,"station_id":"ce4bhi12rcd13ifvqfo0","pricing_plan_id":"cebpf4jnsgd1na2vs0mg"},{"bike_id":"28035d54-121e-4024-a059-079dff1a1473","system_id":"levelo_inurba_marseille","lat":43.23179,"lon":5.39991,"is_reserved":false,"is_disabled":false,"rental_uris":{"android":"levelo://app?vid=28035d54-121e-4024-a059-079dff1a1473","ios":"levelo://app?vid=28035d54-121e-4024-a059-079dff1a1473"},"vehicle_type_id":"4","last_reported":1751627380,"current_range_meters":4800,"station_id":"ce4bhn12rcd13ifvqgqg","pricing_plan_id":"cebpf4jnsgd1na2vs0mg"},{"bike_id":"151c99ba-1f87-49cd-836e-95b06d0760a6","system_id":"levelo_inurba_marseille","lat":43.28439,"lon":5.39204,"is_reserved":false,"is_disabled":false,"rental_uris":{"android":"levelo://app?vid=151c99ba-1f87-49cd-836e-95b06d0760a6","ios":"levelo://app?vid=151c99ba-1f87-49cd-836e-95b06d0760a6"},"vehicle_type_id":"4","last_reported":1751627380,"current_range_meters":4800,"station_id":"ce4bhoh2rcd13ifvqh5g","pricing_plan_id":"cebpf4jnsgd1na2vs0mg"},{"bike_id":"9a7d342a-ff8e-46c4-af1e-6e0519bd67dc","system_id":"levelo_inurba_marseille","lat":43.291433,"lon":5.355899,"is_reserved":false,"is_disabled":false,"rental_uris":{"android":"levelo://app?vid=9a7d342a-ff8e-46c4-af1e-6e0519bd67dc","ios":"levelo://app?vid=9a7d342a-ff8e-46c4-af1e-6e0519bd67dc"},"vehicle_type_id":"4","last_reported":1751627380,"current_range_meters":5600,"station_id":"","pricing_plan_id":"cebpf4jnsgd1na2vs0mg"},{"bike_id":"cf4ee29d-707e-44c0-8e61-f081693ebd6d","system_id":"levelo_inurba_marseille","lat":43.308,"lon":5.43525,"is_reserved":false,"is_disabled":false,"rental_uris":{"android":"levelo://app?vid=cf4ee29d-707e-44c0-8e61-f081693ebd6d","ios":"levelo://app?vid=cf4ee29d-707e-44c0-8e61-f081693ebd6d"},"vehicle_type_id":"4","last_reported":1751627380,"current_range_meters":5600,"station_id":"ce4bhph2rcd13ifvqheg","pricing_plan_id":"cebpf4jnsgd1na2vs0mg"},{"bike_id":"29f06980-3065-4817-9ba6-c9f48bdfda67","system_id":"levelo_inurba_marseille","lat":43.30208,"lon":5.39463,"is_reserved":false,"is_disabled":false,"rental_uris":{"android":"levelo://app?vid=29f06980-3065-4817-9ba6-c9f48bdfda67","ios":"levelo://app?vid=29f06980-3065-4817-9ba6-c9f48bdfda67"},"vehicle_type_id":"4","last_reported":1751627380,"current_range_meters":6400,"station_id":"ce4bh0p2rcd13ifvqd70","pricing_plan_id":"cebpf4jnsgd1na2vs0mg"},{"bike_id":"edc44628-247c-47a9-a2eb-42e90257fc5d","system_id":"levelo_inurba_marseille","lat":43.29256,"lon":5.40909,"is_reserved":false,"is_disabled":false,"rental_uris":{"android":"levelo://app?vid=edc44628-247c-47a9-a2eb-42e90257fc5d","ios":"levelo://app?vid=edc44628-247c-47a9-a2eb-42e90257fc5d"},"vehicle_type_id":"4","last_reported":1751627380,"current_range_meters":6400,"station_id":"ce4bh192rcd13ifvqdc0","pricing_plan_id":"cebpf4jnsgd1na2vs0mg"},{"bike_id":"be2b10a9-037d-4078-8fc2-6adf8c864636","system_id":"levelo_inurba_marseille","lat":43.29197,"lon":5.39332,"is_reserved":false,"is_disabled":false,"rental_uris":{"android":"levelo://app?vid=be2b10a9-037d-4078-8fc2-6adf8c864636","ios":"levelo://app?vid=be2b10a9-037d-4078-8fc2-6adf8c864636"},"vehicle_type_id":"4","last_reported":1751627380,"current_range_meters":6400,"station_id":"ce4bh192rcd13ifvqdd0","pricing_plan_id":"cebpf4jnsgd1na2vs0mg"},{"bike_id":"e9f93152-c103-42e7-8290-70a0dd64d0c1","system_id":"levelo_inurba_marseille","lat":43.292182,"lon":5.376506,"is_reserved":false,"is_disabled":false,"rental_uris":{"android":"levelo://app?vid=e9f93152-c103-42e7-8290-70a0dd64d0c1","ios":"levelo://app?vid=e9f93152-c103-42e7-8290-70a0dd64d0c1"},"vehicle_type_id":"4","last_reported":1751627380,"current_range_meters":6800,"station_id":"","pricing_plan_id":"cebpf4jnsgd1na2vs0mg"},{"bike_id":"e26ba497-efc7-4420-b8c5-9fa5e27f2ce4","system_id":"levelo_inurba_marseille","lat":43.313609,"lon":5.370774,"is_reserved":false,"is_disabled":false,"rental_uris":{"android":"levelo://app?vid=e26ba497-efc7-4420-b8c5-9fa5e27f2ce4","ios":"levelo://app?vid=e26ba497-efc7-4420-b8c5-9fa5e27f2ce4"},"vehicle_type_id":"4","last_reported":1751627380,"current_range_meters":6800,"station_id":"","pricing_plan_id":"cebpf4jnsgd1na2vs0mg"},{"bike_id":"00f28666-98d8-4bd8-b26a-b8557079d8d1","system_id":"levelo_inurba_marseille","lat":43.30459,"lon":5.37912,"is_reserved":false,"is_disabled":false,"rental_uris":{"android":"levelo://app?vid=00f28666-98d8-4bd8-b26a-b8557079d8d1","ios":"levelo://app?vid=00f28666-98d8-4bd8-b26a-b8557079d8d1"},"vehicle_type_id":"4","last_reported":1751627380,"current_range_meters":6800,"station_id":"ce4bgup2rcd13ifvqcn0","pricing_plan_id":"cebpf4jnsgd1na2vs0mg"},{"bike_id":"72750a35-fd90-47b5-a091-6123c4bfecc1","system_id":"levelo_inurba_marseille","lat":43.27375,"lon":5.36253,"is_reserved":false,"is_disabled":false,"rental_uris":{"android":"levelo://app?vid=72750a35-fd90-47b5-a091-6123c4bfecc1","ios":"levelo://app?vid=72750a35-fd90-47b5-a091-6123c4bfecc1"},"vehicle_type_id":"4","last_reported":1751627380,"current_range_meters":6800,"station_id":"ce4bhbh2rcd13ifvqeo0","pricing_plan_id":"cebpf4jnsgd1na2vs0mg"},{"bike_id":"6f89aa96-f0f6-4b86-b117-fa40bfdce54a","system_id":"levelo_inurba_marseille","lat":43.27318,"lon":5.39074,"is_reserved":false,"is_disabled":false,"rental_uris":{"android":"levelo://app?vid=6f89aa96-f0f6-4b86-b117-fa40bfdce54a","ios":"levelo://app?vid=6f89aa96-f0f6-4b86-b117-fa40bfdce54a"},"vehicle_type_id":"4","last_reported":1751627380,"current_range_meters":6800,"station_id":"ce4bhgp2rcd13ifvqfe0","pricing_plan_id":"cebpf4jnsgd1na2vs0mg"},{"bike_id":"9f1f6042-7e07-4b00-9dc1-8f0343d9174e","system_id":"levelo_inurba_marseille","lat":43.21191,"lon":5.35073,"is_reserved":false,"is_disabled":false,"rental_uris":{"android":"levelo://app?vid=9f1f6042-7e07-4b00-9dc1-8f0343d9174e","ios":"levelo://app?vid=9f1f6042-7e07-4b00-9dc1-8f0343d9174e"},"vehicle_type_id":"4","last_reported":1751627380,"current_range_meters":6800,"station_id":"st_cvj6sg6p6f1abm77japg","pricing_plan_id":"cebpf4jnsgd1na2vs0mg"},{"bike_id":"61a2779b-d940-490f-9dea-f6a253cbcc94","system_id":"levelo_inurba_marseille","lat":43.29031,"lon":5.3865,"is_reserved":false,"is_disabled":false,"rental_uris":{"android":"levelo://app?vid=61a2779b-d940-490f-9dea-f6a253cbcc94","ios":"levelo://app?vid=61a2779b-d940-490f-9dea-f6a253cbcc94"},"vehicle_type_id":"4","last_reported":1751627380,"current_range_meters":7200,"station_id":"ce4bh4p2rcd13ifvqe0g","pricing_plan_id":"cebpf4jnsgd1na2vs0mg"},{"bike_id":"3f024b44-bd16-46ad-b24e-af97b5bcc8be","system_id":"levelo_inurba_marseille","lat":43.25727,"lon":5.41108,"is_reserved":false,"is_disabled":false,"rental_uris":{"android":"levelo://app?vid=3f024b44-bd16-46ad-b24e-af97b5bcc8be","ios":"levelo://app?vid=3f024b44-bd16-46ad-b24e-af97b5bcc8be"},"vehicle_type_id":"4","last_reported":1751627380,"current_range_meters":7200,"station_id":"ce4bhkp2rcd13ifvqgd0","pricing_plan_id":"cebpf4jnsgd1na2vs0mg"},{"bike_id":"fcf3a049-0dc2-4164-87b0-96401de71d0b","system_id":"levelo_inurba_marseille","lat":43.29265,"lon":5.38442,"is_reserved":false,"is_disabled":false,"rental_uris":{"android":"levelo://app?vid=fcf3a049-0dc2-4164-87b0-96401de71d0b","ios":"levelo://app?vid=fcf3a049-0dc2-4164-87b0-96401de71d0b"},"vehicle_type_id":"4","last_reported":1751627380,"current_range_meters":8000,"station_id":"ce4bh692rcd13ifvqea0","pricing_plan_id":"cebpf4jnsgd1na2vs0mg"},{"bike_id":"52ecb0a6-3b65-427a-8f2f-a7c3e76c71f5","system_id":"levelo_inurba_marseille","lat":43.255007,"lon":5.376407,"is_reserved":false,"is_disabled":false,"rental_uris":{"android":"levelo://app?vid=52ecb0a6-3b65-427a-8f2f-a7c3e76c71f5","ios":"levelo://app?vid=52ecb0a6-3b65-427a-8f2f-a7c3e76c71f5"},"vehicle_type_id":"4","last_reported":1751627380,"current_range_meters":8000,"station_id":"ce4bhh12rcd13ifvqff0","pricing_plan_id":"cebpf4jnsgd1na2vs0mg"},{"bike_id":"0f7e77e2-8bad-46d1-8d81-11b86051aefa","system_id":"levelo_inurba_marseille","lat":43.23153,"lon":5.43708,"is_reserved":false,"is_disabled":false,"rental_uris":{"android":"levelo://app?vid=0f7e77e2-8bad-46d1-8d81-11b86051aefa","ios":"levelo://app?vid=0f7e77e2-8bad-46d1-8d81-11b86051aefa"},"vehicle_type_id":"4","last_reported":1751627380,"current_range_meters":8000,"station_id":"ce4bhmp2rcd13ifvqgog","pricing_plan_id":"cebpf4jnsgd1na2vs0mg"},{"bike_id":"d567a98a-7952-4227-875f-9176613e0a81","system_id":"levelo_inurba_marseille","lat":43.30381,"lon":5.42475,"is_reserved":false,"is_disabled":false,"rental_uris":{"android":"levelo://app?vid=d567a98a-7952-4227-875f-9176613e0a81","ios":"levelo://app?vid=d567a98a-7952-4227-875f-9176613e0a81"},"vehicle_type_id":"4","last_reported":1751627380,"current_range_meters":8000,"station_id":"ce4bhoh2rcd13ifvqh6g","pricing_plan_id":"cebpf4jnsgd1na2vs0mg"},{"bike_id":"09454f46-e55e-4559-820c-cbc05b531847","system_id":"levelo_inurba_marseille","lat":43.32297,"lon":5.38993,"is_reserved":false,"is_disabled":false,"rental_uris":{"android":"levelo://app?vid=09454f46-e55e-4559-820c-cbc05b531847","ios":"levelo://app?vid=09454f46-e55e-4559-820c-cbc05b531847"},"vehicle_type_id":"4","last_reported":1751627380,"current_range_meters":8400,"station_id":"","pricing_plan_id":"cebpf4jnsgd1na2vs0mg"},{"bike_id":"34773d53-2f30-483e-84be-2340acff3885","system_id":"levelo_inurba_marseille","lat":43.28473,"lon":5.38409,"is_reserved":false,"is_disabled":false,"rental_uris":{"android":"levelo://app?vid=34773d53-2f30-483e-84be-2340acff3885","ios":"levelo://app?vid=34773d53-2f30-483e-84be-2340acff3885"},"vehicle_type_id":"4","last_reported":1751627380,"current_range_meters":8400,"station_id":"ce4bh512rcd13ifvqe3g","pricing_plan_id":"cebpf4jnsgd1na2vs0mg"},{"bike_id":"344592ce-c3ae-4631-83a2-3e23a36f0454","system_id":"levelo_inurba_marseille","lat":43.26936,"lon":5.40259,"is_reserved":false,"is_disabled":false,"rental_uris":{"android":"levelo://app?vid=344592ce-c3ae-4631-83a2-3e23a36f0454","ios":"levelo://app?vid=344592ce-c3ae-4631-83a2-3e23a36f0454"},"vehicle_type_id":"4","last_reported":1751627380,"current_range_meters":8400,"station_id":"cjm6bp8fraef2m0cb0m0","pricing_plan_id":"cebpf4jnsgd1na2vs0mg"},{"bike_id":"b5974b9b-d052-486b-bcc2-d5893ec0c8f6","system_id":"levelo_inurba_marseille","lat":43.28424,"lon":5.349803,"is_reserved":false,"is_disabled":false,"rental_uris":{"android":"levelo://app?vid=b5974b9b-d052-486b-bcc2-d5893ec0c8f6","ios":"levelo://app?vid=b5974b9b-d052-486b-bcc2-d5893ec0c8f6"},"vehicle_type_id":"4","last_reported":1751627380,"current_range_meters":8800,"station_id":"ce4bhbh2rcd13ifvqepg","pricing_plan_id":"cebpf4jnsgd1na2vs0mg"},{"bike_id":"d409a4e4-dddf-47d1-8ec2-5ab0bb5defab","system_id":"levelo_inurba_marseille","lat":43.26682,"lon":5.38264,"is_reserved":false,"is_disabled":false,"rental_uris":{"android":"levelo://app?vid=d409a4e4-dddf-47d1-8ec2-5ab0bb5defab","ios":"levelo://app?vid=d409a4e4-dddf-47d1-8ec2-5ab0bb5defab"},"vehicle_type_id":"4","last_reported":1751627380,"current_range_meters":8800,"station_id":"ce4bhg92rcd13ifvqf90","pricing_plan_id":"cebpf4jnsgd1na2vs0mg"},{"bike_id":"4db59f41-3ade-4c67-aaf3-fad9b3f185b9","system_id":"levelo_inurba_marseille","lat":43.31755,"lon":5.39025,"is_reserved":false,"is_disabled":false,"rental_uris":{"android":"levelo://app?vid=4db59f41-3ade-4c67-aaf3-fad9b3f185b9","ios":"levelo://app?vid=4db59f41-3ade-4c67-aaf3-fad9b3f185b9"},"vehicle_type_id":"4","last_reported":1751627380,"current_range_meters":8800,"station_id":"ce4bhqp2rcd13ifvqhng","pricing_plan_id":"cebpf4jnsgd1na2vs0mg"},{"bike_id":"be4e2ba2-f83c-4be6-923a-932d435bb5ce","system_id":"levelo_inurba_marseille","lat":43.28236,"lon":5.40473,"is_reserved":false,"is_disabled":false,"rental_uris":{"android":"levelo://app?vid=be4e2ba2-f83c-4be6-923a-932d435bb5ce","ios":"levelo://app?vid=be4e2ba2-f83c-4be6-923a-932d435bb5ce"},"vehicle_type_id":"4","last_reported":1751627380,"current_range_meters":9200,"station_id":"","pricing_plan_id":"cebpf4jnsgd1na2vs0mg"},{"bike_id":"64d23997-1f2e-4c64-8512-c43ec1607f1f","system_id":"levelo_inurba_marseille","lat":43.28271,"lon":5.35068,"is_reserved":false,"is_disabled":false,"rental_uris":{"android":"levelo://app?vid=64d23997-1f2e-4c64-8512-c43ec1607f1f","ios":"levelo://app?vid=64d23997-1f2e-4c64-8512-c43ec1607f1f"},"vehicle_type_id":"4","last_reported":1751627380,"current_range_meters":9200,"station_id":"ce4bhbp2rcd13ifvqerg","pricing_plan_id":"cebpf4jnsgd1na2vs0mg"},{"bike_id":"3b2e1de2-e08a-4478-85a0-653e89c941c9","system_id":"levelo_inurba_marseille","lat":43.32479,"lon":5.3659,"is_reserved":false,"is_disabled":false,"rental_uris":{"android":"levelo://app?vid=3b2e1de2-e08a-4478-85a0-653e89c941c9","ios":"levelo://app?vid=3b2e1de2-e08a-4478-85a0-653e89c941c9"},"vehicle_type_id":"4","last_reported":1751627380,"current_range_meters":9200,"station_id":"ce4bhs12rcd13ifvqhvg","pricing_plan_id":"cebpf4jnsgd1na2vs0mg"},{"bike_id":"bcfd0eda-b9ab-4bec-9ca3-3f2b86617415","system_id":"levelo_inurba_marseille","lat":43.211889,"lon":5.35066,"is_reserved":false,"is_disabled":false,"rental_uris":{"android":"levelo://app?vid=bcfd0eda-b9ab-4bec-9ca3-3f2b86617415","ios":"levelo://app?vid=bcfd0eda-b9ab-4bec-9ca3-3f2b86617415"},"vehicle_type_id":"4","last_reported":1751627380,"current_range_meters":9200,"station_id":"st_cvj6sg6p6f1abm77japg","pricing_plan_id":"cebpf4jnsgd1na2vs0mg"},{"bike_id":"d799b321-3a7d-4201-b46e-ffe2ad124f19","system_id":"levelo_inurba_marseille","lat":43.3299,"lon":5.38278,"is_reserved":false,"is_disabled":false,"rental_uris":{"android":"levelo://app?vid=d799b321-3a7d-4201-b46e-ffe2ad124f19","ios":"levelo://app?vid=d799b321-3a7d-4201-b46e-ffe2ad124f19"},"vehicle_type_id":"4","last_reported":1751627380,"current_range_meters":9600,"station_id":"","pricing_plan_id":"cebpf4jnsgd1na2vs0mg"},{"bike_id":"b4b048ba-808a-4164-9b91-96c2f187f3a7","system_id":"levelo_inurba_marseille","lat":43.28666,"lon":5.36353,"is_reserved":false,"is_disabled":false,"rental_uris":{"android":"levelo://app?vid=b4b048ba-808a-4164-9b91-96c2f187f3a7","ios":"levelo://app?vid=b4b048ba-808a-4164-9b91-96c2f187f3a7"},"vehicle_type_id":"4","last_reported":1751627380,"current_range_meters":9600,"station_id":"ce4bhah2rcd13ifvqej0","pricing_plan_id":"cebpf4jnsgd1na2vs0mg"},{"bike_id":"aaa40a2f-5137-4631-ac61-aba8086bdeb7","system_id":"levelo_inurba_marseille","lat":43.26561,"lon":5.37284,"is_reserved":false,"is_disabled":false,"rental_uris":{"android":"levelo://app?vid=aaa40a2f-5137-4631-ac61-aba8086bdeb7","ios":"levelo://app?vid=aaa40a2f-5137-4631-ac61-aba8086bdeb7"},"vehicle_type_id":"4","last_reported":1751627380,"current_range_meters":9600,"station_id":"ce4bhg12rcd13ifvqf70","pricing_plan_id":"cebpf4jnsgd1na2vs0mg"},{"bike_id":"abbb5c70-11c4-49de-bb35-66ca45eb3c4b","system_id":"levelo_inurba_marseille","lat":43.31757,"lon":5.39017,"is_reserved":false,"is_disabled":false,"rental_uris":{"android":"levelo://app?vid=abbb5c70-11c4-49de-bb35-66ca45eb3c4b","ios":"levelo://app?vid=abbb5c70-11c4-49de-bb35-66ca45eb3c4b"},"vehicle_type_id":"4","last_reported":1751627380,"current_range_meters":9600,"station_id":"ce4bhqp2rcd13ifvqhng","pricing_plan_id":"cebpf4jnsgd1na2vs0mg"},{"bike_id":"6250a6b1-d89a-49e9-9889-c437816ac58c","system_id":"levelo_inurba_marseille","lat":43.29369,"lon":5.37841,"is_reserved":false,"is_disabled":false,"rental_uris":{"android":"levelo://app?vid=6250a6b1-d89a-49e9-9889-c437816ac58c","ios":"levelo://app?vid=6250a6b1-d89a-49e9-9889-c437816ac58c"},"vehicle_type_id":"4","last_reported":1751627380,"current_range_meters":10000,"station_id":"ce4bgjh2rcd13ifvqbf0","pricing_plan_id":"cebpf4jnsgd1na2vs0mg"},{"bike_id":"8165c8ec-0a49-4c00-9e77-79f286335faf","system_id":"levelo_inurba_marseille","lat":43.23144,"lon":5.43703,"is_reserved":false,"is_disabled":false,"rental_uris":{"android":"levelo://app?vid=8165c8ec-0a49-4c00-9e77-79f286335faf","ios":"levelo://app?vid=8165c8ec-0a49-4c00-9e77-79f286335faf"},"vehicle_type_id":"4","last_reported":1751627380,"current_range_meters":10000,"station_id":"ce4bhmp2rcd13ifvqgog","pricing_plan_id":"cebpf4jnsgd1na2vs0mg"},{"bike_id":"c76381fd-b6b9-4d02-a8a4-fd4e6891e706","system_id":"levelo_inurba_marseille","lat":43.30261,"lon":5.39054,"is_reserved":false,"is_disabled":false,"rental_uris":{"android":"levelo://app?vid=c76381fd-b6b9-4d02-a8a4-fd4e6891e706","ios":"levelo://app?vid=c76381fd-b6b9-4d02-a8a4-fd4e6891e706"},"vehicle_type_id":"4","last_reported":1751627380,"current_range_meters":10800,"station_id":"","pricing_plan_id":"cebpf4jnsgd1na2vs0mg"},{"bike_id":"833ff341-e98e-4980-8b26-be21dc6b9826","system_id":"levelo_inurba_marseille","lat":43.29248,"lon":5.3763,"is_reserved":false,"is_disabled":false,"rental_uris":{"android":"levelo://app?vid=833ff341-e98e-4980-8b26-be21dc6b9826","ios":"levelo://app?vid=833ff341-e98e-4980-8b26-be21dc6b9826"},"vehicle_type_id":"4","last_reported":1751627380,"current_range_meters":10800,"station_id":"ce4bgi12rcd13ifvqb80","pricing_plan_id":"cebpf4jnsgd1na2vs0mg"},{"bike_id":"d9cd356a-7515-45af-b094-9222aae45a27","system_id":"levelo_inurba_marseille","lat":43.30599,"lon":5.39365,"is_reserved":false,"is_disabled":false,"rental_uris":{"android":"levelo://app?vid=d9cd356a-7515-45af-b094-9222aae45a27","ios":"levelo://app?vid=d9cd356a-7515-45af-b094-9222aae45a27"},"vehicle_type_id":"4","last_reported":1751627380,"current_range_meters":10800,"station_id":"ce4bh0p2rcd13ifvqd80","pricing_plan_id":"cebpf4jnsgd1na2vs0mg"},{"bike_id":"204785aa-85da-4892-954c-37db8a355b1c","system_id":"levelo_inurba_marseille","lat":43.2884,"lon":5.39307,"is_reserved":false,"is_disabled":false,"rental_uris":{"android":"levelo://app?vid=204785aa-85da-4892-954c-37db8a355b1c","ios":"levelo://app?vid=204785aa-85da-4892-954c-37db8a355b1c"},"vehicle_type_id":"4","last_reported":1751627380,"current_range_meters":10800,"station_id":"ce4bh2p2rcd13ifvqdi0","pricing_plan_id":"cebpf4jnsgd1na2vs0mg"},{"bike_id":"26f5abbc-992e-44dc-9627-a810c87833f2","system_id":"levelo_inurba_marseille","lat":43.28156,"lon":5.42646,"is_reserved":false,"is_disabled":false,"rental_uris":{"android":"levelo://app?vid=26f5abbc-992e-44dc-9627-a810c87833f2","ios":"levelo://app?vid=26f5abbc-992e-44dc-9627-a810c87833f2"},"vehicle_type_id":"4","last_reported":1751627380,"current_range_meters":10800,"station_id":"ce4bhnh2rcd13ifvqgug","pricing_plan_id":"cebpf4jnsgd1na2vs0mg"},{"bike_id":"9d8ec144-e015-4792-8a88-e67325a34e7d","system_id":"levelo_inurba_marseille","lat":43.32458,"lon":5.36578,"is_reserved":false,"is_disabled":false,"rental_uris":{"android":"levelo://app?vid=9d8ec144-e015-4792-8a88-e67325a34e7d","ios":"levelo://app?vid=9d8ec144-e015-4792-8a88-e67325a34e7d"},"vehicle_type_id":"4","last_reported":1751627380,"current_range_meters":10800,"station_id":"ce4bhs12rcd13ifvqhvg","pricing_plan_id":"cebpf4jnsgd1na2vs0mg"},{"bike_id":"ba154a12-11bd-42a5-958a-5992f5d043d1","system_id":"levelo_inurba_marseille","lat":43.30507,"lon":5.37066,"is_reserved":false,"is_disabled":false,"rental_uris":{"android":"levelo://app?vid=ba154a12-11bd-42a5-958a-5992f5d043d1","ios":"levelo://app?vid=ba154a12-11bd-42a5-958a-5992f5d043d1"},"vehicle_type_id":"4","last_reported":1751627380,"current_range_meters":11200,"station_id":"","pricing_plan_id":"cebpf4jnsgd1na2vs0mg"},{"bike_id":"58499af8-5cb1-4bec-ab39-bcbdc7e69fcf","system_id":"levelo_inurba_marseille","lat":43.2897,"lon":5.37832,"is_reserved":false,"is_disabled":false,"rental_uris":{"android":"levelo://app?vid=58499af8-5cb1-4bec-ab39-bcbdc7e69fcf","ios":"levelo://app?vid=58499af8-5cb1-4bec-ab39-bcbdc7e69fcf"},"vehicle_type_id":"4","last_reported":1751627380,"current_range_meters":11200,"station_id":"ce4bh9p2rcd13ifvqed0","pricing_plan_id":"cebpf4jnsgd1na2vs0mg"},{"bike_id":"1f042077-9111-4c0e-be1d-86eac444e97c","system_id":"levelo_inurba_marseille","lat":43.29007,"lon":5.35614,"is_reserved":false,"is_disabled":false,"rental_uris":{"android":"levelo://app?vid=1f042077-9111-4c0e-be1d-86eac444e97c","ios":"levelo://app?vid=1f042077-9111-4c0e-be1d-86eac444e97c"},"vehicle_type_id":"4","last_reported":1751627380,"current_range_meters":11200,"station_id":"ce4bhb92rcd13ifvqen0","pricing_plan_id":"cebpf4jnsgd1na2vs0mg"},{"bike_id":"a10f52d5-f0b3-4e38-8e1b-891c225cb35e","system_id":"levelo_inurba_marseille","lat":43.21181,"lon":5.35096,"is_reserved":false,"is_disabled":false,"rental_uris":{"android":"levelo://app?vid=a10f52d5-f0b3-4e38-8e1b-891c225cb35e","ios":"levelo://app?vid=a10f52d5-f0b3-4e38-8e1b-891c225cb35e"},"vehicle_type_id":"4","last_reported":1751627380,"current_range_meters":11200,"station_id":"st_cvj6sg6p6f1abm77japg","pricing_plan_id":"cebpf4jnsgd1na2vs0mg"},{"bike_id":"976b10d9-3d1e-4eda-b328-4bf96645f366","system_id":"levelo_inurba_marseille","lat":43.29794,"lon":5.38094,"is_reserved":false,"is_disabled":false,"rental_uris":{"android":"levelo://app?vid=976b10d9-3d1e-4eda-b328-4bf96645f366","ios":"levelo://app?vid=976b10d9-3d1e-4eda-b328-4bf96645f366"},"vehicle_type_id":"4","last_reported":1751627380,"current_range_meters":11600,"station_id":"ce4bgip2rcd13ifvqbb0","pricing_plan_id":"cebpf4jnsgd1na2vs0mg"},{"bike_id":"22e0a0f6-9438-4607-b107-9b3fb72921b2","system_id":"levelo_inurba_marseille","lat":43.29229,"lon":5.36065,"is_reserved":false,"is_disabled":false,"rental_uris":{"android":"levelo://app?vid=22e0a0f6-9438-4607-b107-9b3fb72921b2","ios":"levelo://app?vid=22e0a0f6-9438-4607-b107-9b3fb72921b2"},"vehicle_type_id":"4","last_reported":1751627380,"current_range_meters":11600,"station_id":"ce4bhbh2rcd13ifvqeqg","pricing_plan_id":"cebpf4jnsgd1na2vs0mg"},{"bike_id":"49e967e0-65d9-4e05-9d92-9cd8a9ebc5d3","system_id":"levelo_inurba_marseille","lat":43.25008,"lon":5.38908,"is_reserved":false,"is_disabled":false,"rental_uris":{"android":"levelo://app?vid=49e967e0-65d9-4e05-9d92-9cd8a9ebc5d3","ios":"levelo://app?vid=49e967e0-65d9-4e05-9d92-9cd8a9ebc5d3"},"vehicle_type_id":"4","last_reported":1751627380,"current_range_meters":11600,"station_id":"ce4bhgp2rcd13ifvqfd0","pricing_plan_id":"cebpf4jnsgd1na2vs0mg"},{"bike_id":"ce91fdec-53d6-49af-b164-e4ddfa1bbb6d","system_id":"levelo_inurba_marseille","lat":43.25727,"lon":5.41103,"is_reserved":false,"is_disabled":false,"rental_uris":{"android":"levelo://app?vid=ce91fdec-53d6-49af-b164-e4ddfa1bbb6d","ios":"levelo://app?vid=ce91fdec-53d6-49af-b164-e4ddfa1bbb6d"},"vehicle_type_id":"4","last_reported":1751627380,"current_range_meters":11600,"station_id":"ce4bhkp2rcd13ifvqgd0","pricing_plan_id":"cebpf4jnsgd1na2vs0mg"},{"bike_id":"70ca7edc-6929-4183-8164-7e1d9218469f","system_id":"levelo_inurba_marseille","lat":43.27809,"lon":5.40719,"is_reserved":false,"is_disabled":false,"rental_uris":{"android":"levelo://app?vid=70ca7edc-6929-4183-8164-7e1d9218469f","ios":"levelo://app?vid=70ca7edc-6929-4183-8164-7e1d9218469f"},"vehicle_type_id":"4","last_reported":1751627380,"current_range_meters":11600,"station_id":"ce4bhnh2rcd13ifvqgtg","pricing_plan_id":"cebpf4jnsgd1na2vs0mg"},{"bike_id":"2df6c30f-97dd-48eb-9e07-ebd8b47139f1","system_id":"levelo_inurba_marseille","lat":43.26567,"lon":5.39011,"is_reserved":false,"is_disabled":false,"rental_uris":{"android":"levelo://app?vid=2df6c30f-97dd-48eb-9e07-ebd8b47139f1","ios":"levelo://app?vid=2df6c30f-97dd-48eb-9e07-ebd8b47139f1"},"vehicle_type_id":"4","last_reported":1751627380,"current_range_meters":12000,"station_id":"ce4bhe12rcd13ifvqf30","pricing_plan_id":"cebpf4jnsgd1na2vs0mg"},{"bike_id":"a201c986-8a12-4960-bcc8-f2c379ceddde","system_id":"levelo_inurba_marseille","lat":43.26588,"lon":5.3903,"is_reserved":false,"is_disabled":false,"rental_uris":{"android":"levelo://app?vid=a201c986-8a12-4960-bcc8-f2c379ceddde","ios":"levelo://app?vid=a201c986-8a12-4960-bcc8-f2c379ceddde"},"vehicle_type_id":"4","last_reported":1751627380,"current_range_meters":12000,"station_id":"ce4bhe12rcd13ifvqf30","pricing_plan_id":"cebpf4jnsgd1na2vs0mg"},{"bike_id":"0c4b7fdb-b39e-49b3-a2b0-ae3d0f43e89d","system_id":"levelo_inurba_marseille","lat":43.32899,"lon":5.40586,"is_reserved":false,"is_disabled":false,"rental_uris":{"android":"levelo://app?vid=0c4b7fdb-b39e-49b3-a2b0-ae3d0f43e89d","ios":"levelo://app?vid=0c4b7fdb-b39e-49b3-a2b0-ae3d0f43e89d"},"vehicle_type_id":"4","last_reported":1751627380,"current_range_meters":12400,"station_id":"","pricing_plan_id":"cebpf4jnsgd1na2vs0mg"},{"bike_id":"175513bb-dce2-48e2-83c8-1e9f1cb23cd0","system_id":"levelo_inurba_marseille","lat":43.286255,"lon":5.412651,"is_reserved":false,"is_disabled":false,"rental_uris":{"android":"levelo://app?vid=175513bb-dce2-48e2-83c8-1e9f1cb23cd0","ios":"levelo://app?vid=175513bb-dce2-48e2-83c8-1e9f1cb23cd0"},"vehicle_type_id":"4","last_reported":1751627380,"current_range_meters":12400,"station_id":"","pricing_plan_id":"cebpf4jnsgd1na2vs0mg"},{"bike_id":"8666bd5e-a96e-4716-8541-5a3f3562d8dd","system_id":"levelo_inurba_marseille","lat":43.337444,"lon":5.374475,"is_reserved":false,"is_disabled":false,"rental_uris":{"android":"levelo://app?vid=8666bd5e-a96e-4716-8541-5a3f3562d8dd","ios":"levelo://app?vid=8666bd5e-a96e-4716-8541-5a3f3562d8dd"},"vehicle_type_id":"4","last_reported":1751627380,"current_range_meters":12800,"station_id":"","pricing_plan_id":"cebpf4jnsgd1na2vs0mg"},{"bike_id":"43b8b648-960e-46ea-bfad-839bb09cb576","system_id":"levelo_inurba_marseille","lat":43.262047,"lon":5.370627,"is_reserved":false,"is_disabled":false,"rental_uris":{"android":"levelo://app?vid=43b8b648-960e-46ea-bfad-839bb09cb576","ios":"levelo://app?vid=43b8b648-960e-46ea-bfad-839bb09cb576"},"vehicle_type_id":"4","last_reported":1751627380,"current_range_meters":12800,"station_id":"","pricing_plan_id":"cebpf4jnsgd1na2vs0mg"},{"bike_id":"6d6489e9-c4dc-4dca-acd1-870cc23810f4","system_id":"levelo_inurba_marseille","lat":43.31225,"lon":5.36861,"is_reserved":false,"is_disabled":false,"rental_uris":{"android":"levelo://app?vid=6d6489e9-c4dc-4dca-acd1-870cc23810f4","ios":"levelo://app?vid=6d6489e9-c4dc-4dca-acd1-870cc23810f4"},"vehicle_type_id":"4","last_reported":1751627380,"current_range_meters":12800,"station_id":"ce4bgl92rcd13ifvqbq0","pricing_plan_id":"cebpf4jnsgd1na2vs0mg"},{"bike_id":"17bbba49-1225-4b76-9710-bd3e4a04da0e","system_id":"levelo_inurba_marseille","lat":43.266809,"lon":5.382689,"is_reserved":false,"is_disabled":false,"rental_uris":{"android":"levelo://app?vid=17bbba49-1225-4b76-9710-bd3e4a04da0e","ios":"levelo://app?vid=17bbba49-1225-4b76-9710-bd3e4a04da0e"},"vehicle_type_id":"4","last_reported":1751627380,"current_range_meters":12800,"station_id":"ce4bhg92rcd13ifvqf90","pricing_plan_id":"cebpf4jnsgd1na2vs0mg"},{"bike_id":"91e59c2f-2410-4bc3-9d5f-b9f81a7eb2c0","system_id":"levelo_inurba_marseille","lat":43.32532,"lon":5.41467,"is_reserved":false,"is_disabled":false,"rental_uris":{"android":"levelo://app?vid=91e59c2f-2410-4bc3-9d5f-b9f81a7eb2c0","ios":"levelo://app?vid=91e59c2f-2410-4bc3-9d5f-b9f81a7eb2c0"},"vehicle_type_id":"4","last_reported":1751627380,"current_range_meters":12800,"station_id":"ce4bhq12rcd13ifvqhhg","pricing_plan_id":"cebpf4jnsgd1na2vs0mg"},{"bike_id":"38851be0-356e-4310-9d28-51e848d0ecda","system_id":"levelo_inurba_marseille","lat":43.29367,"lon":5.37836,"is_reserved":false,"is_disabled":false,"rental_uris":{"android":"levelo://app?vid=38851be0-356e-4310-9d28-51e848d0ecda","ios":"levelo://app?vid=38851be0-356e-4310-9d28-51e848d0ecda"},"vehicle_type_id":"4","last_reported":1751627380,"current_range_meters":13600,"station_id":"ce4bgjh2rcd13ifvqbf0","pricing_plan_id":"cebpf4jnsgd1na2vs0mg"},{"bike_id":"54c1120e-bf7c-4f70-97df-be4c2f4e0282","system_id":"levelo_inurba_marseille","lat":43.26558,"lon":5.37282,"is_reserved":false,"is_disabled":false,"rental_uris":{"android":"levelo://app?vid=54c1120e-bf7c-4f70-97df-be4c2f4e0282","ios":"levelo://app?vid=54c1120e-bf7c-4f70-97df-be4c2f4e0282"},"vehicle_type_id":"4","last_reported":1751627380,"current_range_meters":13600,"station_id":"ce4bhg12rcd13ifvqf70","pricing_plan_id":"cebpf4jnsgd1na2vs0mg"},{"bike_id":"16b55afb-f149-4cf5-98f7-2a72491d95e3","system_id":"levelo_inurba_marseille","lat":43.32541,"lon":5.41425,"is_reserved":false,"is_disabled":false,"rental_uris":{"android":"levelo://app?vid=16b55afb-f149-4cf5-98f7-2a72491d95e3","ios":"levelo://app?vid=16b55afb-f149-4cf5-98f7-2a72491d95e3"},"vehicle_type_id":"4","last_reported":1751627380,"current_range_meters":13600,"station_id":"ce4bhq12rcd13ifvqhhg","pricing_plan_id":"cebpf4jnsgd1na2vs0mg"},{"bike_id":"5e197122-e8ec-4f01-b370-6bbfc10c6950","system_id":"levelo_inurba_marseille","lat":43.21184,"lon":5.35076,"is_reserved":false,"is_disabled":false,"rental_uris":{"android":"levelo://app?vid=5e197122-e8ec-4f01-b370-6bbfc10c6950","ios":"levelo://app?vid=5e197122-e8ec-4f01-b370-6bbfc10c6950"},"vehicle_type_id":"4","last_reported":1751627380,"current_range_meters":13600,"station_id":"st_cvj6sg6p6f1abm77japg","pricing_plan_id":"cebpf4jnsgd1na2vs0mg"},{"bike_id":"6eebadd3-99fa-48af-8556-1f64731f83a2","system_id":"levelo_inurba_marseille","lat":43.23087,"lon":5.35532,"is_reserved":false,"is_disabled":false,"rental_uris":{"android":"levelo://app?vid=6eebadd3-99fa-48af-8556-1f64731f83a2","ios":"levelo://app?vid=6eebadd3-99fa-48af-8556-1f64731f83a2"},"vehicle_type_id":"4","last_reported":1751627380,"current_range_meters":14000,"station_id":"","pricing_plan_id":"cebpf4jnsgd1na2vs0mg"},{"bike_id":"6e703efe-d004-492b-a4e1-8f9a45caf618","system_id":"levelo_inurba_marseille","lat":43.303853,"lon":5.424868,"is_reserved":false,"is_disabled":false,"rental_uris":{"android":"levelo://app?vid=6e703efe-d004-492b-a4e1-8f9a45caf618","ios":"levelo://app?vid=6e703efe-d004-492b-a4e1-8f9a45caf618"},"vehicle_type_id":"4","last_reported":1751627380,"current_range_meters":14000,"station_id":"ce4bghh2rcd13ifvqb60","pricing_plan_id":"cebpf4jnsgd1na2vs0mg"},{"bike_id":"9fb6307d-39d1-45f1-b1c1-1f3c8f526f4a","system_id":"levelo_inurba_marseille","lat":43.29533,"lon":5.38553,"is_reserved":false,"is_disabled":false,"rental_uris":{"android":"levelo://app?vid=9fb6307d-39d1-45f1-b1c1-1f3c8f526f4a","ios":"levelo://app?vid=9fb6307d-39d1-45f1-b1c1-1f3c8f526f4a"},"vehicle_type_id":"4","last_reported":1751627380,"current_range_meters":14000,"station_id":"ce4bgih2rcd13ifvqba0","pricing_plan_id":"cebpf4jnsgd1na2vs0mg"},{"bike_id":"df8334f1-5854-4f04-83d4-f882a7cf6b67","system_id":"levelo_inurba_marseille","lat":43.30544,"lon":5.36538,"is_reserved":false,"is_disabled":false,"rental_uris":{"android":"levelo://app?vid=df8334f1-5854-4f04-83d4-f882a7cf6b67","ios":"levelo://app?vid=df8334f1-5854-4f04-83d4-f882a7cf6b67"},"vehicle_type_id":"4","last_reported":1751627380,"current_range_meters":14000,"station_id":"ce4bgs12rcd13ifvqcag","pricing_plan_id":"cebpf4jnsgd1na2vs0mg"},{"bike_id":"79f47d5d-4ca8-4156-8f71-5637ac895016","system_id":"levelo_inurba_marseille","lat":43.283447,"lon":5.381003,"is_reserved":false,"is_disabled":false,"rental_uris":{"android":"levelo://app?vid=79f47d5d-4ca8-4156-8f71-5637ac895016","ios":"levelo://app?vid=79f47d5d-4ca8-4156-8f71-5637ac895016"},"vehicle_type_id":"4","last_reported":1751627380,"current_range_meters":14000,"station_id":"ce4bh412rcd13ifvqdr0","pricing_plan_id":"cebpf4jnsgd1na2vs0mg"},{"bike_id":"f180b4cb-724c-4dd7-90c4-ef2fbf955905","system_id":"levelo_inurba_marseille","lat":43.2904,"lon":5.38671,"is_reserved":false,"is_disabled":false,"rental_uris":{"android":"levelo://app?vid=f180b4cb-724c-4dd7-90c4-ef2fbf955905","ios":"levelo://app?vid=f180b4cb-724c-4dd7-90c4-ef2fbf955905"},"vehicle_type_id":"4","last_reported":1751627380,"current_range_meters":14000,"station_id":"ce4bh4p2rcd13ifvqe0g","pricing_plan_id":"cebpf4jnsgd1na2vs0mg"},{"bike_id":"eb1f55ce-b74e-4c36-a294-860b01d726c9","system_id":"levelo_inurba_marseille","lat":43.286158,"lon":5.351023,"is_reserved":false,"is_disabled":false,"rental_uris":{"android":"levelo://app?vid=eb1f55ce-b74e-4c36-a294-860b01d726c9","ios":"levelo://app?vid=eb1f55ce-b74e-4c36-a294-860b01d726c9"},"vehicle_type_id":"4","last_reported":1751627380,"current_range_meters":14000,"station_id":"ce4bhch2rcd13ifvqeug","pricing_plan_id":"cebpf4jnsgd1na2vs0mg"},{"bike_id":"d5a7b043-e210-4dd7-a0f0-35fb21054c8c","system_id":"levelo_inurba_marseille","lat":43.23152,"lon":5.43717,"is_reserved":false,"is_disabled":false,"rental_uris":{"android":"levelo://app?vid=d5a7b043-e210-4dd7-a0f0-35fb21054c8c","ios":"levelo://app?vid=d5a7b043-e210-4dd7-a0f0-35fb21054c8c"},"vehicle_type_id":"4","last_reported":1751627380,"current_range_meters":14000,"station_id":"ce4bhmp2rcd13ifvqgog","pricing_plan_id":"cebpf4jnsgd1na2vs0mg"},{"bike_id":"d7d5b776-bcc7-423d-8a89-6abd09a6c07c","system_id":"levelo_inurba_marseille","lat":43.24157,"lon":5.3642,"is_reserved":false,"is_disabled":false,"rental_uris":{"android":"levelo://app?vid=d7d5b776-bcc7-423d-8a89-6abd09a6c07c","ios":"levelo://app?vid=d7d5b776-bcc7-423d-8a89-6abd09a6c07c"},"vehicle_type_id":"4","last_reported":1751627380,"current_range_meters":14000,"station_id":"cpo36qri1sfpv3e86is0","pricing_plan_id":"cebpf4jnsgd1na2vs0mg"},{"bike_id":"62d894a9-49a7-4047-9b1e-68c4f6b28f0b","system_id":"levelo_inurba_marseille","lat":43.29522,"lon":5.37504,"is_reserved":false,"is_disabled":false,"rental_uris":{"android":"levelo://app?vid=62d894a9-49a7-4047-9b1e-68c4f6b28f0b","ios":"levelo://app?vid=62d894a9-49a7-4047-9b1e-68c4f6b28f0b"},"vehicle_type_id":"4","last_reported":1751627380,"current_range_meters":14400,"station_id":"ce4bgkp2rcd13ifvqbmg","pricing_plan_id":"cebpf4jnsgd1na2vs0mg"},{"bike_id":"3b611aa5-8130-49fe-a7f9-24f1d46f0dd8","system_id":"levelo_inurba_marseille","lat":43.30546,"lon":5.36715,"is_reserved":false,"is_disabled":false,"rental_uris":{"android":"levelo://app?vid=3b611aa5-8130-49fe-a7f9-24f1d46f0dd8","ios":"levelo://app?vid=3b611aa5-8130-49fe-a7f9-24f1d46f0dd8"},"vehicle_type_id":"4","last_reported":1751627380,"current_range_meters":14400,"station_id":"ce4bgrp2rcd13ifvqc9g","pricing_plan_id":"cebpf4jnsgd1na2vs0mg"},{"bike_id":"9c19f28e-d473-4f99-970d-c68304be080e","system_id":"levelo_inurba_marseille","lat":43.24815,"lon":5.37465,"is_reserved":false,"is_disabled":false,"rental_uris":{"android":"levelo://app?vid=9c19f28e-d473-4f99-970d-c68304be080e","ios":"levelo://app?vid=9c19f28e-d473-4f99-970d-c68304be080e"},"vehicle_type_id":"4","last_reported":1751627380,"current_range_meters":14400,"station_id":"ce4bhgh2rcd13ifvqfb0","pricing_plan_id":"cebpf4jnsgd1na2vs0mg"},{"bike_id":"9c9df26d-0f90-4acc-b196-d64e2ead2aa6","system_id":"levelo_inurba_marseille","lat":43.25494,"lon":5.37676,"is_reserved":false,"is_disabled":false,"rental_uris":{"android":"levelo://app?vid=9c9df26d-0f90-4acc-b196-d64e2ead2aa6","ios":"levelo://app?vid=9c9df26d-0f90-4acc-b196-d64e2ead2aa6"},"vehicle_type_id":"4","last_reported":1751627380,"current_range_meters":14400,"station_id":"ce4bhh12rcd13ifvqff0","pricing_plan_id":"cebpf4jnsgd1na2vs0mg"},{"bike_id":"52f358e1-45c9-4eb4-9285-98f1dd51faf8","system_id":"levelo_inurba_marseille","lat":43.269593,"lon":5.386596,"is_reserved":false,"is_disabled":false,"rental_uris":{"android":"levelo://app?vid=52f358e1-45c9-4eb4-9285-98f1dd51faf8","ios":"levelo://app?vid=52f358e1-45c9-4eb4-9285-98f1dd51faf8"},"vehicle_type_id":"4","last_reported":1751627380,"current_range_meters":14400,"station_id":"ce4bhh92rcd13ifvqfh0","pricing_plan_id":"cebpf4jnsgd1na2vs0mg"},{"bike_id":"4d2c5f6a-380d-43fc-b259-d1f683bd5b74","system_id":"levelo_inurba_marseille","lat":43.25727,"lon":5.41105,"is_reserved":false,"is_disabled":false,"rental_uris":{"android":"levelo://app?vid=4d2c5f6a-380d-43fc-b259-d1f683bd5b74","ios":"levelo://app?vid=4d2c5f6a-380d-43fc-b259-d1f683bd5b74"},"vehicle_type_id":"4","last_reported":1751627380,"current_range_meters":14400,"station_id":"ce4bhkp2rcd13ifvqgd0","pricing_plan_id":"cebpf4jnsgd1na2vs0mg"},{"bike_id":"2269140f-4ec7-4a6a-8b17-343f459ef511","system_id":"levelo_inurba_marseille","lat":43.33612,"lon":5.41008,"is_reserved":false,"is_disabled":false,"rental_uris":{"android":"levelo://app?vid=2269140f-4ec7-4a6a-8b17-343f459ef511","ios":"levelo://app?vid=2269140f-4ec7-4a6a-8b17-343f459ef511"},"vehicle_type_id":"4","last_reported":1751627380,"current_range_meters":14400,"station_id":"ce4bhqh2rcd13ifvqhmg","pricing_plan_id":"cebpf4jnsgd1na2vs0mg"},{"bike_id":"1c8ab180-05fd-405f-9922-b2b2c2d5142f","system_id":"levelo_inurba_marseille","lat":43.33799,"lon":5.38093,"is_reserved":false,"is_disabled":false,"rental_uris":{"android":"levelo://app?vid=1c8ab180-05fd-405f-9922-b2b2c2d5142f","ios":"levelo://app?vid=1c8ab180-05fd-405f-9922-b2b2c2d5142f"},"vehicle_type_id":"4","last_reported":1751627380,"current_range_meters":14800,"station_id":"","pricing_plan_id":"cebpf4jnsgd1na2vs0mg"},{"bike_id":"95a38d1d-f030-4f10-9b69-0a490dfdd936","system_id":"levelo_inurba_marseille","lat":43.30547,"lon":5.36693,"is_reserved":false,"is_disabled":false,"rental_uris":{"android":"levelo://app?vid=95a38d1d-f030-4f10-9b69-0a490dfdd936","ios":"levelo://app?vid=95a38d1d-f030-4f10-9b69-0a490dfdd936"},"vehicle_type_id":"4","last_reported":1751627380,"current_range_meters":14800,"station_id":"ce4bgrp2rcd13ifvqc9g","pricing_plan_id":"cebpf4jnsgd1na2vs0mg"},{"bike_id":"71ad50c2-6439-4882-ac6a-d7007b7c69b4","system_id":"levelo_inurba_marseille","lat":43.29197,"lon":5.35796,"is_reserved":false,"is_disabled":false,"rental_uris":{"android":"levelo://app?vid=71ad50c2-6439-4882-ac6a-d7007b7c69b4","ios":"levelo://app?vid=71ad50c2-6439-4882-ac6a-d7007b7c69b4"},"vehicle_type_id":"4","last_reported":1751627380,"current_range_meters":14800,"station_id":"ce4bhb12rcd13ifvqel0","pricing_plan_id":"cebpf4jnsgd1na2vs0mg"},{"bike_id":"6e53045f-d1dc-4bb7-b7a9-ce0a28e6a2af","system_id":"levelo_inurba_marseille","lat":43.28266,"lon":5.35062,"is_reserved":false,"is_disabled":false,"rental_uris":{"android":"levelo://app?vid=6e53045f-d1dc-4bb7-b7a9-ce0a28e6a2af","ios":"levelo://app?vid=6e53045f-d1dc-4bb7-b7a9-ce0a28e6a2af"},"vehicle_type_id":"4","last_reported":1751627380,"current_range_meters":15200,"station_id":"ce4bhbp2rcd13ifvqerg","pricing_plan_id":"cebpf4jnsgd1na2vs0mg"},{"bike_id":"62e288d8-e99a-4ebc-a826-066ab28ebb35","system_id":"levelo_inurba_marseille","lat":43.308,"lon":5.43529,"is_reserved":false,"is_disabled":false,"rental_uris":{"android":"levelo://app?vid=62e288d8-e99a-4ebc-a826-066ab28ebb35","ios":"levelo://app?vid=62e288d8-e99a-4ebc-a826-066ab28ebb35"},"vehicle_type_id":"4","last_reported":1751627380,"current_range_meters":15200,"station_id":"ce4bhph2rcd13ifvqheg","pricing_plan_id":"cebpf4jnsgd1na2vs0mg"},{"bike_id":"b6e6fee9-1e3c-4d42-b606-8cdcbfda921c","system_id":"levelo_inurba_marseille","lat":43.279351,"lon":5.387716,"is_reserved":false,"is_disabled":false,"rental_uris":{"android":"levelo://app?vid=b6e6fee9-1e3c-4d42-b606-8cdcbfda921c","ios":"levelo://app?vid=b6e6fee9-1e3c-4d42-b606-8cdcbfda921c"},"vehicle_type_id":"4","last_reported":1751627380,"current_range_meters":16000,"station_id":"ce4bgih2rcd13ifvqba0","pricing_plan_id":"cebpf4jnsgd1na2vs0mg"},{"bike_id":"de92352c-fe58-42d6-9c66-eb3c0e72a3f0","system_id":"levelo_inurba_marseille","lat":43.30544,"lon":5.36552,"is_reserved":false,"is_disabled":false,"rental_uris":{"android":"levelo://app?vid=de92352c-fe58-42d6-9c66-eb3c0e72a3f0","ios":"levelo://app?vid=de92352c-fe58-42d6-9c66-eb3c0e72a3f0"},"vehicle_type_id":"4","last_reported":1751627380,"current_range_meters":16000,"station_id":"ce4bgs12rcd13ifvqcag","pricing_plan_id":"cebpf4jnsgd1na2vs0mg"},{"bike_id":"4f1d6c13-00c2-40ef-92ca-fb7483e6506d","system_id":"levelo_inurba_marseille","lat":43.30429,"lon":5.39747,"is_reserved":false,"is_disabled":false,"rental_uris":{"android":"levelo://app?vid=4f1d6c13-00c2-40ef-92ca-fb7483e6506d","ios":"levelo://app?vid=4f1d6c13-00c2-40ef-92ca-fb7483e6506d"},"vehicle_type_id":"4","last_reported":1751627380,"current_range_meters":16000,"station_id":"ce4bh092rcd13ifvqd20","pricing_plan_id":"cebpf4jnsgd1na2vs0mg"},{"bike_id":"61f0683f-a618-4ae4-9714-46aee538c479","system_id":"levelo_inurba_marseille","lat":43.27426,"lon":5.39421,"is_reserved":false,"is_disabled":false,"rental_uris":{"android":"levelo://app?vid=61f0683f-a618-4ae4-9714-46aee538c479","ios":"levelo://app?vid=61f0683f-a618-4ae4-9714-46aee538c479"},"vehicle_type_id":"4","last_reported":1751627380,"current_range_meters":16000,"station_id":"ce4bhdp2rcd13ifvqf20","pricing_plan_id":"cebpf4jnsgd1na2vs0mg"},{"bike_id":"e6645133-5b2c-4159-9eb9-e536db5cc1c7","system_id":"levelo_inurba_marseille","lat":43.23177,"lon":5.43657,"is_reserved":false,"is_disabled":false,"rental_uris":{"android":"levelo://app?vid=e6645133-5b2c-4159-9eb9-e536db5cc1c7","ios":"levelo://app?vid=e6645133-5b2c-4159-9eb9-e536db5cc1c7"},"vehicle_type_id":"4","last_reported":1751627380,"current_range_meters":16000,"station_id":"ce4bhmp2rcd13ifvqgog","pricing_plan_id":"cebpf4jnsgd1na2vs0mg"},{"bike_id":"2c8d6737-b89d-408d-8770-af93b507a41f","system_id":"levelo_inurba_marseille","lat":43.301263,"lon":5.400309,"is_reserved":false,"is_disabled":false,"rental_uris":{"android":"levelo://app?vid=2c8d6737-b89d-408d-8770-af93b507a41f","ios":"levelo://app?vid=2c8d6737-b89d-408d-8770-af93b507a41f"},"vehicle_type_id":"4","last_reported":1751627380,"current_range_meters":16400,"station_id":"","pricing_plan_id":"cebpf4jnsgd1na2vs0mg"},{"bike_id":"cdb06578-ef80-4c61-bca2-4d9fb605339f","system_id":"levelo_inurba_marseille","lat":43.29969,"lon":5.38493,"is_reserved":false,"is_disabled":false,"rental_uris":{"android":"levelo://app?vid=cdb06578-ef80-4c61-bca2-4d9fb605339f","ios":"levelo://app?vid=cdb06578-ef80-4c61-bca2-4d9fb605339f"},"vehicle_type_id":"4","last_reported":1751627380,"current_range_meters":16400,"station_id":"ce4bgj92rcd13ifvqbd0","pricing_plan_id":"cebpf4jnsgd1na2vs0mg"},{"bike_id":"8ce059c6-943f-4088-8f5e-2a90844178c5","system_id":"levelo_inurba_marseille","lat":43.24647,"lon":5.3889,"is_reserved":false,"is_disabled":false,"rental_uris":{"android":"levelo://app?vid=8ce059c6-943f-4088-8f5e-2a90844178c5","ios":"levelo://app?vid=8ce059c6-943f-4088-8f5e-2a90844178c5"},"vehicle_type_id":"4","last_reported":1751627380,"current_range_meters":16400,"station_id":"ce4bhg12rcd13ifvqf60","pricing_plan_id":"cebpf4jnsgd1na2vs0mg"},{"bike_id":"11069914-c649-4cdd-b0cf-b4577e6037a4","system_id":"levelo_inurba_marseille","lat":43.266841,"lon":5.382536,"is_reserved":false,"is_disabled":false,"rental_uris":{"android":"levelo://app?vid=11069914-c649-4cdd-b0cf-b4577e6037a4","ios":"levelo://app?vid=11069914-c649-4cdd-b0cf-b4577e6037a4"},"vehicle_type_id":"4","last_reported":1751627380,"current_range_meters":16400,"station_id":"ce4bhg92rcd13ifvqf90","pricing_plan_id":"cebpf4jnsgd1na2vs0mg"},{"bike_id":"ab0a75e3-78f4-434e-9932-16c1630ab198","system_id":"levelo_inurba_marseille","lat":43.24399,"lon":5.3704,"is_reserved":false,"is_disabled":false,"rental_uris":{"android":"levelo://app?vid=ab0a75e3-78f4-434e-9932-16c1630ab198","ios":"levelo://app?vid=ab0a75e3-78f4-434e-9932-16c1630ab198"},"vehicle_type_id":"4","last_reported":1751627380,"current_range_meters":16400,"station_id":"ce4bhhh2rcd13ifvqfk0","pricing_plan_id":"cebpf4jnsgd1na2vs0mg"},{"bike_id":"ce34f192-b753-4c40-b068-2b6be454c1c8","system_id":"levelo_inurba_marseille","lat":43.25084,"lon":5.3952,"is_reserved":false,"is_disabled":false,"rental_uris":{"android":"levelo://app?vid=ce34f192-b753-4c40-b068-2b6be454c1c8","ios":"levelo://app?vid=ce34f192-b753-4c40-b068-2b6be454c1c8"},"vehicle_type_id":"4","last_reported":1751627380,"current_range_meters":16400,"station_id":"ce4bhm12rcd13ifvqgkg","pricing_plan_id":"cebpf4jnsgd1na2vs0mg"},{"bike_id":"094015c2-44e4-40f7-a843-9cd2d9cb1f82","system_id":"levelo_inurba_marseille","lat":43.21751,"lon":5.34607,"is_reserved":false,"is_disabled":false,"rental_uris":{"android":"levelo://app?vid=094015c2-44e4-40f7-a843-9cd2d9cb1f82","ios":"levelo://app?vid=094015c2-44e4-40f7-a843-9cd2d9cb1f82"},"vehicle_type_id":"4","last_reported":1751627380,"current_range_meters":16400,"station_id":"st_cvj6r9ubvosntc0bgbag","pricing_plan_id":"cebpf4jnsgd1na2vs0mg"},{"bike_id":"9fd23e4f-0256-4154-a556-7f39a460d046","system_id":"levelo_inurba_marseille","lat":43.30348,"lon":5.37884,"is_reserved":false,"is_disabled":false,"rental_uris":{"android":"levelo://app?vid=9fd23e4f-0256-4154-a556-7f39a460d046","ios":"levelo://app?vid=9fd23e4f-0256-4154-a556-7f39a460d046"},"vehicle_type_id":"4","last_reported":1751627380,"current_range_meters":16800,"station_id":"","pricing_plan_id":"cebpf4jnsgd1na2vs0mg"},{"bike_id":"4b8da722-ee9e-48a4-a5e5-3a8a10364708","system_id":"levelo_inurba_marseille","lat":43.312244,"lon":5.378104,"is_reserved":false,"is_disabled":false,"rental_uris":{"android":"levelo://app?vid=4b8da722-ee9e-48a4-a5e5-3a8a10364708","ios":"levelo://app?vid=4b8da722-ee9e-48a4-a5e5-3a8a10364708"},"vehicle_type_id":"4","last_reported":1751627380,"current_range_meters":16800,"station_id":"","pricing_plan_id":"cebpf4jnsgd1na2vs0mg"},{"bike_id":"cad1cd7e-34ac-4400-83bd-503aa2619497","system_id":"levelo_inurba_marseille","lat":43.28424,"lon":5.34979,"is_reserved":false,"is_disabled":false,"rental_uris":{"android":"levelo://app?vid=cad1cd7e-34ac-4400-83bd-503aa2619497","ios":"levelo://app?vid=cad1cd7e-34ac-4400-83bd-503aa2619497"},"vehicle_type_id":"4","last_reported":1751627380,"current_range_meters":16800,"station_id":"ce4bhbh2rcd13ifvqepg","pricing_plan_id":"cebpf4jnsgd1na2vs0mg"},{"bike_id":"247580a9-eb21-4664-8e29-25bf1fab4a65","system_id":"levelo_inurba_marseille","lat":43.27044,"lon":5.40292,"is_reserved":false,"is_disabled":false,"rental_uris":{"android":"levelo://app?vid=247580a9-eb21-4664-8e29-25bf1fab4a65","ios":"levelo://app?vid=247580a9-eb21-4664-8e29-25bf1fab4a65"},"vehicle_type_id":"4","last_reported":1751627380,"current_range_meters":16800,"station_id":"ce4bhk92rcd13ifvqgc0","pricing_plan_id":"cebpf4jnsgd1na2vs0mg"},{"bike_id":"803ea62c-5ad8-4299-85e2-9c9608aedc4a","system_id":"levelo_inurba_marseille","lat":43.257154,"lon":5.411124,"is_reserved":false,"is_disabled":false,"rental_uris":{"android":"levelo://app?vid=803ea62c-5ad8-4299-85e2-9c9608aedc4a","ios":"levelo://app?vid=803ea62c-5ad8-4299-85e2-9c9608aedc4a"},"vehicle_type_id":"4","last_reported":1751627380,"current_range_meters":16800,"station_id":"ce4bhkp2rcd13ifvqgd0","pricing_plan_id":"cebpf4jnsgd1na2vs0mg"},{"bike_id":"fcde7ec1-c822-490b-b66f-c815c08d7815","system_id":"levelo_inurba_marseille","lat":43.32473,"lon":5.36579,"is_reserved":false,"is_disabled":false,"rental_uris":{"android":"levelo://app?vid=fcde7ec1-c822-490b-b66f-c815c08d7815","ios":"levelo://app?vid=fcde7ec1-c822-490b-b66f-c815c08d7815"},"vehicle_type_id":"4","last_reported":1751627380,"current_range_meters":16800,"station_id":"ce4bhs12rcd13ifvqhvg","pricing_plan_id":"cebpf4jnsgd1na2vs0mg"},{"bike_id":"6bcca8da-9d3d-49cd-a79a-564cb18e1427","system_id":"levelo_inurba_marseille","lat":43.29521,"lon":5.37478,"is_reserved":false,"is_disabled":false,"rental_uris":{"android":"levelo://app?vid=6bcca8da-9d3d-49cd-a79a-564cb18e1427","ios":"levelo://app?vid=6bcca8da-9d3d-49cd-a79a-564cb18e1427"},"vehicle_type_id":"4","last_reported":1751627380,"current_range_meters":17200,"station_id":"ce4bgkp2rcd13ifvqbmg","pricing_plan_id":"cebpf4jnsgd1na2vs0mg"},{"bike_id":"ac2e0679-3b80-404b-be70-63fa5b2cff24","system_id":"levelo_inurba_marseille","lat":43.29099,"lon":5.3813,"is_reserved":false,"is_disabled":false,"rental_uris":{"android":"levelo://app?vid=ac2e0679-3b80-404b-be70-63fa5b2cff24","ios":"levelo://app?vid=ac2e0679-3b80-404b-be70-63fa5b2cff24"},"vehicle_type_id":"4","last_reported":1751627380,"current_range_meters":17200,"station_id":"ce4bh512rcd13ifvqe2g","pricing_plan_id":"cebpf4jnsgd1na2vs0mg"},{"bike_id":"c13c93ac-6b62-443c-9e36-caf61b27325a","system_id":"levelo_inurba_marseille","lat":43.21196,"lon":5.35068,"is_reserved":false,"is_disabled":false,"rental_uris":{"android":"levelo://app?vid=c13c93ac-6b62-443c-9e36-caf61b27325a","ios":"levelo://app?vid=c13c93ac-6b62-443c-9e36-caf61b27325a"},"vehicle_type_id":"4","last_reported":1751627380,"current_range_meters":17200,"station_id":"st_cvj6sg6p6f1abm77japg","pricing_plan_id":"cebpf4jnsgd1na2vs0mg"},{"bike_id":"416ec74f-649b-4e2e-af17-bba8e6c7b0c4","system_id":"levelo_inurba_marseille","lat":43.293762,"lon":5.378341,"is_reserved":false,"is_disabled":false,"rental_uris":{"android":"levelo://app?vid=416ec74f-649b-4e2e-af17-bba8e6c7b0c4","ios":"levelo://app?vid=416ec74f-649b-4e2e-af17-bba8e6c7b0c4"},"vehicle_type_id":"4","last_reported":1751627380,"current_range_meters":17600,"station_id":"ce4bgjh2rcd13ifvqbf0","pricing_plan_id":"cebpf4jnsgd1na2vs0mg"},{"bike_id":"ee5ca2b8-993e-495b-b8ea-3ddea03afe99","system_id":"levelo_inurba_marseille","lat":43.30139,"lon":5.37406,"is_reserved":false,"is_disabled":false,"rental_uris":{"android":"levelo://app?vid=ee5ca2b8-993e-495b-b8ea-3ddea03afe99","ios":"levelo://app?vid=ee5ca2b8-993e-495b-b8ea-3ddea03afe99"},"vehicle_type_id":"4","last_reported":1751627380,"current_range_meters":17600,"station_id":"ce4bgs92rcd13ifvqcc0","pricing_plan_id":"cebpf4jnsgd1na2vs0mg"},{"bike_id":"1bbe87fa-7751-4499-9c9f-02df3ce5b80c","system_id":"levelo_inurba_marseille","lat":43.25036,"lon":5.38932,"is_reserved":false,"is_disabled":false,"rental_uris":{"android":"levelo://app?vid=1bbe87fa-7751-4499-9c9f-02df3ce5b80c","ios":"levelo://app?vid=1bbe87fa-7751-4499-9c9f-02df3ce5b80c"},"vehicle_type_id":"4","last_reported":1751627380,"current_range_meters":17600,"station_id":"ce4bhgp2rcd13ifvqfd0","pricing_plan_id":"cebpf4jnsgd1na2vs0mg"},{"bike_id":"a9d727dd-5980-4d09-bf3c-bf33b1f1a84b","system_id":"levelo_inurba_marseille","lat":43.30948,"lon":5.39027,"is_reserved":false,"is_disabled":false,"rental_uris":{"android":"levelo://app?vid=a9d727dd-5980-4d09-bf3c-bf33b1f1a84b","ios":"levelo://app?vid=a9d727dd-5980-4d09-bf3c-bf33b1f1a84b"},"vehicle_type_id":"4","last_reported":1751627380,"current_range_meters":18000,"station_id":"ce4bgup2rcd13ifvqco0","pricing_plan_id":"cebpf4jnsgd1na2vs0mg"},{"bike_id":"c2c909ff-d224-4f33-82f4-87f32373e1f1","system_id":"levelo_inurba_marseille","lat":43.29266,"lon":5.38437,"is_reserved":false,"is_disabled":false,"rental_uris":{"android":"levelo://app?vid=c2c909ff-d224-4f33-82f4-87f32373e1f1","ios":"levelo://app?vid=c2c909ff-d224-4f33-82f4-87f32373e1f1"},"vehicle_type_id":"4","last_reported":1751627380,"current_range_meters":18000,"station_id":"ce4bh692rcd13ifvqea0","pricing_plan_id":"cebpf4jnsgd1na2vs0mg"},{"bike_id":"098ecd40-b596-4066-a6d8-156ade02875f","system_id":"levelo_inurba_marseille","lat":43.32535,"lon":5.41469,"is_reserved":false,"is_disabled":false,"rental_uris":{"android":"levelo://app?vid=098ecd40-b596-4066-a6d8-156ade02875f","ios":"levelo://app?vid=098ecd40-b596-4066-a6d8-156ade02875f"},"vehicle_type_id":"4","last_reported":1751627380,"current_range_meters":18000,"station_id":"ce4bhq12rcd13ifvqhhg","pricing_plan_id":"cebpf4jnsgd1na2vs0mg"},{"bike_id":"8501c7f1-4540-433a-9226-9677bd87b71a","system_id":"levelo_inurba_marseille","lat":43.21192,"lon":5.35069,"is_reserved":false,"is_disabled":false,"rental_uris":{"android":"levelo://app?vid=8501c7f1-4540-433a-9226-9677bd87b71a","ios":"levelo://app?vid=8501c7f1-4540-433a-9226-9677bd87b71a"},"vehicle_type_id":"4","last_reported":1751627380,"current_range_meters":18000,"station_id":"st_cvj6sg6p6f1abm77japg","pricing_plan_id":"cebpf4jnsgd1na2vs0mg"},{"bike_id":"5f470112-8139-4343-b082-08a74e0b7074","system_id":"levelo_inurba_marseille","lat":43.21186,"lon":5.35096,"is_reserved":false,"is_disabled":false,"rental_uris":{"android":"levelo://app?vid=5f470112-8139-4343-b082-08a74e0b7074","ios":"levelo://app?vid=5f470112-8139-4343-b082-08a74e0b7074"},"vehicle_type_id":"4","last_reported":1751627380,"current_range_meters":18000,"station_id":"st_cvj6sg6p6f1abm77japg","pricing_plan_id":"cebpf4jnsgd1na2vs0mg"},{"bike_id":"6ec799e8-676e-4429-8736-e6a31a045bb8","system_id":"levelo_inurba_marseille","lat":43.30422,"lon":5.38898,"is_reserved":false,"is_disabled":false,"rental_uris":{"android":"levelo://app?vid=6ec799e8-676e-4429-8736-e6a31a045bb8","ios":"levelo://app?vid=6ec799e8-676e-4429-8736-e6a31a045bb8"},"vehicle_type_id":"4","last_reported":1751627380,"current_range_meters":18800,"station_id":"ce4bgk12rcd13ifvqbi0","pricing_plan_id":"cebpf4jnsgd1na2vs0mg"},{"bike_id":"e5adac8c-bcb8-4dd2-9e24-6d72c3db7c4d","system_id":"levelo_inurba_marseille","lat":43.30884,"lon":5.37187,"is_reserved":false,"is_disabled":false,"rental_uris":{"android":"levelo://app?vid=e5adac8c-bcb8-4dd2-9e24-6d72c3db7c4d","ios":"levelo://app?vid=e5adac8c-bcb8-4dd2-9e24-6d72c3db7c4d"},"vehicle_type_id":"4","last_reported":1751627380,"current_range_meters":18800,"station_id":"ce4bguh2rcd13ifvqckg","pricing_plan_id":"cebpf4jnsgd1na2vs0mg"},{"bike_id":"c1a8b456-865b-4458-8ec3-1edae02f3c0c","system_id":"levelo_inurba_marseille","lat":43.30464,"lon":5.37916,"is_reserved":false,"is_disabled":false,"rental_uris":{"android":"levelo://app?vid=c1a8b456-865b-4458-8ec3-1edae02f3c0c","ios":"levelo://app?vid=c1a8b456-865b-4458-8ec3-1edae02f3c0c"},"vehicle_type_id":"4","last_reported":1751627380,"current_range_meters":18800,"station_id":"ce4bgup2rcd13ifvqcn0","pricing_plan_id":"cebpf4jnsgd1na2vs0mg"},{"bike_id":"5715b556-e66f-4b39-8f33-920a402dceaf","system_id":"levelo_inurba_marseille","lat":43.25036,"lon":5.38935,"is_reserved":false,"is_disabled":false,"rental_uris":{"android":"levelo://app?vid=5715b556-e66f-4b39-8f33-920a402dceaf","ios":"levelo://app?vid=5715b556-e66f-4b39-8f33-920a402dceaf"},"vehicle_type_id":"4","last_reported":1751627380,"current_range_meters":18800,"station_id":"ce4bhgp2rcd13ifvqfd0","pricing_plan_id":"cebpf4jnsgd1na2vs0mg"},{"bike_id":"94a043cb-47ff-4ca6-93d7-c0fbfc1b02b6","system_id":"levelo_inurba_marseille","lat":43.32659,"lon":5.41035,"is_reserved":false,"is_disabled":false,"rental_uris":{"android":"levelo://app?vid=94a043cb-47ff-4ca6-93d7-c0fbfc1b02b6","ios":"levelo://app?vid=94a043cb-47ff-4ca6-93d7-c0fbfc1b02b6"},"vehicle_type_id":"4","last_reported":1751627380,"current_range_meters":18800,"station_id":"ce4bhpp2rcd13ifvqhgg","pricing_plan_id":"cebpf4jnsgd1na2vs0mg"},{"bike_id":"d5467415-be19-4598-b2a8-d393a9144be1","system_id":"levelo_inurba_marseille","lat":43.21194,"lon":5.35084,"is_reserved":false,"is_disabled":false,"rental_uris":{"android":"levelo://app?vid=d5467415-be19-4598-b2a8-d393a9144be1","ios":"levelo://app?vid=d5467415-be19-4598-b2a8-d393a9144be1"},"vehicle_type_id":"4","last_reported":1751627380,"current_range_meters":18800,"station_id":"st_cvj6sg6p6f1abm77japg","pricing_plan_id":"cebpf4jnsgd1na2vs0mg"},{"bike_id":"29049025-09ac-4757-9f06-75d542b3ee3b","system_id":"levelo_inurba_marseille","lat":43.29379,"lon":5.38591,"is_reserved":false,"is_disabled":false,"rental_uris":{"android":"levelo://app?vid=29049025-09ac-4757-9f06-75d542b3ee3b","ios":"levelo://app?vid=29049025-09ac-4757-9f06-75d542b3ee3b"},"vehicle_type_id":"4","last_reported":1751627380,"current_range_meters":19200,"station_id":"","pricing_plan_id":"cebpf4jnsgd1na2vs0mg"},{"bike_id":"25d65b54-2483-49ad-9e8c-b4102ded682f","system_id":"levelo_inurba_marseille","lat":43.21192,"lon":5.3515,"is_reserved":false,"is_disabled":false,"rental_uris":{"android":"levelo://app?vid=25d65b54-2483-49ad-9e8c-b4102ded682f","ios":"levelo://app?vid=25d65b54-2483-49ad-9e8c-b4102ded682f"},"vehicle_type_id":"4","last_reported":1751627380,"current_range_meters":19200,"station_id":"","pricing_plan_id":"cebpf4jnsgd1na2vs0mg"},{"bike_id":"1036f3b5-5954-48a3-93e5-d291f1ca0c73","system_id":"levelo_inurba_marseille","lat":43.29519,"lon":5.37547,"is_reserved":false,"is_disabled":false,"rental_uris":{"android":"levelo://app?vid=1036f3b5-5954-48a3-93e5-d291f1ca0c73","ios":"levelo://app?vid=1036f3b5-5954-48a3-93e5-d291f1ca0c73"},"vehicle_type_id":"4","last_reported":1751627380,"current_range_meters":19200,"station_id":"ce4bgkp2rcd13ifvqbmg","pricing_plan_id":"cebpf4jnsgd1na2vs0mg"},{"bike_id":"235b5ca4-ee17-426b-ac13-db78e2ea40e3","system_id":"levelo_inurba_marseille","lat":43.29513,"lon":5.37434,"is_reserved":false,"is_disabled":false,"rental_uris":{"android":"levelo://app?vid=235b5ca4-ee17-426b-ac13-db78e2ea40e3","ios":"levelo://app?vid=235b5ca4-ee17-426b-ac13-db78e2ea40e3"},"vehicle_type_id":"4","last_reported":1751627380,"current_range_meters":19200,"station_id":"ce4bgqh2rcd13ifvqc4g","pricing_plan_id":"cebpf4jnsgd1na2vs0mg"},{"bike_id":"c0818b43-a123-4a36-83c7-cf1fec1f46ae","system_id":"levelo_inurba_marseille","lat":43.30871,"lon":5.39653,"is_reserved":false,"is_disabled":false,"rental_uris":{"android":"levelo://app?vid=c0818b43-a123-4a36-83c7-cf1fec1f46ae","ios":"levelo://app?vid=c0818b43-a123-4a36-83c7-cf1fec1f46ae"},"vehicle_type_id":"4","last_reported":1751627380,"current_range_meters":19200,"station_id":"ce4bh012rcd13ifvqcv0","pricing_plan_id":"cebpf4jnsgd1na2vs0mg"},{"bike_id":"adb06d5d-e27d-4fd7-bf82-4e1d1cba2ff7","system_id":"levelo_inurba_marseille","lat":43.25941,"lon":5.40913,"is_reserved":false,"is_disabled":false,"rental_uris":{"android":"levelo://app?vid=adb06d5d-e27d-4fd7-bf82-4e1d1cba2ff7","ios":"levelo://app?vid=adb06d5d-e27d-4fd7-bf82-4e1d1cba2ff7"},"vehicle_type_id":"4","last_reported":1751627380,"current_range_meters":19200,"station_id":"ce4bhm92rcd13ifvqglg","pricing_plan_id":"cebpf4jnsgd1na2vs0mg"},{"bike_id":"9e7e020f-574d-4711-90c3-29aeb8b8b780","system_id":"levelo_inurba_marseille","lat":43.23181,"lon":5.39988,"is_reserved":false,"is_disabled":false,"rental_uris":{"android":"levelo://app?vid=9e7e020f-574d-4711-90c3-29aeb8b8b780","ios":"levelo://app?vid=9e7e020f-574d-4711-90c3-29aeb8b8b780"},"vehicle_type_id":"4","last_reported":1751627380,"current_range_meters":19200,"station_id":"ce4bhn12rcd13ifvqgqg","pricing_plan_id":"cebpf4jnsgd1na2vs0mg"},{"bike_id":"9cc59698-e4ff-4878-986e-7b20dec0302d","system_id":"levelo_inurba_marseille","lat":43.2956,"lon":5.42294,"is_reserved":false,"is_disabled":false,"rental_uris":{"android":"levelo://app?vid=9cc59698-e4ff-4878-986e-7b20dec0302d","ios":"levelo://app?vid=9cc59698-e4ff-4878-986e-7b20dec0302d"},"vehicle_type_id":"4","last_reported":1751627380,"current_range_meters":19200,"station_id":"ce4bhph2rcd13ifvqhdg","pricing_plan_id":"cebpf4jnsgd1na2vs0mg"},{"bike_id":"833d4012-1850-408d-892e-fbe658c67e46","system_id":"levelo_inurba_marseille","lat":43.31277,"lon":5.36839,"is_reserved":false,"is_disabled":false,"rental_uris":{"android":"levelo://app?vid=833d4012-1850-408d-892e-fbe658c67e46","ios":"levelo://app?vid=833d4012-1850-408d-892e-fbe658c67e46"},"vehicle_type_id":"4","last_reported":1751627380,"current_range_meters":19600,"station_id":"ce4bgl92rcd13ifvqbq0","pricing_plan_id":"cebpf4jnsgd1na2vs0mg"},{"bike_id":"38828285-7ee9-4c4b-81cb-3ea09d10dc8a","system_id":"levelo_inurba_marseille","lat":43.29293,"lon":5.40098,"is_reserved":false,"is_disabled":false,"rental_uris":{"android":"levelo://app?vid=38828285-7ee9-4c4b-81cb-3ea09d10dc8a","ios":"levelo://app?vid=38828285-7ee9-4c4b-81cb-3ea09d10dc8a"},"vehicle_type_id":"4","last_reported":1751627380,"current_range_meters":19600,"station_id":"ce4bh312rcd13ifvqdk0","pricing_plan_id":"cebpf4jnsgd1na2vs0mg"},{"bike_id":"e6f5b10a-f2b7-44bc-88d3-8d846dc2bc1e","system_id":"levelo_inurba_marseille","lat":43.25033,"lon":5.38926,"is_reserved":false,"is_disabled":false,"rental_uris":{"android":"levelo://app?vid=e6f5b10a-f2b7-44bc-88d3-8d846dc2bc1e","ios":"levelo://app?vid=e6f5b10a-f2b7-44bc-88d3-8d846dc2bc1e"},"vehicle_type_id":"4","last_reported":1751627380,"current_range_meters":19600,"station_id":"ce4bhgp2rcd13ifvqfd0","pricing_plan_id":"cebpf4jnsgd1na2vs0mg"},{"bike_id":"f56b9437-e610-4309-840a-891336d53934","system_id":"levelo_inurba_marseille","lat":43.25121,"lon":5.40318,"is_reserved":false,"is_disabled":false,"rental_uris":{"android":"levelo://app?vid=f56b9437-e610-4309-840a-891336d53934","ios":"levelo://app?vid=f56b9437-e610-4309-840a-891336d53934"},"vehicle_type_id":"4","last_reported":1751627380,"current_range_meters":19600,"station_id":"ce4bhlh2rcd13ifvqgig","pricing_plan_id":"cebpf4jnsgd1na2vs0mg"},{"bike_id":"134a6fd1-cb8b-4ade-a0c2-0b22bf7dca76","system_id":"levelo_inurba_marseille","lat":43.21184,"lon":5.3509,"is_reserved":false,"is_disabled":false,"rental_uris":{"android":"levelo://app?vid=134a6fd1-cb8b-4ade-a0c2-0b22bf7dca76","ios":"levelo://app?vid=134a6fd1-cb8b-4ade-a0c2-0b22bf7dca76"},"vehicle_type_id":"4","last_reported":1751627380,"current_range_meters":19600,"station_id":"st_cvj6sg6p6f1abm77japg","pricing_plan_id":"cebpf4jnsgd1na2vs0mg"},{"bike_id":"7a53855e-65a3-46aa-9935-d1bd71ac29a1","system_id":"levelo_inurba_marseille","lat":43.30521,"lon":5.36559,"is_reserved":false,"is_disabled":false,"rental_uris":{"android":"levelo://app?vid=7a53855e-65a3-46aa-9935-d1bd71ac29a1","ios":"levelo://app?vid=7a53855e-65a3-46aa-9935-d1bd71ac29a1"},"vehicle_type_id":"4","last_reported":1751627380,"current_range_meters":20000,"station_id":"ce4bgs12rcd13ifvqcag","pricing_plan_id":"cebpf4jnsgd1na2vs0mg"},{"bike_id":"c3e916d7-e5a5-43b0-900d-fada89424acd","system_id":"levelo_inurba_marseille","lat":43.29261,"lon":5.38438,"is_reserved":false,"is_disabled":false,"rental_uris":{"android":"levelo://app?vid=c3e916d7-e5a5-43b0-900d-fada89424acd","ios":"levelo://app?vid=c3e916d7-e5a5-43b0-900d-fada89424acd"},"vehicle_type_id":"4","last_reported":1751627380,"current_range_meters":20000,"station_id":"ce4bh692rcd13ifvqea0","pricing_plan_id":"cebpf4jnsgd1na2vs0mg"},{"bike_id":"c255c147-b530-4735-b4a7-5b5a0b1f76b1","system_id":"levelo_inurba_marseille","lat":43.2439,"lon":5.37061,"is_reserved":false,"is_disabled":false,"rental_uris":{"android":"levelo://app?vid=c255c147-b530-4735-b4a7-5b5a0b1f76b1","ios":"levelo://app?vid=c255c147-b530-4735-b4a7-5b5a0b1f76b1"},"vehicle_type_id":"4","last_reported":1751627380,"current_range_meters":20000,"station_id":"ce4bhhh2rcd13ifvqfk0","pricing_plan_id":"cebpf4jnsgd1na2vs0mg"},{"bike_id":"6e26f4e1-af6b-4e02-81c4-dc9cceafebd5","system_id":"levelo_inurba_marseille","lat":43.30377,"lon":5.42483,"is_reserved":false,"is_disabled":false,"rental_uris":{"android":"levelo://app?vid=6e26f4e1-af6b-4e02-81c4-dc9cceafebd5","ios":"levelo://app?vid=6e26f4e1-af6b-4e02-81c4-dc9cceafebd5"},"vehicle_type_id":"4","last_reported":1751627380,"current_range_meters":20000,"station_id":"ce4bhoh2rcd13ifvqh6g","pricing_plan_id":"cebpf4jnsgd1na2vs0mg"},{"bike_id":"39a359e9-c2ba-43dc-8897-db923128eb22","system_id":"levelo_inurba_marseille","lat":43.32468,"lon":5.36597,"is_reserved":false,"is_disabled":false,"rental_uris":{"android":"levelo://app?vid=39a359e9-c2ba-43dc-8897-db923128eb22","ios":"levelo://app?vid=39a359e9-c2ba-43dc-8897-db923128eb22"},"vehicle_type_id":"4","last_reported":1751627380,"current_range_meters":20000,"station_id":"ce4bhs12rcd13ifvqhvg","pricing_plan_id":"cebpf4jnsgd1na2vs0mg"},{"bike_id":"10c9a7c7-0ad3-453f-8453-0006ffba2fec","system_id":"levelo_inurba_marseille","lat":43.21191,"lon":5.35065,"is_reserved":false,"is_disabled":false,"rental_uris":{"android":"levelo://app?vid=10c9a7c7-0ad3-453f-8453-0006ffba2fec","ios":"levelo://app?vid=10c9a7c7-0ad3-453f-8453-0006ffba2fec"},"vehicle_type_id":"4","last_reported":1751627380,"current_range_meters":20000,"station_id":"st_cvj6sg6p6f1abm77japg","pricing_plan_id":"cebpf4jnsgd1na2vs0mg"},{"bike_id":"fe8ee84c-fdfc-40aa-a1c2-6e36409c0740","system_id":"levelo_inurba_marseille","lat":43.26819,"lon":5.3904,"is_reserved":false,"is_disabled":false,"rental_uris":{"android":"levelo://app?vid=fe8ee84c-fdfc-40aa-a1c2-6e36409c0740","ios":"levelo://app?vid=fe8ee84c-fdfc-40aa-a1c2-6e36409c0740"},"vehicle_type_id":"4","last_reported":1751627380,"current_range_meters":20400,"station_id":"","pricing_plan_id":"cebpf4jnsgd1na2vs0mg"},{"bike_id":"2d010dde-28b6-4b22-8515-deab65fcc05c","system_id":"levelo_inurba_marseille","lat":43.31344,"lon":5.36755,"is_reserved":false,"is_disabled":false,"rental_uris":{"android":"levelo://app?vid=2d010dde-28b6-4b22-8515-deab65fcc05c","ios":"levelo://app?vid=2d010dde-28b6-4b22-8515-deab65fcc05c"},"vehicle_type_id":"4","last_reported":1751627380,"current_range_meters":20400,"station_id":"ce4bgr92rcd13ifvqc6g","pricing_plan_id":"cebpf4jnsgd1na2vs0mg"},{"bike_id":"2e0ea20e-2a7e-42a9-a497-6bd358a9deec","system_id":"levelo_inurba_marseille","lat":43.30535,"lon":5.36739,"is_reserved":false,"is_disabled":false,"rental_uris":{"android":"levelo://app?vid=2e0ea20e-2a7e-42a9-a497-6bd358a9deec","ios":"levelo://app?vid=2e0ea20e-2a7e-42a9-a497-6bd358a9deec"},"vehicle_type_id":"4","last_reported":1751627380,"current_range_meters":20400,"station_id":"ce4bgrp2rcd13ifvqc9g","pricing_plan_id":"cebpf4jnsgd1na2vs0mg"},{"bike_id":"09a221ad-ff06-4e92-9d3a-8c20dd8315ce","system_id":"levelo_inurba_marseille","lat":43.28486,"lon":5.38412,"is_reserved":false,"is_disabled":false,"rental_uris":{"android":"levelo://app?vid=09a221ad-ff06-4e92-9d3a-8c20dd8315ce","ios":"levelo://app?vid=09a221ad-ff06-4e92-9d3a-8c20dd8315ce"},"vehicle_type_id":"4","last_reported":1751627380,"current_range_meters":20400,"station_id":"ce4bh512rcd13ifvqe3g","pricing_plan_id":"cebpf4jnsgd1na2vs0mg"},{"bike_id":"088d4d6d-c427-4a5d-8b23-1cec2aa4dc03","system_id":"levelo_inurba_marseille","lat":43.29168,"lon":5.3716,"is_reserved":false,"is_disabled":false,"rental_uris":{"android":"levelo://app?vid=088d4d6d-c427-4a5d-8b23-1cec2aa4dc03","ios":"levelo://app?vid=088d4d6d-c427-4a5d-8b23-1cec2aa4dc03"},"vehicle_type_id":"4","last_reported":1751627380,"current_range_meters":20400,"station_id":"ce4bha92rcd13ifvqeh0","pricing_plan_id":"cebpf4jnsgd1na2vs0mg"},{"bike_id":"8aaa49d8-5534-4322-b4ce-28ced5203bad","system_id":"levelo_inurba_marseille","lat":43.26034,"lon":5.37544,"is_reserved":false,"is_disabled":false,"rental_uris":{"android":"levelo://app?vid=8aaa49d8-5534-4322-b4ce-28ced5203bad","ios":"levelo://app?vid=8aaa49d8-5534-4322-b4ce-28ced5203bad"},"vehicle_type_id":"4","last_reported":1751627380,"current_range_meters":20400,"station_id":"ce4bhgh2rcd13ifvqfa0","pricing_plan_id":"cebpf4jnsgd1na2vs0mg"},{"bike_id":"377eb558-8dc6-4203-88eb-06aa152d234a","system_id":"levelo_inurba_marseille","lat":43.2573,"lon":5.41107,"is_reserved":false,"is_disabled":false,"rental_uris":{"android":"levelo://app?vid=377eb558-8dc6-4203-88eb-06aa152d234a","ios":"levelo://app?vid=377eb558-8dc6-4203-88eb-06aa152d234a"},"vehicle_type_id":"4","last_reported":1751627380,"current_range_meters":20400,"station_id":"ce4bhmh2rcd13ifvqgmg","pricing_plan_id":"cebpf4jnsgd1na2vs0mg"},{"bike_id":"3ee2e7d3-c08e-45f9-8d9c-59cbe848e0ca","system_id":"levelo_inurba_marseille","lat":43.23144,"lon":5.43715,"is_reserved":false,"is_disabled":false,"rental_uris":{"android":"levelo://app?vid=3ee2e7d3-c08e-45f9-8d9c-59cbe848e0ca","ios":"levelo://app?vid=3ee2e7d3-c08e-45f9-8d9c-59cbe848e0ca"},"vehicle_type_id":"4","last_reported":1751627380,"current_range_meters":20400,"station_id":"ce4bhmp2rcd13ifvqgog","pricing_plan_id":"cebpf4jnsgd1na2vs0mg"},{"bike_id":"99f6d359-3aa1-480a-b063-f93bb674bda3","system_id":"levelo_inurba_marseille","lat":43.27493,"lon":5.42446,"is_reserved":false,"is_disabled":false,"rental_uris":{"android":"levelo://app?vid=99f6d359-3aa1-480a-b063-f93bb674bda3","ios":"levelo://app?vid=99f6d359-3aa1-480a-b063-f93bb674bda3"},"vehicle_type_id":"4","last_reported":1751627380,"current_range_meters":20400,"station_id":"ce4bhn92rcd13ifvqgrg","pricing_plan_id":"cebpf4jnsgd1na2vs0mg"},{"bike_id":"d5ef770d-9759-47e3-b3a5-7d2785ef76db","system_id":"levelo_inurba_marseille","lat":43.33015,"lon":5.39035,"is_reserved":false,"is_disabled":false,"rental_uris":{"android":"levelo://app?vid=d5ef770d-9759-47e3-b3a5-7d2785ef76db","ios":"levelo://app?vid=d5ef770d-9759-47e3-b3a5-7d2785ef76db"},"vehicle_type_id":"4","last_reported":1751627380,"current_range_meters":20400,"station_id":"ce4bhr92rcd13ifvqhrg","pricing_plan_id":"cebpf4jnsgd1na2vs0mg"},{"bike_id":"5de814c8-f2c3-4f5f-84fd-6ec1a99ac78a","system_id":"levelo_inurba_marseille","lat":43.32486,"lon":5.36603,"is_reserved":false,"is_disabled":false,"rental_uris":{"android":"levelo://app?vid=5de814c8-f2c3-4f5f-84fd-6ec1a99ac78a","ios":"levelo://app?vid=5de814c8-f2c3-4f5f-84fd-6ec1a99ac78a"},"vehicle_type_id":"4","last_reported":1751627380,"current_range_meters":20400,"station_id":"ce4bhs12rcd13ifvqhvg","pricing_plan_id":"cebpf4jnsgd1na2vs0mg"},{"bike_id":"0e95c039-e344-4ef2-8ae3-2271111801b3","system_id":"levelo_inurba_marseille","lat":43.22499,"lon":5.34793,"is_reserved":false,"is_disabled":false,"rental_uris":{"android":"levelo://app?vid=0e95c039-e344-4ef2-8ae3-2271111801b3","ios":"levelo://app?vid=0e95c039-e344-4ef2-8ae3-2271111801b3"},"vehicle_type_id":"4","last_reported":1751627380,"current_range_meters":20800,"station_id":"","pricing_plan_id":"cebpf4jnsgd1na2vs0mg"},{"bike_id":"65110cdc-5fe4-4f3a-9887-c5c6e00c1f43","system_id":"levelo_inurba_marseille","lat":43.30154,"lon":5.38082,"is_reserved":false,"is_disabled":false,"rental_uris":{"android":"levelo://app?vid=65110cdc-5fe4-4f3a-9887-c5c6e00c1f43","ios":"levelo://app?vid=65110cdc-5fe4-4f3a-9887-c5c6e00c1f43"},"vehicle_type_id":"4","last_reported":1751627380,"current_range_meters":20800,"station_id":"ce4bgjp2rcd13ifvqbh0","pricing_plan_id":"cebpf4jnsgd1na2vs0mg"},{"bike_id":"95cdbcbc-1017-47b3-9e98-49d966c73da2","system_id":"levelo_inurba_marseille","lat":43.31324,"lon":5.39702,"is_reserved":false,"is_disabled":false,"rental_uris":{"android":"levelo://app?vid=95cdbcbc-1017-47b3-9e98-49d966c73da2","ios":"levelo://app?vid=95cdbcbc-1017-47b3-9e98-49d966c73da2"},"vehicle_type_id":"4","last_reported":1751627380,"current_range_meters":20800,"station_id":"ce4bgvp2rcd13ifvqcu0","pricing_plan_id":"cebpf4jnsgd1na2vs0mg"},{"bike_id":"37dd7855-df33-4a7c-a94d-359e45e18c8e","system_id":"levelo_inurba_marseille","lat":43.302199,"lon":5.394648,"is_reserved":false,"is_disabled":false,"rental_uris":{"android":"levelo://app?vid=37dd7855-df33-4a7c-a94d-359e45e18c8e","ios":"levelo://app?vid=37dd7855-df33-4a7c-a94d-359e45e18c8e"},"vehicle_type_id":"4","last_reported":1751627380,"current_range_meters":20800,"station_id":"ce4bh0p2rcd13ifvqd70","pricing_plan_id":"cebpf4jnsgd1na2vs0mg"},{"bike_id":"507f1b1e-944f-4422-83fb-a7bda798a7b8","system_id":"levelo_inurba_marseille","lat":43.29513,"lon":5.39031,"is_reserved":false,"is_disabled":false,"rental_uris":{"android":"levelo://app?vid=507f1b1e-944f-4422-83fb-a7bda798a7b8","ios":"levelo://app?vid=507f1b1e-944f-4422-83fb-a7bda798a7b8"},"vehicle_type_id":"4","last_reported":1751627380,"current_range_meters":20800,"station_id":"ce4bh3p2rcd13ifvqdp0","pricing_plan_id":"cebpf4jnsgd1na2vs0mg"},{"bike_id":"8027b48e-15de-4abe-9043-cfc9945383b0","system_id":"levelo_inurba_marseille","lat":43.28616,"lon":5.35109,"is_reserved":false,"is_disabled":false,"rental_uris":{"android":"levelo://app?vid=8027b48e-15de-4abe-9043-cfc9945383b0","ios":"levelo://app?vid=8027b48e-15de-4abe-9043-cfc9945383b0"},"vehicle_type_id":"4","last_reported":1751627380,"current_range_meters":20800,"station_id":"ce4bhch2rcd13ifvqeug","pricing_plan_id":"cebpf4jnsgd1na2vs0mg"},{"bike_id":"46c2a4f9-eb39-4371-8efa-c83dc5b2eead","system_id":"levelo_inurba_marseille","lat":43.27987,"lon":5.40019,"is_reserved":false,"is_disabled":false,"rental_uris":{"android":"levelo://app?vid=46c2a4f9-eb39-4371-8efa-c83dc5b2eead","ios":"levelo://app?vid=46c2a4f9-eb39-4371-8efa-c83dc5b2eead"},"vehicle_type_id":"4","last_reported":1751627380,"current_range_meters":20800,"station_id":"ce4bho92rcd13ifvqh4g","pricing_plan_id":"cebpf4jnsgd1na2vs0mg"},{"bike_id":"bf24b26e-7f51-4120-9a48-54c87edaa2f7","system_id":"levelo_inurba_marseille","lat":43.211914,"lon":5.350694,"is_reserved":false,"is_disabled":false,"rental_uris":{"android":"levelo://app?vid=bf24b26e-7f51-4120-9a48-54c87edaa2f7","ios":"levelo://app?vid=bf24b26e-7f51-4120-9a48-54c87edaa2f7"},"vehicle_type_id":"4","last_reported":1751627380,"current_range_meters":20800,"station_id":"st_cvj6sg6p6f1abm77japg","pricing_plan_id":"cebpf4jnsgd1na2vs0mg"},{"bike_id":"5b5ca915-19f5-4c5c-ba88-71fe4a9869eb","system_id":"levelo_inurba_marseille","lat":43.316887,"lon":5.377767,"is_reserved":false,"is_disabled":false,"rental_uris":{"android":"levelo://app?vid=5b5ca915-19f5-4c5c-ba88-71fe4a9869eb","ios":"levelo://app?vid=5b5ca915-19f5-4c5c-ba88-71fe4a9869eb"},"vehicle_type_id":"4","last_reported":1751627380,"current_range_meters":21600,"station_id":"","pricing_plan_id":"cebpf4jnsgd1na2vs0mg"},{"bike_id":"1992304d-c9d7-4485-b83e-f54acf9eff4d","system_id":"levelo_inurba_marseille","lat":43.29617,"lon":5.3772,"is_reserved":false,"is_disabled":false,"rental_uris":{"android":"levelo://app?vid=1992304d-c9d7-4485-b83e-f54acf9eff4d","ios":"levelo://app?vid=1992304d-c9d7-4485-b83e-f54acf9eff4d"},"vehicle_type_id":"4","last_reported":1751627380,"current_range_meters":21600,"station_id":"ce4bgi92rcd13ifvqb90","pricing_plan_id":"cebpf4jnsgd1na2vs0mg"},{"bike_id":"dfc37c59-0d93-429a-a4ef-b6f1fdf57502","system_id":"levelo_inurba_marseille","lat":43.28616,"lon":5.35107,"is_reserved":false,"is_disabled":false,"rental_uris":{"android":"levelo://app?vid=dfc37c59-0d93-429a-a4ef-b6f1fdf57502","ios":"levelo://app?vid=dfc37c59-0d93-429a-a4ef-b6f1fdf57502"},"vehicle_type_id":"4","last_reported":1751627380,"current_range_meters":21600,"station_id":"ce4bhch2rcd13ifvqeug","pricing_plan_id":"cebpf4jnsgd1na2vs0mg"},{"bike_id":"8a39e005-8efb-4189-bc90-b22700037dff","system_id":"levelo_inurba_marseille","lat":43.2791,"lon":5.3801,"is_reserved":false,"is_disabled":false,"rental_uris":{"android":"levelo://app?vid=8a39e005-8efb-4189-bc90-b22700037dff","ios":"levelo://app?vid=8a39e005-8efb-4189-bc90-b22700037dff"},"vehicle_type_id":"4","last_reported":1751627380,"current_range_meters":21600,"station_id":"ce4bhf92rcd13ifvqf50","pricing_plan_id":"cebpf4jnsgd1na2vs0mg"},{"bike_id":"bcf7ad74-468f-45b5-97ab-63bb2bc4a422","system_id":"levelo_inurba_marseille","lat":43.23157,"lon":5.43702,"is_reserved":false,"is_disabled":false,"rental_uris":{"android":"levelo://app?vid=bcf7ad74-468f-45b5-97ab-63bb2bc4a422","ios":"levelo://app?vid=bcf7ad74-468f-45b5-97ab-63bb2bc4a422"},"vehicle_type_id":"4","last_reported":1751627380,"current_range_meters":21600,"station_id":"ce4bhmp2rcd13ifvqgog","pricing_plan_id":"cebpf4jnsgd1na2vs0mg"},{"bike_id":"b67e3de7-3a98-48a8-ada1-6072073e6e54","system_id":"levelo_inurba_marseille","lat":43.23064,"lon":5.35487,"is_reserved":false,"is_disabled":false,"rental_uris":{"android":"levelo://app?vid=b67e3de7-3a98-48a8-ada1-6072073e6e54","ios":"levelo://app?vid=b67e3de7-3a98-48a8-ada1-6072073e6e54"},"vehicle_type_id":"4","last_reported":1751627380,"current_range_meters":21600,"station_id":"cpo3342slgdg3j2ifvpg","pricing_plan_id":"cebpf4jnsgd1na2vs0mg"},{"bike_id":"70b13a9a-f805-4708-ae99-230249b77654","system_id":"levelo_inurba_marseille","lat":43.302492,"lon":5.400756,"is_reserved":false,"is_disabled":false,"rental_uris":{"android":"levelo://app?vid=70b13a9a-f805-4708-ae99-230249b77654","ios":"levelo://app?vid=70b13a9a-f805-4708-ae99-230249b77654"},"vehicle_type_id":"4","last_reported":1751627380,"current_range_meters":22000,"station_id":"ce4bgvh2rcd13ifvqcs0","pricing_plan_id":"cebpf4jnsgd1na2vs0mg"},{"bike_id":"e0195ef7-f0e0-46c0-9934-e032566d253d","system_id":"levelo_inurba_marseille","lat":43.26031,"lon":5.37546,"is_reserved":false,"is_disabled":false,"rental_uris":{"android":"levelo://app?vid=e0195ef7-f0e0-46c0-9934-e032566d253d","ios":"levelo://app?vid=e0195ef7-f0e0-46c0-9934-e032566d253d"},"vehicle_type_id":"4","last_reported":1751627380,"current_range_meters":22000,"station_id":"ce4bhgh2rcd13ifvqfa0","pricing_plan_id":"cebpf4jnsgd1na2vs0mg"},{"bike_id":"f37760c6-ab8b-450e-9ddc-f3de596404e2","system_id":"levelo_inurba_marseille","lat":43.290224,"lon":5.375486,"is_reserved":false,"is_disabled":false,"rental_uris":{"android":"levelo://app?vid=f37760c6-ab8b-450e-9ddc-f3de596404e2","ios":"levelo://app?vid=f37760c6-ab8b-450e-9ddc-f3de596404e2"},"vehicle_type_id":"4","last_reported":1751627380,"current_range_meters":22400,"station_id":"","pricing_plan_id":"cebpf4jnsgd1na2vs0mg"},{"bike_id":"434d6688-86f4-489f-ad08-35a2d02e0e15","system_id":"levelo_inurba_marseille","lat":43.3089,"lon":5.39659,"is_reserved":false,"is_disabled":false,"rental_uris":{"android":"levelo://app?vid=434d6688-86f4-489f-ad08-35a2d02e0e15","ios":"levelo://app?vid=434d6688-86f4-489f-ad08-35a2d02e0e15"},"vehicle_type_id":"4","last_reported":1751627380,"current_range_meters":22400,"station_id":"ce4bh012rcd13ifvqcv0","pricing_plan_id":"cebpf4jnsgd1na2vs0mg"},{"bike_id":"ae82621a-7b85-4d52-954b-c6359cd964c5","system_id":"levelo_inurba_marseille","lat":43.28373,"lon":5.38631,"is_reserved":false,"is_disabled":false,"rental_uris":{"android":"levelo://app?vid=ae82621a-7b85-4d52-954b-c6359cd964c5","ios":"levelo://app?vid=ae82621a-7b85-4d52-954b-c6359cd964c5"},"vehicle_type_id":"4","last_reported":1751627380,"current_range_meters":22400,"station_id":"ce4bh492rcd13ifvqdvg","pricing_plan_id":"cebpf4jnsgd1na2vs0mg"},{"bike_id":"be4bb6b0-faf9-48f4-802f-ed889d39f14a","system_id":"levelo_inurba_marseille","lat":43.24996,"lon":5.38933,"is_reserved":false,"is_disabled":false,"rental_uris":{"android":"levelo://app?vid=be4bb6b0-faf9-48f4-802f-ed889d39f14a","ios":"levelo://app?vid=be4bb6b0-faf9-48f4-802f-ed889d39f14a"},"vehicle_type_id":"4","last_reported":1751627380,"current_range_meters":22400,"station_id":"ce4bhgp2rcd13ifvqfd0","pricing_plan_id":"cebpf4jnsgd1na2vs0mg"},{"bike_id":"ec10a1c2-254f-4f03-8c49-160ff77dd2b0","system_id":"levelo_inurba_marseille","lat":43.259435,"lon":5.408992,"is_reserved":false,"is_disabled":false,"rental_uris":{"android":"levelo://app?vid=ec10a1c2-254f-4f03-8c49-160ff77dd2b0","ios":"levelo://app?vid=ec10a1c2-254f-4f03-8c49-160ff77dd2b0"},"vehicle_type_id":"4","last_reported":1751627380,"current_range_meters":22400,"station_id":"ce4bhm92rcd13ifvqglg","pricing_plan_id":"cebpf4jnsgd1na2vs0mg"},{"bike_id":"1470c458-1cbe-47f6-9c96-a606b0616e15","system_id":"levelo_inurba_marseille","lat":43.240726,"lon":5.377603,"is_reserved":false,"is_disabled":false,"rental_uris":{"android":"levelo://app?vid=1470c458-1cbe-47f6-9c96-a606b0616e15","ios":"levelo://app?vid=1470c458-1cbe-47f6-9c96-a606b0616e15"},"vehicle_type_id":"4","last_reported":1751627380,"current_range_meters":22400,"station_id":"ce4bhnp2rcd13ifvqgvg","pricing_plan_id":"cebpf4jnsgd1na2vs0mg"},{"bike_id":"ef904d04-35f8-49f6-bb3e-766e4fcad205","system_id":"levelo_inurba_marseille","lat":43.30801,"lon":5.43526,"is_reserved":false,"is_disabled":false,"rental_uris":{"android":"levelo://app?vid=ef904d04-35f8-49f6-bb3e-766e4fcad205","ios":"levelo://app?vid=ef904d04-35f8-49f6-bb3e-766e4fcad205"},"vehicle_type_id":"4","last_reported":1751627380,"current_range_meters":22400,"station_id":"ce4bhph2rcd13ifvqheg","pricing_plan_id":"cebpf4jnsgd1na2vs0mg"},{"bike_id":"5ab5ebc1-9843-493a-b04c-b3a3d072652b","system_id":"levelo_inurba_marseille","lat":43.324779,"lon":5.365543,"is_reserved":false,"is_disabled":false,"rental_uris":{"android":"levelo://app?vid=5ab5ebc1-9843-493a-b04c-b3a3d072652b","ios":"levelo://app?vid=5ab5ebc1-9843-493a-b04c-b3a3d072652b"},"vehicle_type_id":"4","last_reported":1751627380,"current_range_meters":22400,"station_id":"ce4bhs12rcd13ifvqhvg","pricing_plan_id":"cebpf4jnsgd1na2vs0mg"},{"bike_id":"208f3ca8-5ae1-4afa-bf93-2fb945fa389b","system_id":"levelo_inurba_marseille","lat":43.230616,"lon":5.354886,"is_reserved":false,"is_disabled":false,"rental_uris":{"android":"levelo://app?vid=208f3ca8-5ae1-4afa-bf93-2fb945fa389b","ios":"levelo://app?vid=208f3ca8-5ae1-4afa-bf93-2fb945fa389b"},"vehicle_type_id":"4","last_reported":1751627380,"current_range_meters":22400,"station_id":"cpo3342slgdg3j2ifvpg","pricing_plan_id":"cebpf4jnsgd1na2vs0mg"},{"bike_id":"2ada1317-c2ce-4488-a0b8-84f07d933f1c","system_id":"levelo_inurba_marseille","lat":43.24164,"lon":5.36394,"is_reserved":false,"is_disabled":false,"rental_uris":{"android":"levelo://app?vid=2ada1317-c2ce-4488-a0b8-84f07d933f1c","ios":"levelo://app?vid=2ada1317-c2ce-4488-a0b8-84f07d933f1c"},"vehicle_type_id":"4","last_reported":1751627380,"current_range_meters":22400,"station_id":"cpo36qri1sfpv3e86is0","pricing_plan_id":"cebpf4jnsgd1na2vs0mg"},{"bike_id":"e449aa29-cae1-4432-9aec-dedc13360b20","system_id":"levelo_inurba_marseille","lat":43.211926,"lon":5.350684,"is_reserved":false,"is_disabled":false,"rental_uris":{"android":"levelo://app?vid=e449aa29-cae1-4432-9aec-dedc13360b20","ios":"levelo://app?vid=e449aa29-cae1-4432-9aec-dedc13360b20"},"vehicle_type_id":"4","last_reported":1751627380,"current_range_meters":22400,"station_id":"st_cvj6sg6p6f1abm77japg","pricing_plan_id":"cebpf4jnsgd1na2vs0mg"},{"bike_id":"4f7eea09-5535-415e-bced-1b01a6eed81a","system_id":"levelo_inurba_marseille","lat":43.29843,"lon":5.36275,"is_reserved":false,"is_disabled":false,"rental_uris":{"android":"levelo://app?vid=4f7eea09-5535-415e-bced-1b01a6eed81a","ios":"levelo://app?vid=4f7eea09-5535-415e-bced-1b01a6eed81a"},"vehicle_type_id":"4","last_reported":1751627380,"current_range_meters":22800,"station_id":"ce4bgpp2rcd13ifvqc3g","pricing_plan_id":"cebpf4jnsgd1na2vs0mg"},{"bike_id":"3d0f29e5-1fd2-44c3-adf8-8c0f9f627c3b","system_id":"levelo_inurba_marseille","lat":43.30565,"lon":5.36703,"is_reserved":false,"is_disabled":false,"rental_uris":{"android":"levelo://app?vid=3d0f29e5-1fd2-44c3-adf8-8c0f9f627c3b","ios":"levelo://app?vid=3d0f29e5-1fd2-44c3-adf8-8c0f9f627c3b"},"vehicle_type_id":"4","last_reported":1751627380,"current_range_meters":22800,"station_id":"ce4bgrp2rcd13ifvqc9g","pricing_plan_id":"cebpf4jnsgd1na2vs0mg"},{"bike_id":"f5ff58f7-3a25-4eab-8b14-fba83a08b39e","system_id":"levelo_inurba_marseille","lat":43.28265,"lon":5.35065,"is_reserved":false,"is_disabled":false,"rental_uris":{"android":"levelo://app?vid=f5ff58f7-3a25-4eab-8b14-fba83a08b39e","ios":"levelo://app?vid=f5ff58f7-3a25-4eab-8b14-fba83a08b39e"},"vehicle_type_id":"4","last_reported":1751627380,"current_range_meters":22800,"station_id":"ce4bhbp2rcd13ifvqerg","pricing_plan_id":"cebpf4jnsgd1na2vs0mg"},{"bike_id":"c2d32cd0-f6a3-4079-a22a-2c0d1d929362","system_id":"levelo_inurba_marseille","lat":43.26214,"lon":5.37447,"is_reserved":false,"is_disabled":false,"rental_uris":{"android":"levelo://app?vid=c2d32cd0-f6a3-4079-a22a-2c0d1d929362","ios":"levelo://app?vid=c2d32cd0-f6a3-4079-a22a-2c0d1d929362"},"vehicle_type_id":"4","last_reported":1751627380,"current_range_meters":22800,"station_id":"ce4bhgp2rcd13ifvqfc0","pricing_plan_id":"cebpf4jnsgd1na2vs0mg"},{"bike_id":"6c54b426-093d-4bb1-a47a-8fa79b5df267","system_id":"levelo_inurba_marseille","lat":43.24661,"lon":5.38165,"is_reserved":false,"is_disabled":false,"rental_uris":{"android":"levelo://app?vid=6c54b426-093d-4bb1-a47a-8fa79b5df267","ios":"levelo://app?vid=6c54b426-093d-4bb1-a47a-8fa79b5df267"},"vehicle_type_id":"4","last_reported":1751627380,"current_range_meters":22800,"station_id":"ce4bhih2rcd13ifvqfr0","pricing_plan_id":"cebpf4jnsgd1na2vs0mg"},{"bike_id":"87c4e338-d7a5-4fef-98a1-6901cbbdf006","system_id":"levelo_inurba_marseille","lat":43.24073,"lon":5.37758,"is_reserved":false,"is_disabled":false,"rental_uris":{"android":"levelo://app?vid=87c4e338-d7a5-4fef-98a1-6901cbbdf006","ios":"levelo://app?vid=87c4e338-d7a5-4fef-98a1-6901cbbdf006"},"vehicle_type_id":"4","last_reported":1751627380,"current_range_meters":22800,"station_id":"ce4bhnp2rcd13ifvqgvg","pricing_plan_id":"cebpf4jnsgd1na2vs0mg"},{"bike_id":"f09dc403-e8f5-40b0-ab8c-c3ff30a67cb9","system_id":"levelo_inurba_marseille","lat":43.32467,"lon":5.36561,"is_reserved":false,"is_disabled":false,"rental_uris":{"android":"levelo://app?vid=f09dc403-e8f5-40b0-ab8c-c3ff30a67cb9","ios":"levelo://app?vid=f09dc403-e8f5-40b0-ab8c-c3ff30a67cb9"},"vehicle_type_id":"4","last_reported":1751627380,"current_range_meters":22800,"station_id":"ce4bhs12rcd13ifvqhvg","pricing_plan_id":"cebpf4jnsgd1na2vs0mg"},{"bike_id":"8db73aa0-f73a-40ad-a7d7-c5d3f252ca03","system_id":"levelo_inurba_marseille","lat":43.23059,"lon":5.35486,"is_reserved":false,"is_disabled":false,"rental_uris":{"android":"levelo://app?vid=8db73aa0-f73a-40ad-a7d7-c5d3f252ca03","ios":"levelo://app?vid=8db73aa0-f73a-40ad-a7d7-c5d3f252ca03"},"vehicle_type_id":"4","last_reported":1751627380,"current_range_meters":22800,"station_id":"cpo3342slgdg3j2ifvpg","pricing_plan_id":"cebpf4jnsgd1na2vs0mg"},{"bike_id":"aad2184a-bfc0-43f6-9887-b4d62815b208","system_id":"levelo_inurba_marseille","lat":43.22934,"lon":5.35379,"is_reserved":false,"is_disabled":false,"rental_uris":{"android":"levelo://app?vid=aad2184a-bfc0-43f6-9887-b4d62815b208","ios":"levelo://app?vid=aad2184a-bfc0-43f6-9887-b4d62815b208"},"vehicle_type_id":"4","last_reported":1751627380,"current_range_meters":22800,"station_id":"cpo3532slgdg3j2ikp40","pricing_plan_id":"cebpf4jnsgd1na2vs0mg"},{"bike_id":"81d44c4d-eeb9-4b55-8de7-2cd437c0d9b7","system_id":"levelo_inurba_marseille","lat":43.29618,"lon":5.37704,"is_reserved":false,"is_disabled":false,"rental_uris":{"android":"levelo://app?vid=81d44c4d-eeb9-4b55-8de7-2cd437c0d9b7","ios":"levelo://app?vid=81d44c4d-eeb9-4b55-8de7-2cd437c0d9b7"},"vehicle_type_id":"4","last_reported":1751627380,"current_range_meters":23200,"station_id":"ce4bgi92rcd13ifvqb90","pricing_plan_id":"cebpf4jnsgd1na2vs0mg"},{"bike_id":"c10afbda-9fbc-4c6e-9e5e-f6ec22469682","system_id":"levelo_inurba_marseille","lat":43.29847,"lon":5.36269,"is_reserved":false,"is_disabled":false,"rental_uris":{"android":"levelo://app?vid=c10afbda-9fbc-4c6e-9e5e-f6ec22469682","ios":"levelo://app?vid=c10afbda-9fbc-4c6e-9e5e-f6ec22469682"},"vehicle_type_id":"4","last_reported":1751627380,"current_range_meters":23200,"station_id":"ce4bgpp2rcd13ifvqc3g","pricing_plan_id":"cebpf4jnsgd1na2vs0mg"},{"bike_id":"b789e3ac-ec2f-4330-9150-417168eadd79","system_id":"levelo_inurba_marseille","lat":43.30562,"lon":5.36532,"is_reserved":false,"is_disabled":false,"rental_uris":{"android":"levelo://app?vid=b789e3ac-ec2f-4330-9150-417168eadd79","ios":"levelo://app?vid=b789e3ac-ec2f-4330-9150-417168eadd79"},"vehicle_type_id":"4","last_reported":1751627380,"current_range_meters":23200,"station_id":"ce4bgs12rcd13ifvqcag","pricing_plan_id":"cebpf4jnsgd1na2vs0mg"},{"bike_id":"75f89193-4952-48a9-8b6d-0a5f0b26e78d","system_id":"levelo_inurba_marseille","lat":43.30796,"lon":5.38161,"is_reserved":false,"is_disabled":false,"rental_uris":{"android":"levelo://app?vid=75f89193-4952-48a9-8b6d-0a5f0b26e78d","ios":"levelo://app?vid=75f89193-4952-48a9-8b6d-0a5f0b26e78d"},"vehicle_type_id":"4","last_reported":1751627380,"current_range_meters":23200,"station_id":"ce4bgt12rcd13ifvqce0","pricing_plan_id":"cebpf4jnsgd1na2vs0mg"},{"bike_id":"42d2d9af-0f34-4ea1-b412-b761c595d919","system_id":"levelo_inurba_marseille","lat":43.28662,"lon":5.3867,"is_reserved":false,"is_disabled":false,"rental_uris":{"android":"levelo://app?vid=42d2d9af-0f34-4ea1-b412-b761c595d919","ios":"levelo://app?vid=42d2d9af-0f34-4ea1-b412-b761c595d919"},"vehicle_type_id":"4","last_reported":1751627380,"current_range_meters":23200,"station_id":"ce4bh492rcd13ifvqdug","pricing_plan_id":"cebpf4jnsgd1na2vs0mg"},{"bike_id":"bba3c151-51d5-49a6-9a0e-c10e6f4e5863","system_id":"levelo_inurba_marseille","lat":43.25828,"lon":5.3945,"is_reserved":false,"is_disabled":false,"rental_uris":{"android":"levelo://app?vid=bba3c151-51d5-49a6-9a0e-c10e6f4e5863","ios":"levelo://app?vid=bba3c151-51d5-49a6-9a0e-c10e6f4e5863"},"vehicle_type_id":"4","last_reported":1751627380,"current_range_meters":23200,"station_id":"ce4bhip2rcd13ifvqft0","pricing_plan_id":"cebpf4jnsgd1na2vs0mg"},{"bike_id":"03c801bb-5806-44b7-85ba-3ff8229c24fd","system_id":"levelo_inurba_marseille","lat":43.23161,"lon":5.43714,"is_reserved":false,"is_disabled":false,"rental_uris":{"android":"levelo://app?vid=03c801bb-5806-44b7-85ba-3ff8229c24fd","ios":"levelo://app?vid=03c801bb-5806-44b7-85ba-3ff8229c24fd"},"vehicle_type_id":"4","last_reported":1751627380,"current_range_meters":23200,"station_id":"ce4bhmp2rcd13ifvqgog","pricing_plan_id":"cebpf4jnsgd1na2vs0mg"},{"bike_id":"bbe0653d-ec34-46d5-8ff0-6e1cce22e97c","system_id":"levelo_inurba_marseille","lat":43.28699,"lon":5.39981,"is_reserved":false,"is_disabled":false,"rental_uris":{"android":"levelo://app?vid=bbe0653d-ec34-46d5-8ff0-6e1cce22e97c","ios":"levelo://app?vid=bbe0653d-ec34-46d5-8ff0-6e1cce22e97c"},"vehicle_type_id":"4","last_reported":1751627380,"current_range_meters":23200,"station_id":"ce4bho92rcd13ifvqh3g","pricing_plan_id":"cebpf4jnsgd1na2vs0mg"},{"bike_id":"355c4347-d492-4426-9595-eb2fa42f1c20","system_id":"levelo_inurba_marseille","lat":43.22503,"lon":5.34779,"is_reserved":false,"is_disabled":false,"rental_uris":{"android":"levelo://app?vid=355c4347-d492-4426-9595-eb2fa42f1c20","ios":"levelo://app?vid=355c4347-d492-4426-9595-eb2fa42f1c20"},"vehicle_type_id":"4","last_reported":1751627380,"current_range_meters":23200,"station_id":"st_cvj5dfep6f1abm77gieg","pricing_plan_id":"cebpf4jnsgd1na2vs0mg"},{"bike_id":"8bf0d992-d2a0-428e-940a-091ee9b7c2a4","system_id":"levelo_inurba_marseille","lat":43.21212,"lon":5.35074,"is_reserved":false,"is_disabled":false,"rental_uris":{"android":"levelo://app?vid=8bf0d992-d2a0-428e-940a-091ee9b7c2a4","ios":"levelo://app?vid=8bf0d992-d2a0-428e-940a-091ee9b7c2a4"},"vehicle_type_id":"4","last_reported":1751627380,"current_range_meters":23200,"station_id":"st_cvj6sg6p6f1abm77japg","pricing_plan_id":"cebpf4jnsgd1na2vs0mg"},{"bike_id":"452e8211-4f44-45d0-814a-3e9e25b8c44e","system_id":"levelo_inurba_marseille","lat":43.21191,"lon":5.35075,"is_reserved":false,"is_disabled":false,"rental_uris":{"android":"levelo://app?vid=452e8211-4f44-45d0-814a-3e9e25b8c44e","ios":"levelo://app?vid=452e8211-4f44-45d0-814a-3e9e25b8c44e"},"vehicle_type_id":"4","last_reported":1751627380,"current_range_meters":23200,"station_id":"st_cvj6sg6p6f1abm77japg","pricing_plan_id":"cebpf4jnsgd1na2vs0mg"},{"bike_id":"1b11b844-a49d-4378-bea5-b8ccd3303cb0","system_id":"levelo_inurba_marseille","lat":43.30135,"lon":5.39864,"is_reserved":false,"is_disabled":false,"rental_uris":{"android":"levelo://app?vid=1b11b844-a49d-4378-bea5-b8ccd3303cb0","ios":"levelo://app?vid=1b11b844-a49d-4378-bea5-b8ccd3303cb0"},